Start,TimeUS,Roll,Pitch,Yaw,Alt,Lat,Lng,Q1,Q2,Q3,Q4,Category
2019-04-03 23:04:21.32,44735432, 0.0, 0.0, 353.0, 584.090026855, -35.363261, 149.1652299, 0.998134791851, 0.0, 0.0, -0.0610485821962,0
2019-04-03 23:04:21.41,44835392, 0.0, 0.0, 353.0, 584.090026855, -35.363261, 149.1652299, 0.998134791851, 0.0, 0.0, -0.0610485821962,0
2019-04-03 23:04:21.51,44935352, 0.0, 0.0, 353.0, 584.090026855, -35.363261, 149.1652299, 0.998134791851, 0.0, 0.0, -0.0610485821962,0
2019-04-03 23:04:21.61,45035312, 0.0, 0.0, 353.0, 584.090026855, -35.363261, 149.1652299, 0.998134791851, 0.0, 0.0, -0.0610485821962,0
2019-04-03 23:04:21.71,45135272, 0.0, 0.0, 353.0, 584.090026855, -35.363261, 149.1652299, 0.998134791851, 0.0, 0.0, -0.0610485821962,0
2019-04-03 23:04:21.81,45235232, 0.0, 0.0, 353.0, 584.090026855, -35.363261, 149.1652299, 0.998134791851, 0.0, 0.0, -0.0610485821962,0
2019-04-03 23:04:21.91,45335192, 0.0, 0.0, 353.0, 584.090026855, -35.363261, 149.1652299, 0.998134791851, 0.0, 0.0, -0.0610485821962,0
2019-04-03 23:04:22.01,45435152, 0.0, 0.0, 353.0, 584.090026855, -35.363261, 149.1652299, 0.998134791851, 0.0, 0.0, -0.0610485821962,0
2019-04-03 23:04:22.11,45535112, 0.0, 0.0, 353.0, 584.090026855, -35.363261, 149.1652299, 0.998134791851, 0.0, 0.0, -0.0610485821962,0
2019-04-03 23:04:22.21,45635072, 0.0, 0.0, 353.0, 584.090026855, -35.363261, 149.1652299, 0.998134791851, 0.0, 0.0, -0.0610485821962,0
2019-04-03 23:04:22.31,45735032, 0.0, 0.0, 353.0, 584.090026855, -35.363261, 149.1652299, 0.998134791851, 0.0, 0.0, -0.0610485821962,0
2019-04-03 23:04:22.41,45834992, 0.0, 0.0, 353.0, 584.090026855, -35.363261, 149.1652299, 0.998134791851, 0.0, 0.0, -0.0610485821962,0
2019-04-03 23:04:22.51,45934952, 0.0, 0.0, 353.0, 584.090026855, -35.363261, 149.1652299, 0.998134791851, 0.0, 0.0, -0.0610485821962,0
2019-04-03 23:04:22.61,46034912, 0.0, 0.0, 353.0, 584.090026855, -35.363261, 149.1652299, 0.998134791851, 0.0, 0.0, -0.0610485821962,0
2019-04-03 23:04:22.71,46134872, 0.0, 0.0, 353.0, 584.090026855, -35.363261, 149.1652299, 0.998134791851, 0.0, 0.0, -0.0610485821962,0
2019-04-03 23:04:22.81,46234832, 0.0, 0.0, 353.0, 584.090026855, -35.363261, 149.1652299, 0.998134791851, 0.0, 0.0, -0.0610485821962,0
2019-04-03 23:04:22.91,46334792, 0.0, 0.0, 353.0, 584.090026855, -35.363261, 149.1652299, 0.998134791851, 0.0, 0.0, -0.0610485821962,0
2019-04-03 23:04:23.01,46434752, 0.0, 0.0, 353.0, 584.090026855, -35.363261, 149.1652299, 0.998134791851, 0.0, 0.0, -0.0610485821962,0
2019-04-03 23:04:23.11,46534712, 0.0, 0.0, 353.0, 584.090026855, -35.363261, 149.1652299, 0.998134791851, 0.0, 0.0, -0.0610485821962,0
2019-04-03 23:04:23.21,46634672, 0.0, 0.0, 353.0, 584.090026855, -35.363261, 149.1652299, 0.998134791851, 0.0, 0.0, -0.0610485821962,0
2019-04-03 23:04:23.32,46735465, 0.0, 0.0, 353.0, 584.090026855, -35.363261, 149.1652299, 0.998134791851, 0.0, 0.0, -0.0610485821962,0
2019-04-03 23:04:23.42,46835425, 0.0, 0.0, 353.0, 584.090026855, -35.363261, 149.1652299, 0.998134791851, 0.0, 0.0, -0.0610485821962,0
2019-04-03 23:04:23.51,46935385, 0.0, 0.0, 353.0, 584.090026855, -35.363261, 149.1652299, 0.998134791851, 0.0, 0.0, -0.0610485821962,0
2019-04-03 23:04:23.61,47035345, 0.0, 0.0, 353.0, 584.090026855, -35.363261, 149.1652299, 0.998134791851, 0.0, 0.0, -0.0610485821962,0
2019-04-03 23:04:23.71,47135305, 0.0, 0.0, 353.0, 584.090026855, -35.363261, 149.1652299, 0.998134791851, 0.0, 0.0, -0.0610485821962,0
2019-04-03 23:04:23.81,47235265, 0.0, 0.0, 353.0, 584.090026855, -35.363261, 149.1652299, 0.998134791851, 0.0, 0.0, -0.0610485821962,0
2019-04-03 23:04:23.91,47335225, 0.0, 0.0, 353.0, 584.090026855, -35.363261, 149.1652299, 0.998134791851, 0.0, 0.0, -0.0610485821962,0
2019-04-03 23:04:24.01,47435185, 0.0, 0.0, 353.0, 584.090026855, -35.363261, 149.1652299, 0.998134791851, 0.0, 0.0, -0.0610485821962,0
2019-04-03 23:04:24.11,47535145, 0.0, 0.0, 353.0, 584.090026855, -35.363261, 149.1652299, 0.998134791851, 0.0, 0.0, -0.0610485821962,0
2019-04-03 23:04:24.21,47635105, 0.0, 0.0, 353.0, 584.090026855, -35.363261, 149.1652299, 0.998134791851, 0.0, 0.0, -0.0610485821962,0
2019-04-03 23:04:24.31,47735065, 0.0, 0.0, 353.0, 584.090026855, -35.363261, 149.1652299, 0.998134791851, 0.0, 0.0, -0.0610485821962,0
2019-04-03 23:04:24.41,47835025, 0.0, 0.0, 353.0, 584.090026855, -35.363261, 149.1652299, 0.998134791851, 0.0, 0.0, -0.0610485821962,0
2019-04-03 23:04:24.51,47934985, 0.0, 0.0, 353.0, 584.090026855, -35.363261, 149.1652299, 0.998134791851, 0.0, 0.0, -0.0610485821962,0
2019-04-03 23:04:24.61,48034945, 0.0, 0.0, 353.0, 584.090026855, -35.363261, 149.1652299, 0.998134791851, 0.0, 0.0, -0.0610485821962,0
2019-04-03 23:04:24.71,48134905, 0.0, 0.0, 353.0, 584.090026855, -35.363261, 149.1652299, 0.998134791851, 0.0, 0.0, -0.0610485821962,0
2019-04-03 23:04:24.81,48234865, 0.0, 0.0, 353.0, 584.090026855, -35.363261, 149.1652299, 0.998134791851, 0.0, 0.0, -0.0610485821962,0
2019-04-03 23:04:24.91,48334825, 0.0, 0.0, 353.0, 584.090026855, -35.363261, 149.1652299, 0.998134791851, 0.0, 0.0, -0.0610485821962,0
2019-04-03 23:04:25.01,48434785, 0.0, 0.0, 353.0, 584.090026855, -35.363261, 149.1652299, 0.998134791851, 0.0, 0.0, -0.0610485821962,0
2019-04-03 23:04:25.11,48534745, 0.0, 0.0, 353.0, 584.090026855, -35.363261, 149.1652299, 0.998134791851, 0.0, 0.0, -0.0610485821962,0
2019-04-03 23:04:25.21,48634705, 0.0, 0.0, 353.0, 584.090026855, -35.363261, 149.1652299, 0.998134791851, 0.0, 0.0, -0.0610485821962,0
2019-04-03 23:04:25.31,48734665, 0.0, 0.0, 353.0, 584.090026855, -35.363261, 149.1652299, 0.998134791851, 0.0, 0.0, -0.0610485821962,0
2019-04-03 23:04:25.42,48835458, 0.0, 0.0, 353.0, 584.090026855, -35.363261, 149.1652299, 0.998134791851, 0.0, 0.0, -0.0610485821962,0
2019-04-03 23:04:25.52,48935418, 0.0, 0.0, 353.0, 584.090026855, -35.363261, 149.1652299, 0.998134791851, 0.0, 0.0, -0.0610485821962,0
2019-04-03 23:04:25.61,49035378, 0.0, 0.0, 353.0, 584.090026855, -35.363261, 149.1652299, 0.998134791851, 0.0, 0.0, -0.0610485821962,0
2019-04-03 23:04:25.71,49135338, 0.0, 0.0, 353.0, 584.090026855, -35.363261, 149.1652299, 0.998134791851, 0.0, 0.0, -0.0610485821962,0
2019-04-03 23:04:25.81,49235298, 0.0, 0.0, 353.0, 584.090026855, -35.363261, 149.1652299, 0.998134791851, 0.0, 0.0, -0.0610485821962,0
2019-04-03 23:04:25.91,49335258, 0.0, 0.0, 353.0, 584.090026855, -35.363261, 149.1652299, 0.998134791851, 0.0, 0.0, -0.0610485821962,0
2019-04-03 23:04:26.01,49435218, 0.0, 0.0, 353.0, 584.090026855, -35.363261, 149.1652299, 0.998134791851, 0.0, 0.0, -0.0610485821962,0
2019-04-03 23:04:26.11,49535178, 0.0, 0.0, 353.0, 584.090026855, -35.363261, 149.1652299, 0.998134791851, 0.0, 0.0, -0.0610485821962,0
2019-04-03 23:04:26.21,49635138, 0.0, 0.0, 353.0, 584.090026855, -35.363261, 149.1652299, 0.998134791851, 0.0, 0.0, -0.0610485821962,0
2019-04-03 23:04:26.31,49735098, 0.0, 0.0, 353.0, 584.090026855, -35.363261, 149.1652299, 0.998134791851, 0.0, 0.0, -0.0610485821962,0
2019-04-03 23:04:26.41,49835058, 0.0, 0.0, 353.0, 584.090026855, -35.363261, 149.1652299, 0.998134791851, 0.0, 0.0, -0.0610485821962,0
2019-04-03 23:04:26.51,49935018, 0.0, 0.0, 353.0, 584.090026855, -35.363261, 149.1652299, 0.998134791851, 0.0, 0.0, -0.0610485821962,0
2019-04-03 23:04:26.61,50034978, 0.0, 0.0, 353.0, 584.090026855, -35.363261, 149.1652299, 0.998134791851, 0.0, 0.0, -0.0610485821962,0
2019-04-03 23:04:26.71,50134938, 0.0, 0.0, 353.0, 584.090026855, -35.363261, 149.1652299, 0.998134791851, 0.0, 0.0, -0.0610485821962,0
2019-04-03 23:04:26.81,50234898, 0.0, 0.0, 353.0, 584.090026855, -35.363261, 149.1652299, 0.998134791851, 0.0, 0.0, -0.0610485821962,0
2019-04-03 23:04:26.91,50334858, 0.0, 0.0, 353.0, 584.090026855, -35.363261, 149.1652299, 0.998134791851, 0.0, 0.0, -0.0610485821962,0
2019-04-03 23:04:27.01,50434818, 0.0, 0.0, 353.0, 584.090026855, -35.363261, 149.1652299, 0.998134791851, 0.0, 0.0, -0.0610485821962,0
2019-04-03 23:04:27.11,50534778, 0.0, 0.0, 353.0, 584.090026855, -35.363261, 149.1652299, 0.998134791851, 0.0, 0.0, -0.0610485821962,0
2019-04-03 23:04:27.21,50634738, 0.0, 0.0, 353.0, 584.090026855, -35.363261, 149.1652299, 0.998134791851, 0.0, 0.0, -0.0610485821962,0
2019-04-03 23:04:27.31,50734698, 0.0, 0.0, 353.0, 584.090026855, -35.363261, 149.1652299, 0.998134791851, 0.0, 0.0, -0.0610485821962,0
2019-04-03 23:04:27.41,50834658, 0.0, 0.0, 353.0, 584.090026855, -35.363261, 149.1652299, 0.998134791851, 0.0, 0.0, -0.0610485821962,0
2019-04-03 23:04:27.52,50935451, 0.0, 0.0, 353.0, 584.090026855, -35.363261, 149.1652299, 0.998134791851, 0.0, 0.0, -0.0610485821962,0
2019-04-03 23:04:27.62,51035411, 0.0, 0.0, 353.0, 584.090026855, -35.363261, 149.1652299, 0.998134791851, 0.0, 0.0, -0.0610485821962,0
2019-04-03 23:04:27.71,51135371, 0.0, 0.0, 353.0, 584.090026855, -35.363261, 149.1652299, 0.998134791851, 0.0, 0.0, -0.0610485821962,0
2019-04-03 23:04:27.81,51235331, 0.0, 0.0, 353.0, 584.090026855, -35.363261, 149.1652299, 0.998134791851, 0.0, 0.0, -0.0610485821962,0
2019-04-03 23:04:27.91,51335291, 0.0, 0.0, 353.0, 584.090026855, -35.363261, 149.1652299, 0.998134791851, 0.0, 0.0, -0.0610485821962,0
2019-04-03 23:04:28.01,51435251, 0.0, 0.0, 353.0, 584.090026855, -35.363261, 149.1652299, 0.998134791851, 0.0, 0.0, -0.0610485821962,0
2019-04-03 23:04:28.11,51535211, 0.0, 0.0, 353.0, 584.090026855, -35.363261, 149.1652299, 0.998134791851, 0.0, 0.0, -0.0610485821962,0
2019-04-03 23:04:28.21,51635171, 0.0, 0.0, 353.0, 584.090026855, -35.363261, 149.1652299, 0.998134791851, 0.0, 0.0, -0.0610485821962,0
2019-04-03 23:04:28.31,51735131, 0.0, 0.0, 353.0, 584.090026855, -35.363261, 149.1652299, 0.998134791851, 0.0, 0.0, -0.0610485821962,0
2019-04-03 23:04:28.41,51835091, 0.0, 0.0, 353.0, 584.090026855, -35.363261, 149.1652299, 0.998134791851, 0.0, 0.0, -0.0610485821962,0
2019-04-03 23:04:28.51,51935051, 0.0, 0.0, 353.0, 584.090026855, -35.363261, 149.1652299, 0.998134791851, 0.0, 0.0, -0.0610485821962,0
2019-04-03 23:04:28.61,52035011, 0.0, 0.0, 353.0, 584.090026855, -35.363261, 149.1652299, 0.998134791851, 0.0, 0.0, -0.0610485821962,0
2019-04-03 23:04:28.71,52134971, 0.0, 0.0, 353.0, 584.090026855, -35.363261, 149.1652299, 0.998134791851, 0.0, 0.0, -0.0610485821962,0
2019-04-03 23:04:28.81,52234931, 0.0, 0.0, 353.0, 584.090026855, -35.363261, 149.1652299, 0.998134791851, 0.0, 0.0, -0.0610485821962,0
2019-04-03 23:04:28.91,52334891, 0.0, 0.0, 353.0, 584.090026855, -35.363261, 149.1652299, 0.998134791851, 0.0, 0.0, -0.0610485821962,0
2019-04-03 23:04:29.01,52434851, 0.0, 0.0, 353.0, 584.090026855, -35.363261, 149.1652299, 0.998134791851, 0.0, 0.0, -0.0610485821962,0
2019-04-03 23:04:29.11,52534811, 0.0, 0.0, 353.0, 584.090026855, -35.363261, 149.1652299, 0.998134791851, 0.0, 0.0, -0.0610485821962,0
2019-04-03 23:04:29.21,52634771, 0.0, 0.0, 353.0, 584.090026855, -35.363261, 149.1652299, 0.998134791851, 0.0, 0.0, -0.0610485821962,0
2019-04-03 23:04:29.31,52734731, 0.0, 0.0, 353.0, 584.090026855, -35.363261, 149.1652299, 0.998134791851, 0.0, 0.0, -0.0610485821962,0
2019-04-03 23:04:29.41,52834691, 0.0, 0.0, 353.0, 584.090026855, -35.363261, 149.1652299, 0.998134791851, 0.0, 0.0, -0.0610485821962,0
2019-04-03 23:04:29.51,52934651, 0.0, 0.0, 353.0, 584.090026855, -35.363261, 149.1652299, 0.998134791851, 0.0, 0.0, -0.0610485821962,0
2019-04-03 23:04:29.62,53035444, 0.0, 0.0, 353.0, 584.090026855, -35.363261, 149.1652299, 0.998134791851, 0.0, 0.0, -0.0610485821962,0
2019-04-03 23:04:29.72,53135404, 0.0, 0.0, 353.0, 584.090026855, -35.363261, 149.1652299, 0.998134791851, 0.0, 0.0, -0.0610485821962,0
2019-04-03 23:04:29.81,53235364, 0.0, 0.0, 353.0, 584.090026855, -35.363261, 149.1652299, 0.998134791851, 0.0, 0.0, -0.0610485821962,0
2019-04-03 23:04:29.91,53335324, 0.0, 0.0, 353.0, 584.090026855, -35.363261, 149.1652299, 0.998134791851, 0.0, 0.0, -0.0610485821962,0
2019-04-03 23:04:30.01,53435284, 0.0, 0.0, 353.0, 584.090026855, -35.363261, 149.1652299, 0.998134791851, 0.0, 0.0, -0.0610485821962,0
2019-04-03 23:04:30.11,53535244, 0.0, 0.0, 353.0, 584.090026855, -35.363261, 149.1652299, 0.998134791851, 0.0, 0.0, -0.0610485821962,0
2019-04-03 23:04:30.21,53635204, 0.0, 0.0, 353.0, 584.090026855, -35.363261, 149.1652299, 0.998134791851, 0.0, 0.0, -0.0610485821962,0
2019-04-03 23:04:30.31,53735164, 0.0, 0.0, 353.0, 584.090026855, -35.363261, 149.1652299, 0.998134791851, 0.0, 0.0, -0.0610485821962,0
2019-04-03 23:04:30.41,53835124, 0.0, 0.0, 353.0, 584.090026855, -35.363261, 149.1652299, 0.998134791851, 0.0, 0.0, -0.0610485821962,0
2019-04-03 23:04:30.51,53935084, 0.0, 0.0, 353.0, 584.090026855, -35.363261, 149.1652299, 0.998134791851, 0.0, 0.0, -0.0610485821962,0
2019-04-03 23:04:30.61,54035044, 0.0, 0.0, 353.0, 584.090026855, -35.363261, 149.1652299, 0.998134791851, 0.0, 0.0, -0.0610485821962,0
2019-04-03 23:04:30.71,54135004, 0.0, 0.0, 353.0, 584.090026855, -35.363261, 149.1652299, 0.998134791851, 0.0, 0.0, -0.0610485821962,0
2019-04-03 23:04:30.81,54234964, 0.0, 0.0, 353.0, 584.090026855, -35.363261, 149.1652299, 0.998134791851, 0.0, 0.0, -0.0610485821962,0
2019-04-03 23:04:30.91,54334924, 0.0, 0.0, 353.0, 584.090026855, -35.363261, 149.1652299, 0.998134791851, 0.0, 0.0, -0.0610485821962,0
2019-04-03 23:04:31.01,54434884, 0.0, 0.0, 353.0, 584.090026855, -35.363261, 149.1652299, 0.998134791851, 0.0, 0.0, -0.0610485821962,0
2019-04-03 23:04:31.11,54534844, 0.0, 0.0, 353.0, 584.090026855, -35.363261, 149.1652299, 0.998134791851, 0.0, 0.0, -0.0610485821962,0
2019-04-03 23:04:33.01,56434917, 0.0, 0.0, 353.0, 584.090026855, -35.363261, 149.1652299, 0.998134791851, 0.0, 0.0, -0.0610485821962,0
2019-04-03 23:04:33.11,56534877, 0.0, 0.0, 353.0, 584.090026855, -35.363261, 149.1652299, 0.998134791851, 0.0, 0.0, -0.0610485821962,0
2019-04-03 23:04:33.21,56634837, 0.0, 0.0, 353.0, 584.090026855, -35.363261, 149.1652299, 0.998134791851, 0.0, 0.0, -0.0610485821962,0
2019-04-03 23:04:33.31,56734797, 0.0, 0.0, 353.0, 584.090026855, -35.363261, 149.1652299, 0.998134791851, 0.0, 0.0, -0.0610485821962,0
2019-04-03 23:04:33.41,56834757, 0.0, 0.0, 353.0, 584.090026855, -35.363261, 149.1652299, 0.998134791851, 0.0, 0.0, -0.0610485821962,0
2019-04-03 23:04:33.51,56934717, 0.0, 0.0, 353.0, 584.090026855, -35.363261, 149.1652299, 0.998134791851, 0.0, 0.0, -0.0610485821962,0
2019-04-03 23:04:33.61,57034677, 0.0, 0.0, 353.0, 584.090026855, -35.363261, 149.1652299, 0.998134791851, 0.0, 0.0, -0.0610485821962,0
2019-04-03 23:04:33.72,57135470, 0.0, 0.0, 353.0, 584.090026855, -35.363261, 149.1652299, 0.998134791851, 0.0, 0.0, -0.0610485821962,0
2019-04-03 23:04:33.82,57235430, 0.0, 0.0, 353.0, 584.090026855, -35.363261, 149.1652299, 0.998134791851, 0.0, 0.0, -0.0610485821962,0
2019-04-03 23:04:33.91,57335390, 0.0, 0.0, 353.0, 584.090026855, -35.363261, 149.1652299, 0.998134791851, 0.0, 0.0, -0.0610485821962,0
2019-04-03 23:04:34.01,57435350, 0.0, 0.0, 353.0, 584.090026855, -35.363261, 149.1652299, 0.998134791851, 0.0, 0.0, -0.0610485821962,0
2019-04-03 23:04:34.11,57535310, 0.0, 0.0, 353.0, 584.090026855, -35.363261, 149.1652299, 0.998134791851, 0.0, 0.0, -0.0610485821962,0
2019-04-03 23:04:34.21,57635270, 0.0, 0.0, 353.0, 584.090026855, -35.363261, 149.1652299, 0.998134791851, 0.0, 0.0, -0.0610485821962,0
2019-04-03 23:04:34.31,57735230, 0.0, 0.0, 353.0, 584.090026855, -35.363261, 149.1652299, 0.998134791851, 0.0, 0.0, -0.0610485821962,0
2019-04-03 23:04:34.41,57835190, 0.0, 0.0, 353.0, 584.090026855, -35.363261, 149.1652299, 0.998134791851, 0.0, 0.0, -0.0610485821962,0
2019-04-03 23:04:34.51,57935150, 0.0, 0.0, 353.0, 584.090026855, -35.363261, 149.1652299, 0.998134791851, 0.0, 0.0, -0.0610485821962,0
2019-04-03 23:04:34.61,58035110, 0.0, 0.0, 353.0, 584.090026855, -35.363261, 149.1652299, 0.998134791851, 0.0, 0.0, -0.0610485821962,0
2019-04-03 23:04:34.71,58135070, 0.0, 0.0, 353.0, 584.090026855, -35.363261, 149.1652299, 0.998134791851, 0.0, 0.0, -0.0610485821962,0
2019-04-03 23:04:34.81,58235030, 0.0, 0.0, 353.0, 584.090026855, -35.363261, 149.1652299, 0.998134791851, 0.0, 0.0, -0.0610485821962,0
2019-04-03 23:04:34.91,58334990, 0.0, 0.0, 353.0, 584.090026855, -35.363261, 149.1652299, 0.998134791851, 0.0, 0.0, -0.0610485821962,0
2019-04-03 23:04:35.01,58434950, 0.0, 0.0, 353.0, 584.090026855, -35.363261, 149.1652299, 0.998134791851, 0.0, 0.0, -0.0610485821962,0
2019-04-03 23:04:35.11,58534910, 0.0, 0.0, 353.0, 584.090026855, -35.363261, 149.1652299, 0.998134791851, 0.0, 0.0, -0.0610485821962,0
2019-04-03 23:04:35.21,58634870, 0.0, 0.0, 353.0, 584.090026855, -35.363261, 149.1652299, 0.998134791851, 0.0, 0.0, -0.0610485821962,0
2019-04-03 23:04:35.31,58734830, 0.0, 0.0, 353.0, 584.090026855, -35.363261, 149.1652299, 0.998134791851, 0.0, 0.0, -0.0610485821962,0
2019-04-03 23:04:35.41,58834790, 0.0, 0.0, 353.0, 584.090026855, -35.363261, 149.1652299, 0.998134791851, 0.0, 0.0, -0.0610485821962,0
2019-04-03 23:04:35.51,58934750, 0.0, 0.0, 353.0, 584.090026855, -35.363261, 149.1652299, 0.998134791851, 0.0, 0.0, -0.0610485821962,0
2019-04-03 23:04:35.61,59034710, 0.0, 0.0, 353.0, 584.090026855, -35.363261, 149.1652299, 0.998134791851, 0.0, 0.0, -0.0610485821962,0
2019-04-03 23:04:35.71,59134670, 0.0, 0.0, 353.0, 584.090026855, -35.363261, 149.1652299, 0.998134791851, 0.0, 0.0, -0.0610485821962,0
2019-04-03 23:04:35.82,59235463, 0.0, 0.0, 353.0, 584.090026855, -35.363261, 149.1652299, 0.998134791851, 0.0, 0.0, -0.0610485821962,0
2019-04-03 23:04:35.92,59335423, 0.0, 0.0, 353.0, 584.090026855, -35.363261, 149.1652299, 0.998134791851, 0.0, 0.0, -0.0610485821962,0
2019-04-03 23:04:36.01,59435383, 0.0, 0.0, 353.0, 584.090026855, -35.363261, 149.1652299, 0.998134791851, 0.0, 0.0, -0.0610485821962,0
2019-04-03 23:04:36.11,59535343, 0.0, 0.0, 353.0, 584.090026855, -35.363261, 149.1652299, 0.998134791851, 0.0, 0.0, -0.0610485821962,0
2019-04-03 23:04:36.21,59635303, 0.0, 0.0, 353.0, 584.090026855, -35.363261, 149.1652299, 0.998134791851, 0.0, 0.0, -0.0610485821962,0
2019-04-03 23:04:36.31,59735263, 0.0, 0.0, 353.0, 584.090026855, -35.363261, 149.1652299, 0.998134791851, 0.0, 0.0, -0.0610485821962,0
2019-04-03 23:04:36.41,59835223, 0.0, 0.0, 353.0, 584.090026855, -35.363261, 149.1652299, 0.998134791851, 0.0, 0.0, -0.0610485821962,0
2019-04-03 23:04:36.51,59935183, 0.0, 0.0, 353.0, 584.090026855, -35.363261, 149.1652299, 0.998134791851, 0.0, 0.0, -0.0610485821962,0
2019-04-03 23:04:36.61,60035143, 0.0, 0.0, 353.0, 584.090026855, -35.363261, 149.1652299, 0.998134791851, 0.0, 0.0, -0.0610485821962,0
2019-04-03 23:04:36.71,60135103, 0.0, 0.0, 353.0, 584.090026855, -35.363261, 149.1652299, 0.998134791851, 0.0, 0.0, -0.0610485821962,0
2019-04-03 23:04:36.81,60235063, 0.0, 0.0, 353.0, 584.090026855, -35.363261, 149.1652299, 0.998134791851, 0.0, 0.0, -0.0610485821962,0
2019-04-03 23:04:36.91,60335023, 0.0, 0.0, 353.0, 584.090026855, -35.363261, 149.1652299, 0.998134791851, 0.0, 0.0, -0.0610485821962,0
2019-04-03 23:04:37.01,60434983, 0.0, 0.0, 353.0, 584.090026855, -35.363261, 149.1652299, 0.998134791851, 0.0, 0.0, -0.0610485821962,0
2019-04-03 23:04:37.11,60534943, 0.0, 0.0, 353.0, 584.090026855, -35.363261, 149.1652299, 0.998134791851, 0.0, 0.0, -0.0610485821962,0
2019-04-03 23:04:37.21,60634903, 0.0, 0.0, 353.0, 584.090026855, -35.363261, 149.1652299, 0.998134791851, 0.0, 0.0, -0.0610485821962,0
2019-04-03 23:04:37.31,60734863, 0.0, 0.0, 353.0, 584.090026855, -35.363261, 149.1652299, 0.998134791851, 0.0, 0.0, -0.0610485821962,0
2019-04-03 23:04:37.41,60834823, 0.0, 0.0, 353.0, 584.090026855, -35.363261, 149.1652299, 0.998134791851, 0.0, 0.0, -0.0610486268997,0
2019-04-03 23:04:37.51,60934783, 0.0, 0.0, 353.0, 584.090026855, -35.363261, 149.1652299, 0.998134791851, 0.0, 0.0, -0.0610486753285,0
2019-04-03 23:04:37.61,61034743, 0.0, 0.0, 353.0, 584.090026855, -35.363261, 149.1652299, 0.998134791851, 0.0, 0.0, -0.0610486753285,0
2019-04-03 23:04:37.71,61134703, 0.0, 0.0, 353.0, 584.090026855, -35.363261, 149.1652299, 0.998134791851, 0.0, 0.0, -0.0610486753285,0
2019-04-03 23:04:37.81,61234663, 0.0, 0.0, 353.0, 584.090026855, -35.363261, 149.1652299, 0.998134791851, 0.0, 0.0, -0.0610486641526,0
2019-04-03 23:04:37.92,61335456, 0.0, 0.0, 353.0, 584.090026855, -35.363261, 149.1652299, 0.998134791851, 0.0, 0.0, -0.0610486753285,0
2019-04-03 23:04:38.02,61435416, 0.0, 0.0, 353.0, 584.090026855, -35.363261, 149.1652299, 0.998134791851, 0.0, 0.0, -0.0610486641526,0
2019-04-03 23:04:38.11,61535376, 0.0, 0.0, 353.0, 584.090026855, -35.363261, 149.1652299, 0.998134791851, 0.0, 0.0, -0.0610486753285,0
2019-04-03 23:04:38.21,61635336, 0.0, 0.0, 353.0, 584.099975586, -35.363261, 149.1652299, 0.998134791851, 0.0, 0.0, -0.0610486753285,0
2019-04-03 23:04:38.31,61735296, 0.0, 0.0, 353.0, 584.099975586, -35.363261, 149.1652299, 0.998134791851, 0.0, 0.0, -0.0610486753285,0
2019-04-03 23:04:38.41,61835256, 0.0, 0.0, 353.0, 584.109985352, -35.363261, 149.1652299, 0.998134791851, 0.0, 0.0, -0.0610486753285,0
2019-04-03 23:04:38.51,61935216, 0.0, 0.0, 353.0, 584.130004883, -35.363261, 149.1652299, 0.998134791851, 0.0, 0.0, -0.0610486753285,0
2019-04-03 23:04:38.61,62035176, 0.0, 0.0, 353.0, 584.159973145, -35.363261, 149.1652299, 0.998134791851, 0.0, 0.0, -0.0610486641526,0
2019-04-03 23:04:38.71,62135136, 0.0, 0.0, 353.0, 584.190002441, -35.363261, 149.1652299, 0.998134791851, 0.0, 0.0, -0.0610486753285,0
2019-04-03 23:04:38.81,62235096, 0.0, 0.0, 352.99, 584.229980469, -35.363261, 149.1652299, 0.998134672642, -7.493483281e-05, 4.12944167749e-08, -0.0610513612628,0
2019-04-03 23:04:38.91,62335056, -0.04, 0.0, 352.99, 584.320007324, -35.363261, 149.1652299, 0.998133599758, -0.000414167618146, 5.66858143429e-05, -0.0610673986375,0
2019-04-03 23:04:39.01,62435016, -0.08, 0.0, 352.99, 584.460021973, -35.363261, 149.1652299, 0.998131871223, -0.000717860239092, 1.29283043862e-05, -0.0610918924212,0
2019-04-03 23:04:39.11,62534976, -0.1, -0.02, 352.99, 584.609985352, -35.363261, 149.1652299, 0.998130023479, -0.000887189933565, -0.000133890411234, -0.0611198246479,0
2019-04-03 23:04:39.21,62634936, -0.11, -0.04, 352.98, 584.770019531, -35.363261, 149.1652299, 0.998128056526, -0.00101666850969, -0.000341286620824, -0.0611495412886,0
2019-04-03 23:04:39.31,62734896, -0.12, -0.06, 352.98, 584.91998291, -35.363261, 149.1652299, 0.998126387596, -0.0010993948672, -0.00052907638019, -0.0611746050417,0
2019-04-03 23:04:39.41,62834856, -0.11, -0.08, 352.98, 585.070007324, -35.363261, 149.1652299, 0.998125135899, -0.00102382327896, -0.000667501997668, -0.0611950978637,0
2019-04-03 23:04:39.51,62934816, -0.06, -0.07, 352.98, 585.229980469, -35.363261, 149.1652299, 0.998124539852, -0.000621070619673, -0.00064528058283, -0.0612096972764,0
2019-04-03 23:04:39.61,63034776, -0.01, -0.04, 352.98, 585.390014648, -35.363261, 149.1652299, 0.998124301434, -0.000140924137668, -0.000414262030972, -0.0612182319164,0
2019-04-03 23:04:39.71,63134736, 0.02, 0.0, 352.98, 585.559997559, -35.363261, 149.1652299, 0.99812412262, 0.000257151230471, 5.1156450354e-05, -0.0612224638462,0
2019-04-03 23:04:39.81,63234696, 0.03, 0.06, 352.98, 585.729980469, -35.363261, 149.1652298, 0.998124480247, 0.00034906930523, 0.00051350222202, -0.0612137950957,0
2019-04-03 23:04:39.91,63334656, 0.02, 0.1, 352.98, 585.909973145, -35.363261, 149.1652298, 0.998124778271, 0.000237853193539, 0.000862451561261, -0.0612059980631,0
2019-04-03 23:04:40.02,63435449, 0.0, 0.11, 352.98, 586.099975586, -35.363261, 149.1652298, 0.998124778271, 2.25541498367e-05, 0.000983428559266, -0.0612049140036,0
2019-04-03 23:04:40.12,63535409, -0.02, 0.09, 352.98, 586.289978027, -35.363261, 149.1652298, 0.998124778271, -0.000187721947441, 0.000837317726109, -0.0612068921328,0
2019-04-03 23:04:40.21,63635369, -0.02, 0.06, 352.98, 586.479980469, -35.363261, 149.1652298, 0.998124659061, -0.000139370909892, 0.000581913569476, -0.0612105950713,0
2019-04-03 23:04:40.31,63735329, -0.01, 0.02, 352.98, 586.66998291, -35.363261, 149.1652298, 0.998124837875, -0.000153049491928, 0.000202582523343, -0.0612117350101,0
2019-04-03 23:04:40.41,63835289, -0.01, -0.01, 352.98, 586.869995117, -35.363261, 149.1652298, 0.998124778271, -0.00011352848378, -0.000104065198684, -0.0612123422325,0
2019-04-03 23:04:40.51,63935249, 0.0, 0.0, 352.98, 587.059997559, -35.363261, 149.1652298, 0.998124778271, -3.39010330208e-05, -8.50415526656e-05, -0.0612126886845,0
2019-04-03 23:04:40.61,64035209, 0.0, 0.0, 352.98, 587.25, -35.363261, 149.1652298, 0.998124778271, -5.12584338139e-05, -5.73444522161e-05, -0.0612128414214,0
2019-04-03 23:04:40.71,64135169, 0.0, 0.0, 352.98, 587.41998291, -35.363261, 149.1652298, 0.998124599457, -7.0984242484e-05, -7.37247046345e-06, -0.0612149573863,0
2019-04-03 23:04:40.81,64235129, 0.02, 0.05, 352.98, 587.590026855, -35.363261, 149.1652298, 0.99812412262, 0.000235347935813, 0.000431209395174, -0.0612207464874,0
2019-04-03 23:04:40.91,64335089, 0.17, 0.29, 352.97, 587.739990234, -35.363261, 149.1652298, 0.998119473457, 0.00166760361753, 0.00244202325121, -0.0612277798355,0
2019-04-03 23:04:41.01,64435049, 0.46, 0.81, 352.98, 587.880004883, -35.363261, 149.1652298, 0.998089373112, 0.00447176024318, 0.00688573345542, -0.0612391754985,0
2019-04-03 23:04:41.11,64535009, 0.87, 1.61, 352.98, 588.010009766, -35.363261, 149.1652298, 0.997992753983, 0.00846066046506, 0.0136299040169, -0.0612630210817,0
2019-04-03 23:04:41.21,64634969, 1.35, 2.6, 352.99, 588.130004883, -35.363261, 149.1652298, 0.997789859772, 0.0132028860971, 0.0219386424869, -0.0613166987896,0
2019-04-03 23:04:41.31,64734929, 1.86, 3.64, 353.01, 588.229980469, -35.363261, 149.1652298, 0.997474014759, 0.0181767046452, 0.0307055842131, -0.0614189952612,0
2019-04-03 23:04:41.41,64834889, 2.32, 4.59, 353.02, 588.320007324, -35.363261, 149.1652299, 0.997091531754, 0.0226342491806, 0.0387865081429, -0.0615780130029,0
2019-04-03 23:04:41.51,64934849, 2.67, 5.35, 353.02, 588.409973145, -35.3632613, 149.1652301, 0.996723115444, 0.0260747466236, 0.045201394707, -0.0618067346513,0
2019-04-03 23:04:41.61,65034809, 2.92, 5.93, 353.01, 588.479980469, -35.3632615, 149.1652302, 0.996400713921, 0.0285992734134, 0.0501160286367, -0.062097966671,0
2019-04-03 23:04:41.71,65134769, 3.12, 6.38, 353.0, 588.539978027, -35.3632617, 149.1652305, 0.996123731136, 0.0305793192238, 0.0538903810084, -0.0624355897307,0
2019-04-03 23:04:41.81,65234729, 3.3, 6.74, 352.97, 588.599975586, -35.3632621, 149.1652308, 0.99587649107, 0.0323539748788, 0.0569144487381, -0.0628010258079,0
2019-04-03 23:04:41.91,65334689, 3.46, 7.05, 352.95, 588.650024414, -35.3632625, 149.1652311, 0.995650172234, 0.0338688977063, 0.0595443919301, -0.0631511583924,0
2019-04-03 23:04:42.01,65434649, 3.55, 7.3, 352.93, 588.690002441, -35.3632629, 149.1652315, 0.995471417904, 0.0348398052156, 0.0616120323539, -0.0634573176503,0
2019-04-03 23:04:42.12,65535442, 3.59, 7.47, 352.91, 588.729980469, -35.3632635, 149.165232, 0.995350420475, 0.0352334827185, 0.0630674809217, -0.0637076720595,0
2019-04-03 23:04:42.22,65635402, 3.61, 7.58, 352.89, 588.770019531, -35.3632641, 149.1652325, 0.995267212391, 0.035493478179, 0.0640397518873, -0.0638928562403,0
2019-04-03 23:04:42.31,65735362, 3.66, 7.66, 352.88, 588.799987793, -35.3632649, 149.165233, 0.995197296143, 0.0359553620219, 0.0647317841649, -0.0640264675021,0
2019-04-03 23:04:42.41,65835322, 3.72, 7.76, 352.88, 588.840026855, -35.3632657, 149.1652336, 0.995116531849, 0.0366041660309, 0.0655305534601, -0.0641009360552,0
2019-04-03 23:04:42.51,65935282, 3.74, 7.97, 352.93, 588.869995117, -35.3632665, 149.1652342, 0.995015859604, 0.0368184968829, 0.0673432946205, -0.0636616498232,0
2019-04-03 23:04:42.61,66035242, 3.56, 8.39, 353.45, 588.900024414, -35.3632674, 149.165235, 0.995077550411, 0.035127710551, 0.0713020414114, -0.0591840781271,0
2019-04-03 23:04:42.71,66135202, 3.33, 8.99, 355.13, 588.91998291, -35.3632683, 149.1652358, 0.995503425598, 0.0323206447065, 0.0770804509521, -0.0445749014616,0
2019-04-03 23:04:42.81,66235162, 3.45, 9.5, 358.46, 588.950012207, -35.3632694, 149.1652365, 0.995982944965, 0.0311417728662, 0.0824392586946, -0.0158738680184,0
2019-04-03 23:04:42.91,66335122, 4.13, 9.69, 3.41, 588.979980469, -35.3632705, 149.1652373, 0.995420873165, 0.0334171392024, 0.0854990035295, 0.0266545135528,0
2019-04-03 23:04:43.01,66435082, 5.37, 9.39, 9.74, 589.010009766, -35.3632716, 149.165238, 0.992274284363, 0.0396167077124, 0.0854702293873, 0.0807288587093,0
2019-04-03 23:04:43.11,66535042, 7.0, 8.56, 17.09, 589.039978027, -35.3632729, 149.1652389, 0.984966635704, 0.0491258017719, 0.0827499330044, 0.143456652761,0
2019-04-03 23:04:43.21,66635002, 8.76, 7.18, 25.13, 589.070007324, -35.3632742, 149.1652398, 0.972319960594, 0.0608687438071, 0.0775755271316, 0.21182769537,0
2019-04-03 23:04:43.31,66734962, 10.44, 5.34, 33.53, 589.099975586, -35.3632756, 149.1652407, 0.95368373394, 0.0736496597528, 0.0707278028131, 0.282949864864,0
2019-04-03 23:04:43.41,66834922, 11.8, 3.21, 42.06, 589.140014648, -35.3632772, 149.1652417, 0.929104030132, 0.0859131366014, 0.0629561319947, 0.354148536921,0
2019-04-03 23:04:43.51,66934882, 12.7, 0.93, 50.46, 589.16998291, -35.3632786, 149.1652427, 0.899369001389, 0.096635773778, 0.0545430965722, 0.422873467207,0
2019-04-03 23:04:43.61,67034842, 13.12, -1.32, 58.56, 589.210021973, -35.3632803, 149.1652437, 0.865811645985, 0.105308175087, 0.045912720263, 0.487003535032,0
2019-04-03 23:04:43.71,67134802, 13.12, -3.41, 66.2, 589.239990234, -35.363282, 149.165245, 0.829974114895, 0.111846610904, 0.0375691726804, 0.545180559158,0
2019-04-03 23:04:43.81,67234762, 12.79, -5.26, 73.32, 589.280029297, -35.3632838, 149.1652463, 0.793268620968, 0.116586856544, 0.0298380311579, 0.596860229969,0
2019-04-03 23:04:43.91,67334722, 12.29, -6.86, 79.89, 589.320007324, -35.3632856, 149.1652475, 0.756717860699, 0.120159603655, 0.0230042859912, 0.642192006111,0
2019-04-03 23:04:44.01,67434682, 11.69, -8.19, 85.97, 589.369995117, -35.3632874, 149.165249, 0.720904171467, 0.12278265506, 0.0172834340483, 0.681852519512,0
2019-04-03 23:04:44.11,67534642, 11.05, -9.26, 91.62, 589.409973145, -35.3632894, 149.1652506, 0.685948848724, 0.124559961259, 0.0127842221409, 0.716795384884,0
2019-04-03 23:04:44.22,67635435, 10.38, -10.15, 96.99, 589.450012207, -35.3632914, 149.1652522, 0.651328146458, 0.125776410103, 0.00908583775163, 0.748244285583,0
2019-04-03 23:04:44.31,67735395, 9.7, -10.94, 102.12, 589.5, -35.3632933, 149.1652538, 0.617077112198, 0.126842468977, 0.00580924749374, 0.776590704918,0
2019-04-03 23:04:44.41,67835355, 9.0, -11.68, 107.18, 589.549987793, -35.3632955, 149.1652556, 0.582213759422, 0.128025740385, 0.00257019116543, 0.802888512611,0
2019-04-03 23:04:44.51,67935315, 8.22, -12.42, 112.27, 589.590026855, -35.3632976, 149.1652574, 0.546057522297, 0.129335463047, -0.00097560940776, 0.827703177929,0
2019-04-03 23:04:44.61,68035275, 7.3, -13.15, 117.5, 589.640014648, -35.3632999, 149.1652591, 0.508038878441, 0.130567535758, -0.00517891580239, 0.851364791393,0
2019-04-03 23:04:44.71,68135235, 6.21, -13.86, 122.92, 589.690002441, -35.3633021, 149.165261, 0.46776470542, 0.131572574377, -0.0103352768347, 0.873943924904,0
2019-04-03 23:04:44.81,68235195, 4.89, -14.5, 128.58, 589.739990234, -35.3633045, 149.1652629, 0.425051689148, 0.132045403123, -0.0165585111827, 0.895332872868,0
2019-04-03 23:04:44.91,68335155, 3.37, -15.03, 134.46, 589.789978027, -35.3633069, 149.1652648, 0.379936337471, 0.13185107708, -0.0236889906228, 0.915260910988,0
2019-04-03 23:04:45.01,68435115, 1.43, -15.39, 140.46, 589.840026855, -35.3633093, 149.1652669, 0.333586901426, 0.130242526531, -0.0335972905159, 0.93307441473,0
2019-04-03 23:04:45.11,68535075, -0.96, -15.51, 146.07, 589.890014648, -35.3633118, 149.1652689, 0.290155857801, 0.126673400402, -0.0474053248763, 0.947373270988,0
2019-04-03 23:04:45.21,68635035, -3.39, -15.38, 150.7, 589.940002441, -35.3633143, 149.165271, 0.254351526499, 0.122066989541, -0.0622111074626, 0.957358181477,0
2019-04-03 23:04:45.31,68734995, -5.27, -15.12, 153.93, 589.989990234, -35.3633169, 149.1652732, 0.229243159294, 0.117807067931, -0.0741352960467, 0.963365495205,0
2019-04-03 23:04:45.41,68834955, -6.28, -14.88, 155.65, 590.039978027, -35.3633194, 149.1652753, 0.215672180057, 0.114957071841, -0.0803652405739, 0.966339409351,0
2019-04-03 23:04:45.51,68934915, -6.34, -14.77, 156.01, 590.090026855, -35.3633219, 149.1652777, 0.212700277567, 0.114151500165, -0.0803483352065, 0.96709471941,0
2019-04-03 23:04:45.61,69034875, -5.61, -14.85, 155.25, 590.140014648, -35.3633246, 149.1652801, 0.21840646863, 0.115680284798, -0.0750758200884, 0.966064333916,0
2019-04-03 23:04:45.71,69134835, -4.32, -15.08, 153.66, 590.190002441, -35.3633272, 149.1652827, 0.230531573296, 0.119205027819, -0.0663391649723, 0.963454425335,0
2019-04-03 23:04:45.81,69234795, -2.74, -15.43, 151.53, 590.239990234, -35.3633297, 149.1652852, 0.246719956398, 0.124273441732, -0.0560418218374, 0.959450244904,0
2019-04-03 23:04:45.91,69334755, -1.11, -15.79, 149.15, 590.289978027, -35.3633324, 149.1652877, 0.264660656452, 0.129879638553, -0.0458420738578, 0.954455077648,0
2019-04-03 23:04:46.01,69434715, 0.35, -16.1, 146.84, 590.340026855, -35.3633351, 149.1652902, 0.28207680583, 0.135162383318, -0.0369930751622, 0.949102342129,0
2019-04-03 23:04:46.11,69534675, 1.53, -16.3, 144.85, 590.390014648, -35.3633377, 149.1652929, 0.297051727772, 0.139151751995, -0.030127890408, 0.944187164307,0
2019-04-03 23:04:46.22,69635468, 2.34, -16.37, 143.35, 590.450012207, -35.3633406, 149.1652954, 0.308343470097, 0.141516685486, -0.0255270674825, 0.940343439579,0
2019-04-03 23:04:46.32,69735428, 2.75, -16.36, 142.46, 590.5, -35.3633434, 149.165298, 0.315115481615, 0.142345607281, -0.0232740752399, 0.938028931618,0
2019-04-03 23:04:46.41,69835388, 2.77, -16.32, 142.17, 590.549987793, -35.3633462, 149.1653006, 0.317478597164, 0.142017677426, -0.0232953559607, 0.937281012535,0
2019-04-03 23:04:46.51,69935348, 2.48, -16.27, 142.41, 590.599975586, -35.3633492, 149.1653031, 0.315913677216, 0.140914842486, -0.025243120268, 0.937925577164,0
2019-04-03 23:04:46.61,70035308, 1.96, -16.27, 143.06, 590.650024414, -35.3633522, 149.1653055, 0.311248749495, 0.139595583081, -0.028698630631, 0.939581632614,0
2019-04-03 23:04:46.71,70135268, 1.31, -16.31, 143.97, 590.700012207, -35.3633552, 149.1653082, 0.304510265589, 0.138450741768, -0.0330795422196, 0.941812455654,0
2019-04-03 23:04:46.81,70235228, 0.63, -16.38, 145.01, 590.760009766, -35.3633583, 149.1653107, 0.296772569418, 0.137581661344, -0.037624116987, 0.94423609972,0
2019-04-03 23:04:46.91,70335188, 0.0, -16.45, 146.03, 590.809997559, -35.3633613, 149.1653132, 0.289062321186, 0.136919379234, -0.0417440272868, 0.946548223495,0
2019-04-03 23:04:47.01,70435148, -0.51, -16.51, 146.93, 590.859985352, -35.3633644, 149.1653158, 0.282248616219, 0.1364236027, -0.0451309159398, 0.948518574238,0
2019-04-03 23:04:47.11,70535108, -0.88, -16.56, 147.62, 590.909973145, -35.3633675, 149.1653184, 0.276911497116, 0.136231571436, -0.0474947616458, 0.950002729893,0
2019-04-03 23:04:47.21,70635068, -1.08, -16.61, 148.08, 590.960021973, -35.3633707, 149.165321, 0.273370087147, 0.136378005147, -0.0487329997122, 0.950944244862,0
2019-04-03 23:04:47.31,70735028, -1.11, -16.64, 148.28, 591.020019531, -35.3633738, 149.1653236, 0.271682202816, 0.136619865894, -0.0488031357527, 0.951389491558,0
2019-04-03 23:04:47.41,70834988, -1.0, -16.67, 148.27, 591.070007324, -35.363377, 149.1653263, 0.271683335304, 0.13709127903, -0.0480032749474, 0.951362133026,0
2019-04-03 23:04:47.51,70934948, -0.81, -16.69, 148.07, 591.119995117, -35.3633802, 149.1653289, 0.27308011055, 0.1376516819, -0.04671375826, 0.95094537735,0
2019-04-03 23:04:47.61,71034908, -0.6, -16.71, 147.75, 591.16998291, -35.3633833, 149.1653317, 0.275479793549, 0.138170063496, -0.0453781150281, 0.950242459774,0
2019-04-03 23:04:47.71,71134868, -0.39, -16.72, 147.36, 591.229980469, -35.3633866, 149.1653344, 0.278406113386, 0.138668119907, -0.0441126748919, 0.949376285076,0
2019-04-03 23:04:47.81,71234828, -0.17, -16.74, 146.97, 591.280029297, -35.3633898, 149.165337, 0.281397938728, 0.139147534966, -0.0428267531097, 0.948482513428,0
2019-04-03 23:04:47.91,71334788, 0.02, -16.76, 146.62, 591.33001709, -35.3633929, 149.1653398, 0.284075766802, 0.139745861292, -0.0416616909206, 0.947647869587,0
2019-04-03 23:04:48.01,71434748, 0.18, -16.82, 146.34, 591.380004883, -35.3633963, 149.1653426, 0.286191374063, 0.140467017889, -0.0408285409212, 0.946940660477,0
2019-04-03 23:04:48.11,71534708, 0.25, -16.87, 146.15, 591.440002441, -35.3633996, 149.1653452, 0.28763744235, 0.141054794192, -0.0406019352376, 0.946424722672,0
2019-04-03 23:04:48.21,71634668, 0.26, -16.91, 146.06, 591.489990234, -35.3634028, 149.165348, 0.288366913795, 0.141351997852, -0.0407191328704, 0.946153342724,0
2019-04-03 23:04:48.32,71735461, 0.23, -16.92, 146.05, 591.539978027, -35.3634062, 149.1653508, 0.288430452347, 0.141311705112, -0.0410071648657, 0.946127533913,0
2019-04-03 23:04:48.42,71835421, 0.17, -16.91, 146.12, 591.590026855, -35.3634094, 149.1653534, 0.287931025028, 0.141109868884, -0.0413489192724, 0.946294903755,0
2019-04-03 23:04:48.51,71935381, 0.09, -16.89, 146.24, 591.650024414, -35.3634129, 149.1653562, 0.287069946527, 0.140773832798, -0.0418925583363, 0.946582615376,0
2019-04-03 23:04:48.61,72035341, -0.01, -16.86, 146.38, 591.700012207, -35.3634161, 149.1653591, 0.286010891199, 0.140358865261, -0.0425280667841, 0.946936368942,0
2019-04-03 23:04:48.71,72135301, -0.11, -16.86, 146.54, 591.75, -35.3634196, 149.1653618, 0.28488060832, 0.140170395374, -0.0431537218392, 0.947276651859,0
2019-04-03 23:04:48.81,72235261, -0.19, -16.89, 146.67, 591.799987793, -35.363423, 149.1653646, 0.283833712339, 0.140258267522, -0.0437705367804, 0.947549581528,0
2019-04-03 23:04:48.91,72335221, -0.26, -16.95, 146.79, 591.849975586, -35.3634264, 149.1653673, 0.282968491316, 0.14061447978, -0.0442819967866, 0.947731792927,0
2019-04-03 23:04:49.01,72435181, -0.28, -16.99, 146.86, 591.909973145, -35.3634298, 149.1653701, 0.282350540161, 0.140940248966, -0.0445047467947, 0.947857260704,0
2019-04-03 23:04:49.11,72535141, -0.28, -17.03, 146.9, 591.960021973, -35.3634331, 149.165373, 0.282015651464, 0.141240894794, -0.0445336177945, 0.94791084528,0
2019-04-03 23:04:49.21,72635101, -0.26, -17.07, 146.9, 592.010009766, -35.3634366, 149.1653758, 0.281953185797, 0.141689658165, -0.0444905310869, 0.947864472866,0
2019-04-03 23:04:49.31,72735061, -0.24, -17.11, 146.87, 592.059997559, -35.36344, 149.1653787, 0.282151579857, 0.142049327493, -0.0444584414363, 0.94775313139,0
2019-04-03 23:04:49.41,72835021, -0.22, -17.12, 146.82, 592.109985352, -35.3634434, 149.1653815, 0.282549917698, 0.142117962241, -0.0443674474955, 0.947628378868,0
2019-04-03 23:04:49.51,72934981, -0.19, -17.11, 146.76, 592.16998291, -35.3634469, 149.1653843, 0.283052295446, 0.142118364573, -0.0441756695509, 0.947487413883,0
2019-04-03 23:04:49.61,73034941, -0.15, -17.11, 146.69, 592.219970703, -35.3634502, 149.1653872, 0.283577144146, 0.142197459936, -0.0439401231706, 0.947329461575,0
2019-04-03 23:04:49.71,73134901, -0.11, -17.13, 146.62, 592.270019531, -35.3634537, 149.16539, 0.284070849419, 0.142415717244, -0.0437140129507, 0.947159230709,0
2019-04-03 23:04:49.81,73234861, -0.07, -17.17, 146.56, 592.320007324, -35.3634572, 149.1653929, 0.284490287304, 0.142784759402, -0.043590452522, 0.946983456612,0
2019-04-03 23:04:49.91,73334821, -0.06, -17.19, 146.52, 592.369995117, -35.3634607, 149.1653957, 0.28483107686, 0.14299082756, -0.0436077006161, 0.946849167347,0
2019-04-03 23:04:50.01,73434781, -0.07, -17.21, 146.49, 592.429992676, -35.3634641, 149.1653986, 0.285060405731, 0.14308668673, -0.0437583699822, 0.946758687496,0
2019-04-03 23:04:50.11,73534741, -0.09, -17.21, 146.48, 592.479980469, -35.3634677, 149.1654015, 0.285172134638, 0.143057599664, -0.0439277775586, 0.946721613407,0
2019-04-03 23:04:50.21,73634701, -0.1, -17.2, 146.49, 592.530029297, -35.3634711, 149.1654044, 0.285166323185, 0.142940402031, -0.0439874380827, 0.946738243103,0
2019-04-03 23:04:50.31,73734661, -0.08, -17.19, 146.5, 592.58001709, -35.3634745, 149.1654072, 0.285046219826, 0.142928987741, -0.0438182912767, 0.94678401947,0
2019-04-03 23:04:50.42,73835454, -0.08, -17.2, 146.51, 592.630004883, -35.3634781, 149.1654102, 0.284891605377, 0.143049642444, -0.0437475927174, 0.946815609932,0
2019-04-03 23:04:50.52,73935414, -0.08, -17.23, 146.53, 592.690002441, -35.3634817, 149.165413, 0.284732043743, 0.143264681101, -0.0438504219055, 0.946826338768,0
2019-04-03 23:04:50.61,74035374, -0.1, -17.26, 146.55, 592.739990234, -35.3634852, 149.1654159, 0.284582734108, 0.143490225077, -0.0440146699548, 0.94682943821,0
2019-04-03 23:04:50.71,74135334, -0.11, -17.28, 146.57, 592.789978027, -35.3634887, 149.1654188, 0.284478992224, 0.143596217036, -0.0441895574331, 0.946836411953,0
2019-04-03 23:04:50.81,74235294, -0.13, -17.29, 146.58, 592.840026855, -35.3634921, 149.1654218, 0.284414947033, 0.143704235554, -0.044337823987, 0.946832299232,0
2019-04-03 23:04:50.91,74335254, -0.12, -17.31, 146.58, 592.890014648, -35.3634957, 149.1654247, 0.284365803003, 0.143885150552, -0.0443514883518, 0.946818947792,0
2019-04-03 23:04:51.01,74435214, -0.11, -17.32, 146.58, 592.950012207, -35.3634993, 149.1654275, 0.284365475178, 0.144005194306, -0.0442714355886, 0.946804523468,0
2019-04-03 23:04:51.11,74535174, -0.1, -17.32, 146.57, 593.0, -35.3635028, 149.1654304, 0.284407228231, 0.144024863839, -0.0441866628826, 0.946792960167,0
2019-04-03 23:04:51.21,74635134, -0.09, -17.34, 146.56, 593.049987793, -35.3635064, 149.1654333, 0.284475922585, 0.144216880202, -0.0441517569125, 0.946744740009,0
2019-04-03 23:04:51.31,74735094, -0.07, -17.39, 146.55, 593.099975586, -35.3635098, 149.1654362, 0.284551203251, 0.144602417946, -0.0441061593592, 0.946665406227,0
2019-04-03 23:04:51.41,74835054, -0.07, -17.42, 146.53, 593.150024414, -35.3635134, 149.1654393, 0.284666538239, 0.144875779748, -0.0441915430129, 0.946584999561,0
2019-04-03 23:04:51.51,74935014, -0.09, -17.44, 146.52, 593.210021973, -35.363517, 149.1654422, 0.284811764956, 0.144964843988, -0.0444240309298, 0.946516811848,0
2019-04-03 23:04:51.61,75034974, -0.11, -17.45, 146.5, 593.260009766, -35.3635206, 149.1654451, 0.284962236881, 0.145015373826, -0.0447035059333, 0.946450531483,0
2019-04-03 23:04:51.71,75134934, -0.12, -17.46, 146.49, 593.309997559, -35.3635241, 149.1654481, 0.285064548254, 0.14507676661, -0.0447807088494, 0.946406722069,0
2019-04-03 23:04:51.81,75234894, -0.11, -17.48, 146.48, 593.359985352, -35.3635277, 149.165451, 0.285115003586, 0.145283401012, -0.0447476245463, 0.946361362934,0
2019-04-03 23:04:51.91,75334854, -0.1, -17.5, 146.47, 593.409973145, -35.3635313, 149.1654539, 0.2851549685, 0.145482033491, -0.04473079741, 0.946319639683,0
2019-04-03 23:04:52.01,75434814, -0.08, -17.52, 146.47, 593.469970703, -35.3635349, 149.1654568, 0.285179436207, 0.145645424724, -0.044654186815, 0.946290671825,0
2019-04-03 23:04:52.11,75534774, -0.07, -17.51, 146.46, 593.520019531, -35.3635383, 149.1654599, 0.285219758749, 0.145594239235, -0.0445045605302, 0.946293532848,0
2019-04-03 23:04:52.21,75634734, -0.06, -17.51, 146.45, 593.570007324, -35.3635419, 149.1654628, 0.285249888897, 0.145628213882, -0.0444266237319, 0.946282863617,0
2019-04-03 23:04:52.31,75734694, -0.06, -17.51, 146.45, 593.619995117, -35.3635456, 149.1654658, 0.285281687975, 0.145598828793, -0.0444226451218, 0.946277976036,0
2019-04-03 23:04:52.41,75834654, -0.07, -17.51, 146.45, 593.679992676, -35.3635492, 149.1654687, 0.28532537818, 0.145627662539, -0.0445708036423, 0.946253359318,0
2019-04-03 23:04:52.52,75935447, -0.11, -17.54, 146.44, 593.729980469, -35.3635528, 149.1654716, 0.285395532846, 0.145751774311, -0.0449855290353, 0.946193516254,0
2019-04-03 23:04:52.62,76035407, -0.15, -17.55, 146.44, 593.780029297, -35.3635564, 149.1654747, 0.285472154617, 0.145741179585, -0.0453330650926, 0.946155369282,0
2019-04-03 23:04:52.71,76135367, -0.17, -17.57, 146.44, 593.83001709, -35.36356, 149.1654777, 0.285528749228, 0.145799160004, -0.0455154590309, 0.946120679379,0
2019-04-03 23:04:52.81,76235327, -0.18, -17.58, 146.43, 593.890014648, -35.3635637, 149.1654806, 0.285577684641, 0.14587032795, -0.0456439554691, 0.946088731289,0
2019-04-03 23:04:52.91,76335287, -0.17, -17.59, 146.43, 593.940002441, -35.3635673, 149.1654835, 0.285590827465, 0.145977243781, -0.0455848835409, 0.946071088314,0
2019-04-03 23:04:53.01,76435247, -0.13, -17.59, 146.42, 593.989990234, -35.3635709, 149.1654865, 0.28559038043, 0.146093785763, -0.0453272238374, 0.946065664291,0
2019-04-03 23:04:53.11,76535207, -0.11, -17.6, 146.42, 594.039978027, -35.3635745, 149.1654896, 0.285608530045, 0.146200850606, -0.0451807752252, 0.946050643921,0
2019-04-03 23:04:53.21,76635167, -0.12, -17.61, 146.41, 594.090026855, -35.3635781, 149.1654926, 0.285671293736, 0.146250605583, -0.0452395528555, 0.946021139622,0
2019-04-03 23:04:53.31,76735127, -0.13, -17.6, 146.4, 594.150024414, -35.3635817, 149.1654955, 0.285759240389, 0.146181300282, -0.0453347451985, 0.946000814438,0
2019-04-03 23:04:53.41,76835087, -0.13, -17.6, 146.39, 594.200012207, -35.3635854, 149.1654986, 0.285838216543, 0.146147996187, -0.0453431382775, 0.945981681347,0
2019-04-03 23:04:53.51,76935047, -0.11, -17.62, 146.38, 594.25, -35.363589, 149.1655016, 0.285882979631, 0.146386668086, -0.0452627949417, 0.945935070515,0
2019-04-03 23:04:53.61,77035007, -0.07, -17.65, 146.37, 594.299987793, -35.3635925, 149.1655046, 0.285885155201, 0.146734133363, -0.0449957661331, 0.945893347263,0
2019-04-03 23:04:53.71,77134967, -0.02, -17.65, 146.37, 594.349975586, -35.3635963, 149.1655075, 0.285888403654, 0.146811619401, -0.0446284152567, 0.945897758007,0
2019-04-03 23:04:53.81,77234927, 0.0, -17.62, 146.36, 594.409973145, -35.3635998, 149.1655106, 0.285902768373, 0.146663397551, -0.044318523258, 0.945930957794,0
2019-04-03 23:04:53.91,77334887, 0.0, -17.61, 146.36, 594.460021973, -35.3636034, 149.1655136, 0.285932451487, 0.146567896008, -0.0442327260971, 0.945940792561,0
2019-04-03 23:04:54.01,77434847, -0.02, -17.64, 146.35, 594.510009766, -35.3636072, 149.1655166, 0.28598472476, 0.146719753742, -0.0445935577154, 0.945884525776,0
2019-04-03 23:04:54.11,77534807, -0.05, -17.69, 146.35, 594.559997559, -35.3636107, 149.1655195, 0.286004960537, 0.147057175636, -0.0449865087867, 0.945807397366,0
2019-04-03 23:04:54.21,77634767, -0.07, -17.72, 146.36, 594.609985352, -35.3636145, 149.1655226, 0.28600525856, 0.147315055132, -0.0452389866114, 0.945755064487,0
2019-04-03 23:04:54.31,77734727, -0.08, -17.74, 146.36, 594.66998291, -35.363618, 149.1655256, 0.285996049643, 0.147423252463, -0.0453045703471, 0.94573789835,0
2019-04-03 23:04:54.41,77834687, -0.08, -17.72, 146.36, 594.719970703, -35.3636218, 149.1655285, 0.28599151969, 0.147279635072, -0.0452660210431, 0.945763528347,0
2019-04-03 23:04:54.51,77934647, -0.08, -17.69, 146.36, 594.770019531, -35.3636253, 149.1655315, 0.28600871563, 0.146995291114, -0.0452279299498, 0.945804357529,0
2019-04-03 23:04:54.62,78035440, -0.08, -17.65, 146.36, 594.820007324, -35.3636291, 149.1655347, 0.286034703255, 0.146673068404, -0.045139208436, 0.945850729942,0
2019-04-03 23:04:54.72,78135400, -0.06, -17.61, 146.35, 594.880004883, -35.3636328, 149.1655376, 0.286051630974, 0.146415442228, -0.0448923446238, 0.94589728117,0
2019-04-03 23:04:54.81,78235360, -0.05, -17.6, 146.35, 594.929992676, -35.3636364, 149.1655406, 0.286075949669, 0.146332740784, -0.0447099246085, 0.945911407471,0
2019-04-03 23:04:54.91,78335320, -0.05, -17.61, 146.34, 594.979980469, -35.3636401, 149.1655437, 0.286127597094, 0.146417483687, -0.0447797775269, 0.945879340172,0
2019-04-03 23:04:55.01,78435280, -0.06, -17.63, 146.34, 595.030029297, -35.3636437, 149.1655467, 0.28618863225, 0.146583199501, -0.0449302345514, 0.945828080177,0
2019-04-03 23:04:55.11,78535240, -0.08, -17.65, 146.33, 595.08001709, -35.3636474, 149.1655497, 0.286260902882, 0.146702259779, -0.0451263412833, 0.945778429508,0
2019-04-03 23:04:55.21,78635200, -0.09, -17.66, 146.32, 595.140014648, -35.3636511, 149.1655528, 0.286334365606, 0.146709993482, -0.0452618710697, 0.945748448372,0
2019-04-03 23:04:55.31,78735160, -0.11, -17.66, 146.32, 595.190002441, -35.3636547, 149.1655558, 0.286413997412, 0.146675512195, -0.0454624332488, 0.945720136166,0
2019-04-03 23:04:55.41,78835120, -0.12, -17.68, 146.31, 595.239990234, -35.3636584, 149.1655587, 0.286465018988, 0.146789088845, -0.045603800565, 0.945680201054,0
2019-04-03 23:04:55.51,78935080, -0.13, -17.71, 146.31, 595.289978027, -35.3636621, 149.1655618, 0.286500126123, 0.147007852793, -0.0457143969834, 0.945630252361,0
2019-04-03 23:04:55.61,79035040, -0.13, -17.72, 146.3, 595.349975586, -35.3636657, 149.1655649, 0.286527693272, 0.147114783525, -0.0457370243967, 0.945604205132,0
2019-04-03 23:04:55.71,79135000, -0.11, -17.72, 146.3, 595.400024414, -35.3636694, 149.1655678, 0.286548107862, 0.147137671709, -0.0456405766308, 0.945599079132,0
2019-04-03 23:04:55.81,79234960, -0.09, -17.73, 146.29, 595.450012207, -35.3636731, 149.1655709, 0.286549121141, 0.147249981761, -0.0454793162644, 0.945589065552,0
2019-04-03 23:04:55.91,79334920, -0.07, -17.73, 146.29, 595.5, -35.3636768, 149.1655739, 0.286551654339, 0.147374674678, -0.0452938973904, 0.945577800274,0
2019-04-03 23:04:56.01,79434880, -0.05, -17.74, 146.28, 595.549987793, -35.3636804, 149.1655769, 0.286565214396, 0.147450000048, -0.0451629906893, 0.945568203926,0
2019-04-03 23:04:56.11,79534840, -0.05, -17.73, 146.28, 595.609985352, -35.3636841, 149.16558, 0.286616951227, 0.14736635983, -0.0451683737338, 0.945565283298,0
2019-04-03 23:04:56.21,79634800, -0.05, -17.73, 146.27, 595.659973145, -35.3636878, 149.165583, 0.286669999361, 0.147389307618, -0.0452112220228, 0.945543587208,0
2019-04-03 23:04:56.31,79734760, -0.05, -17.76, 146.27, 595.710021973, -35.3636915, 149.165586, 0.286713421345, 0.14759324491, -0.0452690273523, 0.945495843887,0
2019-04-03 23:04:56.41,79834720, -0.07, -17.76, 146.26, 595.760009766, -35.3636951, 149.1655891, 0.286782860756, 0.147568076849, -0.045383028686, 0.945473253727,0
2019-04-03 23:04:56.51,79934680, -0.09, -17.75, 146.25, 595.820007324, -35.3636988, 149.1655921, 0.286870181561, 0.147432267666, -0.0455701798201, 0.945458948612,0
2019-04-03 23:04:56.61,80034640, -0.11, -17.73, 146.25, 595.869995117, -35.3637024, 149.1655951, 0.286950081587, 0.14724715054, -0.0456643328071, 0.945459008217,0
2019-04-03 23:04:56.72,80135433, -0.09, -17.71, 146.24, 595.91998291, -35.3637061, 149.1655983, 0.286995947361, 0.147095993161, -0.0455076694489, 0.945476174355,0
2019-04-03 23:04:56.81,80235393, -0.06, -17.69, 146.23, 595.969970703, -35.3637098, 149.1656013, 0.287016540766, 0.147031292319, -0.0452042371035, 0.945494532585,0
2019-04-03 23:04:56.91,80335353, -0.04, -17.7, 146.23, 596.030029297, -35.3637135, 149.1656042, 0.287041038275, 0.147164836526, -0.0450363866985, 0.945474326611,0
2019-04-03 23:04:57.01,80435313, -0.04, -17.73, 146.22, 596.08001709, -35.3637173, 149.1656074, 0.287091434002, 0.14739254117, -0.045146599412, 0.945418357849,0
2019-04-03 23:04:57.11,80535273, -0.04, -17.78, 146.21, 596.130004883, -35.363721, 149.1656104, 0.287119835615, 0.147774890065, -0.0452548265457, 0.945344805717,0
2019-04-03 23:04:57.21,80635233, -0.03, -17.81, 146.21, 596.179992676, -35.3637247, 149.1656135, 0.287141919136, 0.148029491305, -0.0452788323164, 0.945297122002,0
2019-04-03 23:04:57.31,80735193, -0.02, -17.82, 146.2, 596.239990234, -35.3637284, 149.1656165, 0.287155836821, 0.148147255182, -0.0452105365694, 0.945277690887,0
2019-04-03 23:04:57.41,80835153, -0.01, -17.83, 146.2, 596.289978027, -35.3637321, 149.1656195, 0.287155508995, 0.148255184293, -0.0451362021267, 0.945264458656,0
2019-04-03 23:04:57.51,80935113, 0.0, -17.81, 146.2, 596.340026855, -35.3637358, 149.1656226, 0.287163287401, 0.148147121072, -0.0450603105128, 0.945282638073,0
2019-04-03 23:04:57.61,81035073, 0.0, -17.78, 146.2, 596.390014648, -35.3637395, 149.1656257, 0.28717109561, 0.147885650396, -0.0449417121708, 0.945326864719,0
2019-04-03 23:04:57.71,81135033, 0.01, -17.75, 146.2, 596.450012207, -35.3637432, 149.1656286, 0.287165999413, 0.147712737322, -0.0447787307203, 0.945363163948,0
2019-04-03 23:04:57.81,81234993, 0.0, -17.73, 146.2, 596.5, -35.3637468, 149.1656318, 0.287178516388, 0.147549152374, -0.044742193073, 0.945386648178,0
2019-04-03 23:04:57.91,81334953, 0.0, -17.74, 146.2, 596.549987793, -35.3637505, 149.1656348, 0.287192672491, 0.147552967072, -0.0447890534997, 0.945379555225,0
2019-04-03 23:04:58.01,81434913, 0.02, -17.77, 146.2, 596.599975586, -35.3637542, 149.1656379, 0.287172466516, 0.147912159562, -0.0447451286018, 0.945331633091,0
2019-04-03 23:04:58.11,81534873, 0.03, -17.81, 146.19, 596.659973145, -35.363758, 149.1656409, 0.287168174982, 0.148205161095, -0.0447263978422, 0.945287883282,0
2019-04-03 23:04:58.21,81634833, 0.04, -17.8, 146.19, 596.710021973, -35.3637617, 149.1656439, 0.287185370922, 0.148174449801, -0.0446415357292, 0.945291519165,0
2019-04-03 23:04:58.31,81734793, 0.03, -17.78, 146.19, 596.760009766, -35.3637654, 149.165647, 0.287249356508, 0.147972777486, -0.0447002351284, 0.945300877094,0
2019-04-03 23:04:58.41,81834753, 0.01, -17.76, 146.18, 596.809997559, -35.3637691, 149.1656501, 0.287322402, 0.147804170847, -0.0447747595608, 0.945301532745,0
2019-04-03 23:04:58.51,81934713, 0.01, -17.76, 146.17, 596.859985352, -35.3637728, 149.165653, 0.287383407354, 0.147793188691, -0.0448143854737, 0.945282816887,0
2019-04-03 23:04:58.61,82034673, 0.0, -17.78, 146.16, 596.91998291, -35.3637765, 149.1656562, 0.287450492382, 0.14793869853, -0.0449625961483, 0.945232629776,0
2019-04-03 23:04:58.72,82135466, 0.0, -17.8, 146.16, 596.969970703, -35.3637802, 149.1656592, 0.287523716688, 0.14803314209, -0.0450898334384, 0.945189535618,0
2019-04-03 23:04:58.82,82235426, 0.0, -17.79, 146.15, 597.020019531, -35.3637839, 149.1656622, 0.287580013275, 0.147956907749, -0.04500560835, 0.945188343525,0
2019-04-03 23:04:58.91,82335386, 0.02, -17.77, 146.14, 597.070007324, -35.3637876, 149.1656653, 0.287608504295, 0.147869065404, -0.0447897352278, 0.945203721523,0
2019-04-03 23:04:59.01,82435346, 0.04, -17.75, 146.14, 597.119995117, -35.3637913, 149.1656683, 0.287636578083, 0.147747129202, -0.0445972159505, 0.945223331451,0
2019-04-03 23:04:59.11,82535306, 0.05, -17.75, 146.13, 597.179992676, -35.3637951, 149.1656713, 0.287651717663, 0.14773696661, -0.0444560609758, 0.94522690773,0
2019-04-03 23:04:59.21,82635266, 0.05, -17.75, 146.13, 597.229980469, -35.3637988, 149.1656745, 0.287680268288, 0.147785246372, -0.0444693230093, 0.945210039616,0
2019-04-03 23:04:59.31,82735226, 0.05, -17.76, 146.13, 597.280029297, -35.3638025, 149.1656775, 0.287714511156, 0.147834777832, -0.0445229224861, 0.945189356804,0
2019-04-03 23:04:59.41,82835186, 0.03, -17.77, 146.12, 597.33001709, -35.3638062, 149.1656806, 0.287772208452, 0.14785566926, -0.0447230860591, 0.945159137249,0
2019-04-03 23:04:59.51,82935146, 0.02, -17.76, 146.12, 597.380004883, -35.3638099, 149.1656837, 0.287822812796, 0.147789999843, -0.0447936654091, 0.945150613785,0
2019-04-03 23:04:59.61,83035106, 0.04, -17.75, 146.11, 597.440002441, -35.3638137, 149.1656866, 0.287843585014, 0.147710546851, -0.0445738807321, 0.945167064667,0
2019-04-03 23:04:59.71,83135066, 0.06, -17.75, 146.11, 597.489990234, -35.3638173, 149.1656898, 0.287866324186, 0.147770196199, -0.0444032996893, 0.94515889883,0
2019-04-03 23:04:59.81,83235026, 0.06, -17.78, 146.1, 597.539978027, -35.363821, 149.1656927, 0.287911117077, 0.148020043969, -0.0444938279688, 0.945101857185,0
2019-04-03 23:04:59.91,83334986, 0.05, -17.81, 146.09, 597.590026855, -35.3638247, 149.1656959, 0.287978798151, 0.148240089417, -0.0447132922709, 0.945036411285,0
2019-04-03 23:05:00.01,83434946, 0.05, -17.83, 146.08, 597.650024414, -35.3638284, 149.1656989, 0.288035422564, 0.148416936398, -0.0447745099664, 0.944988489151,0
2019-04-03 23:05:00.11,83534906, 0.06, -17.83, 146.07, 597.700012207, -35.3638322, 149.1657019, 0.288091987371, 0.148443356156, -0.0446669720113, 0.944972217083,0
2019-04-03 23:05:00.21,83634866, 0.09, -17.82, 146.07, 597.75, -35.3638359, 149.165705, 0.288135230541, 0.14839848876, -0.0444351993501, 0.944976985455,0
2019-04-03 23:05:00.31,83734826, 0.1, -17.81, 146.06, 597.799987793, -35.3638397, 149.1657081, 0.28818538785, 0.148397088051, -0.0443338118494, 0.944966673851,0
2019-04-03 23:05:00.41,83834786, 0.1, -17.82, 146.05, 597.849975586, -35.3638434, 149.165711, 0.288245439529, 0.148427098989, -0.0443760342896, 0.944941699505,0
2019-04-03 23:05:00.51,83934746, 0.1, -17.82, 146.05, 597.909973145, -35.3638471, 149.1657142, 0.28829652071, 0.148420870304, -0.0443760380149, 0.944927036762,0
2019-04-03 23:05:00.61,84034706, 0.09, -17.81, 146.04, 597.960021973, -35.3638508, 149.1657172, 0.288353145123, 0.148318663239, -0.0443892329931, 0.944925189018,0
2019-04-03 23:05:00.71,84134666, 0.09, -17.8, 146.03, 598.010009766, -35.3638544, 149.1657203, 0.288405179977, 0.148259788752, -0.0443986877799, 0.944918096066,0
2019-04-03 23:05:00.82,84235459, 0.09, -17.8, 146.03, 598.059997559, -35.3638582, 149.1657234, 0.288445323706, 0.148291006684, -0.0443964861333, 0.944901108742,0
2019-04-03 23:05:00.92,84335419, 0.08, -17.82, 146.02, 598.109985352, -35.363862, 149.1657263, 0.288492888212, 0.148388847709, -0.0445602685213, 0.944863498211,0
2019-04-03 23:05:01.01,84435379, 0.05, -17.84, 146.02, 598.16998291, -35.3638657, 149.1657295, 0.28855997324, 0.148439839482, -0.0448803976178, 0.944819808006,0
2019-04-03 23:05:01.11,84535339, 0.02, -17.83, 146.02, 598.219970703, -35.3638694, 149.1657325, 0.288631439209, 0.14832828939, -0.0450549647212, 0.944807171822,0
2019-04-03 23:05:01.21,84635299, 0.02, -17.81, 146.01, 598.270019531, -35.3638731, 149.1657356, 0.288699477911, 0.148155659437, -0.0450661890209, 0.944812953472,0
2019-04-03 23:05:01.31,84735259, 0.02, -17.8, 146.0, 598.320007324, -35.3638769, 149.1657386, 0.288760691881, 0.14806433022, -0.0450151562691, 0.944811046124,0
2019-04-03 23:05:01.41,84835219, 0.05, -17.79, 145.99, 598.369995117, -35.3638806, 149.1657416, 0.288791537285, 0.148074239492, -0.0447714179754, 0.94481164217,0
2019-04-03 23:05:01.51,84935179, 0.09, -17.8, 145.99, 598.429992676, -35.3638842, 149.1657447, 0.288803249598, 0.148186996579, -0.044471707195, 0.944804549217,0
2019-04-03 23:05:01.61,85035139, 0.12, -17.81, 145.98, 598.479980469, -35.3638879, 149.1657478, 0.288815617561, 0.1484015733, -0.0442453734577, 0.944777667522,0
2019-04-03 23:05:01.71,85135099, 0.12, -17.83, 145.97, 598.530029297, -35.3638916, 149.1657509, 0.288880765438, 0.148556366563, -0.0443267188966, 0.944729626179,0
2019-04-03 23:05:01.81,85235059, 0.1, -17.84, 145.96, 598.58001709, -35.3638955, 149.1657539, 0.288967460394, 0.148583203554, -0.0445552058518, 0.944688141346,0
2019-04-03 23:05:01.91,85335019, 0.06, -17.84, 145.96, 598.630004883, -35.3638992, 149.1657569, 0.289068549871, 0.148470982909, -0.0448758155107, 0.944659650326,0
2019-04-03 23:05:02.01,85434979, 0.04, -17.82, 145.95, 598.690002441, -35.3639029, 149.16576, 0.289147406816, 0.148247465491, -0.0450039617717, 0.944664537907,0
2019-04-03 23:05:02.11,85534939, 0.03, -17.8, 145.95, 598.739990234, -35.3639066, 149.1657631, 0.289204627275, 0.148037850857, -0.0450248420238, 0.944678902626,0
2019-04-03 23:05:02.21,85634899, 0.01, -17.78, 145.94, 598.789978027, -35.3639104, 149.165766, 0.289272814989, 0.147838369012, -0.0451075322926, 0.944685339928,0
2019-04-03 23:05:02.31,85734859, 0.01, -17.77, 145.94, 598.840026855, -35.363914, 149.1657692, 0.289325892925, 0.147791206837, -0.0451093390584, 0.944676339626,0
2019-04-03 23:05:02.41,85834819, 0.02, -17.79, 145.93, 598.890014648, -35.3639177, 149.1657722, 0.289373457432, 0.147917956114, -0.045088943094, 0.944642901421,0
2019-04-03 23:05:02.51,85934779, 0.02, -17.84, 145.92, 598.940002441, -35.3639214, 149.1657753, 0.289434075356, 0.148328363895, -0.0452317036688, 0.94455319643,0
