Start,TimeUS,Roll,Pitch,Yaw,Alt,Lat,Lng,Q1,Q2,Q3,Q4,Category
2019-04-03 19:42:42.70,47116146, 0.0, 0.0, 353.0, 584.090026855, -35.363261, 149.1652299, 0.998134791851, 0.0, 0.0, -0.0610485821962,0
2019-04-03 19:42:42.80,47216106, 0.0, 0.0, 353.0, 584.090026855, -35.363261, 149.1652299, 0.998134791851, 0.0, 0.0, -0.0610485821962,0
2019-04-03 19:42:42.89,47316066, 0.0, 0.0, 353.0, 584.090026855, -35.363261, 149.1652299, 0.998134791851, 0.0, 0.0, -0.0610485821962,0
2019-04-03 19:42:42.99,47416026, 0.0, 0.0, 353.0, 584.090026855, -35.363261, 149.1652299, 0.998134791851, 0.0, 0.0, -0.0610485821962,0
2019-04-03 19:42:43.09,47515986, 0.0, 0.0, 353.0, 584.090026855, -35.363261, 149.1652299, 0.998134791851, 0.0, 0.0, -0.0610485821962,0
2019-04-03 19:42:43.19,47615946, 0.0, 0.0, 353.0, 584.090026855, -35.363261, 149.1652299, 0.998134791851, 0.0, 0.0, -0.0610485821962,0
2019-04-03 19:42:43.29,47715906, 0.0, 0.0, 353.0, 584.090026855, -35.363261, 149.1652299, 0.998134791851, 0.0, 0.0, -0.0610485821962,0
2019-04-03 19:42:43.39,47815866, 0.0, 0.0, 353.0, 584.090026855, -35.363261, 149.1652299, 0.998134791851, 0.0, 0.0, -0.0610485821962,0
2019-04-03 19:42:43.49,47915826, 0.0, 0.0, 353.0, 584.090026855, -35.363261, 149.1652299, 0.998134791851, 0.0, 0.0, -0.0610485821962,0
2019-04-03 19:42:43.59,48015786, 0.0, 0.0, 353.0, 584.090026855, -35.363261, 149.1652299, 0.998134791851, 0.0, 0.0, -0.0610485821962,0
2019-04-03 19:42:43.69,48115746, 0.0, 0.0, 353.0, 584.090026855, -35.363261, 149.1652299, 0.998134791851, 0.0, 0.0, -0.0610485821962,0
2019-04-03 19:42:43.79,48215706, 0.0, 0.0, 353.0, 584.090026855, -35.363261, 149.1652299, 0.998134791851, 0.0, 0.0, -0.0610485821962,0
2019-04-03 19:42:43.89,48315666, 0.0, 0.0, 353.0, 584.090026855, -35.363261, 149.1652299, 0.998134791851, 0.0, 0.0, -0.0610485821962,0
2019-04-03 19:42:44.00,48416459, 0.0, 0.0, 353.0, 584.090026855, -35.363261, 149.1652299, 0.998134791851, 0.0, 0.0, -0.0610485821962,0
2019-04-03 19:42:44.10,48516419, 0.0, 0.0, 353.0, 584.090026855, -35.363261, 149.1652299, 0.998134791851, 0.0, 0.0, -0.0610485821962,0
2019-04-03 19:42:44.20,48616379, 0.0, 0.0, 353.0, 584.090026855, -35.363261, 149.1652299, 0.998134791851, 0.0, 0.0, -0.0610485821962,0
2019-04-03 19:42:44.30,48716339, 0.0, 0.0, 353.0, 584.090026855, -35.363261, 149.1652299, 0.998134791851, 0.0, 0.0, -0.0610485821962,0
2019-04-03 19:42:44.40,48816299, 0.0, 0.0, 353.0, 584.090026855, -35.363261, 149.1652299, 0.998134791851, 0.0, 0.0, -0.0610485821962,0
2019-04-03 19:42:44.50,48916259, 0.0, 0.0, 353.0, 584.090026855, -35.363261, 149.1652299, 0.998134791851, 0.0, 0.0, -0.0610485821962,0
2019-04-03 19:42:44.60,49016219, 0.0, 0.0, 353.0, 584.090026855, -35.363261, 149.1652299, 0.998134791851, 0.0, 0.0, -0.0610485821962,0
2019-04-03 19:42:44.70,49116179, 0.0, 0.0, 353.0, 584.090026855, -35.363261, 149.1652299, 0.998134791851, 0.0, 0.0, -0.0610485821962,0
2019-04-03 19:42:44.80,49216139, 0.0, 0.0, 353.0, 584.090026855, -35.363261, 149.1652299, 0.998134791851, 0.0, 0.0, -0.0610485821962,0
2019-04-03 19:42:44.89,49316099, 0.0, 0.0, 353.0, 584.090026855, -35.363261, 149.1652299, 0.998134791851, 0.0, 0.0, -0.0610485821962,0
2019-04-03 19:42:44.99,49416059, 0.0, 0.0, 353.0, 584.090026855, -35.363261, 149.1652299, 0.998134791851, 0.0, 0.0, -0.0610485821962,0
2019-04-03 19:42:45.09,49516019, 0.0, 0.0, 353.0, 584.090026855, -35.363261, 149.1652299, 0.998134791851, 0.0, 0.0, -0.0610485821962,0
2019-04-03 19:42:45.19,49615979, 0.0, 0.0, 353.0, 584.090026855, -35.363261, 149.1652299, 0.998134791851, 0.0, 0.0, -0.0610485821962,0
2019-04-03 19:42:45.29,49715939, 0.0, 0.0, 353.0, 584.090026855, -35.363261, 149.1652299, 0.998134791851, 0.0, 0.0, -0.0610485821962,0
2019-04-03 19:42:45.39,49815899, 0.0, 0.0, 353.0, 584.090026855, -35.363261, 149.1652299, 0.998134791851, 0.0, 0.0, -0.0610485821962,0
2019-04-03 19:42:45.49,49915859, 0.0, 0.0, 353.0, 584.090026855, -35.363261, 149.1652299, 0.998134791851, 0.0, 0.0, -0.0610485821962,0
2019-04-03 19:42:45.59,50015819, 0.0, 0.0, 353.0, 584.090026855, -35.363261, 149.1652299, 0.998134791851, 0.0, 0.0, -0.0610485821962,0
2019-04-03 19:42:45.69,50115779, 0.0, 0.0, 353.0, 584.090026855, -35.363261, 149.1652299, 0.998134791851, 0.0, 0.0, -0.0610486492515,0
2019-04-03 19:42:45.79,50215739, 0.0, 0.0, 353.0, 584.090026855, -35.363261, 149.1652299, 0.998134791851, 0.0, 0.0, -0.0610486641526,0
2019-04-03 19:42:45.89,50315699, 0.0, 0.0, 353.0, 584.090026855, -35.363261, 149.1652299, 0.998134791851, 0.0, 0.0, -0.0610486753285,0
2019-04-03 19:42:45.99,50415659, 0.0, 0.0, 353.0, 584.090026855, -35.363261, 149.1652299, 0.998134791851, 0.0, 0.0, -0.0610486753285,0
2019-04-03 19:42:46.10,50516452, 0.0, 0.0, 353.0, 584.090026855, -35.363261, 149.1652299, 0.998134791851, 0.0, 0.0, -0.0610486753285,0
2019-04-03 19:42:46.20,50616412, 0.0, 0.0, 353.0, 584.090026855, -35.363261, 149.1652299, 0.998134791851, 0.0, 0.0, -0.0610486753285,0
2019-04-03 19:42:46.30,50716372, 0.0, 0.0, 353.0, 584.090026855, -35.363261, 149.1652299, 0.998134791851, 0.0, 0.0, -0.0610486753285,0
2019-04-03 19:42:46.40,50816332, 0.0, 0.0, 353.0, 584.090026855, -35.363261, 149.1652299, 0.998134791851, 0.0, 0.0, -0.0610486753285,0
2019-04-03 19:42:46.50,50916292, 0.0, 0.0, 353.0, 584.099975586, -35.363261, 149.1652299, 0.998134791851, 0.0, 0.0, -0.0610486753285,0
2019-04-03 19:42:46.60,51016252, 0.0, 0.0, 353.0, 584.099975586, -35.363261, 149.1652299, 0.998134791851, 0.0, 0.0, -0.0610486641526,0
2019-04-03 19:42:46.70,51116212, 0.0, 0.0, 353.0, 584.109985352, -35.363261, 149.1652299, 0.998134791851, 0.0, 0.0, -0.0610486753285,0
2019-04-03 19:42:46.80,51216172, 0.0, 0.0, 353.0, 584.130004883, -35.363261, 149.1652299, 0.998134791851, 0.0, 0.0, -0.0610486753285,0
2019-04-03 19:42:46.90,51316132, 0.0, 0.0, 353.0, 584.159973145, -35.363261, 149.1652299, 0.998134791851, 0.0, 0.0, -0.0610486753285,0
2019-04-03 19:42:46.99,51416092, 0.0, 0.0, 353.0, 584.200012207, -35.363261, 149.1652299, 0.998134791851, 0.0, 0.0, -0.061048656702,0
2019-04-03 19:42:47.09,51516052, -0.01, 0.0, 352.99, 584.239990234, -35.363261, 149.1652299, 0.998134672642, -0.000104523191112, -4.40393087047e-05, -0.0610508956015,0
2019-04-03 19:42:47.19,51616012, -0.06, -0.02, 352.99, 584.33001709, -35.363261, 149.1652299, 0.998134016991, -0.000553822843358, -0.000152021966642, -0.0610581040382,0
2019-04-03 19:42:47.29,51715972, -0.12, -0.03, 352.99, 584.469970703, -35.363261, 149.1652299, 0.998132646084, -0.00107651005965, -0.000249396660365, -0.06107359007,0
2019-04-03 19:42:47.39,51815932, -0.16, -0.03, 352.99, 584.630004883, -35.363261, 149.1652299, 0.998130619526, -0.00148895697203, -0.000240797584411, -0.0610983967781,0
2019-04-03 19:42:47.49,51915892, -0.18, -0.01, 352.99, 584.789978027, -35.363261, 149.1652299, 0.998128652573, -0.00165907258634, -6.89538719598e-05, -0.0611264333129,0
2019-04-03 19:42:47.59,52015852, -0.17, 0.0, 352.98, 584.940002441, -35.363261, 149.1652299, 0.99812734127, -0.00154806638602, 0.000119750540762, -0.0611511468887,0
2019-04-03 19:42:47.69,52115812, -0.14, 0.01, 352.98, 585.090026855, -35.363261, 149.1652299, 0.99812656641, -0.0012441878207, 0.000227292068303, -0.0611706599593,0
2019-04-03 19:42:47.79,52215772, -0.1, 0.01, 352.98, 585.25, -35.363261, 149.1652299, 0.998126149178, -0.00093479960924, 0.000175413239049, -0.0611826814711,0
2019-04-03 19:42:47.89,52315732, -0.06, 0.0, 352.98, 585.409973145, -35.363261, 149.1652299, 0.998125970364, -0.000555018021259, -9.03819181985e-06, -0.0611910410225,0
2019-04-03 19:42:47.99,52415692, -0.01, -0.03, 352.98, 585.58001709, -35.363261, 149.1652299, 0.998125612736, -0.000190627775737, -0.000283328525256, -0.0611979141831,0
2019-04-03 19:42:48.10,52516485, 0.0, -0.05, 352.98, 585.760009766, -35.363261, 149.1652299, 0.998125135899, -1.15279617603e-05, -0.000496283464599, -0.0612049661577,0
2019-04-03 19:42:48.20,52616445, -0.01, -0.07, 352.98, 585.940002441, -35.363261, 149.1652299, 0.998124301434, -0.000163090837304, -0.000666139647365, -0.0612158998847,0
2019-04-03 19:42:48.30,52716405, -0.01, -0.07, 352.98, 586.119995117, -35.363261, 149.1652299, 0.998124182224, -0.000145586134749, -0.000675620336551, -0.0612174458802,0
2019-04-03 19:42:48.40,52816365, 0.01, -0.05, 352.98, 586.309997559, -35.363261, 149.1652298, 0.998124539852, 0.000131461274577, -0.000477109133499, -0.0612136907876,0
2019-04-03 19:42:48.50,52916325, 0.05, -0.02, 352.98, 586.5, -35.363261, 149.1652298, 0.998125135899, 0.00044657086255, -0.000228292978136, -0.0612044073641,0
2019-04-03 19:42:48.60,53016285, 0.06, 0.0, 352.98, 586.700012207, -35.363261, 149.1652298, 0.998125553131, 0.000596270314418, 2.69086849585e-05, -0.0611975304782,0
2019-04-03 19:42:48.70,53116245, 0.07, 0.02, 352.98, 586.890014648, -35.363261, 149.1652298, 0.998125910759, 0.000661051482894, 0.000169412960531, -0.0611905194819,0
2019-04-03 19:42:48.80,53216205, 0.06, 0.0, 352.98, 587.090026855, -35.363261, 149.1652298, 0.998125910759, 0.000534486840479, 1.54853557888e-06, -0.0611915141344,0
2019-04-03 19:42:48.90,53316165, 0.02, -0.02, 352.98, 587.299987793, -35.363261, 149.1652298, 0.998126149178, 0.00016477140889, -0.000210272031836, -0.0611895658076,0
2019-04-03 19:42:49.00,53416125, 0.0, -0.02, 352.98, 587.5, -35.363261, 149.1652298, 0.998126029968, -5.26405638084e-05, -0.000221124966629, -0.0611918792129,0
2019-04-03 19:42:49.09,53516085, -0.01, -0.01, 352.98, 587.710021973, -35.363261, 149.1652298, 0.998125493526, -0.000139839670737, -0.000155604298925, -0.0612007640302,0
2019-04-03 19:42:49.19,53616045, -0.01, 0.0, 352.98, 587.909973145, -35.363261, 149.1652298, 0.998124599457, -0.000127312276163, -4.63530022898e-06, -0.0612148977816,0
2019-04-03 19:42:49.29,53716005, 0.0, 0.02, 352.97, 588.119995117, -35.363261, 149.1652298, 0.998123884201, 6.97456707712e-05, 0.000188754856936, -0.0612267516553,0
2019-04-03 19:42:49.39,53815965, 0.04, 0.03, 352.97, 588.33001709, -35.363261, 149.1652298, 0.998123407364, 0.000375334144337, 0.000315150537062, -0.0612328052521,0
2019-04-03 19:42:49.49,53915925, 0.06, 0.02, 352.97, 588.539978027, -35.363261, 149.1652298, 0.99812322855, 0.000552535930183, 0.000152079039253, -0.0612344443798,0
2019-04-03 19:42:49.59,54015885, 0.04, -0.01, 352.97, 588.760009766, -35.363261, 149.1652298, 0.998122811317, 0.000350733113009, -0.000118255687994, -0.0612431205809,0
2019-04-03 19:42:49.69,54115845, 0.0, -0.05, 352.97, 588.969970703, -35.363261, 149.1652298, 0.998121917248, 2.02318892661e-06, -0.000481634982862, -0.0612565986812,0
2019-04-03 19:42:49.79,54215805, -0.02, -0.09, 352.97, 589.179992676, -35.363261, 149.1652298, 0.998120903969, -0.000310959410854, -0.000831534271128, -0.0612688474357,0
2019-04-03 19:42:49.89,54315765, -0.04, -0.11, 352.97, 589.400024414, -35.363261, 149.1652298, 0.99811989069, -0.000455586356111, -0.000981686986051, -0.0612825043499,0
2019-04-03 19:42:49.99,54415725, -0.05, -0.12, 352.97, 589.619995117, -35.363261, 149.1652298, 0.998118698597, -0.000557897496037, -0.00106958672404, -0.0612995624542,0
2019-04-03 19:42:50.09,54515685, -0.05, -0.13, 352.96, 589.840026855, -35.363261, 149.1652298, 0.998117625713, -0.000550704833586, -0.00111292628571, -0.0613163709641,0
2019-04-03 19:42:50.20,54616478, -0.05, -0.13, 352.96, 590.059997559, -35.363261, 149.1652298, 0.998116314411, -0.000551969453227, -0.00111570081208, -0.0613372214139,0
2019-04-03 19:42:50.30,54716438, -0.07, -0.13, 352.96, 590.280029297, -35.3632609, 149.1652298, 0.998115122318, -0.000705103331711, -0.00117676891387, -0.061354290694,0
2019-04-03 19:42:50.40,54816398, -0.08, -0.15, 352.96, 590.5, -35.3632609, 149.1652298, 0.998114049435, -0.000796520675067, -0.00132137991022, -0.0613672882318,0
2019-04-03 19:42:50.50,54916358, -0.07, -0.17, 352.96, 590.719970703, -35.3632609, 149.1652298, 0.998112738132, -0.00072223279858, -0.0014423164539, -0.0613875947893,0
2019-04-03 19:42:50.60,55016318, -0.06, -0.15, 352.95, 590.940002441, -35.3632609, 149.1652298, 0.998111724854, -0.000641675433144, -0.00135720276739, -0.0614065974951,0
2019-04-03 19:42:50.70,55116278, -0.06, -0.12, 352.95, 591.159973145, -35.3632609, 149.1652298, 0.99811154604, -0.000638355035335, -0.00108498241752, -0.0614155940711,0
2019-04-03 19:42:50.80,55216238, -0.08, -0.1, 352.95, 591.390014648, -35.3632609, 149.1652297, 0.998111128807, -0.000776474538725, -0.000846953946166, -0.0614235475659,0
2019-04-03 19:42:50.90,55316198, -0.1, -0.07, 352.95, 591.609985352, -35.3632609, 149.1652297, 0.998111009598, -0.000935651478358, -0.00063786492683, -0.061425883323,0
2019-04-03 19:42:51.00,55416158, -0.12, -0.06, 352.95, 591.840026855, -35.3632609, 149.1652297, 0.998110771179, -0.00109853001777, -0.000460112671135, -0.0614291317761,0
2019-04-03 19:42:51.10,55516118, -0.13, -0.05, 352.95, 592.059997559, -35.3632608, 149.1652297, 0.99810987711, -0.00124389119446, -0.000389185646782, -0.0614409372211,0
2019-04-03 19:42:51.19,55616078, -0.13, -0.04, 352.95, 592.289978027, -35.3632608, 149.1652297, 0.998108446598, -0.00121509819292, -0.000348176894477, -0.0614649802446,0
2019-04-03 19:42:51.29,55716038, -0.14, -0.04, 352.94, 592.510009766, -35.3632608, 149.1652297, 0.99810642004, -0.00125393155031, -0.000278919935226, -0.0614974014461,0
2019-04-03 19:42:51.39,55815998, -0.14, -0.02, 352.94, 592.729980469, -35.3632608, 149.1652297, 0.99810475111, -0.00124145124573, -0.000118003590615, -0.0615254715085,0
2019-04-03 19:42:51.49,55915958, -0.13, 0.0, 352.94, 592.950012207, -35.3632608, 149.1652296, 0.998103320599, -0.00114775251132, 0.000116295428597, -0.0615508705378,0
2019-04-03 19:42:51.59,56015918, -0.11, 0.03, 352.93, 593.150024414, -35.3632608, 149.1652296, 0.998102068901, -0.00101226638071, 0.000373999093426, -0.0615729019046,0
2019-04-03 19:42:51.69,56115878, -0.09, 0.04, 352.93, 593.340026855, -35.3632608, 149.1652296, 0.998101055622, -0.000820663233753, 0.000460516253952, -0.0615909472108,0
2019-04-03 19:42:51.79,56215838, -0.06, 0.02, 352.93, 593.520019531, -35.3632607, 149.1652296, 0.998100280762, -0.000548765063286, 0.000294918427244, -0.0616070814431,0
2019-04-03 19:42:51.89,56315798, -0.04, 0.0, 352.93, 593.690002441, -35.3632607, 149.1652296, 0.998099386692, -0.00037047296064, 4.93971638207e-05, -0.0616237968206,0
2019-04-03 19:42:51.99,56415758, -0.04, -0.01, 352.93, 593.849975586, -35.3632607, 149.1652294, 0.998098433018, -0.000434693181887, -0.000147685364936, -0.0616390705109,0
2019-04-03 19:42:52.09,56515718, -0.18, -0.07, 352.93, 593.989990234, -35.3632607, 149.1652294, 0.998096108437, -0.00161754479632, -0.000568661373109, -0.0616545267403,0
2019-04-03 19:42:52.19,56615678, -0.55, -0.19, 352.92, 594.130004883, -35.3632607, 149.1652294, 0.998083174229, -0.00497542088851, -0.00143927824683, -0.0616697147489,0
2019-04-03 19:42:52.30,56716471, -1.21, -0.4, 352.93, 594.25, -35.3632607, 149.1652294, 0.998033702374, -0.010762267746, -0.0028382265009, -0.061683960259,0
2019-04-03 19:42:52.40,56816431, -2.07, -0.67, 352.93, 594.349975586, -35.3632607, 149.1652293, 0.997913479805, -0.0184167735279, -0.00472163408995, -0.0617022998631,0
2019-04-03 19:42:52.50,56916391, -3.06, -0.95, 352.94, 594.450012207, -35.3632607, 149.1652293, 0.997698664665, -0.027216706425, -0.00668651191518, -0.0617411248386,0
2019-04-03 19:42:52.60,57016351, -4.04, -1.22, 352.95, 594.530029297, -35.3632607, 149.1652292, 0.997406899929, -0.0358672142029, -0.00849051401019, -0.0618140175939,0
2019-04-03 19:42:52.70,57116311, -4.86, -1.44, 352.95, 594.599975586, -35.3632605, 149.1652289, 0.997099220753, -0.0431190505624, -0.00993676483631, -0.0619287565351,0
2019-04-03 19:42:52.80,57216271, -5.49, -1.6, 352.95, 594.66998291, -35.3632605, 149.1652287, 0.996823489666, -0.0486790314317, -0.0110309738666, -0.0620617903769,0
2019-04-03 19:42:52.90,57316231, -5.95, -1.72, 352.94, 594.719970703, -35.3632604, 149.1652284, 0.996598482132, -0.0527348667383, -0.0118378642946, -0.0622126571834,0
2019-04-03 19:42:53.00,57416191, -6.32, -1.84, 352.93, 594.770019531, -35.3632604, 149.1652279, 0.996397435665, -0.0560610294342, -0.0126225249842, -0.062369953841,0
2019-04-03 19:42:53.10,57516151, -6.67, -1.96, 352.93, 594.809997559, -35.3632604, 149.1652274, 0.996196389198, -0.0591790266335, -0.0134568978101, -0.0625264048576,0
2019-04-03 19:42:53.20,57616111, -7.04, -2.08, 352.92, 594.849975586, -35.3632603, 149.1652268, 0.995977044106, -0.0624245516956, -0.0142994951457, -0.0626771450043,0
2019-04-03 19:42:53.29,57716071, -7.42, -2.19, 352.92, 594.880004883, -35.3632602, 149.165226, 0.995735704899, -0.0658308118582, -0.015116953291, -0.0628347322345,0
2019-04-03 19:42:53.39,57816031, -7.74, -2.3, 352.91, 594.909973145, -35.3632601, 149.1652253, 0.99552488327, -0.0686508715153, -0.0158209372312, -0.062984354794,0
2019-04-03 19:42:53.49,57915991, -7.97, -2.38, 352.9, 594.929992676, -35.3632599, 149.1652244, 0.995367050171, -0.0706374496222, -0.016451254487, -0.0631201788783,0
2019-04-03 19:42:53.59,58015951, -8.11, -2.45, 352.9, 594.950012207, -35.3632598, 149.1652234, 0.995255947113, -0.0719675719738, -0.016954196617, -0.0632361397147,0
2019-04-03 19:42:53.69,58115911, -8.23, -2.51, 352.89, 594.969970703, -35.3632597, 149.1652224, 0.995166301727, -0.0730017870665, -0.0174375828356, -0.0633304938674,0
2019-04-03 19:42:53.79,58215871, -8.34, -2.56, 352.89, 594.989990234, -35.3632595, 149.1652212, 0.99508446455, -0.0739628449082, -0.0177417658269, -0.0634162500501,0
2019-04-03 19:42:53.89,58315831, -8.46, -2.57, 352.88, 595.010009766, -35.3632592, 149.1652198, 0.994999170303, -0.0750185102224, -0.0178227219731, -0.0634917169809,0
2019-04-03 19:42:53.99,58415791, -8.72, -2.45, 352.76, 595.030029297, -35.3632591, 149.1652186, 0.994783937931, -0.0772506520152, -0.0164783895016, -0.0645424202085,0
2019-04-03 19:42:54.09,58515751, -9.17, -2.11, 351.98, 595.039978027, -35.3632589, 149.1652172, 0.994090080261, -0.0810425505042, -0.0128038702533, -0.071084856987,0
2019-04-03 19:42:54.19,58615711, -9.71, -1.83, 349.87, 595.059997559, -35.3632586, 149.1652157, 0.992274522781, -0.0857231840491, -0.00846511870623, -0.0892816931009,0
2019-04-03 19:42:54.29,58715671, -10.16, -1.99, 346.11, 595.070007324, -35.3632586, 149.165214, 0.988425433636, -0.0900382399559, -0.00649275211617, -0.121926769614,0
2019-04-03 19:42:54.40,58816464, -10.37, -2.79, 340.78, 595.08001709, -35.3632584, 149.1652124, 0.981270194054, -0.0932102128863, -0.0088511435315, -0.16835168004,0
2019-04-03 19:42:54.50,58916424, -10.18, -4.22, 334.24, 595.099975586, -35.3632582, 149.1652107, 0.969601690769, -0.0946828052402, -0.0160127747804, -0.225058436394,0
2019-04-03 19:42:54.60,59016384, -9.51, -6.13, 326.73, 595.109985352, -35.363258, 149.1652087, 0.952212095261, -0.0946289971471, -0.0273487344384, -0.289118528366,0
2019-04-03 19:42:54.70,59116344, -8.34, -8.22, 318.51, 595.119995117, -35.363258, 149.1652068, 0.928434610367, -0.0932140275836, -0.0412148311734, -0.357241660357,0
2019-04-03 19:42:54.80,59216304, -6.68, -10.23, 309.83, 595.140014648, -35.3632579, 149.1652048, 0.898342251778, -0.0903462171555, -0.0560497194529, -0.42623603344,0
2019-04-03 19:42:54.90,59316264, -4.63, -11.9, 300.98, 595.159973145, -35.3632577, 149.1652026, 0.862806260586, -0.0860389843583, -0.0704022273421, -0.49315944314,0
2019-04-03 19:42:55.00,59416224, -2.35, -13.08, 292.26, 595.16998291, -35.3632576, 149.1652004, 0.823465526104, -0.0804211720824, -0.0831830278039, -0.555443584919,0
2019-04-03 19:42:55.10,59516184, 0.03, -13.72, 284.01, 595.190002441, -35.3632574, 149.1651981, 0.78247320652, -0.0733369663358, -0.0943185463548, -0.611114859581,0
2019-04-03 19:42:55.20,59616144, 2.58, -13.9, 276.72, 595.210021973, -35.3632572, 149.1651956, 0.743473052979, -0.0636380240321, -0.105313457549, -0.657348573208,0
2019-04-03 19:42:55.29,59716104, 4.97, -13.72, 271.04, 595.229980469, -35.3632568, 149.1651929, 0.711398363113, -0.0529153048992, -0.115346699953, -0.691236197948,0
2019-04-03 19:42:55.39,59816064, 6.76, -13.4, 267.36, 595.239990234, -35.3632565, 149.1651904, 0.689729094505, -0.0437943637371, -0.122869618237, -0.71222114563,0
2019-04-03 19:42:55.49,59916024, 7.69, -13.15, 265.63, 595.260009766, -35.3632561, 149.1651877, 0.679322183132, -0.0385140143335, -0.126600697637, -0.721810460091,0
2019-04-03 19:42:55.59,60015984, 7.68, -13.11, 265.58, 595.280029297, -35.3632555, 149.1651848, 0.679018676281, -0.0383894592524, -0.126242309809, -0.722165346146,0
2019-04-03 19:42:55.69,60115944, 6.79, -13.32, 266.85, 595.299987793, -35.363255, 149.1651819, 0.686610102654, -0.0436497293413, -0.122419767082, -0.715314388275,0
2019-04-03 19:42:55.79,60215904, 5.26, -13.76, 269.08, 595.320007324, -35.3632543, 149.1651789, 0.699563860893, -0.0533624216914, -0.116476379335, -0.702990889549,0
2019-04-03 19:42:55.89,60315864, 3.34, -14.33, 271.92, 595.340026855, -35.3632537, 149.1651758, 0.71547806263, -0.0658734217286, -0.109822303057, -0.686797618866,0
2019-04-03 19:42:55.99,60415824, 1.34, -14.91, 275.04, 595.359985352, -35.3632531, 149.1651727, 0.73227083683, -0.0790711790323, -0.103623844683, -0.668422996998,0
2019-04-03 19:42:56.09,60515784, -0.48, -15.38, 278.1, 595.390014648, -35.3632524, 149.1651695, 0.74815261364, -0.0908569991589, -0.0983610525727, -0.649875283241,0
2019-04-03 19:42:56.19,60615744, -1.95, -15.66, 280.77, 595.409973145, -35.3632517, 149.1651661, 0.76161724329, -0.0998738408089, -0.0942060500383, -0.633316338062,0
2019-04-03 19:42:56.29,60715704, -2.94, -15.77, 282.8, 595.429992676, -35.3632511, 149.1651628, 0.771688997746, -0.105487152934, -0.0913357138634, -0.620504915714,0
2019-04-03 19:42:56.39,60815664, -3.44, -15.77, 284.05, 595.460021973, -35.3632505, 149.1651593, 0.777938485146, -0.107855692506, -0.089766472578, -0.612471163273,0
2019-04-03 19:42:56.50,60916457, -3.5, -15.71, 284.51, 595.479980469, -35.3632499, 149.1651556, 0.780410647392, -0.107571639121, -0.0895308107138, -0.609402835369,0
2019-04-03 19:42:56.60,61016417, -3.18, -15.67, 284.27, 595.5, -35.3632493, 149.1651521, 0.779466629028, -0.105369538069, -0.0907364562154, -0.610815823078,0
2019-04-03 19:42:56.70,61116377, -2.56, -15.68, 283.48, 595.520019531, -35.3632488, 149.1651483, 0.775814592838, -0.101860292256, -0.0933796614408, -0.615643143654,0
2019-04-03 19:42:56.80,61216337, -1.77, -15.75, 282.34, 595.549987793, -35.3632482, 149.1651446, 0.770266830921, -0.0978526696563, -0.0971822068095, -0.622631072998,0
2019-04-03 19:42:56.90,61316297, -0.91, -15.88, 281.04, 595.570007324, -35.3632477, 149.1651407, 0.763728320599, -0.093943528831, -0.101647242904, -0.630524814129,0
2019-04-03 19:42:57.00,61416257, -0.09, -16.04, 279.75, 595.590026855, -35.3632473, 149.1651368, 0.757096409798, -0.0905871316791, -0.106184884906, -0.638219296932,0
2019-04-03 19:42:57.10,61516217, 0.57, -16.16, 278.62, 595.619995117, -35.3632468, 149.1651327, 0.75118803978, -0.0878970772028, -0.109845168889, -0.644922316074,0
2019-04-03 19:42:57.20,61616177, 1.05, -16.21, 277.75, 595.640014648, -35.3632462, 149.1651288, 0.746609568596, -0.0858822986484, -0.112196184695, -0.650084972382,0
2019-04-03 19:42:57.30,61716137, 1.3, -16.22, 277.2, 595.659973145, -35.3632457, 149.1651248, 0.743647873402, -0.0848488733172, -0.113341607153, -0.653408169746,0
2019-04-03 19:42:57.39,61816097, 1.35, -16.25, 276.97, 595.690002441, -35.3632451, 149.1651206, 0.742338716984, -0.08491101861, -0.11357999593, -0.654845774174,0
2019-04-03 19:42:57.49,61916057, 1.23, -16.27, 277.02, 595.710021973, -35.3632446, 149.1651164, 0.742550194263, -0.085750669241, -0.113089248538, -0.654581487179,0
2019-04-03 19:42:57.59,62016017, 0.99, -16.3, 277.31, 595.729980469, -35.363244, 149.1651123, 0.743963778019, -0.0872241556644, -0.112172730267, -0.652937293053,0
2019-04-03 19:42:57.69,62115977, 0.68, -16.34, 277.75, 595.760009766, -35.3632434, 149.1651081, 0.746192753315, -0.08902092278, -0.110936865211, -0.650357365608,0
2019-04-03 19:42:57.79,62215937, 0.35, -16.38, 278.26, 595.780029297, -35.3632428, 149.1651038, 0.748817622662, -0.09089833498, -0.10979527235, -0.647267103195,0
2019-04-03 19:42:57.89,62315897, 0.05, -16.42, 278.78, 595.799987793, -35.3632421, 149.1650995, 0.751464128494, -0.0926030948758, -0.108725629747, -0.644131302834,0
2019-04-03 19:42:57.99,62415857, -0.19, -16.45, 279.24, 595.83001709, -35.3632415, 149.1650951, 0.753820240498, -0.0939832478762, -0.107927344739, -0.641306400299,0
2019-04-03 19:42:58.09,62515817, -0.37, -16.49, 279.61, 595.849975586, -35.3632409, 149.1650906, 0.75566637516, -0.0950089991093, -0.10749207437, -0.639051735401,0
2019-04-03 19:42:58.19,62615777, -0.48, -16.53, 279.85, 595.869995117, -35.3632403, 149.1650862, 0.75686609745, -0.0958064943552, -0.107333764434, -0.637537658215,0
2019-04-03 19:42:58.29,62715737, -0.53, -16.58, 279.96, 595.900024414, -35.3632397, 149.1650819, 0.757409870625, -0.0962853729725, -0.107484675944, -0.636793911457,0
2019-04-03 19:42:58.39,62815697, -0.51, -16.63, 279.96, 595.91998291, -35.3632391, 149.1650774, 0.757363200188, -0.096452832222, -0.107901610434, -0.636753559113,0
2019-04-03 19:42:58.50,62916490, -0.42, -16.67, 279.86, 595.940002441, -35.3632385, 149.1650728, 0.756868004799, -0.0961368530989, -0.108596391976, -0.637271821499,0
2019-04-03 19:42:58.60,63016450, -0.28, -16.68, 279.7, 595.969970703, -35.3632379, 149.1650683, 0.756079077721, -0.0954212024808, -0.109321817756, -0.638191223145,0
2019-04-03 19:42:58.70,63116410, -0.12, -16.67, 279.51, 595.989990234, -35.3632373, 149.1650637, 0.755132913589, -0.0945289060473, -0.109956741333, -0.639334142208,0
2019-04-03 19:42:58.80,63216370, 0.0, -16.67, 279.31, 596.010009766, -35.3632367, 149.165059, 0.75413107872, -0.0938474535942, -0.110485352576, -0.640524744987,0
2019-04-03 19:42:58.90,63316330, 0.09, -16.67, 279.13, 596.039978027, -35.3632361, 149.1650545, 0.753203749657, -0.0934087261558, -0.110949739814, -0.641598880291,0
2019-04-03 19:42:59.00,63416290, 0.17, -16.69, 278.99, 596.059997559, -35.3632355, 149.1650498, 0.752465903759, -0.0931041166186, -0.111347518861, -0.642439424992,0
2019-04-03 19:42:59.10,63516250, 0.22, -16.71, 278.9, 596.090026855, -35.3632349, 149.1650451, 0.751958727837, -0.0930474326015, -0.111687332392, -0.642982244492,0
2019-04-03 19:42:59.20,63616210, 0.24, -16.75, 278.86, 596.109985352, -35.3632342, 149.1650405, 0.751714706421, -0.0931453853846, -0.112032733858, -0.643193304539,0
2019-04-03 19:42:59.30,63716170, 0.22, -16.81, 278.86, 596.140014648, -35.3632336, 149.1650358, 0.751694381237, -0.0935608744621, -0.112335540354, -0.643103957176,0
2019-04-03 19:42:59.40,63816130, 0.19, -16.87, 278.91, 596.159973145, -35.363233, 149.1650311, 0.75187265873, -0.0941086411476, -0.112583309412, -0.642772197723,0
2019-04-03 19:42:59.49,63916090, 0.14, -16.92, 278.99, 596.179992676, -35.3632323, 149.1650263, 0.7522097826, -0.0945960655808, -0.112699225545, -0.642285764217,0
2019-04-03 19:42:59.59,64016050, 0.08, -16.95, 279.08, 596.210021973, -35.3632317, 149.1650216, 0.752631485462, -0.0950891673565, -0.11263474077, -0.641729950905,0
2019-04-03 19:42:59.69,64116010, 0.02, -16.97, 279.17, 596.229980469, -35.363231, 149.1650168, 0.753077685833, -0.0955405533314, -0.112528659403, -0.641157746315,0
2019-04-03 19:42:59.79,64215970, -0.01, -16.97, 279.26, 596.260009766, -35.3632304, 149.165012, 0.753524839878, -0.0957302004099, -0.112377531826, -0.640630424023,0
2019-04-03 19:42:59.89,64315930, -0.03, -17.0, 279.33, 596.280029297, -35.3632298, 149.1650072, 0.753889501095, -0.0958929359913, -0.112516313791, -0.640152573586,0
2019-04-03 19:42:59.99,64415890, -0.04, -17.04, 279.38, 596.309997559, -35.3632291, 149.1650023, 0.754138469696, -0.0961160436273, -0.112753562629, -0.639783978462,0
2019-04-03 19:43:00.09,64515850, -0.03, -17.06, 279.41, 596.33001709, -35.3632285, 149.1649975, 0.754287838936, -0.0962263941765, -0.112980753183, -0.63955116272,0
2019-04-03 19:43:00.19,64615810, -0.02, -17.07, 279.42, 596.359985352, -35.3632278, 149.1649926, 0.754352867603, -0.096200697124, -0.11312199384, -0.639453351498,0
2019-04-03 19:43:00.29,64715770, -0.01, -17.08, 279.42, 596.380004883, -35.3632272, 149.1649876, 0.754343152046, -0.0961074084044, -0.113240107894, -0.639457941055,0
2019-04-03 19:43:00.39,64815730, 0.0, -17.1, 279.41, 596.409973145, -35.3632264, 149.1649828, 0.754250466824, -0.0961726382375, -0.113390676677, -0.639530837536,0
2019-04-03 19:43:00.49,64915690, 0.0, -17.14, 279.39, 596.429992676, -35.3632258, 149.1649779, 0.754090309143, -0.0964635014534, -0.113641381264, -0.639631330967,0
2019-04-03 19:43:00.60,65016483, 0.0, -17.17, 279.36, 596.450012207, -35.3632251, 149.164973, 0.753942370415, -0.0966275632381, -0.113789491355, -0.639754652977,0
2019-04-03 19:43:00.70,65116443, 0.01, -17.16, 279.34, 596.479980469, -35.3632245, 149.1649679, 0.753856062889, -0.096476174891, -0.113813512027, -0.63987493515,0
2019-04-03 19:43:00.80,65216403, 0.04, -17.15, 279.33, 596.5, -35.3632239, 149.1649631, 0.753815114498, -0.0962030291557, -0.113973684609, -0.639935731888,0
2019-04-03 19:43:00.90,65316363, 0.07, -17.17, 279.32, 596.530029297, -35.3632232, 149.1649581, 0.753776073456, -0.0961452648044, -0.114238537848, -0.639943242073,0
2019-04-03 19:43:01.00,65416323, 0.06, -17.2, 279.32, 596.549987793, -35.3632225, 149.1649531, 0.753734827042, -0.0963770523667, -0.114404521883, -0.639927268028,0
2019-04-03 19:43:01.10,65516283, 0.03, -17.24, 279.33, 596.58001709, -35.3632219, 149.1649482, 0.753703474998, -0.0968328043818, -0.114503629506, -0.639877676964,0
2019-04-03 19:43:01.20,65616243, 0.0, -17.28, 279.34, 596.599975586, -35.3632212, 149.1649431, 0.753713309765, -0.0972276479006, -0.114556893706, -0.639796674252,0
2019-04-03 19:43:01.30,65716203, 0.0, -17.31, 279.36, 596.630004883, -35.3632205, 149.1649382, 0.753770709038, -0.0974337384105, -0.114713527262, -0.639669597149,0
2019-04-03 19:43:01.40,65816163, 0.0, -17.33, 279.38, 596.650024414, -35.3632197, 149.1649332, 0.753844976425, -0.0975582152605, -0.11491008848, -0.639527857304,0
2019-04-03 19:43:01.50,65916123, 0.01, -17.35, 279.39, 596.679992676, -35.3632191, 149.1649282, 0.753939688206, -0.0975117981434, -0.115149237216, -0.639380216599,0
2019-04-03 19:43:01.59,66016083, 0.02, -17.38, 279.41, 596.700012207, -35.3632184, 149.164923, 0.754004538059, -0.0975750610232, -0.115374132991, -0.639253497124,0
2019-04-03 19:43:01.69,66116043, 0.02, -17.4, 279.42, 596.729980469, -35.3632178, 149.1649181, 0.754052698612, -0.097691334784, -0.115587577224, -0.639140427113,0
2019-04-03 19:43:01.79,66216003, 0.02, -17.43, 279.43, 596.75, -35.3632171, 149.1649131, 0.754098951817, -0.0977915376425, -0.115769535303, -0.639037549496,0
2019-04-03 19:43:01.89,66315963, 0.04, -17.45, 279.44, 596.780029297, -35.3632164, 149.164908, 0.754149019718, -0.0977984368801, -0.115971520543, -0.638940811157,0
2019-04-03 19:43:01.99,66415923, 0.07, -17.47, 279.45, 596.799987793, -35.3632157, 149.1649028, 0.754193782806, -0.0977397412062, -0.116338521242, -0.638830244541,0
2019-04-03 19:43:02.09,66515883, 0.07, -17.48, 279.46, 596.83001709, -35.3632151, 149.1648978, 0.754230320454, -0.0977205336094, -0.116420678794, -0.63877505064,0
2019-04-03 19:43:02.19,66615843, 0.05, -17.49, 279.46, 596.849975586, -35.3632143, 149.1648928, 0.754223823547, -0.0979094430804, -0.116371184587, -0.638762831688,0
2019-04-03 19:43:02.29,66715803, 0.03, -17.51, 279.46, 596.880004883, -35.3632136, 149.1648876, 0.754198491573, -0.0981594026089, -0.116398334503, -0.638749420643,0
2019-04-03 19:43:02.39,66815763, 0.0, -17.52, 279.47, 596.900024414, -35.363213, 149.1648826, 0.7541654706, -0.0984356254339, -0.11630872637, -0.638762235641,0
2019-04-03 19:43:02.49,66915723, -0.01, -17.53, 279.47, 596.91998291, -35.3632123, 149.1648775, 0.754138946533, -0.0986272916198, -0.116222530603, -0.638779640198,0
2019-04-03 19:43:02.59,67015683, -0.02, -17.53, 279.47, 596.950012207, -35.3632116, 149.1648724, 0.754126191139, -0.0986839160323, -0.116209805012, -0.638788282871,0
2019-04-03 19:43:02.70,67116476, -0.01, -17.53, 279.46, 596.969970703, -35.3632109, 149.1648672, 0.754130601883, -0.098598331213, -0.116257637739, -0.638787567616,0
2019-04-03 19:43:02.80,67216436, 0.0, -17.54, 279.46, 597.0, -35.3632102, 149.1648621, 0.754130005836, -0.0985527858138, -0.116367675364, -0.638775289059,0
2019-04-03 19:43:02.90,67316396, 0.0, -17.56, 279.46, 597.020019531, -35.3632094, 149.1648569, 0.754105746746, -0.0986971110106, -0.116516053677, -0.638754606247,0
2019-04-03 19:43:03.00,67416356, 0.0, -17.61, 279.46, 597.049987793, -35.3632087, 149.1648517, 0.75407242775, -0.0989153459668, -0.116827629507, -0.638703286648,0
2019-04-03 19:43:03.10,67516316, 0.01, -17.62, 279.47, 597.070007324, -35.363208, 149.1648466, 0.754078269005, -0.0989453047514, -0.117019318044, -0.638656616211,0
2019-04-03 19:43:03.20,67616276, 0.02, -17.62, 279.47, 597.099975586, -35.3632073, 149.1648415, 0.75410681963, -0.0988518893719, -0.117089800537, -0.638624489307,0
2019-04-03 19:43:03.30,67716236, 0.04, -17.63, 279.47, 597.119995117, -35.3632066, 149.1648363, 0.754132151604, -0.0987832918763, -0.117187313735, -0.638587236404,0
2019-04-03 19:43:03.40,67816196, 0.05, -17.65, 279.48, 597.150024414, -35.3632058, 149.1648311, 0.754141449928, -0.0988299325109, -0.117408782244, -0.63852840662,0
2019-04-03 19:43:03.50,67916156, 0.06, -17.68, 279.48, 597.16998291, -35.3632051, 149.164826, 0.754139065742, -0.0989264249802, -0.117669783533, -0.638468205929,0
2019-04-03 19:43:03.60,68016116, 0.06, -17.71, 279.48, 597.200012207, -35.3632045, 149.1648208, 0.754130601883, -0.0990400165319, -0.117876946926, -0.638422429562,0
2019-04-03 19:43:03.69,68116076, 0.06, -17.74, 279.49, 597.219970703, -35.3632038, 149.1648156, 0.754106223583, -0.0992092117667, -0.118082687259, -0.638386905193,0
2019-04-03 19:43:03.79,68216036, 0.05, -17.77, 279.49, 597.25, -35.3632031, 149.1648104, 0.754062533379, -0.0994811207056, -0.118164889514, -0.638381004333,0
2019-04-03 19:43:03.89,68315996, 0.02, -17.78, 279.49, 597.270019531, -35.3632024, 149.1648052, 0.754034817219, -0.0996958613396, -0.118109352887, -0.638390481472,0
2019-04-03 19:43:03.99,68415956, 0.0, -17.77, 279.49, 597.299987793, -35.3632017, 149.1647999, 0.754027962685, -0.0997985973954, -0.11798042804, -0.638406395912,0
2019-04-03 19:43:04.09,68515916, 0.0, -17.76, 279.49, 597.320007324, -35.3632008, 149.1647947, 0.754045069218, -0.0997383669019, -0.117828562856, -0.638423621655,0
2019-04-03 19:43:04.19,68615876, 0.0, -17.75, 279.49, 597.349975586, -35.3632002, 149.1647896, 0.754056751728, -0.0996531322598, -0.117807142437, -0.638427078724,0
2019-04-03 19:43:04.29,68715836, 0.02, -17.76, 279.49, 597.369995117, -35.3631995, 149.1647844, 0.754051625729, -0.0996054261923, -0.117980748415, -0.638408541679,0
2019-04-03 19:43:04.39,68815796, 0.05, -17.78, 279.48, 597.400024414, -35.3631988, 149.1647792, 0.754048287868, -0.0995205193758, -0.118320547044, -0.638362824917,0
2019-04-03 19:43:04.49,68915756, 0.08, -17.81, 279.48, 597.41998291, -35.3631981, 149.1647739, 0.7540397048, -0.0994684100151, -0.118632413447, -0.638323187828,0
2019-04-03 19:43:04.59,69015716, 0.09, -17.83, 279.48, 597.440002441, -35.3631974, 149.1647687, 0.754019677639, -0.0995239168406, -0.118828192353, -0.638301789761,0
2019-04-03 19:43:04.69,69115676, 0.08, -17.83, 279.48, 597.469970703, -35.3631965, 149.1647635, 0.754005014896, -0.0996042639017, -0.118739388883, -0.638323068619,0
2019-04-03 19:43:04.80,69216469, 0.06, -17.83, 279.48, 597.489990234, -35.3631959, 149.1647582, 0.753984689713, -0.0997355952859, -0.118654094636, -0.638342499733,0
2019-04-03 19:43:04.90,69316429, 0.05, -17.83, 279.48, 597.520019531, -35.3631952, 149.1647529, 0.753969192505, -0.099838629365, -0.11862385273, -0.638350248337,0
2019-04-03 19:43:05.00,69416389, 0.04, -17.86, 279.48, 597.539978027, -35.3631945, 149.1647477, 0.753929793835, -0.100059568882, -0.1187434569, -0.638340055943,0
2019-04-03 19:43:05.10,69516349, 0.04, -17.89, 279.48, 597.570007324, -35.3631936, 149.1647424, 0.753899753094, -0.100234247744, -0.118964061141, -0.638307034969,0
2019-04-03 19:43:05.20,69616309, 0.04, -17.92, 279.48, 597.590026855, -35.3631929, 149.1647372, 0.753874123096, -0.100406140089, -0.119130693376, -0.6382791996,0
2019-04-03 19:43:05.30,69716269, 0.05, -17.93, 279.48, 597.609985352, -35.3631923, 149.1647319, 0.753880977631, -0.10038690269, -0.119257703424, -0.638250410557,0
2019-04-03 19:43:05.40,69816229, 0.07, -17.93, 279.48, 597.640014648, -35.3631916, 149.1647266, 0.75390714407, -0.10023470968, -0.119345292449, -0.638227045536,0
2019-04-03 19:43:05.50,69916189, 0.08, -17.91, 279.48, 597.659973145, -35.3631908, 149.1647213, 0.753936707973, -0.100076265633, -0.119284324348, -0.638228356838,0
2019-04-03 19:43:05.60,70016149, 0.07, -17.89, 279.49, 597.690002441, -35.3631901, 149.1647161, 0.753952503204, -0.100018553436, -0.119154371321, -0.638243019581,0
2019-04-03 19:43:05.70,70116109, 0.06, -17.89, 279.48, 597.710021973, -35.3631893, 149.1647108, 0.753945887089, -0.100067690015, -0.119060821831, -0.638260602951,0
2019-04-03 19:43:05.79,70216069, 0.05, -17.89, 279.48, 597.739990234, -35.3631886, 149.1647055, 0.75392717123, -0.100147671998, -0.119019538164, -0.638277888298,0
2019-04-03 19:43:05.89,70316029, 0.05, -17.89, 279.48, 597.760009766, -35.3631879, 149.1647002, 0.753915548325, -0.100156053901, -0.118978582323, -0.638297975063,0
2019-04-03 19:43:05.99,70415989, 0.04, -17.89, 279.48, 597.789978027, -35.3631872, 149.1646949, 0.753897368908, -0.100189477205, -0.118907473981, -0.638327419758,0
2019-04-03 19:43:06.09,70515949, 0.03, -17.9, 279.48, 597.809997559, -35.3631863, 149.1646896, 0.753865778446, -0.100338295102, -0.118899799883, -0.638342797756,0
2019-04-03 19:43:06.19,70615909, 0.02, -17.92, 279.47, 597.840026855, -35.3631856, 149.1646843, 0.75382655859, -0.100491061807, -0.119062691927, -0.638334691525,0
2019-04-03 19:43:06.29,70715869, 0.05, -17.94, 279.47, 597.859985352, -35.363185, 149.164679, 0.753813683987, -0.100478611887, -0.119331799448, -0.638301551342,0
2019-04-03 19:43:06.39,70815829, 0.08, -17.97, 279.47, 597.890014648, -35.3631842, 149.1646735, 0.753805041313, -0.100407019258, -0.119673885405, -0.63825905323,0
2019-04-03 19:43:06.49,70915789, 0.11, -17.98, 279.47, 597.909973145, -35.3631835, 149.1646683, 0.753804624081, -0.100260674953, -0.119880273938, -0.638243794441,0
2019-04-03 19:43:06.59,71015749, 0.1, -17.96, 279.47, 597.940002441, -35.3631828, 149.164663, 0.753800988197, -0.100213132799, -0.119739510119, -0.638281941414,0
2019-04-03 19:43:06.69,71115709, 0.08, -17.94, 279.46, 597.960021973, -35.363182, 149.1646577, 0.753795623779, -0.100231252611, -0.11944989115, -0.638339698315,0
2019-04-03 19:43:06.79,71215669, 0.05, -17.91, 279.46, 597.989990234, -35.3631813, 149.1646523, 0.753789484501, -0.100264556706, -0.1191521734, -0.638397395611,0
2019-04-03 19:43:06.90,71316462, 0.04, -17.91, 279.46, 598.010009766, -35.3631805, 149.164647, 0.753770887852, -0.100323818624, -0.119061410427, -0.638426959515,0
2019-04-03 19:43:07.00,71416422, 0.04, -17.94, 279.46, 598.039978027, -35.3631798, 149.1646415, 0.753720521927, -0.100514896214, -0.119223222136, -0.638426184654,0
2019-04-03 19:43:07.10,71516382, 0.02, -17.98, 279.45, 598.059997559, -35.363179, 149.1646362, 0.753645658493, -0.100840978324, -0.11942140013, -0.638426065445,0
2019-04-03 19:43:07.20,71616342, 0.0, -18.01, 279.45, 598.090026855, -35.3631783, 149.1646309, 0.753580868244, -0.101125128567, -0.119468607008, -0.638448894024,0
2019-04-03 19:43:07.30,71716302, 0.0, -18.0, 279.45, 598.109985352, -35.3631776, 149.1646256, 0.753554522991, -0.10115377605, -0.119393721223, -0.638489365578,0
2019-04-03 19:43:07.40,71816262, 0.01, -17.99, 279.44, 598.130004883, -35.3631768, 149.1646203, 0.753558635712, -0.100957870483, -0.119400933385, -0.63851416111,0
2019-04-03 19:43:07.50,71916222, 0.03, -17.96, 279.44, 598.159973145, -35.363176, 149.164615, 0.753575980663, -0.100693933666, -0.119341135025, -0.638546526432,0
2019-04-03 19:43:07.60,72016182, 0.05, -17.92, 279.43, 598.179992676, -35.3631753, 149.1646096, 0.753607153893, -0.100378319621, -0.11911816895, -0.638601064682,0
2019-04-03 19:43:07.70,72116142, 0.06, -17.89, 279.43, 598.210021973, -35.3631746, 149.1646042, 0.75363022089, -0.100109398365, -0.11904578656, -0.638629555702,0
2019-04-03 19:43:07.79,72216102, 0.08, -17.9, 279.42, 598.229980469, -35.3631739, 149.1645988, 0.753613889217, -0.100070394576, -0.119189493358, -0.638628125191,0
2019-04-03 19:43:07.89,72316062, 0.09, -17.92, 279.42, 598.260009766, -35.3631731, 149.1645936, 0.753584086895, -0.100115001202, -0.119396619499, -0.638617634773,0
2019-04-03 19:43:07.99,72416022, 0.11, -17.95, 279.42, 598.280029297, -35.3631723, 149.1645882, 0.753559708595, -0.100155219436, -0.119639441371, -0.63859462738,0
2019-04-03 19:43:08.09,72515982, 0.12, -17.97, 279.42, 598.309997559, -35.3631716, 149.1645829, 0.753541648388, -0.100187346339, -0.119828097522, -0.638575613499,0
2019-04-03 19:43:08.19,72615942, 0.12, -18.0, 279.42, 598.33001709, -35.3631709, 149.1645775, 0.75350356102, -0.10036303103, -0.120099931955, -0.638541817665,0
2019-04-03 19:43:08.29,72715902, 0.12, -18.04, 279.42, 598.359985352, -35.3631702, 149.1645721, 0.753473460674, -0.100537978113, -0.120304979384, -0.638511180878,0
2019-04-03 19:43:08.39,72815862, 0.12, -18.03, 279.42, 598.380004883, -35.3631693, 149.1645668, 0.753478348255, -0.100538603961, -0.120274931192, -0.638511061668,0
2019-04-03 19:43:08.49,72915822, 0.12, -18.01, 279.42, 598.400024414, -35.3631686, 149.1645615, 0.753513514996, -0.100375011563, -0.120119802654, -0.638524472713,0
2019-04-03 19:43:08.59,73015782, 0.13, -17.99, 279.42, 598.429992676, -35.3631679, 149.1645561, 0.753544807434, -0.100223369896, -0.120013587177, -0.638531327248,0
2019-04-03 19:43:08.69,73115742, 0.14, -17.98, 279.42, 598.450012207, -35.3631672, 149.1645507, 0.753564178944, -0.10008469224, -0.120048254728, -0.638523697853,0
2019-04-03 19:43:08.79,73215702, 0.15, -18.0, 279.42, 598.479980469, -35.3631664, 149.1645453, 0.753540039062, -0.100140228868, -0.120234847069, -0.638508379459,0
2019-04-03 19:43:08.89,73315662, 0.14, -18.02, 279.42, 598.5, -35.3631656, 149.16454, 0.753502428532, -0.100316397846, -0.120280265808, -0.6385166049,0
2019-04-03 19:43:09.00,73416455, 0.11, -18.02, 279.42, 598.520019531, -35.3631649, 149.1645346, 0.753465652466, -0.100533232093, -0.120170585811, -0.638546466827,0
2019-04-03 19:43:09.10,73516415, 0.09, -18.01, 279.41, 598.549987793, -35.3631642, 149.1645292, 0.753441810608, -0.1006539464, -0.119973778725, -0.638592660427,0
2019-04-03 19:43:09.20,73616375, 0.07, -18.0, 279.41, 598.570007324, -35.3631634, 149.1645239, 0.753437876701, -0.100654065609, -0.119785673916, -0.638632595539,0
2019-04-03 19:43:09.30,73716335, 0.09, -17.98, 279.41, 598.599975586, -35.3631626, 149.1645184, 0.753459334373, -0.100473858416, -0.119765199721, -0.638639450073,0
2019-04-03 19:43:09.40,73816295, 0.12, -17.99, 279.41, 598.619995117, -35.3631619, 149.1645131, 0.753466248512, -0.100320585072, -0.119941212237, -0.638622403145,0
2019-04-03 19:43:09.50,73916255, 0.14, -18.0, 279.4, 598.650024414, -35.3631612, 149.1645077, 0.753447294235, -0.10028719902, -0.120170921087, -0.638606727123,0
2019-04-03 19:43:09.60,74016215, 0.15, -18.02, 279.4, 598.66998291, -35.3631604, 149.1645024, 0.753419816494, -0.100303173065, -0.120341777802, -0.638604462147,0
2019-04-03 19:43:09.70,74116175, 0.15, -18.03, 279.4, 598.690002441, -35.3631597, 149.1644969, 0.753388762474, -0.100325159729, -0.120421282947, -0.638622760773,0
2019-04-03 19:43:09.80,74216135, 0.16, -18.03, 279.39, 598.719970703, -35.3631589, 149.1644916, 0.753364384174, -0.10029169172, -0.120422936976, -0.638656437397,0
2019-04-03 19:43:09.89,74316095, 0.16, -18.03, 279.39, 598.739990234, -35.3631582, 149.1644863, 0.753335893154, -0.10027551651, -0.120467923582, -0.638684093952,0
2019-04-03 19:43:09.99,74416055, 0.17, -18.02, 279.38, 598.770019531, -35.3631574, 149.1644809, 0.753323853016, -0.100190527737, -0.120477892458, -0.638709783554,0
2019-04-03 19:43:10.09,74516015, 0.18, -18.02, 279.38, 598.789978027, -35.3631567, 149.1644754, 0.75331479311, -0.10009907186, -0.12047957629, -0.638734400272,0
2019-04-03 19:43:10.19,74615975, 0.19, -18.03, 279.37, 598.820007324, -35.3631559, 149.1644701, 0.753289699554, -0.100124798715, -0.120604157448, -0.638736486435,0
2019-04-03 19:43:10.29,74715935, 0.21, -18.07, 279.37, 598.840026855, -35.3631552, 149.1644648, 0.753252506256, -0.100228913128, -0.120937459171, -0.638700962067,0
2019-04-03 19:43:10.39,74815895, 0.2, -18.1, 279.37, 598.859985352, -35.3631545, 149.1644594, 0.753207564354, -0.100424036384, -0.121147140861, -0.638683617115,0
2019-04-03 19:43:10.49,74915855, 0.18, -18.11, 279.37, 598.890014648, -35.3631537, 149.164454, 0.75317388773, -0.100630946457, -0.121065877378, -0.638706147671,0
2019-04-03 19:43:10.59,75015815, 0.14, -18.11, 279.37, 598.909973145, -35.3631528, 149.1644485, 0.75313949585, -0.100870102644, -0.12088214606, -0.638743817806,0
2019-04-03 19:43:10.69,75115775, 0.12, -18.11, 279.37, 598.940002441, -35.3631522, 149.1644432, 0.753121733665, -0.101011246443, -0.120719328523, -0.638773262501,0
2019-04-03 19:43:10.79,75215735, 0.12, -18.1, 279.37, 598.960021973, -35.3631514, 149.1644379, 0.753134906292, -0.10096616298, -0.120717987418, -0.638765096664,0
2019-04-03 19:43:10.89,75315695, 0.13, -18.1, 279.37, 598.979980469, -35.3631507, 149.1644325, 0.753141999245, -0.100899241865, -0.12076536566, -0.63875836134,0
2019-04-03 19:43:11.00,75416488, 0.15, -18.1, 279.37, 599.010009766, -35.3631498, 149.164427, 0.753143429756, -0.100808687508, -0.120839804411, -0.638756930828,0
2019-04-03 19:43:11.10,75516448, 0.16, -18.09, 279.36, 599.030029297, -35.3631491, 149.1644217, 0.753154337406, -0.100653268397, -0.120846897364, -0.638767182827,0
2019-04-03 19:43:11.20,75616408, 0.17, -18.09, 279.36, 599.059997559, -35.3631484, 149.1644163, 0.753149092197, -0.100550122559, -0.120859473944, -0.638787269592,0
2019-04-03 19:43:11.30,75716368, 0.18, -18.08, 279.36, 599.08001709, -35.3631476, 149.1644109, 0.753124773502, -0.100521162152, -0.120870478451, -0.638818383217,0
2019-04-03 19:43:11.40,75816328, 0.16, -18.09, 279.35, 599.109985352, -35.3631468, 149.1644054, 0.753056704998, -0.100702933967, -0.120828457177, -0.638877928257,0
2019-04-03 19:43:11.50,75916288, 0.13, -18.11, 279.34, 599.130004883, -35.3631461, 149.1644001, 0.752975821495, -0.100955702364, -0.120769657195, -0.63894456625,0
2019-04-03 19:43:11.60,76016248, 0.09, -18.11, 279.33, 599.159973145, -35.3631454, 149.1643947, 0.752893209457, -0.101237863302, -0.12052667141, -0.639043092728,0
2019-04-03 19:43:11.70,76116208, 0.07, -18.11, 279.32, 599.179992676, -35.3631446, 149.1643894, 0.752830505371, -0.101377412677, -0.120437033474, -0.639111757278,0
2019-04-03 19:43:11.80,76216168, 0.07, -18.13, 279.32, 599.200012207, -35.3631437, 149.1643839, 0.752764046192, -0.101487442851, -0.120554946363, -0.639150261879,0
2019-04-03 19:43:11.90,76316128, 0.09, -18.14, 279.3, 599.229980469, -35.363143, 149.1643786, 0.752712965012, -0.101435132325, -0.120691478252, -0.639192998409,0
2019-04-03 19:43:11.99,76416088, 0.12, -18.14, 279.29, 599.25, -35.3631423, 149.1643732, 0.752673327923, -0.101295039058, -0.120831087232, -0.639235556126,0
2019-04-03 19:43:12.09,76516048, 0.13, -18.14, 279.28, 599.280029297, -35.3631416, 149.1643677, 0.75263351202, -0.101211026311, -0.12087956816, -0.639286577702,0
2019-04-03 19:43:12.19,76616008, 0.13, -18.14, 279.28, 599.299987793, -35.3631407, 149.1643623, 0.752585709095, -0.101224981248, -0.120880581439, -0.639340400696,0
2019-04-03 19:43:12.29,76715968, 0.12, -18.13, 279.27, 599.320007324, -35.36314, 149.164357, 0.752544701099, -0.101273573935, -0.120762124658, -0.639403402805,0
2019-04-03 19:43:12.39,76815928, 0.11, -18.13, 279.26, 599.349975586, -35.3631393, 149.1643516, 0.752508997917, -0.10132484138, -0.120712503791, -0.639446616173,0
2019-04-03 19:43:12.49,76915888, 0.12, -18.15, 279.26, 599.369995117, -35.3631385, 149.1643461, 0.752476394176, -0.101363413036, -0.120894476771, -0.63944453001,0
2019-04-03 19:43:12.59,77015848, 0.16, -18.16, 279.26, 599.400024414, -35.3631377, 149.1643408, 0.752473592758, -0.101218909025, -0.12119217962, -0.639414310455,0
2019-04-03 19:43:12.69,77115808, 0.2, -18.15, 279.25, 599.41998291, -35.363137, 149.1643354, 0.752512395382, -0.100856684148, -0.121313489974, -0.639402925968,0
2019-04-03 19:43:12.79,77215768, 0.22, -18.11, 279.25, 599.450012207, -35.3631363, 149.16433, 0.752557039261, -0.100513733923, -0.121224299073, -0.639421284199,0
2019-04-03 19:43:12.89,77315728, 0.23, -18.09, 279.25, 599.469970703, -35.3631355, 149.1643245, 0.75258409977, -0.100339010358, -0.121094994247, -0.639441430569,0
2019-04-03 19:43:12.99,77415688, 0.19, -18.11, 279.25, 599.489990234, -35.3631348, 149.1643191, 0.752538263798, -0.100646793842, -0.121029451489, -0.639459431171,0
2019-04-03 19:43:13.10,77516481, 0.16, -18.16, 279.25, 599.520019531, -35.3631339, 149.1643136, 0.752456605434, -0.101199552417, -0.121187835932, -0.639438211918,0
2019-04-03 19:43:13.20,77616441, 0.14, -18.21, 279.25, 599.539978027, -35.3631333, 149.1643082, 0.752397298813, -0.101592548192, -0.121374323964, -0.639410316944,0
2019-04-03 19:43:13.30,77716401, 0.13, -18.21, 279.25, 599.570007324, -35.3631325, 149.1643029, 0.752388656139, -0.101627878845, -0.121372915804, -0.63941514492,0
2019-04-03 19:43:13.40,77816361, 0.13, -18.18, 279.25, 599.590026855, -35.3631316, 149.1642975, 0.752398729324, -0.101506538689, -0.121177978814, -0.639459550381,0
2019-04-03 19:43:13.50,77916321, 0.12, -18.14, 279.25, 599.619995117, -35.3631309, 149.164292, 0.752420425415, -0.101277656853, -0.120828717947, -0.639536380768,0
2019-04-03 19:43:13.60,78016281, 0.12, -18.1, 279.24, 599.640014648, -35.3631302, 149.1642867, 0.752431094646, -0.101085186005, -0.120522893965, -0.639611959457,0
2019-04-03 19:43:13.70,78116241, 0.12, -18.07, 279.24, 599.659973145, -35.3631295, 149.1642813, 0.752424716949, -0.100959695876, -0.120329402387, -0.639675796032,0
2019-04-03 19:43:13.80,78216201, 0.13, -18.07, 279.23, 599.690002441, -35.3631287, 149.1642757, 0.752392113209, -0.100915491581, -0.120394319296, -0.639708817005,0
2019-04-03 19:43:13.90,78316161, 0.13, -18.09, 279.22, 599.710021973, -35.3631279, 149.1642704, 0.752333521843, -0.101002059877, -0.120510689914, -0.639742195606,0
2019-04-03 19:43:14.00,78416121, 0.13, -18.1, 279.22, 599.739990234, -35.3631272, 149.164265, 0.752277553082, -0.101113602519, -0.120609000325, -0.639771819115,0
2019-04-03 19:43:14.09,78516081, 0.12, -18.11, 279.21, 599.760009766, -35.3631265, 149.1642595, 0.752229094505, -0.101210728288, -0.120622232556, -0.639810979366,0
2019-04-03 19:43:14.19,78616041, 0.11, -18.11, 279.2, 599.789978027, -35.3631257, 149.1642541, 0.752200603485, -0.101238042116, -0.120524525642, -0.639858603477,0
2019-04-03 19:43:14.29,78716001, 0.09, -18.09, 279.2, 599.809997559, -35.3631248, 149.1642488, 0.752169549465, -0.101319298148, -0.120296642184, -0.639925062656,0
2019-04-03 19:43:14.39,78815961, 0.07, -18.09, 279.2, 599.83001709, -35.3631242, 149.1642434, 0.752129614353, -0.101476818323, -0.120179235935, -0.639969170094,0
2019-04-03 19:43:14.49,78915921, 0.05, -18.12, 279.19, 599.859985352, -35.3631234, 149.1642379, 0.752077102661, -0.101684160531, -0.120259337127, -0.639982938766,0
2019-04-03 19:43:14.59,79015881, 0.05, -18.14, 279.19, 599.880004883, -35.3631227, 149.1642326, 0.752026677132, -0.1018531546, -0.120390959084, -0.639990508556,0
2019-04-03 19:43:14.69,79115841, 0.06, -18.14, 279.18, 599.909973145, -35.3631218, 149.1642271, 0.752008795738, -0.101786442101, -0.120478339493, -0.640005707741,0
2019-04-03 19:43:14.79,79215801, 0.09, -18.15, 279.18, 599.929992676, -35.3631212, 149.1642216, 0.75199174881, -0.101663537323, -0.120667994022, -0.640009522438,0
2019-04-03 19:43:14.89,79315761, 0.12, -18.15, 279.17, 599.950012207, -35.3631204, 149.1642163, 0.75197827816, -0.101510711014, -0.120832823217, -0.640018522739,0
2019-04-03 19:43:14.99,79415721, 0.13, -18.15, 279.17, 599.979980469, -35.3631197, 149.1642109, 0.751962542534, -0.101401776075, -0.1208986938, -0.640041828156,0
2019-04-03 19:43:15.09,79515681, 0.14, -18.14, 279.16, 600.0, -35.3631188, 149.1642054, 0.751951158047, -0.10130058974, -0.120836824179, -0.640082895756,0
2019-04-03 19:43:15.20,79616474, 0.14, -18.14, 279.16, 600.030029297, -35.3631181, 149.1642, 0.75193041563, -0.101255252957, -0.120845220983, -0.640112876892,0
2019-04-03 19:43:15.30,79716434, 0.14, -18.16, 279.15, 600.049987793, -35.3631174, 149.1641946, 0.751887977123, -0.101367346942, -0.120989054441, -0.640117824078,0
2019-04-03 19:43:15.40,79816394, 0.14, -18.16, 279.15, 600.08001709, -35.3631167, 149.1641891, 0.751880049706, -0.101367682219, -0.121005795896, -0.640123903751,0
2019-04-03 19:43:15.50,79916354, 0.12, -18.15, 279.15, 600.099975586, -35.3631158, 149.1641838, 0.751874506474, -0.101464539766, -0.120847076178, -0.6401450634,0
2019-04-03 19:43:15.60,80016314, 0.1, -18.13, 279.15, 600.119995117, -35.3631151, 149.1641783, 0.75188857317, -0.1014925614, -0.120612546802, -0.640168309212,0
2019-04-03 19:43:15.70,80116274, 0.1, -18.11, 279.16, 600.150024414, -35.3631144, 149.1641728, 0.751923203468, -0.101378619671, -0.120465271175, -0.640173435211,0
2019-04-03 19:43:15.80,80216234, 0.12, -18.1, 279.16, 600.16998291, -35.3631137, 149.1641675, 0.751964211464, -0.101170241833, -0.120462737978, -0.640158653259,0
2019-04-03 19:43:15.90,80316194, 0.14, -18.11, 279.16, 600.200012207, -35.3631129, 149.1641621, 0.751978814602, -0.10110180825, -0.120656177402, -0.640115976334,0
2019-04-03 19:43:16.00,80416154, 0.13, -18.14, 279.16, 600.219970703, -35.363112, 149.1641567, 0.751951932907, -0.101293005049, -0.120808966458, -0.640088498592,0
2019-04-03 19:43:16.10,80516114, 0.14, -18.17, 279.16, 600.25, -35.3631114, 149.1641512, 0.751919090748, -0.101498410106, -0.121063537896, -0.640046417713,0
2019-04-03 19:43:16.19,80616074, 0.14, -18.19, 279.16, 600.270019531, -35.3631106, 149.1641458, 0.751909554005, -0.101565785706, -0.12123464793, -0.640014529228,0
2019-04-03 19:43:16.29,80716034, 0.15, -18.19, 279.16, 600.299987793, -35.3631099, 149.1641403, 0.751925647259, -0.101475141943, -0.121290504932, -0.639999449253,0
2019-04-03 19:43:16.39,80815994, 0.17, -18.19, 279.16, 600.320007324, -35.363109, 149.1641349, 0.751938164234, -0.101387791336, -0.12138402462, -0.639980852604,0
2019-04-03 19:43:16.49,80915954, 0.18, -18.19, 279.16, 600.349975586, -35.3631084, 149.1641295, 0.751954555511, -0.101292781532, -0.121384195983, -0.639976620674,0
2019-04-03 19:43:16.59,81015914, 0.18, -18.16, 279.17, 600.369995117, -35.3631076, 149.164124, 0.751995742321, -0.101109847426, -0.121220849454, -0.639988064766,0
2019-04-03 19:43:16.69,81115874, 0.19, -18.14, 279.17, 600.390014648, -35.3631069, 149.1641187, 0.752037405968, -0.100919418037, -0.121137663722, -0.63998490572,0
2019-04-03 19:43:16.79,81215834, 0.19, -18.12, 279.17, 600.41998291, -35.363106, 149.1641133, 0.752068161964, -0.100802361965, -0.121035836637, -0.639986515045,0
2019-04-03 19:43:16.89,81315794, 0.19, -18.12, 279.17, 600.440002441, -35.3631053, 149.1641077, 0.752076864243, -0.100823238492, -0.120993688703, -0.639980971813,0
2019-04-03 19:43:16.99,81415754, 0.21, -18.14, 279.17, 600.469970703, -35.3631046, 149.1641024, 0.752074360847, -0.100841276348, -0.121283091605, -0.639926314354,0
2019-04-03 19:43:17.09,81515714, 0.23, -18.18, 279.17, 600.489990234, -35.3631039, 149.164097, 0.752061367035, -0.100916683674, -0.121597461402, -0.639869987965,0
2019-04-03 19:43:17.19,81615674, 0.24, -18.17, 279.18, 600.520019531, -35.363103, 149.1640916, 0.752093493938, -0.100799798965, -0.121620357037, -0.639846324921,0
2019-04-03 19:43:17.30,81716467, 0.22, -18.14, 279.18, 600.539978027, -35.3631023, 149.1640861, 0.752121448517, -0.100744843483, -0.121375389397, -0.639868617058,0
2019-04-03 19:43:17.40,81816427, 0.2, -18.12, 279.18, 600.570007324, -35.3631016, 149.1640807, 0.752132713795, -0.1007675156, -0.121085755527, -0.639906704426,0
2019-04-03 19:43:17.50,81916387, 0.19, -18.11, 279.18, 600.590026855, -35.3631008, 149.1640751, 0.752136111259, -0.100789062679, -0.120976261795, -0.639919936657,0
2019-04-03 19:43:17.60,82016347, 0.18, -18.13, 279.18, 600.609985352, -35.3631, 149.1640698, 0.752103507519, -0.100965172052, -0.121010117233, -0.639924168587,0
2019-04-03 19:43:17.70,82116307, 0.17, -18.15, 279.18, 600.640014648, -35.3630993, 149.1640644, 0.752068519592, -0.101119600236, -0.121068827808, -0.639929831028,0
2019-04-03 19:43:17.80,82216267, 0.17, -18.14, 279.18, 600.659973145, -35.3630986, 149.1640589, 0.752054750919, -0.101122818887, -0.121042624116, -0.639950454235,0
2019-04-03 19:43:17.90,82316227, 0.19, -18.13, 279.17, 600.679992676, -35.3630978, 149.1640535, 0.752075016499, -0.100904360414, -0.12105885148, -0.639958024025,0
2019-04-03 19:43:18.00,82416187, 0.21, -18.1, 279.17, 600.710021973, -35.3630969, 149.1640481, 0.752107977867, -0.100612834096, -0.121017843485, -0.639972984791,0
2019-04-03 19:43:18.10,82516147, 0.22, -18.1, 279.17, 600.729980469, -35.3630962, 149.1640426, 0.752110421658, -0.100502334535, -0.121047928929, -0.639981746674,0
2019-04-03 19:43:18.20,82616107, 0.22, -18.1, 279.17, 600.760009766, -35.3630955, 149.1640373, 0.752088606358, -0.10053461045, -0.121094711125, -0.639993429184,0
2019-04-03 19:43:18.29,82716067, 0.22, -18.11, 279.16, 600.780029297, -35.3630948, 149.1640318, 0.752062261105, -0.100601270795, -0.121146440506, -0.64000415802,0
2019-04-03 19:43:18.39,82816027, 0.2, -18.13, 279.16, 600.809997559, -35.3630939, 149.1640263, 0.752024948597, -0.100787363946, -0.121115341783, -0.640024602413,0
2019-04-03 19:43:18.49,82915987, 0.19, -18.12, 279.16, 600.83001709, -35.3630932, 149.164021, 0.752007603645, -0.100873149931, -0.121034927666, -0.640046656132,0
2019-04-03 19:43:18.59,83015947, 0.21, -18.11, 279.16, 600.849975586, -35.3630925, 149.1640155, 0.752034902573, -0.100669205189, -0.121023163199, -0.640048921108,0
2019-04-03 19:43:18.69,83115907, 0.23, -18.1, 279.16, 600.880004883, -35.3630917, 149.16401, 0.752050995827, -0.100511752069, -0.121100321412, -0.640040159225,0
2019-04-03 19:43:18.79,83215867, 0.22, -18.13, 279.16, 600.900024414, -35.363091, 149.1640047, 0.752014517784, -0.100670479238, -0.121236629784, -0.640032291412,0
2019-04-03 19:43:18.89,83315827, 0.21, -18.15, 279.16, 600.929992676, -35.3630901, 149.1639993, 0.751962304115, -0.100923649967, -0.121309928596, -0.640039861202,0
2019-04-03 19:43:18.99,83415787, 0.21, -18.16, 279.15, 600.950012207, -35.3630894, 149.1639937, 0.751934230328, -0.100991263986, -0.121380187571, -0.640048861504,0
2019-04-03 19:43:19.09,83515747, 0.22, -18.16, 279.15, 600.969970703, -35.3630887, 149.1639884, 0.751932799816, -0.100864619017, -0.121440991759, -0.640058994293,0
2019-04-03 19:43:19.19,83615707, 0.25, -18.14, 279.14, 601.0, -35.3630878, 149.163983, 0.751951336861, -0.100607201457, -0.121447570622, -0.640076518059,0
2019-04-03 19:43:19.29,83715667, 0.27, -18.13, 279.14, 601.020019531, -35.3630871, 149.1639775, 0.751952409744, -0.100438043475, -0.121498227119, -0.640092134476,0
2019-04-03 19:43:19.40,83816460, 0.26, -18.14, 279.14, 601.049987793, -35.3630864, 149.1639721, 0.751923620701, -0.100499510765, -0.121514201164, -0.640113294125,0
2019-04-03 19:43:19.50,83916420, 0.26, -18.14, 279.13, 601.070007324, -35.3630856, 149.1639667, 0.751903891563, -0.100551918149, -0.12150618434, -0.640129745007,0
2019-04-03 19:43:19.60,84016380, 0.25, -18.14, 279.13, 601.090026855, -35.3630848, 149.1639612, 0.751891076565, -0.100568644702, -0.121463902295, -0.640150249004,0
2019-04-03 19:43:19.70,84116340, 0.24, -18.13, 279.13, 601.119995117, -35.3630841, 149.1639558, 0.751878201962, -0.100594930351, -0.121381640434, -0.640176832676,0
2019-04-03 19:43:19.80,84216300, 0.24, -18.14, 279.13, 601.140014648, -35.3630834, 149.1639504, 0.751857817173, -0.100665509701, -0.121365100145, -0.640192747116,0
