Start,TimeUS,Roll,Pitch,Yaw,Alt,Lat,Lng,Q1,Q2,Q3,Q4,Category
2019-04-03 18:44:06.50,734516076, 0.0, 0.0, 353.0, 584.090026855, -35.363261, 149.1652299, 0.998134791851, 0.0, 0.0, -0.0610485821962,0
2019-04-03 18:44:06.60,734616036, 0.0, 0.0, 353.0, 584.090026855, -35.363261, 149.1652299, 0.998134791851, 0.0, 0.0, -0.0610485821962,0
2019-04-03 18:44:06.69,734715996, 0.0, 0.0, 353.0, 584.090026855, -35.363261, 149.1652299, 0.998134791851, 0.0, 0.0, -0.0610485821962,0
2019-04-03 18:44:06.79,734815956, 0.0, 0.0, 353.0, 584.090026855, -35.363261, 149.1652299, 0.998134791851, 0.0, 0.0, -0.0610485821962,0
2019-04-03 18:44:06.89,734915916, 0.0, 0.0, 353.0, 584.090026855, -35.363261, 149.1652299, 0.998134791851, 0.0, 0.0, -0.0610485821962,0
2019-04-03 18:44:06.99,735015876, 0.0, 0.0, 353.0, 584.090026855, -35.363261, 149.1652299, 0.998134791851, 0.0, 0.0, -0.0610485821962,0
2019-04-03 18:44:07.09,735115836, 0.0, 0.0, 353.0, 584.090026855, -35.363261, 149.1652299, 0.998134791851, 0.0, 0.0, -0.0610485821962,0
2019-04-03 18:44:07.19,735215796, 0.0, 0.0, 353.0, 584.090026855, -35.363261, 149.1652299, 0.998134791851, 0.0, 0.0, -0.0610485821962,0
2019-04-03 18:44:07.29,735315756, 0.0, 0.0, 353.0, 584.090026855, -35.363261, 149.1652299, 0.998134791851, 0.0, 0.0, -0.0610485821962,0
2019-04-03 18:44:07.39,735415716, 0.0, 0.0, 353.0, 584.090026855, -35.363261, 149.1652299, 0.998134791851, 0.0, 0.0, -0.0610485821962,0
2019-04-03 18:44:07.49,735515676, 0.0, 0.0, 353.0, 584.090026855, -35.363261, 149.1652299, 0.998134791851, 0.0, 0.0, -0.0610485821962,0
2019-04-03 18:44:07.60,735616469, 0.0, 0.0, 353.0, 584.090026855, -35.363261, 149.1652299, 0.998134791851, 0.0, 0.0, -0.0610485821962,0
2019-04-03 18:44:07.70,735716429, 0.0, 0.0, 353.0, 584.090026855, -35.363261, 149.1652299, 0.998134791851, 0.0, 0.0, -0.0610485821962,0
2019-04-03 18:44:07.80,735816389, 0.0, 0.0, 353.0, 584.090026855, -35.363261, 149.1652299, 0.998134791851, 0.0, 0.0, -0.0610485821962,0
2019-04-03 18:44:07.90,735916349, 0.0, 0.0, 353.0, 584.090026855, -35.363261, 149.1652299, 0.998134791851, 0.0, 0.0, -0.0610485821962,0
2019-04-03 18:44:08.00,736016309, 0.0, 0.0, 353.0, 584.090026855, -35.363261, 149.1652299, 0.998134791851, 0.0, 0.0, -0.0610485821962,0
2019-04-03 18:44:08.10,736116269, 0.0, 0.0, 353.0, 584.090026855, -35.363261, 149.1652299, 0.998134791851, 0.0, 0.0, -0.0610485821962,0
2019-04-03 18:44:08.20,736216229, 0.0, 0.0, 353.0, 584.090026855, -35.363261, 149.1652299, 0.998134791851, 0.0, 0.0, -0.0610485821962,0
2019-04-03 18:44:08.30,736316189, 0.0, 0.0, 353.0, 584.090026855, -35.363261, 149.1652299, 0.998134791851, 0.0, 0.0, -0.0610485821962,0
2019-04-03 18:44:08.40,736416149, 0.0, 0.0, 353.0, 584.090026855, -35.363261, 149.1652299, 0.998134791851, 0.0, 0.0, -0.0610485821962,0
2019-04-03 18:44:08.50,736516109, 0.0, 0.0, 353.0, 584.090026855, -35.363261, 149.1652299, 0.998134791851, 0.0, 0.0, -0.0610485821962,0
2019-04-03 18:44:08.60,736616069, 0.0, 0.0, 353.0, 584.090026855, -35.363261, 149.1652299, 0.998134791851, 0.0, 0.0, -0.0610485821962,0
2019-04-03 18:44:08.69,736716029, 0.0, 0.0, 353.0, 584.090026855, -35.363261, 149.1652299, 0.998134791851, 0.0, 0.0, -0.0610485821962,0
2019-04-03 18:44:08.79,736815989, 0.0, 0.0, 353.0, 584.090026855, -35.363261, 149.1652299, 0.998134791851, 0.0, 0.0, -0.0610485821962,0
2019-04-03 18:44:08.89,736915949, 0.0, 0.0, 353.0, 584.090026855, -35.363261, 149.1652299, 0.998134791851, 0.0, 0.0, -0.0610485821962,0
2019-04-03 18:44:08.99,737015909, 0.0, 0.0, 353.0, 584.090026855, -35.363261, 149.1652299, 0.998134791851, 0.0, 0.0, -0.0610485821962,0
2019-04-03 18:44:09.09,737115869, 0.0, 0.0, 353.0, 584.090026855, -35.363261, 149.1652299, 0.998134791851, 0.0, 0.0, -0.0610485821962,0
2019-04-03 18:44:09.19,737215829, 0.0, 0.0, 353.0, 584.090026855, -35.363261, 149.1652299, 0.998134791851, 0.0, 0.0, -0.0610485821962,0
2019-04-03 18:44:09.29,737315789, 0.0, 0.0, 353.0, 584.090026855, -35.363261, 149.1652299, 0.998134791851, 0.0, 0.0, -0.0610485821962,0
2019-04-03 18:44:09.39,737415749, 0.0, 0.0, 353.0, 584.090026855, -35.363261, 149.1652299, 0.998134791851, 0.0, 0.0, -0.0610485821962,0
2019-04-03 18:44:09.49,737515709, 0.0, 0.0, 353.0, 584.090026855, -35.363261, 149.1652299, 0.998134791851, 0.0, 0.0, -0.0610485821962,0
2019-04-03 18:44:09.59,737615669, 0.0, 0.0, 353.0, 584.090026855, -35.363261, 149.1652299, 0.998134791851, 0.0, 0.0, -0.0610485821962,0
2019-04-03 18:44:09.70,737716462, 0.0, 0.0, 353.0, 584.090026855, -35.363261, 149.1652299, 0.998134791851, 0.0, 0.0, -0.0610485821962,0
2019-04-03 18:44:09.80,737816422, 0.0, 0.0, 353.0, 584.090026855, -35.363261, 149.1652299, 0.998134791851, 0.0, 0.0, -0.0610485821962,0
2019-04-03 18:44:09.90,737916382, 0.0, 0.0, 353.0, 584.090026855, -35.363261, 149.1652299, 0.998134791851, 0.0, 0.0, -0.0610485821962,0
2019-04-03 18:44:10.00,738016342, 0.0, 0.0, 353.0, 584.090026855, -35.363261, 149.1652299, 0.998134791851, 0.0, 0.0, -0.0610485821962,0
2019-04-03 18:44:10.10,738116302, 0.0, 0.0, 353.0, 584.090026855, -35.363261, 149.1652299, 0.998134791851, 0.0, 0.0, -0.0610485821962,0
2019-04-03 18:44:10.20,738216262, 0.0, 0.0, 353.0, 584.090026855, -35.363261, 149.1652299, 0.998134791851, 0.0, 0.0, -0.0610485821962,0
2019-04-03 18:44:10.30,738316222, 0.0, 0.0, 353.0, 584.090026855, -35.363261, 149.1652299, 0.998134791851, 0.0, 0.0, -0.0610485821962,0
2019-04-03 18:44:10.40,738416182, 0.0, 0.0, 353.0, 584.090026855, -35.363261, 149.1652299, 0.998134791851, 0.0, 0.0, -0.0610485821962,0
2019-04-03 18:44:10.50,738516142, 0.0, 0.0, 353.0, 584.090026855, -35.363261, 149.1652299, 0.998134791851, 0.0, 0.0, -0.0610485821962,0
2019-04-03 18:44:10.60,738616102, 0.0, 0.0, 353.0, 584.090026855, -35.363261, 149.1652299, 0.998134791851, 0.0, 0.0, -0.0610485821962,0
2019-04-03 18:44:10.70,738716062, 0.0, 0.0, 353.0, 584.090026855, -35.363261, 149.1652299, 0.998134791851, 0.0, 0.0, -0.0610485821962,0
2019-04-03 18:44:10.79,738816022, 0.0, 0.0, 353.0, 584.090026855, -35.363261, 149.1652299, 0.998134791851, 0.0, 0.0, -0.0610485821962,0
2019-04-03 18:44:10.89,738915982, 0.0, 0.0, 353.0, 584.090026855, -35.363261, 149.1652299, 0.998134791851, 0.0, 0.0, -0.0610485821962,0
2019-04-03 18:44:10.99,739015942, 0.0, 0.0, 353.0, 584.090026855, -35.363261, 149.1652299, 0.998134791851, 0.0, 0.0, -0.0610485821962,0
2019-04-03 18:44:11.09,739115902, 0.0, 0.0, 353.0, 584.090026855, -35.363261, 149.1652299, 0.998134791851, 0.0, 0.0, -0.0610485821962,0
2019-04-03 18:44:11.19,739215862, 0.0, 0.0, 353.0, 584.090026855, -35.363261, 149.1652299, 0.998134791851, 0.0, 0.0, -0.0610485821962,0
2019-04-03 18:44:11.29,739315822, 0.0, 0.0, 353.0, 584.090026855, -35.363261, 149.1652299, 0.998134791851, 0.0, 0.0, -0.0610485821962,0
2019-04-03 18:44:11.39,739415782, 0.0, 0.0, 353.0, 584.090026855, -35.363261, 149.1652299, 0.998134791851, 0.0, 0.0, -0.0610485821962,0
2019-04-03 18:44:11.49,739515742, 0.0, 0.0, 353.0, 584.090026855, -35.363261, 149.1652299, 0.998134791851, 0.0, 0.0, -0.0610485821962,0
2019-04-03 18:44:11.59,739615702, 0.0, 0.0, 353.0, 584.090026855, -35.363261, 149.1652299, 0.998134791851, 0.0, 0.0, -0.0610485821962,0
2019-04-03 18:44:11.69,739715662, 0.0, 0.0, 353.0, 584.090026855, -35.363261, 149.1652299, 0.998134791851, 0.0, 0.0, -0.0610485821962,0
2019-04-03 18:44:11.80,739816455, 0.0, 0.0, 353.0, 584.090026855, -35.363261, 149.1652299, 0.998134791851, 0.0, 0.0, -0.0610485821962,0
2019-04-03 18:44:11.90,739916415, 0.0, 0.0, 353.0, 584.090026855, -35.363261, 149.1652299, 0.998134791851, 0.0, 0.0, -0.0610485821962,0
2019-04-03 18:44:12.00,740016375, 0.0, 0.0, 353.0, 584.090026855, -35.363261, 149.1652299, 0.998134791851, 0.0, 0.0, -0.0610485821962,0
2019-04-03 18:44:12.10,740116335, 0.0, 0.0, 353.0, 584.090026855, -35.363261, 149.1652299, 0.998134791851, 0.0, 0.0, -0.0610485821962,0
2019-04-03 18:44:12.20,740216295, 0.0, 0.0, 353.0, 584.090026855, -35.363261, 149.1652299, 0.998134791851, 0.0, 0.0, -0.0610485821962,0
2019-04-03 18:44:12.30,740316255, 0.0, 0.0, 353.0, 584.090026855, -35.363261, 149.1652299, 0.998134791851, 0.0, 0.0, -0.0610485821962,0
2019-04-03 18:44:12.40,740416215, 0.0, 0.0, 353.0, 584.090026855, -35.363261, 149.1652299, 0.998134791851, 0.0, 0.0, -0.0610485821962,0
2019-04-03 18:44:12.50,740516175, 0.0, 0.0, 353.0, 584.090026855, -35.363261, 149.1652299, 0.998134791851, 0.0, 0.0, -0.0610485821962,0
2019-04-03 18:44:12.60,740616135, 0.0, 0.0, 353.0, 584.090026855, -35.363261, 149.1652299, 0.998134791851, 0.0, 0.0, -0.0610485821962,0
2019-04-03 18:44:12.70,740716095, 0.0, 0.0, 353.0, 584.090026855, -35.363261, 149.1652299, 0.998134791851, 0.0, 0.0, -0.0610485821962,0
2019-04-03 18:44:12.80,740816055, 0.0, 0.0, 353.0, 584.090026855, -35.363261, 149.1652299, 0.998134791851, 0.0, 0.0, -0.0610485821962,0
2019-04-03 18:44:12.89,740916015, 0.0, 0.0, 353.0, 584.090026855, -35.363261, 149.1652299, 0.998134791851, 0.0, 0.0, -0.0610485821962,0
2019-04-03 18:44:12.99,741015975, 0.0, 0.0, 353.0, 584.090026855, -35.363261, 149.1652299, 0.998134791851, 0.0, 0.0, -0.0610485821962,0
2019-04-03 18:44:13.09,741115935, 0.0, 0.0, 353.0, 584.090026855, -35.363261, 149.1652299, 0.998134791851, 0.0, 0.0, -0.0610485933721,0
2019-04-03 18:44:13.19,741215895, 0.0, 0.0, 353.0, 584.090026855, -35.363261, 149.1652299, 0.998134791851, 0.0, 0.0, -0.0610486753285,0
2019-04-03 18:44:13.29,741315855, 0.0, 0.0, 353.0, 584.090026855, -35.363261, 149.1652299, 0.998134791851, 0.0, 0.0, -0.0610486753285,0
2019-04-03 18:44:13.39,741415815, 0.0, 0.0, 353.0, 584.090026855, -35.363261, 149.1652299, 0.998134791851, 0.0, 0.0, -0.0610486753285,0
2019-04-03 18:44:13.49,741515775, 0.0, 0.0, 353.0, 584.090026855, -35.363261, 149.1652299, 0.998134791851, 0.0, 0.0, -0.0610486753285,0
2019-04-03 18:44:13.59,741615735, 0.0, 0.0, 353.0, 584.090026855, -35.363261, 149.1652299, 0.998134791851, 0.0, 0.0, -0.0610486753285,0
2019-04-03 18:44:13.69,741715695, 0.0, 0.0, 353.0, 584.090026855, -35.363261, 149.1652299, 0.998134791851, 0.0, 0.0, -0.0610486753285,0
2019-04-03 18:44:13.80,741816488, 0.0, 0.0, 353.0, 584.090026855, -35.363261, 149.1652299, 0.998134791851, 0.0, 0.0, -0.0610486753285,0
2019-04-03 18:44:13.90,741916448, 0.0, 0.0, 353.0, 584.090026855, -35.363261, 149.1652299, 0.998134791851, 0.0, 0.0, -0.0610486753285,0
2019-04-03 18:44:14.00,742016408, 0.0, 0.0, 353.0, 584.099975586, -35.363261, 149.1652299, 0.998134791851, 0.0, 0.0, -0.0610486753285,0
2019-04-03 18:44:14.10,742116368, 0.0, 0.0, 353.0, 584.099975586, -35.363261, 149.1652299, 0.998134791851, 0.0, 0.0, -0.0610486753285,0
2019-04-03 18:44:14.20,742216328, 0.0, 0.0, 353.0, 584.119995117, -35.363261, 149.1652299, 0.998134791851, 0.0, 0.0, -0.0610486865044,0
2019-04-03 18:44:14.30,742316288, 0.0, 0.0, 353.0, 584.140014648, -35.363261, 149.1652299, 0.998134791851, 0.0, 0.0, -0.0610486865044,0
2019-04-03 18:44:14.40,742416248, 0.0, 0.0, 353.0, 584.16998291, -35.363261, 149.1652299, 0.998134791851, 0.0, 0.0, -0.0610486753285,0
2019-04-03 18:44:14.50,742516208, 0.0, 0.0, 352.99, 584.210021973, -35.363261, 149.1652299, 0.998134791851, -7.11960069566e-07, -6.32380420029e-07, -0.0610487237573,0
2019-04-03 18:44:14.60,742616168, -0.04, -0.02, 352.99, 584.270019531, -35.363261, 149.1652299, 0.998133063316, -0.000366677792044, -0.000224258692469, -0.0610757917166,0
2019-04-03 18:44:14.70,742716128, -0.1, -0.09, 352.98, 584.380004883, -35.363261, 149.1652299, 0.998128175735, -0.000992245506495, -0.000787001568824, -0.0611438639462,0
2019-04-03 18:44:14.80,742816088, -0.19, -0.16, 352.97, 584.530029297, -35.363261, 149.1652299, 0.998120427132, -0.00178294419311, -0.0013647431042, -0.0612419322133,0
2019-04-03 18:44:14.90,742916048, -0.25, -0.2, 352.96, 584.690002441, -35.363261, 149.1652299, 0.998111486435, -0.0022983897943, -0.00165507325437, -0.061363786459,0
2019-04-03 18:44:14.99,743016008, -0.24, -0.2, 352.94, 584.840026855, -35.363261, 149.1652299, 0.998103618622, -0.00225188932382, -0.00168126414064, -0.0614919364452,0
2019-04-03 18:44:15.09,743115968, -0.17, -0.18, 352.93, 585.0, -35.363261, 149.1652299, 0.998097419739, -0.00166125549003, -0.00149511836935, -0.0616163536906,0
2019-04-03 18:44:15.19,743215928, -0.1, -0.14, 352.92, 585.150024414, -35.363261, 149.1652299, 0.998091995716, -0.000955273397267, -0.00118301727343, -0.0617256239057,0
2019-04-03 18:44:15.29,743315888, -0.04, -0.1, 352.91, 585.309997559, -35.363261, 149.1652299, 0.998087108135, -0.000427198741818, -0.000921754864976, -0.0618151910603,0
2019-04-03 18:44:15.39,743415848, 0.0, -0.08, 352.9, 585.479980469, -35.363261, 149.1652298, 0.998083591461, -6.82007384967e-06, -0.000715460802894, -0.0618759505451,0
2019-04-03 18:44:15.49,743515808, 0.04, -0.04, 352.9, 585.650024414, -35.363261, 149.1652298, 0.998081684113, 0.000361562269973, -0.000442216056399, -0.061908017844,0
2019-04-03 18:44:15.59,743615768, 0.06, -0.01, 352.89, 585.83001709, -35.363261, 149.1652298, 0.998080730438, 0.000528492790181, -0.000144042394822, -0.0619245991111,0
2019-04-03 18:44:15.69,743715728, 0.06, 0.01, 352.89, 586.010009766, -35.363261, 149.1652298, 0.998080968857, 0.000545567192603, 5.44824906683e-05, -0.0619199983776,0
2019-04-03 18:44:15.79,743815688, 0.06, 0.0, 352.9, 586.200012207, -35.363261, 149.1652298, 0.998082339764, 0.000561071617994, -1.42978524309e-05, -0.0618974156678,0
2019-04-03 18:44:15.90,743916481, 0.06, 0.0, 352.9, 586.390014648, -35.363261, 149.1652298, 0.99808371067, 0.000529607175849, -0.000114377078717, -0.0618760734797,0
2019-04-03 18:44:16.00,744016441, 0.03, -0.03, 352.9, 586.58001709, -35.363261, 149.1652298, 0.998085379601, 0.000292690325296, -0.000286403665086, -0.0618505105376,0
2019-04-03 18:44:16.10,744116401, 0.0, -0.06, 352.91, 586.780029297, -35.363261, 149.1652298, 0.998086810112, -4.63702099296e-06, -0.000547401607037, -0.0618253313005,0
2019-04-03 18:44:16.20,744216361, 0.0, -0.07, 352.91, 586.969970703, -35.3632609, 149.1652298, 0.99808806181, -9.82948477031e-05, -0.000651811482385, -0.0618047863245,0
2019-04-03 18:44:16.30,744316321, 0.0, -0.06, 352.91, 587.16998291, -35.3632609, 149.1652298, 0.998087882996, 4.51095183962e-05, -0.000533501908649, -0.0618084259331,0
2019-04-03 18:44:16.40,744416281, 0.03, -0.03, 352.9, 587.369995117, -35.3632609, 149.1652298, 0.998086214066, 0.000320940744132, -0.000298635743093, -0.0618362873793,0
2019-04-03 18:44:16.50,744516241, 0.07, 0.0, 352.9, 587.570007324, -35.3632609, 149.1652298, 0.998083412647, 0.000656262389384, -0.000127429884742, -0.0618792772293,0
2019-04-03 18:44:16.60,744616201, 0.1, 0.0, 352.89, 587.75, -35.3632609, 149.1652298, 0.998080015182, 0.000944240251556, -0.000103511782072, -0.0619304440916,0
2019-04-03 18:44:16.70,744716161, 0.1, 0.0, 352.89, 587.91998291, -35.3632609, 149.1652298, 0.998076617718, 0.000934778770898, -6.7950139055e-05, -0.0619852133095,0
2019-04-03 18:44:16.80,744816121, 0.09, -0.02, 352.88, 588.090026855, -35.3632609, 149.1652298, 0.99807292223, 0.00079070054926, -0.000229780955124, -0.0620466060936,0
2019-04-03 18:44:16.90,744916081, 0.17, -0.16, 352.87, 588.239990234, -35.3632609, 149.1652298, 0.998067259789, 0.0014412276214, -0.00154310965445, -0.0621069818735,0
2019-04-03 18:44:17.00,745016041, 0.44, -0.54, 352.87, 588.380004883, -35.3632609, 149.1652298, 0.998047471046, 0.00360962375998, -0.00499028619379, -0.0621559806168,0
2019-04-03 18:44:17.09,745116001, 0.89, -1.15, 352.86, 588.5, -35.3632608, 149.1652298, 0.99798387289, 0.00714486744255, -0.0105342101306, -0.0621787644923,0
2019-04-03 18:44:17.19,745215961, 1.44, -1.96, 352.84, 588.609985352, -35.3632608, 149.1652298, 0.997839927673, 0.0114828227088, -0.0178716424853, -0.0621626675129,0
2019-04-03 18:44:17.29,745315921, 2.04, -2.87, 352.82, 588.710021973, -35.3632608, 149.1652298, 0.997595667839, 0.0162705667317, -0.0261562559754, -0.0620816983283,0
2019-04-03 18:44:17.39,745415881, 2.64, -3.74, 352.8, 588.799987793, -35.3632607, 149.1652298, 0.99728000164, 0.0210178736597, -0.0340353474021, -0.0619069598615,0
2019-04-03 18:44:17.49,745515841, 3.18, -4.42, 352.8, 588.880004883, -35.3632604, 149.1652299, 0.996967494488, 0.0252807755023, -0.0402337014675, -0.0616276748478,0
2019-04-03 18:44:17.59,745615801, 3.59, -4.91, 352.8, 588.940002441, -35.3632603, 149.1652299, 0.996708452702, 0.0285830553621, -0.0447159186006, -0.0612837970257,0
2019-04-03 18:44:17.69,745715761, 3.88, -5.27, 352.82, 589.0, -35.3632599, 149.1652302, 0.996507227421, 0.0309588443488, -0.0480023548007, -0.0609155073762,0
2019-04-03 18:44:17.79,745815721, 4.11, -5.57, 352.84, 589.049987793, -35.3632597, 149.1652303, 0.9963337183, 0.0327587686479, -0.0507847331464, -0.0605550222099,0
2019-04-03 18:44:17.89,745915681, 4.3, -5.89, 352.85, 589.090026855, -35.3632592, 149.1652307, 0.996157288551, 0.0342403538525, -0.0535827875137, -0.0602259859443,0
2019-04-03 18:44:18.00,746016474, 4.49, -6.21, 352.87, 589.130004883, -35.3632587, 149.165231, 0.995964288712, 0.0357235856354, -0.056468307972, -0.0599184371531,0
2019-04-03 18:44:18.10,746116434, 4.67, -6.48, 352.87, 589.16998291, -35.3632583, 149.1652313, 0.995784699917, 0.0371543131769, -0.058954063803, -0.0596389845014,0
2019-04-03 18:44:18.20,746216394, 4.82, -6.7, 352.88, 589.200012207, -35.3632576, 149.1652317, 0.995637476444, 0.0383255816996, -0.0608991757035, -0.0594006627798,0
2019-04-03 18:44:18.30,746316354, 4.93, -6.85, 352.89, 589.219970703, -35.363257, 149.1652322, 0.995528519154, 0.0391822978854, -0.0622964166105, -0.0592185258865,0
2019-04-03 18:44:18.40,746416314, 5.0, -6.95, 352.89, 589.25, -35.3632561, 149.1652327, 0.995456397533, 0.0397045649588, -0.0632188990712, -0.0591059438884,0
2019-04-03 18:44:18.50,746516274, 5.06, -7.05, 352.89, 589.270019531, -35.3632554, 149.1652332, 0.995385110378, 0.040169544518, -0.0640832558274, -0.0590617805719,0
2019-04-03 18:44:18.60,746616234, 5.13, -7.18, 352.88, 589.289978027, -35.3632544, 149.1652339, 0.995285451412, 0.0407127737999, -0.0652737244964, -0.0590655133128,0
2019-04-03 18:44:18.70,746716194, 5.36, -7.27, 352.95, 589.309997559, -35.3632536, 149.1652345, 0.995191931725, 0.0427514053881, -0.0661057010293, -0.058269944042,0
2019-04-03 18:44:18.80,746816154, 5.86, -7.25, 353.59, 589.33001709, -35.3632525, 149.1652351, 0.995313763618, 0.0474810265005, -0.0659442916512, -0.0524160452187,0
2019-04-03 18:44:18.90,746916114, 6.47, -7.32, 355.52, 589.349975586, -35.3632516, 149.1652359, 0.995748221874, 0.0538289397955, -0.0658911094069, -0.0353034585714,0
2019-04-03 18:44:19.00,747016074, 6.78, -7.72, 359.11, 589.369995117, -35.3632505, 149.1652366, 0.995978295803, 0.0585377328098, -0.0677237212658, -0.00374301336706,0
2019-04-03 18:44:19.09,747116034, 6.55, -8.49, 4.29, 589.380004883, -35.3632493, 149.1652375, 0.994766175747, 0.0597105026245, -0.071777112782, 0.0415083877742,0
2019-04-03 18:44:19.19,747215994, 5.59, -9.5, 10.81, 589.400024414, -35.3632481, 149.1652384, 0.990560591221, 0.0562266819179, -0.0778331756592, 0.0978278890252,0
2019-04-03 18:44:19.29,747315954, 3.7, -10.58, 18.2, 589.41998291, -35.3632469, 149.1652394, 0.98220962286, 0.046367418021, -0.08592312783, 0.16041059792,0
2019-04-03 18:44:19.39,747415914, 1.0, -11.46, 25.65, 589.440002441, -35.3632456, 149.1652406, 0.969936907291, 0.0307056140155, -0.0954891294241, 0.221723631024,0
2019-04-03 18:44:19.49,747515874, -1.95, -11.98, 32.28, 589.460021973, -35.3632441, 149.1652417, 0.955679535866, 0.0127581963316, -0.105014301836, 0.274746835232,0
2019-04-03 18:44:19.59,747615834, -4.48, -12.16, 37.41, 589.479980469, -35.3632427, 149.1652428, 0.942448794842, -0.00291846017353, -0.112794160843, 0.314736843109,0
2019-04-03 18:44:19.69,747715794, -6.12, -12.18, 40.68, 589.5, -35.3632412, 149.165244, 0.932981729507, -0.0129847833887, -0.117824301124, 0.339843988419,0
2019-04-03 18:44:19.79,747815754, -6.74, -12.21, 42.12, 589.520019531, -35.3632395, 149.1652451, 0.928537547588, -0.0164058580995, -0.120176717639, 0.350865215063,0
2019-04-03 18:44:19.89,747915714, -6.46, -12.42, 42.0, 589.539978027, -35.3632377, 149.1652461, 0.928791463375, -0.0136101292446, -0.120944552124, 0.350047945976,0
2019-04-03 18:44:19.99,748015674, -5.52, -12.84, 40.68, 589.559997559, -35.3632358, 149.1652473, 0.932534396648, -0.00602559745312, -0.121424436569, 0.339999139309,0
2019-04-03 18:44:20.10,748116467, -4.15, -13.45, 38.49, 589.58001709, -35.3632339, 149.1652485, 0.93838685751, 0.00462571298704, -0.122382335365, 0.323158323765,0
2019-04-03 18:44:20.20,748216427, -2.58, -14.1, 35.8, 589.609985352, -35.3632318, 149.1652495, 0.944990515709, 0.0164009612054, -0.123695731163, 0.302362889051,0
2019-04-03 18:44:20.30,748316387, -1.0, -14.67, 32.93, 589.630004883, -35.3632297, 149.1652508, 0.951407968998, 0.027895975858, -0.124912574887, 0.280074268579,0
2019-04-03 18:44:20.40,748416347, 0.44, -15.07, 30.22, 589.659973145, -35.3632275, 149.1652519, 0.95694643259, 0.0378703996539, -0.125624150038, 0.258916974068,0
2019-04-03 18:44:20.50,748516307, 1.57, -15.28, 27.95, 589.690002441, -35.3632252, 149.1652533, 0.961233556271, 0.0453469119966, -0.125788718462, 0.24114510417,0
2019-04-03 18:44:20.60,748616267, 2.33, -15.36, 26.32, 589.710021973, -35.363223, 149.1652547, 0.964157700539, 0.0501300878823, -0.125565692782, 0.228298470378,0
2019-04-03 18:44:20.70,748716227, 2.7, -15.35, 25.41, 589.739990234, -35.3632207, 149.1652562, 0.965793967247, 0.0521744601429, -0.12517079711, 0.221025288105,0
2019-04-03 18:44:20.80,748816187, 2.67, -15.31, 25.19, 589.770019531, -35.3632183, 149.1652578, 0.966271996498, 0.051614087075, -0.125002294779, 0.21915486455,0
2019-04-03 18:44:20.90,748916147, 2.3, -15.32, 25.56, 589.789978027, -35.3632158, 149.1652595, 0.965717017651, 0.0489153526723, -0.12556758523, 0.221879974008,0
2019-04-03 18:44:21.00,749016107, 1.7, -15.39, 26.37, 589.820007324, -35.3632133, 149.1652612, 0.964291930199, 0.0448805578053, -0.12700919807, 0.228025242686,0
2019-04-03 18:44:21.10,749116067, 1.0, -15.52, 27.45, 589.849975586, -35.3632108, 149.1652628, 0.962222695351, 0.0404715128243, -0.129108056426, 0.236263841391,0
2019-04-03 18:44:21.19,749216027, 0.29, -15.67, 28.62, 589.880004883, -35.3632081, 149.1652647, 0.959821045399, 0.036187466234, -0.131506025791, 0.245235145092,0
2019-04-03 18:44:21.29,749315987, -0.35, -15.81, 29.73, 589.909973145, -35.3632056, 149.1652666, 0.957436442375, 0.0323025435209, -0.133730813861, 0.253748118877,0
2019-04-03 18:44:21.39,749415947, -0.87, -15.91, 30.67, 589.929992676, -35.3632029, 149.1652684, 0.955350756645, 0.0293358322233, -0.135521575809, 0.260918080807,0
2019-04-03 18:44:21.49,749515907, -1.2, -15.98, 31.35, 589.960021973, -35.3632002, 149.1652703, 0.953786253929, 0.0275550726801, -0.136664286256, 0.26618668437,0
2019-04-03 18:44:21.59,749615867, -1.37, -16.04, 31.75, 589.989990234, -35.3631974, 149.1652722, 0.952834963799, 0.0267752315849, -0.137453347445, 0.269249379635,0
2019-04-03 18:44:21.69,749715827, -1.36, -16.08, 31.86, 590.020019531, -35.3631946, 149.1652741, 0.952514529228, 0.0271035339683, -0.137750893831, 0.27019661665,0
2019-04-03 18:44:21.79,749815787, -1.22, -16.1, 31.73, 590.049987793, -35.3631917, 149.1652761, 0.95276170969, 0.0281562246382, -0.137609913945, 0.269287824631,0
2019-04-03 18:44:21.89,749915747, -0.98, -16.1, 31.42, 590.08001709, -35.3631887, 149.165278, 0.953430831432, 0.029706152156, -0.137179747224, 0.266962409019,0
2019-04-03 18:44:21.99,750015707, -0.71, -16.12, 30.99, 590.099975586, -35.3631859, 149.16528, 0.954331159592, 0.0315008796751, -0.136780872941, 0.263724595308,0
2019-04-03 18:44:22.09,750115667, -0.42, -16.15, 30.52, 590.130004883, -35.3631829, 149.165282, 0.955291926861, 0.0334191918373, -0.136532723904, 0.260114014149,0
2019-04-03 18:44:22.20,750216460, -0.16, -16.2, 30.06, 590.159973145, -35.3631798, 149.165284, 0.956196904182, 0.0351636074483, -0.136462643743, 0.256571650505,0
2019-04-03 18:44:22.30,750316420, 0.04, -16.24, 29.67, 590.190002441, -35.3631768, 149.1652861, 0.956946969032, 0.0365580618382, -0.136502787471, 0.253540933132,0
2019-04-03 18:44:22.40,750416380, 0.2, -16.3, 29.37, 590.219970703, -35.3631737, 149.1652882, 0.957471728325, 0.0376558788121, -0.136766090989, 0.251246780157,0
2019-04-03 18:44:22.50,750516340, 0.3, -16.36, 29.19, 590.25, -35.3631705, 149.1652902, 0.957767307758, 0.0384052656591, -0.137101426721, 0.249820038676,0
2019-04-03 18:44:22.60,750616300, 0.33, -16.42, 29.12, 590.280029297, -35.3631674, 149.1652925, 0.957839787006, 0.0387326441705, -0.137563899159, 0.24923671782,0
2019-04-03 18:44:22.70,750716260, 0.3, -16.46, 29.14, 590.309997559, -35.3631643, 149.1652945, 0.957748353481, 0.0385741516948, -0.137965559959, 0.249390438199,0
2019-04-03 18:44:22.80,750816220, 0.21, -16.49, 29.24, 590.340026855, -35.3631612, 149.1652968, 0.95752954483, 0.0379825644195, -0.138356104493, 0.250104278326,0
2019-04-03 18:44:22.90,750916180, 0.08, -16.52, 29.39, 590.359985352, -35.363158, 149.165299, 0.957213044167, 0.0371477454901, -0.1388155967, 0.251184046268,0
2019-04-03 18:44:23.00,751016140, -0.04, -16.54, 29.56, 590.390014648, -35.3631547, 149.1653011, 0.956851482391, 0.036314599216, -0.139238134027, 0.252446681261,0
2019-04-03 18:44:23.10,751116100, -0.17, -16.56, 29.73, 590.41998291, -35.3631516, 149.1653034, 0.956496179104, 0.0355265028775, -0.139634177089, 0.253683388233,0
2019-04-03 18:44:23.20,751216060, -0.29, -16.61, 29.87, 590.450012207, -35.3631483, 149.1653057, 0.956165671349, 0.0347490906715, -0.140241593122, 0.25469994545,0
2019-04-03 18:44:23.29,751316020, -0.37, -16.65, 29.98, 590.479980469, -35.3631449, 149.1653078, 0.955896139145, 0.0343385599554, -0.14077450335, 0.255472093821,0
2019-04-03 18:44:23.39,751415980, -0.39, -16.68, 30.04, 590.510009766, -35.3631417, 149.1653102, 0.95573246479, 0.0342952050269, -0.141025334597, 0.255951553583,0
2019-04-03 18:44:23.49,751515940, -0.38, -16.69, 30.05, 590.539978027, -35.3631383, 149.1653125, 0.955678284168, 0.0344467386603, -0.141088694334, 0.256098359823,0
2019-04-03 18:44:23.59,751615900, -0.34, -16.71, 30.03, 590.570007324, -35.3631351, 149.1653148, 0.955694079399, 0.0348341874778, -0.141185626388, 0.255933701992,0
2019-04-03 18:44:23.69,751715860, -0.27, -16.74, 29.97, 590.599975586, -35.3631316, 149.165317, 0.955764770508, 0.0353806577623, -0.141278207302, 0.25554344058,0
2019-04-03 18:44:23.79,751815820, -0.21, -16.77, 29.9, 590.630004883, -35.3631284, 149.1653193, 0.955880641937, 0.0358097180724, -0.141441494226, 0.254959106445,0
2019-04-03 18:44:23.89,751915780, -0.16, -16.81, 29.81, 590.659973145, -35.3631249, 149.1653217, 0.956015169621, 0.0362163074315, -0.141658902168, 0.254275679588,0
2019-04-03 18:44:23.99,752015740, -0.13, -16.86, 29.72, 590.690002441, -35.3631216, 149.165324, 0.956133842468, 0.0365063622594, -0.14205776155, 0.253564566374,0
2019-04-03 18:44:24.09,752115700, -0.1, -16.92, 29.64, 590.719970703, -35.3631181, 149.1653263, 0.956225633621, 0.0367569439113, -0.142505690455, 0.252930045128,0
2019-04-03 18:44:24.19,752215660, -0.08, -16.95, 29.58, 590.739990234, -35.3631146, 149.1653287, 0.956314146519, 0.0369284413755, -0.142763912678, 0.252424359322,0
2019-04-03 18:44:24.30,752316453, -0.07, -16.97, 29.54, 590.770019531, -35.3631113, 149.1653311, 0.956385612488, 0.0370293334126, -0.14289727807, 0.25206297636,0
2019-04-03 18:44:24.40,752416413, -0.06, -16.99, 29.51, 590.799987793, -35.3631078, 149.1653333, 0.95641887188, 0.037080373615, -0.14306204021, 0.251835882664,0
2019-04-03 18:44:24.50,752516373, -0.06, -17.01, 29.5, 590.83001709, -35.3631042, 149.1653357, 0.956417024136, 0.0371513254941, -0.143242076039, 0.251730084419,0
2019-04-03 18:44:24.60,752616333, -0.04, -17.04, 29.5, 590.859985352, -35.3631009, 149.1653381, 0.956381380558, 0.0373205579817, -0.143406555057, 0.25174677372,0
2019-04-03 18:44:24.70,752716293, -0.04, -17.06, 29.51, 590.890014648, -35.3630974, 149.1653405, 0.956333458424, 0.037421874702, -0.143544003367, 0.251835435629,0
2019-04-03 18:44:24.80,752816253, -0.05, -17.07, 29.52, 590.91998291, -35.3630938, 149.165343, 0.956285953522, 0.0373890921474, -0.143653899431, 0.251958072186,0
2019-04-03 18:44:24.90,752916213, -0.07, -17.09, 29.54, 590.950012207, -35.3630902, 149.1653454, 0.956222057343, 0.0373179316521, -0.143910512328, 0.252064615488,0
2019-04-03 18:44:25.00,753016173, -0.1, -17.13, 29.55, 590.979980469, -35.3630868, 149.1653478, 0.95615363121, 0.0371655784547, -0.144289016724, 0.2521302104,0
2019-04-03 18:44:25.10,753116133, -0.12, -17.16, 29.56, 591.010009766, -35.3630833, 149.1653503, 0.956104099751, 0.0370176248252, -0.144615769386, 0.252152532339,0
2019-04-03 18:44:25.20,753216093, -0.14, -17.18, 29.56, 591.039978027, -35.3630797, 149.1653527, 0.956081390381, 0.0369197279215, -0.144815653563, 0.252138495445,0
2019-04-03 18:44:25.30,753316053, -0.16, -17.2, 29.56, 591.070007324, -35.3630762, 149.1653551, 0.95607984066, 0.0368159152567, -0.144969806075, 0.252070814371,0
2019-04-03 18:44:25.39,753416013, -0.15, -17.21, 29.55, 591.099975586, -35.3630725, 149.1653576, 0.956094145775, 0.0368355736136, -0.145060271025, 0.251961678267,0
2019-04-03 18:44:25.49,753515973, -0.15, -17.24, 29.53, 591.130004883, -35.3630689, 149.16536, 0.956096291542, 0.0369201377034, -0.145286276937, 0.251810789108,0
2019-04-03 18:44:25.59,753615933, -0.15, -17.27, 29.51, 591.159973145, -35.3630653, 149.1653624, 0.956100225449, 0.0369388870895, -0.145584464073, 0.251620918512,0
2019-04-03 18:44:25.69,753715893, -0.17, -17.3, 29.49, 591.190002441, -35.3630617, 149.1653648, 0.956124067307, 0.036823939532, -0.145833790302, 0.251402765512,0
2019-04-03 18:44:25.79,753815853, -0.17, -17.31, 29.46, 591.219970703, -35.3630582, 149.1653673, 0.956165194511, 0.0368020348251, -0.145932123065, 0.251192241907,0
2019-04-03 18:44:25.89,753915813, -0.16, -17.32, 29.44, 591.25, -35.3630546, 149.1653699, 0.956197202206, 0.0369251258671, -0.145998388529, 0.251013725996,0
2019-04-03 18:44:25.99,754015773, -0.12, -17.33, 29.42, 591.280029297, -35.363051, 149.1653723, 0.956224620342, 0.0371783040464, -0.146001845598, 0.250869989395,0
2019-04-03 18:44:26.09,754115733, -0.1, -17.33, 29.4, 591.309997559, -35.3630473, 149.1653748, 0.956244766712, 0.0374009050429, -0.146028712392, 0.250744223595,0
2019-04-03 18:44:26.19,754215693, -0.08, -17.36, 29.38, 591.340026855, -35.3630437, 149.1653773, 0.956236124039, 0.0375711582601, -0.146236330271, 0.25063097477,0
2019-04-03 18:44:26.30,754316486, -0.09, -17.4, 29.37, 591.369995117, -35.36304, 149.1653797, 0.956216037273, 0.0375778563321, -0.146544396877, 0.250526577234,0
2019-04-03 18:44:26.40,754416446, -0.12, -17.43, 29.36, 591.400024414, -35.3630364, 149.1653823, 0.956202864647, 0.0374108180404, -0.146856591105, 0.250418871641,0
2019-04-03 18:44:26.50,754516406, -0.11, -17.44, 29.36, 591.429992676, -35.3630327, 149.1653848, 0.956194758415, 0.0374493524432, -0.146980315447, 0.250371694565,0
2019-04-03 18:44:26.60,754616366, -0.1, -17.46, 29.36, 591.460021973, -35.363029, 149.1653873, 0.956170678139, 0.03760112077, -0.14713473618, 0.25035020709,0
2019-04-03 18:44:26.70,754716326, -0.08, -17.49, 29.35, 591.489990234, -35.3630254, 149.1653897, 0.956138014793, 0.0378565564752, -0.147292643785, 0.25034353137,0
2019-04-03 18:44:26.80,754816286, -0.07, -17.52, 29.35, 591.520019531, -35.3630217, 149.1653922, 0.956107616425, 0.0379781574011, -0.147514134645, 0.250310838223,0
2019-04-03 18:44:26.90,754916246, -0.08, -17.55, 29.34, 591.549987793, -35.3630179, 149.1653948, 0.956084907055, 0.0379708483815, -0.147756397724, 0.250255703926,0
2019-04-03 18:44:27.00,755016206, -0.08, -17.58, 29.34, 591.58001709, -35.3630142, 149.1653973, 0.956051945686, 0.0380361229181, -0.148052960634, 0.250196456909,0
2019-04-03 18:44:27.10,755116166, -0.07, -17.62, 29.33, 591.609985352, -35.3630105, 149.1653998, 0.95600771904, 0.038202110678, -0.148381114006, 0.250145792961,0
2019-04-03 18:44:27.20,755216126, -0.06, -17.66, 29.33, 591.640014648, -35.3630068, 149.1654024, 0.955971419811, 0.0382990241051, -0.148685917258, 0.250088781118,0
2019-04-03 18:44:27.30,755316086, -0.07, -17.69, 29.32, 591.66998291, -35.3630032, 149.1654049, 0.955949366093, 0.0382726714015, -0.148949414492, 0.250020205975,0
2019-04-03 18:44:27.40,755416046, -0.08, -17.71, 29.32, 591.700012207, -35.3629995, 149.1654074, 0.955942571163, 0.0382165946066, -0.149122044444, 0.249951854348,0
2019-04-03 18:44:27.49,755516006, -0.09, -17.7, 29.31, 591.729980469, -35.3629957, 149.1654099, 0.955970466137, 0.0381063632667, -0.149074479938, 0.249890327454,0
2019-04-03 18:44:27.59,755615966, -0.11, -17.67, 29.3, 591.760009766, -35.362992, 149.1654125, 0.956019341946, 0.0379298813641, -0.148924142122, 0.249819859862,0
2019-04-03 18:44:27.69,755715926, -0.13, -17.65, 29.29, 591.789978027, -35.3629883, 149.165415, 0.956075072289, 0.0376602560282, -0.14880426228, 0.249718770385,0
2019-04-03 18:44:27.79,755815886, -0.13, -17.64, 29.28, 591.820007324, -35.3629844, 149.1654175, 0.956118285656, 0.0376049615443, -0.14867170155, 0.2496406883,0
2019-04-03 18:44:27.89,755915846, -0.14, -17.63, 29.27, 591.849975586, -35.3629807, 149.1654202, 0.95615208149, 0.037561211735, -0.148601323366, 0.249559596181,0
2019-04-03 18:44:27.99,756015806, -0.14, -17.62, 29.26, 591.880004883, -35.362977, 149.1654227, 0.956179320812, 0.0375031605363, -0.148581340909, 0.249475985765,0
2019-04-03 18:44:28.09,756115766, -0.13, -17.64, 29.25, 591.909973145, -35.3629733, 149.1654252, 0.956175088882, 0.037591021508, -0.148715093732, 0.249399214983,0
2019-04-03 18:44:28.19,756215726, -0.12, -17.67, 29.24, 591.940002441, -35.3629695, 149.1654278, 0.956160187721, 0.0377151034772, -0.148912057281, 0.249320119619,0
2019-04-03 18:44:28.29,756315686, -0.11, -17.7, 29.23, 591.969970703, -35.3629656, 149.1654304, 0.95613604784, 0.0379011780024, -0.149137333035, 0.249249696732,0
2019-04-03 18:44:28.40,756416479, -0.08, -17.72, 29.23, 592.0, -35.3629619, 149.165433, 0.956116497517, 0.0381312891841, -0.149291500449, 0.249197483063,0
2019-04-03 18:44:28.50,756516439, -0.05, -17.73, 29.22, 592.030029297, -35.3629582, 149.1654356, 0.956111371517, 0.0383901000023, -0.14930742979, 0.249167740345,0
2019-04-03 18:44:28.60,756616399, -0.04, -17.73, 29.21, 592.059997559, -35.3629544, 149.1654381, 0.956121265888, 0.0384691692889, -0.149300426245, 0.249121546745,0
2019-04-03 18:44:28.70,756716359, -0.05, -17.74, 29.21, 592.090026855, -35.3629506, 149.1654407, 0.956129908562, 0.038441888988, -0.149338722229, 0.249069675803,0
2019-04-03 18:44:28.80,756816319, -0.05, -17.73, 29.2, 592.119995117, -35.3629467, 149.1654433, 0.956140398979, 0.038443159312, -0.14932025969, 0.249040424824,0
2019-04-03 18:44:28.90,756916279, -0.04, -17.73, 29.2, 592.150024414, -35.362943, 149.1654458, 0.956152319908, 0.0384717769921, -0.149252936244, 0.24903061986,0
2019-04-03 18:44:29.00,757016239, -0.04, -17.72, 29.2, 592.179992676, -35.3629392, 149.1654484, 0.956166446209, 0.0385000519454, -0.149164646864, 0.249024808407,0
2019-04-03 18:44:29.10,757116199, -0.03, -17.71, 29.19, 592.210021973, -35.3629354, 149.165451, 0.956176757812, 0.0385077372193, -0.149118959904, 0.249011516571,0
2019-04-03 18:44:29.20,757216159, -0.05, -17.72, 29.19, 592.239990234, -35.3629315, 149.1654536, 0.956175029278, 0.0384154394269, -0.149218469858, 0.248972713947,0
2019-04-03 18:44:29.30,757316119, -0.05, -17.73, 29.19, 592.270019531, -35.3629278, 149.1654562, 0.95616966486, 0.0384005047381, -0.149294883013, 0.248950004578,0
2019-04-03 18:44:29.40,757416079, -0.05, -17.75, 29.19, 592.299987793, -35.362924, 149.1654587, 0.956139445305, 0.0384718514979, -0.149489745498, 0.24893784523,0
2019-04-03 18:44:29.50,757516039, -0.04, -17.78, 29.19, 592.320007324, -35.3629202, 149.1654614, 0.956100046635, 0.038615655154, -0.149698197842, 0.248941645026,0
2019-04-03 18:44:29.59,757615999, -0.02, -17.79, 29.19, 592.349975586, -35.3629163, 149.1654639, 0.956076860428, 0.0387987233698, -0.149753764272, 0.248968914151,0
2019-04-03 18:44:29.69,757715959, 0.0, -17.79, 29.19, 592.380004883, -35.3629126, 149.1654664, 0.956080019474, 0.038956489414, -0.149641647935, 0.248999625444,0
2019-04-03 18:44:29.79,757815919, 0.01, -17.81, 29.19, 592.409973145, -35.3629087, 149.1654691, 0.956051707268, 0.0391324497759, -0.149782076478, 0.24899622798,0
2019-04-03 18:44:29.89,757915879, 0.0, -17.84, 29.19, 592.440002441, -35.3629048, 149.1654716, 0.956018447876, 0.0391327850521, -0.150071069598, 0.248950019479,0
2019-04-03 18:44:29.99,758015839, 0.0, -17.88, 29.18, 592.469970703, -35.362901, 149.1654743, 0.955973744392, 0.0391292013228, -0.150440365076, 0.248899251223,0
2019-04-03 18:44:30.09,758115799, -0.01, -17.91, 29.18, 592.5, -35.3628973, 149.1654768, 0.955939114094, 0.039112970233, -0.150748878717, 0.248848214746,0
2019-04-03 18:44:30.19,758215759, -0.01, -17.92, 29.18, 592.530029297, -35.3628935, 149.1654795, 0.955942094326, 0.0390980392694, -0.15078766644, 0.248815521598,0
2019-04-03 18:44:30.29,758315719, -0.01, -17.89, 29.17, 592.559997559, -35.3628895, 149.1654821, 0.955982625484, 0.0390536561608, -0.150585591793, 0.248789131641,0
2019-04-03 18:44:30.39,758415679, -0.01, -17.87, 29.17, 592.590026855, -35.3628858, 149.1654848, 0.956022441387, 0.0390216261148, -0.150403246284, 0.248751536012,0
2019-04-03 18:44:30.50,758516472, -0.01, -17.86, 29.16, 592.619995117, -35.3628819, 149.1654874, 0.956051051617, 0.0390012934804, -0.150303170085, 0.248705178499,0
2019-04-03 18:44:30.60,758616432, 0.0, -17.86, 29.15, 592.650024414, -35.362878, 149.16549, 0.956063747406, 0.0390071496367, -0.150308564305, 0.248652264476,0
2019-04-03 18:44:30.70,758716392, 0.0, -17.87, 29.15, 592.679992676, -35.3628743, 149.1654926, 0.956063687801, 0.0390618033707, -0.150380253792, 0.248600408435,0
2019-04-03 18:44:30.80,758816352, 0.0, -17.9, 29.14, 592.710021973, -35.3628704, 149.1654951, 0.956033706665, 0.0392251759768, -0.150593787432, 0.248560845852,0
2019-04-03 18:44:30.90,758916312, 0.01, -17.9, 29.14, 592.739990234, -35.3628665, 149.1654979, 0.956046760082, 0.0392979793251, -0.150543034077, 0.248529955745,0
2019-04-03 18:44:31.00,759016272, 0.01, -17.86, 29.13, 592.770019531, -35.3628627, 149.1655005, 0.95610833168, 0.0391483455896, -0.150263890624, 0.248485580087,0
2019-04-03 18:44:31.10,759116232, 0.0, -17.84, 29.12, 592.799987793, -35.3628589, 149.1655031, 0.956159412861, 0.0389268919826, -0.150100365281, 0.248422667384,0
2019-04-03 18:44:31.20,759216192, -0.01, -17.84, 29.12, 592.83001709, -35.3628549, 149.1655056, 0.956165850163, 0.0388786792755, -0.150147691369, 0.248376742005,0
2019-04-03 18:44:31.30,759316152, 0.0, -17.85, 29.11, 592.859985352, -35.3628512, 149.1655084, 0.956169962883, 0.0389323309064, -0.150179117918, 0.24833342433,0
2019-04-03 18:44:31.40,759416112, 0.01, -17.87, 29.11, 592.890014648, -35.3628473, 149.1655109, 0.956150710583, 0.0391302742064, -0.150308385491, 0.248298257589,0
2019-04-03 18:44:31.50,759516072, 0.03, -17.9, 29.1, 592.91998291, -35.3628434, 149.1655136, 0.956118285656, 0.0393581241369, -0.150523468852, 0.248256921768,0
2019-04-03 18:44:31.59,759616032, 0.02, -17.92, 29.09, 592.950012207, -35.3628396, 149.1655161, 0.956111252308, 0.0393200218678, -0.150706082582, 0.248179331422,0
2019-04-03 18:44:31.69,759715992, 0.0, -17.92, 29.09, 592.979980469, -35.3628358, 149.1655189, 0.95613026619, 0.0391893573105, -0.150752797723, 0.2480982095,0
2019-04-03 18:44:31.79,759815952, -0.01, -17.92, 29.08, 593.010009766, -35.3628318, 149.1655214, 0.956153512001, 0.0390157923102, -0.150790840387, 0.248012885451,0
2019-04-03 18:44:31.89,759915912, -0.02, -17.93, 29.07, 593.039978027, -35.3628281, 149.1655241, 0.956152021885, 0.038902271539, -0.150969296694, 0.247927725315,0
2019-04-03 18:44:31.99,760015872, -0.02, -17.97, 29.06, 593.070007324, -35.3628242, 149.1655267, 0.956124544144, 0.0389511585236, -0.151256993413, 0.247850671411,0
2019-04-03 18:44:32.09,760115832, 0.0, -17.98, 29.06, 593.099975586, -35.3628202, 149.1655294, 0.956118524075, 0.0391377583146, -0.151319369674, 0.247806668282,0
2019-04-03 18:44:32.19,760215792, 0.02, -17.96, 29.05, 593.130004883, -35.3628165, 149.1655321, 0.956145942211, 0.0393426455557, -0.151125907898, 0.247786343098,0
2019-04-03 18:44:32.29,760315752, 0.04, -17.94, 29.04, 593.159973145, -35.3628126, 149.1655347, 0.956181406975, 0.0394667796791, -0.150909975171, 0.247761249542,0
2019-04-03 18:44:32.39,760415712, 0.04, -17.94, 29.04, 593.190002441, -35.3628086, 149.1655372, 0.956202924252, 0.0394907221198, -0.150836974382, 0.247718900442,0
2019-04-03 18:44:32.49,760515672, 0.05, -17.93, 29.03, 593.219970703, -35.3628048, 149.16554, 0.956220328808, 0.0394979789853, -0.150791734457, 0.247678145766,0
2019-04-03 18:44:32.60,760616465, 0.04, -17.93, 29.03, 593.25, -35.3628008, 149.1655425, 0.956229925156, 0.0394225493073, -0.150834172964, 0.247627258301,0
2019-04-03 18:44:32.70,760716425, 0.04, -17.94, 29.02, 593.280029297, -35.3627971, 149.1655453, 0.956224858761, 0.0394442155957, -0.150921553373, 0.247590273619,0
2019-04-03 18:44:32.80,760816385, 0.03, -17.95, 29.02, 593.309997559, -35.3627932, 149.1655479, 0.95623010397, 0.0393687263131, -0.150986611843, 0.24754229188,0
2019-04-03 18:44:32.90,760916345, 0.0, -17.96, 29.01, 593.340026855, -35.3627892, 149.1655506, 0.956226408482, 0.0391451753676, -0.151183828712, 0.247471392155,0
2019-04-03 18:44:33.00,761016305, -0.01, -18.0, 29.01, 593.369995117, -35.3627854, 149.1655532, 0.956199944019, 0.0390624850988, -0.151479557157, 0.247406035662,0
2019-04-03 18:44:33.10,761116265, -0.02, -18.02, 29.01, 593.400024414, -35.3627816, 149.1655558, 0.956180930138, 0.0390587598085, -0.151685059071, 0.247354254127,0
2019-04-03 18:44:33.20,761216225, -0.01, -18.02, 29.0, 593.429992676, -35.3627776, 149.1655585, 0.956183314323, 0.0390729531646, -0.151734486222, 0.247312501073,0
2019-04-03 18:44:33.30,761316185, -0.01, -18.01, 29.0, 593.460021973, -35.3627738, 149.1655611, 0.956206440926, 0.0391223430634, -0.151618212461, 0.247286453843,0
2019-04-03 18:44:33.40,761416145, 0.0, -18.01, 28.99, 593.489990234, -35.3627698, 149.1655638, 0.956216752529, 0.0392099842429, -0.151578575373, 0.247256919742,0
2019-04-03 18:44:33.50,761516105, 0.0, -18.03, 28.98, 593.520019531, -35.3627661, 149.1655664, 0.956204593182, 0.0392792001367, -0.151735633612, 0.247196733952,0
2019-04-03 18:44:33.60,761616065, 0.0, -18.04, 28.98, 593.539978027, -35.3627622, 149.1655691, 0.95620650053, 0.0392881818116, -0.151831388474, 0.247129291296,0
2019-04-03 18:44:33.69,761716025, 0.01, -18.04, 28.97, 593.570007324, -35.3627582, 149.1655716, 0.956226348877, 0.0393628329039, -0.151771530509, 0.247077226639,0
2019-04-03 18:44:33.79,761815985, 0.03, -18.02, 28.96, 593.599975586, -35.3627544, 149.1655744, 0.956264317036, 0.0394970290363, -0.151564627886, 0.247035875916,0
2019-04-03 18:44:33.89,761915945, 0.05, -17.98, 28.95, 593.630004883, -35.3627505, 149.1655769, 0.95632994175, 0.0395662263036, -0.151198372245, 0.246995180845,0
2019-04-03 18:44:33.99,762015905, 0.07, -17.96, 28.94, 593.659973145, -35.3627466, 149.1655796, 0.956370949745, 0.0396264530718, -0.151017904282, 0.246937021613,0
2019-04-03 18:44:34.09,762115865, 0.07, -17.97, 28.93, 593.690002441, -35.3627427, 149.1655822, 0.956368744373, 0.0396902896464, -0.151109218597, 0.246879547834,0
2019-04-03 18:44:34.19,762215825, 0.07, -17.99, 28.93, 593.719970703, -35.3627387, 149.1655849, 0.956352412701, 0.0397206805646, -0.15129853785, 0.246822059155,0
2019-04-03 18:44:34.29,762315785, 0.06, -18.02, 28.92, 593.75, -35.362735, 149.1655875, 0.956330835819, 0.0396790280938, -0.151517823339, 0.246777653694,0
2019-04-03 18:44:34.39,762415745, 0.03, -18.04, 28.92, 593.780029297, -35.3627311, 149.1655902, 0.956311106682, 0.0394399762154, -0.151805177331, 0.246715992689,0
2019-04-03 18:44:34.49,762515705, 0.02, -18.05, 28.92, 593.809997559, -35.3627272, 149.1655929, 0.95630633831, 0.0393817201257, -0.151878282428, 0.246698707342,0
2019-04-03 18:44:34.59,762615665, 0.04, -18.05, 28.92, 593.840026855, -35.3627233, 149.1655955, 0.956297636032, 0.0395867303014, -0.151828512549, 0.246730402112,0
2019-04-03 18:44:34.70,762716458, 0.08, -18.05, 28.92, 593.869995117, -35.3627192, 149.1655982, 0.95628452301, 0.0399097949266, -0.151762410998, 0.246769711375,0
2019-04-03 18:44:34.80,762816418, 0.1, -18.04, 28.92, 593.900024414, -35.3627154, 149.1656008, 0.956294834614, 0.0400189645588, -0.151652857661, 0.246779546142,0
2019-04-03 18:44:34.90,762916378, 0.08, -18.03, 28.92, 593.929992676, -35.3627114, 149.1656035, 0.956323862076, 0.0398464240134, -0.151564210653, 0.246749401093,0
2019-04-03 18:44:35.00,763016338, 0.05, -18.03, 28.92, 593.960021973, -35.3627076, 149.1656061, 0.956332445145, 0.0395669750869, -0.151684775949, 0.246686920524,0
2019-04-03 18:44:35.10,763116298, 0.01, -18.04, 28.91, 593.989990234, -35.3627038, 149.1656088, 0.956339538097, 0.0393129736185, -0.151800855994, 0.246628582478,0
2019-04-03 18:44:35.20,763216258, 0.0, -18.05, 28.91, 594.020019531, -35.3626998, 149.1656114, 0.956336557865, 0.0391402542591, -0.151948422194, 0.246576800942,0
2019-04-03 18:44:35.30,763316218, -0.02, -18.06, 28.91, 594.049987793, -35.362696, 149.1656141, 0.956337869167, 0.038995437324, -0.152051091194, 0.246531352401,0
2019-04-03 18:44:35.40,763416178, -0.03, -18.08, 28.91, 594.08001709, -35.362692, 149.1656167, 0.956323862076, 0.0389721393585, -0.152219831944, 0.246485248208,0
2019-04-03 18:44:35.50,763516138, -0.02, -18.1, 28.9, 594.109985352, -35.3626882, 149.1656195, 0.956306040287, 0.039071701467, -0.152381315827, 0.246438905597,0
2019-04-03 18:44:35.60,763616098, -0.01, -18.1, 28.89, 594.140014648, -35.3626843, 149.1656221, 0.956312894821, 0.0391702577472, -0.152385801077, 0.246393725276,0
2019-04-03 18:44:35.70,763716058, 0.02, -18.08, 28.88, 594.16998291, -35.3626803, 149.1656248, 0.956347465515, 0.0394064895809, -0.152134969831, 0.246377050877,0
2019-04-03 18:44:35.79,763816018, 0.05, -18.06, 28.88, 594.200012207, -35.3626764, 149.1656274, 0.95637601614, 0.0396522246301, -0.151921391487, 0.24635848403,0
2019-04-03 18:44:35.89,763915978, 0.08, -18.05, 28.87, 594.229980469, -35.3626724, 149.16563, 0.956396281719, 0.0398404859006, -0.151776269078, 0.246339023113,0
2019-04-03 18:44:35.99,764015938, 0.07, -18.05, 28.86, 594.260009766, -35.3626686, 149.1656328, 0.956416606903, 0.0397283248603, -0.151785463095, 0.246272474527,0
2019-04-03 18:44:36.09,764115898, 0.05, -18.04, 28.86, 594.289978027, -35.3626646, 149.1656353, 0.956450939178, 0.0395315922797, -0.151731789112, 0.246203988791,0
2019-04-03 18:44:36.19,764215858, 0.04, -18.02, 28.85, 594.320007324, -35.3626608, 149.1656381, 0.956491947174, 0.0394076183438, -0.15158469975, 0.246155083179,0
2019-04-03 18:44:36.29,764315818, 0.04, -18.01, 28.85, 594.349975586, -35.3626569, 149.1656406, 0.956507503986, 0.0393943823874, -0.151550680399, 0.246117681265,0
2019-04-03 18:44:36.39,764415778, 0.05, -18.02, 28.84, 594.380004883, -35.362653, 149.1656434, 0.956499874592, 0.0394548140466, -0.151632592082, 0.246087238193,0
2019-04-03 18:44:36.49,764515738, 0.05, -18.05, 28.84, 594.409973145, -35.3626491, 149.1656461, 0.956472575665, 0.0395323373377, -0.151838123798, 0.246054038405,0
2019-04-03 18:44:36.59,764615698, 0.04, -18.08, 28.84, 594.440002441, -35.3626451, 149.1656487, 0.956437349319, 0.0395455397666, -0.152132824063, 0.246006771922,0
2019-04-03 18:44:36.70,764716491, 0.05, -18.09, 28.83, 594.469970703, -35.3626412, 149.1656514, 0.956441402435, 0.039586879313, -0.152150660753, 0.245973363519,0
2019-04-03 18:44:36.80,764816451, 0.06, -18.07, 28.83, 594.5, -35.3626372, 149.165654, 0.956461071968, 0.0396983064711, -0.152014762163, 0.245962917805,0
2019-04-03 18:44:36.90,764916411, 0.09, -18.05, 28.82, 594.530029297, -35.3626334, 149.1656567, 0.956489622593, 0.0398632287979, -0.151770055294, 0.245976388454,0
2019-04-03 18:44:37.00,765016371, 0.12, -18.04, 28.82, 594.559997559, -35.3626295, 149.1656593, 0.956501483917, 0.0400505103171, -0.151628509164, 0.245987266302,0
2019-04-03 18:44:37.10,765116331, 0.13, -18.03, 28.82, 594.590026855, -35.3626256, 149.1656621, 0.956514954567, 0.0401054546237, -0.151560410857, 0.245967850089,0
2019-04-03 18:44:37.20,765216291, 0.12, -18.05, 28.81, 594.619995117, -35.3626217, 149.1656646, 0.956505596638, 0.0401041209698, -0.151684716344, 0.245927780867,0
2019-04-03 18:44:37.30,765316251, 0.11, -18.06, 28.81, 594.650024414, -35.3626177, 149.1656674, 0.956500470638, 0.0400618799031, -0.151791214943, 0.245889008045,0
2019-04-03 18:44:37.40,765416211, 0.1, -18.06, 28.81, 594.679992676, -35.3626138, 149.16567, 0.956509768963, 0.0399593561888, -0.151823624969, 0.245849326253,0
2019-04-03 18:44:37.50,765516171, 0.09, -18.05, 28.8, 594.710021973, -35.3626098, 149.1656726, 0.956525862217, 0.0398356840014, -0.151813939214, 0.24581296742,0
2019-04-03 18:44:37.60,765616131, 0.08, -18.05, 28.8, 594.739990234, -35.362606, 149.1656754, 0.956537783146, 0.039724893868, -0.151838943362, 0.245768889785,0
2019-04-03 18:44:37.70,765716091, 0.06, -18.06, 28.8, 594.770019531, -35.362602, 149.165678, 0.956548094749, 0.0396091304719, -0.151878431439, 0.245723038912,0
2019-04-03 18:44:37.80,765816051, 0.06, -18.05, 28.79, 594.799987793, -35.3625982, 149.1656807, 0.956560492516, 0.0395502075553, -0.151886954904, 0.245679020882,0
2019-04-03 18:44:37.89,765916011, 0.07, -18.05, 28.79, 594.83001709, -35.3625943, 149.1656834, 0.956570029259, 0.0396104864776, -0.151841238141, 0.245660468936,0
2019-04-03 18:44:37.99,766015971, 0.08, -18.05, 28.79, 594.859985352, -35.3625903, 149.165686, 0.956572055817, 0.0397527851164, -0.151804745197, 0.24565218389,0
2019-04-03 18:44:38.09,766115931, 0.1, -18.05, 28.78, 594.890014648, -35.3625864, 149.1656887, 0.956576943398, 0.0398671627045, -0.15177577734, 0.245632633567,0
2019-04-03 18:44:38.19,766215891, 0.1, -18.04, 28.78, 594.91998291, -35.3625824, 149.1656913, 0.956597089767, 0.0398808829486, -0.151698991656, 0.245599210262,0
2019-04-03 18:44:38.29,766315851, 0.1, -18.05, 28.77, 594.950012207, -35.3625786, 149.1656941, 0.956596434116, 0.0398848280311, -0.151773020625, 0.24555541575,0
2019-04-03 18:44:38.39,766415811, 0.1, -18.08, 28.77, 594.979980469, -35.3625746, 149.1656966, 0.956575512886, 0.0398968756199, -0.151987940073, 0.245501965284,0
2019-04-03 18:44:38.49,766515771, 0.1, -18.09, 28.76, 595.0, -35.3625708, 149.1656994, 0.956568300724, 0.0399063825607, -0.15211571753, 0.245449200273,0
2019-04-03 18:44:38.59,766615731, 0.11, -18.1, 28.76, 595.030029297, -35.3625669, 149.1657021, 0.956572592258, 0.0399890877306, -0.152131289244, 0.245409563184,0
2019-04-03 18:44:38.69,766715691, 0.13, -18.09, 28.75, 595.059997559, -35.3625629, 149.1657047, 0.956586480141, 0.0401464961469, -0.15204526484, 0.245383128524,0
2019-04-03 18:44:38.80,766816484, 0.13, -18.07, 28.74, 595.090026855, -35.362559, 149.1657074, 0.956628203392, 0.0400895699859, -0.151868954301, 0.245338901877,0
2019-04-03 18:44:38.90,766916444, 0.12, -18.06, 28.74, 595.119995117, -35.3625551, 149.16571, 0.956659913063, 0.0399613045156, -0.151792138815, 0.245283767581,0
2019-04-03 18:44:39.00,767016404, 0.1, -18.07, 28.73, 595.150024414, -35.3625512, 149.1657128, 0.956653296947, 0.0398710481822, -0.15194773674, 0.245227739215,0
2019-04-03 18:44:39.10,767116364, 0.09, -18.08, 28.73, 595.179992676, -35.3625472, 149.1657155, 0.956645190716, 0.0398084335029, -0.15207991004, 0.245187565684,0
2019-04-03 18:44:39.20,767216324, 0.09, -18.09, 28.73, 595.210021973, -35.3625433, 149.1657181, 0.956642568111, 0.0397939532995, -0.152136474848, 0.245165213943,0
2019-04-03 18:44:39.30,767316284, 0.08, -18.1, 28.73, 595.239990234, -35.3625393, 149.1657208, 0.956641197205, 0.0397565737367, -0.152194485068, 0.245140612125,0
2019-04-03 18:44:39.40,767416244, 0.07, -18.11, 28.72, 595.270019531, -35.3625355, 149.1657234, 0.956630766392, 0.0397198945284, -0.152322635055, 0.245107740164,0
2019-04-03 18:44:39.50,767516204, 0.08, -18.12, 28.72, 595.299987793, -35.3625315, 149.1657262, 0.956623733044, 0.0397571511567, -0.152397334576, 0.245082572103,0
2019-04-03 18:44:39.60,767616164, 0.08, -18.12, 28.72, 595.33001709, -35.3625277, 149.1657287, 0.956629753113, 0.0398094393313, -0.152387589216, 0.245056703687,0
2019-04-03 18:44:39.70,767716124, 0.1, -18.1, 28.71, 595.359985352, -35.3625238, 149.1657315, 0.95665705204, 0.0399086363614, -0.152212932706, 0.245042562485,0
2019-04-03 18:44:39.80,767816084, 0.13, -18.08, 28.71, 595.390014648, -35.3625198, 149.1657342, 0.956686913967, 0.0401005670428, -0.151988133788, 0.245034113526,0
2019-04-03 18:44:39.90,767916044, 0.13, -18.09, 28.7, 595.409973145, -35.3625159, 149.1657368, 0.956696927547, 0.0401065647602, -0.152024790645, 0.244971454144,0
2019-04-03 18:44:39.99,768016004, 0.12, -18.1, 28.69, 595.440002441, -35.3625119, 149.1657395, 0.956696689129, 0.0400142036378, -0.152197107673, 0.244880259037,0
2019-04-03 18:44:40.09,768115964, 0.11, -18.11, 28.68, 595.469970703, -35.3625081, 149.1657421, 0.956713855267, 0.0399160645902, -0.152251526713, 0.244795456529,0
2019-04-03 18:44:40.19,768215924, 0.09, -18.1, 28.67, 595.5, -35.362504, 149.1657449, 0.956746697426, 0.0397883541882, -0.152202904224, 0.244718179107,0
2019-04-03 18:44:40.29,768315884, 0.08, -18.07, 28.67, 595.530029297, -35.3625002, 149.1657474, 0.956799268723, 0.0396137572825, -0.152024880052, 0.244651421905,0
2019-04-03 18:44:40.39,768415844, 0.07, -18.05, 28.66, 595.559997559, -35.3624962, 149.1657502, 0.956841468811, 0.0395157597959, -0.151874497533, 0.244595766068,0
2019-04-03 18:44:40.49,768515804, 0.06, -18.05, 28.65, 595.590026855, -35.3624924, 149.1657529, 0.956862032413, 0.0393937043846, -0.151893958449, 0.244522884488,0
2019-04-03 18:44:40.59,768615764, 0.06, -18.05, 28.65, 595.619995117, -35.3624883, 149.1657555, 0.956881046295, 0.0393620282412, -0.151870310307, 0.244468346238,0
2019-04-03 18:44:40.69,768715724, 0.07, -18.05, 28.64, 595.650024414, -35.3624845, 149.1657582, 0.95689201355, 0.0394150987267, -0.151846051216, 0.244431823492,0
2019-04-03 18:44:40.79,768815684, 0.08, -18.05, 28.64, 595.679992676, -35.3624806, 149.1657608, 0.956893324852, 0.0395430140197, -0.151839569211, 0.244409874082,0
2019-04-03 18:44:40.90,768916477, 0.11, -18.06, 28.63, 595.710021973, -35.3624766, 149.1657636, 0.956881821156, 0.0397741422057, -0.151875689626, 0.244395196438,0
2019-04-03 18:44:41.00,769016437, 0.14, -18.08, 28.63, 595.739990234, -35.3624727, 149.1657662, 0.956860601902, 0.0400284193456, -0.15195594728, 0.244386896491,0
2019-04-03 18:44:41.10,769116397, 0.15, -18.09, 28.62, 595.770019531, -35.3624687, 149.1657689, 0.956843197346, 0.0401776656508, -0.152052789927, 0.244370371103,0
2019-04-03 18:44:41.20,769216357, 0.15, -18.12, 28.62, 595.789978027, -35.3624649, 149.1657716, 0.956816852093, 0.0402143225074, -0.152267575264, 0.244333714247,0
2019-04-03 18:44:41.30,769316317, 0.12, -18.13, 28.62, 595.820007324, -35.3624609, 149.1657741, 0.956815958023, 0.0400059558451, -0.152424141765, 0.244273647666,0
2019-04-03 18:44:41.40,769416277, 0.1, -18.15, 28.62, 595.849975586, -35.362457, 149.1657769, 0.956799805164, 0.0398940294981, -0.15262311697, 0.244231134653,0
2019-04-03 18:44:41.50,769516237, 0.1, -18.14, 28.62, 595.880004883, -35.362453, 149.1657795, 0.956812441349, 0.0398785024881, -0.15255625546, 0.24422582984,0
2019-04-03 18:44:41.60,769616197, 0.12, -18.11, 28.62, 595.909973145, -35.3624492, 149.1657822, 0.95684581995, 0.0399453192949, -0.15227907896, 0.244257211685,0
2019-04-03 18:44:41.70,769716157, 0.15, -18.09, 28.62, 595.940002441, -35.3624453, 149.1657849, 0.95686841011, 0.0401205085218, -0.152022436261, 0.244299858809,0
2019-04-03 18:44:41.80,769816117, 0.15, -18.06, 28.61, 595.969970703, -35.3624413, 149.1657875, 0.956905186176, 0.0401206836104, -0.151791349053, 0.244299456477,0
2019-04-03 18:44:41.90,769916077, 0.13, -18.06, 28.61, 596.0, -35.3624374, 149.1657903, 0.956923484802, 0.0399444624782, -0.151793837547, 0.244255006313,0
2019-04-03 18:44:42.00,770016037, 0.1, -18.06, 28.61, 596.030029297, -35.3624335, 149.1657928, 0.956929564476, 0.039671599865, -0.151940703392, 0.244184538722,0
2019-04-03 18:44:42.09,770115997, 0.07, -18.06, 28.6, 596.059997559, -35.3624296, 149.1657956, 0.956951320171, 0.0393909960985, -0.15199637413, 0.244109973311,0
2019-04-03 18:44:42.19,770215957, 0.06, -18.08, 28.6, 596.090026855, -35.3624256, 149.1657983, 0.956936776638, 0.0393380336463, -0.152195811272, 0.244051277637,0
2019-04-03 18:44:42.29,770315917, 0.06, -18.12, 28.6, 596.119995117, -35.3624217, 149.1658009, 0.956890583038, 0.0394424647093, -0.152538523078, 0.244001477957,0
2019-04-03 18:44:42.39,770415877, 0.07, -18.17, 28.59, 596.150024414, -35.3624177, 149.1658036, 0.956843614578, 0.0395997203887, -0.152865856886, 0.24395519495,0
2019-04-03 18:44:42.49,770515837, 0.09, -18.19, 28.58, 596.179992676, -35.3624139, 149.1658062, 0.956826031208, 0.0397850722075, -0.152990370989, 0.243916094303,0
2019-04-03 18:44:42.59,770615797, 0.1, -18.17, 28.58, 596.210021973, -35.3624099, 149.165809, 0.956851363182, 0.0398769825697, -0.152871266007, 0.243876352906,0
2019-04-03 18:44:42.69,770715757, 0.12, -18.14, 28.57, 596.239990234, -35.362406, 149.1658115, 0.956915259361, 0.0399426817894, -0.152511775494, 0.243840023875,0
2019-04-03 18:44:42.79,770815717, 0.14, -18.09, 28.56, 596.270019531, -35.3624021, 149.1658143, 0.956978082657, 0.0400264821947, -0.152110010386, 0.243830636144,0
2019-04-03 18:44:42.89,770915677, 0.16, -18.07, 28.56, 596.289978027, -35.3623982, 149.165817, 0.95701277256, 0.0401424989104, -0.15185457468, 0.243834733963,0
2019-04-03 18:44:43.00,771016470, 0.17, -18.07, 28.55, 596.320007324, -35.3623942, 149.1658196, 0.95701032877, 0.0402155816555, -0.151863962412, 0.243826314807,0
2019-04-03 18:44:43.10,771116430, 0.16, -18.09, 28.55, 596.349975586, -35.3623903, 149.1658223, 0.956990480423, 0.0401468910277, -0.152069747448, 0.243787378073,0
2019-04-03 18:44:43.20,771216390, 0.1, -18.11, 28.55, 596.380004883, -35.3623864, 149.1658249, 0.956992506981, 0.0397201180458, -0.152309671044, 0.243699595332,0
2019-04-03 18:44:43.30,771316350, 0.06, -18.11, 28.55, 596.409973145, -35.3623824, 149.1658277, 0.957003593445, 0.0393857099116, -0.152430698276, 0.243634685874,0
2019-04-03 18:44:43.40,771416310, 0.05, -18.13, 28.55, 596.440002441, -35.3623785, 149.1658302, 0.95698851347, 0.0393422842026, -0.152585148811, 0.24360409379,0
2019-04-03 18:44:43.50,771516270, 0.06, -18.14, 28.55, 596.469970703, -35.3623745, 149.165833, 0.956976115704, 0.0394476354122, -0.15263786912, 0.243602752686,0
2019-04-03 18:44:43.60,771616230, 0.07, -18.13, 28.55, 596.5, -35.3623707, 149.1658357, 0.956984460354, 0.0394672602415, -0.152591452003, 0.243595868349,0
2019-04-03 18:44:43.70,771716190, 0.07, -18.11, 28.54, 596.530029297, -35.3623667, 149.1658383, 0.957011580467, 0.0394525416195, -0.152439549565, 0.243586823344,0
2019-04-03 18:44:43.80,771816150, 0.09, -18.08, 28.54, 596.559997559, -35.3623628, 149.165841, 0.957056641579, 0.0395156145096, -0.152126371861, 0.243595466018,0
2019-04-03 18:44:43.90,771916110, 0.1, -18.06, 28.54, 596.590026855, -35.3623588, 149.1658436, 0.957084596157, 0.0395968407393, -0.151926934719, 0.243596822023,0
2019-04-03 18:44:44.00,772016070, 0.07, -18.07, 28.53, 596.619995117, -35.362355, 149.1658463, 0.957092940807, 0.0393502302468, -0.152059882879, 0.243520930409,0
2019-04-03 18:44:44.09,772116030, 0.04, -18.08, 28.53, 596.650024414, -35.3623511, 149.1658489, 0.957103073597, 0.039064027369, -0.152212709188, 0.243431717157,0
2019-04-03 18:44:44.19,772215990, 0.04, -18.09, 28.53, 596.679992676, -35.3623471, 149.1658517, 0.957091569901, 0.0390926450491, -0.152334332466, 0.243396252394,0
2019-04-03 18:44:44.29,772315950, 0.06, -18.1, 28.52, 596.710021973, -35.3623432, 149.1658543, 0.957082033157, 0.0393041297793, -0.152337804437, 0.243397623301,0
2019-04-03 18:44:44.39,772415910, 0.09, -18.11, 28.52, 596.739990234, -35.3623392, 149.165857, 0.957069933414, 0.0395371951163, -0.152346670628, 0.243401870131,0
2019-04-03 18:44:44.49,772515870, 0.12, -18.12, 28.51, 596.770019531, -35.3623354, 149.1658597, 0.957053422928, 0.0397960618138, -0.152379482985, 0.2434040308,0
