Start,TimeUS,Roll,Pitch,Yaw,Alt,Lat,Lng,Q1,Q2,Q3,Q4,Category
2019-04-03 20:28:54.90,55316198, 0.0, 0.0, 353.0, 584.090026855, -35.363261, 149.1652299, 0.998134791851, 0.0, 0.0, -0.0610485821962,0
2019-04-03 20:28:55.01,55435317, 0.0, 0.0, 353.0, 584.090026855, -35.363261, 149.1652299, 0.998134791851, 0.0, 0.0, -0.0610485821962,0
2019-04-03 20:28:55.11,55535277, 0.0, 0.0, 353.0, 584.090026855, -35.363261, 149.1652299, 0.998134791851, 0.0, 0.0, -0.0610485821962,0
2019-04-03 20:28:55.21,55635237, 0.0, 0.0, 353.0, 584.090026855, -35.363261, 149.1652299, 0.998134791851, 0.0, 0.0, -0.0610485821962,0
2019-04-03 20:28:55.31,55735197, 0.0, 0.0, 353.0, 584.090026855, -35.363261, 149.1652299, 0.998134791851, 0.0, 0.0, -0.0610485821962,0
2019-04-03 20:28:55.41,55835157, 0.0, 0.0, 353.0, 584.090026855, -35.363261, 149.1652299, 0.998134791851, 0.0, 0.0, -0.0610485821962,0
2019-04-03 20:28:55.51,55935117, 0.0, 0.0, 353.0, 584.090026855, -35.363261, 149.1652299, 0.998134791851, 0.0, 0.0, -0.0610485821962,0
2019-04-03 20:28:55.61,56035077, 0.0, 0.0, 353.0, 584.090026855, -35.363261, 149.1652299, 0.998134791851, 0.0, 0.0, -0.0610485821962,0
2019-04-03 20:28:55.71,56135037, 0.0, 0.0, 353.0, 584.090026855, -35.363261, 149.1652299, 0.998134791851, 0.0, 0.0, -0.0610485821962,0
2019-04-03 20:28:55.81,56234997, 0.0, 0.0, 353.0, 584.090026855, -35.363261, 149.1652299, 0.998134791851, 0.0, 0.0, -0.0610485821962,0
2019-04-03 20:28:55.91,56334957, 0.0, 0.0, 353.0, 584.090026855, -35.363261, 149.1652299, 0.998134791851, 0.0, 0.0, -0.0610485821962,0
2019-04-03 20:28:56.01,56434917, 0.0, 0.0, 353.0, 584.090026855, -35.363261, 149.1652299, 0.998134791851, 0.0, 0.0, -0.0610485821962,0
2019-04-03 20:28:56.11,56534877, 0.0, 0.0, 353.0, 584.090026855, -35.363261, 149.1652299, 0.998134791851, 0.0, 0.0, -0.0610485821962,0
2019-04-03 20:28:56.21,56634837, 0.0, 0.0, 353.0, 584.090026855, -35.363261, 149.1652299, 0.998134791851, 0.0, 0.0, -0.0610485821962,0
2019-04-03 20:28:56.31,56734797, 0.0, 0.0, 353.0, 584.090026855, -35.363261, 149.1652299, 0.998134791851, 0.0, 0.0, -0.0610485821962,0
2019-04-03 20:28:56.41,56834757, 0.0, 0.0, 353.0, 584.090026855, -35.363261, 149.1652299, 0.998134791851, 0.0, 0.0, -0.0610485821962,0
2019-04-03 20:28:56.51,56934717, 0.0, 0.0, 353.0, 584.090026855, -35.363261, 149.1652299, 0.998134791851, 0.0, 0.0, -0.0610485821962,0
2019-04-03 20:28:56.61,57034677, 0.0, 0.0, 353.0, 584.090026855, -35.363261, 149.1652299, 0.998134791851, 0.0, 0.0, -0.0610485821962,0
2019-04-03 20:28:56.71,57134637, 0.0, 0.0, 353.0, 584.090026855, -35.363261, 149.1652299, 0.998134791851, 0.0, 0.0, -0.0610485821962,0
2019-04-03 20:28:56.81,57234597, 0.0, 0.0, 353.0, 584.090026855, -35.363261, 149.1652299, 0.998134791851, 0.0, 0.0, -0.0610485821962,0
2019-04-03 20:28:56.91,57334557, 0.0, 0.0, 353.0, 584.090026855, -35.363261, 149.1652299, 0.998134791851, 0.0, 0.0, -0.0610485821962,0
2019-04-03 20:28:57.02,57435350, 0.0, 0.0, 353.0, 584.090026855, -35.363261, 149.1652299, 0.998134791851, 0.0, 0.0, -0.0610485821962,0
2019-04-03 20:28:57.11,57535310, 0.0, 0.0, 353.0, 584.090026855, -35.363261, 149.1652299, 0.998134791851, 0.0, 0.0, -0.0610485821962,0
2019-04-03 20:28:57.21,57635270, 0.0, 0.0, 353.0, 584.090026855, -35.363261, 149.1652299, 0.998134791851, 0.0, 0.0, -0.0610485821962,0
2019-04-03 20:28:57.31,57735230, 0.0, 0.0, 353.0, 584.090026855, -35.363261, 149.1652299, 0.998134791851, 0.0, 0.0, -0.0610485821962,0
2019-04-03 20:28:57.41,57835190, 0.0, 0.0, 353.0, 584.090026855, -35.363261, 149.1652299, 0.998134791851, 0.0, 0.0, -0.0610485821962,0
2019-04-03 20:28:57.51,57935150, 0.0, 0.0, 353.0, 584.090026855, -35.363261, 149.1652299, 0.998134791851, 0.0, 0.0, -0.0610485821962,0
2019-04-03 20:28:57.61,58035110, 0.0, 0.0, 353.0, 584.090026855, -35.363261, 149.1652299, 0.998134791851, 0.0, 0.0, -0.0610485821962,0
2019-04-03 20:28:57.71,58135070, 0.0, 0.0, 353.0, 584.090026855, -35.363261, 149.1652299, 0.998134791851, 0.0, 0.0, -0.0610485821962,0
2019-04-03 20:28:57.81,58235030, 0.0, 0.0, 353.0, 584.090026855, -35.363261, 149.1652299, 0.998134791851, 0.0, 0.0, -0.0610485821962,0
2019-04-03 20:28:57.91,58334990, 0.0, 0.0, 353.0, 584.090026855, -35.363261, 149.1652299, 0.998134791851, 0.0, 0.0, -0.0610485821962,0
2019-04-03 20:28:58.01,58434950, 0.0, 0.0, 353.0, 584.090026855, -35.363261, 149.1652299, 0.998134791851, 0.0, 0.0, -0.0610485821962,0
2019-04-03 20:28:58.11,58534910, 0.0, 0.0, 353.0, 584.090026855, -35.363261, 149.1652299, 0.998134791851, 0.0, 0.0, -0.0610485821962,0
2019-04-03 20:28:58.21,58634870, 0.0, 0.0, 353.0, 584.090026855, -35.363261, 149.1652299, 0.998134791851, 0.0, 0.0, -0.0610485821962,0
2019-04-03 20:28:58.31,58734830, 0.0, 0.0, 353.0, 584.090026855, -35.363261, 149.1652299, 0.998134791851, 0.0, 0.0, -0.0610485821962,0
2019-04-03 20:28:58.41,58834790, 0.0, 0.0, 353.0, 584.090026855, -35.363261, 149.1652299, 0.998134791851, 0.0, 0.0, -0.0610485821962,0
2019-04-03 20:28:58.51,58934750, 0.0, 0.0, 353.0, 584.090026855, -35.363261, 149.1652299, 0.998134791851, 0.0, 0.0, -0.0610485821962,0
2019-04-03 20:28:58.61,59034710, 0.0, 0.0, 353.0, 584.090026855, -35.363261, 149.1652299, 0.998134791851, 0.0, 0.0, -0.0610485821962,0
2019-04-03 20:28:58.71,59134670, 0.0, 0.0, 353.0, 584.090026855, -35.363261, 149.1652299, 0.998134791851, 0.0, 0.0, -0.0610485821962,0
2019-04-03 20:28:58.81,59234630, 0.0, 0.0, 353.0, 584.090026855, -35.363261, 149.1652299, 0.998134791851, 0.0, 0.0, -0.0610485821962,0
2019-04-03 20:28:58.91,59334590, 0.0, 0.0, 353.0, 584.090026855, -35.363261, 149.1652299, 0.998134791851, 0.0, 0.0, -0.0610485821962,0
2019-04-03 20:28:59.01,59434550, 0.0, 0.0, 353.0, 584.090026855, -35.363261, 149.1652299, 0.998134791851, 0.0, 0.0, -0.0610485821962,0
2019-04-03 20:28:59.12,59535343, 0.0, 0.0, 353.0, 584.090026855, -35.363261, 149.1652299, 0.998134791851, 0.0, 0.0, -0.0610485821962,0
2019-04-03 20:28:59.21,59635303, 0.0, 0.0, 353.0, 584.090026855, -35.363261, 149.1652299, 0.998134791851, 0.0, 0.0, -0.0610485821962,0
2019-04-03 20:28:59.31,59735263, 0.0, 0.0, 353.0, 584.090026855, -35.363261, 149.1652299, 0.998134791851, 0.0, 0.0, -0.0610485821962,0
2019-04-03 20:28:59.41,59835223, 0.0, 0.0, 353.0, 584.090026855, -35.363261, 149.1652299, 0.998134791851, 0.0, 0.0, -0.0610485821962,0
2019-04-03 20:28:59.51,59935183, 0.0, 0.0, 353.0, 584.090026855, -35.363261, 149.1652299, 0.998134791851, 0.0, 0.0, -0.0610485821962,0
2019-04-03 20:28:59.61,60035143, 0.0, 0.0, 353.0, 584.090026855, -35.363261, 149.1652299, 0.998134791851, 0.0, 0.0, -0.0610485821962,0
2019-04-03 20:28:59.71,60135103, 0.0, 0.0, 353.0, 584.090026855, -35.363261, 149.1652299, 0.998134791851, 0.0, 0.0, -0.0610485821962,0
2019-04-03 20:28:59.81,60235063, 0.0, 0.0, 353.0, 584.090026855, -35.363261, 149.1652299, 0.998134791851, 0.0, 0.0, -0.0610485821962,0
2019-04-03 20:28:59.91,60335023, 0.0, 0.0, 353.0, 584.090026855, -35.363261, 149.1652299, 0.998134791851, 0.0, 0.0, -0.0610485821962,0
2019-04-03 20:29:00.01,60434983, 0.0, 0.0, 353.0, 584.090026855, -35.363261, 149.1652299, 0.998134791851, 0.0, 0.0, -0.0610485821962,0
2019-04-03 20:29:00.11,60534943, 0.0, 0.0, 353.0, 584.090026855, -35.363261, 149.1652299, 0.998134791851, 0.0, 0.0, -0.0610485821962,0
2019-04-03 20:29:00.21,60634903, 0.0, 0.0, 353.0, 584.090026855, -35.363261, 149.1652299, 0.998134791851, 0.0, 0.0, -0.0610485821962,0
2019-04-03 20:29:00.31,60734863, 0.0, 0.0, 353.0, 584.090026855, -35.363261, 149.1652299, 0.998134791851, 0.0, 0.0, -0.0610485821962,0
2019-04-03 20:29:00.41,60834823, 0.0, 0.0, 353.0, 584.090026855, -35.363261, 149.1652299, 0.998134791851, 0.0, 0.0, -0.0610485821962,0
2019-04-03 20:29:00.51,60934783, 0.0, 0.0, 353.0, 584.090026855, -35.363261, 149.1652299, 0.998134791851, 0.0, 0.0, -0.0610485821962,0
2019-04-03 20:29:00.61,61034743, 0.0, 0.0, 353.0, 584.090026855, -35.363261, 149.1652299, 0.998134791851, 0.0, 0.0, -0.0610485821962,0
2019-04-03 20:29:00.71,61134703, 0.0, 0.0, 353.0, 584.090026855, -35.363261, 149.1652299, 0.998134791851, 0.0, 0.0, -0.0610485821962,0
2019-04-03 20:29:00.81,61234663, 0.0, 0.0, 353.0, 584.090026855, -35.363261, 149.1652299, 0.998134791851, 0.0, 0.0, -0.0610485821962,0
2019-04-03 20:29:00.91,61334623, 0.0, 0.0, 353.0, 584.090026855, -35.363261, 149.1652299, 0.998134791851, 0.0, 0.0, -0.0610485821962,0
2019-04-03 20:29:01.01,61434583, 0.0, 0.0, 353.0, 584.090026855, -35.363261, 149.1652299, 0.998134791851, 0.0, 0.0, -0.0610485821962,0
2019-04-03 20:29:01.11,61534543, 0.0, 0.0, 353.0, 584.090026855, -35.363261, 149.1652299, 0.998134791851, 0.0, 0.0, -0.0610485821962,0
2019-04-03 20:29:01.22,61635336, 0.0, 0.0, 353.0, 584.090026855, -35.363261, 149.1652299, 0.998134791851, 0.0, 0.0, -0.0610485821962,0
2019-04-03 20:29:01.31,61735296, 0.0, 0.0, 353.0, 584.090026855, -35.363261, 149.1652299, 0.998134791851, 0.0, 0.0, -0.0610485821962,0
2019-04-03 20:29:01.41,61835256, 0.0, 0.0, 353.0, 584.090026855, -35.363261, 149.1652299, 0.998134791851, 0.0, 0.0, -0.0610485821962,0
2019-04-03 20:29:01.51,61935216, 0.0, 0.0, 353.0, 584.090026855, -35.363261, 149.1652299, 0.998134791851, 0.0, 0.0, -0.0610485821962,0
2019-04-03 20:29:01.61,62035176, 0.0, 0.0, 353.0, 584.090026855, -35.363261, 149.1652299, 0.998134791851, 0.0, 0.0, -0.0610485821962,0
2019-04-03 20:29:01.71,62135136, 0.0, 0.0, 353.0, 584.090026855, -35.363261, 149.1652299, 0.998134791851, 0.0, 0.0, -0.0610485821962,0
2019-04-03 20:29:01.81,62235096, 0.0, 0.0, 353.0, 584.090026855, -35.363261, 149.1652299, 0.998134791851, 0.0, 0.0, -0.0610485821962,0
2019-04-03 20:29:01.91,62335056, 0.0, 0.0, 353.0, 584.090026855, -35.363261, 149.1652299, 0.998134791851, 0.0, 0.0, -0.0610485821962,0
2019-04-03 20:29:02.01,62435016, 0.0, 0.0, 353.0, 584.090026855, -35.363261, 149.1652299, 0.998134791851, 0.0, 0.0, -0.0610485821962,0
2019-04-03 20:29:02.11,62534976, 0.0, 0.0, 353.0, 584.090026855, -35.363261, 149.1652299, 0.998134791851, 0.0, 0.0, -0.0610485821962,0
2019-04-03 20:29:02.21,62634936, 0.0, 0.0, 353.0, 584.090026855, -35.363261, 149.1652299, 0.998134791851, 0.0, 0.0, -0.0610485821962,0
2019-04-03 20:29:02.31,62734896, 0.0, 0.0, 353.0, 584.090026855, -35.363261, 149.1652299, 0.998134791851, 0.0, 0.0, -0.0610485821962,0
2019-04-03 20:29:02.41,62834856, 0.0, 0.0, 353.0, 584.090026855, -35.363261, 149.1652299, 0.998134791851, 0.0, 0.0, -0.0610485821962,0
2019-04-03 20:29:02.51,62934816, 0.0, 0.0, 353.0, 584.090026855, -35.363261, 149.1652299, 0.998134791851, 0.0, 0.0, -0.0610485821962,0
2019-04-03 20:29:02.61,63034776, 0.0, 0.0, 353.0, 584.090026855, -35.363261, 149.1652299, 0.998134791851, 0.0, 0.0, -0.0610485821962,0
2019-04-03 20:29:02.71,63134736, 0.0, 0.0, 353.0, 584.090026855, -35.363261, 149.1652299, 0.998134791851, 0.0, 0.0, -0.0610485821962,0
2019-04-03 20:29:02.81,63234696, 0.0, 0.0, 353.0, 584.090026855, -35.363261, 149.1652299, 0.998134791851, 0.0, 0.0, -0.0610485821962,0
2019-04-03 20:29:02.91,63334656, 0.0, 0.0, 353.0, 584.090026855, -35.363261, 149.1652299, 0.998134791851, 0.0, 0.0, -0.0610485821962,0
2019-04-03 20:29:03.01,63434616, 0.0, 0.0, 353.0, 584.090026855, -35.363261, 149.1652299, 0.998134791851, 0.0, 0.0, -0.0610485821962,0
2019-04-03 20:29:03.11,63534576, 0.0, 0.0, 353.0, 584.090026855, -35.363261, 149.1652299, 0.998134791851, 0.0, 0.0, -0.0610485821962,0
2019-04-03 20:29:03.21,63634536, 0.0, 0.0, 353.0, 584.090026855, -35.363261, 149.1652299, 0.998134791851, 0.0, 0.0, -0.0610485821962,0
2019-04-03 20:29:03.32,63735329, 0.0, 0.0, 353.0, 584.090026855, -35.363261, 149.1652299, 0.998134791851, 0.0, 0.0, -0.0610485821962,0
2019-04-03 20:29:03.41,63835289, 0.0, 0.0, 353.0, 584.090026855, -35.363261, 149.1652299, 0.998134791851, 0.0, 0.0, -0.0610485821962,0
2019-04-03 20:29:03.51,63935249, 0.0, 0.0, 353.0, 584.090026855, -35.363261, 149.1652299, 0.998134791851, 0.0, 0.0, -0.0610485821962,0
2019-04-03 20:29:03.61,64035209, 0.0, 0.0, 353.0, 584.090026855, -35.363261, 149.1652299, 0.998134791851, 0.0, 0.0, -0.0610485821962,0
2019-04-03 20:29:03.71,64135169, 0.0, 0.0, 353.0, 584.090026855, -35.363261, 149.1652299, 0.998134791851, 0.0, 0.0, -0.0610485821962,0
2019-04-03 20:29:03.81,64235129, 0.0, 0.0, 353.0, 584.090026855, -35.363261, 149.1652299, 0.998134791851, 0.0, 0.0, -0.0610485821962,0
2019-04-03 20:29:03.91,64335089, 0.0, 0.0, 353.0, 584.090026855, -35.363261, 149.1652299, 0.998134791851, 0.0, 0.0, -0.0610485821962,0
2019-04-03 20:29:04.01,64435049, 0.0, 0.0, 353.0, 584.090026855, -35.363261, 149.1652299, 0.998134791851, 0.0, 0.0, -0.0610485821962,0
2019-04-03 20:29:04.11,64535009, 0.0, 0.0, 353.0, 584.090026855, -35.363261, 149.1652299, 0.998134791851, 0.0, 0.0, -0.0610485821962,0
2019-04-03 20:29:04.21,64634969, 0.0, 0.0, 353.0, 584.090026855, -35.363261, 149.1652299, 0.998134791851, 0.0, 0.0, -0.0610485821962,0
2019-04-03 20:29:04.31,64734929, 0.0, 0.0, 353.0, 584.090026855, -35.363261, 149.1652299, 0.998134791851, 0.0, 0.0, -0.0610485821962,0
2019-04-03 20:29:04.41,64834889, 0.0, 0.0, 353.0, 584.090026855, -35.363261, 149.1652299, 0.998134791851, 0.0, 0.0, -0.0610485821962,0
2019-04-03 20:29:04.51,64934849, 0.0, 0.0, 353.0, 584.090026855, -35.363261, 149.1652299, 0.998134791851, 0.0, 0.0, -0.0610485821962,0
2019-04-03 20:29:04.61,65034809, 0.0, 0.0, 353.0, 584.090026855, -35.363261, 149.1652299, 0.998134791851, 0.0, 0.0, -0.0610485821962,0
2019-04-03 20:29:04.71,65134769, 0.0, 0.0, 353.0, 584.090026855, -35.363261, 149.1652299, 0.998134791851, 0.0, 0.0, -0.0610485821962,0
2019-04-03 20:29:06.41,66834922, 0.0, 0.0, 353.0, 584.090026855, -35.363261, 149.1652299, 0.998134791851, 0.0, 0.0, -0.0610485821962,0
2019-04-03 20:29:06.51,66934882, 0.0, 0.0, 353.0, 584.090026855, -35.363261, 149.1652299, 0.998134791851, 0.0, 0.0, -0.0610485821962,0
2019-04-03 20:29:06.61,67034842, 0.0, 0.0, 353.0, 584.090026855, -35.363261, 149.1652299, 0.998134791851, 0.0, 0.0, -0.0610485821962,0
2019-04-03 20:29:06.71,67134802, 0.0, 0.0, 353.0, 584.090026855, -35.363261, 149.1652299, 0.998134791851, 0.0, 0.0, -0.0610485821962,0
2019-04-03 20:29:06.81,67234762, 0.0, 0.0, 353.0, 584.090026855, -35.363261, 149.1652299, 0.998134791851, 0.0, 0.0, -0.0610485821962,0
2019-04-03 20:29:06.91,67334722, 0.0, 0.0, 353.0, 584.090026855, -35.363261, 149.1652299, 0.998134791851, 0.0, 0.0, -0.0610485821962,0
2019-04-03 20:29:07.01,67434682, 0.0, 0.0, 353.0, 584.090026855, -35.363261, 149.1652299, 0.998134791851, 0.0, 0.0, -0.0610485821962,0
2019-04-03 20:29:07.11,67534642, 0.0, 0.0, 353.0, 584.090026855, -35.363261, 149.1652299, 0.998134791851, 0.0, 0.0, -0.0610485821962,0
2019-04-03 20:29:07.21,67634602, 0.0, 0.0, 353.0, 584.090026855, -35.363261, 149.1652299, 0.998134791851, 0.0, 0.0, -0.0610485821962,0
2019-04-03 20:29:07.31,67734562, 0.0, 0.0, 353.0, 584.090026855, -35.363261, 149.1652299, 0.998134791851, 0.0, 0.0, -0.0610485821962,0
2019-04-03 20:29:07.42,67835355, 0.0, 0.0, 353.0, 584.090026855, -35.363261, 149.1652299, 0.998134791851, 0.0, 0.0, -0.0610485821962,0
2019-04-03 20:29:07.51,67935315, 0.0, 0.0, 353.0, 584.090026855, -35.363261, 149.1652299, 0.998134791851, 0.0, 0.0, -0.0610485821962,0
2019-04-03 20:29:07.61,68035275, 0.0, 0.0, 353.0, 584.090026855, -35.363261, 149.1652299, 0.998134791851, 0.0, 0.0, -0.0610485821962,0
2019-04-03 20:29:07.71,68135235, 0.0, 0.0, 353.0, 584.090026855, -35.363261, 149.1652299, 0.998134791851, 0.0, 0.0, -0.0610485821962,0
2019-04-03 20:29:07.81,68235195, 0.0, 0.0, 353.0, 584.090026855, -35.363261, 149.1652299, 0.998134791851, 0.0, 0.0, -0.0610485821962,0
2019-04-03 20:29:07.91,68335155, 0.0, 0.0, 353.0, 584.090026855, -35.363261, 149.1652299, 0.998134791851, 0.0, 0.0, -0.0610485821962,0
2019-04-03 20:29:08.01,68435115, 0.0, 0.0, 353.0, 584.090026855, -35.363261, 149.1652299, 0.998134791851, 0.0, 0.0, -0.0610485821962,0
2019-04-03 20:29:08.11,68535075, 0.0, 0.0, 353.0, 584.090026855, -35.363261, 149.1652299, 0.998134791851, 0.0, 0.0, -0.0610485821962,0
2019-04-03 20:29:08.21,68635035, 0.0, 0.0, 353.0, 584.090026855, -35.363261, 149.1652299, 0.998134791851, 0.0, 0.0, -0.0610485821962,0
2019-04-03 20:29:08.31,68734995, 0.0, 0.0, 353.0, 584.090026855, -35.363261, 149.1652299, 0.998134791851, 0.0, 0.0, -0.0610485821962,0
2019-04-03 20:29:08.41,68834955, 0.0, 0.0, 353.0, 584.090026855, -35.363261, 149.1652299, 0.998134791851, 0.0, 0.0, -0.0610485821962,0
2019-04-03 20:29:08.51,68934915, 0.0, 0.0, 353.0, 584.090026855, -35.363261, 149.1652299, 0.998134791851, 0.0, 0.0, -0.0610485821962,0
2019-04-03 20:29:08.61,69034875, 0.0, 0.0, 353.0, 584.090026855, -35.363261, 149.1652299, 0.998134791851, 0.0, 0.0, -0.0610485821962,0
2019-04-03 20:29:08.71,69134835, 0.0, 0.0, 353.0, 584.090026855, -35.363261, 149.1652299, 0.998134791851, 0.0, 0.0, -0.0610485821962,0
2019-04-03 20:29:08.81,69234795, 0.0, 0.0, 353.0, 584.090026855, -35.363261, 149.1652299, 0.998134791851, 0.0, 0.0, -0.0610485821962,0
2019-04-03 20:29:08.91,69334755, 0.0, 0.0, 353.0, 584.090026855, -35.363261, 149.1652299, 0.998134791851, 0.0, 0.0, -0.0610485821962,0
2019-04-03 20:29:09.01,69434715, 0.0, 0.0, 353.0, 584.090026855, -35.363261, 149.1652299, 0.998134791851, 0.0, 0.0, -0.0610485821962,0
2019-04-03 20:29:09.11,69534675, 0.0, 0.0, 353.0, 584.090026855, -35.363261, 149.1652299, 0.998134791851, 0.0, 0.0, -0.0610485821962,0
2019-04-03 20:29:09.21,69634635, 0.0, 0.0, 353.0, 584.090026855, -35.363261, 149.1652299, 0.998134791851, 0.0, 0.0, -0.0610485821962,0
2019-04-03 20:29:09.31,69734595, 0.0, 0.0, 353.0, 584.090026855, -35.363261, 149.1652299, 0.998134791851, 0.0, 0.0, -0.0610485821962,0
2019-04-03 20:29:09.41,69834555, 0.0, 0.0, 353.0, 584.090026855, -35.363261, 149.1652299, 0.998134791851, 0.0, 0.0, -0.0610485821962,0
2019-04-03 20:29:09.52,69935348, 0.0, 0.0, 353.0, 584.090026855, -35.363261, 149.1652299, 0.998134791851, 0.0, 0.0, -0.0610485821962,0
2019-04-03 20:29:09.61,70035308, 0.0, 0.0, 353.0, 584.090026855, -35.363261, 149.1652299, 0.998134791851, 0.0, 0.0, -0.0610485821962,0
2019-04-03 20:29:09.71,70135268, 0.0, 0.0, 353.0, 584.090026855, -35.363261, 149.1652299, 0.998134791851, 0.0, 0.0, -0.0610485821962,0
2019-04-03 20:29:09.81,70235228, 0.0, 0.0, 353.0, 584.090026855, -35.363261, 149.1652299, 0.998134791851, 0.0, 0.0, -0.0610485821962,0
2019-04-03 20:29:09.91,70335188, 0.0, 0.0, 353.0, 584.090026855, -35.363261, 149.1652299, 0.998134791851, 0.0, 0.0, -0.0610485821962,0
2019-04-03 20:29:10.01,70435148, 0.0, 0.0, 353.0, 584.090026855, -35.363261, 149.1652299, 0.998134791851, 0.0, 0.0, -0.0610485821962,0
2019-04-03 20:29:10.11,70535108, 0.0, 0.0, 353.0, 584.090026855, -35.363261, 149.1652299, 0.998134791851, 0.0, 0.0, -0.0610485821962,0
2019-04-03 20:29:10.21,70635068, 0.0, 0.0, 353.0, 584.090026855, -35.363261, 149.1652299, 0.998134791851, 0.0, 0.0, -0.0610485821962,0
2019-04-03 20:29:10.31,70735028, 0.0, 0.0, 353.0, 584.090026855, -35.363261, 149.1652299, 0.998134791851, 0.0, 0.0, -0.0610485821962,0
2019-04-03 20:29:10.41,70834988, 0.0, 0.0, 353.0, 584.090026855, -35.363261, 149.1652299, 0.998134791851, 0.0, 0.0, -0.0610485821962,0
2019-04-03 20:29:10.51,70934948, 0.0, 0.0, 353.0, 584.090026855, -35.363261, 149.1652299, 0.998134791851, 0.0, 0.0, -0.0610485821962,0
2019-04-03 20:29:10.61,71034908, 0.0, 0.0, 353.0, 584.090026855, -35.363261, 149.1652299, 0.998134791851, 0.0, 0.0, -0.0610485821962,0
2019-04-03 20:29:10.71,71134868, 0.0, 0.0, 353.0, 584.090026855, -35.363261, 149.1652299, 0.998134791851, 0.0, 0.0, -0.0610485821962,0
2019-04-03 20:29:10.81,71234828, 0.0, 0.0, 353.0, 584.090026855, -35.363261, 149.1652299, 0.998134791851, 0.0, 0.0, -0.0610485821962,0
2019-04-03 20:29:10.91,71334788, 0.0, 0.0, 353.0, 584.090026855, -35.363261, 149.1652299, 0.998134791851, 0.0, 0.0, -0.0610485821962,0
2019-04-03 20:29:11.01,71434748, 0.0, 0.0, 353.0, 584.090026855, -35.363261, 149.1652299, 0.998134791851, 0.0, 0.0, -0.0610485821962,0
2019-04-03 20:29:11.11,71534708, 0.0, 0.0, 353.0, 584.090026855, -35.363261, 149.1652299, 0.998134791851, 0.0, 0.0, -0.0610485821962,0
2019-04-03 20:29:11.21,71634668, 0.0, 0.0, 353.0, 584.090026855, -35.363261, 149.1652299, 0.998134791851, 0.0, 0.0, -0.0610485821962,0
2019-04-03 20:29:11.31,71734628, 0.0, 0.0, 353.0, 584.090026855, -35.363261, 149.1652299, 0.998134791851, 0.0, 0.0, -0.0610485821962,0
2019-04-03 20:29:11.41,71834588, 0.0, 0.0, 353.0, 584.090026855, -35.363261, 149.1652299, 0.998134791851, 0.0, 0.0, -0.0610485821962,0
2019-04-03 20:29:11.51,71934548, 0.0, 0.0, 353.0, 584.090026855, -35.363261, 149.1652299, 0.998134791851, 0.0, 0.0, -0.0610485821962,0
2019-04-03 20:29:11.62,72035341, 0.0, 0.0, 353.0, 584.090026855, -35.363261, 149.1652299, 0.998134791851, 0.0, 0.0, -0.0610485821962,0
2019-04-03 20:29:11.71,72135301, 0.0, 0.0, 353.0, 584.090026855, -35.363261, 149.1652299, 0.998134791851, 0.0, 0.0, -0.0610485821962,0
2019-04-03 20:29:11.81,72235261, 0.0, 0.0, 353.0, 584.090026855, -35.363261, 149.1652299, 0.998134791851, 0.0, 0.0, -0.0610485821962,0
2019-04-03 20:29:11.91,72335221, 0.0, 0.0, 353.0, 584.090026855, -35.363261, 149.1652299, 0.998134791851, 0.0, 0.0, -0.0610485821962,0
2019-04-03 20:29:12.01,72435181, 0.0, 0.0, 353.0, 584.090026855, -35.363261, 149.1652299, 0.998134791851, 0.0, 0.0, -0.0610485821962,0
2019-04-03 20:29:12.11,72535141, 0.0, 0.0, 353.0, 584.090026855, -35.363261, 149.1652299, 0.998134791851, 0.0, 0.0, -0.0610485821962,0
2019-04-03 20:29:12.21,72635101, 0.0, 0.0, 353.0, 584.090026855, -35.363261, 149.1652299, 0.998134791851, 0.0, 0.0, -0.0610485821962,0
2019-04-03 20:29:12.31,72735061, 0.0, 0.0, 353.0, 584.090026855, -35.363261, 149.1652299, 0.998134791851, 0.0, 0.0, -0.0610485821962,0
2019-04-03 20:29:12.41,72835021, 0.0, 0.0, 353.0, 584.090026855, -35.363261, 149.1652299, 0.998134791851, 0.0, 0.0, -0.0610486268997,0
2019-04-03 20:29:12.51,72934981, 0.0, 0.0, 353.0, 584.090026855, -35.363261, 149.1652299, 0.998134791851, 0.0, 0.0, -0.0610486753285,0
2019-04-03 20:29:12.61,73034941, 0.0, 0.0, 353.0, 584.090026855, -35.363261, 149.1652299, 0.998134791851, 0.0, 0.0, -0.0610486641526,0
2019-04-03 20:29:12.71,73134901, 0.0, 0.0, 353.0, 584.090026855, -35.363261, 149.1652299, 0.998134791851, 0.0, 0.0, -0.0610486753285,0
2019-04-03 20:29:12.81,73234861, 0.0, 0.0, 353.0, 584.090026855, -35.363261, 149.1652299, 0.998134791851, 0.0, 0.0, -0.0610486753285,0
2019-04-03 20:29:12.91,73334821, 0.0, 0.0, 353.0, 584.090026855, -35.363261, 149.1652299, 0.998134791851, 0.0, 0.0, -0.0610486753285,0
2019-04-03 20:29:13.01,73434781, 0.0, 0.0, 353.0, 584.090026855, -35.363261, 149.1652299, 0.998134791851, 0.0, 0.0, -0.0610486753285,0
2019-04-03 20:29:13.11,73534741, 0.0, 0.0, 353.0, 584.090026855, -35.363261, 149.1652299, 0.998134791851, 0.0, 0.0, -0.0610486753285,0
2019-04-03 20:29:13.21,73634701, 0.0, 0.0, 353.0, 584.099975586, -35.363261, 149.1652299, 0.998134791851, 0.0, 0.0, -0.0610486641526,0
2019-04-03 20:29:13.31,73734661, 0.0, 0.0, 353.0, 584.099975586, -35.363261, 149.1652299, 0.998134791851, 0.0, 0.0, -0.0610486753285,0
2019-04-03 20:29:13.41,73834621, 0.0, 0.0, 353.0, 584.109985352, -35.363261, 149.1652299, 0.998134791851, 0.0, 0.0, -0.0610486753285,0
2019-04-03 20:29:13.51,73934581, 0.0, 0.0, 353.0, 584.130004883, -35.363261, 149.1652299, 0.998134791851, 0.0, 0.0, -0.0610486753285,0
2019-04-03 20:29:13.61,74034541, 0.0, 0.0, 353.0, 584.150024414, -35.363261, 149.1652299, 0.998134791851, 0.0, 0.0, -0.0610486194491,0
2019-04-03 20:29:13.72,74135334, 0.0, 0.0, 353.0, 584.179992676, -35.363261, 149.1652299, 0.998134791851, 0.0, 0.0, -0.0610486753285,0
2019-04-03 20:29:13.81,74235294, 0.0, 0.0, 352.99, 584.219970703, -35.363261, 149.1652299, 0.998134791851, -3.16210680467e-05, -3.03569613607e-05, -0.0610487684608,0
2019-04-03 20:29:13.91,74335254, -0.05, -0.04, 352.99, 584.289978027, -35.363261, 149.1652299, 0.998134195805, -0.000477030494949, -0.000352121685864, -0.0610551871359,0
2019-04-03 20:29:14.01,74435214, -0.13, -0.08, 352.99, 584.41998291, -35.363261, 149.1652299, 0.998132228851, -0.00117920932826, -0.000653329538181, -0.0610758513212,0
2019-04-03 20:29:14.11,74535174, -0.19, -0.1, 352.99, 584.570007324, -35.363261, 149.1652299, 0.998129427433, -0.0017655286938, -0.000845321163069, -0.0611054413021,0
2019-04-03 20:29:14.21,74635134, -0.2, -0.13, 352.98, 584.729980469, -35.363261, 149.1652299, 0.998126685619, -0.00187621254008, -0.00109378935304, -0.0611428208649,0
2019-04-03 20:29:14.31,74735094, -0.15, -0.16, 352.98, 584.880004883, -35.363261, 149.1652299, 0.998125016689, -0.00145017169416, -0.00132366793696, -0.0611775666475,0
2019-04-03 20:29:14.41,74835054, -0.08, -0.15, 352.98, 585.030029297, -35.363261, 149.1652299, 0.998123705387, -0.000859819469042, -0.00132258760277, -0.0612095482647,0
2019-04-03 20:29:14.51,74935014, -0.04, -0.12, 352.97, 585.179992676, -35.363261, 149.1652299, 0.998122692108, -0.000428947067121, -0.00108052568976, -0.0612356998026,0
2019-04-03 20:29:14.61,75034974, -0.03, -0.08, 352.97, 585.340026855, -35.363261, 149.1652299, 0.998122096062, -0.000324979919242, -0.000684738100972, -0.0612509027123,0
2019-04-03 20:29:14.71,75134934, -0.02, -0.03, 352.97, 585.510009766, -35.363261, 149.1652298, 0.998121857643, -0.000244335242314, -0.000253772072028, -0.0612588562071,0
2019-04-03 20:29:14.81,75234894, -0.01, -0.01, 352.97, 585.679992676, -35.363261, 149.1652298, 0.998122036457, -0.000106626619527, -0.000153452347149, -0.0612561330199,0
2019-04-03 20:29:14.91,75334854, 0.0, -0.03, 352.97, 585.859985352, -35.363261, 149.1652298, 0.998122692108, -5.52718593099e-05, -0.000307539448841, -0.0612450763583,0
2019-04-03 20:29:15.01,75434814, 0.0, -0.04, 352.97, 586.049987793, -35.363261, 149.1652298, 0.998123586178, 5.56279046577e-05, -0.000404213176807, -0.0612304955721,0
2019-04-03 20:29:15.11,75534774, 0.02, -0.03, 352.98, 586.229980469, -35.363261, 149.1652298, 0.998125135899, 0.000242515438003, -0.000286841939669, -0.0612057819963,0
2019-04-03 20:29:15.21,75634734, 0.04, -0.02, 352.98, 586.41998291, -35.363261, 149.1652298, 0.99812656641, 0.000376686773961, -0.000268368254183, -0.0611813813448,0
2019-04-03 20:29:15.31,75734694, 0.06, -0.02, 352.98, 586.609985352, -35.363261, 149.1652298, 0.998127996922, 0.000509581528604, -0.000276407314232, -0.0611573532224,0
2019-04-03 20:29:15.41,75834654, 0.05, -0.03, 352.98, 586.809997559, -35.363261, 149.1652298, 0.998129069805, 0.000461365649244, -0.000311098905513, -0.0611396953464,0
2019-04-03 20:29:15.51,75934614, 0.01, -0.04, 352.98, 587.010009766, -35.363261, 149.1652298, 0.998128950596, 0.000138754883665, -0.000359778292477, -0.0611439235508,0
2019-04-03 20:29:15.61,76034574, -0.03, -0.03, 352.98, 587.210021973, -35.363261, 149.1652298, 0.998127162457, -0.000356156757334, -0.000313506694511, -0.0611716359854,0
2019-04-03 20:29:15.71,76134534, -0.06, -0.05, 352.98, 587.409973145, -35.3632609, 149.1652298, 0.998125016689, -0.00058076082496, -0.000429102568887, -0.0612047053874,0
2019-04-03 20:29:15.82,76235327, -0.06, -0.07, 352.97, 587.619995117, -35.3632609, 149.1652298, 0.998122692108, -0.000633359828498, -0.000595093995798, -0.0612403340638,0
2019-04-03 20:29:15.91,76335287, -0.05, -0.07, 352.97, 587.83001709, -35.3632609, 149.1652298, 0.998120844364, -0.000535296974704, -0.000657693657558, -0.061270583421,0
2019-04-03 20:29:16.01,76435247, -0.03, -0.06, 352.97, 588.030029297, -35.3632609, 149.1652298, 0.998120129108, -0.000348035566276, -0.000573942263145, -0.0612835176289,0
2019-04-03 20:29:16.11,76535207, -0.02, -0.06, 352.97, 588.239990234, -35.3632609, 149.1652298, 0.998119413853, -0.000288992130663, -0.00055794720538, -0.0612963996828,0
2019-04-03 20:29:16.21,76635167, -0.04, -0.06, 352.97, 588.460021973, -35.3632609, 149.1652298, 0.998118698597, -0.000426031736424, -0.000534359191079, -0.0613070167601,0
2019-04-03 20:29:16.31,76735127, -0.07, -0.05, 352.96, 588.66998291, -35.3632609, 149.1652297, 0.998117864132, -0.000715933565516, -0.000405041035265, -0.0613189712167,0
2019-04-03 20:29:16.41,76835087, -0.09, -0.04, 352.96, 588.880004883, -35.3632609, 149.1652297, 0.998116731644, -0.000854521407746, -0.000340812723152, -0.0613368302584,0
2019-04-03 20:29:16.51,76935047, -0.08, -0.07, 352.96, 589.099975586, -35.3632609, 149.1652297, 0.998115479946, -0.000802035967354, -0.000570528849494, -0.0613561086357,0
2019-04-03 20:29:16.61,77035007, -0.04, -0.1, 352.96, 589.309997559, -35.3632609, 149.1652297, 0.998114049435, -0.000476633606013, -0.000907036359422, -0.0613780356944,0
2019-04-03 20:29:16.71,77134967, 0.0, -0.11, 352.95, 589.530029297, -35.3632609, 149.1652297, 0.998112618923, -3.62301288988e-05, -0.00100009527523, -0.0614020042121,0
2019-04-03 20:29:16.81,77234927, 0.03, -0.08, 352.95, 589.75, -35.3632608, 149.1652296, 0.998111486435, 0.000228977325605, -0.000787580327597, -0.0614234097302,0
2019-04-03 20:29:16.91,77334887, 0.01, -0.06, 352.95, 589.969970703, -35.3632608, 149.1652296, 0.998110532761, 0.000138662435347, -0.00058605032973, -0.0614412240684,0
2019-04-03 20:29:17.01,77434847, -0.02, -0.07, 352.95, 590.190002441, -35.3632608, 149.1652296, 0.998109400272, -0.000282849476207, -0.000680370663758, -0.0614591278136,0
2019-04-03 20:29:17.11,77534807, -0.06, -0.12, 352.95, 590.409973145, -35.3632608, 149.1652296, 0.998108327389, -0.000672499940265, -0.00102284515742, -0.0614676438272,0
2019-04-03 20:29:17.21,77634767, -0.09, -0.15, 352.95, 590.630004883, -35.3632608, 149.1652296, 0.998106956482, -0.000874250661582, -0.00130840181373, -0.0614818558097,0
2019-04-03 20:29:17.31,77734727, -0.08, -0.17, 352.94, 590.840026855, -35.3632608, 149.1652296, 0.99810564518, -0.000874605844729, -0.00143854564521, -0.0615005902946,0
2019-04-03 20:29:17.41,77834687, -0.08, -0.15, 352.94, 591.039978027, -35.3632608, 149.1652294, 0.998104155064, -0.000850247044582, -0.00132277794182, -0.0615273751318,0
2019-04-03 20:29:17.51,77934647, -0.09, -0.11, 352.94, 591.239990234, -35.3632608, 149.1652294, 0.998102426529, -0.000869684910867, -0.000983492122032, -0.0615620426834,0
2019-04-03 20:29:17.61,78034607, -0.09, -0.07, 352.93, 591.41998291, -35.3632607, 149.1652294, 0.998100280762, -0.000857090810314, -0.000619468279183, -0.061601318419,0
2019-04-03 20:29:17.71,78134567, -0.07, -0.02, 352.93, 591.590026855, -35.3632607, 149.1652294, 0.99809807539, -0.000677769130562, -0.000202656927286, -0.0616418942809,0
2019-04-03 20:29:17.81,78234527, -0.04, 0.01, 352.92, 591.760009766, -35.3632607, 149.1652294, 0.998095989227, -0.000357556797098, 0.000116295290354, -0.06167896837,0
2019-04-03 20:29:17.91,78335320, 0.12, 0.03, 352.92, 591.900024414, -35.3632607, 149.1652293, 0.998093426228, 0.00112226465717, 0.000265608367044, -0.0617110319436,0
2019-04-03 20:29:18.01,78435280, 0.56, 0.06, 352.92, 592.039978027, -35.3632607, 149.1652293, 0.998079895973, 0.00492278439924, 0.000222745104111, -0.0617434829473,0
2019-04-03 20:29:18.11,78535240, 1.27, 0.09, 352.91, 592.159973145, -35.3632607, 149.1652293, 0.998027861118, 0.0111609511077, 0.000167063306435, -0.0617720857263,0
2019-04-03 20:29:18.21,78635200, 2.2, 0.15, 352.91, 592.270019531, -35.3632607, 149.1652293, 0.99790173769, 0.0193246547133, 0.00016766571207, -0.0617961101234,0
2019-04-03 20:29:18.31,78735160, 3.25, 0.22, 352.91, 592.369995117, -35.3632605, 149.1652294, 0.997680068016, 0.0285041555762, 0.000219305147766, -0.0618220679462,0
2019-04-03 20:29:18.41,78835120, 4.32, 0.28, 352.91, 592.450012207, -35.3632605, 149.1652296, 0.997369110584, 0.0377941243351, 0.000157029222464, -0.0618583001196,0
2019-04-03 20:29:18.51,78935080, 5.25, 0.32, 352.9, 592.530029297, -35.3632605, 149.1652298, 0.997025489807, 0.0459164232016, 2.62318935711e-05, -0.0619021728635,0
2019-04-03 20:29:18.61,79035040, 5.97, 0.36, 352.9, 592.590026855, -35.3632605, 149.1652299, 0.996710896492, 0.0522465445101, -3.84722334275e-05, -0.0619488395751,0
2019-04-03 20:29:18.71,79135000, 6.53, 0.4, 352.9, 592.650024414, -35.3632605, 149.1652303, 0.996442139149, 0.0570919662714, -4.15133217757e-05, -0.0619973503053,0
2019-04-03 20:29:18.81,79234960, 6.99, 0.41, 352.89, 592.700012207, -35.3632604, 149.1652308, 0.996202945709, 0.0610704086721, -0.000141165379318, -0.0620493628085,0
2019-04-03 20:29:18.91,79334920, 7.4, 0.44, 352.89, 592.739990234, -35.3632604, 149.1652312, 0.995970010757, 0.0647134110332, -0.000175484543433, -0.0620964057744,0
2019-04-03 20:29:19.01,79434880, 7.77, 0.46, 352.89, 592.780029297, -35.3632604, 149.1652318, 0.995751738548, 0.0679515972733, -0.000129147534608, -0.0621374510229,0
2019-04-03 20:29:19.11,79534840, 8.06, 0.5, 352.88, 592.809997559, -35.3632604, 149.1652327, 0.995572507381, 0.0704968348145, 2.28325789067e-05, -0.0621734596789,0
2019-04-03 20:29:19.21,79634800, 8.28, 0.51, 352.88, 592.840026855, -35.3632604, 149.1652335, 0.995434582233, 0.0723751708865, -1.10760292955e-05, -0.0622246526182,0
2019-04-03 20:29:19.31,79734760, 8.44, 0.49, 352.87, 592.859985352, -35.3632603, 149.1652344, 0.995327115059, 0.0737921223044, -0.000243377304287, -0.0622787922621,0
2019-04-03 20:29:19.41,79834720, 8.57, 0.49, 352.87, 592.880004883, -35.3632602, 149.1652354, 0.995242893696, 0.0748939588666, -0.000360930192983, -0.062308948487,0
2019-04-03 20:29:19.51,79934680, 8.68, 0.49, 352.86, 592.900024414, -35.3632602, 149.1652365, 0.995171129704, 0.075822904706, -0.000401234137826, -0.0623303800821,0
2019-04-03 20:29:19.61,80034640, 8.83, 0.64, 352.94, 592.91998291, -35.3632601, 149.1652378, 0.995100021362, 0.0772300586104, 0.000829927157611, -0.0617314837873,0
2019-04-03 20:29:19.71,80134600, 9.09, 1.07, 353.57, 592.940002441, -35.3632599, 149.165239, 0.995198071003, 0.0796914845705, 0.00488895690069, -0.0566235296428,0
2019-04-03 20:29:19.81,80234560, 9.49, 1.58, 355.44, 592.960021973, -35.3632599, 149.1652403, 0.995642542839, 0.0832126513124, 0.0104726422578, -0.0407666154206,0
2019-04-03 20:29:19.92,80335353, 10.0, 1.65, 358.97, 592.969970703, -35.3632598, 149.1652418, 0.996034860611, 0.0873172879219, 0.0136396633461, -0.0102067692205,0
2019-04-03 20:29:20.01,80435313, 10.5, 1.03, 4.02, 592.989990234, -35.3632598, 149.1652435, 0.995178222656, 0.0911393612623, 0.012243530713, 0.0341172479093,0
2019-04-03 20:29:20.11,80535273, 10.86, -0.3, 10.35, 593.0, -35.3632598, 149.1652451, 0.991422533989, 0.0944949761033, 0.00593448989093, 0.0900934934616,0
2019-04-03 20:29:20.21,80635233, 10.95, -2.2, 17.68, 593.010009766, -35.3632598, 149.1652469, 0.983144342899, 0.0972202122211, -0.00425627687946, 0.154781579971,0
2019-04-03 20:29:20.31,80735193, 10.64, -4.47, 25.72, 593.030029297, -35.3632599, 149.1652487, 0.969155848026, 0.0989914536476, -0.0172313936055, 0.225034862757,0
2019-04-03 20:29:20.41,80835153, 9.85, -6.86, 34.24, 593.039978027, -35.3632599, 149.1652507, 0.948924601078, 0.0995247215033, -0.0317406579852, 0.297707021236,0
2019-04-03 20:29:20.51,80935113, 8.59, -9.1, 42.99, 593.059997559, -35.3632601, 149.1652527, 0.922718703747, 0.0984952673316, -0.0463167689741, 0.3697886765,0
2019-04-03 20:29:20.61,81035073, 6.93, -11.01, 51.69, 593.070007324, -35.3632601, 149.1652548, 0.891617834568, 0.0959736704826, -0.0599877871573, 0.438415586948,0
2019-04-03 20:29:20.71,81135033, 5.04, -12.48, 60.08, 593.08001709, -35.3632601, 149.1652571, 0.857313096523, 0.0922634601593, -0.072124786675, 0.501298129559,0
2019-04-03 20:29:20.81,81234993, 3.09, -13.48, 67.91, 593.099975586, -35.3632601, 149.1652595, 0.821655631065, 0.0877591967583, -0.0823642387986, 0.557132422924,0
2019-04-03 20:29:20.91,81334953, 1.26, -14.09, 75.06, 593.109985352, -35.3632599, 149.1652619, 0.786154508591, 0.0834266841412, -0.0905843824148, 0.60563647747,0
2019-04-03 20:29:21.01,81434913, -0.31, -14.44, 81.5, 593.130004883, -35.3632598, 149.1652646, 0.751775443554, 0.0800043940544, -0.0969770625234, 0.647324085236,0
2019-04-03 20:29:21.11,81534873, -1.91, -14.6, 87.19, 593.140014648, -35.3632598, 149.1652672, 0.719692289829, 0.0756469890475, -0.103482499719, 0.682357609272,0
2019-04-03 20:29:21.21,81634833, -3.61, -14.58, 91.81, 593.159973145, -35.3632597, 149.16527, 0.692739188671, 0.0693229809403, -0.110750168562, 0.709253966808,0
2019-04-03 20:29:21.31,81734793, -5.11, -14.42, 94.99, 593.16998291, -35.3632595, 149.1652729, 0.673722267151, 0.0626200735569, -0.117372721434, 0.726911723614,0
2019-04-03 20:29:21.41,81834753, -6.04, -14.26, 96.64, 593.190002441, -35.3632592, 149.1652758, 0.663735747337, 0.0578497387469, -0.121548354626, 0.73575425148,0
2019-04-03 20:29:21.51,81934713, -6.22, -14.2, 96.9, 593.200012207, -35.3632589, 149.165279, 0.662230610847, 0.0567032881081, -0.12222622335, 0.737086296082,0
2019-04-03 20:29:21.61,82034673, -5.67, -14.32, 96.0, 593.219970703, -35.3632586, 149.1652822, 0.667629897594, 0.0596826709807, -0.119802795351, 0.732363045216,0
2019-04-03 20:29:21.71,82134633, -4.54, -14.59, 94.26, 593.229980469, -35.3632582, 149.1652853, 0.677929759026, 0.0662877708673, -0.115152366459, 0.723019480705,0
2019-04-03 20:29:21.81,82234593, -3.03, -14.95, 91.98, 593.25, -35.3632578, 149.1652887, 0.691080868244, 0.0753327310085, -0.109296910465, 0.710483253002,0
2019-04-03 20:29:21.91,82334553, -1.38, -15.33, 89.46, 593.270019531, -35.3632574, 149.165292, 0.70515024662, 0.0853719487786, -0.103208750486, 0.696292161942,0
2019-04-03 20:29:22.02,82435346, 0.18, -15.63, 86.99, 593.280029297, -35.3632568, 149.1652957, 0.718520104885, 0.0948179587722, -0.0975841358304, 0.682067275047,0
2019-04-03 20:29:22.11,82535306, 1.47, -15.83, 84.89, 593.299987793, -35.3632565, 149.1652992, 0.729616641998, 0.102371022105, -0.0930722430348, 0.669714331627,0
2019-04-03 20:29:22.21,82635266, 2.35, -15.94, 83.33, 593.320007324, -35.3632561, 149.1653028, 0.737749934196, 0.107385016978, -0.0900132954121, 0.660371959209,0
2019-04-03 20:29:22.31,82735226, 2.79, -15.98, 82.41, 593.33001709, -35.3632558, 149.1653064, 0.742591738701, 0.109736576676, -0.0886206626892, 0.654722690582,0
2019-04-03 20:29:22.41,82835186, 2.8, -15.99, 82.11, 593.349975586, -35.3632555, 149.1653102, 0.744228720665, 0.109641507268, -0.0889784917235, 0.652828574181,0
2019-04-03 20:29:22.51,82935146, 2.48, -16.01, 82.38, 593.369995117, -35.3632552, 149.1653141, 0.743023514748, 0.107822008431, -0.0906546041369, 0.654272317886,0
2019-04-03 20:29:22.61,83035106, 1.94, -16.04, 83.06, 593.380004883, -35.3632549, 149.165318, 0.73955899477, 0.105055071414, -0.0933032557368, 0.658263206482,0
2019-04-03 20:29:22.71,83135066, 1.27, -16.11, 84.02, 593.400024414, -35.3632547, 149.1653221, 0.734570920467, 0.101984217763, -0.0967609956861, 0.663808763027,0
2019-04-03 20:29:22.81,83235026, 0.56, -16.23, 85.09, 593.41998291, -35.3632543, 149.165326, 0.728861033916, 0.0990485474467, -0.100722953677, 0.669929742813,0
2019-04-03 20:29:22.91,83334986, -0.09, -16.35, 86.13, 593.429992676, -35.3632542, 149.1653301, 0.723204433918, 0.0965098291636, -0.104454129934, 0.67583322525,0
2019-04-03 20:29:23.01,83434946, -0.6, -16.45, 87.03, 593.450012207, -35.363254, 149.1653342, 0.718229413033, 0.0947126299143, -0.107351668179, 0.680919766426,0
2019-04-03 20:29:23.11,83534906, -0.94, -16.51, 87.7, 593.469970703, -35.3632537, 149.1653385, 0.714420199394, 0.0936333984137, -0.10918841511, 0.684773266315,0
2019-04-03 20:29:23.21,83634866, -1.1, -16.54, 88.12, 593.479980469, -35.3632534, 149.1653427, 0.712030172348, 0.0932201221585, -0.110007673502, 0.687183618546,0
2019-04-03 20:29:23.31,83734826, -1.11, -16.57, 88.28, 593.5, -35.3632531, 149.165347, 0.711073994637, 0.0934596508741, -0.110114231706, 0.688123464584,0
2019-04-03 20:29:23.41,83834786, -1.01, -16.6, 88.21, 593.520019531, -35.3632529, 149.1653513, 0.711396038532, 0.0942158475518, -0.109756603837, 0.687744557858,0
2019-04-03 20:29:23.51,83934746, -0.81, -16.63, 87.96, 593.530029297, -35.3632525, 149.1653556, 0.712704837322, 0.0954034030437, -0.108995474875, 0.686345458031,0
2019-04-03 20:29:23.61,84034706, -0.56, -16.66, 87.59, 593.549987793, -35.3632523, 149.16536, 0.714666724205, 0.0967899486423, -0.107991576195, 0.684266805649,0
2019-04-03 20:29:23.71,84134666, -0.3, -16.7, 87.17, 593.570007324, -35.3632519, 149.1653644, 0.716932415962, 0.0982043147087, -0.107036918402, 0.681840837002,0
2019-04-03 20:29:23.81,84234626, -0.05, -16.75, 86.75, 593.58001709, -35.3632517, 149.1653689, 0.719153761864, 0.0996878519654, -0.106244161725, 0.679405927658,0
2019-04-03 20:29:23.91,84334586, 0.13, -16.81, 86.38, 593.599975586, -35.3632513, 149.1653734, 0.721111238003, 0.100902348757, -0.105836026371, 0.677212059498,0
2019-04-03 20:29:24.01,84434546, 0.25, -16.86, 86.09, 593.619995117, -35.3632511, 149.165378, 0.722645878792, 0.101719230413, -0.105706758797, 0.675471901894,0
2019-04-03 20:29:24.12,84535339, 0.31, -16.89, 85.9, 593.630004883, -35.3632509, 149.1653825, 0.723675906658, 0.10208491981, -0.105652235448, 0.674321472645,0
2019-04-03 20:29:24.21,84635299, 0.32, -16.89, 85.82, 593.650024414, -35.3632506, 149.1653872, 0.724173307419, 0.10210339725, -0.105693742633, 0.673777997494,0
2019-04-03 20:29:24.31,84735259, 0.28, -16.9, 85.82, 593.66998291, -35.3632503, 149.1653917, 0.724183142185, 0.101882867515, -0.106001421809, 0.673752427101,0
2019-04-03 20:29:24.41,84835219, 0.22, -16.92, 85.9, 593.679992676, -35.36325, 149.1653964, 0.723775744438, 0.101710997522, -0.106363780797, 0.674158990383,0
2019-04-03 20:29:24.51,84935179, 0.16, -16.96, 86.02, 593.700012207, -35.3632498, 149.1654011, 0.723069250584, 0.101655341685, -0.106908433139, 0.674839019775,0
2019-04-03 20:29:24.61,85035139, 0.08, -17.01, 86.17, 593.719970703, -35.3632494, 149.1654059, 0.722225725651, 0.10159611702, -0.107574157417, 0.675644934177,0
2019-04-03 20:29:24.71,85135099, -0.02, -17.06, 86.31, 593.729980469, -35.3632492, 149.1654106, 0.721409976482, 0.101349197328, -0.108398035169, 0.676421403885,0
2019-04-03 20:29:24.81,85235059, -0.13, -17.1, 86.44, 593.75, -35.3632489, 149.1654154, 0.720726311207, 0.100972048938, -0.109148919582, 0.677085518837,0
2019-04-03 20:29:24.91,85335019, -0.24, -17.11, 86.53, 593.770019531, -35.3632487, 149.1654201, 0.720245718956, 0.10049495846, -0.109785608947, 0.677564740181,0
2019-04-03 20:29:25.01,85434979, -0.29, -17.12, 86.59, 593.789978027, -35.3632483, 149.165425, 0.719963610172, 0.100238360465, -0.1101289168, 0.677846848965,0
2019-04-03 20:29:25.11,85534939, -0.3, -17.14, 86.6, 593.799987793, -35.3632481, 149.1654298, 0.719865918159, 0.100268393755, -0.11028137058, 0.677921354771,0
2019-04-03 20:29:25.21,85634899, -0.3, -17.15, 86.58, 593.820007324, -35.3632479, 149.1654346, 0.719974398613, 0.100348979235, -0.110407076776, 0.67777377367,0
2019-04-03 20:29:25.31,85734859, -0.28, -17.18, 86.53, 593.840026855, -35.3632476, 149.1654395, 0.720228850842, 0.100640967488, -0.110503189266, 0.677444398403,0
2019-04-03 20:29:25.41,85834819, -0.23, -17.23, 86.46, 593.849975586, -35.3632473, 149.1654443, 0.720580279827, 0.101102449, -0.110554896295, 0.676993370056,0
2019-04-03 20:29:25.51,85934779, -0.19, -17.3, 86.38, 593.869995117, -35.363247, 149.1654493, 0.720961153507, 0.101741082966, -0.110833846033, 0.676446318626,0
2019-04-03 20:29:25.61,86034739, -0.16, -17.36, 86.29, 593.890014648, -35.3632467, 149.1654542, 0.721364319324, 0.102225460112, -0.111098393798, 0.675899863243,0
2019-04-03 20:29:25.71,86134699, -0.13, -17.38, 86.22, 593.909973145, -35.3632464, 149.1654591, 0.721778571606, 0.102412074804, -0.111134521663, 0.675423264503,0
2019-04-03 20:29:25.81,86234659, -0.11, -17.37, 86.15, 593.91998291, -35.3632461, 149.165464, 0.722155451775, 0.10241945833, -0.111040815711, 0.675034582615,0
2019-04-03 20:29:25.91,86334619, -0.11, -17.36, 86.1, 593.940002441, -35.3632458, 149.1654691, 0.722456872463, 0.10234271735, -0.11102039367, 0.674726963043,0
2019-04-03 20:29:26.01,86434579, -0.12, -17.37, 86.07, 593.960021973, -35.3632456, 149.165474, 0.722661197186, 0.102293208241, -0.111177459359, 0.674489796162,0
2019-04-03 20:29:26.11,86534539, -0.13, -17.39, 86.05, 593.969970703, -35.3632452, 149.1654791, 0.722769021988, 0.102303937078, -0.111332677305, 0.674347043037,0
2019-04-03 20:29:26.22,86635332, -0.13, -17.4, 86.04, 593.989990234, -35.363245, 149.1654841, 0.722797572613, 0.102353721857, -0.111387573183, 0.674299836159,0
2019-04-03 20:29:26.31,86735292, -0.12, -17.4, 86.04, 594.010009766, -35.3632446, 149.1654892, 0.722762703896, 0.102459549904, -0.111379802227, 0.674322426319,0
2019-04-03 20:29:26.41,86835252, -0.1, -17.41, 86.05, 594.030029297, -35.3632444, 149.1654943, 0.72269564867, 0.102636903524, -0.111325934529, 0.674376189709,0
2019-04-03 20:29:26.51,86935212, -0.09, -17.43, 86.06, 594.039978027, -35.363244, 149.1654993, 0.722615659237, 0.102837108076, -0.111376300454, 0.674423098564,0
2019-04-03 20:29:26.61,87035172, -0.08, -17.47, 86.07, 594.059997559, -35.3632438, 149.1655044, 0.72252291441, 0.103153057396, -0.111544206738, 0.67444640398,0
2019-04-03 20:29:26.71,87135132, -0.06, -17.5, 86.07, 594.08001709, -35.3632434, 149.1655094, 0.722441077232, 0.10344928503, -0.111627951264, 0.674474895,0
2019-04-03 20:29:26.81,87235092, -0.05, -17.51, 86.08, 594.099975586, -35.3632432, 149.1655146, 0.722403585911, 0.103576138616, -0.111582711339, 0.674503087997,0
2019-04-03 20:29:26.91,87335052, -0.06, -17.51, 86.07, 594.109985352, -35.3632428, 149.1655197, 0.722414076328, 0.103523738682, -0.111670978367, 0.674485266209,0
2019-04-03 20:29:27.01,87435012, -0.09, -17.52, 86.07, 594.130004883, -35.3632426, 149.1655247, 0.722469031811, 0.103347413242, -0.111906290054, 0.674414396286,0
2019-04-03 20:29:27.11,87534972, -0.13, -17.53, 86.06, 594.150024414, -35.3632422, 149.1655299, 0.722566127777, 0.103166133165, -0.112213939428, 0.67428702116,0
2019-04-03 20:29:27.21,87634932, -0.15, -17.56, 86.04, 594.16998291, -35.3632419, 149.165535, 0.722650587559, 0.103167325258, -0.112551875412, 0.674139976501,0
2019-04-03 20:29:27.31,87734892, -0.16, -17.59, 86.02, 594.190002441, -35.3632415, 149.1655401, 0.722728431225, 0.103290088475, -0.112779155374, 0.673999726772,0
2019-04-03 20:29:27.41,87834852, -0.15, -17.62, 86.01, 594.200012207, -35.3632413, 149.1655453, 0.722800076008, 0.103509388864, -0.112917900085, 0.673866033554,0
2019-04-03 20:29:27.51,87934812, -0.14, -17.65, 85.99, 594.219970703, -35.3632409, 149.1655505, 0.722873151302, 0.103724852204, -0.113083928823, 0.673726677895,0
2019-04-03 20:29:27.61,88034772, -0.13, -17.67, 85.97, 594.239990234, -35.3632407, 149.1655557, 0.722953677177, 0.103894978762, -0.113197170198, 0.673595011234,0
2019-04-03 20:29:27.71,88134732, -0.1, -17.7, 85.95, 594.260009766, -35.3632403, 149.1655609, 0.722989976406, 0.10427492857, -0.113189995289, 0.673498570919,0
2019-04-03 20:29:27.81,88234692, -0.06, -17.73, 85.94, 594.280029297, -35.3632401, 149.1655659, 0.723016083241, 0.10464964807, -0.113203458488, 0.673410177231,0
2019-04-03 20:29:27.91,88334652, -0.05, -17.76, 85.92, 594.289978027, -35.3632397, 149.1655711, 0.723055362701, 0.104855954647, -0.113338209689, 0.673313260078,0
2019-04-03 20:29:28.01,88434612, -0.05, -17.78, 85.91, 594.309997559, -35.3632394, 149.1655764, 0.72309088707, 0.105004496872, -0.113431610167, 0.673236191273,0
2019-04-03 20:29:28.11,88534572, -0.06, -17.78, 85.91, 594.33001709, -35.3632391, 149.1655816, 0.723140716553, 0.104946412146, -0.113531552255, 0.673174858093,0
2019-04-03 20:29:28.21,88634532, -0.06, -17.77, 85.9, 594.349975586, -35.3632388, 149.1655869, 0.72317302227, 0.104916326702, -0.113467089832, 0.673155725002,0
2019-04-03 20:29:28.32,88735325, -0.05, -17.77, 85.9, 594.369995117, -35.3632385, 149.1655921, 0.723191738129, 0.104940533638, -0.113361231983, 0.673149704933,0
2019-04-03 20:29:28.41,88835285, -0.04, -17.77, 85.9, 594.390014648, -35.363238, 149.1655974, 0.723206281662, 0.104947142303, -0.113333247602, 0.6731377244,0
2019-04-03 20:29:28.51,88935245, -0.05, -17.76, 85.89, 594.400024414, -35.3632378, 149.1656026, 0.72323256731, 0.10486792028, -0.11329588294, 0.673128068447,0
2019-04-03 20:29:28.61,89035205, -0.07, -17.75, 85.89, 594.41998291, -35.3632374, 149.1656078, 0.723273634911, 0.104701049626, -0.113429538906, 0.673087477684,0
2019-04-03 20:29:28.71,89135165, -0.1, -17.77, 85.89, 594.440002441, -35.3632372, 149.1656131, 0.723309993744, 0.104585424066, -0.113681204617, 0.673023879528,0
2019-04-03 20:29:28.81,89235125, -0.11, -17.8, 85.88, 594.460021973, -35.3632368, 149.1656184, 0.723317861557, 0.104672655463, -0.113953337073, 0.672955870628,0
2019-04-03 20:29:28.91,89335085, -0.1, -17.85, 85.88, 594.479980469, -35.3632365, 149.1656236, 0.723288536072, 0.105047166348, -0.114219643176, 0.672883927822,0
2019-04-03 20:29:29.01,89435045, -0.08, -17.89, 85.87, 594.5, -35.3632361, 149.1656289, 0.723275065422, 0.105388447642, -0.114335887134, 0.672825217247,0
2019-04-03 20:29:29.11,89535005, -0.05, -17.9, 85.86, 594.510009766, -35.3632359, 149.1656342, 0.723284125328, 0.105603918433, -0.114268988371, 0.672793090343,0
2019-04-03 20:29:29.21,89634965, -0.02, -17.9, 85.85, 594.530029297, -35.3632355, 149.1656394, 0.723296284676, 0.105823472142, -0.114072434604, 0.672778844833,0
2019-04-03 20:29:29.31,89734925, 0.0, -17.9, 85.85, 594.549987793, -35.3632352, 149.1656447, 0.72330737114, 0.106026463211, -0.113887302577, 0.672766327858,0
2019-04-03 20:29:29.41,89834885, 0.02, -17.89, 85.84, 594.570007324, -35.3632349, 149.16565, 0.723339617252, 0.106076672673, -0.113754235208, 0.672746300697,0
2019-04-03 20:29:29.51,89934845, 0.01, -17.87, 85.83, 594.58001709, -35.3632346, 149.1656553, 0.723405659199, 0.105874978006, -0.113650880754, 0.672724545002,0
2019-04-03 20:29:29.61,90034805, 0.0, -17.84, 85.83, 594.599975586, -35.3632342, 149.1656606, 0.723473370075, 0.105624243617, -0.11355805397, 0.672706782818,0
2019-04-03 20:29:29.71,90134765, 0.0, -17.82, 85.83, 594.619995117, -35.3632339, 149.1656659, 0.723514318466, 0.105507537723, -0.113486170769, 0.672693192959,0
2019-04-03 20:29:29.81,90234725, 0.0, -17.84, 85.82, 594.640014648, -35.3632336, 149.1656712, 0.72351449728, 0.105631843209, -0.113508477807, 0.672669708729,0
2019-04-03 20:29:29.91,90334685, 0.01, -17.86, 85.82, 594.659973145, -35.3632333, 149.1656765, 0.723502755165, 0.105793908238, -0.113632448018, 0.672635912895,0
2019-04-03 20:29:30.01,90434645, 0.0, -17.87, 85.82, 594.66998291, -35.363233, 149.1656818, 0.723510324955, 0.105811432004, -0.113809779286, 0.672595024109,0
2019-04-03 20:29:30.11,90534605, 0.0, -17.89, 85.81, 594.690002441, -35.3632325, 149.1656871, 0.723525226116, 0.105822183192, -0.113935098052, 0.67255616188,0
2019-04-03 20:29:30.21,90634565, -0.01, -17.9, 85.81, 594.710021973, -35.3632323, 149.1656926, 0.723536849022, 0.105862826109, -0.114076726139, 0.672513246536,0
2019-04-03 20:29:30.31,90734525, -0.01, -17.91, 85.81, 594.729980469, -35.3632319, 149.1656979, 0.723548710346, 0.105911396444, -0.114103019238, 0.672488331795,0
2019-04-03 20:29:30.41,90835318, -0.01, -17.92, 85.8, 594.75, -35.3632317, 149.1657033, 0.723566174507, 0.105940759182, -0.114165171981, 0.672454357147,0
2019-04-03 20:29:30.51,90935278, -0.01, -17.93, 85.8, 594.770019531, -35.3632312, 149.1657085, 0.723573505878, 0.106052897871, -0.114245139062, 0.672415196896,0
2019-04-03 20:29:30.61,91035238, 0.0, -17.95, 85.79, 594.780029297, -35.363231, 149.1657139, 0.723583757877, 0.106197305024, -0.114388130605, 0.672357141972,0
2019-04-03 20:29:30.71,91135198, -0.02, -17.99, 85.79, 594.799987793, -35.3632306, 149.1657193, 0.723602712154, 0.106274329126, -0.114684708416, 0.672273993492,0
2019-04-03 20:29:30.81,91235158, -0.04, -18.03, 85.78, 594.820007324, -35.3632304, 149.1657247, 0.72361433506, 0.10642132163, -0.115086987615, 0.67216950655,0
2019-04-03 20:29:30.91,91335118, -0.04, -18.05, 85.77, 594.840026855, -35.36323, 149.16573, 0.723641753197, 0.106523387134, -0.115217454731, 0.672101438046,0
2019-04-03 20:29:31.01,91435078, -0.03, -18.05, 85.76, 594.859985352, -35.3632297, 149.1657354, 0.723683536053, 0.106576181948, -0.115174025297, 0.672055542469,0
2019-04-03 20:29:31.11,91535038, -0.02, -18.03, 85.76, 594.880004883, -35.3632294, 149.1657406, 0.723743975163, 0.106501325965, -0.115022398531, 0.672028243542,0
2019-04-03 20:29:31.21,91634998, -0.01, -18.01, 85.75, 594.890014648, -35.3632291, 149.1657461, 0.723807930946, 0.106421552598, -0.114808484912, 0.672008633614,0
2019-04-03 20:29:31.31,91734958, 0.0, -17.98, 85.74, 594.909973145, -35.3632287, 149.1657515, 0.723865330219, 0.106401868165, -0.114514186978, 0.672000169754,0
2019-04-03 20:29:31.41,91834918, 0.03, -17.97, 85.73, 594.929992676, -35.3632283, 149.1657569, 0.723907351494, 0.106507740915, -0.114330537617, 0.671969413757,0
2019-04-03 20:29:31.51,91934878, 0.05, -17.97, 85.72, 594.950012207, -35.3632281, 149.1657622, 0.723953187466, 0.106599882245, -0.114211454988, 0.671925604343,0
2019-04-03 20:29:31.61,92034838, 0.04, -17.99, 85.71, 594.969970703, -35.3632278, 149.1657675, 0.7239985466, 0.106660626829, -0.114328630269, 0.671847224236,0
2019-04-03 20:29:31.71,92134798, 0.03, -18.03, 85.7, 594.979980469, -35.3632274, 149.165773, 0.724013030529, 0.10682361573, -0.114687711, 0.671744465828,0
2019-04-03 20:29:31.81,92234758, 0.02, -18.08, 85.69, 595.0, -35.363227, 149.1657784, 0.72401446104, 0.107032775879, -0.115092232823, 0.671640396118,0
2019-04-03 20:29:31.91,92334718, 0.01, -18.12, 85.69, 595.020019531, -35.3632268, 149.1657837, 0.72401791811, 0.107230074704, -0.115380302072, 0.671555817127,0
2019-04-03 20:29:32.01,92434678, 0.03, -18.15, 85.68, 595.039978027, -35.3632264, 149.165789, 0.724015295506, 0.107472486794, -0.115481868386, 0.67150247097,0
2019-04-03 20:29:32.11,92534638, 0.05, -18.17, 85.67, 595.049987793, -35.3632261, 149.1657945, 0.72401446104, 0.107727140188, -0.115497805178, 0.67145973444,0
2019-04-03 20:29:32.21,92634598, 0.07, -18.16, 85.67, 595.070007324, -35.3632257, 149.1657999, 0.724040269852, 0.107840999961, -0.115313723683, 0.67144536972,0
2019-04-03 20:29:32.31,92734558, 0.09, -18.13, 85.66, 595.090026855, -35.3632255, 149.1658053, 0.724102735519, 0.10773204267, -0.115057557821, 0.671439409256,0
2019-04-03 20:29:32.42,92835351, 0.07, -18.08, 85.65, 595.109985352, -35.3632251, 149.1658108, 0.724203884602, 0.107362702489, -0.114817284048, 0.671430528164,0
2019-04-03 20:29:32.51,92935311, 0.07, -18.03, 85.64, 595.130004883, -35.3632248, 149.1658162, 0.724302887917, 0.107010476291, -0.11456823349, 0.671422541142,0
2019-04-03 20:29:32.61,93035271, 0.06, -18.01, 85.64, 595.140014648, -35.3632245, 149.1658215, 0.724377274513, 0.106840595603, -0.114471755922, 0.67138582468,0
2019-04-03 20:29:32.71,93135231, 0.06, -18.02, 85.63, 595.159973145, -35.3632242, 149.165827, 0.724412202835, 0.106900773942, -0.114502385259, 0.671333312988,0
2019-04-03 20:29:32.81,93235191, 0.07, -18.05, 85.62, 595.179992676, -35.3632238, 149.1658324, 0.724410653114, 0.107118166983, -0.114626698196, 0.671279132366,0
2019-04-03 20:29:32.91,93335151, 0.08, -18.08, 85.62, 595.200012207, -35.3632234, 149.1658378, 0.724399983883, 0.107328638434, -0.114801898599, 0.671227037907,0
2019-04-03 20:29:33.01,93435111, 0.08, -18.11, 85.61, 595.210021973, -35.3632232, 149.1658433, 0.724390208721, 0.107518896461, -0.115035139024, 0.671167254448,0
2019-04-03 20:29:33.11,93535071, 0.08, -18.13, 85.61, 595.229980469, -35.3632228, 149.1658487, 0.724392533302, 0.107678219676, -0.115119874477, 0.671124637127,0
2019-04-03 20:29:33.21,93635031, 0.09, -18.14, 85.6, 595.25, -35.3632225, 149.1658541, 0.724404633045, 0.107794322073, -0.115137033165, 0.671090006828,0
2019-04-03 20:29:33.31,93734991, 0.08, -18.13, 85.6, 595.270019531, -35.3632221, 149.1658594, 0.724458217621, 0.107666768134, -0.115148127079, 0.671050786972,0
2019-04-03 20:29:33.41,93834951, 0.06, -18.12, 85.59, 595.289978027, -35.3632219, 149.165865, 0.724532663822, 0.107430115342, -0.115171484649, 0.671004295349,0
2019-04-03 20:29:33.51,93934911, 0.04, -18.11, 85.58, 595.299987793, -35.3632215, 149.1658704, 0.724597454071, 0.107260860503, -0.115285299718, 0.670941889286,0
2019-04-03 20:29:33.61,94034871, 0.03, -18.12, 85.58, 595.320007324, -35.3632212, 149.1658757, 0.724646031857, 0.107219189405, -0.115411624312, 0.670874297619,0
2019-04-03 20:29:33.71,94134831, 0.02, -18.13, 85.57, 595.340026855, -35.3632209, 149.1658813, 0.724688529968, 0.107231304049, -0.115536667407, 0.670804977417,0
2019-04-03 20:29:33.81,94234791, 0.02, -18.15, 85.56, 595.359985352, -35.3632206, 149.1658866, 0.724729895592, 0.107271678746, -0.115636736155, 0.670736551285,0
2019-04-03 20:29:33.91,94334751, 0.01, -18.17, 85.55, 595.380004883, -35.3632203, 149.165892, 0.724765360355, 0.107347682118, -0.115836456418, 0.670651555061,0
2019-04-03 20:29:34.01,94434711, 0.01, -18.18, 85.54, 595.390014648, -35.36322, 149.1658976, 0.724803686142, 0.107458494604, -0.11590282619, 0.670580983162,0
2019-04-03 20:29:34.11,94534671, 0.03, -18.2, 85.53, 595.409973145, -35.3632196, 149.1659029, 0.724837303162, 0.107632651925, -0.11590654403, 0.670516073704,0
2019-04-03 20:29:34.21,94634631, 0.07, -18.2, 85.52, 595.429992676, -35.3632193, 149.1659084, 0.724865317345, 0.107853658497, -0.115700021386, 0.670485913754,0
2019-04-03 20:29:34.31,94734591, 0.1, -18.18, 85.51, 595.450012207, -35.363219, 149.1659139, 0.724911749363, 0.107978880405, -0.11540850997, 0.670465826988,0
2019-04-03 20:29:34.41,94834551, 0.11, -18.14, 85.5, 595.460021973, -35.3632185, 149.1659192, 0.725006639957, 0.107785657048, -0.11513659358, 0.670441031456,0
2019-04-03 20:29:34.52,94935344, 0.11, -18.12, 85.49, 595.479980469, -35.3632183, 149.1659248, 0.725091099739, 0.107612468302, -0.115025632083, 0.670396566391,0
2019-04-03 20:29:34.61,95035304, 0.09, -18.12, 85.48, 595.5, -35.3632179, 149.1659302, 0.725155711174, 0.107513390481, -0.115137532353, 0.670323371887,0
2019-04-03 20:29:34.71,95135264, 0.07, -18.14, 85.47, 595.520019531, -35.3632176, 149.1659357, 0.725204944611, 0.107467330992, -0.115335591137, 0.670243442059,0
2019-04-03 20:29:34.81,95235224, 0.05, -18.16, 85.46, 595.530029297, -35.3632172, 149.1659412, 0.725242257118, 0.107470698655, -0.115623623133, 0.670152902603,0
2019-04-03 20:29:34.91,95335184, 0.04, -18.2, 85.46, 595.549987793, -35.363217, 149.1659465, 0.725247561932, 0.107657566667, -0.115916915238, 0.670066475868,0
2019-04-03 20:29:35.01,95435144, 0.06, -18.24, 85.45, 595.570007324, -35.3632166, 149.1659521, 0.725221991539, 0.108034580946, -0.116085462272, 0.670004308224,0
2019-04-03 20:29:35.11,95535104, 0.09, -18.27, 85.44, 595.590026855, -35.3632163, 149.1659575, 0.725213825703, 0.108349002898, -0.116082549095, 0.669962882996,0
2019-04-03 20:29:35.21,95635064, 0.13, -18.26, 85.44, 595.599975586, -35.363216, 149.165963, 0.725225329399, 0.108514457941, -0.115809828043, 0.669970870018,0
2019-04-03 20:29:35.31,95735024, 0.16, -18.24, 85.43, 595.619995117, -35.3632157, 149.1659684, 0.725232720375, 0.108653903008, -0.115521080792, 0.669990062714,0
2019-04-03 20:29:35.41,95834984, 0.18, -18.22, 85.43, 595.640014648, -35.3632153, 149.1659738, 0.725261569023, 0.108623951674, -0.115316621959, 0.669998943806,0
2019-04-03 20:29:35.51,95934944, 0.18, -18.21, 85.43, 595.659973145, -35.3632149, 149.1659793, 0.725290119648, 0.108551509678, -0.115224085748, 0.669995725155,0
2019-04-03 20:29:35.61,96034904, 0.17, -18.21, 85.42, 595.66998291, -35.3632147, 149.1659848, 0.725315034389, 0.108484826982, -0.115326188505, 0.669961988926,0
2019-04-03 20:29:35.71,96134864, 0.14, -18.21, 85.42, 595.690002441, -35.3632143, 149.1659903, 0.725355267525, 0.108301095665, -0.115464188159, 0.66992431879,0
2019-04-03 20:29:35.81,96234824, 0.1, -18.2, 85.42, 595.710021973, -35.363214, 149.1659957, 0.725422024727, 0.107963345945, -0.11559138447, 0.669884681702,0
2019-04-03 20:29:35.91,96334784, 0.08, -18.18, 85.42, 595.729980469, -35.3632136, 149.1660011, 0.725476264954, 0.10774307698, -0.115614145994, 0.669857442379,0
2019-04-03 20:29:36.01,96434744, 0.08, -18.17, 85.41, 595.739990234, -35.3632134, 149.1660067, 0.725500404835, 0.107716582716, -0.115557834506, 0.669845283031,0
2019-04-03 20:29:36.11,96534704, 0.11, -18.19, 85.41, 595.760009766, -35.363213, 149.1660121, 0.725481629372, 0.107973404229, -0.115471445024, 0.669839143753,0
2019-04-03 20:29:36.21,96634664, 0.15, -18.21, 85.4, 595.780029297, -35.3632127, 149.1660176, 0.72545927763, 0.108296044171, -0.115422032773, 0.669819772243,0
