Start,TimeUS,Roll,Pitch,Yaw,Alt,Lat,Lng,Q1,Q2,Q3,Q4,Category
2019-04-03 20:41:50.60,40816167, 0.0, 0.0, 353.0, 584.090026855, -35.363261, 149.1652299, 0.998134791851, 0.0, 0.0, -0.0610485821962,0
2019-04-03 20:41:50.71,40935286, 0.0, 0.0, 353.0, 584.090026855, -35.363261, 149.1652299, 0.998134791851, 0.0, 0.0, -0.0610485821962,0
2019-04-03 20:41:50.81,41035246, 0.0, 0.0, 353.0, 584.090026855, -35.363261, 149.1652299, 0.998134791851, 0.0, 0.0, -0.0610485821962,0
2019-04-03 20:41:50.91,41135206, 0.0, 0.0, 353.0, 584.090026855, -35.363261, 149.1652299, 0.998134791851, 0.0, 0.0, -0.0610485821962,0
2019-04-03 20:41:51.01,41235166, 0.0, 0.0, 353.0, 584.090026855, -35.363261, 149.1652299, 0.998134791851, 0.0, 0.0, -0.0610485821962,0
2019-04-03 20:41:51.11,41335126, 0.0, 0.0, 353.0, 584.090026855, -35.363261, 149.1652299, 0.998134791851, 0.0, 0.0, -0.0610485821962,0
2019-04-03 20:41:51.21,41435086, 0.0, 0.0, 353.0, 584.090026855, -35.363261, 149.1652299, 0.998134791851, 0.0, 0.0, -0.0610485821962,0
2019-04-03 20:41:51.31,41535046, 0.0, 0.0, 353.0, 584.090026855, -35.363261, 149.1652299, 0.998134791851, 0.0, 0.0, -0.0610485821962,0
2019-04-03 20:41:51.41,41635006, 0.0, 0.0, 353.0, 584.090026855, -35.363261, 149.1652299, 0.998134791851, 0.0, 0.0, -0.0610485821962,0
2019-04-03 20:41:51.51,41734966, 0.0, 0.0, 353.0, 584.090026855, -35.363261, 149.1652299, 0.998134791851, 0.0, 0.0, -0.0610485821962,0
2019-04-03 20:41:51.61,41834926, 0.0, 0.0, 353.0, 584.090026855, -35.363261, 149.1652299, 0.998134791851, 0.0, 0.0, -0.0610485821962,0
2019-04-03 20:41:51.71,41934886, 0.0, 0.0, 353.0, 584.090026855, -35.363261, 149.1652299, 0.998134791851, 0.0, 0.0, -0.0610485821962,0
2019-04-03 20:41:51.81,42034846, 0.0, 0.0, 353.0, 584.090026855, -35.363261, 149.1652299, 0.998134791851, 0.0, 0.0, -0.0610485821962,0
2019-04-03 20:41:51.91,42134806, 0.0, 0.0, 353.0, 584.090026855, -35.363261, 149.1652299, 0.998134791851, 0.0, 0.0, -0.0610485821962,0
2019-04-03 20:41:52.01,42234766, 0.0, 0.0, 353.0, 584.090026855, -35.363261, 149.1652299, 0.998134791851, 0.0, 0.0, -0.0610485821962,0
2019-04-03 20:41:52.11,42334726, 0.0, 0.0, 353.0, 584.090026855, -35.363261, 149.1652299, 0.998134791851, 0.0, 0.0, -0.0610485821962,0
2019-04-03 20:41:52.21,42434686, 0.0, 0.0, 353.0, 584.090026855, -35.363261, 149.1652299, 0.998134791851, 0.0, 0.0, -0.0610485821962,0
2019-04-03 20:41:52.31,42534646, 0.0, 0.0, 353.0, 584.090026855, -35.363261, 149.1652299, 0.998134791851, 0.0, 0.0, -0.0610485821962,0
2019-04-03 20:41:52.41,42634606, 0.0, 0.0, 353.0, 584.090026855, -35.363261, 149.1652299, 0.998134791851, 0.0, 0.0, -0.0610485821962,0
2019-04-03 20:41:52.51,42734566, 0.0, 0.0, 353.0, 584.090026855, -35.363261, 149.1652299, 0.998134791851, 0.0, 0.0, -0.0610485821962,0
2019-04-03 20:41:52.61,42834526, 0.0, 0.0, 353.0, 584.090026855, -35.363261, 149.1652299, 0.998134791851, 0.0, 0.0, -0.0610485821962,0
2019-04-03 20:41:52.71,42935319, 0.0, 0.0, 353.0, 584.090026855, -35.363261, 149.1652299, 0.998134791851, 0.0, 0.0, -0.0610485821962,0
2019-04-03 20:41:52.81,43035279, 0.0, 0.0, 353.0, 584.090026855, -35.363261, 149.1652299, 0.998134791851, 0.0, 0.0, -0.0610485821962,0
2019-04-03 20:41:52.91,43135239, 0.0, 0.0, 353.0, 584.090026855, -35.363261, 149.1652299, 0.998134791851, 0.0, 0.0, -0.0610485821962,0
2019-04-03 20:41:53.01,43235199, 0.0, 0.0, 353.0, 584.090026855, -35.363261, 149.1652299, 0.998134791851, 0.0, 0.0, -0.0610485821962,0
2019-04-03 20:41:53.11,43335159, 0.0, 0.0, 353.0, 584.090026855, -35.363261, 149.1652299, 0.998134791851, 0.0, 0.0, -0.0610485821962,0
2019-04-03 20:41:53.21,43435119, 0.0, 0.0, 353.0, 584.090026855, -35.363261, 149.1652299, 0.998134791851, 0.0, 0.0, -0.0610485821962,0
2019-04-03 20:41:53.31,43535079, 0.0, 0.0, 353.0, 584.090026855, -35.363261, 149.1652299, 0.998134791851, 0.0, 0.0, -0.0610485821962,0
2019-04-03 20:41:53.41,43635039, 0.0, 0.0, 353.0, 584.090026855, -35.363261, 149.1652299, 0.998134791851, 0.0, 0.0, -0.0610485821962,0
2019-04-03 20:41:53.51,43734999, 0.0, 0.0, 353.0, 584.090026855, -35.363261, 149.1652299, 0.998134791851, 0.0, 0.0, -0.0610485821962,0
2019-04-03 20:41:53.61,43834959, 0.0, 0.0, 353.0, 584.090026855, -35.363261, 149.1652299, 0.998134791851, 0.0, 0.0, -0.0610485821962,0
2019-04-03 20:41:53.71,43934919, 0.0, 0.0, 353.0, 584.090026855, -35.363261, 149.1652299, 0.998134791851, 0.0, 0.0, -0.0610485821962,0
2019-04-03 20:41:53.81,44034879, 0.0, 0.0, 353.0, 584.090026855, -35.363261, 149.1652299, 0.998134791851, 0.0, 0.0, -0.0610485821962,0
2019-04-03 20:41:53.91,44134839, 0.0, 0.0, 353.0, 584.090026855, -35.363261, 149.1652299, 0.998134791851, 0.0, 0.0, -0.0610485821962,0
2019-04-03 20:41:54.01,44234799, 0.0, 0.0, 353.0, 584.090026855, -35.363261, 149.1652299, 0.998134791851, 0.0, 0.0, -0.0610485821962,0
2019-04-03 20:41:54.11,44334759, 0.0, 0.0, 353.0, 584.090026855, -35.363261, 149.1652299, 0.998134791851, 0.0, 0.0, -0.0610485821962,0
2019-04-03 20:41:54.21,44434719, 0.0, 0.0, 353.0, 584.090026855, -35.363261, 149.1652299, 0.998134791851, 0.0, 0.0, -0.0610485821962,0
2019-04-03 20:41:54.31,44534679, 0.0, 0.0, 353.0, 584.090026855, -35.363261, 149.1652299, 0.998134791851, 0.0, 0.0, -0.0610485821962,0
2019-04-03 20:41:54.41,44634639, 0.0, 0.0, 353.0, 584.090026855, -35.363261, 149.1652299, 0.998134791851, 0.0, 0.0, -0.0610485821962,0
2019-04-03 20:41:54.51,44734599, 0.0, 0.0, 353.0, 584.090026855, -35.363261, 149.1652299, 0.998134791851, 0.0, 0.0, -0.0610485821962,0
2019-04-03 20:41:54.61,44834559, 0.0, 0.0, 353.0, 584.090026855, -35.363261, 149.1652299, 0.998134791851, 0.0, 0.0, -0.0610485821962,0
2019-04-03 20:41:54.71,44934519, 0.0, 0.0, 353.0, 584.090026855, -35.363261, 149.1652299, 0.998134791851, 0.0, 0.0, -0.0610485821962,0
2019-04-03 20:41:54.81,45035312, 0.0, 0.0, 353.0, 584.090026855, -35.363261, 149.1652299, 0.998134791851, 0.0, 0.0, -0.0610485821962,0
2019-04-03 20:41:54.91,45135272, 0.0, 0.0, 353.0, 584.090026855, -35.363261, 149.1652299, 0.998134791851, 0.0, 0.0, -0.0610485821962,0
2019-04-03 20:41:55.01,45235232, 0.0, 0.0, 353.0, 584.090026855, -35.363261, 149.1652299, 0.998134791851, 0.0, 0.0, -0.0610485821962,0
2019-04-03 20:41:55.11,45335192, 0.0, 0.0, 353.0, 584.090026855, -35.363261, 149.1652299, 0.998134791851, 0.0, 0.0, -0.0610485821962,0
2019-04-03 20:41:55.21,45435152, 0.0, 0.0, 353.0, 584.090026855, -35.363261, 149.1652299, 0.998134791851, 0.0, 0.0, -0.0610485821962,0
2019-04-03 20:41:55.31,45535112, 0.0, 0.0, 353.0, 584.090026855, -35.363261, 149.1652299, 0.998134791851, 0.0, 0.0, -0.0610485821962,0
2019-04-03 20:41:55.41,45635072, 0.0, 0.0, 353.0, 584.090026855, -35.363261, 149.1652299, 0.998134791851, 0.0, 0.0, -0.0610485821962,0
2019-04-03 20:41:55.51,45735032, 0.0, 0.0, 353.0, 584.090026855, -35.363261, 149.1652299, 0.998134791851, 0.0, 0.0, -0.0610485821962,0
2019-04-03 20:41:55.61,45834992, 0.0, 0.0, 353.0, 584.090026855, -35.363261, 149.1652299, 0.998134791851, 0.0, 0.0, -0.0610485821962,0
2019-04-03 20:41:55.71,45934952, 0.0, 0.0, 353.0, 584.090026855, -35.363261, 149.1652299, 0.998134791851, 0.0, 0.0, -0.0610485821962,0
2019-04-03 20:41:55.81,46034912, 0.0, 0.0, 353.0, 584.090026855, -35.363261, 149.1652299, 0.998134791851, 0.0, 0.0, -0.0610485821962,0
2019-04-03 20:41:55.91,46134872, 0.0, 0.0, 353.0, 584.090026855, -35.363261, 149.1652299, 0.998134791851, 0.0, 0.0, -0.0610485821962,0
2019-04-03 20:41:56.01,46234832, 0.0, 0.0, 353.0, 584.090026855, -35.363261, 149.1652299, 0.998134791851, 0.0, 0.0, -0.0610485821962,0
2019-04-03 20:41:56.11,46334792, 0.0, 0.0, 353.0, 584.090026855, -35.363261, 149.1652299, 0.998134791851, 0.0, 0.0, -0.0610485821962,0
2019-04-03 20:41:56.21,46434752, 0.0, 0.0, 353.0, 584.090026855, -35.363261, 149.1652299, 0.998134791851, 0.0, 0.0, -0.0610485821962,0
2019-04-03 20:41:56.31,46534712, 0.0, 0.0, 353.0, 584.090026855, -35.363261, 149.1652299, 0.998134791851, 0.0, 0.0, -0.0610485821962,0
2019-04-03 20:41:56.41,46634672, 0.0, 0.0, 353.0, 584.090026855, -35.363261, 149.1652299, 0.998134791851, 0.0, 0.0, -0.0610485821962,0
2019-04-03 20:41:56.51,46734632, 0.0, 0.0, 353.0, 584.090026855, -35.363261, 149.1652299, 0.998134791851, 0.0, 0.0, -0.0610485821962,0
2019-04-03 20:41:56.61,46834592, 0.0, 0.0, 353.0, 584.090026855, -35.363261, 149.1652299, 0.998134791851, 0.0, 0.0, -0.0610485821962,0
2019-04-03 20:41:56.71,46934552, 0.0, 0.0, 353.0, 584.090026855, -35.363261, 149.1652299, 0.998134791851, 0.0, 0.0, -0.0610485821962,0
2019-04-03 20:41:56.81,47034512, 0.0, 0.0, 353.0, 584.090026855, -35.363261, 149.1652299, 0.998134791851, 0.0, 0.0, -0.0610485821962,0
2019-04-03 20:41:56.91,47135305, 0.0, 0.0, 353.0, 584.090026855, -35.363261, 149.1652299, 0.998134791851, 0.0, 0.0, -0.0610485821962,0
2019-04-03 20:41:57.01,47235265, 0.0, 0.0, 353.0, 584.090026855, -35.363261, 149.1652299, 0.998134791851, 0.0, 0.0, -0.0610485821962,0
2019-04-03 20:41:57.11,47335225, 0.0, 0.0, 353.0, 584.090026855, -35.363261, 149.1652299, 0.998134791851, 0.0, 0.0, -0.0610485821962,0
2019-04-03 20:41:57.21,47435185, 0.0, 0.0, 353.0, 584.090026855, -35.363261, 149.1652299, 0.998134791851, 0.0, 0.0, -0.0610485821962,0
2019-04-03 20:41:57.31,47535145, 0.0, 0.0, 353.0, 584.090026855, -35.363261, 149.1652299, 0.998134791851, 0.0, 0.0, -0.0610485821962,0
2019-04-03 20:41:57.41,47635105, 0.0, 0.0, 353.0, 584.090026855, -35.363261, 149.1652299, 0.998134791851, 0.0, 0.0, -0.0610485821962,0
2019-04-03 20:41:57.51,47735065, 0.0, 0.0, 353.0, 584.090026855, -35.363261, 149.1652299, 0.998134791851, 0.0, 0.0, -0.0610485821962,0
2019-04-03 20:41:57.61,47835025, 0.0, 0.0, 353.0, 584.090026855, -35.363261, 149.1652299, 0.998134791851, 0.0, 0.0, -0.0610485821962,0
2019-04-03 20:41:57.71,47934985, 0.0, 0.0, 353.0, 584.090026855, -35.363261, 149.1652299, 0.998134791851, 0.0, 0.0, -0.0610485821962,0
2019-04-03 20:41:57.81,48034945, 0.0, 0.0, 353.0, 584.090026855, -35.363261, 149.1652299, 0.998134791851, 0.0, 0.0, -0.0610485821962,0
2019-04-03 20:41:57.91,48134905, 0.0, 0.0, 353.0, 584.090026855, -35.363261, 149.1652299, 0.998134791851, 0.0, 0.0, -0.0610485821962,0
2019-04-03 20:41:58.01,48234865, 0.0, 0.0, 353.0, 584.090026855, -35.363261, 149.1652299, 0.998134791851, 0.0, 0.0, -0.0610485821962,0
2019-04-03 20:41:58.11,48334825, 0.0, 0.0, 353.0, 584.090026855, -35.363261, 149.1652299, 0.998134791851, 0.0, 0.0, -0.0610485821962,0
2019-04-03 20:41:58.21,48434785, 0.0, 0.0, 353.0, 584.090026855, -35.363261, 149.1652299, 0.998134791851, 0.0, 0.0, -0.0610485821962,0
2019-04-03 20:41:58.31,48534745, 0.0, 0.0, 353.0, 584.090026855, -35.363261, 149.1652299, 0.998134791851, 0.0, 0.0, -0.0610485821962,0
2019-04-03 20:41:58.41,48634705, 0.0, 0.0, 353.0, 584.090026855, -35.363261, 149.1652299, 0.998134791851, 0.0, 0.0, -0.0610485821962,0
2019-04-03 20:41:58.51,48734665, 0.0, 0.0, 353.0, 584.090026855, -35.363261, 149.1652299, 0.998134791851, 0.0, 0.0, -0.0610485821962,0
2019-04-03 20:41:58.61,48834625, 0.0, 0.0, 353.0, 584.090026855, -35.363261, 149.1652299, 0.998134791851, 0.0, 0.0, -0.0610485821962,0
2019-04-03 20:41:58.71,48934585, 0.0, 0.0, 353.0, 584.090026855, -35.363261, 149.1652299, 0.998134791851, 0.0, 0.0, -0.0610485821962,0
2019-04-03 20:41:58.81,49034545, 0.0, 0.0, 353.0, 584.090026855, -35.363261, 149.1652299, 0.998134791851, 0.0, 0.0, -0.0610485821962,0
2019-04-03 20:41:58.91,49134505, 0.0, 0.0, 353.0, 584.090026855, -35.363261, 149.1652299, 0.998134791851, 0.0, 0.0, -0.0610485821962,0
2019-04-03 20:41:59.01,49235298, 0.0, 0.0, 353.0, 584.090026855, -35.363261, 149.1652299, 0.998134791851, 0.0, 0.0, -0.0610485821962,0
2019-04-03 20:41:59.11,49335258, 0.0, 0.0, 353.0, 584.090026855, -35.363261, 149.1652299, 0.998134791851, 0.0, 0.0, -0.0610485821962,0
2019-04-03 20:41:59.21,49435218, 0.0, 0.0, 353.0, 584.090026855, -35.363261, 149.1652299, 0.998134791851, 0.0, 0.0, -0.0610485821962,0
2019-04-03 20:41:59.31,49535178, 0.0, 0.0, 353.0, 584.090026855, -35.363261, 149.1652299, 0.998134791851, 0.0, 0.0, -0.0610485821962,0
2019-04-03 20:41:59.41,49635138, 0.0, 0.0, 353.0, 584.090026855, -35.363261, 149.1652299, 0.998134791851, 0.0, 0.0, -0.0610485821962,0
2019-04-03 20:41:59.51,49735098, 0.0, 0.0, 353.0, 584.090026855, -35.363261, 149.1652299, 0.998134791851, 0.0, 0.0, -0.0610485821962,0
2019-04-03 20:41:59.61,49835058, 0.0, 0.0, 353.0, 584.090026855, -35.363261, 149.1652299, 0.998134791851, 0.0, 0.0, -0.0610485821962,0
2019-04-03 20:41:59.71,49935018, 0.0, 0.0, 353.0, 584.090026855, -35.363261, 149.1652299, 0.998134791851, 0.0, 0.0, -0.0610485821962,0
2019-04-03 20:41:59.81,50034978, 0.0, 0.0, 353.0, 584.090026855, -35.363261, 149.1652299, 0.998134791851, 0.0, 0.0, -0.0610485821962,0
2019-04-03 20:41:59.91,50134938, 0.0, 0.0, 353.0, 584.090026855, -35.363261, 149.1652299, 0.998134791851, 0.0, 0.0, -0.0610485821962,0
2019-04-03 20:42:00.01,50234898, 0.0, 0.0, 353.0, 584.090026855, -35.363261, 149.1652299, 0.998134791851, 0.0, 0.0, -0.0610485821962,0
2019-04-03 20:42:00.11,50334858, 0.0, 0.0, 353.0, 584.090026855, -35.363261, 149.1652299, 0.998134791851, 0.0, 0.0, -0.0610485821962,0
2019-04-03 20:42:00.21,50434818, 0.0, 0.0, 353.0, 584.090026855, -35.363261, 149.1652299, 0.998134791851, 0.0, 0.0, -0.0610485821962,0
2019-04-03 20:42:00.31,50534778, 0.0, 0.0, 353.0, 584.090026855, -35.363261, 149.1652299, 0.998134791851, 0.0, 0.0, -0.0610485821962,0
2019-04-03 20:42:00.41,50634738, 0.0, 0.0, 353.0, 584.090026855, -35.363261, 149.1652299, 0.998134791851, 0.0, 0.0, -0.0610485821962,0
2019-04-03 20:42:02.51,52734731, 0.0, 0.0, 353.0, 584.090026855, -35.363261, 149.1652299, 0.998134791851, 0.0, 0.0, -0.0610485821962,0
2019-04-03 20:42:02.61,52834691, 0.0, 0.0, 353.0, 584.090026855, -35.363261, 149.1652299, 0.998134791851, 0.0, 0.0, -0.0610485821962,0
2019-04-03 20:42:02.71,52934651, 0.0, 0.0, 353.0, 584.090026855, -35.363261, 149.1652299, 0.998134791851, 0.0, 0.0, -0.0610485821962,0
2019-04-03 20:42:02.81,53034611, 0.0, 0.0, 353.0, 584.090026855, -35.363261, 149.1652299, 0.998134791851, 0.0, 0.0, -0.0610485821962,0
2019-04-03 20:42:02.91,53134571, 0.0, 0.0, 353.0, 584.090026855, -35.363261, 149.1652299, 0.998134791851, 0.0, 0.0, -0.0610485821962,0
2019-04-03 20:42:03.01,53234531, 0.0, 0.0, 353.0, 584.090026855, -35.363261, 149.1652299, 0.998134791851, 0.0, 0.0, -0.0610485821962,0
2019-04-03 20:42:03.11,53335324, 0.0, 0.0, 353.0, 584.090026855, -35.363261, 149.1652299, 0.998134791851, 0.0, 0.0, -0.0610485821962,0
2019-04-03 20:42:03.21,53435284, 0.0, 0.0, 353.0, 584.090026855, -35.363261, 149.1652299, 0.998134791851, 0.0, 0.0, -0.0610485821962,0
2019-04-03 20:42:03.31,53535244, 0.0, 0.0, 353.0, 584.090026855, -35.363261, 149.1652299, 0.998134791851, 0.0, 0.0, -0.0610485821962,0
2019-04-03 20:42:03.41,53635204, 0.0, 0.0, 353.0, 584.090026855, -35.363261, 149.1652299, 0.998134791851, 0.0, 0.0, -0.0610485821962,0
2019-04-03 20:42:03.51,53735164, 0.0, 0.0, 353.0, 584.090026855, -35.363261, 149.1652299, 0.998134791851, 0.0, 0.0, -0.0610485821962,0
2019-04-03 20:42:03.61,53835124, 0.0, 0.0, 353.0, 584.090026855, -35.363261, 149.1652299, 0.998134791851, 0.0, 0.0, -0.0610485821962,0
2019-04-03 20:42:03.71,53935084, 0.0, 0.0, 353.0, 584.090026855, -35.363261, 149.1652299, 0.998134791851, 0.0, 0.0, -0.0610485821962,0
2019-04-03 20:42:03.81,54035044, 0.0, 0.0, 353.0, 584.090026855, -35.363261, 149.1652299, 0.998134791851, 0.0, 0.0, -0.0610485821962,0
2019-04-03 20:42:03.91,54135004, 0.0, 0.0, 353.0, 584.090026855, -35.363261, 149.1652299, 0.998134791851, 0.0, 0.0, -0.0610485821962,0
2019-04-03 20:42:04.01,54234964, 0.0, 0.0, 353.0, 584.090026855, -35.363261, 149.1652299, 0.998134791851, 0.0, 0.0, -0.0610485821962,0
2019-04-03 20:42:04.11,54334924, 0.0, 0.0, 353.0, 584.090026855, -35.363261, 149.1652299, 0.998134791851, 0.0, 0.0, -0.0610485821962,0
2019-04-03 20:42:04.21,54434884, 0.0, 0.0, 353.0, 584.090026855, -35.363261, 149.1652299, 0.998134791851, 0.0, 0.0, -0.0610485821962,0
2019-04-03 20:42:04.31,54534844, 0.0, 0.0, 353.0, 584.090026855, -35.363261, 149.1652299, 0.998134791851, 0.0, 0.0, -0.0610485821962,0
2019-04-03 20:42:04.41,54634804, 0.0, 0.0, 353.0, 584.090026855, -35.363261, 149.1652299, 0.998134791851, 0.0, 0.0, -0.0610485821962,0
2019-04-03 20:42:04.51,54734764, 0.0, 0.0, 353.0, 584.090026855, -35.363261, 149.1652299, 0.998134791851, 0.0, 0.0, -0.0610485821962,0
2019-04-03 20:42:04.61,54834724, 0.0, 0.0, 353.0, 584.090026855, -35.363261, 149.1652299, 0.998134791851, 0.0, 0.0, -0.0610485821962,0
2019-04-03 20:42:04.71,54934684, 0.0, 0.0, 353.0, 584.090026855, -35.363261, 149.1652299, 0.998134791851, 0.0, 0.0, -0.0610485821962,0
2019-04-03 20:42:04.81,55034644, 0.0, 0.0, 353.0, 584.090026855, -35.363261, 149.1652299, 0.998134791851, 0.0, 0.0, -0.0610485821962,0
2019-04-03 20:42:04.91,55134604, 0.0, 0.0, 353.0, 584.090026855, -35.363261, 149.1652299, 0.998134791851, 0.0, 0.0, -0.0610485821962,0
2019-04-03 20:42:05.01,55234564, 0.0, 0.0, 353.0, 584.090026855, -35.363261, 149.1652299, 0.998134791851, 0.0, 0.0, -0.0610485821962,0
2019-04-03 20:42:05.11,55334524, 0.0, 0.0, 353.0, 584.090026855, -35.363261, 149.1652299, 0.998134791851, 0.0, 0.0, -0.0610485821962,0
2019-04-03 20:42:05.21,55435317, 0.0, 0.0, 353.0, 584.090026855, -35.363261, 149.1652299, 0.998134791851, 0.0, 0.0, -0.0610485821962,0
2019-04-03 20:42:05.31,55535277, 0.0, 0.0, 353.0, 584.090026855, -35.363261, 149.1652299, 0.998134791851, 0.0, 0.0, -0.0610485821962,0
2019-04-03 20:42:05.41,55635237, 0.0, 0.0, 353.0, 584.090026855, -35.363261, 149.1652299, 0.998134791851, 0.0, 0.0, -0.0610485821962,0
2019-04-03 20:42:05.51,55735197, 0.0, 0.0, 353.0, 584.090026855, -35.363261, 149.1652299, 0.998134791851, 0.0, 0.0, -0.0610485821962,0
2019-04-03 20:42:05.61,55835157, 0.0, 0.0, 353.0, 584.090026855, -35.363261, 149.1652299, 0.998134791851, 0.0, 0.0, -0.0610485821962,0
2019-04-03 20:42:05.71,55935117, 0.0, 0.0, 353.0, 584.090026855, -35.363261, 149.1652299, 0.998134791851, 0.0, 0.0, -0.0610485821962,0
2019-04-03 20:42:05.81,56035077, 0.0, 0.0, 353.0, 584.090026855, -35.363261, 149.1652299, 0.998134791851, 0.0, 0.0, -0.0610485821962,0
2019-04-03 20:42:05.91,56135037, 0.0, 0.0, 353.0, 584.090026855, -35.363261, 149.1652299, 0.998134791851, 0.0, 0.0, -0.0610485821962,0
2019-04-03 20:42:06.01,56234997, 0.0, 0.0, 353.0, 584.090026855, -35.363261, 149.1652299, 0.998134791851, 0.0, 0.0, -0.0610485821962,0
2019-04-03 20:42:06.11,56334957, 0.0, 0.0, 353.0, 584.090026855, -35.363261, 149.1652299, 0.998134791851, 0.0, 0.0, -0.0610485821962,0
2019-04-03 20:42:06.21,56434917, 0.0, 0.0, 353.0, 584.090026855, -35.363261, 149.1652299, 0.998134791851, 0.0, 0.0, -0.0610485933721,0
2019-04-03 20:42:06.31,56534877, 0.0, 0.0, 353.0, 584.090026855, -35.363261, 149.1652299, 0.998134791851, 0.0, 0.0, -0.0610486641526,0
2019-04-03 20:42:06.41,56634837, 0.0, 0.0, 353.0, 584.090026855, -35.363261, 149.1652299, 0.998134791851, 0.0, 0.0, -0.0610486753285,0
2019-04-03 20:42:06.51,56734797, 0.0, 0.0, 353.0, 584.090026855, -35.363261, 149.1652299, 0.998134791851, 0.0, 0.0, -0.0610486753285,0
2019-04-03 20:42:06.61,56834757, 0.0, 0.0, 353.0, 584.090026855, -35.363261, 149.1652299, 0.998134791851, 0.0, 0.0, -0.0610486753285,0
2019-04-03 20:42:06.71,56934717, 0.0, 0.0, 353.0, 584.090026855, -35.363261, 149.1652299, 0.998134791851, 0.0, 0.0, -0.0610486753285,0
2019-04-03 20:42:06.81,57034677, 0.0, 0.0, 353.0, 584.090026855, -35.363261, 149.1652299, 0.998134791851, 0.0, 0.0, -0.0610486753285,0
2019-04-03 20:42:06.91,57134637, 0.0, 0.0, 353.0, 584.090026855, -35.363261, 149.1652299, 0.998134791851, 0.0, 0.0, -0.0610486753285,0
2019-04-03 20:42:07.01,57234597, 0.0, 0.0, 353.0, 584.099975586, -35.363261, 149.1652299, 0.998134791851, 0.0, 0.0, -0.0610486753285,0
2019-04-03 20:42:07.11,57334557, 0.0, 0.0, 353.0, 584.099975586, -35.363261, 149.1652299, 0.998134791851, 0.0, 0.0, -0.0610486753285,0
2019-04-03 20:42:07.21,57434517, 0.0, 0.0, 353.0, 584.109985352, -35.363261, 149.1652299, 0.998134791851, 0.0, 0.0, -0.0610486753285,0
2019-04-03 20:42:07.31,57535310, 0.0, 0.0, 353.0, 584.119995117, -35.363261, 149.1652299, 0.998134791851, 0.0, 0.0, -0.0610486753285,0
2019-04-03 20:42:07.41,57635270, 0.0, 0.0, 353.0, 584.150024414, -35.363261, 149.1652299, 0.998134791851, 0.0, 0.0, -0.0610486753285,0
2019-04-03 20:42:07.51,57735230, 0.0, 0.0, 353.0, 584.179992676, -35.363261, 149.1652299, 0.998134791851, 0.0, 0.0, -0.0610486753285,0
2019-04-03 20:42:07.61,57835190, 0.0, 0.0, 352.99, 584.219970703, -35.363261, 149.1652299, 0.998134791851, -2.08960336749e-05, -2.23338229262e-05, -0.0610487647355,0
2019-04-03 20:42:07.71,57935150, -0.03, -0.05, 352.99, 584.289978027, -35.363261, 149.1652299, 0.998134374619, -0.000345358654158, -0.000436918606283, -0.061053622514,0
2019-04-03 20:42:07.81,58035110, -0.09, -0.11, 352.99, 584.409973145, -35.363261, 149.1652299, 0.998133003712, -0.000889025628567, -0.000990990549326, -0.0610635019839,0
2019-04-03 20:42:07.91,58135070, -0.15, -0.17, 352.99, 584.559997559, -35.363261, 149.1652299, 0.99813079834, -0.00146120681893, -0.00147974316496, -0.0610791631043,0
2019-04-03 20:42:08.01,58235030, -0.18, -0.19, 352.99, 584.719970703, -35.363261, 149.1652299, 0.998128831387, -0.00172342150472, -0.00158058863599, -0.0611014999449,0
2019-04-03 20:42:08.11,58334990, -0.17, -0.16, 352.99, 584.869995117, -35.363261, 149.1652299, 0.998127639294, -0.00158258003648, -0.00133315043058, -0.0611312799156,0
2019-04-03 20:42:08.21,58434950, -0.14, -0.1, 352.98, 585.020019531, -35.363261, 149.1652299, 0.998126745224, -0.00129395164549, -0.000854158832226, -0.0611614659429,0
2019-04-03 20:42:08.31,58534910, -0.08, -0.04, 352.98, 585.16998291, -35.363261, 149.1652299, 0.998126149178, -0.000753009400796, -0.000362932885764, -0.0611841380596,0
2019-04-03 20:42:08.41,58634870, 0.0, 0.02, 352.98, 585.33001709, -35.363261, 149.1652299, 0.998125553131, -2.86738741124e-05, 0.000195966727915, -0.0612000860274,0
2019-04-03 20:42:08.51,58734830, 0.05, 0.08, 352.98, 585.5, -35.363261, 149.1652299, 0.998124539852, 0.000489796919283, 0.000700046075508, -0.0612104088068,0
2019-04-03 20:42:08.61,58834790, 0.05, 0.1, 352.98, 585.66998291, -35.363261, 149.1652298, 0.99812412262, 0.000560515443794, 0.000858214858454, -0.0612143240869,0
2019-04-03 20:42:08.71,58934750, 0.03, 0.07, 352.98, 585.849975586, -35.3632609, 149.1652298, 0.998124480247, 0.000340224156389, 0.000653701426927, -0.061212554574,0
2019-04-03 20:42:08.81,59034710, 0.0, 0.02, 352.98, 586.039978027, -35.3632609, 149.1652298, 0.998124837875, -2.29847401556e-07, 0.000185812619748, -0.0612111799419,0
2019-04-03 20:42:08.91,59134670, -0.03, -0.02, 352.98, 586.219970703, -35.3632609, 149.1652298, 0.998125016689, -0.000336326775141, -0.000175541412318, -0.0612080171704,0
2019-04-03 20:42:09.01,59234630, -0.06, -0.03, 352.98, 586.409973145, -35.3632609, 149.1652298, 0.998125314713, -0.000545246817637, -0.000314047385473, -0.0612002462149,0
2019-04-03 20:42:09.11,59334590, -0.06, -0.03, 352.98, 586.609985352, -35.3632609, 149.1652298, 0.998125910759, -0.000600159110036, -0.000305261375615, -0.0611905641854,0
2019-04-03 20:42:09.21,59434550, -0.06, -0.02, 352.98, 586.799987793, -35.3632609, 149.1652298, 0.99812656641, -0.000582896347623, -0.000214743777178, -0.0611805915833,0
2019-04-03 20:42:09.31,59534510, -0.04, 0.0, 352.98, 587.0, -35.3632609, 149.1652298, 0.998127102852, -0.000435414869571, 2.87323268822e-06, -0.0611735060811,0
2019-04-03 20:42:09.41,59635303, -0.02, 0.02, 352.98, 587.200012207, -35.3632609, 149.1652298, 0.998127281666, -0.000202176728635, 0.000267891329713, -0.061171207577,0
2019-04-03 20:42:09.51,59735263, 0.0, 0.06, 352.98, 587.390014648, -35.3632609, 149.1652298, 0.998127162457, 5.16337859153e-05, 0.000540520297363, -0.0611713342369,0
2019-04-03 20:42:09.61,59835223, 0.02, 0.08, 352.98, 587.570007324, -35.3632609, 149.1652298, 0.998126924038, 0.000263429305051, 0.000718981144018, -0.0611730590463,0
2019-04-03 20:42:09.71,59935183, 0.03, 0.08, 352.98, 587.739990234, -35.3632609, 149.1652298, 0.998126506805, 0.000375156931113, 0.000726694706827, -0.0611792057753,0
2019-04-03 20:42:09.81,60035143, 0.01, 0.03, 352.98, 587.900024414, -35.3632609, 149.1652298, 0.998126149178, 0.000143317200127, 0.000285309739411, -0.0611892305315,0
2019-04-03 20:42:09.91,60135103, -0.11, -0.19, 352.98, 588.049987793, -35.3632609, 149.1652298, 0.998123347759, -0.00113815208897, -0.0016415019054, -0.0612029358745,0
2019-04-03 20:42:10.01,60235063, -0.39, -0.66, 352.98, 588.179992676, -35.3632609, 149.1652298, 0.998101651669, -0.00376096973196, -0.00561941741034, -0.0612164661288,0
2019-04-03 20:42:10.11,60335023, -0.78, -1.38, 352.98, 588.299987793, -35.3632609, 149.1652298, 0.998026907444, -0.00756236398593, -0.0116533832625, -0.0612315423787,0
2019-04-03 20:42:10.21,60434983, -1.23, -2.28, 352.99, 588.409973145, -35.3632608, 149.1652298, 0.99786400795, -0.012002620846, -0.0192594528198, -0.0612570010126,0
2019-04-03 20:42:10.31,60534943, -1.71, -3.27, 353.01, 588.510009766, -35.3632608, 149.1652297, 0.997598409653, -0.0166719332337, -0.0275703407824, -0.0613140873611,0
2019-04-03 20:42:10.41,60634903, -2.14, -4.18, 353.03, 588.590026855, -35.3632607, 149.1652297, 0.99726909399, -0.0208812262863, -0.0353013835847, -0.0614177361131,0
2019-04-03 20:42:10.51,60734863, -2.47, -4.92, 353.03, 588.66998291, -35.3632604, 149.1652294, 0.996945679188, -0.0241122301668, -0.0415480621159, -0.0615767799318,0
2019-04-03 20:42:10.61,60834823, -2.71, -5.45, 353.03, 588.729980469, -35.3632603, 149.1652293, 0.996672213078, -0.0265069194138, -0.0460731834173, -0.0617992766201,0
2019-04-03 20:42:10.71,60934783, -2.9, -5.83, 353.01, 588.789978027, -35.3632601, 149.1652291, 0.996453285217, -0.0283955316991, -0.0492136888206, -0.0620686151087,0
2019-04-03 20:42:10.81,61034743, -3.08, -6.13, 353.0, 588.840026855, -35.3632597, 149.1652289, 0.996257007122, -0.0301214754581, -0.0517301931977, -0.0623593479395,0
2019-04-03 20:42:10.91,61134703, -3.24, -6.42, 352.98, 588.880004883, -35.3632593, 149.1652286, 0.996059715748, -0.0316845215857, -0.054206263274, -0.0626325905323,0
2019-04-03 20:42:11.01,61234663, -3.41, -6.75, 352.97, 588.91998291, -35.3632589, 149.1652282, 0.995839476585, -0.0332758501172, -0.0569455213845, -0.0628786981106,0
2019-04-03 20:42:11.11,61334623, -3.55, -7.09, 352.96, 588.950012207, -35.3632584, 149.1652278, 0.995607376099, -0.0346815399826, -0.0598589666188, -0.0630874782801,0
2019-04-03 20:42:11.21,61434583, -3.65, -7.4, 352.96, 588.979980469, -35.3632578, 149.1652273, 0.995397031307, -0.0357321090996, -0.0624897629023, -0.063269354403,0
2019-04-03 20:42:11.31,61534543, -3.73, -7.6, 352.95, 589.010009766, -35.3632572, 149.1652268, 0.99525052309, -0.0365063510835, -0.06417311728, -0.0634471848607,0
2019-04-03 20:42:11.41,61634503, -3.78, -7.7, 352.94, 589.030029297, -35.3632565, 149.1652262, 0.995168566704, -0.0370220765471, -0.0649968013167, -0.0635953992605,0
2019-04-03 20:42:11.51,61735296, -3.83, -7.77, 352.93, 589.049987793, -35.3632556, 149.1652255, 0.995106816292, -0.037502143532, -0.0655692890286, -0.0636922419071,0
2019-04-03 20:42:11.61,61835256, -3.9, -7.86, 352.93, 589.08001709, -35.3632549, 149.1652249, 0.995032548904, -0.0381279401481, -0.0662864148617, -0.0637391656637,0
2019-04-03 20:42:11.71,61935216, -4.03, -7.98, 352.93, 589.099975586, -35.363254, 149.1652241, 0.994910359383, -0.0393266007304, -0.067258939147, -0.0638988092542,0
2019-04-03 20:42:11.81,62035176, -4.43, -8.09, 352.65, 589.109985352, -35.363253, 149.1652234, 0.994531929493, -0.0430512726307, -0.0679400414228, -0.0666105598211,0
2019-04-03 20:42:11.91,62135136, -5.07, -8.24, 351.43, 589.130004883, -35.3632519, 149.1652225, 0.993411421776, -0.0494282506406, -0.0682988539338, -0.0776264071465,0
2019-04-03 20:42:12.01,62235096, -5.53, -8.58, 348.65, 589.150024414, -35.363251, 149.1652216, 0.990795493126, -0.0552877560258, -0.0696378350258, -0.102069437504,0
2019-04-03 20:42:12.11,62335056, -5.33, -9.18, 344.22, 589.16998291, -35.3632499, 149.1652207, 0.985774874687, -0.0569551214576, -0.0728850141168, -0.140327706933,0
2019-04-03 20:42:12.21,62435016, -4.14, -9.99, 338.65, 589.179992676, -35.3632488, 149.1652196, 0.977736532688, -0.0515232495964, -0.0788681209087, -0.187500685453,0
2019-04-03 20:42:12.31,62534976, -2.13, -10.8, 332.72, 589.200012207, -35.3632476, 149.1652184, 0.966905534267, -0.0402385368943, -0.0871312841773, -0.236395269632,0
2019-04-03 20:42:12.41,62634936, 0.22, -11.48, 327.18, 589.219970703, -35.3632464, 149.1652173, 0.954512834549, -0.0263923108578, -0.096521101892, -0.280877918005,0
2019-04-03 20:42:12.51,62734896, 2.41, -11.93, 322.62, 589.239990234, -35.3632451, 149.165216, 0.942648887634, -0.0134613672271, -0.105190359056, -0.316491574049,0
2019-04-03 20:42:12.61,62834856, 4.03, -12.2, 319.45, 589.260009766, -35.3632437, 149.1652149, 0.933444559574, -0.00398169597611, -0.111827127635, -0.34082275629,0
2019-04-03 20:42:12.71,62934816, 4.89, -12.4, 317.77, 589.280029297, -35.3632421, 149.1652135, 0.928224086761, 0.000725822814275, -0.115947976708, -0.353490620852,0
2019-04-03 20:42:12.81,63034776, 4.95, -12.6, 317.46, 589.299987793, -35.3632406, 149.1652123, 0.927130699158, 0.00030978032737, -0.11778010428, -0.355747789145,0
2019-04-03 20:42:12.91,63134736, 4.35, -12.88, 318.27, 589.33001709, -35.3632389, 149.165211, 0.929388582706, -0.00466153817251, -0.118240371346, -0.349620342255,0
2019-04-03 20:42:13.01,63234696, 3.26, -13.29, 319.89, 589.349975586, -35.3632371, 149.1652097, 0.933804452419, -0.0131303966045, -0.118410989642, -0.337365806103,0
2019-04-03 20:42:13.11,63334656, 1.92, -13.78, 322.0, 589.369995117, -35.3632353, 149.1652083, 0.939222276211, -0.0232654623687, -0.11889064312, -0.321224659681,0
2019-04-03 20:42:13.21,63434616, 0.57, -14.25, 324.3, 589.400024414, -35.3632333, 149.1652069, 0.944700598717, -0.0333179980516, -0.119634211063, -0.30350998044,0
2019-04-03 20:42:13.31,63534576, -0.64, -14.63, 326.49, 589.429992676, -35.3632312, 149.1652056, 0.949548363686, -0.0420364402235, -0.120383746922, -0.286528557539,0
2019-04-03 20:42:13.41,63634536, -1.58, -14.88, 328.33, 589.450012207, -35.3632293, 149.165204, 0.95338588953, -0.0485000237823, -0.120893649757, -0.27219080925,0
2019-04-03 20:42:13.51,63734496, -2.2, -15.03, 329.66, 589.479980469, -35.3632272, 149.1652025, 0.956038236618, -0.0525853559375, -0.121232606471, -0.261779129505,0
2019-04-03 20:42:13.61,63835289, -2.47, -15.1, 330.41, 589.510009766, -35.363225, 149.1652007, 0.957511365414, -0.0542582459748, -0.121607191861, -0.2558118999,0
2019-04-03 20:42:13.71,63935249, -2.42, -15.13, 330.58, 589.539978027, -35.3632227, 149.165199, 0.957890868187, -0.0537224970758, -0.122063733637, -0.254282206297,0
2019-04-03 20:42:13.81,64035209, -2.13, -15.18, 330.28, 589.570007324, -35.3632205, 149.1651972, 0.957296252251, -0.0516911819577, -0.122945055366, -0.256508111954,0
2019-04-03 20:42:13.91,64135169, -1.66, -15.25, 329.62, 589.599975586, -35.3632182, 149.1651953, 0.955921173096, -0.0486522167921, -0.124301478267, -0.26152792573,0
2019-04-03 20:42:14.01,64235129, -1.08, -15.33, 328.73, 589.630004883, -35.3632159, 149.1651933, 0.954028129578, -0.0449807494879, -0.125950470567, -0.268223017454,0
2019-04-03 20:42:14.11,64335089, -0.48, -15.44, 327.78, 589.659973145, -35.3632135, 149.1651913, 0.951851665974, -0.0413321368396, -0.127940282226, -0.275502085686,0
2019-04-03 20:42:14.21,64435049, 0.04, -15.57, 326.86, 589.690002441, -35.3632111, 149.1651892, 0.949674189091, -0.0382460728288, -0.129958465695, -0.282430499792,0
2019-04-03 20:42:14.31,64535009, 0.47, -15.67, 326.1, 589.719970703, -35.3632086, 149.1651872, 0.947782993317, -0.0358580611646, -0.1316010952, -0.288275510073,0
2019-04-03 20:42:14.41,64634969, 0.75, -15.73, 325.53, 589.75, -35.363206, 149.1651851, 0.946376442909, -0.0342736467719, -0.132682353258, -0.292561739683,0
2019-04-03 20:42:14.51,64734929, 0.89, -15.78, 325.2, 589.780029297, -35.3632033, 149.1651829, 0.945521950722, -0.0336284078658, -0.133330389857, -0.295093953609,0
2019-04-03 20:42:14.61,64834889, 0.87, -15.83, 325.1, 589.809997559, -35.3632008, 149.1651808, 0.945202767849, -0.0340714305639, -0.133633077145, -0.29592743516,0
2019-04-03 20:42:14.71,64934849, 0.73, -15.88, 325.2, 589.840026855, -35.3631981, 149.1651786, 0.945342838764, -0.0352832004428, -0.133780092001, -0.295271039009,0
2019-04-03 20:42:14.81,65034809, 0.51, -15.92, 325.45, 589.869995117, -35.3631953, 149.1651765, 0.945861101151, -0.0368881002069, -0.133606806397, -0.293488025665,0
2019-04-03 20:42:14.91,65134769, 0.28, -15.94, 325.78, 589.900024414, -35.3631926, 149.1651743, 0.946622312069, -0.0384389907122, -0.133297517896, -0.290964484215,0
2019-04-03 20:42:15.01,65234729, 0.07, -15.97, 326.15, 589.929992676, -35.3631898, 149.1651719, 0.947452187538, -0.0398322381079, -0.133149698377, -0.288130223751,0
2019-04-03 20:42:15.11,65334689, -0.12, -16.02, 326.51, 589.960021973, -35.3631869, 149.1651697, 0.948221921921, -0.0411588102579, -0.133152768016, -0.285397082567,0
2019-04-03 20:42:15.21,65434649, -0.29, -16.07, 326.81, 589.989990234, -35.3631842, 149.1651674, 0.948843896389, -0.042399417609, -0.133262306452, -0.283087849617,0
2019-04-03 20:42:15.31,65534609, -0.44, -16.12, 327.03, 590.030029297, -35.3631813, 149.1651651, 0.949272274971, -0.0434995219111, -0.133432820439, -0.281399399042,0
2019-04-03 20:42:15.41,65634569, -0.52, -16.18, 327.17, 590.059997559, -35.3631783, 149.1651627, 0.949503600597, -0.0441117323935, -0.133743062615, -0.280374616385,0
2019-04-03 20:42:15.51,65734529, -0.51, -16.23, 327.21, 590.090026855, -35.3631753, 149.1651604, 0.949545919895, -0.0441172607243, -0.134221807122, -0.280001223087,0
2019-04-03 20:42:15.61,65835322, -0.44, -16.27, 327.17, 590.119995117, -35.3631725, 149.1651579, 0.949423134327, -0.0437315516174, -0.134724333882, -0.280236840248,0
2019-04-03 20:42:15.71,65935282, -0.34, -16.31, 327.07, 590.150024414, -35.3631695, 149.1651555, 0.949175238609, -0.0430593714118, -0.135230332613, -0.280935972929,0
2019-04-03 20:42:15.81,66035242, -0.23, -16.35, 326.93, 590.179992676, -35.3631665, 149.165153, 0.948827385902, -0.0424190312624, -0.135762855411, -0.281949788332,0
2019-04-03 20:42:15.91,66135202, -0.13, -16.39, 326.77, 590.219970703, -35.3631635, 149.1651506, 0.948424935341, -0.0419246479869, -0.136329814792, -0.283101767302,0
2019-04-03 20:42:16.01,66235162, -0.04, -16.44, 326.62, 590.25, -35.3631604, 149.165148, 0.948032200336, -0.041453037411, -0.136870533228, -0.284223526716,0
2019-04-03 20:42:16.11,66335122, 0.04, -16.48, 326.49, 590.280029297, -35.3631574, 149.1651455, 0.947696089745, -0.0409195795655, -0.137390479445, -0.285169392824,0
2019-04-03 20:42:16.21,66435082, 0.13, -16.52, 326.4, 590.309997559, -35.3631543, 149.165143, 0.94743090868, -0.0404398441315, -0.13790717721, -0.285868674517,0
2019-04-03 20:42:16.31,66535042, 0.15, -16.54, 326.33, 590.340026855, -35.3631512, 149.1651405, 0.947261869907, -0.040377676487, -0.138083860278, -0.286352008581,0
2019-04-03 20:42:16.41,66635002, 0.12, -16.56, 326.31, 590.380004883, -35.3631479, 149.1651379, 0.947151184082, -0.0406967625022, -0.138231173158, -0.286601871252,0
2019-04-03 20:42:16.51,66734962, 0.08, -16.61, 326.31, 590.409973145, -35.3631449, 149.1651354, 0.947097659111, -0.0411573238671, -0.138474926353, -0.286595314741,0
2019-04-03 20:42:16.61,66834922, 0.02, -16.65, 326.34, 590.440002441, -35.3631417, 149.1651327, 0.947099030018, -0.0417411103845, -0.138698339462, -0.286398112774,0
2019-04-03 20:42:16.71,66934882, -0.02, -16.69, 326.39, 590.469970703, -35.3631386, 149.1651302, 0.947155952454, -0.0421942695975, -0.138873487711, -0.286058455706,0
2019-04-03 20:42:16.81,67034842, -0.05, -16.7, 326.44, 590.5, -35.3631354, 149.1651276, 0.947267174721, -0.0423831641674, -0.138908684254, -0.285644769669,0
2019-04-03 20:42:16.91,67134802, -0.07, -16.7, 326.49, 590.530029297, -35.3631321, 149.165125, 0.947378396988, -0.0425215549767, -0.138935819268, -0.285242021084,0
2019-04-03 20:42:17.01,67234762, -0.1, -16.72, 326.54, 590.570007324, -35.3631289, 149.1651224, 0.947455227375, -0.0427351519465, -0.139045491815, -0.284901022911,0
2019-04-03 20:42:17.11,67334722, -0.13, -16.76, 326.57, 590.599975586, -35.3631257, 149.1651197, 0.947477519512, -0.0430302470922, -0.139332041144, -0.284642606974,0
2019-04-03 20:42:17.21,67434682, -0.14, -16.82, 326.59, 590.630004883, -35.3631224, 149.1651171, 0.947455346584, -0.0432586297393, -0.139762833714, -0.284470587969,0
2019-04-03 20:42:17.31,67534642, -0.13, -16.85, 326.6, 590.659973145, -35.3631192, 149.1651144, 0.947439193726, -0.0432364754379, -0.140031933784, -0.284395247698,0
2019-04-03 20:42:17.41,67634602, -0.11, -16.86, 326.59, 590.690002441, -35.3631158, 149.1651118, 0.947411477566, -0.0431147776544, -0.14017008245, -0.284438043833,0
2019-04-03 20:42:17.51,67734562, -0.08, -16.89, 326.57, 590.729980469, -35.3631126, 149.1651091, 0.947344958782, -0.0429606810212, -0.140438020229, -0.284550696611,0
2019-04-03 20:42:17.61,67834522, -0.05, -16.93, 326.55, 590.760009766, -35.3631093, 149.1651063, 0.947240173817, -0.0428473316133, -0.140862986445, -0.284706622362,0
2019-04-03 20:42:17.71,67935315, -0.02, -16.97, 326.52, 590.789978027, -35.363106, 149.1651037, 0.947125554085, -0.0427313745022, -0.141267091036, -0.284905076027,0
2019-04-03 20:42:17.81,68035275, 0.0, -17.0, 326.49, 590.820007324, -35.3631026, 149.165101, 0.947021603584, -0.0426459386945, -0.141572088003, -0.285111963749,0
2019-04-03 20:42:17.91,68135235, 0.01, -17.04, 326.46, 590.859985352, -35.3630993, 149.1650982, 0.946918606758, -0.0426031202078, -0.141901746392, -0.285296320915,0
2019-04-03 20:42:18.01,68235195, 0.01, -17.06, 326.44, 590.890014648, -35.363096, 149.1650955, 0.94682854414, -0.0427487418056, -0.142107829452, -0.285470873117,0
2019-04-03 20:42:18.11,68335155, 0.0, -17.09, 326.42, 590.91998291, -35.3630926, 149.1650928, 0.946756482124, -0.0429774448276, -0.142256900668, -0.28560140729,0
2019-04-03 20:42:18.21,68435115, -0.01, -17.1, 326.42, 590.950012207, -35.3630892, 149.16509, 0.946720063686, -0.0430768802762, -0.142333164811, -0.285669028759,0
2019-04-03 20:42:18.31,68535075, -0.01, -17.1, 326.41, 590.989990234, -35.3630859, 149.1650872, 0.946706414223, -0.0431259721518, -0.142341718078, -0.285702586174,0
2019-04-03 20:42:18.41,68635035, -0.01, -17.11, 326.41, 591.020019531, -35.3630825, 149.1650845, 0.946698069572, -0.0430907197297, -0.142421618104, -0.285695642233,0
2019-04-03 20:42:18.51,68734995, 0.0, -17.13, 326.41, 591.049987793, -35.3630791, 149.1650818, 0.94667994976, -0.0430428087711, -0.142647176981, -0.285650581121,0
2019-04-03 20:42:18.61,68834955, 0.02, -17.17, 326.42, 591.08001709, -35.3630756, 149.165079, 0.946656644344, -0.0429180786014, -0.142998352647, -0.285570830107,0
2019-04-03 20:42:18.71,68934915, 0.04, -17.2, 326.42, 591.109985352, -35.3630723, 149.1650761, 0.9466381073, -0.0428545363247, -0.143294662237, -0.285493254662,0
2019-04-03 20:42:18.81,69034875, 0.03, -17.23, 326.43, 591.140014648, -35.3630689, 149.1650733, 0.946608245373, -0.0429409183562, -0.143571332097, -0.285440444946,0
2019-04-03 20:42:18.91,69134835, 0.02, -17.25, 326.43, 591.179992676, -35.3630653, 149.1650706, 0.946589052677, -0.043083447963, -0.143711879849, -0.285411953926,0
2019-04-03 20:42:19.01,69234795, 0.01, -17.28, 326.44, 591.210021973, -35.363062, 149.1650678, 0.946557581425, -0.0432490631938, -0.143896833062, -0.285397976637,0
2019-04-03 20:42:19.11,69334755, 0.0, -17.3, 326.44, 591.239990234, -35.3630585, 149.165065, 0.946526825428, -0.043391328305, -0.144062668085, -0.285394668579,0
2019-04-03 20:42:19.21,69434715, 0.0, -17.34, 326.43, 591.270019531, -35.363055, 149.1650622, 0.946465134621, -0.0436105579138, -0.144377171993, -0.285406917334,0
2019-04-03 20:42:19.31,69534675, -0.02, -17.38, 326.43, 591.299987793, -35.3630516, 149.1650594, 0.946412861347, -0.0437957085669, -0.144616186619, -0.285430938005,0
2019-04-03 20:42:19.41,69634635, -0.02, -17.4, 326.43, 591.33001709, -35.3630482, 149.1650565, 0.946365177631, -0.0439186766744, -0.144830852747, -0.285461395979,0
2019-04-03 20:42:19.51,69734595, 0.0, -17.42, 326.42, 591.369995117, -35.3630446, 149.1650536, 0.946338951588, -0.0437934733927, -0.145002827048, -0.285480260849,0
2019-04-03 20:42:19.61,69834555, 0.01, -17.43, 326.42, 591.400024414, -35.3630412, 149.1650508, 0.946324169636, -0.0436060726643, -0.145114064217, -0.285501360893,0
2019-04-03 20:42:19.71,69934515, 0.03, -17.41, 326.41, 591.429992676, -35.3630377, 149.1650481, 0.946331977844, -0.0434314869344, -0.145012885332, -0.28555354476,0
2019-04-03 20:42:19.81,70035308, 0.03, -17.39, 326.4, 591.460021973, -35.3630342, 149.1650451, 0.946332812309, -0.043401170522, -0.144863173366, -0.285631269217,0
2019-04-03 20:42:19.91,70135268, 0.02, -17.39, 326.39, 591.489990234, -35.3630306, 149.1650422, 0.946310162544, -0.0434899255633, -0.144820153713, -0.285714685917,0
2019-04-03 20:42:20.01,70235228, 0.02, -17.4, 326.38, 591.530029297, -35.3630272, 149.1650395, 0.946276545525, -0.043549016118, -0.144905209541, -0.285773903131,0
2019-04-03 20:42:20.11,70335188, 0.02, -17.41, 326.38, 591.559997559, -35.3630237, 149.1650365, 0.946254432201, -0.043582033366, -0.144956216216, -0.285816222429,0
2019-04-03 20:42:20.21,70435148, 0.01, -17.42, 326.37, 591.590026855, -35.3630202, 149.1650338, 0.946230053902, -0.0436619445682, -0.145013719797, -0.285855412483,0
2019-04-03 20:42:20.31,70535108, 0.0, -17.44, 326.37, 591.619995117, -35.3630166, 149.1650309, 0.946189761162, -0.0438314452767, -0.145138785243, -0.285899341106,0
2019-04-03 20:42:20.41,70635068, 0.0, -17.46, 326.37, 591.659973145, -35.363013, 149.165028, 0.946141183376, -0.0439653769135, -0.145359709859, -0.285927444696,0
2019-04-03 20:42:20.51,70735028, 0.01, -17.5, 326.36, 591.690002441, -35.3630096, 149.165025, 0.946099996567, -0.0438847951591, -0.145661219954, -0.285922557116,0
2019-04-03 20:42:20.61,70834988, 0.04, -17.53, 326.36, 591.719970703, -35.363006, 149.1650221, 0.946054518223, -0.0437477268279, -0.146013095975, -0.285914570093,0
2019-04-03 20:42:20.71,70934948, 0.06, -17.55, 326.35, 591.75, -35.3630025, 149.1650194, 0.9460247159, -0.0436460152268, -0.146205767989, -0.285930335522,0
2019-04-03 20:42:20.81,71034908, 0.04, -17.55, 326.34, 591.780029297, -35.3629989, 149.1650165, 0.945998251438, -0.043765373528, -0.146207943559, -0.285998493433,0
2019-04-03 20:42:20.91,71134868, 0.01, -17.55, 326.34, 591.820007324, -35.3629953, 149.1650135, 0.945971906185, -0.0440496578813, -0.146099984646, -0.286097079515,0
2019-04-03 20:42:21.01,71234828, 0.0, -17.54, 326.33, 591.849975586, -35.3629917, 149.1650106, 0.945960342884, -0.0442160069942, -0.145969212055, -0.286176502705,0
2019-04-03 20:42:21.11,71334788, 0.0, -17.55, 326.33, 591.880004883, -35.3629883, 149.1650077, 0.945930421352, -0.0442661046982, -0.146073684096, -0.286214381456,0
2019-04-03 20:42:21.21,71434748, 0.0, -17.59, 326.32, 591.909973145, -35.3629847, 149.1650048, 0.945869147778, -0.0443747080863, -0.146388858557, -0.286239176989,0
2019-04-03 20:42:21.31,71534708, -0.02, -17.63, 326.32, 591.950012207, -35.3629811, 149.1650019, 0.945794701576, -0.0446529500186, -0.146677240729, -0.286294132471,0
2019-04-03 20:42:21.41,71634668, -0.04, -17.65, 326.31, 591.979980469, -35.3629775, 149.1649991, 0.945754528046, -0.0448024645448, -0.146755605936, -0.286363363266,0
2019-04-03 20:42:21.51,71734628, -0.03, -17.64, 326.3, 592.010009766, -35.362974, 149.1649961, 0.945748209953, -0.0447110906243, -0.146727129817, -0.28641295433,0
2019-04-03 20:42:21.61,71834588, 0.0, -17.63, 326.3, 592.039978027, -35.3629704, 149.1649932, 0.945756196976, -0.0444346480072, -0.146723777056, -0.286431312561,0
2019-04-03 20:42:21.71,71934548, 0.02, -17.62, 326.29, 592.070007324, -35.3629667, 149.1649903, 0.945773005486, -0.0441759079695, -0.146654903889, -0.286451280117,0
2019-04-03 20:42:21.81,72034508, 0.03, -17.59, 326.28, 592.109985352, -35.3629631, 149.1649874, 0.945799231529, -0.0440421253443, -0.146427705884, -0.286501407623,0
2019-04-03 20:42:21.91,72135301, 0.04, -17.57, 326.28, 592.140014648, -35.3629595, 149.1649843, 0.945810496807, -0.043926589191, -0.146313279867, -0.286540389061,0
2019-04-03 20:42:22.01,72235261, 0.05, -17.57, 326.27, 592.16998291, -35.3629559, 149.1649814, 0.945805847645, -0.0438312664628, -0.146321475506, -0.286566257477,0
2019-04-03 20:42:22.11,72335221, 0.07, -17.6, 326.27, 592.200012207, -35.3629524, 149.1649785, 0.94576472044, -0.0437798835337, -0.14661437273, -0.286560118198,0
2019-04-03 20:42:22.21,72435181, 0.08, -17.63, 326.27, 592.229980469, -35.3629488, 149.1649756, 0.945714056492, -0.0437979251146, -0.146942421794, -0.286556512117,0
2019-04-03 20:42:22.31,72535141, 0.08, -17.67, 326.27, 592.270019531, -35.3629452, 149.1649727, 0.94566988945, -0.0438629835844, -0.147204503417, -0.286557763815,0
2019-04-03 20:42:22.41,72635101, 0.08, -17.71, 326.26, 592.299987793, -35.3629415, 149.1649697, 0.945609390736, -0.0439941547811, -0.147548913956, -0.286560237408,0
2019-04-03 20:42:22.51,72735061, 0.07, -17.74, 326.26, 592.33001709, -35.3629379, 149.1649668, 0.945557594299, -0.0441075786948, -0.147833228111, -0.286567151546,0
2019-04-03 20:42:22.61,72835021, 0.07, -17.74, 326.26, 592.359985352, -35.3629343, 149.1649637, 0.945560276508, -0.0441124364734, -0.147750243545, -0.286600381136,0
2019-04-03 20:42:22.71,72934981, 0.07, -17.71, 326.26, 592.390014648, -35.3629307, 149.1649608, 0.945585489273, -0.044045522809, -0.147528961301, -0.286641299725,0
2019-04-03 20:42:22.81,73034941, 0.08, -17.69, 326.25, 592.429992676, -35.3629271, 149.1649579, 0.945599496365, -0.0439369007945, -0.147429808974, -0.286662966013,0
2019-04-03 20:42:22.91,73134901, 0.1, -17.7, 326.25, 592.460021973, -35.3629234, 149.164955, 0.945597648621, -0.0437988638878, -0.147490411997, -0.286658972502,0
2019-04-03 20:42:23.01,73234861, 0.11, -17.72, 326.25, 592.489990234, -35.3629198, 149.164952, 0.945570588112, -0.0437347069383, -0.147705227137, -0.286647439003,0
2019-04-03 20:42:23.11,73334821, 0.11, -17.74, 326.25, 592.520019531, -35.3629162, 149.1649491, 0.945534408092, -0.043847642839, -0.147892013192, -0.286653250456,0
2019-04-03 20:42:23.21,73434781, 0.09, -17.76, 326.25, 592.549987793, -35.3629126, 149.164946, 0.945500552654, -0.0440561585128, -0.148003041744, -0.286675482988,0
2019-04-03 20:42:23.31,73534741, 0.06, -17.77, 326.25, 592.58001709, -35.3629089, 149.1649431, 0.945476233959, -0.0442809611559, -0.148028999567, -0.286707669497,0
2019-04-03 20:42:23.41,73634701, 0.05, -17.77, 326.24, 592.619995117, -35.3629053, 149.1649402, 0.945474863052, -0.0443661697209, -0.147959932685, -0.286734759808,0
2019-04-03 20:42:23.51,73734661, 0.07, -17.75, 326.24, 592.650024414, -35.3629016, 149.1649372, 0.94549870491, -0.0441586188972, -0.147871285677, -0.286733984947,0
2019-04-03 20:42:23.61,73834621, 0.1, -17.74, 326.24, 592.679992676, -35.362898, 149.1649343, 0.945514261723, -0.0439351163805, -0.147848278284, -0.286728739738,0
2019-04-03 20:42:23.71,73934581, 0.12, -17.75, 326.24, 592.710021973, -35.3628943, 149.1649313, 0.945497095585, -0.0437912382185, -0.148010835052, -0.286723613739,0
2019-04-03 20:42:23.81,74034541, 0.13, -17.77, 326.23, 592.739990234, -35.3628907, 149.1649282, 0.94547355175, -0.0437192767859, -0.148174419999, -0.286727637053,0
2019-04-03 20:42:23.91,74134501, 0.14, -17.78, 326.23, 592.770019531, -35.362887, 149.1649253, 0.945458948612, -0.0437041968107, -0.148241594434, -0.286743372679,0
2019-04-03 20:42:24.01,74235294, 0.14, -17.78, 326.23, 592.809997559, -35.3628834, 149.1649224, 0.945442438126, -0.0437117628753, -0.148305386305, -0.286763697863,0
2019-04-03 20:42:24.11,74335254, 0.14, -17.79, 326.22, 592.840026855, -35.3628797, 149.1649194, 0.945420920849, -0.0437185391784, -0.148409917951, -0.286779493093,0
2019-04-03 20:42:24.21,74435214, 0.15, -17.79, 326.22, 592.869995117, -35.3628761, 149.1649163, 0.945414841175, -0.0436646454036, -0.148425012827, -0.286800146103,0
2019-04-03 20:42:24.31,74535174, 0.15, -17.8, 326.22, 592.900024414, -35.3628724, 149.1649134, 0.945399940014, -0.0436757020652, -0.148448199034, -0.286835372448,0
2019-04-03 20:42:24.41,74635134, 0.15, -17.82, 326.21, 592.929992676, -35.3628687, 149.1649105, 0.945355415344, -0.0437221974134, -0.148665040731, -0.28686273098,0
2019-04-03 20:42:24.51,74735094, 0.16, -17.87, 326.2, 592.969970703, -35.3628651, 149.1649075, 0.945283174515, -0.0438011102378, -0.149060174823, -0.286883682013,0
2019-04-03 20:42:24.61,74835054, 0.15, -17.9, 326.2, 593.0, -35.3628614, 149.1649045, 0.945224881172, -0.0439378730953, -0.149316549301, -0.286921650171,0
2019-04-03 20:42:24.71,74935014, 0.13, -17.91, 326.19, 593.030029297, -35.3628578, 149.1649016, 0.945188939571, -0.0441723950207, -0.149337679148, -0.286993026733,0
2019-04-03 20:42:24.81,75034974, 0.09, -17.91, 326.19, 593.059997559, -35.3628541, 149.1648985, 0.945157527924, -0.0445274338126, -0.149235963821, -0.287094384432,0
2019-04-03 20:42:24.91,75134934, 0.07, -17.91, 326.18, 593.090026855, -35.3628504, 149.1648956, 0.945142686367, -0.044689424336, -0.14915689826, -0.287159174681,0
2019-04-03 20:42:25.01,75234894, 0.08, -17.91, 326.18, 593.119995117, -35.3628467, 149.1648926, 0.945132851601, -0.0446072667837, -0.149210095406, -0.287176638842,0
2019-04-03 20:42:25.11,75334854, 0.09, -17.92, 326.17, 593.159973145, -35.3628431, 149.1648897, 0.9451187253, -0.0444984808564, -0.149305418134, -0.287190496922,0
2019-04-03 20:42:25.21,75434814, 0.12, -17.93, 326.17, 593.190002441, -35.3628394, 149.1648866, 0.945108652115, -0.0443357862532, -0.149396657944, -0.287201404572,0
2019-04-03 20:42:25.31,75534774, 0.14, -17.92, 326.17, 593.219970703, -35.3628357, 149.1648837, 0.945115625858, -0.0441527031362, -0.149384722114, -0.287212878466,0
2019-04-03 20:42:25.41,75634734, 0.15, -17.91, 326.16, 593.25, -35.362832, 149.1648807, 0.945115208626, -0.0440333038568, -0.149387553334, -0.287231147289,0
2019-04-03 20:42:25.51,75734694, 0.15, -17.92, 326.16, 593.280029297, -35.3628282, 149.1648777, 0.945100307465, -0.0440512597561, -0.149398356676, -0.287271767855,0
2019-04-03 20:42:25.61,75834654, 0.13, -17.93, 326.15, 593.320007324, -35.3628247, 149.1648746, 0.94505828619, -0.0442290604115, -0.149471923709, -0.287344366312,0
2019-04-03 20:42:25.71,75934614, 0.11, -17.95, 326.14, 593.349975586, -35.3628209, 149.1648717, 0.945009768009, -0.0444854684174, -0.149545282125, -0.287426233292,0
2019-04-03 20:42:25.81,76034574, 0.07, -17.95, 326.14, 593.380004883, -35.3628172, 149.1648687, 0.944983124733, -0.0447829812765, -0.149440720677, -0.287521988153,0
2019-04-03 20:42:25.91,76134534, 0.06, -17.95, 326.13, 593.409973145, -35.3628135, 149.1648658, 0.944957137108, -0.044918384403, -0.149453997612, -0.287579208612,0
2019-04-03 20:42:26.01,76234494, 0.06, -17.97, 326.13, 593.440002441, -35.3628098, 149.1648627, 0.944922029972, -0.0449619404972, -0.149585872889, -0.287619292736,0
2019-04-03 20:42:26.11,76335287, 0.08, -17.97, 326.12, 593.479980469, -35.3628062, 149.1648597, 0.944910824299, -0.0448362976313, -0.149638712406, -0.287648200989,0
2019-04-03 20:42:26.21,76435247, 0.1, -17.96, 326.11, 593.510009766, -35.3628025, 149.1648567, 0.944908201694, -0.0446627773345, -0.149645745754, -0.287680238485,0
2019-04-03 20:42:26.31,76535207, 0.1, -17.96, 326.11, 593.539978027, -35.3627988, 149.1648536, 0.944897294044, -0.0446169674397, -0.149628415704, -0.287732183933,0
2019-04-03 20:42:26.41,76635167, 0.1, -17.96, 326.1, 593.570007324, -35.3627951, 149.1648507, 0.944873690605, -0.0446619614959, -0.14964863658, -0.287792295218,0
2019-04-03 20:42:26.51,76735127, 0.08, -17.96, 326.09, 593.599975586, -35.3627914, 149.1648477, 0.944858670235, -0.0448091179132, -0.149542629719, -0.28787368536,0
2019-04-03 20:42:26.61,76835087, 0.08, -17.96, 326.09, 593.630004883, -35.3627877, 149.1648447, 0.94483590126, -0.0448531918228, -0.149563059211, -0.287930846214,0
2019-04-03 20:42:26.71,76935047, 0.09, -17.99, 326.08, 593.66998291, -35.362784, 149.1648416, 0.944794774055, -0.0448372364044, -0.149783998728, -0.287953525782,0
2019-04-03 20:42:26.81,77035007, 0.13, -18.0, 326.07, 593.700012207, -35.3627803, 149.1648387, 0.944776952267, -0.0445315353572, -0.150017216802, -0.287937968969,0
2019-04-03 20:42:26.91,77134967, 0.18, -17.99, 326.07, 593.729980469, -35.3627765, 149.1648357, 0.944792985916, -0.0441473126411, -0.150059700012, -0.287922471762,0
2019-04-03 20:42:27.01,77234927, 0.2, -17.97, 326.07, 593.760009766, -35.3627728, 149.1648327, 0.944821476936, -0.0438750572503, -0.149950876832, -0.287927299738,0
2019-04-03 20:42:27.11,77334887, 0.21, -17.96, 326.06, 593.789978027, -35.3627691, 149.1648296, 0.944835960865, -0.0437936633825, -0.149843379855, -0.287948101759,0
2019-04-03 20:42:27.21,77434847, 0.18, -17.98, 326.06, 593.820007324, -35.3627655, 149.1648267, 0.94479316473, -0.0440781526268, -0.149965375662, -0.287981659174,0
2019-04-03 20:42:27.31,77534807, 0.15, -18.03, 326.06, 593.859985352, -35.3627618, 149.1648236, 0.944713413715, -0.0444486178458, -0.150350689888, -0.28798532486,0
2019-04-03 20:42:27.41,77634767, 0.13, -18.07, 326.07, 593.890014648, -35.3627581, 149.1648205, 0.944657981396, -0.0447202026844, -0.150623485446, -0.287982642651,0
2019-04-03 20:42:27.51,77734727, 0.12, -18.08, 326.07, 593.91998291, -35.3627544, 149.1648176, 0.944647192955, -0.0448148474097, -0.150659173727, -0.287984639406,0
2019-04-03 20:42:27.61,77834687, 0.11, -18.05, 326.06, 593.950012207, -35.3627507, 149.1648146, 0.944673538208, -0.0448589771986, -0.150405332446, -0.288023859262,0
2019-04-03 20:42:27.71,77934647, 0.09, -18.01, 326.06, 593.979980469, -35.362747, 149.1648116, 0.944718301296, -0.0448690913618, -0.149999842048, -0.288087069988,0
2019-04-03 20:42:27.81,78034607, 0.09, -17.97, 326.06, 594.020019531, -35.3627432, 149.1648085, 0.944754302502, -0.0448411516845, -0.149661764503, -0.288149148226,0
2019-04-03 20:42:27.91,78134567, 0.09, -17.95, 326.05, 594.049987793, -35.3627394, 149.1648056, 0.944775879383, -0.0447412021458, -0.149470031261, -0.28819334507,0
2019-04-03 20:42:28.01,78234527, 0.1, -17.93, 326.05, 594.08001709, -35.3627357, 149.1648026, 0.94478315115, -0.0446300767362, -0.149394720793, -0.288225889206,0
2019-04-03 20:42:28.11,78335320, 0.1, -17.94, 326.04, 594.109985352, -35.362732, 149.1647994, 0.944762408733, -0.0446401871741, -0.149457335472, -0.288259863853,0
2019-04-03 20:42:28.21,78435280, 0.1, -17.96, 326.04, 594.140014648, -35.3627284, 149.1647965, 0.944722473621, -0.0447145327926, -0.149607762694, -0.288301229477,0
2019-04-03 20:42:28.31,78535240, 0.09, -17.97, 326.03, 594.179992676, -35.3627246, 149.1647935, 0.944694519043, -0.0448015704751, -0.149655118585, -0.288354843855,0
2019-04-03 20:42:28.41,78635200, 0.09, -17.97, 326.03, 594.210021973, -35.3627209, 149.1647903, 0.944682180882, -0.0448754765093, -0.149595439434, -0.288414567709,0
2019-04-03 20:42:28.51,78735160, 0.06, -17.96, 326.02, 594.239990234, -35.3627172, 149.1647874, 0.944671928883, -0.0450693443418, -0.149443984032, -0.288496434689,0
2019-04-03 20:42:28.61,78835120, 0.04, -17.96, 326.02, 594.270019531, -35.3627135, 149.1647844, 0.944646477699, -0.0452740304172, -0.149417877197, -0.288561195135,0
2019-04-03 20:42:28.71,78935080, 0.03, -17.98, 326.01, 594.299987793, -35.3627098, 149.1647813, 0.94460195303, -0.0453649461269, -0.149611949921, -0.288592159748,0
2019-04-03 20:42:28.81,79035040, 0.04, -18.01, 326.01, 594.340026855, -35.362706, 149.1647784, 0.94456076622, -0.0453937724233, -0.149825677276, -0.288611710072,0
2019-04-03 20:42:28.91,79135000, 0.07, -18.01, 326.0, 594.369995117, -35.3627023, 149.1647753, 0.944551765919, -0.0451977066696, -0.149932563305, -0.288616299629,0
2019-04-03 20:42:29.01,79234960, 0.1, -18.03, 326.0, 594.400024414, -35.3626986, 149.1647722, 0.944536447525, -0.0449536181986, -0.1501160115, -0.288609236479,0
2019-04-03 20:42:29.11,79334920, 0.13, -18.04, 325.99, 594.429992676, -35.3626949, 149.1647693, 0.944523990154, -0.0447518639266, -0.150265827775, -0.288603276014,0
2019-04-03 20:42:29.21,79434880, 0.14, -18.04, 325.99, 594.460021973, -35.3626912, 149.1647663, 0.944520056248, -0.0446841232479, -0.150286212564, -0.288616210222,0
2019-04-03 20:42:29.31,79534840, 0.13, -18.03, 325.99, 594.489990234, -35.3626875, 149.1647631, 0.944525122643, -0.0446822792292, -0.15020160377, -0.288643866777,0
2019-04-03 20:42:29.41,79634800, 0.13, -18.03, 325.99, 594.530029297, -35.3626838, 149.1647602, 0.944515526295, -0.0446912795305, -0.150244086981, -0.288651674986,0
2019-04-03 20:42:29.51,79734760, 0.13, -18.05, 325.99, 594.559997559, -35.36268, 149.1647572, 0.944489777088, -0.0447430312634, -0.150401055813, -0.288646161556,0
2019-04-03 20:42:29.61,79834720, 0.13, -18.06, 325.99, 594.590026855, -35.3626762, 149.164754, 0.944481432438, -0.0447719655931, -0.150457784534, -0.288639515638,0
2019-04-03 20:42:29.71,79934680, 0.11, -18.05, 325.99, 594.619995117, -35.3626725, 149.1647511, 0.944485902786, -0.0449032597244, -0.150353252888, -0.288659095764,0
2019-04-03 20:42:29.81,80034640, 0.1, -18.03, 325.99, 594.650024414, -35.3626688, 149.1647481, 0.944510757923, -0.0449703037739, -0.150122895837, -0.288687080145,0
2019-04-03 20:42:29.91,80134600, 0.1, -18.0, 325.99, 594.690002441, -35.3626651, 149.1647449, 0.944545507431, -0.0448935963213, -0.149908557534, -0.288696676493,0
2019-04-03 20:42:30.01,80234560, 0.11, -17.98, 325.99, 594.719970703, -35.3626614, 149.164742, 0.944575488567, -0.0447350926697, -0.149771794677, -0.288694143295,0
2019-04-03 20:42:30.11,80334520, 0.13, -17.99, 325.99, 594.75, -35.3626577, 149.164739, 0.944566488266, -0.0446495190263, -0.149874091148, -0.288683921099,0
2019-04-03 20:42:30.21,80435313, 0.12, -18.01, 325.98, 594.780029297, -35.3626539, 149.1647358, 0.944524645805, -0.0447563529015, -0.150076553226, -0.288699030876,0
2019-04-03 20:42:30.31,80535273, 0.13, -18.05, 325.98, 594.820007324, -35.3626502, 149.1647329, 0.944474220276, -0.0447868667543, -0.150397077203, -0.288692384958,0
2019-04-03 20:42:30.41,80635233, 0.14, -18.07, 325.98, 594.849975586, -35.3626464, 149.1647299, 0.944456756115, -0.0447292588651, -0.150538623333, -0.288684785366,0
2019-04-03 20:42:30.51,80735193, 0.15, -18.07, 325.98, 594.880004883, -35.3626427, 149.1647267, 0.944458007812, -0.0446320548654, -0.150577023625, -0.28867572546,0
2019-04-03 20:42:30.61,80835153, 0.16, -18.07, 325.98, 594.909973145, -35.362639, 149.1647238, 0.944454133511, -0.0445573441684, -0.150643333793, -0.288665264845,0
2019-04-03 20:42:30.71,80935113, 0.17, -18.06, 325.98, 594.940002441, -35.3626353, 149.1647207, 0.94446593523, -0.0445092208683, -0.150571376085, -0.288671582937,0
2019-04-03 20:42:30.81,81035073, 0.17, -18.04, 325.98, 594.979980469, -35.3626316, 149.1647176, 0.944495558739, -0.0444461777806, -0.150388941169, -0.28867956996,0
2019-04-03 20:42:30.91,81135033, 0.17, -18.02, 325.98, 595.010009766, -35.3626278, 149.1647147, 0.944520771503, -0.044347897172, -0.1502520293, -0.288683474064,0
2019-04-03 20:42:31.01,81234993, 0.17, -18.0, 325.97, 595.039978027, -35.3626241, 149.1647116, 0.944536924362, -0.0443419553339, -0.150106698275, -0.288707047701,0
2019-04-03 20:42:31.11,81334953, 0.17, -18.0, 325.97, 595.070007324, -35.3626204, 149.1647085, 0.944530904293, -0.0443499237299, -0.150108262897, -0.288724690676,0
2019-04-03 20:42:31.21,81434913, 0.19, -18.04, 325.97, 595.109985352, -35.3626165, 149.1647056, 0.944490432739, -0.0442418456078, -0.150444462895, -0.288698732853,0
2019-04-03 20:42:31.31,81534873, 0.21, -18.07, 325.97, 595.140014648, -35.3626128, 149.1647025, 0.944455862045, -0.0441724918783, -0.150723740458, -0.288676798344,0
2019-04-03 20:42:31.41,81634833, 0.22, -18.06, 325.97, 595.16998291, -35.3626092, 149.1646994, 0.944468379021, -0.0440577156842, -0.150716036558, -0.288657397032,0
2019-04-03 20:42:31.51,81734793, 0.21, -18.04, 325.97, 595.200012207, -35.3626054, 149.1646965, 0.944492816925, -0.0440773740411, -0.150523379445, -0.288674980402,0
2019-04-03 20:42:31.61,81834753, 0.2, -18.02, 325.97, 595.229980469, -35.3626017, 149.1646934, 0.944507837296, -0.0441443473101, -0.150349497795, -0.288706213236,0
