Start,TimeUS,Roll,Pitch,Yaw,Alt,Lat,Lng,Q1,Q2,Q3,Q4,Category
2019-04-03 21:33:18.21,45235232, 0.0, 0.0, 353.0, 584.090026855, -35.363261, 149.1652299, 0.998134791851, 0.0, 0.0, -0.0610485821962,0
2019-04-03 21:33:18.31,45335192, 0.0, 0.0, 353.0, 584.090026855, -35.363261, 149.1652299, 0.998134791851, 0.0, 0.0, -0.0610485821962,0
2019-04-03 21:33:18.41,45435152, 0.0, 0.0, 353.0, 584.090026855, -35.363261, 149.1652299, 0.998134791851, 0.0, 0.0, -0.0610485821962,0
2019-04-03 21:33:18.51,45535112, 0.0, 0.0, 353.0, 584.090026855, -35.363261, 149.1652299, 0.998134791851, 0.0, 0.0, -0.0610485821962,0
2019-04-03 21:33:18.61,45635072, 0.0, 0.0, 353.0, 584.090026855, -35.363261, 149.1652299, 0.998134791851, 0.0, 0.0, -0.0610485821962,0
2019-04-03 21:33:18.71,45735032, 0.0, 0.0, 353.0, 584.090026855, -35.363261, 149.1652299, 0.998134791851, 0.0, 0.0, -0.0610485821962,0
2019-04-03 21:33:18.81,45834992, 0.0, 0.0, 353.0, 584.090026855, -35.363261, 149.1652299, 0.998134791851, 0.0, 0.0, -0.0610485821962,0
2019-04-03 21:33:18.91,45934952, 0.0, 0.0, 353.0, 584.090026855, -35.363261, 149.1652299, 0.998134791851, 0.0, 0.0, -0.0610485821962,0
2019-04-03 21:33:19.01,46034912, 0.0, 0.0, 353.0, 584.090026855, -35.363261, 149.1652299, 0.998134791851, 0.0, 0.0, -0.0610485821962,0
2019-04-03 21:33:19.11,46134872, 0.0, 0.0, 353.0, 584.090026855, -35.363261, 149.1652299, 0.998134791851, 0.0, 0.0, -0.0610485821962,0
2019-04-03 21:33:19.21,46234832, 0.0, 0.0, 353.0, 584.090026855, -35.363261, 149.1652299, 0.998134791851, 0.0, 0.0, -0.0610485821962,0
2019-04-03 21:33:19.31,46334792, 0.0, 0.0, 353.0, 584.090026855, -35.363261, 149.1652299, 0.998134791851, 0.0, 0.0, -0.0610485821962,0
2019-04-03 21:33:19.41,46434752, 0.0, 0.0, 353.0, 584.090026855, -35.363261, 149.1652299, 0.998134791851, 0.0, 0.0, -0.0610485821962,0
2019-04-03 21:33:19.51,46534712, 0.0, 0.0, 353.0, 584.090026855, -35.363261, 149.1652299, 0.998134791851, 0.0, 0.0, -0.0610485821962,0
2019-04-03 21:33:19.61,46634672, 0.0, 0.0, 353.0, 584.090026855, -35.363261, 149.1652299, 0.998134791851, 0.0, 0.0, -0.0610485821962,0
2019-04-03 21:33:19.71,46734632, 0.0, 0.0, 353.0, 584.090026855, -35.363261, 149.1652299, 0.998134791851, 0.0, 0.0, -0.0610485821962,0
2019-04-03 21:33:19.81,46834592, 0.0, 0.0, 353.0, 584.090026855, -35.363261, 149.1652299, 0.998134791851, 0.0, 0.0, -0.0610485821962,0
2019-04-03 21:33:19.91,46934552, 0.0, 0.0, 353.0, 584.090026855, -35.363261, 149.1652299, 0.998134791851, 0.0, 0.0, -0.0610485821962,0
2019-04-03 21:33:20.01,47034512, 0.0, 0.0, 353.0, 584.090026855, -35.363261, 149.1652299, 0.998134791851, 0.0, 0.0, -0.0610485821962,0
2019-04-03 21:33:20.11,47134472, 0.0, 0.0, 353.0, 584.090026855, -35.363261, 149.1652299, 0.998134791851, 0.0, 0.0, -0.0610485821962,0
2019-04-03 21:33:20.22,47235265, 0.0, 0.0, 353.0, 584.090026855, -35.363261, 149.1652299, 0.998134791851, 0.0, 0.0, -0.0610485821962,0
2019-04-03 21:33:20.31,47335225, 0.0, 0.0, 353.0, 584.090026855, -35.363261, 149.1652299, 0.998134791851, 0.0, 0.0, -0.0610485821962,0
2019-04-03 21:33:20.41,47435185, 0.0, 0.0, 353.0, 584.090026855, -35.363261, 149.1652299, 0.998134791851, 0.0, 0.0, -0.0610485821962,0
2019-04-03 21:33:20.51,47535145, 0.0, 0.0, 353.0, 584.090026855, -35.363261, 149.1652299, 0.998134791851, 0.0, 0.0, -0.0610485821962,0
2019-04-03 21:33:20.61,47635105, 0.0, 0.0, 353.0, 584.090026855, -35.363261, 149.1652299, 0.998134791851, 0.0, 0.0, -0.0610485821962,0
2019-04-03 21:33:20.71,47735065, 0.0, 0.0, 353.0, 584.090026855, -35.363261, 149.1652299, 0.998134791851, 0.0, 0.0, -0.0610485821962,0
2019-04-03 21:33:20.81,47835025, 0.0, 0.0, 353.0, 584.090026855, -35.363261, 149.1652299, 0.998134791851, 0.0, 0.0, -0.0610485821962,0
2019-04-03 21:33:20.91,47934985, 0.0, 0.0, 353.0, 584.090026855, -35.363261, 149.1652299, 0.998134791851, 0.0, 0.0, -0.0610485821962,0
2019-04-03 21:33:21.01,48034945, 0.0, 0.0, 353.0, 584.090026855, -35.363261, 149.1652299, 0.998134791851, 0.0, 0.0, -0.0610485821962,0
2019-04-03 21:33:21.11,48134905, 0.0, 0.0, 353.0, 584.090026855, -35.363261, 149.1652299, 0.998134791851, 0.0, 0.0, -0.0610485821962,0
2019-04-03 21:33:21.21,48234865, 0.0, 0.0, 353.0, 584.090026855, -35.363261, 149.1652299, 0.998134791851, 0.0, 0.0, -0.0610485821962,0
2019-04-03 21:33:21.31,48334825, 0.0, 0.0, 353.0, 584.090026855, -35.363261, 149.1652299, 0.998134791851, 0.0, 0.0, -0.0610485821962,0
2019-04-03 21:33:21.41,48434785, 0.0, 0.0, 353.0, 584.090026855, -35.363261, 149.1652299, 0.998134791851, 0.0, 0.0, -0.0610485821962,0
2019-04-03 21:33:21.51,48534745, 0.0, 0.0, 353.0, 584.090026855, -35.363261, 149.1652299, 0.998134791851, 0.0, 0.0, -0.0610485821962,0
2019-04-03 21:33:21.61,48634705, 0.0, 0.0, 353.0, 584.090026855, -35.363261, 149.1652299, 0.998134791851, 0.0, 0.0, -0.0610485821962,0
2019-04-03 21:33:21.71,48734665, 0.0, 0.0, 353.0, 584.090026855, -35.363261, 149.1652299, 0.998134791851, 0.0, 0.0, -0.0610485821962,0
2019-04-03 21:33:21.81,48834625, 0.0, 0.0, 353.0, 584.090026855, -35.363261, 149.1652299, 0.998134791851, 0.0, 0.0, -0.0610485821962,0
2019-04-03 21:33:21.91,48934585, 0.0, 0.0, 353.0, 584.090026855, -35.363261, 149.1652299, 0.998134791851, 0.0, 0.0, -0.0610485821962,0
2019-04-03 21:33:22.01,49034545, 0.0, 0.0, 353.0, 584.090026855, -35.363261, 149.1652299, 0.998134791851, 0.0, 0.0, -0.0610485821962,0
2019-04-03 21:33:22.11,49134505, 0.0, 0.0, 353.0, 584.090026855, -35.363261, 149.1652299, 0.998134791851, 0.0, 0.0, -0.0610485821962,0
2019-04-03 21:33:22.21,49234465, 0.0, 0.0, 353.0, 584.090026855, -35.363261, 149.1652299, 0.998134791851, 0.0, 0.0, -0.0610485821962,0
2019-04-03 21:33:22.32,49335258, 0.0, 0.0, 353.0, 584.090026855, -35.363261, 149.1652299, 0.998134791851, 0.0, 0.0, -0.0610485821962,0
2019-04-03 21:33:22.41,49435218, 0.0, 0.0, 353.0, 584.090026855, -35.363261, 149.1652299, 0.998134791851, 0.0, 0.0, -0.0610485821962,0
2019-04-03 21:33:22.51,49535178, 0.0, 0.0, 353.0, 584.090026855, -35.363261, 149.1652299, 0.998134791851, 0.0, 0.0, -0.0610485821962,0
2019-04-03 21:33:22.61,49635138, 0.0, 0.0, 353.0, 584.090026855, -35.363261, 149.1652299, 0.998134791851, 0.0, 0.0, -0.0610485821962,0
2019-04-03 21:33:22.71,49735098, 0.0, 0.0, 353.0, 584.090026855, -35.363261, 149.1652299, 0.998134791851, 0.0, 0.0, -0.0610485821962,0
2019-04-03 21:33:22.81,49835058, 0.0, 0.0, 353.0, 584.090026855, -35.363261, 149.1652299, 0.998134791851, 0.0, 0.0, -0.0610485821962,0
2019-04-03 21:33:22.91,49935018, 0.0, 0.0, 353.0, 584.090026855, -35.363261, 149.1652299, 0.998134791851, 0.0, 0.0, -0.0610485821962,0
2019-04-03 21:33:23.01,50034978, 0.0, 0.0, 353.0, 584.090026855, -35.363261, 149.1652299, 0.998134791851, 0.0, 0.0, -0.0610485821962,0
2019-04-03 21:33:23.11,50134938, 0.0, 0.0, 353.0, 584.090026855, -35.363261, 149.1652299, 0.998134791851, 0.0, 0.0, -0.0610485821962,0
2019-04-03 21:33:23.21,50234898, 0.0, 0.0, 353.0, 584.090026855, -35.363261, 149.1652299, 0.998134791851, 0.0, 0.0, -0.0610485821962,0
2019-04-03 21:33:23.31,50334858, 0.0, 0.0, 353.0, 584.090026855, -35.363261, 149.1652299, 0.998134791851, 0.0, 0.0, -0.0610485821962,0
2019-04-03 21:33:23.41,50434818, 0.0, 0.0, 353.0, 584.090026855, -35.363261, 149.1652299, 0.998134791851, 0.0, 0.0, -0.0610485821962,0
2019-04-03 21:33:23.51,50534778, 0.0, 0.0, 353.0, 584.090026855, -35.363261, 149.1652299, 0.998134791851, 0.0, 0.0, -0.0610485821962,0
2019-04-03 21:33:23.61,50634738, 0.0, 0.0, 353.0, 584.090026855, -35.363261, 149.1652299, 0.998134791851, 0.0, 0.0, -0.0610485821962,0
2019-04-03 21:33:23.71,50734698, 0.0, 0.0, 353.0, 584.090026855, -35.363261, 149.1652299, 0.998134791851, 0.0, 0.0, -0.0610485821962,0
2019-04-03 21:33:23.81,50834658, 0.0, 0.0, 353.0, 584.090026855, -35.363261, 149.1652299, 0.998134791851, 0.0, 0.0, -0.0610485821962,0
2019-04-03 21:33:23.91,50934618, 0.0, 0.0, 353.0, 584.090026855, -35.363261, 149.1652299, 0.998134791851, 0.0, 0.0, -0.0610485821962,0
2019-04-03 21:33:24.01,51034578, 0.0, 0.0, 353.0, 584.090026855, -35.363261, 149.1652299, 0.998134791851, 0.0, 0.0, -0.0610485821962,0
2019-04-03 21:33:24.11,51134538, 0.0, 0.0, 353.0, 584.090026855, -35.363261, 149.1652299, 0.998134791851, 0.0, 0.0, -0.0610485821962,0
2019-04-03 21:33:24.21,51234498, 0.0, 0.0, 353.0, 584.090026855, -35.363261, 149.1652299, 0.998134791851, 0.0, 0.0, -0.0610485821962,0
2019-04-03 21:33:24.31,51334458, 0.0, 0.0, 353.0, 584.090026855, -35.363261, 149.1652299, 0.998134791851, 0.0, 0.0, -0.0610485821962,0
2019-04-03 21:33:24.42,51435251, 0.0, 0.0, 353.0, 584.090026855, -35.363261, 149.1652299, 0.998134791851, 0.0, 0.0, -0.0610485821962,0
2019-04-03 21:33:24.51,51535211, 0.0, 0.0, 353.0, 584.090026855, -35.363261, 149.1652299, 0.998134791851, 0.0, 0.0, -0.0610485821962,0
2019-04-03 21:33:24.61,51635171, 0.0, 0.0, 353.0, 584.090026855, -35.363261, 149.1652299, 0.998134791851, 0.0, 0.0, -0.0610485821962,0
2019-04-03 21:33:24.71,51735131, 0.0, 0.0, 353.0, 584.090026855, -35.363261, 149.1652299, 0.998134791851, 0.0, 0.0, -0.0610485821962,0
2019-04-03 21:33:24.81,51835091, 0.0, 0.0, 353.0, 584.090026855, -35.363261, 149.1652299, 0.998134791851, 0.0, 0.0, -0.0610485821962,0
2019-04-03 21:33:24.91,51935051, 0.0, 0.0, 353.0, 584.090026855, -35.363261, 149.1652299, 0.998134791851, 0.0, 0.0, -0.0610485821962,0
2019-04-03 21:33:25.01,52035011, 0.0, 0.0, 353.0, 584.090026855, -35.363261, 149.1652299, 0.998134791851, 0.0, 0.0, -0.0610485821962,0
2019-04-03 21:33:25.11,52134971, 0.0, 0.0, 353.0, 584.090026855, -35.363261, 149.1652299, 0.998134791851, 0.0, 0.0, -0.0610485821962,0
2019-04-03 21:33:25.21,52234931, 0.0, 0.0, 353.0, 584.090026855, -35.363261, 149.1652299, 0.998134791851, 0.0, 0.0, -0.0610485821962,0
2019-04-03 21:33:25.31,52334891, 0.0, 0.0, 353.0, 584.090026855, -35.363261, 149.1652299, 0.998134791851, 0.0, 0.0, -0.0610485821962,0
2019-04-03 21:33:25.41,52434851, 0.0, 0.0, 353.0, 584.090026855, -35.363261, 149.1652299, 0.998134791851, 0.0, 0.0, -0.0610485821962,0
2019-04-03 21:33:25.51,52534811, 0.0, 0.0, 353.0, 584.090026855, -35.363261, 149.1652299, 0.998134791851, 0.0, 0.0, -0.0610485821962,0
2019-04-03 21:33:25.61,52634771, 0.0, 0.0, 353.0, 584.090026855, -35.363261, 149.1652299, 0.998134791851, 0.0, 0.0, -0.0610485821962,0
2019-04-03 21:33:25.71,52734731, 0.0, 0.0, 353.0, 584.090026855, -35.363261, 149.1652299, 0.998134791851, 0.0, 0.0, -0.0610485821962,0
2019-04-03 21:33:25.81,52834691, 0.0, 0.0, 353.0, 584.090026855, -35.363261, 149.1652299, 0.998134791851, 0.0, 0.0, -0.0610485821962,0
2019-04-03 21:33:25.91,52934651, 0.0, 0.0, 353.0, 584.090026855, -35.363261, 149.1652299, 0.998134791851, 0.0, 0.0, -0.0610485821962,0
2019-04-03 21:33:26.01,53034611, 0.0, 0.0, 353.0, 584.090026855, -35.363261, 149.1652299, 0.998134791851, 0.0, 0.0, -0.0610485821962,0
2019-04-03 21:33:26.11,53134571, 0.0, 0.0, 353.0, 584.090026855, -35.363261, 149.1652299, 0.998134791851, 0.0, 0.0, -0.0610485821962,0
2019-04-03 21:33:26.21,53234531, 0.0, 0.0, 353.0, 584.090026855, -35.363261, 149.1652299, 0.998134791851, 0.0, 0.0, -0.0610485821962,0
2019-04-03 21:33:26.31,53334491, 0.0, 0.0, 353.0, 584.090026855, -35.363261, 149.1652299, 0.998134791851, 0.0, 0.0, -0.0610485821962,0
2019-04-03 21:33:26.41,53434451, 0.0, 0.0, 353.0, 584.090026855, -35.363261, 149.1652299, 0.998134791851, 0.0, 0.0, -0.0610485821962,0
2019-04-03 21:33:26.52,53535244, 0.0, 0.0, 353.0, 584.090026855, -35.363261, 149.1652299, 0.998134791851, 0.0, 0.0, -0.0610485821962,0
2019-04-03 21:33:26.61,53635204, 0.0, 0.0, 353.0, 584.090026855, -35.363261, 149.1652299, 0.998134791851, 0.0, 0.0, -0.0610485821962,0
2019-04-03 21:33:26.71,53735164, 0.0, 0.0, 353.0, 584.090026855, -35.363261, 149.1652299, 0.998134791851, 0.0, 0.0, -0.0610485821962,0
2019-04-03 21:33:26.81,53835124, 0.0, 0.0, 353.0, 584.090026855, -35.363261, 149.1652299, 0.998134791851, 0.0, 0.0, -0.0610485821962,0
2019-04-03 21:33:26.91,53935084, 0.0, 0.0, 353.0, 584.090026855, -35.363261, 149.1652299, 0.998134791851, 0.0, 0.0, -0.0610485821962,0
2019-04-03 21:33:27.01,54035044, 0.0, 0.0, 353.0, 584.090026855, -35.363261, 149.1652299, 0.998134791851, 0.0, 0.0, -0.0610485821962,0
2019-04-03 21:33:27.11,54135004, 0.0, 0.0, 353.0, 584.090026855, -35.363261, 149.1652299, 0.998134791851, 0.0, 0.0, -0.0610485821962,0
2019-04-03 21:33:27.21,54234964, 0.0, 0.0, 353.0, 584.090026855, -35.363261, 149.1652299, 0.998134791851, 0.0, 0.0, -0.0610485821962,0
2019-04-03 21:33:27.31,54334924, 0.0, 0.0, 353.0, 584.090026855, -35.363261, 149.1652299, 0.998134791851, 0.0, 0.0, -0.0610485821962,0
2019-04-03 21:33:27.41,54434884, 0.0, 0.0, 353.0, 584.090026855, -35.363261, 149.1652299, 0.998134791851, 0.0, 0.0, -0.0610485821962,0
2019-04-03 21:33:27.51,54534844, 0.0, 0.0, 353.0, 584.090026855, -35.363261, 149.1652299, 0.998134791851, 0.0, 0.0, -0.0610485821962,0
2019-04-03 21:33:27.61,54634804, 0.0, 0.0, 353.0, 584.090026855, -35.363261, 149.1652299, 0.998134791851, 0.0, 0.0, -0.0610485821962,0
2019-04-03 21:33:27.71,54734764, 0.0, 0.0, 353.0, 584.090026855, -35.363261, 149.1652299, 0.998134791851, 0.0, 0.0, -0.0610485821962,0
2019-04-03 21:33:27.81,54834724, 0.0, 0.0, 353.0, 584.090026855, -35.363261, 149.1652299, 0.998134791851, 0.0, 0.0, -0.0610485821962,0
2019-04-03 21:33:27.91,54934684, 0.0, 0.0, 353.0, 584.090026855, -35.363261, 149.1652299, 0.998134791851, 0.0, 0.0, -0.0610485821962,0
2019-04-03 21:33:28.01,55034644, 0.0, 0.0, 353.0, 584.090026855, -35.363261, 149.1652299, 0.998134791851, 0.0, 0.0, -0.0610485821962,0
2019-04-03 21:33:29.71,56734797, 0.0, 0.0, 353.0, 584.090026855, -35.363261, 149.1652299, 0.998134791851, 0.0, 0.0, -0.0610485821962,0
2019-04-03 21:33:29.81,56834757, 0.0, 0.0, 353.0, 584.090026855, -35.363261, 149.1652299, 0.998134791851, 0.0, 0.0, -0.0610485821962,0
2019-04-03 21:33:29.91,56934717, 0.0, 0.0, 353.0, 584.090026855, -35.363261, 149.1652299, 0.998134791851, 0.0, 0.0, -0.0610485821962,0
2019-04-03 21:33:30.01,57034677, 0.0, 0.0, 353.0, 584.090026855, -35.363261, 149.1652299, 0.998134791851, 0.0, 0.0, -0.0610485821962,0
2019-04-03 21:33:30.11,57134637, 0.0, 0.0, 353.0, 584.090026855, -35.363261, 149.1652299, 0.998134791851, 0.0, 0.0, -0.0610485821962,0
2019-04-03 21:33:30.21,57234597, 0.0, 0.0, 353.0, 584.090026855, -35.363261, 149.1652299, 0.998134791851, 0.0, 0.0, -0.0610485821962,0
2019-04-03 21:33:30.31,57334557, 0.0, 0.0, 353.0, 584.090026855, -35.363261, 149.1652299, 0.998134791851, 0.0, 0.0, -0.0610485821962,0
2019-04-03 21:33:30.41,57434517, 0.0, 0.0, 353.0, 584.090026855, -35.363261, 149.1652299, 0.998134791851, 0.0, 0.0, -0.0610485821962,0
2019-04-03 21:33:30.51,57534477, 0.0, 0.0, 353.0, 584.090026855, -35.363261, 149.1652299, 0.998134791851, 0.0, 0.0, -0.0610485821962,0
2019-04-03 21:33:30.62,57635270, 0.0, 0.0, 353.0, 584.090026855, -35.363261, 149.1652299, 0.998134791851, 0.0, 0.0, -0.0610485821962,0
2019-04-03 21:33:30.71,57735230, 0.0, 0.0, 353.0, 584.090026855, -35.363261, 149.1652299, 0.998134791851, 0.0, 0.0, -0.0610485821962,0
2019-04-03 21:33:30.81,57835190, 0.0, 0.0, 353.0, 584.090026855, -35.363261, 149.1652299, 0.998134791851, 0.0, 0.0, -0.0610485821962,0
2019-04-03 21:33:30.91,57935150, 0.0, 0.0, 353.0, 584.090026855, -35.363261, 149.1652299, 0.998134791851, 0.0, 0.0, -0.0610485821962,0
2019-04-03 21:33:31.01,58035110, 0.0, 0.0, 353.0, 584.090026855, -35.363261, 149.1652299, 0.998134791851, 0.0, 0.0, -0.0610485821962,0
2019-04-03 21:33:31.11,58135070, 0.0, 0.0, 353.0, 584.090026855, -35.363261, 149.1652299, 0.998134791851, 0.0, 0.0, -0.0610485821962,0
2019-04-03 21:33:31.21,58235030, 0.0, 0.0, 353.0, 584.090026855, -35.363261, 149.1652299, 0.998134791851, 0.0, 0.0, -0.0610485821962,0
2019-04-03 21:33:31.31,58334990, 0.0, 0.0, 353.0, 584.090026855, -35.363261, 149.1652299, 0.998134791851, 0.0, 0.0, -0.0610485821962,0
2019-04-03 21:33:31.41,58434950, 0.0, 0.0, 353.0, 584.090026855, -35.363261, 149.1652299, 0.998134791851, 0.0, 0.0, -0.0610485821962,0
2019-04-03 21:33:31.51,58534910, 0.0, 0.0, 353.0, 584.090026855, -35.363261, 149.1652299, 0.998134791851, 0.0, 0.0, -0.0610485821962,0
2019-04-03 21:33:31.61,58634870, 0.0, 0.0, 353.0, 584.090026855, -35.363261, 149.1652299, 0.998134791851, 0.0, 0.0, -0.0610485821962,0
2019-04-03 21:33:31.71,58734830, 0.0, 0.0, 353.0, 584.090026855, -35.363261, 149.1652299, 0.998134791851, 0.0, 0.0, -0.0610485821962,0
2019-04-03 21:33:31.81,58834790, 0.0, 0.0, 353.0, 584.090026855, -35.363261, 149.1652299, 0.998134791851, 0.0, 0.0, -0.0610485821962,0
2019-04-03 21:33:31.91,58934750, 0.0, 0.0, 353.0, 584.090026855, -35.363261, 149.1652299, 0.998134791851, 0.0, 0.0, -0.0610485821962,0
2019-04-03 21:33:32.01,59034710, 0.0, 0.0, 353.0, 584.090026855, -35.363261, 149.1652299, 0.998134791851, 0.0, 0.0, -0.0610485821962,0
2019-04-03 21:33:32.11,59134670, 0.0, 0.0, 353.0, 584.090026855, -35.363261, 149.1652299, 0.998134791851, 0.0, 0.0, -0.0610485821962,0
2019-04-03 21:33:32.21,59234630, 0.0, 0.0, 353.0, 584.090026855, -35.363261, 149.1652299, 0.998134791851, 0.0, 0.0, -0.0610485821962,0
2019-04-03 21:33:32.31,59334590, 0.0, 0.0, 353.0, 584.090026855, -35.363261, 149.1652299, 0.998134791851, 0.0, 0.0, -0.0610485821962,0
2019-04-03 21:33:32.41,59434550, 0.0, 0.0, 353.0, 584.090026855, -35.363261, 149.1652299, 0.998134791851, 0.0, 0.0, -0.0610485821962,0
2019-04-03 21:33:32.51,59534510, 0.0, 0.0, 353.0, 584.090026855, -35.363261, 149.1652299, 0.998134791851, 0.0, 0.0, -0.0610485821962,0
2019-04-03 21:33:32.61,59634470, 0.0, 0.0, 353.0, 584.090026855, -35.363261, 149.1652299, 0.998134791851, 0.0, 0.0, -0.0610485821962,0
2019-04-03 21:33:32.72,59735263, 0.0, 0.0, 353.0, 584.090026855, -35.363261, 149.1652299, 0.998134791851, 0.0, 0.0, -0.0610485821962,0
2019-04-03 21:33:32.81,59835223, 0.0, 0.0, 353.0, 584.090026855, -35.363261, 149.1652299, 0.998134791851, 0.0, 0.0, -0.0610485821962,0
2019-04-03 21:33:32.91,59935183, 0.0, 0.0, 353.0, 584.090026855, -35.363261, 149.1652299, 0.998134791851, 0.0, 0.0, -0.0610485821962,0
2019-04-03 21:33:33.01,60035143, 0.0, 0.0, 353.0, 584.090026855, -35.363261, 149.1652299, 0.998134791851, 0.0, 0.0, -0.0610485821962,0
2019-04-03 21:33:33.11,60135103, 0.0, 0.0, 353.0, 584.090026855, -35.363261, 149.1652299, 0.998134791851, 0.0, 0.0, -0.0610485821962,0
2019-04-03 21:33:33.21,60235063, 0.0, 0.0, 353.0, 584.090026855, -35.363261, 149.1652299, 0.998134791851, 0.0, 0.0, -0.0610485821962,0
2019-04-03 21:33:33.31,60335023, 0.0, 0.0, 353.0, 584.090026855, -35.363261, 149.1652299, 0.998134791851, 0.0, 0.0, -0.0610485821962,0
2019-04-03 21:33:33.41,60434983, 0.0, 0.0, 353.0, 584.090026855, -35.363261, 149.1652299, 0.998134791851, 0.0, 0.0, -0.0610485821962,0
2019-04-03 21:33:33.51,60534943, 0.0, 0.0, 353.0, 584.090026855, -35.363261, 149.1652299, 0.998134791851, 0.0, 0.0, -0.0610485821962,0
2019-04-03 21:33:33.61,60634903, 0.0, 0.0, 353.0, 584.090026855, -35.363261, 149.1652299, 0.998134791851, 0.0, 0.0, -0.0610485821962,0
2019-04-03 21:33:33.71,60734863, 0.0, 0.0, 353.0, 584.090026855, -35.363261, 149.1652299, 0.998134791851, 0.0, 0.0, -0.0610485821962,0
2019-04-03 21:33:33.81,60834823, 0.0, 0.0, 353.0, 584.090026855, -35.363261, 149.1652299, 0.998134791851, 0.0, 0.0, -0.0610485821962,0
2019-04-03 21:33:33.91,60934783, 0.0, 0.0, 353.0, 584.090026855, -35.363261, 149.1652299, 0.998134791851, 0.0, 0.0, -0.0610485821962,0
2019-04-03 21:33:34.01,61034743, 0.0, 0.0, 353.0, 584.090026855, -35.363261, 149.1652299, 0.998134791851, 0.0, 0.0, -0.0610485821962,0
2019-04-03 21:33:34.11,61134703, 0.0, 0.0, 353.0, 584.090026855, -35.363261, 149.1652299, 0.998134791851, 0.0, 0.0, -0.0610485821962,0
2019-04-03 21:33:34.21,61234663, 0.0, 0.0, 353.0, 584.090026855, -35.363261, 149.1652299, 0.998134791851, 0.0, 0.0, -0.0610485821962,0
2019-04-03 21:33:34.31,61334623, 0.0, 0.0, 353.0, 584.090026855, -35.363261, 149.1652299, 0.998134791851, 0.0, 0.0, -0.0610485821962,0
2019-04-03 21:33:34.41,61434583, 0.0, 0.0, 353.0, 584.090026855, -35.363261, 149.1652299, 0.998134791851, 0.0, 0.0, -0.0610485821962,0
2019-04-03 21:33:34.51,61534543, 0.0, 0.0, 353.0, 584.090026855, -35.363261, 149.1652299, 0.998134791851, 0.0, 0.0, -0.0610485821962,0
2019-04-03 21:33:34.61,61634503, 0.0, 0.0, 353.0, 584.090026855, -35.363261, 149.1652299, 0.998134791851, 0.0, 0.0, -0.0610485821962,0
2019-04-03 21:33:34.71,61734463, 0.0, 0.0, 353.0, 584.090026855, -35.363261, 149.1652299, 0.998134791851, 0.0, 0.0, -0.0610485821962,0
2019-04-03 21:33:34.82,61835256, 0.0, 0.0, 353.0, 584.090026855, -35.363261, 149.1652299, 0.998134791851, 0.0, 0.0, -0.0610485821962,0
2019-04-03 21:33:34.91,61935216, 0.0, 0.0, 353.0, 584.090026855, -35.363261, 149.1652299, 0.998134791851, 0.0, 0.0, -0.0610485821962,0
2019-04-03 21:33:35.01,62035176, 0.0, 0.0, 353.0, 584.090026855, -35.363261, 149.1652299, 0.998134791851, 0.0, 0.0, -0.0610485821962,0
2019-04-03 21:33:35.11,62135136, 0.0, 0.0, 353.0, 584.090026855, -35.363261, 149.1652299, 0.998134791851, 0.0, 0.0, -0.0610485821962,0
2019-04-03 21:33:35.21,62235096, 0.0, 0.0, 353.0, 584.090026855, -35.363261, 149.1652299, 0.998134791851, 0.0, 0.0, -0.0610486716032,0
2019-04-03 21:33:35.31,62335056, 0.0, 0.0, 353.0, 584.090026855, -35.363261, 149.1652299, 0.998134791851, 0.0, 0.0, -0.0610486753285,0
2019-04-03 21:33:35.41,62435016, 0.0, 0.0, 353.0, 584.090026855, -35.363261, 149.1652299, 0.998134791851, 0.0, 0.0, -0.0610486753285,0
2019-04-03 21:33:35.51,62534976, 0.0, 0.0, 353.0, 584.090026855, -35.363261, 149.1652299, 0.998134791851, 0.0, 0.0, -0.0610486753285,0
2019-04-03 21:33:35.61,62634936, 0.0, 0.0, 353.0, 584.090026855, -35.363261, 149.1652299, 0.998134791851, 0.0, 0.0, -0.0610486753285,0
2019-04-03 21:33:35.71,62734896, 0.0, 0.0, 353.0, 584.090026855, -35.363261, 149.1652299, 0.998134791851, 0.0, 0.0, -0.0610486753285,0
2019-04-03 21:33:35.81,62834856, 0.0, 0.0, 353.0, 584.090026855, -35.363261, 149.1652299, 0.998134791851, 0.0, 0.0, -0.0610486753285,0
2019-04-03 21:33:35.91,62934816, 0.0, 0.0, 353.0, 584.090026855, -35.363261, 149.1652299, 0.998134791851, 0.0, 0.0, -0.0610486753285,0
2019-04-03 21:33:36.01,63034776, 0.0, 0.0, 353.0, 584.099975586, -35.363261, 149.1652299, 0.998134791851, 0.0, 0.0, -0.0610486753285,0
2019-04-03 21:33:36.11,63134736, 0.0, 0.0, 353.0, 584.099975586, -35.363261, 149.1652299, 0.998134791851, 0.0, 0.0, -0.0610486753285,0
2019-04-03 21:33:36.21,63234696, 0.0, 0.0, 353.0, 584.119995117, -35.363261, 149.1652299, 0.998134791851, 0.0, 0.0, -0.0610486753285,0
2019-04-03 21:33:36.31,63334656, 0.0, 0.0, 353.0, 584.140014648, -35.363261, 149.1652299, 0.998134791851, 0.0, 0.0, -0.0610486753285,0
2019-04-03 21:33:36.41,63434616, 0.0, 0.0, 353.0, 584.16998291, -35.363261, 149.1652299, 0.998134791851, 0.0, 0.0, -0.0610486753285,0
2019-04-03 21:33:36.51,63534576, 0.0, 0.0, 353.0, 584.210021973, -35.363261, 149.1652299, 0.998134791851, 0.0, 0.0, -0.0610486753285,0
2019-04-03 21:33:36.61,63634536, -0.02, -0.01, 352.99, 584.260009766, -35.363261, 149.1652299, 0.998134672642, -0.000189764177776, -0.000134899368277, -0.0610503219068,0
2019-04-03 21:33:36.71,63734496, -0.08, -0.06, 352.99, 584.369995117, -35.363261, 149.1652299, 0.998133599758, -0.000798622844741, -0.000538032792974, -0.0610609203577,0
2019-04-03 21:33:36.81,63834456, -0.15, -0.12, 352.99, 584.510009766, -35.363261, 149.1652299, 0.998131513596, -0.00142244889867, -0.00101497746073, -0.0610773861408,0
2019-04-03 21:33:36.92,63935249, -0.18, -0.14, 352.99, 584.66998291, -35.363261, 149.1652299, 0.998129487038, -0.00171327218413, -0.00120245723519, -0.0611001588404,0
2019-04-03 21:33:37.01,64035209, -0.19, -0.15, 352.99, 584.83001709, -35.363261, 149.1652299, 0.998127579689, -0.0017730438849, -0.00120773690287, -0.0611294172704,0
2019-04-03 21:33:37.11,64135169, -0.17, -0.12, 352.98, 584.979980469, -35.363261, 149.1652299, 0.998126327991, -0.0015812193742, -0.000988217187114, -0.0611588135362,0
2019-04-03 21:33:37.21,64235129, -0.11, -0.06, 352.98, 585.130004883, -35.363261, 149.1652299, 0.998125612736, -0.00104617490433, -0.00046582435607, -0.0611883960664,0
2019-04-03 21:33:37.31,64335089, -0.04, -0.01, 352.98, 585.289978027, -35.363261, 149.1652299, 0.998124182224, -0.000386308034649, -0.000136195812956, -0.061220061034,0
2019-04-03 21:33:37.41,64435049, 0.0, -0.01, 352.97, 585.450012207, -35.363261, 149.1652299, 0.998122990131, 4.5041408157e-05, -0.000104513776023, -0.0612415038049,0
2019-04-03 21:33:37.51,64535009, 0.02, 0.0, 352.97, 585.630004883, -35.363261, 149.1652299, 0.99812245369, 0.000243399408646, -8.07682081359e-05, -0.0612495020032,0
2019-04-03 21:33:37.61,64634969, 0.03, 0.01, 352.97, 585.799987793, -35.363261, 149.1652299, 0.998122930527, 0.000297972466797, 7.48759193812e-05, -0.0612410232425,0
2019-04-03 21:33:37.71,64734929, 0.02, 0.02, 352.97, 585.979980469, -35.363261, 149.1652298, 0.998123943806, 0.000245886360062, 0.000214032232179, -0.0612254552543,0
2019-04-03 21:33:37.81,64834889, 0.0, 0.02, 352.98, 586.16998291, -35.363261, 149.1652298, 0.998125374317, -1.03334195956e-05, 0.000235107800108, -0.0612026713789,0
2019-04-03 21:33:37.91,64934849, -0.03, 0.0, 352.98, 586.359985352, -35.363261, 149.1652298, 0.998126685619, -0.00033743007225, 7.69569451222e-05, -0.0611808262765,0
2019-04-03 21:33:38.01,65034809, -0.06, 0.01, 352.98, 586.549987793, -35.363261, 149.1652298, 0.998127996922, -0.00054061418632, 0.000152382839588, -0.0611578784883,0
2019-04-03 21:33:38.11,65134769, -0.05, 0.04, 352.98, 586.75, -35.3632609, 149.1652298, 0.998129069805, -0.000449809478596, 0.000392500078306, -0.0611389912665,0
2019-04-03 21:33:38.21,65234729, -0.02, 0.05, 352.99, 586.950012207, -35.3632609, 149.1652298, 0.998129546642, -0.000154748078785, 0.000485014985316, -0.0611324831843,0
2019-04-03 21:33:38.31,65334689, 0.0, 0.05, 352.98, 587.150024414, -35.3632609, 149.1652298, 0.998128890991, -2.15561776713e-05, 0.000463072472485, -0.0611436627805,0
2019-04-03 21:33:38.41,65434649, -0.01, 0.03, 352.98, 587.349975586, -35.3632609, 149.1652298, 0.998127698898, -0.000141859520227, 0.000325821893057, -0.061163470149,0
2019-04-03 21:33:38.51,65534609, -0.05, 0.01, 352.98, 587.549987793, -35.3632609, 149.1652298, 0.998126029968, -0.000510185433086, 0.000190119506442, -0.0611901320517,0
2019-04-03 21:33:38.61,65634569, -0.08, 0.0, 352.98, 587.760009766, -35.3632609, 149.1652298, 0.998124539852, -0.000754264474381, 0.00011049832392, -0.0612114369869,0
2019-04-03 21:33:38.71,65734529, -0.08, 0.0, 352.97, 587.969970703, -35.3632609, 149.1652298, 0.998122692108, -0.000739184208214, 1.88598733075e-05, -0.0612414926291,0
2019-04-03 21:33:38.81,65834489, -0.06, 0.0, 352.97, 588.179992676, -35.3632609, 149.1652298, 0.998120903969, -0.000612080504652, -1.31583565235e-05, -0.0612720437348,0
2019-04-03 21:33:38.91,65934449, -0.04, 0.0, 352.97, 588.390014648, -35.3632609, 149.1652298, 0.998119235039, -0.000434600806329, -2.76595765172e-05, -0.0613006912172,0
2019-04-03 21:33:39.02,66035242, -0.03, -0.01, 352.96, 588.599975586, -35.3632609, 149.1652298, 0.998118042946, -0.000351074879291, -8.08489567135e-05, -0.0613209605217,0
2019-04-03 21:33:39.11,66135202, -0.03, -0.02, 352.96, 588.799987793, -35.3632609, 149.1652298, 0.998117387295, -0.000304990157019, -0.000201890579774, -0.0613311976194,0
2019-04-03 21:33:39.21,66235162, -0.02, -0.03, 352.96, 588.989990234, -35.3632609, 149.1652298, 0.998117089272, -0.000218741814024, -0.000277338869637, -0.0613369271159,0
2019-04-03 21:33:39.31,66335122, 0.0, -0.03, 352.96, 589.16998291, -35.3632609, 149.1652298, 0.998116970062, 4.523177995e-05, -0.000318591453834, -0.0613383725286,0
2019-04-03 21:33:39.41,66435082, 0.03, -0.04, 352.96, 589.340026855, -35.3632609, 149.1652297, 0.998117089272, 0.000320688210195, -0.000436471862486, -0.061335504055,0
2019-04-03 21:33:39.51,66535042, 0.0, -0.05, 352.96, 589.5, -35.3632609, 149.1652297, 0.998117208481, 3.05060916617e-06, -0.000517622742336, -0.0613334774971,0
2019-04-03 21:33:39.61,66635002, -0.2, -0.16, 352.96, 589.650024414, -35.3632609, 149.1652297, 0.998114645481, -0.00189217412844, -0.0013137483038, -0.0613346360624,0
2019-04-03 21:33:39.71,66734962, -0.65, -0.4, 352.96, 589.780029297, -35.3632609, 149.1652297, 0.998094439507, -0.00591184478253, -0.00316725927405, -0.0613397546113,0
2019-04-03 21:33:39.81,66834922, -1.34, -0.75, 352.97, 589.900024414, -35.3632609, 149.1652297, 0.998024880886, -0.0121383080259, -0.00587909389287, -0.0613546296954,0
2019-04-03 21:33:39.91,66934882, -2.2, -1.2, 352.98, 590.010009766, -35.3632609, 149.1652296, 0.997872233391, -0.0198886916041, -0.00933096371591, -0.0613873451948,0
2019-04-03 21:33:40.01,67034842, -3.13, -1.69, 352.99, 590.099975586, -35.3632608, 149.1652296, 0.997624397278, -0.0282469373196, -0.0130849583074, -0.0614529624581,0
2019-04-03 21:33:40.11,67134802, -4.0, -2.15, 353.0, 590.190002441, -35.3632608, 149.1652293, 0.997314155102, -0.0360086224973, -0.0166158806533, -0.0615772008896,0
2019-04-03 21:33:40.21,67234762, -4.7, -2.53, 353.01, 590.260009766, -35.3632607, 149.1652292, 0.997000217438, -0.0423490405083, -0.0195439029485, -0.0617674402893,0
2019-04-03 21:33:40.31,67334722, -5.23, -2.83, 353.0, 590.320007324, -35.3632605, 149.1652289, 0.996724069118, -0.0470822677016, -0.021887967363, -0.0620108358562,0
2019-04-03 21:33:40.41,67434682, -5.61, -3.07, 352.99, 590.380004883, -35.3632604, 149.1652286, 0.996497273445, -0.0505083017051, -0.0237250681967, -0.0622834861279,0
2019-04-03 21:33:40.51,67534642, -5.91, -3.25, 352.98, 590.41998291, -35.3632604, 149.1652282, 0.996304988861, -0.0531934723258, -0.0251275468618, -0.0625729486346,0
2019-04-03 21:33:40.61,67634602, -6.19, -3.41, 352.96, 590.460021973, -35.3632602, 149.1652277, 0.996113419533, -0.0557696036994, -0.0263994541019, -0.0628560334444,0
2019-04-03 21:33:40.71,67734562, -6.5, -3.6, 352.95, 590.5, -35.3632599, 149.165227, 0.995898723602, -0.0585411116481, -0.0278382692486, -0.063116542995,0
2019-04-03 21:33:40.81,67834522, -6.83, -3.8, 352.94, 590.530029297, -35.3632598, 149.1652264, 0.995661854744, -0.0614812858403, -0.0293882973492, -0.0633547380567,0
2019-04-03 21:33:40.91,67934482, -7.1, -3.97, 352.93, 590.559997559, -35.3632596, 149.1652255, 0.995448827744, -0.0639837905765, -0.0307619515806, -0.063572704792,0
2019-04-03 21:33:41.01,68034442, -7.31, -4.1, 352.93, 590.590026855, -35.3632592, 149.1652246, 0.995283663273, -0.0658330619335, -0.0317872986197, -0.0637652128935,0
2019-04-03 21:33:41.11,68135235, -7.45, -4.2, 352.92, 590.609985352, -35.363259, 149.1652238, 0.995166480541, -0.0670838803053, -0.0324997641146, -0.0639319121838,0
2019-04-03 21:33:41.21,68235195, -7.55, -4.25, 352.91, 590.630004883, -35.3632586, 149.1652227, 0.99508368969, -0.0679865628481, -0.0328903496265, -0.0640667080879,0
2019-04-03 21:33:41.31,68335155, -7.65, -4.28, 352.9, 590.650024414, -35.3632583, 149.1652216, 0.995009183884, -0.0688659846783, -0.0331146754324, -0.0641695857048,0
2019-04-03 21:33:41.41,68435115, -7.78, -4.31, 352.9, 590.66998291, -35.3632579, 149.1652203, 0.994914591312, -0.0700696110725, -0.0332784354687, -0.0642481595278,0
2019-04-03 21:33:41.51,68535075, -8.07, -4.23, 352.78, 590.679992676, -35.3632574, 149.1652192, 0.994699835777, -0.0725339725614, -0.0323833487928, -0.0652872249484,0
2019-04-03 21:33:41.61,68635035, -8.57, -4.0, 352.03, 590.700012207, -35.363257, 149.1652178, 0.994001090527, -0.0769987180829, -0.0295984745026, -0.0718123018742,0
2019-04-03 21:33:41.71,68734995, -9.17, -3.86, 349.94, 590.710021973, -35.3632566, 149.1652164, 0.992158353329, -0.0825933218002, -0.0265043713152, -0.089986898005,0
2019-04-03 21:33:41.81,68834955, -9.58, -4.15, 346.2, 590.729980469, -35.3632561, 149.1652149, 0.988275825977, -0.0872307345271, -0.0258251260966, -0.122616246343,0
2019-04-03 21:33:41.91,68934915, -9.6, -4.99, 340.91, 590.739990234, -35.3632556, 149.1652131, 0.981167435646, -0.0896824747324, -0.0289421640337, -0.168611526489,0
2019-04-03 21:33:42.01,69034875, -9.11, -6.34, 334.35, 590.760009766, -35.3632553, 149.1652115, 0.969506800175, -0.0896047353745, -0.03618735075, -0.225206658244,0
2019-04-03 21:33:42.11,69134835, -8.07, -8.02, 326.78, 590.770019531, -35.3632548, 149.1652097, 0.952163755894, -0.0872273519635, -0.0468092449009, -0.289109796286,0
2019-04-03 21:33:42.21,69234795, -6.48, -9.79, 318.5, 590.789978027, -35.3632543, 149.1652078, 0.928520679474, -0.0828901678324, -0.0597411543131, -0.356944918633,0
2019-04-03 21:33:42.31,69334755, -4.43, -11.39, 309.76, 590.799987793, -35.3632538, 149.1652058, 0.898669242859, -0.0769764557481, -0.0734815597534, -0.425521612167,0
2019-04-03 21:33:42.41,69434715, -2.0, -12.63, 300.9, 590.820007324, -35.3632534, 149.1652037, 0.863574564457, -0.0693776383996, -0.0871693342924, -0.491759300232,0
2019-04-03 21:33:42.51,69534675, 0.87, -13.34, 292.48, 590.83001709, -35.3632529, 149.1652015, 0.826258838177, -0.058229919523, -0.100784756243, -0.551133453846,0
2019-04-03 21:33:42.61,69634635, 3.79, -13.46, 285.41, 590.849975586, -35.3632523, 149.1651992, 0.791961014271, -0.044852476567, -0.113173082471, -0.598312497139,0
2019-04-03 21:33:42.71,69734595, 6.2, -13.21, 280.32, 590.869995117, -35.3632516, 149.1651968, 0.765660226345, -0.0322853699327, -0.122658461332, -0.630616366863,0
2019-04-03 21:33:42.81,69834555, 7.71, -12.88, 277.41, 590.880004883, -35.3632507, 149.1651944, 0.749871015549, -0.023641474545, -0.128186777234, -0.648616015911,0
2019-04-03 21:33:42.91,69934515, 8.17, -12.7, 276.44, 590.900024414, -35.36325, 149.165192, 0.744530856609, -0.0207488462329, -0.129492238164, -0.654580056667,0
2019-04-03 21:33:43.01,70034475, 7.64, -12.8, 277.06, 590.91998291, -35.3632489, 149.1651895, 0.747936367989, -0.0240653958172, -0.127261638641, -0.651011943817,0
2019-04-03 21:33:43.12,70135268, 6.32, -13.2, 278.89, 590.940002441, -35.363248, 149.1651867, 0.757772624493, -0.032966863364, -0.122862756252, -0.639998912811,0
2019-04-03 21:33:43.21,70235228, 4.52, -13.79, 281.54, 590.960021973, -35.3632469, 149.1651841, 0.771430552006, -0.0455336794257, -0.117687866092, -0.623675525188,0
2019-04-03 21:33:43.31,70335188, 2.5, -14.42, 284.66, 590.979980469, -35.3632458, 149.1651814, 0.786817133427, -0.0595277808607, -0.112604856491, -0.603900134563,0
2019-04-03 21:33:43.41,70435148, 0.52, -14.98, 287.93, 591.010009766, -35.3632446, 149.1651785, 0.802114486694, -0.0730112418532, -0.108100637794, -0.582748651505,0
2019-04-03 21:33:43.51,70535108, -1.2, -15.37, 290.98, 591.030029297, -35.3632434, 149.1651756, 0.815794289112, -0.0843545794487, -0.10437682271, -0.56255620718,0
2019-04-03 21:33:43.61,70635068, -2.49, -15.59, 293.5, 591.049987793, -35.3632422, 149.1651726, 0.82674741745, -0.0924314782023, -0.101570665836, -0.545553445816,0
2019-04-03 21:33:43.71,70735028, -3.29, -15.64, 295.27, 591.08001709, -35.363241, 149.1651695, 0.834400415421, -0.0968551412225, -0.0997029840946, -0.533342540264,0
2019-04-03 21:33:43.81,70834988, -3.57, -15.62, 296.23, 591.099975586, -35.36324, 149.1651662, 0.838604271412, -0.098021671176, -0.0990186259151, -0.526621282101,0
2019-04-03 21:33:43.91,70934948, -3.43, -15.58, 296.4, 591.119995117, -35.3632389, 149.1651628, 0.83955770731, -0.0966379493475, -0.0995323359966, -0.525259315968,0
2019-04-03 21:33:44.01,71034908, -2.97, -15.58, 295.91, 591.150024414, -35.3632378, 149.1651594, 0.837680399418, -0.0937006101012, -0.10121460259, -0.528457522392,0
2019-04-03 21:33:44.11,71134868, -2.29, -15.63, 294.93, 591.16998291, -35.3632367, 149.1651561, 0.833622217178, -0.0898720324039, -0.103973962367, -0.534964025021,0
2019-04-03 21:33:44.21,71234828, -1.48, -15.73, 293.66, 591.190002441, -35.3632355, 149.1651525, 0.828173816204, -0.0856243446469, -0.107500880957, -0.543360114098,0
2019-04-03 21:33:44.31,71334788, -0.65, -15.85, 292.3, 591.219970703, -35.3632345, 149.1651489, 0.822143733501, -0.0815192982554, -0.111435309052, -0.55228292942,0
2019-04-03 21:33:44.41,71434748, 0.1, -16.0, 291.02, 591.239990234, -35.3632333, 149.1651453, 0.816295027733, -0.0781069174409, -0.115261748433, -0.560603618622,0
2019-04-03 21:33:44.51,71534708, 0.68, -16.12, 289.95, 591.270019531, -35.3632322, 149.1651415, 0.81129771471, -0.0756540596485, -0.118248142302, -0.56752961874,0
2019-04-03 21:33:44.61,71634668, 1.06, -16.18, 289.18, 591.289978027, -35.363231, 149.1651378, 0.807640969753, -0.0740450844169, -0.120081678033, -0.572550296783,0
2019-04-03 21:33:44.71,71734628, 1.26, -16.19, 288.74, 591.309997559, -35.3632298, 149.165134, 0.805549800396, -0.0731765925884, -0.120814487338, -0.575446426868,0
2019-04-03 21:33:44.81,71834588, 1.28, -16.18, 288.61, 591.340026855, -35.3632286, 149.1651301, 0.80496352911, -0.0731383040547, -0.120789222419, -0.576276421547,0
2019-04-03 21:33:44.91,71934548, 1.13, -16.17, 288.77, 591.359985352, -35.3632274, 149.1651262, 0.805660963058, -0.0739460960031, -0.120055526495, -0.575351297855,0
2019-04-03 21:33:45.01,72034508, 0.86, -16.15, 289.13, 591.380004883, -35.3632261, 149.1651223, 0.807310819626, -0.0754137858748, -0.118834152818, -0.573097229004,0
2019-04-03 21:33:45.11,72134468, 0.53, -16.17, 289.62, 591.409973145, -35.3632249, 149.1651183, 0.809515595436, -0.077266074717, -0.117667786777, -0.569972574711,0
2019-04-03 21:33:45.22,72235261, 0.2, -16.22, 290.16, 591.429992676, -35.3632236, 149.1651143, 0.8119135499, -0.0793496370316, -0.116730049253, -0.566457509995,0
2019-04-03 21:33:45.31,72335221, -0.09, -16.29, 290.67, 591.450012207, -35.3632222, 149.1651102, 0.814168155193, -0.0812667831779, -0.116071820259, -0.563074886799,0
2019-04-03 21:33:45.41,72435181, -0.32, -16.34, 291.11, 591.479980469, -35.3632209, 149.1651062, 0.816083848476, -0.0827264711261, -0.115612439811, -0.560176134109,0
2019-04-03 21:33:45.51,72535141, -0.47, -16.38, 291.43, 591.5, -35.3632197, 149.165102, 0.817493379116, -0.0837008431554, -0.11543854326, -0.558007776737,0
2019-04-03 21:33:45.61,72635101, -0.54, -16.45, 291.62, 591.530029297, -35.3632184, 149.1650979, 0.818314373493, -0.0842801257968, -0.115711353719, -0.556659162045,0
2019-04-03 21:33:45.71,72735061, -0.54, -16.51, 291.69, 591.549987793, -35.3632171, 149.1650937, 0.818575799465, -0.084498859942, -0.116208791733, -0.556137740612,0
2019-04-03 21:33:45.81,72835021, -0.47, -16.54, 291.65, 591.570007324, -35.3632157, 149.1650895, 0.818384170532, -0.0842090025544, -0.116690836847, -0.556362748146,0
2019-04-03 21:33:45.91,72934981, -0.36, -16.54, 291.52, 591.599975586, -35.3632143, 149.1650852, 0.817842662334, -0.0835921913385, -0.117186948657, -0.557147145271,0
2019-04-03 21:33:46.01,73034941, -0.22, -16.56, 291.34, 591.619995117, -35.363213, 149.1650809, 0.817056596279, -0.0828539654613, -0.117820210755, -0.558276116848,0
2019-04-03 21:33:46.11,73134901, -0.07, -16.58, 291.14, 591.640014648, -35.3632117, 149.1650766, 0.816170275211, -0.0820360407233, -0.118607364595, -0.559525251389,0
2019-04-03 21:33:46.21,73234861, 0.07, -16.62, 290.95, 591.66998291, -35.3632104, 149.1650723, 0.815281510353, -0.08142362535, -0.119515195489, -0.560715973377,0
2019-04-03 21:33:46.31,73334821, 0.16, -16.67, 290.78, 591.690002441, -35.3632091, 149.165068, 0.81449764967, -0.0811350271106, -0.120151050389, -0.561760127544,0
2019-04-03 21:33:46.41,73434781, 0.2, -16.7, 290.66, 591.719970703, -35.3632076, 149.1650637, 0.813897907734, -0.0811469256878, -0.12051397562, -0.562549412251,0
2019-04-03 21:33:46.51,73534741, 0.21, -16.73, 290.59, 591.739990234, -35.3632063, 149.1650593, 0.813541173935, -0.0812793150544, -0.120704747736, -0.563005208969,0
2019-04-03 21:33:46.61,73634701, 0.22, -16.74, 290.58, 591.760009766, -35.363205, 149.1650549, 0.81344640255, -0.0813188701868, -0.120819874108, -0.563111662865,0
2019-04-03 21:33:46.71,73734661, 0.23, -16.75, 290.6, 591.789978027, -35.3632036, 149.1650503, 0.813577353954, -0.0812694728374, -0.120911113918, -0.562909960747,0
2019-04-03 21:33:46.81,73834621, 0.22, -16.77, 290.66, 591.809997559, -35.3632021, 149.165046, 0.813845515251, -0.081385910511, -0.121097281575, -0.562465369701,0
2019-04-03 21:33:46.91,73934581, 0.19, -16.81, 290.75, 591.840026855, -35.3632008, 149.1650415, 0.814196586609, -0.0817273557186, -0.12126814574, -0.561870634556,0
2019-04-03 21:33:47.01,74034541, 0.14, -16.85, 290.84, 591.859985352, -35.3631994, 149.1650371, 0.814591348171, -0.0821658968925, -0.121364749968, -0.561213254929,0
2019-04-03 21:33:47.11,74134501, 0.08, -16.88, 290.94, 591.890014648, -35.363198, 149.1650326, 0.814978420734, -0.0826196447015, -0.121365182102, -0.560584306717,0
2019-04-03 21:33:47.21,74234461, 0.03, -16.91, 291.02, 591.909973145, -35.3631965, 149.165028, 0.815317332745, -0.0830336511135, -0.121349610388, -0.560033321381,0
2019-04-03 21:33:47.32,74335254, 0.0, -16.94, 291.09, 591.929992676, -35.3631952, 149.1650235, 0.815571069717, -0.0834114328027, -0.121444232762, -0.559587001801,0
2019-04-03 21:33:47.41,74435214, -0.02, -16.96, 291.13, 591.960021973, -35.3631936, 149.1650189, 0.815758347511, -0.0835367515683, -0.121528670192, -0.559276998043,0
2019-04-03 21:33:47.51,74535174, -0.02, -16.97, 291.15, 591.979980469, -35.3631923, 149.1650144, 0.815856158733, -0.0835730060935, -0.121627449989, -0.559107303619,0
2019-04-03 21:33:47.61,74635134, 0.0, -17.0, 291.16, 592.010009766, -35.3631909, 149.1650098, 0.815852940083, -0.0835919827223, -0.121962510049, -0.559036314487,0
2019-04-03 21:33:47.71,74735094, 0.03, -17.06, 291.14, 592.030029297, -35.3631895, 149.1650052, 0.815761268139, -0.0836341455579, -0.122547097504, -0.55903583765,0
2019-04-03 21:33:47.81,74835054, 0.05, -17.11, 291.12, 592.059997559, -35.363188, 149.1650005, 0.81561923027, -0.0837441161275, -0.123030036688, -0.559120595455,0
2019-04-03 21:33:47.91,74935014, 0.05, -17.15, 291.1, 592.08001709, -35.3631866, 149.164996, 0.815448820591, -0.0840047001839, -0.123247236013, -0.559282183647,0
2019-04-03 21:33:48.01,75034974, 0.02, -17.17, 291.07, 592.099975586, -35.363185, 149.1649914, 0.81529122591, -0.0842768400908, -0.123256549239, -0.559468924999,0
2019-04-03 21:33:48.11,75134934, 0.02, -17.18, 291.05, 592.130004883, -35.3631837, 149.1649867, 0.815168976784, -0.0843915566802, -0.12324359268, -0.559632539749,0
2019-04-03 21:33:48.21,75234894, 0.03, -17.2, 291.03, 592.150024414, -35.3631822, 149.1649821, 0.815071344376, -0.0844158604741, -0.123503796756, -0.55971378088,0
2019-04-03 21:33:48.31,75334854, 0.05, -17.24, 291.02, 592.179992676, -35.3631807, 149.1649774, 0.815005540848, -0.0844446271658, -0.123832307756, -0.559732675552,0
2019-04-03 21:33:48.41,75434814, 0.08, -17.26, 291.02, 592.200012207, -35.3631793, 149.1649727, 0.814983308315, -0.0844228193164, -0.12414880842, -0.559698283672,0
2019-04-03 21:33:48.51,75534774, 0.09, -17.27, 291.03, 592.229980469, -35.3631777, 149.164968, 0.815015077591, -0.0843164846301, -0.124247960746, -0.559645950794,0
2019-04-03 21:33:48.61,75634734, 0.1, -17.28, 291.04, 592.25, -35.3631763, 149.1649634, 0.81504803896, -0.0843667238951, -0.124398767948, -0.55955684185,0
2019-04-03 21:33:48.71,75734694, 0.08, -17.3, 291.05, 592.270019531, -35.3631747, 149.1649587, 0.815089941025, -0.0845327079296, -0.124491654336, -0.559450149536,0
2019-04-03 21:33:48.81,75834654, 0.05, -17.33, 291.07, 592.299987793, -35.3631733, 149.1649539, 0.815125346184, -0.0848499163985, -0.124537140131, -0.559340417385,0
2019-04-03 21:33:48.91,75934614, 0.01, -17.36, 291.09, 592.320007324, -35.3631719, 149.1649492, 0.815145492554, -0.0852750763297, -0.124566681683, -0.55923974514,0
2019-04-03 21:33:49.01,76034574, -0.02, -17.38, 291.1, 592.349975586, -35.3631704, 149.1649445, 0.815165400505, -0.0856498628855, -0.124513477087, -0.559165358543,0
2019-04-03 21:33:49.11,76134534, -0.04, -17.4, 291.11, 592.369995117, -35.3631689, 149.1649397, 0.815174937248, -0.0858914032578, -0.124609418213, -0.559093058109,0
2019-04-03 21:33:49.21,76234494, -0.04, -17.43, 291.12, 592.400024414, -35.3631674, 149.1649349, 0.81517291069, -0.0860561206937, -0.124753341079, -0.559038519859,0
2019-04-03 21:33:49.31,76334454, -0.03, -17.45, 291.12, 592.41998291, -35.3631659, 149.1649301, 0.81517547369, -0.0860951095819, -0.12497729063, -0.558978796005,0
2019-04-03 21:33:49.42,76435247, -0.01, -17.47, 291.12, 592.450012207, -35.3631643, 149.1649253, 0.815179109573, -0.0859899669886, -0.125203803182, -0.558938980103,0
2019-04-03 21:33:49.51,76535207, 0.0, -17.48, 291.12, 592.469970703, -35.3631628, 149.1649205, 0.81517291069, -0.0859212651849, -0.125366315246, -0.558922171593,0
2019-04-03 21:33:49.61,76635167, 0.0, -17.49, 291.12, 592.489990234, -35.3631613, 149.1649158, 0.815140485764, -0.0859866514802, -0.125433802605, -0.558944225311,0
2019-04-03 21:33:49.71,76735127, 0.0, -17.49, 291.11, 592.520019531, -35.3631598, 149.164911, 0.815104424953, -0.0860812142491, -0.12539832294, -0.558990240097,0
2019-04-03 21:33:49.81,76835087, 0.0, -17.5, 291.11, 592.539978027, -35.3631582, 149.1649062, 0.81507152319, -0.0861096531153, -0.125468149781, -0.559018135071,0
2019-04-03 21:33:49.91,76935047, 0.01, -17.53, 291.1, 592.570007324, -35.3631568, 149.1649013, 0.815025866032, -0.0861273780465, -0.125802710652, -0.559006810188,0
2019-04-03 21:33:50.01,77035007, 0.05, -17.57, 291.1, 592.590026855, -35.3631552, 149.1648965, 0.814998030663, -0.0860369503498, -0.126291930676, -0.558951020241,0
2019-04-03 21:33:50.11,77134967, 0.1, -17.59, 291.1, 592.619995117, -35.3631538, 149.1648917, 0.815015733242, -0.0857855081558, -0.126588091254, -0.558896899223,0
2019-04-03 21:33:50.21,77234927, 0.12, -17.58, 291.1, 592.640014648, -35.3631522, 149.1648868, 0.815061688423, -0.0855355039239, -0.126640051603, -0.558856368065,0
2019-04-03 21:33:50.31,77334887, 0.12, -17.57, 291.11, 592.659973145, -35.3631507, 149.164882, 0.815095722675, -0.085503205657, -0.126579269767, -0.55882537365,0
2019-04-03 21:33:50.41,77434847, 0.08, -17.6, 291.11, 592.690002441, -35.3631491, 149.164877, 0.815057754517, -0.0859697535634, -0.126585796475, -0.558807790279,0
2019-04-03 21:33:50.51,77534807, 0.04, -17.66, 291.12, 592.710021973, -35.3631476, 149.1648722, 0.814999461174, -0.0865073055029, -0.126824185252, -0.558755755424,0
2019-04-03 21:33:50.61,77634767, 0.02, -17.7, 291.13, 592.739990234, -35.3631461, 149.1648674, 0.81496566534, -0.086881801486, -0.127066701651, -0.558691799641,0
2019-04-03 21:33:50.71,77734727, 0.01, -17.73, 291.13, 592.760009766, -35.3631446, 149.1648625, 0.814968705177, -0.0870337858796, -0.127216845751, -0.558629631996,0
2019-04-03 21:33:50.81,77834687, 0.01, -17.72, 291.14, 592.789978027, -35.363143, 149.1648576, 0.815015256405, -0.0869597122073, -0.127147167921, -0.558589100838,0
2019-04-03 21:33:50.91,77934647, 0.0, -17.69, 291.15, 592.809997559, -35.3631415, 149.1648526, 0.815062403679, -0.0868709683418, -0.126897141337, -0.558590948582,0
2019-04-03 21:33:51.01,78034607, 0.0, -17.66, 291.15, 592.840026855, -35.3631399, 149.1648478, 0.815096020699, -0.0867981910706, -0.126632511616, -0.558613300323,0
2019-04-03 21:33:51.11,78134567, 0.0, -17.63, 291.15, 592.859985352, -35.3631383, 149.1648429, 0.815130889416, -0.0866252034903, -0.126468554139, -0.558626413345,0
2019-04-03 21:33:51.21,78234527, 0.01, -17.63, 291.14, 592.880004883, -35.3631368, 149.164838, 0.815132439137, -0.0865297466516, -0.126517727971, -0.558627784252,0
2019-04-03 21:33:51.31,78334487, 0.01, -17.65, 291.14, 592.909973145, -35.3631352, 149.164833, 0.815088391304, -0.0866754353046, -0.126612856984, -0.558647930622,0
2019-04-03 21:33:51.41,78434447, 0.0, -17.68, 291.14, 592.929992676, -35.3631337, 149.1648282, 0.815018832684, -0.0869140625, -0.126754149795, -0.558680295944,0
2019-04-03 21:33:51.52,78535240, -0.01, -17.7, 291.13, 592.960021973, -35.3631321, 149.1648232, 0.814958930016, -0.0871073976159, -0.126818239689, -0.558723032475,0
2019-04-03 21:33:51.61,78635200, -0.02, -17.69, 291.12, 592.979980469, -35.3631306, 149.1648183, 0.814926326275, -0.0871524214745, -0.12676680088, -0.558775186539,0
2019-04-03 21:33:51.71,78735160, -0.04, -17.69, 291.12, 593.010009766, -35.363129, 149.1648133, 0.814889967442, -0.0872806608677, -0.126629158854, -0.558839380741,0
2019-04-03 21:33:51.81,78835120, -0.05, -17.71, 291.11, 593.030029297, -35.3631275, 149.1648084, 0.814841628075, -0.0874575003982, -0.12670712173, -0.558864533901,0
2019-04-03 21:33:51.91,78935080, -0.05, -17.74, 291.11, 593.059997559, -35.3631259, 149.1648035, 0.814784407616, -0.087648011744, -0.126947462559, -0.558863580227,0
2019-04-03 21:33:52.01,79035040, -0.05, -17.77, 291.11, 593.08001709, -35.3631242, 149.1647985, 0.814748704433, -0.0877421721816, -0.127140149474, -0.558857083321,0
2019-04-03 21:33:52.11,79135000, -0.04, -17.78, 291.11, 593.099975586, -35.3631228, 149.1647936, 0.814740240574, -0.0877079069614, -0.127272427082, -0.558844745159,0
2019-04-03 21:33:52.21,79234960, -0.01, -17.8, 291.11, 593.130004883, -35.3631212, 149.1647885, 0.8147315979, -0.0876412168145, -0.127525314689, -0.558810114861,0
2019-04-03 21:33:52.31,79334920, 0.0, -17.82, 291.11, 593.150024414, -35.3631197, 149.1647836, 0.814726054668, -0.0875460281968, -0.127793386579, -0.558771848679,0
2019-04-03 21:33:52.41,79434880, 0.02, -17.83, 291.1, 593.179992676, -35.3631181, 149.1647787, 0.814720392227, -0.0875127464533, -0.127910703421, -0.558758437634,0
2019-04-03 21:33:52.51,79534840, 0.01, -17.82, 291.1, 593.200012207, -35.3631164, 149.1647736, 0.814716458321, -0.0875250026584, -0.127876937389, -0.558770060539,0
2019-04-03 21:33:52.61,79634800, 0.01, -17.84, 291.1, 593.229980469, -35.363115, 149.1647688, 0.814694106579, -0.0875985771418, -0.127980306745, -0.55876749754,0
2019-04-03 21:33:52.71,79734760, 0.02, -17.87, 291.1, 593.25, -35.3631133, 149.1647638, 0.814662098885, -0.0877037346363, -0.128189891577, -0.558749616146,0
2019-04-03 21:33:52.81,79834720, 0.02, -17.88, 291.1, 593.270019531, -35.3631118, 149.1647587, 0.814647138119, -0.0877475962043, -0.128330200911, -0.558732330799,0
2019-04-03 21:33:52.91,79934680, 0.01, -17.89, 291.1, 593.299987793, -35.3631102, 149.1647538, 0.814632773399, -0.0878550261259, -0.128313586116, -0.558740139008,0
2019-04-03 21:33:53.01,80034640, 0.0, -17.88, 291.1, 593.320007324, -35.3631087, 149.1647487, 0.81463265419, -0.0879201516509, -0.128140732646, -0.558769822121,0
2019-04-03 21:33:53.11,80134600, 0.0, -17.86, 291.1, 593.349975586, -35.3631071, 149.1647438, 0.814651370049, -0.0878429710865, -0.128005847335, -0.558785617352,0
2019-04-03 21:33:53.21,80234560, 0.01, -17.84, 291.1, 593.369995117, -35.3631054, 149.1647387, 0.814681410789, -0.0876735523343, -0.12798409164, -0.55877327919,0
2019-04-03 21:33:53.31,80334520, 0.02, -17.85, 291.1, 593.400024414, -35.3631039, 149.1647338, 0.814692378044, -0.0876185968518, -0.128099948168, -0.558739423752,0
2019-04-03 21:33:53.41,80434480, 0.02, -17.88, 291.11, 593.41998291, -35.3631023, 149.1647288, 0.814669489861, -0.0877627134323, -0.128319501877, -0.558699786663,0
2019-04-03 21:33:53.51,80534440, 0.03, -17.93, 291.11, 593.450012207, -35.3631008, 149.1647238, 0.81463098526, -0.0879231616855, -0.128760159016, -0.558629333973,0
2019-04-03 21:33:53.61,80635233, 0.04, -17.96, 291.11, 593.469970703, -35.3630992, 149.1647188, 0.814621567726, -0.0879539400339, -0.129004836082, -0.558581769466,0
2019-04-03 21:33:53.71,80735193, 0.05, -17.96, 291.11, 593.5, -35.3630975, 149.1647137, 0.814634442329, -0.0878938212991, -0.129065513611, -0.55855846405,0
2019-04-03 21:33:53.81,80835153, 0.06, -17.96, 291.11, 593.520019531, -35.363096, 149.1647087, 0.814641535282, -0.0878643095493, -0.129114791751, -0.558541297913,0
2019-04-03 21:33:53.91,80935113, 0.06, -17.95, 291.11, 593.549987793, -35.3630944, 149.1647037, 0.814657986164, -0.087785333395, -0.129012078047, -0.55855345726,0
2019-04-03 21:33:54.01,81035073, 0.06, -17.93, 291.11, 593.570007324, -35.3630927, 149.1646987, 0.814681053162, -0.0876599922776, -0.128890529275, -0.558567583561,0
2019-04-03 21:33:54.11,81135033, 0.08, -17.92, 291.11, 593.599975586, -35.3630912, 149.1646936, 0.81470644474, -0.0874910727143, -0.128861218691, -0.558563828468,0
2019-04-03 21:33:54.21,81234993, 0.08, -17.91, 291.11, 593.619995117, -35.3630895, 149.1646886, 0.814711391926, -0.0874776169658, -0.12878473103, -0.558576285839,0
2019-04-03 21:33:54.31,81334953, 0.07, -17.91, 291.11, 593.650024414, -35.363088, 149.1646836, 0.814701855183, -0.0875266566873, -0.128810942173, -0.558576583862,0
2019-04-03 21:33:54.41,81434913, 0.09, -17.95, 291.11, 593.66998291, -35.3630864, 149.1646784, 0.814684152603, -0.0875335633755, -0.129144892097, -0.55852419138,0
2019-04-03 21:33:54.51,81534873, 0.11, -17.97, 291.11, 593.690002441, -35.3630847, 149.1646735, 0.814666330814, -0.0875802114606, -0.129393979907, -0.558485150337,0
2019-04-03 21:33:54.61,81634833, 0.12, -17.98, 291.11, 593.719970703, -35.3630832, 149.1646685, 0.814664781094, -0.0875367000699, -0.129531756043, -0.558462321758,0
2019-04-03 21:33:54.71,81734793, 0.12, -17.98, 291.11, 593.739990234, -35.3630816, 149.1646634, 0.814671576023, -0.0874910801649, -0.129510074854, -0.558464646339,0
2019-04-03 21:33:54.81,81834753, 0.12, -17.97, 291.11, 593.770019531, -35.3630799, 149.1646583, 0.814681887627, -0.0874399095774, -0.129435092211, -0.558474957943,0
2019-04-03 21:33:54.91,81934713, 0.12, -17.96, 291.11, 593.789978027, -35.3630784, 149.1646533, 0.814684510231, -0.0874261036515, -0.129372626543, -0.558487772942,0
2019-04-03 21:33:55.01,82034673, 0.11, -17.97, 291.11, 593.820007324, -35.3630768, 149.1646482, 0.814663112164, -0.0875492841005, -0.129340395331, -0.558507144451,0
2019-04-03 21:33:55.11,82134633, 0.09, -17.97, 291.11, 593.840026855, -35.3630752, 149.1646432, 0.814636290073, -0.0877072364092, -0.12931022048, -0.558528542519,0
2019-04-03 21:33:55.21,82234593, 0.08, -17.97, 291.11, 593.859985352, -35.3630736, 149.1646381, 0.814627945423, -0.0877547115088, -0.129260957241, -0.558544635773,0
2019-04-03 21:33:55.31,82334553, 0.09, -17.96, 291.11, 593.890014648, -35.3630719, 149.1646331, 0.814637959003, -0.0876612812281, -0.129228115082, -0.558552265167,0
2019-04-03 21:33:55.41,82434513, 0.09, -17.95, 291.11, 593.909973145, -35.3630704, 149.164628, 0.814652562141, -0.0875438973308, -0.129161655903, -0.558564722538,0
2019-04-03 21:33:55.51,82534473, 0.1, -17.95, 291.1, 593.940002441, -35.3630688, 149.164623, 0.814653277397, -0.08747574687, -0.129193976521, -0.55856692791,0
2019-04-03 21:33:55.62,82635266, 0.11, -17.96, 291.1, 593.960021973, -35.3630671, 149.1646179, 0.814634680748, -0.0874804183841, -0.129341542721, -0.558559179306,0
2019-04-03 21:33:55.71,82735226, 0.12, -17.98, 291.1, 593.979980469, -35.3630655, 149.1646128, 0.814607203007, -0.0875377580523, -0.12948037684, -0.558558046818,0
2019-04-03 21:33:55.81,82835186, 0.11, -17.99, 291.1, 594.010009766, -35.3630639, 149.1646078, 0.814573049545, -0.0876667201519, -0.129494398832, -0.558584332466,0
2019-04-03 21:33:55.91,82935146, 0.1, -17.99, 291.09, 594.030029297, -35.3630622, 149.1646027, 0.814554512501, -0.087683185935, -0.129472255707, -0.558613955975,0
2019-04-03 21:33:56.01,83035106, 0.11, -17.98, 291.09, 594.059997559, -35.3630607, 149.1645977, 0.814551055431, -0.0875721275806, -0.129460006952, -0.558639228344,0
2019-04-03 21:33:56.11,83135066, 0.13, -17.98, 291.08, 594.08001709, -35.3630591, 149.1645926, 0.814539432526, -0.0874769613147, -0.129487767816, -0.558664679527,0
2019-04-03 21:33:56.21,83235026, 0.12, -18.0, 291.08, 594.109985352, -35.3630574, 149.1645874, 0.814477920532, -0.0876516029239, -0.129589542747, -0.558703482151,0
2019-04-03 21:33:56.31,83334986, 0.1, -18.02, 291.07, 594.130004883, -35.3630559, 149.1645825, 0.814398646355, -0.0879091992974, -0.129671409726, -0.558759510517,0
2019-04-03 21:33:56.41,83434946, 0.11, -18.04, 291.06, 594.150024414, -35.3630542, 149.1645773, 0.814346551895, -0.0879650190473, -0.129879340529, -0.55877840519,0
2019-04-03 21:33:56.51,83534906, 0.14, -18.06, 291.06, 594.179992676, -35.3630525, 149.1645724, 0.814317762852, -0.0878499001265, -0.130102932453, -0.558786392212,0
2019-04-03 21:33:56.61,83634866, 0.17, -18.05, 291.05, 594.200012207, -35.363051, 149.1645672, 0.814319729805, -0.0875555425882, -0.130241453648, -0.558797478676,0
2019-04-03 21:33:56.71,83734826, 0.19, -18.05, 291.04, 594.229980469, -35.3630494, 149.1645622, 0.814308404922, -0.087416395545, -0.13032528758, -0.558816194534,0
2019-04-03 21:33:56.81,83834786, 0.19, -18.06, 291.04, 594.25, -35.3630477, 149.1645571, 0.814285814762, -0.0874793455005, -0.130324915051, -0.558839321136,0
2019-04-03 21:33:56.91,83934746, 0.18, -18.06, 291.04, 594.280029297, -35.3630462, 149.164552, 0.814268112183, -0.0875596553087, -0.130298182368, -0.558858752251,0
2019-04-03 21:33:57.01,84034706, 0.17, -18.05, 291.04, 594.299987793, -35.3630445, 149.164547, 0.81426101923, -0.0875939950347, -0.130208447576, -0.558884739876,0
2019-04-03 21:33:57.11,84134666, 0.16, -18.04, 291.04, 594.320007324, -35.3630428, 149.1645419, 0.814253509045, -0.0876350477338, -0.130106329918, -0.558912932873,0
2019-04-03 21:33:57.21,84234626, 0.16, -18.05, 291.03, 594.349975586, -35.3630413, 149.1645367, 0.814230978489, -0.0876941084862, -0.130171447992, -0.558921337128,0
2019-04-03 21:33:57.31,84334586, 0.14, -18.07, 291.03, 594.369995117, -35.3630397, 149.1645318, 0.814187765121, -0.0878821536899, -0.130239933729, -0.558938741684,0
2019-04-03 21:33:57.41,84434546, 0.12, -18.09, 291.03, 594.390014648, -35.3630381, 149.1645266, 0.814136862755, -0.0881680473685, -0.13021568954, -0.558973610401,0
2019-04-03 21:33:57.51,84534506, 0.09, -18.09, 291.03, 594.41998291, -35.3630364, 149.1645216, 0.814108073711, -0.0883489400148, -0.130042180419, -0.559027373791,0
2019-04-03 21:33:57.61,84634466, 0.08, -18.07, 291.02, 594.440002441, -35.3630348, 149.1645165, 0.814103364944, -0.0883383378386, -0.129837751389, -0.559083402157,0
2019-04-03 21:33:57.72,84735259, 0.08, -18.05, 291.02, 594.469970703, -35.3630331, 149.1645113, 0.814098536968, -0.088253416121, -0.12973985076, -0.55912655592,0
2019-04-03 21:33:57.81,84835219, 0.11, -18.03, 291.01, 594.489990234, -35.3630316, 149.1645063, 0.814111888409, -0.0879166722298, -0.129785880446, -0.559149503708,0
2019-04-03 21:33:57.91,84935179, 0.15, -18.03, 291.0, 594.510009766, -35.3630299, 149.1645012, 0.814110696316, -0.087628878653, -0.129947796464, -0.559158802032,0
2019-04-03 21:33:58.01,85035139, 0.19, -18.05, 291.0, 594.539978027, -35.3630282, 149.164496, 0.814074873924, -0.087516091764, -0.130240336061, -0.559160530567,0
2019-04-03 21:33:58.11,85135099, 0.19, -18.07, 290.99, 594.559997559, -35.3630267, 149.1644911, 0.814013123512, -0.0876325890422, -0.130425959826, -0.559188961983,0
2019-04-03 21:33:58.21,85235059, 0.17, -18.09, 290.98, 594.590026855, -35.3630251, 149.1644859, 0.813934326172, -0.0878897681832, -0.130458459258, -0.55925565958,0
2019-04-03 21:33:58.31,85335019, 0.13, -18.09, 290.97, 594.609985352, -35.3630233, 149.1644809, 0.81387001276, -0.0881567448378, -0.130260273814, -0.559353470802,0
2019-04-03 21:33:58.41,85434979, 0.11, -18.07, 290.97, 594.640014648, -35.3630218, 149.1644758, 0.813841581345, -0.0882048159838, -0.129998996854, -0.559448003769,0
2019-04-03 21:33:58.51,85534939, 0.1, -18.06, 290.96, 594.659973145, -35.3630202, 149.1644706, 0.813820064068, -0.0881668478251, -0.129858776927, -0.559517860413,0
2019-04-03 21:33:58.61,85634899, 0.1, -18.04, 290.95, 594.679992676, -35.3630184, 149.1644656, 0.813794493675, -0.0881612375379, -0.12973318994, -0.559585034847,0
2019-04-03 21:33:58.71,85734859, 0.09, -18.04, 290.95, 594.710021973, -35.3630169, 149.1644605, 0.813758730888, -0.0882093757391, -0.129678085446, -0.559642255306,0
2019-04-03 21:33:58.81,85834819, 0.09, -18.05, 290.94, 594.729980469, -35.3630153, 149.1644553, 0.81372153759, -0.0882391557097, -0.1297442168, -0.559676289558,0
2019-04-03 21:33:58.91,85934779, 0.09, -18.1, 290.93, 594.760009766, -35.3630136, 149.1644503, 0.813637137413, -0.0885123163462, -0.130093291402, -0.559674859047,0
2019-04-03 21:33:59.01,86034739, 0.09, -18.15, 290.93, 594.780029297, -35.363012, 149.1644452, 0.813548207283, -0.0888090208173, -0.130427747965, -0.559679269791,0
2019-04-03 21:33:59.11,86134699, 0.08, -18.16, 290.92, 594.799987793, -35.3630104, 149.1644401, 0.813513576984, -0.0888909697533, -0.130407854915, -0.559721231461,0
