Start,TimeUS,Roll,Pitch,Yaw,Alt,Lat,Lng,Q1,Q2,Q3,Q4,Category
2019-04-03 19:07:19.10,41515887, 0.0, 0.0, 353.0, 584.090026855, -35.363261, 149.1652299, 0.998134791851, 0.0, 0.0, -0.0610485821962,0
2019-04-03 19:07:19.20,41615847, 0.0, 0.0, 353.0, 584.090026855, -35.363261, 149.1652299, 0.998134791851, 0.0, 0.0, -0.0610485821962,0
2019-04-03 19:07:19.29,41715807, 0.0, 0.0, 353.0, 584.090026855, -35.363261, 149.1652299, 0.998134791851, 0.0, 0.0, -0.0610485821962,0
2019-04-03 19:07:19.39,41815767, 0.0, 0.0, 353.0, 584.090026855, -35.363261, 149.1652299, 0.998134791851, 0.0, 0.0, -0.0610485821962,0
2019-04-03 19:07:19.49,41915727, 0.0, 0.0, 353.0, 584.090026855, -35.363261, 149.1652299, 0.998134791851, 0.0, 0.0, -0.0610485821962,0
2019-04-03 19:07:19.59,42015687, 0.0, 0.0, 353.0, 584.090026855, -35.363261, 149.1652299, 0.998134791851, 0.0, 0.0, -0.0610485821962,0
2019-04-03 19:07:19.70,42116480, 0.0, 0.0, 353.0, 584.090026855, -35.363261, 149.1652299, 0.998134791851, 0.0, 0.0, -0.0610485821962,0
2019-04-03 19:07:19.80,42216440, 0.0, 0.0, 353.0, 584.090026855, -35.363261, 149.1652299, 0.998134791851, 0.0, 0.0, -0.0610485821962,0
2019-04-03 19:07:19.90,42316400, 0.0, 0.0, 353.0, 584.090026855, -35.363261, 149.1652299, 0.998134791851, 0.0, 0.0, -0.0610485821962,0
2019-04-03 19:07:20.00,42416360, 0.0, 0.0, 353.0, 584.090026855, -35.363261, 149.1652299, 0.998134791851, 0.0, 0.0, -0.0610485821962,0
2019-04-03 19:07:20.10,42516320, 0.0, 0.0, 353.0, 584.090026855, -35.363261, 149.1652299, 0.998134791851, 0.0, 0.0, -0.0610485821962,0
2019-04-03 19:07:20.20,42616280, 0.0, 0.0, 353.0, 584.090026855, -35.363261, 149.1652299, 0.998134791851, 0.0, 0.0, -0.0610485821962,0
2019-04-03 19:07:20.30,42716240, 0.0, 0.0, 353.0, 584.090026855, -35.363261, 149.1652299, 0.998134791851, 0.0, 0.0, -0.0610485821962,0
2019-04-03 19:07:20.40,42816200, 0.0, 0.0, 353.0, 584.090026855, -35.363261, 149.1652299, 0.998134791851, 0.0, 0.0, -0.0610485821962,0
2019-04-03 19:07:20.50,42916160, 0.0, 0.0, 353.0, 584.090026855, -35.363261, 149.1652299, 0.998134791851, 0.0, 0.0, -0.0610485821962,0
2019-04-03 19:07:20.60,43016120, 0.0, 0.0, 353.0, 584.090026855, -35.363261, 149.1652299, 0.998134791851, 0.0, 0.0, -0.0610485821962,0
2019-04-03 19:07:20.70,43116080, 0.0, 0.0, 353.0, 584.090026855, -35.363261, 149.1652299, 0.998134791851, 0.0, 0.0, -0.0610485821962,0
2019-04-03 19:07:20.80,43216040, 0.0, 0.0, 353.0, 584.090026855, -35.363261, 149.1652299, 0.998134791851, 0.0, 0.0, -0.0610485821962,0
2019-04-03 19:07:20.90,43316000, 0.0, 0.0, 353.0, 584.090026855, -35.363261, 149.1652299, 0.998134791851, 0.0, 0.0, -0.0610485821962,0
2019-04-03 19:07:21.00,43415960, 0.0, 0.0, 353.0, 584.090026855, -35.363261, 149.1652299, 0.998134791851, 0.0, 0.0, -0.0610485821962,0
2019-04-03 19:07:21.10,43515920, 0.0, 0.0, 353.0, 584.090026855, -35.363261, 149.1652299, 0.998134791851, 0.0, 0.0, -0.0610485821962,0
2019-04-03 19:07:21.20,43615880, 0.0, 0.0, 353.0, 584.090026855, -35.363261, 149.1652299, 0.998134791851, 0.0, 0.0, -0.0610485821962,0
2019-04-03 19:07:21.29,43715840, 0.0, 0.0, 353.0, 584.090026855, -35.363261, 149.1652299, 0.998134791851, 0.0, 0.0, -0.0610485821962,0
2019-04-03 19:07:21.39,43815800, 0.0, 0.0, 353.0, 584.090026855, -35.363261, 149.1652299, 0.998134791851, 0.0, 0.0, -0.0610485821962,0
2019-04-03 19:07:21.49,43915760, 0.0, 0.0, 353.0, 584.090026855, -35.363261, 149.1652299, 0.998134791851, 0.0, 0.0, -0.0610485821962,0
2019-04-03 19:07:21.59,44015720, 0.0, 0.0, 353.0, 584.090026855, -35.363261, 149.1652299, 0.998134791851, 0.0, 0.0, -0.0610485821962,0
2019-04-03 19:07:21.69,44115680, 0.0, 0.0, 353.0, 584.090026855, -35.363261, 149.1652299, 0.998134791851, 0.0, 0.0, -0.0610485821962,0
2019-04-03 19:07:21.80,44216473, 0.0, 0.0, 353.0, 584.090026855, -35.363261, 149.1652299, 0.998134791851, 0.0, 0.0, -0.0610485821962,0
2019-04-03 19:07:21.90,44316433, 0.0, 0.0, 353.0, 584.090026855, -35.363261, 149.1652299, 0.998134791851, 0.0, 0.0, -0.0610485821962,0
2019-04-03 19:07:22.00,44416393, 0.0, 0.0, 353.0, 584.090026855, -35.363261, 149.1652299, 0.998134791851, 0.0, 0.0, -0.0610485821962,0
2019-04-03 19:07:22.10,44516353, 0.0, 0.0, 353.0, 584.090026855, -35.363261, 149.1652299, 0.998134791851, 0.0, 0.0, -0.0610485821962,0
2019-04-03 19:07:22.20,44616313, 0.0, 0.0, 353.0, 584.090026855, -35.363261, 149.1652299, 0.998134791851, 0.0, 0.0, -0.0610485821962,0
2019-04-03 19:07:22.30,44716273, 0.0, 0.0, 353.0, 584.090026855, -35.363261, 149.1652299, 0.998134791851, 0.0, 0.0, -0.0610485821962,0
2019-04-03 19:07:22.40,44816233, 0.0, 0.0, 353.0, 584.090026855, -35.363261, 149.1652299, 0.998134791851, 0.0, 0.0, -0.0610486492515,0
2019-04-03 19:07:22.50,44916193, 0.0, 0.0, 353.0, 584.090026855, -35.363261, 149.1652299, 0.998134791851, 0.0, 0.0, -0.0610485933721,0
2019-04-03 19:07:22.60,45016153, 0.0, 0.0, 353.0, 584.090026855, -35.363261, 149.1652299, 0.998134791851, 0.0, 0.0, -0.0610486604273,0
2019-04-03 19:07:22.70,45116113, 0.0, 0.0, 353.0, 584.090026855, -35.363261, 149.1652299, 0.998134791851, 0.0, 0.0, -0.0610486753285,0
2019-04-03 19:07:22.80,45216073, 0.0, 0.0, 353.0, 584.090026855, -35.363261, 149.1652299, 0.998134791851, 0.0, 0.0, -0.0610486641526,0
2019-04-03 19:07:22.90,45316033, 0.0, 0.0, 353.0, 584.090026855, -35.363261, 149.1652299, 0.998134791851, 0.0, 0.0, -0.0610486529768,0
2019-04-03 19:07:23.00,45415993, 0.0, 0.0, 353.0, 584.090026855, -35.363261, 149.1652299, 0.998134791851, 0.0, 0.0, -0.0610486753285,0
2019-04-03 19:07:23.10,45515953, 0.0, 0.0, 353.0, 584.090026855, -35.363261, 149.1652299, 0.998134791851, 0.0, 0.0, -0.0610486641526,0
2019-04-03 19:07:23.20,45615913, 0.0, 0.0, 353.0, 584.099975586, -35.363261, 149.1652299, 0.998134791851, 0.0, 0.0, -0.0610486753285,0
2019-04-03 19:07:23.30,45715873, 0.0, 0.0, 353.0, 584.099975586, -35.363261, 149.1652299, 0.998134791851, 0.0, 0.0, -0.0610486641526,0
2019-04-03 19:07:23.39,45815833, 0.0, 0.0, 353.0, 584.109985352, -35.363261, 149.1652299, 0.998134791851, 0.0, 0.0, -0.0610486753285,0
2019-04-03 19:07:23.49,45915793, 0.0, 0.0, 353.0, 584.130004883, -35.363261, 149.1652299, 0.998134791851, 0.0, 0.0, -0.0610486716032,0
2019-04-03 19:07:23.59,46015753, 0.0, 0.0, 353.0, 584.159973145, -35.363261, 149.1652299, 0.998134791851, 0.0, 0.0, -0.0610486753285,0
2019-04-03 19:07:23.69,46115713, 0.0, 0.0, 353.0, 584.200012207, -35.363261, 149.1652299, 0.998134791851, 0.0, 0.0, -0.0610486753285,0
2019-04-03 19:07:23.79,46215673, 0.0, 0.0, 352.99, 584.239990234, -35.363261, 149.1652299, 0.998134732246, -5.94031598666e-06, 4.56889165434e-06, -0.0610497295856,0
2019-04-03 19:07:23.90,46316466, 0.0, 0.0, 352.99, 584.33001709, -35.363261, 149.1652299, 0.998134374619, 5.40126820852e-05, 5.48003527001e-06, -0.0610557980835,0
2019-04-03 19:07:24.00,46416426, 0.01, -0.01, 352.99, 584.469970703, -35.363261, 149.1652299, 0.998133897781, 0.000128691608552, -0.00016404048074, -0.061062887311,0
2019-04-03 19:07:24.10,46516386, 0.0, -0.03, 352.99, 584.630004883, -35.363261, 149.1652299, 0.99813324213, 6.00981802563e-05, -0.000340674334439, -0.0610732510686,0
2019-04-03 19:07:24.20,46616346, 0.0, -0.04, 352.99, 584.780029297, -35.363261, 149.1652299, 0.998132407665, -6.14946111455e-05, -0.00040157980402, -0.0610866062343,0
2019-04-03 19:07:24.30,46716306, -0.01, -0.02, 352.99, 584.929992676, -35.363261, 149.1652299, 0.998131990433, -0.000161234565894, -0.000236837033299, -0.0610941834748,0
2019-04-03 19:07:24.40,46816266, -0.02, -0.02, 352.99, 585.090026855, -35.363261, 149.1652299, 0.998131632805, -0.000206967626582, -0.000166902216733, -0.0610998496413,0
2019-04-03 19:07:24.50,46916226, -0.01, -0.01, 352.99, 585.239990234, -35.363261, 149.1652299, 0.998131513596, -0.000183214215213, -0.000159863135195, -0.0611020214856,0
2019-04-03 19:07:24.60,47016186, -0.02, -0.01, 352.99, 585.409973145, -35.363261, 149.1652299, 0.998131215572, -0.000190001126612, -9.12598334253e-05, -0.0611074343324,0
2019-04-03 19:07:24.70,47116146, -0.02, 0.0, 352.99, 585.58001709, -35.363261, 149.1652299, 0.998130857944, -0.000185266806511, 3.4758788388e-05, -0.0611128695309,0
2019-04-03 19:07:24.80,47216106, -0.01, 0.01, 352.99, 585.75, -35.363261, 149.1652299, 0.99812990427, -0.000164295604918, 0.000126534767332, -0.0611282773316,0
2019-04-03 19:07:24.90,47316066, -0.02, 0.0, 352.98, 585.929992676, -35.363261, 149.1652299, 0.99812912941, -0.000223501454457, 9.97727256618e-05, -0.0611413642764,0
2019-04-03 19:07:25.00,47416026, -0.03, 0.0, 352.98, 586.090026855, -35.363261, 149.1652299, 0.998128652573, -0.000334441661835, -3.36008524755e-05, -0.0611487217247,0
2019-04-03 19:07:25.10,47515986, 0.06, 0.01, 352.98, 586.25, -35.363261, 149.1652299, 0.998128116131, 0.000606599322055, 0.000126315266243, -0.061154615134,0
2019-04-03 19:07:25.20,47615946, 0.46, 0.14, 352.98, 586.400024414, -35.363261, 149.1652299, 0.998119235039, 0.0041345092468, 0.000976149458438, -0.0611554421484,0
2019-04-03 19:07:25.30,47715906, 1.18, 0.35, 352.99, 586.530029297, -35.363261, 149.1652299, 0.998070120811, 0.010481050238, 0.0024624094367, -0.0611564964056,0
2019-04-03 19:07:25.40,47815866, 2.12, 0.63, 352.99, 586.659973145, -35.363261, 149.1652299, 0.997940182686, 0.01884502545, 0.00437822565436, -0.0611639209092,0
2019-04-03 19:07:25.49,47915826, 3.19, 0.96, 353.0, 586.770019531, -35.363261, 149.1652301, 0.997701704502, 0.0283475592732, 0.00666122697294, -0.0611831955612,0
2019-04-03 19:07:25.59,48015786, 4.28, 1.27, 353.02, 586.869995117, -35.363261, 149.1652302, 0.997359931469, 0.0380072854459, 0.00886055082083, -0.0612383857369,0
2019-04-03 19:07:25.69,48115746, 5.22, 1.55, 353.02, 586.960021973, -35.363261, 149.1652303, 0.996982336044, 0.0463495962322, 0.0107484860346, -0.0613387413323,0
2019-04-03 19:07:25.79,48215706, 5.95, 1.77, 353.03, 587.030029297, -35.363261, 149.1652307, 0.996633946896, 0.0528148934245, 0.0122895929962, -0.0614841990173,0
2019-04-03 19:07:25.89,48315666, 6.48, 1.95, 353.02, 587.099975586, -35.363261, 149.165231, 0.996346890926, 0.0574925802648, 0.013591337949, -0.0616669356823,0
2019-04-03 19:07:26.00,48416459, 6.89, 2.09, 353.01, 587.159973145, -35.363261, 149.1652315, 0.996101498604, 0.0611516274512, 0.0145764546469, -0.0618859939277,0
2019-04-03 19:07:26.10,48516419, 7.26, 2.23, 353.0, 587.210021973, -35.3632611, 149.165232, 0.995865404606, 0.0644457563758, 0.0155491484329, -0.0621061548591,0
2019-04-03 19:07:26.20,48616379, 7.59, 2.33, 352.98, 587.260009766, -35.3632613, 149.1652327, 0.99564820528, 0.067336820066, 0.0162602253258, -0.0623378530145,0
2019-04-03 19:07:26.30,48716339, 7.86, 2.4, 352.97, 587.299987793, -35.3632614, 149.1652334, 0.995466589928, 0.0696772933006, 0.0166655741632, -0.0625590980053,0
2019-04-03 19:07:26.40,48816299, 8.04, 2.45, 352.96, 587.340026855, -35.3632615, 149.1652342, 0.995332300663, 0.0713364854455, 0.0170258264989, -0.0627282187343,0
2019-04-03 19:07:26.50,48916259, 8.18, 2.51, 352.95, 587.369995117, -35.3632616, 149.1652351, 0.995225787163, 0.0726025998592, 0.0174473635852, -0.0628497898579,0
2019-04-03 19:07:26.60,49016219, 8.3, 2.55, 352.94, 587.400024414, -35.3632617, 149.1652363, 0.995141148567, 0.0736006125808, 0.0177748780698, -0.0629373043776,0
2019-04-03 19:07:26.70,49116179, 8.39, 2.6, 352.94, 587.429992676, -35.3632619, 149.1652374, 0.995072364807, 0.0743986144662, 0.0181133691221, -0.0629901662469,0
2019-04-03 19:07:26.80,49216139, 8.46, 2.79, 353.04, 587.460021973, -35.3632621, 149.1652385, 0.99502825737, 0.0751333832741, 0.0197905991226, -0.0623070672154,0
2019-04-03 19:07:26.90,49316099, 8.58, 3.26, 353.7, 587.489990234, -35.3632622, 149.1652399, 0.995172202587, 0.0762282311916, 0.0242619011551, -0.0568586997688,0
2019-04-03 19:07:27.00,49416059, 8.82, 3.8, 355.63, 587.520019531, -35.3632625, 149.1652413, 0.99567180872, 0.0780540853739, 0.0301352348179, -0.0404609926045,0
2019-04-03 19:07:27.10,49516019, 9.27, 3.95, 359.2, 587.539978027, -35.3632627, 149.1652427, 0.996092379093, 0.0810161903501, 0.0337966047227, -0.0097031481564,0
2019-04-03 19:07:27.20,49615979, 9.88, 3.47, 4.31, 587.570007324, -35.3632629, 149.1652444, 0.995214641094, 0.0849491879344, 0.0334036834538, 0.0348661243916,0
2019-04-03 19:07:27.30,49715939, 10.54, 2.28, 10.69, 587.590026855, -35.3632633, 149.165246, 0.991408348083, 0.0896624624729, 0.0283674001694, 0.0909146666527,0
2019-04-03 19:07:27.40,49815899, 11.07, 0.46, 18.02, 587.619995117, -35.3632637, 149.1652476, 0.983095049858, 0.094678811729, 0.0191277172416, 0.155544832349,0
2019-04-03 19:07:27.50,49915859, 11.28, -1.82, 26.04, 587.650024414, -35.363264, 149.1652494, 0.96909236908, 0.0993456766009, 0.00672104489058, 0.225710555911,0
2019-04-03 19:07:27.59,50015819, 11.04, -4.33, 34.49, 587.679992676, -35.3632645, 149.1652514, 0.948837399483, 0.10297460109, -0.00742963608354, 0.298410177231,0
2019-04-03 19:07:27.69,50115779, 10.3, -6.79, 43.17, 587.710021973, -35.3632649, 149.1652533, 0.922523617744, 0.105039857328, -0.0218689292669, 0.37072712183,0
2019-04-03 19:07:27.79,50215739, 9.1, -8.98, 51.82, 587.75, -35.3632653, 149.1652555, 0.891157746315, 0.105306491256, -0.0356954559684, 0.43985709548,0
2019-04-03 19:07:27.89,50315699, 7.59, -10.79, 60.19, 587.780029297, -35.3632658, 149.1652578, 0.85633867979, 0.104136869311, -0.0481319800019, 0.503510653973,0
2019-04-03 19:07:27.99,50415659, 5.94, -12.17, 68.06, 587.820007324, -35.3632663, 149.16526, 0.819885790348, 0.101960621774, -0.0589046441019, 0.560287117958,0
2019-04-03 19:07:28.10,50516452, 4.28, -13.16, 75.35, 587.849975586, -35.3632666, 149.1652626, 0.783082962036, 0.0994043275714, -0.0679174512625, 0.610153317451,0
2019-04-03 19:07:28.20,50616412, 2.78, -13.8, 81.9, 587.890014648, -35.3632671, 149.1652651, 0.747648179531, 0.0969774201512, -0.0749481022358, 0.652687013149,0
2019-04-03 19:07:28.30,50716372, 1.48, -14.19, 87.81, 587.929992676, -35.3632676, 149.1652677, 0.71377402544, 0.0949570164084, -0.0801004990935, 0.689270436764,0
2019-04-03 19:07:28.40,50816332, 0.4, -14.39, 93.19, 587.969970703, -35.363268, 149.1652705, 0.681380093098, 0.093432739377, -0.0835764035583, 0.721114754677,0
2019-04-03 19:07:28.50,50916292, -0.75, -14.5, 98.13, 588.020019531, -35.3632683, 149.1652734, 0.650555431843, 0.0911066383123, -0.087656930089, 0.748861432076,0
2019-04-03 19:07:28.60,51016252, -2.19, -14.53, 102.38, 588.059997559, -35.3632687, 149.1652765, 0.623444378376, 0.0866805911064, -0.0940658673644, 0.771333396435,0
2019-04-03 19:07:28.70,51116212, -3.64, -14.49, 105.57, 588.099975586, -35.363269, 149.1652795, 0.60285204649, 0.0813729837537, -0.10139490664, 0.787189304829,0
2019-04-03 19:07:28.80,51216172, -4.72, -14.42, 107.48, 588.150024414, -35.3632695, 149.1652827, 0.590387523174, 0.0769526809454, -0.107175283134, 0.796262741089,0
2019-04-03 19:07:28.90,51316132, -5.18, -14.38, 108.15, 588.200012207, -35.3632698, 149.1652859, 0.586057901382, 0.0749870091677, -0.109713844955, 0.799297213554,0
2019-04-03 19:07:29.00,51416092, -4.94, -14.44, 107.74, 588.239990234, -35.3632701, 149.1652892, 0.588747084141, 0.0762156099081, -0.108652666211, 0.797347247601,0
2019-04-03 19:07:29.10,51516052, -4.13, -14.61, 106.49, 588.289978027, -35.3632704, 149.1652926, 0.596768319607, 0.0804319232702, -0.10469096154, 0.791478455067,0
2019-04-03 19:07:29.20,51616012, -2.92, -14.86, 104.68, 588.340026855, -35.3632706, 149.1652963, 0.608212053776, 0.0869149789214, -0.0990531742573, 0.782759487629,0
2019-04-03 19:07:29.30,51715972, -1.54, -15.15, 102.58, 588.380004883, -35.3632708, 149.1652997, 0.62118178606, 0.0945404842496, -0.0928589776158, 0.772381126881,0
2019-04-03 19:07:29.40,51815932, -0.18, -15.4, 100.48, 588.429992676, -35.3632712, 149.1653035, 0.63390827179, 0.102029718459, -0.0869318693876, 0.761704146862,0
2019-04-03 19:07:29.50,51915892, 0.97, -15.57, 98.63, 588.479980469, -35.3632714, 149.1653072, 0.644981920719, 0.10822673887, -0.0819054543972, 0.752048373222,0
2019-04-03 19:07:29.60,52015852, 1.81, -15.66, 97.19, 588.530029297, -35.3632718, 149.165311, 0.653444945812, 0.112578496337, -0.0783201307058, 0.744447290897,0
2019-04-03 19:07:29.69,52115812, 2.28, -15.7, 96.29, 588.58001709, -35.3632722, 149.1653148, 0.658821582794, 0.114913932979, -0.0764709934592, 0.739527642727,0
2019-04-03 19:07:29.79,52215772, 2.38, -15.73, 95.92, 588.630004883, -35.3632726, 149.1653187, 0.661062717438, 0.115433357656, -0.0763616859913, 0.737455189228,0
2019-04-03 19:07:29.89,52315732, 2.18, -15.78, 96.04, 588.679992676, -35.3632731, 149.1653226, 0.660425186157, 0.114714041352, -0.0777837708592, 0.737989842892,0
2019-04-03 19:07:29.99,52415692, 1.77, -15.85, 96.56, 588.729980469, -35.3632735, 149.1653265, 0.657443702221, 0.113197505474, -0.0803179070354, 0.740610003471,0
2019-04-03 19:07:30.10,52516485, 1.23, -15.94, 97.35, 588.780029297, -35.3632741, 149.1653307, 0.652785778046, 0.111177124083, -0.0835466980934, 0.744667947292,0
2019-04-03 19:07:30.20,52616445, 0.63, -16.02, 98.26, 588.83001709, -35.3632745, 149.1653347, 0.647304773331, 0.109001457691, -0.0870771929622, 0.74935489893,0
2019-04-03 19:07:30.30,52716405, 0.09, -16.09, 99.19, 588.880004883, -35.363275, 149.1653389, 0.641679108143, 0.107132934034, -0.0901375636458, 0.754086077213,0
2019-04-03 19:07:30.40,52816365, -0.34, -16.14, 100.02, 588.929992676, -35.3632756, 149.1653431, 0.636570453644, 0.105683162808, -0.092532351613, 0.758318483829,0
2019-04-03 19:07:30.50,52916325, -0.65, -16.17, 100.68, 588.979980469, -35.3632762, 149.1653472, 0.63247269392, 0.104686036706, -0.094177544117, 0.761675655842,0
2019-04-03 19:07:30.60,53016285, -0.85, -16.19, 101.12, 589.020019531, -35.3632768, 149.1653515, 0.629684984684, 0.104115255177, -0.0951614975929, 0.763937950134,0
2019-04-03 19:07:30.70,53116245, -0.91, -16.21, 101.34, 589.070007324, -35.3632773, 149.1653558, 0.628261208534, 0.104120388627, -0.0954694226384, 0.765070259571,0
2019-04-03 19:07:30.80,53216205, -0.85, -16.26, 101.35, 589.119995117, -35.3632779, 149.1653601, 0.628094613552, 0.104713343084, -0.0953582823277, 0.765139937401,0
2019-04-03 19:07:30.90,53316165, -0.74, -16.31, 101.2, 589.16998291, -35.3632784, 149.1653646, 0.628982305527, 0.10559540242, -0.0950307697058, 0.764329791069,0
2019-04-03 19:07:31.00,53416125, -0.56, -16.35, 100.92, 589.219970703, -35.363279, 149.165369, 0.630625784397, 0.106607921422, -0.0943175777793, 0.762922048569,0
2019-04-03 19:07:31.10,53516085, -0.35, -16.38, 100.58, 589.270019531, -35.3632796, 149.1653734, 0.632679700851, 0.107688613236, -0.0934365019202, 0.761176228523,0
2019-04-03 19:07:31.20,53616045, -0.14, -16.41, 100.22, 589.320007324, -35.3632801, 149.1653778, 0.634826123714, 0.108740836382, -0.0925086587667, 0.759350657463,0
2019-04-03 19:07:31.30,53716005, 0.06, -16.42, 99.9, 589.369995117, -35.3632807, 149.1653825, 0.636787116528, 0.109714128077, -0.0915176123381, 0.757686972618,0
2019-04-03 19:07:31.40,53815965, 0.23, -16.44, 99.63, 589.41998291, -35.3632813, 149.1653869, 0.638372659683, 0.110577791929, -0.0907288044691, 0.75632083416,0
2019-04-03 19:07:31.50,53915925, 0.34, -16.49, 99.44, 589.469970703, -35.3632818, 149.1653916, 0.639453530312, 0.111416831613, -0.0904647856951, 0.75531566143,0
2019-04-03 19:07:31.60,54015885, 0.38, -16.55, 99.34, 589.520019531, -35.3632824, 149.1653962, 0.640032827854, 0.111915625632, -0.0906831994653, 0.754724740982,0
2019-04-03 19:07:31.69,54115845, 0.34, -16.62, 99.32, 589.570007324, -35.363283, 149.1654007, 0.640135645866, 0.112149715424, -0.0912972614169, 0.75452876091,0
2019-04-03 19:07:31.79,54215805, 0.27, -16.68, 99.37, 589.619995117, -35.3632836, 149.1654054, 0.639825224876, 0.112201631069, -0.0920820087194, 0.754688978195,0
2019-04-03 19:07:31.89,54315765, 0.18, -16.72, 99.47, 589.66998291, -35.3632844, 149.1654101, 0.639230728149, 0.111981272697, -0.0927714556456, 0.755140841007,0
2019-04-03 19:07:31.99,54415725, 0.08, -16.73, 99.6, 589.719970703, -35.363285, 149.1654147, 0.638460874557, 0.111630387604, -0.0934027135372, 0.755766093731,0
2019-04-03 19:07:32.09,54515685, -0.01, -16.75, 99.74, 589.770019531, -35.3632856, 149.1654194, 0.6376273036, 0.111336059868, -0.0940225720406, 0.756436109543,0
2019-04-03 19:07:32.20,54616478, -0.1, -16.77, 99.87, 589.820007324, -35.3632863, 149.1654242, 0.636851966381, 0.111047655344, -0.0945506617427, 0.757065474987,0
2019-04-03 19:07:32.30,54716438, -0.17, -16.8, 99.97, 589.869995117, -35.3632869, 149.165429, 0.63621866703, 0.110928267241, -0.0950879827142, 0.757548034191,0
2019-04-03 19:07:32.40,54816398, -0.21, -16.84, 100.04, 589.91998291, -35.3632876, 149.1654338, 0.635759294033, 0.111021071672, -0.0955067873001, 0.757867395878,0
2019-04-03 19:07:32.50,54916358, -0.21, -16.88, 100.08, 589.969970703, -35.3632883, 149.1654385, 0.635492801666, 0.111335784197, -0.0957344546914, 0.758015990257,0
2019-04-03 19:07:32.60,55016318, -0.21, -16.9, 100.08, 590.020019531, -35.3632889, 149.1654433, 0.63546204567, 0.111512236297, -0.0958429351449, 0.758002102375,0
2019-04-03 19:07:32.70,55116278, -0.2, -16.92, 100.05, 590.070007324, -35.3632896, 149.1654481, 0.635634541512, 0.111603945494, -0.0959177538753, 0.757834434509,0
2019-04-03 19:07:32.80,55216238, -0.2, -16.94, 100.0, 590.119995117, -35.3632902, 149.165453, 0.635952115059, 0.111707396805, -0.0960790887475, 0.75753235817,0
2019-04-03 19:07:32.90,55316198, -0.19, -16.95, 99.94, 590.16998291, -35.3632908, 149.165458, 0.636347591877, 0.111831314862, -0.096127808094, 0.757175624371,0
2019-04-03 19:07:33.00,55416158, -0.17, -16.96, 99.86, 590.219970703, -35.3632915, 149.1654628, 0.636789143085, 0.111907735467, -0.0960688441992, 0.756800591946,0
2019-04-03 19:07:33.10,55516118, -0.14, -16.96, 99.8, 590.270019531, -35.3632921, 149.1654677, 0.637222707272, 0.112005770206, -0.0959966927767, 0.756430149078,0
2019-04-03 19:07:33.20,55616078, -0.12, -16.97, 99.73, 590.320007324, -35.3632929, 149.1654726, 0.637608885765, 0.112151108682, -0.0959670841694, 0.756086885929,0
2019-04-03 19:07:33.30,55716038, -0.08, -16.99, 99.68, 590.369995117, -35.3632936, 149.1654776, 0.637897849083, 0.112483076751, -0.0958909615874, 0.755803465843,0
2019-04-03 19:07:33.40,55815998, -0.05, -17.02, 99.64, 590.41998291, -35.3632942, 149.1654825, 0.638099849224, 0.112778700888, -0.0958417803049, 0.755595088005,0
2019-04-03 19:07:33.50,55915958, -0.04, -17.04, 99.62, 590.469970703, -35.3632949, 149.1654874, 0.638227403164, 0.112954884768, -0.0958912372589, 0.755454778671,0
2019-04-03 19:07:33.60,56015918, -0.04, -17.04, 99.61, 590.520019531, -35.3632956, 149.1654925, 0.638300776482, 0.112971767783, -0.0959820970893, 0.755378723145,0
2019-04-03 19:07:33.70,56115878, -0.06, -17.07, 99.6, 590.570007324, -35.3632963, 149.1654974, 0.638305068016, 0.113034136593, -0.0961832404137, 0.755340158939,0
2019-04-03 19:07:33.79,56215838, -0.06, -17.11, 99.61, 590.619995117, -35.3632969, 149.1655025, 0.638247430325, 0.11326380074, -0.0964763611555, 0.755317032337,0
2019-04-03 19:07:33.89,56315798, -0.08, -17.15, 99.62, 590.66998291, -35.3632975, 149.1655075, 0.638165950775, 0.113451845944, -0.0968459919095, 0.755310416222,0
2019-04-03 19:07:33.99,56415758, -0.11, -17.18, 99.63, 590.719970703, -35.3632982, 149.1655125, 0.638094246387, 0.113503374159, -0.0971710681915, 0.755321502686,0
2019-04-03 19:07:34.09,56515718, -0.12, -17.21, 99.64, 590.770019531, -35.363299, 149.1655175, 0.638027250767, 0.113655924797, -0.0974092483521, 0.755324423313,0
2019-04-03 19:07:34.19,56615678, -0.12, -17.24, 99.64, 590.820007324, -35.3632997, 149.1655226, 0.637976408005, 0.113871671259, -0.0975478962064, 0.755317032337,0
2019-04-03 19:07:34.30,56716471, -0.1, -17.26, 99.64, 590.869995117, -35.3633004, 149.1655276, 0.637957453728, 0.114091143012, -0.0975219458342, 0.755303263664,0
2019-04-03 19:07:34.40,56816431, -0.08, -17.27, 99.63, 590.91998291, -35.3633011, 149.1655327, 0.63798469305, 0.114274337888, -0.0974770411849, 0.755258381367,0
2019-04-03 19:07:34.50,56916391, -0.07, -17.27, 99.62, 590.969970703, -35.3633017, 149.1655377, 0.638070464134, 0.114295266569, -0.0974052399397, 0.755191981792,0
2019-04-03 19:07:34.60,57016351, -0.07, -17.26, 99.6, 591.020019531, -35.3633023, 149.1655429, 0.638188779354, 0.114216081798, -0.0973899513483, 0.75510597229,0
2019-04-03 19:07:34.70,57116311, -0.08, -17.26, 99.58, 591.070007324, -35.363303, 149.165548, 0.638322114944, 0.11412999779, -0.0974207818508, 0.755002319813,0
2019-04-03 19:07:34.80,57216271, -0.1, -17.25, 99.56, 591.119995117, -35.3633038, 149.165553, 0.638467788696, 0.114005282521, -0.0975470617414, 0.754881560802,0
2019-04-03 19:07:34.90,57316231, -0.11, -17.25, 99.54, 591.16998291, -35.3633045, 149.1655582, 0.638599276543, 0.113934360445, -0.0976486355066, 0.75476795435,0
2019-04-03 19:07:35.00,57416191, -0.12, -17.28, 99.53, 591.219970703, -35.3633052, 149.1655633, 0.638700962067, 0.11399641633, -0.0978489071131, 0.754646599293,0
2019-04-03 19:07:35.10,57516151, -0.13, -17.31, 99.51, 591.270019531, -35.3633059, 149.1655685, 0.638766646385, 0.114145077765, -0.0980841442943, 0.75453799963,0
2019-04-03 19:07:35.20,57616111, -0.13, -17.33, 99.5, 591.320007324, -35.3633066, 149.1655735, 0.638825893402, 0.114234358072, -0.098237156868, 0.754454374313,0
2019-04-03 19:07:35.30,57716071, -0.13, -17.34, 99.49, 591.369995117, -35.3633072, 149.1655787, 0.638882577419, 0.114298157394, -0.0983006879687, 0.754388511181,0
2019-04-03 19:07:35.40,57816031, -0.12, -17.34, 99.48, 591.41998291, -35.3633079, 149.1655839, 0.63892865181, 0.114367723465, -0.0982095375657, 0.754350781441,0
2019-04-03 19:07:35.50,57915991, -0.09, -17.36, 99.48, 591.469970703, -35.3633087, 149.1655889, 0.638934791088, 0.114668942988, -0.0981692150235, 0.754305124283,0
2019-04-03 19:07:35.60,58015951, -0.06, -17.39, 99.47, 591.520019531, -35.3633094, 149.1655941, 0.638935625553, 0.115008659661, -0.09816686064, 0.754252970219,0
2019-04-03 19:07:35.70,58115911, -0.05, -17.43, 99.46, 591.570007324, -35.3633101, 149.1655994, 0.638942420483, 0.115301474929, -0.0983163639903, 0.75418305397,0
2019-04-03 19:07:35.80,58215871, -0.06, -17.44, 99.45, 591.619995117, -35.3633108, 149.1656046, 0.63898319006, 0.115362353623, -0.0984949320555, 0.754115879536,0
2019-04-03 19:07:35.89,58315831, -0.05, -17.44, 99.45, 591.66998291, -35.3633114, 149.1656098, 0.639027774334, 0.115360952914, -0.0984201282263, 0.754088103771,0
2019-04-03 19:07:35.99,58415791, -0.06, -17.42, 99.44, 591.719970703, -35.3633121, 149.165615, 0.639107227325, 0.11516726017, -0.0983592122793, 0.754058301449,0
2019-04-03 19:07:36.09,58515751, -0.06, -17.41, 99.43, 591.770019531, -35.3633127, 149.1656202, 0.639174103737, 0.11507537961, -0.0983114019036, 0.754021883011,0
2019-04-03 19:07:36.19,58615711, -0.04, -17.39, 99.42, 591.820007324, -35.3633134, 149.1656253, 0.639220297337, 0.115088924766, -0.0980945006013, 0.754008948803,0
2019-04-03 19:07:36.29,58715671, -0.01, -17.38, 99.41, 591.869995117, -35.3633142, 149.1656305, 0.639251232147, 0.115155182779, -0.0978112071753, 0.754009366035,0
2019-04-03 19:07:36.40,58816464, -0.01, -17.38, 99.41, 591.91998291, -35.3633149, 149.1656358, 0.639280796051, 0.115242384374, -0.0978363007307, 0.753967821598,0
2019-04-03 19:07:36.50,58916424, -0.01, -17.4, 99.4, 591.969970703, -35.3633156, 149.165641, 0.63930273056, 0.115355730057, -0.0979688316584, 0.753914535046,0
2019-04-03 19:07:36.60,59016384, -0.02, -17.45, 99.4, 592.020019531, -35.3633163, 149.1656463, 0.639305353165, 0.115581698716, -0.0983246490359, 0.753831446171,0
2019-04-03 19:07:36.70,59116344, -0.05, -17.48, 99.39, 592.070007324, -35.3633169, 149.1656516, 0.639330923557, 0.115626253188, -0.0987040325999, 0.753753364086,0
2019-04-03 19:07:36.80,59216304, -0.07, -17.51, 99.39, 592.119995117, -35.3633176, 149.1656568, 0.639350235462, 0.115699663758, -0.0989520400763, 0.753693163395,0
2019-04-03 19:07:36.90,59316264, -0.07, -17.52, 99.39, 592.16998291, -35.3633184, 149.165662, 0.639361560345, 0.115792900324, -0.0990423485637, 0.753657400608,0
2019-04-03 19:07:37.00,59416224, -0.07, -17.53, 99.38, 592.219970703, -35.3633191, 149.1656673, 0.639385402203, 0.115829236805, -0.0990673229098, 0.753628373146,0
2019-04-03 19:07:37.10,59516184, -0.05, -17.53, 99.38, 592.270019531, -35.3633198, 149.1656725, 0.639407038689, 0.115920834243, -0.098928488791, 0.753614127636,0
2019-04-03 19:07:37.20,59616144, -0.02, -17.53, 99.37, 592.320007324, -35.3633205, 149.1656778, 0.639428973198, 0.116079725325, -0.0987865552306, 0.753589689732,0
2019-04-03 19:07:37.30,59716104, -0.01, -17.54, 99.36, 592.369995117, -35.3633212, 149.165683, 0.639460861683, 0.116195261478, -0.0987236946821, 0.753552913666,0
2019-04-03 19:07:37.40,59816064, 0.0, -17.54, 99.35, 592.41998291, -35.3633218, 149.1656883, 0.639499008656, 0.116253294051, -0.0986949130893, 0.753515481949,0
2019-04-03 19:07:37.50,59916024, 0.0, -17.55, 99.35, 592.469970703, -35.3633225, 149.1656936, 0.639532566071, 0.116312235594, -0.0987349152565, 0.753472626209,0
2019-04-03 19:07:37.60,60015984, 0.0, -17.56, 99.34, 592.520019531, -35.3633234, 149.1656989, 0.639561474323, 0.116389192641, -0.098852224648, 0.753420770168,0
2019-04-03 19:07:37.70,60115944, -0.02, -17.58, 99.34, 592.570007324, -35.3633241, 149.1657041, 0.639604270458, 0.116369746625, -0.0991072133183, 0.753353953362,0
2019-04-03 19:07:37.80,60215904, -0.06, -17.59, 99.33, 592.619995117, -35.3633248, 149.1657094, 0.63966101408, 0.116213753819, -0.0993884280324, 0.753292858601,0
2019-04-03 19:07:37.90,60315864, -0.09, -17.59, 99.33, 592.66998291, -35.3633254, 149.1657147, 0.639711081982, 0.116088666022, -0.0996125116944, 0.753240048885,0
2019-04-03 19:07:37.99,60415824, -0.09, -17.6, 99.32, 592.719970703, -35.3633261, 149.16572, 0.639736831188, 0.116104133427, -0.099715963006, 0.753202080727,0
2019-04-03 19:07:38.09,60515784, -0.08, -17.61, 99.32, 592.770019531, -35.3633268, 149.1657253, 0.639743208885, 0.116262108088, -0.0996901094913, 0.753175735474,0
2019-04-03 19:07:38.19,60615744, -0.06, -17.63, 99.31, 592.820007324, -35.3633276, 149.1657306, 0.639741837978, 0.116490952671, -0.0996133461595, 0.753151655197,0
2019-04-03 19:07:38.29,60715704, -0.02, -17.64, 99.31, 592.869995117, -35.3633283, 149.1657358, 0.639725804329, 0.116793453693, -0.0994733422995, 0.753136992455,0
2019-04-03 19:07:38.39,60815664, 0.0, -17.66, 99.3, 592.91998291, -35.363329, 149.1657411, 0.639738202095, 0.11696575582, -0.0994398742914, 0.753104090691,0
2019-04-03 19:07:38.50,60916457, -0.01, -17.65, 99.3, 592.969970703, -35.3633297, 149.1657464, 0.639794826508, 0.116880826652, -0.0994757935405, 0.753064453602,0
2019-04-03 19:07:38.60,61016417, -0.03, -17.64, 99.29, 593.020019531, -35.3633303, 149.1657517, 0.639869272709, 0.116698458791, -0.0995355471969, 0.753021597862,0
2019-04-03 19:07:38.70,61116377, -0.03, -17.63, 99.28, 593.070007324, -35.363331, 149.1657572, 0.639936625957, 0.11656807363, -0.099490121007, 0.752990543842,0
2019-04-03 19:07:38.80,61216337, -0.03, -17.62, 99.27, 593.119995117, -35.3633319, 149.1657625, 0.639984250069, 0.116559311748, -0.0994366630912, 0.752958476543,0
2019-04-03 19:07:38.90,61316297, 0.0, -17.63, 99.27, 593.16998291, -35.3633326, 149.1657678, 0.639997005463, 0.116758540273, -0.0993388593197, 0.7529296875,0
2019-04-03 19:07:39.00,61416257, 0.02, -17.67, 99.26, 593.219970703, -35.3633333, 149.1657731, 0.639979124069, 0.117154553533, -0.0993495881557, 0.752882003784,0
2019-04-03 19:07:39.10,61516217, 0.04, -17.69, 99.25, 593.270019531, -35.363334, 149.1657784, 0.639973104, 0.117428854108, -0.0993562564254, 0.752843499184,0
2019-04-03 19:07:39.20,61616177, 0.05, -17.68, 99.25, 593.320007324, -35.3633346, 149.1657837, 0.640008926392, 0.117391273379, -0.0992352291942, 0.752834796906,0
2019-04-03 19:07:39.30,61716137, 0.05, -17.67, 99.24, 593.369995117, -35.3633353, 149.165789, 0.640041828156, 0.117350570858, -0.099109262228, 0.752829790115,0
2019-04-03 19:07:39.40,61816097, 0.04, -17.68, 99.24, 593.41998291, -35.3633361, 149.1657943, 0.640076637268, 0.117314770818, -0.0992862358689, 0.752782464027,0
2019-04-03 19:07:39.50,61916057, 0.02, -17.69, 99.24, 593.469970703, -35.3633368, 149.1657998, 0.640090763569, 0.117309749126, -0.0994478389621, 0.752749919891,0
2019-04-03 19:07:39.60,62016017, 0.01, -17.7, 99.24, 593.520019531, -35.3633375, 149.1658051, 0.640097260475, 0.117316640913, -0.0995772927999, 0.752726197243,0
2019-04-03 19:07:39.70,62115977, 0.0, -17.7, 99.24, 593.570007324, -35.3633382, 149.1658104, 0.640108048916, 0.117290101945, -0.0996622592211, 0.75270986557,0
2019-04-03 19:07:39.80,62215937, 0.01, -17.71, 99.24, 593.619995117, -35.3633388, 149.1658158, 0.640098631382, 0.117381244898, -0.0996844545007, 0.752700805664,0
2019-04-03 19:07:39.90,62315897, 0.02, -17.71, 99.24, 593.66998291, -35.3633395, 149.165821, 0.64010155201, 0.117420189083, -0.0995901450515, 0.752704739571,0
2019-04-03 19:07:40.00,62415857, 0.04, -17.7, 99.23, 593.719970703, -35.3633404, 149.1658264, 0.640108942986, 0.117501661181, -0.0994364991784, 0.752705991268,0
2019-04-03 19:07:40.09,62515817, 0.06, -17.71, 99.23, 593.770019531, -35.3633411, 149.1658318, 0.640120685101, 0.117624253035, -0.0993247181177, 0.752691626549,0
2019-04-03 19:07:40.19,62615777, 0.05, -17.72, 99.22, 593.820007324, -35.3633418, 149.1658372, 0.640149831772, 0.117696404457, -0.0994468256831, 0.75263941288,0
2019-04-03 19:07:40.29,62715737, 0.03, -17.75, 99.22, 593.869995117, -35.3633425, 149.1658425, 0.640186190605, 0.117730595171, -0.0997298583388, 0.752565741539,0
2019-04-03 19:07:40.39,62815697, 0.01, -17.77, 99.21, 593.91998291, -35.3633431, 149.1658479, 0.640219032764, 0.117783099413, -0.100042656064, 0.752488017082,0
2019-04-03 19:07:40.50,62916490, 0.02, -17.79, 99.2, 593.979980469, -35.3633438, 149.1658532, 0.640233695507, 0.117942392826, -0.100121632218, 0.752440154552,0
2019-04-03 19:07:40.60,63016450, 0.03, -17.79, 99.2, 594.030029297, -35.3633446, 149.1658586, 0.640266180038, 0.117985099554, -0.0999630987644, 0.752426862717,0
2019-04-03 19:07:40.70,63116410, 0.06, -17.75, 99.19, 594.08001709, -35.3633454, 149.165864, 0.640315949917, 0.117869004607, -0.09957665205, 0.752453923225,0
2019-04-03 19:07:40.80,63216370, 0.06, -17.71, 99.19, 594.130004883, -35.3633461, 149.1658694, 0.640376508236, 0.117632545531, -0.0993441641331, 0.752470135689,0
2019-04-03 19:07:40.90,63316330, 0.06, -17.68, 99.18, 594.179992676, -35.3633467, 149.1658747, 0.640430092812, 0.117395609617, -0.0992145240307, 0.752478599548,0
2019-04-03 19:07:41.00,63416290, 0.06, -17.66, 99.18, 594.229980469, -35.3633474, 149.16588, 0.640469133854, 0.117257609963, -0.0990765839815, 0.752485096455,0
2019-04-03 19:07:41.10,63516250, 0.06, -17.66, 99.18, 594.280029297, -35.3633482, 149.1658855, 0.640491962433, 0.117270760238, -0.0991075262427, 0.752459526062,0
2019-04-03 19:07:41.20,63616210, 0.06, -17.68, 99.17, 594.33001709, -35.3633489, 149.1658909, 0.64050090313, 0.117377266288, -0.0992038697004, 0.752422630787,0
2019-04-03 19:07:41.30,63716170, 0.04, -17.71, 99.17, 594.380004883, -35.3633497, 149.1658962, 0.640509128571, 0.117504216731, -0.099508292973, 0.752355575562,0
2019-04-03 19:07:41.40,63816130, 0.04, -17.76, 99.17, 594.429992676, -35.3633504, 149.1659015, 0.640493988991, 0.117791540921, -0.0998413190246, 0.75227946043,0
2019-04-03 19:07:41.50,63916090, 0.04, -17.78, 99.16, 594.479980469, -35.363351, 149.165907, 0.640486419201, 0.117978274822, -0.0999387130141, 0.752243638039,0
2019-04-03 19:07:41.60,64016050, 0.04, -17.79, 99.16, 594.530029297, -35.3633517, 149.1659124, 0.640495121479, 0.118043571711, -0.0999885872006, 0.752219378948,0
2019-04-03 19:07:41.70,64116010, 0.04, -17.8, 99.16, 594.58001709, -35.3633525, 149.1659178, 0.640513896942, 0.118059292436, -0.100037150085, 0.752194464207,0
2019-04-03 19:07:41.80,64215970, 0.04, -17.78, 99.15, 594.630004883, -35.3633533, 149.165923, 0.640557050705, 0.117934942245, -0.0998863130808, 0.75219732523,0
2019-04-03 19:07:41.90,64315930, 0.06, -17.76, 99.15, 594.679992676, -35.363354, 149.1659285, 0.640586555004, 0.117917656898, -0.0996728464961, 0.752203166485,0
2019-04-03 19:07:42.00,64415890, 0.08, -17.77, 99.14, 594.729980469, -35.3633546, 149.1659339, 0.640611171722, 0.118053220212, -0.0996572449803, 0.752163052559,0
2019-04-03 19:07:42.10,64515850, 0.08, -17.78, 99.13, 594.780029297, -35.3633553, 149.1659393, 0.640649735928, 0.118162825704, -0.0996607244015, 0.75211250782,0
2019-04-03 19:07:42.19,64615810, 0.09, -17.78, 99.12, 594.83001709, -35.3633561, 149.1659446, 0.640703260899, 0.118179872632, -0.0996120199561, 0.752070784569,0
2019-04-03 19:07:42.29,64715770, 0.09, -17.77, 99.11, 594.880004883, -35.3633569, 149.1659501, 0.640758633614, 0.118162229657, -0.0995944067836, 0.75202858448,0
2019-04-03 19:07:42.39,64815730, 0.07, -17.78, 99.11, 594.929992676, -35.3633576, 149.1659555, 0.640818178654, 0.118100315332, -0.0997615158558, 0.751965463161,0
2019-04-03 19:07:42.49,64915690, 0.05, -17.8, 99.1, 594.979980469, -35.3633583, 149.1659608, 0.640872120857, 0.118070848286, -0.100062206388, 0.751884162426,0
2019-04-03 19:07:42.60,65016483, 0.02, -17.81, 99.09, 595.030029297, -35.3633589, 149.1659662, 0.640934824944, 0.117967016995, -0.100249804556, 0.751822054386,0
2019-04-03 19:07:42.70,65116443, 0.04, -17.77, 99.09, 595.08001709, -35.3633598, 149.1659717, 0.640995502472, 0.117787286639, -0.0999734252691, 0.751835286617,0
2019-04-03 19:07:42.80,65216403, 0.07, -17.74, 99.08, 595.130004883, -35.3633605, 149.1659771, 0.641029298306, 0.117765389383, -0.0996011197567, 0.751859366894,0
2019-04-03 19:07:42.90,65316363, 0.09, -17.74, 99.08, 595.179992676, -35.3633612, 149.1659824, 0.641051292419, 0.117844246328, -0.0994437411427, 0.751848995686,0
2019-04-03 19:07:43.00,65416323, 0.08, -17.75, 99.07, 595.229980469, -35.3633619, 149.1659879, 0.641082882881, 0.117892727256, -0.0995417833328, 0.751801550388,0
2019-04-03 19:07:43.10,65516283, 0.04, -17.77, 99.07, 595.280029297, -35.3633626, 149.1659933, 0.641131162643, 0.117825686932, -0.0999642759562, 0.751714766026,0
2019-04-03 19:07:43.20,65616243, 0.01, -17.79, 99.06, 595.33001709, -35.3633634, 149.1659987, 0.641175329685, 0.117768511176, -0.100313425064, 0.751639604568,0
2019-04-03 19:07:43.30,65716203, 0.0, -17.81, 99.06, 595.380004883, -35.3633641, 149.166004, 0.641190648079, 0.117839038372, -0.100468859076, 0.751594662666,0
2019-04-03 19:07:43.40,65816163, 0.01, -17.82, 99.05, 595.429992676, -35.3633648, 149.1660095, 0.64119797945, 0.117942914367, -0.100415423512, 0.751579284668,0
2019-04-03 19:07:43.50,65916123, 0.04, -17.81, 99.05, 595.479980469, -35.3633656, 149.1660149, 0.641209244728, 0.118044547737, -0.100232936442, 0.751578092575,0
2019-04-03 19:07:43.60,66016083, 0.06, -17.81, 99.04, 595.530029297, -35.3633662, 149.1660202, 0.641218543053, 0.118167534471, -0.100076980889, 0.751571536064,0
2019-04-03 19:07:43.70,66116043, 0.08, -17.83, 99.04, 595.58001709, -35.3633669, 149.1660257, 0.641229391098, 0.11837156117, -0.100054085255, 0.751533269882,0
2019-04-03 19:07:43.80,66216003, 0.09, -17.85, 99.03, 595.630004883, -35.3633677, 149.1660311, 0.6412576437, 0.11854403466, -0.10008688271, 0.751477599144,0
2019-04-03 19:07:43.90,66315963, 0.13, -17.85, 99.02, 595.690002441, -35.3633684, 149.1660365, 0.641274333, 0.118788257241, -0.0999252572656, 0.751446306705,0
2019-04-03 19:07:44.00,66415923, 0.16, -17.87, 99.01, 595.739990234, -35.3633692, 149.1660418, 0.641279280186, 0.119096063077, -0.0997946709394, 0.751410663128,0
2019-04-03 19:07:44.10,66515883, 0.16, -17.86, 99.0, 595.789978027, -35.3633698, 149.1660473, 0.641333699226, 0.119046203792, -0.0997596457601, 0.75137680769,0
2019-04-03 19:07:44.19,66615843, 0.13, -17.86, 99.0, 595.840026855, -35.3633705, 149.1660527, 0.641407191753, 0.118803992867, -0.0999660715461, 0.751325011253,0
2019-04-03 19:07:44.29,66715803, 0.09, -17.86, 99.0, 595.890014648, -35.3633713, 149.166058, 0.641463041306, 0.118639335036, -0.100203514099, 0.751271724701,0
2019-04-03 19:07:44.39,66815763, 0.06, -17.86, 98.99, 595.940002441, -35.3633721, 149.1660635, 0.641520082951, 0.11841340363, -0.100398972631, 0.751232504845,0
2019-04-03 19:07:44.49,66915723, 0.03, -17.85, 98.99, 595.989990234, -35.3633728, 149.1660689, 0.641569912434, 0.118197493255, -0.10051253438, 0.751208782196,0
2019-04-03 19:07:44.59,67015683, 0.03, -17.84, 98.99, 596.039978027, -35.3633735, 149.1660743, 0.641593515873, 0.118113346398, -0.100471109152, 0.751207470894,0
2019-04-03 19:07:44.70,67116476, 0.05, -17.82, 98.99, 596.090026855, -35.3633742, 149.1660798, 0.641591846943, 0.118151314557, -0.100269950926, 0.751229763031,0
2019-04-03 19:07:44.80,67216436, 0.07, -17.82, 98.98, 596.140014648, -35.363375, 149.1660852, 0.641601681709, 0.118179999292, -0.100131869316, 0.751235306263,0
2019-04-03 19:07:44.90,67316396, 0.06, -17.82, 98.98, 596.190002441, -35.3633757, 149.1660906, 0.641619324684, 0.118209466338, -0.100194752216, 0.751207172871,0
2019-04-03 19:07:45.00,67416356, 0.06, -17.85, 98.98, 596.239990234, -35.3633764, 149.1660959, 0.641625642776, 0.118376307189, -0.100379347801, 0.751150846481,0
2019-04-03 19:07:45.10,67516316, 0.07, -17.86, 98.97, 596.289978027, -35.3633771, 149.1661014, 0.641647338867, 0.118480063975, -0.100350938737, 0.751119732857,0
2019-04-03 19:07:45.20,67616276, 0.09, -17.85, 98.96, 596.340026855, -35.3633778, 149.1661069, 0.641699075699, 0.118472114205, -0.100187718868, 0.751098573208,0
2019-04-03 19:07:45.30,67716236, 0.1, -17.84, 98.95, 596.390014648, -35.3633786, 149.1661122, 0.641745150089, 0.118519820273, -0.100058436394, 0.751068949699,0
2019-04-03 19:07:45.40,67816196, 0.12, -17.85, 98.95, 596.440002441, -35.3633793, 149.1661177, 0.641771435738, 0.118657961488, -0.100058972836, 0.751024544239,0
2019-04-03 19:07:45.50,67916156, 0.13, -17.86, 98.94, 596.489990234, -35.3633801, 149.1661231, 0.641798317432, 0.118780359626, -0.100060328841, 0.750982105732,0
2019-04-03 19:07:45.60,68016116, 0.14, -17.87, 98.93, 596.539978027, -35.3633808, 149.1661284, 0.641824781895, 0.118892118335, -0.100055739284, 0.750942349434,0
2019-04-03 19:07:45.70,68116076, 0.15, -17.88, 98.93, 596.590026855, -35.3633814, 149.1661339, 0.641850233078, 0.119004748762, -0.100056752563, 0.75090265274,0
2019-04-03 19:07:45.80,68216036, 0.14, -17.89, 98.92, 596.640014648, -35.3633821, 149.1661394, 0.641882419586, 0.119019649923, -0.100161932409, 0.750858783722,0
2019-04-03 19:07:45.90,68315996, 0.12, -17.9, 98.92, 596.690002441, -35.363383, 149.1661447, 0.641920089722, 0.118930436671, -0.100325934589, 0.750818789005,0
2019-04-03 19:07:46.00,68415956, 0.1, -17.89, 98.92, 596.739990234, -35.3633837, 149.1661502, 0.641956269741, 0.118778541684, -0.100410029292, 0.750800728798,0
2019-04-03 19:07:46.10,68515916, 0.08, -17.87, 98.91, 596.789978027, -35.3633844, 149.1661556, 0.641997218132, 0.118598587811, -0.100417338312, 0.750793159008,0
2019-04-03 19:07:46.20,68615876, 0.08, -17.86, 98.91, 596.840026855, -35.363385, 149.166161, 0.642027854919, 0.118490479887, -0.100350894034, 0.750792920589,0
2019-04-03 19:07:46.29,68715836, 0.1, -17.86, 98.91, 596.900024414, -35.3633859, 149.1661663, 0.64203453064, 0.118559747934, -0.100211344659, 0.750794947147,0
2019-04-03 19:07:46.39,68815796, 0.14, -17.87, 98.9, 596.950012207, -35.3633866, 149.1661718, 0.642017126083, 0.118845000863, -0.100042715669, 0.750787198544,0
2019-04-03 19:07:46.49,68915756, 0.17, -17.88, 98.9, 597.0, -35.3633873, 149.1661772, 0.642015993595, 0.119061723351, -0.0999144390225, 0.750770866871,0
2019-04-03 19:07:46.59,69015716, 0.18, -17.89, 98.89, 597.049987793, -35.363388, 149.1661827, 0.642024993896, 0.119228415191, -0.0999317243695, 0.750734448433,0
2019-04-03 19:07:46.69,69115676, 0.17, -17.89, 98.89, 597.099975586, -35.3633887, 149.1661881, 0.642060518265, 0.119198270142, -0.0999640226364, 0.750704526901,0
2019-04-03 19:07:46.80,69216469, 0.16, -17.89, 98.88, 597.150024414, -35.3633894, 149.1661935, 0.64210319519, 0.119118437171, -0.100029051304, 0.75067204237,0
2019-04-03 19:07:46.90,69316429, 0.15, -17.88, 98.88, 597.200012207, -35.3633902, 149.166199, 0.642147362232, 0.118989363313, -0.100093908608, 0.750646114349,0
2019-04-03 19:07:47.00,69416389, 0.13, -17.91, 98.88, 597.25, -35.3633909, 149.1662044, 0.642161250114, 0.119028478861, -0.100346781313, 0.750594258308,0
2019-04-03 19:07:47.10,69516349, 0.12, -17.93, 98.88, 597.299987793, -35.3633917, 149.1662098, 0.642169773579, 0.11908660084, -0.100555516779, 0.750549793243,0
2019-04-03 19:07:47.20,69616309, 0.11, -17.94, 98.87, 597.349975586, -35.3633923, 149.1662153, 0.642180562019, 0.119132228196, -0.100693836808, 0.750514745712,0
2019-04-03 19:07:47.30,69716269, 0.12, -17.94, 98.87, 597.400024414, -35.363393, 149.1662207, 0.64217954874, 0.119217120111, -0.100609198213, 0.750513553619,0
2019-04-03 19:07:47.40,69816229, 0.15, -17.93, 98.87, 597.450012207, -35.3633938, 149.1662261, 0.642176985741, 0.119302883744, -0.100371673703, 0.750533938408,0
2019-04-03 19:07:47.50,69916189, 0.17, -17.91, 98.87, 597.5, -35.3633946, 149.1662314, 0.642192900181, 0.119262687862, -0.100095003843, 0.750563621521,0
2019-04-03 19:07:47.60,70016149, 0.17, -17.88, 98.86, 597.549987793, -35.3633953, 149.166237, 0.642236411572, 0.119086928666, -0.0999376177788, 0.750575184822,0
2019-04-03 19:07:47.70,70116109, 0.16, -17.87, 98.86, 597.599975586, -35.363396, 149.1662423, 0.642293453217, 0.118886515498, -0.0999514833093, 0.750556409359,0
2019-04-03 19:07:47.80,70216069, 0.14, -17.85, 98.85, 597.650024414, -35.3633967, 149.1662477, 0.642347514629, 0.118739403784, -0.0999849736691, 0.750528931618,0
2019-04-03 19:07:47.90,70316029, 0.14, -17.84, 98.85, 597.700012207, -35.3633975, 149.1662533, 0.642399191856, 0.118630044162, -0.0999407470226, 0.750507891178,0
2019-04-03 19:07:48.00,70415989, 0.13, -17.83, 98.84, 597.75, -35.3633982, 149.1662586, 0.642453372478, 0.118507027626, -0.0999241098762, 0.750483155251,0
2019-04-03 19:07:48.10,70515949, 0.12, -17.83, 98.84, 597.799987793, -35.3633989, 149.1662641, 0.642498135567, 0.118439599872, -0.0999783501029, 0.750448226929,0
2019-04-03 19:07:48.20,70615909, 0.12, -17.84, 98.83, 597.849975586, -35.3633996, 149.1662696, 0.642524600029, 0.118489556015, -0.10012036562, 0.750398755074,0
2019-04-03 19:07:48.30,70715869, 0.13, -17.86, 98.83, 597.900024414, -35.3634003, 149.1662749, 0.642514884472, 0.118689626455, -0.100091978908, 0.75037920475,0
2019-04-03 19:07:48.39,70815829, 0.16, -17.88, 98.83, 597.950012207, -35.3634011, 149.1662804, 0.64248073101, 0.119018875062, -0.100026249886, 0.750365078449,0
2019-04-03 19:07:48.49,70915789, 0.19, -17.89, 98.82, 598.0, -35.3634019, 149.1662859, 0.642471373081, 0.119207784534, -0.0999270677567, 0.750356376171,0
2019-04-03 19:07:48.59,71015749, 0.18, -17.88, 98.82, 598.049987793, -35.3634026, 149.1662912, 0.642516076565, 0.119072176516, -0.0999511629343, 0.75033646822,0
2019-04-03 19:07:48.69,71115709, 0.15, -17.86, 98.82, 598.099975586, -35.3634033, 149.1662967, 0.642584085464, 0.118783839047, -0.100005932152, 0.750316560268,0
2019-04-03 19:07:48.79,71215669, 0.12, -17.84, 98.81, 598.150024414, -35.3634039, 149.1663022, 0.642654299736, 0.118477776647, -0.100045539439, 0.75029951334,0
2019-04-03 19:07:48.90,71316462, 0.11, -17.83, 98.81, 598.210021973, -35.3634048, 149.1663077, 0.642695069313, 0.118366345763, -0.100074090064, 0.750278353691,0
2019-04-03 19:07:49.00,71416422, 0.11, -17.85, 98.8, 598.260009766, -35.3634055, 149.1663131, 0.642708480358, 0.118474714458, -0.100246362388, 0.750226795673,0
2019-04-03 19:07:49.10,71516382, 0.09, -17.88, 98.8, 598.309997559, -35.3634062, 149.1663185, 0.64271903038, 0.118618138134, -0.100522987545, 0.750158071518,0
2019-04-03 19:07:49.20,71616342, 0.08, -17.9, 98.8, 598.359985352, -35.3634069, 149.1663238, 0.642748475075, 0.118633002043, -0.100761093199, 0.750098645687,0
2019-04-03 19:07:49.30,71716302, 0.07, -17.9, 98.79, 598.409973145, -35.3634076, 149.1663294, 0.642789006233, 0.11858767271, -0.100766062737, 0.750070333481,0
2019-04-03 19:07:49.40,71816262, 0.09, -17.89, 98.78, 598.460021973, -35.3634084, 149.1663347, 0.6428206563, 0.11862386018, -0.100559592247, 0.750065207481,0
2019-04-03 19:07:49.50,71916222, 0.12, -17.86, 98.78, 598.510009766, -35.3634091, 149.1663403, 0.642863988876, 0.118531957269, -0.100256860256, 0.750083148479,0
2019-04-03 19:07:49.60,72016182, 0.12, -17.8, 98.77, 598.559997559, -35.3634098, 149.1663457, 0.642938911915, 0.118210300803, -0.0999001115561, 0.750117242336,0
2019-04-03 19:07:49.70,72116142, 0.14, -17.76, 98.77, 598.609985352, -35.3634106, 149.166351, 0.642992556095, 0.118030786514, -0.0995614156127, 0.750144541264,0
2019-04-03 19:07:49.80,72216102, 0.16, -17.76, 98.76, 598.659973145, -35.3634112, 149.1663566, 0.643007516861, 0.118102014065, -0.0994610786438, 0.750133872032,0
2019-04-03 19:07:49.90,72316062, 0.17, -17.77, 98.76, 598.710021973, -35.3634119, 149.166362, 0.642998933792, 0.118282519281, -0.0994632169604, 0.75011241436,0
2019-04-03 19:07:50.00,72416022, 0.19, -17.79, 98.76, 598.760009766, -35.3634127, 149.1663673, 0.642975866795, 0.118505328894, -0.0994519069791, 0.750098586082,0
2019-04-03 19:07:50.10,72515982, 0.2, -17.81, 98.76, 598.809997559, -35.3634135, 149.1663729, 0.642949104309, 0.118683606386, -0.0994446873665, 0.750094294548,0
2019-04-03 19:07:50.20,72615942, 0.21, -17.85, 98.76, 598.859985352, -35.3634142, 149.1663783, 0.642900407314, 0.118987448514, -0.0996006056666, 0.750067174435,0
2019-04-03 19:07:50.30,72715902, 0.2, -17.89, 98.76, 598.909973145, -35.3634148, 149.1663836, 0.642858803272, 0.119216755033, -0.0998578071594, 0.750032246113,0
2019-04-03 19:07:50.40,72815862, 0.19, -17.89, 98.76, 598.960021973, -35.3634155, 149.1663891, 0.642857134342, 0.119169510901, -0.0999364629388, 0.750030696392,0
2019-04-03 19:07:50.49,72915822, 0.19, -17.86, 98.77, 599.010009766, -35.3634164, 149.1663946, 0.642874121666, 0.118962101638, -0.0997775122523, 0.750070214272,0
2019-04-03 19:07:50.59,73015782, 0.2, -17.83, 98.77, 599.059997559, -35.3634171, 149.1663999, 0.642885327339, 0.118790544569, -0.0995840281248, 0.750113546848,0
2019-04-03 19:07:50.69,73115742, 0.21, -17.81, 98.77, 599.109985352, -35.3634178, 149.1664054, 0.642868280411, 0.118795953691, -0.0993838608265, 0.750153839588,0
2019-04-03 19:07:50.79,73215702, 0.23, -17.82, 98.77, 599.159973145, -35.3634185, 149.1664109, 0.642840206623, 0.11895852536, -0.0993208214641, 0.750160515308,0
2019-04-03 19:07:50.89,73315662, 0.23, -17.84, 98.77, 599.210021973, -35.3634192, 149.1664162, 0.642833054066, 0.119036145508, -0.0994492545724, 0.750137269497,0
2019-04-03 19:07:51.00,73416455, 0.2, -17.85, 98.77, 599.260009766, -35.36342, 149.1664218, 0.642849504948, 0.118983782828, -0.099678888917, 0.750101029873,0
2019-04-03 19:07:51.10,73516415, 0.17, -17.85, 98.77, 599.309997559, -35.3634207, 149.1664271, 0.642889738083, 0.118792042136, -0.0998758226633, 0.750070691109,0
2019-04-03 19:07:51.20,73616375, 0.15, -17.84, 98.77, 599.359985352, -35.3634215, 149.1664326, 0.642934083939, 0.118568643928, -0.0999514684081, 0.750057995319,0
2019-04-03 19:07:51.30,73716335, 0.15, -17.81, 98.76, 599.409973145, -35.3634221, 149.1664381, 0.642960548401, 0.118435241282, -0.0997495353222, 0.750083267689,0
2019-04-03 19:07:51.40,73816295, 0.17, -17.79, 98.76, 599.460021973, -35.3634228, 149.1664434, 0.64297670126, 0.118398241699, -0.0995183140039, 0.750105977058,0
2019-04-03 19:07:51.50,73916255, 0.19, -17.8, 98.76, 599.510009766, -35.3634236, 149.1664489, 0.642971396446, 0.118563860655, -0.0994347035885, 0.750095427036,0
2019-04-03 19:07:51.60,74016215, 0.21, -17.82, 98.76, 599.559997559, -35.3634244, 149.1664543, 0.642956674099, 0.118793413043, -0.0994227975607, 0.750073313713,0
2019-04-03 19:07:51.70,74116175, 0.22, -17.83, 98.75, 599.609985352, -35.3634251, 149.1664597, 0.642956793308, 0.118895895779, -0.0994221791625, 0.750057041645,0
2019-04-03 19:07:51.80,74216135, 0.22, -17.83, 98.75, 599.659973145, -35.3634258, 149.1664652, 0.642955720425, 0.118957579136, -0.0994339883327, 0.750046610832,0
2019-04-03 19:07:51.90,74316095, 0.23, -17.84, 98.75, 599.710021973, -35.3634264, 149.1664706, 0.642948627472, 0.119069613516, -0.0994415953755, 0.750033915043,0
2019-04-03 19:07:52.00,74416055, 0.24, -17.84, 98.75, 599.760009766, -35.3634273, 149.166476, 0.642954409122, 0.119076602161, -0.0993665605783, 0.750037789345,0
2019-04-03 19:07:52.10,74516015, 0.25, -17.83, 98.75, 599.809997559, -35.363428, 149.1664815, 0.642960548401, 0.11907684058, -0.0992897599936, 0.750042676926,0
2019-04-03 19:07:52.20,74615975, 0.25, -17.84, 98.75, 599.859985352, -35.3634287, 149.1664869, 0.642953574657, 0.119181349874, -0.0993369072676, 0.750025808811,0
2019-04-03 19:07:52.30,74715935, 0.26, -17.88, 98.74, 599.909973145, -35.3634294, 149.1664922, 0.642926037312, 0.119449861348, -0.0994503498077, 0.74999165535,0
2019-04-03 19:07:52.40,74815895, 0.26, -17.9, 98.74, 599.960021973, -35.3634301, 149.1664976, 0.642915427685, 0.119608163834, -0.0996114239097, 0.749954164028,0
2019-04-03 19:07:52.50,74915855, 0.24, -17.9, 98.74, 600.010009766, -35.3634309, 149.1665032, 0.642945051193, 0.11949583143, -0.0997103229165, 0.749933540821,0
2019-04-03 19:07:52.59,75015815, 0.2, -17.89, 98.74, 600.059997559, -35.3634316, 149.1665085, 0.643012106419, 0.119148008525, -0.0999255403876, 0.749902784824,0
2019-04-03 19:07:52.69,75115775, 0.17, -17.87, 98.74, 600.109985352, -35.3634323, 149.166514, 0.643074095249, 0.11885279417, -0.100008577108, 0.749885380268,0
2019-04-03 19:07:52.79,75215735, 0.17, -17.86, 98.73, 600.159973145, -35.3634331, 149.1665194, 0.643102347851, 0.11881762743, -0.0999315604568, 0.749876976013,0
2019-04-03 19:07:52.89,75315695, 0.19, -17.86, 98.73, 600.210021973, -35.3634337, 149.1665248, 0.643110573292, 0.118943467736, -0.0998730063438, 0.749857783318,0
2019-04-03 19:07:53.00,75416488, 0.21, -17.88, 98.72, 600.260009766, -35.3634344, 149.1665303, 0.64310747385, 0.119130633771, -0.0998344793916, 0.749835789204,0
2019-04-03 19:07:53.10,75516448, 0.23, -17.87, 98.72, 600.309997559, -35.3634353, 149.1665358, 0.643115997314, 0.119172886014, -0.0996544510126, 0.749845743179,0
2019-04-03 19:07:53.20,75616408, 0.24, -17.86, 98.72, 600.359985352, -35.363436, 149.1665411, 0.643128991127, 0.119188390672, -0.0995562821627, 0.749845206738,0
2019-04-03 19:07:53.30,75716368, 0.24, -17.86, 98.72, 600.409973145, -35.3634367, 149.1665466, 0.643141567707, 0.119213782251, -0.0995435044169, 0.749832093716,0
2019-04-03 19:07:53.40,75816328, 0.22, -17.87, 98.71, 600.460021973, -35.3634374, 149.166552, 0.643165767193, 0.119149535894, -0.0996613949537, 0.749805808067,0
2019-04-03 19:07:53.50,75916288, 0.19, -17.88, 98.71, 600.510009766, -35.3634382, 149.1665574, 0.64319986105, 0.119053319097, -0.0999640971422, 0.749751627445,0
2019-04-03 19:07:53.60,76016248, 0.15, -17.88, 98.71, 600.559997559, -35.3634389, 149.1665629, 0.643254339695, 0.118832238019, -0.100275464356, 0.749698340893,0
2019-04-03 19:07:53.70,76116208, 0.12, -17.89, 98.71, 600.619995117, -35.3634397, 149.1665683, 0.643293142319, 0.118708752096, -0.100462809205, 0.749659597874,0
2019-04-03 19:07:53.80,76216168, 0.11, -17.9, 98.7, 600.66998291, -35.3634404, 149.1665736, 0.643315196037, 0.118750922382, -0.100633874536, 0.749611020088,0
2019-04-03 19:07:53.90,76316128, 0.13, -17.9, 98.7, 600.719970703, -35.363441, 149.1665792, 0.643339216709, 0.118839815259, -0.100521311164, 0.749591469765,0
2019-04-03 19:07:54.00,76416088, 0.15, -17.9, 98.69, 600.770019531, -35.3634417, 149.1665846, 0.643366038799, 0.118939369917, -0.100319571793, 0.74957960844,0
2019-04-03 19:07:54.10,76516048, 0.17, -17.89, 98.68, 600.820007324, -35.3634426, 149.1665899, 0.643402457237, 0.118983708322, -0.100203849375, 0.749556839466,0
2019-04-03 19:07:54.20,76616008, 0.17, -17.9, 98.68, 600.869995117, -35.3634433, 149.1665954, 0.643446743488, 0.118994928896, -0.100235402584, 0.749512791634,0
2019-04-03 19:07:54.30,76715968, 0.16, -17.89, 98.67, 600.91998291, -35.363444, 149.1666009, 0.643505692482, 0.118895553052, -0.100288070738, 0.749470889568,0
2019-04-03 19:07:54.40,76815928, 0.15, -17.89, 98.66, 600.969970703, -35.3634446, 149.1666062, 0.643559753895, 0.118805319071, -0.100331246853, 0.749433040619,0
2019-04-03 19:07:54.50,76915888, 0.16, -17.9, 98.66, 601.020019531, -35.3634455, 149.1666117, 0.643556594849, 0.118986733258, -0.100348062813, 0.749404728413,0
2019-04-03 19:07:54.60,77015848, 0.2, -17.92, 98.66, 601.070007324, -35.3634462, 149.1666172, 0.643520414829, 0.119293361902, -0.100192762911, 0.74940776825,0
2019-04-03 19:07:54.69,77115808, 0.24, -17.9, 98.66, 601.119995117, -35.3634469, 149.1666225, 0.643500626087, 0.119415059686, -0.0997651666403, 0.749462485313,0
2019-04-03 19:07:54.79,77215768, 0.27, -17.85, 98.66, 601.16998291, -35.3634476, 149.1666281, 0.643509507179, 0.119273707271, -0.0993631929159, 0.749530732632,0
2019-04-03 19:07:54.89,77315728, 0.27, -17.82, 98.66, 601.219970703, -35.3634483, 149.1666335, 0.643526077271, 0.119077391922, -0.0991566479206, 0.749575078487,0
2019-04-03 19:07:54.99,77415688, 0.24, -17.84, 98.66, 601.270019531, -35.363449, 149.1666388, 0.643532156944, 0.119032084942, -0.0994950011373, 0.749532222748,0
2019-04-03 19:07:55.10,77516481, 0.2, -17.91, 98.66, 601.320007324, -35.3634498, 149.1666444, 0.643506228924, 0.119230203331, -0.100089885294, 0.74944370985,0
2019-04-03 19:07:55.20,77616441, 0.18, -17.96, 98.66, 601.369995117, -35.3634505, 149.1666497, 0.643463492393, 0.119497746229, -0.100523740053, 0.749379813671,0
2019-04-03 19:07:55.30,77716401, 0.18, -17.99, 98.66, 601.41998291, -35.3634512, 149.1666551, 0.643434822559, 0.11965020746, -0.100717067719, 0.749354064465,0
2019-04-03 19:07:55.40,77816361, 0.18, -17.97, 98.67, 601.469970703, -35.3634519, 149.1666607, 0.643429458141, 0.119567506015, -0.100596286356, 0.749388098717,0
2019-04-03 19:07:55.50,77916321, 0.18, -17.93, 98.67, 601.520019531, -35.3634526, 149.166666, 0.643462359905, 0.119260497391, -0.100365407765, 0.749439716339,0
2019-04-03 19:07:55.60,78016281, 0.17, -17.88, 98.67, 601.570007324, -35.3634534, 149.1666715, 0.64351350069, 0.11889000237, -0.100135065615, 0.749485552311,0
2019-04-03 19:07:55.70,78116241, 0.18, -17.82, 98.67, 601.619995117, -35.3634542, 149.166677, 0.643564283848, 0.118551462889, -0.0997730791569, 0.749543845654,0
2019-04-03 19:07:55.80,78216201, 0.19, -17.76, 98.66, 601.66998291, -35.3634549, 149.1666823, 0.643613398075, 0.118265897036, -0.0993359610438, 0.749604821205,0
2019-04-03 19:07:55.90,78316161, 0.2, -17.76, 98.66, 601.719970703, -35.3634556, 149.1666878, 0.643643558025, 0.118219055235, -0.0992876887321, 0.749592721462,0
2019-04-03 19:07:56.00,78416121, 0.18, -17.82, 98.66, 601.770019531, -35.3634562, 149.1666933, 0.643619060516, 0.118570692837, -0.0997661203146, 0.749494731426,0
2019-04-03 19:07:56.10,78516081, 0.15, -17.89, 98.66, 601.820007324, -35.3634571, 149.1666986, 0.643600583076, 0.118844226003, -0.100378461182, 0.749385476112,0
2019-04-03 19:07:56.20,78616041, 0.12, -17.93, 98.65, 601.869995117, -35.3634578, 149.1667041, 0.643609821796, 0.118908666074, -0.100768394768, 0.749314963818,0
2019-04-03 19:07:56.30,78716001, 0.09, -17.92, 98.65, 601.91998291, -35.3634585, 149.1667095, 0.643652975559, 0.118717648089, -0.100917033851, 0.749288201332,0
2019-04-03 19:07:56.40,78815961, 0.08, -17.91, 98.65, 601.969970703, -35.3634592, 149.1667149, 0.643690168858, 0.118571594357, -0.100908815861, 0.749280452728,0
2019-04-03 19:07:56.50,78915921, 0.09, -17.9, 98.65, 602.020019531, -35.3634599, 149.1667204, 0.643709719181, 0.118558235466, -0.100844115019, 0.749274492264,0
2019-04-03 19:07:56.60,79015881, 0.09, -17.89, 98.64, 602.070007324, -35.3634607, 149.1667258, 0.643737673759, 0.118516951799, -0.100775964558, 0.749266147614,0
2019-04-03 19:07:56.69,79115841, 0.11, -17.84, 98.64, 602.119995117, -35.3634614, 149.1667312, 0.643800199032, 0.118264228106, -0.100351087749, 0.749309420586,0
2019-04-03 19:07:56.79,79215801, 0.15, -17.78, 98.63, 602.16998291, -35.3634621, 149.1667367, 0.643847703934, 0.118089944124, -0.0997217223048, 0.749380111694,0
2019-04-03 19:07:56.89,79315761, 0.19, -17.78, 98.63, 602.219970703, -35.3634628, 149.1667421, 0.643836438656, 0.118290826678, -0.0994779765606, 0.749390423298,0
