Start,TimeUS,Roll,Pitch,Yaw,Alt,Lat,Lng,Q1,Q2,Q3,Q4,Category
2019-04-03 20:33:36.92,43135239, 0.0, 0.0, 353.0, 584.090026855, -35.363261, 149.1652299, 0.998134791851, 0.0, 0.0, -0.0610485821962,0
2019-04-03 20:33:37.01,43235199, 0.0, 0.0, 353.0, 584.090026855, -35.363261, 149.1652299, 0.998134791851, 0.0, 0.0, -0.0610485821962,0
2019-04-03 20:33:37.11,43335159, 0.0, 0.0, 353.0, 584.090026855, -35.363261, 149.1652299, 0.998134791851, 0.0, 0.0, -0.0610485821962,0
2019-04-03 20:33:37.21,43435119, 0.0, 0.0, 353.0, 584.090026855, -35.363261, 149.1652299, 0.998134791851, 0.0, 0.0, -0.0610485821962,0
2019-04-03 20:33:37.31,43535079, 0.0, 0.0, 353.0, 584.090026855, -35.363261, 149.1652299, 0.998134791851, 0.0, 0.0, -0.0610485821962,0
2019-04-03 20:33:37.41,43635039, 0.0, 0.0, 353.0, 584.090026855, -35.363261, 149.1652299, 0.998134791851, 0.0, 0.0, -0.0610485821962,0
2019-04-03 20:33:37.51,43734999, 0.0, 0.0, 353.0, 584.090026855, -35.363261, 149.1652299, 0.998134791851, 0.0, 0.0, -0.0610485821962,0
2019-04-03 20:33:37.61,43834959, 0.0, 0.0, 353.0, 584.090026855, -35.363261, 149.1652299, 0.998134791851, 0.0, 0.0, -0.0610485821962,0
2019-04-03 20:33:37.71,43934919, 0.0, 0.0, 353.0, 584.090026855, -35.363261, 149.1652299, 0.998134791851, 0.0, 0.0, -0.0610485821962,0
2019-04-03 20:33:37.81,44034879, 0.0, 0.0, 353.0, 584.090026855, -35.363261, 149.1652299, 0.998134791851, 0.0, 0.0, -0.0610485821962,0
2019-04-03 20:33:37.91,44134839, 0.0, 0.0, 353.0, 584.090026855, -35.363261, 149.1652299, 0.998134791851, 0.0, 0.0, -0.0610485821962,0
2019-04-03 20:33:38.01,44234799, 0.0, 0.0, 353.0, 584.090026855, -35.363261, 149.1652299, 0.998134791851, 0.0, 0.0, -0.0610485821962,0
2019-04-03 20:33:38.11,44334759, 0.0, 0.0, 353.0, 584.090026855, -35.363261, 149.1652299, 0.998134791851, 0.0, 0.0, -0.0610485821962,0
2019-04-03 20:33:38.21,44434719, 0.0, 0.0, 353.0, 584.090026855, -35.363261, 149.1652299, 0.998134791851, 0.0, 0.0, -0.0610485821962,0
2019-04-03 20:33:38.31,44534679, 0.0, 0.0, 353.0, 584.090026855, -35.363261, 149.1652299, 0.998134791851, 0.0, 0.0, -0.0610485821962,0
2019-04-03 20:33:38.41,44634639, 0.0, 0.0, 353.0, 584.090026855, -35.363261, 149.1652299, 0.998134791851, 0.0, 0.0, -0.0610485821962,0
2019-04-03 20:33:38.51,44734599, 0.0, 0.0, 353.0, 584.090026855, -35.363261, 149.1652299, 0.998134791851, 0.0, 0.0, -0.0610485821962,0
2019-04-03 20:33:38.61,44834559, 0.0, 0.0, 353.0, 584.090026855, -35.363261, 149.1652299, 0.998134791851, 0.0, 0.0, -0.0610485821962,0
2019-04-03 20:33:38.71,44934519, 0.0, 0.0, 353.0, 584.090026855, -35.363261, 149.1652299, 0.998134791851, 0.0, 0.0, -0.0610485821962,0
2019-04-03 20:33:38.81,45034479, 0.0, 0.0, 353.0, 584.090026855, -35.363261, 149.1652299, 0.998134791851, 0.0, 0.0, -0.0610485821962,0
2019-04-03 20:33:38.92,45135272, 0.0, 0.0, 353.0, 584.090026855, -35.363261, 149.1652299, 0.998134791851, 0.0, 0.0, -0.0610485821962,0
2019-04-03 20:33:39.02,45235232, 0.0, 0.0, 353.0, 584.090026855, -35.363261, 149.1652299, 0.998134791851, 0.0, 0.0, -0.0610485821962,0
2019-04-03 20:33:39.11,45335192, 0.0, 0.0, 353.0, 584.090026855, -35.363261, 149.1652299, 0.998134791851, 0.0, 0.0, -0.0610485821962,0
2019-04-03 20:33:39.21,45435152, 0.0, 0.0, 353.0, 584.090026855, -35.363261, 149.1652299, 0.998134791851, 0.0, 0.0, -0.0610485821962,0
2019-04-03 20:33:39.31,45535112, 0.0, 0.0, 353.0, 584.090026855, -35.363261, 149.1652299, 0.998134791851, 0.0, 0.0, -0.0610485821962,0
2019-04-03 20:33:39.41,45635072, 0.0, 0.0, 353.0, 584.090026855, -35.363261, 149.1652299, 0.998134791851, 0.0, 0.0, -0.0610485821962,0
2019-04-03 20:33:39.51,45735032, 0.0, 0.0, 353.0, 584.090026855, -35.363261, 149.1652299, 0.998134791851, 0.0, 0.0, -0.0610485821962,0
2019-04-03 20:33:39.61,45834992, 0.0, 0.0, 353.0, 584.090026855, -35.363261, 149.1652299, 0.998134791851, 0.0, 0.0, -0.0610485821962,0
2019-04-03 20:33:39.71,45934952, 0.0, 0.0, 353.0, 584.090026855, -35.363261, 149.1652299, 0.998134791851, 0.0, 0.0, -0.0610485821962,0
2019-04-03 20:33:39.81,46034912, 0.0, 0.0, 353.0, 584.090026855, -35.363261, 149.1652299, 0.998134791851, 0.0, 0.0, -0.0610485821962,0
2019-04-03 20:33:39.91,46134872, 0.0, 0.0, 353.0, 584.090026855, -35.363261, 149.1652299, 0.998134791851, 0.0, 0.0, -0.0610485821962,0
2019-04-03 20:33:40.01,46234832, 0.0, 0.0, 353.0, 584.090026855, -35.363261, 149.1652299, 0.998134791851, 0.0, 0.0, -0.0610485821962,0
2019-04-03 20:33:40.11,46334792, 0.0, 0.0, 353.0, 584.090026855, -35.363261, 149.1652299, 0.998134791851, 0.0, 0.0, -0.0610485821962,0
2019-04-03 20:33:40.21,46434752, 0.0, 0.0, 353.0, 584.090026855, -35.363261, 149.1652299, 0.998134791851, 0.0, 0.0, -0.0610485821962,0
2019-04-03 20:33:40.31,46534712, 0.0, 0.0, 353.0, 584.090026855, -35.363261, 149.1652299, 0.998134791851, 0.0, 0.0, -0.0610485821962,0
2019-04-03 20:33:40.41,46634672, 0.0, 0.0, 353.0, 584.090026855, -35.363261, 149.1652299, 0.998134791851, 0.0, 0.0, -0.0610485821962,0
2019-04-03 20:33:40.51,46734632, 0.0, 0.0, 353.0, 584.090026855, -35.363261, 149.1652299, 0.998134791851, 0.0, 0.0, -0.0610485821962,0
2019-04-03 20:33:40.61,46834592, 0.0, 0.0, 353.0, 584.090026855, -35.363261, 149.1652299, 0.998134791851, 0.0, 0.0, -0.0610485821962,0
2019-04-03 20:33:40.71,46934552, 0.0, 0.0, 353.0, 584.090026855, -35.363261, 149.1652299, 0.998134791851, 0.0, 0.0, -0.0610485821962,0
2019-04-03 20:33:40.81,47034512, 0.0, 0.0, 353.0, 584.090026855, -35.363261, 149.1652299, 0.998134791851, 0.0, 0.0, -0.0610485821962,0
2019-04-03 20:33:40.91,47134472, 0.0, 0.0, 353.0, 584.090026855, -35.363261, 149.1652299, 0.998134791851, 0.0, 0.0, -0.0610485821962,0
2019-04-03 20:33:41.02,47235265, 0.0, 0.0, 353.0, 584.090026855, -35.363261, 149.1652299, 0.998134791851, 0.0, 0.0, -0.0610485821962,0
2019-04-03 20:33:41.12,47335225, 0.0, 0.0, 353.0, 584.090026855, -35.363261, 149.1652299, 0.998134791851, 0.0, 0.0, -0.0610485821962,0
2019-04-03 20:33:41.21,47435185, 0.0, 0.0, 353.0, 584.090026855, -35.363261, 149.1652299, 0.998134791851, 0.0, 0.0, -0.0610485821962,0
2019-04-03 20:33:41.31,47535145, 0.0, 0.0, 353.0, 584.090026855, -35.363261, 149.1652299, 0.998134791851, 0.0, 0.0, -0.0610485821962,0
2019-04-03 20:33:41.41,47635105, 0.0, 0.0, 353.0, 584.090026855, -35.363261, 149.1652299, 0.998134791851, 0.0, 0.0, -0.0610485821962,0
2019-04-03 20:33:41.51,47735065, 0.0, 0.0, 353.0, 584.090026855, -35.363261, 149.1652299, 0.998134791851, 0.0, 0.0, -0.0610485821962,0
2019-04-03 20:33:41.61,47835025, 0.0, 0.0, 353.0, 584.090026855, -35.363261, 149.1652299, 0.998134791851, 0.0, 0.0, -0.0610485821962,0
2019-04-03 20:33:41.71,47934985, 0.0, 0.0, 353.0, 584.090026855, -35.363261, 149.1652299, 0.998134791851, 0.0, 0.0, -0.0610485821962,0
2019-04-03 20:33:41.81,48034945, 0.0, 0.0, 353.0, 584.090026855, -35.363261, 149.1652299, 0.998134791851, 0.0, 0.0, -0.0610485821962,0
2019-04-03 20:33:41.91,48134905, 0.0, 0.0, 353.0, 584.090026855, -35.363261, 149.1652299, 0.998134791851, 0.0, 0.0, -0.0610485821962,0
2019-04-03 20:33:42.01,48234865, 0.0, 0.0, 353.0, 584.090026855, -35.363261, 149.1652299, 0.998134791851, 0.0, 0.0, -0.0610485821962,0
2019-04-03 20:33:42.11,48334825, 0.0, 0.0, 353.0, 584.090026855, -35.363261, 149.1652299, 0.998134791851, 0.0, 0.0, -0.0610485821962,0
2019-04-03 20:33:42.21,48434785, 0.0, 0.0, 353.0, 584.090026855, -35.363261, 149.1652299, 0.998134791851, 0.0, 0.0, -0.0610485821962,0
2019-04-03 20:33:42.31,48534745, 0.0, 0.0, 353.0, 584.090026855, -35.363261, 149.1652299, 0.998134791851, 0.0, 0.0, -0.0610485821962,0
2019-04-03 20:33:42.41,48634705, 0.0, 0.0, 353.0, 584.090026855, -35.363261, 149.1652299, 0.998134791851, 0.0, 0.0, -0.0610485821962,0
2019-04-03 20:33:42.51,48734665, 0.0, 0.0, 353.0, 584.090026855, -35.363261, 149.1652299, 0.998134791851, 0.0, 0.0, -0.0610485821962,0
2019-04-03 20:33:42.61,48834625, 0.0, 0.0, 353.0, 584.090026855, -35.363261, 149.1652299, 0.998134791851, 0.0, 0.0, -0.0610485821962,0
2019-04-03 20:33:42.71,48934585, 0.0, 0.0, 353.0, 584.090026855, -35.363261, 149.1652299, 0.998134791851, 0.0, 0.0, -0.0610485821962,0
2019-04-03 20:33:42.81,49034545, 0.0, 0.0, 353.0, 584.090026855, -35.363261, 149.1652299, 0.998134791851, 0.0, 0.0, -0.0610485821962,0
2019-04-03 20:33:42.91,49134505, 0.0, 0.0, 353.0, 584.090026855, -35.363261, 149.1652299, 0.998134791851, 0.0, 0.0, -0.0610485821962,0
2019-04-03 20:33:43.01,49234465, 0.0, 0.0, 353.0, 584.090026855, -35.363261, 149.1652299, 0.998134791851, 0.0, 0.0, -0.0610485821962,0
2019-04-03 20:33:43.12,49335258, 0.0, 0.0, 353.0, 584.090026855, -35.363261, 149.1652299, 0.998134791851, 0.0, 0.0, -0.0610485821962,0
2019-04-03 20:33:43.22,49435218, 0.0, 0.0, 353.0, 584.090026855, -35.363261, 149.1652299, 0.998134791851, 0.0, 0.0, -0.0610485821962,0
2019-04-03 20:33:43.31,49535178, 0.0, 0.0, 353.0, 584.090026855, -35.363261, 149.1652299, 0.998134791851, 0.0, 0.0, -0.0610485821962,0
2019-04-03 20:33:43.41,49635138, 0.0, 0.0, 353.0, 584.090026855, -35.363261, 149.1652299, 0.998134791851, 0.0, 0.0, -0.0610485821962,0
2019-04-03 20:33:43.51,49735098, 0.0, 0.0, 353.0, 584.090026855, -35.363261, 149.1652299, 0.998134791851, 0.0, 0.0, -0.0610485821962,0
2019-04-03 20:33:43.61,49835058, 0.0, 0.0, 353.0, 584.090026855, -35.363261, 149.1652299, 0.998134791851, 0.0, 0.0, -0.0610485821962,0
2019-04-03 20:33:43.71,49935018, 0.0, 0.0, 353.0, 584.090026855, -35.363261, 149.1652299, 0.998134791851, 0.0, 0.0, -0.0610485821962,0
2019-04-03 20:33:43.81,50034978, 0.0, 0.0, 353.0, 584.090026855, -35.363261, 149.1652299, 0.998134791851, 0.0, 0.0, -0.0610485821962,0
2019-04-03 20:33:43.91,50134938, 0.0, 0.0, 353.0, 584.090026855, -35.363261, 149.1652299, 0.998134791851, 0.0, 0.0, -0.0610485821962,0
2019-04-03 20:33:44.01,50234898, 0.0, 0.0, 353.0, 584.090026855, -35.363261, 149.1652299, 0.998134791851, 0.0, 0.0, -0.0610485821962,0
2019-04-03 20:33:44.11,50334858, 0.0, 0.0, 353.0, 584.090026855, -35.363261, 149.1652299, 0.998134791851, 0.0, 0.0, -0.0610485821962,0
2019-04-03 20:33:44.21,50434818, 0.0, 0.0, 353.0, 584.090026855, -35.363261, 149.1652299, 0.998134791851, 0.0, 0.0, -0.0610485821962,0
2019-04-03 20:33:44.31,50534778, 0.0, 0.0, 353.0, 584.090026855, -35.363261, 149.1652299, 0.998134791851, 0.0, 0.0, -0.0610485821962,0
2019-04-03 20:33:44.41,50634738, 0.0, 0.0, 353.0, 584.090026855, -35.363261, 149.1652299, 0.998134791851, 0.0, 0.0, -0.0610485821962,0
2019-04-03 20:33:44.51,50734698, 0.0, 0.0, 353.0, 584.090026855, -35.363261, 149.1652299, 0.998134791851, 0.0, 0.0, -0.0610485821962,0
2019-04-03 20:33:44.61,50834658, 0.0, 0.0, 353.0, 584.090026855, -35.363261, 149.1652299, 0.998134791851, 0.0, 0.0, -0.0610485821962,0
2019-04-03 20:33:44.71,50934618, 0.0, 0.0, 353.0, 584.090026855, -35.363261, 149.1652299, 0.998134791851, 0.0, 0.0, -0.0610485821962,0
2019-04-03 20:33:44.81,51034578, 0.0, 0.0, 353.0, 584.090026855, -35.363261, 149.1652299, 0.998134791851, 0.0, 0.0, -0.0610485821962,0
2019-04-03 20:33:44.91,51134538, 0.0, 0.0, 353.0, 584.090026855, -35.363261, 149.1652299, 0.998134791851, 0.0, 0.0, -0.0610485821962,0
2019-04-03 20:33:45.01,51234498, 0.0, 0.0, 353.0, 584.090026855, -35.363261, 149.1652299, 0.998134791851, 0.0, 0.0, -0.0610485821962,0
2019-04-03 20:33:45.11,51334458, 0.0, 0.0, 353.0, 584.090026855, -35.363261, 149.1652299, 0.998134791851, 0.0, 0.0, -0.0610485821962,0
2019-04-03 20:33:45.22,51435251, 0.0, 0.0, 353.0, 584.090026855, -35.363261, 149.1652299, 0.998134791851, 0.0, 0.0, -0.0610485821962,0
2019-04-03 20:33:45.32,51535211, 0.0, 0.0, 353.0, 584.090026855, -35.363261, 149.1652299, 0.998134791851, 0.0, 0.0, -0.0610485821962,0
2019-04-03 20:33:45.41,51635171, 0.0, 0.0, 353.0, 584.090026855, -35.363261, 149.1652299, 0.998134791851, 0.0, 0.0, -0.0610485821962,0
2019-04-03 20:33:45.51,51735131, 0.0, 0.0, 353.0, 584.090026855, -35.363261, 149.1652299, 0.998134791851, 0.0, 0.0, -0.0610485821962,0
2019-04-03 20:33:45.61,51835091, 0.0, 0.0, 353.0, 584.090026855, -35.363261, 149.1652299, 0.998134791851, 0.0, 0.0, -0.0610485821962,0
2019-04-03 20:33:45.71,51935051, 0.0, 0.0, 353.0, 584.090026855, -35.363261, 149.1652299, 0.998134791851, 0.0, 0.0, -0.0610485821962,0
2019-04-03 20:33:45.81,52035011, 0.0, 0.0, 353.0, 584.090026855, -35.363261, 149.1652299, 0.998134791851, 0.0, 0.0, -0.0610485821962,0
2019-04-03 20:33:45.91,52134971, 0.0, 0.0, 353.0, 584.090026855, -35.363261, 149.1652299, 0.998134791851, 0.0, 0.0, -0.0610485821962,0
2019-04-03 20:33:46.01,52234931, 0.0, 0.0, 353.0, 584.090026855, -35.363261, 149.1652299, 0.998134791851, 0.0, 0.0, -0.0610485821962,0
2019-04-03 20:33:46.11,52334891, 0.0, 0.0, 353.0, 584.090026855, -35.363261, 149.1652299, 0.998134791851, 0.0, 0.0, -0.0610485821962,0
2019-04-03 20:33:46.21,52434851, 0.0, 0.0, 353.0, 584.090026855, -35.363261, 149.1652299, 0.998134791851, 0.0, 0.0, -0.0610485821962,0
2019-04-03 20:33:46.31,52534811, 0.0, 0.0, 353.0, 584.090026855, -35.363261, 149.1652299, 0.998134791851, 0.0, 0.0, -0.0610485821962,0
2019-04-03 20:33:46.41,52634771, 0.0, 0.0, 353.0, 584.090026855, -35.363261, 149.1652299, 0.998134791851, 0.0, 0.0, -0.0610485821962,0
2019-04-03 20:33:46.51,52734731, 0.0, 0.0, 353.0, 584.090026855, -35.363261, 149.1652299, 0.998134791851, 0.0, 0.0, -0.0610485821962,0
2019-04-03 20:33:46.61,52834691, 0.0, 0.0, 353.0, 584.090026855, -35.363261, 149.1652299, 0.998134791851, 0.0, 0.0, -0.0610485821962,0
2019-04-03 20:33:46.71,52934651, 0.0, 0.0, 353.0, 584.090026855, -35.363261, 149.1652299, 0.998134791851, 0.0, 0.0, -0.0610485821962,0
2019-04-03 20:33:48.01,54234964, 0.0, 0.0, 353.0, 584.090026855, -35.363261, 149.1652299, 0.998134791851, 0.0, 0.0, -0.0610485821962,0
2019-04-03 20:33:48.11,54334924, 0.0, 0.0, 353.0, 584.090026855, -35.363261, 149.1652299, 0.998134791851, 0.0, 0.0, -0.0610485821962,0
2019-04-03 20:33:48.21,54434884, 0.0, 0.0, 353.0, 584.090026855, -35.363261, 149.1652299, 0.998134791851, 0.0, 0.0, -0.0610485821962,0
2019-04-03 20:33:48.31,54534844, 0.0, 0.0, 353.0, 584.090026855, -35.363261, 149.1652299, 0.998134791851, 0.0, 0.0, -0.0610485821962,0
2019-04-03 20:33:48.41,54634804, 0.0, 0.0, 353.0, 584.090026855, -35.363261, 149.1652299, 0.998134791851, 0.0, 0.0, -0.0610485821962,0
2019-04-03 20:33:48.51,54734764, 0.0, 0.0, 353.0, 584.090026855, -35.363261, 149.1652299, 0.998134791851, 0.0, 0.0, -0.0610485821962,0
2019-04-03 20:33:48.61,54834724, 0.0, 0.0, 353.0, 584.090026855, -35.363261, 149.1652299, 0.998134791851, 0.0, 0.0, -0.0610485821962,0
2019-04-03 20:33:48.71,54934684, 0.0, 0.0, 353.0, 584.090026855, -35.363261, 149.1652299, 0.998134791851, 0.0, 0.0, -0.0610485821962,0
2019-04-03 20:33:48.81,55034644, 0.0, 0.0, 353.0, 584.090026855, -35.363261, 149.1652299, 0.998134791851, 0.0, 0.0, -0.0610485821962,0
2019-04-03 20:33:48.91,55134604, 0.0, 0.0, 353.0, 584.090026855, -35.363261, 149.1652299, 0.998134791851, 0.0, 0.0, -0.0610485821962,0
2019-04-03 20:33:49.01,55234564, 0.0, 0.0, 353.0, 584.090026855, -35.363261, 149.1652299, 0.998134791851, 0.0, 0.0, -0.0610485821962,0
2019-04-03 20:33:49.11,55334524, 0.0, 0.0, 353.0, 584.090026855, -35.363261, 149.1652299, 0.998134791851, 0.0, 0.0, -0.0610485821962,0
2019-04-03 20:33:49.21,55434484, 0.0, 0.0, 353.0, 584.090026855, -35.363261, 149.1652299, 0.998134791851, 0.0, 0.0, -0.0610485821962,0
2019-04-03 20:33:49.32,55535277, 0.0, 0.0, 353.0, 584.090026855, -35.363261, 149.1652299, 0.998134791851, 0.0, 0.0, -0.0610485821962,0
2019-04-03 20:33:49.42,55635237, 0.0, 0.0, 353.0, 584.090026855, -35.363261, 149.1652299, 0.998134791851, 0.0, 0.0, -0.0610485821962,0
2019-04-03 20:33:49.51,55735197, 0.0, 0.0, 353.0, 584.090026855, -35.363261, 149.1652299, 0.998134791851, 0.0, 0.0, -0.0610485821962,0
2019-04-03 20:33:49.61,55835157, 0.0, 0.0, 353.0, 584.090026855, -35.363261, 149.1652299, 0.998134791851, 0.0, 0.0, -0.0610485821962,0
2019-04-03 20:33:49.71,55935117, 0.0, 0.0, 353.0, 584.090026855, -35.363261, 149.1652299, 0.998134791851, 0.0, 0.0, -0.0610485821962,0
2019-04-03 20:33:49.81,56035077, 0.0, 0.0, 353.0, 584.090026855, -35.363261, 149.1652299, 0.998134791851, 0.0, 0.0, -0.0610485821962,0
2019-04-03 20:33:49.91,56135037, 0.0, 0.0, 353.0, 584.090026855, -35.363261, 149.1652299, 0.998134791851, 0.0, 0.0, -0.0610485821962,0
2019-04-03 20:33:50.01,56234997, 0.0, 0.0, 353.0, 584.090026855, -35.363261, 149.1652299, 0.998134791851, 0.0, 0.0, -0.0610485821962,0
2019-04-03 20:33:50.11,56334957, 0.0, 0.0, 353.0, 584.090026855, -35.363261, 149.1652299, 0.998134791851, 0.0, 0.0, -0.0610485821962,0
2019-04-03 20:33:50.21,56434917, 0.0, 0.0, 353.0, 584.090026855, -35.363261, 149.1652299, 0.998134791851, 0.0, 0.0, -0.0610485821962,0
2019-04-03 20:33:50.31,56534877, 0.0, 0.0, 353.0, 584.090026855, -35.363261, 149.1652299, 0.998134791851, 0.0, 0.0, -0.0610485821962,0
2019-04-03 20:33:50.41,56634837, 0.0, 0.0, 353.0, 584.090026855, -35.363261, 149.1652299, 0.998134791851, 0.0, 0.0, -0.0610485821962,0
2019-04-03 20:33:50.51,56734797, 0.0, 0.0, 353.0, 584.090026855, -35.363261, 149.1652299, 0.998134791851, 0.0, 0.0, -0.0610485821962,0
2019-04-03 20:33:50.61,56834757, 0.0, 0.0, 353.0, 584.090026855, -35.363261, 149.1652299, 0.998134791851, 0.0, 0.0, -0.0610485821962,0
2019-04-03 20:33:50.71,56934717, 0.0, 0.0, 353.0, 584.090026855, -35.363261, 149.1652299, 0.998134791851, 0.0, 0.0, -0.0610485821962,0
2019-04-03 20:33:50.81,57034677, 0.0, 0.0, 353.0, 584.090026855, -35.363261, 149.1652299, 0.998134791851, 0.0, 0.0, -0.0610485821962,0
2019-04-03 20:33:50.91,57134637, 0.0, 0.0, 353.0, 584.090026855, -35.363261, 149.1652299, 0.998134791851, 0.0, 0.0, -0.0610485821962,0
2019-04-03 20:33:51.01,57234597, 0.0, 0.0, 353.0, 584.090026855, -35.363261, 149.1652299, 0.998134791851, 0.0, 0.0, -0.0610485821962,0
2019-04-03 20:33:51.11,57334557, 0.0, 0.0, 353.0, 584.090026855, -35.363261, 149.1652299, 0.998134791851, 0.0, 0.0, -0.0610485821962,0
2019-04-03 20:33:51.21,57434517, 0.0, 0.0, 353.0, 584.090026855, -35.363261, 149.1652299, 0.998134791851, 0.0, 0.0, -0.0610485821962,0
2019-04-03 20:33:51.31,57534477, 0.0, 0.0, 353.0, 584.090026855, -35.363261, 149.1652299, 0.998134791851, 0.0, 0.0, -0.0610485821962,0
2019-04-03 20:33:51.42,57635270, 0.0, 0.0, 353.0, 584.090026855, -35.363261, 149.1652299, 0.998134791851, 0.0, 0.0, -0.0610485821962,0
2019-04-03 20:33:51.52,57735230, 0.0, 0.0, 353.0, 584.090026855, -35.363261, 149.1652299, 0.998134791851, 0.0, 0.0, -0.0610485821962,0
2019-04-03 20:33:51.61,57835190, 0.0, 0.0, 353.0, 584.090026855, -35.363261, 149.1652299, 0.998134791851, 0.0, 0.0, -0.0610485821962,0
2019-04-03 20:33:51.71,57935150, 0.0, 0.0, 353.0, 584.090026855, -35.363261, 149.1652299, 0.998134791851, 0.0, 0.0, -0.0610485821962,0
2019-04-03 20:33:51.81,58035110, 0.0, 0.0, 353.0, 584.090026855, -35.363261, 149.1652299, 0.998134791851, 0.0, 0.0, -0.0610485821962,0
2019-04-03 20:33:51.91,58135070, 0.0, 0.0, 353.0, 584.090026855, -35.363261, 149.1652299, 0.998134791851, 0.0, 0.0, -0.0610485821962,0
2019-04-03 20:33:52.01,58235030, 0.0, 0.0, 353.0, 584.090026855, -35.363261, 149.1652299, 0.998134791851, 0.0, 0.0, -0.0610485821962,0
2019-04-03 20:33:52.11,58334990, 0.0, 0.0, 353.0, 584.090026855, -35.363261, 149.1652299, 0.998134791851, 0.0, 0.0, -0.0610485821962,0
2019-04-03 20:33:52.21,58434950, 0.0, 0.0, 353.0, 584.090026855, -35.363261, 149.1652299, 0.998134791851, 0.0, 0.0, -0.0610485821962,0
2019-04-03 20:33:52.31,58534910, 0.0, 0.0, 353.0, 584.090026855, -35.363261, 149.1652299, 0.998134791851, 0.0, 0.0, -0.0610485821962,0
2019-04-03 20:33:52.41,58634870, 0.0, 0.0, 353.0, 584.090026855, -35.363261, 149.1652299, 0.998134791851, 0.0, 0.0, -0.0610485821962,0
2019-04-03 20:33:52.51,58734830, 0.0, 0.0, 353.0, 584.090026855, -35.363261, 149.1652299, 0.998134791851, 0.0, 0.0, -0.0610485821962,0
2019-04-03 20:33:52.61,58834790, 0.0, 0.0, 353.0, 584.090026855, -35.363261, 149.1652299, 0.998134791851, 0.0, 0.0, -0.0610485821962,0
2019-04-03 20:33:52.71,58934750, 0.0, 0.0, 353.0, 584.090026855, -35.363261, 149.1652299, 0.998134791851, 0.0, 0.0, -0.0610485821962,0
2019-04-03 20:33:52.81,59034710, 0.0, 0.0, 353.0, 584.090026855, -35.363261, 149.1652299, 0.998134791851, 0.0, 0.0, -0.0610485821962,0
2019-04-03 20:33:52.91,59134670, 0.0, 0.0, 353.0, 584.090026855, -35.363261, 149.1652299, 0.998134791851, 0.0, 0.0, -0.0610485821962,0
2019-04-03 20:33:53.01,59234630, 0.0, 0.0, 353.0, 584.090026855, -35.363261, 149.1652299, 0.998134791851, 0.0, 0.0, -0.0610485821962,0
2019-04-03 20:33:53.11,59334590, 0.0, 0.0, 353.0, 584.090026855, -35.363261, 149.1652299, 0.998134791851, 0.0, 0.0, -0.0610485821962,0
2019-04-03 20:33:53.21,59434550, 0.0, 0.0, 353.0, 584.090026855, -35.363261, 149.1652299, 0.998134791851, 0.0, 0.0, -0.0610485821962,0
2019-04-03 20:33:53.31,59534510, 0.0, 0.0, 353.0, 584.090026855, -35.363261, 149.1652299, 0.998134791851, 0.0, 0.0, -0.0610485821962,0
2019-04-03 20:33:53.41,59634470, 0.0, 0.0, 353.0, 584.090026855, -35.363261, 149.1652299, 0.998134791851, 0.0, 0.0, -0.0610485821962,0
2019-04-03 20:33:53.52,59735263, 0.0, 0.0, 353.0, 584.090026855, -35.363261, 149.1652299, 0.998134791851, 0.0, 0.0, -0.0610485821962,0
2019-04-03 20:33:53.62,59835223, 0.0, 0.0, 353.0, 584.090026855, -35.363261, 149.1652299, 0.998134791851, 0.0, 0.0, -0.0610485821962,0
2019-04-03 20:33:53.71,59935183, 0.0, 0.0, 353.0, 584.090026855, -35.363261, 149.1652299, 0.998134791851, 0.0, 0.0, -0.0610485821962,0
2019-04-03 20:33:53.81,60035143, 0.0, 0.0, 353.0, 584.090026855, -35.363261, 149.1652299, 0.998134791851, 0.0, 0.0, -0.0610485821962,0
2019-04-03 20:33:53.91,60135103, 0.0, 0.0, 353.0, 584.090026855, -35.363261, 149.1652299, 0.998134791851, 0.0, 0.0, -0.0610485821962,0
2019-04-03 20:33:54.01,60235063, 0.0, 0.0, 353.0, 584.090026855, -35.363261, 149.1652299, 0.998134791851, 0.0, 0.0, -0.0610485821962,0
2019-04-03 20:33:54.11,60335023, 0.0, 0.0, 353.0, 584.090026855, -35.363261, 149.1652299, 0.998134791851, 0.0, 0.0, -0.0610485821962,0
2019-04-03 20:33:54.21,60434983, 0.0, 0.0, 353.0, 584.090026855, -35.363261, 149.1652299, 0.998134791851, 0.0, 0.0, -0.0610485821962,0
2019-04-03 20:33:54.31,60534943, 0.0, 0.0, 353.0, 584.090026855, -35.363261, 149.1652299, 0.998134791851, 0.0, 0.0, -0.0610485821962,0
2019-04-03 20:33:54.41,60634903, 0.0, 0.0, 353.0, 584.090026855, -35.363261, 149.1652299, 0.998134791851, 0.0, 0.0, -0.0610485821962,0
2019-04-03 20:33:54.51,60734863, 0.0, 0.0, 353.0, 584.090026855, -35.363261, 149.1652299, 0.998134791851, 0.0, 0.0, -0.0610485821962,0
2019-04-03 20:33:54.61,60834823, 0.0, 0.0, 353.0, 584.090026855, -35.363261, 149.1652299, 0.998134791851, 0.0, 0.0, -0.0610485821962,0
2019-04-03 20:33:54.71,60934783, 0.0, 0.0, 353.0, 584.090026855, -35.363261, 149.1652299, 0.998134791851, 0.0, 0.0, -0.0610485821962,0
2019-04-03 20:33:54.81,61034743, 0.0, 0.0, 353.0, 584.090026855, -35.363261, 149.1652299, 0.998134791851, 0.0, 0.0, -0.0610485821962,0
2019-04-03 20:33:54.91,61134703, 0.0, 0.0, 353.0, 584.090026855, -35.363261, 149.1652299, 0.998134791851, 0.0, 0.0, -0.0610485821962,0
2019-04-03 20:33:55.01,61234663, 0.0, 0.0, 353.0, 584.090026855, -35.363261, 149.1652299, 0.998134791851, 0.0, 0.0, -0.0610485821962,0
2019-04-03 20:33:55.11,61334623, 0.0, 0.0, 353.0, 584.090026855, -35.363261, 149.1652299, 0.998134791851, 0.0, 0.0, -0.0610485821962,0
2019-04-03 20:33:55.21,61434583, 0.0, 0.0, 353.0, 584.090026855, -35.363261, 149.1652299, 0.998134791851, 0.0, 0.0, -0.0610485821962,0
2019-04-03 20:33:55.31,61534543, 0.0, 0.0, 353.0, 584.090026855, -35.363261, 149.1652299, 0.998134791851, 0.0, 0.0, -0.0610485821962,0
2019-04-03 20:33:55.41,61634503, 0.0, 0.0, 353.0, 584.090026855, -35.363261, 149.1652299, 0.998134791851, 0.0, 0.0, -0.0610485821962,0
2019-04-03 20:33:55.51,61734463, 0.0, 0.0, 353.0, 584.090026855, -35.363261, 149.1652299, 0.998134791851, 0.0, 0.0, -0.0610486268997,0
2019-04-03 20:33:55.62,61835256, 0.0, 0.0, 353.0, 584.090026855, -35.363261, 149.1652299, 0.998134791851, 0.0, 0.0, -0.0610486753285,0
2019-04-03 20:33:55.72,61935216, 0.0, 0.0, 353.0, 584.090026855, -35.363261, 149.1652299, 0.998134791851, 0.0, 0.0, -0.0610486753285,0
2019-04-03 20:33:55.81,62035176, 0.0, 0.0, 353.0, 584.090026855, -35.363261, 149.1652299, 0.998134791851, 0.0, 0.0, -0.0610486753285,0
2019-04-03 20:33:55.91,62135136, 0.0, 0.0, 353.0, 584.090026855, -35.363261, 149.1652299, 0.998134791851, 0.0, 0.0, -0.0610486753285,0
2019-04-03 20:33:56.01,62235096, 0.0, 0.0, 353.0, 584.090026855, -35.363261, 149.1652299, 0.998134791851, 0.0, 0.0, -0.0610486753285,0
2019-04-03 20:33:56.11,62335056, 0.0, 0.0, 353.0, 584.090026855, -35.363261, 149.1652299, 0.998134791851, 0.0, 0.0, -0.0610486753285,0
2019-04-03 20:33:56.21,62435016, 0.0, 0.0, 353.0, 584.090026855, -35.363261, 149.1652299, 0.998134791851, 0.0, 0.0, -0.0610486753285,0
2019-04-03 20:33:56.31,62534976, 0.0, 0.0, 353.0, 584.099975586, -35.363261, 149.1652299, 0.998134791851, 0.0, 0.0, -0.0610486641526,0
2019-04-03 20:33:56.41,62634936, 0.0, 0.0, 353.0, 584.099975586, -35.363261, 149.1652299, 0.998134791851, 0.0, 0.0, -0.0610486753285,0
2019-04-03 20:33:56.51,62734896, 0.0, 0.0, 353.0, 584.109985352, -35.363261, 149.1652299, 0.998134791851, 0.0, 0.0, -0.0610486753285,0
2019-04-03 20:33:56.61,62834856, 0.0, 0.0, 353.0, 584.130004883, -35.363261, 149.1652299, 0.998134791851, 0.0, 0.0, -0.0610486753285,0
2019-04-03 20:33:56.71,62934816, 0.0, 0.0, 353.0, 584.159973145, -35.363261, 149.1652299, 0.998134791851, 0.0, 0.0, -0.0610486753285,0
2019-04-03 20:33:56.81,63034776, 0.0, 0.0, 353.0, 584.190002441, -35.363261, 149.1652299, 0.998134791851, 0.0, 0.0, -0.0610486529768,0
2019-04-03 20:33:56.91,63134736, -0.01, 0.0, 352.99, 584.239990234, -35.363261, 149.1652299, 0.998134672642, -0.000146800855873, -5.99920676905e-05, -0.0610508173704,0
2019-04-03 20:33:57.01,63234696, -0.08, -0.06, 352.99, 584.320007324, -35.363261, 149.1652299, 0.998133778572, -0.000778974790592, -0.000480142596643, -0.0610580816865,0
2019-04-03 20:33:57.11,63334656, -0.14, -0.11, 352.99, 584.460021973, -35.363261, 149.1652299, 0.998132050037, -0.00135071971454, -0.00090481445659, -0.0610721595585,0
2019-04-03 20:33:57.21,63434616, -0.17, -0.12, 352.99, 584.609985352, -35.363261, 149.1652299, 0.998130321503, -0.00161189190112, -0.00101258989889, -0.0610923878849,0
2019-04-03 20:33:57.31,63534576, -0.18, -0.11, 352.99, 584.770019531, -35.363261, 149.1652299, 0.998128950596, -0.0016401183093, -0.000867238210049, -0.0611158981919,0
2019-04-03 20:33:57.41,63634536, -0.15, -0.06, 352.98, 584.91998291, -35.363261, 149.1652299, 0.998128116131, -0.00136841030326, -0.000481999857584, -0.0611411556602,0
2019-04-03 20:33:57.51,63734496, -0.12, -0.03, 352.98, 585.070007324, -35.363261, 149.1652299, 0.998126804829, -0.00112997111864, -0.000218555302126, -0.061168782413,0
2019-04-03 20:33:57.61,63834456, -0.09, -0.03, 352.98, 585.229980469, -35.363261, 149.1652299, 0.998125731945, -0.000846009526867, -0.000229591343668, -0.0611913613975,0
2019-04-03 20:33:57.72,63935249, -0.05, -0.02, 352.98, 585.390014648, -35.363261, 149.1652299, 0.998124659061, -0.000523436348885, -0.000184501637705, -0.0612112022936,0
2019-04-03 20:33:57.82,64035209, -0.04, -0.02, 352.97, 585.559997559, -35.363261, 149.1652299, 0.998123824596, -0.000392458576243, -0.000168040744029, -0.0612257681787,0
2019-04-03 20:33:57.91,64135169, -0.03, -0.01, 352.97, 585.739990234, -35.363261, 149.1652298, 0.998123168945, -0.000310859963065, -0.000116948831419, -0.0612370185554,0
2019-04-03 20:33:58.01,64235129, -0.01, 0.01, 352.97, 585.91998291, -35.363261, 149.1652298, 0.998122751713, -0.000120175332995, 9.85053848126e-05, -0.0612450502813,0
2019-04-03 20:33:58.11,64335089, 0.01, 0.01, 352.97, 586.099975586, -35.363261, 149.1652298, 0.99812245369, 0.000120429518574, 0.000124565791339, -0.0612498819828,0
2019-04-03 20:33:58.21,64435049, 0.02, 0.0, 352.97, 586.289978027, -35.363261, 149.1652298, 0.998122394085, 0.000186928358744, -3.03506330965e-05, -0.061250526458,0
2019-04-03 20:33:58.31,64535009, 0.02, 0.0, 352.97, 586.479980469, -35.363261, 149.1652298, 0.998122990131, 0.000244421797106, -9.30534806685e-05, -0.0612405538559,0
2019-04-03 20:33:58.41,64634969, 0.03, 0.0, 352.97, 586.66998291, -35.3632609, 149.1652298, 0.998123526573, 0.000328815483954, 2.03259696718e-05, -0.0612321160734,0
2019-04-03 20:33:58.51,64734929, 0.03, 0.03, 352.97, 586.869995117, -35.3632609, 149.1652298, 0.998123884201, 0.000312068790663, 0.000262470683083, -0.0612249970436,0
2019-04-03 20:33:58.61,64834889, 0.0, 0.03, 352.97, 587.070007324, -35.3632609, 149.1652298, 0.99812400341, 0.000104418941191, 0.000342764542438, -0.0612233653665,0
2019-04-03 20:33:58.71,64934849, -0.02, 0.02, 352.97, 587.270019531, -35.3632609, 149.1652298, 0.998123705387, -0.000169485487277, 0.000198525420274, -0.0612291358411,0
2019-04-03 20:33:58.81,65034809, -0.03, 0.02, 352.97, 587.479980469, -35.3632609, 149.1652298, 0.998123407364, -0.000335464254022, 0.000227106196689, -0.0612336099148,0
2019-04-03 20:33:58.91,65134769, -0.02, 0.04, 352.97, 587.679992676, -35.3632609, 149.1652298, 0.998123109341, -0.000190973893041, 0.000431342341471, -0.0612376183271,0
2019-04-03 20:33:59.01,65234729, 0.0, 0.06, 352.97, 587.890014648, -35.3632609, 149.1652298, 0.998122870922, 7.52405048843e-06, 0.000549469725229, -0.0612405389547,0
2019-04-03 20:33:59.11,65334689, 0.0, 0.05, 352.97, 588.099975586, -35.3632609, 149.1652298, 0.998122692108, 7.81576673035e-05, 0.000517689739354, -0.0612436905503,0
2019-04-03 20:33:59.21,65434649, -0.01, 0.03, 352.97, 588.309997559, -35.3632609, 149.1652298, 0.998122513294, -0.000140970529174, 0.000353185227141, -0.0612482205033,0
2019-04-03 20:33:59.31,65534609, -0.06, 0.01, 352.97, 588.520019531, -35.3632609, 149.1652298, 0.998122394085, -0.000590023468249, 0.000141603857628, -0.0612484887242,0
2019-04-03 20:33:59.41,65634569, -0.1, 0.0, 352.97, 588.729980469, -35.3632609, 149.1652298, 0.99812155962, -0.000926160952076, -2.04739790206e-05, -0.0612581521273,0
2019-04-03 20:33:59.51,65734529, -0.11, -0.02, 352.97, 588.950012207, -35.3632609, 149.1652298, 0.998119771481, -0.00103842746466, -0.000191093582544, -0.0612850598991,0
2019-04-03 20:33:59.61,65834489, -0.11, -0.04, 352.96, 589.159973145, -35.3632609, 149.1652298, 0.998117923737, -0.00105475517921, -0.000328390917275, -0.0613139569759,0
2019-04-03 20:33:59.71,65934449, -0.1, -0.05, 352.96, 589.380004883, -35.3632609, 149.1652298, 0.998115837574, -0.000927256711293, -0.000453596177977, -0.0613493397832,0
2019-04-03 20:33:59.82,66035242, -0.08, -0.07, 352.96, 589.599975586, -35.3632609, 149.1652297, 0.998114109039, -0.000785480253398, -0.000580670835916, -0.0613782703876,0
2019-04-03 20:33:59.91,66135202, -0.08, -0.09, 352.95, 589.809997559, -35.3632609, 149.1652297, 0.998112440109, -0.00079722009832, -0.000756279507186, -0.0614030510187,0
2019-04-03 20:34:00.01,66235162, -0.08, -0.1, 352.95, 590.030029297, -35.3632609, 149.1652297, 0.998111248016, -0.000833500293083, -0.00089777255198, -0.061419852078,0
2019-04-03 20:34:00.11,66335122, -0.06, -0.11, 352.95, 590.229980469, -35.3632609, 149.1652297, 0.998110771179, -0.000614534830675, -0.000967307249084, -0.06142988801,0
2019-04-03 20:34:00.21,66435082, -0.02, -0.12, 352.95, 590.429992676, -35.3632609, 149.1652297, 0.998110294342, -0.000271288241493, -0.0010524172103, -0.0614388845861,0
2019-04-03 20:34:00.31,66535042, -0.01, -0.1, 352.95, 590.609985352, -35.3632609, 149.1652296, 0.998110055923, -0.000156627167598, -0.00092721299734, -0.061444606632,0
2019-04-03 20:34:00.41,66635002, -0.03, -0.1, 352.95, 590.789978027, -35.3632609, 149.1652296, 0.998109340668, -0.000322376232361, -0.000886016525328, -0.0614570043981,0
2019-04-03 20:34:00.51,66734962, -0.05, -0.11, 352.95, 590.950012207, -35.3632608, 149.1652296, 0.998108148575, -0.000530978024472, -0.000972977199126, -0.0614729374647,0
2019-04-03 20:34:00.61,66834922, -0.11, -0.24, 352.94, 591.099975586, -35.3632608, 149.1652296, 0.998105108738, -0.00108913239092, -0.00204093428329, -0.0614884346724,0
2019-04-03 20:34:00.71,66934882, -0.2, -0.63, 352.94, 591.229980469, -35.3632608, 149.1652296, 0.998090326786, -0.00213414221071, -0.0053818966262, -0.0614997819066,0
2019-04-03 20:34:00.81,67034842, -0.33, -1.29, 352.95, 591.359985352, -35.3632608, 149.1652296, 0.998037934303, -0.00363831059076, -0.0111307185143, -0.0615078471601,0
2019-04-03 20:34:00.91,67134802, -0.5, -2.18, 352.95, 591.469970703, -35.3632608, 149.1652294, 0.997914254665, -0.00553682539612, -0.0187660492957, -0.0615174211562,0
2019-04-03 20:34:01.01,67234762, -0.69, -3.21, 352.96, 591.570007324, -35.3632607, 149.1652294, 0.997692644596, -0.00776527682319, -0.0276024211198, -0.0615401752293,0
2019-04-03 20:34:01.11,67334722, -0.89, -4.24, 352.96, 591.650024414, -35.3632605, 149.1652294, 0.997382581234, -0.0100751584396, -0.0365125909448, -0.0615900941193,0
2019-04-03 20:34:01.21,67434682, -1.07, -5.12, 352.96, 591.729980469, -35.3632604, 149.1652293, 0.997051954269, -0.0120650231838, -0.0440249927342, -0.061673797667,0
2019-04-03 20:34:01.31,67534642, -1.18, -5.75, 352.96, 591.799987793, -35.3632602, 149.1652293, 0.996771872044, -0.0134076867253, -0.0494894720614, -0.0617809258401,0
2019-04-03 20:34:01.41,67634602, -1.26, -6.2, 352.95, 591.859985352, -35.3632598, 149.1652292, 0.996551990509, -0.0143605964258, -0.0533450208604, -0.0619047656655,0
2019-04-03 20:34:01.51,67734562, -1.32, -6.56, 352.95, 591.909973145, -35.3632596, 149.1652289, 0.996363997459, -0.0150307770818, -0.0564414151013, -0.0620259903371,0
2019-04-03 20:34:01.61,67834522, -1.37, -6.9, 352.94, 591.950012207, -35.3632592, 149.1652288, 0.996176958084, -0.0156238181517, -0.0593844242394, -0.0621357224882,0
2019-04-03 20:34:01.71,67934482, -1.41, -7.26, 352.93, 591.989990234, -35.3632586, 149.1652286, 0.995971918106, -0.0162117239088, -0.0624838210642, -0.0622329935431,0
2019-04-03 20:34:01.82,68035275, -1.47, -7.64, 352.93, 592.030029297, -35.363258, 149.1652284, 0.99574637413, -0.0168980006129, -0.0657239481807, -0.0623216852546,0
2019-04-03 20:34:01.92,68135235, -1.52, -7.96, 352.93, 592.059997559, -35.3632574, 149.1652281, 0.995541155338, -0.0175497680902, -0.0685245841742, -0.0624040663242,0
2019-04-03 20:34:02.01,68235195, -1.58, -8.19, 352.92, 592.090026855, -35.3632567, 149.1652278, 0.995386600494, -0.018218042329, -0.0704866275191, -0.0624914951622,0
2019-04-03 20:34:02.11,68335155, -1.65, -8.34, 352.92, 592.109985352, -35.363256, 149.1652274, 0.995280861855, -0.0188416894525, -0.0717342495918, -0.0625713244081,0
2019-04-03 20:34:02.21,68435115, -1.69, -8.43, 352.92, 592.140014648, -35.363255, 149.1652272, 0.995214760303, -0.0192457679659, -0.0724896937609, -0.0626293644309,0
2019-04-03 20:34:02.31,68535075, -1.72, -8.51, 352.92, 592.159973145, -35.3632542, 149.1652268, 0.995158135891, -0.0195503383875, -0.0731505453587, -0.0626664087176,0
2019-04-03 20:34:02.41,68635035, -1.75, -8.64, 352.92, 592.179992676, -35.3632531, 149.1652264, 0.995067298412, -0.0199095662683, -0.0742543414235, -0.0626978799701,0
2019-04-03 20:34:02.51,68734995, -1.96, -8.85, 352.81, 592.200012207, -35.3632522, 149.1652259, 0.994830131531, -0.021927729249, -0.0759334787726, -0.0637676864862,0
2019-04-03 20:34:02.61,68834955, -2.37, -9.15, 352.1, 592.219970703, -35.3632511, 149.1652255, 0.994120359421, -0.0261012334377, -0.0781839862466, -0.0702194422483,0
2019-04-03 20:34:02.71,68934915, -2.48, -9.58, 350.44, 592.239990234, -35.3632499, 149.165225, 0.992653250694, -0.0284548196942, -0.0814818739891, -0.0847972929478,0
2019-04-03 20:34:02.81,69034875, -2.09, -10.11, 348.06, 592.260009766, -35.3632487, 149.1652244, 0.990374147892, -0.0272780172527, -0.0857770591974, -0.105153694749,0
2019-04-03 20:34:02.91,69134835, -1.29, -10.63, 345.39, 592.270019531, -35.3632474, 149.1652238, 0.987422466278, -0.0229680966586, -0.0905235037208, -0.127572774887,0
2019-04-03 20:34:03.01,69234795, -0.28, -11.12, 342.83, 592.289978027, -35.3632459, 149.1652231, 0.984113991261, -0.0168800931424, -0.0954425483942, -0.148746356368,0
2019-04-03 20:34:03.11,69334755, 0.71, -11.53, 340.68, 592.309997559, -35.3632446, 149.1652226, 0.980926692486, -0.0107045266777, -0.10009662807, -0.166279524565,0
2019-04-03 20:34:03.21,69434715, 1.49, -11.91, 339.13, 592.33001709, -35.363243, 149.1652219, 0.978315830231, -0.00601301388815, -0.10440351069, -0.178778752685,0
2019-04-03 20:34:03.31,69534675, 1.94, -12.25, 338.25, 592.349975586, -35.3632414, 149.1652212, 0.97663295269, -0.00356632820331, -0.108022019267, -0.185759738088,0
2019-04-03 20:34:03.41,69634635, 2.03, -12.59, 338.02, 592.369995117, -35.3632397, 149.1652205, 0.975960433483, -0.00359396496788, -0.111055083573, -0.187496945262,0
2019-04-03 20:34:03.51,69734595, 1.8, -12.94, 338.35, 592.390014648, -35.3632379, 149.1652198, 0.976159930229, -0.00575205171481, -0.11365044117, -0.184830531478,0
2019-04-03 20:34:03.61,69834555, 1.35, -13.3, 339.08, 592.409973145, -35.3632361, 149.1652191, 0.976943612099, -0.00948552880436, -0.116045333445, -0.178954660892,0
2019-04-03 20:34:03.71,69934515, 0.76, -13.66, 340.04, 592.440002441, -35.3632342, 149.1652183, 0.978004097939, -0.0140415225178, -0.118328988552, -0.171198755503,0
2019-04-03 20:34:03.81,70034475, 0.15, -14.02, 341.09, 592.460021973, -35.3632321, 149.1652176, 0.979060709476, -0.018746027723, -0.120682530105, -0.162863403559,0
2019-04-03 20:34:03.92,70135268, -0.4, -14.37, 342.07, 592.489990234, -35.36323, 149.1652168, 0.979950904846, -0.0229757782072, -0.123050831258, -0.155005976558,0
2019-04-03 20:34:04.02,70235228, -0.83, -14.63, 342.87, 592.510009766, -35.3632278, 149.1652159, 0.980629980564, -0.0261225774884, -0.124883048236, -0.148616075516,0
2019-04-03 20:34:04.11,70335188, -1.1, -14.79, 343.42, 592.539978027, -35.3632256, 149.165215, 0.981097340584, -0.0280143469572, -0.126015156507, -0.144164770842,0
2019-04-03 20:34:04.21,70435148, -1.22, -14.88, 343.7, 592.570007324, -35.3632232, 149.1652141, 0.981317639351, -0.0288275983185, -0.126737266779, -0.141853481531,0
2019-04-03 20:34:04.31,70535108, -1.19, -14.96, 343.73, 592.599975586, -35.3632208, 149.1652131, 0.981276631355, -0.0286889709532, -0.127403378487, -0.141568019986,0
2019-04-03 20:34:04.41,70635068, -1.04, -15.05, 343.55, 592.630004883, -35.3632184, 149.1652121, 0.980980217457, -0.0277037005872, -0.128328770399, -0.142975524068,0
2019-04-03 20:34:04.51,70735028, -0.79, -15.15, 343.21, 592.650024414, -35.3632158, 149.1652111, 0.980492472649, -0.0260897912085, -0.129426524043, -0.145611181855,0
2019-04-03 20:34:04.61,70834988, -0.5, -15.26, 342.77, 592.679992676, -35.3632131, 149.16521, 0.979869306087, -0.0242460537702, -0.130670920014, -0.148974403739,0
2019-04-03 20:34:04.71,70934948, -0.22, -15.37, 342.31, 592.719970703, -35.3632105, 149.1652088, 0.979198217392, -0.0225050058216, -0.131870448589, -0.152560323477,0
2019-04-03 20:34:04.81,71034908, -0.01, -15.46, 341.89, 592.75, -35.3632079, 149.1652078, 0.978552043438, -0.0212830752134, -0.132892951369, -0.155956327915,0
2019-04-03 20:34:04.91,71134868, 0.13, -15.54, 341.53, 592.780029297, -35.3632051, 149.1652066, 0.977997779846, -0.020557872951, -0.133693039417, -0.158820256591,0
2019-04-03 20:34:05.01,71234828, 0.22, -15.6, 341.27, 592.809997559, -35.3632021, 149.1652054, 0.977583050728, -0.0201433897018, -0.134289488196, -0.160909757018,0
2019-04-03 20:34:05.11,71334788, 0.28, -15.67, 341.12, 592.840026855, -35.3631994, 149.1652043, 0.977304279804, -0.0199329741299, -0.134895220399, -0.162118136883,0
2019-04-03 20:34:05.21,71434748, 0.28, -15.75, 341.07, 592.869995117, -35.3631964, 149.165203, 0.977139353752, -0.0201207883656, -0.135609850287, -0.162492603064,0
2019-04-03 20:34:05.31,71534708, 0.2, -15.84, 341.12, 592.900024414, -35.3631934, 149.1652018, 0.977083563805, -0.0208375360817, -0.136260271072, -0.162193417549,0
2019-04-03 20:34:05.41,71634668, 0.09, -15.9, 341.23, 592.940002441, -35.3631904, 149.1652006, 0.977145195007, -0.0217198263854, -0.13665086031, -0.161375388503,0
2019-04-03 20:34:05.51,71734628, 0.0, -15.94, 341.38, 592.969970703, -35.3631873, 149.1651992, 0.977291584015, -0.0224665030837, -0.136863261461, -0.160202667117,0
2019-04-03 20:34:05.61,71834588, -0.09, -15.97, 341.54, 593.0, -35.3631842, 149.1651981, 0.977468490601, -0.0230856146663, -0.137013122439, -0.158901900053,0
2019-04-03 20:34:05.71,71934548, -0.17, -15.99, 341.7, 593.030029297, -35.3631811, 149.1651968, 0.977642834187, -0.0236103255302, -0.137094080448, -0.157677829266,0
2019-04-03 20:34:05.81,72034508, -0.24, -16.0, 341.82, 593.059997559, -35.3631778, 149.1651953, 0.977791786194, -0.0240517240018, -0.137106373906, -0.156673818827,0
2019-04-03 20:34:05.91,72134468, -0.26, -16.02, 341.91, 593.099975586, -35.3631747, 149.165194, 0.977874100208, -0.0242053698748, -0.137327060103, -0.155940949917,0
2019-04-03 20:34:06.02,72235261, -0.27, -16.08, 341.96, 593.130004883, -35.3631714, 149.1651928, 0.977868914604, -0.0242776758969, -0.137802839279, -0.155541941524,0
2019-04-03 20:34:06.12,72335221, -0.25, -16.14, 341.96, 593.159973145, -35.363168, 149.1651914, 0.977808892727, -0.0242126211524, -0.138338238001, -0.155454427004,0
2019-04-03 20:34:06.21,72435181, -0.21, -16.19, 341.94, 593.190002441, -35.3631647, 149.16519, 0.977720201015, -0.0239625666291, -0.138831928372, -0.155610844493,0
2019-04-03 20:34:06.31,72535141, -0.17, -16.24, 341.89, 593.219970703, -35.3631613, 149.1651886, 0.977601647377, -0.0236958414316, -0.139287576079, -0.155988946557,0
2019-04-03 20:34:06.41,72635101, -0.12, -16.31, 341.82, 593.260009766, -35.363158, 149.1651872, 0.977432668209, -0.023454060778, -0.139939054847, -0.156500294805,0
2019-04-03 20:34:06.51,72735061, -0.08, -16.38, 341.75, 593.289978027, -35.3631546, 149.1651858, 0.977259933949, -0.0232994090766, -0.140540227294, -0.157062366605,0
2019-04-03 20:34:06.61,72835021, -0.05, -16.4, 341.68, 593.320007324, -35.3631512, 149.1651843, 0.977134943008, -0.0231559034437, -0.140819013119, -0.157610669732,0
2019-04-03 20:34:06.71,72934981, -0.02, -16.42, 341.62, 593.349975586, -35.3631477, 149.1651829, 0.97704398632, -0.0229959264398, -0.140955939889, -0.158074900508,0
2019-04-03 20:34:06.81,73034941, 0.0, -16.43, 341.57, 593.390014648, -35.3631442, 149.1651815, 0.976967334747, -0.022814553231, -0.141140460968, -0.158410012722,0
2019-04-03 20:34:06.91,73134901, 0.03, -16.47, 341.55, 593.41998291, -35.3631406, 149.16518, 0.976893723011, -0.0226366315037, -0.141453877091, -0.15860953927,0
2019-04-03 20:34:07.01,73234861, 0.05, -16.53, 341.53, 593.450012207, -35.3631372, 149.1651786, 0.976808786392, -0.0225632414222, -0.141974017024, -0.158678397536,0
2019-04-03 20:34:07.11,73334821, 0.04, -16.57, 341.53, 593.479980469, -35.3631336, 149.1651771, 0.976755678654, -0.0227296762168, -0.142322733998, -0.158669516444,0
2019-04-03 20:34:07.21,73434781, 0.0, -16.6, 341.55, 593.510009766, -35.3631301, 149.1651757, 0.976730287075, -0.0230580605567, -0.14251857996, -0.158602505922,0
2019-04-03 20:34:07.31,73534741, -0.03, -16.62, 341.57, 593.549987793, -35.3631265, 149.1651742, 0.976718962193, -0.0234265979379, -0.142663195729, -0.15848813951,0
2019-04-03 20:34:07.41,73634701, -0.05, -16.62, 341.59, 593.58001709, -35.3631228, 149.1651727, 0.976739943027, -0.0235868487507, -0.142659783363, -0.158338174224,0
2019-04-03 20:34:07.51,73734661, -0.04, -16.63, 341.61, 593.609985352, -35.3631192, 149.1651712, 0.976759850979, -0.0235236883163, -0.142724454403, -0.158166214824,0
2019-04-03 20:34:07.61,73834621, -0.04, -16.65, 341.62, 593.650024414, -35.3631156, 149.1651697, 0.976751506329, -0.0234729219228, -0.142919629812, -0.158048972487,0
2019-04-03 20:34:07.71,73934581, -0.03, -16.69, 341.62, 593.679992676, -35.3631119, 149.1651681, 0.976706266403, -0.0235124342144, -0.143288567662, -0.157988578081,0
2019-04-03 20:34:07.81,74034541, -0.03, -16.74, 341.62, 593.710021973, -35.3631082, 149.1651666, 0.976646006107, -0.0235815551132, -0.143692836165, -0.157983899117,0
2019-04-03 20:34:07.91,74134501, -0.04, -16.77, 341.62, 593.739990234, -35.3631045, 149.1651651, 0.976602494717, -0.0236326605082, -0.143941059709, -0.15801922977,0
2019-04-03 20:34:08.01,74234461, -0.03, -16.8, 341.61, 593.780029297, -35.3631008, 149.1651636, 0.976550996304, -0.0236380770802, -0.144219323993, -0.158082768321,0
2019-04-03 20:34:08.12,74335254, -0.01, -16.84, 341.59, 593.809997559, -35.3630969, 149.1651619, 0.97648859024, -0.0235554724932, -0.144548505545, -0.158180117607,0
2019-04-03 20:34:08.22,74435214, 0.0, -16.85, 341.58, 593.840026855, -35.3630932, 149.1651604, 0.976454555988, -0.0233922507614, -0.14466881752, -0.158304393291,0
2019-04-03 20:34:08.31,74535174, 0.02, -16.87, 341.56, 593.880004883, -35.3630895, 149.1651589, 0.97640901804, -0.023297091946, -0.144836604595, -0.158445581794,0
2019-04-03 20:34:08.41,74635134, 0.04, -16.91, 341.54, 593.909973145, -35.3630858, 149.1651574, 0.976331293583, -0.023220974952, -0.145236104727, -0.158570408821,0
2019-04-03 20:34:08.51,74735094, 0.06, -16.97, 341.52, 593.940002441, -35.363082, 149.1651557, 0.976233661175, -0.0231207162142, -0.145802885294, -0.158665791154,0
2019-04-03 20:34:08.61,74835054, 0.07, -17.03, 341.51, 593.969970703, -35.3630781, 149.1651542, 0.976149022579, -0.0231541320682, -0.146261721849, -0.158759191632,0
2019-04-03 20:34:08.71,74935014, 0.05, -17.06, 341.5, 594.010009766, -35.3630743, 149.1651527, 0.976090729237, -0.0233960244805, -0.14649887383, -0.158863484859,0
2019-04-03 20:34:08.81,75034974, 0.02, -17.07, 341.49, 594.039978027, -35.3630706, 149.1651511, 0.976057112217, -0.0236760471016, -0.146565183997, -0.158967375755,0
2019-04-03 20:34:08.91,75134934, 0.01, -17.08, 341.48, 594.070007324, -35.3630668, 149.1651494, 0.976031422615, -0.0237934403121, -0.146647706628, -0.159031614661,0
2019-04-03 20:34:09.01,75234894, 0.01, -17.1, 341.48, 594.109985352, -35.3630628, 149.1651479, 0.975998520851, -0.0237811766565, -0.146845281124, -0.159053117037,0
2019-04-03 20:34:09.11,75334854, 0.02, -17.13, 341.48, 594.140014648, -35.3630591, 149.1651464, 0.975962519646, -0.0237807072699, -0.147066429257, -0.159069776535,0
2019-04-03 20:34:09.21,75434814, 0.02, -17.15, 341.47, 594.16998291, -35.3630552, 149.1651448, 0.975929319859, -0.0237671267241, -0.1472761482, -0.159081563354,0
2019-04-03 20:34:09.31,75534774, 0.03, -17.16, 341.47, 594.200012207, -35.3630512, 149.1651432, 0.97591650486, -0.0237514190376, -0.147334381938, -0.159108161926,0
2019-04-03 20:34:09.41,75634734, 0.03, -17.18, 341.47, 594.239990234, -35.3630474, 149.1651416, 0.975888669491, -0.0237881820649, -0.147467255592, -0.159150376916,0
2019-04-03 20:34:09.51,75734694, 0.03, -17.19, 341.46, 594.270019531, -35.3630434, 149.1651399, 0.975856125355, -0.0238188970834, -0.147618979216, -0.159204885364,0
2019-04-03 20:34:09.61,75834654, 0.02, -17.21, 341.45, 594.299987793, -35.3630396, 149.1651384, 0.975816547871, -0.0239421930164, -0.147778272629, -0.159280851483,0
2019-04-03 20:34:09.71,75934614, 0.0, -17.26, 341.44, 594.340026855, -35.3630357, 149.1651368, 0.975744009018, -0.0242599397898, -0.148089453578, -0.15938834846,0
2019-04-03 20:34:09.81,76034574, -0.04, -17.28, 341.43, 594.369995117, -35.3630318, 149.1651351, 0.975689589977, -0.0245877522975, -0.148257702589, -0.159514561296,0
2019-04-03 20:34:09.91,76134534, -0.05, -17.3, 341.42, 594.400024414, -35.3630279, 149.1651336, 0.975644886494, -0.0247760824859, -0.148395821452, -0.159630551934,0
2019-04-03 20:34:10.01,76234494, -0.06, -17.32, 341.41, 594.440002441, -35.3630239, 149.165132, 0.975603818893, -0.0248757973313, -0.148539602757, -0.159732326865,0
2019-04-03 20:34:10.11,76334454, -0.04, -17.33, 341.4, 594.469970703, -35.36302, 149.1651302, 0.975571036339, -0.0247189477086, -0.14869761467, -0.159809648991,0
2019-04-03 20:34:10.22,76435247, -0.01, -17.35, 341.38, 594.5, -35.363016, 149.1651287, 0.97554153204, -0.0244937557727, -0.148848250508, -0.159884408116,0
2019-04-03 20:34:10.32,76535207, 0.0, -17.35, 341.37, 594.539978027, -35.3630121, 149.1651271, 0.975517988205, -0.024386562407, -0.148917555809, -0.159979864955,0
2019-04-03 20:34:10.41,76635167, 0.0, -17.36, 341.35, 594.570007324, -35.3630081, 149.1651254, 0.975486457348, -0.0243911426514, -0.149011984468, -0.160083293915,0
2019-04-03 20:34:10.51,76735127, 0.0, -17.37, 341.34, 594.599975586, -35.3630041, 149.1651238, 0.975464463234, -0.0244742389768, -0.149027720094, -0.160189986229,0
2019-04-03 20:34:10.61,76835087, 0.0, -17.38, 341.33, 594.630004883, -35.3630001, 149.1651221, 0.975439548492, -0.0245151575655, -0.149093136191, -0.16027456522,0
2019-04-03 20:34:10.71,76935047, 0.0, -17.41, 341.33, 594.66998291, -35.3629962, 149.1651205, 0.975382328033, -0.0244875513017, -0.149417176843, -0.160325273871,0
2019-04-03 20:34:10.81,77035007, 0.04, -17.44, 341.32, 594.700012207, -35.3629922, 149.1651187, 0.975339055061, -0.0242142118514, -0.149734139442, -0.160334169865,0
2019-04-03 20:34:10.91,77134967, 0.08, -17.45, 341.31, 594.729980469, -35.3629881, 149.1651172, 0.97533428669, -0.0238783285022, -0.149811372161, -0.160341396928,0
2019-04-03 20:34:11.01,77234927, 0.11, -17.43, 341.3, 594.770019531, -35.3629842, 149.1651154, 0.975347757339, -0.0236467123032, -0.149738222361, -0.16036246717,0
2019-04-03 20:34:11.11,77334887, 0.12, -17.43, 341.3, 594.799987793, -35.3629801, 149.1651139, 0.975346982479, -0.0235778689384, -0.149721235037, -0.16039301455,0
2019-04-03 20:34:11.21,77434847, 0.09, -17.46, 341.3, 594.83001709, -35.3629761, 149.1651121, 0.97529476881, -0.0238552726805, -0.14995893836, -0.160447508097,0
2019-04-03 20:34:11.31,77534807, 0.06, -17.53, 341.29, 594.859985352, -35.3629721, 149.1651106, 0.975200951099, -0.0241801757365, -0.150482267141, -0.160479217768,0
2019-04-03 20:34:11.41,77634767, 0.05, -17.58, 341.29, 594.900024414, -35.362968, 149.1651089, 0.97512948513, -0.0243940073997, -0.150888189673, -0.160499885678,0
2019-04-03 20:34:11.51,77734727, 0.04, -17.6, 341.29, 594.929992676, -35.362964, 149.1651072, 0.975099205971, -0.0244722682983, -0.151049330831, -0.160520449281,0
2019-04-03 20:34:11.61,77834687, 0.03, -17.59, 341.29, 594.960021973, -35.36296, 149.1651056, 0.975101113319, -0.0245454777032, -0.150973334908, -0.160568848252,0
2019-04-03 20:34:11.71,77934647, 0.02, -17.56, 341.28, 595.0, -35.3629559, 149.1651039, 0.975126445293, -0.0246545933187, -0.150709182024, -0.16064658761,0
2019-04-03 20:34:11.81,78034607, 0.0, -17.54, 341.27, 595.030029297, -35.3629519, 149.1651022, 0.975143253803, -0.02473914437, -0.150500401855, -0.16072756052,0
2019-04-03 20:34:11.91,78134567, 0.02, -17.53, 341.27, 595.059997559, -35.3629478, 149.1651006, 0.975149691105, -0.0246239192784, -0.15042874217, -0.160772964358,0
2019-04-03 20:34:12.01,78234527, 0.03, -17.53, 341.26, 595.099975586, -35.3629437, 149.1650989, 0.975149989128, -0.0244870167226, -0.150405079126, -0.160814478993,0
2019-04-03 20:34:12.11,78334487, 0.04, -17.53, 341.25, 595.130004883, -35.3629397, 149.1650972, 0.975135266781, -0.0244361460209, -0.150448828936, -0.160870462656,0
2019-04-03 20:34:12.21,78434447, 0.04, -17.55, 341.24, 595.159973145, -35.3629357, 149.1650955, 0.975091993809, -0.0244889818132, -0.150651142001, -0.16093531251,0
2019-04-03 20:34:12.32,78535240, 0.02, -17.58, 341.24, 595.200012207, -35.3629314, 149.1650938, 0.97504222393, -0.0247211195529, -0.150833383203, -0.161030560732,0
2019-04-03 20:34:12.41,78635200, 0.0, -17.59, 341.23, 595.229980469, -35.3629275, 149.1650922, 0.975013375282, -0.0249136742204, -0.150883987546, -0.16112819314,0
2019-04-03 20:34:12.51,78735160, -0.03, -17.59, 341.22, 595.260009766, -35.3629234, 149.1650905, 0.974992930889, -0.025222197175, -0.15083040297, -0.161254018545,0
2019-04-03 20:34:12.61,78835120, -0.05, -17.6, 341.21, 595.299987793, -35.3629193, 149.1650888, 0.974953174591, -0.0254335068166, -0.150941088796, -0.161357551813,0
2019-04-03 20:34:12.71,78935080, -0.05, -17.64, 341.2, 595.33001709, -35.3629151, 149.1650871, 0.974890947342, -0.0255038235337, -0.151251167059, -0.161431893706,0
2019-04-03 20:34:12.81,79035040, -0.03, -17.67, 341.19, 595.359985352, -35.3629111, 149.1650853, 0.974839508533, -0.0254365950823, -0.151532426476, -0.161489591002,0
2019-04-03 20:34:12.91,79135000, -0.01, -17.7, 341.18, 595.390014648, -35.362907, 149.1650837, 0.974798202515, -0.0252906326205, -0.1517752707, -0.161533609033,0
2019-04-03 20:34:13.01,79234960, 0.02, -17.72, 341.17, 595.429992676, -35.3629029, 149.1650819, 0.974761724472, -0.0250088442117, -0.15203769505, -0.161550909281,0
2019-04-03 20:34:13.11,79334920, 0.06, -17.74, 341.16, 595.460021973, -35.3628987, 149.1650803, 0.974740922451, -0.0247133076191, -0.152201533318, -0.161567509174,0
2019-04-03 20:34:13.21,79434880, 0.08, -17.73, 341.16, 595.489990234, -35.3628947, 149.1650785, 0.974738955498, -0.0245271734893, -0.152208998799, -0.161600828171,0
2019-04-03 20:34:13.31,79534840, 0.07, -17.71, 341.15, 595.530029297, -35.3628906, 149.1650769, 0.97475451231, -0.0245714019984, -0.152022451162, -0.161675781012,0
2019-04-03 20:34:13.41,79634800, 0.06, -17.71, 341.14, 595.559997559, -35.3628865, 149.1650752, 0.974740684032, -0.0246454570442, -0.152035340667, -0.161735713482,0
2019-04-03 20:34:13.51,79734760, 0.06, -17.75, 341.14, 595.590026855, -35.3628823, 149.1650735, 0.974687099457, -0.0246961601079, -0.152332678437, -0.161771312356,0
2019-04-03 20:34:13.61,79834720, 0.05, -17.76, 341.13, 595.619995117, -35.3628782, 149.1650718, 0.974659860134, -0.0248004347086, -0.152439713478, -0.161818683147,0
2019-04-03 20:34:13.71,79934680, 0.03, -17.76, 341.13, 595.659973145, -35.3628741, 149.16507, 0.974649488926, -0.0250219702721, -0.152411594987, -0.161873221397,0
2019-04-03 20:34:13.81,80034640, 0.01, -17.75, 341.13, 595.690002441, -35.36287, 149.1650684, 0.974660634995, -0.0251469891518, -0.152291581035, -0.161899983883,0
2019-04-03 20:34:13.91,80134600, 0.02, -17.74, 341.13, 595.719970703, -35.3628658, 149.1650666, 0.974683403969, -0.0250243414193, -0.152180165052, -0.16188660264,0
2019-04-03 20:34:14.01,80234560, 0.06, -17.73, 341.13, 595.760009766, -35.3628616, 149.165065, 0.974703729153, -0.0247463881969, -0.152135953307, -0.16184848547,0
2019-04-03 20:34:14.11,80334520, 0.08, -17.74, 341.13, 595.789978027, -35.3628576, 149.1650632, 0.974692285061, -0.0245721042156, -0.152268633246, -0.161819338799,0
2019-04-03 20:34:14.21,80434480, 0.07, -17.77, 341.13, 595.820007324, -35.3628534, 149.1650616, 0.974649250507, -0.0246724504977, -0.152513250709, -0.161832928658,0
2019-04-03 20:34:14.32,80535273, 0.07, -17.82, 341.13, 595.859985352, -35.3628492, 149.1650598, 0.97458344698, -0.0247353054583, -0.152923211455, -0.161832615733,0
2019-04-03 20:34:14.42,80635233, 0.08, -17.84, 341.12, 595.890014648, -35.3628451, 149.165058, 0.974546253681, -0.024730540812, -0.153158694506, -0.161834776402,0
2019-04-03 20:34:14.51,80735193, 0.08, -17.85, 341.12, 595.91998291, -35.3628409, 149.1650564, 0.974531233311, -0.0247040092945, -0.153244942427, -0.161847427487,0
2019-04-03 20:34:14.61,80835153, 0.09, -17.86, 341.12, 595.960021973, -35.3628367, 149.1650546, 0.974516451359, -0.0246376395226, -0.153340220451, -0.161856085062,0
2019-04-03 20:34:14.71,80935113, 0.1, -17.85, 341.12, 595.989990234, -35.3628326, 149.165053, 0.974526405334, -0.0245848707855, -0.153262257576, -0.161878153682,0
2019-04-03 20:34:14.81,81035073, 0.1, -17.83, 341.11, 596.020019531, -35.3628285, 149.1650512, 0.974559009075, -0.0244897268713, -0.153036206961, -0.161910444498,0
2019-04-03 20:34:14.91,81135033, 0.12, -17.81, 341.11, 596.059997559, -35.3628243, 149.1650494, 0.974581539631, -0.0243442188948, -0.152892708778, -0.161932080984,0
2019-04-03 20:34:15.01,81234993, 0.12, -17.8, 341.1, 596.090026855, -35.3628201, 149.1650478, 0.974588811398, -0.0243670549244, -0.152795210481, -0.161977142096,0
2019-04-03 20:34:15.11,81334953, 0.11, -17.81, 341.1, 596.119995117, -35.3628159, 149.165046, 0.974568724632, -0.0244313888252, -0.152865260839, -0.162022098899,0
2019-04-03 20:34:15.21,81434913, 0.13, -17.85, 341.09, 596.159973145, -35.3628117, 149.1650443, 0.974511742592, -0.0243414994329, -0.153231456876, -0.162032276392,0
2019-04-03 20:34:15.31,81534873, 0.14, -17.88, 341.09, 596.190002441, -35.3628075, 149.1650426, 0.974465250969, -0.0242587085813, -0.153529152274, -0.162042453885,0
2019-04-03 20:34:15.41,81634833, 0.16, -17.87, 341.09, 596.219970703, -35.3628034, 149.1650408, 0.974474430084, -0.0241261795163, -0.153486832976, -0.162047326565,0
2019-04-03 20:34:15.51,81734793, 0.15, -17.86, 341.08, 596.260009766, -35.3627993, 149.1650392, 0.97448849678, -0.0241675935686, -0.153359904885, -0.162076547742,0
2019-04-03 20:34:15.61,81834753, 0.14, -17.85, 341.08, 596.289978027, -35.3627951, 149.1650374, 0.97449439764, -0.0242404658347, -0.153273865581, -0.162111744285,0
2019-04-03 20:34:15.71,81934713, 0.14, -17.86, 341.08, 596.320007324, -35.3627909, 149.1650357, 0.974481701851, -0.0242918282747, -0.153325781226, -0.162130981684,0
2019-04-03 20:34:15.81,82034673, 0.12, -17.88, 341.08, 596.349975586, -35.3627867, 149.165034, 0.97444331646, -0.0244573783129, -0.153521344066, -0.162152349949,0
2019-04-03 20:34:15.91,82134633, 0.11, -17.9, 341.08, 596.390014648, -35.3627825, 149.1650323, 0.974414885044, -0.024615496397, -0.153652518988, -0.16217468679,0
2019-04-03 20:34:16.01,82234593, 0.1, -17.9, 341.08, 596.41998291, -35.3627782, 149.1650306, 0.974412918091, -0.0246387217194, -0.153645455837, -0.162189558148,0
2019-04-03 20:34:16.11,82334553, 0.13, -17.88, 341.08, 596.450012207, -35.362774, 149.1650287, 0.974435329437, -0.0244301538914, -0.153554037213, -0.162173226476,0
2019-04-03 20:34:16.21,82434513, 0.15, -17.86, 341.07, 596.479980469, -35.3627698, 149.1650271, 0.97447013855, -0.0242015365511, -0.153370141983, -0.16217264533,0
2019-04-03 20:34:16.31,82534473, 0.17, -17.85, 341.07, 596.520019531, -35.3627658, 149.1650254, 0.974483132362, -0.0240353792906, -0.153308361769, -0.162177368999,0
2019-04-03 20:34:16.42,82635266, 0.18, -17.86, 341.07, 596.549987793, -35.3627615, 149.1650235, 0.974469125271, -0.023978099227, -0.153384923935, -0.162197813392,0
2019-04-03 20:34:16.52,82735226, 0.17, -17.87, 341.06, 596.58001709, -35.3627573, 149.1650219, 0.974449753761, -0.0240235999227, -0.153460234404, -0.162236124277,0
2019-04-03 20:34:16.61,82835186, 0.15, -17.88, 341.06, 596.619995117, -35.3627531, 149.1650201, 0.974423706532, -0.0242374520749, -0.153522849083, -0.162301331758,0
2019-04-03 20:34:16.71,82935146, 0.14, -17.88, 341.05, 596.650024414, -35.3627489, 149.1650185, 0.974416971207, -0.0242989417166, -0.15351177752, -0.162343278527,0
2019-04-03 20:34:16.81,83035106, 0.17, -17.87, 341.05, 596.679992676, -35.3627447, 149.1650167, 0.97442650795, -0.0241123475134, -0.153472557664, -0.162350893021,0
2019-04-03 20:34:16.91,83135066, 0.18, -17.88, 341.05, 596.719970703, -35.3627405, 149.1650149, 0.974411427975, -0.0240101702511, -0.153566554189, -0.162367716432,0
2019-04-03 20:34:17.01,83235026, 0.17, -17.91, 341.04, 596.75, -35.3627363, 149.1650133, 0.97435760498, -0.0241575315595, -0.153838545084, -0.16241106391,0
2019-04-03 20:34:17.11,83334986, 0.15, -17.94, 341.04, 596.780029297, -35.362732, 149.1650115, 0.97430729866, -0.0243652649224, -0.154071673751, -0.162461146712,0
2019-04-03 20:34:17.21,83434946, 0.15, -17.96, 341.03, 596.809997559, -35.3627278, 149.1650098, 0.974275410175, -0.0243980009109, -0.154233202338, -0.162494003773,0
2019-04-03 20:34:17.31,83534906, 0.17, -17.95, 341.03, 596.849975586, -35.3627236, 149.1650081, 0.974284052849, -0.0242155622691, -0.154189482331, -0.162511244416,0
2019-04-03 20:34:17.41,83634866, 0.2, -17.94, 341.02, 596.880004883, -35.3627195, 149.1650063, 0.97429895401, -0.0239656399935, -0.154122799635, -0.162522062659,0
2019-04-03 20:34:17.51,83734826, 0.21, -17.94, 341.02, 596.909973145, -35.3627153, 149.1650046, 0.974294185638, -0.023842792958, -0.154143422842, -0.162548989058,0
2019-04-03 20:34:17.61,83834786, 0.22, -17.95, 341.01, 596.940002441, -35.3627111, 149.1650029, 0.974273979664, -0.0238592308015, -0.154221966863, -0.162593394518,0
2019-04-03 20:34:17.71,83934746, 0.22, -17.96, 341.01, 596.979980469, -35.3627069, 149.1650012, 0.97425788641, -0.0238693710417, -0.154274970293, -0.162637814879,0
