Start,TimeUS,Roll,Pitch,Yaw,Alt,Lat,Lng,Q1,Q2,Q3,Q4,Category
0.0,0.0,353.0,584.090026855,-35.363261,149.1652299,0
0.0,0.0,353.0,584.090026855,-35.363261,149.1652299,0
0.0,0.0,353.0,584.090026855,-35.363261,149.1652299,0
0.0,0.0,353.0,584.090026855,-35.363261,149.1652299,0
0.0,0.0,353.0,584.090026855,-35.363261,149.1652299,0
0.0,0.0,353.0,584.090026855,-35.363261,149.1652299,0
0.0,0.0,353.0,584.090026855,-35.363261,149.1652299,0
0.0,0.0,353.0,584.090026855,-35.363261,149.1652299,0
0.0,0.0,353.0,584.090026855,-35.363261,149.1652299,0
0.0,0.0,353.0,584.090026855,-35.363261,149.1652299,0
0.0,0.0,353.0,584.090026855,-35.363261,149.1652299,0
0.0,0.0,353.0,584.090026855,-35.363261,149.1652299,0
0.0,0.0,353.0,584.090026855,-35.363261,149.1652299,0
0.0,0.0,353.0,584.090026855,-35.363261,149.1652299,0
0.0,0.0,353.0,584.090026855,-35.363261,149.1652299,0
0.0,0.0,353.0,584.090026855,-35.363261,149.1652299,0
0.0,0.0,353.0,584.090026855,-35.363261,149.1652299,0
0.0,0.0,353.0,584.090026855,-35.363261,149.1652299,0
0.0,0.0,353.0,584.090026855,-35.363261,149.1652299,0
0.0,0.0,353.0,584.090026855,-35.363261,149.1652299,0
0.0,0.0,353.0,584.090026855,-35.363261,149.1652299,0
0.0,0.0,353.0,584.090026855,-35.363261,149.1652299,0
0.0,0.0,353.0,584.090026855,-35.363261,149.1652299,0
0.0,0.0,353.0,584.090026855,-35.363261,149.1652299,0
0.0,0.0,353.0,584.090026855,-35.363261,149.1652299,0
0.0,0.0,353.0,584.090026855,-35.363261,149.1652299,0
0.0,0.0,353.0,584.090026855,-35.363261,149.1652299,0
0.0,0.0,353.0,584.090026855,-35.363261,149.1652299,0
0.0,0.0,353.0,584.090026855,-35.363261,149.1652299,0
0.0,0.0,353.0,584.090026855,-35.363261,149.1652299,0
0.0,0.0,353.0,584.090026855,-35.363261,149.1652299,0
0.0,0.0,353.0,584.090026855,-35.363261,149.1652299,0
0.0,0.0,353.0,584.090026855,-35.363261,149.1652299,0
0.0,0.0,353.0,584.090026855,-35.363261,149.1652299,0
0.0,0.0,353.0,584.090026855,-35.363261,149.1652299,0
0.0,0.0,353.0,584.090026855,-35.363261,149.1652299,0
0.0,0.0,353.0,584.090026855,-35.363261,149.1652299,0
0.0,0.0,353.0,584.090026855,-35.363261,149.1652299,0
0.0,0.0,353.0,584.090026855,-35.363261,149.1652299,0
0.0,0.0,353.0,584.090026855,-35.363261,149.1652299,0
0.0,0.0,353.0,584.090026855,-35.363261,149.1652299,0
0.0,0.0,353.0,584.090026855,-35.363261,149.1652299,0
0.0,0.0,353.0,584.090026855,-35.363261,149.1652299,0
0.0,0.0,353.0,584.090026855,-35.363261,149.1652299,0
0.0,0.0,353.0,584.090026855,-35.363261,149.1652299,0
0.0,0.0,353.0,584.090026855,-35.363261,149.1652299,0
0.0,0.0,353.0,584.099975586,-35.363261,149.1652299,0
0.0,0.0,353.0,584.099975586,-35.363261,149.1652299,0
0.0,0.0,353.0,584.109985352,-35.363261,149.1652299,0
0.0,0.0,353.0,584.1199951169999,-35.363261,149.1652299,0
0.0,0.0,353.0,584.150024414,-35.363261,149.1652299,0
0.0,0.0,353.0,584.179992676,-35.363261,149.1652299,0
0.0,0.0,352.99,584.2199707030001,-35.363261,149.1652299,0
-0.06,-0.06,352.99,584.289978027,-35.363261,149.1652299,0
-0.13,-0.17,352.99,584.409973145,-35.363261,149.1652299,0
-0.18,-0.26,352.98,584.570007324,-35.363261,149.1652299,0
-0.21,-0.28,352.98,584.7199707030001,-35.363261,149.1652299,0
-0.22,-0.24,352.97,584.8800048830001,-35.363261,149.1652299,0
-0.19,-0.18,352.96,585.0300292969999,-35.363261,149.1652299,0
-0.19,-0.12,352.96,585.179992676,-35.363261,149.1652299,0
-0.21,0.24,352.95,585.320007324,-35.363261,149.1652299,0
-0.29,0.99,352.95,585.4699707030001,-35.363261,149.16522980000002,0
-0.44,2.05,352.94,585.609985352,-35.363261,149.16522980000002,0
-0.63,3.23,352.93,585.7399902340001,-35.363261,149.16522980000002,0
-0.86,4.43,352.92,585.849975586,-35.363261,149.16522980000002,0
-1.09,5.51,352.91,585.960021973,-35.363261,149.16522980000002,0
-1.27,6.41,352.9,586.0599975590001,-35.3632613,149.16522969999997,0
-1.4,7.09,352.9,586.150024414,-35.3632616,149.16522969999997,0
-1.47,7.61,352.9,586.229980469,-35.363262,149.16522959999998,0
-1.54,8.0,352.91,586.299987793,-35.3632625,149.16522959999998,0
-1.63,8.27,352.92,586.3699951169999,-35.3632631,149.1652294,0
-1.73,8.44,352.93,586.429992676,-35.363263700000005,149.1652293,0
-1.8,8.53,352.93,586.4899902340001,-35.3632644,149.1652293,0
-1.85,8.59,352.94,586.549987793,-35.3632653,149.1652292,0
-1.87,8.69,352.94,586.599975586,-35.3632662,149.1652291,0
-1.7,8.9,352.8,586.650024414,-35.3632671,149.16522890000002,0
-1.31,9.29,351.98,586.700012207,-35.3632682,149.16522890000002,0
-1.02,9.78,349.78,586.7399902340001,-35.3632693,149.16522880000002,0
-1.24,10.22,345.9,586.789978027,-35.3632706,149.16522869999997,0
-2.15,10.43,340.45,586.840026855,-35.3632718,149.16522859999998,0
-3.68,10.26,333.73,586.890014648,-35.3632732,149.16522859999998,0
-5.62,9.61,326.09,586.9400024409999,-35.363274700000005,149.16522859999998,0
-7.71,8.47,317.87,586.9899902340001,-35.3632762,149.16522859999998,0
-9.67,6.88,309.37,587.049987793,-35.3632779,149.16522859999998,0
-11.3,4.97,300.85,587.109985352,-35.363279600000006,149.16522859999998,0
-12.44,2.9,292.56,587.16998291,-35.3632814,149.16522859999998,0
-13.1,0.82,284.65,587.2399902340001,-35.3632833,149.1652284,0
-13.35,-1.13,277.24,587.3099975590001,-35.363285299999994,149.1652284,0
-13.32,-2.83,270.34,587.3800048830001,-35.363287400000004,149.1652282,0
-13.11,-4.29,263.96,587.460021973,-35.3632895,149.16522790000002,0
-12.81,-5.54,258.05,587.5300292969999,-35.36329179999999,149.16522769999997,0
-12.43,-6.62,252.51,587.609985352,-35.3632941,149.1652274,0
-11.99,-7.57,247.22,587.700012207,-35.363296500000004,149.16522700000002,0
-11.51,-8.44,242.07,587.7800292969999,-35.363299,149.1652267,0
-10.96,-9.26,236.94,587.8699951169999,-35.3633016,149.1652263,0
-10.33,-10.11,231.74,587.960021973,-35.3633042,149.165226,0
-9.58,-11.0,226.39,588.049987793,-35.3633069,149.1652255,0
-8.64,-11.92,220.8,588.140014648,-35.3633096,149.1652251,0
-7.5,-12.81,215.03,588.229980469,-35.3633125,149.1652248,0
-6.13,-13.63,209.04,588.33001709,-35.3633154,149.1652244,0
-4.58,-14.31,202.88,588.41998291,-35.3633182,149.165224,0
-2.91,-14.82,196.59,588.520019531,-35.36332120000001,149.1652236,0
-0.99,-15.15,190.29,588.609985352,-35.363324299999995,149.1652231,0
1.32,-15.24,184.4,588.710021973,-35.363327399999996,149.1652227,0
3.65,-15.06,179.55,588.799987793,-35.363330600000005,149.1652224,0
5.5,-14.73,176.13,588.900024414,-35.3633338,149.1652219,0
6.52,-14.42,174.26,589.0,-35.363337,149.1652214,0
6.63,-14.25,173.81,589.090026855,-35.3633404,149.1652207,0
5.92,-14.31,174.51,589.1900024409999,-35.3633437,149.1652201,0
4.6,-14.57,176.07,589.289978027,-35.363347,149.16521930000002,0
2.95,-14.97,178.22,589.3800048830001,-35.363350399999995,149.1652186,0
1.23,-15.39,180.67,589.479980469,-35.36335379999999,149.1652178,0
-0.35,-15.71,183.11,589.58001709,-35.3633572,149.16521709999998,0
-1.61,-15.87,185.26,589.679992676,-35.3633607,149.16521640000002,0
-2.47,-15.9,186.93,589.770019531,-35.3633643,149.1652158,0
-2.89,-15.85,187.99,589.8699951169999,-35.3633678,149.16521519999998,0
-2.93,-15.78,188.43,589.9699707030001,-35.3633714,149.16521469999998,0
-2.67,-15.76,188.31,590.070007324,-35.363375,149.1652141,0
-2.21,-15.8,187.73,590.159973145,-35.3633787,149.1652136,0
-1.62,-15.88,186.84,590.2600097659999,-35.3633824,149.1652133,0
-0.99,-15.98,185.78,590.359985352,-35.36338610000001,149.1652128,0
-0.37,-16.06,184.71,590.460021973,-35.3633898,149.1652125,0
0.17,-16.13,183.74,590.5599975590001,-35.3633935,149.1652121,0
0.58,-16.16,182.96,590.650024414,-35.3633973,149.1652116,0
0.82,-16.18,182.42,590.75,-35.363401200000006,149.1652112,0
0.92,-16.19,182.14,590.849975586,-35.363405,149.1652109,0
0.89,-16.21,182.11,590.950012207,-35.3634088,149.1652105,0
0.77,-16.24,182.29,591.049987793,-35.363412700000005,149.1652101,0
0.54,-16.28,182.61,591.150024414,-35.3634166,149.1652097,0
0.26,-16.32,183.02,591.2399902340001,-35.363420399999995,149.1652092,0
-0.02,-16.34,183.47,591.340026855,-35.3634245,149.16520880000002,0
-0.26,-16.38,183.88,591.4400024409999,-35.3634283,149.1652085,0
-0.44,-16.43,184.24,591.539978027,-35.36343239999999,149.1652081,0
-0.57,-16.46,184.51,591.640014648,-35.3634362,149.16520769999997,0
-0.65,-16.49,184.67,591.729980469,-35.3634403,149.16520730000002,0
-0.64,-16.52,184.74,591.83001709,-35.3634443,149.16520690000002,0
-0.56,-16.55,184.72,591.929992676,-35.363448299999995,149.16520659999998,0
-0.43,-16.58,184.64,592.0300292969999,-35.3634524,149.1652063,0
-0.29,-16.6,184.52,592.1300048830001,-35.363456299999996,149.16520590000002,0
-0.16,-16.63,184.38,592.2199707030001,-35.3634604,149.16520559999998,0
-0.05,-16.65,184.25,592.320007324,-35.3634646,149.1652053,0
0.03,-16.67,184.15,592.41998291,-35.363468700000006,149.16520490000002,0
0.1,-16.69,184.09,592.520019531,-35.3634727,149.1652045,0
0.12,-16.7,184.07,592.609985352,-35.3634768,149.1652043,0
0.12,-16.7,184.09,592.710021973,-35.363481,149.16520390000002,0
0.07,-16.7,184.15,592.8099975590001,-35.3634852,149.1652035,0
0.0,-16.69,184.23,592.909973145,-35.3634893,149.16520309999999,0
-0.05,-16.67,184.34,593.0100097659999,-35.3634935,149.1652029,0
-0.1,-16.66,184.45,593.099975586,-35.3634976,149.1652025,0
-0.13,-16.68,184.56,593.200012207,-35.3635018,149.1652021,0
-0.15,-16.73,184.66,593.299987793,-35.363506,149.1652018,0
-0.16,-16.78,184.74,593.400024414,-35.3635102,149.1652015,0
-0.17,-16.81,184.82,593.4899902340001,-35.3635144,149.1652011,0
-0.18,-16.81,184.87,593.590026855,-35.3635186,149.1652006,0
-0.2,-16.82,184.91,593.6900024409999,-35.36352279999999,149.1652004,0
-0.23,-16.82,184.93,593.789978027,-35.363527000000005,149.1652,0
-0.24,-16.83,184.94,593.890014648,-35.3635313,149.1651996,0
-0.23,-16.86,184.95,593.9899902340001,-35.3635355,149.1651992,0
-0.21,-16.89,184.96,594.08001709,-35.3635398,149.1651989,0
-0.17,-16.91,184.96,594.179992676,-35.363544,149.1651985,0
-0.12,-16.94,184.97,594.2800292969999,-35.3635483,149.1651981,0
-0.09,-16.98,184.98,594.3800048830001,-35.3635526,149.1651977,0
-0.08,-16.99,185.0,594.479980469,-35.3635568,149.16519730000002,0
-0.09,-16.97,185.03,594.58001709,-35.363561100000005,149.165197,0
-0.1,-16.94,185.07,594.66998291,-35.3635654,149.1651966,0
-0.11,-16.92,185.11,594.770019531,-35.363569700000006,149.16519619999997,0
-0.1,-16.93,185.15,594.8699951169999,-35.363574,149.16519580000002,0
-0.11,-16.97,185.19,594.9699707030001,-35.3635783,149.16519530000002,0
-0.16,-17.01,185.23,595.070007324,-35.3635826,149.1651949,0
-0.19,-17.05,185.27,595.16998291,-35.3635869,149.1651946,0
-0.21,-17.08,185.3,595.2600097659999,-35.3635912,149.16519419999997,0
-0.21,-17.08,185.33,595.359985352,-35.363595399999994,149.1651938,0
-0.23,-17.06,185.35,595.460021973,-35.3635997,149.16519340000002,0
-0.24,-17.04,185.37,595.5599975590001,-35.363603999999995,149.1651929,0
-0.23,-17.05,185.39,595.659973145,-35.363608500000005,149.16519250000002,0
-0.22,-17.08,185.4,595.7600097659999,-35.3636128,149.165192,0
-0.21,-17.1,185.42,595.849975586,-35.363617100000006,149.16519159999999,0
-0.19,-17.12,185.44,595.950012207,-35.3636215,149.1651913,0
-0.18,-17.12,185.45,596.049987793,-35.363625799999994,149.1651908,0
-0.18,-17.11,185.47,596.150024414,-35.3636301,149.1651904,0
-0.16,-17.09,185.48,596.25,-35.363634399999995,149.16519,0
-0.15,-17.08,185.5,596.349975586,-35.3636389,149.1651895,0
-0.15,-17.08,185.52,596.450012207,-35.36364329999999,149.1651891,0
-0.16,-17.1,185.53,596.549987793,-35.3636477,149.1651886,0
-0.16,-17.13,185.55,596.640014648,-35.363652,149.1651882,0
-0.15,-17.15,185.56,596.7399902340001,-35.363656299999995,149.1651877,0
-0.16,-17.16,185.58,596.840026855,-35.3636608,149.1651873,0
-0.18,-17.15,185.6,596.9400024409999,-35.3636651,149.16518680000001,0
-0.2,-17.14,185.62,597.039978027,-35.3636695,149.1651865,0
-0.2,-17.12,185.64,597.1300048830001,-35.363673799999994,149.165186,0
-0.2,-17.11,185.65,597.229980469,-35.3636782,149.1651856,0
-0.19,-17.1,185.67,597.33001709,-35.3636826,149.1651851,0
-0.19,-17.09,185.68,597.41998291,-35.363687,149.1651847,0
-0.2,-17.09,185.7,597.520019531,-35.3636914,149.1651842,0
-0.18,-17.09,185.7,597.6199951169999,-35.36369570000001,149.16518369999997,0
-0.15,-17.11,185.71,597.710021973,-35.3637,149.16518330000002,0
-0.13,-17.13,185.72,597.8099975590001,-35.3637045,149.16518280000003,0
-0.11,-17.13,185.73,597.900024414,-35.3637089,149.1651824,0
-0.1,-17.12,185.73,598.0,-35.3637133,149.16518190000002,0
-0.11,-17.09,185.74,598.099975586,-35.3637176,149.1651814,0
-0.11,-17.07,185.74,598.1900024409999,-35.3637219,149.16518100000002,0
-0.12,-17.07,185.75,598.289978027,-35.3637265,149.1651805,0
-0.13,-17.08,185.75,598.390014648,-35.3637308,149.16518,0
-0.13,-17.08,185.76,598.479980469,-35.3637352,149.1651795,0
-0.13,-17.08,185.76,598.58001709,-35.3637395,149.1651791,0
-0.14,-17.06,185.77,598.66998291,-35.3637439,149.1651786,0
-0.15,-17.04,185.77,598.770019531,-35.3637484,149.1651781,0
-0.16,-17.05,185.78,598.8699951169999,-35.3637528,149.1651776,0
-0.16,-17.08,185.78,598.960021973,-35.3637571,149.1651771,0
-0.15,-17.09,185.78,599.0599975590001,-35.3637614,149.1651767,0
-0.13,-17.09,185.78,599.159973145,-35.3637659,149.1651762,0
-0.11,-17.09,185.78,599.25,-35.3637703,149.1651757,0
-0.1,-17.1,185.78,599.349975586,-35.3637747,149.1651752,0
-0.11,-17.11,185.78,599.450012207,-35.363779,149.16517480000002,0
-0.14,-17.1,185.77,599.539978027,-35.3637833,149.1651743,0
-0.16,-17.09,185.77,599.640014648,-35.3637878,149.16517380000002,0
-0.19,-17.09,185.77,599.7399902340001,-35.3637922,149.1651733,0
-0.21,-17.11,185.76,599.83001709,-35.3637966,149.16517280000002,0
-0.22,-17.11,185.76,599.929992676,-35.363800899999994,149.16517230000002,0
-0.22,-17.12,185.76,600.0300292969999,-35.363805299999996,149.1651719,0
-0.22,-17.13,185.75,600.1199951169999,-35.3638098,149.16517140000002,0
-0.2,-17.14,185.74,600.2199707030001,-35.3638141,149.1651709,0
-0.18,-17.16,185.74,600.320007324,-35.3638186,149.16517040000002,0
-0.17,-17.16,185.73,600.409973145,-35.363822799999994,149.1651699,0
-0.14,-17.14,185.73,600.5100097659999,-35.3638272,149.16516940000002,0
-0.13,-17.1,185.72,600.609985352,-35.363831700000006,149.1651689,0
-0.12,-17.06,185.72,600.700012207,-35.3638361,149.1651684,0
-0.12,-17.06,185.72,600.799987793,-35.3638404,149.1651679,0
-0.1,-17.06,185.72,600.900024414,-35.363844799999995,149.1651675,0
-0.1,-17.08,185.72,600.9899902340001,-35.3638493,149.165167,0
-0.12,-17.1,185.73,601.090026855,-35.3638537,149.1651665,0
-0.14,-17.12,185.73,601.1900024409999,-35.3638581,149.165166,0
-0.13,-17.12,185.73,601.2800292969999,-35.3638624,149.1651655,0
-0.11,-17.1,185.73,601.3800048830001,-35.3638669,149.165165,0
-0.07,-17.08,185.73,601.479980469,-35.363871200000006,149.1651645,0
-0.05,-17.07,185.72,601.570007324,-35.3638756,149.16516399999998,0
-0.04,-17.06,185.72,601.66998291,-35.36388,149.1651635,0
-0.04,-17.06,185.72,601.7600097659999,-35.3638843,149.1651631,0
-0.03,-17.05,185.72,601.859985352,-35.3638888,149.1651626,0
-0.04,-17.05,185.72,601.960021973,-35.3638932,149.1651621,0
-0.05,-17.06,185.72,602.049987793,-35.3638976,149.1651616,0
-0.06,-17.09,185.72,602.150024414,-35.363901899999995,149.1651611,0
-0.09,-17.09,185.72,602.25,-35.363906400000005,149.16516059999998,0
-0.17,-17.04,185.71,602.340026855,-35.36391079999999,149.16515990000002,0
-0.64,-16.6,185.66,602.429992676,-35.3639152,149.1651594,0
-1.6,-15.76,185.47,602.520019531,-35.3639195,149.16515900000002,0
-2.76,-14.88,185.05,602.599975586,-35.3639237,149.1651585,0
-3.82,-14.19,184.36,602.66998291,-35.363928,149.1651581,0
-4.63,-13.76,183.36,602.729980469,-35.363932299999995,149.16515790000003,0
-5.19,-13.55,182.06,602.7800292969999,-35.3639364,149.1651575,0
-5.55,-13.49,180.45,602.83001709,-35.363940500000005,149.1651575,0
-5.78,-13.51,178.56,602.8699951169999,-35.363944399999994,149.1651575,0
-5.97,-13.52,176.41,602.900024414,-35.3639485,149.1651575,0
-6.19,-13.51,174.05,602.929992676,-35.3639523,149.1651576,0
-6.42,-13.49,171.5,602.950012207,-35.363956099999996,149.16515800000002,0
-6.63,-13.51,168.82,602.9699707030001,-35.36396,149.1651585,0
-6.85,-13.56,166.03,602.9899902340001,-35.363963700000006,149.16515900000002,0
-7.05,-13.69,163.17,603.0,-35.36396729999999,149.16515990000002,0
-7.2,-13.91,160.25,603.020019531,-35.3639709,149.1651608,0
-7.27,-14.21,157.31,603.0300292969999,-35.363974299999995,149.1651618,0
-7.24,-14.56,154.35,603.0300292969999,-35.363977899999995,149.16516299999998,0
-7.07,-14.94,151.41,603.039978027,-35.3639813,149.16516430000001,0
-6.78,-15.3,148.51,603.049987793,-35.363984499999994,149.165166,0
-6.39,-15.6,145.71,603.049987793,-35.3639877,149.1651676,0
-5.93,-15.85,143.02,603.049987793,-35.363991,149.16516950000002,0
-5.45,-16.06,140.53,603.0599975590001,-35.3639941,149.16517140000002,0
-5.0,-16.25,138.24,603.0599975590001,-35.3639972,149.1651737,0
-4.62,-16.42,136.17,603.0599975590001,-35.36400020000001,149.165176,0
-4.3,-16.58,134.31,603.0599975590001,-35.364003100000005,149.1651784,0
-4.05,-16.7,132.67,603.0599975590001,-35.3640059,149.16518090000002,0
-3.85,-16.8,131.21,603.070007324,-35.3640088,149.16518359999998,0
-3.68,-16.88,129.92,603.070007324,-35.364011600000005,149.16518630000002,0
-3.51,-16.93,128.77,603.070007324,-35.3640143,149.1651892,0
-3.34,-16.98,127.73,603.070007324,-35.3640169,149.16519230000003,0
-3.18,-17.02,126.78,603.070007324,-35.3640196,149.16519530000002,0
-3.04,-17.06,125.9,603.070007324,-35.3640221,149.1651986,0
-2.89,-17.11,125.08,603.070007324,-35.3640247,149.1652019,0
-2.72,-17.19,124.29,603.070007324,-35.3640271,149.1652052,0
-2.53,-17.26,123.55,603.070007324,-35.3640295,149.1652087,0
-2.35,-17.32,122.84,603.070007324,-35.364032,149.1652121,0
-2.17,-17.35,122.16,603.070007324,-35.3640343,149.1652158,0
-1.97,-17.37,121.53,603.070007324,-35.3640367,149.1652195,0
-1.78,-17.4,120.94,603.070007324,-35.3640389,149.16522319999999,0
-1.62,-17.43,120.4,603.070007324,-35.3640411,149.16522700000002,0
-1.48,-17.46,119.91,603.0599975590001,-35.3640434,149.16523080000002,0
-1.34,-17.48,119.47,603.0599975590001,-35.364045700000005,149.16523480000004,0
-1.18,-17.51,119.07,603.0599975590001,-35.364047799999994,149.1652388,0
-1.04,-17.56,118.73,603.0599975590001,-35.36405,149.1652427,0
-0.93,-17.62,118.42,603.0599975590001,-35.364052,149.1652469,0
-0.85,-17.68,118.16,603.0599975590001,-35.3640542,149.16525090000002,0
-0.78,-17.73,117.92,603.0599975590001,-35.364056299999994,149.1652551,0
-0.72,-17.75,117.71,603.0599975590001,-35.3640584,149.1652593,0
-0.65,-17.73,117.51,603.0599975590001,-35.3640605,149.16526340000001,0
-0.59,-17.7,117.34,603.0599975590001,-35.3640624,149.1652677,0
-0.53,-17.69,117.18,603.0599975590001,-35.3640646,149.165272,0
-0.47,-17.69,117.03,603.0599975590001,-35.3640666,149.16527630000002,0
-0.41,-17.71,116.89,603.0599975590001,-35.3640685,149.1652806,0
-0.36,-17.75,116.77,603.0599975590001,-35.3640706,149.1652851,0
-0.31,-17.77,116.66,603.0599975590001,-35.3640726,149.1652895,0
-0.23,-17.79,116.55,603.0599975590001,-35.3640745,149.1652939,0
-0.15,-17.79,116.45,603.0599975590001,-35.3640766,149.1652983,0
-0.08,-17.8,116.37,603.0599975590001,-35.3640785,149.1653028,0
-0.02,-17.81,116.29,603.0599975590001,-35.3640805,149.1653073,0
0.02,-17.83,116.22,603.0599975590001,-35.364082399999994,149.1653117,0
0.04,-17.84,116.17,603.0599975590001,-35.3640843,149.16531640000002,0
0.02,-17.85,116.12,603.0599975590001,-35.3640864,149.16532080000002,0
0.02,-17.85,116.08,603.0599975590001,-35.36408839999999,149.1653255,0
0.05,-17.85,116.04,603.0599975590001,-35.3640903,149.16532990000002,0
0.06,-17.83,116.01,603.0599975590001,-35.3640922,149.1653346,0
0.08,-17.84,115.99,603.0599975590001,-35.3640941,149.1653392,0
0.09,-17.88,115.97,603.0599975590001,-35.364096200000006,149.1653437,0
0.09,-17.91,115.95,603.0599975590001,-35.3640981,149.16534840000003,0
0.1,-17.94,115.95,603.0599975590001,-35.3641001,149.1653531,0
0.12,-17.96,115.94,603.0599975590001,-35.364101899999994,149.1653576,0
0.16,-17.97,115.93,603.0599975590001,-35.364103799999995,149.16536230000003,0
0.2,-17.98,115.92,603.0599975590001,-35.3641059,149.165367,0
0.23,-17.99,115.92,603.070007324,-35.3641078,149.16537160000001,0
0.25,-18.01,115.92,603.070007324,-35.3641098,149.1653763,0
0.25,-18.03,115.92,603.070007324,-35.3641116,149.165381,0
0.24,-18.02,115.93,603.070007324,-35.364113700000004,149.16538569999997,0
0.22,-18.02,115.93,603.070007324,-35.364115600000005,149.1653904,0
0.22,-18.02,115.94,603.070007324,-35.3641176,149.165395,0
0.23,-18.03,115.95,603.070007324,-35.3641195,149.16539980000002,0
0.25,-18.03,115.96,603.070007324,-35.364121399999995,149.1654045,0
0.25,-18.04,115.97,603.070007324,-35.364123299999996,149.1654092,0
0.24,-18.05,115.98,603.070007324,-35.3641254,149.1654139,0
0.24,-18.05,116.0,603.070007324,-35.3641273,149.1654187,0
0.25,-18.05,116.01,603.08001709,-35.364129299999995,149.16542330000001,0
0.25,-18.04,116.02,603.08001709,-35.3641312,149.16542809999999,0
0.22,-18.05,116.04,603.08001709,-35.364133200000005,149.16543280000002,0
0.19,-18.07,116.05,603.08001709,-35.3641352,149.1654376,0
0.19,-18.08,116.06,603.08001709,-35.3641372,149.16544240000002,0
0.22,-18.06,116.06,603.08001709,-35.364139,149.1654472,0
0.23,-18.07,116.07,603.08001709,-35.364141100000005,149.16545190000002,0
0.22,-18.08,116.07,603.08001709,-35.36414310000001,149.1654567,0
0.19,-18.11,116.08,603.08001709,-35.364145,149.1654615,0
0.18,-18.13,116.08,603.08001709,-35.3641469,149.16546630000002,0
0.19,-18.14,116.09,603.08001709,-35.364149,149.165471,0
0.2,-18.13,116.09,603.08001709,-35.364151,149.16547580000002,0
0.2,-18.12,116.1,603.08001709,-35.3641529,149.1654806,0
0.2,-18.12,116.11,603.08001709,-35.364154799999994,149.1654854,0
0.2,-18.12,116.12,603.090026855,-35.3641569,149.16549019999997,0
0.21,-18.13,116.13,603.090026855,-35.3641589,149.165495,0
0.18,-18.16,116.14,603.090026855,-35.36416079999999,149.1654997,0
0.15,-18.18,116.16,603.090026855,-35.3641627,149.1655045,0
0.14,-18.18,116.17,603.090026855,-35.3641648,149.16550930000002,0
0.17,-18.2,116.18,603.090026855,-35.36416679999999,149.1655141,0
0.18,-18.22,116.18,603.090026855,-35.364168799999995,149.165519,0
0.19,-18.21,116.19,603.090026855,-35.3641707,149.16552380000002,0
0.22,-18.2,116.2,603.090026855,-35.364172700000005,149.1655285,0
0.24,-18.18,116.21,603.090026855,-35.36417470000001,149.16553330000002,0
0.23,-18.16,116.21,603.090026855,-35.3641767,149.1655381,0
0.19,-18.16,116.22,603.090026855,-35.3641786,149.1655429,0
0.15,-18.19,116.23,603.090026855,-35.364180700000006,149.1655479,0
0.14,-18.22,116.24,603.090026855,-35.36418270000001,149.16555269999998,0
0.17,-18.23,116.25,603.090026855,-35.3641846,149.1655575,0
0.2,-18.24,116.25,603.090026855,-35.364186700000005,149.1655623,0
0.22,-18.24,116.26,603.090026855,-35.3641886,149.16556709999998,0
0.23,-18.23,116.27,603.090026855,-35.3641906,149.165572,0
0.24,-18.22,116.28,603.090026855,-35.3641925,149.16557680000003,0
0.24,-18.22,116.29,603.090026855,-35.3641946,149.1655816,0
0.23,-18.24,116.3,603.090026855,-35.3641966,149.1655865,0
0.19,-18.24,116.31,603.090026855,-35.3641986,149.16559130000002,0
0.15,-18.25,116.33,603.090026855,-35.3642005,149.165596,0
0.14,-18.25,116.34,603.099975586,-35.3642026,149.16560080000002,0
0.16,-18.25,116.35,603.099975586,-35.3642046,149.1656057,0
0.18,-18.25,116.36,603.099975586,-35.3642065,149.16561049999999,0
0.2,-18.25,116.37,603.099975586,-35.3642086,149.1656154,0
0.19,-18.27,116.38,603.099975586,-35.3642106,149.16562030000003,0
0.17,-18.3,116.38,603.099975586,-35.3642126,149.1656251,0
0.14,-18.3,116.39,603.099975586,-35.3642145,149.16563,0
0.11,-18.28,116.39,603.099975586,-35.364216600000006,149.16563480000002,0
0.09,-18.26,116.39,603.099975586,-35.3642186,149.1656396,0
0.11,-18.23,116.4,603.099975586,-35.3642205,149.16564440000002,0
0.12,-18.19,116.4,603.099975586,-35.3642227,149.1656494,0
0.11,-18.19,116.4,603.099975586,-35.3642247,149.16565419999998,0
0.11,-18.21,116.4,603.099975586,-35.3642266,149.1656591,0
0.12,-18.28,116.4,603.099975586,-35.3642287,149.1656639,0
0.14,-18.33,116.4,603.099975586,-35.3642307,149.1656687,0
0.13,-18.36,116.4,603.099975586,-35.3642326,149.1656736,0
0.14,-18.34,116.41,603.109985352,-35.364234700000004,149.1656784,0
0.15,-18.32,116.41,603.109985352,-35.3642367,149.1656832,0
0.16,-18.31,116.42,603.109985352,-35.3642387,149.1656882,0
0.18,-18.32,116.42,603.109985352,-35.3642406,149.165693,0
0.19,-18.34,116.43,603.109985352,-35.364242700000005,149.1656979,0
0.18,-18.34,116.44,603.109985352,-35.36424470000001,149.16570269999997,0
0.15,-18.32,116.44,603.109985352,-35.3642467,149.1657076,0
0.13,-18.31,116.45,603.109985352,-35.3642488,149.16571240000002,0
0.12,-18.3,116.45,603.109985352,-35.3642508,149.1657172,0
0.13,-18.31,116.46,603.109985352,-35.3642527,149.16572219999998,0
0.14,-18.31,116.46,603.109985352,-35.3642548,149.1657271,0
0.14,-18.32,116.46,603.109985352,-35.3642568,149.16573190000003,0
0.15,-18.33,116.46,603.109985352,-35.3642588,149.1657368,0
0.18,-18.35,116.47,603.109985352,-35.3642609,149.1657416,0
0.21,-18.35,116.47,603.109985352,-35.36426289999999,149.16574640000002,0
0.23,-18.35,116.47,603.109985352,-35.3642648,149.1657514,0
0.23,-18.33,116.47,603.109985352,-35.364266799999996,149.1657563,0
0.22,-18.32,116.48,603.1199951169999,-35.3642689,149.1657611,0
0.2,-18.3,116.48,603.1199951169999,-35.364270899999994,149.165766,0
0.18,-18.31,116.49,603.1199951169999,-35.364273,149.16577080000002,0
0.17,-18.31,116.5,603.1199951169999,-35.364275,149.1657758,0
0.17,-18.32,116.5,603.1199951169999,-35.364277,149.16578059999998,0
0.18,-18.33,116.5,603.1199951169999,-35.364279100000005,149.1657855,0
0.17,-18.37,116.51,603.1199951169999,-35.3642811,149.16579040000002,0
0.17,-18.41,116.51,603.1199951169999,-35.3642831,149.1657952,0
0.17,-18.44,116.51,603.1199951169999,-35.364284999999995,149.1658,0
0.19,-18.43,116.5,603.1199951169999,-35.3642872,149.165805,0
0.18,-18.4,116.5,603.1199951169999,-35.3642892,149.16580990000003,0
0.17,-18.4,116.5,603.1199951169999,-35.3642911,149.1658147,0
0.17,-18.4,116.5,603.1199951169999,-35.36429329999999,149.1658196,0
0.18,-18.39,116.5,603.1199951169999,-35.36429520000001,149.1658244,0
0.2,-18.4,116.5,603.1199951169999,-35.3642972,149.1658294,0
0.22,-18.41,116.5,603.1199951169999,-35.3642994,149.1658343,0
0.22,-18.42,116.49,603.1199951169999,-35.3643013,149.1658392,0
0.23,-18.41,116.49,603.1199951169999,-35.3643034,149.165844,0
0.23,-18.42,116.49,603.1199951169999,-35.3643055,149.16584880000002,0
0.22,-18.42,116.5,603.1199951169999,-35.364307399999994,149.16585369999999,0
0.22,-18.41,116.5,603.1199951169999,-35.3643096,149.16585869999997,0
0.23,-18.39,116.5,603.1300048830001,-35.3643116,149.1658636,0
0.26,-18.38,116.49,603.1300048830001,-35.3643135,149.16586840000002,0
0.28,-18.38,116.49,603.1300048830001,-35.3643157,149.1658733,0
0.26,-18.39,116.49,603.1300048830001,-35.3643177,149.1658783,0
0.23,-18.38,116.49,603.1300048830001,-35.3643197,149.1658831,0
0.2,-18.36,116.49,603.1300048830001,-35.3643218,149.165888,0
0.2,-18.35,116.49,603.1300048830001,-35.364323799999994,149.1658929,0
0.2,-18.38,116.49,603.1300048830001,-35.3643259,149.1658977,0
0.2,-18.4,116.49,603.1300048830001,-35.3643279,149.16590269999998,0
0.19,-18.44,116.48,603.1300048830001,-35.3643299,149.1659076,0
0.21,-18.47,116.47,603.1300048830001,-35.364332,149.1659124,0
0.21,-18.48,116.47,603.1300048830001,-35.364334,149.16591730000002,0
0.2,-18.48,116.46,603.1300048830001,-35.364336,149.1659221,0
0.2,-18.47,116.46,603.1300048830001,-35.3643381,149.1659271,0
0.18,-18.44,116.45,603.1300048830001,-35.3643402,149.165932,0
0.16,-18.42,116.45,603.1300048830001,-35.3643421,149.1659369,0
0.16,-18.41,116.44,603.1300048830001,-35.3643443,149.1659417,0
0.15,-18.41,116.44,603.1300048830001,-35.3643463,149.1659467,0
0.16,-18.42,116.43,603.1300048830001,-35.3643484,149.16595159999997,0
0.19,-18.44,116.43,603.1300048830001,-35.36435039999999,149.1659565,0
0.22,-18.45,116.43,603.1300048830001,-35.364352399999994,149.16596130000002,0
0.24,-18.48,116.42,603.1300048830001,-35.3643545,149.1659661,0
0.25,-18.49,116.42,603.1300048830001,-35.3643566,149.16597109999998,0
0.24,-18.49,116.41,603.1300048830001,-35.3643585,149.165976,0
0.25,-18.47,116.41,603.1300048830001,-35.3643607,149.16598090000002,0
0.24,-18.46,116.41,603.1300048830001,-35.3643627,149.1659857,0
0.22,-18.45,116.41,603.1300048830001,-35.3643648,149.1659906,0
0.22,-18.44,116.4,603.1300048830001,-35.36436679999999,149.1659956,0
0.23,-18.43,116.4,603.1300048830001,-35.364368799999994,149.1660005,0
0.23,-18.44,116.4,603.1300048830001,-35.3643709,149.1660054,0
0.22,-18.45,116.4,603.1300048830001,-35.3643729,149.1660102,0
0.19,-18.46,116.39,603.1300048830001,-35.3643749,149.16601519999998,0
0.18,-18.47,116.39,603.1300048830001,-35.364377000000005,149.16602,0
0.16,-18.47,116.38,603.1300048830001,-35.3643791,149.166025,0
0.16,-18.47,116.37,603.1300048830001,-35.364381099999996,149.16602980000002,0
0.19,-18.46,116.37,603.1300048830001,-35.364383200000006,149.16603480000003,0
0.23,-18.46,116.36,603.1300048830001,-35.3643852,149.1660397,0
0.25,-18.46,116.36,603.1300048830001,-35.3643873,149.1660446,0
0.26,-18.44,116.35,603.1300048830001,-35.3643893,149.1660494,0
0.27,-18.44,116.35,603.1300048830001,-35.364391299999994,149.1660544,0
0.27,-18.46,116.34,603.1300048830001,-35.3643934,149.1660593,0
0.24,-18.48,116.34,603.1300048830001,-35.3643955,149.1660642,0
0.22,-18.48,116.34,603.1300048830001,-35.3643974,149.166069,0
0.2,-18.46,116.33,603.1300048830001,-35.364399600000006,149.16607390000001,0
0.22,-18.44,116.33,603.1300048830001,-35.3644016,149.1660789,0
0.25,-18.45,116.32,603.1300048830001,-35.3644036,149.16608380000002,1
0.27,-18.47,116.32,603.1300048830001,-35.364405700000006,149.1660887,1
0.27,-18.52,116.32,603.1300048830001,-35.36440770000001,149.16609350000002,1
0.25,-18.55,116.32,603.1300048830001,-35.3644098,149.1660985,1
0.22,-18.53,116.31,603.1300048830001,-35.3644119,149.1661034,1
0.21,-18.48,116.31,603.1300048830001,-35.3644138,149.16610830000002,1
0.21,-18.44,116.3,603.1300048830001,-35.364416,149.16611310000002,1
0.22,-18.42,116.3,603.1300048830001,-35.364418,149.16611809999998,1
0.24,-18.44,116.3,603.1300048830001,-35.36442,149.166123,1
0.27,-18.46,116.3,603.1300048830001,-35.3644222,149.16612790000002,1
0.29,-18.47,116.29,603.1300048830001,-35.3644241,149.1661328,1
0.3,-18.47,116.29,603.1300048830001,-35.3644261,149.1661378,1
0.31,-18.47,116.29,603.1300048830001,-35.3644283,149.1661427,1
0.3,-18.46,116.29,603.1300048830001,-35.364430299999995,149.16614750000002,1
0.28,-18.47,116.29,603.1300048830001,-35.3644324,149.1661524,1
0.28,-18.46,116.29,603.1300048830001,-35.364434499999994,149.1661574,1
0.29,-18.45,116.29,603.1300048830001,-35.3644364,149.16616230000002,1
0.28,-18.42,116.29,603.1300048830001,-35.3644386,149.1661672,1
0.27,-18.42,116.29,603.1300048830001,-35.3644406,149.166172,1
0.24,-18.42,116.29,603.1300048830001,-35.364442700000005,149.166177,1
0.22,-18.43,116.28,603.1300048830001,-35.36444470000001,149.16618190000003,1
0.2,-18.42,116.28,603.1300048830001,-35.3644467,149.1661868,1
0.19,-18.42,116.27,603.1300048830001,-35.3644489,149.1661916,1
0.2,-18.41,116.26,603.1300048830001,-35.364450899999994,149.1661966,1
0.23,-18.41,116.25,603.1300048830001,-35.364453000000005,149.1662015,1
0.25,-18.4,116.25,603.1300048830001,-35.364455,149.1662064,1
0.27,-18.39,116.24,603.1300048830001,-35.364457,149.1662112,1
0.29,-18.36,116.23,603.1300048830001,-35.364459100000005,149.16621609999999,1
0.28,-18.35,116.23,603.1300048830001,-35.36446110000001,149.1662212,1
0.28,-18.34,116.23,603.1300048830001,-35.3644631,149.1662261,1
0.29,-18.35,116.22,603.1300048830001,-35.3644652,149.16623090000002,1
0.29,-18.34,116.22,603.1300048830001,-35.364467299999994,149.1662359,1
0.28,-18.32,116.22,603.1300048830001,-35.3644692,149.1662408,1
0.27,-18.32,116.22,603.1300048830001,-35.3644714,149.1662457,1
0.27,-18.34,116.21,603.1300048830001,-35.3644734,149.1662505,1
0.27,-18.36,116.21,603.1300048830001,-35.3644755,149.1662555,1
0.27,-18.38,116.21,603.1300048830001,-35.3644775,149.1662604,1
0.28,-18.4,116.21,603.1300048830001,-35.3644795,149.16626530000002,1
0.29,-18.41,116.21,603.1300048830001,-35.3644816,149.1662701,1
0.3,-18.42,116.21,603.1300048830001,-35.36448370000001,149.1662751,1
0.31,-18.42,116.21,603.1300048830001,-35.3644856,149.16628,1
0.32,-18.4,116.2,603.1300048830001,-35.364487700000005,149.16628490000002,1
0.32,-18.39,116.2,603.1300048830001,-35.3644898,149.1662897,1
0.32,-18.4,116.2,603.1300048830001,-35.3644917,149.1662946,1
0.32,-18.43,116.2,603.1300048830001,-35.3644939,149.1662996,1
0.33,-18.43,116.2,603.1300048830001,-35.364495899999994,149.1663045,1
0.33,-18.43,116.2,603.1300048830001,-35.364497799999995,149.16630940000002,1
0.3,-18.43,116.2,603.1300048830001,-35.3645,149.1663142,1
0.25,-18.43,116.2,603.1300048830001,-35.364502,149.16631919999998,1
0.21,-18.43,116.19,603.1300048830001,-35.364504100000005,149.1663241,1
0.19,-18.43,116.19,603.1300048830001,-35.3645062,149.166329,1
0.19,-18.43,116.18,603.1300048830001,-35.3645081,149.16633380000002,1
0.22,-18.43,116.17,603.1300048830001,-35.36451029999999,149.1663388,1
0.28,-18.43,116.16,603.1300048830001,-35.364512299999994,149.1663437,1
0.32,-18.43,116.16,603.1300048830001,-35.3645144,149.1663486,1
0.33,-18.43,116.15,603.1300048830001,-35.3645164,149.1663534,1
0.33,-18.45,116.14,603.1300048830001,-35.3645184,149.1663584,1
0.29,-18.45,116.14,603.1300048830001,-35.364520500000005,149.16636330000003,1
0.25,-18.45,116.14,603.1300048830001,-35.3645226,149.1663682,1
0.25,-18.43,116.14,603.1300048830001,-35.3645245,149.166373,1
0.26,-18.41,116.14,603.1300048830001,-35.364526700000006,149.16637790000001,1
0.27,-18.41,116.14,603.1300048830001,-35.3645287,149.1663829,1
0.29,-18.43,116.14,603.1300048830001,-35.3645306,149.1663878,1
0.3,-18.47,116.14,603.1300048830001,-35.3645328,149.1663927,1
0.28,-18.5,116.14,603.1300048830001,-35.3645348,149.16639750000002,1
0.29,-18.5,116.14,603.1300048830001,-35.3645369,149.1664025,1
0.34,-18.48,116.14,603.1300048830001,-35.3645389,149.1664074,1
0.39,-18.46,116.14,603.1300048830001,-35.3645409,149.16641230000002,1
0.38,-18.43,116.13,603.1300048830001,-35.364543,149.1664171,1
0.36,-18.39,116.13,603.1300048830001,-35.3645451,149.16642209999998,1
0.35,-18.39,116.13,603.1300048830001,-35.364546999999995,149.166427,1
0.34,-18.41,116.13,603.1300048830001,-35.364549100000005,149.16643190000002,1
0.31,-18.44,116.13,603.1300048830001,-35.3645512,149.1664367,1
0.32,-18.45,116.13,603.1300048830001,-35.3645531,149.16644169999998,1
0.35,-18.45,116.13,603.1300048830001,-35.36455529999999,149.1664466,1
0.35,-18.43,116.13,603.1300048830001,-35.364557299999994,149.1664515,1
0.47,-18.13,116.14,603.1300048830001,-35.3645594,149.16645630000002,1
0.93,-17.16,116.22,603.1300048830001,-35.3645614,149.1664612,1
1.68,-15.84,116.42,603.1300048830001,-35.364563399999994,149.16646619999997,1
2.51,-14.58,116.79,603.1300048830001,-35.3645656,149.166471,1
3.27,-13.61,117.37,603.1300048830001,-35.3645676,149.1664757,1
3.89,-13.01,118.16,603.1300048830001,-35.3645696,149.16648030000002,1
4.38,-12.71,119.19,603.140014648,-35.3645718,149.16648490000003,1
4.72,-12.52,120.47,603.140014648,-35.364573799999995,149.16648930000002,1
4.93,-12.33,122.0,603.140014648,-35.364576,149.1664935,1
5.13,-12.07,123.75,603.140014648,-35.3645781,149.1664976,1
5.4,-11.78,125.73,603.140014648,-35.36458029999999,149.1665017,1
5.79,-11.48,127.92,603.140014648,-35.3645826,149.1665056,1
6.28,-11.24,130.32,603.140014648,-35.3645847,149.1665093,1
6.83,-11.06,132.93,603.140014648,-35.3645871,149.1665128,1
7.38,-10.99,135.76,603.140014648,-35.3645894,149.1665162,1
7.87,-11.02,138.82,603.140014648,-35.36459179999999,149.1665195,1
8.27,-11.14,142.13,603.150024414,-35.3645943,149.1665225,1
8.57,-11.32,145.64,603.150024414,-35.3645968,149.16652549999998,1
8.74,-11.61,149.35,603.150024414,-35.364599299999995,149.1665281,1
8.79,-12.02,153.21,603.150024414,-35.364602000000005,149.1665305,1
8.69,-12.54,157.17,603.150024414,-35.3646046,149.16653290000002,1
8.42,-13.13,161.17,603.150024414,-35.3646074,149.16653480000002,1
8.0,-13.75,165.15,603.150024414,-35.3646101,149.1665368,1
7.45,-14.4,169.02,603.150024414,-35.364613,149.1665385,1
6.74,-15.0,172.69,603.150024414,-35.3646158,149.1665399,1
5.95,-15.49,176.1,603.150024414,-35.3646187,149.1665411,1
5.15,-15.86,179.16,603.150024414,-35.3646218,149.16654230000003,1
4.45,-16.11,181.84,603.159973145,-35.364624799999994,149.16654330000003,1
3.89,-16.27,184.1,603.159973145,-35.364627899999995,149.166544,1
3.46,-16.38,185.97,603.159973145,-35.364631200000005,149.1665447,1
3.19,-16.47,187.47,603.159973145,-35.3646344,149.16654519999997,1
3.05,-16.53,188.67,603.159973145,-35.3646376,149.1665456,1
3.0,-16.57,189.62,603.159973145,-35.3646409,149.16654580000002,1
3.0,-16.56,190.4,603.159973145,-35.364644299999995,149.16654590000002,1
3.02,-16.56,191.06,603.159973145,-35.364647600000005,149.16654590000002,1
3.02,-16.56,191.66,603.159973145,-35.364650899999994,149.16654580000002,1
2.97,-16.59,192.23,603.159973145,-35.3646544,149.1665456,1
2.86,-16.64,192.81,603.159973145,-35.3646579,149.16654530000002,1
2.67,-16.71,193.39,603.159973145,-35.364661299999995,149.1665448,1
2.43,-16.77,193.99,603.159973145,-35.3646648,149.16654430000003,1
2.18,-16.81,194.6,603.159973145,-35.3646683,149.1665437,1
1.95,-16.82,195.19,603.16998291,-35.3646717,149.166543,1
1.74,-16.83,195.75,603.16998291,-35.364675299999995,149.1665421,1
1.56,-16.86,196.26,603.159973145,-35.3646789,149.1665414,1
1.38,-16.91,196.72,603.159973145,-35.3646824,149.1665405,1
1.22,-16.95,197.11,603.159973145,-35.364686,149.1665395,1
1.07,-16.98,197.44,603.159973145,-35.3646896,149.1665385,1
0.96,-17.02,197.71,603.159973145,-35.364693200000005,149.16653730000002,1
0.85,-17.04,197.91,603.159973145,-35.3646968,149.16653630000002,1
0.77,-17.07,198.07,603.159973145,-35.3647005,149.1665352,1
0.72,-17.09,198.18,603.159973145,-35.364704100000004,149.16653390000002,1
0.7,-17.11,198.26,603.159973145,-35.3647078,149.16653269999998,1
0.7,-17.13,198.32,603.159973145,-35.3647115,149.1665315,1
0.69,-17.14,198.36,603.159973145,-35.3647152,149.1665301,1
0.65,-17.15,198.4,603.159973145,-35.3647189,149.1665287,1
0.6,-17.19,198.44,603.159973145,-35.3647226,149.1665275,1
0.56,-17.25,198.48,603.159973145,-35.3647263,149.1665261,1
0.52,-17.3,198.52,603.159973145,-35.36473,149.1665246,1
0.45,-17.35,198.57,603.159973145,-35.3647339,149.16652319999997,1
0.4,-17.39,198.61,603.159973145,-35.3647376,149.1665217,1
0.35,-17.42,198.65,603.159973145,-35.3647414,149.16652030000003,1
0.3,-17.42,198.68,603.159973145,-35.3647452,149.1665188,1
0.24,-17.42,198.7,603.159973145,-35.3647489,149.1665172,1
0.18,-17.43,198.72,603.159973145,-35.3647528,149.1665157,1
0.12,-17.44,198.72,603.159973145,-35.3647566,149.1665142,1
0.09,-17.47,198.71,603.159973145,-35.3647604,149.1665127,1
0.07,-17.49,198.69,603.150024414,-35.3647643,149.166511,1
0.07,-17.54,198.66,603.150024414,-35.3647682,149.1665095,1
0.1,-17.59,198.63,603.150024414,-35.3647719,149.16650800000002,1
0.11,-17.62,198.6,603.150024414,-35.3647759,149.1665064,1
0.11,-17.65,198.56,603.150024414,-35.364779799999994,149.1665047,1
0.11,-17.68,198.52,603.150024414,-35.3647836,149.1665032,1
0.13,-17.7,198.48,603.150024414,-35.3647876,149.16650159999998,1
0.13,-17.71,198.44,603.150024414,-35.3647914,149.16649990000002,1
0.11,-17.72,198.4,603.150024414,-35.3647954,149.16649840000002,1
0.08,-17.73,198.37,603.150024414,-35.364799299999994,149.1664968,1
0.06,-17.76,198.34,603.150024414,-35.3648033,149.1664951,1
0.04,-17.79,198.31,603.150024414,-35.3648072,149.1664935,1
0.02,-17.8,198.28,603.150024414,-35.364811200000005,149.16649180000002,1
0.03,-17.81,198.25,603.150024414,-35.3648151,149.16649019999997,1
0.04,-17.82,198.22,603.150024414,-35.36481920000001,149.1664885,1
0.04,-17.83,198.19,603.150024414,-35.3648231,149.16648700000002,1
0.02,-17.85,198.16,603.150024414,-35.36482720000001,149.1664853,1
0.0,-17.88,198.13,603.150024414,-35.364831200000005,149.1664836,1
0.0,-17.9,198.1,603.150024414,-35.3648352,149.166482,1
0.0,-17.95,198.07,603.140014648,-35.3648393,149.16648030000002,1
0.01,-18.0,198.04,603.140014648,-35.3648432,149.16647869999997,1
0.02,-18.04,198.01,603.140014648,-35.3648473,149.16647700000001,1
0.01,-18.06,197.98,603.140014648,-35.3648514,149.1664754,1
0.0,-18.06,197.95,603.140014648,-35.364855299999995,149.1664738,1
0.0,-18.04,197.92,603.140014648,-35.364859499999994,149.1664721,1
0.0,-18.02,197.9,603.140014648,-35.3648635,149.1664705,1
-0.01,-18.01,197.87,603.140014648,-35.364867499999995,149.16646880000002,1
-0.01,-18.02,197.84,603.140014648,-35.3648717,149.16646719999997,1
-0.01,-18.04,197.82,603.140014648,-35.3648758,149.16646540000002,1
-0.02,-18.07,197.8,603.140014648,-35.3648799,149.1664638,1
-0.03,-18.09,197.77,603.140014648,-35.364883899999995,149.16646210000002,1
-0.01,-18.11,197.75,603.140014648,-35.3648881,149.1664605,1
0.02,-18.11,197.72,603.140014648,-35.3648922,149.16645880000002,1
0.09,-18.14,197.7,603.140014648,-35.3648963,149.1664572,1
0.14,-18.19,197.68,603.140014648,-35.364900299999995,149.1664554,1
0.14,-18.23,197.67,603.140014648,-35.3649045,149.16645390000002,1
0.11,-18.26,197.66,603.140014648,-35.36490870000001,149.1664521,1
0.08,-18.28,197.64,603.140014648,-35.3649128,149.1664505,1
0.07,-18.29,197.63,603.140014648,-35.364917,149.1664489,1
0.07,-18.27,197.62,603.1300048830001,-35.364921,149.1664472,1
0.07,-18.24,197.61,603.1300048830001,-35.3649252,149.1664456,1
0.07,-18.24,197.6,603.1300048830001,-35.3649294,149.1664439,1
0.06,-18.29,197.59,603.1300048830001,-35.3649336,149.16644219999998,1
0.05,-18.36,197.58,603.1300048830001,-35.364937700000006,149.1664405,1
0.03,-18.4,197.57,603.1300048830001,-35.3649419,149.1664389,1
0.05,-18.42,197.55,603.1300048830001,-35.364946100000004,149.1664372,1
0.07,-18.4,197.54,603.1300048830001,-35.3649502,149.1664355,1
0.09,-18.37,197.52,603.1300048830001,-35.364954299999994,149.16643380000002,1
0.11,-18.36,197.5,603.1300048830001,-35.3649586,149.1664322,1
0.12,-18.38,197.49,603.1300048830001,-35.364962799999994,149.1664305,1
0.13,-18.39,197.47,603.1300048830001,-35.364967,149.1664288,1
0.12,-18.38,197.46,603.1300048830001,-35.36497120000001,149.1664271,1
0.11,-18.38,197.45,603.1300048830001,-35.3649754,149.1664255,1
0.11,-18.37,197.44,603.1300048830001,-35.364979600000005,149.16642380000002,1
0.09,-18.35,197.43,603.1300048830001,-35.3649839,149.16642209999998,1
0.11,-18.33,197.42,603.1300048830001,-35.3649881,149.16642040000002,1
0.15,-18.33,197.41,603.1300048830001,-35.3649923,149.1664188,1
0.2,-18.34,197.41,603.1300048830001,-35.364996600000005,149.1664171,1
0.21,-18.36,197.4,603.1300048830001,-35.3650008,149.1664154,1
0.2,-18.38,197.4,603.1300048830001,-35.3650049,149.1664137,1
0.16,-18.38,197.4,603.1300048830001,-35.3650091,149.1664121,1
0.11,-18.38,197.4,603.1300048830001,-35.365013399999995,149.16641040000002,1
0.08,-18.39,197.39,603.1300048830001,-35.3650176,149.16640869999998,1
0.1,-18.4,197.39,603.1300048830001,-35.3650218,149.166407,1
0.11,-18.41,197.38,603.1300048830001,-35.3650261,149.1664054,1
0.11,-18.42,197.37,603.1300048830001,-35.365030299999994,149.1664037,1
0.11,-18.44,197.36,603.1300048830001,-35.3650346,149.166402,1
0.15,-18.44,197.35,603.1300048830001,-35.365038899999995,149.1664003,1
0.19,-18.44,197.35,603.1300048830001,-35.3650431,149.1663987,1
0.21,-18.44,197.34,603.1300048830001,-35.3650473,149.166397,1
0.2,-18.42,197.34,603.1300048830001,-35.3650516,149.16639530000003,1
0.18,-18.41,197.34,603.1300048830001,-35.36505579999999,149.1663936,1
0.17,-18.41,197.34,603.1300048830001,-35.3650601,149.166392,1
0.17,-18.4,197.34,603.1300048830001,-35.3650643,149.16639030000002,1
0.18,-18.39,197.33,603.1300048830001,-35.3650686,149.1663886,1
0.18,-18.4,197.33,603.1300048830001,-35.36507279999999,149.1663869,1
0.17,-18.42,197.33,603.1300048830001,-35.3650771,149.1663851,1
0.16,-18.43,197.33,603.1300048830001,-35.3650813,149.1663835,1
0.15,-18.44,197.33,603.1300048830001,-35.3650856,149.1663817,1
0.14,-18.46,197.32,603.1300048830001,-35.3650898,149.1663802,1
0.15,-18.47,197.32,603.1300048830001,-35.3650941,149.16637839999999,1
0.16,-18.46,197.32,603.1300048830001,-35.36509829999999,149.16637680000002,1
0.16,-18.44,197.32,603.1300048830001,-35.3651026,149.166375,1
0.19,-18.43,197.32,603.1300048830001,-35.365106899999994,149.16637340000003,1
0.19,-18.43,197.32,603.1300048830001,-35.3651111,149.1663716,1
0.21,-18.41,197.31,603.1300048830001,-35.3651154,149.16637,1
0.22,-18.4,197.31,603.1300048830001,-35.3651196,149.16636830000002,1
0.22,-18.42,197.31,603.1300048830001,-35.3651239,149.1663667,1
0.21,-18.42,197.31,603.1300048830001,-35.3651282,149.1663649,1
0.2,-18.41,197.3,603.1300048830001,-35.36513239999999,149.16636330000003,1
0.2,-18.4,197.3,603.1300048830001,-35.3651367,149.1663615,1
0.21,-18.38,197.3,603.1300048830001,-35.3651409,149.1663599,1
0.22,-18.39,197.3,603.1300048830001,-35.36514520000001,149.1663582,1
0.22,-18.41,197.31,603.1300048830001,-35.3651495,149.1663566,1
0.2,-18.43,197.31,603.1300048830001,-35.3651537,149.16635480000002,1
0.15,-18.45,197.31,603.1300048830001,-35.365158,149.1663532,1
0.11,-18.47,197.31,603.1300048830001,-35.365162299999994,149.1663515,1
0.1,-18.46,197.31,603.1300048830001,-35.3651665,149.1663498,1
0.12,-18.44,197.3,603.1300048830001,-35.3651708,149.1663481,1
0.17,-18.41,197.3,603.1300048830001,-35.3651751,149.16634630000001,1
0.21,-18.4,197.3,603.1300048830001,-35.365179299999994,149.1663447,1
0.25,-18.4,197.29,603.1300048830001,-35.3651836,149.1663429,1
0.25,-18.42,197.29,603.1300048830001,-35.365187799999994,149.16634140000002,1
0.24,-18.44,197.28,603.1300048830001,-35.3651921,149.1663396,1
0.23,-18.46,197.28,603.1300048830001,-35.3651963,149.166338,1
0.21,-18.47,197.28,603.1300048830001,-35.3652006,149.1663362,1
0.19,-18.46,197.27,603.1300048830001,-35.3652049,149.1663346,1
0.17,-18.45,197.27,603.1300048830001,-35.3652091,149.16633280000002,1
0.15,-18.47,197.26,603.1300048830001,-35.365213399999995,149.1663312,1
0.14,-18.43,197.26,603.1300048830001,-35.3652176,149.1663295,1
0.16,-18.39,197.25,603.1300048830001,-35.3652219,149.1663278,1
0.19,-18.38,197.25,603.1300048830001,-35.3652262,149.1663261,1
0.23,-18.4,197.25,603.1300048830001,-35.3652304,149.1663245,1
0.24,-18.48,197.24,603.1300048830001,-35.3652347,149.16632280000002,1
0.22,-18.55,197.24,603.1300048830001,-35.365239,149.16632109999998,1
0.21,-18.53,197.24,603.1300048830001,-35.3652432,149.16631940000002,1
0.23,-18.46,197.24,603.1300048830001,-35.365247499999995,149.16631759999999,1
0.25,-18.38,197.24,603.1300048830001,-35.365251799999996,149.166316,1
0.24,-18.34,197.24,603.1300048830001,-35.365256200000005,149.1663142,1
0.22,-18.35,197.23,603.1300048830001,-35.3652605,149.1663126,1
0.21,-18.39,197.23,603.1300048830001,-35.3652648,149.1663108,1
0.21,-18.42,197.22,603.1300048830001,-35.365269,149.1663092,1
0.2,-18.46,197.22,603.1300048830001,-35.3652733,149.1663074,1
0.2,-18.52,197.22,603.1300048830001,-35.3652776,149.16630580000003,1
0.2,-18.58,197.22,603.1300048830001,-35.3652818,149.1663041,1
0.2,-18.56,197.21,603.1300048830001,-35.365286100000006,149.1663024,1
0.2,-18.51,197.21,603.1300048830001,-35.3652904,149.1663007,1
0.2,-18.46,197.21,603.1300048830001,-35.36529470000001,149.16629890000002,1
0.2,-18.42,197.21,603.1300048830001,-35.3652989,149.16629730000002,1
0.2,-18.42,197.21,603.1300048830001,-35.3653032,149.16629550000002,1
0.21,-18.44,197.21,603.1300048830001,-35.3653075,149.1662939,1
0.22,-18.43,197.21,603.1300048830001,-35.36531179999999,149.1662922,1
0.23,-18.39,197.21,603.1300048830001,-35.3653161,149.1662906,1
0.26,-18.36,197.2,603.1300048830001,-35.3653203,149.1662888,1
0.27,-18.34,197.2,603.1300048830001,-35.3653246,149.1662872,1
0.27,-18.34,197.19,603.1300048830001,-35.3653289,149.1662854,1
0.27,-18.35,197.19,603.1300048830001,-35.3653331,149.16628380000003,1
0.28,-18.36,197.19,603.1300048830001,-35.3653374,149.1662821,1
0.27,-18.39,197.18,603.1300048830001,-35.3653417,149.1662804,1
0.27,-18.42,197.18,603.1300048830001,-35.365345899999994,149.16627869999996,1
0.25,-18.44,197.18,603.1300048830001,-35.3653502,149.1662769,1
0.23,-18.44,197.18,603.1300048830001,-35.365354499999995,149.1662753,1
0.22,-18.44,197.18,603.1300048830001,-35.365358799999996,149.16627350000002,1
0.19,-18.45,197.17,603.1300048830001,-35.365363,149.1662719,1
0.16,-18.48,197.17,603.1300048830001,-35.365367299999996,149.1662701,1
0.14,-18.5,197.17,603.1300048830001,-35.3653715,149.1662685,1
0.13,-18.51,197.17,603.1300048830001,-35.365375799999995,149.16626680000002,1
0.16,-18.5,197.16,603.1300048830001,-35.365380200000004,149.16626509999998,1
0.22,-18.45,197.15,603.1300048830001,-35.3653843,149.16626340000002,1
0.26,-18.38,197.15,603.1300048830001,-35.3653886,149.1662618,1
0.27,-18.34,197.15,603.1300048830001,-35.365393,149.16626010000002,1
0.25,-18.35,197.15,603.1300048830001,-35.3653973,149.1662584,1
0.2,-18.41,197.14,603.1300048830001,-35.365401500000004,149.1662567,1
0.17,-18.51,197.14,603.1300048830001,-35.3654058,149.166255,1
0.14,-18.6,197.14,603.1300048830001,-35.365410100000005,149.1662533,1
0.15,-18.64,197.13,603.1300048830001,-35.3654143,149.1662515,1
0.2,-18.57,197.13,603.1300048830001,-35.3654186,149.1662499,1
0.24,-18.45,197.13,603.1199951169999,-35.3654229,149.1662481,1
0.26,-18.36,197.13,603.1199951169999,-35.365427200000006,149.1662466,1
0.26,-18.32,197.13,603.1199951169999,-35.3654315,149.16624480000002,1
0.25,-18.33,197.12,603.1199951169999,-35.3654357,149.16624319999997,1
0.23,-18.38,197.12,603.1199951169999,-35.36544,149.16624140000002,1
0.2,-18.42,197.13,603.1199951169999,-35.3654443,149.1662398,1
0.17,-18.45,197.13,603.1199951169999,-35.3654486,149.166238,1
0.13,-18.53,197.13,603.1199951169999,-35.3654528,149.1662364,1
0.1,-18.59,197.13,603.1199951169999,-35.3654571,149.1662347,1
0.09,-18.59,197.13,603.1199951169999,-35.3654614,149.166233,1
0.13,-18.49,197.13,603.1199951169999,-35.3654656,149.16623130000002,1
0.16,-18.38,197.12,603.1199951169999,-35.365469899999994,149.1662295,1
0.22,-18.3,197.12,603.1199951169999,-35.3654742,149.1662279,1
0.25,-18.27,197.12,603.1199951169999,-35.365478499999995,149.1662261,1
0.26,-18.26,197.11,603.1199951169999,-35.36548270000001,149.1662246,1
0.27,-18.29,197.11,603.1300048830001,-35.365487,149.1662228,1
0.27,-18.35,197.11,603.1300048830001,-35.3654912,149.1662212,1
0.27,-18.4,197.11,603.1300048830001,-35.3654955,149.16621940000002,1
0.28,-18.44,197.11,603.1300048830001,-35.365499799999995,149.1662178,1
0.28,-18.46,197.11,603.1300048830001,-35.365504,149.166216,1
0.27,-18.44,197.12,603.1300048830001,-35.3655083,149.1662144,1
0.24,-18.41,197.13,603.1300048830001,-35.3655126,149.1662127,1
0.23,-18.4,197.13,603.1300048830001,-35.3655169,149.1662111,1
0.24,-18.41,197.13,603.1300048830001,-35.3655213,149.16620930000002,1
0.25,-18.41,197.14,603.1300048830001,-35.3655256,149.16620769999997,1
0.27,-18.42,197.14,603.1300048830001,-35.3655298,149.16620600000002,1
0.29,-18.42,197.14,603.1300048830001,-35.365534100000005,149.1662043,1
0.3,-18.42,197.14,603.1300048830001,-35.3655384,149.1662026,1
0.3,-18.43,197.14,603.1300048830001,-35.365542700000006,149.1662009,1
0.29,-18.45,197.14,603.1300048830001,-35.3655469,149.1661992,1
0.29,-18.45,197.14,603.1300048830001,-35.365551200000006,149.1661976,1
0.29,-18.45,197.14,603.1300048830001,-35.3655555,149.1661959,1
0.29,-18.43,197.14,603.1300048830001,-35.3655598,149.16619419999998,1
0.3,-18.43,197.14,603.1300048830001,-35.365564,149.1661925,1
0.3,-18.45,197.14,603.1300048830001,-35.3655683,149.1661907,1
0.31,-18.46,197.14,603.1300048830001,-35.3655726,149.1661891,1
0.32,-18.48,197.14,603.1300048830001,-35.3655769,149.16618730000002,1
0.31,-18.47,197.14,603.1300048830001,-35.3655811,149.16618569999997,1
0.29,-18.44,197.14,603.1300048830001,-35.3655854,149.16618390000002,1
0.26,-18.42,197.14,603.1300048830001,-35.36558970000001,149.1661823,1
0.26,-18.41,197.13,603.1300048830001,-35.365594,149.1661806,1
0.26,-18.44,197.13,603.1300048830001,-35.3655982,149.1661789,1
0.25,-18.47,197.13,603.1300048830001,-35.3656025,149.1661772,1
0.24,-18.48,197.12,603.1300048830001,-35.365606799999995,149.1661754,1
0.24,-18.47,197.12,603.1300048830001,-35.365611,149.16617380000002,1
0.25,-18.45,197.11,603.1300048830001,-35.3656153,149.166172,1
0.24,-18.43,197.11,603.1300048830001,-35.3656196,149.16617040000003,1
0.23,-18.42,197.1,603.1300048830001,-35.365623799999995,149.1661686,1
0.23,-18.41,197.1,603.1300048830001,-35.3656281,149.166167,1
0.22,-18.41,197.1,603.1300048830001,-35.365632399999996,149.16616530000002,1
0.22,-18.41,197.09,603.1300048830001,-35.3656368,149.1661636,1
0.25,-18.4,197.09,603.1300048830001,-35.365641100000005,149.1661619,1
0.3,-18.4,197.09,603.1300048830001,-35.3656453,149.1661602,1
0.35,-18.41,197.08,603.1300048830001,-35.365649600000005,149.1661585,1
0.38,-18.42,197.08,603.1300048830001,-35.3656539,149.1661567,1
0.37,-18.43,197.08,603.1300048830001,-35.365658200000006,149.1661551,1
0.33,-18.45,197.09,603.1300048830001,-35.3656624,149.16615330000002,1
0.31,-18.45,197.09,603.1300048830001,-35.3656667,149.1661517,1
0.31,-18.42,197.09,603.1300048830001,-35.365671,149.1661499,1
0.31,-18.39,197.09,603.1300048830001,-35.3656753,149.1661483,1
0.3,-18.37,197.09,603.1300048830001,-35.3656795,149.1661466,1
0.29,-18.37,197.08,603.1300048830001,-35.3656838,149.1661449,1
0.28,-18.38,197.08,603.1300048830001,-35.3656881,149.1661432,1
0.27,-18.38,197.08,603.1300048830001,-35.3656924,149.16614140000001,1
0.25,-18.37,197.07,603.1300048830001,-35.3656967,149.1661398,1
0.23,-18.37,197.06,603.1300048830001,-35.365701,149.166138,1
0.23,-18.36,197.06,603.1300048830001,-35.3657052,149.1661364,1
0.23,-18.35,197.05,603.1300048830001,-35.365709499999994,149.1661346,1
0.25,-18.37,197.04,603.1300048830001,-35.365713799999995,149.166133,1
0.28,-18.39,197.03,603.1300048830001,-35.365718,149.16613130000002,1
0.31,-18.37,197.03,603.1300048830001,-35.3657223,149.16612959999998,1
0.31,-18.3,197.03,603.1300048830001,-35.3657265,149.16612790000002,1
0.31,-18.17,197.03,603.1300048830001,-35.365730799999994,149.16612609999999,1
0.32,-18.0,197.03,603.1300048830001,-35.3657351,149.16612450000002,1
0.35,-17.82,197.04,603.1300048830001,-35.3657393,149.1661227,1
0.35,-17.67,197.05,603.1300048830001,-35.3657436,149.1661211,1
0.32,-17.54,197.06,603.1300048830001,-35.365747799999994,149.1661194,1
0.29,-17.31,197.07,603.1300048830001,-35.3657521,149.1661178,1
0.33,-16.93,197.09,603.1300048830001,-35.365756299999994,149.166116,1
0.39,-16.5,197.1,603.1300048830001,-35.3657605,149.1661144,1
0.44,-16.15,197.12,603.1300048830001,-35.36576470000001,149.16611269999999,1
0.44,-15.93,197.14,603.1300048830001,-35.3657688,149.1661111,1
0.39,-15.73,197.16,603.1300048830001,-35.365772799999995,149.1661095,1
0.34,-15.47,197.18,603.1300048830001,-35.365777,149.16610780000002,1
0.32,-15.11,197.2,603.1300048830001,-35.365781,149.1661062,1
0.32,-14.71,197.23,603.1300048830001,-35.365784999999995,149.1661045,1
0.33,-14.26,197.26,603.1300048830001,-35.365789,149.166103,1
0.37,-13.77,197.29,603.1300048830001,-35.365792799999994,149.1661014,1
0.4,-13.28,197.32,603.1300048830001,-35.3657968,149.1660997,1
0.4,-12.79,197.36,603.1300048830001,-35.3658006,149.1660982,1
0.4,-12.28,197.41,603.1300048830001,-35.3658044,149.16609680000002,1
0.42,-11.73,197.46,603.1300048830001,-35.365808,149.16609530000002,1
0.46,-11.15,197.51,603.140014648,-35.3658117,149.1660938,1
0.48,-10.54,197.58,603.140014648,-35.3658152,149.16609230000003,1
0.5,-9.88,197.65,603.140014648,-35.365818700000005,149.1660909,1
0.5,-9.24,197.74,603.140014648,-35.365821999999994,149.1660895,1
0.49,-8.65,197.83,603.140014648,-35.3658254,149.1660881,1
0.49,-8.08,197.93,603.140014648,-35.3658286,149.1660867,1
0.49,-7.52,198.04,603.140014648,-35.3658317,149.16608530000002,1
0.48,-6.97,198.16,603.140014648,-35.3658348,149.1660842,1
0.47,-6.4,198.29,603.140014648,-35.3658377,149.16608290000002,1
0.47,-5.83,198.43,603.140014648,-35.3658406,149.16608169999998,1
0.48,-5.24,198.58,603.140014648,-35.365843299999995,149.1660805,0
0.49,-4.61,198.74,603.140014648,-35.365846000000005,149.1660794,0
0.5,-3.96,198.92,603.140014648,-35.3658485,149.1660782,0
0.48,-3.3,199.12,603.140014648,-35.3658509,149.1660772,0
0.46,-2.61,199.35,603.140014648,-35.3658533,149.1660761,0
0.46,-1.9,199.6,603.140014648,-35.3658554,149.1660751,0
0.45,-1.15,199.85,603.140014648,-35.3658576,149.1660742,0
0.42,-0.37,200.05,603.140014648,-35.3658596,149.1660733,0
0.41,0.48,200.18,603.140014648,-35.3658614,149.16607240000002,0
0.42,1.47,200.24,603.140014648,-35.3658631,149.16607150000002,0
0.43,2.61,200.22,603.140014648,-35.3658646,149.1660709,0
0.4,3.74,200.15,603.140014648,-35.3658662,149.16607019999998,0
0.33,4.63,200.03,603.140014648,-35.3658675,149.16606950000002,0
0.25,5.15,199.9,603.140014648,-35.3658686,149.1660689,0
0.19,5.36,199.76,603.140014648,-35.3658695,149.1660684,0
0.1,5.32,199.63,603.140014648,-35.3658705,149.166068,0
0.03,5.15,199.54,603.150024414,-35.36587120000001,149.1660676,0
0.0,4.95,199.47,603.150024414,-35.3658718,149.1660671,0
-0.01,4.77,199.45,603.150024414,-35.3658723,149.166067,0
-0.04,4.63,199.45,603.150024414,-35.36587279999999,149.1660666,0
-0.09,4.51,199.47,603.150024414,-35.3658731,149.1660665,0
-0.17,4.36,199.52,603.150024414,-35.3658732,149.1660664,0
-0.25,4.16,199.57,603.150024414,-35.3658735,149.1660662,0
-0.33,3.9,199.62,603.150024414,-35.3658736,149.1660662,0
-0.37,3.61,199.66,603.150024414,-35.3658736,149.1660661,0
-0.4,3.29,199.69,603.150024414,-35.3658736,149.1660661,0
-0.43,2.96,199.71,603.150024414,-35.3658735,149.1660661,0
-0.46,2.65,199.72,603.150024414,-35.3658734,149.1660662,0
-0.51,2.38,199.71,603.150024414,-35.3658732,149.1660662,0
-0.55,2.13,199.7,603.150024414,-35.3658731,149.1660662,0
-0.59,1.87,199.68,603.150024414,-35.365873,149.1660664,0
-0.59,1.61,199.66,603.140014648,-35.3658729,149.1660665,0
-0.57,1.37,199.64,603.140014648,-35.365872700000004,149.1660666,0
-0.59,1.14,199.62,603.140014648,-35.365872499999995,149.1660667,0
-0.6,0.91,199.6,603.140014648,-35.3658723,149.1660669,0
-0.62,0.7,199.59,603.140014648,-35.365872100000004,149.1660671,0
-0.62,0.52,199.59,603.140014648,-35.365871899999995,149.1660672,0
-0.6,0.36,199.59,603.140014648,-35.3658717,149.1660674,0
-0.57,0.24,199.6,603.140014648,-35.365871500000004,149.1660676,0
-0.55,0.12,199.61,603.140014648,-35.3658713,149.1660676,0
-0.55,0.01,199.62,603.140014648,-35.36587120000001,149.1660679,0
-0.55,-0.09,199.63,603.140014648,-35.3658711,149.1660681,0
-0.53,-0.19,199.64,603.140014648,-35.365871000000006,149.1660681,0
-0.5,-0.29,199.65,603.140014648,-35.3658709,149.1660684,0
-0.44,-0.37,199.66,603.140014648,-35.3658707,149.1660685,0
-0.38,-0.45,199.66,603.140014648,-35.3658706,149.1660686,0
-0.33,-0.48,199.67,603.140014648,-35.3658706,149.1660689,0
-0.3,-0.5,199.67,603.140014648,-35.3658706,149.166069,0
-0.25,-0.51,199.68,603.140014648,-35.3658705,149.166069,0
-0.22,-0.5,199.68,603.140014648,-35.3658705,149.16606930000003,0
-0.2,-0.49,199.69,603.140014648,-35.3658705,149.16606940000003,0
-0.19,-0.49,199.69,603.140014648,-35.3658705,149.16606950000002,0
-0.16,-0.5,199.7,603.140014648,-35.3658705,149.16606950000002,0
-0.14,-0.54,199.71,603.140014648,-35.3658705,149.1660696,0
-0.1,-0.57,199.72,603.140014648,-35.3658705,149.1660698,0
-0.06,-0.57,199.74,603.140014648,-35.3658705,149.1660699,0
-0.01,-0.53,199.75,603.140014648,-35.3658705,149.1660699,0
0.01,-0.48,199.77,603.140014648,-35.3658706,149.16607,0
0.06,-0.43,199.78,603.140014648,-35.3658706,149.16607,0
0.1,-0.39,199.8,603.140014648,-35.3658706,149.16607,0
0.15,-0.36,199.81,603.140014648,-35.3658706,149.16607019999998,0
0.17,-0.36,199.83,603.140014648,-35.3658706,149.16607019999998,0
0.17,-0.38,199.84,603.140014648,-35.3658707,149.16607030000003,0
0.17,-0.34,199.85,603.140014648,-35.3658707,149.16607030000003,0
0.17,-0.24,199.86,603.140014648,-35.3658709,149.16607030000003,0
0.16,-0.14,199.87,603.140014648,-35.365871000000006,149.16607030000003,0
0.16,-0.08,199.88,603.140014648,-35.365871000000006,149.16607030000003,0
0.12,-0.14,199.89,603.140014648,-35.3658711,149.16607030000003,0
0.09,-0.29,199.9,603.140014648,-35.3658711,149.16607030000003,0
0.06,-0.43,199.91,603.140014648,-35.3658711,149.16607030000003,0
