Start,TimeUS,Roll,Pitch,Yaw,Alt,Lat,Lng,Q1,Q2,Q3,Q4,Category
0.0,0.0,353.0,584.090026855,-35.363261,149.1652299,0
0.0,0.0,353.0,584.090026855,-35.363261,149.1652299,0
0.0,0.0,353.0,584.090026855,-35.363261,149.1652299,0
0.0,0.0,353.0,584.090026855,-35.363261,149.1652299,0
0.0,0.0,353.0,584.090026855,-35.363261,149.1652299,0
0.0,0.0,353.0,584.090026855,-35.363261,149.1652299,0
0.0,0.0,353.0,584.090026855,-35.363261,149.1652299,0
0.0,0.0,353.0,584.090026855,-35.363261,149.1652299,0
0.0,0.0,353.0,584.090026855,-35.363261,149.1652299,0
0.0,0.0,353.0,584.090026855,-35.363261,149.1652299,0
0.0,0.0,353.0,584.090026855,-35.363261,149.1652299,0
0.0,0.0,353.0,584.090026855,-35.363261,149.1652299,0
0.0,0.0,353.0,584.090026855,-35.363261,149.1652299,0
0.0,0.0,353.0,584.090026855,-35.363261,149.1652299,0
0.0,0.0,353.0,584.090026855,-35.363261,149.1652299,0
0.0,0.0,353.0,584.090026855,-35.363261,149.1652299,0
0.0,0.0,353.0,584.090026855,-35.363261,149.1652299,0
0.0,0.0,353.0,584.090026855,-35.363261,149.1652299,0
0.0,0.0,353.0,584.090026855,-35.363261,149.1652299,0
0.0,0.0,353.0,584.090026855,-35.363261,149.1652299,0
0.0,0.0,353.0,584.090026855,-35.363261,149.1652299,0
0.0,0.0,353.0,584.090026855,-35.363261,149.1652299,0
0.0,0.0,353.0,584.090026855,-35.363261,149.1652299,0
0.0,0.0,353.0,584.090026855,-35.363261,149.1652299,0
0.0,0.0,353.0,584.090026855,-35.363261,149.1652299,0
0.0,0.0,353.0,584.090026855,-35.363261,149.1652299,0
0.0,0.0,353.0,584.090026855,-35.363261,149.1652299,0
0.0,0.0,353.0,584.090026855,-35.363261,149.1652299,0
0.0,0.0,353.0,584.090026855,-35.363261,149.1652299,0
0.0,0.0,353.0,584.090026855,-35.363261,149.1652299,0
0.0,0.0,353.0,584.099975586,-35.363261,149.1652299,0
0.0,0.0,353.0,584.099975586,-35.363261,149.1652299,0
0.0,0.0,353.0,584.109985352,-35.363261,149.1652299,0
0.0,0.0,353.0,584.1300048830001,-35.363261,149.1652299,0
0.0,0.0,353.0,584.159973145,-35.363261,149.1652299,0
0.0,0.0,353.0,584.179992676,-35.363261,149.1652299,0
0.0,0.0,353.0,584.210021973,-35.363261,149.1652299,0
0.27,0.34,353.0,584.25,-35.363261,149.1652299,0
1.06,1.31,353.0,584.340026855,-35.363261,149.1652299,0
2.08,2.58,353.03,584.460021973,-35.363261,149.1652299,0
3.15,3.9,353.06,584.5599975590001,-35.363261,149.1652301,0
4.06,5.03,353.09,584.659973145,-35.363261,149.1652302,0
4.72,5.82,353.1,584.729980469,-35.3632613,149.16523030000002,0
5.07,6.22,353.07,584.799987793,-35.3632615,149.16523059999997,0
5.21,6.37,353.02,584.859985352,-35.3632617,149.165231,0
5.24,6.42,352.97,584.91998291,-35.36326210000001,149.1652315,0
5.26,6.45,352.93,584.979980469,-35.3632625,149.165232,0
5.3,6.49,352.9,585.039978027,-35.363262899999995,149.1652326,0
5.38,6.6,352.9,585.090026855,-35.3632635,149.1652332,0
5.48,6.73,352.91,585.140014648,-35.363264,149.1652341,0
5.62,6.9,352.93,585.1900024409999,-35.3632647,149.16523490000003,0
5.63,7.24,353.11,585.2399902340001,-35.363265500000004,149.1652358,0
5.49,7.81,354.03,585.289978027,-35.36326629999999,149.1652368,0
5.45,8.41,356.34,585.340026855,-35.3632671,149.1652378,0
5.81,8.7,0.31,585.390014648,-35.363268,149.1652389,0
6.63,8.45,5.78,585.4400024409999,-35.3632689,149.1652399,0
7.85,7.57,12.45,585.5,-35.36327,149.16524119999997,1
9.26,6.11,20.0,585.5599975590001,-35.3632711,149.16524230000002,1
10.62,4.17,28.13,585.6199951169999,-35.3632723,149.1652437,1
11.71,1.89,36.57,585.679992676,-35.36327360000001,149.165245,1
12.34,-0.54,45.09,585.75,-35.3632749,149.16524640000003,1
12.44,-2.96,53.49,585.820007324,-35.3632762,149.165248,1
12.07,-5.16,61.58,585.900024414,-35.3632777,149.16524950000002,1
11.36,-7.05,69.23,585.979980469,-35.3632792,149.1652513,1
10.5,-8.61,76.34,586.0599975590001,-35.363280700000004,149.1652531,1
9.57,-9.85,82.88,586.140014648,-35.363282299999995,149.165255,1
8.65,-10.8,88.89,586.229980469,-35.3632839,149.1652571,1
7.8,-11.54,94.45,586.33001709,-35.3632854,149.16525910000001,1
6.97,-12.14,99.67,586.41998291,-35.3632871,149.16526140000002,1
6.19,-12.64,104.7,586.520019531,-35.363289,149.1652637,1
5.37,-13.09,109.66,586.6199951169999,-35.3632907,149.165266,1
4.49,-13.53,114.71,586.729980469,-35.3632926,149.1652685,1
3.5,-13.92,119.88,586.83001709,-35.363294399999994,149.1652709,1
2.24,-14.29,125.25,586.9400024409999,-35.3632963,149.16527340000002,1
0.42,-14.58,130.56,587.049987793,-35.3632982,149.1652761,1
-1.71,-14.64,135.28,587.150024414,-35.3633003,149.1652786,1
-3.67,-14.5,138.93,587.2600097659999,-35.3633023,149.1652814,1
-5.01,-14.28,141.24,587.3699951169999,-35.3633042,149.1652842,1
-5.55,-14.11,142.24,587.479980469,-35.3633063,149.1652871,1
-5.3,-14.06,142.07,587.590026855,-35.363308399999994,149.16529,1
-4.42,-14.19,141.0,587.700012207,-35.363310299999995,149.165293,1
-3.12,-14.45,139.29,587.8099975590001,-35.3633125,149.16529609999998,1
-1.67,-14.78,137.2,587.929992676,-35.3633145,149.1652992,1
-0.27,-15.05,135.03,588.039978027,-35.363316600000005,149.1653024,1
0.9,-15.24,133.02,588.150024414,-35.3633187,149.1653055,1
1.79,-15.34,131.39,588.2600097659999,-35.3633209,149.16530880000002,1
2.32,-15.38,130.27,588.3800048830001,-35.363323,149.165312,1
2.47,-15.4,129.7,588.4899902340001,-35.363325399999994,149.1653151,1
2.3,-15.41,129.65,588.599975586,-35.3633277,149.16531830000002,1
1.9,-15.42,130.04,588.7199707030001,-35.363330100000006,149.1653216,1
1.37,-15.44,130.76,588.83001709,-35.3633325,149.16532469999999,1
0.79,-15.5,131.66,588.9400024409999,-35.363335,149.16532800000002,1
0.23,-15.59,132.63,589.0599975590001,-35.3633374,149.16533130000002,1
-0.25,-15.67,133.53,589.16998291,-35.3633399,149.1653345,1
-0.64,-15.73,134.29,589.289978027,-35.3633424,149.1653378,1
-0.88,-15.77,134.84,589.400024414,-35.363344899999994,149.16534119999997,1
-0.99,-15.79,135.16,589.5100097659999,-35.3633474,149.1653445,1
-0.99,-15.81,135.27,589.6300048830001,-35.3633499,149.1653479,1
-0.88,-15.85,135.18,589.7399902340001,-35.3633526,149.1653513,1
-0.7,-15.89,134.94,589.849975586,-35.3633552,149.16535469999997,1
-0.47,-15.92,134.6,589.9699707030001,-35.3633577,149.1653581,1
-0.25,-15.97,134.23,590.08001709,-35.3633602,149.1653615,1
-0.07,-16.0,133.86,590.200012207,-35.363363,149.16536509999997,1
0.06,-16.03,133.54,590.3099975590001,-35.3633656,149.1653686,1
0.15,-16.05,133.3,590.429992676,-35.3633681,149.165372,1
0.22,-16.07,133.14,590.539978027,-35.3633709,149.1653756,1
0.24,-16.06,133.07,590.650024414,-35.3633735,149.1653791,1
0.22,-16.06,133.08,590.770019531,-35.3633763,149.1653825,1
0.17,-16.08,133.16,590.8800048830001,-35.363378999999995,149.1653862,1
0.08,-16.13,133.27,591.0,-35.363381700000005,149.1653897,1
0.0,-16.2,133.41,591.109985352,-35.3633844,149.1653933,1
-0.07,-16.27,133.55,591.229980469,-35.363387200000005,149.1653969,1
-0.14,-16.31,133.68,591.340026855,-35.363389899999994,149.16540049999998,1
-0.2,-16.34,133.77,591.450012207,-35.363392700000006,149.1654041,1
-0.22,-16.34,133.83,591.570007324,-35.363395399999995,149.16540769999997,1
-0.21,-16.33,133.85,591.679992676,-35.36339829999999,149.16541130000002,1
-0.18,-16.32,133.84,591.799987793,-35.3634011,149.165415,1
-0.15,-16.31,133.81,591.909973145,-35.36340379999999,149.16541850000002,1
-0.12,-16.31,133.75,592.0300292969999,-35.3634066,149.16542230000002,1
-0.08,-16.35,133.68,592.140014648,-35.363409399999995,149.1654259,1
-0.07,-16.4,133.6,592.25,-35.36341229999999,149.1654295,1
-0.05,-16.43,133.53,592.3699951169999,-35.363415100000005,149.16543330000002,1
-0.04,-16.46,133.48,592.479980469,-35.3634179,149.165437,1
-0.02,-16.47,133.43,592.599975586,-35.363420700000006,149.16544069999998,1
0.0,-16.45,133.4,592.710021973,-35.363423600000004,149.16544430000002,1
0.02,-16.44,133.38,592.83001709,-35.363426399999994,149.1654481,1
0.04,-16.47,133.38,592.9400024409999,-35.36342929999999,149.16545180000003,1
0.02,-16.51,133.38,593.049987793,-35.3634321,149.16545559999997,1
-0.02,-16.56,133.39,593.16998291,-35.3634349,149.1654592,1
-0.06,-16.61,133.4,593.2800292969999,-35.363437899999994,149.165463,1
-0.07,-16.64,133.42,593.400024414,-35.3634407,149.16546680000002,1
-0.08,-16.65,133.43,593.5100097659999,-35.3634435,149.1654705,1
-0.09,-16.67,133.43,593.6199951169999,-35.3634464,149.1654743,1
-0.09,-16.68,133.42,593.7399902340001,-35.3634494,149.1654781,1
-0.1,-16.69,133.41,593.849975586,-35.3634523,149.1654819,1
-0.09,-16.72,133.4,593.9699707030001,-35.363455200000004,149.16548569999998,1
-0.06,-16.75,133.38,594.08001709,-35.363458,149.16548930000002,1
-0.05,-16.75,133.36,594.1900024409999,-35.363461,149.1654931,1
-0.04,-16.75,133.34,594.3099975590001,-35.3634639,149.1654969,1
-0.06,-16.76,133.32,594.41998291,-35.3634668,149.16550080000002,1
-0.08,-16.76,133.31,594.5300292969999,-35.3634698,149.1655046,1
-0.11,-16.76,133.29,594.650024414,-35.3634726,149.1655084,1
-0.12,-16.76,133.27,594.7600097659999,-35.3634756,149.16551230000002,1
-0.11,-16.76,133.26,594.8800048830001,-35.3634786,149.1655161,1
-0.08,-16.78,133.24,594.9899902340001,-35.3634815,149.1655199,1
-0.04,-16.79,133.23,595.109985352,-35.3634844,149.16552380000002,1
-0.02,-16.81,133.22,595.2199707030001,-35.363487299999996,149.1655276,1
-0.02,-16.81,133.21,595.33001709,-35.3634902,149.1655314,1
-0.03,-16.78,133.2,595.450012207,-35.363493299999995,149.16553530000002,1
-0.04,-16.75,133.2,595.5599975590001,-35.36349620000001,149.1655391,1
-0.05,-16.72,133.2,595.66998291,-35.3634992,149.16554299999999,1
-0.07,-16.71,133.2,595.789978027,-35.3635021,149.165547,1
-0.06,-16.71,133.19,595.900024414,-35.363505100000005,149.1655508,1
-0.04,-16.73,133.19,596.0100097659999,-35.363507899999995,149.16555469999997,1
-0.01,-16.73,133.18,596.1199951169999,-35.3635109,149.1655586,1
0.0,-16.75,133.17,596.2399902340001,-35.363513899999994,149.1655625,1
0.0,-16.75,133.16,596.349975586,-35.3635169,149.16556630000002,1
0.0,-16.72,133.16,596.460021973,-35.36351989999999,149.1655702,1
-0.02,-16.69,133.15,596.570007324,-35.36352279999999,149.165574,1
-0.04,-16.66,133.14,596.679992676,-35.3635258,149.16557790000002,1
-0.06,-16.64,133.13,596.789978027,-35.3635286,149.1655817,1
-0.07,-16.64,133.12,596.900024414,-35.3635316,149.16558559999999,1
-0.08,-16.66,133.11,597.0100097659999,-35.3635346,149.16558940000002,1
-0.08,-16.67,133.11,597.1199951169999,-35.3635376,149.1655934,1
-0.08,-16.67,133.1,597.229980469,-35.3635406,149.16559730000003,1
-0.06,-16.66,133.09,597.33001709,-35.3635435,149.1656011,1
-0.03,-16.67,133.08,597.4400024409999,-35.363546500000005,149.165605,1
0.0,-16.69,133.07,597.549987793,-35.363549299999995,149.16560890000002,1
0.0,-16.72,133.06,597.659973145,-35.3635523,149.1656128,1
0.0,-16.72,133.05,597.770019531,-35.363555299999994,149.1656166,1
0.0,-16.7,133.05,597.8800048830001,-35.3635583,149.16562050000002,1
-0.01,-16.67,133.04,597.9899902340001,-35.36356129999999,149.1656243,1
-0.01,-16.66,133.03,598.099975586,-35.363564200000006,149.1656282,1
0.01,-16.64,133.03,598.210021973,-35.3635672,149.1656322,1
0.04,-16.62,133.02,598.320007324,-35.363570200000005,149.1656361,1
0.05,-16.61,133.02,598.429992676,-35.363572999999995,149.16564,1
0.04,-16.62,133.02,598.539978027,-35.363576,149.1656439,1
0.02,-16.65,133.01,598.650024414,-35.363579,149.1656477,1
0.0,-16.68,133.01,598.7600097659999,-35.363582,149.1656516,1
-0.02,-16.69,133.01,598.8699951169999,-35.363585,149.1656554,1
-0.03,-16.7,133.0,598.979980469,-35.3635879,149.16565930000002,1
-0.02,-16.69,133.0,599.090026855,-35.3635909,149.16566310000002,1
0.0,-16.67,132.99,599.200012207,-35.3635939,149.16566709999998,1
0.03,-16.66,132.98,599.3099975590001,-35.3635967,149.165671,1
0.05,-16.66,132.98,599.41998291,-35.3635997,149.1656749,1
0.06,-16.65,132.97,599.5300292969999,-35.3636027,149.16567880000002,1
0.06,-16.66,132.97,599.640014648,-35.3636057,149.1656827,1
0.05,-16.67,132.96,599.75,-35.36360870000001,149.1656865,1
0.02,-16.68,132.96,599.859985352,-35.363611600000006,149.16569040000002,1
-0.02,-16.68,132.96,599.9699707030001,-35.3636146,149.1656942,1
-0.06,-16.67,132.95,600.08001709,-35.3636174,149.1656981,1
-0.08,-16.67,132.95,600.200012207,-35.363620399999995,149.16570190000002,1
-0.05,-16.68,132.95,600.3099975590001,-35.3636234,149.1657059,1
-0.02,-16.69,132.94,600.41998291,-35.363626399999994,149.16570980000003,1
0.02,-16.7,132.93,600.5300292969999,-35.3636294,149.1657137,1
0.05,-16.71,132.93,600.640014648,-35.3636323,149.1657176,1
0.05,-16.69,132.92,600.75,-35.36363529999999,149.16572150000002,1
0.02,-16.67,132.91,600.859985352,-35.3636383,149.1657253,1
0.02,-16.65,132.91,600.9699707030001,-35.3636411,149.1657291,1
0.02,-16.64,132.9,601.08001709,-35.3636441,149.16573300000002,1
0.04,-16.65,132.89,601.1900024409999,-35.3636471,149.165737,1
0.07,-16.69,132.89,601.299987793,-35.3636501,149.1657409,1
0.09,-16.71,132.89,601.409973145,-35.3636531,149.1657448,1
0.11,-16.69,132.88,601.520019531,-35.363656,149.1657487,1
0.1,-16.68,132.88,601.6300048830001,-35.363659000000006,149.1657525,1
0.08,-16.67,132.88,601.7399902340001,-35.363661799999996,149.1657564,1
0.06,-16.68,132.87,601.849975586,-35.363664799999995,149.16576030000002,1
0.06,-16.69,132.87,601.960021973,-35.363667799999995,149.1657641,1
0.06,-16.69,132.87,602.070007324,-35.3636708,149.16576799999999,1
0.06,-16.64,132.86,602.179992676,-35.363673799999994,149.165772,1
0.07,-16.11,132.86,602.289978027,-35.363676700000006,149.1657758,1
0.11,-15.11,132.86,602.390014648,-35.3636797,149.16577969999997,1
0.15,-14.02,132.86,602.479980469,-35.363682399999995,149.1657835,1
0.18,-13.15,132.87,602.5599975590001,-35.3636854,149.16578710000002,1
0.18,-12.58,132.88,602.6300048830001,-35.363688200000006,149.1657909,1
0.17,-12.23,132.9,602.6900024409999,-35.3636909,149.1657945,1
0.17,-11.96,132.91,602.75,-35.363693700000006,149.1657981,1
0.19,-11.66,132.93,602.789978027,-35.3636963,149.1658014,1
0.2,-11.25,132.96,602.83001709,-35.363698799999995,149.16580480000002,1
0.2,-10.76,132.99,602.8699951169999,-35.363701500000005,149.1658081,1
0.18,-10.21,133.01,602.900024414,-35.363704,149.1658115,1
0.18,-9.62,133.04,602.91998291,-35.3637064,149.1658147,1
0.18,-9.05,133.07,602.9400024409999,-35.3637088,149.1658177,1
0.18,-8.51,133.1,602.960021973,-35.363711200000004,149.1658208,1
0.19,-7.98,133.13,602.9699707030001,-35.363713399999995,149.1658237,1
0.17,-7.49,133.16,602.9899902340001,-35.3637156,149.16582659999997,1
0.16,-6.96,133.19,603.0,-35.3637177,149.1658294,1
0.15,-6.42,133.22,603.0,-35.3637199,149.1658321,1
0.13,-5.87,133.25,603.0100097659999,-35.3637219,149.16583469999998,1
0.13,-5.28,133.28,603.020019531,-35.3637237,149.1658372,1
0.16,-4.68,133.32,603.020019531,-35.3637256,149.1658396,1
0.18,-4.1,133.36,603.0300292969999,-35.363727399999995,149.1658419,1
0.19,-3.5,133.41,603.0300292969999,-35.3637292,149.1658441,1
0.2,-2.86,133.46,603.039978027,-35.363731,149.16584630000003,1
0.21,-2.18,133.52,603.039978027,-35.363732500000005,149.1658483,1
0.18,-1.48,133.6,603.039978027,-35.363734,149.16585030000002,1
0.14,-0.77,133.68,603.049987793,-35.3637355,149.1658521,1
0.11,0.01,133.77,603.049987793,-35.3637369,149.16585369999999,1
0.1,0.89,133.84,603.049987793,-35.36373820000001,149.1658555,1
0.13,1.88,133.9,603.049987793,-35.3637393,149.16585700000002,1
0.15,2.98,133.94,603.0599975590001,-35.3637404,149.1658583,1
0.15,3.98,133.96,603.0599975590001,-35.363741299999994,149.16585959999998,1
0.19,4.73,133.95,603.0599975590001,-35.3637423,149.1658607,1
0.34,5.22,133.93,603.0599975590001,-35.3637431,149.1658617,1
0.61,5.48,133.89,603.0599975590001,-35.363743799999995,149.1658625,1
0.95,5.61,133.85,603.0599975590001,-35.363744399999995,149.1658632,1
1.35,5.71,133.8,603.0599975590001,-35.36374489999999,149.1658637,1
1.75,5.8,133.77,603.0599975590001,-35.3637454,149.1658641,1
2.16,5.89,133.74,603.0599975590001,-35.3637456,149.1658646,1
2.58,6.02,133.72,603.0599975590001,-35.363746,149.1658647,1
3.03,6.16,133.71,603.0599975590001,-35.36374620000001,149.1658647,1
3.48,6.28,133.71,603.0599975590001,-35.363746500000005,149.1658647,1
3.91,6.38,133.72,603.0599975590001,-35.3637466,149.1658646,1
4.31,6.43,133.72,603.070007324,-35.3637468,149.1658642,1
4.7,6.46,133.73,603.070007324,-35.3637468,149.1658639,1
5.06,6.45,133.74,603.070007324,-35.363746899999995,149.1658632,1
5.37,6.4,133.74,603.070007324,-35.363746899999995,149.1658627,1
5.65,6.3,133.75,603.070007324,-35.363747100000005,149.1658618,1
5.9,6.17,133.74,603.070007324,-35.363747100000005,149.165861,1
6.12,6.02,133.74,603.070007324,-35.3637472,149.16585990000002,1
6.32,5.9,133.74,603.070007324,-35.3637472,149.16585890000002,1
6.49,5.83,133.76,603.070007324,-35.3637473,149.16585780000003,1
6.53,6.02,134.08,603.070007324,-35.3637473,149.1658565,1
6.53,6.47,135.38,603.070007324,-35.3637474,149.1658551,1
6.76,6.81,138.24,603.070007324,-35.3637474,149.1658536,1
7.38,6.71,142.76,603.070007324,-35.3637474,149.1658522,1
8.35,6.0,148.71,603.0599975590001,-35.3637474,149.1658506,1
9.5,4.65,155.77,603.0599975590001,-35.3637474,149.16584880000002,1
10.6,2.73,163.59,603.0599975590001,-35.363747499999995,149.16584719999997,1
11.41,0.41,171.91,603.0599975590001,-35.363747499999995,149.16584530000003,1
11.77,-2.1,180.47,603.070007324,-35.363747499999995,149.1658433,1
11.62,-4.61,189.04,603.070007324,-35.363747700000005,149.1658412,1
10.98,-6.93,197.4,603.070007324,-35.36374779999999,149.16583909999997,1
9.97,-8.92,205.36,603.070007324,-35.3637479,149.1658368,1
8.77,-10.54,212.77,603.070007324,-35.363748,149.1658345,1
7.55,-11.8,219.57,603.070007324,-35.3637483,149.1658321,1
6.41,-12.75,225.77,603.070007324,-35.3637486,149.1658296,1
5.39,-13.48,231.44,603.070007324,-35.3637489,149.16582680000002,1
4.45,-14.02,236.7,603.070007324,-35.3637492,149.16582419999997,1
3.56,-14.44,241.75,603.070007324,-35.36374970000001,149.16582140000003,1
2.68,-14.78,246.66,603.070007324,-35.363750200000005,149.1658185,1
1.65,-15.08,251.59,603.08001709,-35.3637505,149.1658154,1
0.08,-15.34,256.42,603.08001709,-35.3637511,149.1658124,1
-1.85,-15.44,260.66,603.08001709,-35.3637516,149.1658093,1
-3.67,-15.38,263.86,603.08001709,-35.36375220000001,149.165806,1
-4.94,-15.24,265.8,603.08001709,-35.3637527,149.16580269999997,1
-5.41,-15.13,266.5,603.08001709,-35.3637534,149.1657993,1
-5.11,-15.12,266.12,603.08001709,-35.3637541,149.1657959,1
-4.18,-15.25,264.92,603.08001709,-35.3637547,149.16579230000002,1
-2.85,-15.49,263.18,603.08001709,-35.363755600000005,149.1657888,1
-1.39,-15.75,261.17,603.08001709,-35.3637564,149.1657851,1
-0.01,-16.0,259.18,603.08001709,-35.3637571,149.16578140000001,1
1.11,-16.18,257.45,603.08001709,-35.363758000000004,149.16577780000003,1
1.9,-16.31,256.14,603.08001709,-35.3637588,149.165774,1
2.34,-16.37,255.34,603.090026855,-35.3637596,149.16577009999997,1
2.44,-16.39,255.07,603.090026855,-35.363760299999996,149.16576619999998,1
2.24,-16.41,255.26,603.090026855,-35.363761100000005,149.1657622,1
1.79,-16.42,255.82,603.090026855,-35.3637618,149.1657582,1
1.2,-16.46,256.61,603.090026855,-35.3637625,149.165754,1
0.58,-16.51,257.51,603.090026855,-35.3637632,149.16574980000001,1
0.03,-16.57,258.41,603.090026855,-35.363763899999995,149.1657457,1
-0.41,-16.66,259.18,603.090026855,-35.363764700000004,149.1657415,1
-0.74,-16.75,259.79,603.099975586,-35.3637654,149.1657372,1
-0.93,-16.81,260.18,603.099975586,-35.3637661,149.16573290000002,1
-0.96,-16.83,260.35,603.099975586,-35.3637669,149.1657285,1
-0.87,-16.85,260.33,603.099975586,-35.3637675,149.16572419999997,1
-0.69,-16.86,260.15,603.099975586,-35.3637684,149.1657198,1
-0.48,-16.85,259.88,603.099975586,-35.36376920000001,149.16571519999997,1
-0.24,-16.86,259.55,603.099975586,-35.363769899999994,149.1657108,1
-0.01,-16.89,259.22,603.099975586,-35.3637706,149.1657062,1
0.17,-16.95,258.93,603.099975586,-35.363771500000006,149.16570180000002,1
0.32,-17.01,258.7,603.099975586,-35.3637723,149.16569730000003,1
0.4,-17.06,258.56,603.099975586,-35.363772999999995,149.1656927,1
0.42,-17.12,258.5,603.099975586,-35.3637738,149.165688,1
0.39,-17.19,258.51,603.099975586,-35.363774600000006,149.1656834,1
0.33,-17.22,258.59,603.099975586,-35.36377529999999,149.16567880000002,1
0.24,-17.23,258.7,603.109985352,-35.363776,149.1656741,1
0.15,-17.23,258.84,603.109985352,-35.3637769,149.16566930000002,1
0.07,-17.25,258.97,603.109985352,-35.3637776,149.16566459999999,1
0.01,-17.29,259.09,603.109985352,-35.3637784,149.16565980000001,1
-0.05,-17.33,259.18,603.109985352,-35.3637791,149.16565500000002,1
-0.11,-17.36,259.24,603.109985352,-35.3637799,149.1656502,1
-0.16,-17.38,259.27,603.109985352,-35.3637807,149.16564540000002,1
-0.17,-17.39,259.26,603.109985352,-35.3637815,149.1656406,1
-0.12,-17.39,259.22,603.109985352,-35.3637822,149.1656358,1
-0.05,-17.41,259.17,603.109985352,-35.363783000000005,149.16563100000002,1
0.0,-17.45,259.1,603.109985352,-35.3637838,149.1656261,1
0.05,-17.51,259.04,603.109985352,-35.363784499999994,149.16562119999998,1
0.08,-17.54,258.98,603.109985352,-35.3637854,149.1656162,1
0.1,-17.56,258.94,603.109985352,-35.3637862,149.16561140000002,1
0.11,-17.6,258.9,603.109985352,-35.3637869,149.1656065,1
0.12,-17.61,258.88,603.109985352,-35.3637878,149.16560139999999,1
0.12,-17.62,258.87,603.109985352,-35.3637886,149.16559650000002,1
0.12,-17.66,258.86,603.109985352,-35.363789399999995,149.1655916,1
0.11,-17.71,258.87,603.109985352,-35.3637901,149.1655865,1
0.1,-17.75,258.87,603.109985352,-35.363791,149.1655817,1
0.07,-17.78,258.88,603.109985352,-35.363791799999994,149.1655767,1
0.03,-17.79,258.89,603.109985352,-35.363792499999995,149.1655716,1
0.0,-17.8,258.89,603.109985352,-35.3637934,149.1655666,1
0.01,-17.81,258.89,603.1199951169999,-35.3637942,149.1655616,1
0.01,-17.84,258.89,603.1199951169999,-35.363794899999995,149.1655564,1
0.01,-17.87,258.88,603.1199951169999,-35.3637958,149.1655514,1
0.02,-17.88,258.86,603.1199951169999,-35.3637966,149.16554630000002,1
0.04,-17.88,258.84,603.1199951169999,-35.3637973,149.16554130000003,1
0.05,-17.89,258.82,603.1199951169999,-35.363798200000005,149.1655362,1
0.05,-17.9,258.8,603.1199951169999,-35.363799,149.16553100000002,1
0.03,-17.94,258.78,603.1199951169999,-35.3637997,149.165526,1
0.0,-17.96,258.76,603.1199951169999,-35.3638006,149.1655209,1
-0.02,-17.98,258.75,603.1199951169999,-35.3638015,149.1655156,1
-0.03,-18.01,258.73,603.1199951169999,-35.3638022,149.1655106,1
-0.01,-18.01,258.72,603.1199951169999,-35.3638031,149.1655055,1
0.0,-18.01,258.7,603.1199951169999,-35.3638039,149.1655003,1
0.02,-18.02,258.69,603.1199951169999,-35.3638047,149.1654951,1
0.02,-18.04,258.68,603.1199951169999,-35.363805600000006,149.16548999999998,1
0.01,-18.05,258.68,603.1199951169999,-35.3638064,149.16548480000003,1
0.0,-18.06,258.67,603.1199951169999,-35.3638071,149.1654797,1
0.01,-18.08,258.66,603.1199951169999,-35.3638081,149.1654744,1
0.05,-18.11,258.66,603.1199951169999,-35.3638088,149.1654692,1
0.09,-18.11,258.65,603.1199951169999,-35.3638098,149.165464,1
0.12,-18.09,258.64,603.1199951169999,-35.3638106,149.1654589,1
0.13,-18.07,258.64,603.1199951169999,-35.363811299999995,149.16545369999997,1
0.11,-18.09,258.63,603.1199951169999,-35.3638123,149.1654485,1
0.08,-18.14,258.63,603.1199951169999,-35.3638131,149.16544319999997,1
0.06,-18.19,258.63,603.1199951169999,-35.363814,149.165438,1
0.05,-18.22,258.63,603.1199951169999,-35.3638148,149.16543269999997,1
0.04,-18.21,258.62,603.1199951169999,-35.3638156,149.1654275,1
0.03,-18.18,258.62,603.1199951169999,-35.3638165,149.16542230000002,1
0.01,-18.15,258.61,603.1199951169999,-35.363817299999994,149.165417,1
0.02,-18.13,258.6,603.1199951169999,-35.363818200000004,149.1654117,1
0.04,-18.11,258.59,603.1199951169999,-35.363819,149.1654065,1
0.05,-18.11,258.59,603.1199951169999,-35.363819799999995,149.1654012,1
0.05,-18.13,258.58,603.1199951169999,-35.363820700000005,149.1653959,1
0.02,-18.16,258.57,603.1300048830001,-35.3638216,149.1653907,1
0.0,-18.17,258.56,603.1300048830001,-35.3638223,149.1653854,1
-0.02,-18.18,258.56,603.1300048830001,-35.36382329999999,149.1653801,1
-0.03,-18.2,258.55,603.1300048830001,-35.363824,149.16537490000002,1
-0.03,-18.23,258.54,603.1300048830001,-35.363825,149.1653696,1
-0.03,-18.25,258.54,603.1300048830001,-35.3638258,149.16536430000002,1
-0.01,-18.25,258.53,603.1300048830001,-35.363826700000004,149.1653591,1
0.0,-18.26,258.52,603.1300048830001,-35.3638276,149.16535380000002,1
0.04,-18.27,258.52,603.1300048830001,-35.3638283,149.16534850000002,1
0.05,-18.27,258.51,603.1300048830001,-35.36382929999999,149.16534319999997,1
0.04,-18.25,258.51,603.1300048830001,-35.3638301,149.1653379,1
0.04,-18.26,258.5,603.1300048830001,-35.363831,149.1653326,1
0.05,-18.28,258.5,603.1300048830001,-35.363831899999994,149.1653273,1
0.05,-18.3,258.5,603.1300048830001,-35.3638326,149.165322,1
0.05,-18.31,258.5,603.1300048830001,-35.3638336,149.16531650000002,1
0.02,-18.29,258.5,603.1300048830001,-35.3638344,149.1653112,1
0.01,-18.27,258.49,603.1300048830001,-35.36383529999999,149.16530590000002,1
0.02,-18.25,258.49,603.1300048830001,-35.3638362,149.1653007,1
0.04,-18.25,258.49,603.1300048830001,-35.363837100000005,149.16529540000002,1
0.03,-18.27,258.48,603.1300048830001,-35.36383789999999,149.16529,1
0.03,-18.31,258.48,603.1300048830001,-35.3638387,149.16528469999997,1
0.05,-18.35,258.48,603.1300048830001,-35.36383970000001,149.1652794,1
0.07,-18.37,258.48,603.1300048830001,-35.3638404,149.16527390000002,1
0.09,-18.38,258.47,603.1300048830001,-35.3638414,149.1652686,1
0.1,-18.37,258.47,603.1300048830001,-35.363842299999995,149.16526330000002,1
0.1,-18.33,258.47,603.1300048830001,-35.363843200000005,149.165258,1
0.11,-18.3,258.47,603.1300048830001,-35.363844,149.16525269999997,1
0.11,-18.28,258.47,603.1300048830001,-35.363844799999995,149.16524730000003,1
0.1,-18.28,258.47,603.1300048830001,-35.3638458,149.165242,1
0.11,-18.3,258.47,603.1300048830001,-35.3638465,149.1652365,0
0.11,-18.33,258.47,603.1300048830001,-35.3638475,149.1652312,0
0.12,-18.33,258.47,603.1300048830001,-35.363848299999994,149.165226,0
0.12,-18.32,258.47,603.1300048830001,-35.3638493,149.1652207,0
0.1,-18.3,258.47,603.1300048830001,-35.3638501,149.16521530000003,0
0.11,-18.29,258.47,603.1300048830001,-35.363850899999996,149.16521,0
0.11,-18.31,258.47,603.1300048830001,-35.3638519,149.1652045,0
0.11,-18.34,258.46,603.1300048830001,-35.3638526,149.1651992,0
0.11,-18.34,258.46,603.1300048830001,-35.3638536,149.1651939,0
0.12,-18.34,258.46,603.1300048830001,-35.3638544,149.1651885,0
0.13,-18.33,258.46,603.1300048830001,-35.3638554,149.1651832,0
0.14,-18.33,258.46,603.1300048830001,-35.3638562,149.1651777,0
0.14,-18.33,258.46,603.1300048830001,-35.3638571,149.16517240000002,0
0.14,-18.34,258.46,603.1300048830001,-35.363858,149.1651671,0
0.13,-18.35,258.46,603.1300048830001,-35.36385870000001,149.1651617,0
0.11,-18.34,258.46,603.1300048830001,-35.3638597,149.1651563,0
0.12,-18.33,258.46,603.1300048830001,-35.3638605,149.16515090000001,0
0.13,-18.32,258.46,603.1300048830001,-35.3638614,149.1651456,0
0.13,-18.34,258.45,603.1300048830001,-35.363862299999994,149.16514019999997,0
0.12,-18.36,258.45,603.1300048830001,-35.363863,149.16513490000003,0
0.12,-18.38,258.44,603.1300048830001,-35.363864,149.1651295,0
0.14,-18.39,258.44,603.1300048830001,-35.3638648,149.165124,0
0.17,-18.37,258.43,603.1300048830001,-35.3638658,149.1651187,0
0.19,-18.37,258.43,603.1300048830001,-35.3638666,149.1651134,0
0.19,-18.37,258.43,603.1300048830001,-35.3638675,149.165108,0
0.18,-18.37,258.42,603.1300048830001,-35.3638684,149.1651025,0
0.18,-18.37,258.42,603.1300048830001,-35.3638693,149.1650972,0
0.17,-18.36,258.42,603.1300048830001,-35.3638701,149.1650919,0
0.16,-18.37,258.41,603.1300048830001,-35.363870899999995,149.1650865,0
0.15,-18.39,258.41,603.1300048830001,-35.3638719,149.16508100000001,0
0.11,-18.41,258.41,603.1300048830001,-35.3638727,149.1650757,0
0.08,-18.41,258.4,603.1300048830001,-35.363873600000005,149.16507040000002,0
0.07,-18.39,258.4,603.1300048830001,-35.3638745,149.165065,0
0.07,-18.37,258.39,603.1300048830001,-35.3638752,149.16505959999998,0
0.09,-18.35,258.39,603.1300048830001,-35.36387620000001,149.1650541,0
0.13,-18.35,258.38,603.1300048830001,-35.363877,149.16504880000002,0
0.17,-18.36,258.37,603.1300048830001,-35.3638779,149.1650435,0
0.19,-18.39,258.37,603.1300048830001,-35.363878799999995,149.1650381,0
0.18,-18.41,258.36,603.1300048830001,-35.363879700000005,149.1650326,0
0.15,-18.4,258.36,603.1300048830001,-35.3638806,149.1650273,0
0.13,-18.39,258.36,603.1199951169999,-35.363881299999996,149.165022,0
0.12,-18.37,258.35,603.1199951169999,-35.3638823,149.1650166,0
0.11,-18.35,258.35,603.1199951169999,-35.3638831,149.16501110000002,0
0.1,-18.35,258.35,603.1199951169999,-35.363884000000006,149.16500580000002,0
0.09,-18.36,258.35,603.1199951169999,-35.3638848,149.1650004,0
0.09,-18.39,258.35,603.1199951169999,-35.36388579999999,149.164995,0
0.07,-18.44,258.35,603.1199951169999,-35.3638867,149.1649895,0
0.06,-18.44,258.34,603.1199951169999,-35.3638875,149.1649842,0
0.05,-18.43,258.34,603.1199951169999,-35.36388839999999,149.16497880000003,0
0.05,-18.4,258.34,603.1199951169999,-35.3638892,149.1649733,0
0.03,-18.4,258.33,603.1199951169999,-35.3638902,149.164968,0
0.02,-18.4,258.33,603.1199951169999,-35.3638909,149.1649627,0
0.03,-18.38,258.32,603.1199951169999,-35.3638919,149.1649573,0
0.06,-18.38,258.31,603.1199951169999,-35.3638927,149.1649519,0
0.11,-18.37,258.31,603.1199951169999,-35.363893700000006,149.16494640000002,0
0.15,-18.36,258.3,603.1199951169999,-35.3638945,149.1649411,0
0.18,-18.39,258.3,603.1199951169999,-35.363895299999996,149.16493569999997,0
0.2,-18.39,258.3,603.1199951169999,-35.3638963,149.1649302,0
0.21,-18.39,258.3,603.1199951169999,-35.3638971,149.16492490000002,0
0.19,-18.38,258.3,603.1199951169999,-35.3638981,149.1649196,0
0.15,-18.37,258.3,603.1199951169999,-35.363898799999994,149.1649142,0
0.11,-18.35,258.3,603.1199951169999,-35.3638998,149.16490880000003,0
0.08,-18.36,258.3,603.1199951169999,-35.3639006,149.1649033,0
0.08,-18.37,258.3,603.1199951169999,-35.3639016,149.164898,0
0.07,-18.38,258.31,603.1199951169999,-35.3639024,149.1648926,0
0.07,-18.4,258.3,603.1199951169999,-35.3639032,149.16488710000002,0
0.06,-18.41,258.3,603.1199951169999,-35.3639042,149.16488180000002,0
0.08,-18.43,258.3,603.1199951169999,-35.363904999999995,149.1648764,0
0.11,-18.44,258.3,603.1199951169999,-35.363906,149.164871,0
0.11,-18.45,258.3,603.1199951169999,-35.363906799999995,149.1648655,0
0.12,-18.46,258.3,603.1199951169999,-35.363907700000006,149.1648602,0
0.12,-18.46,258.3,603.1199951169999,-35.3639085,149.16485490000002,0
0.13,-18.44,258.3,603.1199951169999,-35.3639095,149.1648495,0
0.15,-18.43,258.3,603.1199951169999,-35.3639104,149.164844,0
0.15,-18.42,258.3,603.1199951169999,-35.3639113,149.1648387,0
0.14,-18.4,258.3,603.1199951169999,-35.36391210000001,149.1648333,0
0.12,-18.39,258.31,603.1199951169999,-35.363912899999995,149.1648279,0
0.09,-18.38,258.31,603.1199951169999,-35.3639139,149.16482240000002,0
0.08,-18.4,258.31,603.1199951169999,-35.3639147,149.1648171,0
0.08,-18.44,258.31,603.1300048830001,-35.3639157,149.1648118,0
0.09,-18.47,258.31,603.1300048830001,-35.3639164,149.1648064,0
0.1,-18.47,258.31,603.1300048830001,-35.3639174,149.16480090000002,0
0.13,-18.46,258.31,603.1300048830001,-35.363918299999995,149.1647956,0
0.16,-18.45,258.31,603.1300048830001,-35.363919200000005,149.16479019999997,0
0.18,-18.43,258.3,603.1300048830001,-35.3639201,149.16478480000004,0
0.17,-18.4,258.3,603.1300048830001,-35.363920799999995,149.1647793,0
0.16,-18.36,258.3,603.1300048830001,-35.3639218,149.164774,0
0.16,-18.34,258.3,603.1300048830001,-35.3639226,149.1647686,0
0.17,-18.34,258.31,603.1300048830001,-35.36392360000001,149.16476310000002,0
0.17,-18.34,258.31,603.1300048830001,-35.3639244,149.16475780000002,0
0.16,-18.35,258.31,603.1300048830001,-35.3639253,149.1647524,0
0.14,-18.36,258.31,603.1300048830001,-35.3639262,149.164747,0
0.13,-18.38,258.31,603.1300048830001,-35.3639271,149.1647415,0
0.13,-18.37,258.31,603.1300048830001,-35.363928,149.1647362,0
0.12,-18.37,258.31,603.1300048830001,-35.3639287,149.16473080000003,0
0.13,-18.38,258.31,603.1300048830001,-35.3639297,149.16472530000001,0
0.13,-18.4,258.31,603.1300048830001,-35.3639305,149.16472,0
0.11,-18.42,258.31,603.1300048830001,-35.3639315,149.1647147,0
0.08,-18.47,258.31,603.1300048830001,-35.363932299999995,149.1647093,0
0.09,-18.48,258.31,603.1300048830001,-35.363933200000005,149.1647039,0
0.11,-18.46,258.31,603.1300048830001,-35.3639341,149.16469840000002,0
0.12,-18.43,258.31,603.1300048830001,-35.363935,149.1646931,0
0.13,-18.41,258.3,603.1300048830001,-35.36393579999999,149.16468769999997,0
0.14,-18.39,258.3,603.1300048830001,-35.3639366,149.1646822,0
0.15,-18.37,258.3,603.1300048830001,-35.3639376,149.16467690000002,0
0.16,-18.36,258.3,603.1300048830001,-35.363938399999995,149.1646715,0
0.14,-18.38,258.3,603.1300048830001,-35.3639394,149.16466609999998,0
0.12,-18.42,258.3,603.1300048830001,-35.3639402,149.1646606,0
0.12,-18.46,258.3,603.1300048830001,-35.363941100000005,149.16465530000002,0
0.14,-18.48,258.3,603.1300048830001,-35.363942,149.1646499,0
0.16,-18.49,258.3,603.1300048830001,-35.3639427,149.16464440000001,0
0.18,-18.51,258.3,603.1300048830001,-35.3639437,149.1646391,0
0.21,-18.51,258.31,603.1300048830001,-35.3639445,149.16463380000002,0
0.21,-18.48,258.31,603.1300048830001,-35.3639455,149.1646284,0
0.18,-18.43,258.31,603.1300048830001,-35.36394620000001,149.164623,0
0.15,-18.38,258.31,603.1300048830001,-35.3639472,149.1646175,0
0.14,-18.36,258.31,603.1300048830001,-35.3639481,149.1646122,0
0.15,-18.37,258.31,603.1300048830001,-35.363949,149.16460680000003,0
0.17,-18.41,258.3,603.1300048830001,-35.36394979999999,149.16460130000002,0
0.17,-18.42,258.3,603.1300048830001,-35.3639506,149.164596,0
0.16,-18.44,258.3,603.140014648,-35.3639516,149.1645906,0
0.16,-18.44,258.29,603.140014648,-35.363952399999995,149.1645852,0
0.16,-18.45,258.29,603.140014648,-35.3639534,149.1645797,0
0.16,-18.45,258.29,603.140014648,-35.3639541,149.1645744,0
0.15,-18.43,258.29,603.140014648,-35.363955100000005,149.164569,0
0.13,-18.42,258.29,603.140014648,-35.363956,149.1645635,0
0.11,-18.43,258.29,603.140014648,-35.3639567,149.1645581,0
0.11,-18.44,258.29,603.140014648,-35.36395770000001,149.16455280000002,0
0.11,-18.45,258.29,603.140014648,-35.3639585,149.1645472,0
0.1,-18.47,258.29,603.140014648,-35.3639595,149.1645419,0
0.1,-18.48,258.28,603.140014648,-35.3639602,149.1645365,0
-0.25,-18.37,258.26,603.140014648,-35.363961200000006,149.1645311,0
-1.31,-18.02,258.1,603.140014648,-35.363962,149.16452560000002,0
-2.75,-17.54,257.7,603.140014648,-35.363963,149.16452030000002,0
-4.08,-17.09,256.99,603.140014648,-35.363963899999995,149.164515,0
-5.0,-16.82,255.97,603.140014648,-35.363965,149.1645097,0
-5.41,-16.76,254.65,603.140014648,-35.363966,149.1645044,0
-5.39,-16.86,253.06,603.140014648,-35.363967200000005,149.1644992,0
-5.07,-17.05,251.28,603.140014648,-35.3639685,149.164494,0
-4.59,-17.26,249.38,603.140014648,-35.3639698,149.164489,0
-4.06,-17.44,247.44,603.140014648,-35.36397120000001,149.16448390000002,0
-3.57,-17.56,245.54,603.140014648,-35.3639727,149.1644789,0
-3.17,-17.62,243.75,603.140014648,-35.3639742,149.16447390000002,0
-2.89,-17.65,242.11,603.140014648,-35.3639758,149.1644691,0
-2.72,-17.67,240.66,603.140014648,-35.363977500000004,149.1644642,0
-2.65,-17.68,239.39,603.140014648,-35.3639791,149.1644594,0
-2.66,-17.7,238.29,603.140014648,-35.3639809,149.1644546,0
-2.73,-17.72,237.34,603.140014648,-35.363982799999995,149.1644499,0
-2.81,-17.73,236.49,603.140014648,-35.3639848,149.1644452,0
-2.89,-17.74,235.71,603.140014648,-35.3639868,149.16444040000002,0
-2.92,-17.75,234.98,603.140014648,-35.363988799999994,149.16443590000003,0
-2.91,-17.79,234.27,603.1300048830001,-35.363991,149.16443130000002,0
-2.86,-17.84,233.55,603.1300048830001,-35.3639931,149.1644269,0
-2.81,-17.88,232.82,603.1300048830001,-35.3639955,149.1644224,0
-2.72,-17.89,232.08,603.1300048830001,-35.36399779999999,149.1644179,0
-2.62,-17.89,231.32,603.1300048830001,-35.3640001,149.1644136,0
-2.5,-17.9,230.57,603.1300048830001,-35.364002500000005,149.16440930000002,0
-2.37,-17.91,229.82,603.1300048830001,-35.364005,149.16440500000002,0
-2.2,-17.94,229.09,603.1300048830001,-35.3640075,149.1644007,0
-2.02,-17.98,228.4,603.1300048830001,-35.3640101,149.1643966,0
-1.88,-18.02,227.75,603.1300048830001,-35.3640126,149.1643925,0
-1.75,-18.06,227.15,603.1300048830001,-35.3640154,149.1643884,0
-1.63,-18.08,226.6,603.1300048830001,-35.364018,149.16438430000002,0
-1.52,-18.1,226.1,603.1300048830001,-35.3640208,149.1643801,0
-1.41,-18.12,225.65,603.1300048830001,-35.3640235,149.1643762,0
-1.33,-18.13,225.25,603.1300048830001,-35.3640264,149.16437219999997,0
-1.26,-18.16,224.88,603.1300048830001,-35.364029200000004,149.1643681,0
-1.2,-18.2,224.54,603.1300048830001,-35.364032,149.16436430000002,0
-1.15,-18.21,224.23,603.1300048830001,-35.364035,149.1643604,0
-1.1,-18.21,223.93,603.1300048830001,-35.364038,149.1643564,0
-1.06,-18.19,223.65,603.1300048830001,-35.3640409,149.16435259999997,0
-1.0,-18.16,223.39,603.1300048830001,-35.3640439,149.1643487,0
-0.94,-18.15,223.13,603.1300048830001,-35.3640469,149.1643449,0
-0.89,-18.15,222.89,603.1300048830001,-35.3640499,149.16434109999997,0
-0.85,-18.16,222.65,603.1300048830001,-35.364053000000006,149.1643373,0
-0.79,-18.19,222.42,603.1300048830001,-35.3640561,149.1643335,0
-0.72,-18.22,222.21,603.1300048830001,-35.3640592,149.16432980000002,0
-0.65,-18.25,222.0,603.1300048830001,-35.36406229999999,149.164326,0
-0.58,-18.27,221.81,603.1300048830001,-35.3640654,149.1643222,0
-0.53,-18.28,221.63,603.1300048830001,-35.3640685,149.1643186,0
-0.5,-18.27,221.47,603.1300048830001,-35.3640718,149.1643149,0
-0.48,-18.27,221.32,603.1300048830001,-35.3640749,149.1643111,0
-0.44,-18.27,221.19,603.1300048830001,-35.3640781,149.1643076,0
-0.38,-18.27,221.07,603.1300048830001,-35.364081299999995,149.16430390000002,0
-0.33,-18.27,220.96,603.1199951169999,-35.364084600000005,149.16430019999999,0
-0.29,-18.27,220.86,603.1199951169999,-35.3640878,149.1642966,0
-0.27,-18.29,220.77,603.1199951169999,-35.364090999999995,149.1642929,0
-0.25,-18.3,220.68,603.1199951169999,-35.3640943,149.1642894,0
-0.25,-18.3,220.6,603.1199951169999,-35.3640976,149.1642857,0
-0.25,-18.3,220.52,603.1199951169999,-35.364100799999996,149.1642822,0
-0.24,-18.3,220.45,603.1199951169999,-35.3641042,149.1642785,0
-0.2,-18.29,220.38,603.1199951169999,-35.364107399999995,149.16427480000002,0
-0.15,-18.27,220.32,603.1199951169999,-35.36411079999999,149.16427130000002,0
-0.11,-18.26,220.26,603.1199951169999,-35.3641141,149.1642678,0
-0.06,-18.28,220.21,603.1199951169999,-35.3641174,149.1642642,0
-0.04,-18.31,220.16,603.1199951169999,-35.36412070000001,149.16426059999998,0
-0.05,-18.33,220.12,603.1199951169999,-35.364124100000005,149.16425700000002,0
-0.05,-18.35,220.08,603.1199951169999,-35.3641274,149.1642535,0
-0.03,-18.37,220.05,603.1199951169999,-35.3641306,149.16424980000002,0
0.0,-18.37,220.01,603.1199951169999,-35.3641341,149.16424630000003,0
0.04,-18.37,219.99,603.1199951169999,-35.364137400000004,149.1642427,0
0.09,-18.35,219.96,603.1199951169999,-35.3641408,149.1642392,0
0.12,-18.33,219.94,603.1199951169999,-35.364144200000005,149.16423569999998,0
0.14,-18.32,219.92,603.1199951169999,-35.364147499999994,149.1642321,0
0.12,-18.32,219.91,603.1199951169999,-35.3641509,149.16422859999997,0
0.09,-18.32,219.9,603.1199951169999,-35.3641542,149.1642249,0
0.06,-18.32,219.89,603.1199951169999,-35.3641576,149.1642215,0
0.06,-18.31,219.87,603.1199951169999,-35.3641609,149.16421780000002,0
0.08,-18.31,219.86,603.1199951169999,-35.3641644,149.16421440000002,0
0.12,-18.3,219.84,603.1199951169999,-35.3641678,149.1642108,0
0.12,-18.32,219.83,603.1199951169999,-35.3641711,149.1642072,0
0.12,-18.33,219.82,603.1199951169999,-35.364174600000005,149.16420369999997,0
0.11,-18.32,219.81,603.1199951169999,-35.3641779,149.1642001,0
0.11,-18.31,219.8,603.1199951169999,-35.3641813,149.1641966,0
0.1,-18.31,219.79,603.1199951169999,-35.3641846,149.16419309999998,0
0.1,-18.33,219.78,603.1199951169999,-35.3641881,149.1641895,0
0.09,-18.37,219.78,603.1199951169999,-35.364191399999996,149.164186,0
0.09,-18.41,219.77,603.1199951169999,-35.364194899999994,149.16418240000002,0
0.08,-18.42,219.77,603.1199951169999,-35.3641983,149.16417890000002,0
0.07,-18.4,219.77,603.1199951169999,-35.3642016,149.1641754,0
0.06,-18.37,219.76,603.1199951169999,-35.36420510000001,149.16417180000002,0
0.06,-18.34,219.76,603.1199951169999,-35.364208399999995,149.16416830000003,0
0.06,-18.33,219.76,603.1199951169999,-35.3642119,149.1641647,0
0.04,-18.34,219.75,603.1199951169999,-35.3642151,149.1641612,0
0.03,-18.35,219.75,603.1199951169999,-35.3642186,149.16415769999998,0
0.05,-18.35,219.74,603.1199951169999,-35.3642221,149.1641541,0
0.08,-18.34,219.74,603.1199951169999,-35.364225399999995,149.1641506,0
0.1,-18.33,219.74,603.1199951169999,-35.3642289,149.16414699999999,0
0.1,-18.33,219.73,603.1199951169999,-35.3642323,149.1641436,0
0.08,-18.32,219.73,603.1199951169999,-35.3642357,149.16414,0
0.05,-18.32,219.73,603.1199951169999,-35.3642391,149.16413640000002,0
0.02,-18.33,219.73,603.1199951169999,-35.3642424,149.16413290000003,0
0.03,-18.35,219.73,603.1199951169999,-35.364246,149.1641294,0
0.04,-18.36,219.73,603.1199951169999,-35.3642494,149.16412580000002,0
0.03,-18.36,219.73,603.1199951169999,-35.3642527,149.16412230000003,0
0.04,-18.36,219.73,603.1199951169999,-35.36425620000001,149.1641187,0
0.03,-18.36,219.74,603.1199951169999,-35.364259499999996,149.16411530000002,0
0.02,-18.33,219.74,603.1199951169999,-35.364263,149.16411169999998,0
0.01,-18.31,219.74,603.1199951169999,-35.3642665,149.1641081,0
0.01,-18.3,219.75,603.1199951169999,-35.364269799999995,149.16410469999997,0
0.04,-18.28,219.75,603.1199951169999,-35.364273299999994,149.164101,0
0.07,-18.27,219.76,603.1199951169999,-35.364276700000005,149.1640976,0
0.09,-18.27,219.76,603.1199951169999,-35.36428,149.1640941,0
0.1,-18.28,219.76,603.1199951169999,-35.3642836,149.16409050000001,0
0.11,-18.3,219.77,603.1199951169999,-35.364287,149.16408700000002,0
0.12,-18.34,219.78,603.1199951169999,-35.3642904,149.1640835,0
0.12,-18.36,219.79,603.1199951169999,-35.3642938,149.16407990000002,0
0.1,-18.38,219.8,603.1199951169999,-35.3642971,149.1640765,0
0.07,-18.39,219.81,603.1199951169999,-35.3643006,149.1640728,0
0.06,-18.38,219.82,603.1199951169999,-35.364304100000005,149.16406940000002,0
0.09,-18.36,219.83,603.1199951169999,-35.364307399999994,149.1640659,0
0.12,-18.33,219.84,603.1199951169999,-35.3643109,149.1640624,0
0.14,-18.29,219.85,603.1199951169999,-35.3643142,149.16405880000002,0
0.14,-18.28,219.86,603.1199951169999,-35.3643177,149.1640553,0
0.12,-18.3,219.86,603.1199951169999,-35.364321200000006,149.1640516,0
0.1,-18.35,219.87,603.1199951169999,-35.3643245,149.1640482,0
0.1,-18.39,219.87,603.1199951169999,-35.364328,149.1640447,0
0.12,-18.42,219.88,603.1199951169999,-35.364331400000005,149.1640411,0
0.14,-18.44,219.88,603.1199951169999,-35.3643348,149.1640376,0
0.14,-18.41,219.89,603.1199951169999,-35.3643383,149.16403400000002,0
0.12,-18.4,219.89,603.1199951169999,-35.364341700000004,149.1640306,0
0.09,-18.4,219.9,603.1199951169999,-35.3643451,149.164027,0
0.07,-18.42,219.91,603.1199951169999,-35.3643485,149.16402340000002,0
0.06,-18.42,219.91,603.1199951169999,-35.3643518,149.16402,0
0.09,-18.41,219.91,603.1199951169999,-35.36435529999999,149.16401630000001,0
0.12,-18.4,219.91,603.1199951169999,-35.3643588,149.1640129,0
0.15,-18.41,219.91,603.1199951169999,-35.3643621,149.1640094,0
0.14,-18.41,219.92,603.1199951169999,-35.3643656,149.1640057,0
0.13,-18.42,219.92,603.1199951169999,-35.3643689,149.1640023,0
0.11,-18.4,219.92,603.1199951169999,-35.3643724,149.1639986,0
0.07,-18.39,219.93,603.1199951169999,-35.3643759,149.1639951,0
0.04,-18.39,219.93,603.1199951169999,-35.3643792,149.1639916,0
0.03,-18.41,219.93,603.1199951169999,-35.36438270000001,149.163988,0
0.03,-18.39,219.94,603.1199951169999,-35.364386100000004,149.1639845,0
0.05,-18.36,219.94,603.1300048830001,-35.3643895,149.163981,0
0.09,-18.33,219.94,603.1300048830001,-35.364393,149.1639774,0
0.1,-18.32,219.94,603.1300048830001,-35.364396299999996,149.1639739,0
0.11,-18.32,219.94,603.1300048830001,-35.364399799999994,149.16397030000002,0
0.11,-18.34,219.94,603.1300048830001,-35.3644033,149.1639668,0
0.1,-18.36,219.94,603.1300048830001,-35.3644066,149.16396310000002,0
0.08,-18.38,219.94,603.1300048830001,-35.3644101,149.1639597,0
0.08,-18.42,219.94,603.1300048830001,-35.3644135,149.1639561,0
0.07,-18.44,219.93,603.1300048830001,-35.3644169,149.1639525,0
0.05,-18.44,219.93,603.1300048830001,-35.3644204,149.163949,0
0.03,-18.43,219.94,603.1300048830001,-35.3644238,149.16394540000002,0
0.02,-18.39,219.94,603.1300048830001,-35.36442720000001,149.1639419,0
0.03,-18.37,219.94,603.1300048830001,-35.364430600000006,149.1639384,0
0.05,-18.36,219.94,603.1300048830001,-35.364434,149.16393480000002,0
0.08,-18.39,219.94,603.1300048830001,-35.3644375,149.1639313,0
0.1,-18.42,219.94,603.1300048830001,-35.3644409,149.1639277,0
0.11,-18.44,219.94,603.1300048830001,-35.3644442,149.1639242,0
0.1,-18.46,219.94,603.1300048830001,-35.3644477,149.1639207,0
0.08,-18.44,219.94,603.1300048830001,-35.364451200000005,149.1639171,0
0.05,-18.39,219.94,603.1300048830001,-35.3644545,149.1639136,0
0.04,-18.35,219.94,603.1300048830001,-35.364458,149.16390990000002,0
0.03,-18.33,219.94,603.1300048830001,-35.3644615,149.1639065,0
0.03,-18.34,219.94,603.1300048830001,-35.364464899999994,149.16390280000002,0
0.06,-18.38,219.94,603.1300048830001,-35.3644683,149.1638994,0
0.1,-18.43,219.94,603.1300048830001,-35.3644716,149.1638958,0
0.12,-18.46,219.94,603.1300048830001,-35.3644751,149.1638922,0
0.11,-18.47,219.94,603.1300048830001,-35.364478600000005,149.1638888,0
0.09,-18.48,219.95,603.1300048830001,-35.364481899999994,149.16388510000002,0
0.09,-18.47,219.95,603.1300048830001,-35.3644854,149.1638817,0
0.1,-18.47,219.95,603.1300048830001,-35.3644887,149.1638781,0
0.09,-18.43,219.95,603.1300048830001,-35.3644922,149.16387450000002,0
0.07,-18.39,219.96,603.1300048830001,-35.364495700000006,149.163871,0
0.05,-18.38,219.96,603.1300048830001,-35.364499,149.16386740000002,0
0.04,-18.38,219.97,603.1300048830001,-35.3645025,149.1638639,0
0.02,-18.4,219.97,603.1300048830001,-35.3645059,149.1638604,0
0.01,-18.42,219.97,603.1300048830001,-35.3645093,149.16385680000002,0
0.02,-18.43,219.97,603.1300048830001,-35.3645128,149.1638533,0
0.05,-18.44,219.97,603.1300048830001,-35.364516200000004,149.1638496,0
0.05,-18.45,219.97,603.1300048830001,-35.3645196,149.1638462,0
0.03,-18.44,219.97,603.140014648,-35.364523,149.16384250000002,0
0.02,-18.43,219.96,603.140014648,-35.364526399999995,149.1638391,0
0.04,-18.41,219.96,603.140014648,-35.3645299,149.1638355,0
0.07,-18.4,219.96,603.140014648,-35.3645333,149.16383190000002,0
0.1,-18.39,219.95,603.140014648,-35.3645366,149.1638284,0
0.12,-18.39,219.95,603.140014648,-35.3645402,149.16382480000001,0
0.16,-18.41,219.95,603.140014648,-35.3645436,149.16382130000002,0
0.19,-18.43,219.94,603.140014648,-35.364546999999995,149.1638178,0
0.21,-18.43,219.95,603.140014648,-35.3645504,149.1638142,0
0.19,-18.43,219.95,603.140014648,-35.3645539,149.16381069999997,0
0.16,-18.43,219.96,603.1300048830001,-35.364557299999994,149.16380700000002,0
0.12,-18.43,219.96,603.1300048830001,-35.3645607,149.1638036,0
0.1,-18.43,219.97,603.1300048830001,-35.364564,149.16379990000001,0
0.07,-18.43,219.97,603.1300048830001,-35.3645675,149.16379650000002,0
0.05,-18.43,219.98,603.1300048830001,-35.364571000000005,149.1637929,0
0.04,-18.43,219.98,603.1300048830001,-35.364574299999994,149.16378930000002,0
0.08,-18.43,219.98,603.1300048830001,-35.3645778,149.1637858,0
0.11,-18.42,219.98,603.1300048830001,-35.364581099999995,149.16378219999999,0
0.13,-18.41,219.98,603.1300048830001,-35.3645847,149.16377869999997,0
0.11,-18.4,219.98,603.1300048830001,-35.3645881,149.16377519999998,0
0.07,-18.38,219.98,603.1300048830001,-35.3645914,149.1637716,0
0.04,-18.38,219.97,603.1300048830001,-35.36459489999999,149.1637681,0
0.04,-18.39,219.97,603.1300048830001,-35.3645983,149.16376440000002,0
0.05,-18.4,219.97,603.1300048830001,-35.36460170000001,149.16376090000003,0
0.06,-18.4,219.97,603.1300048830001,-35.3646052,149.16375730000001,0
0.07,-18.42,219.96,603.1300048830001,-35.3646085,149.16375380000002,0
0.06,-18.44,219.96,603.140014648,-35.364612,149.1637503,0
0.05,-18.45,219.96,603.140014648,-35.3646155,149.1637467,0
0.04,-18.44,219.96,603.140014648,-35.364618799999995,149.16374319999997,0
0.05,-18.44,219.95,603.140014648,-35.3646223,149.1637395,0
0.06,-18.43,219.95,603.140014648,-35.364625700000005,149.1637361,0
0.06,-18.43,219.95,603.140014648,-35.3646291,149.16373240000001,0
0.06,-18.45,219.95,603.140014648,-35.3646326,149.16372900000002,0
0.06,-18.47,219.94,603.140014648,-35.364636,149.1637254,0
0.06,-18.48,219.95,603.140014648,-35.364639399999994,149.16372180000002,0
0.06,-18.5,219.95,603.140014648,-35.3646429,149.16371830000003,0
0.05,-18.49,219.95,603.140014648,-35.3646462,149.16371469999999,0
0.03,-18.44,219.95,603.140014648,-35.3646497,149.1637112,0
0.02,-18.41,219.96,603.140014648,-35.3646531,149.16370769999997,0
0.01,-18.42,219.96,603.140014648,-35.3646565,149.1637041,0
0.02,-18.45,219.96,603.140014648,-35.36466,149.1637006,0
0.04,-18.46,219.96,603.140014648,-35.3646634,149.1636969,0
0.05,-18.47,219.96,603.140014648,-35.364666799999995,149.1636935,0
0.04,-18.47,219.96,603.140014648,-35.3646703,149.16368980000001,0
0.04,-18.46,219.96,603.140014648,-35.3646738,149.16368640000002,0
0.02,-18.46,219.95,603.140014648,-35.3646771,149.16368280000003,0
0.01,-18.46,219.95,603.140014648,-35.3646807,149.1636792,0
0.03,-18.46,219.95,603.140014648,-35.3646841,149.1636757,0
0.04,-18.46,219.94,603.1300048830001,-35.3646874,149.16367209999999,0
0.06,-18.44,219.94,603.1300048830001,-35.364691,149.1636686,0
0.08,-18.43,219.94,603.1300048830001,-35.3646944,149.16366509999997,0
0.09,-18.42,219.94,603.1300048830001,-35.364697799999995,149.1636615,0
0.1,-18.41,219.94,603.1300048830001,-35.3647013,149.1636579,0
0.09,-18.43,219.95,603.1300048830001,-35.364704700000004,149.16365430000002,0
0.07,-18.45,219.96,603.1300048830001,-35.3647081,149.16365080000003,0
0.08,-18.48,219.97,603.1300048830001,-35.36471160000001,149.16364719999999,0
0.1,-18.49,219.98,603.1300048830001,-35.364714899999996,149.1636437,0
0.11,-18.5,219.99,603.1300048830001,-35.3647184,149.16364,0
0.1,-18.49,220.0,603.1300048830001,-35.3647219,149.1636366,0
0.07,-18.48,220.01,603.1300048830001,-35.3647254,149.163633,0
0.04,-18.49,220.01,603.1300048830001,-35.364728799999995,149.1636294,0
0.04,-18.5,220.01,603.1300048830001,-35.364732200000006,149.1636259,0
0.04,-18.49,220.01,603.1300048830001,-35.364735499999995,149.1636222,0
0.03,-18.47,220.01,603.1300048830001,-35.3647391,149.1636187,0
0.05,-18.44,220.0,603.1300048830001,-35.3647425,149.1636151,0
0.07,-18.41,220.0,603.1300048830001,-35.364745899999996,149.1636116,0
0.07,-18.39,220.0,603.1300048830001,-35.3647494,149.16360790000002,0
0.07,-18.38,219.99,603.1300048830001,-35.3647528,149.1636044,0
0.04,-18.38,219.99,603.1300048830001,-35.3647562,149.1636007,0
0.01,-18.38,219.99,603.1300048830001,-35.3647597,149.16359730000002,0
0.02,-18.39,219.99,603.1300048830001,-35.3647631,149.16359369999998,0
0.04,-18.42,219.99,603.1300048830001,-35.364766499999995,149.1635901,0
0.06,-18.43,219.99,603.1300048830001,-35.36477,149.1635866,0
0.07,-18.44,219.99,603.1300048830001,-35.3647734,149.16358300000002,0
0.07,-18.43,219.99,603.1300048830001,-35.3647768,149.1635794,0
0.09,-18.41,219.99,603.1300048830001,-35.364780200000006,149.16357580000002,0
0.1,-18.39,219.99,603.1300048830001,-35.3647836,149.16357230000003,0
0.08,-18.39,219.99,603.1300048830001,-35.3647871,149.1635688,0
0.06,-18.4,219.99,603.1300048830001,-35.364790500000005,149.16356519999997,0
0.06,-18.43,219.99,603.1300048830001,-35.364793799999994,149.1635615,0
0.06,-18.44,219.99,603.1300048830001,-35.3647974,149.1635581,0
0.07,-18.43,219.98,603.1300048830001,-35.3648008,149.1635545,0
0.07,-18.42,219.98,603.1300048830001,-35.3648042,149.16355090000002,0
0.06,-18.41,219.98,603.1300048830001,-35.3648076,149.16354740000003,0
0.06,-18.43,219.97,603.1300048830001,-35.3648109,149.1635438,0
0.06,-18.43,219.97,603.1300048830001,-35.3648145,149.16354030000002,0
0.06,-18.42,219.96,603.1300048830001,-35.3648179,149.1635368,0
0.05,-18.41,219.96,603.1300048830001,-35.36482120000001,149.1635332,0
0.06,-18.39,219.95,603.1300048830001,-35.364824799999994,149.16352969999997,0
0.09,-18.38,219.95,603.1300048830001,-35.3648282,149.163526,0
0.12,-18.36,219.95,603.1300048830001,-35.3648315,149.1635226,0
0.13,-18.38,219.95,603.1300048830001,-35.3648351,149.1635189,0
0.12,-18.39,219.96,603.1300048830001,-35.3648385,149.16351550000002,0
0.1,-18.4,219.96,603.1300048830001,-35.3648419,149.1635119,0
0.08,-18.42,219.96,603.1300048830001,-35.3648454,149.16350830000002,0
0.06,-18.45,219.96,603.1300048830001,-35.3648488,149.16350480000003,0
0.07,-18.45,219.96,603.1300048830001,-35.36485220000001,149.1635013,0
0.1,-18.45,219.96,603.1300048830001,-35.364855600000006,149.1634977,0
0.12,-18.45,219.97,603.1300048830001,-35.364859,149.16349419999997,0
0.13,-18.45,219.97,603.1300048830001,-35.3648625,149.1634906,0
0.1,-18.45,219.97,603.1300048830001,-35.3648659,149.1634871,0
0.06,-18.45,219.97,603.1300048830001,-35.3648692,149.1634834,0
0.02,-18.46,219.98,603.1300048830001,-35.36487279999999,149.16348,0
0.0,-18.46,219.98,603.1300048830001,-35.364876200000005,149.1634763,0
0.02,-18.45,219.98,603.1300048830001,-35.3648796,149.16347280000002,0
0.07,-18.42,219.98,603.1300048830001,-35.3648831,149.16346930000003,0
0.13,-18.39,219.98,603.1300048830001,-35.3648865,149.1634657,0
0.17,-18.36,219.97,603.1300048830001,-35.364889899999994,149.1634622,0
0.18,-18.34,219.97,603.1300048830001,-35.3648934,149.1634585,0
0.16,-18.34,219.97,603.1300048830001,-35.3648967,149.1634551,0
0.12,-18.37,219.97,603.1300048830001,-35.3649002,149.16345139999999,0
0.07,-18.42,219.97,603.1300048830001,-35.3649037,149.163448,0
0.02,-18.46,219.97,603.1300048830001,-35.364907,149.1634444,0
0.01,-18.47,219.97,603.1300048830001,-35.3649105,149.16344080000002,0
0.02,-18.46,219.97,603.1300048830001,-35.364914,149.16343730000003,0
0.05,-18.43,219.97,603.1300048830001,-35.364917299999995,149.16343380000004,0
0.1,-18.38,219.97,603.1300048830001,-35.3649208,149.1634302,0
0.11,-18.39,219.97,603.1300048830001,-35.364924200000004,149.1634267,0
0.09,-18.42,219.97,603.1300048830001,-35.3649276,149.1634231,0
0.04,-18.44,219.97,603.1300048830001,-35.3649311,149.1634196,0
0.0,-18.48,219.97,603.1300048830001,-35.364934399999996,149.1634159,0
-0.03,-18.5,219.97,603.1300048830001,-35.364937899999994,149.1634125,0
-0.03,-18.5,219.97,603.1300048830001,-35.36494129999999,149.1634089,0
-0.02,-18.49,219.97,603.1300048830001,-35.3649447,149.1634053,0
0.0,-18.44,219.97,603.1300048830001,-35.3649482,149.1634018,0
0.05,-18.38,219.96,603.1300048830001,-35.3649516,149.1633982,0
0.06,-18.35,219.96,603.1300048830001,-35.364955,149.1633947,0
0.06,-18.37,219.95,603.1300048830001,-35.3649586,149.16339119999998,0
0.05,-18.41,219.95,603.1300048830001,-35.364962,149.1633876,0
0.06,-18.46,219.95,603.1300048830001,-35.3649653,149.1633841,0
0.06,-18.5,219.96,603.1300048830001,-35.3649689,149.1633805,0
0.03,-18.55,219.96,603.1300048830001,-35.3649723,149.163377,0
0.0,-18.58,219.97,603.1300048830001,-35.3649756,149.1633733,0
0.02,-18.56,219.97,603.1300048830001,-35.3649791,149.1633699,0
0.08,-18.51,219.98,603.1300048830001,-35.3649826,149.1633663,0
0.11,-18.46,219.98,603.1300048830001,-35.364986,149.1633627,0
0.08,-18.4,219.99,603.1300048830001,-35.3649895,149.1633592,0
0.02,-18.35,219.99,603.1300048830001,-35.3649929,149.1633556,0
-0.01,-18.34,220.0,603.1300048830001,-35.3649963,149.163352,0
-0.01,-18.37,220.0,603.1300048830001,-35.3649998,149.16334840000002,0
0.0,-18.43,220.0,603.1300048830001,-35.3650031,149.1633449,0
0.02,-18.54,220.0,603.1300048830001,-35.3650066,149.1633414,0
0.02,-18.64,220.0,603.1300048830001,-35.36501,149.1633378,0
0.02,-18.68,220.0,603.1300048830001,-35.365013399999995,149.1633343,0
0.04,-18.61,219.99,603.1300048830001,-35.3650169,149.1633307,0
0.07,-18.46,219.99,603.1300048830001,-35.3650203,149.1633271,0
0.08,-18.33,219.99,603.1300048830001,-35.3650237,149.16332350000002,0
0.06,-18.27,219.99,603.1300048830001,-35.36502720000001,149.16332,0
0.05,-18.3,219.99,603.1300048830001,-35.365030700000005,149.16331630000002,0
0.06,-18.41,219.99,603.1300048830001,-35.365034,149.1633128,0
0.07,-18.55,220.0,603.1300048830001,-35.3650375,149.1633092,0
0.07,-18.65,220.0,603.1300048830001,-35.365041,149.16330569999997,0
0.09,-18.67,220.0,603.1300048830001,-35.365044299999994,149.16330219999998,0
0.11,-18.58,220.01,603.1300048830001,-35.36504779999999,149.1632986,0
0.08,-18.42,220.01,603.1300048830001,-35.3650513,149.1632951,0
0.05,-18.28,220.02,603.1300048830001,-35.3650547,149.16329140000002,0
0.03,-18.23,220.02,603.1300048830001,-35.3650581,149.1632879,0
0.06,-18.26,220.03,603.1300048830001,-35.365061600000004,149.16328430000002,0
0.13,-18.37,220.03,603.1300048830001,-35.365065,149.16328080000002,0
0.16,-18.53,220.03,603.1300048830001,-35.3650684,149.1632773,0
0.16,-18.64,220.03,603.1300048830001,-35.3650717,149.1632737,0
0.15,-18.68,220.03,603.1300048830001,-35.365075299999994,149.16327019999997,0
0.14,-18.66,220.03,603.1300048830001,-35.3650787,149.1632665,0
0.13,-18.54,220.03,603.1300048830001,-35.365082,149.163263,0
0.11,-18.38,220.03,603.1300048830001,-35.3650856,149.16325940000002,0
0.11,-18.29,220.03,603.1300048830001,-35.365089000000005,149.16325590000002,0
0.13,-18.27,220.03,603.1199951169999,-35.3650924,149.1632522,0
0.13,-18.35,220.03,603.1199951169999,-35.3650959,149.16324880000002,0
0.12,-18.5,220.02,603.1199951169999,-35.3650993,149.16324519999998,0
0.1,-18.65,220.02,603.1199951169999,-35.3651027,149.1632416,0
0.09,-18.71,220.02,603.1199951169999,-35.36510620000001,149.1632381,0
0.1,-18.7,220.02,603.1199951169999,-35.365109499999996,149.1632344,0
0.16,-18.61,220.02,603.1199951169999,-35.365113,149.163231,0
0.22,-18.47,220.02,603.1199951169999,-35.3651165,149.16322730000002,0
0.23,-18.35,220.02,603.1199951169999,-35.365119799999995,149.16322390000002,0
0.19,-18.28,220.02,603.1199951169999,-35.36512329999999,149.16322030000003,0
0.11,-18.27,220.03,603.1199951169999,-35.3651268,149.1632167,0
0.02,-18.32,220.03,603.1199951169999,-35.3651301,149.1632131,0
-0.03,-18.39,220.03,603.1199951169999,-35.3651336,149.1632095,0
-0.04,-18.45,220.03,603.1199951169999,-35.365137,149.163206,0
-0.01,-18.48,220.02,603.1199951169999,-35.3651404,149.1632024,0
0.05,-18.52,220.02,603.1199951169999,-35.3651439,149.1631989,0
0.12,-18.51,220.01,603.1199951169999,-35.3651472,149.1631952,0
0.17,-18.42,220.01,603.1199951169999,-35.3651507,149.1631917,0
0.18,-18.32,220.01,603.1199951169999,-35.3651542,149.1631881,0
0.15,-18.28,220.01,603.1199951169999,-35.3651575,149.1631846,0
0.08,-18.29,220.01,603.1199951169999,-35.365161,149.16318090000001,0
0.0,-18.38,220.0,603.1199951169999,-35.3651644,149.1631775,0
-0.03,-18.46,220.0,603.1199951169999,-35.365167799999995,149.1631739,0
-0.03,-18.5,219.99,603.1199951169999,-35.3651713,149.16317030000002,0
0.01,-18.53,219.99,603.1199951169999,-35.365174700000004,149.16316669999998,0
0.08,-18.55,219.98,603.1199951169999,-35.3651781,149.1631631,0
0.15,-18.54,219.97,603.1199951169999,-35.3651816,149.1631596,0
0.19,-18.46,219.97,603.1199951169999,-35.365184899999996,149.16315600000001,0
0.17,-18.31,219.97,603.1199951169999,-35.365188399999994,149.1631525,0
0.14,-18.2,219.97,603.1199951169999,-35.3651919,149.16314880000002,0
0.1,-18.19,219.97,603.1199951169999,-35.3651952,149.16314540000002,0
0.04,-18.31,219.97,603.1199951169999,-35.3651987,149.1631418,0
0.03,-18.48,219.97,603.1199951169999,-35.365202200000006,149.1631382,0
0.06,-18.59,219.96,603.1199951169999,-35.3652055,149.16313469999997,0
0.09,-18.57,219.96,603.1199951169999,-35.365209,149.1631311,0
0.08,-18.39,219.96,603.1199951169999,-35.365212400000004,149.1631276,0
0.0,-18.09,219.96,603.1199951169999,-35.3652158,149.16312390000002,0
