Start,TimeUS,Roll,Pitch,Yaw,Alt,Lat,Lng,Q1,Q2,Q3,Q4,Category
0.0,0.0,353.0,584.090026855,-35.363261,149.1652299,0
0.0,0.0,353.0,584.090026855,-35.363261,149.1652299,0
0.0,0.0,353.0,584.090026855,-35.363261,149.1652299,0
0.0,0.0,353.0,584.090026855,-35.363261,149.1652299,0
0.0,0.0,353.0,584.090026855,-35.363261,149.1652299,0
0.0,0.0,353.0,584.090026855,-35.363261,149.1652299,0
0.0,0.0,353.0,584.090026855,-35.363261,149.1652299,0
0.0,0.0,353.0,584.090026855,-35.363261,149.1652299,0
0.0,0.0,353.0,584.090026855,-35.363261,149.1652299,0
0.0,0.0,353.0,584.090026855,-35.363261,149.1652299,0
0.0,0.0,353.0,584.090026855,-35.363261,149.1652299,0
0.0,0.0,353.0,584.090026855,-35.363261,149.1652299,0
0.0,0.0,353.0,584.090026855,-35.363261,149.1652299,0
0.0,0.0,353.0,584.090026855,-35.363261,149.1652299,0
0.0,0.0,353.0,584.090026855,-35.363261,149.1652299,0
0.0,0.0,353.0,584.090026855,-35.363261,149.1652299,0
0.0,0.0,353.0,584.090026855,-35.363261,149.1652299,0
0.0,0.0,353.0,584.090026855,-35.363261,149.1652299,0
0.0,0.0,353.0,584.090026855,-35.363261,149.1652299,0
0.0,0.0,353.0,584.090026855,-35.363261,149.1652299,0
0.0,0.0,353.0,584.090026855,-35.363261,149.1652299,0
0.0,0.0,353.0,584.090026855,-35.363261,149.1652299,0
0.0,0.0,353.0,584.090026855,-35.363261,149.1652299,0
0.0,0.0,353.0,584.090026855,-35.363261,149.1652299,0
0.0,0.0,353.0,584.090026855,-35.363261,149.1652299,0
0.0,0.0,353.0,584.090026855,-35.363261,149.1652299,0
0.0,0.0,353.0,584.090026855,-35.363261,149.1652299,0
0.0,0.0,353.0,584.090026855,-35.363261,149.1652299,0
0.0,0.0,353.0,584.090026855,-35.363261,149.1652299,0
0.0,0.0,353.0,584.090026855,-35.363261,149.1652299,0
0.0,0.0,353.0,584.090026855,-35.363261,149.1652299,0
0.0,0.0,353.0,584.090026855,-35.363261,149.1652299,0
0.0,0.0,353.0,584.090026855,-35.363261,149.1652299,0
0.0,0.0,353.0,584.090026855,-35.363261,149.1652299,0
0.0,0.0,353.0,584.090026855,-35.363261,149.1652299,0
0.0,0.0,353.0,584.090026855,-35.363261,149.1652299,0
0.0,0.0,353.0,584.090026855,-35.363261,149.1652299,0
0.0,0.0,353.0,584.090026855,-35.363261,149.1652299,0
0.0,0.0,353.0,584.090026855,-35.363261,149.1652299,0
0.0,0.0,353.0,584.090026855,-35.363261,149.1652299,0
0.0,0.0,353.0,584.090026855,-35.363261,149.1652299,0
0.0,0.0,353.0,584.090026855,-35.363261,149.1652299,0
0.0,0.0,353.0,584.090026855,-35.363261,149.1652299,0
0.0,0.0,353.0,584.090026855,-35.363261,149.1652299,0
0.0,0.0,353.0,584.090026855,-35.363261,149.1652299,0
0.0,0.0,353.0,584.090026855,-35.363261,149.1652299,0
0.0,0.0,353.0,584.090026855,-35.363261,149.1652299,0
0.0,0.0,353.0,584.090026855,-35.363261,149.1652299,0
0.0,0.0,353.0,584.090026855,-35.363261,149.1652299,0
0.0,0.0,353.0,584.090026855,-35.363261,149.1652299,0
0.0,0.0,353.0,584.090026855,-35.363261,149.1652299,0
0.0,0.0,353.0,584.090026855,-35.363261,149.1652299,0
0.0,0.0,353.0,584.090026855,-35.363261,149.1652299,0
0.0,0.0,353.0,584.090026855,-35.363261,149.1652299,0
0.0,0.0,353.0,584.090026855,-35.363261,149.1652299,0
0.0,0.0,353.0,584.090026855,-35.363261,149.1652299,0
0.0,0.0,353.0,584.090026855,-35.363261,149.1652299,0
0.0,0.0,353.0,584.090026855,-35.363261,149.1652299,0
0.0,0.0,353.0,584.090026855,-35.363261,149.1652299,0
0.0,0.0,353.0,584.090026855,-35.363261,149.1652299,0
0.0,0.0,353.0,584.090026855,-35.363261,149.1652299,0
0.0,0.0,353.0,584.090026855,-35.363261,149.1652299,0
0.0,0.0,353.0,584.099975586,-35.363261,149.1652299,0
0.0,0.0,353.0,584.099975586,-35.363261,149.1652299,0
0.0,0.0,353.0,584.1199951169999,-35.363261,149.1652299,0
0.0,0.0,353.0,584.140014648,-35.363261,149.1652299,0
0.0,0.0,353.0,584.16998291,-35.363261,149.1652299,0
0.0,0.0,353.0,584.210021973,-35.363261,149.1652299,0
-0.02,-0.02,352.99,584.270019531,-35.363261,149.1652299,0
-0.05,-0.05,352.99,584.3800048830001,-35.363261,149.1652299,0
-0.08,-0.09,352.99,584.5300292969999,-35.363261,149.1652299,0
-0.09,-0.1,352.99,584.6900024409999,-35.363261,149.1652299,0
-0.09,-0.1,352.99,584.840026855,-35.363261,149.1652299,0
-0.08,-0.08,352.98,584.9899902340001,-35.363261,149.1652299,0
-0.06,-0.06,352.98,585.140014648,-35.363261,149.1652299,0
-0.07,-0.04,352.98,585.299987793,-35.363261,149.1652299,0
-0.09,0.0,352.98,585.4699707030001,-35.363261,149.1652299,0
-0.12,0.01,352.98,585.640014648,-35.363261,149.1652299,0
-0.12,0.0,352.98,585.820007324,-35.363261,149.1652299,0
-0.1,0.0,352.98,586.0,-35.363261,149.1652299,0
-0.08,-0.02,352.98,586.1900024409999,-35.363261,149.1652299,0
-0.03,-0.05,352.98,586.3800048830001,-35.363261,149.16522980000002,0
-0.01,-0.07,352.98,586.570007324,-35.363261,149.16522980000002,0
0.0,-0.05,352.98,586.770019531,-35.363261,149.16522980000002,0
-0.03,-0.03,352.98,586.9699707030001,-35.363261,149.16522980000002,0
-0.05,0.0,352.98,587.16998291,-35.363261,149.16522980000002,0
-0.05,0.03,352.98,587.3699951169999,-35.363261,149.16522980000002,0
-0.03,0.03,352.97,587.58001709,-35.363261,149.16522980000002,0
0.0,-0.01,352.97,587.7800292969999,-35.363261,149.16522980000002,0
0.03,-0.04,352.97,587.9899902340001,-35.363261,149.16522980000002,0
0.05,-0.03,352.97,588.200012207,-35.363261,149.16522980000002,0
0.04,-0.02,352.97,588.409973145,-35.3632609,149.16522980000002,0
0.0,-0.03,352.97,588.6300048830001,-35.3632609,149.16522980000002,0
-0.04,-0.04,352.96,588.840026855,-35.3632609,149.16522980000002,0
-0.07,-0.04,352.96,589.049987793,-35.3632609,149.16522980000002,0
-0.08,-0.04,352.96,589.270019531,-35.3632609,149.16522980000002,0
-0.07,-0.05,352.96,589.479980469,-35.3632609,149.16522980000002,0
-0.04,-0.04,352.96,589.700012207,-35.3632609,149.16522969999997,0
-0.02,-0.03,352.95,589.91998291,-35.3632609,149.16522969999997,0
0.0,-0.03,352.95,590.140014648,-35.3632609,149.16522969999997,0
0.0,-0.04,352.95,590.359985352,-35.3632609,149.16522969999997,0
-0.03,-0.07,352.95,590.58001709,-35.3632609,149.16522969999997,0
-0.08,-0.1,352.94,590.799987793,-35.3632609,149.16522969999997,0
-0.09,-0.12,352.94,591.0300292969999,-35.3632609,149.16522959999998,0
-0.08,-0.12,352.94,591.25,-35.3632609,149.16522959999998,0
-0.07,-0.08,352.94,591.4699707030001,-35.36326079999999,149.16522959999998,0
-0.06,-0.02,352.94,591.700012207,-35.36326079999999,149.16522959999998,0
-0.05,0.02,352.94,591.91998291,-35.36326079999999,149.16522959999998,0
-0.04,0.06,352.94,592.150024414,-35.36326079999999,149.1652294,0
-0.04,0.05,352.94,592.3699951169999,-35.36326079999999,149.1652294,0
-0.03,0.03,352.93,592.599975586,-35.36326079999999,149.1652294,0
-0.04,0.0,352.93,592.83001709,-35.36326079999999,149.1652294,0
-0.04,-0.01,352.93,593.049987793,-35.363260700000005,149.1652294,0
-0.02,-0.01,352.93,593.270019531,-35.363260700000005,149.1652294,0
-0.01,0.0,352.92,593.479980469,-35.363260700000005,149.1652293,0
0.0,0.0,352.92,593.679992676,-35.363260700000005,149.1652293,0
0.0,0.03,352.92,593.8699951169999,-35.363260700000005,149.1652293,0
0.05,0.04,352.92,594.049987793,-35.363260700000005,149.1652293,0
0.07,0.04,352.91,594.210021973,-35.363260700000005,149.1652293,0
0.09,0.01,352.91,594.3699951169999,-35.363260700000005,149.1652293,0
0.11,-0.14,352.91,594.5100097659999,-35.363260700000005,149.1652293,0
0.14,-0.56,352.91,594.640014648,-35.363260700000005,149.1652293,0
0.16,-1.26,352.91,594.75,-35.363260499999996,149.1652293,0
0.18,-2.2,352.9,594.859985352,-35.363260499999996,149.1652293,0
0.22,-3.26,352.9,594.950012207,-35.3632604,149.1652293,0
0.27,-4.23,352.9,595.0300292969999,-35.3632604,149.1652293,0
0.34,-5.04,352.9,595.090026855,-35.36326029999999,149.1652293,0
0.38,-5.66,352.9,595.150024414,-35.363259899999996,149.1652293,0
0.39,-6.12,352.9,595.210021973,-35.3632598,149.1652293,0
0.36,-6.5,352.9,595.25,-35.3632593,149.1652292,0
0.34,-6.87,352.9,595.289978027,-35.363259,149.1652292,0
0.36,-7.25,352.9,595.320007324,-35.3632585,149.1652292,0
0.38,-7.65,352.9,595.349975586,-35.363257899999994,149.1652291,0
0.42,-8.0,352.9,595.3800048830001,-35.36325720000001,149.1652291,0
0.43,-8.27,352.9,595.400024414,-35.3632565,149.16522890000002,0
0.44,-8.46,352.89,595.41998291,-35.3632556,149.16522890000002,0
0.44,-8.58,352.89,595.4400024409999,-35.36325479999999,149.16522890000002,0
0.47,-8.68,352.89,595.450012207,-35.363253799999995,149.16522880000002,0
0.51,-8.82,352.89,595.4699707030001,-35.3632528,149.16522869999997,0
0.67,-9.03,352.99,595.479980469,-35.3632518,149.16522859999998,0
0.76,-9.35,353.46,595.5,-35.3632506,149.1652284,0
0.66,-9.78,354.3,595.5100097659999,-35.3632494,149.1652284,0
0.35,-10.24,355.31,595.520019531,-35.3632481,149.1652283,0
-0.07,-10.68,356.33,595.5300292969999,-35.3632467,149.1652283,0
-0.5,-11.1,357.21,595.539978027,-35.3632452,149.1652282,0
-0.85,-11.49,357.86,595.549987793,-35.3632438,149.16522790000002,0
-1.07,-11.85,358.21,595.5599975590001,-35.3632421,149.16522790000002,0
-1.14,-12.22,358.29,595.570007324,-35.363240399999995,149.16522780000003,0
-1.08,-12.61,358.13,595.58001709,-35.3632386,149.1652275,0
-0.89,-12.99,357.78,595.590026855,-35.363236799999996,149.1652274,0
-0.64,-13.36,357.31,595.599975586,-35.3632349,149.16522719999998,0
-0.37,-13.74,356.81,595.609985352,-35.363233,149.16522690000002,0
-0.12,-14.13,356.33,595.6199951169999,-35.3632309,149.16522680000003,0
0.09,-14.51,355.92,595.6300048830001,-35.3632287,149.1652265,0
0.24,-14.8,355.62,595.640014648,-35.363226399999995,149.1652264,0
0.32,-15.02,355.44,595.659973145,-35.363224200000005,149.165226,0
0.32,-15.16,355.38,595.66998291,-35.3632216,149.1652259,0
0.24,-15.26,355.42,595.679992676,-35.3632193,149.1652256,0
0.13,-15.33,355.54,595.6900024409999,-35.3632166,149.1652254,0
0.01,-15.4,355.71,595.710021973,-35.363214,149.1652251,0
-0.09,-15.47,355.89,595.7199707030001,-35.3632112,149.1652249,0
-0.17,-15.57,356.06,595.729980469,-35.3632085,149.16522460000002,0
-0.22,-15.67,356.21,595.75,-35.3632057,149.1652244,0
-0.25,-15.76,356.31,595.7600097659999,-35.3632027,149.1652241,0
-0.26,-15.85,356.37,595.770019531,-35.3631997,149.1652239,0
-0.27,-15.92,356.38,595.7800292969999,-35.3631968,149.1652236,0
-0.26,-15.98,356.35,595.799987793,-35.363193599999995,149.16522319999999,0
-0.24,-16.04,356.29,595.8099975590001,-35.3631905,149.165223,0
-0.21,-16.12,356.21,595.83001709,-35.3631874,149.1652226,0
-0.17,-16.2,356.13,595.840026855,-35.3631842,149.1652224,0
-0.13,-16.27,356.05,595.849975586,-35.363181,149.1652221,0
-0.08,-16.32,355.98,595.8699951169999,-35.3631777,149.1652217,0
-0.03,-16.36,355.93,595.8800048830001,-35.3631743,149.1652214,0
0.0,-16.38,355.9,595.890014648,-35.3631709,149.1652211,0
0.0,-16.39,355.88,595.909973145,-35.3631674,149.1652207,0
0.0,-16.42,355.88,595.91998291,-35.363164000000005,149.1652205,0
-0.02,-16.45,355.9,595.9400024409999,-35.3631605,149.1652201,0
-0.04,-16.48,355.92,595.950012207,-35.363157,149.16521980000002,0
-0.07,-16.51,355.94,595.9699707030001,-35.3631534,149.1652195,0
-0.1,-16.56,355.97,595.979980469,-35.3631497,149.1652191,0
-0.12,-16.63,355.98,596.0,-35.3631461,149.16521880000002,0
-0.1,-16.68,355.99,596.0100097659999,-35.3631425,149.16521840000001,0
-0.08,-16.73,355.99,596.0300292969999,-35.363138799999994,149.16521809999998,0
-0.06,-16.75,355.99,596.039978027,-35.3631351,149.1652178,0
-0.06,-16.77,355.97,596.0599975590001,-35.3631315,149.16521740000002,0
-0.08,-16.78,355.96,596.070007324,-35.3631277,149.16521709999998,0
-0.09,-16.79,355.94,596.090026855,-35.3631239,149.1652167,0
-0.09,-16.81,355.92,596.099975586,-35.36312,149.16521640000002,0
-0.09,-16.87,355.9,596.1199951169999,-35.363116299999994,149.1652159,0
-0.1,-16.93,355.88,596.1300048830001,-35.3631125,149.16521550000002,0
-0.11,-16.98,355.86,596.150024414,-35.3631085,149.16521530000003,0
-0.1,-16.99,355.84,596.159973145,-35.3631047,149.1652149,0
-0.07,-17.01,355.83,596.179992676,-35.3631009,149.1652145,0
-0.05,-17.01,355.81,596.1900024409999,-35.363096899999995,149.1652141,0
-0.04,-17.0,355.8,596.210021973,-35.36309310000001,149.1652138,0
-0.02,-17.0,355.79,596.229980469,-35.363089,149.1652135,0
-0.01,-17.02,355.79,596.2399902340001,-35.3630852,149.16521310000002,0
0.0,-17.05,355.78,596.2600097659999,-35.363081099999995,149.1652126,0
0.0,-17.09,355.77,596.270019531,-35.363077200000006,149.1652123,0
0.0,-17.12,355.77,596.289978027,-35.3630731,149.16521200000003,0
0.01,-17.18,355.76,596.299987793,-35.363069200000005,149.1652116,0
0.02,-17.24,355.76,596.320007324,-35.3630652,149.1652111,0
0.02,-17.27,355.75,596.33001709,-35.363061200000004,149.1652109,0
0.01,-17.27,355.74,596.349975586,-35.36305720000001,149.1652105,0
0.02,-17.26,355.74,596.359985352,-35.3630531,149.1652101,0
0.04,-17.27,355.73,596.3800048830001,-35.3630489,149.1652097,0
0.06,-17.31,355.72,596.390014648,-35.363045,149.16520930000001,0
0.06,-17.34,355.71,596.409973145,-35.3630409,149.165209,0
0.03,-17.36,355.7,596.41998291,-35.3630367,149.1652086,0
0.0,-17.36,355.69,596.4400024409999,-35.363032700000005,149.1652082,0
0.0,-17.36,355.68,596.450012207,-35.3630286,149.16520780000002,0
0.02,-17.35,355.67,596.4699707030001,-35.3630244,149.1652074,0
0.05,-17.38,355.66,596.479980469,-35.36302020000001,149.1652071,0
0.07,-17.41,355.65,596.5,-35.3630161,149.16520669999997,0
0.08,-17.45,355.64,596.5100097659999,-35.363012,149.1652063,0
0.09,-17.47,355.63,596.5300292969999,-35.3630079,149.16520590000002,0
0.09,-17.48,355.62,596.539978027,-35.3630037,149.16520559999998,0
0.09,-17.5,355.61,596.5599975590001,-35.3629995,149.1652052,0
0.1,-17.51,355.6,596.58001709,-35.3629953,149.16520480000003,0
0.1,-17.52,355.59,596.590026855,-35.3629911,149.1652044,0
0.1,-17.55,355.59,596.609985352,-35.3629869,149.16520400000002,0
0.11,-17.6,355.58,596.6199951169999,-35.3629828,149.1652035,0
0.11,-17.64,355.57,596.640014648,-35.362978600000005,149.1652033,0
0.09,-17.66,355.56,596.650024414,-35.3629744,149.1652029,0
0.05,-17.67,355.56,596.66998291,-35.36297020000001,149.1652025,0
0.02,-17.68,355.55,596.679992676,-35.362966,149.165202,0
0.03,-17.69,355.54,596.700012207,-35.3629617,149.1652016,0
0.05,-17.7,355.53,596.710021973,-35.3629575,149.1652013,0
0.07,-17.72,355.52,596.729980469,-35.3629532,149.165201,0
0.09,-17.72,355.51,596.7399902340001,-35.362949,149.1652006,0
0.1,-17.73,355.5,596.7600097659999,-35.36294470000001,149.1652001,0
0.11,-17.73,355.49,596.770019531,-35.3629405,149.1651997,0
0.1,-17.75,355.48,596.789978027,-35.3629362,149.1651994,0
0.07,-17.78,355.47,596.8099975590001,-35.362932,149.165199,0
0.04,-17.8,355.45,596.820007324,-35.3629277,149.1651986,0
0.03,-17.81,355.45,596.840026855,-35.3629234,149.1651982,0
0.02,-17.83,355.44,596.849975586,-35.3629191,149.1651977,0
0.03,-17.85,355.43,596.8699951169999,-35.3629148,149.16519730000002,0
0.05,-17.86,355.42,596.8800048830001,-35.362910600000006,149.165197,0
0.06,-17.86,355.41,596.900024414,-35.3629063,149.1651966,0
0.06,-17.88,355.4,596.909973145,-35.362902000000005,149.16519630000002,0
0.06,-17.88,355.4,596.929992676,-35.362897499999995,149.16519580000002,0
0.05,-17.89,355.39,596.9400024409999,-35.3628932,149.16519540000002,0
0.06,-17.91,355.38,596.960021973,-35.362888899999994,149.16519509999998,0
0.1,-17.95,355.37,596.9699707030001,-35.3628846,149.1651946,0
0.14,-17.95,355.36,596.9899902340001,-35.3628804,149.16519419999997,0
0.17,-17.92,355.36,597.0,-35.362876,149.1651938,0
0.18,-17.9,355.35,597.020019531,-35.3628717,149.16519340000002,0
0.16,-17.91,355.34,597.0300292969999,-35.3628674,149.1651929,0
0.13,-17.96,355.34,597.049987793,-35.362863,149.16519250000002,0
0.11,-18.0,355.33,597.0599975590001,-35.3628586,149.16519219999998,0
0.11,-18.02,355.33,597.08001709,-35.3628542,149.1651918,0
0.11,-18.01,355.33,597.099975586,-35.36285,149.1651914,0
0.1,-17.99,355.33,597.109985352,-35.3628456,149.165191,0
0.08,-17.97,355.33,597.1300048830001,-35.36284129999999,149.1651906,0
0.09,-17.94,355.33,597.140014648,-35.3628369,149.1651901,0
0.1,-17.93,355.32,597.159973145,-35.362832399999995,149.1651898,0
0.09,-17.94,355.32,597.16998291,-35.3628281,149.1651894,0
0.08,-17.96,355.31,597.1900024409999,-35.362823799999994,149.165189,0
0.07,-17.97,355.3,597.200012207,-35.3628195,149.1651886,0
0.06,-17.97,355.29,597.2199707030001,-35.3628151,149.1651882,0
0.04,-17.97,355.29,597.229980469,-35.362810700000004,149.1651877,0
0.02,-17.99,355.28,597.25,-35.3628062,149.1651873,0
0.02,-18.03,355.27,597.2600097659999,-35.362801899999994,149.165187,0
0.03,-18.05,355.26,597.2800292969999,-35.3627976,149.1651866,0
0.04,-18.05,355.25,597.289978027,-35.362793200000006,149.1651862,0
0.07,-18.06,355.24,597.3099975590001,-35.3627888,149.1651858,0
0.1,-18.06,355.24,597.320007324,-35.3627843,149.16518530000002,0
0.11,-18.06,355.23,597.340026855,-35.36278,149.16518480000002,0
0.12,-18.06,355.22,597.349975586,-35.3627756,149.16518440000002,0
0.11,-18.06,355.22,597.3699951169999,-35.362771200000005,149.1651841,0
0.11,-18.09,355.22,597.390014648,-35.3627667,149.16518369999997,0
0.1,-18.1,355.22,597.400024414,-35.3627624,149.16518330000002,0
0.08,-18.1,355.22,597.41998291,-35.362758,149.16518290000002,0
0.06,-18.09,355.22,597.429992676,-35.362753600000005,149.1651824,0
0.07,-18.08,355.22,597.450012207,-35.3627491,149.16518190000002,0
0.09,-18.06,355.22,597.460021973,-35.362744799999994,149.1651815,0
0.12,-18.07,355.22,597.479980469,-35.3627404,149.16518119999998,0
0.11,-18.1,355.22,597.4899902340001,-35.362736,149.16518080000003,0
0.11,-18.14,355.21,597.5100097659999,-35.3627315,149.1651804,0
0.12,-18.16,355.21,597.5300292969999,-35.3627271,149.16518,0
0.14,-18.16,355.2,597.539978027,-35.3627227,149.1651795,0
0.15,-18.17,355.2,597.5599975590001,-35.3627183,149.1651791,0
0.15,-18.17,355.2,597.570007324,-35.362713799999995,149.1651786,0
0.16,-18.15,355.2,597.590026855,-35.362709499999994,149.16517819999999,0
0.16,-18.13,355.2,597.599975586,-35.362705,149.1651779,0
0.16,-18.11,355.2,597.6199951169999,-35.3627005,149.1651775,0
0.16,-18.11,355.19,597.6300048830001,-35.3626961,149.165177,0
0.18,-18.14,355.19,597.650024414,-35.3626917,149.1651766,0
0.2,-18.17,355.19,597.659973145,-35.3626873,149.1651762,0
0.21,-18.17,355.19,597.679992676,-35.362682799999995,149.1651757,0
0.2,-18.15,355.19,597.6900024409999,-35.3626784,149.16517530000002,0
0.18,-18.13,355.19,597.710021973,-35.362674,149.165175,0
0.18,-18.13,355.19,597.7199707030001,-35.362669399999994,149.1651746,0
0.16,-18.14,355.19,597.7399902340001,-35.3626651,149.1651742,0
0.15,-18.16,355.19,597.75,-35.3626607,149.1651737,0
0.15,-18.16,355.19,597.770019531,-35.362656099999995,149.1651733,0
0.17,-18.15,355.18,597.7800292969999,-35.362651799999995,149.16517280000002,0
0.19,-18.13,355.18,597.799987793,-35.3626473,149.16517240000002,0
0.2,-18.12,355.18,597.8099975590001,-35.3626429,149.16517209999998,0
0.21,-18.13,355.17,597.83001709,-35.362638399999994,149.1651717,0
0.21,-18.14,355.17,597.840026855,-35.362634,149.16517130000003,0
0.19,-18.15,355.16,597.859985352,-35.362629600000005,149.1651709,0
0.18,-18.15,355.16,597.8699951169999,-35.362625,149.16517040000002,0
0.2,-18.13,355.16,597.890014648,-35.36262070000001,149.16517,0
0.21,-18.13,355.16,597.900024414,-35.3626162,149.16516969999998,0
0.2,-18.16,355.15,597.91998291,-35.3626117,149.16516909999999,0
0.19,-18.19,355.15,597.929992676,-35.3626073,149.1651688,0
0.19,-18.21,355.15,597.950012207,-35.3626029,149.1651684,0
0.21,-18.21,355.14,597.960021973,-35.3625985,149.165168,0
0.24,-18.2,355.14,597.979980469,-35.362594,149.1651676,0
0.26,-18.2,355.13,597.9899902340001,-35.3625896,149.1651671,0
0.26,-18.2,355.13,598.0100097659999,-35.362584999999996,149.1651667,0
0.25,-18.2,355.13,598.020019531,-35.3625806,149.1651664,0
0.25,-18.2,355.13,598.039978027,-35.36257620000001,149.165166,0
0.23,-18.19,355.12,598.049987793,-35.3625716,149.1651655,0
0.23,-18.2,355.12,598.0599975590001,-35.3625672,149.1651651,0
0.23,-18.22,355.12,598.08001709,-35.3625628,149.1651647,0
0.19,-18.24,355.12,598.090026855,-35.3625584,149.1651642,0
0.17,-18.24,355.11,598.109985352,-35.3625539,149.16516380000002,0
0.16,-18.22,355.11,598.1199951169999,-35.3625495,149.1651635,0
0.16,-18.2,355.1,598.140014648,-35.362545000000004,149.1651631,0
0.18,-18.19,355.1,598.150024414,-35.3625405,149.1651627,0
0.22,-18.19,355.09,598.16998291,-35.3625361,149.16516230000002,0
0.25,-18.21,355.09,598.179992676,-35.3625315,149.1651618,0
0.26,-18.24,355.08,598.200012207,-35.3625271,149.16516140000002,0
0.24,-18.25,355.08,598.210021973,-35.3625227,149.1651611,0
0.19,-18.24,355.08,598.229980469,-35.3625183,149.16516059999998,0
0.17,-18.22,355.07,598.2399902340001,-35.36251370000001,149.1651602,0
0.17,-18.2,355.07,598.2600097659999,-35.3625093,149.16515980000003,0
0.16,-18.18,355.07,598.270019531,-35.3625049,149.1651594,0
0.16,-18.17,355.06,598.2800292969999,-35.362500399999995,149.16515900000002,0
0.17,-18.19,355.06,598.299987793,-35.3624959,149.1651585,0
0.17,-18.23,355.05,598.3099975590001,-35.362491299999995,149.1651581,0
0.16,-18.27,355.05,598.33001709,-35.362487,149.16515780000003,0
0.15,-18.28,355.04,598.340026855,-35.3624825,149.1651574,0
0.14,-18.27,355.04,598.359985352,-35.362477899999995,149.165157,0
0.13,-18.25,355.03,598.3699951169999,-35.3624736,149.1651566,0
0.11,-18.24,355.03,598.390014648,-35.3624691,149.1651561,0
0.09,-18.23,355.02,598.400024414,-35.3624645,149.16515569999999,0
0.09,-18.21,355.02,598.41998291,-35.3624602,149.1651552,0
0.11,-18.2,355.01,598.429992676,-35.362455700000005,149.1651549,0
0.15,-18.2,355.01,598.4400024409999,-35.3624511,149.1651545,0
0.19,-18.2,355.0,598.460021973,-35.3624468,149.1651541,0
0.23,-18.22,354.99,598.4699707030001,-35.3624423,149.1651537,0
0.26,-18.24,354.99,598.4899902340001,-35.3624377,149.1651532,0
0.26,-18.23,354.99,598.5,-35.3624334,149.16515269999996,0
0.26,-18.21,354.98,598.520019531,-35.3624289,149.16515230000002,0
0.23,-18.19,354.98,598.5300292969999,-35.3624244,149.165152,0
0.19,-18.18,354.99,598.549987793,-35.3624199,149.16515159999997,0
0.15,-18.18,354.99,598.5599975590001,-35.362415500000004,149.1651512,0
0.14,-18.18,355.0,598.58001709,-35.362411,149.1651507,0
0.16,-18.21,355.0,598.590026855,-35.3624065,149.1651503,0
0.16,-18.25,355.0,598.609985352,-35.362401899999995,149.16514990000002,0
0.15,-18.26,355.0,598.6300048830001,-35.3623976,149.1651494,0
0.17,-18.27,355.0,598.640014648,-35.362393100000006,149.16514890000002,0
0.18,-18.28,355.0,598.659973145,-35.3623885,149.16514850000002,0
0.19,-18.29,354.99,598.66998291,-35.3623842,149.16514819999998,0
0.2,-18.3,354.99,598.6900024409999,-35.362379700000005,149.1651478,0
0.21,-18.3,354.99,598.700012207,-35.3623751,149.16514740000002,0
0.22,-18.29,354.99,598.7199707030001,-35.3623708,149.1651469,0
0.23,-18.28,354.99,598.729980469,-35.36236629999999,149.16514650000002,0
0.23,-18.27,354.99,598.75,-35.3623617,149.165146,0
0.22,-18.23,354.99,598.7600097659999,-35.36235739999999,149.1651456,0
0.19,-18.21,354.99,598.7800292969999,-35.3623529,149.16514530000003,0
0.16,-18.21,354.99,598.789978027,-35.3623484,149.1651448,0
0.14,-18.23,355.0,598.8099975590001,-35.3623439,149.1651444,0
0.14,-18.28,355.0,598.820007324,-35.362339500000004,149.165144,0
0.16,-18.31,355.0,598.840026855,-35.362334999999995,149.1651436,0
0.18,-18.33,354.99,598.849975586,-35.3623305,149.1651432,0
0.21,-18.32,354.99,598.8699951169999,-35.3623261,149.1651427,0
0.24,-18.3,354.99,598.8800048830001,-35.3623216,149.1651422,0
0.27,-18.27,354.99,598.900024414,-35.362317100000006,149.16514180000001,0
0.26,-18.23,354.99,598.909973145,-35.362312599999996,149.1651415,0
0.24,-18.19,354.99,598.929992676,-35.36230820000001,149.16514109999997,0
0.23,-18.16,354.99,598.9400024409999,-35.3623037,149.1651406,0
0.23,-18.15,354.99,598.960021973,-35.3622991,149.16514019999997,0
0.24,-18.17,354.99,598.9699707030001,-35.36229470000001,149.1651398,0
0.23,-18.18,354.99,598.9899902340001,-35.3622903,149.16513930000002,0
0.22,-18.19,354.99,599.0,-35.3622857,149.1651389,0
0.2,-18.21,355.0,599.020019531,-35.3622813,149.1651386,0
0.2,-18.21,355.0,599.0300292969999,-35.3622767,149.1651381,0
0.19,-18.2,355.0,599.049987793,-35.3622724,149.16513769999997,0
0.19,-18.21,355.0,599.070007324,-35.3622679,149.16513730000003,0
0.19,-18.23,355.0,599.08001709,-35.362263299999995,149.1651369,0
0.19,-18.26,355.0,599.099975586,-35.362259,149.1651365,0
0.17,-18.31,354.99,599.109985352,-35.3622545,149.16513600000002,0
0.18,-18.32,354.99,599.1300048830001,-35.3622499,149.16513559999999,0
0.19,-18.32,354.99,599.140014648,-35.3622455,149.16513510000001,0
0.19,-18.3,354.99,599.159973145,-35.362241100000006,149.16513480000003,0
0.2,-18.27,354.99,599.16998291,-35.3622365,149.1651344,0
0.22,-18.23,354.99,599.1900024409999,-35.3622321,149.165134,0
0.24,-18.2,354.99,599.200012207,-35.362227600000004,149.1651336,0
0.25,-18.19,354.98,599.2199707030001,-35.3622231,149.1651331,0
0.24,-18.2,354.98,599.229980469,-35.36221870000001,149.1651326,0
0.22,-18.25,354.98,599.25,-35.3622141,149.1651322,0
0.21,-18.3,354.98,599.2600097659999,-35.3622097,149.1651319,0
0.21,-18.33,354.98,599.2800292969999,-35.36220529999999,149.1651315,0
0.23,-18.34,354.98,599.289978027,-35.3622007,149.1651311,0
0.25,-18.36,354.98,599.3099975590001,-35.3621963,149.1651307,0
0.27,-18.36,354.98,599.320007324,-35.3621918,149.1651302,0
0.28,-18.34,354.97,599.340026855,-35.362187299999995,149.16512980000002,0
0.27,-18.29,354.97,599.349975586,-35.36218289999999,149.16512930000002,0
0.26,-18.24,354.97,599.3699951169999,-35.3621784,149.165129,0
0.25,-18.21,354.97,599.3800048830001,-35.3621739,149.16512859999997,0
0.24,-18.21,354.97,599.400024414,-35.3621694,149.1651282,0
0.25,-18.24,354.98,599.409973145,-35.362165000000005,149.16512780000002,0
0.26,-18.27,354.98,599.429992676,-35.3621605,149.1651274,0
0.24,-18.29,354.98,599.4400024409999,-35.362156,149.16512690000002,0
0.22,-18.31,354.97,599.460021973,-35.362151399999995,149.1651264,0
0.22,-18.31,354.97,599.4699707030001,-35.362147,149.16512600000001,0
0.21,-18.28,354.97,599.4899902340001,-35.362142600000006,149.1651257,0
0.2,-18.25,354.97,599.5,-35.362138,149.1651253,0
0.19,-18.24,354.97,599.520019531,-35.3621336,149.1651249,0
0.19,-18.25,354.97,599.5300292969999,-35.362129100000004,149.16512450000002,0
0.19,-18.27,354.96,599.549987793,-35.3621246,149.165124,0
0.19,-18.28,354.96,599.5599975590001,-35.3621201,149.16512350000002,0
0.19,-18.3,354.96,599.58001709,-35.3621155,149.1651231,0
0.18,-18.32,354.95,599.590026855,-35.3621112,149.1651228,0
0.19,-18.33,354.95,599.609985352,-35.362106700000005,149.16512240000003,0
0.21,-18.33,354.95,599.6199951169999,-35.3621021,149.165122,0
0.25,-18.32,354.94,599.640014648,-35.3620977,149.1651216,0
0.27,-18.28,354.94,599.650024414,-35.3620931,149.1651211,0
0.26,-18.25,354.94,599.66998291,-35.36208870000001,149.1651207,0
0.23,-18.24,354.94,599.679992676,-35.3620843,149.1651202,0
0.21,-18.25,354.94,599.700012207,-35.3620797,149.1651198,0
0.19,-18.25,354.94,599.710021973,-35.362075299999994,149.1651195,0
0.18,-18.29,354.94,599.729980469,-35.3620708,149.1651191,0
0.2,-18.35,354.94,599.7399902340001,-35.362066299999995,149.1651187,0
0.24,-18.38,354.94,599.7600097659999,-35.3620619,149.16511830000002,0
0.27,-18.38,354.94,599.770019531,-35.3620574,149.16511780000002,0
0.3,-18.36,354.94,599.789978027,-35.362052899999995,149.16511730000002,0
0.32,-18.34,354.94,599.799987793,-35.3620485,149.1651169,0
0.3,-18.31,354.94,599.820007324,-35.362044,149.1651166,0
0.27,-18.28,354.94,599.83001709,-35.3620395,149.16511619999997,0
0.24,-18.25,354.94,599.840026855,-35.362035,149.1651158,0
0.2,-18.22,354.94,599.859985352,-35.3620304,149.16511540000002,0
0.18,-18.21,354.94,599.8699951169999,-35.362026,149.1651149,0
0.18,-18.22,354.94,599.890014648,-35.362021500000004,149.16511440000002,0
0.22,-18.25,354.94,599.900024414,-35.362017,149.165114,0
0.26,-18.31,354.94,599.91998291,-35.3620125,149.16511369999998,0
0.27,-18.38,354.94,599.929992676,-35.362007899999995,149.1651133,0
0.26,-18.36,354.93,599.950012207,-35.3620035,149.1651129,0
0.25,-18.3,354.93,599.960021973,-35.361999100000006,149.1651125,0
0.22,-18.23,354.93,599.9699707030001,-35.3619945,149.16511200000002,0
0.18,-18.18,354.92,599.9899902340001,-35.3619901,149.1651116,0
0.16,-18.18,354.92,600.0,-35.361985600000004,149.1651111,0
0.16,-18.2,354.91,600.020019531,-35.3619811,149.16511069999999,0
0.16,-18.23,354.91,600.0300292969999,-35.3619766,149.1651104,0
0.14,-18.26,354.91,600.049987793,-35.361971999999994,149.16511,0
0.15,-18.26,354.91,600.0599975590001,-35.36196760000001,149.1651096,0
0.18,-18.28,354.9,600.08001709,-35.361963,149.1651092,0
0.22,-18.3,354.9,600.090026855,-35.3619586,149.1651087,0
0.24,-18.29,354.9,600.109985352,-35.3619542,149.1651083,0
0.25,-18.29,354.9,600.1199951169999,-35.3619496,149.16510780000002,0
0.25,-18.33,354.91,600.140014648,-35.36194520000001,149.1651075,0
0.25,-18.35,354.91,600.150024414,-35.3619407,149.1651071,0
0.24,-18.34,354.91,600.16998291,-35.3619361,149.16510669999997,0
0.24,-18.27,354.91,600.179992676,-35.36193170000001,149.16510630000002,0
0.23,-18.18,354.91,600.200012207,-35.3619271,149.16510580000002,0
0.22,-18.13,354.91,600.210021973,-35.3619227,149.1651053,0
0.22,-18.14,354.91,600.229980469,-35.3619183,149.16510490000002,0
0.2,-18.22,354.91,600.2399902340001,-35.3619137,149.16510459999998,0
0.21,-18.32,354.91,600.2600097659999,-35.3619093,149.1651042,0
0.21,-18.39,354.91,600.270019531,-35.3619049,149.16510380000003,0
0.21,-18.4,354.91,600.289978027,-35.361900299999995,149.1651034,0
0.22,-18.37,354.91,600.299987793,-35.3618959,149.16510290000002,0
0.22,-18.34,354.91,600.320007324,-35.3618914,149.1651025,0
0.2,-18.28,354.91,600.33001709,-35.3618869,149.165102,0
0.17,-18.2,354.91,600.340026855,-35.3618825,149.16510159999999,0
0.15,-18.15,354.92,600.359985352,-35.361878000000004,149.1651013,0
0.17,-18.17,354.92,600.3699951169999,-35.3618735,149.1651009,0
0.19,-18.23,354.92,600.390014648,-35.361869,149.1651005,0
0.21,-18.27,354.92,600.400024414,-35.3618645,149.1651,0
0.21,-18.3,354.91,600.41998291,-35.3618601,149.1650996,0
0.2,-18.31,354.91,600.429992676,-35.361855600000005,149.1650991,0
0.17,-18.3,354.91,600.450012207,-35.361851,149.1650987,0
0.14,-18.28,354.91,600.460021973,-35.3618467,149.1650984,0
0.13,-18.27,354.91,600.4699707030001,-35.361842200000005,149.165098,0
0.15,-18.24,354.91,600.4899902340001,-35.3618376,149.1650975,0
0.18,-18.22,354.91,600.5,-35.36183320000001,149.1650971,0
0.2,-18.22,354.91,600.520019531,-35.3618286,149.1650967,0
0.24,-18.24,354.91,600.5300292969999,-35.3618242,149.1650962,0
0.25,-18.26,354.91,600.549987793,-35.3618198,149.16509580000002,0
0.23,-18.28,354.91,600.5599975590001,-35.3618152,149.16509530000002,0
0.21,-18.3,354.92,600.58001709,-35.36181079999999,149.1650949,0
0.2,-18.32,354.93,600.590026855,-35.3618064,149.1650946,0
0.21,-18.32,354.93,600.599975586,-35.361801799999995,149.16509419999997,0
0.24,-18.3,354.93,600.6199951169999,-35.3617974,149.16509380000002,0
0.28,-18.28,354.94,600.6300048830001,-35.3617929,149.16509330000002,0
0.31,-18.26,354.94,600.650024414,-35.361788399999995,149.1650929,0
0.32,-18.26,354.94,600.659973145,-35.361784,149.16509240000002,0
0.3,-18.28,354.95,600.679992676,-35.3617795,149.165092,0
0.26,-18.29,354.95,600.6900024409999,-35.361775,149.16509150000002,0
0.24,-18.28,354.95,600.710021973,-35.3617706,149.16509119999998,0
0.24,-18.23,354.96,600.7199707030001,-35.361765999999996,149.1650908,0
0.25,-18.19,354.96,600.729980469,-35.3617616,149.1650904,0
0.26,-18.2,354.96,600.75,-35.3617571,149.16509,0
0.27,-18.24,354.96,600.7600097659999,-35.3617525,149.1650895,0
0.26,-18.27,354.96,600.7800292969999,-35.3617481,149.1650891,0
0.24,-18.28,354.97,600.789978027,-35.3617435,149.1650886,0
0.22,-18.27,354.97,600.8099975590001,-35.3617391,149.16508819999999,0
0.2,-18.26,354.97,600.820007324,-35.3617347,149.1650879,0
0.18,-18.27,354.97,600.840026855,-35.3617301,149.1650875,0
0.17,-18.3,354.97,600.849975586,-35.3617257,149.1650871,0
0.16,-18.32,354.97,600.8699951169999,-35.3617213,149.1650867,0
0.17,-18.33,354.97,600.8800048830001,-35.3617167,149.1650862,0
0.17,-18.32,354.97,600.890014648,-35.36171229999999,149.1650857,0
0.16,-18.29,354.96,600.909973145,-35.3617079,149.16508530000002,0
0.16,-18.26,354.96,600.91998291,-35.3617033,149.165085,0
0.16,-18.25,354.96,600.9400024409999,-35.3616989,149.1650846,0
0.13,-18.26,354.96,600.950012207,-35.3616944,149.1650842,0
0.11,-18.28,354.95,600.9699707030001,-35.361689899999995,149.16508380000002,0
0.11,-18.3,354.95,600.979980469,-35.3616855,149.16508330000002,0
0.15,-18.3,354.95,601.0,-35.361681,149.16508280000002,0
0.2,-18.28,354.95,601.0100097659999,-35.3616765,149.1650824,0
0.21,-18.25,354.95,601.0300292969999,-35.361672,149.1650821,0
0.19,-18.22,354.95,601.039978027,-35.3616674,149.16508169999997,0
0.16,-18.2,354.95,601.0599975590001,-35.3616631,149.1650812,0
0.12,-18.2,354.96,601.070007324,-35.3616586,149.16508080000003,0
0.11,-18.24,354.96,601.090026855,-35.361653999999994,149.1650804,0
0.12,-18.28,354.96,601.099975586,-35.36164960000001,149.16508000000002,0
0.13,-18.32,354.97,601.1199951169999,-35.361645,149.1650795,0
0.13,-18.33,354.97,601.1300048830001,-35.3616406,149.165079,0
0.13,-18.31,354.97,601.150024414,-35.3616362,149.1650786,0
0.1,-18.26,354.97,601.159973145,-35.3616316,149.1650783,0
0.08,-18.19,354.97,601.179992676,-35.36162720000001,149.1650778,0
0.09,-18.11,354.98,601.1900024409999,-35.3616227,149.1650774,0
0.12,-18.06,354.98,601.210021973,-35.3616181,149.165077,0
0.17,-18.09,354.98,601.2199707030001,-35.36161370000001,149.1650765,0
0.2,-18.2,354.98,601.2399902340001,-35.3616093,149.1650761,0
0.21,-18.31,354.99,601.25,-35.3616047,149.1650757,0
0.22,-18.37,355.0,601.270019531,-35.3616003,149.1650752,0
0.22,-18.39,355.01,601.2800292969999,-35.3615957,149.1650747,0
0.2,-18.36,355.01,601.299987793,-35.3615914,149.16507430000001,0
0.18,-18.33,355.02,601.3099975590001,-35.3615869,149.165074,0
0.17,-18.31,355.03,601.33001709,-35.361582299999995,149.1650735,0
0.16,-18.29,355.03,601.340026855,-35.3615779,149.1650731,0
0.19,-18.27,355.04,601.359985352,-35.3615735,149.1650727,0
0.22,-18.22,355.04,601.3699951169999,-35.3615689,149.16507230000002,0
0.25,-18.13,355.05,601.390014648,-35.3615645,149.16507180000002,0
0.26,-18.06,355.05,601.400024414,-35.36156,149.16507130000002,0
0.23,-18.09,355.05,601.41998291,-35.3615555,149.1650709,0
0.22,-18.2,355.06,601.429992676,-35.361551,149.1650706,0
0.21,-18.32,355.06,601.450012207,-35.361546399999995,149.16507,0
0.22,-18.39,355.07,601.460021973,-35.3615421,149.1650697,0
0.23,-18.4,355.07,601.479980469,-35.3615376,149.16506930000003,0
0.23,-18.35,355.07,601.4899902340001,-35.361533,149.1650689,0
0.21,-18.3,355.07,601.5100097659999,-35.3615286,149.16506850000002,0
0.17,-18.28,355.07,601.520019531,-35.361524200000005,149.165068,0
0.15,-18.28,355.07,601.539978027,-35.3615196,149.1650675,0
0.16,-18.29,355.07,601.549987793,-35.3615152,149.1650671,0
0.18,-18.29,355.07,601.570007324,-35.3615106,149.1650668,0
0.22,-18.28,355.07,601.58001709,-35.3615062,149.1650664,0
0.25,-18.28,355.07,601.599975586,-35.3615018,149.165066,0
0.25,-18.28,355.07,601.609985352,-35.3614972,149.1650655,0
0.23,-18.28,355.07,601.6300048830001,-35.36149279999999,149.1650651,0
0.21,-18.27,355.07,601.640014648,-35.3614884,149.1650646,0
0.17,-18.26,355.08,601.659973145,-35.3614838,149.1650642,0
0.14,-18.25,355.08,601.66998291,-35.3614794,149.1650639,0
0.13,-18.25,355.09,601.6900024409999,-35.361474900000005,149.1650635,0
0.14,-18.24,355.09,601.700012207,-35.361470399999995,149.1650631,0
0.16,-18.21,355.09,601.7199707030001,-35.3614659,149.1650627,0
0.2,-18.19,355.09,601.729980469,-35.361461299999995,149.1650622,0
0.23,-18.17,355.09,601.75,-35.36145689999999,149.1650618,0
0.23,-18.18,355.09,601.7600097659999,-35.3614524,149.16506130000002,0
0.23,-18.21,355.09,601.7800292969999,-35.3614479,149.16506090000001,0
0.22,-18.23,355.08,601.789978027,-35.3614435,149.1650606,0
0.2,-18.28,355.08,601.8099975590001,-35.361439000000004,149.1650602,0
0.18,-18.32,355.08,601.83001709,-35.361434499999994,149.16505980000002,0
0.17,-18.34,355.08,601.840026855,-35.36143,149.16505940000002,0
0.15,-18.33,355.08,601.859985352,-35.3614255,149.16505890000002,0
0.13,-18.3,355.08,601.8699951169999,-35.3614211,149.1650585,0
0.12,-18.25,355.08,601.890014648,-35.361416600000005,149.16505800000002,0
0.14,-18.22,355.08,601.900024414,-35.361412,149.16505769999998,0
0.17,-18.21,355.08,601.91998291,-35.36140770000001,149.1650573,0
0.19,-18.22,355.08,601.929992676,-35.3614032,149.16505690000002,0
0.21,-18.24,355.08,601.950012207,-35.3613986,149.1650565,0
0.21,-18.27,355.08,601.960021973,-35.36139420000001,149.165056,0
0.2,-18.29,355.07,601.979980469,-35.3613898,149.1650556,0
0.17,-18.28,355.07,601.9899902340001,-35.3613852,149.1650553,0
0.14,-18.25,355.07,602.0100097659999,-35.3613808,149.1650548,0
0.13,-18.22,355.07,602.020019531,-35.3613762,149.1650544,0
0.13,-18.22,355.07,602.039978027,-35.3613718,149.165054,0
0.13,-18.23,355.07,602.049987793,-35.3613674,149.1650536,0
0.16,-18.25,355.07,602.070007324,-35.361362799999995,149.1650532,0
0.2,-18.28,355.07,602.08001709,-35.3613584,149.1650527,0
0.22,-18.29,355.07,602.099975586,-35.3613539,149.1650522,0
0.21,-18.3,355.07,602.109985352,-35.3613494,149.16505180000001,0
0.2,-18.31,355.07,602.1199951169999,-35.361345,149.16505149999998,0
0.19,-18.32,355.07,602.140014648,-35.361340500000004,149.1650511,0
0.19,-18.32,355.08,602.150024414,-35.361336,149.1650507,0
0.18,-18.29,355.08,602.16998291,-35.3613316,149.1650503,0
0.17,-18.25,355.08,602.179992676,-35.361327,149.16504980000002,0
0.15,-18.22,355.08,602.200012207,-35.3613226,149.1650493,0
0.14,-18.22,355.08,602.210021973,-35.3613182,149.16504890000002,0
0.13,-18.24,355.08,602.229980469,-35.3613136,149.1650486,0
0.13,-18.26,355.08,602.2399902340001,-35.3613092,149.16504819999997,0
0.14,-18.27,355.08,602.2600097659999,-35.361304700000005,149.16504780000002,0
0.16,-18.29,355.08,602.270019531,-35.3613002,149.16504740000002,0
0.15,-18.3,355.08,602.289978027,-35.3612958,149.1650469,0
0.14,-18.29,355.08,602.299987793,-35.3612913,149.16504650000002,0
0.14,-18.27,355.08,602.320007324,-35.3612867,149.165046,0
0.16,-18.26,355.08,602.33001709,-35.3612823,149.1650457,0
0.18,-18.26,355.08,602.349975586,-35.3612777,149.16504530000003,0
0.21,-18.26,355.08,602.359985352,-35.3612734,149.1650449,0
0.22,-18.26,355.08,602.3800048830001,-35.3612689,149.1650444,0
0.26,-18.27,355.09,602.390014648,-35.361264299999995,149.165044,0
0.29,-18.28,355.09,602.409973145,-35.361259999999994,149.1650436,0
0.31,-18.28,355.1,602.41998291,-35.3612555,149.1650431,0
0.29,-18.28,355.1,602.4400024409999,-35.361250899999995,149.1650426,0
0.25,-18.28,355.11,602.450012207,-35.3612465,149.1650422,0
0.22,-18.26,355.11,602.4699707030001,-35.361242100000005,149.1650419,0
0.2,-18.26,355.12,602.479980469,-35.3612375,149.1650415,0
0.17,-18.25,355.12,602.5,-35.3612331,149.1650411,0
0.15,-18.26,355.12,602.5100097659999,-35.361228499999996,149.1650407,0
0.15,-18.26,355.12,602.520019531,-35.3612241,149.16504019999996,0
0.18,-18.27,355.12,602.539978027,-35.36121970000001,149.16503980000002,0
0.21,-18.27,355.11,602.549987793,-35.3612151,149.16503930000002,0
0.23,-18.25,355.11,602.570007324,-35.3612107,149.16503899999998,0
0.21,-18.23,355.11,602.58001709,-35.361206200000005,149.1650386,0
0.17,-18.21,355.1,602.599975586,-35.3612017,149.1650382,0
0.16,-18.21,355.11,602.609985352,-35.3611973,149.1650378,0
0.16,-18.23,355.11,602.6300048830001,-35.3611928,149.16503740000002,0
0.16,-18.25,355.11,602.640014648,-35.3611882,149.1650369,0
0.17,-18.27,355.11,602.659973145,-35.3611838,149.16503640000002,0
0.17,-18.29,355.11,602.66998291,-35.3611794,149.16503600000001,0
0.14,-18.3,355.11,602.6900024409999,-35.3611749,149.16503569999998,0
0.12,-18.29,355.11,602.700012207,-35.3611704,149.1650353,0
0.11,-18.28,355.11,602.7199707030001,-35.3611658,149.16503490000002,0
0.13,-18.27,355.11,602.729980469,-35.3611615,149.1650345,0
0.15,-18.26,355.11,602.75,-35.361157,149.16503400000002,0
0.15,-18.27,355.11,602.7600097659999,-35.361152399999995,149.1650335,0
0.15,-18.28,355.11,602.7800292969999,-35.361148,149.1650331,0
0.15,-18.31,355.11,602.789978027,-35.3611436,149.16503280000003,0
0.16,-18.33,355.11,602.8099975590001,-35.361139,149.1650324,0
0.16,-18.35,355.11,602.820007324,-35.3611346,149.165032,0
0.15,-18.32,355.11,602.840026855,-35.361129999999996,149.1650316,0
0.13,-18.27,355.11,602.849975586,-35.3611256,149.1650311,0
0.12,-18.2,355.11,602.8699951169999,-35.36112120000001,149.1650307,0
0.1,-18.19,355.11,602.8800048830001,-35.3611166,149.1650302,0
0.11,-18.22,355.1,602.900024414,-35.3611122,149.1650298,0
0.13,-18.26,355.1,602.909973145,-35.361107700000005,149.1650295,0
0.13,-18.3,355.1,602.929992676,-35.3611032,149.1650291,0
0.12,-18.31,355.11,602.9400024409999,-35.36109879999999,149.16502869999997,0
0.12,-18.31,355.11,602.960021973,-35.3610943,149.1650282,0
0.12,-18.3,355.11,602.9699707030001,-35.36108970000001,149.16502780000002,0
0.12,-18.29,355.11,602.9899902340001,-35.36108529999999,149.1650273,0
0.13,-18.28,355.11,603.0,-35.3610809,149.16502690000002,0
0.13,-18.16,355.11,603.020019531,-35.361076399999995,149.16502659999998,0
0.14,-17.42,355.12,603.0300292969999,-35.3610719,149.1650261,0
0.17,-16.19,355.12,603.039978027,-35.361067299999995,149.1650257,0
0.19,-14.9,355.13,603.049987793,-35.361063,149.1650253,0
0.23,-13.85,355.14,603.070007324,-35.3610586,149.16502490000002,0
0.24,-13.12,355.15,603.08001709,-35.36105429999999,149.1650244,0
0.24,-12.65,355.17,603.08001709,-35.3610501,149.165024,0
0.25,-12.32,355.19,603.090026855,-35.3610459,149.1650237,0
0.27,-11.98,355.21,603.099975586,-35.361041799999995,149.16502340000002,0
0.27,-11.59,355.24,603.099975586,-35.36103789999999,149.165023,0
0.24,-11.11,355.27,603.109985352,-35.361033899999995,149.16502260000001,0
0.21,-10.58,355.3,603.109985352,-35.3610301,149.16502230000003,0
0.19,-10.04,355.34,603.1199951169999,-35.3610264,149.165022,0
0.18,-9.5,355.37,603.1199951169999,-35.3610227,149.1650216,0
0.18,-8.92,355.4,603.1199951169999,-35.3610191,149.16502140000003,0
0.17,-8.35,355.43,603.1199951169999,-35.3610156,149.1650211,0
0.17,-7.76,355.46,603.1300048830001,-35.3610123,149.16502069999999,0
0.17,-7.19,355.49,603.1300048830001,-35.361008899999995,149.1650205,0
0.18,-6.64,355.52,603.1300048830001,-35.361005799999994,149.1650201,0
0.17,-6.09,355.56,603.1300048830001,-35.3610027,149.16502,0
0.16,-5.52,355.59,603.1300048830001,-35.3609997,149.1650196,0
0.14,-4.94,355.63,603.1300048830001,-35.3609968,149.1650195,0
0.13,-4.36,355.66,603.1300048830001,-35.3609941,149.1650192,0
0.13,-3.77,355.7,603.1300048830001,-35.360991299999995,149.1650191,0
0.14,-3.15,355.75,603.1300048830001,-35.3609888,149.1650189,0
0.13,-2.49,355.79,603.1300048830001,-35.3609864,149.1650187,0
0.13,-1.8,355.84,603.1300048830001,-35.3609842,149.1650185,0
0.13,-1.06,355.9,603.1300048830001,-35.360982,149.1650183,0
0.12,-0.28,355.95,603.1300048830001,-35.360979799999996,149.1650182,0
0.1,0.55,356.0,603.1300048830001,-35.360977899999995,149.1650181,0
0.07,1.49,356.05,603.1300048830001,-35.3609761,149.16501780000002,0
0.11,2.59,356.08,603.1300048830001,-35.3609745,149.1650177,0
0.23,3.76,356.11,603.1300048830001,-35.360973,149.1650177,0
0.44,4.77,356.12,603.1300048830001,-35.3609716,149.1650176,0
0.72,5.47,356.12,603.1300048830001,-35.3609704,149.1650176,0
1.05,5.86,356.12,603.1300048830001,-35.360969299999994,149.1650175,0
1.43,6.0,356.1,603.1300048830001,-35.3609684,149.1650175,0
1.84,6.02,356.09,603.1300048830001,-35.3609675,149.1650175,0
2.25,6.05,356.07,603.1300048830001,-35.3609669,149.1650176,0
2.64,6.09,356.07,603.1300048830001,-35.3609664,149.1650177,0
3.06,6.17,356.07,603.1300048830001,-35.3609661,149.1650177,0
3.51,6.25,356.08,603.1300048830001,-35.3609657,149.165018,0
3.98,6.34,356.09,603.1300048830001,-35.3609657,149.1650182,0
4.44,6.38,356.11,603.1300048830001,-35.3609656,149.1650186,0
4.89,6.39,356.13,603.1300048830001,-35.3609657,149.165019,0
5.33,6.36,356.15,603.1300048830001,-35.3609657,149.1650195,0
5.71,6.25,356.16,603.1300048830001,-35.360966,149.16502,0
6.01,6.05,356.17,603.1300048830001,-35.3609662,149.1650206,0
6.28,5.84,356.18,603.1300048830001,-35.360966600000005,149.16502140000003,0
6.53,5.63,356.19,603.1300048830001,-35.3609669,149.165022,0
6.79,5.44,356.2,603.1300048830001,-35.3609675,149.165023,0
7.01,5.31,356.22,603.1300048830001,-35.360968,149.1650239,0
7.09,5.36,356.38,603.1300048830001,-35.3609685,149.16502490000002,0
7.06,5.7,357.23,603.1300048830001,-35.3609691,149.16502590000002,0
7.15,6.08,359.44,603.1300048830001,-35.360969700000005,149.1650272,0
7.59,6.1,3.33,603.1300048830001,-35.3609704,149.16502830000002,0
8.4,5.54,8.74,603.1300048830001,-35.3609711,149.1650297,0
9.43,4.32,15.38,603.1300048830001,-35.3609718,149.165031,0
10.47,2.48,23.0,603.1300048830001,-35.3609727,149.1650324,0
11.25,0.21,31.16,603.1300048830001,-35.3609736,149.16503380000003,0
11.58,-2.31,39.66,603.1300048830001,-35.3609745,149.1650354,0
11.36,-4.87,48.29,603.1300048830001,-35.360975399999994,149.1650369,0
10.6,-7.26,56.8,603.1300048830001,-35.3609764,149.1650388,0
9.44,-9.32,64.98,603.1300048830001,-35.3609773,149.1650406,0
8.04,-10.96,72.66,603.1300048830001,-35.3609784,149.1650426,0
6.61,-12.21,79.72,603.1300048830001,-35.3609792,149.1650446,0
5.29,-13.11,86.14,603.1300048830001,-35.360980299999994,149.1650469,0
4.15,-13.77,91.97,603.1300048830001,-35.3609813,149.1650492,0
3.16,-14.27,97.33,603.1300048830001,-35.3609822,149.16505159999997,0
2.26,-14.66,102.37,603.1300048830001,-35.3609833,149.1650541,0
1.36,-14.94,107.26,603.1300048830001,-35.3609844,149.16505659999999,0
0.13,-15.16,112.04,603.1300048830001,-35.360985299999996,149.16505940000002,0
-1.57,-15.28,116.38,603.1300048830001,-35.3609864,149.1650622,0
-3.38,-15.25,119.81,603.1300048830001,-35.3609876,149.1650651,0
-4.8,-15.13,122.04,603.1300048830001,-35.36098870000001,149.165068,0
-5.54,-15.01,123.01,603.1300048830001,-35.3609898,149.16507119999997,0
-5.47,-14.98,122.87,603.1300048830001,-35.3609909,149.16507430000001,0
-4.71,-15.08,121.84,603.1300048830001,-35.3609919,149.1650776,0
-3.5,-15.31,120.19,603.1300048830001,-35.360993,149.16508090000002,0
-2.05,-15.63,118.19,603.1300048830001,-35.360994,149.16508430000002,0
-0.62,-15.93,116.15,603.1300048830001,-35.360995,149.1650879,0
0.62,-16.16,114.31,603.1300048830001,-35.3609961,149.16509140000002,0
1.56,-16.31,112.86,603.1300048830001,-35.3609973,149.1650949,0
2.09,-16.38,111.91,603.140014648,-35.3609985,149.1650986,0
2.25,-16.42,111.48,603.140014648,-35.360999799999995,149.1651023,0
2.1,-16.44,111.55,603.140014648,-35.361001,149.16510590000001,0
1.72,-16.47,112.01,603.140014648,-35.361002299999996,149.1651096,0
1.19,-16.51,112.74,603.140014648,-35.36100379999999,149.1651135,0
0.58,-16.56,113.61,603.140014648,-35.3610052,149.16511730000002,0
0.0,-16.6,114.51,603.140014648,-35.3610065,149.1651211,0
-0.47,-16.66,115.31,603.140014648,-35.361008,149.165125,0
-0.81,-16.72,115.96,603.140014648,-35.361009499999994,149.165129,0
-1.01,-16.81,116.4,603.140014648,-35.361010799999995,149.165133,0
-1.08,-16.9,116.62,603.140014648,-35.3610124,149.1651369,0
-1.03,-16.96,116.65,603.140014648,-35.361013799999995,149.165141,0
-0.9,-16.99,116.51,603.140014648,-35.3610153,149.1651451,0
-0.69,-17.0,116.25,603.140014648,-35.361016799999994,149.16514919999997,0
-0.43,-17.01,115.92,603.140014648,-35.3610183,149.16515330000001,0
-0.17,-17.04,115.59,603.140014648,-35.361019799999994,149.1651575,0
0.02,-17.09,115.28,603.1300048830001,-35.3610214,149.1651618,0
0.17,-17.14,115.03,603.1300048830001,-35.3610229,149.165166,0
0.25,-17.18,114.86,603.1300048830001,-35.3610245,149.16517030000003,0
0.27,-17.23,114.77,603.1300048830001,-35.361026,149.1651746,0
0.25,-17.26,114.76,603.1300048830001,-35.3610277,149.1651789,0
0.23,-17.28,114.82,603.1300048830001,-35.36102929999999,149.1651832,0
0.16,-17.31,114.92,603.1300048830001,-35.361030799999995,149.1651875,0
0.07,-17.34,115.05,603.1300048830001,-35.3610325,149.1651919,0
-0.01,-17.37,115.19,603.1300048830001,-35.3610342,149.16519619999997,0
-0.08,-17.41,115.31,603.1300048830001,-35.3610357,149.1652006,0
-0.12,-17.45,115.41,603.1300048830001,-35.3610375,149.16520490000002,0
-0.15,-17.49,115.48,603.1300048830001,-35.3610391,149.1652095,0
-0.18,-17.52,115.51,603.1300048830001,-35.3610408,149.1652139,0
-0.18,-17.53,115.51,603.1300048830001,-35.3610424,149.16521830000002,0
-0.15,-17.57,115.48,603.1300048830001,-35.3610441,149.1652229,0
-0.11,-17.62,115.43,603.1300048830001,-35.3610459,149.1652274,0
-0.09,-17.66,115.37,603.1300048830001,-35.3610476,149.1652317,0
-0.07,-17.7,115.3,603.1300048830001,-35.3610493,149.1652363,0
-0.04,-17.73,115.24,603.1300048830001,-35.361050899999995,149.1652408,1
0.0,-17.75,115.19,603.1300048830001,-35.3610527,149.1652454,1
0.05,-17.77,115.14,603.1300048830001,-35.3610545,149.16524990000002,1
0.08,-17.79,115.11,603.1300048830001,-35.3610562,149.1652546,1
0.09,-17.8,115.09,603.1300048830001,-35.3610579,149.16525910000001,1
0.1,-17.81,115.08,603.1300048830001,-35.3610597,149.1652638,1
0.1,-17.82,115.08,603.1300048830001,-35.361061299999996,149.1652685,1
0.1,-17.84,115.09,603.1300048830001,-35.3610631,149.16527309999998,1
0.1,-17.86,115.1,603.1300048830001,-35.3610648,149.1652777,1
0.06,-17.87,115.1,603.1300048830001,-35.3610666,149.1652824,1
0.02,-17.88,115.11,603.1300048830001,-35.3610685,149.1652871,1
-0.01,-17.88,115.11,603.1300048830001,-35.361070299999994,149.1652916,1
-0.04,-17.86,115.11,603.1300048830001,-35.361072,149.16529640000002,1
-0.05,-17.85,115.1,603.1300048830001,-35.36107379999999,149.1653011,1
-0.04,-17.87,115.08,603.1300048830001,-35.3610756,149.16530580000003,1
-0.03,-17.91,115.06,603.1300048830001,-35.3610774,149.1653105,1
-0.01,-17.95,115.04,603.1199951169999,-35.3610792,149.1653153,1
0.0,-17.97,115.01,603.1199951169999,-35.361081,149.16531990000001,1
0.0,-17.97,114.99,603.1199951169999,-35.3610828,149.1653246,1
0.0,-17.98,114.96,603.1199951169999,-35.361084600000005,149.1653294,1
-0.03,-17.99,114.94,603.1199951169999,-35.3610864,149.1653342,1
-0.05,-18.0,114.92,603.1199951169999,-35.361088200000005,149.165339,1
-0.06,-18.03,114.9,603.1199951169999,-35.361090000000004,149.1653437,1
-0.03,-18.05,114.88,603.1199951169999,-35.3610917,149.16534850000002,1
0.0,-18.06,114.87,603.1199951169999,-35.361093700000005,149.1653533,1
0.02,-18.08,114.86,603.1199951169999,-35.361095500000005,149.1653581,1
0.04,-18.11,114.85,603.1199951169999,-35.3610973,149.1653629,1
0.04,-18.12,114.84,603.1199951169999,-35.361098999999996,149.1653677,1
0.03,-18.11,114.83,603.1199951169999,-35.361101,149.16537250000002,1
0.02,-18.09,114.82,603.1199951169999,-35.3611028,149.16537730000002,1
0.02,-18.07,114.81,603.1199951169999,-35.361104600000004,149.1653821,1
0.02,-18.08,114.8,603.1199951169999,-35.361106400000004,149.1653869,1
0.02,-18.1,114.79,603.1199951169999,-35.3611083,149.1653919,1
0.0,-18.13,114.78,603.1199951169999,-35.361110100000005,149.1653967,1
-0.01,-18.17,114.77,603.1199951169999,-35.3611119,149.1654015,1
-0.01,-18.19,114.75,603.1199951169999,-35.3611138,149.1654064,1
-0.01,-18.2,114.74,603.1199951169999,-35.361115600000005,149.1654112,1
-0.02,-18.19,114.72,603.1300048830001,-35.3611175,149.165416,1
-0.04,-18.18,114.71,603.1300048830001,-35.3611193,149.16542080000002,1
-0.04,-18.18,114.69,603.1300048830001,-35.36112120000001,149.1654257,1
-0.04,-18.19,114.68,603.1300048830001,-35.361123,149.16543069999997,1
-0.02,-18.2,114.66,603.1300048830001,-35.3611248,149.1654356,1
0.0,-18.21,114.65,603.1300048830001,-35.36112670000001,149.16544040000002,1
0.0,-18.22,114.63,603.1300048830001,-35.3611285,149.1654452,1
0.01,-18.21,114.62,603.1300048830001,-35.3611304,149.1654501,1
0.04,-18.2,114.61,603.1300048830001,-35.36113220000001,149.1654551,1
0.06,-18.19,114.61,603.1300048830001,-35.3611341,149.16546,1
0.06,-18.21,114.6,603.1300048830001,-35.3611359,149.1654649,1
0.05,-18.22,114.6,603.1300048830001,-35.3611377,149.1654697,1
0.05,-18.26,114.6,603.1300048830001,-35.3611396,149.16547480000003,1
0.05,-18.3,114.59,603.1300048830001,-35.3611414,149.1654797,1
0.04,-18.33,114.59,603.1300048830001,-35.361143299999995,149.1654845,1
0.01,-18.34,114.58,603.1300048830001,-35.3611451,149.1654895,1
-0.01,-18.34,114.58,603.1300048830001,-35.3611469,149.1654944,1
-0.01,-18.32,114.57,603.1300048830001,-35.361148799999995,149.1654993,1
0.0,-18.31,114.57,603.1300048830001,-35.3611506,149.1655041,1
0.01,-18.29,114.56,603.1300048830001,-35.3611525,149.16550900000001,1
0.02,-18.29,114.56,603.1300048830001,-35.361154299999995,149.1655141,1
0.03,-18.3,114.55,603.1300048830001,-35.3611563,149.165519,1
0.04,-18.33,114.54,603.1300048830001,-35.361158200000006,149.16552380000002,1
0.06,-18.36,114.53,603.1300048830001,-35.36116,149.1655289,1
0.07,-18.38,114.52,603.1300048830001,-35.3611619,149.16553380000002,1
0.09,-18.37,114.52,603.1300048830001,-35.361163700000006,149.1655386,1
0.09,-18.37,114.51,603.1300048830001,-35.3611656,149.1655437,1
0.09,-18.35,114.5,603.1300048830001,-35.3611674,149.1655486,1
0.09,-18.34,114.49,603.1300048830001,-35.3611693,149.1655535,1
0.08,-18.34,114.49,603.1300048830001,-35.36117120000001,149.1655585,1
0.08,-18.33,114.49,603.1300048830001,-35.361173,149.1655635,1
0.08,-18.33,114.48,603.1300048830001,-35.3611749,149.16556830000002,1
0.09,-18.33,114.48,603.1300048830001,-35.36117670000001,149.16557340000003,1
0.08,-18.32,114.48,603.1300048830001,-35.361178499999994,149.1655783,1
0.07,-18.3,114.47,603.140014648,-35.3611804,149.1655832,1
0.07,-18.31,114.47,603.140014648,-35.3611822,149.16558830000002,1
0.07,-18.34,114.46,603.140014648,-35.3611841,149.1655932,1
0.07,-18.36,114.46,603.140014648,-35.3611859,149.16559819999998,1
0.09,-18.36,114.45,603.140014648,-35.3611879,149.1656031,1
0.11,-18.37,114.45,603.140014648,-35.3611898,149.16560800000002,1
0.13,-18.38,114.44,603.140014648,-35.361191600000005,149.1656131,1
0.13,-18.4,114.44,603.140014648,-35.3611935,149.165618,1
0.12,-18.39,114.44,603.140014648,-35.3611953,149.16562290000002,1
0.09,-18.39,114.43,603.140014648,-35.3611972,149.165628,1
0.06,-18.39,114.43,603.140014648,-35.3611991,149.16563290000002,1
0.02,-18.41,114.43,603.140014648,-35.361201,149.1656379,1
0.01,-18.41,114.43,603.140014648,-35.3612028,149.1656429,1
0.03,-18.42,114.42,603.140014648,-35.3612047,149.1656477,1
0.03,-18.44,114.42,603.140014648,-35.3612065,149.1656528,1
0.03,-18.45,114.41,603.140014648,-35.361208399999995,149.16565780000002,1
0.05,-18.46,114.4,603.140014648,-35.3612104,149.1656628,1
0.06,-18.46,114.4,603.140014648,-35.361212200000004,149.1656678,1
0.11,-18.44,114.4,603.140014648,-35.3612141,149.1656726,1
0.14,-18.41,114.39,603.140014648,-35.361216,149.16567769999997,1
0.15,-18.38,114.39,603.140014648,-35.3612178,149.1656827,1
0.15,-18.38,114.39,603.140014648,-35.36121970000001,149.16568769999998,1
0.15,-18.38,114.39,603.140014648,-35.3612216,149.1656927,1
0.13,-18.39,114.39,603.140014648,-35.3612235,149.16569750000002,1
0.1,-18.41,114.39,603.140014648,-35.361225299999994,149.16570259999997,1
0.08,-18.43,114.38,603.140014648,-35.36122720000001,149.1657076,1
0.08,-18.43,114.38,603.140014648,-35.361228999999994,149.1657126,1
0.11,-18.42,114.38,603.140014648,-35.3612309,149.1657176,1
0.14,-18.41,114.38,603.140014648,-35.3612327,149.16572250000002,1
0.17,-18.39,114.37,603.140014648,-35.361234700000004,149.1657276,1
0.2,-18.38,114.37,603.140014648,-35.361236600000005,149.1657325,1
0.21,-18.37,114.37,603.140014648,-35.3612385,149.1657375,1
0.21,-18.37,114.37,603.140014648,-35.3612403,149.1657425,1
0.18,-18.37,114.37,603.140014648,-35.3612422,149.16574740000001,1
0.16,-18.39,114.37,603.140014648,-35.3612441,149.1657525,1
0.14,-18.4,114.36,603.140014648,-35.361246,149.1657574,1
0.13,-18.4,114.36,603.140014648,-35.361247799999994,149.1657625,1
0.1,-18.4,114.36,603.140014648,-35.3612497,149.16576740000002,1
0.1,-18.4,114.35,603.140014648,-35.3612515,149.1657725,1
0.09,-18.41,114.35,603.140014648,-35.361253399999995,149.1657775,1
0.08,-18.43,114.34,603.140014648,-35.3612554,149.1657825,1
0.09,-18.43,114.33,603.140014648,-35.361257200000004,149.1657874,1
0.1,-18.42,114.32,603.140014648,-35.3612591,149.16579230000002,1
0.1,-18.43,114.32,603.140014648,-35.361261,149.1657974,1
0.11,-18.45,114.31,603.140014648,-35.36126289999999,149.1658024,1
0.13,-18.48,114.3,603.140014648,-35.36126470000001,149.1658074,1
0.14,-18.5,114.29,603.140014648,-35.3612666,149.1658124,1
0.13,-18.51,114.29,603.140014648,-35.3612685,149.1658172,1
0.14,-18.5,114.29,603.140014648,-35.3612703,149.16582230000003,1
0.16,-18.48,114.28,603.140014648,-35.3612722,149.16582730000002,1
0.18,-18.46,114.28,603.140014648,-35.361274,149.1658323,1
0.19,-18.44,114.28,603.140014648,-35.361275899999995,149.16583730000002,1
0.18,-18.43,114.27,603.140014648,-35.3612779,149.1658422,1
0.18,-18.44,114.27,603.140014648,-35.361279700000004,149.16584730000002,1
0.19,-18.44,114.27,603.140014648,-35.3612816,149.1658522,1
0.22,-18.47,114.27,603.1300048830001,-35.3612835,149.1658573,1
0.22,-18.49,114.27,603.1300048830001,-35.3612854,149.1658622,1
0.21,-18.51,114.26,603.1300048830001,-35.36128720000001,149.16586730000003,1
0.2,-18.49,114.26,603.1300048830001,-35.3612891,149.16587230000002,1
0.18,-18.48,114.26,603.1300048830001,-35.361290999999994,149.1658773,1
0.18,-18.45,114.25,603.1300048830001,-35.361292799999994,149.16588230000002,1
0.17,-18.45,114.25,603.1300048830001,-35.3612947,149.1658872,1
0.17,-18.46,114.25,603.1300048830001,-35.3612966,149.16589230000002,1
0.15,-18.46,114.24,603.1300048830001,-35.361298600000005,149.1658972,1
0.13,-18.46,114.24,603.1300048830001,-35.3613005,149.1659023,1
0.13,-18.45,114.24,603.1300048830001,-35.3613024,149.1659072,1
0.14,-18.44,114.23,603.1300048830001,-35.3613042,149.1659123,1
0.17,-18.41,114.23,603.1300048830001,-35.3613061,149.16591730000002,1
0.18,-18.38,114.23,603.1300048830001,-35.361308,149.16592230000003,1
0.17,-18.35,114.22,603.1300048830001,-35.3613098,149.1659273,1
0.16,-18.35,114.21,603.1300048830001,-35.3613117,149.1659322,1
0.18,-18.39,114.21,603.1300048830001,-35.3613136,149.16593730000002,1
0.19,-18.41,114.2,603.1300048830001,-35.361315600000005,149.1659422,1
0.19,-18.42,114.2,603.1199951169999,-35.3613175,149.16594730000003,1
0.18,-18.42,114.19,603.1199951169999,-35.3613194,149.1659522,1
0.18,-18.41,114.19,603.1199951169999,-35.3613213,149.1659573,1
0.18,-18.41,114.18,603.1199951169999,-35.3613232,149.16596230000002,1
0.16,-18.41,114.18,603.1199951169999,-35.361325,149.1659673,1
0.13,-18.4,114.17,603.1199951169999,-35.361326899999995,149.16597230000002,1
0.13,-18.39,114.17,603.1199951169999,-35.361328799999995,149.1659772,1
0.17,-18.39,114.16,603.1199951169999,-35.3613306,149.1659824,1
0.2,-18.41,114.16,603.1199951169999,-35.3613326,149.1659872,1
0.22,-18.44,114.15,603.1199951169999,-35.3613345,149.16599230000003,1
0.2,-18.48,114.15,603.1199951169999,-35.3613364,149.1659972,1
0.18,-18.51,114.14,603.1199951169999,-35.3613383,149.1660023,1
0.18,-18.5,114.14,603.1199951169999,-35.3613402,149.16600730000002,1
0.19,-18.46,114.13,603.1199951169999,-35.3613421,149.1660123,1
0.19,-18.43,114.12,603.1199951169999,-35.3613439,149.16601730000002,1
0.2,-18.4,114.12,603.1199951169999,-35.361345799999995,149.1660222,1
0.2,-18.38,114.11,603.1199951169999,-35.3613478,149.1660273,1
0.21,-18.39,114.1,603.1199951169999,-35.3613495,149.1660322,1
0.21,-18.4,114.1,603.1199951169999,-35.361351500000005,149.16603730000003,1
0.21,-18.41,114.09,603.1199951169999,-35.3613534,149.1660422,1
0.22,-18.42,114.09,603.1199951169999,-35.36135529999999,149.1660471,1
0.24,-18.42,114.08,603.1199951169999,-35.36135720000001,149.1660522,1
0.26,-18.42,114.08,603.109985352,-35.361359,149.1660571,1
0.28,-18.42,114.07,603.109985352,-35.3613609,149.1660622,1
0.29,-18.42,114.07,603.109985352,-35.3613627,149.1660671,1
0.29,-18.41,114.06,603.109985352,-35.3613646,149.16607219999997,1
0.26,-18.41,114.06,603.109985352,-35.361366499999995,149.1660772,1
0.23,-18.41,114.06,603.109985352,-35.361368299999995,149.1660822,1
0.22,-18.4,114.05,603.109985352,-35.3613703,149.1660872,1
0.22,-18.38,114.05,603.109985352,-35.3613722,149.1660921,1
0.22,-18.36,114.04,603.109985352,-35.361374100000006,149.1660972,1
0.21,-18.39,114.04,603.109985352,-35.3613759,149.1661021,1
0.2,-18.42,114.03,603.109985352,-35.3613778,149.1661072,1
0.19,-18.44,114.03,603.109985352,-35.3613797,149.1661121,1
0.2,-18.46,114.03,603.109985352,-35.3613816,149.16611719999997,1
