Start,TimeUS,Roll,Pitch,Yaw,Alt,Lat,Lng,Q1,Q2,Q3,Q4,Category
0.0,0.0,353.0,584.090026855,-35.363261,149.1652299,0
0.0,0.0,353.0,584.090026855,-35.363261,149.1652299,0
0.0,0.0,353.0,584.090026855,-35.363261,149.1652299,0
0.0,0.0,353.0,584.090026855,-35.363261,149.1652299,0
0.0,0.0,353.0,584.090026855,-35.363261,149.1652299,0
0.0,0.0,353.0,584.090026855,-35.363261,149.1652299,0
0.0,0.0,353.0,584.090026855,-35.363261,149.1652299,0
0.0,0.0,353.0,584.090026855,-35.363261,149.1652299,0
0.0,0.0,353.0,584.090026855,-35.363261,149.1652299,0
0.0,0.0,353.0,584.090026855,-35.363261,149.1652299,0
0.0,0.0,353.0,584.090026855,-35.363261,149.1652299,0
0.0,0.0,353.0,584.090026855,-35.363261,149.1652299,0
0.0,0.0,353.0,584.090026855,-35.363261,149.1652299,0
0.0,0.0,353.0,584.090026855,-35.363261,149.1652299,0
0.0,0.0,353.0,584.090026855,-35.363261,149.1652299,0
0.0,0.0,353.0,584.090026855,-35.363261,149.1652299,0
0.0,0.0,353.0,584.090026855,-35.363261,149.1652299,0
0.0,0.0,353.0,584.090026855,-35.363261,149.1652299,0
0.0,0.0,353.0,584.090026855,-35.363261,149.1652299,0
0.0,0.0,353.0,584.090026855,-35.363261,149.1652299,0
0.0,0.0,353.0,584.090026855,-35.363261,149.1652299,0
0.0,0.0,353.0,584.090026855,-35.363261,149.1652299,0
0.0,0.0,353.0,584.090026855,-35.363261,149.1652299,0
0.0,0.0,353.0,584.090026855,-35.363261,149.1652299,0
0.0,0.0,353.0,584.090026855,-35.363261,149.1652299,0
0.0,0.0,353.0,584.090026855,-35.363261,149.1652299,0
0.0,0.0,353.0,584.090026855,-35.363261,149.1652299,0
0.0,0.0,353.0,584.090026855,-35.363261,149.1652299,0
0.0,0.0,353.0,584.090026855,-35.363261,149.1652299,0
0.0,0.0,353.0,584.090026855,-35.363261,149.1652299,0
0.0,0.0,353.0,584.090026855,-35.363261,149.1652299,0
0.0,0.0,353.0,584.090026855,-35.363261,149.1652299,0
0.0,0.0,353.0,584.090026855,-35.363261,149.1652299,0
0.0,0.0,353.0,584.090026855,-35.363261,149.1652299,0
0.0,0.0,353.0,584.090026855,-35.363261,149.1652299,0
0.0,0.0,353.0,584.090026855,-35.363261,149.1652299,0
0.0,0.0,353.0,584.090026855,-35.363261,149.1652299,0
0.0,0.0,353.0,584.099975586,-35.363261,149.1652299,0
0.0,0.0,353.0,584.099975586,-35.363261,149.1652299,0
0.0,0.0,353.0,584.1199951169999,-35.363261,149.1652299,0
0.0,0.0,353.0,584.140014648,-35.363261,149.1652299,0
0.0,0.0,353.0,584.16998291,-35.363261,149.1652299,0
0.0,0.0,353.0,584.210021973,-35.363261,149.1652299,0
0.0,0.0,352.99,584.2600097659999,-35.363261,149.1652299,0
-0.04,0.0,352.99,584.3699951169999,-35.363261,149.1652299,0
-0.09,0.02,352.99,584.520019531,-35.363261,149.1652299,0
-0.12,0.04,352.99,584.679992676,-35.363261,149.1652299,0
-0.12,0.05,352.99,584.83001709,-35.363261,149.1652299,0
-0.1,0.05,352.98,584.979980469,-35.363261,149.1652299,0
-0.07,0.06,352.98,585.140014648,-35.363261,149.1652299,0
-0.02,0.08,352.98,585.299987793,-35.363261,149.1652299,0
0.01,0.1,352.98,585.460021973,-35.363261,149.1652299,0
0.04,0.1,352.98,585.6300048830001,-35.363261,149.1652299,0
0.0,0.08,352.98,585.7800292969999,-35.363261,149.1652299,0
-0.25,0.13,352.98,585.929992676,-35.363261,149.1652299,0
-0.82,0.27,352.98,586.070007324,-35.363261,149.1652299,0
-1.64,0.51,352.97,586.200012207,-35.363261,149.1652299,0
-2.63,0.79,352.96,586.320007324,-35.363261,149.16522980000002,0
-3.69,1.08,352.95,586.429992676,-35.363261,149.16522980000002,0
-4.68,1.34,352.95,586.520019531,-35.363261,149.16522969999997,0
-5.5,1.56,352.94,586.599975586,-35.363261,149.1652294,0
-6.09,1.73,352.94,586.66998291,-35.3632611,149.1652292,0
-6.54,1.87,352.95,586.729980469,-35.3632614,149.16522880000002,0
-6.91,1.97,352.96,586.789978027,-35.3632615,149.1652284,0
-7.27,2.06,352.97,586.840026855,-35.3632616,149.16522780000003,0
-7.62,2.14,352.98,586.8800048830001,-35.3632619,149.16522719999998,0
-7.91,2.23,352.98,586.91998291,-35.3632622,149.1652264,0
-8.13,2.29,352.99,586.950012207,-35.3632625,149.1652255,0
-8.3,2.33,352.99,586.9899902340001,-35.363262799999994,149.16522460000002,0
-8.43,2.35,353.0,587.020019531,-35.3632631,149.1652236,0
-8.54,2.37,353.0,587.039978027,-35.363263399999994,149.1652226,0
-8.67,2.45,352.97,587.070007324,-35.3632639,149.1652215,0
-8.81,2.82,352.62,587.099975586,-35.3632643,149.1652202,0
-9.01,3.4,351.29,587.1199951169999,-35.3632647,149.16521880000002,0
-9.37,3.78,348.42,587.140014648,-35.3632653,149.16521740000002,0
-9.93,3.61,343.94,587.16998291,-35.3632658,149.165216,0
-10.55,2.72,338.06,587.1900024409999,-35.363266499999995,149.1652145,0
-11.06,1.11,331.11,587.2199707030001,-35.3632671,149.1652129,0
-11.32,-1.06,323.3,587.2399902340001,-35.363267799999996,149.1652112,0
-11.21,-3.57,315.01,587.270019531,-35.3632686,149.1652095,0
-10.62,-6.12,306.41,587.299987793,-35.3632695,149.16520769999997,0
-9.56,-8.46,297.72,587.33001709,-35.3632702,149.16520569999997,0
-8.13,-10.43,289.2,587.3699951169999,-35.36327120000001,149.16520369999998,0
-6.49,-11.94,281.11,587.400024414,-35.3632719,149.1652015,0
-4.82,-13.01,273.6,587.4400024409999,-35.3632729,149.1651992,0
-3.27,-13.74,266.77,587.4699707030001,-35.363273799999995,149.16519680000002,0
-1.92,-14.2,260.61,587.5100097659999,-35.363274700000005,149.16519440000002,0
-0.77,-14.44,255.03,587.549987793,-35.3632756,149.1651918,0
0.3,-14.57,249.9,587.590026855,-35.363276500000005,149.165189,0
1.63,-14.62,245.34,587.6300048830001,-35.363277399999994,149.1651862,0
3.1,-14.57,241.73,587.66998291,-35.3632784,149.1651834,0
4.37,-14.47,239.35,587.710021973,-35.363279299999995,149.1651804,0
5.1,-14.41,238.25,587.7600097659999,-35.36328029999999,149.1651772,0
5.15,-14.44,238.31,587.799987793,-35.3632813,149.1651741,0
4.51,-14.59,239.28,587.849975586,-35.36328220000001,149.1651709,0
3.36,-14.85,240.92,587.890014648,-35.363283200000005,149.1651675,0
1.93,-15.13,242.94,587.9400024409999,-35.3632841,149.16516409999997,0
0.48,-15.39,245.06,587.979980469,-35.363285100000006,149.16516059999998,0
-0.78,-15.59,247.0,588.0300292969999,-35.3632859,149.165157,0
-1.74,-15.69,248.59,588.08001709,-35.3632871,149.1651535,0
-2.32,-15.74,249.65,588.1199951169999,-35.36328820000001,149.16514990000002,0
-2.51,-15.77,250.17,588.16998291,-35.3632893,149.1651461,0
-2.37,-15.8,250.18,588.2199707030001,-35.363290500000005,149.1651425,0
-2.0,-15.82,249.76,588.2600097659999,-35.363291700000005,149.1651388,0
-1.49,-15.86,249.03,588.3099975590001,-35.363293,149.16513500000002,0
-0.93,-15.93,248.12,588.359985352,-35.3632943,149.1651312,0
-0.38,-15.99,247.18,588.409973145,-35.3632956,149.1651274,0
0.08,-16.04,246.3,588.450012207,-35.3632969,149.16512350000002,0
0.45,-16.09,245.57,588.5,-35.3632982,149.1651195,0
0.7,-16.12,245.05,588.549987793,-35.363299700000006,149.1651156,0
0.83,-16.14,244.75,588.599975586,-35.3633011,149.1651116,0
0.84,-16.16,244.67,588.650024414,-35.363302399999995,149.1651075,0
0.73,-16.19,244.78,588.6900024409999,-35.3633039,149.1651034,0
0.53,-16.2,245.02,588.7399902340001,-35.36330529999999,149.1650992,0
0.29,-16.24,245.35,588.789978027,-35.3633066,149.16509519999997,0
0.07,-16.3,245.71,588.840026855,-35.363308200000006,149.165091,0
-0.13,-16.36,246.05,588.890014648,-35.3633096,149.1650869,0
-0.29,-16.41,246.34,588.929992676,-35.363311100000004,149.16508259999998,0
-0.39,-16.45,246.56,588.979980469,-35.3633125,149.1650784,0
-0.42,-16.49,246.69,589.0300292969999,-35.363313899999994,149.1650742,0
-0.4,-16.52,246.74,589.08001709,-35.3633156,149.1650698,0
-0.33,-16.55,246.71,589.1300048830001,-35.363316999999995,149.1650656,0
-0.25,-16.57,246.63,589.16998291,-35.3633186,149.1650612,0
-0.17,-16.57,246.51,589.2199707030001,-35.3633201,149.16505690000002,0
-0.09,-16.57,246.38,589.270019531,-35.3633217,149.1650526,0
-0.03,-16.58,246.26,589.320007324,-35.3633233,149.16504819999997,0
0.01,-16.59,246.15,589.3699951169999,-35.363324799999994,149.1650438,0
0.04,-16.61,246.08,589.409973145,-35.3633264,149.16503930000002,0
0.05,-16.66,246.04,589.460021973,-35.3633279,149.16503500000002,0
0.05,-16.7,246.04,589.5100097659999,-35.3633296,149.1650305,0
0.03,-16.73,246.07,589.5599975590001,-35.363331200000005,149.1650261,0
0.02,-16.75,246.12,589.609985352,-35.36333270000001,149.1650216,0
0.0,-16.78,246.19,589.650024414,-35.3633344,149.16501709999997,0
0.0,-16.83,246.26,589.700012207,-35.3633359,149.1650125,0
-0.03,-16.88,246.33,589.75,-35.3633376,149.1650081,0
-0.07,-16.9,246.39,589.799987793,-35.363339200000006,149.1650034,0
-0.08,-16.89,246.44,589.849975586,-35.3633407,149.164999,0
-0.1,-16.88,246.48,589.890014648,-35.3633425,149.16499430000002,0
-0.1,-16.88,246.51,589.9400024409999,-35.3633441,149.1649899,0
-0.06,-16.89,246.53,589.9899902340001,-35.3633456,149.1649852,0
-0.03,-16.89,246.53,590.039978027,-35.3633473,149.16498069999997,0
-0.01,-16.91,246.54,590.090026855,-35.363349,149.1649761,0
0.0,-16.95,246.53,590.1300048830001,-35.363350700000005,149.1649715,0
-0.01,-17.0,246.53,590.179992676,-35.36335220000001,149.1649668,0
-0.02,-17.05,246.54,590.229980469,-35.363354,149.1649622,0
-0.04,-17.08,246.54,590.2800292969999,-35.3633557,149.1649574,0
-0.04,-17.1,246.55,590.33001709,-35.3633572,149.1649529,0
-0.03,-17.12,246.56,590.3800048830001,-35.363358899999994,149.1649482,0
-0.02,-17.13,246.58,590.41998291,-35.3633606,149.1649435,0
-0.02,-17.14,246.6,590.4699707030001,-35.3633623,149.16493880000002,0
-0.01,-17.15,246.62,590.520019531,-35.363364000000004,149.1649342,0
0.0,-17.16,246.65,590.570007324,-35.3633656,149.1649295,0
0.0,-17.18,246.67,590.6199951169999,-35.36336729999999,149.16492480000002,0
-0.02,-17.22,246.69,590.66998291,-35.363369,149.1649201,0
-0.04,-17.25,246.72,590.710021973,-35.363370700000004,149.16491530000002,0
-0.08,-17.26,246.74,590.7600097659999,-35.3633723,149.1649105,0
-0.12,-17.26,246.75,590.8099975590001,-35.363374,149.1649058,0
-0.14,-17.28,246.77,590.859985352,-35.363375700000006,149.16490100000001,0
-0.14,-17.29,246.78,590.909973145,-35.3633774,149.1648962,0
-0.12,-17.31,246.78,590.960021973,-35.363378999999995,149.1648916,0
-0.07,-17.34,246.79,591.0,-35.363380799999995,149.1648868,0
-0.04,-17.36,246.79,591.049987793,-35.3633825,149.164882,0
-0.03,-17.37,246.79,591.099975586,-35.3633842,149.16487719999998,0
-0.05,-17.37,246.8,591.150024414,-35.3633859,149.1648724,0
-0.05,-17.36,246.8,591.200012207,-35.3633875,149.1648675,0
-0.05,-17.36,246.81,591.25,-35.3633893,149.1648627,0
-0.04,-17.38,246.82,591.289978027,-35.363391,149.16485790000002,0
-0.01,-17.43,246.83,591.340026855,-35.363392700000006,149.1648531,0
0.0,-17.47,246.84,591.390014648,-35.3633944,149.1648483,0
0.0,-17.46,246.85,591.4400024409999,-35.363396,149.16484350000002,0
0.0,-17.45,246.86,591.4899902340001,-35.363397799999994,149.1648387,0
-0.02,-17.46,246.87,591.539978027,-35.3633996,149.16483390000002,0
-0.04,-17.47,246.88,591.58001709,-35.3634013,149.164829,0
-0.05,-17.49,246.89,591.6300048830001,-35.363403000000005,149.1648242,0
-0.05,-17.5,246.9,591.679992676,-35.3634046,149.16481930000003,0
-0.03,-17.52,246.91,591.729980469,-35.363406299999994,149.16481430000002,0
-0.01,-17.52,246.91,591.7800292969999,-35.3634081,149.1648095,0
0.0,-17.52,246.92,591.820007324,-35.3634098,149.1648047,0
0.01,-17.52,246.92,591.8699951169999,-35.363411600000006,149.16479980000003,0
0.01,-17.54,246.93,591.91998291,-35.3634133,149.1647949,0
-0.01,-17.57,246.94,591.9699707030001,-35.363414899999995,149.16479009999998,0
-0.03,-17.6,246.94,592.020019531,-35.3634167,149.1647851,0
-0.02,-17.62,246.94,592.0599975590001,-35.3634185,149.1647802,0
0.0,-17.62,246.95,592.109985352,-35.36342020000001,149.1647753,0
0.01,-17.59,246.95,592.159973145,-35.3634219,149.16477030000001,0
0.01,-17.57,246.96,592.210021973,-35.363423600000004,149.16476540000002,0
0.0,-17.55,246.96,592.2600097659999,-35.3634252,149.1647606,0
0.0,-17.53,246.97,592.299987793,-35.363427,149.16475569999997,0
-0.01,-17.54,246.97,592.349975586,-35.363428799999994,149.16475060000002,0
-0.02,-17.55,246.97,592.400024414,-35.3634305,149.16474580000002,0
-0.03,-17.58,246.97,592.450012207,-35.363432200000005,149.1647409,0
-0.04,-17.63,246.97,592.5,-35.363434000000005,149.1647358,0
-0.03,-17.66,246.97,592.549987793,-35.3634356,149.16473100000002,0
-0.03,-17.67,246.97,592.590026855,-35.363437299999994,149.164726,0
-0.03,-17.68,246.97,592.640014648,-35.3634391,149.164721,0
-0.03,-17.67,246.97,592.6900024409999,-35.3634409,149.1647161,0
0.0,-17.67,246.97,592.7399902340001,-35.363442600000006,149.1647112,0
0.0,-17.68,246.97,592.789978027,-35.3634443,149.1647061,0
0.0,-17.69,246.97,592.840026855,-35.363446100000004,149.1647013,0
0.01,-17.68,246.96,592.8800048830001,-35.3634477,149.16469630000003,0
0.01,-17.68,246.96,592.929992676,-35.3634495,149.16469130000002,0
0.0,-17.68,246.96,592.979980469,-35.3634513,149.1646864,0
-0.03,-17.71,246.96,593.0300292969999,-35.363453,149.1646814,0
-0.05,-17.72,246.95,593.08001709,-35.363454700000005,149.1646764,0
-0.04,-17.7,246.95,593.1300048830001,-35.3634565,149.1646714,0
-0.02,-17.68,246.95,593.16998291,-35.3634581,149.16466630000002,0
0.0,-17.67,246.95,593.2199707030001,-35.3634599,149.1646615,0
0.0,-17.67,246.94,593.270019531,-35.3634616,149.1646565,0
-0.04,-17.7,246.94,593.320007324,-35.36346339999999,149.1646515,0
-0.07,-17.72,246.94,593.3699951169999,-35.3634652,149.1646465,0
-0.07,-17.74,246.94,593.41998291,-35.3634669,149.16464140000002,0
-0.05,-17.76,246.93,593.460021973,-35.3634686,149.1646365,0
-0.02,-17.76,246.93,593.5100097659999,-35.3634704,149.1646314,0
0.0,-17.77,246.93,593.5599975590001,-35.363471999999994,149.1646265,0
0.0,-17.78,246.93,593.609985352,-35.363473799999994,149.16462140000002,0
0.0,-17.8,246.92,593.659973145,-35.3634756,149.1646165,0
0.02,-17.8,246.92,593.710021973,-35.3634773,149.1646116,0
0.06,-17.8,246.91,593.7600097659999,-35.3634791,149.1646065,0
0.07,-17.79,246.91,593.799987793,-35.3634808,149.1646015,0
0.04,-17.78,246.91,593.849975586,-35.3634826,149.16459640000002,0
0.01,-17.79,246.91,593.900024414,-35.3634842,149.1645915,0
-0.02,-17.8,246.91,593.950012207,-35.363486,149.16458640000002,0
-0.05,-17.8,246.91,594.0,-35.363487799999994,149.1645815,0
-0.05,-17.79,246.91,594.049987793,-35.3634895,149.1645764,0
-0.03,-17.79,246.91,594.090026855,-35.36349129999999,149.16457140000003,0
-0.02,-17.78,246.91,594.140014648,-35.363493,149.16456630000002,0
-0.02,-17.8,246.9,594.1900024409999,-35.3634948,149.1645614,0
-0.01,-17.83,246.9,594.2399902340001,-35.363496399999995,149.16455630000002,0
0.0,-17.83,246.89,594.289978027,-35.3634981,149.1645514,0
0.01,-17.82,246.89,594.340026855,-35.3635,149.1645464,0
0.02,-17.81,246.88,594.3800048830001,-35.36350170000001,149.16454130000002,0
0.04,-17.81,246.88,594.429992676,-35.3635035,149.1645362,0
0.05,-17.83,246.88,594.479980469,-35.363505200000006,149.16453130000002,0
0.06,-17.84,246.87,594.5300292969999,-35.363507,149.1645263,0
0.05,-17.87,246.87,594.58001709,-35.363508700000004,149.1645212,0
0.03,-17.88,246.86,594.6300048830001,-35.363510299999994,149.1645161,0
0.01,-17.89,246.86,594.679992676,-35.3635121,149.1645112,0
0.0,-17.88,246.86,594.7199707030001,-35.363513899999994,149.1645062,0
-0.01,-17.86,246.85,594.770019531,-35.3635157,149.1645011,0
0.0,-17.84,246.85,594.820007324,-35.3635174,149.16449599999999,0
0.02,-17.84,246.84,594.8699951169999,-35.363519200000006,149.1644911,0
0.05,-17.85,246.83,594.91998291,-35.3635209,149.16448590000002,0
0.08,-17.85,246.83,594.9699707030001,-35.363522700000004,149.164481,0
0.09,-17.86,246.82,595.0100097659999,-35.363524299999995,149.1644759,0
0.08,-17.87,246.82,595.0599975590001,-35.3635261,149.1644709,0
0.06,-17.88,246.82,595.109985352,-35.3635279,149.16446580000002,0
0.05,-17.88,246.82,595.159973145,-35.3635297,149.1644608,0
0.03,-17.89,246.81,595.210021973,-35.3635314,149.1644557,0
0.02,-17.91,246.81,595.25,-35.363533200000006,149.16445080000003,0
0.01,-17.91,246.81,595.299987793,-35.3635349,149.1644456,0
0.03,-17.91,246.81,595.349975586,-35.363536700000004,149.1644407,0
0.06,-17.89,246.81,595.400024414,-35.363538299999995,149.1644356,0
0.08,-17.87,246.8,595.450012207,-35.3635401,149.16443059999997,0
0.09,-17.85,246.8,595.4899902340001,-35.3635419,149.1644255,0
0.07,-17.83,246.8,595.539978027,-35.3635437,149.1644205,0
0.06,-17.82,246.79,595.590026855,-35.3635454,149.1644154,0
0.05,-17.81,246.79,595.640014648,-35.3635472,149.16441030000001,0
0.04,-17.8,246.79,595.6900024409999,-35.3635489,149.1644053,0
0.02,-17.8,246.78,595.7399902340001,-35.363550700000005,149.1644002,0
0.02,-17.82,246.78,595.789978027,-35.3635523,149.16439519999997,0
0.05,-17.83,246.77,595.83001709,-35.3635541,149.1643901,0
0.09,-17.85,246.77,595.8800048830001,-35.3635559,149.1643851,0
0.1,-17.85,246.77,595.929992676,-35.36355770000001,149.1643801,0
0.09,-17.84,246.76,595.979980469,-35.3635594,149.164375,0
0.05,-17.82,246.76,596.0300292969999,-35.3635612,149.16437,0
0.02,-17.8,246.75,596.08001709,-35.363563,149.16436480000002,0
0.02,-17.79,246.75,596.1300048830001,-35.363564700000005,149.16435980000003,0
0.01,-17.82,246.75,596.16998291,-35.3635665,149.1643547,0
0.0,-17.85,246.74,596.2199707030001,-35.3635681,149.1643497,0
-0.02,-17.86,246.74,596.270019531,-35.363569899999995,149.1643446,0
-0.02,-17.84,246.73,596.320007324,-35.3635717,149.1643397,0
0.0,-17.82,246.72,596.3699951169999,-35.3635735,149.1643346,0
0.02,-17.8,246.72,596.41998291,-35.36357520000001,149.16432959999997,0
0.04,-17.76,246.71,596.460021973,-35.363577,149.16432450000002,0
0.05,-17.73,246.71,596.5100097659999,-35.3635787,149.1643195,0
0.06,-17.74,246.7,596.5599975590001,-35.3635805,149.1643144,0
0.08,-17.76,246.7,596.609985352,-35.3635823,149.1643093,0
0.09,-17.79,246.69,596.659973145,-35.363583899999995,149.1643043,0
0.1,-17.8,246.69,596.710021973,-35.3635857,149.1642992,0
0.11,-17.83,246.69,596.75,-35.3635875,149.16429419999997,0
0.1,-17.85,246.69,596.799987793,-35.3635893,149.1642891,0
0.09,-17.84,246.69,596.849975586,-35.363591,149.1642841,0
0.08,-17.82,246.69,596.900024414,-35.36359279999999,149.164279,0
0.08,-17.79,246.69,596.950012207,-35.3635945,149.1642741,0
0.1,-17.78,246.69,596.9899902340001,-35.3635963,149.164269,0
0.12,-17.8,246.69,597.039978027,-35.3635979,149.164264,0
0.12,-17.81,246.68,597.090026855,-35.3635997,149.16425890000002,0
0.09,-17.81,246.67,597.140014648,-35.3636015,149.1642537,0
0.06,-17.8,246.67,597.1900024409999,-35.3636033,149.16424880000002,0
0.05,-17.77,246.67,597.229980469,-35.3636051,149.1642436,0
0.07,-17.75,246.66,597.2800292969999,-35.3636068,149.1642387,0
0.1,-17.75,246.66,597.33001709,-35.3636086,149.1642336,0
0.12,-17.77,246.65,597.3800048830001,-35.3636103,149.16422859999997,0
0.13,-17.79,246.65,597.429992676,-35.363612100000005,149.16422350000002,0
0.14,-17.8,246.65,597.479980469,-35.3636137,149.1642185,0
0.14,-17.79,246.65,597.520019531,-35.3636155,149.1642135,0
0.14,-17.8,246.65,597.570007324,-35.363617299999994,149.1642084,0
0.14,-17.79,246.64,597.6199951169999,-35.3636191,149.1642034,0
0.15,-17.78,246.64,597.66998291,-35.3636208,149.1641984,0
0.16,-17.79,246.64,597.7199707030001,-35.3636226,149.16419330000002,0
0.17,-17.83,246.64,597.7600097659999,-35.3636243,149.1641883,0
0.17,-17.86,246.64,597.8099975590001,-35.3636261,149.16418330000002,0
0.15,-17.86,246.64,597.859985352,-35.3636277,149.1641781,0
0.11,-17.86,246.64,597.909973145,-35.3636295,149.1641732,0
0.07,-17.85,246.64,597.960021973,-35.363631299999994,149.16416819999998,0
0.07,-17.84,246.64,598.0,-35.3636331,149.1641631,0
0.08,-17.84,246.64,598.049987793,-35.3636348,149.16415800000001,0
0.1,-17.84,246.64,598.099975586,-35.36363660000001,149.164153,0
0.12,-17.83,246.64,598.150024414,-35.3636383,149.16414790000002,0
0.14,-17.82,246.63,598.200012207,-35.3636401,149.1641429,0
0.15,-17.82,246.63,598.2399902340001,-35.3636417,149.1641378,0
0.13,-17.82,246.62,598.289978027,-35.3636435,149.16413280000003,0
0.11,-17.84,246.62,598.340026855,-35.363645299999995,149.16412780000002,0
0.06,-17.84,246.61,598.390014648,-35.3636471,149.1641227,0
0.04,-17.84,246.61,598.4400024409999,-35.36364879999999,149.1641177,0
0.04,-17.85,246.6,598.4899902340001,-35.3636506,149.1641125,0
0.05,-17.85,246.6,598.5300292969999,-35.3636523,149.1641076,0
0.07,-17.85,246.59,598.58001709,-35.363654100000005,149.16410259999998,0
0.09,-17.84,246.58,598.6300048830001,-35.3636557,149.1640975,0
0.09,-17.85,246.58,598.679992676,-35.3636575,149.16409240000002,0
0.07,-17.84,246.57,598.729980469,-35.3636593,149.1640874,0
0.06,-17.83,246.57,598.770019531,-35.3636611,149.16408230000002,0
0.08,-17.85,246.57,598.820007324,-35.3636628,149.1640773,0
0.11,-17.86,246.56,598.8699951169999,-35.3636646,149.1640722,0
0.15,-17.85,246.56,598.91998291,-35.3636664,149.16406730000003,0
0.18,-17.82,246.56,598.9699707030001,-35.363668100000005,149.1640622,0
0.18,-17.8,246.57,599.0100097659999,-35.3636699,149.1640572,0
0.16,-17.82,246.57,599.0599975590001,-35.3636715,149.1640521,0
0.12,-17.87,246.57,599.109985352,-35.363673299999995,149.16404690000002,0
0.1,-17.92,246.58,599.159973145,-35.3636751,149.164042,0
0.08,-17.93,246.58,599.210021973,-35.363676899999994,149.16403689999999,0
0.08,-17.91,246.58,599.25,-35.3636787,149.16403190000003,0
0.07,-17.86,246.58,599.299987793,-35.3636804,149.16402680000002,0
0.07,-17.82,246.58,599.349975586,-35.36368220000001,149.1640218,0
0.08,-17.77,246.58,599.400024414,-35.3636839,149.1640167,0
0.1,-17.75,246.58,599.450012207,-35.363685700000005,149.1640118,0
0.1,-17.77,246.57,599.5,-35.363687299999995,149.1640066,0
0.1,-17.8,246.57,599.539978027,-35.3636891,149.1640017,0
0.08,-17.82,246.56,599.590026855,-35.3636909,149.1639966,0
0.07,-17.81,246.56,599.640014648,-35.3636927,149.1639916,0
0.04,-17.79,246.56,599.6900024409999,-35.36369439999999,149.1639865,0
0.02,-17.79,246.55,599.7399902340001,-35.36369620000001,149.1639815,0
0.02,-17.8,246.55,599.789978027,-35.3636979,149.1639765,0
0.02,-17.82,246.55,599.83001709,-35.363699700000005,149.16397130000001,0
0.03,-17.82,246.55,599.8800048830001,-35.363701299999995,149.16396640000002,0
0.05,-17.82,246.55,599.929992676,-35.3637031,149.1639612,0
0.08,-17.83,246.54,599.979980469,-35.3637049,149.1639563,0
0.1,-17.83,246.54,600.0300292969999,-35.3637067,149.1639511,0
0.1,-17.82,246.54,600.070007324,-35.3637085,149.16394619999997,0
0.1,-17.82,246.54,600.1199951169999,-35.3637102,149.1639411,0
0.1,-17.85,246.54,600.16998291,-35.363712,149.1639361,0
0.09,-17.85,246.54,600.2199707030001,-35.3637138,149.16393100000002,0
0.06,-17.84,246.54,600.270019531,-35.363715500000005,149.163926,0
0.03,-17.82,246.55,600.320007324,-35.3637173,149.1639209,0
0.03,-17.81,246.55,600.359985352,-35.3637189,149.1639159,0
0.06,-17.79,246.55,600.409973145,-35.3637207,149.1639108,0
0.09,-17.8,246.55,600.460021973,-35.363722499999994,149.1639057,0
0.08,-17.82,246.55,600.5100097659999,-35.363724299999994,149.16390080000002,0
0.08,-17.85,246.55,600.5599975590001,-35.3637261,149.1638956,0
0.08,-17.87,246.55,600.609985352,-35.3637278,149.1638907,0
0.09,-17.87,246.56,600.659973145,-35.363729600000006,149.1638855,0
0.11,-17.88,246.56,600.700012207,-35.3637313,149.1638806,0
0.12,-17.88,246.56,600.75,-35.3637331,149.1638755,0
0.12,-17.85,246.56,600.799987793,-35.3637349,149.1638705,0
0.13,-17.82,246.56,600.849975586,-35.3637365,149.16386540000002,0
0.13,-17.8,246.57,600.900024414,-35.363738299999994,149.1638604,0
0.11,-17.79,246.57,600.950012207,-35.3637401,149.1638553,0
0.12,-17.82,246.57,600.9899902340001,-35.3637419,149.1638503,0
0.13,-17.84,246.57,601.039978027,-35.3637436,149.16384519999997,0
0.14,-17.83,246.57,601.090026855,-35.3637454,149.1638401,0
0.15,-17.82,246.57,601.140014648,-35.3637472,149.1638351,0
0.14,-17.8,246.57,601.1900024409999,-35.3637489,149.16383000000002,0
0.14,-17.79,246.58,601.2399902340001,-35.363750700000004,149.163825,0
0.12,-17.81,246.58,601.2800292969999,-35.3637523,149.1638199,0
0.11,-17.83,246.58,601.33001709,-35.3637541,149.1638149,0
0.1,-17.83,246.58,601.3800048830001,-35.3637559,149.16380990000002,0
0.11,-17.82,246.58,601.429992676,-35.36375770000001,149.1638047,0
0.12,-17.8,246.58,601.479980469,-35.3637595,149.16379980000002,0
0.14,-17.8,246.58,601.520019531,-35.3637612,149.1637946,0
0.15,-17.8,246.58,601.570007324,-35.363763,149.1637897,0
0.15,-17.81,246.58,601.6199951169999,-35.363764700000004,149.1637845,0
0.14,-17.81,246.58,601.66998291,-35.363766399999996,149.1637796,0
0.13,-17.81,246.58,601.7199707030001,-35.3637681,149.16377450000002,0
0.14,-17.79,246.58,601.7600097659999,-35.363769899999994,149.1637695,0
0.16,-17.78,246.59,601.8099975590001,-35.3637717,149.16376440000002,0
0.15,-17.8,246.59,601.859985352,-35.3637735,149.1637594,0
0.13,-17.82,246.59,601.909973145,-35.363775200000006,149.1637543,0
0.13,-17.84,246.58,601.960021973,-35.363777,149.1637493,0
0.15,-17.84,246.58,602.0100097659999,-35.363778700000005,149.16374430000002,0
0.18,-17.83,246.58,602.049987793,-35.3637805,149.1637393,0
0.2,-17.83,246.58,602.099975586,-35.3637821,149.1637342,0
0.19,-17.83,246.58,602.150024414,-35.363783899999994,149.16372900000002,0
0.18,-17.83,246.58,602.200012207,-35.3637857,149.1637241,0
0.17,-17.83,246.58,602.2399902340001,-35.3637875,149.1637189,0
0.16,-17.82,246.58,602.289978027,-35.3637893,149.163714,0
0.16,-17.83,246.58,602.340026855,-35.363791,149.16370890000002,0
0.15,-17.85,246.58,602.390014648,-35.3637928,149.1637039,0
0.11,-17.87,246.58,602.4400024409999,-35.3637945,149.16369880000002,0
0.09,-17.87,246.58,602.479980469,-35.3637963,149.1636938,0
0.08,-17.85,246.58,602.5300292969999,-35.3637979,149.16368880000002,0
0.09,-17.82,246.57,602.58001709,-35.3637997,149.16368369999998,0
0.11,-17.8,246.57,602.6300048830001,-35.3638015,149.1636787,0
0.15,-17.8,246.57,602.679992676,-35.3638033,149.1636737,0
0.12,-17.79,246.56,602.7199707030001,-35.363805,149.1636686,0
-0.49,-17.46,246.5,602.770019531,-35.3638068,149.1636636,0
-1.76,-16.76,246.27,602.8099975590001,-35.363808500000005,149.1636586,0
-3.27,-15.98,245.75,602.849975586,-35.3638103,149.16365359999998,0
-4.56,-15.35,244.9,602.8800048830001,-35.363812,149.16364860000002,0
-5.43,-14.97,243.71,602.91998291,-35.363813799999996,149.16364380000002,0
-5.89,-14.83,242.19,602.9400024409999,-35.3638158,149.1636392,0
-6.03,-14.86,240.37,602.9699707030001,-35.36381779999999,149.1636346,0
-5.99,-14.99,238.3,602.9899902340001,-35.363819799999995,149.1636301,0
-5.89,-15.18,236.01,603.0,-35.3638219,149.16362560000002,0
-5.81,-15.38,233.6,603.020019531,-35.363824,149.16362130000002,0
-5.78,-15.55,231.11,603.0300292969999,-35.3638263,149.16361719999998,0
-5.77,-15.7,228.61,603.039978027,-35.3638287,149.1636131,0
-5.77,-15.87,226.14,603.049987793,-35.363831,149.1636092,0
-5.72,-16.05,223.74,603.049987793,-35.363833500000005,149.1636054,0
-5.58,-16.21,221.44,603.0599975590001,-35.363836,149.1636016,0
-5.35,-16.35,219.26,603.0599975590001,-35.3638386,149.163598,0
-5.09,-16.48,217.22,603.070007324,-35.3638414,149.16359440000002,0
-4.83,-16.59,215.32,603.070007324,-35.3638441,149.1635911,0
-4.6,-16.69,213.57,603.070007324,-35.363847,149.16358780000002,0
-4.4,-16.8,211.95,603.070007324,-35.3638499,149.16358469999997,0
-4.23,-16.89,210.45,603.08001709,-35.3638529,149.1635816,0
-4.1,-16.96,209.05,603.08001709,-35.363856,149.1635786,0
-4.0,-17.02,207.74,603.08001709,-35.3638591,149.16357580000002,0
-3.92,-17.08,206.51,603.08001709,-35.363862299999994,149.16357299999999,0
-3.83,-17.14,205.35,603.08001709,-35.3638655,149.16357040000003,0
-3.71,-17.21,204.24,603.08001709,-35.3638689,149.1635679,0
-3.54,-17.28,203.18,603.08001709,-35.3638723,149.16356530000002,0
-3.36,-17.35,202.17,603.08001709,-35.3638757,149.1635629,0
-3.17,-17.43,201.19,603.08001709,-35.3638792,149.16356069999998,0
-2.99,-17.49,200.28,603.090026855,-35.363882700000005,149.1635585,0
-2.78,-17.55,199.41,603.090026855,-35.3638863,149.1635564,0
-2.58,-17.61,198.6,603.090026855,-35.363889799999995,149.1635542,0
-2.4,-17.67,197.84,603.090026855,-35.3638934,149.1635523,0
-2.23,-17.72,197.14,603.090026855,-35.3638971,149.1635504,0
-2.08,-17.75,196.5,603.090026855,-35.3639009,149.16354850000002,0
-1.94,-17.77,195.91,603.090026855,-35.363904600000005,149.1635468,0
-1.8,-17.78,195.37,603.090026855,-35.3639084,149.1635451,0
-1.68,-17.79,194.87,603.090026855,-35.3639122,149.16354330000001,0
-1.57,-17.79,194.42,603.090026855,-35.363916100000004,149.16354180000002,0
-1.5,-17.79,194.01,603.090026855,-35.36392,149.16354019999997,0
-1.44,-17.81,193.63,603.090026855,-35.363923799999995,149.16353869999998,0
-1.37,-17.84,193.28,603.090026855,-35.3639278,149.1635371,0
-1.28,-17.89,192.96,603.090026855,-35.3639317,149.1635356,0
-1.19,-17.93,192.66,603.090026855,-35.3639357,149.1635342,0
-1.1,-17.95,192.38,603.090026855,-35.3639396,149.163533,0
-0.99,-17.96,192.12,603.090026855,-35.3639437,149.1635316,0
-0.88,-17.96,191.87,603.090026855,-35.36394779999999,149.16353030000002,0
-0.78,-17.95,191.63,603.090026855,-35.36395170000001,149.1635291,0
-0.71,-17.93,191.42,603.090026855,-35.3639559,149.16352780000003,0
-0.65,-17.9,191.21,603.090026855,-35.36396,149.1635265,0
-0.59,-17.88,191.03,603.090026855,-35.363964,149.1635254,0
-0.53,-17.88,190.86,603.090026855,-35.3639681,149.1635241,0
-0.48,-17.9,190.71,603.090026855,-35.3639723,149.1635231,0
-0.46,-17.93,190.57,603.090026855,-35.3639765,149.1635219,0
-0.43,-17.95,190.45,603.090026855,-35.363980600000005,149.1635207,0
-0.4,-17.97,190.34,603.090026855,-35.3639848,149.1635197,0
-0.36,-17.98,190.24,603.099975586,-35.363988799999994,149.1635187,0
-0.33,-17.99,190.15,603.099975586,-35.3639931,149.1635176,0
-0.28,-18.01,190.06,603.099975586,-35.3639973,149.16351640000002,0
-0.24,-18.02,189.99,603.099975586,-35.3640015,149.16351550000002,0
-0.22,-18.05,189.92,603.099975586,-35.3640057,149.1635145,0
-0.22,-18.1,189.86,603.099975586,-35.3640099,149.1635134,0
-0.19,-18.12,189.8,603.099975586,-35.3640141,149.1635124,0
-0.16,-18.11,189.75,603.099975586,-35.3640184,149.1635114,0
-0.12,-18.09,189.7,603.099975586,-35.364022600000006,149.1635104,0
-0.1,-18.07,189.66,603.099975586,-35.3640268,149.1635095,0
-0.07,-18.05,189.61,603.109985352,-35.3640311,149.1635085,0
-0.05,-18.03,189.58,603.109985352,-35.3640354,149.16350740000001,0
-0.02,-18.03,189.54,603.109985352,-35.3640396,149.16350659999998,0
0.0,-18.05,189.51,603.109985352,-35.3640439,149.16350549999999,0
0.0,-18.1,189.49,603.109985352,-35.3640482,149.1635045,0
0.0,-18.14,189.47,603.109985352,-35.3640525,149.16350369999998,0
0.01,-18.16,189.45,603.109985352,-35.364056700000006,149.1635026,0
0.03,-18.18,189.44,603.109985352,-35.364061,149.1635018,0
0.07,-18.2,189.43,603.109985352,-35.3640653,149.1635007,0
0.09,-18.21,189.42,603.109985352,-35.3640696,149.1634999,0
0.1,-18.19,189.41,603.109985352,-35.3640739,149.163499,0
0.09,-18.15,189.4,603.109985352,-35.3640782,149.1634981,0
0.08,-18.11,189.39,603.109985352,-35.364082399999994,149.1634971,0
0.07,-18.09,189.39,603.109985352,-35.3640867,149.16349619999997,0
0.07,-18.09,189.39,603.109985352,-35.364090999999995,149.16349530000002,0
0.08,-18.13,189.38,603.109985352,-35.364095299999995,149.16349430000002,0
0.09,-18.15,189.38,603.1199951169999,-35.364099700000004,149.16349340000002,0
0.09,-18.18,189.38,603.1199951169999,-35.364104100000006,149.16349250000002,0
0.09,-18.19,189.37,603.1199951169999,-35.3641084,149.1634915,0
0.09,-18.19,189.37,603.1199951169999,-35.36411270000001,149.1634906,0
0.08,-18.18,189.37,603.1199951169999,-35.364117,149.1634896,0
0.07,-18.16,189.37,603.1199951169999,-35.364121399999995,149.1634887,0
0.05,-18.16,189.37,603.1199951169999,-35.3641256,149.1634879,0
0.03,-18.18,189.37,603.1199951169999,-35.3641299,149.16348680000002,0
0.04,-18.19,189.37,603.1199951169999,-35.3641344,149.163486,0
0.04,-18.2,189.37,603.1199951169999,-35.364138700000005,149.1634851,0
0.04,-18.22,189.37,603.1199951169999,-35.36414310000001,149.1634841,0
0.04,-18.24,189.36,603.1199951169999,-35.3641474,149.1634832,0
0.04,-18.25,189.36,603.1199951169999,-35.364151799999995,149.1634823,0
0.07,-18.26,189.36,603.1199951169999,-35.364156,149.1634814,0
0.11,-18.25,189.36,603.1199951169999,-35.364160399999996,149.1634805,0
0.13,-18.22,189.37,603.1300048830001,-35.3641648,149.1634795,0
0.11,-18.2,189.37,603.1300048830001,-35.364169200000006,149.1634786,0
0.08,-18.2,189.37,603.1300048830001,-35.3641735,149.1634777,0
0.05,-18.2,189.38,603.1300048830001,-35.3641779,149.1634769,0
0.03,-18.21,189.38,603.1300048830001,-35.3641822,149.163476,0
0.03,-18.24,189.38,603.1300048830001,-35.3641865,149.1634751,0
0.05,-18.29,189.39,603.1300048830001,-35.3641908,149.1634741,0
0.1,-18.33,189.39,603.1300048830001,-35.3641953,149.1634732,0
0.13,-18.33,189.4,603.1300048830001,-35.364199600000006,149.16347230000002,0
0.16,-18.32,189.4,603.1300048830001,-35.364204,149.16347140000002,0
0.18,-18.31,189.41,603.1300048830001,-35.3642083,149.16347050000002,0
0.16,-18.3,189.41,603.1300048830001,-35.3642126,149.16346950000002,0
0.13,-18.31,189.41,603.1300048830001,-35.364217100000005,149.1634686,0
0.08,-18.31,189.42,603.1300048830001,-35.3642214,149.1634678,0
0.02,-18.29,189.42,603.1300048830001,-35.3642258,149.1634667,0
-0.02,-18.27,189.43,603.1300048830001,-35.3642302,149.1634659,0
-0.02,-18.25,189.43,603.1300048830001,-35.364234499999995,149.163465,0
0.02,-18.26,189.43,603.1300048830001,-35.364239000000005,149.16346409999997,0
0.09,-18.3,189.43,603.1300048830001,-35.3642434,149.1634632,0
0.14,-18.34,189.43,603.1300048830001,-35.3642477,149.1634622,0
0.12,-18.33,189.43,603.1300048830001,-35.3642521,149.16346130000002,0
0.07,-18.3,189.43,603.1300048830001,-35.3642564,149.1634604,0
0.0,-18.27,189.44,603.1300048830001,-35.3642609,149.1634594,0
-0.04,-18.25,189.44,603.1300048830001,-35.3642653,149.1634585,0
-0.04,-18.25,189.44,603.1300048830001,-35.3642696,149.1634575,0
0.0,-18.27,189.44,603.1300048830001,-35.364274,149.1634566,0
0.03,-18.29,189.45,603.1300048830001,-35.3642783,149.1634557,0
0.01,-18.3,189.45,603.1300048830001,-35.3642828,149.1634547,0
-0.01,-18.3,189.44,603.1300048830001,-35.3642872,149.1634538,0
0.0,-18.3,189.44,603.1300048830001,-35.3642916,149.163453,0
0.06,-18.31,189.44,603.1300048830001,-35.364295899999995,149.1634521,0
0.13,-18.32,189.44,603.1300048830001,-35.3643002,149.1634512,0
0.17,-18.35,189.44,603.1300048830001,-35.364304700000005,149.1634503,0
0.18,-18.38,189.44,603.1300048830001,-35.3643091,149.1634494,0
0.16,-18.39,189.44,603.1300048830001,-35.3643135,149.16344840000002,0
0.06,-18.36,189.45,603.1300048830001,-35.364317799999995,149.16344750000002,0
-0.04,-18.32,189.46,603.1300048830001,-35.3643223,149.16344650000002,0
-0.12,-18.28,189.46,603.1300048830001,-35.36432670000001,149.1634456,0
-0.15,-18.25,189.47,603.1300048830001,-35.3643311,149.1634446,0
-0.1,-18.24,189.47,603.1300048830001,-35.3643354,149.1634437,0
0.0,-18.28,189.47,603.1300048830001,-35.3643399,149.1634429,0
0.13,-18.32,189.47,603.1300048830001,-35.3643443,149.163442,0
0.2,-18.36,189.47,603.1300048830001,-35.3643487,149.16344109999997,0
0.21,-18.38,189.48,603.1300048830001,-35.364353,149.16344019999997,0
0.17,-18.38,189.48,603.1300048830001,-35.364357299999995,149.16343930000002,0
0.08,-18.38,189.49,603.1300048830001,-35.3643618,149.16343840000002,0
-0.05,-18.35,189.49,603.1300048830001,-35.3643662,149.16343740000002,0
-0.17,-18.34,189.5,603.1300048830001,-35.3643706,149.1634365,0
-0.21,-18.33,189.51,603.1300048830001,-35.3643749,149.1634355,0
-0.14,-18.34,189.51,603.1199951169999,-35.3643794,149.1634346,0
0.0,-18.35,189.5,603.1199951169999,-35.3643838,149.16343380000004,0
0.11,-18.36,189.5,603.1199951169999,-35.36438820000001,149.1634329,0
0.16,-18.37,189.5,603.1199951169999,-35.3643925,149.163432,0
0.13,-18.38,189.49,603.1199951169999,-35.364396899999996,149.1634311,0
0.06,-18.38,189.49,603.1199951169999,-35.3644014,149.1634301,0
-0.03,-18.36,189.49,603.1199951169999,-35.36440579999999,149.1634292,0
-0.13,-18.34,189.5,603.1199951169999,-35.3644102,149.1634283,0
-0.17,-18.32,189.5,603.1199951169999,-35.3644145,149.1634274,0
-0.11,-18.31,189.5,603.1199951169999,-35.3644191,149.1634264,0
0.0,-18.32,189.5,603.1199951169999,-35.3644235,149.1634255,0
0.13,-18.36,189.5,603.1199951169999,-35.3644278,149.16342450000002,0
0.19,-18.4,189.51,603.1199951169999,-35.3644323,149.16342360000002,0
0.16,-18.42,189.51,603.1199951169999,-35.364436700000006,149.1634228,0
0.08,-18.43,189.51,603.1199951169999,-35.3644411,149.1634219,0
-0.03,-18.41,189.51,603.1199951169999,-35.364445399999994,149.163421,0
-0.11,-18.39,189.52,603.1199951169999,-35.364449799999996,149.16342,0
-0.1,-18.38,189.53,603.1199951169999,-35.36445429999999,149.1634191,0
0.02,-18.39,189.53,603.1199951169999,-35.36445870000001,149.16341819999997,0
0.17,-18.4,189.53,603.1199951169999,-35.3644631,149.16341730000002,0
0.26,-18.41,189.54,603.1199951169999,-35.3644674,149.16341640000002,0
0.27,-18.41,189.55,603.1199951169999,-35.364472,149.16341540000002,0
0.2,-18.41,189.55,603.1199951169999,-35.364476399999994,149.16341450000002,0
0.07,-18.39,189.56,603.1199951169999,-35.3644807,149.16341369999998,0
-0.04,-18.35,189.56,603.1199951169999,-35.364485200000004,149.1634126,0
-0.09,-18.33,189.57,603.1199951169999,-35.3644896,149.1634118,0
-0.08,-18.32,189.57,603.1199951169999,-35.364494,149.16341090000003,0
-0.04,-18.35,189.57,603.1199951169999,-35.364498299999994,149.16341,0
0.0,-18.37,189.57,603.1199951169999,-35.3645029,149.163409,0
0.02,-18.37,189.57,603.1199951169999,-35.3645073,149.1634081,0
0.05,-18.39,189.57,603.1199951169999,-35.3645117,149.1634072,0
0.09,-18.4,189.57,603.1199951169999,-35.364515999999995,149.1634062,0
0.09,-18.43,189.56,603.1199951169999,-35.364520500000005,149.1634053,0
0.04,-18.45,189.56,603.1199951169999,-35.3645249,149.1634044,0
0.0,-18.47,189.56,603.1199951169999,-35.364529299999994,149.1634034,0
-0.03,-18.47,189.56,603.1199951169999,-35.3645336,149.1634025,0
-0.05,-18.44,189.56,603.1199951169999,-35.3645381,149.1634015,0
-0.05,-18.41,189.56,603.1199951169999,-35.3645425,149.16340060000002,0
-0.05,-18.38,189.56,603.1199951169999,-35.3645469,149.1633996,0
-0.05,-18.39,189.56,603.1199951169999,-35.364551299999995,149.1633987,0
-0.07,-18.4,189.55,603.1199951169999,-35.3645558,149.1633979,0
-0.08,-18.42,189.55,603.1199951169999,-35.3645602,149.163397,1
-0.06,-18.43,189.55,603.1199951169999,-35.3645646,149.163396,1
0.0,-18.44,189.54,603.1199951169999,-35.3645689,149.1633951,1
0.07,-18.43,189.54,603.1199951169999,-35.3645735,149.16339419999997,1
0.1,-18.42,189.54,603.1199951169999,-35.3645779,149.16339330000002,1
0.08,-18.4,189.54,603.1199951169999,-35.3645822,149.16339240000002,1
0.01,-18.37,189.55,603.1199951169999,-35.3645866,149.16339150000002,1
-0.11,-18.37,189.55,603.1199951169999,-35.3645912,149.1633905,1
-0.18,-18.38,189.56,603.1199951169999,-35.3645956,149.1633895,1
-0.14,-18.41,189.56,603.1199951169999,-35.3645999,149.1633886,1
-0.03,-18.44,189.56,603.1199951169999,-35.3646045,149.1633877,1
0.07,-18.46,189.56,603.1199951169999,-35.3646089,149.1633869,1
0.11,-18.46,189.57,603.1199951169999,-35.3646132,149.163386,1
0.07,-18.43,189.57,603.1199951169999,-35.3646176,149.1633851,1
-0.03,-18.39,189.57,603.1199951169999,-35.3646222,149.1633842,1
-0.15,-18.35,189.57,603.1199951169999,-35.3646266,149.1633832,1
-0.2,-18.31,189.57,603.1199951169999,-35.3646309,149.1633823,1
-0.15,-18.3,189.57,603.1199951169999,-35.3646354,149.1633814,1
-0.02,-18.33,189.57,603.1199951169999,-35.3646399,149.1633805,1
0.1,-18.36,189.57,603.1199951169999,-35.364644299999995,149.1633795,1
0.17,-18.4,189.57,603.1199951169999,-35.3646486,149.1633786,1
0.19,-18.43,189.58,603.1199951169999,-35.3646531,149.1633778,1
0.15,-18.44,189.59,603.1199951169999,-35.3646576,149.1633769,1
0.06,-18.45,189.6,603.1199951169999,-35.3646619,149.1633759,1
-0.05,-18.44,189.61,603.1199951169999,-35.3646664,149.163375,1
-0.16,-18.41,189.62,603.1199951169999,-35.3646708,149.1633741,1
-0.17,-18.39,189.63,603.1199951169999,-35.364675299999995,149.1633732,1
-0.07,-18.37,189.63,603.1199951169999,-35.3646796,149.16337230000002,1
0.07,-18.36,189.63,603.1199951169999,-35.3646841,149.16337140000002,1
0.19,-18.36,189.63,603.1199951169999,-35.3646886,149.16337040000002,1
0.22,-18.38,189.63,603.1199951169999,-35.3646929,149.16336940000002,1
0.15,-18.41,189.63,603.1199951169999,-35.3646974,149.16336850000002,1
0.02,-18.43,189.64,603.1199951169999,-35.3647019,149.1633676,1
-0.06,-18.44,189.64,603.1199951169999,-35.364706299999995,149.1633666,1
-0.09,-18.45,189.65,603.1199951169999,-35.3647106,149.16336569999999,1
-0.08,-18.44,189.65,603.1199951169999,-35.3647151,149.1633649,1
-0.05,-18.44,189.66,603.1199951169999,-35.3647195,149.163364,1
-0.04,-18.45,189.66,603.1199951169999,-35.3647239,149.16336299999998,1
-0.04,-18.47,189.66,603.1199951169999,-35.3647284,149.1633621,1
0.0,-18.48,189.66,603.1199951169999,-35.3647328,149.1633612,1
0.11,-18.47,189.66,603.1199951169999,-35.3647372,149.16336030000002,1
0.23,-18.47,189.66,603.1199951169999,-35.3647416,149.1633594,1
0.28,-18.47,189.66,603.1199951169999,-35.3647461,149.1633584,1
0.2,-18.45,189.66,603.1199951169999,-35.3647505,149.1633575,1
0.05,-18.44,189.67,603.1199951169999,-35.3647549,149.1633565,1
-0.05,-18.42,189.67,603.1199951169999,-35.3647593,149.1633556,1
-0.07,-18.42,189.67,603.1199951169999,-35.3647638,149.1633546,1
-0.03,-18.44,189.68,603.1300048830001,-35.3647682,149.1633537,1
0.01,-18.45,189.68,603.1300048830001,-35.3647725,149.1633529,1
0.05,-18.44,189.68,603.1300048830001,-35.3647771,149.16335180000002,1
0.07,-18.41,189.68,603.1300048830001,-35.3647815,149.163351,1
0.09,-18.38,189.68,603.1300048830001,-35.3647859,149.1633501,1
0.07,-18.35,189.68,603.1300048830001,-35.364790299999996,149.1633492,1
0.01,-18.35,189.68,603.1300048830001,-35.3647948,149.16334819999997,1
-0.04,-18.36,189.68,603.1300048830001,-35.3647992,149.16334730000003,1
-0.02,-18.39,189.67,603.1300048830001,-35.3648036,149.16334630000003,1
0.03,-18.43,189.67,603.1300048830001,-35.3648081,149.16334540000003,1
0.1,-18.48,189.67,603.1300048830001,-35.3648125,149.1633445,1
0.13,-18.51,189.67,603.1300048830001,-35.3648169,149.1633436,1
0.12,-18.51,189.66,603.1300048830001,-35.364821299999996,149.1633426,1
0.02,-18.47,189.66,603.1300048830001,-35.3648258,149.1633417,1
-0.07,-18.41,189.67,603.1300048830001,-35.3648302,149.1633407,1
-0.13,-18.37,189.67,603.1300048830001,-35.3648346,149.16333980000002,1
-0.12,-18.37,189.67,603.1300048830001,-35.3648391,149.1633388,1
-0.05,-18.4,189.67,603.1300048830001,-35.3648435,149.1633378,1
0.05,-18.45,189.66,603.1300048830001,-35.3648479,149.1633369,1
0.13,-18.48,189.66,603.1300048830001,-35.36485220000001,149.16333600000002,1
0.14,-18.5,189.66,603.1300048830001,-35.3648568,149.16333500000002,1
0.11,-18.47,189.65,603.1300048830001,-35.3648612,149.16333410000001,1
0.05,-18.42,189.65,603.1300048830001,-35.3648656,149.1633333,1
0.02,-18.38,189.64,603.1300048830001,-35.3648701,149.16333219999999,1
-0.02,-18.36,189.64,603.1300048830001,-35.3648745,149.1633314,1
-0.08,-18.36,189.64,603.1300048830001,-35.3648789,149.1633305,1
-0.08,-18.39,189.64,603.1300048830001,-35.36488320000001,149.1633295,1
-0.03,-18.43,189.64,603.140014648,-35.3648878,149.16332859999997,1
0.03,-18.46,189.64,603.140014648,-35.3648922,149.16332769999997,1
0.05,-18.48,189.64,603.1300048830001,-35.3648966,149.16332680000002,1
0.06,-18.49,189.64,603.1300048830001,-35.364900899999995,149.16332580000002,1
0.06,-18.49,189.64,603.1300048830001,-35.3649055,149.16332490000002,1
0.06,-18.48,189.64,603.1300048830001,-35.3649099,149.163324,1
0.03,-18.45,189.64,603.1300048830001,-35.36491420000001,149.163323,1
0.01,-18.41,189.64,603.140014648,-35.364918599999996,149.163322,1
-0.01,-18.4,189.64,603.140014648,-35.3649232,149.1633211,1
-0.02,-18.4,189.64,603.140014648,-35.3649276,149.1633202,1
-0.04,-18.42,189.64,603.140014648,-35.364931899999995,149.1633192,1
-0.04,-18.43,189.64,603.140014648,-35.3649364,149.16331830000001,1
-0.03,-18.44,189.63,603.140014648,-35.3649409,149.1633175,1
0.0,-18.45,189.63,603.140014648,-35.36494520000001,149.1633164,1
0.0,-18.46,189.63,603.140014648,-35.3649496,149.1633156,1
0.0,-18.46,189.63,603.140014648,-35.364954100000006,149.1633147,1
0.0,-18.45,189.62,603.140014648,-35.3649586,149.1633138,1
0.02,-18.44,189.62,603.140014648,-35.364962899999995,149.1633128,1
0.04,-18.42,189.62,603.140014648,-35.3649674,149.1633119,1
0.06,-18.41,189.62,603.140014648,-35.3649719,149.16331100000002,1
0.08,-18.41,189.62,603.140014648,-35.36497620000001,149.16331,1
0.12,-18.42,189.62,603.140014648,-35.3649806,149.1633091,1
0.15,-18.44,189.62,603.140014648,-35.364985100000006,149.1633082,1
0.17,-18.45,189.63,603.140014648,-35.3649896,149.1633072,1
0.15,-18.45,189.63,603.140014648,-35.3649939,149.1633062,1
0.12,-18.45,189.63,603.140014648,-35.3649984,149.16330530000002,1
0.08,-18.45,189.63,603.1300048830001,-35.3650028,149.1633044,1
0.05,-18.44,189.64,603.1300048830001,-35.3650072,149.1633034,1
0.02,-18.43,189.64,603.1300048830001,-35.3650116,149.1633025,1
0.0,-18.44,189.64,603.1300048830001,-35.365016100000005,149.1633017,1
0.0,-18.44,189.64,603.1300048830001,-35.3650205,149.1633008,1
0.04,-18.44,189.64,603.1300048830001,-35.3650249,149.1632998,1
0.08,-18.44,189.64,603.1300048830001,-35.3650294,149.1632989,1
0.1,-18.43,189.63,603.1300048830001,-35.3650338,149.163298,1
0.08,-18.41,189.63,603.1300048830001,-35.3650382,149.163297,1
0.03,-18.39,189.63,603.1300048830001,-35.3650426,149.1632961,1
0.0,-18.38,189.63,603.1300048830001,-35.365047100000005,149.1632952,1
0.0,-18.39,189.63,603.1300048830001,-35.3650515,149.16329419999997,1
0.0,-18.4,189.63,603.1300048830001,-35.3650559,149.16329330000002,1
0.01,-18.41,189.63,603.1300048830001,-35.3650604,149.16329240000002,1
0.03,-18.43,189.63,603.1300048830001,-35.3650648,149.16329140000002,1
0.02,-18.45,189.63,603.1300048830001,-35.3650692,149.16329040000002,1
0.0,-18.46,189.63,603.140014648,-35.3650736,149.1632895,1
0.0,-18.41,189.63,603.140014648,-35.365078100000005,149.1632886,1
0.0,-17.83,189.63,603.140014648,-35.3650825,149.1632876,1
0.04,-16.66,189.63,603.140014648,-35.3650869,149.1632867,1
0.08,-15.3,189.64,603.140014648,-35.3650912,149.1632859,1
0.11,-14.12,189.65,603.140014648,-35.365095700000005,149.163285,1
0.13,-13.27,189.67,603.140014648,-35.365099900000004,149.1632841,1
0.15,-12.72,189.69,603.140014648,-35.365103999999995,149.1632832,1
0.16,-12.36,189.72,603.140014648,-35.36510820000001,149.16328230000002,1
0.15,-12.01,189.76,603.140014648,-35.3651123,149.1632814,1
0.14,-11.6,189.81,603.140014648,-35.3651162,149.16328059999998,1
0.13,-11.11,189.87,603.140014648,-35.36512020000001,149.16327969999998,1
0.12,-10.6,189.93,603.140014648,-35.365124,149.16327890000002,1
0.14,-10.06,189.99,603.140014648,-35.3651276,149.163278,1
0.16,-9.5,190.05,603.140014648,-35.365131299999994,149.1632773,1
0.15,-8.94,190.12,603.140014648,-35.3651349,149.1632765,1
0.14,-8.38,190.18,603.150024414,-35.3651383,149.16327569999999,1
0.16,-7.83,190.26,603.150024414,-35.3651416,149.163275,1
0.2,-7.3,190.34,603.150024414,-35.365145,149.1632742,1
0.29,-6.75,190.46,603.150024414,-35.3651482,149.1632736,1
0.42,-6.18,190.61,603.150024414,-35.36515120000001,149.16327280000002,1
0.56,-5.59,190.81,603.150024414,-35.3651542,149.16327230000002,1
0.71,-4.98,191.09,603.150024414,-35.365156899999995,149.1632716,1
0.89,-4.35,191.47,603.150024414,-35.3651598,149.16327080000002,1
1.07,-3.7,191.96,603.150024414,-35.365162299999994,149.16327030000002,1
1.29,-3.02,192.62,603.150024414,-35.365164799999995,149.1632697,1
1.54,-2.34,193.46,603.150024414,-35.3651672,149.1632689,1
1.84,-1.64,194.57,603.150024414,-35.3651696,149.16326840000002,1
2.22,-0.9,196.0,603.150024414,-35.3651717,149.1632678,1
2.67,-0.12,197.77,603.150024414,-35.3651737,149.16326719999998,1
3.17,0.69,199.68,603.150024414,-35.3651756,149.1632665,1
3.74,1.56,201.46,603.150024414,-35.3651773,149.1632659,1
4.33,2.49,202.92,603.150024414,-35.365178799999995,149.1632651,1
4.92,3.4,203.92,603.150024414,-35.3651803,149.1632645,1
5.49,4.13,204.42,603.150024414,-35.3651816,149.1632637,1
5.99,4.63,204.43,603.150024414,-35.3651826,149.1632631,1
6.41,4.91,204.04,603.150024414,-35.3651835,149.1632623,1
6.77,5.05,203.37,603.150024414,-35.3651842,149.1632616,1
7.08,5.12,202.55,603.150024414,-35.3651848,149.1632608,1
7.36,5.17,201.72,603.140014648,-35.36518529999999,149.1632599,1
7.57,5.21,200.98,603.140014648,-35.365185499999995,149.1632592,1
7.69,5.21,200.38,603.140014648,-35.36518579999999,149.16325830000002,1
7.75,5.12,199.97,603.140014648,-35.36518579999999,149.1632573,1
7.81,4.92,199.75,603.140014648,-35.36518579999999,149.1632563,1
7.92,4.62,199.72,603.140014648,-35.365185499999995,149.1632553,1
8.07,4.28,199.86,603.140014648,-35.36518529999999,149.1632541,1
8.18,4.15,200.36,603.140014648,-35.365184899999996,149.1632531,1
8.32,4.26,201.83,603.140014648,-35.3651845,149.1632519,1
8.66,4.22,204.82,603.140014648,-35.365184,149.1632507,1
9.22,3.66,209.41,603.140014648,-35.3651834,149.1632495,1
9.89,2.43,215.4,603.140014648,-35.3651828,149.1632482,1
10.47,0.55,222.46,603.140014648,-35.365182,149.1632469,1
10.76,-1.82,230.31,603.140014648,-35.3651811,149.16324540000002,1
10.57,-4.46,238.69,603.140014648,-35.3651804,149.163244,1
9.8,-7.06,247.37,603.140014648,-35.3651794,149.1632425,1
8.46,-9.42,256.11,603.140014648,-35.3651785,149.1632409,1
6.66,-11.32,264.63,603.140014648,-35.3651775,149.1632392,1
4.66,-12.71,272.68,603.140014648,-35.365176399999996,149.16323730000002,1
2.68,-13.59,280.09,603.140014648,-35.3651755,149.16323540000002,1
0.87,-14.06,286.84,603.140014648,-35.3651744,149.1632333,1
-0.64,-14.28,292.83,603.140014648,-35.365173299999995,149.1632311,1
-2.14,-14.4,298.14,603.140014648,-35.3651724,149.1632287,1
-3.75,-14.39,302.45,603.140014648,-35.3651713,149.1632263,1
-5.17,-14.29,305.37,603.140014648,-35.3651702,149.16322390000002,1
-6.07,-14.21,306.79,603.140014648,-35.365169099999996,149.16322130000003,1
-6.27,-14.19,306.82,603.140014648,-35.36516820000001,149.1632185,1
-5.71,-14.32,305.74,603.140014648,-35.3651672,149.1632157,1
-4.57,-14.6,303.84,603.140014648,-35.365165999999995,149.16321269999997,1
-3.06,-15.0,301.42,603.140014648,-35.3651651,149.1632096,1
-1.4,-15.39,298.8,603.140014648,-35.3651641,149.1632065,1
0.18,-15.7,296.29,603.140014648,-35.365162899999994,149.1632033,1
1.48,-15.9,294.16,603.140014648,-35.365161799999996,149.1632,1
2.36,-16.01,292.6,603.140014648,-35.3651608,149.1631967,1
2.75,-16.05,291.68,603.140014648,-35.365159600000005,149.16319330000002,1
2.72,-16.05,291.4,603.140014648,-35.3651583,149.1631899,1
2.37,-16.08,291.67,603.140014648,-35.365156899999995,149.1631866,1
1.8,-16.13,292.35,603.150024414,-35.3651556,149.1631831,1
1.13,-16.21,293.29,603.150024414,-35.36515429999999,149.1631794,1
0.46,-16.3,294.33,603.150024414,-35.3651528,149.163176,1
-0.13,-16.39,295.34,603.150024414,-35.3651513,149.1631722,1
-0.6,-16.44,296.18,603.150024414,-35.36515,149.1631686,1
-0.93,-16.49,296.81,603.150024414,-35.3651484,149.1631649,1
-1.11,-16.53,297.17,603.150024414,-35.365147,149.1631611,1
-1.14,-16.59,297.28,603.150024414,-35.3651456,149.1631572,1
-1.04,-16.64,297.18,603.150024414,-35.365144,149.1631534,1
-0.85,-16.69,296.9,603.150024414,-35.365142600000006,149.16314930000001,1
-0.6,-16.75,296.51,603.150024414,-35.365140999999994,149.16314540000002,1
-0.32,-16.8,296.08,603.150024414,-35.3651396,149.1631415,1
-0.04,-16.84,295.66,603.150024414,-35.365138,149.1631375,1
0.18,-16.9,295.29,603.150024414,-35.3651365,149.1631334,1
0.34,-16.96,295.02,603.150024414,-35.3651349,149.1631292,1
0.42,-17.01,294.85,603.150024414,-35.3651334,149.1631252,1
0.42,-17.06,294.78,603.150024414,-35.3651318,149.163121,1
0.35,-17.11,294.8,603.150024414,-35.3651301,149.1631169,1
0.24,-17.16,294.89,603.150024414,-35.365128600000006,149.1631127,1
0.11,-17.2,295.02,603.150024414,-35.3651269,149.1631085,1
0.0,-17.22,295.18,603.150024414,-35.3651252,149.1631042,1
-0.1,-17.23,295.32,603.150024414,-35.365123700000005,149.16309990000002,1
-0.18,-17.24,295.45,603.150024414,-35.365122,149.1630956,1
-0.24,-17.26,295.55,603.150024414,-35.3651203,149.16309130000002,1
-0.28,-17.3,295.6,603.150024414,-35.3651185,149.16308700000002,1
-0.29,-17.36,295.62,603.150024414,-35.365117,149.1630827,1
-0.26,-17.41,295.59,603.150024414,-35.3651153,149.1630783,1
-0.19,-17.46,295.54,603.150024414,-35.3651136,149.1630739,1
-0.14,-17.5,295.47,603.150024414,-35.365111799999994,149.1630695,1
-0.09,-17.54,295.39,603.150024414,-35.3651101,149.163065,1
-0.04,-17.56,295.32,603.150024414,-35.365108500000005,149.1630606,1
0.01,-17.58,295.25,603.150024414,-35.3651068,149.1630561,1
0.02,-17.6,295.2,603.150024414,-35.3651051,149.1630516,1
0.01,-17.61,295.16,603.150024414,-35.3651033,149.1630471,1
-0.01,-17.61,295.14,603.150024414,-35.3651015,149.16304250000002,1
-0.02,-17.62,295.14,603.150024414,-35.3650997,149.1630381,1
-0.02,-17.64,295.14,603.150024414,-35.365098100000004,149.1630334,1
-0.02,-17.69,295.16,603.140014648,-35.3650964,149.163029,1
-0.02,-17.76,295.17,603.140014648,-35.3650946,149.1630243,1
-0.03,-17.81,295.19,603.140014648,-35.36509279999999,149.1630198,1
-0.04,-17.83,295.21,603.140014648,-35.3650911,149.1630152,1
-0.05,-17.83,295.22,603.140014648,-35.3650893,149.16301059999998,1
-0.03,-17.82,295.22,603.140014648,-35.3650875,149.163006,1
-0.02,-17.81,295.22,603.140014648,-35.3650857,149.1630013,1
-0.02,-17.82,295.22,603.140014648,-35.365083899999995,149.1629966,1
-0.03,-17.84,295.21,603.140014648,-35.3650821,149.162992,1
-0.06,-17.86,295.2,603.140014648,-35.365080299999995,149.16298740000002,1
-0.08,-17.88,295.18,603.140014648,-35.365078499999996,149.1629826,1
-0.07,-17.89,295.16,603.140014648,-35.3650768,149.16297790000002,1
-0.02,-17.9,295.15,603.140014648,-35.365075,149.1629733,1
0.0,-17.91,295.13,603.140014648,-35.365073200000005,149.1629686,1
0.03,-17.94,295.12,603.140014648,-35.3650714,149.1629639,1
0.05,-17.95,295.11,603.140014648,-35.3650696,149.1629592,1
0.08,-17.96,295.11,603.140014648,-35.3650678,149.1629544,1
0.09,-17.98,295.1,603.140014648,-35.3650659,149.1629496,1
0.1,-17.99,295.1,603.140014648,-35.3650641,149.1629449,1
0.09,-18.02,295.1,603.140014648,-35.3650623,149.1629401,1
0.08,-18.03,295.1,603.140014648,-35.3650605,149.1629355,1
0.08,-18.05,295.1,603.140014648,-35.365058700000006,149.16293069999998,1
0.08,-18.07,295.11,603.140014648,-35.3650568,149.162926,1
0.06,-18.09,295.11,603.140014648,-35.365055,149.16292119999997,1
0.02,-18.1,295.11,603.140014648,-35.3650532,149.1629164,1
0.0,-18.11,295.1,603.140014648,-35.3650513,149.1629116,1
0.01,-18.13,295.1,603.140014648,-35.3650495,149.16290680000003,1
0.05,-18.13,295.09,603.140014648,-35.365047499999996,149.162902,1
0.09,-18.13,295.08,603.140014648,-35.3650458,149.16289719999997,1
0.11,-18.13,295.07,603.1300048830001,-35.365043799999995,149.1628924,1
0.13,-18.14,295.07,603.1300048830001,-35.365041999999995,149.1628876,1
0.13,-18.17,295.06,603.1300048830001,-35.3650401,149.16288280000003,1
0.15,-18.19,295.06,603.1300048830001,-35.365038299999995,149.16287780000002,1
0.16,-18.2,295.05,603.1300048830001,-35.3650364,149.162873,1
0.16,-18.21,295.05,603.1300048830001,-35.3650346,149.1628682,1
0.16,-18.21,295.05,603.1300048830001,-35.365032799999994,149.16286340000002,1
0.15,-18.18,295.05,603.1300048830001,-35.365031,149.1628586,1
0.14,-18.13,295.05,603.1300048830001,-35.3650291,149.16285380000002,1
0.12,-18.09,295.05,603.1300048830001,-35.36502720000001,149.1628489,1
0.05,-18.1,295.05,603.1300048830001,-35.36502539999999,149.1628441,1
0.0,-18.13,295.04,603.1300048830001,-35.3650235,149.16283909999999,1
-0.01,-18.15,295.04,603.1300048830001,-35.3650216,149.16283430000001,1
0.0,-18.14,295.03,603.1300048830001,-35.365019700000005,149.1628294,1
0.04,-18.12,295.02,603.1300048830001,-35.3650179,149.1628246,1
0.05,-18.14,295.01,603.1300048830001,-35.365016,149.16281980000002,1
0.03,-18.16,295.0,603.1300048830001,-35.365014,149.1628149,1
0.0,-18.2,294.98,603.1300048830001,-35.3650121,149.16281,1
-0.02,-18.25,294.97,603.1300048830001,-35.365010299999994,149.16280509999999,1
0.0,-18.24,294.96,603.1300048830001,-35.3650085,149.1628002,1
0.03,-18.2,294.95,603.1300048830001,-35.3650066,149.16279540000002,1
0.08,-18.17,294.95,603.1300048830001,-35.3650047,149.1627905,1
0.1,-18.17,294.94,603.1199951169999,-35.3650028,149.16278559999998,1
0.1,-18.19,294.93,603.1300048830001,-35.365001,149.1627806,1
0.07,-18.22,294.93,603.1300048830001,-35.364999100000006,149.16277580000002,1
0.04,-18.26,294.93,603.1199951169999,-35.3649972,149.1627709,1
0.04,-18.28,294.92,603.1199951169999,-35.3649952,149.162766,1
0.07,-18.28,294.92,603.1199951169999,-35.3649935,149.16276100000002,1
0.09,-18.26,294.92,603.1199951169999,-35.364991499999995,149.1627562,1
0.07,-18.26,294.92,603.1199951169999,-35.3649896,149.1627513,1
0.06,-18.29,294.91,603.1199951169999,-35.364987799999994,149.1627464,1
0.07,-18.31,294.91,603.1199951169999,-35.364986,149.16274140000002,1
0.06,-18.31,294.9,603.1199951169999,-35.3649841,149.1627366,1
0.02,-18.3,294.9,603.1199951169999,-35.36498220000001,149.1627317,1
-0.04,-18.29,294.9,603.1199951169999,-35.3649803,149.1627268,1
-0.07,-18.31,294.89,603.1199951169999,-35.3649784,149.1627218,1
-0.07,-18.33,294.89,603.1199951169999,-35.364976500000004,149.1627169,1
-0.04,-18.35,294.88,603.1199951169999,-35.3649745,149.162712,1
0.0,-18.34,294.88,603.1199951169999,-35.3649726,149.1627071,1
0.06,-18.34,294.87,603.1300048830001,-35.3649708,149.1627021,1
0.09,-18.32,294.87,603.1300048830001,-35.3649689,149.1626972,1
0.14,-18.26,294.86,603.1300048830001,-35.3649671,149.16269230000003,1
0.15,-18.23,294.86,603.1300048830001,-35.3649651,149.1626872,1
0.15,-18.22,294.86,603.1300048830001,-35.3649633,149.1626824,1
0.12,-18.24,294.86,603.1300048830001,-35.3649614,149.1626774,1
0.09,-18.29,294.86,603.1300048830001,-35.3649595,149.16267240000002,1
0.07,-18.35,294.87,603.1300048830001,-35.3649575,149.1626675,1
0.04,-18.39,294.87,603.1300048830001,-35.3649556,149.1626626,1
0.01,-18.41,294.87,603.1300048830001,-35.3649537,149.1626576,1
0.0,-18.41,294.87,603.1300048830001,-35.364951899999994,149.16265269999997,1
0.02,-18.39,294.87,603.1300048830001,-35.36495,149.1626478,1
0.04,-18.37,294.87,603.1300048830001,-35.3649481,149.1626427,1
0.07,-18.35,294.87,603.1300048830001,-35.364946200000006,149.1626379,1
0.07,-18.34,294.86,603.1300048830001,-35.3649443,149.162633,1
0.06,-18.35,294.86,603.1300048830001,-35.364942299999996,149.16262790000002,1
0.06,-18.36,294.86,603.1300048830001,-35.364940600000004,149.1626231,1
0.08,-18.38,294.86,603.1300048830001,-35.3649386,149.16261809999997,1
0.09,-18.4,294.86,603.1300048830001,-35.3649367,149.16261310000002,1
0.1,-18.41,294.86,603.1300048830001,-35.3649349,149.1626082,1
0.09,-18.42,294.86,603.1300048830001,-35.364933,149.1626033,1
0.08,-18.42,294.86,603.1300048830001,-35.3649311,149.1625982,1
0.08,-18.41,294.86,603.1300048830001,-35.3649292,149.16259340000002,1
0.07,-18.4,294.86,603.1300048830001,-35.3649273,149.1625884,1
0.08,-18.38,294.85,603.1300048830001,-35.3649254,149.16258340000002,1
0.09,-18.37,294.85,603.1300048830001,-35.3649234,149.1625785,1
0.1,-18.36,294.85,603.1300048830001,-35.3649215,149.1625734,1
0.08,-18.35,294.85,603.1300048830001,-35.3649197,149.1625685,1
0.07,-18.33,294.85,603.1300048830001,-35.36491779999999,149.1625636,1
0.07,-18.35,294.85,603.1300048830001,-35.3649159,149.1625585,1
0.08,-18.38,294.85,603.1300048830001,-35.3649141,149.1625536,1
0.09,-18.39,294.85,603.1300048830001,-35.364912200000006,149.1625487,1
0.11,-18.39,294.85,603.1300048830001,-35.36491029999999,149.1625436,1
0.12,-18.4,294.85,603.140014648,-35.3649084,149.1625388,1
0.13,-18.41,294.85,603.140014648,-35.3649064,149.16253380000003,1
0.11,-18.43,294.85,603.140014648,-35.3649045,149.16252880000002,1
0.09,-18.42,294.85,603.140014648,-35.3649027,149.1625239,1
0.07,-18.41,294.85,603.140014648,-35.364900799999994,149.16251880000002,1
0.02,-18.41,294.85,603.140014648,-35.3648989,149.1625139,1
-0.01,-18.41,294.85,603.140014648,-35.364897,149.162509,1
-0.02,-18.41,294.85,603.140014648,-35.3648951,149.16250390000002,1
0.0,-18.43,294.85,603.140014648,-35.364893200000004,149.1624991,1
0.02,-18.46,294.84,603.140014648,-35.3648912,149.16249409999998,1
0.03,-18.48,294.84,603.140014648,-35.3648893,149.162489,1
0.03,-18.49,294.84,603.140014648,-35.3648875,149.1624841,1
0.04,-18.48,294.84,603.140014648,-35.3648856,149.16247919999998,1
0.07,-18.45,294.84,603.140014648,-35.36488370000001,149.1624742,1
0.09,-18.42,294.84,603.140014648,-35.3648818,149.16246919999998,1
0.1,-18.39,294.84,603.140014648,-35.3648799,149.1624641,1
