Start,TimeUS,Roll,Pitch,Yaw,Alt,Lat,Lng,Q1,Q2,Q3,Q4,Category
0.0,0.0,353.0,584.090026855,-35.363261,149.1652299,0
0.0,0.0,353.0,584.090026855,-35.363261,149.1652299,0
0.0,0.0,353.0,584.090026855,-35.363261,149.1652299,0
0.0,0.0,353.0,584.090026855,-35.363261,149.1652299,0
0.0,0.0,353.0,584.090026855,-35.363261,149.1652299,0
0.0,0.0,353.0,584.090026855,-35.363261,149.1652299,0
0.0,0.0,353.0,584.090026855,-35.363261,149.1652299,0
0.0,0.0,353.0,584.090026855,-35.363261,149.1652299,0
0.0,0.0,353.0,584.090026855,-35.363261,149.1652299,0
0.0,0.0,353.0,584.090026855,-35.363261,149.1652299,0
0.0,0.0,353.0,584.090026855,-35.363261,149.1652299,0
0.0,0.0,353.0,584.090026855,-35.363261,149.1652299,0
0.0,0.0,353.0,584.090026855,-35.363261,149.1652299,0
0.0,0.0,353.0,584.090026855,-35.363261,149.1652299,0
0.0,0.0,353.0,584.090026855,-35.363261,149.1652299,0
0.0,0.0,353.0,584.090026855,-35.363261,149.1652299,0
0.0,0.0,353.0,584.090026855,-35.363261,149.1652299,0
0.0,0.0,353.0,584.090026855,-35.363261,149.1652299,0
0.0,0.0,353.0,584.090026855,-35.363261,149.1652299,0
0.0,0.0,353.0,584.090026855,-35.363261,149.1652299,0
0.0,0.0,353.0,584.090026855,-35.363261,149.1652299,0
0.0,0.0,353.0,584.090026855,-35.363261,149.1652299,0
0.0,0.0,353.0,584.090026855,-35.363261,149.1652299,0
0.0,0.0,353.0,584.090026855,-35.363261,149.1652299,0
0.0,0.0,353.0,584.090026855,-35.363261,149.1652299,0
0.0,0.0,353.0,584.090026855,-35.363261,149.1652299,0
0.0,0.0,353.0,584.090026855,-35.363261,149.1652299,0
0.0,0.0,353.0,584.090026855,-35.363261,149.1652299,0
0.0,0.0,353.0,584.090026855,-35.363261,149.1652299,0
0.0,0.0,353.0,584.090026855,-35.363261,149.1652299,0
0.0,0.0,353.0,584.090026855,-35.363261,149.1652299,0
0.0,0.0,353.0,584.090026855,-35.363261,149.1652299,0
0.0,0.0,353.0,584.090026855,-35.363261,149.1652299,0
0.0,0.0,353.0,584.090026855,-35.363261,149.1652299,0
0.0,0.0,353.0,584.090026855,-35.363261,149.1652299,0
0.0,0.0,353.0,584.090026855,-35.363261,149.1652299,0
0.0,0.0,353.0,584.090026855,-35.363261,149.1652299,0
0.0,0.0,353.0,584.090026855,-35.363261,149.1652299,0
0.0,0.0,353.0,584.090026855,-35.363261,149.1652299,0
0.0,0.0,353.0,584.090026855,-35.363261,149.1652299,0
0.0,0.0,353.0,584.090026855,-35.363261,149.1652299,0
0.0,0.0,353.0,584.090026855,-35.363261,149.1652299,0
0.0,0.0,353.0,584.090026855,-35.363261,149.1652299,0
0.0,0.0,353.0,584.090026855,-35.363261,149.1652299,0
0.0,0.0,353.0,584.090026855,-35.363261,149.1652299,0
0.0,0.0,353.0,584.090026855,-35.363261,149.1652299,0
0.0,0.0,353.0,584.090026855,-35.363261,149.1652299,0
0.0,0.0,353.0,584.090026855,-35.363261,149.1652299,0
0.0,0.0,353.0,584.090026855,-35.363261,149.1652299,0
0.0,0.0,353.0,584.090026855,-35.363261,149.1652299,0
0.0,0.0,353.0,584.090026855,-35.363261,149.1652299,0
0.0,0.0,353.0,584.090026855,-35.363261,149.1652299,0
0.0,0.0,353.0,584.090026855,-35.363261,149.1652299,0
0.0,0.0,353.0,584.090026855,-35.363261,149.1652299,0
0.0,0.0,353.0,584.090026855,-35.363261,149.1652299,0
0.0,0.0,353.0,584.090026855,-35.363261,149.1652299,0
0.0,0.0,353.0,584.090026855,-35.363261,149.1652299,0
0.0,0.0,353.0,584.090026855,-35.363261,149.1652299,0
0.0,0.0,353.0,584.090026855,-35.363261,149.1652299,0
0.0,0.0,353.0,584.090026855,-35.363261,149.1652299,0
0.0,0.0,353.0,584.090026855,-35.363261,149.1652299,0
0.0,0.0,353.0,584.090026855,-35.363261,149.1652299,0
0.0,0.0,353.0,584.090026855,-35.363261,149.1652299,0
0.0,0.0,353.0,584.090026855,-35.363261,149.1652299,0
0.0,0.0,353.0,584.090026855,-35.363261,149.1652299,0
0.0,0.0,353.0,584.090026855,-35.363261,149.1652299,0
0.0,0.0,353.0,584.090026855,-35.363261,149.1652299,0
0.0,0.0,353.0,584.090026855,-35.363261,149.1652299,0
0.0,0.0,353.0,584.090026855,-35.363261,149.1652299,0
0.0,0.0,353.0,584.090026855,-35.363261,149.1652299,0
0.0,0.0,353.0,584.090026855,-35.363261,149.1652299,0
0.0,0.0,353.0,584.090026855,-35.363261,149.1652299,0
0.0,0.0,353.0,584.090026855,-35.363261,149.1652299,0
0.0,0.0,353.0,584.090026855,-35.363261,149.1652299,0
0.0,0.0,353.0,584.090026855,-35.363261,149.1652299,0
0.0,0.0,353.0,584.090026855,-35.363261,149.1652299,0
0.0,0.0,353.0,584.090026855,-35.363261,149.1652299,0
0.0,0.0,353.0,584.090026855,-35.363261,149.1652299,0
0.0,0.0,353.0,584.090026855,-35.363261,149.1652299,0
0.0,0.0,353.0,584.090026855,-35.363261,149.1652299,0
0.0,0.0,353.0,584.090026855,-35.363261,149.1652299,0
0.0,0.0,353.0,584.090026855,-35.363261,149.1652299,0
0.0,0.0,353.0,584.090026855,-35.363261,149.1652299,0
0.0,0.0,353.0,584.090026855,-35.363261,149.1652299,0
0.0,0.0,353.0,584.090026855,-35.363261,149.1652299,0
0.0,0.0,353.0,584.090026855,-35.363261,149.1652299,0
0.0,0.0,353.0,584.090026855,-35.363261,149.1652299,0
0.0,0.0,353.0,584.090026855,-35.363261,149.1652299,0
0.0,0.0,353.0,584.090026855,-35.363261,149.1652299,0
0.0,0.0,353.0,584.090026855,-35.363261,149.1652299,0
0.0,0.0,353.0,584.090026855,-35.363261,149.1652299,0
0.0,0.0,353.0,584.090026855,-35.363261,149.1652299,0
0.0,0.0,353.0,584.090026855,-35.363261,149.1652299,0
0.0,0.0,353.0,584.090026855,-35.363261,149.1652299,0
0.0,0.0,353.0,584.090026855,-35.363261,149.1652299,0
0.0,0.0,353.0,584.090026855,-35.363261,149.1652299,0
0.0,0.0,353.0,584.090026855,-35.363261,149.1652299,0
0.0,0.0,353.0,584.090026855,-35.363261,149.1652299,0
0.0,0.0,353.0,584.090026855,-35.363261,149.1652299,0
0.0,0.0,353.0,584.090026855,-35.363261,149.1652299,0
0.0,0.0,353.0,584.090026855,-35.363261,149.1652299,0
0.0,0.0,353.0,584.090026855,-35.363261,149.1652299,0
0.0,0.0,353.0,584.090026855,-35.363261,149.1652299,0
0.0,0.0,353.0,584.090026855,-35.363261,149.1652299,0
0.0,0.0,353.0,584.090026855,-35.363261,149.1652299,0
0.0,0.0,353.0,584.090026855,-35.363261,149.1652299,0
0.0,0.0,353.0,584.090026855,-35.363261,149.1652299,0
0.0,0.0,353.0,584.090026855,-35.363261,149.1652299,0
0.0,0.0,353.0,584.090026855,-35.363261,149.1652299,0
0.0,0.0,353.0,584.090026855,-35.363261,149.1652299,0
0.0,0.0,353.0,584.090026855,-35.363261,149.1652299,0
0.0,0.0,353.0,584.090026855,-35.363261,149.1652299,0
0.0,0.0,353.0,584.090026855,-35.363261,149.1652299,0
0.0,0.0,353.0,584.090026855,-35.363261,149.1652299,0
0.0,0.0,353.0,584.090026855,-35.363261,149.1652299,0
0.0,0.0,353.0,584.090026855,-35.363261,149.1652299,0
0.0,0.0,353.0,584.090026855,-35.363261,149.1652299,0
0.0,0.0,353.0,584.090026855,-35.363261,149.1652299,0
0.0,0.0,353.0,584.090026855,-35.363261,149.1652299,0
0.0,0.0,353.0,584.090026855,-35.363261,149.1652299,0
0.0,0.0,353.0,584.090026855,-35.363261,149.1652299,0
0.0,0.0,353.0,584.090026855,-35.363261,149.1652299,0
0.0,0.0,353.0,584.090026855,-35.363261,149.1652299,0
0.0,0.0,353.0,584.090026855,-35.363261,149.1652299,0
0.0,0.0,353.0,584.090026855,-35.363261,149.1652299,0
0.0,0.0,353.0,584.090026855,-35.363261,149.1652299,0
0.0,0.0,353.0,584.090026855,-35.363261,149.1652299,0
0.0,0.0,353.0,584.090026855,-35.363261,149.1652299,0
0.0,0.0,353.0,584.090026855,-35.363261,149.1652299,0
0.0,0.0,353.0,584.090026855,-35.363261,149.1652299,0
0.0,0.0,353.0,584.090026855,-35.363261,149.1652299,0
0.0,0.0,353.0,584.090026855,-35.363261,149.1652299,0
0.0,0.0,353.0,584.090026855,-35.363261,149.1652299,0
0.0,0.0,353.0,584.090026855,-35.363261,149.1652299,0
0.0,0.0,353.0,584.090026855,-35.363261,149.1652299,0
0.0,0.0,353.0,584.090026855,-35.363261,149.1652299,0
0.0,0.0,353.0,584.090026855,-35.363261,149.1652299,0
0.0,0.0,353.0,584.090026855,-35.363261,149.1652299,0
0.0,0.0,353.0,584.090026855,-35.363261,149.1652299,0
0.0,0.0,353.0,584.090026855,-35.363261,149.1652299,0
0.0,0.0,353.0,584.090026855,-35.363261,149.1652299,0
0.0,0.0,353.0,584.090026855,-35.363261,149.1652299,0
0.0,0.0,353.0,584.090026855,-35.363261,149.1652299,0
0.0,0.0,353.0,584.090026855,-35.363261,149.1652299,0
0.0,0.0,353.0,584.090026855,-35.363261,149.1652299,0
0.0,0.0,353.0,584.090026855,-35.363261,149.1652299,0
0.0,0.0,353.0,584.090026855,-35.363261,149.1652299,0
0.0,0.0,353.0,584.090026855,-35.363261,149.1652299,0
0.0,0.0,353.0,584.090026855,-35.363261,149.1652299,0
0.0,0.0,353.0,584.099975586,-35.363261,149.1652299,0
0.0,0.0,353.0,584.099975586,-35.363261,149.1652299,0
0.0,0.0,353.0,584.1199951169999,-35.363261,149.1652299,0
0.0,0.0,353.0,584.140014648,-35.363261,149.1652299,0
0.0,0.0,353.0,584.16998291,-35.363261,149.1652299,0
0.0,0.0,353.0,584.210021973,-35.363261,149.1652299,0
-0.03,-0.02,352.99,584.2600097659999,-35.363261,149.1652299,0
-0.1,-0.09,352.99,584.3699951169999,-35.363261,149.1652299,0
-0.18,-0.17,352.99,584.5100097659999,-35.363261,149.1652299,0
-0.23,-0.22,352.99,584.66998291,-35.363261,149.1652299,0
-0.23,-0.21,352.98,584.820007324,-35.363261,149.1652299,0
-0.2,-0.17,352.98,584.9699707030001,-35.363261,149.1652299,0
-0.14,-0.11,352.98,585.1300048830001,-35.363261,149.1652299,0
-0.06,-0.05,352.98,585.289978027,-35.363261,149.1652299,0
0.0,-0.03,352.98,585.450012207,-35.363261,149.1652299,0
0.04,-0.01,352.98,585.6199951169999,-35.363261,149.16522980000002,0
0.06,-0.02,352.98,585.799987793,-35.363261,149.16522980000002,0
0.05,-0.02,352.98,585.979980469,-35.363261,149.16522980000002,0
0.02,-0.02,352.98,586.16998291,-35.363261,149.16522980000002,0
0.0,-0.03,352.98,586.359985352,-35.363261,149.16522980000002,0
-0.01,-0.07,352.98,586.549987793,-35.363261,149.16522980000002,0
-0.02,-0.1,352.98,586.7399902340001,-35.363261,149.16522980000002,0
-0.02,-0.12,352.98,586.9400024409999,-35.363261,149.16522980000002,0
0.0,-0.11,352.98,587.140014648,-35.363261,149.16522980000002,0
0.03,-0.08,352.98,587.340026855,-35.363261,149.16522980000002,0
0.05,-0.04,352.98,587.549987793,-35.3632609,149.16522980000002,0
0.04,-0.01,352.98,587.7600097659999,-35.3632609,149.16522980000002,0
0.03,0.0,352.98,587.960021973,-35.3632609,149.16522980000002,0
0.0,0.0,352.98,588.16998291,-35.3632609,149.16522980000002,0
-0.01,0.0,352.98,588.3800048830001,-35.3632609,149.16522980000002,0
-0.03,0.0,352.97,588.599975586,-35.3632609,149.16522980000002,0
-0.06,-0.02,352.97,588.8099975590001,-35.3632609,149.16522980000002,0
-0.07,-0.03,352.97,589.0300292969999,-35.3632609,149.16522969999997,0
-0.06,-0.05,352.96,589.2399902340001,-35.3632609,149.16522969999997,0
-0.04,-0.06,352.96,589.460021973,-35.36326079999999,149.16522969999997,0
-0.02,-0.07,352.96,589.679992676,-35.36326079999999,149.16522969999997,0
-0.04,-0.07,352.95,589.890014648,-35.36326079999999,149.16522969999997,0
-0.08,-0.06,352.95,590.099975586,-35.36326079999999,149.16522969999997,0
-0.11,-0.04,352.95,590.299987793,-35.36326079999999,149.16522969999997,0
-0.11,-0.03,352.94,590.4899902340001,-35.36326079999999,149.16522969999997,0
-0.11,-0.05,352.94,590.66998291,-35.36326079999999,149.16522959999998,0
-0.12,-0.07,352.94,590.83001709,-35.36326079999999,149.16522959999998,0
-0.2,-0.14,352.94,590.9899902340001,-35.36326079999999,149.16522959999998,0
-0.43,-0.36,352.94,591.1300048830001,-35.363260700000005,149.16522959999998,0
-0.85,-0.79,352.94,591.25,-35.363260700000005,149.16522959999998,0
-1.45,-1.39,352.94,591.3699951169999,-35.363260700000005,149.1652294,0
-2.16,-2.1,352.96,591.4699707030001,-35.363260700000005,149.1652294,0
-2.89,-2.86,352.98,591.5599975590001,-35.363260499999996,149.1652293,0
-3.51,-3.53,352.99,591.640014648,-35.3632604,149.1652292,0
-3.98,-4.04,352.99,591.710021973,-35.36326029999999,149.16522890000002,0
-4.31,-4.42,352.98,591.7800292969999,-35.3632602,149.16522869999997,0
-4.56,-4.71,352.97,591.83001709,-35.3632598,149.1652284,0
-4.78,-4.97,352.95,591.8800048830001,-35.3632597,149.16522790000002,0
-5.01,-5.24,352.93,591.91998291,-35.3632593,149.1652274,0
-5.27,-5.48,352.92,591.960021973,-35.363259,149.16522690000002,0
-5.52,-5.71,352.91,591.9899902340001,-35.3632586,149.1652263,0
-5.71,-5.89,352.89,592.020019531,-35.363258,149.1652255,0
-5.82,-6.03,352.89,592.049987793,-35.3632576,149.1652248,0
-5.9,-6.15,352.88,592.070007324,-35.3632571,149.1652239,0
-5.98,-6.24,352.88,592.090026855,-35.3632565,149.165223,0
-6.07,-6.33,352.88,592.1199951169999,-35.3632558,149.1652221,0
-6.28,-6.41,352.86,592.140014648,-35.363255200000005,149.165221,0
-6.73,-6.37,352.48,592.159973145,-35.363254299999994,149.16521980000002,0
-7.35,-6.32,351.07,592.179992676,-35.3632537,149.1652187,0
-7.82,-6.54,348.06,592.200012207,-35.3632529,149.16521740000002,0
-7.84,-7.18,343.42,592.2199707030001,-35.363252,149.165216,0
-7.25,-8.2,337.35,592.2399902340001,-35.36325120000001,149.16521469999998,0
-6.01,-9.45,330.13,592.2600097659999,-35.3632504,149.16521310000002,1
-3.98,-10.72,322.05,592.2800292969999,-35.3632494,149.1652115,1
-1.18,-11.76,313.94,592.299987793,-35.363248600000006,149.1652097,1
1.88,-12.32,306.64,592.320007324,-35.3632476,149.165208,1
4.58,-12.46,300.95,592.349975586,-35.3632465,149.1652062,1
6.44,-12.39,297.24,592.3699951169999,-35.363245299999996,149.1652043,1
7.26,-12.36,295.51,592.400024414,-35.363244099999996,149.1652024,1
7.08,-12.5,295.45,592.41998291,-35.363242799999995,149.1652004,1
6.09,-12.88,296.7,592.450012207,-35.3632414,149.1651985,1
4.55,-13.44,298.88,592.479980469,-35.363239799999995,149.1651964,1
2.77,-14.06,301.65,592.5100097659999,-35.3632383,149.16519440000002,1
0.99,-14.63,304.68,592.539978027,-35.3632366,149.16519219999998,1
-0.61,-15.05,307.62,592.570007324,-35.3632349,149.16519,1
-1.89,-15.27,310.16,592.609985352,-35.3632331,149.1651877,1
-2.76,-15.33,312.05,592.640014648,-35.3632315,149.16518530000002,1
-3.18,-15.31,313.19,592.66998291,-35.363229700000005,149.16518269999997,1
-3.19,-15.27,313.58,592.710021973,-35.3632279,149.16518,1
-2.87,-15.28,313.31,592.7399902340001,-35.3632261,149.1651774,1
-2.32,-15.36,312.53,592.7800292969999,-35.3632243,149.1651746,1
-1.63,-15.48,311.43,592.8099975590001,-35.3632225,149.1651717,1
-0.87,-15.61,310.17,592.849975586,-35.3632206,149.1651688,1
-0.15,-15.74,308.94,592.890014648,-35.363218700000004,149.1651657,1
0.46,-15.83,307.87,592.91998291,-35.3632167,149.1651628,1
0.92,-15.89,307.05,592.960021973,-35.3632148,149.16515969999998,1
1.17,-15.92,306.54,592.9899902340001,-35.36321289999999,149.1651566,1
1.22,-15.95,306.33,593.0300292969999,-35.3632109,149.1651535,1
1.09,-15.97,306.4,593.0599975590001,-35.36320870000001,149.1651503,1
0.86,-16.01,306.68,593.099975586,-35.363206700000006,149.165147,1
0.57,-16.07,307.1,593.140014648,-35.363204499999995,149.1651437,1
0.29,-16.14,307.6,593.16998291,-35.3632024,149.1651405,1
0.03,-16.18,308.09,593.210021973,-35.3632002,149.1651372,1
-0.17,-16.2,308.53,593.25,-35.363198100000005,149.16513390000003,1
-0.34,-16.22,308.87,593.2800292969999,-35.363195899999994,149.1651305,1
-0.48,-16.28,309.09,593.320007324,-35.3631935,149.1651271,1
-0.53,-16.35,309.19,593.359985352,-35.3631914,149.16512350000002,1
-0.51,-16.42,309.19,593.390014648,-35.36318920000001,149.1651202,1
-0.42,-16.45,309.09,593.429992676,-35.363186799999994,149.1651166,1
-0.3,-16.46,308.93,593.4699707030001,-35.363184499999996,149.165113,1
-0.18,-16.45,308.74,593.5,-35.3631823,149.1651095,1
-0.06,-16.44,308.55,593.539978027,-35.36318,149.16510590000001,1
0.05,-16.43,308.38,593.58001709,-35.3631777,149.1651023,1
0.14,-16.45,308.24,593.6199951169999,-35.363175299999995,149.1650986,1
0.19,-16.49,308.15,593.650024414,-35.3631729,149.1650949,1
0.2,-16.53,308.1,593.6900024409999,-35.3631705,149.16509140000002,1
0.16,-16.56,308.1,593.729980469,-35.3631683,149.1650876,1
0.11,-16.59,308.14,593.770019531,-35.3631659,149.165084,1
0.04,-16.61,308.2,593.799987793,-35.3631635,149.1650803,1
-0.02,-16.65,308.27,593.840026855,-35.363161100000006,149.1650766,1
-0.07,-16.71,308.34,593.8800048830001,-35.36315870000001,149.16507280000002,1
-0.11,-16.76,308.41,593.91998291,-35.363156200000006,149.165069,1
-0.11,-16.79,308.47,593.950012207,-35.36315379999999,149.1650652,1
-0.1,-16.83,308.51,593.9899902340001,-35.3631513,149.1650615,1
-0.08,-16.86,308.53,594.0300292969999,-35.3631489,149.16505769999998,1
-0.06,-16.87,308.53,594.070007324,-35.3631464,149.1650539,1
-0.06,-16.87,308.52,594.099975586,-35.363143900000004,149.1650501,1
-0.05,-16.89,308.5,594.140014648,-35.3631415,149.16504619999998,1
-0.02,-16.93,308.47,594.179992676,-35.363138899999996,149.1650424,1
0.0,-16.96,308.44,594.2199707030001,-35.3631364,149.16503840000001,1
0.0,-16.98,308.42,594.2600097659999,-35.3631339,149.1650345,1
-0.01,-16.99,308.4,594.289978027,-35.3631315,149.1650307,1
0.0,-17.0,308.39,594.33001709,-35.3631289,149.16502680000002,1
0.02,-17.01,308.38,594.3699951169999,-35.3631264,149.1650229,1
0.03,-17.04,308.38,594.409973145,-35.3631239,149.165019,1
0.02,-17.09,308.39,594.450012207,-35.36312120000001,149.1650149,1
0.01,-17.14,308.4,594.479980469,-35.3631187,149.16501100000002,1
0.01,-17.17,308.41,594.520019531,-35.3631162,149.1650071,1
0.01,-17.19,308.42,594.5599975590001,-35.36311370000001,149.1650032,1
0.01,-17.21,308.44,594.599975586,-35.363111100000005,149.1649991,1
0.01,-17.2,308.45,594.640014648,-35.363108399999994,149.1649952,1
0.01,-17.19,308.46,594.66998291,-35.3631059,149.16499119999997,1
0.02,-17.18,308.46,594.710021973,-35.3631034,149.1649871,1
0.02,-17.18,308.46,594.75,-35.3631008,149.1649832,1
0.01,-17.21,308.45,594.789978027,-35.3630981,149.16497919999998,1
0.04,-17.27,308.45,594.83001709,-35.3630956,149.1649751,1
0.06,-17.32,308.44,594.859985352,-35.363093,149.1649712,1
0.08,-17.32,308.43,594.900024414,-35.3630904,149.16496719999998,1
0.08,-17.32,308.43,594.9400024409999,-35.3630877,149.1649631,1
0.08,-17.33,308.43,594.979980469,-35.3630851,149.1649591,1
0.08,-17.34,308.43,595.0100097659999,-35.363082500000004,149.164955,1
0.06,-17.38,308.43,595.049987793,-35.363079799999994,149.164951,1
0.04,-17.4,308.43,595.090026855,-35.363077200000006,149.16494690000002,1
0.03,-17.41,308.43,595.1300048830001,-35.363074600000004,149.1649429,1
0.05,-17.41,308.43,595.159973145,-35.3630719,149.1649387,1
0.06,-17.39,308.43,595.200012207,-35.3630693,149.16493469999998,1
0.07,-17.39,308.43,595.2399902340001,-35.363066499999995,149.1649306,1
0.08,-17.4,308.43,595.2800292969999,-35.363064,149.16492649999998,1
0.08,-17.42,308.43,595.3099975590001,-35.3630613,149.16492240000002,1
0.06,-17.45,308.43,595.349975586,-35.3630586,149.1649182,1
0.05,-17.46,308.42,595.390014648,-35.363056,149.1649142,1
0.07,-17.46,308.41,595.429992676,-35.3630533,149.16491000000002,1
0.08,-17.47,308.41,595.4699707030001,-35.3630506,149.164906,1
0.08,-17.51,308.4,595.5,-35.363048,149.16490190000002,1
0.07,-17.54,308.39,595.539978027,-35.3630452,149.1648978,1
0.08,-17.57,308.39,595.58001709,-35.36304260000001,149.1648937,1
0.1,-17.59,308.38,595.6199951169999,-35.363040000000005,149.16488950000002,1
0.13,-17.59,308.38,595.650024414,-35.3630372,149.1648854,1
0.15,-17.59,308.38,595.6900024409999,-35.3630346,149.16488130000002,1
0.14,-17.6,308.38,595.729980469,-35.363031799999995,149.164877,1
0.13,-17.62,308.37,595.770019531,-35.3630292,149.164873,1
0.13,-17.62,308.37,595.799987793,-35.363026399999995,149.16486880000002,1
0.12,-17.62,308.37,595.840026855,-35.36302379999999,149.1648646,1
0.12,-17.63,308.37,595.8800048830001,-35.363021100000005,149.1648606,1
0.11,-17.66,308.36,595.909973145,-35.3630184,149.1648564,1
0.07,-17.68,308.36,595.950012207,-35.3630157,149.1648523,1
0.05,-17.68,308.36,595.9899902340001,-35.363012899999994,149.1648481,1
0.04,-17.68,308.35,596.0300292969999,-35.36301029999999,149.1648439,1
0.04,-17.66,308.35,596.0599975590001,-35.3630075,149.1648396,1
0.07,-17.66,308.34,596.099975586,-35.36300479999999,149.1648356,1
0.11,-17.67,308.33,596.140014648,-35.363002,149.1648314,1
0.15,-17.7,308.32,596.179992676,-35.3629994,149.1648272,1
0.15,-17.73,308.31,596.210021973,-35.3629966,149.16482290000002,1
0.12,-17.75,308.3,596.25,-35.362994,149.1648188,1
0.08,-17.75,308.3,596.289978027,-35.3629911,149.1648146,1
0.07,-17.73,308.29,596.33001709,-35.3629885,149.1648104,1
0.07,-17.71,308.29,596.359985352,-35.3629858,149.1648062,1
0.06,-17.7,308.29,596.400024414,-35.362983,149.1648021,1
0.05,-17.7,308.29,596.4400024409999,-35.3629802,149.1647979,1
0.05,-17.72,308.28,596.479980469,-35.3629776,149.1647937,1
0.05,-17.78,308.28,596.5100097659999,-35.3629747,149.16478940000002,1
0.05,-17.82,308.27,596.549987793,-35.3629721,149.1647853,1
0.04,-17.83,308.26,596.590026855,-35.3629694,149.1647811,1
0.04,-17.83,308.26,596.6199951169999,-35.3629666,149.16477680000003,1
0.03,-17.81,308.25,596.659973145,-35.362963799999996,149.1647726,1
0.01,-17.8,308.25,596.700012207,-35.36296110000001,149.16476830000002,1
0.0,-17.79,308.24,596.7399902340001,-35.362958299999995,149.16476409999999,1
0.01,-17.78,308.23,596.770019531,-35.36295560000001,149.16476,1
0.03,-17.78,308.23,596.8099975590001,-35.3629527,149.16475569999997,1
0.07,-17.79,308.22,596.849975586,-35.3629501,149.1647515,1
0.11,-17.8,308.22,596.890014648,-35.3629473,149.1647472,1
0.15,-17.83,308.21,596.91998291,-35.3629446,149.1647429,1
0.18,-17.84,308.21,596.960021973,-35.362941799999994,149.1647387,1
0.18,-17.82,308.21,597.0,-35.3629391,149.16473440000001,1
0.17,-17.8,308.21,597.039978027,-35.362936299999994,149.1647303,1
0.14,-17.8,308.21,597.070007324,-35.3629336,149.1647261,1
0.1,-17.8,308.21,597.109985352,-35.362930799999994,149.16472180000002,1
0.08,-17.81,308.21,597.150024414,-35.362928100000005,149.1647176,1
0.08,-17.83,308.21,597.1900024409999,-35.36292529999999,149.16471330000002,1
0.08,-17.85,308.21,597.229980469,-35.362922600000005,149.16470900000002,1
0.08,-17.87,308.21,597.2600097659999,-35.3629198,149.1647047,1
0.08,-17.89,308.21,597.299987793,-35.3629169,149.1647006,1
0.1,-17.91,308.2,597.340026855,-35.3629143,149.16469630000003,1
0.12,-17.93,308.2,597.3800048830001,-35.3629114,149.1646921,1
0.14,-17.95,308.19,597.409973145,-35.3629088,149.1646878,1
0.15,-17.95,308.19,597.450012207,-35.3629059,149.1646836,1
0.15,-17.95,308.19,597.4899902340001,-35.3629032,149.16467930000002,1
0.14,-17.93,308.19,597.5300292969999,-35.362900399999994,149.164675,1
0.14,-17.91,308.19,597.570007324,-35.362897700000005,149.1646707,1
0.14,-17.9,308.19,597.599975586,-35.36289489999999,149.16466640000002,1
0.13,-17.88,308.19,597.640014648,-35.362891999999995,149.1646623,1
0.11,-17.86,308.19,597.679992676,-35.3628894,149.164658,1
0.09,-17.87,308.19,597.7199707030001,-35.3628865,149.16465380000002,1
0.09,-17.89,308.19,597.7600097659999,-35.3628838,149.16464950000002,1
0.09,-17.92,308.18,597.789978027,-35.362881,149.16464530000002,1
0.09,-17.95,308.18,597.83001709,-35.3628783,149.164641,1
0.11,-17.97,308.18,597.8699951169999,-35.3628755,149.1646367,1
0.15,-17.98,308.18,597.909973145,-35.3628726,149.16463240000002,1
0.19,-17.98,308.17,597.950012207,-35.36287,149.1646281,1
0.2,-17.96,308.17,597.979980469,-35.3628671,149.16462380000002,1
0.2,-17.92,308.16,598.020019531,-35.3628644,149.1646197,1
0.18,-17.88,308.16,598.0599975590001,-35.3628615,149.1646154,1
0.18,-17.85,308.15,598.099975586,-35.3628588,149.1646111,1
0.19,-17.85,308.15,598.1300048830001,-35.3628561,149.16460690000002,1
0.18,-17.87,308.14,598.16998291,-35.3628533,149.1646026,1
0.16,-17.88,308.14,598.210021973,-35.3628505,149.1645983,1
0.14,-17.89,308.14,598.25,-35.3628476,149.164594,1
0.13,-17.9,308.14,598.289978027,-35.3628449,149.1645897,1
0.13,-17.9,308.14,598.320007324,-35.3628421,149.1645854,1
0.14,-17.91,308.13,598.359985352,-35.3628393,149.1645811,1
0.16,-17.92,308.13,598.400024414,-35.3628366,149.16457680000002,1
0.16,-17.93,308.13,598.4400024409999,-35.3628338,149.1645726,1
0.13,-17.96,308.12,598.479980469,-35.362831,149.1645684,1
0.11,-17.99,308.12,598.5100097659999,-35.3628281,149.16456409999998,1
0.11,-18.0,308.11,598.549987793,-35.3628254,149.16455980000003,1
0.13,-17.98,308.11,598.590026855,-35.3628226,149.1645556,1
0.14,-17.96,308.1,598.6300048830001,-35.3628197,149.1645513,1
0.16,-17.94,308.09,598.66998291,-35.3628171,149.164547,1
0.18,-17.92,308.08,598.700012207,-35.3628142,149.1645427,1
0.2,-17.91,308.08,598.7399902340001,-35.3628115,149.1645385,1
0.21,-17.91,308.07,598.7800292969999,-35.3628086,149.1645342,1
0.19,-17.93,308.07,598.820007324,-35.3628059,149.16452990000002,1
0.17,-17.96,308.07,598.849975586,-35.3628031,149.16452560000002,1
0.16,-18.0,308.07,598.890014648,-35.3628002,149.16452130000002,1
0.17,-18.03,308.06,598.929992676,-35.3627975,149.164517,1
0.19,-18.05,308.06,598.9699707030001,-35.3627947,149.1645127,1
0.21,-18.07,308.06,599.0100097659999,-35.362792,149.16450840000002,1
0.24,-18.06,308.05,599.039978027,-35.3627892,149.1645041,1
0.25,-18.02,308.05,599.08001709,-35.3627864,149.1645,1
0.23,-17.96,308.05,599.1199951169999,-35.3627836,149.1644957,1
0.21,-17.91,308.05,599.159973145,-35.3627807,149.1644914,1
0.21,-17.88,308.04,599.1900024409999,-35.362778000000006,149.1644871,1
0.21,-17.9,308.04,599.229980469,-35.3627752,149.16448280000003,1
0.22,-17.93,308.04,599.270019531,-35.3627724,149.1644785,1
0.22,-17.96,308.04,599.3099975590001,-35.3627696,149.16447419999997,1
0.21,-17.99,308.03,599.340026855,-35.3627667,149.1644699,1
0.21,-18.0,308.03,599.3800048830001,-35.362764,149.1644656,1
0.22,-18.0,308.02,599.41998291,-35.3627612,149.1644614,1
0.2,-17.99,308.02,599.460021973,-35.3627584,149.1644571,1
0.19,-17.98,308.01,599.4899902340001,-35.36275560000001,149.16445280000002,1
0.17,-17.98,308.0,599.5300292969999,-35.3627527,149.16444850000002,1
0.16,-17.99,307.99,599.570007324,-35.36275,149.1644442,1
0.17,-18.01,307.99,599.609985352,-35.3627472,149.1644399,1
0.17,-18.01,307.98,599.650024414,-35.362744299999996,149.1644356,1
0.16,-18.03,307.97,599.679992676,-35.3627416,149.16443130000002,1
0.16,-18.04,307.97,599.7199707030001,-35.3627387,149.164427,1
0.18,-18.05,307.97,599.7600097659999,-35.362736,149.1644227,1
0.21,-18.04,307.96,599.799987793,-35.36273320000001,149.16441840000002,1
0.24,-18.01,307.96,599.83001709,-35.362730299999996,149.1644141,1
0.25,-17.97,307.96,599.8699951169999,-35.3627276,149.16440980000002,1
0.24,-17.94,307.95,599.909973145,-35.3627247,149.1644055,1
0.22,-17.95,307.95,599.950012207,-35.362722,149.1644012,1
0.2,-17.95,307.95,599.979980469,-35.3627192,149.1643969,1
0.18,-17.98,307.95,600.020019531,-35.362716299999995,149.16439259999999,1
0.18,-18.02,307.94,600.0599975590001,-35.3627136,149.1643884,1
0.19,-18.07,307.94,600.099975586,-35.3627107,149.1643841,1
0.22,-18.1,307.94,600.1300048830001,-35.362708000000005,149.1643798,1
0.26,-18.09,307.94,600.16998291,-35.3627052,149.16437549999998,1
0.28,-18.08,307.93,600.210021973,-35.362702299999995,149.16437119999998,1
0.29,-18.06,307.93,600.25,-35.362699600000006,149.1643669,1
0.29,-18.04,307.93,600.2800292969999,-35.3626968,149.1643626,1
0.28,-18.04,307.92,600.320007324,-35.362694,149.1643583,1
0.25,-18.04,307.92,600.359985352,-35.3626912,149.164354,1
0.21,-18.01,307.92,600.400024414,-35.362688299999995,149.1643497,1
0.18,-17.99,307.92,600.429992676,-35.3626855,149.1643454,1
0.18,-17.97,307.92,600.4699707030001,-35.36268270000001,149.16434119999997,1
0.21,-17.99,307.91,600.5100097659999,-35.362679799999995,149.1643369,1
0.24,-18.02,307.91,600.539978027,-35.3626771,149.1643326,1
0.25,-18.03,307.9,600.58001709,-35.362674299999995,149.1643283,1
0.24,-18.01,307.9,600.6199951169999,-35.362671500000005,149.164324,1
0.23,-17.99,307.89,600.659973145,-35.3626687,149.1643197,1
0.21,-17.98,307.88,600.6900024409999,-35.3626658,149.16431540000002,1
0.18,-17.97,307.88,600.729980469,-35.362663,149.164311,1
0.19,-17.97,307.87,600.770019531,-35.3626602,149.16430669999997,1
0.19,-17.97,307.86,600.8099975590001,-35.362657299999995,149.1643024,1
0.18,-17.98,307.86,600.840026855,-35.362654600000006,149.1642982,1
0.16,-17.98,307.85,600.8800048830001,-35.362651799999995,149.1642939,1
0.17,-17.97,307.84,600.91998291,-35.362649,149.1642896,1
0.19,-17.98,307.83,600.960021973,-35.36264620000001,149.16428530000002,1
0.23,-17.98,307.83,600.9899902340001,-35.362643299999995,149.16428100000002,1
0.24,-17.99,307.82,601.0300292969999,-35.3626406,149.1642766,1
0.25,-18.01,307.82,601.070007324,-35.362637799999995,149.16427230000002,1
0.26,-18.05,307.81,601.109985352,-35.362635,149.164268,1
0.27,-18.06,307.81,601.140014648,-35.36263220000001,149.1642637,1
0.26,-18.04,307.81,601.179992676,-35.362629299999995,149.1642594,1
0.26,-18.01,307.81,601.2199707030001,-35.3626266,149.1642551,1
0.25,-17.98,307.81,601.25,-35.362623799999994,149.16425080000002,1
0.25,-17.95,307.81,601.289978027,-35.362621000000004,149.16424650000002,1
0.24,-17.93,307.8,601.33001709,-35.3626182,149.1642422,1
0.21,-17.94,307.8,601.3699951169999,-35.3626153,149.1642379,1
0.2,-17.95,307.8,601.409973145,-35.3626125,149.1642336,1
0.2,-17.97,307.8,601.4400024409999,-35.3626098,149.16422930000002,1
0.21,-17.99,307.79,601.479980469,-35.362606899999996,149.164225,1
0.22,-18.01,307.79,601.520019531,-35.362604100000006,149.1642207,1
0.22,-18.01,307.78,601.5599975590001,-35.362601299999994,149.16421640000002,1
0.2,-18.0,307.78,601.590026855,-35.3625985,149.16421210000001,1
0.18,-18.0,307.78,601.6300048830001,-35.36259570000001,149.1642078,1
0.19,-17.99,307.77,601.66998291,-35.362592799999994,149.16420349999999,1
0.22,-17.99,307.77,601.700012207,-35.3625901,149.1641993,1
0.25,-17.98,307.76,601.7399902340001,-35.362587299999994,149.164195,1
0.26,-17.98,307.76,601.7800292969999,-35.362584600000005,149.16419069999998,1
0.25,-18.0,307.76,601.820007324,-35.362581799999994,149.1641864,1
0.23,-18.01,307.76,601.849975586,-35.362578899999995,149.1641821,1
0.21,-18.01,307.76,601.890014648,-35.36257620000001,149.1641778,1
0.17,-18.02,307.76,601.929992676,-35.362573299999994,149.1641735,1
0.16,-18.01,307.76,601.960021973,-35.3625706,149.16416919999998,1
0.19,-17.99,307.76,602.0,-35.362567799999994,149.1641649,1
0.21,-17.97,307.76,602.039978027,-35.362564899999995,149.1641606,1
0.23,-17.96,307.75,602.070007324,-35.362562200000006,149.1641563,1
0.26,-17.98,307.75,602.109985352,-35.3625593,149.164152,1
0.27,-18.01,307.75,602.150024414,-35.3625566,149.1641477,1
0.26,-18.03,307.74,602.1900024409999,-35.36255379999999,149.1641434,1
0.24,-18.05,307.74,602.2199707030001,-35.362550899999995,149.16413909999997,1
0.25,-18.05,307.74,602.2600097659999,-35.3625482,149.16413480000003,1
0.27,-18.05,307.74,602.299987793,-35.362545399999995,149.1641305,1
0.3,-18.04,307.74,602.33001709,-35.362542600000005,149.1641262,1
0.33,-18.03,307.74,602.3699951169999,-35.3625398,149.1641219,1
0.36,-18.01,307.74,602.409973145,-35.3625369,149.1641176,1
0.36,-18.0,307.74,602.450012207,-35.3625342,149.16411330000003,1
0.34,-18.0,307.75,602.479980469,-35.3625314,149.164109,1
0.31,-18.0,307.75,602.520019531,-35.362528600000005,149.16410469999997,1
0.28,-17.99,307.76,602.5599975590001,-35.3625258,149.1641004,1
0.28,-17.98,307.76,602.590026855,-35.3625229,149.164096,1
0.29,-17.98,307.76,602.6300048830001,-35.362520200000006,149.1640917,1
0.32,-17.98,307.77,602.66998291,-35.3625174,149.1640874,1
0.32,-18.01,307.77,602.710021973,-35.3625146,149.1640831,1
0.3,-18.01,307.77,602.7399902340001,-35.36251179999999,149.16407880000003,1
0.28,-18.01,307.77,602.7800292969999,-35.362508899999995,149.1640745,1
0.26,-17.84,307.77,602.820007324,-35.3625061,149.16407019999997,1
0.21,-17.04,307.76,602.849975586,-35.3625034,149.164066,1
0.08,-15.85,307.74,602.8800048830001,-35.3625006,149.1640617,1
-0.1,-14.66,307.69,602.909973145,-35.36249779999999,149.1640574,1
-0.27,-13.7,307.59,602.9400024409999,-35.362495,149.1640533,1
-0.39,-13.03,307.44,602.960021973,-35.3624924,149.1640492,1
-0.48,-12.57,307.24,602.979980469,-35.3624898,149.164045,1
-0.54,-12.21,307.0,603.0,-35.3624873,149.1640411,1
-0.58,-11.85,306.72,603.020019531,-35.3624848,149.1640372,1
-0.64,-11.44,306.39,603.0300292969999,-35.3624822,149.1640334,1
-0.74,-10.97,306.02,603.039978027,-35.36248,149.1640296,1
-0.84,-10.44,305.61,603.049987793,-35.3624776,149.16402580000002,1
-0.93,-9.87,305.15,603.0599975590001,-35.362475399999994,149.16402230000003,1
-1.03,-9.29,304.65,603.0599975590001,-35.3624731,149.1640186,1
-1.15,-8.72,304.09,603.070007324,-35.3624711,149.16401530000002,1
-1.34,-8.14,303.47,603.08001709,-35.3624691,149.1640118,1
-1.57,-7.58,302.76,603.08001709,-35.362466999999995,149.1640085,1
-1.82,-7.04,301.96,603.08001709,-35.3624652,149.1640052,1
-2.1,-6.52,301.04,603.090026855,-35.362463399999996,149.1640021,1
-2.38,-6.01,299.96,603.090026855,-35.3624618,149.163999,1
-2.69,-5.48,298.71,603.090026855,-35.3624602,149.163996,1
-3.05,-4.94,297.25,603.090026855,-35.362458700000005,149.163993,1
-3.45,-4.4,295.53,603.090026855,-35.3624572,149.16399019999997,1
-3.9,-3.86,293.51,603.099975586,-35.362456,149.1639874,1
-4.42,-3.31,291.11,603.099975586,-35.362454799999995,149.1639846,1
-4.99,-2.81,288.27,603.099975586,-35.3624536,149.1639821,1
-5.59,-2.36,284.91,603.099975586,-35.3624528,149.16397959999998,1
-6.21,-1.98,280.9,603.099975586,-35.362452000000005,149.163977,1
-6.84,-1.75,276.23,603.099975586,-35.3624512,149.1639748,1
-7.46,-1.73,270.83,603.099975586,-35.3624508,149.1639725,1
-7.97,-2.04,264.75,603.099975586,-35.36245039999999,149.16397030000002,1
-8.21,-2.84,258.46,603.099975586,-35.36245,149.16396830000002,1
-8.15,-4.0,252.71,603.099975586,-35.36245,149.16396640000002,1
-7.9,-5.23,248.1,603.099975586,-35.36245,149.16396459999999,1
-7.65,-6.15,244.91,603.099975586,-35.3624503,149.1639629,1
-7.63,-6.42,242.82,603.099975586,-35.3624505,149.1639612,1
-7.89,-6.18,241.0,603.099975586,-35.362451,149.1639597,1
-8.26,-5.92,238.78,603.099975586,-35.3624516,149.1639582,1
-8.52,-5.98,235.74,603.099975586,-35.3624523,149.16395669999997,1
-8.45,-6.54,231.72,603.099975586,-35.362453,149.1639554,1
-7.91,-7.61,226.66,603.099975586,-35.362454,149.163954,1
-6.79,-9.04,220.64,603.099975586,-35.362455,149.1639529,1
-4.84,-10.62,214.0,603.090026855,-35.362456,149.1639518,1
-2.22,-11.99,207.43,603.090026855,-35.3624572,149.1639506,1
0.58,-12.92,201.71,603.090026855,-35.3624585,149.1639496,1
3.02,-13.35,197.41,603.090026855,-35.36246,149.1639485,1
4.69,-13.42,194.83,603.090026855,-35.3624614,149.16394730000002,1
5.43,-13.38,193.91,603.090026855,-35.3624631,149.16394609999998,1
5.3,-13.43,194.4,603.090026855,-35.3624648,149.1639447,1
4.5,-13.65,195.96,603.090026855,-35.3624664,149.16394330000003,1
3.29,-14.05,198.27,603.090026855,-35.3624682,149.1639419,1
1.89,-14.52,201.01,603.090026855,-35.362470200000004,149.1639404,1
0.5,-14.96,203.86,603.090026855,-35.3624722,149.1639387,1
-0.72,-15.29,206.52,603.090026855,-35.3624742,149.1639372,1
-1.7,-15.49,208.73,603.090026855,-35.3624763,149.1639357,1
-2.32,-15.58,210.34,603.090026855,-35.362478499999995,149.1639341,1
-2.57,-15.61,211.29,603.090026855,-35.36248079999999,149.1639324,1
-2.49,-15.64,211.62,603.090026855,-35.36248320000001,149.16393080000003,1
-2.12,-15.71,211.42,603.099975586,-35.3624856,149.1639291,1
-1.55,-15.82,210.83,603.099975586,-35.3624882,149.1639276,1
-0.86,-15.91,210.03,603.099975586,-35.3624906,149.16392580000002,1
-0.15,-16.01,209.15,603.099975586,-35.3624934,149.1639242,1
0.48,-16.08,208.35,603.099975586,-35.362496,149.16392240000002,1
0.97,-16.16,207.72,603.099975586,-35.3624988,149.1639207,1
1.29,-16.23,207.32,603.099975586,-35.3625015,149.1639188,1
1.43,-16.29,207.17,603.099975586,-35.3625043,149.163917,1
1.39,-16.35,207.26,603.099975586,-35.3625071,149.1639151,1
1.23,-16.42,207.56,603.099975586,-35.36251,149.1639131,1
0.98,-16.5,208.0,603.099975586,-35.3625129,149.1639111,1
0.68,-16.57,208.53,603.099975586,-35.3625159,149.16390900000002,1
0.38,-16.61,209.07,603.099975586,-35.3625187,149.163907,1
0.1,-16.62,209.58,603.099975586,-35.3625217,149.1639049,1
-0.09,-16.63,210.01,603.109985352,-35.3625247,149.16390280000002,1
-0.19,-16.66,210.34,603.109985352,-35.3625278,149.1639006,1
-0.22,-16.7,210.56,603.109985352,-35.362531,149.16389840000002,1
-0.2,-16.76,210.67,603.109985352,-35.362534100000005,149.16389630000003,1
-0.13,-16.82,210.69,603.109985352,-35.362537200000006,149.1638941,1
-0.04,-16.88,210.64,603.109985352,-35.3625404,149.16389180000002,1
0.03,-16.93,210.56,603.109985352,-35.3625435,149.1638897,1
0.12,-16.95,210.45,603.109985352,-35.3625467,149.1638874,1
0.19,-16.93,210.36,603.109985352,-35.36255,149.16388500000002,1
0.26,-16.93,210.28,603.109985352,-35.3625532,149.1638827,1
0.3,-16.96,210.24,603.109985352,-35.3625564,149.1638805,1
0.32,-17.0,210.24,603.109985352,-35.3625598,149.1638782,1
0.33,-17.04,210.28,603.109985352,-35.362563,149.16387580000003,1
0.33,-17.09,210.35,603.109985352,-35.3625664,149.16387350000002,1
0.3,-17.14,210.44,603.109985352,-35.3625697,149.1638711,1
0.24,-17.19,210.54,603.1199951169999,-35.362573,149.1638687,1
0.18,-17.23,210.65,603.1199951169999,-35.362576399999995,149.16386619999997,1
0.14,-17.27,210.75,603.1199951169999,-35.362579700000005,149.1638638,1
0.1,-17.29,210.84,603.1199951169999,-35.3625831,149.16386119999999,1
0.05,-17.27,210.91,603.1199951169999,-35.3625865,149.1638588,1
0.01,-17.26,210.96,603.1199951169999,-35.3625898,149.16385630000002,1
0.0,-17.27,210.99,603.1199951169999,-35.36259329999999,149.16385390000002,1
-0.01,-17.31,211.01,603.1199951169999,-35.3625967,149.1638514,1
-0.01,-17.34,211.01,603.1199951169999,-35.3626001,149.1638489,1
0.0,-17.36,211.0,603.1199951169999,-35.3626036,149.16384630000002,1
0.02,-17.39,210.99,603.1199951169999,-35.3626071,149.1638438,1
0.06,-17.43,210.98,603.1199951169999,-35.3626104,149.16384130000003,1
0.06,-17.47,210.97,603.1199951169999,-35.362614,149.1638386,1
0.05,-17.5,210.97,603.1199951169999,-35.3626175,149.1638362,1
0.05,-17.52,210.97,603.1199951169999,-35.362621000000004,149.16383359999998,1
0.06,-17.53,210.98,603.1199951169999,-35.3626244,149.16383100000002,1
0.08,-17.53,210.99,603.1199951169999,-35.362628,149.1638285,1
0.09,-17.54,211.0,603.1199951169999,-35.3626315,149.1638259,1
0.1,-17.56,211.02,603.1300048830001,-35.362635100000006,149.1638233,1
0.13,-17.58,211.04,603.1300048830001,-35.3626385,149.1638207,1
0.15,-17.61,211.05,603.1300048830001,-35.362642,149.163818,1
0.15,-17.62,211.07,603.1300048830001,-35.36264570000001,149.1638155,1
0.13,-17.64,211.08,603.1300048830001,-35.362649299999994,149.16381280000002,1
0.09,-17.66,211.1,603.1300048830001,-35.3626528,149.1638102,1
0.06,-17.67,211.11,603.1300048830001,-35.3626564,149.1638075,1
0.04,-17.68,211.12,603.1300048830001,-35.36266,149.1638049,1
0.0,-17.69,211.12,603.1300048830001,-35.3626636,149.1638022,1
0.0,-17.72,211.12,603.1300048830001,-35.362667200000004,149.1637996,1
0.0,-17.74,211.13,603.1300048830001,-35.3626707,149.1637969,1
0.03,-17.75,211.12,603.1300048830001,-35.362674299999995,149.1637943,1
0.07,-17.77,211.12,603.1300048830001,-35.3626779,149.1637916,1
0.07,-17.77,211.12,603.1300048830001,-35.3626816,149.1637888,1
0.04,-17.76,211.11,603.1300048830001,-35.3626852,149.1637862,1
-0.02,-17.76,211.11,603.1300048830001,-35.3626888,149.1637835,1
-0.04,-17.77,211.11,603.1300048830001,-35.3626925,149.1637809,1
-0.04,-17.8,211.1,603.1300048830001,-35.3626961,149.1637782,1
-0.02,-17.83,211.1,603.1300048830001,-35.3626997,149.1637754,1
0.0,-17.87,211.1,603.1300048830001,-35.3627034,149.1637728,1
0.0,-17.89,211.1,603.1300048830001,-35.362707,149.1637701,1
-0.04,-17.9,211.1,603.1300048830001,-35.3627107,149.16376730000002,1
-0.07,-17.9,211.09,603.1300048830001,-35.3627143,149.1637647,1
-0.08,-17.9,211.09,603.1300048830001,-35.362718,149.16376200000002,1
-0.04,-17.9,211.09,603.1300048830001,-35.3627217,149.1637592,1
-0.01,-17.91,211.09,603.1300048830001,-35.362725299999994,149.1637565,1
0.01,-17.94,211.09,603.1300048830001,-35.362728999999995,149.16375380000002,1
0.03,-17.98,211.09,603.1300048830001,-35.3627326,149.163751,1
0.03,-18.03,211.09,603.1300048830001,-35.362736299999995,149.16374840000003,1
0.03,-18.05,211.09,603.1300048830001,-35.36274,149.1637456,1
0.01,-18.06,211.09,603.1300048830001,-35.3627436,149.1637429,1
-0.01,-18.04,211.09,603.1300048830001,-35.3627473,149.16374019999998,1
-0.04,-17.98,211.08,603.1300048830001,-35.362751,149.1637374,1
-0.08,-17.94,211.08,603.1300048830001,-35.3627548,149.1637347,1
-0.11,-17.95,211.08,603.1300048830001,-35.362758500000005,149.16373190000002,1
-0.1,-17.99,211.08,603.1300048830001,-35.362762200000006,149.16372919999998,1
-0.07,-18.03,211.08,603.1300048830001,-35.362766,149.1637265,1
-0.06,-18.07,211.08,603.1300048830001,-35.3627697,149.1637237,1
-0.07,-18.1,211.08,603.1300048830001,-35.3627734,149.16372090000002,1
-0.06,-18.11,211.07,603.1300048830001,-35.362777,149.16371819999998,1
-0.05,-18.12,211.07,603.1300048830001,-35.3627807,149.1637155,1
-0.02,-18.13,211.06,603.1300048830001,-35.362784600000005,149.1637127,1
0.0,-18.14,211.06,603.1300048830001,-35.3627883,149.16370990000001,1
0.01,-18.15,211.06,603.1300048830001,-35.362792,149.1637072,1
0.01,-18.13,211.06,603.1300048830001,-35.3627958,149.1637045,1
0.01,-18.11,211.06,603.1300048830001,-35.3627995,149.1637017,1
0.01,-18.09,211.06,603.1300048830001,-35.3628032,149.16369880000002,1
0.01,-18.1,211.07,603.1300048830001,-35.362806899999995,149.163696,1
0.0,-18.14,211.07,603.1300048830001,-35.3628108,149.1636934,1
0.0,-18.17,211.07,603.1300048830001,-35.3628145,149.1636906,1
0.01,-18.21,211.08,603.1300048830001,-35.362818299999994,149.1636878,1
0.02,-18.23,211.08,603.1300048830001,-35.362821999999994,149.16368500000002,1
0.03,-18.23,211.09,603.1300048830001,-35.3628257,149.1636823,1
0.01,-18.23,211.09,603.1300048830001,-35.362829600000005,149.1636795,1
0.0,-18.24,211.09,603.1300048830001,-35.3628333,149.1636767,1
-0.01,-18.25,211.09,603.1300048830001,-35.36283710000001,149.1636739,1
0.0,-18.27,211.09,603.1300048830001,-35.3628408,149.1636711,1
0.0,-18.27,211.1,603.1300048830001,-35.3628445,149.1636684,1
-0.01,-18.26,211.1,603.1300048830001,-35.3628484,149.1636656,1
-0.01,-18.24,211.1,603.1199951169999,-35.3628521,149.1636628,1
0.0,-18.22,211.1,603.1199951169999,-35.3628559,149.16366000000002,1
0.0,-18.21,211.1,603.1199951169999,-35.3628597,149.1636572,1
0.0,-18.21,211.1,603.1199951169999,-35.362863399999995,149.16365430000002,1
-0.01,-18.21,211.1,603.1199951169999,-35.3628671,149.1636515,1
-0.02,-18.21,211.09,603.1199951169999,-35.362871000000005,149.1636488,1
-0.02,-18.22,211.09,603.1199951169999,-35.36287479999999,149.163646,1
-0.01,-18.24,211.09,603.1199951169999,-35.3628786,149.16364319999997,1
0.0,-18.25,211.08,603.1199951169999,-35.362882299999995,149.16364040000002,1
0.01,-18.25,211.08,603.1199951169999,-35.362886200000005,149.1636375,1
0.02,-18.25,211.08,603.1199951169999,-35.36289,149.1636347,1
0.04,-18.25,211.08,603.1199951169999,-35.3628937,149.16363180000002,1
0.03,-18.25,211.08,603.1199951169999,-35.3628974,149.16362900000001,1
0.02,-18.27,211.08,603.1199951169999,-35.3629013,149.1636263,1
0.0,-18.28,211.08,603.1199951169999,-35.362905100000006,149.1636235,1
0.01,-18.3,211.08,603.1199951169999,-35.3629089,149.1636207,1
0.02,-18.3,211.08,603.1199951169999,-35.3629126,149.1636179,1
0.03,-18.29,211.08,603.1199951169999,-35.3629165,149.163615,1
0.03,-18.3,211.08,603.1199951169999,-35.3629203,149.1636122,1
0.01,-18.31,211.08,603.1199951169999,-35.3629241,149.1636095,1
0.01,-18.32,211.08,603.1199951169999,-35.3629278,149.16360669999997,1
0.02,-18.33,211.07,603.1199951169999,-35.362931700000004,149.1636038,1
0.01,-18.32,211.07,603.1199951169999,-35.3629355,149.163601,1
0.0,-18.32,211.07,603.1199951169999,-35.3629393,149.1635982,1
0.01,-18.32,211.07,603.1199951169999,-35.362943,149.16359540000002,1
0.05,-18.3,211.07,603.1199951169999,-35.3629469,149.1635925,1
0.08,-18.29,211.07,603.1199951169999,-35.362950700000006,149.1635897,1
0.09,-18.3,211.07,603.1199951169999,-35.3629545,149.1635868,1
0.08,-18.3,211.07,603.1199951169999,-35.36295820000001,149.16358400000001,1
0.08,-18.31,211.07,603.1199951169999,-35.362962100000004,149.1635813,1
0.06,-18.33,211.08,603.1199951169999,-35.362966,149.1635784,1
0.04,-18.35,211.08,603.1199951169999,-35.362969799999995,149.1635756,1
0.04,-18.35,211.08,603.1199951169999,-35.362973499999995,149.16357280000003,1
0.06,-18.35,211.09,603.1199951169999,-35.3629774,149.1635699,1
0.1,-18.35,211.09,603.1199951169999,-35.3629812,149.1635671,1
0.1,-18.35,211.09,603.1199951169999,-35.362984999999995,149.16356430000002,1
0.06,-18.36,211.09,603.1199951169999,-35.3629887,149.1635614,1
0.02,-18.36,211.09,603.1199951169999,-35.362992600000005,149.1635585,1
0.0,-18.36,211.08,603.1199951169999,-35.3629965,149.1635557,1
-0.01,-18.36,211.08,603.1199951169999,-35.3630002,149.163553,1
0.0,-18.36,211.07,603.1199951169999,-35.363004100000005,149.16355019999997,1
0.04,-18.34,211.07,603.1199951169999,-35.3630079,149.16354730000003,1
0.07,-18.33,211.06,603.1199951169999,-35.3630117,149.1635445,1
0.1,-18.3,211.06,603.1300048830001,-35.363015399999995,149.1635417,1
0.11,-18.3,211.05,603.1300048830001,-35.3630194,149.1635389,1
0.1,-18.32,211.05,603.1300048830001,-35.3630232,149.16353600000002,1
0.08,-18.34,211.05,603.1300048830001,-35.363026899999994,149.1635332,1
0.06,-18.35,211.05,603.1300048830001,-35.3630308,149.16353030000002,1
0.04,-18.36,211.05,603.1300048830001,-35.3630346,149.1635274,1
0.03,-18.37,211.05,603.1300048830001,-35.3630385,149.16352460000002,1
0.03,-18.36,211.05,603.1300048830001,-35.3630422,149.1635217,1
0.04,-18.35,211.05,603.1300048830001,-35.3630461,149.16351880000002,1
0.05,-18.35,211.06,603.1300048830001,-35.36305,149.163516,1
0.06,-18.36,211.06,603.1300048830001,-35.3630537,149.1635133,1
0.05,-18.36,211.06,603.1300048830001,-35.3630576,149.1635104,1
0.04,-18.37,211.06,603.1300048830001,-35.3630614,149.1635076,1
0.01,-18.38,211.06,603.1300048830001,-35.3630652,149.16350469999998,1
-0.02,-18.4,211.05,603.1300048830001,-35.3630689,149.1635019,1
-0.03,-18.42,211.05,603.1300048830001,-35.3630729,149.163499,1
-0.04,-18.42,211.04,603.1300048830001,-35.36307670000001,149.16349619999997,1
-0.03,-18.41,211.04,603.1300048830001,-35.3630804,149.16349340000002,1
-0.01,-18.39,211.03,603.1300048830001,-35.3630843,149.1634905,1
-0.02,-18.38,211.02,603.1300048830001,-35.36308820000001,149.1634877,1
-0.02,-18.4,211.02,603.1300048830001,-35.363092,149.16348480000002,1
-0.02,-18.42,211.01,603.1300048830001,-35.3630957,149.16348190000002,1
0.0,-18.43,211.01,603.1300048830001,-35.36309970000001,149.1634791,1
0.03,-18.45,211.0,603.1300048830001,-35.363103499999994,149.1634762,1
0.03,-18.46,211.0,603.1300048830001,-35.3631072,149.1634733,1
0.03,-18.47,211.0,603.1300048830001,-35.363111100000005,149.16347050000002,1
0.04,-18.47,211.0,603.1300048830001,-35.363115,149.1634678,1
0.05,-18.47,211.0,603.1300048830001,-35.3631187,149.1634648,1
0.03,-18.46,211.0,603.1300048830001,-35.3631227,149.1634619,1
0.0,-18.43,211.0,603.1300048830001,-35.3631265,149.1634592,1
-0.01,-18.39,211.0,603.1300048830001,-35.363130299999995,149.1634564,1
-0.01,-18.37,211.0,603.1300048830001,-35.3631342,149.1634535,1
-0.01,-18.39,211.0,603.1300048830001,-35.363138,149.1634507,1
0.0,-18.42,210.99,603.1300048830001,-35.363141799999994,149.1634478,1
0.0,-18.45,210.99,603.1300048830001,-35.3631456,149.163445,1
-0.01,-18.48,210.99,603.1300048830001,-35.3631495,149.1634421,1
-0.01,-18.49,210.99,603.1300048830001,-35.3631533,149.16343930000002,1
0.0,-18.47,210.99,603.1300048830001,-35.3631571,149.1634365,1
0.03,-18.45,210.99,603.1300048830001,-35.363161,149.1634336,1
0.06,-18.44,210.99,603.1199951169999,-35.3631649,149.1634307,1
0.07,-18.44,210.99,603.1199951169999,-35.3631686,149.16342780000002,1
0.06,-18.45,210.99,603.1199951169999,-35.3631725,149.163425,1
0.04,-18.45,210.99,603.1199951169999,-35.36317639999999,149.1634221,1
0.03,-18.45,210.99,603.1199951169999,-35.3631801,149.16341930000002,1
0.03,-18.44,210.99,603.1199951169999,-35.363183899999996,149.16341640000002,1
0.06,-18.43,210.99,603.1199951169999,-35.36318789999999,149.16341369999998,1
0.06,-18.41,210.99,603.1199951169999,-35.3631917,149.16341090000003,1
0.06,-18.4,210.99,603.1199951169999,-35.3631956,149.163408,1
0.07,-18.4,210.99,603.1199951169999,-35.3631994,149.1634052,1
0.1,-18.42,210.99,603.1199951169999,-35.3632032,149.1634023,1
0.12,-18.43,210.99,603.1199951169999,-35.363207,149.1633995,1
0.13,-18.43,210.99,603.1199951169999,-35.3632109,149.1633966,1
0.12,-18.43,210.99,603.1199951169999,-35.3632148,149.1633938,1
0.11,-18.41,210.99,603.1199951169999,-35.3632185,149.1633909,1
0.11,-18.42,210.99,603.1199951169999,-35.3632224,149.1633881,1
0.12,-18.44,210.99,603.1199951169999,-35.3632263,149.1633852,1
0.09,-18.45,210.99,603.1199951169999,-35.36323,149.1633824,1
0.08,-18.46,211.0,603.1199951169999,-35.3632339,149.1633795,1
0.08,-18.47,211.0,603.1199951169999,-35.3632378,149.1633766,1
0.11,-18.48,211.0,603.1199951169999,-35.3632415,149.16337380000002,1
0.14,-18.48,211.0,603.1199951169999,-35.363245500000005,149.1633709,1
0.15,-18.49,211.0,603.1199951169999,-35.36324929999999,149.16336809999999,1
0.15,-18.49,211.0,603.1199951169999,-35.3632531,149.1633652,0
0.16,-18.49,211.0,603.1199951169999,-35.363257,149.1633625,0
0.17,-18.49,211.0,603.1199951169999,-35.36326079999999,149.16335959999998,0
0.2,-18.48,211.0,603.1199951169999,-35.3632645,149.16335680000003,0
0.2,-18.46,211.0,603.1199951169999,-35.363268299999994,149.1633539,0
0.18,-18.46,211.0,603.1199951169999,-35.363272200000004,149.1633511,0
0.16,-18.45,211.0,603.1199951169999,-35.3632761,149.16334819999997,0
0.14,-18.44,211.0,603.1199951169999,-35.363279799999994,149.16334540000003,0
0.13,-18.41,211.0,603.1199951169999,-35.3632838,149.1633425,0
0.13,-18.37,211.0,603.1199951169999,-35.3632876,149.1633396,0
0.13,-18.37,211.0,603.1199951169999,-35.3632914,149.16333669999997,0
0.13,-18.38,211.0,603.1199951169999,-35.3632953,149.16333390000003,0
0.13,-18.41,211.0,603.1199951169999,-35.363299100000006,149.163331,0
0.12,-18.42,210.99,603.1199951169999,-35.3633029,149.1633282,0
0.11,-18.41,210.99,603.1199951169999,-35.3633067,149.1633253,0
0.1,-18.42,210.99,603.1199951169999,-35.363310600000005,149.16332240000003,0
0.07,-18.42,210.98,603.1199951169999,-35.3633144,149.1633196,0
0.05,-18.42,210.97,603.1199951169999,-35.3633182,149.1633167,0
0.05,-18.43,210.97,603.1199951169999,-35.363322100000005,149.1633138,0
0.07,-18.43,210.96,603.1199951169999,-35.363326,149.16331100000002,0
0.09,-18.44,210.96,603.1199951169999,-35.3633297,149.1633081,0
0.11,-18.46,210.95,603.1199951169999,-35.363333600000004,149.1633052,0
0.11,-18.48,210.94,603.1199951169999,-35.3633375,149.1633024,0
0.11,-18.48,210.94,603.1199951169999,-35.363341299999995,149.16329950000002,0
0.14,-18.44,210.93,603.1199951169999,-35.363345,149.1632966,0
0.53,-18.37,210.96,603.1199951169999,-35.363349,149.16329380000002,0
1.28,-18.27,211.09,603.1199951169999,-35.3633528,149.1632909,0
2.1,-18.2,211.37,603.1199951169999,-35.3633565,149.163288,0
2.7,-18.17,211.82,603.109985352,-35.3633604,149.1632851,0
2.93,-18.17,212.44,603.109985352,-35.36336420000001,149.1632821,0
2.86,-18.2,213.19,603.109985352,-35.363368,149.16327900000002,0
2.58,-18.24,214.04,603.109985352,-35.3633717,149.1632761,0
2.22,-18.26,214.95,603.109985352,-35.363375299999994,149.163273,0
1.85,-18.27,215.86,603.1199951169999,-35.363378999999995,149.16326980000002,0
1.55,-18.27,216.73,603.1199951169999,-35.3633826,149.1632666,0
1.36,-18.29,217.53,603.1199951169999,-35.363386299999995,149.1632635,0
1.24,-18.31,218.24,603.1199951169999,-35.363389899999994,149.1632602,0
1.22,-18.33,218.86,603.1199951169999,-35.3633935,149.16325690000002,0
1.24,-18.34,219.39,603.1199951169999,-35.3633971,149.1632536,0
1.26,-18.34,219.83,603.1199951169999,-35.36340070000001,149.16325030000002,0
1.3,-18.33,220.21,603.1199951169999,-35.363404200000005,149.1632469,0
1.37,-18.31,220.53,603.1199951169999,-35.3634076,149.1632436,0
1.42,-18.29,220.83,603.1199951169999,-35.3634112,149.1632402,0
1.46,-18.29,221.12,603.1199951169999,-35.36341470000001,149.1632368,0
1.46,-18.3,221.41,603.1199951169999,-35.363418200000005,149.1632333,0
1.46,-18.32,221.71,603.1199951169999,-35.3634215,149.1632297,0
1.45,-18.35,222.03,603.1199951169999,-35.363425,149.1632263,0
1.39,-18.38,222.36,603.1199951169999,-35.3634283,149.1632227,0
1.31,-18.4,222.7,603.1199951169999,-35.36343170000001,149.1632191,0
1.22,-18.4,223.05,603.1199951169999,-35.363434999999996,149.1632155,0
1.14,-18.4,223.4,603.1199951169999,-35.3634384,149.1632118,0
1.07,-18.39,223.73,603.1199951169999,-35.3634416,149.1632081,0
1.01,-18.37,224.05,603.1300048830001,-35.363445,149.1632045,0
0.93,-18.36,224.34,603.1300048830001,-35.363448299999995,149.16320080000003,0
0.86,-18.36,224.61,603.1300048830001,-35.3634516,149.163197,0
0.83,-18.38,224.86,603.1300048830001,-35.36345479999999,149.16319330000002,0
0.83,-18.4,225.08,603.1300048830001,-35.363458,149.16318940000002,0
0.83,-18.41,225.29,603.1300048830001,-35.3634613,149.1631856,0
0.82,-18.4,225.47,603.1300048830001,-35.3634645,149.16318180000002,0
0.79,-18.39,225.64,603.1300048830001,-35.3634677,149.16317800000002,0
0.75,-18.37,225.79,603.1300048830001,-35.3634708,149.1631741,0
0.71,-18.36,225.94,603.1300048830001,-35.3634739,149.16317030000002,0
0.67,-18.35,226.08,603.1300048830001,-35.363477200000005,149.16316650000002,0
0.65,-18.35,226.22,603.1300048830001,-35.3634803,149.1631626,0
0.63,-18.37,226.35,603.1300048830001,-35.3634834,149.16315869999997,0
0.6,-18.37,226.48,603.1300048830001,-35.3634866,149.16315480000003,0
0.56,-18.36,226.6,603.1300048830001,-35.3634896,149.1631509,0
0.53,-18.34,226.72,603.1300048830001,-35.3634927,149.16314690000002,0
0.5,-18.34,226.83,603.1300048830001,-35.363495799999995,149.163143,0
0.49,-18.36,226.94,603.1300048830001,-35.363499,149.1631391,0
0.47,-18.37,227.04,603.1300048830001,-35.3635021,149.1631351,0
0.45,-18.37,227.13,603.1300048830001,-35.363505200000006,149.163131,0
0.43,-18.37,227.22,603.1300048830001,-35.363508200000005,149.1631271,0
0.41,-18.39,227.3,603.1300048830001,-35.36351129999999,149.16312309999998,0
0.38,-18.4,227.38,603.1300048830001,-35.3635143,149.1631191,0
0.35,-18.39,227.44,603.1300048830001,-35.3635174,149.16311509999997,0
0.32,-18.39,227.5,603.1300048830001,-35.3635204,149.16311100000001,0
0.27,-18.39,227.56,603.140014648,-35.3635235,149.1631071,0
0.23,-18.4,227.61,603.140014648,-35.3635265,149.163103,0
0.22,-18.39,227.66,603.140014648,-35.3635295,149.163099,0
0.22,-18.4,227.71,603.140014648,-35.3635325,149.163095,0
0.21,-18.43,227.75,603.140014648,-35.363535600000006,149.1630908,0
0.21,-18.45,227.79,603.140014648,-35.3635386,149.1630869,0
0.2,-18.47,227.83,603.140014648,-35.363541600000005,149.1630827,0
0.21,-18.47,227.87,603.140014648,-35.3635446,149.16307880000002,0
0.22,-18.44,227.91,603.140014648,-35.363547499999996,149.16307460000002,0
0.22,-18.4,227.94,603.140014648,-35.3635505,149.1630706,0
0.22,-18.36,227.98,603.140014648,-35.363553499999995,149.1630665,0
0.2,-18.35,228.01,603.140014648,-35.3635565,149.1630625,0
0.2,-18.35,228.03,603.140014648,-35.363559499999994,149.16305830000002,0
0.18,-18.37,228.06,603.140014648,-35.3635626,149.1630544,0
0.14,-18.4,228.08,603.140014648,-35.3635656,149.1630501,0
0.13,-18.42,228.1,603.140014648,-35.3635686,149.1630462,0
0.12,-18.43,228.12,603.140014648,-35.3635716,149.163042,0
0.13,-18.42,228.14,603.140014648,-35.36357460000001,149.163038,0
0.17,-18.41,228.15,603.140014648,-35.3635776,149.16303380000002,0
0.2,-18.39,228.17,603.140014648,-35.363580600000006,149.16302980000003,0
0.22,-18.38,228.18,603.140014648,-35.3635836,149.1630257,0
0.22,-18.37,228.2,603.140014648,-35.363586600000005,149.1630215,0
0.21,-18.36,228.21,603.140014648,-35.363589399999995,149.1630175,0
0.18,-18.37,228.23,603.140014648,-35.3635924,149.16301330000002,0
0.15,-18.4,228.24,603.140014648,-35.363595399999994,149.1630093,0
0.13,-18.41,228.25,603.140014648,-35.3635985,149.1630051,0
0.1,-18.41,228.26,603.140014648,-35.36360139999999,149.1630011,0
0.08,-18.41,228.26,603.140014648,-35.3636044,149.162997,0
0.07,-18.42,228.27,603.140014648,-35.3636074,149.1629929,0
0.06,-18.43,228.27,603.140014648,-35.3636104,149.1629888,0
0.05,-18.44,228.27,603.140014648,-35.3636133,149.1629846,0
0.04,-18.44,228.27,603.140014648,-35.3636162,149.1629805,0
0.05,-18.44,228.27,603.140014648,-35.3636192,149.1629764,0
0.06,-18.45,228.27,603.140014648,-35.3636222,149.16297230000004,0
0.07,-18.48,228.27,603.140014648,-35.3636252,149.16296819999997,0
0.09,-18.5,228.27,603.140014648,-35.3636282,149.162964,0
0.1,-18.52,228.27,603.140014648,-35.3636312,149.1629599,0
0.08,-18.52,228.27,603.1300048830001,-35.3636341,149.16295580000002,0
0.08,-18.5,228.27,603.1300048830001,-35.363637100000005,149.16295159999999,0
0.09,-18.48,228.27,603.1300048830001,-35.3636401,149.1629476,0
0.1,-18.45,228.27,603.1300048830001,-35.3636429,149.16294340000002,0
0.1,-18.44,228.27,603.1300048830001,-35.363645899999995,149.1629394,0
0.09,-18.43,228.27,603.1300048830001,-35.3636489,149.1629352,0
0.1,-18.45,228.27,603.1300048830001,-35.363652,149.16293100000001,0
0.12,-18.46,228.27,603.1300048830001,-35.3636549,149.162927,0
0.15,-18.49,228.27,603.1300048830001,-35.3636579,149.16292280000002,0
0.15,-18.52,228.27,603.1300048830001,-35.3636609,149.1629188,0
0.14,-18.52,228.27,603.1300048830001,-35.3636639,149.1629146,0
0.12,-18.5,228.27,603.1300048830001,-35.3636668,149.16291040000002,0
0.1,-18.48,228.27,603.1300048830001,-35.3636697,149.1629064,0
0.08,-18.46,228.27,603.1300048830001,-35.3636727,149.1629022,0
0.06,-18.47,228.27,603.1300048830001,-35.3636757,149.16289809999998,0
0.05,-18.48,228.27,603.1300048830001,-35.3636787,149.162894,0
0.04,-18.48,228.27,603.1300048830001,-35.3636817,149.16288980000002,0
0.04,-18.48,228.27,603.1300048830001,-35.3636847,149.16288569999998,0
0.05,-18.47,228.27,603.1199951169999,-35.3636876,149.1628816,0
0.06,-18.46,228.27,603.1199951169999,-35.3636906,149.1628773,0
0.09,-18.42,228.27,603.1199951169999,-35.3636936,149.1628733,0
0.09,-18.38,228.27,603.1199951169999,-35.363696600000004,149.1628691,0
0.07,-18.36,228.26,603.1199951169999,-35.3636995,149.1628649,0
0.07,-18.37,228.26,603.1199951169999,-35.3637024,149.16286090000003,0
0.08,-18.4,228.26,603.1199951169999,-35.3637055,149.1628567,0
0.09,-18.42,228.25,603.1199951169999,-35.3637085,149.16285249999999,0
0.09,-18.44,228.25,603.1199951169999,-35.3637115,149.16284850000002,0
0.08,-18.44,228.25,603.1199951169999,-35.3637144,149.16284430000002,0
0.09,-18.42,228.25,603.1199951169999,-35.3637174,149.16284019999998,0
0.09,-18.43,228.25,603.1199951169999,-35.3637204,149.1628361,0
0.06,-18.43,228.25,603.1199951169999,-35.3637234,149.16283180000002,0
0.04,-18.42,228.25,603.1199951169999,-35.3637262,149.16282780000003,0
0.05,-18.41,228.24,603.1199951169999,-35.3637292,149.1628237,0
0.08,-18.41,228.24,603.1199951169999,-35.3637322,149.16281940000002,0
0.1,-18.44,228.24,603.1199951169999,-35.3637352,149.1628154,0
0.11,-18.48,228.24,603.1199951169999,-35.36373820000001,149.1628112,0
0.1,-18.52,228.24,603.1199951169999,-35.3637412,149.16280700000002,0
0.08,-18.55,228.23,603.1199951169999,-35.363744200000006,149.162803,0
0.09,-18.53,228.23,603.109985352,-35.363747100000005,149.16279880000002,0
0.1,-18.5,228.23,603.109985352,-35.3637501,149.1627947,0
0.09,-18.47,228.23,603.109985352,-35.363753,149.1627906,0
0.09,-18.43,228.22,603.109985352,-35.363756,149.16278630000002,0
0.09,-18.42,228.22,603.109985352,-35.363759,149.1627823,0
0.1,-18.42,228.22,603.109985352,-35.363762,149.1627781,0
0.1,-18.42,228.21,603.109985352,-35.363765,149.16277390000002,0
0.11,-18.43,228.21,603.109985352,-35.363768,149.1627699,0
0.13,-18.43,228.21,603.109985352,-35.3637709,149.1627657,0
0.16,-18.42,228.21,603.109985352,-35.3637739,149.1627615,0
0.18,-18.42,228.21,603.109985352,-35.3637769,149.1627575,0
0.19,-18.43,228.21,603.109985352,-35.3637799,149.1627533,0
0.19,-18.44,228.21,603.109985352,-35.3637827,149.16274909999998,0
0.16,-18.45,228.21,603.109985352,-35.3637857,149.1627451,0
0.13,-18.45,228.21,603.109985352,-35.363788799999995,149.1627409,0
0.11,-18.43,228.21,603.109985352,-35.3637917,149.1627368,0
0.11,-18.41,228.21,603.109985352,-35.36379470000001,149.1627327,0
0.11,-18.38,228.21,603.109985352,-35.3637977,149.1627284,0
0.11,-18.37,228.2,603.109985352,-35.363800700000006,149.1627244,0
0.1,-18.41,228.2,603.109985352,-35.363803600000004,149.16272030000002,0
0.08,-18.43,228.2,603.109985352,-35.3638065,149.162716,0
0.07,-18.45,228.2,603.109985352,-35.363809499999995,149.162712,0
0.08,-18.47,228.2,603.109985352,-35.3638125,149.16270780000002,0
0.1,-18.48,228.19,603.109985352,-35.3638155,149.1627036,0
0.12,-18.48,228.19,603.109985352,-35.3638185,149.1626996,0
0.14,-18.48,228.19,603.109985352,-35.3638215,149.16269540000002,0
0.14,-18.48,228.18,603.109985352,-35.3638244,149.1626913,0
0.14,-18.48,228.18,603.109985352,-35.3638274,149.1626872,0
