Start,TimeUS,Roll,Pitch,Yaw,Alt,Lat,Lng,Q1,Q2,Q3,Q4,Category
0.0,0.0,353.0,584.090026855,-35.363261,149.1652299,0
0.0,0.0,353.0,584.090026855,-35.363261,149.1652299,0
0.0,0.0,353.0,584.090026855,-35.363261,149.1652299,0
0.0,0.0,353.0,584.090026855,-35.363261,149.1652299,0
0.0,0.0,353.0,584.090026855,-35.363261,149.1652299,0
0.0,0.0,353.0,584.090026855,-35.363261,149.1652299,0
0.0,0.0,353.0,584.090026855,-35.363261,149.1652299,0
0.0,0.0,353.0,584.090026855,-35.363261,149.1652299,0
0.0,0.0,353.0,584.090026855,-35.363261,149.1652299,0
0.0,0.0,353.0,584.090026855,-35.363261,149.1652299,0
0.0,0.0,353.0,584.090026855,-35.363261,149.1652299,0
0.0,0.0,353.0,584.090026855,-35.363261,149.1652299,0
0.0,0.0,353.0,584.090026855,-35.363261,149.1652299,0
0.0,0.0,353.0,584.090026855,-35.363261,149.1652299,0
0.0,0.0,353.0,584.090026855,-35.363261,149.1652299,0
0.0,0.0,353.0,584.090026855,-35.363261,149.1652299,0
0.0,0.0,353.0,584.090026855,-35.363261,149.1652299,0
0.0,0.0,353.0,584.090026855,-35.363261,149.1652299,0
0.0,0.0,353.0,584.090026855,-35.363261,149.1652299,0
0.0,0.0,353.0,584.090026855,-35.363261,149.1652299,0
0.0,0.0,353.0,584.090026855,-35.363261,149.1652299,0
0.0,0.0,353.0,584.090026855,-35.363261,149.1652299,0
0.0,0.0,353.0,584.090026855,-35.363261,149.1652299,0
0.0,0.0,353.0,584.090026855,-35.363261,149.1652299,0
0.0,0.0,353.0,584.090026855,-35.363261,149.1652299,0
0.0,0.0,353.0,584.090026855,-35.363261,149.1652299,0
0.0,0.0,353.0,584.090026855,-35.363261,149.1652299,0
0.0,0.0,353.0,584.090026855,-35.363261,149.1652299,0
0.0,0.0,353.0,584.090026855,-35.363261,149.1652299,0
0.0,0.0,353.0,584.090026855,-35.363261,149.1652299,0
0.0,0.0,353.0,584.090026855,-35.363261,149.1652299,0
0.0,0.0,353.0,584.090026855,-35.363261,149.1652299,0
0.0,0.0,353.0,584.090026855,-35.363261,149.1652299,0
0.0,0.0,353.0,584.090026855,-35.363261,149.1652299,0
0.0,0.0,353.0,584.090026855,-35.363261,149.1652299,0
0.0,0.0,353.0,584.090026855,-35.363261,149.1652299,0
0.0,0.0,353.0,584.090026855,-35.363261,149.1652299,0
0.0,0.0,353.0,584.090026855,-35.363261,149.1652299,0
0.0,0.0,353.0,584.090026855,-35.363261,149.1652299,0
0.0,0.0,353.0,584.090026855,-35.363261,149.1652299,0
0.0,0.0,353.0,584.090026855,-35.363261,149.1652299,0
0.0,0.0,353.0,584.090026855,-35.363261,149.1652299,0
0.0,0.0,353.0,584.090026855,-35.363261,149.1652299,0
0.0,0.0,353.0,584.090026855,-35.363261,149.1652299,0
0.0,0.0,353.0,584.090026855,-35.363261,149.1652299,0
0.0,0.0,353.0,584.090026855,-35.363261,149.1652299,0
0.0,0.0,353.0,584.090026855,-35.363261,149.1652299,0
0.0,0.0,353.0,584.090026855,-35.363261,149.1652299,0
0.0,0.0,353.0,584.090026855,-35.363261,149.1652299,0
0.0,0.0,353.0,584.090026855,-35.363261,149.1652299,0
0.0,0.0,353.0,584.090026855,-35.363261,149.1652299,0
0.0,0.0,353.0,584.090026855,-35.363261,149.1652299,0
0.0,0.0,353.0,584.090026855,-35.363261,149.1652299,0
0.0,0.0,353.0,584.090026855,-35.363261,149.1652299,0
0.0,0.0,353.0,584.090026855,-35.363261,149.1652299,0
0.0,0.0,353.0,584.090026855,-35.363261,149.1652299,0
0.0,0.0,353.0,584.090026855,-35.363261,149.1652299,0
0.0,0.0,353.0,584.090026855,-35.363261,149.1652299,0
0.0,0.0,353.0,584.090026855,-35.363261,149.1652299,0
0.0,0.0,353.0,584.090026855,-35.363261,149.1652299,0
0.0,0.0,353.0,584.090026855,-35.363261,149.1652299,0
0.0,0.0,353.0,584.090026855,-35.363261,149.1652299,0
0.0,0.0,353.0,584.090026855,-35.363261,149.1652299,0
0.0,0.0,353.0,584.090026855,-35.363261,149.1652299,0
0.0,0.0,353.0,584.090026855,-35.363261,149.1652299,0
0.0,0.0,353.0,584.090026855,-35.363261,149.1652299,0
0.0,0.0,353.0,584.090026855,-35.363261,149.1652299,0
0.0,0.0,353.0,584.090026855,-35.363261,149.1652299,0
0.0,0.0,353.0,584.090026855,-35.363261,149.1652299,0
0.0,0.0,353.0,584.090026855,-35.363261,149.1652299,0
0.0,0.0,353.0,584.090026855,-35.363261,149.1652299,0
0.0,0.0,353.0,584.090026855,-35.363261,149.1652299,0
0.0,0.0,353.0,584.090026855,-35.363261,149.1652299,0
0.0,0.0,353.0,584.090026855,-35.363261,149.1652299,0
0.0,0.0,353.0,584.090026855,-35.363261,149.1652299,0
0.0,0.0,353.0,584.090026855,-35.363261,149.1652299,0
0.0,0.0,353.0,584.090026855,-35.363261,149.1652299,0
0.0,0.0,353.0,584.090026855,-35.363261,149.1652299,0
0.0,0.0,353.0,584.090026855,-35.363261,149.1652299,0
0.0,0.0,353.0,584.090026855,-35.363261,149.1652299,0
0.0,0.0,353.0,584.090026855,-35.363261,149.1652299,0
0.0,0.0,353.0,584.090026855,-35.363261,149.1652299,0
0.0,0.0,353.0,584.090026855,-35.363261,149.1652299,0
0.0,0.0,353.0,584.090026855,-35.363261,149.1652299,0
0.0,0.0,353.0,584.090026855,-35.363261,149.1652299,0
0.0,0.0,353.0,584.090026855,-35.363261,149.1652299,0
0.0,0.0,353.0,584.090026855,-35.363261,149.1652299,0
0.0,0.0,353.0,584.090026855,-35.363261,149.1652299,0
0.0,0.0,353.0,584.090026855,-35.363261,149.1652299,0
0.0,0.0,353.0,584.090026855,-35.363261,149.1652299,0
0.0,0.0,353.0,584.090026855,-35.363261,149.1652299,0
0.0,0.0,353.0,584.090026855,-35.363261,149.1652299,0
0.0,0.0,353.0,584.090026855,-35.363261,149.1652299,0
0.0,0.0,353.0,584.090026855,-35.363261,149.1652299,0
0.0,0.0,353.0,584.090026855,-35.363261,149.1652299,0
0.0,0.0,353.0,584.090026855,-35.363261,149.1652299,0
0.0,0.0,353.0,584.090026855,-35.363261,149.1652299,0
0.0,0.0,353.0,584.090026855,-35.363261,149.1652299,0
0.0,0.0,353.0,584.090026855,-35.363261,149.1652299,0
0.0,0.0,353.0,584.090026855,-35.363261,149.1652299,0
0.0,0.0,353.0,584.090026855,-35.363261,149.1652299,0
0.0,0.0,353.0,584.090026855,-35.363261,149.1652299,0
0.0,0.0,353.0,584.090026855,-35.363261,149.1652299,0
0.0,0.0,353.0,584.090026855,-35.363261,149.1652299,0
0.0,0.0,353.0,584.090026855,-35.363261,149.1652299,0
0.0,0.0,353.0,584.090026855,-35.363261,149.1652299,0
0.0,0.0,353.0,584.090026855,-35.363261,149.1652299,0
0.0,0.0,353.0,584.090026855,-35.363261,149.1652299,0
0.0,0.0,353.0,584.090026855,-35.363261,149.1652299,0
0.0,0.0,353.0,584.090026855,-35.363261,149.1652299,0
0.0,0.0,353.0,584.090026855,-35.363261,149.1652299,0
0.0,0.0,353.0,584.090026855,-35.363261,149.1652299,0
0.0,0.0,353.0,584.090026855,-35.363261,149.1652299,0
0.0,0.0,353.0,584.090026855,-35.363261,149.1652299,0
0.0,0.0,353.0,584.090026855,-35.363261,149.1652299,0
0.0,0.0,353.0,584.090026855,-35.363261,149.1652299,0
0.0,0.0,353.0,584.090026855,-35.363261,149.1652299,0
0.0,0.0,353.0,584.090026855,-35.363261,149.1652299,0
0.0,0.0,353.0,584.090026855,-35.363261,149.1652299,0
0.0,0.0,353.0,584.090026855,-35.363261,149.1652299,0
0.0,0.0,353.0,584.090026855,-35.363261,149.1652299,0
0.0,0.0,353.0,584.090026855,-35.363261,149.1652299,0
0.0,0.0,353.0,584.090026855,-35.363261,149.1652299,0
0.0,0.0,353.0,584.090026855,-35.363261,149.1652299,0
0.0,0.0,353.0,584.090026855,-35.363261,149.1652299,0
0.0,0.0,353.0,584.090026855,-35.363261,149.1652299,0
0.0,0.0,353.0,584.090026855,-35.363261,149.1652299,0
0.0,0.0,353.0,584.090026855,-35.363261,149.1652299,0
0.0,0.0,353.0,584.090026855,-35.363261,149.1652299,0
0.0,0.0,353.0,584.090026855,-35.363261,149.1652299,0
0.0,0.0,353.0,584.090026855,-35.363261,149.1652299,0
0.0,0.0,353.0,584.090026855,-35.363261,149.1652299,0
0.0,0.0,353.0,584.090026855,-35.363261,149.1652299,0
0.0,0.0,353.0,584.090026855,-35.363261,149.1652299,0
0.0,0.0,353.0,584.090026855,-35.363261,149.1652299,0
0.0,0.0,353.0,584.090026855,-35.363261,149.1652299,0
0.0,0.0,353.0,584.090026855,-35.363261,149.1652299,0
0.0,0.0,353.0,584.090026855,-35.363261,149.1652299,0
0.0,0.0,353.0,584.090026855,-35.363261,149.1652299,0
0.0,0.0,353.0,584.090026855,-35.363261,149.1652299,0
0.0,0.0,353.0,584.090026855,-35.363261,149.1652299,0
0.0,0.0,353.0,584.090026855,-35.363261,149.1652299,0
0.0,0.0,353.0,584.090026855,-35.363261,149.1652299,0
0.0,0.0,353.0,584.090026855,-35.363261,149.1652299,0
0.0,0.0,353.0,584.090026855,-35.363261,149.1652299,0
0.0,0.0,353.0,584.099975586,-35.363261,149.1652299,0
0.0,0.0,353.0,584.099975586,-35.363261,149.1652299,0
0.0,0.0,353.0,584.109985352,-35.363261,149.1652299,0
0.0,0.0,353.0,584.1300048830001,-35.363261,149.1652299,0
0.0,0.0,353.0,584.159973145,-35.363261,149.1652299,0
0.0,0.0,353.0,584.1900024409999,-35.363261,149.1652299,0
0.0,0.0,352.99,584.229980469,-35.363261,149.1652299,0
-0.04,-0.05,352.99,584.320007324,-35.363261,149.1652299,0
-0.1,-0.14,352.99,584.460021973,-35.363261,149.1652299,0
-0.15,-0.21,352.99,584.609985352,-35.363261,149.1652299,0
-0.17,-0.24,352.99,584.770019531,-35.363261,149.1652299,0
-0.17,-0.2,352.99,584.91998291,-35.363261,149.1652299,0
-0.11,-0.12,352.99,585.070007324,-35.363261,149.1652299,0
-0.07,-0.03,352.99,585.229980469,-35.363261,149.1652299,0
-0.02,0.02,352.98,585.390014648,-35.363261,149.1652299,0
0.03,0.07,352.98,585.5599975590001,-35.363261,149.1652299,0
0.06,0.1,352.98,585.729980469,-35.363261,149.16522980000002,0
0.05,0.09,352.98,585.909973145,-35.3632609,149.16522980000002,0
0.01,0.05,352.98,586.099975586,-35.3632609,149.16522980000002,0
-0.02,0.0,352.98,586.289978027,-35.3632609,149.16522980000002,0
-0.06,-0.02,352.98,586.479980469,-35.3632609,149.16522980000002,0
-0.07,-0.03,352.98,586.66998291,-35.3632609,149.16522980000002,0
-0.07,-0.02,352.98,586.8699951169999,-35.3632609,149.16522980000002,0
-0.06,0.0,352.98,587.0599975590001,-35.3632609,149.16522980000002,0
-0.03,0.03,352.98,587.2399902340001,-35.3632609,149.16522980000002,0
0.02,0.08,352.98,587.409973145,-35.3632609,149.16522980000002,0
0.23,0.37,352.98,587.570007324,-35.3632609,149.16522980000002,0
0.71,1.03,352.98,587.7199707030001,-35.3632609,149.16522980000002,0
1.38,1.95,352.99,587.859985352,-35.3632609,149.16522980000002,0
2.11,2.99,353.01,587.9899902340001,-35.3632609,149.16522980000002,0
2.82,4.03,353.03,588.099975586,-35.363261,149.1652299,0
3.43,4.94,353.05,588.210021973,-35.363261,149.1652299,0
3.89,5.64,353.05,588.3099975590001,-35.3632611,149.1652302,0
4.24,6.13,353.03,588.390014648,-35.3632615,149.1652305,0
4.5,6.47,353.0,588.4699707030001,-35.3632617,149.16523080000002,0
4.71,6.72,352.97,588.549987793,-35.3632622,149.1652312,0
4.85,6.87,352.93,588.609985352,-35.3632626,149.1652317,0
4.93,6.96,352.9,588.679992676,-35.3632631,149.1652322,0
4.96,7.03,352.88,588.7399902340001,-35.363263700000005,149.165233,0
4.96,7.11,352.87,588.789978027,-35.3632643,149.1652336,0
5.0,7.27,352.88,588.849975586,-35.363265000000006,149.1652344,0
4.92,7.64,353.14,588.900024414,-35.3632658,149.1652353,0
4.75,8.23,354.28,588.960021973,-35.363266499999995,149.16523600000002,0
4.78,8.77,356.91,589.0100097659999,-35.3632675,149.16523700000002,0
5.25,9.02,1.2,589.0599975590001,-35.363268299999994,149.165238,0
6.21,8.77,6.95,589.1199951169999,-35.36326939999999,149.16523899999999,0
7.55,7.92,13.84,589.16998291,-35.3632706,149.16524009999998,0
9.05,6.48,21.55,589.229980469,-35.3632718,149.16524119999997,0
10.51,4.56,29.77,589.299987793,-35.3632731,149.16524230000002,0
11.67,2.31,38.25,589.359985352,-35.3632744,149.1652436,0
12.39,-0.07,46.76,589.429992676,-35.3632757,149.1652447,0
12.61,-2.45,55.16,589.5100097659999,-35.3632773,149.1652461,0
12.37,-4.61,63.13,589.58001709,-35.3632787,149.16524760000001,0
11.8,-6.48,70.63,589.659973145,-35.3632804,149.1652493,0
11.07,-8.05,77.57,589.7399902340001,-35.363282,149.16525090000002,0
10.23,-9.31,83.96,589.83001709,-35.3632836,149.16525269999997,0
9.37,-10.32,89.84,589.91998291,-35.363285299999994,149.1652546,0
8.54,-11.11,95.31,590.0100097659999,-35.3632871,149.1652566,0
7.77,-11.75,100.49,590.109985352,-35.36328889999999,149.1652585,0
7.04,-12.29,105.5,590.210021973,-35.3632908,149.16526069999998,0
6.27,-12.78,110.49,590.3099975590001,-35.3632926,149.1652628,0
5.4,-13.27,115.55,590.409973145,-35.363294700000004,149.16526519999996,0
4.38,-13.75,120.77,590.5100097659999,-35.3632967,149.1652675,0
3.17,-14.19,126.22,590.6199951169999,-35.3632987,149.1652698,0
1.49,-14.57,131.81,590.7199707030001,-35.3633009,149.16527219999998,0
-0.67,-14.77,137.08,590.83001709,-35.363303,149.1652747,0
-2.92,-14.75,141.47,590.929992676,-35.3633052,149.1652772,0
-4.73,-14.58,144.58,591.039978027,-35.363307299999995,149.1652796,0
-5.73,-14.37,146.29,591.150024414,-35.3633096,149.1652824,0
-5.85,-14.25,146.7,591.2600097659999,-35.3633118,149.1652851,0
-5.21,-14.3,146.04,591.359985352,-35.363314,149.16528799999998,0
-4.0,-14.48,144.57,591.4699707030001,-35.363316299999994,149.1652909,0
-2.49,-14.77,142.56,591.58001709,-35.3633186,149.1652938,0
-0.97,-15.1,140.31,591.6900024409999,-35.3633207,149.16529680000002,0
0.39,-15.36,138.1,591.799987793,-35.363323,149.1652997,0
1.47,-15.51,136.18,591.909973145,-35.363325399999994,149.1653029,0
2.18,-15.57,134.72,592.020019531,-35.3633279,149.16530590000002,0
2.51,-15.58,133.81,592.1300048830001,-35.363330299999994,149.16530880000002,0
2.49,-15.58,133.47,592.2399902340001,-35.36333270000001,149.1653119,0
2.21,-15.57,133.63,592.349975586,-35.363335299999996,149.1653149,0
1.77,-15.57,134.2,592.460021973,-35.363338,149.1653179,0
1.23,-15.61,135.04,592.570007324,-35.3633406,149.165321,0
0.64,-15.68,136.01,592.6900024409999,-35.3633432,149.1653241,0
0.06,-15.76,137.0,592.799987793,-35.363346,149.165327,0
-0.44,-15.84,137.88,592.909973145,-35.3633486,149.1653302,0
-0.82,-15.9,138.58,593.020019531,-35.3633514,149.1653332,0
-1.02,-15.94,139.05,593.1300048830001,-35.3633541,149.1653365,0
-1.07,-15.96,139.29,593.2399902340001,-35.3633569,149.16533950000002,0
-0.99,-15.98,139.31,593.349975586,-35.3633596,149.16534280000002,0
-0.83,-16.02,139.15,593.460021973,-35.3633625,149.165346,0
-0.62,-16.06,138.86,593.58001709,-35.3633651,149.1653493,0
-0.37,-16.1,138.5,593.6900024409999,-35.363368,149.1653524,0
-0.12,-16.13,138.12,593.799987793,-35.3633709,149.1653557,0
0.11,-16.15,137.76,593.909973145,-35.3633736,149.1653591,0
0.25,-16.16,137.47,594.020019531,-35.3633765,149.16536240000002,0
0.31,-16.19,137.27,594.1300048830001,-35.3633795,149.1653657,0
0.32,-16.24,137.16,594.2399902340001,-35.3633824,149.165369,0
0.26,-16.27,137.13,594.359985352,-35.3633853,149.16537230000003,0
0.17,-16.29,137.18,594.4699707030001,-35.3633881,149.1653756,0
0.08,-16.29,137.29,594.58001709,-35.3633911,149.1653789,0
0.0,-16.29,137.42,594.6900024409999,-35.3633941,149.1653823,0
-0.09,-16.3,137.57,594.799987793,-35.3633971,149.16538549999999,0
-0.19,-16.34,137.71,594.909973145,-35.3634,149.16538899999998,0
-0.27,-16.39,137.83,595.020019531,-35.363403000000005,149.16539219999999,0
-0.31,-16.43,137.91,595.140014648,-35.363406,149.1653957,0
-0.32,-16.44,137.96,595.25,-35.363409000000004,149.1653991,0
-0.3,-16.46,137.97,595.359985352,-35.3634119,149.1654025,0
-0.27,-16.48,137.95,595.4699707030001,-35.363414899999995,149.16540590000002,0
-0.23,-16.51,137.9,595.58001709,-35.3634179,149.16540930000002,0
-0.19,-16.53,137.84,595.700012207,-35.363420899999994,149.1654127,0
-0.16,-16.56,137.77,595.8099975590001,-35.363424,149.1654161,0
-0.14,-16.58,137.7,595.91998291,-35.363427,149.1654197,0
-0.13,-16.59,137.64,596.0300292969999,-35.3634301,149.1654232,0
-0.12,-16.59,137.59,596.140014648,-35.3634331,149.1654266,0
-0.11,-16.58,137.56,596.2600097659999,-35.3634362,149.16543000000001,0
-0.1,-16.58,137.53,596.3699951169999,-35.3634394,149.1654336,0
-0.09,-16.6,137.53,596.479980469,-35.363442299999996,149.1654371,0
-0.07,-16.63,137.53,596.590026855,-35.363445500000005,149.16544050000002,0
-0.05,-16.67,137.54,596.700012207,-35.363448600000005,149.16544409999997,0
-0.06,-16.69,137.55,596.8099975590001,-35.363451700000006,149.1654476,0
-0.09,-16.7,137.57,596.91998291,-35.36345479999999,149.16545119999998,0
-0.12,-16.72,137.58,597.0300292969999,-35.3634579,149.16545469999997,0
-0.14,-16.73,137.59,597.150024414,-35.363461,149.1654582,0
-0.16,-16.77,137.6,597.2600097659999,-35.3634641,149.1654616,0
-0.17,-16.81,137.6,597.3699951169999,-35.3634671,149.16546530000002,0
-0.16,-16.84,137.6,597.479980469,-35.3634702,149.1654687,0
-0.14,-16.85,137.6,597.590026855,-35.363473299999995,149.16547240000003,0
-0.11,-16.85,137.59,597.700012207,-35.3634766,149.16547590000002,0
-0.09,-16.82,137.57,597.8099975590001,-35.3634797,149.1654795,0
-0.09,-16.8,137.56,597.91998291,-35.3634828,149.1654831,0
-0.1,-16.8,137.55,598.039978027,-35.363486,149.16548669999997,0
-0.1,-16.8,137.53,598.150024414,-35.363489,149.16549019999997,0
-0.1,-16.8,137.53,598.2600097659999,-35.3634923,149.1654938,0
-0.1,-16.8,137.52,598.3699951169999,-35.3634954,149.16549740000002,0
-0.11,-16.82,137.52,598.479980469,-35.36349860000001,149.165501,0
-0.1,-16.84,137.52,598.599975586,-35.3635018,149.1655046,0
-0.08,-16.86,137.52,598.710021973,-35.3635049,149.1655083,0
-0.06,-16.89,137.51,598.820007324,-35.3635081,149.1655118,0
-0.05,-16.9,137.51,598.929992676,-35.36351129999999,149.1655155,0
-0.06,-16.89,137.51,599.039978027,-35.3635145,149.165519,0
-0.09,-16.85,137.51,599.159973145,-35.3635176,149.1655227,0
-0.12,-16.78,137.51,599.270019531,-35.3635207,149.1655262,0
-0.12,-16.74,137.5,599.3800048830001,-35.363524,149.16552990000002,0
-0.12,-16.76,137.5,599.4899902340001,-35.36352720000001,149.1655336,0
-0.14,-16.79,137.5,599.599975586,-35.3635304,149.1655372,0
-0.15,-16.8,137.49,599.710021973,-35.3635335,149.1655408,0
-0.14,-16.79,137.48,599.820007324,-35.3635368,149.16554430000002,0
-0.11,-16.77,137.48,599.929992676,-35.3635399,149.165548,0
-0.09,-16.75,137.47,600.039978027,-35.3635431,149.1655515,0
-0.09,-16.71,137.47,600.140014648,-35.36354620000001,149.1655553,0
-0.07,-16.69,137.46,600.25,-35.3635495,149.1655588,0
-0.06,-16.69,137.46,600.359985352,-35.3635527,149.1655625,0
-0.05,-16.7,137.45,600.4699707030001,-35.3635559,149.16556609999998,0
-0.04,-16.72,137.45,600.58001709,-35.363559,149.1655697,0
-0.03,-16.73,137.45,600.6900024409999,-35.3635621,149.16557340000003,0
-0.03,-16.76,137.44,600.799987793,-35.3635655,149.16557690000002,0
-0.03,-16.78,137.44,600.900024414,-35.3635686,149.1655807,0
-0.04,-16.77,137.44,601.0100097659999,-35.3635717,149.1655843,0
-0.04,-16.74,137.44,601.1199951169999,-35.363575,149.1655879,0
-0.03,-16.71,137.43,601.229980469,-35.3635782,149.1655915,0
0.0,-16.71,137.43,601.33001709,-35.3635814,149.1655951,0
0.0,-16.73,137.43,601.4400024409999,-35.363584499999995,149.16559880000003,0
0.0,-16.74,137.43,601.549987793,-35.3635878,149.16560230000002,0
-0.02,-16.75,137.42,601.659973145,-35.3635909,149.165606,0
-0.05,-16.74,137.42,601.770019531,-35.3635941,149.1656095,0
-0.05,-16.71,137.42,601.8699951169999,-35.3635972,149.1656132,0
-0.02,-16.69,137.41,601.979980469,-35.363600399999996,149.1656169,0
0.0,-16.69,137.41,602.090026855,-35.3636037,149.16562050000002,0
0.03,-16.69,137.41,602.200012207,-35.36360689999999,149.1656241,0
0.56,-16.5,137.45,602.299987793,-35.363609999999994,149.1656276,0
1.82,-16.04,137.66,602.400024414,-35.3636133,149.1656313,0
3.42,-15.57,138.15,602.4899902340001,-35.3636164,149.16563480000002,0
4.85,-15.28,139.0,602.570007324,-35.3636196,149.1656382,0
5.86,-15.18,140.23,602.640014648,-35.363622799999995,149.1656415,0
6.35,-15.26,141.82,602.700012207,-35.363625899999995,149.1656448,0
6.45,-15.48,143.72,602.75,-35.3636292,149.16564780000002,0
6.29,-15.76,145.9,602.799987793,-35.3636325,149.1656509,0
5.99,-16.04,148.24,602.840026855,-35.3636358,149.16565369999998,0
5.66,-16.31,150.68,602.8800048830001,-35.36363920000001,149.1656564,0
5.33,-16.55,153.12,602.900024414,-35.3636425,149.1656591,0
5.04,-16.75,155.5,602.929992676,-35.363645899999995,149.1656616,0
4.77,-16.92,157.75,602.950012207,-35.3636494,149.1656639,0
4.5,-17.07,159.84,602.9699707030001,-35.363653,149.16566619999998,0
4.27,-17.17,161.74,602.979980469,-35.3636565,149.16566830000002,0
4.08,-17.23,163.44,602.9899902340001,-35.363660100000004,149.16567030000002,0
3.94,-17.28,164.95,603.0,-35.3636636,149.1656722,0
3.84,-17.32,166.3,603.0100097659999,-35.3636674,149.1656741,0
3.78,-17.36,167.51,603.020019531,-35.3636711,149.1656758,0
3.73,-17.4,168.62,603.0300292969999,-35.3636749,149.1656774,0
3.67,-17.44,169.65,603.0300292969999,-35.3636787,149.16567890000002,0
3.61,-17.47,170.64,603.039978027,-35.363682399999995,149.1656802,0
3.54,-17.51,171.59,603.039978027,-35.3636863,149.1656815,0
3.46,-17.54,172.53,603.049987793,-35.3636902,149.1656827,0
3.34,-17.57,173.46,603.049987793,-35.363694,149.1656837,0
3.19,-17.6,174.38,603.049987793,-35.3636981,149.16568469999999,0
3.0,-17.63,175.27,603.049987793,-35.363701899999995,149.1656856,0
2.79,-17.66,176.14,603.0599975590001,-35.363706,149.1656865,0
2.6,-17.68,176.98,603.0599975590001,-35.36371,149.1656871,0
2.42,-17.72,177.77,603.0599975590001,-35.363714,149.1656879,0
2.28,-17.77,178.5,603.0599975590001,-35.36371810000001,149.16568840000002,0
2.16,-17.78,179.18,603.0599975590001,-35.3637222,149.1656889,0
2.05,-17.78,179.81,603.0599975590001,-35.3637261,149.16568940000002,0
1.93,-17.78,180.38,603.070007324,-35.36373029999999,149.1656898,0
1.81,-17.81,180.89,603.070007324,-35.3637344,149.16569009999998,0
1.69,-17.87,181.36,603.070007324,-35.363738399999995,149.16569030000002,0
1.59,-17.92,181.79,603.070007324,-35.3637426,149.16569040000002,0
1.5,-17.94,182.18,603.070007324,-35.3637468,149.1656907,0
1.42,-17.92,182.55,603.070007324,-35.363751,149.1656908,0
1.34,-17.88,182.88,603.070007324,-35.363755100000006,149.1656908,0
1.26,-17.85,183.2,603.070007324,-35.3637593,149.1656908,0
1.19,-17.83,183.5,603.070007324,-35.3637635,149.1656908,0
1.13,-17.83,183.78,603.070007324,-35.3637676,149.1656907,0
1.06,-17.85,184.04,603.070007324,-35.3637718,149.16569040000002,0
0.98,-17.88,184.3,603.070007324,-35.363776,149.16569040000002,0
0.9,-17.89,184.53,603.070007324,-35.363780299999995,149.16569019999997,0
0.82,-17.89,184.76,603.070007324,-35.363784499999994,149.1656899,0
0.73,-17.89,184.97,603.070007324,-35.363788799999995,149.1656897,0
0.65,-17.89,185.16,603.070007324,-35.363793,149.16568940000002,0
0.59,-17.92,185.34,603.070007324,-35.3637973,149.165689,0
0.54,-17.95,185.5,603.070007324,-35.3638015,149.1656888,0
0.52,-17.96,185.65,603.070007324,-35.363805799999994,149.16568840000002,0
0.5,-17.99,185.78,603.070007324,-35.36381,149.165688,0
0.49,-18.0,185.9,603.070007324,-35.3638143,149.1656875,0
0.46,-17.99,186.01,603.070007324,-35.3638185,149.1656871,0
0.42,-17.97,186.11,603.070007324,-35.363822799999994,149.1656868,0
0.39,-17.98,186.21,603.070007324,-35.3638271,149.1656863,0
0.37,-18.02,186.29,603.070007324,-35.363831299999994,149.16568590000003,0
0.35,-18.05,186.37,603.070007324,-35.3638356,149.1656854,0
0.3,-18.06,186.44,603.070007324,-35.3638398,149.1656849,0
0.26,-18.05,186.51,603.070007324,-35.3638441,149.1656844,0
0.25,-18.03,186.57,603.070007324,-35.3638484,149.1656837,0
0.25,-18.02,186.63,603.070007324,-35.3638527,149.1656832,0
0.23,-18.02,186.69,603.070007324,-35.3638571,149.1656827,0
0.2,-18.05,186.74,603.070007324,-35.3638614,149.1656822,0
0.18,-18.1,186.78,603.08001709,-35.3638657,149.1656816,0
0.16,-18.13,186.83,603.08001709,-35.3638701,149.1656811,0
0.16,-18.14,186.86,603.08001709,-35.3638744,149.1656804,0
0.15,-18.14,186.9,603.08001709,-35.3638787,149.16567980000002,0
0.14,-18.12,186.93,603.08001709,-35.363883,149.1656793,0
0.13,-18.1,186.96,603.08001709,-35.363887299999995,149.16567869999997,0
0.13,-18.09,186.98,603.08001709,-35.3638916,149.165678,0
0.11,-18.09,187.01,603.08001709,-35.3638961,149.1656774,0
0.1,-18.1,187.02,603.08001709,-35.3639004,149.16567690000002,0
0.12,-18.15,187.04,603.08001709,-35.3639047,149.16567619999998,0
0.13,-18.18,187.05,603.08001709,-35.3639091,149.1656755,0
0.13,-18.19,187.07,603.08001709,-35.363913399999994,149.165675,0
0.12,-18.18,187.08,603.08001709,-35.3639177,149.1656743,0
0.11,-18.18,187.09,603.08001709,-35.363921999999995,149.1656736,0
0.09,-18.17,187.09,603.08001709,-35.3639265,149.1656731,0
0.06,-18.18,187.1,603.08001709,-35.3639308,149.1656724,0
0.03,-18.19,187.1,603.08001709,-35.3639352,149.1656717,0
0.02,-18.2,187.11,603.08001709,-35.3639396,149.1656711,0
0.03,-18.19,187.11,603.08001709,-35.363943799999994,149.1656705,0
0.04,-18.19,187.11,603.08001709,-35.3639482,149.16566980000002,0
0.06,-18.18,187.11,603.08001709,-35.3639527,149.16566909999997,0
0.07,-18.19,187.11,603.08001709,-35.363957,149.16566840000002,0
0.06,-18.21,187.1,603.090026855,-35.3639614,149.1656678,0
0.04,-18.22,187.1,603.090026855,-35.3639657,149.16566719999997,0
0.03,-18.22,187.1,603.090026855,-35.363970200000004,149.16566640000002,0
0.04,-18.2,187.1,603.090026855,-35.363974600000006,149.1656658,0
0.06,-18.19,187.09,603.090026855,-35.363979,149.16566519999998,0
0.06,-18.21,187.09,603.090026855,-35.3639833,149.1656645,0
0.04,-18.24,187.08,603.090026855,-35.3639876,149.1656638,0
0.05,-18.27,187.08,603.090026855,-35.363992100000004,149.16566310000002,0
0.06,-18.28,187.07,603.090026855,-35.363996500000006,149.1656625,0
0.09,-18.29,187.07,603.090026855,-35.36400089999999,149.1656617,0
0.11,-18.3,187.06,603.090026855,-35.3640052,149.1656611,0
0.1,-18.31,187.06,603.090026855,-35.3640096,149.1656605,0
0.1,-18.31,187.06,603.090026855,-35.3640141,149.1656597,0
0.09,-18.3,187.05,603.090026855,-35.3640185,149.1656591,0
0.09,-18.29,187.05,603.090026855,-35.3640229,149.1656585,0
0.09,-18.29,187.04,603.090026855,-35.3640272,149.16565780000002,0
0.08,-18.32,187.04,603.090026855,-35.364031700000005,149.1656571,0
0.04,-18.34,187.04,603.090026855,-35.3640361,149.1656564,0
0.02,-18.34,187.03,603.090026855,-35.3640405,149.16565580000002,0
0.01,-18.33,187.03,603.090026855,-35.364044799999995,149.16565500000002,0
0.01,-18.32,187.02,603.090026855,-35.3640493,149.1656544,0
0.04,-18.31,187.01,603.090026855,-35.3640537,149.16565369999998,0
0.08,-18.31,187.01,603.090026855,-35.3640581,149.165653,0
0.11,-18.32,187.0,603.090026855,-35.3640624,149.1656524,0
0.11,-18.34,186.99,603.099975586,-35.364067,149.1656516,0
0.11,-18.35,186.98,603.099975586,-35.3640714,149.165651,0
0.08,-18.34,186.98,603.099975586,-35.364075799999995,149.1656502,0
0.06,-18.32,186.97,603.099975586,-35.3640801,149.1656496,0
0.05,-18.31,186.97,603.099975586,-35.364084600000005,149.165649,0
0.03,-18.3,186.96,603.099975586,-35.3640891,149.1656482,0
0.02,-18.31,186.96,603.099975586,-35.3640934,149.1656476,0
0.02,-18.33,186.95,603.099975586,-35.3640979,149.16564680000002,0
0.01,-18.38,186.94,603.099975586,-35.3641023,149.16564619999997,0
0.01,-18.42,186.94,603.099975586,-35.3641067,149.16564540000002,0
0.01,-18.43,186.93,603.099975586,-35.3641111,149.1656449,0
0.01,-18.41,186.93,603.099975586,-35.364115600000005,149.16564419999997,0
0.0,-18.39,186.92,603.099975586,-35.36412,149.16564340000002,0
-0.01,-18.38,186.91,603.099975586,-35.3641244,149.1656428,0
-0.02,-18.37,186.9,603.099975586,-35.3641289,149.165642,0
-0.01,-18.36,186.9,603.099975586,-35.3641333,149.1656414,0
0.02,-18.36,186.89,603.099975586,-35.364137799999995,149.1656406,0
0.06,-18.36,186.88,603.099975586,-35.3641421,149.1656401,0
0.09,-18.36,186.87,603.099975586,-35.3641466,149.1656394,0
0.12,-18.38,186.87,603.099975586,-35.364151,149.1656387,0
0.15,-18.39,186.86,603.099975586,-35.3641554,149.165638,0
0.16,-18.39,186.86,603.099975586,-35.36416,149.16563730000001,0
0.15,-18.36,186.86,603.099975586,-35.3641644,149.1656367,0
0.11,-18.34,186.85,603.099975586,-35.364168799999995,149.165636,0
0.06,-18.32,186.85,603.099975586,-35.3641733,149.16563530000002,0
0.04,-18.33,186.85,603.099975586,-35.3641777,149.1656346,0
0.04,-18.35,186.85,603.099975586,-35.3641822,149.16563390000002,0
0.04,-18.38,186.85,603.109985352,-35.3641865,149.1656333,0
0.04,-18.41,186.85,603.109985352,-35.3641911,149.1656325,0
0.03,-18.42,186.85,603.109985352,-35.3641955,149.16563190000002,0
0.05,-18.43,186.85,603.109985352,-35.364199799999994,149.16563119999998,0
0.07,-18.44,186.84,603.109985352,-35.3642044,149.1656305,0
0.07,-18.45,186.84,603.109985352,-35.3642088,149.1656299,0
0.09,-18.47,186.83,603.109985352,-35.3642132,149.1656291,0
0.09,-18.47,186.82,603.109985352,-35.364217700000005,149.1656285,0
0.1,-18.45,186.82,603.109985352,-35.3642221,149.1656279,0
0.12,-18.43,186.81,603.109985352,-35.3642265,149.1656272,0
0.12,-18.43,186.81,603.109985352,-35.3642309,149.1656265,0
0.12,-18.41,186.81,603.109985352,-35.3642355,149.1656257,0
0.1,-18.4,186.81,603.109985352,-35.364239899999994,149.1656251,0
0.07,-18.4,186.81,603.1199951169999,-35.364244299999996,149.1656245,0
0.05,-18.41,186.81,603.1199951169999,-35.3642488,149.16562380000002,0
0.05,-18.45,186.81,603.1199951169999,-35.3642533,149.1656231,0
0.06,-18.46,186.81,603.1199951169999,-35.3642576,149.16562240000002,0
0.08,-18.46,186.81,603.1199951169999,-35.364262200000006,149.1656217,0
0.12,-18.45,186.8,603.1199951169999,-35.3642666,149.165621,0
0.15,-18.45,186.8,603.1199951169999,-35.364271,149.16562040000002,0
0.16,-18.43,186.8,603.1199951169999,-35.3642755,149.1656196,0
0.15,-18.4,186.8,603.1199951169999,-35.36428,149.165619,0
0.14,-18.37,186.79,603.1199951169999,-35.3642843,149.1656183,0
0.14,-18.35,186.79,603.1199951169999,-35.3642889,149.1656176,0
0.15,-18.35,186.79,603.1199951169999,-35.36429329999999,149.165617,0
0.15,-18.36,186.79,603.1199951169999,-35.3642977,149.1656162,0
0.14,-18.36,186.79,603.1199951169999,-35.364302200000004,149.1656156,0
0.13,-18.36,186.79,603.1199951169999,-35.36430670000001,149.16561480000001,0
0.12,-18.37,186.79,603.1199951169999,-35.3643111,149.1656142,0
0.11,-18.38,186.79,603.1199951169999,-35.364315600000005,149.1656135,0
0.1,-18.38,186.78,603.1199951169999,-35.36432,149.1656128,0
0.1,-18.39,186.78,603.1300048830001,-35.3643244,149.1656122,0
0.1,-18.41,186.78,603.1300048830001,-35.364328799999996,149.16561140000002,0
0.07,-18.43,186.77,603.1300048830001,-35.3643333,149.1656108,0
0.06,-18.48,186.77,603.1300048830001,-35.364337799999994,149.16561000000002,0
0.08,-18.48,186.76,603.1300048830001,-35.3643422,149.1656094,0
0.11,-18.45,186.76,603.1300048830001,-35.3643467,149.16560869999998,0
0.12,-18.42,186.75,603.1300048830001,-35.3643512,149.16560800000002,0
0.13,-18.39,186.75,603.1300048830001,-35.3643555,149.1656074,0
0.15,-18.37,186.75,603.1300048830001,-35.3643601,149.1656066,0
0.16,-18.37,186.74,603.1300048830001,-35.3643645,149.165606,0
0.16,-18.37,186.74,603.1300048830001,-35.3643689,149.1656052,0
0.14,-18.4,186.74,603.1300048830001,-35.3643734,149.1656046,0
0.12,-18.44,186.74,603.1300048830001,-35.3643779,149.1656038,0
0.11,-18.48,186.74,603.1300048830001,-35.3643822,149.1656032,0
0.12,-18.49,186.74,603.1300048830001,-35.3643868,149.16560259999997,0
0.14,-18.5,186.74,603.1300048830001,-35.3643912,149.16560180000002,0
0.16,-18.51,186.74,603.1300048830001,-35.3643956,149.1656012,0
0.19,-18.51,186.74,603.1300048830001,-35.3644001,149.1656004,0
0.19,-18.48,186.74,603.1300048830001,-35.3644046,149.16559980000002,0
0.17,-18.43,186.73,603.1300048830001,-35.3644089,149.165599,0
0.16,-18.38,186.73,603.1300048830001,-35.3644135,149.16559840000002,0
0.15,-18.37,186.73,603.1300048830001,-35.3644179,149.1655978,0
0.16,-18.39,186.72,603.1300048830001,-35.3644223,149.165597,0
0.18,-18.42,186.72,603.1300048830001,-35.3644269,149.16559640000003,0
0.19,-18.43,186.72,603.1300048830001,-35.3644313,149.1655956,0
0.18,-18.44,186.71,603.1300048830001,-35.3644357,149.165595,0
0.17,-18.45,186.71,603.1300048830001,-35.3644403,149.1655942,0
0.16,-18.45,186.71,603.1300048830001,-35.36444470000001,149.1655936,0
0.15,-18.44,186.71,603.1300048830001,-35.3644491,149.165593,0
0.13,-18.43,186.71,603.140014648,-35.364453600000004,149.1655922,0
0.12,-18.43,186.71,603.140014648,-35.3644581,149.1655916,0
0.11,-18.44,186.7,603.140014648,-35.3644625,149.16559080000002,0
0.11,-18.45,186.7,603.140014648,-35.364467,149.16559019999997,0
0.11,-18.46,186.69,603.140014648,-35.3644715,149.16558940000002,0
0.11,-18.48,186.69,603.140014648,-35.364475799999994,149.1655888,0
0.11,-18.49,186.68,603.140014648,-35.3644804,149.16558799999999,0
0.12,-18.49,186.68,603.140014648,-35.3644848,149.16558740000002,0
0.16,-18.49,186.67,603.140014648,-35.36448920000001,149.16558669999998,0
0.18,-18.47,186.67,603.140014648,-35.3644938,149.16558600000002,0
0.18,-18.43,186.67,603.140014648,-35.3644982,149.1655854,0
0.17,-18.4,186.66,603.140014648,-35.3645026,149.1655846,0
0.15,-18.4,186.66,603.140014648,-35.3645071,149.165584,0
0.13,-18.42,186.66,603.140014648,-35.36451160000001,149.1655832,0
0.12,-18.44,186.66,603.140014648,-35.364515999999995,149.1655826,0
0.11,-18.48,186.66,603.140014648,-35.364520500000005,149.1655819,0
0.12,-18.52,186.65,603.140014648,-35.364525,149.1655812,0
0.15,-18.53,186.65,603.140014648,-35.3645294,149.1655805,0
0.18,-18.51,186.64,603.140014648,-35.3645339,149.16557980000002,0
0.2,-18.49,186.64,603.140014648,-35.364538399999994,149.1655792,0
0.21,-18.48,186.64,603.140014648,-35.3645427,149.1655784,0
0.21,-18.48,186.63,603.140014648,-35.3645473,149.16557780000002,0
0.2,-18.48,186.63,603.140014648,-35.36455170000001,149.1655771,0
0.18,-18.47,186.63,603.140014648,-35.3645561,149.1655764,0
0.14,-18.45,186.63,603.140014648,-35.3645607,149.1655757,0
0.12,-18.43,186.63,603.140014648,-35.3645651,149.165575,0
0.12,-18.42,186.63,603.140014648,-35.3645695,149.1655743,0
0.15,-18.43,186.63,603.140014648,-35.364574,149.16557360000002,0
0.18,-18.45,186.63,603.140014648,-35.3645785,149.165573,0
0.17,-18.46,186.63,603.1300048830001,-35.3645828,149.16557219999999,0
0.17,-18.44,186.63,603.1300048830001,-35.3645874,149.1655716,0
0.16,-18.43,186.63,603.1300048830001,-35.3645919,149.1655709,0
0.13,-18.42,186.62,603.1300048830001,-35.36459620000001,149.1655702,0
0.1,-18.41,186.62,603.1300048830001,-35.3646008,149.1655695,0
0.1,-18.41,186.61,603.1300048830001,-35.3646052,149.16556880000002,0
0.11,-18.42,186.61,603.1300048830001,-35.3646096,149.16556809999997,0
0.1,-18.42,186.6,603.1300048830001,-35.3646141,149.16556730000002,0
0.08,-18.43,186.6,603.1300048830001,-35.3646186,149.1655668,0
0.1,-18.42,186.59,603.1300048830001,-35.364622999999995,149.16556609999998,0
0.12,-18.41,186.59,603.1300048830001,-35.3646276,149.16556540000002,0
0.16,-18.4,186.58,603.1300048830001,-35.364632,149.16556469999998,0
0.18,-18.41,186.58,603.1300048830001,-35.3646364,149.165564,0
0.19,-18.44,186.57,603.1300048830001,-35.3646409,149.1655633,0
0.2,-18.48,186.57,603.1300048830001,-35.36464539999999,149.1655625,0
0.2,-18.5,186.57,603.1300048830001,-35.3646497,149.1655619,0
0.19,-18.48,186.58,603.1300048830001,-35.3646543,149.1655613,0
0.18,-18.45,186.58,603.1300048830001,-35.3646588,149.1655606,0
0.17,-18.42,186.58,603.1300048830001,-35.3646631,149.1655599,0
0.16,-18.4,186.58,603.1300048830001,-35.364667700000005,149.1655592,0
0.14,-18.39,186.58,603.1300048830001,-35.3646721,149.1655585,0
0.13,-18.4,186.58,603.1300048830001,-35.3646765,149.1655577,0
0.12,-18.41,186.58,603.1300048830001,-35.364681,149.1655571,0
0.13,-18.43,186.58,603.1300048830001,-35.3646855,149.1655564,0
0.13,-18.45,186.58,603.1300048830001,-35.364689899999995,149.16555580000002,0
0.14,-18.46,186.58,603.1300048830001,-35.3646944,149.1655551,0
0.13,-18.47,186.57,603.1300048830001,-35.3646989,149.1655544,0
0.11,-18.46,186.57,603.1300048830001,-35.3647032,149.16555369999998,0
0.1,-18.45,186.57,603.1300048830001,-35.3647078,149.16555300000002,0
0.1,-18.44,186.56,603.1300048830001,-35.364712299999994,149.1655524,0
0.13,-18.43,186.56,603.1300048830001,-35.3647166,149.1655516,0
0.16,-18.41,186.56,603.1300048830001,-35.364721200000005,149.165551,0
0.18,-18.41,186.56,603.1300048830001,-35.3647257,149.1655503,0
0.17,-18.42,186.56,603.1300048830001,-35.36473,149.1655496,0
0.15,-18.44,186.56,603.1300048830001,-35.3647346,149.165549,0
0.12,-18.44,186.56,603.1300048830001,-35.364739,149.1655482,0
0.09,-18.45,186.56,603.1300048830001,-35.3647434,149.1655476,0
0.08,-18.45,186.56,603.1300048830001,-35.3647479,149.16554680000002,0
0.1,-18.42,186.56,603.1300048830001,-35.3647524,149.1655462,0
0.12,-18.4,186.56,603.1300048830001,-35.364756799999995,149.1655455,0
0.15,-18.4,186.56,603.1300048830001,-35.3647613,149.16554480000002,0
0.18,-18.42,186.56,603.1300048830001,-35.3647658,149.16554419999997,0
0.19,-18.45,186.55,603.1300048830001,-35.3647701,149.16554340000002,0
0.18,-18.46,186.55,603.1300048830001,-35.364774700000005,149.1655428,0
0.17,-18.48,186.55,603.1300048830001,-35.3647792,149.165542,0
0.16,-18.48,186.55,603.1300048830001,-35.3647835,149.16554150000002,0
0.18,-18.48,186.56,603.1300048830001,-35.3647881,149.1655408,0
0.2,-18.47,186.56,603.1300048830001,-35.3647925,149.16554,0
0.22,-18.46,186.56,603.1300048830001,-35.3647969,149.1655394,0
0.25,-18.44,186.57,603.1300048830001,-35.3648014,149.1655386,0
0.27,-18.43,186.57,603.1199951169999,-35.3648059,149.1655381,0
0.25,-18.42,186.57,603.1199951169999,-35.364810299999995,149.1655374,0
0.21,-18.42,186.58,603.1199951169999,-35.3648149,149.1655367,0
0.19,-18.41,186.58,603.1199951169999,-35.36481929999999,149.165536,0
0.18,-18.4,186.59,603.1199951169999,-35.3648237,149.1655352,0
0.2,-18.4,186.59,603.1199951169999,-35.3648282,149.1655346,0
0.22,-18.4,186.59,603.1199951169999,-35.36483270000001,149.1655339,0
0.22,-18.42,186.59,603.1199951169999,-35.364837,149.16553330000002,0
0.2,-18.44,186.59,603.1199951169999,-35.364841600000005,149.16553259999998,0
0.18,-18.44,186.59,603.1199951169999,-35.3648461,149.16553190000002,0
0.16,-18.44,186.59,603.1199951169999,-35.364850399999995,149.1655312,0
0.15,-18.44,186.59,603.1199951169999,-35.364855,149.1655305,0
0.15,-18.46,186.58,603.1199951169999,-35.3648594,149.16552980000003,0
0.13,-18.49,186.58,603.1199951169999,-35.364863799999995,149.165529,0
0.13,-18.5,186.57,603.1199951169999,-35.3648683,149.1655285,0
0.14,-18.51,186.57,603.1199951169999,-35.36487279999999,149.1655278,0
0.14,-18.48,186.56,603.1199951169999,-35.3648772,149.1655271,0
0.14,-18.45,186.56,603.1199951169999,-35.364881700000005,149.1655264,0
0.13,-18.43,186.56,603.1199951169999,-35.3648862,149.1655257,0
0.12,-18.42,186.56,603.1199951169999,-35.3648905,149.165525,0
0.09,-18.43,186.56,603.1199951169999,-35.3648951,149.1655242,0
0.08,-18.44,186.56,603.1199951169999,-35.3648996,149.1655236,0
0.1,-18.44,186.56,603.1199951169999,-35.3649039,149.165523,0
0.13,-18.43,186.56,603.1199951169999,-35.364908500000006,149.16552230000002,0
0.16,-18.42,186.56,603.1199951169999,-35.364913,149.1655216,0
0.16,-18.4,186.56,603.1199951169999,-35.364917299999995,149.1655209,0
0.13,-18.38,186.55,603.1199951169999,-35.3649219,149.16552019999997,0
0.1,-18.38,186.56,603.1199951169999,-35.3649263,149.16551950000002,0
0.07,-18.4,186.55,603.1199951169999,-35.3649307,149.1655189,0
0.07,-18.42,186.55,603.1199951169999,-35.3649352,149.16551809999999,0
0.08,-18.44,186.55,603.1199951169999,-35.36493970000001,149.1655175,0
0.09,-18.45,186.55,603.1199951169999,-35.3649441,149.1655169,0
0.1,-18.46,186.55,603.1199951169999,-35.364948600000005,149.1655161,0
0.11,-18.45,186.55,603.1199951169999,-35.3649531,149.1655155,0
0.08,-18.42,186.55,603.1199951169999,-35.364957399999994,149.1655147,0
0.07,-18.4,186.55,603.1199951169999,-35.364962,149.1655142,0
0.08,-18.37,186.55,603.1199951169999,-35.3649664,149.1655135,0
0.11,-18.34,186.55,603.1199951169999,-35.3649708,149.1655127,0
0.14,-18.33,186.55,603.1199951169999,-35.3649754,149.1655121,1
0.15,-18.35,186.56,603.1199951169999,-35.36497979999999,149.1655114,1
0.15,-18.37,186.56,603.1199951169999,-35.3649842,149.1655108,1
0.16,-18.39,186.57,603.1199951169999,-35.364988700000005,149.1655101,1
0.18,-18.12,186.58,603.1199951169999,-35.3649932,149.1655094,1
0.2,-17.18,186.59,603.1199951169999,-35.3649976,149.16550880000003,1
0.21,-15.86,186.61,603.1199951169999,-35.3650021,149.16550800000002,1
0.23,-14.57,186.63,603.1199951169999,-35.3650065,149.1655074,1
0.24,-13.55,186.66,603.1199951169999,-35.36501079999999,149.16550680000003,1
0.28,-12.86,186.68,603.1199951169999,-35.3650151,149.165506,1
0.32,-12.4,186.72,603.1199951169999,-35.3650193,149.1655055,1
0.35,-12.03,186.76,603.1199951169999,-35.3650234,149.1655049,1
0.34,-11.68,186.81,603.1199951169999,-35.3650273,149.1655041,1
0.3,-11.29,186.85,603.1199951169999,-35.3650314,149.1655036,1
0.25,-10.86,186.9,603.1300048830001,-35.3650352,149.165503,1
0.22,-10.34,186.94,603.1300048830001,-35.365038899999995,149.1655023,1
0.2,-9.79,186.98,603.1300048830001,-35.3650426,149.1655017,1
0.17,-9.21,186.99,603.1300048830001,-35.36504620000001,149.1655012,1
0.1,-8.63,186.99,603.1300048830001,-35.365049799999994,149.1655007,1
0.01,-8.05,186.96,603.1300048830001,-35.3650532,149.1655001,1
-0.09,-7.51,186.89,603.1300048830001,-35.3650565,149.1654996,1
-0.19,-6.97,186.78,603.1300048830001,-35.3650598,149.1654991,1
-0.28,-6.41,186.63,603.1300048830001,-35.3650629,149.1654986,1
-0.37,-5.82,186.42,603.1300048830001,-35.3650659,149.16549799999999,1
-0.47,-5.2,186.14,603.1300048830001,-35.3650687,149.1654977,1
-0.6,-4.58,185.77,603.1300048830001,-35.3650717,149.16549730000003,1
-0.79,-3.95,185.3,603.1300048830001,-35.3650744,149.1654969,1
-1.01,-3.3,184.7,603.1300048830001,-35.365077,149.16549650000002,1
-1.29,-2.61,183.94,603.1300048830001,-35.3650794,149.16549619999998,1
-1.62,-1.89,182.97,603.1300048830001,-35.3650818,149.1654959,1
-2.0,-1.15,181.72,603.1300048830001,-35.365083899999995,149.1654956,1
-2.42,-0.37,180.13,603.140014648,-35.3650862,149.16549550000002,1
-2.89,0.44,178.34,603.140014648,-35.3650881,149.16549540000003,1
-3.43,1.32,176.59,603.140014648,-35.3650899,149.16549530000003,1
-4.02,2.29,175.09,603.140014648,-35.3650917,149.16549530000003,1
-4.62,3.28,173.99,603.140014648,-35.3650933,149.16549540000003,1
-5.21,4.11,173.36,603.140014648,-35.36509470000001,149.16549550000002,1
-5.74,4.64,173.21,603.140014648,-35.365096,149.1654956,1
-6.2,4.91,173.47,603.140014648,-35.3650971,149.165496,1
-6.59,4.96,174.03,603.140014648,-35.3650979,149.16549640000002,1
-6.94,4.93,174.76,603.140014648,-35.3650988,149.1654969,1
-7.26,4.9,175.54,603.140014648,-35.3650994,149.16549740000002,1
-7.57,4.89,176.27,603.140014648,-35.3651,149.16549799999999,1
-7.83,4.89,176.86,603.140014648,-35.365100299999995,149.16549880000002,1
-7.98,4.85,177.29,603.140014648,-35.365100700000006,149.1654996,1
-8.08,4.69,177.54,603.140014648,-35.365100899999995,149.1655006,1
-8.17,4.42,177.62,603.140014648,-35.365101,149.16550159999997,1
-8.29,4.04,177.54,603.140014648,-35.365101,149.1655027,1
-8.46,3.64,177.34,603.140014648,-35.365101,149.1655037,1
-8.64,3.43,176.85,603.140014648,-35.365100899999995,149.1655051,1
-8.86,3.46,175.51,603.140014648,-35.365100899999995,149.1655064,1
-9.25,3.44,172.71,603.140014648,-35.365100700000006,149.16550780000003,1
-9.83,2.98,168.3,603.1300048830001,-35.365100399999996,149.16550930000002,1
-10.46,1.84,162.48,603.1300048830001,-35.3651002,149.1655108,1
-10.97,0.01,155.57,603.1300048830001,-35.3650997,149.1655125,1
-11.13,-2.37,147.85,603.1300048830001,-35.3650995,149.1655142,1
-10.77,-5.07,139.56,603.1300048830001,-35.365099,149.165516,1
-9.82,-7.76,130.94,603.1300048830001,-35.3650985,149.1655179,1
-8.33,-10.18,122.21,603.1300048830001,-35.365098100000004,149.1655199,1
-6.44,-12.12,113.66,603.1300048830001,-35.365097600000006,149.16552190000002,1
-4.34,-13.49,105.55,603.1300048830001,-35.3650972,149.1655242,1
-2.26,-14.33,98.06,603.1300048830001,-35.3650967,149.1655266,1
-0.38,-14.76,91.29,603.1300048830001,-35.3650964,149.165529,1
1.2,-14.91,85.22,603.1300048830001,-35.365096,149.16553169999997,1
2.8,-14.93,79.87,603.1300048830001,-35.3650955,149.16553430000002,1
4.48,-14.84,75.63,603.1300048830001,-35.3650953,149.1655372,1
5.91,-14.68,72.85,603.1300048830001,-35.365094899999995,149.16554,1
6.8,-14.53,71.59,603.1199951169999,-35.365094799999994,149.16554319999997,1
6.93,-14.49,71.72,603.1199951169999,-35.3650945,149.16554630000002,1
6.33,-14.63,72.95,603.1199951169999,-35.365094299999996,149.1655496,1
5.11,-14.96,74.98,603.1199951169999,-35.3650942,149.16555290000002,1
3.46,-15.4,77.48,603.1199951169999,-35.3650942,149.16555630000002,1
1.7,-15.81,80.17,603.1199951169999,-35.3650941,149.1655599,1
0.09,-16.13,82.72,603.1199951169999,-35.365094,149.1655634,1
-1.14,-16.33,84.86,603.1199951169999,-35.3650937,149.16556709999998,1
-1.94,-16.42,86.42,603.1199951169999,-35.3650936,149.1655707,1
-2.29,-16.44,87.31,603.1199951169999,-35.3650935,149.16557450000002,1
-2.23,-16.43,87.56,603.1199951169999,-35.3650933,149.1655784,1
-1.83,-16.44,87.26,603.1199951169999,-35.365093,149.1655824,1
-1.22,-16.48,86.56,603.1199951169999,-35.365092700000005,149.1655864,1
-0.51,-16.52,85.61,603.1199951169999,-35.3650924,149.16559030000002,1
0.16,-16.58,84.57,603.1199951169999,-35.365092100000005,149.1655945,1
0.75,-16.64,83.58,603.1199951169999,-35.365091799999995,149.16559850000002,1
1.22,-16.69,82.76,603.1199951169999,-35.3650915,149.16560269999997,1
1.52,-16.72,82.17,603.1199951169999,-35.3650912,149.1656071,1
1.65,-16.75,81.83,603.1199951169999,-35.3650909,149.16561140000002,1
1.63,-16.78,81.76,603.1199951169999,-35.3650905,149.1656157,1
1.5,-16.8,81.9,603.1199951169999,-35.3650903,149.16562,1
1.29,-16.82,82.2,603.1199951169999,-35.3650899,149.1656245,1
1.03,-16.84,82.6,603.1199951169999,-35.365089700000006,149.165629,1
0.75,-16.86,83.04,603.1199951169999,-35.365089399999995,149.1656334,1
0.45,-16.88,83.47,603.1199951169999,-35.36508920000001,149.165638,1
0.19,-16.91,83.83,603.1199951169999,-35.365088799999995,149.16564250000002,1
0.02,-16.96,84.1,603.1199951169999,-35.3650886,149.1656471,1
-0.05,-17.01,84.26,603.1199951169999,-35.3650882,149.1656516,1
-0.07,-17.04,84.32,603.1199951169999,-35.365088,149.1656564,1
-0.01,-17.06,84.29,603.1199951169999,-35.365087599999995,149.165661,1
0.09,-17.09,84.2,603.1199951169999,-35.3650874,149.16566569999998,1
0.19,-17.12,84.07,603.1199951169999,-35.3650869,149.16567030000002,1
0.28,-17.13,83.92,603.1199951169999,-35.365086700000006,149.1656751,1
0.35,-17.13,83.77,603.1199951169999,-35.365086299999994,149.16567980000002,1
0.43,-17.14,83.65,603.1199951169999,-35.365086100000006,149.1656846,1
0.49,-17.16,83.56,603.1199951169999,-35.3650857,149.16568940000002,1
0.52,-17.19,83.52,603.1199951169999,-35.3650854,149.1656942,1
0.52,-17.24,83.51,603.1199951169999,-35.3650851,149.165699,1
0.5,-17.29,83.54,603.1199951169999,-35.365084700000004,149.165704,1
0.46,-17.33,83.6,603.1199951169999,-35.3650844,149.16570880000003,1
0.4,-17.36,83.68,603.1199951169999,-35.365084100000004,149.1657137,1
0.32,-17.34,83.76,603.1199951169999,-35.3650838,149.1657186,1
0.26,-17.29,83.84,603.1199951169999,-35.365083299999995,149.16572340000002,1
0.23,-17.26,83.91,603.1199951169999,-35.3650831,149.1657285,1
0.21,-17.3,83.97,603.1199951169999,-35.3650826,149.1657334,1
0.22,-17.35,84.01,603.1199951169999,-35.3650824,149.16573830000002,1
0.21,-17.41,84.04,603.1199951169999,-35.365082,149.16574330000003,1
0.19,-17.46,84.06,603.1199951169999,-35.365081700000005,149.1657483,1
0.18,-17.48,84.06,603.1199951169999,-35.3650813,149.1657533,1
0.17,-17.49,84.06,603.1199951169999,-35.3650809,149.16575830000002,1
0.18,-17.51,84.06,603.1199951169999,-35.365080600000006,149.1657632,1
0.21,-17.52,84.05,603.1199951169999,-35.3650802,149.16576830000002,1
0.25,-17.52,84.05,603.1199951169999,-35.3650799,149.1657734,1
0.28,-17.53,84.05,603.1199951169999,-35.3650795,149.1657784,1
0.28,-17.54,84.06,603.1199951169999,-35.3650791,149.1657835,1
0.29,-17.54,84.08,603.1300048830001,-35.36507879999999,149.1657885,1
0.27,-17.55,84.1,603.1300048830001,-35.3650784,149.1657936,1
0.26,-17.56,84.12,603.1300048830001,-35.365078100000005,149.16579860000002,1
0.23,-17.6,84.15,603.1300048830001,-35.3650777,149.16580380000002,1
0.21,-17.64,84.18,603.1300048830001,-35.365077299999996,149.1658089,1
0.21,-17.69,84.21,603.1300048830001,-35.365077,149.1658139,1
0.21,-17.73,84.24,603.1300048830001,-35.3650766,149.1658191,1
0.22,-17.75,84.27,603.1300048830001,-35.3650763,149.1658243,1
0.2,-17.76,84.29,603.1300048830001,-35.365075899999994,149.1658295,1
0.17,-17.76,84.31,603.1300048830001,-35.365075399999995,149.1658345,1
0.16,-17.78,84.33,603.1300048830001,-35.36507520000001,149.1658397,1
0.15,-17.81,84.35,603.1300048830001,-35.3650747,149.1658449,1
0.13,-17.82,84.36,603.1300048830001,-35.3650745,149.1658501,1
0.12,-17.82,84.37,603.1300048830001,-35.3650741,149.1658551,1
0.11,-17.8,84.38,603.1300048830001,-35.3650736,149.16586030000002,1
0.11,-17.79,84.39,603.1300048830001,-35.36507329999999,149.1658656,1
0.11,-17.79,84.4,603.1300048830001,-35.3650729,149.16587080000002,1
0.11,-17.8,84.41,603.1300048830001,-35.365072600000005,149.165876,1
0.09,-17.81,84.42,603.1300048830001,-35.3650722,149.1658812,1
0.08,-17.81,84.42,603.1300048830001,-35.3650717,149.1658864,1
0.08,-17.83,84.43,603.1300048830001,-35.3650715,149.1658917,1
0.09,-17.87,84.44,603.1300048830001,-35.3650711,149.1658969,1
0.11,-17.89,84.46,603.1300048830001,-35.3650706,149.165902,1
0.13,-17.9,84.47,603.1300048830001,-35.3650703,149.1659072,1
0.15,-17.91,84.48,603.1300048830001,-35.365069899999995,149.1659125,1
0.15,-17.92,84.5,603.1300048830001,-35.3650696,149.16591780000002,1
0.15,-17.92,84.52,603.1300048830001,-35.3650692,149.165923,1
0.12,-17.95,84.54,603.1300048830001,-35.3650687,149.16592830000002,1
0.09,-17.97,84.56,603.1300048830001,-35.3650684,149.1659336,1
0.09,-17.99,84.57,603.1300048830001,-35.365068,149.1659388,1
0.1,-17.99,84.59,603.1300048830001,-35.365067700000004,149.1659441,1
0.12,-17.99,84.6,603.1300048830001,-35.36506729999999,149.1659494,1
0.13,-18.01,84.61,603.1300048830001,-35.365066799999994,149.1659546,1
0.12,-18.03,84.62,603.1300048830001,-35.3650665,149.16595990000002,1
0.11,-18.07,84.64,603.1199951169999,-35.3650662,149.1659652,1
0.12,-18.08,84.65,603.1199951169999,-35.3650657,149.16597050000001,1
0.12,-18.08,84.66,603.1199951169999,-35.3650654,149.1659759,1
0.11,-18.07,84.67,603.1199951169999,-35.365065,149.1659812,1
0.12,-18.06,84.68,603.1199951169999,-35.3650645,149.1659865,1
0.14,-18.05,84.7,603.1199951169999,-35.3650643,149.1659918,1
0.16,-18.04,84.71,603.1199951169999,-35.365063799999994,149.1659971,1
0.17,-18.06,84.72,603.1199951169999,-35.3650635,149.1660024,1
0.16,-18.07,84.74,603.1199951169999,-35.3650631,149.1660077,1
0.15,-18.1,84.75,603.1199951169999,-35.3650627,149.166013,1
0.12,-18.13,84.76,603.1199951169999,-35.3650624,149.16601830000002,1
0.1,-18.16,84.77,603.1199951169999,-35.365062,149.16602360000002,1
0.1,-18.17,84.79,603.1199951169999,-35.365061600000004,149.1660291,1
0.13,-18.17,84.79,603.1199951169999,-35.3650612,149.1660344,1
0.15,-18.17,84.8,603.1199951169999,-35.365060799999995,149.1660398,1
0.16,-18.17,84.81,603.1199951169999,-35.3650605,149.1660451,1
0.13,-18.16,84.82,603.1199951169999,-35.3650601,149.1660504,1
0.1,-18.15,84.83,603.1199951169999,-35.3650596,149.1660559,1
0.08,-18.16,84.84,603.1199951169999,-35.3650593,149.1660612,1
0.07,-18.18,84.85,603.1199951169999,-35.3650589,149.1660666,1
0.07,-18.19,84.86,603.1199951169999,-35.3650586,149.1660719,1
0.09,-18.2,84.87,603.1199951169999,-35.36505820000001,149.1660772,1
0.11,-18.18,84.87,603.1300048830001,-35.36505770000001,149.16608269999998,1
0.14,-18.16,84.88,603.1300048830001,-35.3650575,149.1660881,1
0.15,-18.16,84.89,603.1300048830001,-35.3650571,149.16609350000002,1
0.14,-18.17,84.9,603.1300048830001,-35.3650566,149.1660987,1
0.12,-18.19,84.9,603.1300048830001,-35.3650563,149.16610419999998,1
0.11,-18.2,84.91,603.1300048830001,-35.3650559,149.1661096,1
0.09,-18.2,84.92,603.1300048830001,-35.365055600000005,149.166115,1
0.11,-18.21,84.92,603.1300048830001,-35.3650552,149.16612030000002,1
0.13,-18.21,84.93,603.1300048830001,-35.3650547,149.1661258,1
0.13,-18.22,84.93,603.1300048830001,-35.3650544,149.1661312,1
0.14,-18.24,84.94,603.1300048830001,-35.3650541,149.1661365,1
0.13,-18.28,84.95,603.1300048830001,-35.365053700000004,149.16614189999999,1
0.12,-18.29,84.96,603.1300048830001,-35.3650533,149.16614740000003,1
0.1,-18.3,84.97,603.1300048830001,-35.365052899999995,149.16615280000002,1
0.07,-18.3,84.97,603.1300048830001,-35.3650526,149.1661581,1
0.05,-18.31,84.98,603.1300048830001,-35.36505220000001,149.1661636,1
0.03,-18.31,84.98,603.1300048830001,-35.3650519,149.166169,1
0.03,-18.31,84.98,603.1300048830001,-35.3650515,149.1661744,1
0.04,-18.3,84.98,603.1300048830001,-35.3650511,149.1661799,1
0.05,-18.3,84.98,603.1300048830001,-35.3650508,149.16618530000002,1
0.04,-18.3,84.97,603.1300048830001,-35.365050399999994,149.1661906,1
0.03,-18.31,84.97,603.1300048830001,-35.3650501,149.16619599999999,1
0.02,-18.33,84.97,603.1300048830001,-35.3650497,149.1662016,1
0.05,-18.35,84.97,603.1300048830001,-35.365049299999995,149.16620690000002,1
0.09,-18.36,84.97,603.1300048830001,-35.365049,149.1662124,1
0.09,-18.37,84.97,603.1300048830001,-35.3650486,149.1662178,1
0.09,-18.39,84.98,603.1300048830001,-35.3650483,149.1662232,1
0.09,-18.41,84.98,603.1300048830001,-35.3650479,149.16622869999998,1
0.09,-18.42,84.99,603.1300048830001,-35.3650474,149.1662341,1
0.07,-18.43,85.0,603.1300048830001,-35.3650472,149.1662395,1
0.04,-18.41,85.0,603.1300048830001,-35.3650468,149.166245,1
0.02,-18.37,85.0,603.1300048830001,-35.365046500000005,149.1662505,1
0.02,-18.34,85.0,603.1300048830001,-35.3650461,149.16625580000002,1
0.03,-18.35,85.0,603.1300048830001,-35.3650456,149.1662614,1
0.05,-18.37,85.0,603.1300048830001,-35.3650454,149.16626680000002,1
0.06,-18.39,84.99,603.1300048830001,-35.365044899999994,149.16627230000003,1
0.04,-18.4,84.99,603.1300048830001,-35.3650446,149.16627769999997,1
0.03,-18.41,84.99,603.1300048830001,-35.365044299999994,149.1662831,1
0.04,-18.4,84.99,603.1300048830001,-35.365043799999995,149.1662886,1
0.07,-18.39,84.98,603.1300048830001,-35.3650436,149.166294,1
0.1,-18.39,84.98,603.1300048830001,-35.3650431,149.16629939999999,1
0.11,-18.39,84.98,603.1300048830001,-35.3650428,149.166305,1
0.1,-18.4,84.99,603.1300048830001,-35.3650425,149.16631040000001,1
0.08,-18.4,84.99,603.1300048830001,-35.365041999999995,149.1663159,1
0.07,-18.41,84.99,603.1300048830001,-35.36504179999999,149.16632130000002,1
0.07,-18.41,84.99,603.1300048830001,-35.365041299999994,149.1663268,1
0.08,-18.4,85.0,603.1300048830001,-35.365041,149.16633230000002,1
0.08,-18.39,85.0,603.1300048830001,-35.3650407,149.1663376,1
0.08,-18.38,85.0,603.1300048830001,-35.3650402,149.16634319999997,1
0.11,-18.37,85.0,603.1300048830001,-35.3650399,149.1663486,1
0.14,-18.38,85.0,603.1300048830001,-35.3650395,149.1663541,1
0.18,-18.4,85.0,603.1300048830001,-35.365039200000005,149.1663596,1
0.19,-18.42,85.0,603.1300048830001,-35.365038899999995,149.16636509999998,1
0.17,-18.42,84.99,603.1300048830001,-35.365038500000004,149.1663705,1
0.15,-18.4,84.99,603.1300048830001,-35.3650381,149.16637590000002,1
0.15,-18.4,84.99,603.1300048830001,-35.3650377,149.1663815,1
0.15,-18.4,84.99,603.1199951169999,-35.3650374,149.1663869,1
0.12,-18.41,85.0,603.1199951169999,-35.365037,149.1663924,1
0.09,-18.42,85.0,603.1199951169999,-35.365036700000005,149.1663979,1
0.1,-18.44,85.0,603.1199951169999,-35.36503629999999,149.1664034,1
0.12,-18.45,85.0,603.1199951169999,-35.3650359,149.16640880000003,1
0.16,-18.46,85.0,603.1199951169999,-35.365035600000006,149.1664142,1
0.18,-18.46,85.0,603.1199951169999,-35.3650352,149.1664198,1
0.19,-18.46,84.99,603.1199951169999,-35.3650349,149.1664252,1
0.2,-18.47,84.99,603.1199951169999,-35.3650345,149.16643069999998,1
0.21,-18.46,84.99,603.1199951169999,-35.3650341,149.1664362,1
0.24,-18.45,84.98,603.1199951169999,-35.3650338,149.1664415,1
0.24,-18.44,84.98,603.1199951169999,-35.365033399999994,149.1664471,1
0.22,-18.44,84.98,603.1199951169999,-35.3650331,149.1664525,1
0.19,-18.43,84.99,603.1199951169999,-35.36503270000001,149.1664581,1
0.15,-18.42,84.99,603.1199951169999,-35.3650322,149.1664635,1
0.13,-18.38,84.99,603.1199951169999,-35.365032,149.166469,1
0.13,-18.35,84.98,603.1199951169999,-35.3650316,149.16647450000002,1
0.13,-18.33,84.98,603.1199951169999,-35.3650313,149.16648,1
0.14,-18.35,84.98,603.1199951169999,-35.3650309,149.1664854,1
0.14,-18.39,84.98,603.1199951169999,-35.3650304,149.16649080000002,1
0.14,-18.39,84.97,603.1199951169999,-35.3650302,149.16649650000002,1
0.14,-18.37,84.97,603.1199951169999,-35.3650297,149.16650180000002,1
0.13,-18.37,84.96,603.1199951169999,-35.3650294,149.1665074,1
0.09,-18.36,84.96,603.1199951169999,-35.3650291,149.1665128,1
0.08,-18.37,84.95,603.1199951169999,-35.3650286,149.1665184,1
0.07,-18.39,84.95,603.1199951169999,-35.3650284,149.16652380000002,1
0.1,-18.4,84.94,603.1199951169999,-35.3650279,149.16652919999999,1
0.13,-18.41,84.94,603.1199951169999,-35.365027600000005,149.16653480000002,1
0.15,-18.43,84.93,603.1199951169999,-35.3650273,149.1665402,1
0.17,-18.46,84.93,603.1199951169999,-35.365026799999995,149.1665457,1
0.17,-18.45,84.93,603.1199951169999,-35.3650265,149.1665511,1
0.16,-18.42,84.93,603.1199951169999,-35.3650261,149.16655669999997,1
0.15,-18.38,84.93,603.1199951169999,-35.3650258,149.1665621,1
0.14,-18.36,84.93,603.1199951169999,-35.3650255,149.1665677,1
0.15,-18.36,84.93,603.1199951169999,-35.365025,149.1665731,1
0.15,-18.38,84.93,603.1199951169999,-35.365024700000006,149.16657849999999,1
0.13,-18.41,84.92,603.1199951169999,-35.365024299999995,149.1665841,1
0.11,-18.45,84.92,603.1199951169999,-35.365024,149.16658950000001,1
0.11,-18.46,84.92,603.1199951169999,-35.3650237,149.166595,1
0.09,-18.44,84.92,603.1199951169999,-35.3650233,149.1666004,1
0.06,-18.41,84.91,603.1199951169999,-35.3650229,149.166606,1
0.05,-18.38,84.91,603.1199951169999,-35.365022499999995,149.1666114,1
0.06,-18.38,84.9,603.1199951169999,-35.3650222,149.166617,1
0.06,-18.39,84.9,603.1199951169999,-35.3650218,149.16662250000002,1
0.08,-18.4,84.89,603.1199951169999,-35.365021500000005,149.166628,1
0.1,-18.42,84.89,603.1199951169999,-35.3650211,149.1666335,1
0.1,-18.42,84.89,603.1199951169999,-35.3650207,149.166639,1
0.11,-18.41,84.88,603.1199951169999,-35.3650204,149.16664450000002,1
0.13,-18.39,84.88,603.1199951169999,-35.36502,149.16664980000002,1
0.14,-18.38,84.88,603.1199951169999,-35.365019700000005,149.1666554,1
0.14,-18.37,84.88,603.1199951169999,-35.3650193,149.1666608,1
0.14,-18.38,84.88,603.1199951169999,-35.365018799999994,149.1666664,1
0.14,-18.4,84.88,603.1199951169999,-35.3650186,149.16667180000002,1
0.15,-18.44,84.88,603.1199951169999,-35.3650182,149.1666774,1
0.13,-18.46,84.88,603.1199951169999,-35.3650179,149.16668280000002,1
0.1,-18.48,84.89,603.1199951169999,-35.3650175,149.1666884,1
0.08,-18.49,84.89,603.1199951169999,-35.365017,149.16669380000002,1
0.08,-18.48,84.89,603.1199951169999,-35.36501679999999,149.1666993,1
0.09,-18.47,84.89,603.1199951169999,-35.3650164,149.16670480000002,1
0.11,-18.45,84.89,603.1199951169999,-35.365016100000005,149.1667103,1
0.1,-18.44,84.89,603.1199951169999,-35.3650157,149.1667158,1
0.1,-18.44,84.89,603.1199951169999,-35.3650152,149.16672130000003,1
0.11,-18.44,84.88,603.1199951169999,-35.365015,149.16672680000002,1
0.14,-18.45,84.88,603.1199951169999,-35.3650145,149.1667323,1
0.17,-18.45,84.88,603.1199951169999,-35.365014200000005,149.1667378,1
0.18,-18.45,84.88,603.1199951169999,-35.365013899999994,149.1667433,1
0.17,-18.45,84.88,603.1199951169999,-35.365013399999995,149.1667487,1
0.15,-18.43,84.88,603.1199951169999,-35.36501320000001,149.1667541,1
0.14,-18.41,84.88,603.1199951169999,-35.3650127,149.16675969999997,1
0.13,-18.4,84.88,603.1199951169999,-35.3650124,149.1667651,1
0.13,-18.4,84.88,603.1199951169999,-35.3650121,149.1667707,1
0.14,-18.41,84.88,603.1300048830001,-35.3650116,149.1667761,1
0.13,-18.41,84.88,603.1300048830001,-35.36501129999999,149.16678169999997,1
0.12,-18.41,84.88,603.1300048830001,-35.3650109,149.1667871,1
0.12,-18.4,84.88,603.1300048830001,-35.365010600000005,149.1667925,1
0.11,-18.41,84.88,603.1300048830001,-35.365010299999994,149.1667981,1
0.11,-18.43,84.88,603.1300048830001,-35.3650098,149.1668035,1
0.13,-18.43,84.88,603.1300048830001,-35.3650095,149.1668091,1
0.15,-18.43,84.87,603.1300048830001,-35.3650091,149.16681450000002,1
0.17,-18.44,84.87,603.1300048830001,-35.3650088,149.1668201,1
0.18,-18.47,84.87,603.1300048830001,-35.3650084,149.1668255,1
0.17,-18.48,84.87,603.1300048830001,-35.365007899999995,149.166831,1
0.14,-18.47,84.87,603.1300048830001,-35.36500770000001,149.1668365,1
0.1,-18.46,84.87,603.1300048830001,-35.3650072,149.1668421,1
0.06,-18.45,84.87,603.1300048830001,-35.3650069,149.16684750000002,1
0.03,-18.46,84.87,603.1300048830001,-35.3650066,149.166853,1
0.03,-18.45,84.87,603.1300048830001,-35.3650061,149.1668585,1
0.05,-18.47,84.87,603.1300048830001,-35.3650059,149.166864,1
0.05,-18.49,84.86,603.1300048830001,-35.3650054,149.16686950000002,1
0.07,-18.51,84.86,603.1300048830001,-35.365005100000005,149.166875,1
