Start,TimeUS,Roll,Pitch,Yaw,Alt,Lat,Lng,Q1,Q2,Q3,Q4,Category
0.0,0.0,353.0,584.090026855,-35.363261,149.1652299,0
0.0,0.0,353.0,584.090026855,-35.363261,149.1652299,0
0.0,0.0,353.0,584.090026855,-35.363261,149.1652299,0
0.0,0.0,353.0,584.090026855,-35.363261,149.1652299,0
0.0,0.0,353.0,584.090026855,-35.363261,149.1652299,0
0.0,0.0,353.0,584.090026855,-35.363261,149.1652299,0
0.0,0.0,353.0,584.090026855,-35.363261,149.1652299,0
0.0,0.0,353.0,584.090026855,-35.363261,149.1652299,0
0.0,0.0,353.0,584.090026855,-35.363261,149.1652299,0
0.0,0.0,353.0,584.090026855,-35.363261,149.1652299,0
0.0,0.0,353.0,584.090026855,-35.363261,149.1652299,0
0.0,0.0,353.0,584.090026855,-35.363261,149.1652299,0
0.0,0.0,353.0,584.090026855,-35.363261,149.1652299,0
0.0,0.0,353.0,584.090026855,-35.363261,149.1652299,0
0.0,0.0,353.0,584.090026855,-35.363261,149.1652299,0
0.0,0.0,353.0,584.090026855,-35.363261,149.1652299,0
0.0,0.0,353.0,584.090026855,-35.363261,149.1652299,0
0.0,0.0,353.0,584.090026855,-35.363261,149.1652299,0
0.0,0.0,353.0,584.090026855,-35.363261,149.1652299,0
0.0,0.0,353.0,584.090026855,-35.363261,149.1652299,0
0.0,0.0,353.0,584.090026855,-35.363261,149.1652299,0
0.0,0.0,353.0,584.090026855,-35.363261,149.1652299,0
0.0,0.0,353.0,584.090026855,-35.363261,149.1652299,0
0.0,0.0,353.0,584.090026855,-35.363261,149.1652299,0
0.0,0.0,353.0,584.090026855,-35.363261,149.1652299,0
0.0,0.0,353.0,584.090026855,-35.363261,149.1652299,0
0.0,0.0,353.0,584.090026855,-35.363261,149.1652299,0
0.0,0.0,353.0,584.090026855,-35.363261,149.1652299,0
0.0,0.0,353.0,584.090026855,-35.363261,149.1652299,0
0.0,0.0,353.0,584.090026855,-35.363261,149.1652299,0
0.0,0.0,353.0,584.090026855,-35.363261,149.1652299,0
0.0,0.0,353.0,584.090026855,-35.363261,149.1652299,0
0.0,0.0,353.0,584.090026855,-35.363261,149.1652299,0
0.0,0.0,353.0,584.090026855,-35.363261,149.1652299,0
0.0,0.0,353.0,584.090026855,-35.363261,149.1652299,0
0.0,0.0,353.0,584.090026855,-35.363261,149.1652299,0
0.0,0.0,353.0,584.090026855,-35.363261,149.1652299,0
0.0,0.0,353.0,584.090026855,-35.363261,149.1652299,0
0.0,0.0,353.0,584.090026855,-35.363261,149.1652299,0
0.0,0.0,353.0,584.090026855,-35.363261,149.1652299,0
0.0,0.0,353.0,584.090026855,-35.363261,149.1652299,0
0.0,0.0,353.0,584.090026855,-35.363261,149.1652299,0
0.0,0.0,353.0,584.090026855,-35.363261,149.1652299,0
0.0,0.0,353.0,584.090026855,-35.363261,149.1652299,0
0.0,0.0,353.0,584.090026855,-35.363261,149.1652299,0
0.0,0.0,353.0,584.090026855,-35.363261,149.1652299,0
0.0,0.0,353.0,584.090026855,-35.363261,149.1652299,0
0.0,0.0,353.0,584.090026855,-35.363261,149.1652299,0
0.0,0.0,353.0,584.090026855,-35.363261,149.1652299,0
0.0,0.0,353.0,584.090026855,-35.363261,149.1652299,0
0.0,0.0,353.0,584.090026855,-35.363261,149.1652299,0
0.0,0.0,353.0,584.090026855,-35.363261,149.1652299,0
0.0,0.0,353.0,584.090026855,-35.363261,149.1652299,0
0.0,0.0,353.0,584.090026855,-35.363261,149.1652299,0
0.0,0.0,353.0,584.090026855,-35.363261,149.1652299,0
0.0,0.0,353.0,584.090026855,-35.363261,149.1652299,0
0.0,0.0,353.0,584.090026855,-35.363261,149.1652299,0
0.0,0.0,353.0,584.090026855,-35.363261,149.1652299,0
0.0,0.0,353.0,584.090026855,-35.363261,149.1652299,0
0.0,0.0,353.0,584.090026855,-35.363261,149.1652299,0
0.0,0.0,353.0,584.090026855,-35.363261,149.1652299,0
0.0,0.0,353.0,584.090026855,-35.363261,149.1652299,0
0.0,0.0,353.0,584.090026855,-35.363261,149.1652299,0
0.0,0.0,353.0,584.090026855,-35.363261,149.1652299,0
0.0,0.0,353.0,584.090026855,-35.363261,149.1652299,0
0.0,0.0,353.0,584.090026855,-35.363261,149.1652299,0
0.0,0.0,353.0,584.090026855,-35.363261,149.1652299,0
0.0,0.0,353.0,584.090026855,-35.363261,149.1652299,0
0.0,0.0,353.0,584.090026855,-35.363261,149.1652299,0
0.0,0.0,353.0,584.090026855,-35.363261,149.1652299,0
0.0,0.0,353.0,584.090026855,-35.363261,149.1652299,0
0.0,0.0,353.0,584.090026855,-35.363261,149.1652299,0
0.0,0.0,353.0,584.090026855,-35.363261,149.1652299,0
0.0,0.0,353.0,584.090026855,-35.363261,149.1652299,0
0.0,0.0,353.0,584.090026855,-35.363261,149.1652299,0
0.0,0.0,353.0,584.099975586,-35.363261,149.1652299,0
0.0,0.0,353.0,584.099975586,-35.363261,149.1652299,0
0.0,0.0,353.0,584.1199951169999,-35.363261,149.1652299,0
0.0,0.0,353.0,584.140014648,-35.363261,149.1652299,0
0.0,0.0,353.0,584.16998291,-35.363261,149.1652299,0
0.0,0.0,352.99,584.210021973,-35.363261,149.1652299,0
-0.04,-0.02,352.99,584.270019531,-35.363261,149.1652299,0
-0.1,-0.09,352.98,584.3800048830001,-35.363261,149.1652299,0
-0.19,-0.16,352.97,584.5300292969999,-35.363261,149.1652299,0
-0.25,-0.2,352.96,584.6900024409999,-35.363261,149.1652299,0
-0.24,-0.2,352.94,584.840026855,-35.363261,149.1652299,0
-0.17,-0.18,352.93,585.0,-35.363261,149.1652299,0
-0.1,-0.14,352.92,585.150024414,-35.363261,149.1652299,0
-0.04,-0.1,352.91,585.3099975590001,-35.363261,149.1652299,0
0.0,-0.08,352.9,585.479980469,-35.363261,149.16522980000002,0
0.04,-0.04,352.9,585.650024414,-35.363261,149.16522980000002,0
0.06,-0.01,352.89,585.83001709,-35.363261,149.16522980000002,0
0.06,0.01,352.89,586.0100097659999,-35.363261,149.16522980000002,0
0.06,0.0,352.9,586.200012207,-35.363261,149.16522980000002,0
0.06,0.0,352.9,586.390014648,-35.363261,149.16522980000002,0
0.03,-0.03,352.9,586.58001709,-35.363261,149.16522980000002,0
0.0,-0.06,352.91,586.7800292969999,-35.363261,149.16522980000002,0
0.0,-0.07,352.91,586.9699707030001,-35.3632609,149.16522980000002,0
0.0,-0.06,352.91,587.16998291,-35.3632609,149.16522980000002,0
0.03,-0.03,352.9,587.3699951169999,-35.3632609,149.16522980000002,0
0.07,0.0,352.9,587.570007324,-35.3632609,149.16522980000002,0
0.1,0.0,352.89,587.75,-35.3632609,149.16522980000002,0
0.1,0.0,352.89,587.91998291,-35.3632609,149.16522980000002,0
0.09,-0.02,352.88,588.090026855,-35.3632609,149.16522980000002,0
0.17,-0.16,352.87,588.2399902340001,-35.3632609,149.16522980000002,0
0.44,-0.54,352.87,588.3800048830001,-35.3632609,149.16522980000002,0
0.89,-1.15,352.86,588.5,-35.36326079999999,149.16522980000002,0
1.44,-1.96,352.84,588.609985352,-35.36326079999999,149.16522980000002,0
2.04,-2.87,352.82,588.710021973,-35.36326079999999,149.16522980000002,0
2.64,-3.74,352.8,588.799987793,-35.363260700000005,149.16522980000002,0
3.18,-4.42,352.8,588.8800048830001,-35.3632604,149.1652299,0
3.59,-4.91,352.8,588.9400024409999,-35.36326029999999,149.1652299,0
3.88,-5.27,352.82,589.0,-35.363259899999996,149.1652302,0
4.11,-5.57,352.84,589.049987793,-35.3632597,149.16523030000002,0
4.3,-5.89,352.85,589.090026855,-35.3632592,149.16523069999997,0
4.49,-6.21,352.87,589.1300048830001,-35.3632587,149.165231,0
4.67,-6.48,352.87,589.16998291,-35.3632583,149.16523130000002,0
4.82,-6.7,352.88,589.200012207,-35.3632576,149.1652317,0
4.93,-6.85,352.89,589.2199707030001,-35.363257,149.1652322,0
5.0,-6.95,352.89,589.25,-35.3632561,149.1652327,0
5.06,-7.05,352.89,589.270019531,-35.3632554,149.1652332,0
5.13,-7.18,352.88,589.289978027,-35.3632544,149.1652339,0
5.36,-7.27,352.95,589.3099975590001,-35.3632536,149.1652345,0
5.86,-7.25,353.59,589.33001709,-35.3632525,149.1652351,0
6.47,-7.32,355.52,589.349975586,-35.3632516,149.16523590000003,0
6.78,-7.72,359.11,589.3699951169999,-35.3632505,149.1652366,0
6.55,-8.49,4.29,589.3800048830001,-35.36324929999999,149.1652375,0
5.59,-9.5,10.81,589.400024414,-35.3632481,149.16523840000002,0
3.7,-10.58,18.2,589.41998291,-35.3632469,149.16523940000002,0
1.0,-11.46,25.65,589.4400024409999,-35.3632456,149.1652406,0
-1.95,-11.98,32.28,589.460021973,-35.363244099999996,149.1652417,0
-4.48,-12.16,37.41,589.479980469,-35.3632427,149.16524280000002,0
-6.12,-12.18,40.68,589.5,-35.363241200000004,149.165244,0
-6.74,-12.21,42.12,589.520019531,-35.3632395,149.1652451,0
-6.46,-12.42,42.0,589.539978027,-35.363237700000006,149.1652461,0
-5.52,-12.84,40.68,589.5599975590001,-35.3632358,149.16524730000003,0
-4.15,-13.45,38.49,589.58001709,-35.3632339,149.16524850000002,0
-2.58,-14.1,35.8,589.609985352,-35.363231799999994,149.16524950000002,0
-1.0,-14.67,32.93,589.6300048830001,-35.363229700000005,149.16525080000002,0
0.44,-15.07,30.22,589.659973145,-35.3632275,149.16525190000002,0
1.57,-15.28,27.95,589.6900024409999,-35.3632252,149.16525330000002,0
2.33,-15.36,26.32,589.710021973,-35.363223,149.1652547,0
2.7,-15.35,25.41,589.7399902340001,-35.36322070000001,149.1652562,0
2.67,-15.31,25.19,589.770019531,-35.36321829999999,149.16525780000003,0
2.3,-15.32,25.56,589.789978027,-35.3632158,149.1652595,0
1.7,-15.39,26.37,589.820007324,-35.3632133,149.1652612,0
1.0,-15.52,27.45,589.849975586,-35.3632108,149.1652628,0
0.29,-15.67,28.62,589.8800048830001,-35.3632081,149.1652647,0
-0.35,-15.81,29.73,589.909973145,-35.3632056,149.1652666,0
-0.87,-15.91,30.67,589.929992676,-35.3632029,149.1652684,0
-1.2,-15.98,31.35,589.960021973,-35.3632002,149.16527030000003,0
-1.37,-16.04,31.75,589.9899902340001,-35.3631974,149.16527219999998,0
-1.36,-16.08,31.86,590.020019531,-35.3631946,149.1652741,0
-1.22,-16.1,31.73,590.049987793,-35.3631917,149.1652761,0
-0.98,-16.1,31.42,590.08001709,-35.3631887,149.165278,0
-0.71,-16.12,30.99,590.099975586,-35.3631859,149.16528,0
-0.42,-16.15,30.52,590.1300048830001,-35.3631829,149.16528200000002,0
-0.16,-16.2,30.06,590.159973145,-35.3631798,149.165284,0
0.04,-16.24,29.67,590.1900024409999,-35.3631768,149.1652861,0
0.2,-16.3,29.37,590.2199707030001,-35.363173700000004,149.1652882,0
0.3,-16.36,29.19,590.25,-35.3631705,149.1652902,0
0.33,-16.42,29.12,590.2800292969999,-35.3631674,149.1652925,0
0.3,-16.46,29.14,590.3099975590001,-35.3631643,149.16529450000002,0
0.21,-16.49,29.24,590.340026855,-35.3631612,149.16529680000002,0
0.08,-16.52,29.39,590.359985352,-35.363158,149.165299,0
-0.04,-16.54,29.56,590.390014648,-35.3631547,149.1653011,0
-0.17,-16.56,29.73,590.41998291,-35.3631516,149.1653034,0
-0.29,-16.61,29.87,590.450012207,-35.36314829999999,149.16530569999998,0
-0.37,-16.65,29.98,590.479980469,-35.363144899999995,149.16530780000002,0
-0.39,-16.68,30.04,590.5100097659999,-35.3631417,149.1653102,0
-0.38,-16.69,30.05,590.539978027,-35.363138299999996,149.1653125,0
-0.34,-16.71,30.03,590.570007324,-35.3631351,149.1653148,0
-0.27,-16.74,29.97,590.599975586,-35.3631316,149.165317,0
-0.21,-16.77,29.9,590.6300048830001,-35.3631284,149.16531930000002,0
-0.16,-16.81,29.81,590.659973145,-35.3631249,149.1653217,0
-0.13,-16.86,29.72,590.6900024409999,-35.3631216,149.165324,0
-0.1,-16.92,29.64,590.7199707030001,-35.3631181,149.1653263,0
-0.08,-16.95,29.58,590.7399902340001,-35.3631146,149.16532869999998,0
-0.07,-16.97,29.54,590.770019531,-35.36311129999999,149.1653311,0
-0.06,-16.99,29.51,590.799987793,-35.363107799999995,149.16533330000001,0
-0.06,-17.01,29.5,590.83001709,-35.3631042,149.16533569999999,0
-0.04,-17.04,29.5,590.859985352,-35.3631009,149.1653381,0
-0.04,-17.06,29.51,590.890014648,-35.3630974,149.1653405,0
-0.05,-17.07,29.52,590.91998291,-35.363093799999994,149.165343,0
-0.07,-17.09,29.54,590.950012207,-35.3630902,149.1653454,0
-0.1,-17.13,29.55,590.979980469,-35.3630868,149.1653478,0
-0.12,-17.16,29.56,591.0100097659999,-35.3630833,149.1653503,0
-0.14,-17.18,29.56,591.039978027,-35.3630797,149.16535269999997,0
-0.16,-17.2,29.56,591.070007324,-35.3630762,149.1653551,0
-0.15,-17.21,29.55,591.099975586,-35.363072499999994,149.1653576,0
-0.15,-17.24,29.53,591.1300048830001,-35.3630689,149.16536000000002,0
-0.15,-17.27,29.51,591.159973145,-35.3630653,149.16536240000002,0
-0.17,-17.3,29.49,591.1900024409999,-35.3630617,149.1653648,0
-0.17,-17.31,29.46,591.2199707030001,-35.363058200000005,149.1653673,0
-0.16,-17.32,29.44,591.25,-35.363054600000005,149.1653699,0
-0.12,-17.33,29.42,591.2800292969999,-35.363051,149.16537230000003,0
-0.1,-17.33,29.4,591.3099975590001,-35.3630473,149.16537480000002,0
-0.08,-17.36,29.38,591.340026855,-35.363043700000006,149.16537730000002,0
-0.09,-17.4,29.37,591.3699951169999,-35.363040000000005,149.1653797,0
-0.12,-17.43,29.36,591.400024414,-35.3630364,149.1653823,0
-0.11,-17.44,29.36,591.429992676,-35.363032700000005,149.16538480000003,0
-0.1,-17.46,29.36,591.460021973,-35.363029,149.16538730000002,0
-0.08,-17.49,29.35,591.4899902340001,-35.3630254,149.1653897,0
-0.07,-17.52,29.35,591.520019531,-35.3630217,149.16539219999999,0
-0.08,-17.55,29.34,591.549987793,-35.3630179,149.1653948,0
-0.08,-17.58,29.34,591.58001709,-35.3630142,149.16539730000002,0
-0.07,-17.62,29.33,591.609985352,-35.3630105,149.16539980000002,0
-0.06,-17.66,29.33,591.640014648,-35.363006799999994,149.1654024,0
-0.07,-17.69,29.32,591.66998291,-35.3630032,149.1654049,0
-0.08,-17.71,29.32,591.700012207,-35.3629995,149.1654074,0
-0.09,-17.7,29.31,591.729980469,-35.362995700000006,149.16540990000001,0
-0.11,-17.67,29.3,591.7600097659999,-35.362992,149.1654125,0
-0.13,-17.65,29.29,591.789978027,-35.3629883,149.165415,0
-0.13,-17.64,29.28,591.820007324,-35.362984399999995,149.16541750000002,0
-0.14,-17.63,29.27,591.849975586,-35.3629807,149.16542019999997,0
-0.14,-17.62,29.26,591.8800048830001,-35.362977,149.1654227,0
-0.13,-17.64,29.25,591.909973145,-35.36297329999999,149.1654252,0
-0.12,-17.67,29.24,591.9400024409999,-35.3629695,149.1654278,0
-0.11,-17.7,29.23,591.9699707030001,-35.3629656,149.1654304,0
-0.08,-17.72,29.23,592.0,-35.3629619,149.165433,0
-0.05,-17.73,29.22,592.0300292969999,-35.36295820000001,149.1654356,0
-0.04,-17.73,29.21,592.0599975590001,-35.3629544,149.16543810000002,0
-0.05,-17.74,29.21,592.090026855,-35.3629506,149.16544069999998,0
-0.05,-17.73,29.2,592.1199951169999,-35.3629467,149.16544330000002,0
-0.04,-17.73,29.2,592.150024414,-35.362943,149.16544580000001,0
-0.04,-17.72,29.2,592.179992676,-35.36293920000001,149.16544840000003,0
-0.03,-17.71,29.19,592.210021973,-35.3629354,149.165451,0
-0.05,-17.72,29.19,592.2399902340001,-35.3629315,149.16545359999998,0
-0.05,-17.73,29.19,592.270019531,-35.3629278,149.1654562,0
-0.05,-17.75,29.19,592.299987793,-35.362924,149.1654587,0
-0.04,-17.78,29.19,592.320007324,-35.362920200000005,149.1654614,0
-0.02,-17.79,29.19,592.349975586,-35.362916299999995,149.1654639,0
0.0,-17.79,29.19,592.3800048830001,-35.3629126,149.1654664,0
0.01,-17.81,29.19,592.409973145,-35.362908700000006,149.1654691,0
0.0,-17.84,29.19,592.4400024409999,-35.362904799999995,149.1654716,0
0.0,-17.88,29.18,592.4699707030001,-35.362901,149.1654743,0
-0.01,-17.91,29.18,592.5,-35.3628973,149.16547680000002,0
-0.01,-17.92,29.18,592.5300292969999,-35.3628935,149.1654795,0
-0.01,-17.89,29.17,592.5599975590001,-35.3628895,149.1654821,0
-0.01,-17.87,29.17,592.590026855,-35.362885799999994,149.16548480000003,0
-0.01,-17.86,29.16,592.6199951169999,-35.3628819,149.16548740000002,0
0.0,-17.86,29.15,592.650024414,-35.362878,149.16548999999998,0
0.0,-17.87,29.15,592.679992676,-35.362874299999994,149.1654926,0
0.0,-17.9,29.14,592.710021973,-35.3628704,149.1654951,0
0.01,-17.9,29.14,592.7399902340001,-35.362866499999996,149.1654979,0
0.01,-17.86,29.13,592.770019531,-35.3628627,149.16550049999998,0
0.0,-17.84,29.12,592.799987793,-35.3628589,149.1655031,0
-0.01,-17.84,29.12,592.83001709,-35.3628549,149.1655056,0
0.0,-17.85,29.11,592.859985352,-35.3628512,149.1655084,0
0.01,-17.87,29.11,592.890014648,-35.3628473,149.16551090000002,0
0.03,-17.9,29.1,592.91998291,-35.3628434,149.1655136,0
0.02,-17.92,29.09,592.950012207,-35.3628396,149.1655161,0
0.0,-17.92,29.09,592.979980469,-35.36283579999999,149.1655189,0
-0.01,-17.92,29.08,593.0100097659999,-35.362831799999995,149.16552140000002,0
-0.02,-17.93,29.07,593.039978027,-35.3628281,149.1655241,0
-0.02,-17.97,29.06,593.070007324,-35.362824200000006,149.1655267,0
0.0,-17.98,29.06,593.099975586,-35.3628202,149.1655294,0
0.02,-17.96,29.05,593.1300048830001,-35.3628165,149.1655321,0
0.04,-17.94,29.04,593.159973145,-35.3628126,149.1655347,0
0.04,-17.94,29.04,593.1900024409999,-35.3628086,149.1655372,0
0.05,-17.93,29.03,593.2199707030001,-35.36280479999999,149.16554,0
0.04,-17.93,29.03,593.25,-35.362800799999995,149.16554250000002,0
0.04,-17.94,29.02,593.2800292969999,-35.3627971,149.16554530000002,0
0.03,-17.95,29.02,593.3099975590001,-35.362793200000006,149.1655479,0
0.0,-17.96,29.01,593.340026855,-35.3627892,149.16555060000002,0
-0.01,-18.0,29.01,593.3699951169999,-35.3627854,149.16555319999998,0
-0.02,-18.02,29.01,593.400024414,-35.3627816,149.16555580000002,0
-0.01,-18.02,29.0,593.429992676,-35.3627776,149.1655585,0
-0.01,-18.01,29.0,593.460021973,-35.36277379999999,149.1655611,0
0.0,-18.01,28.99,593.4899902340001,-35.362769799999995,149.1655638,0
0.0,-18.03,28.98,593.520019531,-35.3627661,149.16556640000002,0
0.0,-18.04,28.98,593.539978027,-35.362762200000006,149.1655691,0
0.01,-18.04,28.97,593.570007324,-35.3627582,149.1655716,0
0.03,-18.02,28.96,593.599975586,-35.3627544,149.1655744,0
0.05,-17.98,28.95,593.6300048830001,-35.3627505,149.16557690000002,0
0.07,-17.96,28.94,593.659973145,-35.3627466,149.16557959999997,0
0.07,-17.97,28.93,593.6900024409999,-35.362742700000005,149.1655822,0
0.07,-17.99,28.93,593.7199707030001,-35.3627387,149.16558490000003,0
0.06,-18.02,28.92,593.75,-35.362735,149.1655875,0
0.03,-18.04,28.92,593.7800292969999,-35.3627311,149.16559019999997,0
0.02,-18.05,28.92,593.8099975590001,-35.36272720000001,149.1655929,0
0.04,-18.05,28.92,593.840026855,-35.36272329999999,149.1655955,0
0.08,-18.05,28.92,593.8699951169999,-35.3627192,149.16559819999998,0
0.1,-18.04,28.92,593.900024414,-35.3627154,149.16560080000002,0
0.08,-18.03,28.92,593.929992676,-35.3627114,149.1656035,0
0.05,-18.03,28.92,593.960021973,-35.3627076,149.1656061,0
0.01,-18.04,28.91,593.9899902340001,-35.36270379999999,149.16560880000003,0
0.0,-18.05,28.91,594.020019531,-35.362699799999994,149.16561140000002,0
-0.02,-18.06,28.91,594.049987793,-35.362696,149.16561409999997,0
-0.03,-18.08,28.91,594.08001709,-35.362691999999996,149.1656167,0
-0.02,-18.1,28.9,594.109985352,-35.3626882,149.16561950000002,0
-0.01,-18.1,28.89,594.140014648,-35.3626843,149.16562209999998,0
0.02,-18.08,28.88,594.16998291,-35.362680299999994,149.16562480000002,0
0.05,-18.06,28.88,594.200012207,-35.3626764,149.1656274,0
0.08,-18.05,28.87,594.229980469,-35.3626724,149.16563,0
0.07,-18.05,28.86,594.2600097659999,-35.3626686,149.16563280000003,0
0.05,-18.04,28.86,594.289978027,-35.3626646,149.16563530000002,0
0.04,-18.02,28.85,594.320007324,-35.36266079999999,149.1656381,0
0.04,-18.01,28.85,594.349975586,-35.3626569,149.1656406,0
0.05,-18.02,28.84,594.3800048830001,-35.362653,149.16564340000002,0
0.05,-18.05,28.84,594.409973145,-35.362649100000006,149.1656461,0
0.04,-18.08,28.84,594.4400024409999,-35.3626451,149.1656487,0
0.05,-18.09,28.83,594.4699707030001,-35.3626412,149.1656514,0
0.06,-18.07,28.83,594.5,-35.3626372,149.16565400000002,0
0.09,-18.05,28.82,594.5300292969999,-35.3626334,149.16565669999997,0
0.12,-18.04,28.82,594.5599975590001,-35.3626295,149.16565930000002,0
0.13,-18.03,28.82,594.590026855,-35.3626256,149.1656621,0
0.12,-18.05,28.81,594.6199951169999,-35.3626217,149.16566459999999,0
0.11,-18.06,28.81,594.650024414,-35.3626177,149.16566740000002,0
0.1,-18.06,28.81,594.679992676,-35.3626138,149.16567,0
0.09,-18.05,28.8,594.710021973,-35.3626098,149.1656726,0
0.08,-18.05,28.8,594.7399902340001,-35.362606,149.1656754,0
0.06,-18.06,28.8,594.770019531,-35.362602,149.165678,0
0.06,-18.05,28.79,594.799987793,-35.3625982,149.16568069999997,0
0.07,-18.05,28.79,594.83001709,-35.3625943,149.1656834,0
0.08,-18.05,28.79,594.859985352,-35.3625903,149.16568600000002,0
0.1,-18.05,28.78,594.890014648,-35.3625864,149.16568869999998,0
0.1,-18.04,28.78,594.91998291,-35.362582399999994,149.16569130000002,0
0.1,-18.05,28.77,594.950012207,-35.3625786,149.1656941,0
0.1,-18.08,28.77,594.979980469,-35.3625746,149.1656966,0
0.1,-18.09,28.76,595.0,-35.3625708,149.1656994,0
0.11,-18.1,28.76,595.0300292969999,-35.3625669,149.1657021,0
0.13,-18.09,28.75,595.0599975590001,-35.36256289999999,149.1657047,0
0.13,-18.07,28.74,595.090026855,-35.362559000000005,149.1657074,0
0.12,-18.06,28.74,595.1199951169999,-35.3625551,149.16571000000002,0
0.1,-18.07,28.73,595.150024414,-35.362551200000006,149.1657128,0
0.09,-18.08,28.73,595.179992676,-35.3625472,149.1657155,0
0.09,-18.09,28.73,595.210021973,-35.3625433,149.1657181,0
0.08,-18.1,28.73,595.2399902340001,-35.3625393,149.1657208,0
0.07,-18.11,28.72,595.270019531,-35.3625355,149.16572340000002,0
0.08,-18.12,28.72,595.299987793,-35.3625315,149.1657262,0
0.08,-18.12,28.72,595.33001709,-35.3625277,149.1657287,0
0.1,-18.1,28.71,595.359985352,-35.3625238,149.1657315,0
0.13,-18.08,28.71,595.390014648,-35.362519799999994,149.1657342,0
0.13,-18.09,28.7,595.409973145,-35.3625159,149.1657368,0
0.12,-18.1,28.69,595.4400024409999,-35.3625119,149.1657395,0
0.11,-18.11,28.68,595.4699707030001,-35.3625081,149.1657421,0
0.09,-18.1,28.67,595.5,-35.362504,149.1657449,0
0.08,-18.07,28.67,595.5300292969999,-35.36250020000001,149.16574740000001,0
0.07,-18.05,28.66,595.5599975590001,-35.3624962,149.1657502,0
0.06,-18.05,28.65,595.590026855,-35.3624924,149.1657529,0
0.06,-18.05,28.65,595.6199951169999,-35.362488299999995,149.1657555,0
0.07,-18.05,28.64,595.650024414,-35.362484499999994,149.1657582,0
0.08,-18.05,28.64,595.679992676,-35.362480600000005,149.1657608,0
0.11,-18.06,28.63,595.710021973,-35.3624766,149.1657636,0
0.14,-18.08,28.63,595.7399902340001,-35.3624727,149.16576619999998,0
0.15,-18.09,28.62,595.770019531,-35.3624687,149.1657689,0
0.15,-18.12,28.62,595.789978027,-35.3624649,149.1657716,0
0.12,-18.13,28.62,595.820007324,-35.3624609,149.1657741,0
0.1,-18.15,28.62,595.849975586,-35.362457,149.1657769,0
0.1,-18.14,28.62,595.8800048830001,-35.362453,149.16577949999999,0
0.12,-18.11,28.62,595.909973145,-35.3624492,149.1657822,0
0.15,-18.09,28.62,595.9400024409999,-35.3624453,149.1657849,0
0.15,-18.06,28.61,595.9699707030001,-35.36244129999999,149.1657875,0
0.13,-18.06,28.61,596.0,-35.362437400000005,149.16579030000003,0
0.1,-18.06,28.61,596.0300292969999,-35.3624335,149.16579280000002,0
0.07,-18.06,28.6,596.0599975590001,-35.362429600000006,149.1657956,0
0.06,-18.08,28.6,596.090026855,-35.3624256,149.1657983,0
0.06,-18.12,28.6,596.1199951169999,-35.3624217,149.16580090000002,0
0.07,-18.17,28.59,596.150024414,-35.3624177,149.16580359999998,0
0.09,-18.19,28.58,596.179992676,-35.3624139,149.1658062,0
0.1,-18.17,28.58,596.210021973,-35.362409899999996,149.165809,0
0.12,-18.14,28.57,596.2399902340001,-35.362406,149.1658115,0
0.14,-18.09,28.56,596.270019531,-35.362402100000004,149.16581430000002,0
0.16,-18.07,28.56,596.289978027,-35.3623982,149.165817,0
0.17,-18.07,28.55,596.320007324,-35.362394200000004,149.1658196,0
0.16,-18.09,28.55,596.349975586,-35.3623903,149.16582230000003,0
0.1,-18.11,28.55,596.3800048830001,-35.3623864,149.16582490000002,0
0.06,-18.11,28.55,596.409973145,-35.362382399999994,149.16582769999997,0
0.05,-18.13,28.55,596.4400024409999,-35.3623785,149.1658302,0
0.06,-18.14,28.55,596.4699707030001,-35.3623745,149.16583300000002,0
0.07,-18.13,28.55,596.5,-35.36237070000001,149.16583569999997,0
0.07,-18.11,28.54,596.5300292969999,-35.3623667,149.16583830000002,0
0.09,-18.08,28.54,596.5599975590001,-35.3623628,149.165841,0
0.1,-18.06,28.54,596.590026855,-35.362358799999996,149.1658436,0
0.07,-18.07,28.53,596.6199951169999,-35.362355,149.16584630000003,0
0.04,-18.08,28.53,596.650024414,-35.3623511,149.16584890000001,0
0.04,-18.09,28.53,596.679992676,-35.3623471,149.1658517,0
0.06,-18.1,28.52,596.710021973,-35.362343200000005,149.1658543,0
0.09,-18.11,28.52,596.7399902340001,-35.36233920000001,149.16585700000002,0
0.12,-18.12,28.51,596.770019531,-35.3623354,149.16585969999997,0
0.14,-18.13,28.51,596.799987793,-35.362331299999994,149.1658622,0
0.16,-18.14,28.51,596.83001709,-35.3623275,149.165865,0
0.16,-18.13,28.5,596.859985352,-35.362323499999995,149.16586769999998,0
0.15,-18.11,28.5,596.890014648,-35.36231970000001,149.16587030000002,0
0.14,-18.08,28.5,596.91998291,-35.3623156,149.165873,0
0.13,-18.06,28.5,596.950012207,-35.36231179999999,149.1658756,0
0.12,-18.06,28.5,596.979980469,-35.3623077,149.1658784,0
0.12,-18.06,28.5,597.0100097659999,-35.3623039,149.16588090000002,0
0.12,-18.08,28.5,597.039978027,-35.3623,149.1658837,0
0.13,-18.1,28.5,597.070007324,-35.362296,149.1658864,0
0.12,-18.1,28.5,597.099975586,-35.362292100000005,149.165889,0
0.12,-18.06,28.5,597.1300048830001,-35.3622882,149.1658917,0
0.12,-18.04,28.5,597.159973145,-35.3622843,149.16589430000002,0
0.14,-18.04,28.49,597.179992676,-35.362280299999995,149.1658971,0
0.14,-18.06,28.49,597.210021973,-35.3622764,149.16589960000002,0
0.14,-18.09,28.48,597.2399902340001,-35.3622724,149.1659024,0
0.13,-18.11,28.48,597.270019531,-35.3622686,149.1659051,0
0.13,-18.1,28.48,597.299987793,-35.3622645,149.1659077,0
0.14,-18.11,28.47,597.33001709,-35.3622607,149.1659104,0
0.14,-18.11,28.47,597.359985352,-35.3622568,149.165913,0
0.13,-18.11,28.46,597.390014648,-35.3622529,149.1659158,0
0.12,-18.12,28.46,597.41998291,-35.3622489,149.1659185,0
0.13,-18.14,28.45,597.450012207,-35.362245,149.1659211,0
0.13,-18.15,28.45,597.479980469,-35.362241100000006,149.1659238,0
0.14,-18.13,28.44,597.5100097659999,-35.3622371,149.1659264,0
0.16,-18.12,28.44,597.539978027,-35.362233200000006,149.1659291,0
0.19,-18.1,28.43,597.570007324,-35.3622292,149.1659317,0
0.24,-18.08,28.43,597.599975586,-35.3622253,149.1659345,0
0.27,-18.08,28.42,597.6300048830001,-35.3622213,149.1659372,0
0.26,-18.09,28.42,597.659973145,-35.3622175,149.16593980000002,0
0.23,-18.1,28.41,597.6900024409999,-35.362213399999995,149.1659425,0
0.19,-18.12,28.41,597.7199707030001,-35.3622096,149.1659451,0
0.17,-18.15,28.41,597.75,-35.3622056,149.1659479,0
0.19,-18.18,28.41,597.7800292969999,-35.36220170000001,149.16595039999999,0
0.21,-18.18,28.41,597.8099975590001,-35.3621977,149.1659532,0
0.19,-18.16,28.41,597.840026855,-35.3621939,149.1659559,0
0.16,-18.13,28.41,597.8699951169999,-35.3621899,149.1659585,0
0.15,-18.13,28.4,597.900024414,-35.362186,149.1659612,0
0.15,-18.14,28.4,597.929992676,-35.3621821,149.16596380000001,0
0.18,-18.12,28.4,597.960021973,-35.3621781,149.1659666,0
0.22,-18.09,28.39,597.9899902340001,-35.362174200000005,149.16596930000003,0
0.24,-18.07,28.39,598.020019531,-35.3621702,149.16597190000002,0
0.24,-18.06,28.39,598.049987793,-35.36216629999999,149.1659746,0
0.25,-18.05,28.38,598.070007324,-35.362162299999994,149.1659772,0
0.24,-18.08,28.38,598.099975586,-35.3621585,149.16598,0
0.23,-18.11,28.38,598.1300048830001,-35.3621544,149.16598259999998,0
0.22,-18.13,28.38,598.159973145,-35.3621506,149.16598530000002,0
0.23,-18.13,28.37,598.1900024409999,-35.3621465,149.165988,0
0.25,-18.14,28.37,598.2199707030001,-35.3621427,149.1659906,0
0.27,-18.12,28.37,598.25,-35.3621387,149.16599330000003,0
0.27,-18.1,28.37,598.2800292969999,-35.3621348,149.165996,0
0.26,-18.1,28.37,598.3099975590001,-35.362130799999996,149.1659987,0
0.27,-18.12,28.37,598.340026855,-35.362127,149.1660014,0
0.27,-18.13,28.36,598.3699951169999,-35.362123100000005,149.16600390000002,0
0.26,-18.14,28.36,598.400024414,-35.3621191,149.16600669999997,0
0.25,-18.14,28.36,598.429992676,-35.3621152,149.1660094,0
0.25,-18.15,28.35,598.460021973,-35.3621112,149.16601210000002,0
0.25,-18.14,28.35,598.4899902340001,-35.3621073,149.1660148,0
0.23,-18.12,28.34,598.520019531,-35.3621033,149.16601730000002,0
0.22,-18.1,28.34,598.549987793,-35.3620995,149.1660201,0
0.22,-18.09,28.34,598.58001709,-35.362095399999994,149.16602269999998,0
0.22,-18.06,28.33,598.609985352,-35.3620916,149.1660255,0
0.21,-18.03,28.33,598.640014648,-35.3620876,149.1660282,0
0.2,-18.01,28.32,598.66998291,-35.36208370000001,149.16603080000002,0
0.21,-18.02,28.32,598.700012207,-35.3620797,149.1660335,0
0.22,-18.03,28.31,598.729980469,-35.362075899999994,149.1660361,0
0.22,-18.04,28.3,598.75,-35.3620718,149.1660389,0
0.22,-18.06,28.3,598.7800292969999,-35.362068,149.1660416,0
0.24,-18.1,28.29,598.8099975590001,-35.3620641,149.1660442,0
0.26,-18.13,28.28,598.840026855,-35.3620602,149.166047,0
0.28,-18.14,28.28,598.8699951169999,-35.362056200000005,149.1660495,0
0.29,-18.12,28.28,598.900024414,-35.36205220000001,149.16605230000002,0
0.28,-18.11,28.27,598.929992676,-35.3620484,149.166055,0
0.27,-18.11,28.27,598.960021973,-35.362044399999995,149.1660576,0
0.24,-18.1,28.26,598.9899902340001,-35.3620406,149.1660604,0
0.2,-18.08,28.26,599.020019531,-35.3620365,149.1660631,0
0.17,-18.08,28.25,599.049987793,-35.36203270000001,149.1660657,0
0.14,-18.1,28.25,599.08001709,-35.3620288,149.1660684,0
0.11,-18.11,28.23,599.109985352,-35.3620249,149.166071,0
0.12,-18.1,28.22,599.140014648,-35.362021,149.16607380000002,0
0.19,-18.08,28.21,599.16998291,-35.362017,149.1660765,0
0.27,-18.05,28.2,599.200012207,-35.3620131,149.1660791,0
0.32,-18.05,28.19,599.229980469,-35.3620091,149.16608180000003,0
0.34,-18.07,28.18,599.2600097659999,-35.362005200000006,149.16608440000002,0
0.31,-18.12,28.17,599.289978027,-35.3620012,149.1660871,0
0.27,-18.16,28.17,599.320007324,-35.3619974,149.1660897,0
0.22,-18.22,28.16,599.349975586,-35.3619934,149.1660925,0
0.18,-18.25,28.16,599.3800048830001,-35.3619896,149.16609519999997,0
0.16,-18.22,28.16,599.409973145,-35.361985600000004,149.16609780000002,0
0.18,-18.13,28.16,599.4400024409999,-35.3619817,149.1661005,0
0.23,-18.02,28.15,599.4699707030001,-35.3619777,149.1661031,0
0.27,-17.96,28.15,599.5,-35.361973799999994,149.16610590000002,0
0.31,-17.98,28.15,599.5300292969999,-35.3619699,149.1661085,0
0.34,-18.04,28.14,599.549987793,-35.3619659,149.1661112,0
0.36,-18.11,28.14,599.58001709,-35.361962,149.1661139,0
0.36,-18.15,28.14,599.609985352,-35.361958,149.16611640000002,0
0.32,-18.16,28.14,599.640014648,-35.3619542,149.16611919999997,0
0.27,-18.17,28.14,599.66998291,-35.3619501,149.1661219,0
0.24,-18.16,28.15,599.700012207,-35.3619463,149.16612450000002,0
0.22,-18.14,28.14,599.729980469,-35.361942299999995,149.16612719999998,0
0.21,-18.11,28.14,599.7600097659999,-35.3619385,149.16612980000002,0
0.22,-18.08,28.14,599.789978027,-35.361934399999996,149.1661326,0
0.23,-18.07,28.13,599.820007324,-35.3619306,149.1661351,0
0.24,-18.08,28.13,599.849975586,-35.361926700000005,149.1661379,0
0.24,-18.07,28.12,599.8800048830001,-35.3619227,149.1661406,0
0.24,-18.07,28.12,599.909973145,-35.3619188,149.1661432,0
0.25,-18.08,28.11,599.929992676,-35.3619148,149.1661459,0
0.26,-18.1,28.11,599.960021973,-35.3619109,149.16614850000002,0
0.29,-18.14,28.1,599.9899902340001,-35.361906899999994,149.1661513,0
0.3,-18.14,28.1,600.020019531,-35.3619031,149.166154,0
0.3,-18.12,28.1,600.049987793,-35.361899,149.1661566,0
0.28,-18.09,28.1,600.08001709,-35.361895200000006,149.1661593,0
0.27,-18.08,28.09,600.109985352,-35.3618912,149.1661619,0
0.26,-18.09,28.09,600.140014648,-35.3618873,149.1661646,0
0.24,-18.1,28.09,600.16998291,-35.361883299999995,149.1661672,0
0.23,-18.09,28.09,600.200012207,-35.3618795,149.16617,0
0.21,-18.09,28.09,600.229980469,-35.361875399999995,149.1661727,0
0.2,-18.08,28.08,600.2600097659999,-35.3618716,149.1661753,0
0.22,-18.08,28.08,600.289978027,-35.361867700000005,149.166178,0
0.24,-18.07,28.08,600.320007324,-35.36186370000001,149.1661806,0
0.27,-18.06,28.07,600.349975586,-35.3618598,149.1661834,0
0.3,-18.07,28.07,600.3800048830001,-35.3618559,149.16618590000002,0
0.3,-18.1,28.07,600.409973145,-35.3618519,149.1661887,0
0.28,-18.12,28.07,600.4400024409999,-35.361847999999995,149.1661914,0
0.27,-18.11,28.06,600.4699707030001,-35.3618441,149.166194,0
0.27,-18.1,28.06,600.5,-35.3618401,149.1661967,0
0.27,-18.11,28.06,600.5300292969999,-35.3618362,149.1661993,0
0.28,-18.11,28.05,600.549987793,-35.3618322,149.1662021,0
0.27,-18.08,28.05,600.58001709,-35.3618284,149.1662046,0
0.27,-18.05,28.05,600.609985352,-35.361824299999995,149.1662074,0
0.27,-18.04,28.05,600.640014648,-35.3618205,149.1662101,0
0.29,-18.03,28.04,600.66998291,-35.3618164,149.1662127,0
0.32,-18.03,28.04,600.700012207,-35.3618126,149.1662154,0
0.34,-18.04,28.04,600.729980469,-35.361808700000005,149.166218,0
0.34,-18.07,28.04,600.7600097659999,-35.3618047,149.16622080000002,0
0.33,-18.09,28.03,600.789978027,-35.3618008,149.1662235,0
0.31,-18.09,28.03,600.820007324,-35.3617969,149.1662261,0
0.3,-18.07,28.03,600.849975586,-35.3617929,149.16622880000003,0
0.3,-18.05,28.02,600.8800048830001,-35.361789,149.16623140000002,0
0.31,-18.04,28.02,600.909973145,-35.361785100000006,149.1662342,0
0.34,-18.05,28.02,600.9400024409999,-35.3617811,149.1662368,0
0.36,-18.07,28.01,600.9699707030001,-35.361777200000006,149.1662395,0
0.34,-18.09,28.01,601.0,-35.3617732,149.16624219999997,0
0.32,-18.1,28.01,601.0300292969999,-35.36176939999999,149.1662447,0
0.31,-18.11,28.01,601.0599975590001,-35.3617653,149.1662475,0
0.31,-18.1,28.01,601.090026855,-35.3617615,149.16625019999998,0
0.3,-18.09,28.01,601.1199951169999,-35.3617576,149.16625290000002,0
0.3,-18.1,28.0,601.150024414,-35.3617536,149.1662556,0
0.31,-18.1,28.0,601.179992676,-35.361749700000004,149.1662581,0
0.32,-18.11,28.0,601.210021973,-35.3617458,149.16626090000003,0
0.34,-18.14,27.99,601.2399902340001,-35.3617418,149.1662635,0
0.35,-18.17,27.99,601.270019531,-35.361737899999994,149.16626630000002,0
0.33,-18.18,27.99,601.299987793,-35.3617339,149.1662689,0
0.31,-18.17,27.98,601.33001709,-35.36173,149.16627150000002,0
0.31,-18.15,27.98,601.359985352,-35.3617261,149.1662743,0
0.31,-18.14,27.97,601.390014648,-35.3617221,149.1662769,0
0.32,-18.16,27.97,601.41998291,-35.361718200000006,149.1662796,0
0.32,-18.15,27.96,601.4400024409999,-35.3617142,149.1662823,0
0.3,-18.13,27.96,601.4699707030001,-35.3617104,149.16628490000002,0
0.3,-18.11,27.95,601.5,-35.361706299999994,149.1662877,0
0.3,-18.09,27.95,601.5300292969999,-35.3617025,149.16629019999996,0
0.31,-18.08,27.94,601.5599975590001,-35.361698499999996,149.166293,0
0.32,-18.09,27.94,601.590026855,-35.3616946,149.1662957,0
0.32,-18.1,27.93,601.6199951169999,-35.3616906,149.1662983,0
0.33,-18.11,27.93,601.650024414,-35.361686799999994,149.166301,0
0.35,-18.1,27.93,601.679992676,-35.3616827,149.1663036,0
0.38,-18.1,27.92,601.710021973,-35.3616789,149.1663064,0
0.41,-18.11,27.92,601.7399902340001,-35.361675,149.1663091,0
0.4,-18.11,27.92,601.770019531,-35.361671,149.1663117,0
0.39,-18.09,27.92,601.799987793,-35.361667100000005,149.1663144,0
0.38,-18.07,27.92,601.83001709,-35.3616631,149.166317,0
0.37,-18.05,27.92,601.859985352,-35.3616592,149.1663198,0
0.36,-18.05,27.91,601.890014648,-35.3616552,149.1663225,0
0.35,-18.07,27.91,601.909973145,-35.3616514,149.1663252,0
0.35,-18.07,27.91,601.9400024409999,-35.3616473,149.1663278,0
0.38,-18.04,27.9,601.9699707030001,-35.3616435,149.1663304,0
0.42,-18.03,27.9,602.0,-35.3616395,149.1663332,0
0.41,-18.07,27.9,602.0300292969999,-35.3616357,149.1663359,0
0.36,-18.13,27.89,602.0599975590001,-35.3616316,149.1663385,0
0.33,-18.17,27.89,602.090026855,-35.3616278,149.16634119999998,0
0.32,-18.16,27.89,602.1199951169999,-35.3616239,149.16634380000002,0
0.37,-18.1,27.89,602.140014648,-35.361619899999994,149.1663466,0
0.42,-18.01,27.88,602.16998291,-35.361616,149.1663491,0
0.45,-17.97,27.88,602.200012207,-35.361612,149.1663519,0
0.44,-17.98,27.88,602.229980469,-35.361608200000006,149.16635459999998,0
0.43,-18.03,27.87,602.2600097659999,-35.3616042,149.1663572,0
0.39,-18.11,27.86,602.289978027,-35.36160039999999,149.1663599,0
0.34,-18.18,27.86,602.320007324,-35.3615963,149.1663625,0
0.3,-18.22,27.85,602.349975586,-35.3615925,149.16636530000002,0
0.29,-18.22,27.85,602.3699951169999,-35.3615886,149.166368,0
0.31,-18.17,27.84,602.400024414,-35.3615847,149.1663706,0
0.37,-18.07,27.84,602.429992676,-35.361580700000005,149.1663733,0
0.43,-17.98,27.84,602.460021973,-35.3615768,149.16637590000002,0
0.47,-17.91,27.83,602.4899902340001,-35.3615729,149.16637869999997,0
0.46,-17.88,27.82,602.520019531,-35.3615689,149.1663814,0
0.42,-17.9,27.82,602.549987793,-35.361565,149.16638400000002,0
0.37,-17.97,27.82,602.58001709,-35.361561,149.16638669999998,0
0.29,-18.07,27.81,602.609985352,-35.36155720000001,149.16638930000002,0
0.21,-18.17,27.81,602.640014648,-35.3615531,149.1663921,0
0.19,-18.23,27.81,602.66998291,-35.36154929999999,149.1663946,0
0.23,-18.24,27.8,602.700012207,-35.3615454,149.16639740000002,0
0.29,-18.21,27.8,602.729980469,-35.3615415,149.1664001,0
0.37,-18.11,27.79,602.7600097659999,-35.3615376,149.16640269999996,0
0.41,-18.0,27.78,602.7800292969999,-35.3615336,149.1664054,0
0.43,-17.95,27.78,602.8099975590001,-35.361529700000006,149.16640800000002,0
0.42,-17.94,27.77,602.840026855,-35.3615257,149.1664108,0
0.17,-17.86,27.75,602.8699951169999,-35.3615218,149.1664135,0
-0.77,-17.38,27.63,602.900024414,-35.361517799999994,149.1664161,0
-2.22,-16.65,27.29,602.91998291,-35.361514,149.1664186,0
-3.68,-15.93,26.63,602.950012207,-35.361509999999996,149.16642130000002,0
-4.8,-15.36,25.62,602.9699707030001,-35.3615062,149.16642380000002,0
-5.45,-15.02,24.26,602.9899902340001,-35.3615023,149.1664261,0
-5.7,-14.9,22.59,603.0,-35.361498299999994,149.1664284,0
-5.7,-14.94,20.61,603.0100097659999,-35.3614945,149.1664305,0
-5.62,-15.06,18.41,603.0300292969999,-35.3614905,149.1664324,0
-5.54,-15.21,16.04,603.0300292969999,-35.361486799999994,149.16643430000002,0
-5.49,-15.38,13.56,603.039978027,-35.3614829,149.166436,0
-5.45,-15.56,11.04,603.049987793,-35.3614789,149.1664375,0
-5.39,-15.75,8.52,603.0599975590001,-35.3614751,149.1664389,0
-5.28,-15.94,6.06,603.0599975590001,-35.3614713,149.1664401,0
-5.1,-16.1,3.68,603.0599975590001,-35.361467299999994,149.16644130000003,0
-4.88,-16.25,1.43,603.070007324,-35.3614635,149.16644230000003,0
-4.64,-16.38,359.31,603.070007324,-35.361459499999995,149.166443,0
-4.42,-16.5,357.35,603.070007324,-35.3614557,149.1664437,0
-4.24,-16.62,355.54,603.070007324,-35.3614518,149.16644430000002,0
-4.09,-16.7,353.87,603.08001709,-35.3614479,149.1664447,0
-3.98,-16.77,352.34,603.08001709,-35.361444,149.16644480000002,0
-3.89,-16.84,350.92,603.08001709,-35.36144,149.16644490000002,0
-3.79,-16.9,349.6,603.08001709,-35.3614362,149.16644490000002,0
-3.67,-16.97,348.35,603.08001709,-35.3614323,149.16644480000002,0
-3.52,-17.05,347.18,603.08001709,-35.3614284,149.1664446,0
-3.36,-17.17,346.06,603.08001709,-35.36142460000001,149.16644430000002,0
-3.17,-17.3,345.0,603.08001709,-35.3614206,149.1664438,0
-2.98,-17.4,343.98,603.08001709,-35.36141679999999,149.16644319999997,0
-2.76,-17.47,343.0,603.08001709,-35.3614129,149.16644240000002,0
-2.55,-17.49,342.07,603.08001709,-35.361409,149.1664415,0
-2.36,-17.5,341.2,603.08001709,-35.361405100000006,149.1664406,0
-2.19,-17.54,340.38,603.090026855,-35.3614013,149.1664396,0
-2.05,-17.6,339.62,603.090026855,-35.3613974,149.1664386,0
-1.91,-17.66,338.92,603.090026855,-35.3613935,149.1664374,0
-1.8,-17.72,338.27,603.090026855,-35.3613896,149.1664362,0
-1.69,-17.75,337.68,603.090026855,-35.361385799999994,149.16643480000002,0
-1.55,-17.75,337.13,603.090026855,-35.361382,149.16643340000002,0
-1.39,-17.75,336.64,603.090026855,-35.361378,149.16643190000002,0
-1.25,-17.74,336.18,603.090026855,-35.3613742,149.1664304,0
-1.15,-17.76,335.77,603.090026855,-35.3613704,149.1664288,0
-1.07,-17.79,335.39,603.090026855,-35.3613664,149.1664271,0
-1.01,-17.84,335.04,603.090026855,-35.3613627,149.1664255,0
-0.93,-17.9,334.71,603.090026855,-35.3613588,149.1664237,0
-0.85,-17.93,334.41,603.090026855,-35.3613549,149.16642190000002,0
-0.76,-17.94,334.13,603.090026855,-35.3613511,149.1664199,0
-0.67,-17.94,333.87,603.090026855,-35.3613473,149.166418,0
-0.58,-17.95,333.63,603.090026855,-35.3613434,149.1664161,0
-0.48,-17.96,333.4,603.090026855,-35.3613396,149.1664142,0
-0.4,-17.97,333.19,603.090026855,-35.36133579999999,149.1664122,0
-0.34,-17.99,332.99,603.090026855,-35.361331799999995,149.1664101,0
-0.3,-18.0,332.81,603.090026855,-35.361328,149.16640800000002,0
-0.27,-18.0,332.65,603.090026855,-35.361324200000006,149.166406,0
-0.23,-18.0,332.5,603.08001709,-35.3613202,149.1664037,0
-0.19,-18.03,332.37,603.08001709,-35.3613165,149.1664017,0
-0.15,-18.08,332.24,603.090026855,-35.3613126,149.1663994,0
-0.1,-18.12,332.13,603.090026855,-35.36130870000001,149.16639730000003,0
-0.07,-18.12,332.03,603.090026855,-35.3613049,149.166395,0
-0.02,-18.11,331.94,603.090026855,-35.3613011,149.1663927,0
0.01,-18.09,331.86,603.090026855,-35.3612971,149.1663905,0
0.06,-18.06,331.78,603.090026855,-35.36129329999999,149.1663882,0
0.09,-18.06,331.71,603.090026855,-35.361289500000005,149.16638590000002,0
0.11,-18.09,331.65,603.090026855,-35.3612855,149.1663836,0
0.12,-18.12,331.6,603.090026855,-35.361281700000006,149.1663812,0
0.15,-18.14,331.55,603.090026855,-35.3612779,149.16637880000002,0
0.19,-18.15,331.51,603.090026855,-35.361274,149.16637659999998,0
0.22,-18.14,331.47,603.090026855,-35.3612701,149.16637419999998,0
0.22,-18.12,331.43,603.090026855,-35.3612661,149.1663718,0
0.21,-18.11,331.4,603.090026855,-35.3612624,149.1663695,0
0.22,-18.11,331.37,603.090026855,-35.361258500000005,149.16636709999997,0
0.26,-18.13,331.34,603.099975586,-35.3612545,149.16636469999997,0
0.31,-18.17,331.32,603.099975586,-35.36125070000001,149.16636210000001,0
0.36,-18.19,331.29,603.099975586,-35.3612467,149.1663597,0
0.38,-18.19,331.28,603.099975586,-35.3612429,149.16635730000002,0
0.39,-18.21,331.27,603.099975586,-35.361239000000005,149.16635490000002,0
0.39,-18.22,331.26,603.099975586,-35.3612351,149.1663524,0
0.38,-18.25,331.25,603.099975586,-35.3612313,149.1663501,0
0.37,-18.26,331.24,603.099975586,-35.3612274,149.1663477,0
0.33,-18.25,331.24,603.099975586,-35.3612235,149.1663452,0
0.3,-18.23,331.24,603.099975586,-35.3612196,149.1663428,0
0.29,-18.18,331.23,603.109985352,-35.3612156,149.16634030000003,0
0.32,-18.15,331.22,603.109985352,-35.36121179999999,149.16633769999999,0
0.34,-18.16,331.22,603.109985352,-35.361207799999995,149.16633530000001,0
0.36,-18.18,331.21,603.109985352,-35.361204,149.16633280000002,0
0.36,-18.21,331.21,603.109985352,-35.3611999,149.1663304,0
0.35,-18.23,331.2,603.109985352,-35.3611961,149.166328,0
0.35,-18.25,331.2,603.109985352,-35.361192200000005,149.1663255,0
0.37,-18.28,331.2,603.109985352,-35.3611882,149.166323,0
0.38,-18.3,331.19,603.109985352,-35.3611844,149.16632040000002,0
0.39,-18.3,331.19,603.1199951169999,-35.3611804,149.166318,0
0.4,-18.28,331.19,603.1199951169999,-35.3611765,149.1663155,0
0.41,-18.26,331.2,603.1199951169999,-35.361172499999995,149.166313,0
0.41,-18.22,331.2,603.1199951169999,-35.3611687,149.16631040000001,0
0.41,-18.2,331.2,603.1199951169999,-35.3611648,149.16630790000002,0
0.41,-18.22,331.21,603.1199951169999,-35.36116079999999,149.1663055,0
0.41,-18.25,331.21,603.1199951169999,-35.3611569,149.166303,0
0.38,-18.27,331.22,603.1199951169999,-35.361153,149.16630049999998,0
0.36,-18.25,331.22,603.1199951169999,-35.361149100000006,149.16629790000002,0
0.33,-18.22,331.22,603.1199951169999,-35.3611451,149.16629550000002,0
0.32,-18.22,331.22,603.1199951169999,-35.3611412,149.166293,0
0.33,-18.21,331.22,603.1300048830001,-35.3611372,149.1662905,0
0.35,-18.22,331.23,603.1300048830001,-35.3611334,149.1662879,0
0.39,-18.25,331.23,603.1300048830001,-35.361129299999995,149.1662854,0
0.43,-18.31,331.23,603.1300048830001,-35.3611255,149.16628300000002,0
0.44,-18.33,331.23,603.1300048830001,-35.361121600000004,149.1662805,0
0.42,-18.33,331.24,603.1300048830001,-35.3611177,149.166278,0
0.38,-18.3,331.24,603.1300048830001,-35.361113700000004,149.1662754,0
0.34,-18.28,331.25,603.1300048830001,-35.3611098,149.1662729,0
0.29,-18.26,331.26,603.1300048830001,-35.3611059,149.1662704,0
0.26,-18.26,331.27,603.1300048830001,-35.361101899999994,149.1662678,0
0.25,-18.27,331.28,603.1300048830001,-35.361098,149.16626530000002,0
0.27,-18.29,331.28,603.1300048830001,-35.361094,149.1662629,0
0.32,-18.31,331.29,603.1300048830001,-35.3610901,149.1662603,0
0.36,-18.31,331.29,603.1199951169999,-35.3610861,149.1662577,0
0.38,-18.3,331.29,603.1199951169999,-35.361082200000006,149.16625530000002,0
0.37,-18.29,331.3,603.1199951169999,-35.3610782,149.16625280000002,0
0.35,-18.31,331.3,603.1199951169999,-35.3610744,149.1662503,0
0.34,-18.33,331.31,603.1199951169999,-35.361070299999994,149.1662476,0
0.37,-18.35,331.31,603.1199951169999,-35.3610665,149.1662452,0
0.41,-18.36,331.31,603.1199951169999,-35.3610625,149.1662427,0
0.44,-18.37,331.32,603.1199951169999,-35.3610586,149.16624019999998,0
0.44,-18.38,331.32,603.1199951169999,-35.3610546,149.1662376,0
0.41,-18.37,331.33,603.1199951169999,-35.361050799999994,149.1662351,0
0.38,-18.35,331.33,603.1199951169999,-35.3610467,149.1662326,0
0.34,-18.34,331.34,603.1199951169999,-35.3610429,149.1662301,0
0.33,-18.32,331.35,603.1199951169999,-35.361038799999996,149.1662275,0
0.33,-18.3,331.35,603.1199951169999,-35.361035,149.166225,0
0.34,-18.31,331.36,603.1199951169999,-35.3610309,149.1662225,0
0.35,-18.32,331.36,603.1199951169999,-35.3610271,149.16621990000002,0
0.35,-18.32,331.37,603.1199951169999,-35.361023100000004,149.16621740000002,0
0.35,-18.31,331.37,603.1199951169999,-35.3610192,149.166215,0
0.35,-18.32,331.37,603.1199951169999,-35.3610152,149.1662124,0
0.35,-18.35,331.38,603.1199951169999,-35.361011299999994,149.16620980000002,0
0.34,-18.39,331.38,603.1199951169999,-35.3610073,149.1662074,0
0.32,-18.4,331.38,603.1199951169999,-35.3610033,149.16620490000003,0
0.31,-18.37,331.38,603.1199951169999,-35.3609994,149.1662022,0
0.3,-18.31,331.38,603.1199951169999,-35.3609954,149.1661997,0
0.31,-18.26,331.37,603.1199951169999,-35.360991299999995,149.16619730000002,0
0.31,-18.25,331.37,603.1199951169999,-35.3609875,149.1661947,0
0.31,-18.28,331.37,603.1199951169999,-35.360983399999995,149.1661921,0
0.33,-18.32,331.37,603.1199951169999,-35.3609796,149.1661897,0
0.34,-18.36,331.37,603.1199951169999,-35.3609755,149.1661872,0
0.32,-18.36,331.37,603.1199951169999,-35.3609716,149.16618449999999,0
0.3,-18.35,331.38,603.1199951169999,-35.3609676,149.16618200000002,0
0.29,-18.34,331.38,603.1199951169999,-35.360963700000006,149.1661796,0
0.3,-18.33,331.38,603.1199951169999,-35.3609597,149.166177,0
0.33,-18.31,331.39,603.1199951169999,-35.3609558,149.1661744,0
0.33,-18.31,331.39,603.1199951169999,-35.360951799999995,149.166172,0
0.32,-18.33,331.39,603.1199951169999,-35.3609479,149.1661694,0
0.33,-18.37,331.39,603.1199951169999,-35.3609439,149.1661669,0
0.34,-18.4,331.39,603.1199951169999,-35.36094,149.16616430000002,0
0.34,-18.41,331.39,603.1199951169999,-35.360935999999995,149.1661618,0
0.32,-18.39,331.39,603.1199951169999,-35.3609321,149.1661593,0
0.3,-18.37,331.39,603.1199951169999,-35.3609281,149.1661567,0
0.31,-18.37,331.4,603.1199951169999,-35.3609242,149.1661542,0
0.33,-18.37,331.4,603.1199951169999,-35.3609201,149.1661517,0
0.33,-18.38,331.4,603.1199951169999,-35.36091629999999,149.16614919999998,0
0.33,-18.37,331.41,603.1199951169999,-35.3609122,149.1661466,0
0.34,-18.34,331.41,603.1199951169999,-35.3609084,149.1661441,0
0.32,-18.35,331.42,603.1199951169999,-35.360904299999994,149.1661416,0
0.31,-18.39,331.42,603.1199951169999,-35.3609005,149.166139,0
0.31,-18.46,331.43,603.1199951169999,-35.360896399999994,149.1661365,0
0.31,-18.47,331.43,603.1199951169999,-35.3608925,149.166134,0
0.29,-18.41,331.44,603.1199951169999,-35.3608885,149.1661315,0
0.27,-18.32,331.44,603.1199951169999,-35.3608846,149.16612890000002,0
0.29,-18.24,331.44,603.1199951169999,-35.3608806,149.1661264,0
0.3,-18.22,331.44,603.1199951169999,-35.3608766,149.1661239,0
0.28,-18.24,331.44,603.1199951169999,-35.3608726,149.1661212,0
0.29,-18.29,331.43,603.1199951169999,-35.3608685,149.16611880000002,0
0.3,-18.34,331.43,603.1199951169999,-35.36086470000001,149.16611630000003,0
0.34,-18.44,331.43,603.1199951169999,-35.3608606,149.1661136,0
0.42,-18.58,331.44,603.1199951169999,-35.3608568,149.1661112,0
0.47,-18.63,331.44,603.1199951169999,-35.3608527,149.1661087,0
0.45,-18.51,331.45,603.1199951169999,-35.36084879999999,149.166106,0
0.39,-18.33,331.45,603.1199951169999,-35.3608447,149.1661035,0
0.35,-18.2,331.46,603.1199951169999,-35.3608408,149.166101,0
0.34,-18.16,331.47,603.1199951169999,-35.360836799999994,149.1660985,0
0.33,-18.19,331.47,603.1199951169999,-35.3608329,149.16609590000002,0
0.35,-18.24,331.47,603.1199951169999,-35.3608289,149.16609350000002,0
0.36,-18.31,331.47,603.1199951169999,-35.360824900000004,149.1660909,0
0.37,-18.37,331.47,603.1199951169999,-35.3608209,149.1660884,0
0.36,-18.41,331.47,603.1199951169999,-35.360816799999995,149.1660858,0
0.34,-18.4,331.47,603.1199951169999,-35.360813,149.1660833,0
0.32,-18.37,331.47,603.1199951169999,-35.360808899999995,149.16608080000003,0
0.33,-18.35,331.47,603.1199951169999,-35.360805,149.1660782,0
0.34,-18.33,331.46,603.1199951169999,-35.360800899999994,149.1660757,0
0.34,-18.3,331.46,603.1199951169999,-35.360797,149.16607319999997,0
0.32,-18.31,331.46,603.1199951169999,-35.360793,149.1660707,0
0.3,-18.33,331.45,603.1199951169999,-35.3607891,149.1660681,0
0.28,-18.34,331.45,603.1199951169999,-35.3607851,149.1660657,0
0.29,-18.34,331.44,603.109985352,-35.360781,149.1660631,0
0.31,-18.33,331.44,603.109985352,-35.3607771,149.1660605,0
0.31,-18.31,331.43,603.109985352,-35.3607731,149.16605800000002,0
0.31,-18.29,331.43,603.109985352,-35.36076920000001,149.1660555,0
0.34,-18.3,331.42,603.109985352,-35.3607651,149.166053,0
0.36,-18.3,331.42,603.109985352,-35.3607612,149.1660504,0
0.37,-18.31,331.41,603.109985352,-35.3607572,149.1660479,0
0.38,-18.33,331.41,603.109985352,-35.3607532,149.1660454,0
0.39,-18.33,331.41,603.109985352,-35.3607492,149.1660428,0
0.39,-18.31,331.41,603.109985352,-35.3607453,149.16604030000002,0
0.39,-18.29,331.41,603.109985352,-35.360741299999994,149.1660378,0
0.39,-18.29,331.41,603.109985352,-35.3607372,149.1660353,0
0.36,-18.3,331.41,603.109985352,-35.3607333,149.1660327,0
0.31,-18.32,331.41,603.109985352,-35.3607292,149.1660302,0
0.29,-18.34,331.41,603.109985352,-35.36072539999999,149.16602769999997,0
0.33,-18.36,331.41,603.109985352,-35.3607213,149.16602519999998,0
0.38,-18.36,331.4,603.109985352,-35.3607174,149.1660226,0
0.4,-18.37,331.4,603.109985352,-35.360713399999995,149.1660201,0
0.42,-18.37,331.4,603.109985352,-35.3607094,149.1660176,0
0.41,-18.38,331.39,603.109985352,-35.3607054,149.1660149,0
0.41,-18.38,331.39,603.109985352,-35.360701500000005,149.1660125,0
0.38,-18.39,331.39,603.109985352,-35.3606975,149.16601,0
0.36,-18.39,331.39,603.109985352,-35.3606934,149.16600730000002,0
0.37,-18.38,331.39,603.1199951169999,-35.3606895,149.16600490000002,0
0.38,-18.36,331.38,603.1199951169999,-35.3606854,149.1660024,0
0.39,-18.34,331.38,603.1199951169999,-35.3606816,149.1659999,0
0.38,-18.33,331.38,603.1199951169999,-35.3606775,149.1659972,0
0.38,-18.34,331.38,603.1199951169999,-35.360673600000005,149.16599480000002,0
0.38,-18.34,331.38,603.1199951169999,-35.3606696,149.16599219999998,0
0.38,-18.37,331.38,603.1199951169999,-35.360665600000004,149.1659896,0
0.4,-18.41,331.38,603.1199951169999,-35.36066160000001,149.1659872,0
0.42,-18.44,331.38,603.1199951169999,-35.3606575,149.1659846,0
0.42,-18.45,331.38,603.1199951169999,-35.3606537,149.165982,0
0.41,-18.45,331.37,603.1199951169999,-35.3606496,149.1659795,0
0.4,-18.43,331.37,603.1199951169999,-35.360645700000006,149.165977,0
0.4,-18.41,331.37,603.1199951169999,-35.3606416,149.1659745,0
0.4,-18.4,331.37,603.1199951169999,-35.360637700000005,149.16597190000002,0
0.39,-18.39,331.37,603.1199951169999,-35.36063370000001,149.16596950000002,0
0.37,-18.41,331.37,603.1199951169999,-35.3606298,149.1659669,0
0.37,-18.44,331.36,603.1199951169999,-35.360625799999994,149.1659644,0
0.38,-18.45,331.36,603.1199951169999,-35.3606217,149.1659618,0
0.39,-18.45,331.36,603.1199951169999,-35.36061779999999,149.1659593,0
0.41,-18.44,331.35,603.1199951169999,-35.3606139,149.16595680000003,0
0.42,-18.44,331.35,603.1199951169999,-35.3606099,149.1659542,0
0.41,-18.45,331.35,603.1199951169999,-35.360605799999995,149.1659517,0
0.39,-18.44,331.35,603.1199951169999,-35.3606019,149.16594919999997,0
0.36,-18.43,331.34,603.1199951169999,-35.3605979,149.1659467,0
0.34,-18.42,331.34,603.1199951169999,-35.3605939,149.1659441,0
0.34,-18.42,331.34,603.1199951169999,-35.3605899,149.1659416,0
0.37,-18.42,331.34,603.1199951169999,-35.360586,149.16593909999997,0
0.4,-18.43,331.33,603.1199951169999,-35.360582,149.1659364,0
0.43,-18.45,331.33,603.1199951169999,-35.360577899999996,149.16593400000002,0
0.44,-18.46,331.33,603.1199951169999,-35.360574,149.1659315,0
0.43,-18.47,331.33,603.1199951169999,-35.360569899999994,149.16592880000002,0
0.4,-18.46,331.32,603.1199951169999,-35.3605661,149.1659264,0
0.38,-18.44,331.32,603.1199951169999,-35.360562,149.1659238,0
0.39,-18.43,331.32,603.1199951169999,-35.3605581,149.16592119999999,0
0.41,-18.46,331.32,603.1199951169999,-35.3605541,149.1659187,0
0.42,-18.5,331.32,603.1199951169999,-35.3605501,149.16591619999997,0
0.42,-18.52,331.31,603.1199951169999,-35.36054620000001,149.16591369999998,0
0.42,-18.51,331.31,603.1199951169999,-35.360542200000005,149.16591110000002,0
0.41,-18.51,331.31,603.1199951169999,-35.36053820000001,149.1659086,0
0.4,-18.51,331.31,603.1199951169999,-35.3605341,149.1659061,0
0.38,-18.5,331.31,603.1199951169999,-35.3605302,149.16590359999998,0
0.38,-18.48,331.3,603.1199951169999,-35.3605261,149.165901,0
0.39,-18.47,331.3,603.1199951169999,-35.3605223,149.1658985,0
0.43,-18.48,331.3,603.1199951169999,-35.3605182,149.16589580000002,0
0.47,-18.49,331.3,603.1199951169999,-35.3605143,149.16589330000002,0
0.48,-18.47,331.29,603.1199951169999,-35.360510299999994,149.1658908,0
0.48,-18.44,331.29,603.1199951169999,-35.3605063,149.1658883,0
0.49,-18.42,331.3,603.1199951169999,-35.3605023,149.1658857,0
0.48,-18.43,331.3,603.1199951169999,-35.3604982,149.1658832,0
0.47,-18.47,331.3,603.1199951169999,-35.36049439999999,149.16588069999997,0
0.47,-18.5,331.3,603.1199951169999,-35.3604903,149.165878,0
0.48,-18.52,331.31,603.1199951169999,-35.3604864,149.1658756,0
0.46,-18.47,331.31,603.1199951169999,-35.3604823,149.165873,0
0.39,-18.38,331.32,603.1199951169999,-35.3604784,149.16587040000002,0
0.33,-18.33,331.32,603.1199951169999,-35.36047429999999,149.165868,0
0.34,-18.35,331.32,603.1199951169999,-35.360470299999996,149.1658654,0
0.42,-18.48,331.31,603.1199951169999,-35.3604664,149.1658628,0
0.52,-18.61,331.31,603.1199951169999,-35.360462299999995,149.16586030000002,0
0.55,-18.66,331.3,603.1199951169999,-35.3604584,149.16585780000003,0
0.49,-18.56,331.3,603.1199951169999,-35.3604544,149.1658553,0
0.38,-18.36,331.3,603.1199951169999,-35.3604504,149.1658527,0
0.31,-18.2,331.3,603.1199951169999,-35.3604464,149.1658502,0
0.3,-18.13,331.29,603.1199951169999,-35.360442299999995,149.1658477,0
0.33,-18.2,331.29,603.1300048830001,-35.3604384,149.16584519999998,0
0.44,-18.4,331.28,603.1300048830001,-35.3604343,149.1658426,0
0.56,-18.59,331.28,603.1300048830001,-35.3604304,149.1658401,0
0.61,-18.71,331.27,603.1300048830001,-35.360426399999994,149.1658376,0
0.58,-18.71,331.27,603.1300048830001,-35.3604224,149.16583490000002,0
0.5,-18.61,331.27,603.1300048830001,-35.3604184,149.1658325,0
0.37,-18.41,331.27,603.1300048830001,-35.360414299999995,149.16583,0
0.25,-18.21,331.27,603.1300048830001,-35.3604104,149.16582730000002,0
0.19,-18.11,331.26,603.1300048830001,-35.360406299999994,149.16582490000002,0
0.21,-18.12,331.25,603.1300048830001,-35.3604024,149.16582240000002,0
0.31,-18.28,331.24,603.1300048830001,-35.3603984,149.1658199,0
0.45,-18.52,331.23,603.1300048830001,-35.360394299999996,149.1658172,0
0.56,-18.69,331.22,603.1300048830001,-35.3603904,149.1658148,0
0.61,-18.73,331.22,603.1300048830001,-35.360386299999995,149.16581230000003,0
0.62,-18.68,331.22,603.1300048830001,-35.3603825,149.1658096,0
0.59,-18.61,331.22,603.1300048830001,-35.3603784,149.1658072,0
0.56,-18.56,331.22,603.1300048830001,-35.3603745,149.16580459999997,0
0.51,-18.56,331.22,603.1300048830001,-35.3603705,149.165802,0
0.48,-18.57,331.22,603.1300048830001,-35.3603665,149.16579950000002,0
0.49,-18.6,331.21,603.1300048830001,-35.3603625,149.165797,0
0.49,-18.57,331.21,603.1300048830001,-35.3603586,149.1657945,0
0.43,-18.44,331.21,603.1300048830001,-35.3603545,149.1657919,0
0.36,-18.3,331.2,603.1300048830001,-35.360350399999994,149.16578940000002,0
0.32,-18.21,331.2,603.1300048830001,-35.360346500000006,149.1657869,0
0.33,-18.21,331.19,603.1300048830001,-35.3603425,149.1657844,0
0.41,-18.35,331.19,603.1300048830001,-35.3603385,149.16578180000002,0
0.53,-18.55,331.18,603.1300048830001,-35.3603345,149.1657793,0
0.62,-18.68,331.18,603.1300048830001,-35.3603304,149.1657768,0
0.64,-18.71,331.18,603.1300048830001,-35.3603266,149.1657741,0
0.6,-18.66,331.18,603.1300048830001,-35.360322499999995,149.1657717,0
0.49,-18.49,331.19,603.1300048830001,-35.3603186,149.16576919999997,0
0.34,-18.27,331.19,603.1300048830001,-35.3603145,149.16576650000002,0
0.22,-18.13,331.19,603.1300048830001,-35.3603105,149.1657641,0
0.2,-18.12,331.18,603.1300048830001,-35.3603065,149.1657616,0
0.28,-18.25,331.17,603.1300048830001,-35.360302399999995,149.16575890000001,0
0.42,-18.47,331.16,603.1300048830001,-35.3602986,149.1657564,0
0.56,-18.65,331.15,603.1300048830001,-35.3602945,149.165754,0
0.64,-18.74,331.14,603.1300048830001,-35.3602906,149.1657514,0
0.63,-18.73,331.14,603.1300048830001,-35.3602865,149.16574880000002,0
0.57,-18.66,331.13,603.1300048830001,-35.3602826,149.16574630000002,0
0.47,-18.52,331.13,603.1300048830001,-35.3602786,149.1657438,0
0.34,-18.33,331.13,603.1300048830001,-35.3602745,149.16574119999999,0
0.25,-18.2,331.13,603.1300048830001,-35.3602706,149.1657387,0
0.25,-18.2,331.13,603.1300048830001,-35.360266499999994,149.1657362,0
0.38,-18.37,331.13,603.1300048830001,-35.3602626,149.1657335,0
0.53,-18.58,331.12,603.1300048830001,-35.3602586,149.165731,0
0.64,-18.7,331.12,603.1300048830001,-35.360254600000005,149.1657285,0
0.68,-18.72,331.12,603.1300048830001,-35.3602506,149.165726,0
0.66,-18.66,331.13,603.1300048830001,-35.3602467,149.16572340000002,0
0.57,-18.55,331.13,603.1300048830001,-35.3602427,149.1657209,0
0.43,-18.34,331.13,603.1300048830001,-35.3602386,149.1657184,0
0.33,-18.17,331.14,603.1300048830001,-35.360234600000005,149.16571580000002,0
0.29,-18.11,331.13,603.1300048830001,-35.3602306,149.16571330000002,0
0.37,-18.22,331.13,603.1300048830001,-35.360226700000005,149.1657108,0
0.5,-18.43,331.12,603.1300048830001,-35.3602227,149.1657081,0
0.6,-18.61,331.11,603.1300048830001,-35.360218700000004,149.1657057,0
0.65,-18.69,331.11,603.1300048830001,-35.36021470000001,149.1657032,0
0.64,-18.67,331.11,603.1300048830001,-35.3602106,149.16570049999999,0
0.6,-18.59,331.1,603.1300048830001,-35.3602068,149.165698,0
0.55,-18.43,331.1,603.1199951169999,-35.3602026,149.1656956,0
0.48,-18.23,331.1,603.1199951169999,-35.360198700000005,149.165693,0
0.42,-18.09,331.1,603.1199951169999,-35.3601947,149.16569040000002,0
0.42,-18.08,331.1,603.1300048830001,-35.3601906,149.1656879,0
0.5,-18.26,331.1,603.1300048830001,-35.3601867,149.1656854,0
0.58,-18.49,331.1,603.1300048830001,-35.3601827,149.1656829,0
0.63,-18.65,331.1,603.1300048830001,-35.3601787,149.16568030000002,0
0.63,-18.68,331.1,603.1300048830001,-35.3601747,149.16567780000003,0
0.59,-18.62,331.11,603.1300048830001,-35.3601708,149.1656751,0
0.52,-18.46,331.11,603.1300048830001,-35.360166799999995,149.1656726,0
0.41,-18.24,331.12,603.1300048830001,-35.3601628,149.1656702,0
0.31,-18.09,331.12,603.1300048830001,-35.36015870000001,149.1656676,0
0.26,-18.06,331.11,603.1300048830001,-35.3601546,149.165665,0
0.32,-18.19,331.1,603.1300048830001,-35.3601508,149.1656626,0
0.44,-18.41,331.09,603.1300048830001,-35.3601467,149.16566,0
0.56,-18.58,331.07,603.1300048830001,-35.3601428,149.16565740000001,0
0.62,-18.64,331.06,603.1300048830001,-35.360138799999994,149.16565490000002,0
0.63,-18.6,331.06,603.1300048830001,-35.3601348,149.1656524,0
0.62,-18.52,331.06,603.1300048830001,-35.3601309,149.1656499,0
0.59,-18.46,331.06,603.1300048830001,-35.3601269,149.16564730000002,0
0.57,-18.4,331.06,603.1300048830001,-35.3601229,149.1656448,0
0.54,-18.37,331.06,603.1300048830001,-35.360118799999995,149.16564230000003,0
0.53,-18.36,331.06,603.1300048830001,-35.3601149,149.16563969999999,0
0.51,-18.37,331.06,603.1300048830001,-35.3601109,149.1656372,0
0.48,-18.37,331.06,603.1300048830001,-35.360107,149.16563469999997,0
0.45,-18.36,331.06,603.1300048830001,-35.3601029,149.1656322,0
0.44,-18.36,331.06,603.1300048830001,-35.360099,149.1656296,0
0.45,-18.36,331.05,603.1300048830001,-35.360095,149.1656271,0
