Start,TimeUS,Roll,Pitch,Yaw,Alt,Lat,Lng,Q1,Q2,Q3,Q4
2019-04-03 19:46:07.30,42716240, 0.0, 0.0, 353.0, 584.090026855, -35.363261, 149.1652299, 0.998134791851, 0.0, 0.0, -0.0610485821962
2019-04-03 19:46:07.40,42816200, 0.0, 0.0, 353.0, 584.090026855, -35.363261, 149.1652299, 0.998134791851, 0.0, 0.0, -0.0610485821962
2019-04-03 19:46:07.49,42916160, 0.0, 0.0, 353.0, 584.090026855, -35.363261, 149.1652299, 0.998134791851, 0.0, 0.0, -0.0610485821962
2019-04-03 19:46:07.59,43016120, 0.0, 0.0, 353.0, 584.090026855, -35.363261, 149.1652299, 0.998134791851, 0.0, 0.0, -0.0610485821962
2019-04-03 19:46:07.69,43116080, 0.0, 0.0, 353.0, 584.090026855, -35.363261, 149.1652299, 0.998134791851, 0.0, 0.0, -0.0610485821962
2019-04-03 19:46:07.79,43216040, 0.0, 0.0, 353.0, 584.090026855, -35.363261, 149.1652299, 0.998134791851, 0.0, 0.0, -0.0610485821962
2019-04-03 19:46:07.89,43316000, 0.0, 0.0, 353.0, 584.090026855, -35.363261, 149.1652299, 0.998134791851, 0.0, 0.0, -0.0610485821962
2019-04-03 19:46:07.99,43415960, 0.0, 0.0, 353.0, 584.090026855, -35.363261, 149.1652299, 0.998134791851, 0.0, 0.0, -0.0610485821962
2019-04-03 19:46:08.09,43515920, 0.0, 0.0, 353.0, 584.090026855, -35.363261, 149.1652299, 0.998134791851, 0.0, 0.0, -0.0610485821962
2019-04-03 19:46:08.19,43615880, 0.0, 0.0, 353.0, 584.090026855, -35.363261, 149.1652299, 0.998134791851, 0.0, 0.0, -0.0610485821962
2019-04-03 19:46:08.29,43715840, 0.0, 0.0, 353.0, 584.090026855, -35.363261, 149.1652299, 0.998134791851, 0.0, 0.0, -0.0610485821962
2019-04-03 19:46:08.39,43815800, 0.0, 0.0, 353.0, 584.090026855, -35.363261, 149.1652299, 0.998134791851, 0.0, 0.0, -0.0610485821962
2019-04-03 19:46:08.49,43915760, 0.0, 0.0, 353.0, 584.090026855, -35.363261, 149.1652299, 0.998134791851, 0.0, 0.0, -0.0610485821962
2019-04-03 19:46:08.59,44015720, 0.0, 0.0, 353.0, 584.090026855, -35.363261, 149.1652299, 0.998134791851, 0.0, 0.0, -0.0610485821962
2019-04-03 19:46:08.69,44115680, 0.0, 0.0, 353.0, 584.090026855, -35.363261, 149.1652299, 0.998134791851, 0.0, 0.0, -0.0610485821962
2019-04-03 19:46:08.80,44216473, 0.0, 0.0, 353.0, 584.090026855, -35.363261, 149.1652299, 0.998134791851, 0.0, 0.0, -0.0610485821962
2019-04-03 19:46:08.90,44316433, 0.0, 0.0, 353.0, 584.090026855, -35.363261, 149.1652299, 0.998134791851, 0.0, 0.0, -0.0610485821962
2019-04-03 19:46:09.00,44416393, 0.0, 0.0, 353.0, 584.090026855, -35.363261, 149.1652299, 0.998134791851, 0.0, 0.0, -0.0610485821962
2019-04-03 19:46:09.10,44516353, 0.0, 0.0, 353.0, 584.090026855, -35.363261, 149.1652299, 0.998134791851, 0.0, 0.0, -0.0610485821962
2019-04-03 19:46:09.20,44616313, 0.0, 0.0, 353.0, 584.090026855, -35.363261, 149.1652299, 0.998134791851, 0.0, 0.0, -0.0610485821962
2019-04-03 19:46:09.30,44716273, 0.0, 0.0, 353.0, 584.090026855, -35.363261, 149.1652299, 0.998134791851, 0.0, 0.0, -0.0610485821962
2019-04-03 19:46:09.40,44816233, 0.0, 0.0, 353.0, 584.090026855, -35.363261, 149.1652299, 0.998134791851, 0.0, 0.0, -0.0610485821962
2019-04-03 19:46:09.49,44916193, 0.0, 0.0, 353.0, 584.090026855, -35.363261, 149.1652299, 0.998134791851, 0.0, 0.0, -0.0610485821962
2019-04-03 19:46:09.59,45016153, 0.0, 0.0, 353.0, 584.090026855, -35.363261, 149.1652299, 0.998134791851, 0.0, 0.0, -0.0610485821962
2019-04-03 19:46:09.69,45116113, 0.0, 0.0, 353.0, 584.090026855, -35.363261, 149.1652299, 0.998134791851, 0.0, 0.0, -0.0610485821962
2019-04-03 19:46:09.79,45216073, 0.0, 0.0, 353.0, 584.090026855, -35.363261, 149.1652299, 0.998134791851, 0.0, 0.0, -0.0610485821962
2019-04-03 19:46:09.89,45316033, 0.0, 0.0, 353.0, 584.090026855, -35.363261, 149.1652299, 0.998134791851, 0.0, 0.0, -0.0610485821962
2019-04-03 19:46:09.99,45415993, 0.0, 0.0, 353.0, 584.090026855, -35.363261, 149.1652299, 0.998134791851, 0.0, 0.0, -0.0610485821962
2019-04-03 19:46:10.09,45515953, 0.0, 0.0, 353.0, 584.090026855, -35.363261, 149.1652299, 0.998134791851, 0.0, 0.0, -0.0610485821962
2019-04-03 19:46:10.19,45615913, 0.0, 0.0, 353.0, 584.090026855, -35.363261, 149.1652299, 0.998134791851, 0.0, 0.0, -0.0610485821962
2019-04-03 19:46:10.29,45715873, 0.0, 0.0, 353.0, 584.090026855, -35.363261, 149.1652299, 0.998134791851, 0.0, 0.0, -0.0610485821962
2019-04-03 19:46:10.39,45815833, 0.0, 0.0, 353.0, 584.090026855, -35.363261, 149.1652299, 0.998134791851, 0.0, 0.0, -0.0610485821962
2019-04-03 19:46:10.49,45915793, 0.0, 0.0, 353.0, 584.090026855, -35.363261, 149.1652299, 0.998134791851, 0.0, 0.0, -0.0610485821962
2019-04-03 19:46:10.59,46015753, 0.0, 0.0, 353.0, 584.090026855, -35.363261, 149.1652299, 0.998134791851, 0.0, 0.0, -0.0610485821962
2019-04-03 19:46:10.69,46115713, 0.0, 0.0, 353.0, 584.090026855, -35.363261, 149.1652299, 0.998134791851, 0.0, 0.0, -0.0610485821962
2019-04-03 19:46:10.79,46215673, 0.0, 0.0, 353.0, 584.090026855, -35.363261, 149.1652299, 0.998134791851, 0.0, 0.0, -0.0610485821962
2019-04-03 19:46:10.90,46316466, 0.0, 0.0, 353.0, 584.090026855, -35.363261, 149.1652299, 0.998134791851, 0.0, 0.0, -0.0610485821962
2019-04-03 19:46:11.00,46416426, 0.0, 0.0, 353.0, 584.090026855, -35.363261, 149.1652299, 0.998134791851, 0.0, 0.0, -0.0610485821962
2019-04-03 19:46:11.10,46516386, 0.0, 0.0, 353.0, 584.090026855, -35.363261, 149.1652299, 0.998134791851, 0.0, 0.0, -0.0610485821962
2019-04-03 19:46:11.20,46616346, 0.0, 0.0, 353.0, 584.090026855, -35.363261, 149.1652299, 0.998134791851, 0.0, 0.0, -0.0610485821962
2019-04-03 19:46:11.30,46716306, 0.0, 0.0, 353.0, 584.090026855, -35.363261, 149.1652299, 0.998134791851, 0.0, 0.0, -0.0610486380756
2019-04-03 19:46:11.40,46816266, 0.0, 0.0, 353.0, 584.090026855, -35.363261, 149.1652299, 0.998134791851, 0.0, 0.0, -0.0610486753285
2019-04-03 19:46:11.50,46916226, 0.0, 0.0, 353.0, 584.090026855, -35.363261, 149.1652299, 0.998134791851, 0.0, 0.0, -0.0610486753285
2019-04-03 19:46:11.59,47016186, 0.0, 0.0, 353.0, 584.090026855, -35.363261, 149.1652299, 0.998134791851, 0.0, 0.0, -0.0610486641526
2019-04-03 19:46:11.69,47116146, 0.0, 0.0, 353.0, 584.090026855, -35.363261, 149.1652299, 0.998134791851, 0.0, 0.0, -0.0610486641526
2019-04-03 19:46:11.79,47216106, 0.0, 0.0, 353.0, 584.090026855, -35.363261, 149.1652299, 0.998134791851, 0.0, 0.0, -0.0610486753285
2019-04-03 19:46:11.89,47316066, 0.0, 0.0, 353.0, 584.090026855, -35.363261, 149.1652299, 0.998134791851, 0.0, 0.0, -0.0610486753285
2019-04-03 19:46:11.99,47416026, 0.0, 0.0, 353.0, 584.099975586, -35.363261, 149.1652299, 0.998134791851, 0.0, 0.0, -0.0610486753285
2019-04-03 19:46:12.09,47515986, 0.0, 0.0, 353.0, 584.099975586, -35.363261, 149.1652299, 0.998134791851, 0.0, 0.0, -0.0610486753285
2019-04-03 19:46:12.19,47615946, 0.0, 0.0, 353.0, 584.109985352, -35.363261, 149.1652299, 0.998134791851, 0.0, 0.0, -0.0610486753285
2019-04-03 19:46:12.29,47715906, 0.0, 0.0, 353.0, 584.130004883, -35.363261, 149.1652299, 0.998134791851, 0.0, 0.0, -0.0610486753285
2019-04-03 19:46:12.39,47815866, 0.0, 0.0, 353.0, 584.159973145, -35.363261, 149.1652299, 0.998134791851, 0.0, 0.0, -0.0610486455262
2019-04-03 19:46:12.49,47915826, 0.0, 0.0, 353.0, 584.200012207, -35.363261, 149.1652299, 0.998134791851, 0.0, 0.0, -0.0610486753285
2019-04-03 19:46:12.59,48015786, 0.0, 0.0, 352.99, 584.239990234, -35.363261, 149.1652299, 0.998134732246, -8.55975304148e-05, -6.58232311253e-05, -0.0610494911671
2019-04-03 19:46:12.69,48115746, -0.04, -0.02, 352.99, 584.33001709, -35.363261, 149.1652299, 0.998134195805, -0.000419297692133, -0.00020634959219, -0.0610566884279
2019-04-03 19:46:12.79,48215706, -0.08, -0.03, 352.99, 584.469970703, -35.363261, 149.1652299, 0.998133063316, -0.000768542173319, -0.000229522876907, -0.0610716417432
2019-04-03 19:46:12.89,48315666, -0.12, -0.02, 352.99, 584.630004883, -35.363261, 149.1652299, 0.9981315732, -0.00108664657455, -0.000149487663293, -0.0610915906727
2019-04-03 19:46:13.00,48416459, -0.13, -0.01, 352.99, 584.780029297, -35.363261, 149.1652299, 0.998130202293, -0.00121104321443, -9.88153915387e-05, -0.0611115060747
2019-04-03 19:46:13.10,48516419, -0.11, 0.0, 352.99, 584.940002441, -35.363261, 149.1652299, 0.998129189014, -0.0010307704797, 0.000127290564706, -0.0611315146089
2019-04-03 19:46:13.20,48616379, -0.08, 0.01, 352.98, 585.090026855, -35.363261, 149.1652299, 0.99812823534, -0.000763590447605, 0.00021398710669, -0.061151150614
2019-04-03 19:46:13.30,48716339, -0.03, 0.01, 352.98, 585.239990234, -35.363261, 149.1652299, 0.99812746048, -0.000315745244734, 0.000145777055877, -0.0611672624946
2019-04-03 19:46:13.40,48816299, 0.0, 0.03, 352.98, 585.409973145, -35.363261, 149.1652299, 0.998126804829, 8.36609178805e-05, 0.000259126565652, -0.0611784830689
2019-04-03 19:46:13.50,48916259, 0.04, 0.06, 352.98, 585.570007324, -35.363261, 149.1652299, 0.998126029968, 0.000437611510279, 0.00052103085909, -0.0611885637045
2019-04-03 19:46:13.60,49016219, 0.07, 0.09, 352.98, 585.729980469, -35.363261, 149.1652299, 0.998125314713, 0.000696842791513, 0.000805460789707, -0.0611941106617
2019-04-03 19:46:13.69,49116179, -0.06, 0.09, 352.98, 585.890014648, -35.363261, 149.1652299, 0.998125433922, -0.000480751536088, 0.000840904947836, -0.0611943565309
2019-04-03 19:46:13.79,49216139, -0.5, 0.0, 352.98, 586.030029297, -35.363261, 149.1652299, 0.998116135597, -0.00444316258654, 0.000239434142713, -0.0611911974847
2019-04-03 19:46:13.89,49316099, -1.23, -0.2, 352.98, 586.159973145, -35.363261, 149.1652298, 0.998066306114, -0.010900452733, -0.00113683391828, -0.0611845068634
2019-04-03 19:46:13.99,49416059, -2.16, -0.5, 352.99, 586.280029297, -35.363261, 149.1652298, 0.997938632965, -0.0191316325217, -0.00322050834075, -0.0611731931567
2019-04-03 19:46:14.09,49516019, -3.19, -0.84, 353.0, 586.390014648, -35.363261, 149.1652298, 0.997709035873, -0.0283168517053, -0.0056702401489, -0.0611777044833
2019-04-03 19:46:14.19,49615979, -4.22, -1.16, 353.01, 586.489990234, -35.3632609, 149.1652297, 0.997390806675, -0.0374310575426, -0.00788727402687, -0.0612237118185
2019-04-03 19:46:14.29,49715939, -5.09, -1.42, 353.02, 586.570007324, -35.3632609, 149.1652294, 0.997051179409, -0.0451163686812, -0.00971043948084, -0.0613129027188
2019-04-03 19:46:14.39,49815899, -5.73, -1.63, 353.02, 586.650024414, -35.3632609, 149.1652292, 0.996755242348, -0.050784766674, -0.0111464112997, -0.0614467300475
2019-04-03 19:46:14.49,49915859, -6.2, -1.81, 353.02, 586.719970703, -35.3632608, 149.1652289, 0.996510148048, -0.0549317970872, -0.0124523127452, -0.0616038367152
2019-04-03 19:46:14.59,50015819, -6.58, -1.97, 353.01, 586.770019531, -35.3632608, 149.1652284, 0.99628919363, -0.0583479069173, -0.0136750834063, -0.0617762729526
2019-04-03 19:46:14.69,50115779, -6.95, -2.11, 353.0, 586.820007324, -35.3632607, 149.1652279, 0.996064662933, -0.0616459921002, -0.0146516812965, -0.0619709603488
2019-04-03 19:46:14.79,50215739, -7.33, -2.23, 352.99, 586.869995117, -35.3632605, 149.1652272, 0.995826244354, -0.064997844398, -0.0155038917437, -0.0621689967811
2019-04-03 19:46:14.89,50315699, -7.68, -2.32, 352.98, 586.909973145, -35.3632604, 149.1652265, 0.99559533596, -0.0681127607822, -0.0161468815058, -0.0623683109879
2019-04-03 19:46:14.99,50415659, -7.95, -2.41, 352.97, 586.940002441, -35.3632604, 149.1652256, 0.995405077934, -0.0705484971404, -0.0167195592076, -0.0625469386578
2019-04-03 19:46:15.10,50516452, -8.14, -2.48, 352.96, 586.979980469, -35.3632603, 149.1652248, 0.995271265507, -0.0721596106887, -0.0172726996243, -0.0626882091165
2019-04-03 19:46:15.20,50616412, -8.26, -2.54, 352.96, 587.010009766, -35.3632601, 149.1652236, 0.995178222656, -0.0732388198376, -0.0176936481148, -0.0627953708172
2019-04-03 19:46:15.30,50716372, -8.35, -2.58, 352.95, 587.030029297, -35.3632599, 149.1652226, 0.995106220245, -0.0740875452757, -0.0179493222386, -0.0628696233034
2019-04-03 19:46:15.40,50816332, -8.44, -2.61, 352.95, 587.059997559, -35.3632598, 149.1652214, 0.995040655136, -0.0748793780804, -0.0181669462472, -0.0629062578082
2019-04-03 19:46:15.50,50916292, -8.64, -2.55, 352.9, 587.08001709, -35.3632596, 149.1652202, 0.994896411896, -0.0765454769135, -0.0175385121256, -0.063359208405
2019-04-03 19:46:15.60,51016252, -9.02, -2.29, 352.39, 587.109985352, -35.3632593, 149.1652188, 0.994397640228, -0.0798296108842, -0.0146854212508, -0.0677127763629
2019-04-03 19:46:15.70,51116212, -9.56, -1.98, 350.71, 587.130004883, -35.3632592, 149.1652174, 0.992977678776, -0.0845163464546, -0.0104548763484, -0.0821161866188
2019-04-03 19:46:15.79,51216172, -10.07, -2.02, 347.42, 587.159973145, -35.3632591, 149.1652158, 0.989818155766, -0.0892064571381, -0.00789379421622, -0.110634095967
2019-04-03 19:46:15.89,51316132, -10.35, -2.64, 342.56, 587.179992676, -35.3632589, 149.1652141, 0.983829081059, -0.0926863402128, -0.0090050548315, -0.152998417616
2019-04-03 19:46:15.99,51416092, -10.27, -3.87, 336.36, 587.200012207, -35.3632586, 149.1652125, 0.973700046539, -0.0944820716977, -0.0146442316473, -0.206801578403
2019-04-03 19:46:16.09,51516052, -9.73, -5.6, 329.12, 587.229980469, -35.3632586, 149.1652106, 0.958188056946, -0.0946404337883, -0.0244063921273, -0.26892977953
2019-04-03 19:46:16.19,51616012, -8.7, -7.62, 321.09, 587.260009766, -35.3632585, 149.1652087, 0.936448931694, -0.0934288352728, -0.0372777283192, -0.336072653532
2019-04-03 19:46:16.29,51715972, -7.16, -9.63, 312.53, 587.289978027, -35.3632584, 149.1652067, 0.90831309557, -0.0907787382603, -0.0516959913075, -0.405035912991
2019-04-03 19:46:16.39,51815932, -5.21, -11.39, 303.71, 587.320007324, -35.3632582, 149.1652044, 0.874371051788, -0.0866583585739, -0.0661130473018, -0.472858041525
2019-04-03 19:46:16.49,51915892, -2.97, -12.67, 294.91, 587.349975586, -35.363258, 149.1652023, 0.836017012596, -0.0810874551535, -0.0791659355164, -0.536873519421
2019-04-03 19:46:16.59,52015852, -0.61, -13.43, 286.46, 587.380004883, -35.3632579, 149.1652, 0.795210182667, -0.0742679610848, -0.0904825553298, -0.594926893711
2019-04-03 19:46:16.69,52115812, 1.91, -13.71, 278.81, 587.409973145, -35.3632576, 149.1651975, 0.755096197128, -0.0650640875101, -0.101448975503, -0.644441246986
2019-04-03 19:46:16.79,52215772, 4.36, -13.6, 272.61, 587.450012207, -35.3632574, 149.1651949, 0.72054797411, -0.0544172562659, -0.111755289137, -0.682173132896
2019-04-03 19:46:16.89,52315732, 6.32, -13.32, 268.34, 587.479980469, -35.363257, 149.1651924, 0.695645391941, -0.044852193445, -0.120030112565, -0.706865370274
2019-04-03 19:46:16.99,52415692, 7.49, -13.05, 266.06, 587.520019531, -35.3632566, 149.1651896, 0.681956350803, -0.0385803692043, -0.124866873026, -0.71962171793
2019-04-03 19:46:17.10,52516485, 7.72, -12.94, 265.55, 587.559997559, -35.3632561, 149.1651867, 0.678837239742, -0.0370956510305, -0.125467807055, -0.722538411617
2019-04-03 19:46:17.20,52616445, 7.03, -13.07, 266.46, 587.599975586, -35.3632555, 149.1651839, 0.684342265129, -0.0410299599171, -0.122278086841, -0.717663109303
2019-04-03 19:46:17.30,52716405, 5.68, -13.45, 268.44, 587.640014648, -35.3632549, 149.1651809, 0.695946931839, -0.0494743213058, -0.116876654327, -0.706788539886
2019-04-03 19:46:17.40,52816365, 3.91, -13.98, 271.12, 587.679992676, -35.3632542, 149.1651779, 0.711208403111, -0.0610178485513, -0.110623344779, -0.691535949707
2019-04-03 19:46:17.50,52916325, 1.97, -14.56, 274.19, 587.729980469, -35.3632535, 149.1651748, 0.727977335453, -0.0737356841564, -0.1044806391, -0.673569500446
2019-04-03 19:46:17.60,53016285, 0.11, -15.03, 277.31, 587.770019531, -35.3632528, 149.1651715, 0.744400382042, -0.0856873467565, -0.0988749191165, -0.654789686203
2019-04-03 19:46:17.70,53116245, -1.46, -15.34, 280.14, 587.820007324, -35.3632522, 149.1651683, 0.758848845959, -0.0953856036067, -0.0942343696952, -0.637314617634
2019-04-03 19:46:17.80,53216205, -2.62, -15.49, 282.4, 587.859985352, -35.3632514, 149.1651648, 0.770140111446, -0.102102018893, -0.0908158570528, -0.623066544533
2019-04-03 19:46:17.89,53316165, -3.31, -15.51, 283.92, 587.909973145, -35.3632509, 149.1651614, 0.777684390545, -0.105713769794, -0.0885937586427, -0.613337337971
2019-04-03 19:46:17.99,53416125, -3.52, -15.46, 284.65, 587.950012207, -35.3632503, 149.1651579, 0.781430244446, -0.106277741492, -0.0878043323755, -0.608573913574
2019-04-03 19:46:18.09,53516085, -3.31, -15.41, 284.64, 588.0, -35.3632497, 149.1651542, 0.781634628773, -0.104621171951, -0.0885939374566, -0.608484089375
2019-04-03 19:46:18.19,53616045, -2.78, -15.41, 284.03, 588.049987793, -35.3632492, 149.1651504, 0.77886724472, -0.101492650807, -0.0908761173487, -0.612214505672
2019-04-03 19:46:18.29,53716005, -2.03, -15.46, 283.0, 588.090026855, -35.3632486, 149.1651466, 0.773908853531, -0.0974869057536, -0.0943254083395, -0.61859858036
2019-04-03 19:46:18.39,53815965, -1.18, -15.56, 281.73, 588.140014648, -35.3632481, 149.1651429, 0.767620444298, -0.0934018790722, -0.0985262468457, -0.626360595226
2019-04-03 19:46:18.49,53915925, -0.37, -15.7, 280.41, 588.190002441, -35.3632476, 149.1651389, 0.760882914066, -0.0899170935154, -0.102912336588, -0.63433521986
2019-04-03 19:46:18.59,54015885, 0.31, -15.83, 279.2, 588.229980469, -35.363247, 149.165135, 0.754557609558, -0.0872206911445, -0.106683939695, -0.641602635384
2019-04-03 19:46:18.69,54115845, 0.81, -15.95, 278.22, 588.280029297, -35.3632465, 149.165131, 0.749311864376, -0.0854768007994, -0.109520480037, -0.64748030901
2019-04-03 19:46:18.79,54215805, 1.13, -16.02, 277.54, 588.33001709, -35.3632459, 149.1651269, 0.745600998402, -0.0845268666744, -0.111293725669, -0.651573598385
2019-04-03 19:46:18.89,54315765, 1.25, -16.05, 277.17, 588.380004883, -35.3632453, 149.1651229, 0.74360948801, -0.0842198431492, -0.111915007234, -0.653779029846
2019-04-03 19:46:18.99,54415725, 1.21, -16.05, 277.12, 588.41998291, -35.3632449, 149.1651187, 0.743244230747, -0.0845805704594, -0.111630655825, -0.65419626236
2019-04-03 19:46:19.09,54515685, 1.03, -16.06, 277.31, 588.469970703, -35.3632443, 149.1651145, 0.74423211813, -0.0855956077576, -0.110794469714, -0.653082370758
2019-04-03 19:46:19.20,54616478, 0.74, -16.08, 277.7, 588.520019531, -35.3632437, 149.1651102, 0.746206998825, -0.0871644243598, -0.109577804804, -0.650822758675
2019-04-03 19:46:19.30,54716438, 0.41, -16.12, 278.19, 588.559997559, -35.3632431, 149.1651059, 0.748704493046, -0.0891133546829, -0.108307555318, -0.647896528244
2019-04-03 19:46:19.40,54816398, 0.08, -16.17, 278.72, 588.609985352, -35.3632424, 149.1651016, 0.75134986639, -0.0910907834768, -0.107256181538, -0.644726276398
2019-04-03 19:46:19.50,54916358, -0.18, -16.23, 279.21, 588.659973145, -35.3632418, 149.1650973, 0.753830969334, -0.0927541851997, -0.106496877968, -0.641711771488
2019-04-03 19:46:19.60,55016318, -0.4, -16.27, 279.62, 588.710021973, -35.3632412, 149.1650929, 0.755896747112, -0.0940173566341, -0.105893708766, -0.639192759991
2019-04-03 19:46:19.70,55116278, -0.54, -16.29, 279.91, 588.75, -35.3632406, 149.1650886, 0.757400035858, -0.0948241502047, -0.105482421815, -0.637359440327
2019-04-03 19:46:19.80,55216238, -0.62, -16.32, 280.08, 588.799987793, -35.36324, 149.1650842, 0.758250296116, -0.0953009277582, -0.105397261679, -0.636290490627
2019-04-03 19:46:19.89,55316198, -0.62, -16.34, 280.13, 588.849975586, -35.3632394, 149.1650797, 0.758485913277, -0.095385119319, -0.105573877692, -0.635967731476
2019-04-03 19:46:19.99,55416158, -0.56, -16.35, 280.07, 588.900024414, -35.3632388, 149.1650752, 0.758201122284, -0.0950649306178, -0.105875894427, -0.636304974556
2019-04-03 19:46:20.09,55516118, -0.46, -16.36, 279.93, 588.950012207, -35.3632382, 149.1650707, 0.757512629032, -0.0945776551962, -0.106400579214, -0.637109577656
2019-04-03 19:46:20.19,55616078, -0.32, -16.38, 279.74, 588.989990234, -35.3632376, 149.1650661, 0.756575107574, -0.0939662382007, -0.107128821313, -0.638191103935
2019-04-03 19:46:20.29,55716038, -0.16, -16.4, 279.54, 589.039978027, -35.363237, 149.1650615, 0.755559325218, -0.0932540223002, -0.108038067818, -0.639344632626
2019-04-03 19:46:20.39,55815998, -0.01, -16.44, 279.35, 589.090026855, -35.3632362, 149.1650569, 0.754587948322, -0.0926185175776, -0.108951672912, -0.640428304672
2019-04-03 19:46:20.49,55915958, 0.09, -16.47, 279.2, 589.140014648, -35.3632357, 149.1650522, 0.753762483597, -0.0922232940793, -0.109666489065, -0.641334712505
2019-04-03 19:46:20.59,56015918, 0.14, -16.5, 279.08, 589.190002441, -35.3632351, 149.1650475, 0.753150939941, -0.0921442806721, -0.110045455396, -0.641999304295
2019-04-03 19:46:20.69,56115878, 0.16, -16.53, 279.02, 589.229980469, -35.3632345, 149.165043, 0.752789855003, -0.0922581627965, -0.110288351774, -0.642364680767
2019-04-03 19:46:20.79,56215838, 0.17, -16.58, 279.01, 589.280029297, -35.3632339, 149.1650383, 0.752680778503, -0.0925174877048, -0.110614709556, -0.642399132252
2019-04-03 19:46:20.89,56315798, 0.14, -16.63, 279.04, 589.33001709, -35.3632331, 149.1650335, 0.752799630165, -0.0929053723812, -0.110842131078, -0.642164587975
2019-04-03 19:46:20.99,56415758, 0.09, -16.67, 279.11, 589.380004883, -35.3632325, 149.1650287, 0.753081083298, -0.0934239923954, -0.110847145319, -0.641758322716
2019-04-03 19:46:21.09,56515718, 0.03, -16.7, 279.19, 589.429992676, -35.3632319, 149.165024, 0.75348085165, -0.093909740448, -0.110830299556, -0.641220927238
2019-04-03 19:46:21.19,56615678, 0.0, -16.74, 279.29, 589.479980469, -35.3632312, 149.1650192, 0.753939628601, -0.0942699089646, -0.110929921269, -0.640611290932
2019-04-03 19:46:21.30,56716471, -0.02, -16.76, 279.38, 589.520019531, -35.3632306, 149.1650144, 0.754409730434, -0.0944720953703, -0.111057437956, -0.640005648136
2019-04-03 19:46:21.40,56816431, -0.03, -16.79, 279.46, 589.570007324, -35.36323, 149.1650096, 0.754826426506, -0.0946352779865, -0.111207462847, -0.639463961124
2019-04-03 19:46:21.50,56916391, -0.06, -16.8, 279.53, 589.619995117, -35.3632294, 149.1650048, 0.755159854889, -0.0947894826531, -0.111217677593, -0.639045536518
2019-04-03 19:46:21.60,57016351, -0.07, -16.8, 279.57, 589.66998291, -35.3632287, 149.165, 0.755396962166, -0.094865180552, -0.11115680635, -0.638764679432
2019-04-03 19:46:21.70,57116311, -0.09, -16.8, 279.6, 589.719970703, -35.3632281, 149.1649952, 0.755523204803, -0.0949561446905, -0.111102879047, -0.638611137867
2019-04-03 19:46:21.80,57216271, -0.11, -16.81, 279.6, 589.760009766, -35.3632274, 149.1649903, 0.755543589592, -0.0950843095779, -0.111023686826, -0.638581752777
2019-04-03 19:46:21.90,57316231, -0.12, -16.81, 279.59, 589.809997559, -35.3632268, 149.1649854, 0.755466938019, -0.0952317491174, -0.111000813544, -0.638654410839
2019-04-03 19:46:21.99,57416191, -0.13, -16.84, 279.57, 589.859985352, -35.3632261, 149.1649804, 0.755313038826, -0.0954682379961, -0.111103914678, -0.638783216476
2019-04-03 19:46:22.09,57516151, -0.13, -16.87, 279.54, 589.909973145, -35.3632255, 149.1649756, 0.755125164986, -0.0956467166543, -0.1113210693, -0.638940811157
2019-04-03 19:46:22.19,57616111, -0.11, -16.9, 279.51, 589.960021973, -35.3632248, 149.1649707, 0.754937529564, -0.0957589969039, -0.111551046371, -0.639105618
2019-04-03 19:46:22.29,57716071, -0.1, -16.93, 279.49, 590.0, -35.363224, 149.1649656, 0.754781842232, -0.0958575233817, -0.111781656742, -0.639234423637
2019-04-03 19:46:22.39,57816031, -0.07, -16.95, 279.47, 590.049987793, -35.3632234, 149.1649608, 0.754687666893, -0.0957763120532, -0.112057484686, -0.639309465885
2019-04-03 19:46:22.49,57915991, -0.03, -16.99, 279.46, 590.099975586, -35.3632227, 149.1649558, 0.7546261549, -0.0957342833281, -0.112516492605, -0.63930773735
2019-04-03 19:46:22.59,58015951, 0.0, -17.03, 279.46, 590.150024414, -35.3632221, 149.1649508, 0.754603326321, -0.0957544595003, -0.112983390689, -0.639249324799
2019-04-03 19:46:22.69,58115911, 0.0, -17.07, 279.46, 590.190002441, -35.3632215, 149.1649459, 0.754606962204, -0.0959451198578, -0.113336667418, -0.639153897762
2019-04-03 19:46:22.79,58215871, 0.0, -17.1, 279.48, 590.239990234, -35.3632208, 149.1649409, 0.754659712315, -0.0961289331317, -0.11342907697, -0.639047622681
2019-04-03 19:46:22.89,58315831, 0.0, -17.1, 279.5, 590.289978027, -35.3632201, 149.1649359, 0.754762768745, -0.0961247459054, -0.113460063934, -0.638921022415
2019-04-03 19:46:22.99,58415791, -0.02, -17.09, 279.52, 590.340026855, -35.3632195, 149.1649309, 0.754875063896, -0.0961523279548, -0.113338328898, -0.638805806637
2019-04-03 19:46:23.09,58515751, -0.02, -17.08, 279.54, 590.380004883, -35.3632188, 149.1649258, 0.754997909069, -0.0961316078901, -0.113296382129, -0.638671159744
2019-04-03 19:46:23.19,58615711, 0.0, -17.07, 279.56, 590.429992676, -35.3632181, 149.1649208, 0.755144000053, -0.0959114283323, -0.113355115056, -0.638521075249
2019-04-03 19:46:23.29,58715671, 0.0, -17.06, 279.58, 590.479980469, -35.3632173, 149.1649157, 0.755273103714, -0.0957572609186, -0.113379225135, -0.638387203217
2019-04-03 19:46:23.40,58816464, 0.0, -17.08, 279.6, 590.530029297, -35.3632166, 149.1649105, 0.755345523357, -0.0958596616983, -0.113419696689, -0.638278961182
2019-04-03 19:46:23.50,58916424, -0.02, -17.11, 279.61, 590.58001709, -35.363216, 149.1649056, 0.755362391472, -0.0961779430509, -0.113541536033, -0.638189435005
2019-04-03 19:46:23.60,59016384, -0.04, -17.16, 279.62, 590.619995117, -35.3632154, 149.1649004, 0.755346238613, -0.0965801849961, -0.113777577877, -0.638105809689
2019-04-03 19:46:23.70,59116344, -0.05, -17.2, 279.63, 590.66998291, -35.3632147, 149.1648954, 0.755329370499, -0.0968959406018, -0.113938376307, -0.638049244881
2019-04-03 19:46:23.80,59216304, -0.07, -17.23, 279.63, 590.719970703, -35.363214, 149.1648903, 0.755315840244, -0.0971237644553, -0.114053189754, -0.638010084629
2019-04-03 19:46:23.90,59316264, -0.06, -17.24, 279.63, 590.770019531, -35.3632133, 149.1648851, 0.75531578064, -0.0972094386816, -0.114192284644, -0.637972176075
2019-04-03 19:46:24.00,59416224, -0.05, -17.26, 279.64, 590.820007324, -35.3632126, 149.1648801, 0.755321204662, -0.0972062200308, -0.114339366555, -0.637939929962
2019-04-03 19:46:24.09,59516184, -0.04, -17.27, 279.64, 590.869995117, -35.3632118, 149.164875, 0.755325496197, -0.0971805304289, -0.114470869303, -0.637915253639
2019-04-03 19:46:24.19,59616144, -0.03, -17.28, 279.64, 590.909973145, -35.3632111, 149.1648698, 0.755332291126, -0.0971456989646, -0.114624328911, -0.63788485527
2019-04-03 19:46:24.29,59716104, -0.01, -17.28, 279.64, 590.960021973, -35.3632105, 149.1648648, 0.755351424217, -0.0970598012209, -0.114731088281, -0.637856066227
2019-04-03 19:46:24.39,59816064, 0.0, -17.29, 279.64, 591.010009766, -35.3632098, 149.1648597, 0.755361557007, -0.097045108676, -0.114807516336, -0.637832641602
2019-04-03 19:46:24.49,59916024, 0.0, -17.3, 279.64, 591.059997559, -35.3632091, 149.1648545, 0.755364358425, -0.0970923453569, -0.114915214479, -0.63780272007
2019-04-03 19:46:24.59,60015984, 0.0, -17.33, 279.65, 591.109985352, -35.3632084, 149.1648493, 0.755351185799, -0.0972470119596, -0.115094564855, -0.637762367725
2019-04-03 19:46:24.69,60115944, -0.03, -17.35, 279.65, 591.150024414, -35.3632076, 149.1648442, 0.75532913208, -0.097529321909, -0.115116894245, -0.63774138689
2019-04-03 19:46:24.79,60215904, -0.06, -17.36, 279.65, 591.200012207, -35.3632069, 149.1648391, 0.755308330059, -0.0978217795491, -0.11501686275, -0.637739241123
2019-04-03 19:46:24.89,60315864, -0.1, -17.37, 279.66, 591.25, -35.3632063, 149.1648339, 0.755283892155, -0.0981165319681, -0.114849843085, -0.637753069401
2019-04-03 19:46:24.99,60415824, -0.12, -17.39, 279.66, 591.299987793, -35.3632056, 149.1648286, 0.755263030529, -0.0983451977372, -0.114849038422, -0.637742698193
2019-04-03 19:46:25.09,60515784, -0.11, -17.41, 279.66, 591.349975586, -35.3632049, 149.1648236, 0.755257964134, -0.0983926877379, -0.115006916225, -0.637712836266
2019-04-03 19:46:25.19,60615744, -0.09, -17.43, 279.66, 591.400024414, -35.3632042, 149.1648184, 0.755255699158, -0.0983778163791, -0.115277178586, -0.637669086456
2019-04-03 19:46:25.29,60715704, -0.06, -17.45, 279.66, 591.440002441, -35.3632035, 149.1648132, 0.755260825157, -0.0982920154929, -0.11563873291, -0.637610793114
2019-04-03 19:46:25.39,60815664, -0.03, -17.47, 279.66, 591.489990234, -35.3632027, 149.164808, 0.755259752274, -0.0982341319323, -0.11589333415, -0.637574732304
2019-04-03 19:46:25.50,60916457, -0.03, -17.47, 279.66, 591.539978027, -35.363202, 149.1648028, 0.755257368088, -0.0982075259089, -0.115879394114, -0.637584149837
2019-04-03 19:46:25.60,61016417, -0.05, -17.46, 279.66, 591.590026855, -35.3632013, 149.1647975, 0.75523942709, -0.098276682198, -0.115752071142, -0.637617945671
2019-04-03 19:46:25.70,61116377, -0.05, -17.45, 279.65, 591.640014648, -35.3632006, 149.1647922, 0.755232930183, -0.0982470288873, -0.115669757128, -0.637645065784
2019-04-03 19:46:25.80,61216337, -0.04, -17.45, 279.65, 591.690002441, -35.3631999, 149.164787, 0.755229890347, -0.0982138067484, -0.115680985153, -0.637651741505
2019-04-03 19:46:25.90,61316297, -0.02, -17.47, 279.65, 591.729980469, -35.3631991, 149.1647818, 0.755235671997, -0.0981300398707, -0.115933299065, -0.637612044811
2019-04-03 19:46:26.00,61416257, 0.01, -17.52, 279.66, 591.780029297, -35.3631984, 149.1647767, 0.755230009556, -0.0981728583574, -0.116433247924, -0.637521028519
2019-04-03 19:46:26.10,61516217, 0.03, -17.55, 279.66, 591.83001709, -35.3631978, 149.1647714, 0.755245864391, -0.0982119366527, -0.116767242551, -0.63743519783
2019-04-03 19:46:26.19,61616177, 0.03, -17.54, 279.67, 591.880004883, -35.3631971, 149.1647662, 0.75528138876, -0.0981367453933, -0.116781853139, -0.637401938438
2019-04-03 19:46:26.29,61716137, 0.03, -17.54, 279.67, 591.91998291, -35.3631963, 149.164761, 0.755311250687, -0.0980924144387, -0.116751305759, -0.63737899065
2019-04-03 19:46:26.39,61816097, 0.01, -17.55, 279.67, 591.969970703, -35.3631956, 149.1647557, 0.755298674107, -0.0983212441206, -0.116676039994, -0.637372374535
2019-04-03 19:46:26.49,61916057, 0.0, -17.56, 279.68, 592.020019531, -35.3631948, 149.1647505, 0.755291640759, -0.0985060334206, -0.116630576551, -0.637360572815
2019-04-03 19:46:26.59,62016017, -0.02, -17.57, 279.68, 592.070007324, -35.3631941, 149.1647452, 0.755289912224, -0.0986454635859, -0.116598948836, -0.637346804142
2019-04-03 19:46:26.69,62115977, -0.02, -17.57, 279.68, 592.119995117, -35.3631935, 149.16474, 0.755297958851, -0.0986873731017, -0.11658115685, -0.637334048748
2019-04-03 19:46:26.79,62215937, 0.0, -17.58, 279.68, 592.159973145, -35.3631927, 149.1647347, 0.755306184292, -0.0986291840672, -0.116769604385, -0.637298822403
2019-04-03 19:46:26.89,62315897, 0.0, -17.58, 279.68, 592.210021973, -35.363192, 149.1647294, 0.755324482918, -0.0984971821308, -0.116865083575, -0.637279987335
2019-04-03 19:46:26.99,62415857, 0.03, -17.58, 279.68, 592.260009766, -35.3631912, 149.1647242, 0.755346357822, -0.0983626693487, -0.116989798844, -0.637251913548
2019-04-03 19:46:27.09,62515817, 0.04, -17.59, 279.68, 592.309997559, -35.3631905, 149.1647189, 0.755349576473, -0.0983113497496, -0.117154411972, -0.637225806713
2019-04-03 19:46:27.19,62615777, 0.04, -17.61, 279.68, 592.359985352, -35.3631899, 149.1647136, 0.755318284035, -0.0984792560339, -0.117261759937, -0.637217283249
2019-04-03 19:46:27.29,62715737, 0.01, -17.64, 279.68, 592.400024414, -35.3631891, 149.1647083, 0.755271673203, -0.0987711846828, -0.117330774665, -0.63721460104
2019-04-03 19:46:27.39,62815697, 0.0, -17.67, 279.68, 592.450012207, -35.3631884, 149.1647031, 0.755216598511, -0.0991091579199, -0.117423325777, -0.63721036911
2019-04-03 19:46:27.50,62916490, 0.0, -17.7, 279.68, 592.5, -35.3631877, 149.1646977, 0.755187392235, -0.0992167517543, -0.117617115378, -0.637192487717
2019-04-03 19:46:27.60,63016450, 0.01, -17.69, 279.68, 592.549987793, -35.3631868, 149.1646924, 0.755191624165, -0.099110879004, -0.117642566562, -0.637199282646
2019-04-03 19:46:27.70,63116410, 0.03, -17.66, 279.68, 592.599975586, -35.3631862, 149.164687, 0.755233764648, -0.0988040268421, -0.117502480745, -0.637222826481
2019-04-03 19:46:27.80,63216370, 0.03, -17.62, 279.68, 592.640014648, -35.3631855, 149.1646817, 0.755268871784, -0.0985948070884, -0.11728182435, -0.637254297733
2019-04-03 19:46:27.90,63316330, 0.02, -17.6, 279.68, 592.690002441, -35.3631847, 149.1646764, 0.755293607712, -0.0984814092517, -0.11709664762, -0.637276530266
2019-04-03 19:46:28.00,63416290, 0.03, -17.58, 279.68, 592.739990234, -35.3631839, 149.1646711, 0.755320489407, -0.0983624830842, -0.116978369653, -0.637284815311
2019-04-03 19:46:28.10,63516250, 0.02, -17.58, 279.68, 592.789978027, -35.3631832, 149.1646659, 0.755315601826, -0.098422691226, -0.116957612336, -0.63728505373
2019-04-03 19:46:28.20,63616210, 0.01, -17.59, 279.68, 592.840026855, -35.3631825, 149.1646606, 0.755301594734, -0.0985212773085, -0.117018118501, -0.637275338173
2019-04-03 19:46:28.29,63716170, 0.0, -17.63, 279.68, 592.880004883, -35.3631818, 149.1646553, 0.755254089832, -0.0988070964813, -0.117142558098, -0.637264490128
2019-04-03 19:46:28.39,63816130, 0.0, -17.68, 279.68, 592.929992676, -35.363181, 149.1646499, 0.7551907897, -0.099125303328, -0.117442823946, -0.637234866619
2019-04-03 19:46:28.49,63916090, 0.0, -17.7, 279.68, 592.979980469, -35.3631802, 149.1646446, 0.755157053471, -0.0992161110044, -0.117670655251, -0.637218654156
2019-04-03 19:46:28.59,64016050, 0.0, -17.72, 279.67, 593.030029297, -35.3631795, 149.1646393, 0.755125701427, -0.0993117466569, -0.117785252631, -0.637219786644
2019-04-03 19:46:28.69,64116010, 0.0, -17.73, 279.67, 593.08001709, -35.3631788, 149.164634, 0.755099177361, -0.0993807166815, -0.117834091187, -0.63723140955
2019-04-03 19:46:28.79,64215970, 0.01, -17.72, 279.67, 593.119995117, -35.3631781, 149.1646285, 0.755103647709, -0.0992566272616, -0.117812380195, -0.637249410152
2019-04-03 19:46:28.89,64315930, 0.03, -17.71, 279.67, 593.16998291, -35.3631772, 149.1646233, 0.755118727684, -0.0990563929081, -0.117900617421, -0.63724642992
2019-04-03 19:46:28.99,64415890, 0.05, -17.72, 279.66, 593.219970703, -35.3631765, 149.164618, 0.755099475384, -0.0990401133895, -0.118051163852, -0.63724386692
2019-04-03 19:46:29.09,64515850, 0.06, -17.73, 279.66, 593.270019531, -35.3631758, 149.1646126, 0.755072832108, -0.099052593112, -0.118160650134, -0.637253284454
2019-04-03 19:46:29.19,64615810, 0.06, -17.73, 279.65, 593.320007324, -35.3631751, 149.1646073, 0.755064070225, -0.0989539027214, -0.118143029511, -0.637282252312
2019-04-03 19:46:29.29,64715770, 0.06, -17.72, 279.65, 593.359985352, -35.3631744, 149.1646018, 0.75505065918, -0.09891282022, -0.118085943162, -0.637315094471
2019-04-03 19:46:29.39,64815730, 0.04, -17.72, 279.65, 593.409973145, -35.3631735, 149.1645965, 0.755006432533, -0.0990887358785, -0.117978513241, -0.637360036373
2019-04-03 19:46:29.49,64915690, 0.01, -17.75, 279.64, 593.460021973, -35.3631728, 149.1645912, 0.754927814007, -0.0994769260287, -0.117953009903, -0.637397408485
2019-04-03 19:46:29.60,65016483, -0.01, -17.76, 279.64, 593.510009766, -35.3631721, 149.1645859, 0.754877507687, -0.0996801033616, -0.117870867252, -0.637440502644
2019-04-03 19:46:29.70,65116443, -0.01, -17.73, 279.64, 593.559997559, -35.3631714, 149.1645805, 0.75488114357, -0.0995542183518, -0.117720715702, -0.637483537197
2019-04-03 19:46:29.80,65216403, 0.01, -17.71, 279.63, 593.599975586, -35.3631705, 149.164575, 0.754907011986, -0.0992484390736, -0.117776721716, -0.637490212917
2019-04-03 19:46:29.90,65316363, 0.04, -17.71, 279.63, 593.650024414, -35.3631698, 149.1645697, 0.754916071892, -0.0990394875407, -0.117878384888, -0.637493252754
2019-04-03 19:46:30.00,65416323, 0.04, -17.72, 279.63, 593.700012207, -35.3631691, 149.1645644, 0.754884541035, -0.0991135537624, -0.117895700037, -0.637515842915
2019-04-03 19:46:30.10,65516283, 0.0, -17.74, 279.62, 593.75, -35.3631684, 149.1645591, 0.754802882671, -0.0995217859745, -0.117812924087, -0.637564182281
2019-04-03 19:46:30.20,65616243, -0.03, -17.76, 279.62, 593.799987793, -35.3631676, 149.1645537, 0.754728734493, -0.0998927876353, -0.117755562067, -0.637604594231
2019-04-03 19:46:30.30,65716203, -0.03, -17.78, 279.62, 593.849975586, -35.3631668, 149.1645484, 0.754701912403, -0.0999595671892, -0.117886178195, -0.637601733208
2019-04-03 19:46:30.39,65816163, -0.01, -17.79, 279.61, 593.890014648, -35.3631661, 149.1645429, 0.754680752754, -0.0998803004622, -0.118051588535, -0.637608587742
2019-04-03 19:46:30.49,65916123, 0.01, -17.78, 279.6, 593.940002441, -35.3631654, 149.1645376, 0.754671037197, -0.0997018516064, -0.118185080588, -0.637623310089
2019-04-03 19:46:30.59,66016083, 0.03, -17.79, 279.6, 593.989990234, -35.3631646, 149.1645323, 0.754647374153, -0.0996269658208, -0.118314519525, -0.637638986111
2019-04-03 19:46:30.69,66116043, 0.03, -17.81, 279.59, 594.039978027, -35.3631638, 149.1645269, 0.754600167274, -0.0996893569827, -0.118478514254, -0.637654721737
2019-04-03 19:46:30.79,66216003, 0.04, -17.82, 279.59, 594.090026855, -35.3631631, 149.1645215, 0.754560887814, -0.0997267588973, -0.118558287621, -0.637680470943
2019-04-03 19:46:30.89,66315963, 0.06, -17.82, 279.58, 594.140014648, -35.3631624, 149.164516, 0.754542648792, -0.0996043533087, -0.118709154427, -0.637693107128
2019-04-03 19:46:30.99,66415923, 0.1, -17.83, 279.57, 594.179992676, -35.3631616, 149.1645107, 0.754535496235, -0.0994032397866, -0.118949264288, -0.637688219547
2019-04-03 19:46:31.09,66515883, 0.11, -17.82, 279.57, 594.229980469, -35.3631608, 149.1645054, 0.754525184631, -0.0992922335863, -0.118957705796, -0.637716114521
2019-04-03 19:46:31.19,66615843, 0.08, -17.82, 279.57, 594.280029297, -35.3631601, 149.1645, 0.754480004311, -0.099494330585, -0.118777245283, -0.637771725655
2019-04-03 19:46:31.29,66715803, 0.05, -17.83, 279.56, 594.33001709, -35.3631594, 149.1644945, 0.754427909851, -0.0997627228498, -0.1186613217, -0.637813031673
2019-04-03 19:46:31.39,66815763, 0.01, -17.83, 279.56, 594.380004883, -35.3631586, 149.1644892, 0.754389226437, -0.10000385344, -0.118457369506, -0.637858986855
2019-04-03 19:46:31.49,66915723, 0.0, -17.83, 279.56, 594.41998291, -35.3631579, 149.1644839, 0.754369914532, -0.100127547979, -0.118281275034, -0.63789498806
2019-04-03 19:46:31.59,67015683, -0.01, -17.82, 279.56, 594.469970703, -35.363157, 149.1644785, 0.754371404648, -0.100111491978, -0.11819268018, -0.637912213802
2019-04-03 19:46:31.70,67116476, 0.0, -17.8, 279.56, 594.520019531, -35.3631563, 149.164473, 0.754398226738, -0.0999035164714, -0.118209727108, -0.637909948826
2019-04-03 19:46:31.80,67216436, 0.01, -17.79, 279.56, 594.570007324, -35.3631556, 149.1644677, 0.754407405853, -0.0997580066323, -0.118219226599, -0.63792014122
2019-04-03 19:46:31.90,67316396, 0.01, -17.81, 279.55, 594.619995117, -35.3631547, 149.1644623, 0.754364669323, -0.0998678356409, -0.118308626115, -0.637936890125
2019-04-03 19:46:32.00,67416356, 0.01, -17.84, 279.55, 594.66998291, -35.363154, 149.1644569, 0.754301607609, -0.100052513182, -0.118487074971, -0.637949347496
2019-04-03 19:46:32.10,67516316, 0.02, -17.85, 279.54, 594.710021973, -35.3631533, 149.1644514, 0.754261136055, -0.100083589554, -0.118597783148, -0.637971818447
2019-04-03 19:46:32.20,67616276, 0.03, -17.84, 279.54, 594.760009766, -35.3631526, 149.1644461, 0.754247486591, -0.0999824106693, -0.118602395058, -0.638002932072
2019-04-03 19:46:32.30,67716236, 0.04, -17.83, 279.53, 594.809997559, -35.3631518, 149.1644408, 0.754236519337, -0.0998574048281, -0.118606984615, -0.638034641743
2019-04-03 19:46:32.39,67816196, 0.05, -17.83, 279.52, 594.859985352, -35.363151, 149.1644354, 0.754216015339, -0.0997717827559, -0.118689030409, -0.638056993484
2019-04-03 19:46:32.49,67916156, 0.07, -17.84, 279.52, 594.909973145, -35.3631503, 149.1644299, 0.754188835621, -0.0997320711613, -0.118836633861, -0.638067901134
2019-04-03 19:46:32.59,68016116, 0.08, -17.86, 279.51, 594.960021973, -35.3631496, 149.1644246, 0.754165768623, -0.0997197628021, -0.118968002498, -0.638072550297
2019-04-03 19:46:32.69,68116076, 0.09, -17.88, 279.51, 595.0, -35.3631488, 149.1644192, 0.75412940979, -0.099788941443, -0.119149371982, -0.638070881367
2019-04-03 19:46:32.79,68216036, 0.07, -17.89, 279.51, 595.049987793, -35.363148, 149.1644138, 0.754080891609, -0.0999796614051, -0.119155466557, -0.63809722662
2019-04-03 19:46:32.89,68315996, 0.05, -17.9, 279.5, 595.099975586, -35.3631473, 149.1644083, 0.754042685032, -0.100138098001, -0.119088158011, -0.638130068779
2019-04-03 19:46:32.99,68415956, 0.04, -17.89, 279.5, 595.150024414, -35.3631465, 149.164403, 0.754031896591, -0.100155055523, -0.11895827204, -0.638164460659
2019-04-03 19:46:33.09,68515916, 0.04, -17.85, 279.5, 595.200012207, -35.3631458, 149.1643976, 0.754053354263, -0.0999701321125, -0.118748158216, -0.638207137585
2019-04-03 19:46:33.19,68615876, 0.05, -17.83, 279.5, 595.25, -35.3631449, 149.1643923, 0.75407409668, -0.09976772964, -0.118651017547, -0.638232409954
2019-04-03 19:46:33.29,68715836, 0.07, -17.82, 279.5, 595.289978027, -35.3631443, 149.1643868, 0.754087030888, -0.0996098518372, -0.118700943887, -0.638232469559
2019-04-03 19:46:33.39,68815796, 0.1, -17.83, 279.49, 595.340026855, -35.3631435, 149.1643815, 0.754090726376, -0.0994634777308, -0.118925049901, -0.638209283352
2019-04-03 19:46:33.49,68915756, 0.13, -17.84, 279.49, 595.390014648, -35.3631428, 149.1643761, 0.754093825817, -0.0993392467499, -0.119076035917, -0.638196766376
2019-04-03 19:46:33.59,69015716, 0.13, -17.85, 279.49, 595.440002441, -35.3631419, 149.1643707, 0.754080533981, -0.0993450656533, -0.119184806943, -0.638191282749
2019-04-03 19:46:33.69,69115676, 0.13, -17.85, 279.49, 595.479980469, -35.3631412, 149.1643652, 0.754072070122, -0.0993824601173, -0.119145728648, -0.638202726841
2019-04-03 19:46:33.80,69216469, 0.11, -17.85, 279.49, 595.530029297, -35.3631405, 149.1643598, 0.754056632519, -0.0994793325663, -0.119077302516, -0.638218700886
2019-04-03 19:46:33.90,69316429, 0.1, -17.85, 279.49, 595.58001709, -35.3631398, 149.1643543, 0.754040420055, -0.0995577722788, -0.119024224579, -0.638235509396
2019-04-03 19:46:34.00,69416389, 0.08, -17.87, 279.49, 595.630004883, -35.3631389, 149.1643489, 0.753994226456, -0.0998414680362, -0.119061924517, -0.638238668442
2019-04-03 19:46:34.10,69516349, 0.07, -17.9, 279.49, 595.679992676, -35.3631382, 149.1643436, 0.753954648972, -0.100066535175, -0.119121477008, -0.638239085674
2019-04-03 19:46:34.20,69616309, 0.05, -17.91, 279.49, 595.719970703, -35.3631375, 149.1643383, 0.753925859928, -0.100193597376, -0.119126588106, -0.638252198696
2019-04-03 19:46:34.30,69716269, 0.06, -17.9, 279.48, 595.770019531, -35.3631367, 149.1643329, 0.753920674324, -0.100130200386, -0.119175635278, -0.63825917244
2019-04-03 19:46:34.40,69816229, 0.08, -17.9, 279.48, 595.820007324, -35.363136, 149.1643274, 0.753923535347, -0.0999668985605, -0.11923609674, -0.63827008009
2019-04-03 19:46:34.49,69916189, 0.1, -17.88, 279.47, 595.869995117, -35.3631351, 149.1643221, 0.753936946392, -0.099738098681, -0.119208790362, -0.638295173645
2019-04-03 19:46:34.59,70016149, 0.11, -17.86, 279.47, 595.909973145, -35.3631345, 149.1643166, 0.753935873508, -0.0996066555381, -0.119096018374, -0.63833796978
2019-04-03 19:46:34.69,70116109, 0.1, -17.85, 279.46, 595.960021973, -35.3631337, 149.1643111, 0.753909468651, -0.0996078401804, -0.118955351412, -0.638395190239
2019-04-03 19:46:34.79,70216069, 0.08, -17.84, 279.46, 596.010009766, -35.3631328, 149.1643058, 0.75387597084, -0.099651671946, -0.11879555136, -0.638457715511
2019-04-03 19:46:34.89,70316029, 0.07, -17.82, 279.45, 596.059997559, -35.3631321, 149.1643004, 0.753857135773, -0.0996143743396, -0.118641078472, -0.638514459133
2019-04-03 19:46:34.99,70415989, 0.07, -17.81, 279.45, 596.109985352, -35.3631314, 149.1642949, 0.753840684891, -0.0995841994882, -0.118525251746, -0.638560116291
2019-04-03 19:46:35.09,70515949, 0.06, -17.8, 279.44, 596.150024414, -35.3631307, 149.1642896, 0.753811597824, -0.099619962275, -0.118456862867, -0.638601541519
2019-04-03 19:46:35.19,70615909, 0.06, -17.81, 279.44, 596.200012207, -35.3631298, 149.1642842, 0.75376868248, -0.0997243598104, -0.118499852717, -0.638627886772
2019-04-03 19:46:35.29,70715869, 0.08, -17.83, 279.43, 596.25, -35.3631291, 149.1642788, 0.75374597311, -0.0996495261788, -0.118714295328, -0.63862657547
2019-04-03 19:46:35.39,70815829, 0.11, -17.85, 279.43, 596.299987793, -35.3631284, 149.1642733, 0.753719627857, -0.0995675995946, -0.119034454226, -0.638610899448
2019-04-03 19:46:35.49,70915789, 0.13, -17.85, 279.42, 596.349975586, -35.3631276, 149.164268, 0.753708720207, -0.0994624719024, -0.119178973138, -0.638613164425
2019-04-03 19:46:35.59,71015749, 0.12, -17.84, 279.42, 596.400024414, -35.3631269, 149.1642626, 0.753689527512, -0.0994639620185, -0.119020529091, -0.638665139675
2019-04-03 19:46:35.69,71115709, 0.09, -17.82, 279.42, 596.440002441, -35.363126, 149.1642571, 0.753659307957, -0.0995829477906, -0.118691436946, -0.638743460178
2019-04-03 19:46:35.79,71215669, 0.06, -17.8, 279.41, 596.489990234, -35.3631254, 149.1642518, 0.753635346889, -0.0996826216578, -0.118385672569, -0.638812959194
2019-04-03 19:46:35.90,71316462, 0.05, -17.8, 279.41, 596.539978027, -35.3631246, 149.1642463, 0.753617465496, -0.0997262001038, -0.118344753981, -0.638834834099
2019-04-03 19:46:36.00,71416422, 0.05, -17.83, 279.41, 596.590026855, -35.3631239, 149.1642408, 0.753575205803, -0.099887304008, -0.118518196046, -0.638827383518
2019-04-03 19:46:36.10,71516382, 0.03, -17.86, 279.41, 596.640014648, -35.363123, 149.1642355, 0.753510892391, -0.100181058049, -0.118645772338, -0.638833522797
2019-04-03 19:46:36.20,71616342, 0.01, -17.87, 279.4, 596.690002441, -35.3631223, 149.1642301, 0.753459393978, -0.100379832089, -0.118558526039, -0.638879299164
2019-04-03 19:46:36.30,71716302, 0.0, -17.85, 279.4, 596.729980469, -35.3631216, 149.1642247, 0.75343978405, -0.100342817605, -0.118430554867, -0.63893198967
2019-04-03 19:46:36.40,71816262, 0.02, -17.84, 279.39, 596.780029297, -35.3631208, 149.1642192, 0.753441274166, -0.100113250315, -0.118424199522, -0.638967394829
2019-04-03 19:46:36.50,71916222, 0.05, -17.81, 279.38, 596.83001709, -35.36312, 149.1642139, 0.753454089165, -0.0998226031661, -0.118404485285, -0.639001369476
2019-04-03 19:46:36.59,72016182, 0.06, -17.77, 279.38, 596.880004883, -35.3631193, 149.1642085, 0.753482103348, -0.0994802415371, -0.118183225393, -0.639062702656
2019-04-03 19:46:36.69,72116142, 0.09, -17.74, 279.37, 596.929992676, -35.3631186, 149.1642029, 0.75350266695, -0.0991619601846, -0.11808860302, -0.639105379581
2019-04-03 19:46:36.79,72216102, 0.1, -17.74, 279.37, 596.969970703, -35.3631178, 149.1641976, 0.753491044044, -0.0990510731936, -0.118187040091, -0.639118075371
2019-04-03 19:46:36.89,72316062, 0.12, -17.76, 279.36, 597.020019531, -35.363117, 149.1641922, 0.753461897373, -0.0990683212876, -0.118415519595, -0.639107525349
2019-04-03 19:46:36.99,72416022, 0.13, -17.78, 279.36, 597.070007324, -35.3631163, 149.1641867, 0.753440141678, -0.0991107672453, -0.118658959866, -0.639081478119
2019-04-03 19:46:37.09,72515982, 0.14, -17.8, 279.36, 597.119995117, -35.3631156, 149.1641814, 0.753428041935, -0.0991807952523, -0.118785463274, -0.639061331749
2019-04-03 19:46:37.19,72615942, 0.14, -17.83, 279.36, 597.16998291, -35.3631148, 149.164176, 0.753400504589, -0.0993620380759, -0.118986584246, -0.639028191566
2019-04-03 19:46:37.29,72715902, 0.13, -17.85, 279.37, 597.210021973, -35.3631141, 149.1641706, 0.753382027149, -0.0995132476091, -0.119099676609, -0.639005422592
2019-04-03 19:46:37.39,72815862, 0.13, -17.84, 279.37, 597.260009766, -35.3631132, 149.1641651, 0.753400266171, -0.0994780734181, -0.11899651587, -0.639008641243
2019-04-03 19:46:37.49,72915822, 0.12, -17.81, 279.37, 597.309997559, -35.3631126, 149.1641598, 0.753436625004, -0.0993382707238, -0.118788301945, -0.639026284218
2019-04-03 19:46:37.59,73015782, 0.12, -17.79, 279.37, 597.359985352, -35.3631118, 149.1641544, 0.753468513489, -0.0991989821196, -0.118637040257, -0.639038383961
2019-04-03 19:46:37.69,73115742, 0.14, -17.78, 279.37, 597.409973145, -35.3631109, 149.1641489, 0.753487050533, -0.0990617647767, -0.118683323264, -0.639029204845
2019-04-03 19:46:37.79,73215702, 0.15, -17.8, 279.37, 597.450012207, -35.3631102, 149.1641436, 0.753465056419, -0.0990855693817, -0.118906870484, -0.639009952545
2019-04-03 19:46:37.89,73315662, 0.15, -17.82, 279.36, 597.5, -35.3631095, 149.1641382, 0.753420472145, -0.0992373079062, -0.11897033453, -0.639027118683
2019-04-03 19:46:38.00,73416455, 0.12, -17.82, 279.36, 597.549987793, -35.3631088, 149.1641326, 0.753370940685, -0.0994333401322, -0.118795290589, -0.639087617397
2019-04-03 19:46:38.10,73516415, 0.09, -17.81, 279.35, 597.599975586, -35.3631079, 149.1641273, 0.753331959248, -0.0995581299067, -0.118543252349, -0.639160871506
2019-04-03 19:46:38.20,73616375, 0.08, -17.78, 279.35, 597.640014648, -35.3631072, 149.1641219, 0.753324687481, -0.0994831770658, -0.118341743946, -0.639218509197
2019-04-03 19:46:38.30,73716335, 0.1, -17.76, 279.35, 597.690002441, -35.3631065, 149.1641165, 0.753345787525, -0.0992353335023, -0.118291474879, -0.639241397381
2019-04-03 19:46:38.40,73816295, 0.13, -17.76, 279.34, 597.739990234, -35.3631058, 149.164111, 0.753352880478, -0.0990296304226, -0.118437245488, -0.639237999916
2019-04-03 19:46:38.50,73916255, 0.15, -17.78, 279.34, 597.789978027, -35.363105, 149.1641057, 0.753328561783, -0.0990132167935, -0.11868236959, -0.639223754406
2019-04-03 19:46:38.60,74016215, 0.16, -17.8, 279.34, 597.840026855, -35.3631042, 149.1641003, 0.753299117088, -0.0990499854088, -0.118892863393, -0.639213621616
2019-04-03 19:46:38.69,74116175, 0.17, -17.8, 279.33, 597.880004883, -35.3631035, 149.1640948, 0.753292143345, -0.0990189015865, -0.118931002915, -0.639219582081
2019-04-03 19:46:38.79,74216135, 0.17, -17.79, 279.33, 597.929992676, -35.3631028, 149.1640895, 0.753295481205, -0.0989644378424, -0.118885986507, -0.639232456684
2019-04-03 19:46:38.89,74316095, 0.17, -17.79, 279.33, 597.979980469, -35.363102, 149.1640841, 0.753292143345, -0.0989530533552, -0.118896633387, -0.639236152172
2019-04-03 19:46:38.99,74416055, 0.18, -17.78, 279.33, 598.030029297, -35.3631012, 149.1640787, 0.75330978632, -0.0988542512059, -0.118872009218, -0.639235258102
2019-04-03 19:46:39.09,74516015, 0.19, -17.77, 279.33, 598.070007324, -35.3631005, 149.1640732, 0.753329098225, -0.0987510532141, -0.118850544095, -0.639232397079
2019-04-03 19:46:39.19,74615975, 0.19, -17.79, 279.33, 598.119995117, -35.3630997, 149.1640679, 0.753330051899, -0.0987712740898, -0.118989825249, -0.639202237129
2019-04-03 19:46:39.29,74715935, 0.21, -17.82, 279.34, 598.16998291, -35.363099, 149.1640625, 0.753318309784, -0.0988474264741, -0.11930500716, -0.639145553112
2019-04-03 19:46:39.39,74815895, 0.21, -17.85, 279.34, 598.219970703, -35.3630981, 149.164057, 0.753301560879, -0.0990053340793, -0.119518510997, -0.639100968838
2019-04-03 19:46:39.49,74915855, 0.19, -17.86, 279.34, 598.270019531, -35.3630974, 149.1640516, 0.75329387188, -0.0991711318493, -0.119450524449, -0.639097094536
2019-04-03 19:46:39.59,75015815, 0.15, -17.85, 279.34, 598.309997559, -35.3630967, 149.1640463, 0.753280520439, -0.099386677146, -0.119136497378, -0.639137923717
2019-04-03 19:46:39.69,75115775, 0.12, -17.83, 279.35, 598.359985352, -35.363096, 149.1640409, 0.753276526928, -0.0995189920068, -0.118862397969, -0.639173090458
2019-04-03 19:46:39.79,75215735, 0.12, -17.82, 279.35, 598.409973145, -35.3630951, 149.1640354, 0.753288447857, -0.0994840934873, -0.11881711334, -0.639172852039
2019-04-03 19:46:39.89,75315695, 0.13, -17.83, 279.35, 598.460021973, -35.3630944, 149.1640301, 0.753292858601, -0.0994326025248, -0.118942305446, -0.639152467251
2019-04-03 19:46:40.00,75416488, 0.15, -17.84, 279.35, 598.510009766, -35.3630937, 149.1640247, 0.75329965353, -0.0993249118328, -0.119106374681, -0.639130592346
2019-04-03 19:46:40.10,75516448, 0.17, -17.82, 279.34, 598.549987793, -35.3630929, 149.1640193, 0.753331005573, -0.0990988239646, -0.119145177305, -0.63912153244
2019-04-03 19:46:40.20,75616408, 0.18, -17.82, 279.34, 598.599975586, -35.3630921, 149.1640138, 0.753342926502, -0.0989991351962, -0.119140684605, -0.639123737812
2019-04-03 19:46:40.30,75716368, 0.18, -17.82, 279.34, 598.650024414, -35.3630914, 149.1640085, 0.753336191177, -0.0990042313933, -0.119157515466, -0.639127731323
2019-04-03 19:46:40.40,75816328, 0.17, -17.83, 279.34, 598.700012207, -35.3630907, 149.1640031, 0.753301680088, -0.0991764739156, -0.119121208787, -0.63914847374
2019-04-03 19:46:40.50,75916288, 0.13, -17.84, 279.34, 598.75, -35.3630899, 149.1639976, 0.753243923187, -0.0994885116816, -0.119031868875, -0.639184713364
2019-04-03 19:46:40.60,76016248, 0.09, -17.84, 279.34, 598.789978027, -35.363089, 149.1639923, 0.753186106682, -0.0997936949134, -0.11874987185, -0.639257669449
2019-04-03 19:46:40.70,76116208, 0.06, -17.84, 279.33, 598.840026855, -35.3630883, 149.1639869, 0.753141820431, -0.0999662652612, -0.118615858257, -0.639307796955
2019-04-03 19:46:40.79,76216168, 0.06, -17.86, 279.33, 598.890014648, -35.3630876, 149.1639815, 0.753090679646, -0.100056730211, -0.118708394468, -0.639336705208
2019-04-03 19:46:40.89,76316128, 0.08, -17.86, 279.32, 598.940002441, -35.3630869, 149.163976, 0.753060638905, -0.0999222695827, -0.118828713894, -0.63937073946
2019-04-03 19:46:40.99,76416088, 0.11, -17.85, 279.31, 598.989990234, -35.363086, 149.1639707, 0.753038942814, -0.099706158042, -0.118957385421, -0.639406144619
2019-04-03 19:46:41.09,76516048, 0.13, -17.84, 279.3, 599.030029297, -35.3630853, 149.1639653, 0.753017485142, -0.0995742753148, -0.118968784809, -0.639449834824
2019-04-03 19:46:41.19,76616008, 0.13, -17.85, 279.29, 599.08001709, -35.3630846, 149.1639598, 0.752978444099, -0.0995906963944, -0.118963167071, -0.639494359493
2019-04-03 19:46:41.29,76715968, 0.11, -17.84, 279.29, 599.130004883, -35.3630838, 149.1639545, 0.752936601639, -0.0996588692069, -0.118864372373, -0.639551341534
2019-04-03 19:46:41.39,76815928, 0.1, -17.84, 279.28, 599.179992676, -35.3630831, 149.1639491, 0.752902925014, -0.0997249335051, -0.118741609156, -0.639603495598
2019-04-03 19:46:41.49,76915888, 0.1, -17.86, 279.28, 599.219970703, -35.3630822, 149.1639437, 0.752874314785, -0.0998009294271, -0.118902459741, -0.639595389366
2019-04-03 19:46:41.59,77015848, 0.14, -17.88, 279.28, 599.270019531, -35.3630816, 149.1639382, 0.752875566483, -0.0997107177973, -0.119235403836, -0.63954603672
2019-04-03 19:46:41.69,77115808, 0.18, -17.87, 279.28, 599.320007324, -35.3630808, 149.1639329, 0.752925753593, -0.0993696153164, -0.119382873178, -0.63951253891
2019-04-03 19:46:41.79,77215768, 0.2, -17.83, 279.28, 599.369995117, -35.3630801, 149.1639275, 0.752989947796, -0.099021486938, -0.119254671037, -0.639514863491
2019-04-03 19:46:41.89,77315728, 0.21, -17.8, 279.28, 599.409973145, -35.3630792, 149.163922, 0.753039062023, -0.098804295063, -0.119073882699, -0.639524281025
2019-04-03 19:46:41.99,77415688, 0.17, -17.81, 279.29, 599.460021973, -35.3630786, 149.1639166, 0.753010749817, -0.099104873836, -0.119001843035, -0.639524519444
2019-04-03 19:46:42.10,77516481, 0.14, -17.87, 279.29, 599.510009766, -35.3630778, 149.1639112, 0.752940654755, -0.0996628403664, -0.119181372225, -0.639486908913
2019-04-03 19:46:42.20,77616441, 0.12, -17.91, 279.29, 599.559997559, -35.3630769, 149.1639057, 0.752902209759, -0.0999969765544, -0.119327671826, -0.639452755451
2019-04-03 19:46:42.30,77716401, 0.11, -17.92, 279.29, 599.609985352, -35.3630762, 149.1639004, 0.752895653248, -0.100098162889, -0.119397096336, -0.639431715012
2019-04-03 19:46:42.40,77816361, 0.12, -17.91, 279.3, 599.650024414, -35.3630755, 149.163895, 0.752921462059, -0.0999903604388, -0.119306541979, -0.639435112476
2019-04-03 19:46:42.50,77916321, 0.12, -17.86, 279.29, 599.700012207, -35.3630748, 149.1638896, 0.752959787846, -0.0997583195567, -0.119022600353, -0.639479100704
2019-04-03 19:46:42.60,78016281, 0.11, -17.82, 279.29, 599.75, -35.363074, 149.1638841, 0.75298511982, -0.0995559543371, -0.118677847087, -0.639544844627
2019-04-03 19:46:42.70,78116241, 0.11, -17.77, 279.29, 599.799987793, -35.3630732, 149.1638788, 0.753012537956, -0.0993143394589, -0.118364326656, -0.639608204365
2019-04-03 19:46:42.80,78216201, 0.11, -17.75, 279.28, 599.849975586, -35.3630725, 149.1638734, 0.75301194191, -0.0991713479161, -0.118293434381, -0.63964420557
2019-04-03 19:46:42.89,78316161, 0.11, -17.77, 279.28, 599.900024414, -35.3630718, 149.1638679, 0.752959430218, -0.0992820337415, -0.118339978158, -0.63968026638
2019-04-03 19:46:42.99,78416121, 0.1, -17.79, 279.27, 599.940002441, -35.363071, 149.1638625, 0.752891302109, -0.0994788259268, -0.11841814965, -0.639715433121
2019-04-03 19:46:43.09,78516081, 0.09, -17.8, 279.27, 599.989990234, -35.3630701, 149.1638572, 0.752834677696, -0.0996279418468, -0.118438191712, -0.639755129814
2019-04-03 19:46:43.19,78616041, 0.08, -17.8, 279.26, 600.039978027, -35.3630695, 149.1638518, 0.752797245979, -0.09968226403, -0.118367061019, -0.639803886414
2019-04-03 19:46:43.29,78716001, 0.06, -17.79, 279.25, 600.090026855, -35.3630687, 149.1638463, 0.752762794495, -0.0997646301985, -0.118194140494, -0.639863550663
2019-04-03 19:46:43.39,78815961, 0.04, -17.8, 279.25, 600.140014648, -35.363068, 149.163841, 0.752724170685, -0.0999183431268, -0.118143551052, -0.639894366264
2019-04-03 19:46:43.49,78915921, 0.03, -17.82, 279.25, 600.179992676, -35.3630671, 149.1638356, 0.752683758736, -0.100084640086, -0.118240848184, -0.639897882938
2019-04-03 19:46:43.59,79015881, 0.03, -17.83, 279.25, 600.229980469, -35.3630664, 149.1638302, 0.752667307854, -0.100151732564, -0.118292473257, -0.639897227287
2019-04-03 19:46:43.69,79115841, 0.04, -17.82, 279.25, 600.280029297, -35.3630657, 149.1638247, 0.752680778503, -0.100061230361, -0.118310548365, -0.639892220497
2019-04-03 19:46:43.79,79215801, 0.07, -17.82, 279.25, 600.33001709, -35.363065, 149.1638194, 0.752702772617, -0.0999161154032, -0.118453025818, -0.639862656593
2019-04-03 19:46:43.89,79315761, 0.1, -17.83, 279.25, 600.369995117, -35.3630641, 149.163814, 0.752726316452, -0.099735237658, -0.118651799858, -0.639826357365
2019-04-03 19:46:43.99,79415721, 0.12, -17.83, 279.25, 600.41998291, -35.3630634, 149.1638084, 0.752740800381, -0.0995937287807, -0.118764683604, -0.63981038332
2019-04-03 19:46:44.09,79515681, 0.11, -17.82, 279.25, 600.469970703, -35.3630627, 149.1638031, 0.752742111683, -0.0995521992445, -0.118660435081, -0.639834702015
2019-04-03 19:46:44.20,79616474, 0.11, -17.81, 279.25, 600.520019531, -35.363062, 149.1637977, 0.752733588219, -0.0995777770877, -0.118585281074, -0.639854669571
2019-04-03 19:46:44.30,79716434, 0.11, -17.84, 279.25, 600.570007324, -35.3630612, 149.1637922, 0.752708017826, -0.099691554904, -0.118766374886, -0.639833390713
2019-04-03 19:46:44.40,79816394, 0.11, -17.84, 279.25, 600.609985352, -35.3630604, 149.1637869, 0.75270152092, -0.0997578278184, -0.118796557188, -0.639825165272
2019-04-03 19:46:44.50,79916354, 0.08, -17.84, 279.25, 600.659973145, -35.3630597, 149.1637815, 0.75270152092, -0.0998996347189, -0.118616871536, -0.639836370945
2019-04-03 19:46:44.60,80016314, 0.06, -17.82, 279.25, 600.710021973, -35.363059, 149.1637761, 0.752724647522, -0.0999377518892, -0.118364192545, -0.639850020409
2019-04-03 19:46:44.70,80116274, 0.06, -17.8, 279.26, 600.760009766, -35.3630582, 149.1637706, 0.752771258354, -0.0998125523329, -0.118277482688, -0.639830708504
2019-04-03 19:46:44.80,80216234, 0.09, -17.78, 279.26, 600.809997559, -35.3630574, 149.1637653, 0.752841770649, -0.0995023176074, -0.118325062096, -0.639787256718
2019-04-03 19:46:44.89,80316194, 0.12, -17.79, 279.27, 600.859985352, -35.3630567, 149.1637597, 0.752880632877, -0.0993381440639, -0.118521519005, -0.63973069191
2019-04-03 19:46:44.99,80416154, 0.12, -17.81, 279.27, 600.900024414, -35.363056, 149.1637543, 0.752872526646, -0.099471591413, -0.118645392358, -0.639696538448
2019-04-03 19:46:45.09,80516114, 0.11, -17.84, 279.27, 600.950012207, -35.3630552, 149.163749, 0.752851366997, -0.0996720418334, -0.11886074394, -0.639650225639
