Start,TimeUS,Roll,Pitch,Yaw,Alt,Lat,Lng,Q1,Q2,Q3,Q4
2019-04-03 21:29:22.00,40816167, 0.0, 0.0, 353.0, 584.090026855, -35.363261, 149.1652299, 0.998134791851, 0.0, 0.0, -0.0610485821962
2019-04-03 21:29:22.11,40935286, 0.0, 0.0, 353.0, 584.090026855, -35.363261, 149.1652299, 0.998134791851, 0.0, 0.0, -0.0610485821962
2019-04-03 21:29:22.21,41035246, 0.0, 0.0, 353.0, 584.090026855, -35.363261, 149.1652299, 0.998134791851, 0.0, 0.0, -0.0610485821962
2019-04-03 21:29:22.31,41135206, 0.0, 0.0, 353.0, 584.090026855, -35.363261, 149.1652299, 0.998134791851, 0.0, 0.0, -0.0610485821962
2019-04-03 21:29:22.41,41235166, 0.0, 0.0, 353.0, 584.090026855, -35.363261, 149.1652299, 0.998134791851, 0.0, 0.0, -0.0610485821962
2019-04-03 21:29:22.51,41335126, 0.0, 0.0, 353.0, 584.090026855, -35.363261, 149.1652299, 0.998134791851, 0.0, 0.0, -0.0610485821962
2019-04-03 21:29:22.61,41435086, 0.0, 0.0, 353.0, 584.090026855, -35.363261, 149.1652299, 0.998134791851, 0.0, 0.0, -0.0610485821962
2019-04-03 21:29:22.71,41535046, 0.0, 0.0, 353.0, 584.090026855, -35.363261, 149.1652299, 0.998134791851, 0.0, 0.0, -0.0610485821962
2019-04-03 21:29:22.81,41635006, 0.0, 0.0, 353.0, 584.090026855, -35.363261, 149.1652299, 0.998134791851, 0.0, 0.0, -0.0610485821962
2019-04-03 21:29:22.91,41734966, 0.0, 0.0, 353.0, 584.090026855, -35.363261, 149.1652299, 0.998134791851, 0.0, 0.0, -0.0610485821962
2019-04-03 21:29:23.01,41834926, 0.0, 0.0, 353.0, 584.090026855, -35.363261, 149.1652299, 0.998134791851, 0.0, 0.0, -0.0610485821962
2019-04-03 21:29:23.11,41934886, 0.0, 0.0, 353.0, 584.090026855, -35.363261, 149.1652299, 0.998134791851, 0.0, 0.0, -0.0610485821962
2019-04-03 21:29:23.21,42034846, 0.0, 0.0, 353.0, 584.090026855, -35.363261, 149.1652299, 0.998134791851, 0.0, 0.0, -0.0610485821962
2019-04-03 21:29:23.31,42134806, 0.0, 0.0, 353.0, 584.090026855, -35.363261, 149.1652299, 0.998134791851, 0.0, 0.0, -0.0610485821962
2019-04-03 21:29:23.41,42234766, 0.0, 0.0, 353.0, 584.090026855, -35.363261, 149.1652299, 0.998134791851, 0.0, 0.0, -0.0610485821962
2019-04-03 21:29:23.51,42334726, 0.0, 0.0, 353.0, 584.090026855, -35.363261, 149.1652299, 0.998134791851, 0.0, 0.0, -0.0610485821962
2019-04-03 21:29:23.61,42434686, 0.0, 0.0, 353.0, 584.090026855, -35.363261, 149.1652299, 0.998134791851, 0.0, 0.0, -0.0610485821962
2019-04-03 21:29:23.71,42534646, 0.0, 0.0, 353.0, 584.090026855, -35.363261, 149.1652299, 0.998134791851, 0.0, 0.0, -0.0610485821962
2019-04-03 21:29:23.81,42634606, 0.0, 0.0, 353.0, 584.090026855, -35.363261, 149.1652299, 0.998134791851, 0.0, 0.0, -0.0610485821962
2019-04-03 21:29:23.91,42734566, 0.0, 0.0, 353.0, 584.090026855, -35.363261, 149.1652299, 0.998134791851, 0.0, 0.0, -0.0610485821962
2019-04-03 21:29:24.01,42834526, 0.0, 0.0, 353.0, 584.090026855, -35.363261, 149.1652299, 0.998134791851, 0.0, 0.0, -0.0610485821962
2019-04-03 21:29:24.11,42935319, 0.0, 0.0, 353.0, 584.090026855, -35.363261, 149.1652299, 0.998134791851, 0.0, 0.0, -0.0610485821962
2019-04-03 21:29:24.21,43035279, 0.0, 0.0, 353.0, 584.090026855, -35.363261, 149.1652299, 0.998134791851, 0.0, 0.0, -0.0610485821962
2019-04-03 21:29:24.31,43135239, 0.0, 0.0, 353.0, 584.090026855, -35.363261, 149.1652299, 0.998134791851, 0.0, 0.0, -0.0610485821962
2019-04-03 21:29:24.41,43235199, 0.0, 0.0, 353.0, 584.090026855, -35.363261, 149.1652299, 0.998134791851, 0.0, 0.0, -0.0610485821962
2019-04-03 21:29:24.51,43335159, 0.0, 0.0, 353.0, 584.090026855, -35.363261, 149.1652299, 0.998134791851, 0.0, 0.0, -0.0610485821962
2019-04-03 21:29:24.61,43435119, 0.0, 0.0, 353.0, 584.090026855, -35.363261, 149.1652299, 0.998134791851, 0.0, 0.0, -0.0610485821962
2019-04-03 21:29:24.71,43535079, 0.0, 0.0, 353.0, 584.090026855, -35.363261, 149.1652299, 0.998134791851, 0.0, 0.0, -0.0610485821962
2019-04-03 21:29:24.81,43635039, 0.0, 0.0, 353.0, 584.090026855, -35.363261, 149.1652299, 0.998134791851, 0.0, 0.0, -0.0610485821962
2019-04-03 21:29:24.91,43734999, 0.0, 0.0, 353.0, 584.090026855, -35.363261, 149.1652299, 0.998134791851, 0.0, 0.0, -0.0610485821962
2019-04-03 21:29:25.01,43834959, 0.0, 0.0, 353.0, 584.090026855, -35.363261, 149.1652299, 0.998134791851, 0.0, 0.0, -0.0610485821962
2019-04-03 21:29:25.11,43934919, 0.0, 0.0, 353.0, 584.090026855, -35.363261, 149.1652299, 0.998134791851, 0.0, 0.0, -0.0610485821962
2019-04-03 21:29:25.21,44034879, 0.0, 0.0, 353.0, 584.090026855, -35.363261, 149.1652299, 0.998134791851, 0.0, 0.0, -0.0610485821962
2019-04-03 21:29:25.31,44134839, 0.0, 0.0, 353.0, 584.090026855, -35.363261, 149.1652299, 0.998134791851, 0.0, 0.0, -0.0610485821962
2019-04-03 21:29:25.41,44234799, 0.0, 0.0, 353.0, 584.090026855, -35.363261, 149.1652299, 0.998134791851, 0.0, 0.0, -0.0610485821962
2019-04-03 21:29:25.51,44334759, 0.0, 0.0, 353.0, 584.090026855, -35.363261, 149.1652299, 0.998134791851, 0.0, 0.0, -0.0610485821962
2019-04-03 21:29:25.61,44434719, 0.0, 0.0, 353.0, 584.090026855, -35.363261, 149.1652299, 0.998134791851, 0.0, 0.0, -0.0610485821962
2019-04-03 21:29:25.71,44534679, 0.0, 0.0, 353.0, 584.090026855, -35.363261, 149.1652299, 0.998134791851, 0.0, 0.0, -0.0610485821962
2019-04-03 21:29:25.81,44634639, 0.0, 0.0, 353.0, 584.090026855, -35.363261, 149.1652299, 0.998134791851, 0.0, 0.0, -0.0610485821962
2019-04-03 21:29:25.91,44734599, 0.0, 0.0, 353.0, 584.090026855, -35.363261, 149.1652299, 0.998134791851, 0.0, 0.0, -0.0610485821962
2019-04-03 21:29:26.01,44834559, 0.0, 0.0, 353.0, 584.090026855, -35.363261, 149.1652299, 0.998134791851, 0.0, 0.0, -0.0610485821962
2019-04-03 21:29:26.11,44934519, 0.0, 0.0, 353.0, 584.090026855, -35.363261, 149.1652299, 0.998134791851, 0.0, 0.0, -0.0610485821962
2019-04-03 21:29:26.21,45035312, 0.0, 0.0, 353.0, 584.090026855, -35.363261, 149.1652299, 0.998134791851, 0.0, 0.0, -0.0610485821962
2019-04-03 21:29:26.31,45135272, 0.0, 0.0, 353.0, 584.090026855, -35.363261, 149.1652299, 0.998134791851, 0.0, 0.0, -0.0610485821962
2019-04-03 21:29:26.41,45235232, 0.0, 0.0, 353.0, 584.090026855, -35.363261, 149.1652299, 0.998134791851, 0.0, 0.0, -0.0610485821962
2019-04-03 21:29:26.51,45335192, 0.0, 0.0, 353.0, 584.090026855, -35.363261, 149.1652299, 0.998134791851, 0.0, 0.0, -0.0610485821962
2019-04-03 21:29:26.61,45435152, 0.0, 0.0, 353.0, 584.090026855, -35.363261, 149.1652299, 0.998134791851, 0.0, 0.0, -0.0610485821962
2019-04-03 21:29:26.71,45535112, 0.0, 0.0, 353.0, 584.090026855, -35.363261, 149.1652299, 0.998134791851, 0.0, 0.0, -0.0610485821962
2019-04-03 21:29:26.81,45635072, 0.0, 0.0, 353.0, 584.090026855, -35.363261, 149.1652299, 0.998134791851, 0.0, 0.0, -0.0610485821962
2019-04-03 21:29:26.91,45735032, 0.0, 0.0, 353.0, 584.090026855, -35.363261, 149.1652299, 0.998134791851, 0.0, 0.0, -0.0610485821962
2019-04-03 21:29:27.01,45834992, 0.0, 0.0, 353.0, 584.090026855, -35.363261, 149.1652299, 0.998134791851, 0.0, 0.0, -0.0610485821962
2019-04-03 21:29:27.11,45934952, 0.0, 0.0, 353.0, 584.090026855, -35.363261, 149.1652299, 0.998134791851, 0.0, 0.0, -0.0610485821962
2019-04-03 21:29:27.21,46034912, 0.0, 0.0, 353.0, 584.090026855, -35.363261, 149.1652299, 0.998134791851, 0.0, 0.0, -0.0610485821962
2019-04-03 21:29:27.31,46134872, 0.0, 0.0, 353.0, 584.090026855, -35.363261, 149.1652299, 0.998134791851, 0.0, 0.0, -0.0610485821962
2019-04-03 21:29:27.41,46234832, 0.0, 0.0, 353.0, 584.090026855, -35.363261, 149.1652299, 0.998134791851, 0.0, 0.0, -0.0610485821962
2019-04-03 21:29:27.51,46334792, 0.0, 0.0, 353.0, 584.090026855, -35.363261, 149.1652299, 0.998134791851, 0.0, 0.0, -0.0610485821962
2019-04-03 21:29:27.61,46434752, 0.0, 0.0, 353.0, 584.090026855, -35.363261, 149.1652299, 0.998134791851, 0.0, 0.0, -0.0610485821962
2019-04-03 21:29:27.71,46534712, 0.0, 0.0, 353.0, 584.090026855, -35.363261, 149.1652299, 0.998134791851, 0.0, 0.0, -0.0610485821962
2019-04-03 21:29:27.81,46634672, 0.0, 0.0, 353.0, 584.090026855, -35.363261, 149.1652299, 0.998134791851, 0.0, 0.0, -0.0610485821962
2019-04-03 21:29:27.91,46734632, 0.0, 0.0, 353.0, 584.090026855, -35.363261, 149.1652299, 0.998134791851, 0.0, 0.0, -0.0610485821962
2019-04-03 21:29:28.01,46834592, 0.0, 0.0, 353.0, 584.090026855, -35.363261, 149.1652299, 0.998134791851, 0.0, 0.0, -0.0610485821962
2019-04-03 21:29:28.11,46934552, 0.0, 0.0, 353.0, 584.090026855, -35.363261, 149.1652299, 0.998134791851, 0.0, 0.0, -0.0610485821962
2019-04-03 21:29:28.21,47034512, 0.0, 0.0, 353.0, 584.090026855, -35.363261, 149.1652299, 0.998134791851, 0.0, 0.0, -0.0610485821962
2019-04-03 21:29:28.31,47135305, 0.0, 0.0, 353.0, 584.090026855, -35.363261, 149.1652299, 0.998134791851, 0.0, 0.0, -0.0610485821962
2019-04-03 21:29:28.41,47235265, 0.0, 0.0, 353.0, 584.090026855, -35.363261, 149.1652299, 0.998134791851, 0.0, 0.0, -0.0610485821962
2019-04-03 21:29:28.51,47335225, 0.0, 0.0, 353.0, 584.090026855, -35.363261, 149.1652299, 0.998134791851, 0.0, 0.0, -0.0610485821962
2019-04-03 21:29:28.61,47435185, 0.0, 0.0, 353.0, 584.090026855, -35.363261, 149.1652299, 0.998134791851, 0.0, 0.0, -0.0610485821962
2019-04-03 21:29:28.71,47535145, 0.0, 0.0, 353.0, 584.090026855, -35.363261, 149.1652299, 0.998134791851, 0.0, 0.0, -0.0610485821962
2019-04-03 21:29:28.81,47635105, 0.0, 0.0, 353.0, 584.090026855, -35.363261, 149.1652299, 0.998134791851, 0.0, 0.0, -0.0610485821962
2019-04-03 21:29:28.91,47735065, 0.0, 0.0, 353.0, 584.090026855, -35.363261, 149.1652299, 0.998134791851, 0.0, 0.0, -0.0610485821962
2019-04-03 21:29:29.01,47835025, 0.0, 0.0, 353.0, 584.090026855, -35.363261, 149.1652299, 0.998134791851, 0.0, 0.0, -0.0610485821962
2019-04-03 21:29:29.11,47934985, 0.0, 0.0, 353.0, 584.090026855, -35.363261, 149.1652299, 0.998134791851, 0.0, 0.0, -0.0610485821962
2019-04-03 21:29:29.21,48034945, 0.0, 0.0, 353.0, 584.090026855, -35.363261, 149.1652299, 0.998134791851, 0.0, 0.0, -0.0610485821962
2019-04-03 21:29:29.31,48134905, 0.0, 0.0, 353.0, 584.090026855, -35.363261, 149.1652299, 0.998134791851, 0.0, 0.0, -0.0610485821962
2019-04-03 21:29:29.41,48234865, 0.0, 0.0, 353.0, 584.090026855, -35.363261, 149.1652299, 0.998134791851, 0.0, 0.0, -0.0610485821962
2019-04-03 21:29:29.51,48334825, 0.0, 0.0, 353.0, 584.090026855, -35.363261, 149.1652299, 0.998134791851, 0.0, 0.0, -0.0610485821962
2019-04-03 21:29:29.61,48434785, 0.0, 0.0, 353.0, 584.090026855, -35.363261, 149.1652299, 0.998134791851, 0.0, 0.0, -0.0610485821962
2019-04-03 21:29:29.71,48534745, 0.0, 0.0, 353.0, 584.090026855, -35.363261, 149.1652299, 0.998134791851, 0.0, 0.0, -0.0610485821962
2019-04-03 21:29:29.81,48634705, 0.0, 0.0, 353.0, 584.090026855, -35.363261, 149.1652299, 0.998134791851, 0.0, 0.0, -0.0610485821962
2019-04-03 21:29:29.91,48734665, 0.0, 0.0, 353.0, 584.090026855, -35.363261, 149.1652299, 0.998134791851, 0.0, 0.0, -0.0610485821962
2019-04-03 21:29:30.01,48834625, 0.0, 0.0, 353.0, 584.090026855, -35.363261, 149.1652299, 0.998134791851, 0.0, 0.0, -0.0610485821962
2019-04-03 21:29:30.11,48934585, 0.0, 0.0, 353.0, 584.090026855, -35.363261, 149.1652299, 0.998134791851, 0.0, 0.0, -0.0610485821962
2019-04-03 21:29:30.21,49034545, 0.0, 0.0, 353.0, 584.090026855, -35.363261, 149.1652299, 0.998134791851, 0.0, 0.0, -0.0610485821962
2019-04-03 21:29:30.31,49134505, 0.0, 0.0, 353.0, 584.090026855, -35.363261, 149.1652299, 0.998134791851, 0.0, 0.0, -0.0610485821962
2019-04-03 21:29:30.41,49235298, 0.0, 0.0, 353.0, 584.090026855, -35.363261, 149.1652299, 0.998134791851, 0.0, 0.0, -0.0610485821962
2019-04-03 21:29:30.51,49335258, 0.0, 0.0, 353.0, 584.090026855, -35.363261, 149.1652299, 0.998134791851, 0.0, 0.0, -0.0610485821962
2019-04-03 21:29:30.61,49435218, 0.0, 0.0, 353.0, 584.090026855, -35.363261, 149.1652299, 0.998134791851, 0.0, 0.0, -0.0610485821962
2019-04-03 21:29:30.71,49535178, 0.0, 0.0, 353.0, 584.090026855, -35.363261, 149.1652299, 0.998134791851, 0.0, 0.0, -0.0610485821962
2019-04-03 21:29:30.81,49635138, 0.0, 0.0, 353.0, 584.090026855, -35.363261, 149.1652299, 0.998134791851, 0.0, 0.0, -0.0610485821962
2019-04-03 21:29:30.91,49735098, 0.0, 0.0, 353.0, 584.090026855, -35.363261, 149.1652299, 0.998134791851, 0.0, 0.0, -0.0610485821962
2019-04-03 21:29:31.01,49835058, 0.0, 0.0, 353.0, 584.090026855, -35.363261, 149.1652299, 0.998134791851, 0.0, 0.0, -0.0610485821962
2019-04-03 21:29:31.11,49935018, 0.0, 0.0, 353.0, 584.090026855, -35.363261, 149.1652299, 0.998134791851, 0.0, 0.0, -0.0610485821962
2019-04-03 21:29:31.21,50034978, 0.0, 0.0, 353.0, 584.090026855, -35.363261, 149.1652299, 0.998134791851, 0.0, 0.0, -0.0610485821962
2019-04-03 21:29:31.31,50134938, 0.0, 0.0, 353.0, 584.090026855, -35.363261, 149.1652299, 0.998134791851, 0.0, 0.0, -0.0610485821962
2019-04-03 21:29:31.41,50234898, 0.0, 0.0, 353.0, 584.090026855, -35.363261, 149.1652299, 0.998134791851, 0.0, 0.0, -0.0610485821962
2019-04-03 21:29:31.51,50334858, 0.0, 0.0, 353.0, 584.090026855, -35.363261, 149.1652299, 0.998134791851, 0.0, 0.0, -0.0610485821962
2019-04-03 21:29:31.61,50434818, 0.0, 0.0, 353.0, 584.090026855, -35.363261, 149.1652299, 0.998134791851, 0.0, 0.0, -0.0610485821962
2019-04-03 21:29:31.71,50534778, 0.0, 0.0, 353.0, 584.090026855, -35.363261, 149.1652299, 0.998134791851, 0.0, 0.0, -0.0610485821962
2019-04-03 21:29:31.81,50634738, 0.0, 0.0, 353.0, 584.090026855, -35.363261, 149.1652299, 0.998134791851, 0.0, 0.0, -0.0610485821962
2019-04-03 21:29:33.71,52534811, 0.0, 0.0, 353.0, 584.090026855, -35.363261, 149.1652299, 0.998134791851, 0.0, 0.0, -0.0610485821962
2019-04-03 21:29:33.81,52634771, 0.0, 0.0, 353.0, 584.090026855, -35.363261, 149.1652299, 0.998134791851, 0.0, 0.0, -0.0610485821962
2019-04-03 21:29:33.91,52734731, 0.0, 0.0, 353.0, 584.090026855, -35.363261, 149.1652299, 0.998134791851, 0.0, 0.0, -0.0610485821962
2019-04-03 21:29:34.01,52834691, 0.0, 0.0, 353.0, 584.090026855, -35.363261, 149.1652299, 0.998134791851, 0.0, 0.0, -0.0610485821962
2019-04-03 21:29:34.11,52934651, 0.0, 0.0, 353.0, 584.090026855, -35.363261, 149.1652299, 0.998134791851, 0.0, 0.0, -0.0610485821962
2019-04-03 21:29:34.21,53034611, 0.0, 0.0, 353.0, 584.090026855, -35.363261, 149.1652299, 0.998134791851, 0.0, 0.0, -0.0610485821962
2019-04-03 21:29:34.31,53134571, 0.0, 0.0, 353.0, 584.090026855, -35.363261, 149.1652299, 0.998134791851, 0.0, 0.0, -0.0610485821962
2019-04-03 21:29:34.41,53234531, 0.0, 0.0, 353.0, 584.090026855, -35.363261, 149.1652299, 0.998134791851, 0.0, 0.0, -0.0610485821962
2019-04-03 21:29:34.51,53335324, 0.0, 0.0, 353.0, 584.090026855, -35.363261, 149.1652299, 0.998134791851, 0.0, 0.0, -0.0610485821962
2019-04-03 21:29:34.61,53435284, 0.0, 0.0, 353.0, 584.090026855, -35.363261, 149.1652299, 0.998134791851, 0.0, 0.0, -0.0610485821962
2019-04-03 21:29:34.71,53535244, 0.0, 0.0, 353.0, 584.090026855, -35.363261, 149.1652299, 0.998134791851, 0.0, 0.0, -0.0610485821962
2019-04-03 21:29:34.81,53635204, 0.0, 0.0, 353.0, 584.090026855, -35.363261, 149.1652299, 0.998134791851, 0.0, 0.0, -0.0610485821962
2019-04-03 21:29:34.91,53735164, 0.0, 0.0, 353.0, 584.090026855, -35.363261, 149.1652299, 0.998134791851, 0.0, 0.0, -0.0610485821962
2019-04-03 21:29:35.01,53835124, 0.0, 0.0, 353.0, 584.090026855, -35.363261, 149.1652299, 0.998134791851, 0.0, 0.0, -0.0610485821962
2019-04-03 21:29:35.11,53935084, 0.0, 0.0, 353.0, 584.090026855, -35.363261, 149.1652299, 0.998134791851, 0.0, 0.0, -0.0610485821962
2019-04-03 21:29:35.21,54035044, 0.0, 0.0, 353.0, 584.090026855, -35.363261, 149.1652299, 0.998134791851, 0.0, 0.0, -0.0610485821962
2019-04-03 21:29:35.31,54135004, 0.0, 0.0, 353.0, 584.090026855, -35.363261, 149.1652299, 0.998134791851, 0.0, 0.0, -0.0610485821962
2019-04-03 21:29:35.41,54234964, 0.0, 0.0, 353.0, 584.090026855, -35.363261, 149.1652299, 0.998134791851, 0.0, 0.0, -0.0610485821962
2019-04-03 21:29:35.51,54334924, 0.0, 0.0, 353.0, 584.090026855, -35.363261, 149.1652299, 0.998134791851, 0.0, 0.0, -0.0610485821962
2019-04-03 21:29:35.61,54434884, 0.0, 0.0, 353.0, 584.090026855, -35.363261, 149.1652299, 0.998134791851, 0.0, 0.0, -0.0610485821962
2019-04-03 21:29:35.71,54534844, 0.0, 0.0, 353.0, 584.090026855, -35.363261, 149.1652299, 0.998134791851, 0.0, 0.0, -0.0610485821962
2019-04-03 21:29:35.81,54634804, 0.0, 0.0, 353.0, 584.090026855, -35.363261, 149.1652299, 0.998134791851, 0.0, 0.0, -0.0610485821962
2019-04-03 21:29:35.91,54734764, 0.0, 0.0, 353.0, 584.090026855, -35.363261, 149.1652299, 0.998134791851, 0.0, 0.0, -0.0610485821962
2019-04-03 21:29:36.01,54834724, 0.0, 0.0, 353.0, 584.090026855, -35.363261, 149.1652299, 0.998134791851, 0.0, 0.0, -0.0610485821962
2019-04-03 21:29:36.11,54934684, 0.0, 0.0, 353.0, 584.090026855, -35.363261, 149.1652299, 0.998134791851, 0.0, 0.0, -0.0610485821962
2019-04-03 21:29:36.21,55034644, 0.0, 0.0, 353.0, 584.090026855, -35.363261, 149.1652299, 0.998134791851, 0.0, 0.0, -0.0610485821962
2019-04-03 21:29:36.31,55134604, 0.0, 0.0, 353.0, 584.090026855, -35.363261, 149.1652299, 0.998134791851, 0.0, 0.0, -0.0610485821962
2019-04-03 21:29:36.41,55234564, 0.0, 0.0, 353.0, 584.090026855, -35.363261, 149.1652299, 0.998134791851, 0.0, 0.0, -0.0610485821962
2019-04-03 21:29:36.51,55334524, 0.0, 0.0, 353.0, 584.090026855, -35.363261, 149.1652299, 0.998134791851, 0.0, 0.0, -0.0610485821962
2019-04-03 21:29:36.61,55435317, 0.0, 0.0, 353.0, 584.090026855, -35.363261, 149.1652299, 0.998134791851, 0.0, 0.0, -0.0610485821962
2019-04-03 21:29:36.71,55535277, 0.0, 0.0, 353.0, 584.090026855, -35.363261, 149.1652299, 0.998134791851, 0.0, 0.0, -0.0610485821962
2019-04-03 21:29:36.81,55635237, 0.0, 0.0, 353.0, 584.090026855, -35.363261, 149.1652299, 0.998134791851, 0.0, 0.0, -0.0610485821962
2019-04-03 21:29:36.91,55735197, 0.0, 0.0, 353.0, 584.090026855, -35.363261, 149.1652299, 0.998134791851, 0.0, 0.0, -0.0610485821962
2019-04-03 21:29:37.01,55835157, 0.0, 0.0, 353.0, 584.090026855, -35.363261, 149.1652299, 0.998134791851, 0.0, 0.0, -0.0610485821962
2019-04-03 21:29:37.11,55935117, 0.0, 0.0, 353.0, 584.090026855, -35.363261, 149.1652299, 0.998134791851, 0.0, 0.0, -0.0610485821962
2019-04-03 21:29:37.21,56035077, 0.0, 0.0, 353.0, 584.090026855, -35.363261, 149.1652299, 0.998134791851, 0.0, 0.0, -0.0610485821962
2019-04-03 21:29:37.31,56135037, 0.0, 0.0, 353.0, 584.090026855, -35.363261, 149.1652299, 0.998134791851, 0.0, 0.0, -0.0610485821962
2019-04-03 21:29:37.41,56234997, 0.0, 0.0, 353.0, 584.090026855, -35.363261, 149.1652299, 0.998134791851, 0.0, 0.0, -0.0610485821962
2019-04-03 21:29:37.51,56334957, 0.0, 0.0, 353.0, 584.090026855, -35.363261, 149.1652299, 0.998134791851, 0.0, 0.0, -0.0610485821962
2019-04-03 21:29:37.61,56434917, 0.0, 0.0, 353.0, 584.090026855, -35.363261, 149.1652299, 0.998134791851, 0.0, 0.0, -0.0610485821962
2019-04-03 21:29:37.71,56534877, 0.0, 0.0, 353.0, 584.090026855, -35.363261, 149.1652299, 0.998134791851, 0.0, 0.0, -0.0610485821962
2019-04-03 21:29:37.81,56634837, 0.0, 0.0, 353.0, 584.090026855, -35.363261, 149.1652299, 0.998134791851, 0.0, 0.0, -0.0610485821962
2019-04-03 21:29:37.91,56734797, 0.0, 0.0, 353.0, 584.090026855, -35.363261, 149.1652299, 0.998134791851, 0.0, 0.0, -0.0610485821962
2019-04-03 21:29:38.01,56834757, 0.0, 0.0, 353.0, 584.090026855, -35.363261, 149.1652299, 0.998134791851, 0.0, 0.0, -0.0610485821962
2019-04-03 21:29:38.11,56934717, 0.0, 0.0, 353.0, 584.090026855, -35.363261, 149.1652299, 0.998134791851, 0.0, 0.0, -0.0610485821962
2019-04-03 21:29:38.21,57034677, 0.0, 0.0, 353.0, 584.090026855, -35.363261, 149.1652299, 0.998134791851, 0.0, 0.0, -0.0610485821962
2019-04-03 21:29:38.31,57134637, 0.0, 0.0, 353.0, 584.090026855, -35.363261, 149.1652299, 0.998134791851, 0.0, 0.0, -0.0610485821962
2019-04-03 21:29:38.41,57234597, 0.0, 0.0, 353.0, 584.090026855, -35.363261, 149.1652299, 0.998134791851, 0.0, 0.0, -0.0610485821962
2019-04-03 21:29:38.51,57334557, 0.0, 0.0, 353.0, 584.090026855, -35.363261, 149.1652299, 0.998134791851, 0.0, 0.0, -0.0610485821962
2019-04-03 21:29:38.61,57434517, 0.0, 0.0, 353.0, 584.090026855, -35.363261, 149.1652299, 0.998134791851, 0.0, 0.0, -0.0610485821962
2019-04-03 21:29:38.71,57535310, 0.0, 0.0, 353.0, 584.090026855, -35.363261, 149.1652299, 0.998134791851, 0.0, 0.0, -0.0610485821962
2019-04-03 21:29:38.81,57635270, 0.0, 0.0, 353.0, 584.090026855, -35.363261, 149.1652299, 0.998134791851, 0.0, 0.0, -0.0610485821962
2019-04-03 21:29:38.91,57735230, 0.0, 0.0, 353.0, 584.090026855, -35.363261, 149.1652299, 0.998134791851, 0.0, 0.0, -0.0610485821962
2019-04-03 21:29:39.01,57835190, 0.0, 0.0, 353.0, 584.090026855, -35.363261, 149.1652299, 0.998134791851, 0.0, 0.0, -0.0610485821962
2019-04-03 21:29:39.11,57935150, 0.0, 0.0, 353.0, 584.090026855, -35.363261, 149.1652299, 0.998134791851, 0.0, 0.0, -0.0610485821962
2019-04-03 21:29:39.21,58035110, 0.0, 0.0, 353.0, 584.090026855, -35.363261, 149.1652299, 0.998134791851, 0.0, 0.0, -0.061048604548
2019-04-03 21:29:39.31,58135070, 0.0, 0.0, 353.0, 584.090026855, -35.363261, 149.1652299, 0.998134791851, 0.0, 0.0, -0.0610486753285
2019-04-03 21:29:39.41,58235030, 0.0, 0.0, 353.0, 584.090026855, -35.363261, 149.1652299, 0.998134791851, 0.0, 0.0, -0.0610486641526
2019-04-03 21:29:39.51,58334990, 0.0, 0.0, 353.0, 584.090026855, -35.363261, 149.1652299, 0.998134791851, 0.0, 0.0, -0.0610486753285
2019-04-03 21:29:39.61,58434950, 0.0, 0.0, 353.0, 584.090026855, -35.363261, 149.1652299, 0.998134791851, 0.0, 0.0, -0.0610486753285
2019-04-03 21:29:39.71,58534910, 0.0, 0.0, 353.0, 584.090026855, -35.363261, 149.1652299, 0.998134791851, 0.0, 0.0, -0.0610486753285
2019-04-03 21:29:39.81,58634870, 0.0, 0.0, 353.0, 584.090026855, -35.363261, 149.1652299, 0.998134791851, 0.0, 0.0, -0.0610486753285
2019-04-03 21:29:39.91,58734830, 0.0, 0.0, 353.0, 584.090026855, -35.363261, 149.1652299, 0.998134791851, 0.0, 0.0, -0.0610486753285
2019-04-03 21:29:40.01,58834790, 0.0, 0.0, 353.0, 584.090026855, -35.363261, 149.1652299, 0.998134791851, 0.0, 0.0, -0.0610486753285
2019-04-03 21:29:40.11,58934750, 0.0, 0.0, 353.0, 584.099975586, -35.363261, 149.1652299, 0.998134791851, 0.0, 0.0, -0.0610486753285
2019-04-03 21:29:40.21,59034710, 0.0, 0.0, 353.0, 584.109985352, -35.363261, 149.1652299, 0.998134791851, 0.0, 0.0, -0.0610486753285
2019-04-03 21:29:40.31,59134670, 0.0, 0.0, 353.0, 584.119995117, -35.363261, 149.1652299, 0.998134791851, 0.0, 0.0, -0.0610486753285
2019-04-03 21:29:40.41,59234630, 0.0, 0.0, 353.0, 584.150024414, -35.363261, 149.1652299, 0.998134791851, 0.0, 0.0, -0.0610486753285
2019-04-03 21:29:40.51,59334590, 0.0, 0.0, 353.0, 584.179992676, -35.363261, 149.1652299, 0.998134791851, 0.0, 0.0, -0.0610486753285
2019-04-03 21:29:40.61,59434550, 0.0, 0.0, 352.99, 584.219970703, -35.363261, 149.1652299, 0.998134791851, -1.53975433932e-05, -9.15393320611e-06, -0.0610489472747
2019-04-03 21:29:40.71,59534510, -0.04, -0.03, 352.99, 584.280029297, -35.363261, 149.1652299, 0.998134315014, -0.000406349805417, -0.000258311833022, -0.0610551647842
2019-04-03 21:29:40.81,59635303, -0.1, -0.08, 352.99, 584.409973145, -35.363261, 149.1652299, 0.998132944107, -0.000973044894636, -0.000717489805538, -0.0610668249428
2019-04-03 21:29:40.91,59735263, -0.16, -0.13, 352.99, 584.559997559, -35.363261, 149.1652299, 0.998130857944, -0.00146508181933, -0.00106158747803, -0.0610862895846
2019-04-03 21:29:41.01,59835223, -0.18, -0.15, 352.99, 584.719970703, -35.363261, 149.1652299, 0.998128950596, -0.00170378072653, -0.00124390178826, -0.0611082240939
2019-04-03 21:29:41.11,59935183, -0.17, -0.14, 352.99, 584.869995117, -35.363261, 149.1652299, 0.998128056526, -0.00159183121286, -0.00119296333287, -0.0611266121268
2019-04-03 21:29:41.21,60035143, -0.14, -0.12, 352.98, 585.020019531, -35.363261, 149.1652299, 0.998127758503, -0.00129670230672, -0.000977024086751, -0.0611428618431
2019-04-03 21:29:41.31,60135103, -0.12, -0.07, 352.98, 585.16998291, -35.363261, 149.1652299, 0.998127758503, -0.00110301899258, -0.000624634616543, -0.0611513219774
2019-04-03 21:29:41.41,60235063, -0.11, -0.02, 352.98, 585.33001709, -35.363261, 149.1652299, 0.998127818108, -0.00103254418354, -0.000159963936312, -0.0611535795033
2019-04-03 21:29:41.51,60335023, -0.12, 0.01, 352.98, 585.5, -35.363261, 149.1652299, 0.998127281666, -0.00107824557927, 0.000186539647984, -0.0611615851521
2019-04-03 21:29:41.61,60434983, -0.12, 0.02, 352.98, 585.66998291, -35.363261, 149.1652299, 0.998126506805, -0.00103892688639, 0.000272873032372, -0.0611750520766
2019-04-03 21:29:41.71,60534943, -0.1, 0.01, 352.98, 585.849975586, -35.363261, 149.1652298, 0.998126149178, -0.000870826654136, 0.000191857412574, -0.0611839368939
2019-04-03 21:29:41.81,60634903, -0.06, -0.01, 352.98, 586.030029297, -35.363261, 149.1652298, 0.998125851154, -0.000574379693717, -7.57751986384e-05, -0.0611925199628
2019-04-03 21:29:41.91,60734863, -0.02, -0.05, 352.98, 586.219970703, -35.363261, 149.1652298, 0.998125851154, -0.000206953583984, -0.000432944972999, -0.0611933209002
2019-04-03 21:29:42.01,60834823, 0.0, -0.06, 352.98, 586.409973145, -35.363261, 149.1652298, 0.998125851154, -3.68812288798e-05, -0.00060497818049, -0.061191726476
2019-04-03 21:29:42.11,60934783, -0.01, -0.04, 352.98, 586.599975586, -35.363261, 149.1652298, 0.998126208782, -0.000130524000269, -0.000421599717811, -0.0611880756915
2019-04-03 21:29:42.21,61034743, -0.03, -0.01, 352.98, 586.799987793, -35.363261, 149.1652298, 0.998125970364, -0.000308279355522, -6.99600132066e-05, -0.0611923076212
2019-04-03 21:29:42.31,61134703, -0.03, 0.02, 352.98, 587.0, -35.363261, 149.1652298, 0.998125374317, -0.000261235545622, 0.000229674507864, -0.0612016804516
2019-04-03 21:29:42.41,61234663, -0.02, 0.03, 352.98, 587.200012207, -35.3632609, 149.1652298, 0.998125314713, -0.000205882461159, 0.000348630972439, -0.0612026713789
2019-04-03 21:29:42.51,61334623, 0.0, 0.02, 352.98, 587.400024414, -35.3632609, 149.1652298, 0.998125314713, 3.57129356416e-05, 0.000231617785175, -0.0612033233047
2019-04-03 21:29:42.61,61434583, 0.03, -0.01, 352.98, 587.609985352, -35.3632609, 149.1652298, 0.998125314713, 0.000317241967423, -0.000170778061147, -0.061202365905
2019-04-03 21:29:42.71,61534543, 0.05, -0.03, 352.98, 587.809997559, -35.3632609, 149.1652298, 0.99812489748, 0.00048831035383, -0.000341151200701, -0.0612077154219
2019-04-03 21:29:42.81,61634503, 0.06, -0.01, 352.97, 588.020019531, -35.3632609, 149.1652298, 0.998123824596, 0.000518695975188, -0.000165485471371, -0.0612254999578
2019-04-03 21:29:42.91,61735296, 0.04, 0.0, 352.97, 588.229980469, -35.3632609, 149.1652298, 0.998122811317, 0.00041594268987, -4.45581026725e-05, -0.0612423941493
2019-04-03 21:29:43.01,61835256, 0.0, -0.01, 352.97, 588.440002441, -35.3632609, 149.1652297, 0.998122036457, 2.15875243157e-05, -0.00015236416948, -0.0612565912306
2019-04-03 21:29:43.11,61935216, -0.03, -0.02, 352.97, 588.650024414, -35.3632609, 149.1652297, 0.998121321201, -0.000304354645777, -0.00022646135767, -0.0612669922411
2019-04-03 21:29:43.21,62035176, -0.05, -0.02, 352.97, 588.869995117, -35.3632609, 149.1652297, 0.998120605946, -0.000483280047774, -0.000220656045713, -0.0612781979144
2019-04-03 21:29:43.31,62135136, -0.05, -0.02, 352.97, 589.070007324, -35.3632609, 149.1652297, 0.998119711876, -0.000495006155688, -0.000169245555298, -0.0612925216556
2019-04-03 21:29:43.41,62235096, -0.04, -0.02, 352.96, 589.270019531, -35.3632609, 149.1652297, 0.998118579388, -0.000392224319512, -0.000163677235832, -0.0613121502101
2019-04-03 21:29:43.51,62335056, -0.02, 0.0, 352.96, 589.460021973, -35.3632609, 149.1652297, 0.998117148876, -0.000259495544014, -5.7040106185e-05, -0.0613357722759
2019-04-03 21:29:43.61,62435016, -0.01, 0.0, 352.96, 589.640014648, -35.3632609, 149.1652297, 0.998115837574, -0.000106198443973, 7.71258237364e-06, -0.061358332634
2019-04-03 21:29:43.71,62534976, 0.0, 0.0, 352.96, 589.809997559, -35.3632609, 149.1652297, 0.998114645481, 1.25663082144e-05, -3.91219964513e-06, -0.0613770522177
2019-04-03 21:29:43.81,62634936, -0.03, -0.03, 352.96, 589.969970703, -35.3632609, 149.1652297, 0.998113453388, -0.000334492942784, -0.000285323039861, -0.0613953582942
2019-04-03 21:29:43.91,62734896, -0.24, -0.15, 352.95, 590.109985352, -35.3632609, 149.1652297, 0.998109161854, -0.00218037585728, -0.00125352339819, -0.0614152960479
2019-04-03 21:29:44.01,62834856, -0.68, -0.4, 352.95, 590.25, -35.3632609, 149.1652296, 0.99808716774, -0.00615306058899, -0.00319504365325, -0.0614329278469
2019-04-03 21:29:44.11,62934816, -1.33, -0.77, 352.96, 590.359985352, -35.3632609, 149.1652296, 0.998019099236, -0.0120150782168, -0.00606774492189, -0.0614549256861
2019-04-03 21:29:44.21,63034776, -2.14, -1.22, 352.96, 590.469970703, -35.3632609, 149.1652296, 0.997873723507, -0.0193758159876, -0.00952620059252, -0.0614969059825
2019-04-03 21:29:44.31,63134736, -3.05, -1.7, 352.98, 590.559997559, -35.3632608, 149.1652294, 0.997635781765, -0.0275145433843, -0.0131998015568, -0.0615761764348
2019-04-03 21:29:44.41,63234696, -3.93, -2.15, 352.99, 590.640014648, -35.3632608, 149.1652293, 0.997329115868, -0.035369951278, -0.0166235454381, -0.0617032796144
2019-04-03 21:29:44.51,63334656, -4.65, -2.5, 352.99, 590.719970703, -35.3632607, 149.1652291, 0.997019588947, -0.0418230891228, -0.0193319749087, -0.0618788264692
2019-04-03 21:29:44.61,63434616, -5.17, -2.76, 352.99, 590.780029297, -35.3632605, 149.1652288, 0.996755599976, -0.0465580895543, -0.0213256701827, -0.0620957538486
2019-04-03 21:29:44.71,63534576, -5.57, -2.98, 352.98, 590.83001709, -35.3632604, 149.1652284, 0.996534049511, -0.0500725917518, -0.0229642763734, -0.0623322799802
2019-04-03 21:29:44.81,63634536, -5.88, -3.16, 352.97, 590.880004883, -35.3632603, 149.1652281, 0.996339321136, -0.0528749376535, -0.0244235955179, -0.0625763833523
2019-04-03 21:29:44.91,63734496, -6.18, -3.36, 352.96, 590.91998291, -35.3632602, 149.1652274, 0.996133565903, -0.0556481070817, -0.0259806104004, -0.0628191381693
2019-04-03 21:29:45.01,63835289, -6.51, -3.58, 352.95, 590.960021973, -35.3632599, 149.1652269, 0.995903193951, -0.0585922971368, -0.0277089495212, -0.0630554109812
2019-04-03 21:29:45.11,63935249, -6.82, -3.77, 352.95, 590.989990234, -35.3632597, 149.1652262, 0.995674312115, -0.0614402890205, -0.0291787832975, -0.0632962659001
2019-04-03 21:29:45.21,64035209, -7.11, -3.93, 352.94, 591.020019531, -35.3632595, 149.1652255, 0.995461463928, -0.0640032887459, -0.0303994715214, -0.0635284930468
2019-04-03 21:29:45.31,64135169, -7.32, -4.04, 352.92, 591.039978027, -35.3632592, 149.1652245, 0.995297670364, -0.0659139677882, -0.0312066990882, -0.0637508332729
2019-04-03 21:29:45.41,64235129, -7.45, -4.08, 352.91, 591.059997559, -35.3632589, 149.1652236, 0.995196044445, -0.0670845881104, -0.0315202623606, -0.06396086514
2019-04-03 21:29:45.51,64335089, -7.54, -4.13, 352.9, 591.08001709, -35.3632586, 149.1652226, 0.995126605034, -0.0678281262517, -0.0318220630288, -0.0641071498394
2019-04-03 21:29:45.61,64435049, -7.62, -4.19, 352.89, 591.099975586, -35.3632582, 149.1652215, 0.995055198669, -0.0685732364655, -0.0323062986135, -0.0641804635525
2019-04-03 21:29:45.71,64535009, -7.74, -4.26, 352.9, 591.119995117, -35.3632578, 149.1652202, 0.994959652424, -0.069642521441, -0.032864689827, -0.0642275363207
2019-04-03 21:29:45.81,64634969, -8.03, -4.2, 352.77, 591.140014648, -35.3632574, 149.1652189, 0.994727313519, -0.0721774548292, -0.032119397074, -0.0653937831521
2019-04-03 21:29:45.91,64734929, -8.57, -3.98, 351.96, 591.150024414, -35.363257, 149.1652177, 0.993972301483, -0.0769522935152, -0.0293176267296, -0.0723733305931
2019-04-03 21:29:46.01,64834889, -9.21, -3.85, 349.79, 591.16998291, -35.3632565, 149.1652163, 0.992016792297, -0.0829680487514, -0.0262436512858, -0.0912698730826
2019-04-03 21:29:46.11,64934849, -9.66, -4.16, 345.97, 591.179992676, -35.3632561, 149.1652147, 0.98796236515, -0.0879819467664, -0.0256687514484, -0.124621786177
2019-04-03 21:29:46.21,65034809, -9.69, -5.0, 340.61, 591.190002441, -35.3632555, 149.1652131, 0.980638504028, -0.0905891135335, -0.0287086162716, -0.171223461628
2019-04-03 21:29:46.31,65134769, -9.17, -6.33, 333.99, 591.210021973, -35.3632552, 149.1652114, 0.96875166893, -0.0902391299605, -0.0357297882438, -0.228255420923
2019-04-03 21:29:46.41,65234729, -8.06, -8.0, 326.38, 591.219970703, -35.3632547, 149.1652096, 0.951171934605, -0.0873044729233, -0.0464014597237, -0.292398363352
2019-04-03 21:29:46.51,65334689, -6.42, -9.78, 318.08, 591.239990234, -35.3632543, 149.1652077, 0.92726123333, -0.082620382309, -0.0594993308187, -0.360305845737
2019-04-03 21:29:46.61,65434649, -4.36, -11.39, 309.34, 591.25, -35.3632537, 149.1652057, 0.897126674652, -0.0767174065113, -0.0734361559153, -0.428818553686
2019-04-03 21:29:46.71,65534609, -1.95, -12.62, 300.48, 591.270019531, -35.3632532, 149.1652035, 0.861815214157, -0.0692633166909, -0.0870453119278, -0.494874000549
2019-04-03 21:29:46.81,65634569, 0.91, -13.31, 292.11, 591.289978027, -35.3632528, 149.1652014, 0.824477016926, -0.0581319443882, -0.100634172559, -0.553833127022
2019-04-03 21:29:46.91,65734529, 3.84, -13.43, 285.1, 591.299987793, -35.3632522, 149.1651991, 0.790403783321, -0.0446475408971, -0.113028526306, -0.600410699844
2019-04-03 21:29:47.01,65835322, 6.24, -13.16, 280.08, 591.320007324, -35.3632514, 149.1651968, 0.764330804348, -0.0320450700819, -0.122510567307, -0.632267892361
2019-04-03 21:29:47.11,65935282, 7.71, -12.84, 277.27, 591.340026855, -35.3632507, 149.1651943, 0.749104499817, -0.023604458198, -0.127942383289, -0.649550616741
2019-04-03 21:29:47.21,66035242, 8.12, -12.7, 276.4, 591.349975586, -35.3632499, 149.1651918, 0.744286358356, -0.0210317596793, -0.129224404693, -0.654901921749
2019-04-03 21:29:47.31,66135202, 7.57, -12.84, 277.1, 591.369995117, -35.3632488, 149.1651892, 0.748106837273, -0.0247095543891, -0.127089589834, -0.650825560093
2019-04-03 21:29:47.41,66235162, 6.26, -13.25, 278.97, 591.390014648, -35.3632479, 149.1651867, 0.758156776428, -0.0336154252291, -0.122845813632, -0.63951331377
2019-04-03 21:29:47.51,66335122, 4.48, -13.85, 281.65, 591.409973145, -35.3632468, 149.1651839, 0.771982252598, -0.0460167787969, -0.117936819792, -0.622909963131
2019-04-03 21:29:47.61,66435082, 2.5, -14.51, 284.79, 591.429992676, -35.3632457, 149.1651812, 0.787425518036, -0.0598894804716, -0.113281138241, -0.602944195271
2019-04-03 21:29:47.71,66535042, 0.53, -15.07, 288.06, 591.460021973, -35.3632445, 149.1651784, 0.8027099967, -0.0732775777578, -0.108878940344, -0.58174943924
2019-04-03 21:29:47.81,66635002, -1.2, -15.45, 291.1, 591.479980469, -35.3632434, 149.1651755, 0.816301286221, -0.0846488028765, -0.105020873249, -0.56165599823
2019-04-03 21:29:47.91,66734962, -2.52, -15.65, 293.59, 591.5, -35.3632421, 149.1651724, 0.827112913132, -0.0928302928805, -0.101951643825, -0.544860184193
2019-04-03 21:29:48.01,66834922, -3.36, -15.67, 295.34, 591.520019531, -35.363241, 149.1651693, 0.834591388702, -0.0974886268377, -0.0996441990137, -0.532939255238
2019-04-03 21:29:48.11,66934882, -3.68, -15.62, 296.26, 591.539978027, -35.3632398, 149.1651661, 0.838627159595, -0.0987926721573, -0.0985123366117, -0.526535749435
2019-04-03 21:29:48.21,67034842, -3.54, -15.55, 296.39, 591.570007324, -35.3632388, 149.1651628, 0.839440762997, -0.0973499715328, -0.0988345965743, -0.525446474552
2019-04-03 21:29:48.31,67134802, -3.03, -15.54, 295.87, 591.590026855, -35.3632377, 149.1651594, 0.837481617928, -0.0940319523215, -0.100663408637, -0.528818905354
2019-04-03 21:29:48.41,67234762, -2.29, -15.61, 294.87, 591.609985352, -35.3632366, 149.1651559, 0.833364963531, -0.0898516997695, -0.103772200644, -0.535407185555
2019-04-03 21:29:48.51,67334722, -1.45, -15.75, 293.6, 591.630004883, -35.3632355, 149.1651523, 0.827849626541, -0.085593380034, -0.107769474387, -0.543805539608
2019-04-03 21:29:48.61,67434682, -0.61, -15.91, 292.24, 591.659973145, -35.3632343, 149.1651488, 0.821793615818, -0.0815669298172, -0.111970432103, -0.552688717842
2019-04-03 21:29:48.71,67534642, 0.15, -16.03, 290.96, 591.679992676, -35.3632333, 149.1651451, 0.816019058228, -0.0779261365533, -0.115640416741, -0.560952484608
2019-04-03 21:29:48.81,67634602, 0.75, -16.1, 289.91, 591.700012207, -35.3632321, 149.1651413, 0.811156690121, -0.0750613361597, -0.118408128619, -0.567776441574
2019-04-03 21:29:48.91,67734562, 1.16, -16.14, 289.15, 591.719970703, -35.363231, 149.1651377, 0.807622015476, -0.0732100605965, -0.120237320662, -0.572651684284
2019-04-03 21:29:49.01,67834522, 1.35, -16.17, 288.73, 591.75, -35.3632298, 149.1651339, 0.805610895157, -0.0724470317364, -0.121185615659, -0.575375199318
2019-04-03 21:29:49.11,67935315, 1.35, -16.2, 288.63, 591.770019531, -35.3632286, 149.16513, 0.805088341236, -0.0726999640465, -0.121327228844, -0.576044440269
2019-04-03 21:29:49.21,68035275, 1.19, -16.23, 288.81, 591.789978027, -35.3632273, 149.165126, 0.805841326714, -0.0738305300474, -0.120823167264, -0.574952661991
2019-04-03 21:29:49.31,68135235, 0.9, -16.27, 289.19, 591.820007324, -35.3632261, 149.1651221, 0.807516515255, -0.075648330152, -0.119916185737, -0.57255089283
2019-04-03 21:29:49.41,68235195, 0.54, -16.32, 289.69, 591.840026855, -35.3632248, 149.1651182, 0.809729158878, -0.0778961032629, -0.118773959577, -0.569353699684
2019-04-03 21:29:49.51,68335155, 0.17, -16.36, 290.23, 591.859985352, -35.3632234, 149.1651142, 0.812121808529, -0.0801472440362, -0.117611527443, -0.565864086151
2019-04-03 21:29:49.61,68435115, -0.14, -16.39, 290.75, 591.880004883, -35.3632221, 149.1651101, 0.814386725426, -0.082085005939, -0.116609409451, -0.562528729439
2019-04-03 21:29:49.71,68535075, -0.39, -16.41, 291.18, 591.909973145, -35.3632209, 149.1651061, 0.816291034222, -0.0835267305374, -0.115864619613, -0.559703230858
2019-04-03 21:29:49.81,68635035, -0.54, -16.44, 291.49, 591.929992676, -35.3632196, 149.165102, 0.817686021328, -0.0843636542559, -0.115577600896, -0.557596802711
2019-04-03 21:29:49.91,68734995, -0.59, -16.48, 291.67, 591.950012207, -35.3632183, 149.1650979, 0.818488478661, -0.0847430676222, -0.115760460496, -0.556322455406
2019-04-03 21:29:50.01,68834955, -0.55, -16.53, 291.73, 591.979980469, -35.363217, 149.1650937, 0.818730592728, -0.0846576988697, -0.116317026317, -0.555863022804
2019-04-03 21:29:50.11,68934915, -0.46, -16.58, 291.67, 592.0, -35.3632157, 149.1650895, 0.818484663963, -0.0842848569155, -0.11707431078, -0.556122779846
2019-04-03 21:29:50.21,69034875, -0.34, -16.62, 291.54, 592.020019531, -35.3632142, 149.1650852, 0.817863345146, -0.0837621167302, -0.117869898677, -0.556947231293
2019-04-03 21:29:50.31,69134835, -0.2, -16.64, 291.35, 592.049987793, -35.363213, 149.1650809, 0.817024350166, -0.0831084027886, -0.118542216718, -0.558132588863
2019-04-03 21:29:50.41,69234795, -0.07, -16.67, 291.14, 592.070007324, -35.3632117, 149.1650766, 0.816090941429, -0.0824963971972, -0.119212709367, -0.559444606304
2019-04-03 21:29:50.51,69334755, 0.03, -16.7, 290.95, 592.090026855, -35.3632104, 149.1650723, 0.815183579922, -0.0820557028055, -0.119839996099, -0.560696899891
2019-04-03 21:29:50.61,69434715, 0.12, -16.76, 290.78, 592.109985352, -35.363209, 149.165068, 0.814373195171, -0.0819250792265, -0.120563544333, -0.561737537384
2019-04-03 21:29:50.71,69534675, 0.18, -16.81, 290.66, 592.140014648, -35.3632075, 149.1650637, 0.813779473305, -0.0818382948637, -0.121151022613, -0.562483668327
2019-04-03 21:29:50.81,69634635, 0.22, -16.86, 290.6, 592.159973145, -35.3632063, 149.1650593, 0.813426911831, -0.0818888917565, -0.121630996466, -0.562882602215
2019-04-03 21:29:50.91,69734595, 0.24, -16.89, 290.58, 592.179992676, -35.3632049, 149.1650549, 0.813334524632, -0.0818943083286, -0.121948488057, -0.562946617603
2019-04-03 21:29:51.01,69834555, 0.24, -16.9, 290.61, 592.210021973, -35.3632035, 149.1650503, 0.81346321106, -0.0819527804852, -0.122037366033, -0.562732815742
2019-04-03 21:29:51.11,69934515, 0.2, -16.9, 290.67, 592.229980469, -35.363202, 149.165046, 0.81375181675, -0.0821165889502, -0.121930815279, -0.562314689159
2019-04-03 21:29:51.21,70035308, 0.14, -16.9, 290.76, 592.25, -35.3632007, 149.1650415, 0.814136862755, -0.0824321955442, -0.121681824327, -0.561764776707
2019-04-03 21:29:51.31,70135268, 0.07, -16.91, 290.86, 592.280029297, -35.3631993, 149.1650369, 0.814541876316, -0.0828741118312, -0.121466688812, -0.561158955097
2019-04-03 21:29:51.41,70235228, 0.0, -16.92, 290.95, 592.299987793, -35.3631978, 149.1650325, 0.814927518368, -0.0833490788937, -0.121295385063, -0.56056535244
2019-04-03 21:29:51.51,70335188, -0.04, -16.93, 291.03, 592.320007324, -35.3631965, 149.165028, 0.815268993378, -0.083728082478, -0.121139995754, -0.560045719147
2019-04-03 21:29:51.61,70435148, -0.09, -16.94, 291.09, 592.349975586, -35.363195, 149.1650234, 0.81552875042, -0.0840450376272, -0.121022313833, -0.559645354748
2019-04-03 21:29:51.71,70535108, -0.12, -16.97, 291.13, 592.369995117, -35.3631935, 149.1650189, 0.815675377846, -0.0843430608511, -0.121102035046, -0.559369564056
2019-04-03 21:29:51.81,70635068, -0.12, -17.02, 291.15, 592.400024414, -35.3631922, 149.1650143, 0.815719008446, -0.0845326557755, -0.121467113495, -0.559198081493
2019-04-03 21:29:51.91,70735028, -0.07, -17.06, 291.15, 592.41998291, -35.3631908, 149.1650096, 0.815700232983, -0.0844294279814, -0.12202821672, -0.559118926525
2019-04-03 21:29:52.01,70834988, -0.02, -17.11, 291.13, 592.440002441, -35.3631893, 149.1650051, 0.815610349178, -0.0843049287796, -0.122661337256, -0.559130251408
2019-04-03 21:29:52.11,70934948, 0.02, -17.15, 291.11, 592.469970703, -35.3631879, 149.1650005, 0.815487444401, -0.0841742902994, -0.123120002449, -0.559228420258
2019-04-03 21:29:52.21,71034908, 0.03, -17.16, 291.08, 592.489990234, -35.3631863, 149.1649957, 0.815340876579, -0.0842233225703, -0.123218856752, -0.559412896633
2019-04-03 21:29:52.31,71134868, 0.01, -17.16, 291.05, 592.520019531, -35.363185, 149.1649912, 0.815195441246, -0.0843759775162, -0.12312053889, -0.559623539448
2019-04-03 21:29:52.41,71234828, 0.0, -17.16, 291.03, 592.539978027, -35.3631835, 149.1649865, 0.815080225468, -0.0844844654202, -0.123016126454, -0.559797883034
2019-04-03 21:29:52.51,71334788, 0.0, -17.18, 291.02, 592.559997559, -35.363182, 149.1649818, 0.814983487129, -0.0845632329583, -0.123135983944, -0.559900462627
2019-04-03 21:29:52.61,71434748, 0.0, -17.22, 291.01, 592.590026855, -35.3631806, 149.1649771, 0.81489366293, -0.0847866311669, -0.123473919928, -0.559923052788
2019-04-03 21:29:52.71,71534708, -0.01, -17.27, 291.01, 592.609985352, -35.363179, 149.1649725, 0.814819514751, -0.0851647183299, -0.123730041087, -0.559916973114
2019-04-03 21:29:52.81,71634668, -0.03, -17.3, 291.01, 592.640014648, -35.3631777, 149.1649678, 0.814793288708, -0.0854344144464, -0.123790211976, -0.559900760651
2019-04-03 21:29:52.91,71734628, -0.04, -17.3, 291.02, 592.659973145, -35.3631762, 149.1649631, 0.814828336239, -0.0854882076383, -0.123778477311, -0.559844136238
2019-04-03 21:29:53.01,71834588, -0.02, -17.3, 291.03, 592.679992676, -35.3631747, 149.1649584, 0.814900279045, -0.0853731259704, -0.123851753771, -0.559740781784
2019-04-03 21:29:53.11,71934548, -0.01, -17.29, 291.05, 592.710021973, -35.3631732, 149.1649536, 0.8149959445, -0.0852406620979, -0.123890317976, -0.559613108635
2019-04-03 21:29:53.21,72034508, 0.0, -17.28, 291.06, 592.729980469, -35.3631716, 149.1649488, 0.815102219582, -0.0850839614868, -0.123840168118, -0.559493243694
2019-04-03 21:29:53.31,72135301, 0.01, -17.27, 291.08, 592.75, -35.3631702, 149.164944, 0.81520062685, -0.0848937556148, -0.123907320201, -0.55936396122
2019-04-03 21:29:53.41,72235261, 0.02, -17.29, 291.09, 592.780029297, -35.3631686, 149.1649393, 0.815248966217, -0.0848996415734, -0.124105989933, -0.559248507023
2019-04-03 21:29:53.51,72335221, 0.03, -17.33, 291.1, 592.799987793, -35.3631672, 149.1649345, 0.815264463425, -0.0849967449903, -0.12440507859, -0.559144735336
2019-04-03 21:29:53.61,72435181, 0.04, -17.36, 291.11, 592.83001709, -35.3631656, 149.1649297, 0.815269231796, -0.0850620269775, -0.124707594514, -0.559060454369
2019-04-03 21:29:53.71,72535141, 0.05, -17.39, 291.11, 592.849975586, -35.3631642, 149.1649249, 0.815262913704, -0.0851709023118, -0.12499127537, -0.558989703655
2019-04-03 21:29:53.81,72635101, 0.06, -17.45, 291.12, 592.869995117, -35.3631626, 149.1649201, 0.815229535103, -0.085362650454, -0.125415354967, -0.55891418457
2019-04-03 21:29:53.91,72735061, 0.05, -17.49, 291.12, 592.900024414, -35.3631612, 149.1649153, 0.815197229385, -0.0855817869306, -0.125716850162, -0.558860063553
2019-04-03 21:29:54.01,72835021, 0.05, -17.5, 291.12, 592.91998291, -35.3631597, 149.1649105, 0.815202891827, -0.085670478642, -0.125717267394, -0.558838069439
2019-04-03 21:29:54.11,72934981, 0.04, -17.49, 291.13, 592.940002441, -35.3631582, 149.1649057, 0.815226256847, -0.0856842845678, -0.12562417984, -0.558822870255
2019-04-03 21:29:54.21,73034941, 0.04, -17.48, 291.13, 592.969970703, -35.3631567, 149.1649009, 0.815249800682, -0.0856576561928, -0.125610098243, -0.558795750141
2019-04-03 21:29:54.31,73134901, 0.05, -17.5, 291.14, 592.989990234, -35.3631552, 149.1648961, 0.81526017189, -0.0856235846877, -0.1257725209, -0.558749318123
2019-04-03 21:29:54.41,73234861, 0.06, -17.53, 291.14, 593.010009766, -35.3631535, 149.1648913, 0.815240740776, -0.0857283174992, -0.126064032316, -0.558695971966
2019-04-03 21:29:54.51,73334821, 0.05, -17.56, 291.14, 593.039978027, -35.3631521, 149.1648865, 0.815212607384, -0.0859225764871, -0.126219257712, -0.558672010899
2019-04-03 21:29:54.61,73434781, 0.03, -17.58, 291.14, 593.059997559, -35.3631506, 149.1648816, 0.81518048048, -0.0861784294248, -0.126200675964, -0.558683693409
2019-04-03 21:29:54.71,73534741, 0.0, -17.58, 291.14, 593.08001709, -35.3631491, 149.1648768, 0.815158188343, -0.0863884091377, -0.126082569361, -0.558710455894
2019-04-03 21:29:54.81,73634701, 0.0, -17.57, 291.14, 593.109985352, -35.3631474, 149.1648718, 0.815161943436, -0.0863507464528, -0.125974267721, -0.558735251427
2019-04-03 21:29:54.91,73734661, 0.02, -17.55, 291.14, 593.130004883, -35.363146, 149.1648669, 0.815186321735, -0.0860917717218, -0.126036599278, -0.55872553587
2019-04-03 21:29:55.01,73834621, 0.05, -17.56, 291.14, 593.150024414, -35.3631443, 149.1648621, 0.815188467503, -0.0859493762255, -0.126212179661, -0.558704733849
2019-04-03 21:29:55.11,73934581, 0.06, -17.59, 291.13, 593.179992676, -35.3631429, 149.1648573, 0.815164864063, -0.0859786197543, -0.126471310854, -0.558676064014
2019-04-03 21:29:55.21,74034541, 0.07, -17.62, 291.13, 593.200012207, -35.3631413, 149.1648524, 0.815139353275, -0.0860645920038, -0.126732304692, -0.558640897274
2019-04-03 21:29:55.31,74134501, 0.06, -17.63, 291.14, 593.219970703, -35.3631398, 149.1648474, 0.815124750137, -0.0861847177148, -0.126783967018, -0.558631956577
2019-04-03 21:29:55.41,74235294, 0.06, -17.64, 291.14, 593.25, -35.3631382, 149.1648425, 0.815110325813, -0.0863060876727, -0.126837715507, -0.558622121811
2019-04-03 21:29:55.51,74335254, 0.06, -17.66, 291.14, 593.270019531, -35.3631367, 149.1648376, 0.815095305443, -0.086343832314, -0.126987412572, -0.558604180813
2019-04-03 21:29:55.61,74435214, 0.07, -17.66, 291.14, 593.289978027, -35.3631351, 149.1648327, 0.815097093582, -0.086268723011, -0.127051651478, -0.558598518372
2019-04-03 21:29:55.71,74535174, 0.08, -17.67, 291.13, 593.320007324, -35.3631336, 149.1648277, 0.81509155035, -0.0862384736538, -0.1271173805, -0.558596372604
2019-04-03 21:29:55.81,74635134, 0.09, -17.7, 291.13, 593.340026855, -35.3631321, 149.1648229, 0.815058887005, -0.0863187238574, -0.127366319299, -0.558574974537
2019-04-03 21:29:55.91,74735094, 0.1, -17.74, 291.13, 593.359985352, -35.3631304, 149.164818, 0.815010666847, -0.0864589586854, -0.127776935697, -0.558529853821
2019-04-03 21:29:56.01,74835054, 0.1, -17.78, 291.13, 593.390014648, -35.363129, 149.1648131, 0.81496822834, -0.0866539254785, -0.128061190248, -0.55849647522
2019-04-03 21:29:56.11,74935014, 0.08, -17.81, 291.13, 593.409973145, -35.3631273, 149.164808, 0.814936816692, -0.0869031623006, -0.12810562551, -0.558493375778
2019-04-03 21:29:56.21,75034974, 0.05, -17.81, 291.14, 593.429992676, -35.3631258, 149.1648032, 0.814911842346, -0.0871736258268, -0.127995893359, -0.558512806892
2019-04-03 21:29:56.31,75134934, 0.03, -17.82, 291.14, 593.460021973, -35.3631242, 149.1647983, 0.814906358719, -0.0873256623745, -0.127958089113, -0.55850571394
2019-04-03 21:29:56.41,75234894, 0.04, -17.83, 291.14, 593.479980469, -35.3631227, 149.1647932, 0.814926505089, -0.0872778445482, -0.128074809909, -0.558457016945
2019-04-03 21:29:56.51,75334854, 0.06, -17.84, 291.15, 593.5, -35.3631211, 149.1647884, 0.81494230032, -0.0872082561255, -0.128219947219, -0.558411478996
2019-04-03 21:29:56.61,75434814, 0.08, -17.84, 291.15, 593.530029297, -35.3631196, 149.1647834, 0.814958155155, -0.0871108472347, -0.128371760249, -0.558368682861
2019-04-03 21:29:56.71,75534774, 0.09, -17.84, 291.15, 593.549987793, -35.363118, 149.1647784, 0.814980626106, -0.0869895741343, -0.128396600485, -0.558349072933
2019-04-03 21:29:56.81,75634734, 0.09, -17.84, 291.15, 593.58001709, -35.3631163, 149.1647735, 0.814983129501, -0.0869806930423, -0.128408625722, -0.558344125748
2019-04-03 21:29:56.91,75734694, 0.09, -17.84, 291.15, 593.599975586, -35.3631149, 149.1647684, 0.814971089363, -0.0870400443673, -0.12840090692, -0.558354198933
2019-04-03 21:29:57.01,75834654, 0.07, -17.86, 291.15, 593.619995117, -35.3631132, 149.1647635, 0.814928650856, -0.0872622355819, -0.128413960338, -0.558378458023
2019-04-03 21:29:57.11,75934614, 0.04, -17.88, 291.14, 593.650024414, -35.3631117, 149.1647586, 0.814871788025, -0.0875797942281, -0.128404274583, -0.558413922787
2019-04-03 21:29:57.21,76034574, 0.0, -17.88, 291.14, 593.66998291, -35.3631101, 149.1647535, 0.814827382565, -0.0878339856863, -0.128289535642, -0.558465182781
2019-04-03 21:29:57.31,76134534, 0.0, -17.89, 291.14, 593.690002441, -35.3631084, 149.1647486, 0.814789235592, -0.087962910533, -0.128308847547, -0.558496117592
2019-04-03 21:29:57.41,76234494, 0.0, -17.91, 291.13, 593.719970703, -35.3631069, 149.1647435, 0.814740717411, -0.0880467966199, -0.12844851613, -0.558521568775
2019-04-03 21:29:57.51,76335287, 0.01, -17.93, 291.13, 593.739990234, -35.3631053, 149.1647386, 0.814704060555, -0.0880097597837, -0.128635048866, -0.558537960052
2019-04-03 21:29:57.61,76435247, 0.04, -17.93, 291.12, 593.760009766, -35.3631038, 149.1647336, 0.814685165882, -0.0878558978438, -0.12877933681, -0.558556437492
2019-04-03 21:29:57.71,76535207, 0.06, -17.93, 291.11, 593.789978027, -35.3631022, 149.1647286, 0.814669430256, -0.0877228453755, -0.128861993551, -0.558581292629
2019-04-03 21:29:57.81,76635167, 0.06, -17.94, 291.11, 593.809997559, -35.3631005, 149.1647236, 0.8146443367, -0.0877308174968, -0.128897428513, -0.558608472347
2019-04-03 21:29:57.91,76735127, 0.05, -17.93, 291.1, 593.83001709, -35.363099, 149.1647185, 0.814627468586, -0.0877701863647, -0.128802970052, -0.558648645878
2019-04-03 21:29:58.01,76835087, 0.05, -17.93, 291.1, 593.859985352, -35.3630974, 149.1647136, 0.81461083889, -0.087794303894, -0.12879280746, -0.558671414852
2019-04-03 21:29:58.11,76935047, 0.06, -17.96, 291.1, 593.880004883, -35.3630957, 149.1647085, 0.814577937126, -0.0878499299288, -0.129031732678, -0.558655500412
2019-04-03 21:29:58.21,77035007, 0.09, -17.99, 291.1, 593.900024414, -35.3630942, 149.1647036, 0.814559280872, -0.0877819210291, -0.129393741488, -0.558609724045
2019-04-03 21:29:58.31,77134967, 0.12, -17.99, 291.1, 593.929992676, -35.3630926, 149.1646984, 0.814579129219, -0.0875575393438, -0.129571676254, -0.558574795723
2019-04-03 21:29:58.41,77234927, 0.14, -17.97, 291.1, 593.950012207, -35.3630911, 149.1646935, 0.814616918564, -0.0873138681054, -0.129523947835, -0.558568775654
2019-04-03 21:29:58.51,77334887, 0.15, -17.95, 291.1, 593.969970703, -35.3630895, 149.1646884, 0.814647138119, -0.0871733874083, -0.129426002502, -0.558569431305
2019-04-03 21:29:58.61,77434847, 0.13, -17.96, 291.1, 594.0, -35.3630878, 149.1646835, 0.814621627331, -0.0873922929168, -0.12943097949, -0.558571219444
2019-04-03 21:29:58.71,77534807, 0.11, -18.01, 291.1, 594.020019531, -35.3630863, 149.1646783, 0.814563751221, -0.0877699255943, -0.129664480686, -0.558542311192
2019-04-03 21:29:58.81,77634767, 0.09, -18.05, 291.1, 594.039978027, -35.3630847, 149.1646734, 0.814514935017, -0.0881027132273, -0.129893124104, -0.558507978916
2019-04-03 21:29:58.91,77734727, 0.08, -18.07, 291.11, 594.070007324, -35.3630831, 149.1646683, 0.814513087273, -0.0881997197866, -0.129964783788, -0.558478713036
2019-04-03 21:29:59.01,77834687, 0.07, -18.05, 291.11, 594.090026855, -35.3630815, 149.1646633, 0.814534366131, -0.0882052704692, -0.129796937108, -0.558485805988
2019-04-03 21:29:59.11,77934647, 0.05, -18.02, 291.11, 594.119995117, -35.3630798, 149.1646582, 0.814558267593, -0.0882157087326, -0.12940351665, -0.558540582657
2019-04-03 21:29:59.21,78034607, 0.03, -17.98, 291.11, 594.140014648, -35.3630781, 149.1646533, 0.814578771591, -0.0881403982639, -0.129093423486, -0.558594346046
2019-04-03 21:29:59.31,78134567, 0.05, -17.95, 291.1, 594.159973145, -35.3630766, 149.1646481, 0.814598083496, -0.0878799036145, -0.12900069356, -0.558628618717
2019-04-03 21:29:59.41,78234527, 0.08, -17.94, 291.1, 594.190002441, -35.3630749, 149.1646432, 0.814603447914, -0.0876298174262, -0.128994449973, -0.558661460876
2019-04-03 21:29:59.51,78335320, 0.09, -17.94, 291.09, 594.210021973, -35.3630734, 149.1646381, 0.81457644701, -0.0875750184059, -0.129028767347, -0.558701574802
2019-04-03 21:29:59.61,78435280, 0.08, -17.95, 291.08, 594.229980469, -35.3630718, 149.1646329, 0.814523160458, -0.0877040177584, -0.129095122218, -0.558743715286
2019-04-03 21:29:59.71,78535240, 0.05, -17.97, 291.08, 594.260009766, -35.3630701, 149.164628, 0.814455330372, -0.0880079045892, -0.129029870033, -0.558809816837
2019-04-03 21:29:59.81,78635200, 0.02, -17.97, 291.07, 594.280029297, -35.3630686, 149.1646228, 0.814403772354, -0.0882079973817, -0.128948673606, -0.558872163296
2019-04-03 21:29:59.91,78735160, 0.0, -17.97, 291.07, 594.299987793, -35.363067, 149.1646179, 0.814350962639, -0.0884538814425, -0.128771290183, -0.558951199055
2019-04-03 21:30:00.01,78835120, -0.02, -17.98, 291.06, 594.33001709, -35.3630653, 149.1646127, 0.814297616482, -0.0886474177241, -0.128752335906, -0.559002578259
2019-04-03 21:30:00.11,78935080, -0.02, -18.01, 291.06, 594.349975586, -35.3630638, 149.1646078, 0.814246118069, -0.088759995997, -0.128958284855, -0.559012234211
2019-04-03 21:30:00.21,79035040, 0.0, -18.03, 291.05, 594.369995117, -35.3630621, 149.1646027, 0.814208686352, -0.0887617021799, -0.129200860858, -0.559010505676
2019-04-03 21:30:00.31,79135000, 0.01, -18.05, 291.05, 594.400024414, -35.3630604, 149.1645975, 0.814182758331, -0.088694870472, -0.129448890686, -0.559001505375
2019-04-03 21:30:00.41,79234960, 0.05, -18.07, 291.04, 594.41998291, -35.3630589, 149.1645926, 0.814169585705, -0.0885239541531, -0.129768148065, -0.55897372961
2019-04-03 21:30:00.51,79334920, 0.08, -18.08, 291.04, 594.440002441, -35.3630573, 149.1645874, 0.814161598682, -0.0883592441678, -0.1299662292, -0.558965444565
2019-04-03 21:30:00.61,79434880, 0.09, -18.07, 291.03, 594.469970703, -35.3630556, 149.1645824, 0.814157068729, -0.0882473438978, -0.129948019981, -0.558993935585
2019-04-03 21:30:00.71,79534840, 0.08, -18.05, 291.03, 594.489990234, -35.3630541, 149.1645773, 0.814148128033, -0.0882569104433, -0.129744961858, -0.55905264616
2019-04-03 21:30:00.81,79634800, 0.07, -18.05, 291.03, 594.510009766, -35.3630524, 149.1645723, 0.814126729965, -0.0883215665817, -0.129707053304, -0.559082388878
2019-04-03 21:30:00.91,79734760, 0.07, -18.08, 291.02, 594.539978027, -35.3630509, 149.1645672, 0.81408405304, -0.0884274691343, -0.129925727844, -0.559076964855
2019-04-03 21:30:01.01,79834720, 0.07, -18.1, 291.02, 594.559997559, -35.3630493, 149.1645622, 0.814047396183, -0.0885119661689, -0.130062758923, -0.559085130692
2019-04-03 21:30:01.11,79934680, 0.06, -18.1, 291.02, 594.590026855, -35.3630476, 149.1645571, 0.814020812511, -0.0886087194085, -0.1299983114, -0.559123456478
2019-04-03 21:30:01.21,80034640, 0.04, -18.08, 291.01, 594.609985352, -35.363046, 149.1645519, 0.814011216164, -0.0886444523931, -0.129751324654, -0.559189200401
2019-04-03 21:30:01.31,80134600, 0.05, -18.05, 291.01, 594.630004883, -35.3630444, 149.1645469, 0.814024031162, -0.0885121822357, -0.129604026675, -0.559225618839
2019-04-03 21:30:01.41,80234560, 0.07, -18.03, 291.01, 594.659973145, -35.3630427, 149.1645418, 0.814052581787, -0.0882580205798, -0.129546329379, -0.559237599373
2019-04-03 21:30:01.51,80334520, 0.08, -18.03, 291.0, 594.679992676, -35.3630412, 149.1645366, 0.814054846764, -0.0881360694766, -0.129602283239, -0.559240579605
2019-04-03 21:30:01.61,80435313, 0.08, -18.06, 291.0, 594.700012207, -35.3630396, 149.1645316, 0.814010739326, -0.0883208438754, -0.129758700728, -0.559239327908
2019-04-03 21:30:01.71,80535273, 0.08, -18.1, 291.0, 594.729980469, -35.3630379, 149.1645265, 0.813959181309, -0.0885025039315, -0.130091443658, -0.559208333492
2019-04-03 21:30:01.81,80635233, 0.09, -18.12, 291.0, 594.75, -35.3630363, 149.1645213, 0.813929438591, -0.0885682702065, -0.130302831531, -0.55919200182
2019-04-03 21:30:01.91,80735193, 0.1, -18.14, 291.0, 594.780029297, -35.3630347, 149.1645163, 0.813918948174, -0.0885568782687, -0.130424112082, -0.559180855751
2019-04-03 21:30:02.01,80835153, 0.11, -18.14, 291.0, 594.799987793, -35.363033, 149.1645112, 0.813916504383, -0.088508926332, -0.130532428622, -0.55916672945
2019-04-03 21:30:02.11,80935113, 0.11, -18.12, 291.0, 594.820007324, -35.3630315, 149.1645062, 0.813937664032, -0.0884254872799, -0.130384713411, -0.559183597565
2019-04-03 21:30:02.21,81035073, 0.11, -18.09, 291.0, 594.849975586, -35.3630299, 149.1645011, 0.813965260983, -0.0882577821612, -0.130202248693, -0.559212386608
2019-04-03 21:30:02.31,81135033, 0.12, -18.07, 290.99, 594.869995117, -35.3630281, 149.1644959, 0.813988447189, -0.0880727991462, -0.130120038986, -0.559226989746
2019-04-03 21:30:02.41,81234993, 0.12, -18.06, 290.99, 594.890014648, -35.3630266, 149.1644909, 0.813992440701, -0.0880243778229, -0.129984393716, -0.559260308743
2019-04-03 21:30:02.51,81334953, 0.12, -18.06, 290.99, 594.91998291, -35.363025, 149.1644858, 0.813968718052, -0.0880849435925, -0.129984542727, -0.559285283089
2019-04-03 21:30:02.61,81434913, 0.13, -18.09, 290.99, 594.940002441, -35.3630233, 149.1644806, 0.813932061195, -0.088105417788, -0.130300685763, -0.559261858463
2019-04-03 21:30:02.71,81534873, 0.14, -18.12, 290.98, 594.960021973, -35.3630217, 149.1644756, 0.813893020153, -0.0881647914648, -0.130520641804, -0.559257984161
2019-04-03 21:30:02.81,81634833, 0.16, -18.12, 290.98, 594.989990234, -35.3630201, 149.1644705, 0.81388604641, -0.0880352035165, -0.130615964532, -0.559266269207
2019-04-03 21:30:02.91,81734793, 0.17, -18.11, 290.97, 595.010009766, -35.3630184, 149.1644653, 0.813886284828, -0.087952286005, -0.130530864, -0.559298872948
2019-04-03 21:30:03.01,81834753, 0.16, -18.09, 290.97, 595.039978027, -35.3630169, 149.1644601, 0.813886344433, -0.0878994986415, -0.130398258567, -0.559338033199
2019-04-03 21:30:03.11,81934713, 0.16, -18.08, 290.97, 595.059997559, -35.3630152, 149.1644551, 0.813880741596, -0.0878816619515, -0.130326062441, -0.559365868568
2019-04-03 21:30:03.21,82034673, 0.15, -18.09, 290.97, 595.08001709, -35.3630135, 149.1644499, 0.81385654211, -0.0880018100142, -0.130315855145, -0.559384465218
2019-04-03 21:30:03.31,82134633, 0.13, -18.1, 290.97, 595.099975586, -35.363012, 149.1644449, 0.813827812672, -0.08815972507, -0.130314812064, -0.55940169096
2019-04-03 21:30:03.41,82234593, 0.13, -18.1, 290.97, 595.130004883, -35.3630104, 149.1644398, 0.813824832439, -0.0881803110242, -0.130300804973, -0.559406042099
2019-04-03 21:30:03.51,82334553, 0.14, -18.09, 290.97, 595.150024414, -35.3630087, 149.1644346, 0.813842475414, -0.0880750566721, -0.13029243052, -0.559398949146
2019-04-03 21:30:03.61,82434513, 0.15, -18.07, 290.97, 595.16998291, -35.3630071, 149.1644296, 0.813874125481, -0.0878885611892, -0.130232870579, -0.559396088123
