Start,TimeUS,Roll,Pitch,Yaw,Alt,Lat,Lng,Q1,Q2,Q3,Q4
2019-04-03 18:57:49.80,52415692, 0.0, 0.0, 353.0, 584.090026855, -35.363261, 149.1652299, 0.998134791851, 0.0, 0.0, -0.0610485821962
2019-04-03 18:57:49.90,52516485, 0.0, 0.0, 353.0, 584.090026855, -35.363261, 149.1652299, 0.998134791851, 0.0, 0.0, -0.0610485821962
2019-04-03 18:57:50.00,52616445, 0.0, 0.0, 353.0, 584.090026855, -35.363261, 149.1652299, 0.998134791851, 0.0, 0.0, -0.0610485821962
2019-04-03 18:57:50.10,52716405, 0.0, 0.0, 353.0, 584.090026855, -35.363261, 149.1652299, 0.998134791851, 0.0, 0.0, -0.0610485821962
2019-04-03 18:57:50.20,52816365, 0.0, 0.0, 353.0, 584.090026855, -35.363261, 149.1652299, 0.998134791851, 0.0, 0.0, -0.0610485821962
2019-04-03 18:57:50.30,52916325, 0.0, 0.0, 353.0, 584.090026855, -35.363261, 149.1652299, 0.998134791851, 0.0, 0.0, -0.0610485821962
2019-04-03 18:57:50.40,53016285, 0.0, 0.0, 353.0, 584.090026855, -35.363261, 149.1652299, 0.998134791851, 0.0, 0.0, -0.0610485821962
2019-04-03 18:57:50.50,53116245, 0.0, 0.0, 353.0, 584.090026855, -35.363261, 149.1652299, 0.998134791851, 0.0, 0.0, -0.0610485821962
2019-04-03 18:57:50.60,53216205, 0.0, 0.0, 353.0, 584.090026855, -35.363261, 149.1652299, 0.998134791851, 0.0, 0.0, -0.0610485821962
2019-04-03 18:57:50.70,53316165, 0.0, 0.0, 353.0, 584.090026855, -35.363261, 149.1652299, 0.998134791851, 0.0, 0.0, -0.0610485821962
2019-04-03 18:57:50.80,53416125, 0.0, 0.0, 353.0, 584.090026855, -35.363261, 149.1652299, 0.998134791851, 0.0, 0.0, -0.0610485821962
2019-04-03 18:57:50.90,53516085, 0.0, 0.0, 353.0, 584.090026855, -35.363261, 149.1652299, 0.998134791851, 0.0, 0.0, -0.0610485821962
2019-04-03 18:57:51.00,53616045, 0.0, 0.0, 353.0, 584.090026855, -35.363261, 149.1652299, 0.998134791851, 0.0, 0.0, -0.0610485821962
2019-04-03 18:57:51.10,53716005, 0.0, 0.0, 353.0, 584.090026855, -35.363261, 149.1652299, 0.998134791851, 0.0, 0.0, -0.0610485821962
2019-04-03 18:57:51.20,53815965, 0.0, 0.0, 353.0, 584.090026855, -35.363261, 149.1652299, 0.998134791851, 0.0, 0.0, -0.0610485821962
2019-04-03 18:57:51.30,53915925, 0.0, 0.0, 353.0, 584.090026855, -35.363261, 149.1652299, 0.998134791851, 0.0, 0.0, -0.0610485821962
2019-04-03 18:57:51.40,54015885, 0.0, 0.0, 353.0, 584.090026855, -35.363261, 149.1652299, 0.998134791851, 0.0, 0.0, -0.0610485821962
2019-04-03 18:57:51.50,54115845, 0.0, 0.0, 353.0, 584.090026855, -35.363261, 149.1652299, 0.998134791851, 0.0, 0.0, -0.0610485821962
2019-04-03 18:57:51.60,54215805, 0.0, 0.0, 353.0, 584.090026855, -35.363261, 149.1652299, 0.998134791851, 0.0, 0.0, -0.0610485821962
2019-04-03 18:57:51.70,54315765, 0.0, 0.0, 353.0, 584.090026855, -35.363261, 149.1652299, 0.998134791851, 0.0, 0.0, -0.0610485821962
2019-04-03 18:57:51.80,54415725, 0.0, 0.0, 353.0, 584.090026855, -35.363261, 149.1652299, 0.998134791851, 0.0, 0.0, -0.0610485821962
2019-04-03 18:57:51.89,54515685, 0.0, 0.0, 353.0, 584.090026855, -35.363261, 149.1652299, 0.998134791851, 0.0, 0.0, -0.0610485821962
2019-04-03 18:57:52.00,54616478, 0.0, 0.0, 353.0, 584.090026855, -35.363261, 149.1652299, 0.998134791851, 0.0, 0.0, -0.0610485821962
2019-04-03 18:57:52.10,54716438, 0.0, 0.0, 353.0, 584.090026855, -35.363261, 149.1652299, 0.998134791851, 0.0, 0.0, -0.0610485821962
2019-04-03 18:57:52.20,54816398, 0.0, 0.0, 353.0, 584.090026855, -35.363261, 149.1652299, 0.998134791851, 0.0, 0.0, -0.0610485821962
2019-04-03 18:57:52.30,54916358, 0.0, 0.0, 353.0, 584.090026855, -35.363261, 149.1652299, 0.998134791851, 0.0, 0.0, -0.0610485821962
2019-04-03 18:57:52.40,55016318, 0.0, 0.0, 353.0, 584.090026855, -35.363261, 149.1652299, 0.998134791851, 0.0, 0.0, -0.0610485821962
2019-04-03 18:57:52.50,55116278, 0.0, 0.0, 353.0, 584.090026855, -35.363261, 149.1652299, 0.998134791851, 0.0, 0.0, -0.0610485821962
2019-04-03 18:57:52.60,55216238, 0.0, 0.0, 353.0, 584.090026855, -35.363261, 149.1652299, 0.998134791851, 0.0, 0.0, -0.0610485821962
2019-04-03 18:57:52.70,55316198, 0.0, 0.0, 353.0, 584.090026855, -35.363261, 149.1652299, 0.998134791851, 0.0, 0.0, -0.0610485821962
2019-04-03 18:57:52.80,55416158, 0.0, 0.0, 353.0, 584.090026855, -35.363261, 149.1652299, 0.998134791851, 0.0, 0.0, -0.0610485821962
2019-04-03 18:57:52.90,55516118, 0.0, 0.0, 353.0, 584.090026855, -35.363261, 149.1652299, 0.998134791851, 0.0, 0.0, -0.0610485821962
2019-04-03 18:57:53.00,55616078, 0.0, 0.0, 353.0, 584.090026855, -35.363261, 149.1652299, 0.998134791851, 0.0, 0.0, -0.0610485821962
2019-04-03 18:57:53.10,55716038, 0.0, 0.0, 353.0, 584.090026855, -35.363261, 149.1652299, 0.998134791851, 0.0, 0.0, -0.0610485821962
2019-04-03 18:57:53.20,55815998, 0.0, 0.0, 353.0, 584.090026855, -35.363261, 149.1652299, 0.998134791851, 0.0, 0.0, -0.0610485821962
2019-04-03 18:57:53.30,55915958, 0.0, 0.0, 353.0, 584.090026855, -35.363261, 149.1652299, 0.998134791851, 0.0, 0.0, -0.0610485821962
2019-04-03 18:57:53.40,56015918, 0.0, 0.0, 353.0, 584.090026855, -35.363261, 149.1652299, 0.998134791851, 0.0, 0.0, -0.0610485821962
2019-04-03 18:57:53.50,56115878, 0.0, 0.0, 353.0, 584.090026855, -35.363261, 149.1652299, 0.998134791851, 0.0, 0.0, -0.0610485821962
2019-04-03 18:57:53.60,56215838, 0.0, 0.0, 353.0, 584.090026855, -35.363261, 149.1652299, 0.998134791851, 0.0, 0.0, -0.0610485821962
2019-04-03 18:57:53.70,56315798, 0.0, 0.0, 353.0, 584.090026855, -35.363261, 149.1652299, 0.998134791851, 0.0, 0.0, -0.0610485821962
2019-04-03 18:57:53.80,56415758, 0.0, 0.0, 353.0, 584.090026855, -35.363261, 149.1652299, 0.998134791851, 0.0, 0.0, -0.0610485821962
2019-04-03 18:57:53.90,56515718, 0.0, 0.0, 353.0, 584.090026855, -35.363261, 149.1652299, 0.998134791851, 0.0, 0.0, -0.0610485821962
2019-04-03 18:57:53.99,56615678, 0.0, 0.0, 353.0, 584.090026855, -35.363261, 149.1652299, 0.998134791851, 0.0, 0.0, -0.0610485821962
2019-04-03 18:57:54.10,56716471, 0.0, 0.0, 353.0, 584.090026855, -35.363261, 149.1652299, 0.998134791851, 0.0, 0.0, -0.0610486753285
2019-04-03 18:57:54.20,56816431, 0.0, 0.0, 353.0, 584.090026855, -35.363261, 149.1652299, 0.998134791851, 0.0, 0.0, -0.0610486753285
2019-04-03 18:57:54.30,56916391, 0.0, 0.0, 353.0, 584.090026855, -35.363261, 149.1652299, 0.998134791851, 0.0, 0.0, -0.0610486753285
2019-04-03 18:57:54.40,57016351, 0.0, 0.0, 353.0, 584.090026855, -35.363261, 149.1652299, 0.998134791851, 0.0, 0.0, -0.0610486753285
2019-04-03 18:57:54.50,57116311, 0.0, 0.0, 353.0, 584.090026855, -35.363261, 149.1652299, 0.998134791851, 0.0, 0.0, -0.0610486753285
2019-04-03 18:57:54.60,57216271, 0.0, 0.0, 353.0, 584.090026855, -35.363261, 149.1652299, 0.998134791851, 0.0, 0.0, -0.0610486753285
2019-04-03 18:57:54.70,57316231, 0.0, 0.0, 353.0, 584.090026855, -35.363261, 149.1652299, 0.998134791851, 0.0, 0.0, -0.0610486753285
2019-04-03 18:57:54.80,57416191, 0.0, 0.0, 353.0, 584.090026855, -35.363261, 149.1652299, 0.998134791851, 0.0, 0.0, -0.0610486753285
2019-04-03 18:57:54.90,57516151, 0.0, 0.0, 353.0, 584.099975586, -35.363261, 149.1652299, 0.998134791851, 0.0, 0.0, -0.0610486753285
2019-04-03 18:57:55.00,57616111, 0.0, 0.0, 353.0, 584.099975586, -35.363261, 149.1652299, 0.998134791851, 0.0, 0.0, -0.0610486753285
2019-04-03 18:57:55.10,57716071, 0.0, 0.0, 353.0, 584.119995117, -35.363261, 149.1652299, 0.998134791851, 0.0, 0.0, -0.0610486753285
2019-04-03 18:57:55.20,57816031, 0.0, 0.0, 353.0, 584.140014648, -35.363261, 149.1652299, 0.998134791851, 0.0, 0.0, -0.0610486753285
2019-04-03 18:57:55.30,57915991, 0.0, 0.0, 353.0, 584.16998291, -35.363261, 149.1652299, 0.998134791851, 0.0, 0.0, -0.0610486753285
2019-04-03 18:57:55.40,58015951, 0.0, 0.0, 353.0, 584.210021973, -35.363261, 149.1652299, 0.998134791851, 0.0, 0.0, -0.0610486343503
2019-04-03 18:57:55.50,58115911, -0.04, -0.03, 352.99, 584.270019531, -35.363261, 149.1652299, 0.998134493828, -0.000372252572561, -0.000299194303807, -0.0610520355403
2019-04-03 18:57:55.60,58215871, -0.11, -0.08, 352.99, 584.380004883, -35.363261, 149.1652299, 0.998132944107, -0.00105785578489, -0.000709737243596, -0.0610656887293
2019-04-03 18:57:55.70,58315831, -0.15, -0.11, 352.99, 584.530029297, -35.363261, 149.1652299, 0.998131096363, -0.00137660838664, -0.000936715630814, -0.0610866770148
2019-04-03 18:57:55.80,58415791, -0.16, -0.12, 352.99, 584.679992676, -35.363261, 149.1652299, 0.998129189014, -0.00154166121501, -0.000980354845524, -0.0611134581268
2019-04-03 18:57:55.90,58515751, -0.15, -0.11, 352.99, 584.840026855, -35.363261, 149.1652299, 0.998128652573, -0.00140525575262, -0.000945572392084, -0.0611253678799
2019-04-03 18:57:56.00,58615711, -0.09, -0.07, 352.99, 584.989990234, -35.363261, 149.1652299, 0.998129069805, -0.000852726923767, -0.000612470088527, -0.061133813113
2019-04-03 18:57:56.09,58715671, -0.02, 0.0, 352.98, 585.140014648, -35.363261, 149.1652299, 0.998129189014, -0.000189107493497, -5.65036934859e-05, -0.0611406937242
2019-04-03 18:57:56.20,58816464, 0.01, 0.04, 352.98, 585.299987793, -35.363261, 149.1652299, 0.998129069805, 0.000151322732563, 0.000381947058486, -0.0611408874393
2019-04-03 18:57:56.30,58916424, 0.01, 0.05, 352.98, 585.460021973, -35.363261, 149.1652299, 0.998128592968, 0.000172281244886, 0.00047928452841, -0.0611481331289
2019-04-03 18:57:56.40,59016384, 0.0, 0.02, 352.98, 585.640014648, -35.363261, 149.1652299, 0.998127818108, -3.7966259697e-05, 0.000203558520298, -0.0611629784107
2019-04-03 18:57:56.50,59116344, -0.05, -0.01, 352.98, 585.809997559, -35.363261, 149.1652298, 0.998126804829, -0.000455610454082, -8.91369127203e-05, -0.0611775554717
2019-04-03 18:57:56.60,59216304, -0.07, -0.03, 352.98, 586.0, -35.363261, 149.1652298, 0.998125851154, -0.000701891956851, -0.000238586828345, -0.0611910298467
2019-04-03 18:57:56.70,59316264, -0.07, -0.03, 352.98, 586.179992676, -35.3632609, 149.1652298, 0.998125255108, -0.000702976540197, -0.000250917626545, -0.0612004883587
2019-04-03 18:57:56.80,59416224, -0.06, -0.02, 352.98, 586.369995117, -35.3632609, 149.1652298, 0.998125076294, -0.000555760052521, -0.000143189259688, -0.0612051486969
2019-04-03 18:57:56.90,59516184, -0.03, 0.0, 352.98, 586.559997559, -35.3632609, 149.1652298, 0.998125314713, -0.000258918153122, 6.40302459942e-05, -0.061202917248
2019-04-03 18:57:57.00,59616144, 0.0, 0.02, 352.98, 586.760009766, -35.3632609, 149.1652298, 0.998125493526, 5.46769515495e-05, 0.000221275666263, -0.0612006448209
2019-04-03 18:57:57.10,59716104, 0.02, 0.03, 352.98, 586.960021973, -35.3632609, 149.1652298, 0.998125612736, 0.000224383649766, 0.000281977350824, -0.0611980706453
2019-04-03 18:57:57.20,59816064, 0.02, 0.03, 352.98, 587.159973145, -35.3632609, 149.1652298, 0.998125851154, 0.000226579693845, 0.000253539503319, -0.0611936599016
2019-04-03 18:57:57.30,59916024, 0.01, 0.01, 352.98, 587.359985352, -35.3632609, 149.1652298, 0.998126268387, 0.000175313121872, 0.000143298399053, -0.0611879564822
2019-04-03 18:57:57.40,60015984, 0.0, 0.0, 352.98, 587.559997559, -35.3632609, 149.1652298, 0.99812656641, 7.54225766286e-05, 1.54067583935e-05, -0.0611833333969
2019-04-03 18:57:57.50,60115944, -0.02, 0.0, 352.98, 587.770019531, -35.3632609, 149.1652298, 0.998126626015, -0.000238665365032, 4.63232618131e-06, -0.0611820630729
2019-04-03 18:57:57.60,60215904, -0.07, 0.01, 352.98, 587.979980469, -35.3632609, 149.1652298, 0.998126327991, -0.000629140529782, 0.000141194497701, -0.0611836276948
2019-04-03 18:57:57.70,60315864, -0.12, 0.03, 352.98, 588.190002441, -35.3632609, 149.1652298, 0.998125255108, -0.00102920795325, 0.000326525216224, -0.0611948631704
2019-04-03 18:57:57.80,60415824, -0.14, 0.02, 352.98, 588.400024414, -35.3632609, 149.1652298, 0.998124182224, -0.00123320252169, 0.000281759654172, -0.0612091645598
2019-04-03 18:57:57.90,60515784, -0.13, 0.0, 352.97, 588.609985352, -35.3632609, 149.1652298, 0.998122632504, -0.00117705040611, 0.000108109736175, -0.0612351335585
2019-04-03 18:57:58.00,60615744, -0.11, -0.02, 352.97, 588.820007324, -35.3632609, 149.1652298, 0.998121142387, -0.0010146064451, -0.000150688952999, -0.0612630620599
2019-04-03 18:57:58.10,60715704, -0.07, -0.06, 352.97, 589.039978027, -35.3632609, 149.1652298, 0.998119473457, -0.000693409587257, -0.000531312951352, -0.0612926892936
2019-04-03 18:57:58.19,60815664, -0.04, -0.09, 352.96, 589.25, -35.3632609, 149.1652298, 0.998117625713, -0.000461844378151, -0.000844578200486, -0.0613210648298
2019-04-03 18:57:58.30,60916457, -0.04, -0.1, 352.96, 589.469970703, -35.3632609, 149.1652298, 0.998116314411, -0.00042759635835, -0.000875954865478, -0.0613421499729
2019-04-03 18:57:58.40,61016417, -0.07, -0.08, 352.96, 589.690002441, -35.3632609, 149.1652298, 0.998115539551, -0.000692235596944, -0.000684885191731, -0.0613551922143
2019-04-03 18:57:58.50,61116377, -0.1, -0.05, 352.96, 589.909973145, -35.3632609, 149.1652298, 0.998115003109, -0.000921731465496, -0.000417522387579, -0.0613632388413
2019-04-03 18:57:58.60,61216337, -0.11, -0.03, 352.96, 590.130004883, -35.3632609, 149.1652298, 0.998114705086, -0.000988634536043, -0.00021960529557, -0.0613680146635
2019-04-03 18:57:58.70,61316297, -0.09, -0.02, 352.96, 590.349975586, -35.3632609, 149.1652297, 0.998114109039, -0.000862586020958, -0.000192399733351, -0.0613790601492
2019-04-03 18:57:58.80,61416257, -0.07, -0.06, 352.96, 590.570007324, -35.3632609, 149.1652297, 0.998113870621, -0.000669497589115, -0.00049463310279, -0.0613848678768
2019-04-03 18:57:58.90,61516217, -0.06, -0.08, 352.96, 590.789978027, -35.3632609, 149.1652297, 0.998113512993, -0.000633704825304, -0.000736923364457, -0.061388220638
2019-04-03 18:57:59.00,61616177, -0.06, -0.07, 352.96, 591.010009766, -35.3632608, 149.1652297, 0.99811309576, -0.000595711811911, -0.000658104603644, -0.061395816505
2019-04-03 18:57:59.10,61716137, -0.05, -0.06, 352.95, 591.210021973, -35.3632608, 149.1652297, 0.998112261295, -0.000516426051036, -0.000511934573296, -0.0614113546908
2019-04-03 18:57:59.20,61816097, -0.06, -0.06, 352.95, 591.409973145, -35.3632608, 149.1652296, 0.998110771179, -0.000569614116102, -0.000548769079614, -0.0614354982972
2019-04-03 18:57:59.30,61916057, -0.05, -0.06, 352.95, 591.599975586, -35.3632608, 149.1652296, 0.998109161854, -0.000518287415616, -0.000517612555996, -0.0614627115428
2019-04-03 18:57:59.40,62016017, -0.04, -0.05, 352.94, 591.770019531, -35.3632608, 149.1652296, 0.998107492924, -0.00045525204041, -0.000460822629975, -0.0614903569221
2019-04-03 18:57:59.50,62115977, -0.03, -0.04, 352.94, 591.940002441, -35.3632608, 149.1652296, 0.998105764389, -0.000321449246258, -0.00033343420364, -0.0615200847387
2019-04-03 18:57:59.60,62215937, 0.15, -0.09, 352.94, 592.090026855, -35.3632608, 149.1652296, 0.998102784157, 0.0012676344486, -0.000888561771717, -0.0615509413183
2019-04-03 18:57:59.70,62315897, 0.66, -0.25, 352.93, 592.229980469, -35.3632608, 149.1652294, 0.998083174229, 0.00562747521326, -0.00259906123392, -0.0615763552487
2019-04-03 18:57:59.80,62415857, 1.47, -0.53, 352.93, 592.349975586, -35.3632608, 149.1652294, 0.998007297516, 0.01257937029, -0.00548948347569, -0.0615880973637
2019-04-03 18:57:59.90,62515817, 2.48, -0.9, 352.91, 592.469970703, -35.3632608, 149.1652294, 0.997834980488, 0.0211895052344, -0.00924132484943, -0.0615708902478
2019-04-03 18:58:00.00,62615777, 3.55, -1.32, 352.9, 592.570007324, -35.3632607, 149.1652296, 0.997556507587, 0.0302615761757, -0.0134944524616, -0.0615078695118
2019-04-03 18:58:00.10,62715737, 4.55, -1.74, 352.88, 592.659973145, -35.3632607, 149.1652297, 0.997206568718, 0.0387406796217, -0.0176322702318, -0.0613789670169
2019-04-03 18:58:00.20,62815697, 5.37, -2.09, 352.87, 592.739990234, -35.3632605, 149.1652298, 0.996858119965, 0.0456633009017, -0.0211108010262, -0.0611806251109
2019-04-03 18:58:00.30,62916490, 6.01, -2.34, 352.88, 592.809997559, -35.3632604, 149.1652301, 0.996554017067, 0.0510684847832, -0.0236833076924, -0.0609195642173
2019-04-03 18:58:00.40,63016450, 6.48, -2.51, 352.89, 592.880004883, -35.3632603, 149.1652303, 0.996315419674, 0.055084798485, -0.025401905179, -0.0606305375695
2019-04-03 18:58:00.50,63116410, 6.86, -2.62, 352.91, 592.929992676, -35.3632601, 149.1652308, 0.996120154858, 0.0583277828991, -0.0264974832535, -0.0603357218206
2019-04-03 18:58:00.60,63216370, 7.19, -2.71, 352.92, 592.979980469, -35.3632598, 149.1652313, 0.995939671993, 0.061175994575, -0.0274403747171, -0.0600724630058
2019-04-03 18:58:00.70,63316330, 7.49, -2.79, 352.93, 593.030029297, -35.3632596, 149.165232, 0.995768129826, 0.0637234002352, -0.0283373910934, -0.0598517917097
2019-04-03 18:58:00.80,63416290, 7.73, -2.86, 352.94, 593.070007324, -35.3632592, 149.1652327, 0.995626091957, 0.0657349526882, -0.0290822889656, -0.0596818588674
2019-04-03 18:58:00.90,63516250, 7.89, -2.94, 352.94, 593.109985352, -35.3632589, 149.1652334, 0.995516896248, 0.0671331956983, -0.0298316497356, -0.0595756284893
2019-04-03 18:58:01.00,63616210, 8.01, -3.02, 352.94, 593.140014648, -35.3632585, 149.1652342, 0.995429873466, 0.0681297034025, -0.0305750928819, -0.059521868825
2019-04-03 18:58:01.10,63716170, 8.11, -3.1, 352.93, 593.16998291, -35.363258, 149.1652353, 0.995349884033, 0.0689654424787, -0.0313381105661, -0.0595006197691
2019-04-03 18:58:01.20,63816130, 8.24, -3.18, 352.93, 593.200012207, -35.3632576, 149.1652363, 0.995256483555, 0.0699862018228, -0.0320967882872, -0.0594666935503
2019-04-03 18:58:01.30,63916090, 8.52, -3.07, 353.11, 593.229980469, -35.3632571, 149.1652374, 0.995196223259, 0.0725426152349, -0.0311282593757, -0.0579060688615
2019-04-03 18:58:01.40,64016050, 8.98, -2.73, 354.06, 593.260009766, -35.3632566, 149.1652385, 0.995402634144, 0.0769697129726, -0.0278391633183, -0.0497420467436
2019-04-03 18:58:01.50,64116010, 9.52, -2.54, 356.44, 593.289978027, -35.3632561, 149.1652399, 0.995876550674, 0.0823010876775, -0.0247150976211, -0.0290787313133
2019-04-03 18:58:01.60,64215970, 9.96, -2.84, 0.45, 593.320007324, -35.3632555, 149.1652413, 0.995898544788, 0.0869066938758, -0.024410514161, 0.00611686240882
2019-04-03 18:58:01.70,64315930, 10.09, -3.79, 5.94, 593.340026855, -35.3632549, 149.1652427, 0.99408274889, 0.0895497575402, -0.0283872392029, 0.0545391105115
2019-04-03 18:58:01.80,64415890, 9.73, -5.3, 12.64, 593.369995117, -35.3632543, 149.1652444, 0.988832116127, 0.0893549993634, -0.0365051999688, 0.11355227977
2019-04-03 18:58:01.90,64515850, 8.83, -7.15, 20.29, 593.400024414, -35.3632537, 149.165246, 0.978673100471, 0.0866065993905, -0.0476626902819, 0.180073827505
2019-04-03 18:58:02.00,64615810, 7.38, -9.06, 28.62, 593.429992676, -35.3632531, 149.1652478, 0.962658286095, 0.0817303806543, -0.0604911781847, 0.250898361206
2019-04-03 18:58:02.10,64715770, 5.48, -10.79, 37.37, 593.460021973, -35.3632525, 149.1652497, 0.940564036369, 0.0751959756017, -0.0737115740776, 0.322879970074
2019-04-03 18:58:02.20,64815730, 3.23, -12.15, 46.23, 593.5, -35.3632519, 149.1652517, 0.912988960743, 0.0673295855522, -0.0863003209233, 0.393026947975
2019-04-03 18:58:02.29,64915690, 0.78, -13.04, 54.89, 593.530029297, -35.3632512, 149.1652537, 0.881325185299, 0.058389686048, -0.0976232588291, 0.458613425493
2019-04-03 18:58:02.40,65016483, -1.93, -13.4, 62.9, 593.570007324, -35.3632504, 149.1652559, 0.848132908344, 0.0466198809445, -0.108281396329, 0.51650005579
2019-04-03 18:58:02.50,65116443, -4.54, -13.29, 69.4, 593.599975586, -35.3632494, 149.1652581, 0.818571925163, 0.0334525220096, -0.117506146431, 0.561260402203
2019-04-03 18:58:02.60,65216403, -6.57, -12.95, 73.92, 593.640014648, -35.3632485, 149.1652604, 0.796533346176, 0.0222166981548, -0.124254539609, 0.591271460056
2019-04-03 18:58:02.70,65316363, -7.71, -12.64, 76.38, 593.679992676, -35.3632475, 149.1652627, 0.78398668766, 0.0153965819627, -0.127718567848, 0.607302069664
2019-04-03 18:58:02.80,65416323, -7.92, -12.52, 77.01, 593.719970703, -35.3632464, 149.1652651, 0.780710697174, 0.0140384733677, -0.127942383289, 0.611493647099
2019-04-03 18:58:02.90,65516283, -7.3, -12.68, 76.16, 593.760009766, -35.3632451, 149.1652676, 0.785084068775, 0.0181253831834, -0.125808432698, 0.606206893921
2019-04-03 18:58:03.00,65616243, -6.03, -13.08, 74.2, 593.809997559, -35.3632438, 149.16527, 0.794899523258, 0.0269608236849, -0.122316464782, 0.593672037125
2019-04-03 18:58:03.10,65716203, -4.31, -13.68, 71.48, 593.849975586, -35.3632424, 149.1652727, 0.80791169405, 0.0392003580928, -0.118486255407, 0.575936675072
2019-04-03 18:58:03.20,65816163, -2.41, -14.33, 68.34, 593.900024414, -35.3632409, 149.1652753, 0.822179496288, 0.0527634136379, -0.1150046736, 0.554987251759
2019-04-03 18:58:03.30,65916123, -0.54, -14.9, 65.1, 593.950012207, -35.3632395, 149.165278, 0.836097657681, 0.0658265203238, -0.111874580383, 0.53300255537
2019-04-03 18:58:03.40,66016083, 1.09, -15.29, 62.11, 594.0, -35.3632379, 149.1652808, 0.848341822624, 0.0767643228173, -0.109098210931, 0.512368023396
2019-04-03 18:58:03.50,66116043, 2.35, -15.48, 59.67, 594.039978027, -35.3632365, 149.1652835, 0.857991099358, 0.0846449509263, -0.106695011258, 0.49528041482
2019-04-03 18:58:03.60,66216003, 3.13, -15.5, 57.97, 594.090026855, -35.3632351, 149.1652866, 0.864616334438, 0.0891073718667, -0.104823768139, 0.483229219913
2019-04-03 18:58:03.70,66315963, 3.46, -15.45, 57.08, 594.140014648, -35.3632336, 149.1652897, 0.86814469099, 0.0905158519745, -0.103786118329, 0.476822912693
2019-04-03 18:58:03.80,66415923, 3.34, -15.42, 56.96, 594.190002441, -35.3632321, 149.1652929, 0.868784248829, 0.0894030854106, -0.104083150625, 0.475802212954
2019-04-03 18:58:03.90,66515883, 2.85, -15.42, 57.48, 594.239990234, -35.3632306, 149.1652961, 0.866990983486, 0.0861879587173, -0.105768084526, 0.479282230139
2019-04-03 18:58:04.00,66615843, 2.09, -15.5, 58.46, 594.289978027, -35.3632292, 149.1652993, 0.863316059113, 0.0816483348608, -0.108847931027, 0.485974341631
2019-04-03 18:58:04.10,66715803, 1.21, -15.63, 59.72, 594.340026855, -35.3632276, 149.1653028, 0.858400285244, 0.0768423527479, -0.112752921879, 0.494500786066
2019-04-03 18:58:04.20,66815763, 0.33, -15.77, 61.06, 594.400024414, -35.3632263, 149.1653063, 0.853008985519, 0.0721853300929, -0.116698600352, 0.503533899784
2019-04-03 18:58:04.30,66915723, -0.43, -15.87, 62.3, 594.450012207, -35.3632246, 149.1653098, 0.847837388515, 0.0682400539517, -0.120114199817, 0.511944949627
2019-04-03 18:58:04.39,67015683, -1.0, -15.94, 63.34, 594.5, -35.3632232, 149.1653134, 0.84346228838, 0.0653967559338, -0.122609049082, 0.518904268742
2019-04-03 18:58:04.50,67116476, -1.36, -15.98, 64.08, 594.549987793, -35.3632215, 149.1653169, 0.840263605118, 0.0637706443667, -0.124056823552, 0.523927748203
2019-04-03 18:58:04.60,67216436, -1.5, -15.99, 64.48, 594.599975586, -35.3632201, 149.1653206, 0.838483035564, 0.0632406249642, -0.124627940357, 0.526701748371
2019-04-03 18:58:04.70,67316396, -1.48, -16.02, 64.56, 594.650024414, -35.3632184, 149.1653242, 0.83804166317, 0.0636444464326, -0.124698296189, 0.527338564396
2019-04-03 18:58:04.80,67416356, -1.3, -16.07, 64.38, 594.700012207, -35.3632167, 149.165328, 0.838740944862, 0.0649256408215, -0.124341189861, 0.526153564453
2019-04-03 18:58:04.90,67516316, -1.01, -16.1, 64.0, 594.75, -35.3632151, 149.1653318, 0.840301275253, 0.0668246746063, -0.123465821147, 0.52362626791
2019-04-03 18:58:05.00,67616276, -0.66, -16.14, 63.49, 594.799987793, -35.3632134, 149.1653355, 0.842374384403, 0.0689926892519, -0.122410602868, 0.520250976086
2019-04-03 18:58:05.10,67716236, -0.31, -16.18, 62.94, 594.859985352, -35.3632117, 149.1653393, 0.844600498676, 0.0712251439691, -0.121501222253, 0.516540825367
2019-04-03 18:58:05.20,67816196, 0.0, -16.25, 62.41, 594.909973145, -35.3632099, 149.1653432, 0.846692860126, 0.0732827857137, -0.120876908302, 0.512961626053
2019-04-03 18:58:05.30,67916156, 0.25, -16.31, 61.97, 594.960021973, -35.3632082, 149.1653471, 0.848451495171, 0.0749510750175, -0.120500393212, 0.509894192219
2019-04-03 18:58:05.40,68016116, 0.42, -16.36, 61.64, 595.010009766, -35.3632064, 149.1653509, 0.849755227566, 0.0760579779744, -0.120327204466, 0.507595002651
2019-04-03 18:58:05.50,68116076, 0.5, -16.4, 61.44, 595.059997559, -35.3632048, 149.1653548, 0.850540757179, 0.0766098275781, -0.120457157493, 0.506163477898
2019-04-03 18:58:05.60,68216036, 0.47, -16.44, 61.36, 595.119995117, -35.363203, 149.1653589, 0.850846648216, 0.0765102058649, -0.120856709778, 0.505568861961
2019-04-03 18:58:05.70,68315996, 0.37, -16.47, 61.4, 595.16998291, -35.3632013, 149.1653629, 0.850722432137, 0.0759461820126, -0.12150464952, 0.50570756197
2019-04-03 18:58:05.80,68415956, 0.24, -16.49, 61.52, 595.219970703, -35.3631995, 149.165367, 0.850258350372, 0.0751967281103, -0.122134029865, 0.506447911263
2019-04-03 18:58:05.90,68515916, 0.1, -16.49, 61.69, 595.270019531, -35.3631977, 149.165371, 0.849575281143, 0.0743723288178, -0.122693635523, 0.507579445839
2019-04-03 18:58:06.00,68615876, -0.01, -16.51, 61.89, 595.320007324, -35.3631959, 149.1653752, 0.848770856857, 0.0737428292632, -0.123245760798, 0.508881568909
2019-04-03 18:58:06.10,68715836, -0.11, -16.54, 62.08, 595.380004883, -35.3631941, 149.1653792, 0.847965180874, 0.0733356326818, -0.123801082373, 0.510147213936
2019-04-03 18:58:06.20,68815796, -0.17, -16.59, 62.23, 595.429992676, -35.3631923, 149.1653834, 0.84724354744, 0.0732861161232, -0.124289125204, 0.511233568192
2019-04-03 18:58:06.30,68915756, -0.21, -16.63, 62.35, 595.479980469, -35.3631905, 149.1653876, 0.846713900566, 0.0732791647315, -0.124716535211, 0.51200735569
2019-04-03 18:58:06.40,69015716, -0.25, -16.67, 62.42, 595.530029297, -35.3631886, 149.1653917, 0.846401393414, 0.0732609629631, -0.125114127994, 0.512429535389
2019-04-03 18:58:06.49,69115676, -0.27, -16.69, 62.43, 595.58001709, -35.3631868, 149.1653959, 0.84631472826, 0.0732031315565, -0.125367224216, 0.512519061565
2019-04-03 18:58:06.60,69216469, -0.27, -16.71, 62.41, 595.640014648, -35.363185, 149.1654002, 0.846414864063, 0.073272831738, -0.125538438559, 0.512301743031
2019-04-03 18:58:06.70,69316429, -0.24, -16.73, 62.34, 595.690002441, -35.3631831, 149.1654045, 0.846661090851, 0.0734712257981, -0.125588789582, 0.51185387373
2019-04-03 18:58:06.80,69416389, -0.2, -16.77, 62.26, 595.739990234, -35.3631813, 149.1654088, 0.846973121166, 0.07387329638, -0.125799506903, 0.511227667332
2019-04-03 18:58:06.90,69516349, -0.16, -16.82, 62.16, 595.789978027, -35.3631794, 149.165413, 0.847322225571, 0.0743277072906, -0.126014962792, 0.510529756546
2019-04-03 18:58:07.00,69616309, -0.11, -16.87, 62.06, 595.840026855, -35.3631775, 149.1654173, 0.847673654556, 0.0747424811125, -0.126234173775, 0.509831190109
2019-04-03 18:58:07.10,69716269, -0.06, -16.9, 61.97, 595.900024414, -35.3631756, 149.1654216, 0.847997665405, 0.0751912668347, -0.126306787133, 0.509208083153
2019-04-03 18:58:07.20,69816229, -0.01, -16.92, 61.9, 595.950012207, -35.3631737, 149.1654259, 0.848277926445, 0.0755635872483, -0.126280963421, 0.508692324162
2019-04-03 18:58:07.30,69916189, 0.01, -16.92, 61.84, 596.0, -35.3631717, 149.1654303, 0.848501384258, 0.0757767036557, -0.12616853416, 0.508315682411
2019-04-03 18:58:07.40,70016149, 0.03, -16.92, 61.81, 596.049987793, -35.3631698, 149.1654346, 0.848661422729, 0.075804322958, -0.126088991761, 0.50806415081
2019-04-03 18:58:07.50,70116109, 0.02, -16.92, 61.79, 596.109985352, -35.363168, 149.165439, 0.848745822906, 0.0757245793939, -0.126154705882, 0.507918715477
2019-04-03 18:58:07.60,70216069, 0.0, -16.93, 61.79, 596.159973145, -35.3631661, 149.1654433, 0.848754346371, 0.0756129324436, -0.126328319311, 0.507877826691
2019-04-03 18:58:07.70,70316029, -0.01, -16.93, 61.8, 596.210021973, -35.3631641, 149.1654477, 0.84870672226, 0.0755131468177, -0.126458495855, 0.507939875126
2019-04-03 18:58:07.80,70415989, -0.05, -16.94, 61.82, 596.260009766, -35.3631622, 149.1654522, 0.848633348942, 0.0753325074911, -0.12666234374, 0.508038461208
2019-04-03 18:58:07.90,70515949, -0.08, -16.97, 61.84, 596.320007324, -35.3631602, 149.1654566, 0.848535895348, 0.0752011910081, -0.127005457878, 0.508135080338
2019-04-03 18:58:08.00,70615909, -0.11, -17.02, 61.86, 596.369995117, -35.3631582, 149.165461, 0.848420083523, 0.0752553269267, -0.127458646894, 0.508206903934
2019-04-03 18:58:08.10,70715869, -0.09, -17.06, 61.87, 596.41998291, -35.3631564, 149.1654654, 0.84831994772, 0.0755159854889, -0.127676621079, 0.508280754089
2019-04-03 18:58:08.20,70815829, -0.07, -17.09, 61.87, 596.479980469, -35.3631544, 149.16547, 0.848254024982, 0.0758167505264, -0.12780559063, 0.508313536644
2019-04-03 18:58:08.30,70915789, -0.06, -17.1, 61.87, 596.530029297, -35.3631524, 149.1654744, 0.848252236843, 0.0759772434831, -0.127804130316, 0.508292973042
2019-04-03 18:58:08.40,71015749, -0.06, -17.09, 61.85, 596.58001709, -35.3631504, 149.1654788, 0.848313510418, 0.0758985951543, -0.127832621336, 0.508195281029
2019-04-03 18:58:08.50,71115709, -0.09, -17.09, 61.84, 596.630004883, -35.3631485, 149.1654834, 0.848412752151, 0.0756735652685, -0.127907648683, 0.508044242859
2019-04-03 18:58:08.59,71215669, -0.11, -17.08, 61.82, 596.690002441, -35.3631465, 149.1654878, 0.848526716232, 0.0754788517952, -0.127955541015, 0.507870793343
2019-04-03 18:58:08.70,71316462, -0.1, -17.09, 61.79, 596.739990234, -35.3631445, 149.1654925, 0.848617851734, 0.0755387619138, -0.128034099936, 0.507689774036
2019-04-03 18:58:08.80,71416422, -0.09, -17.13, 61.77, 596.789978027, -35.3631424, 149.1654969, 0.848676145077, 0.0758057385683, -0.128293663263, 0.50748693943
2019-04-03 18:58:08.90,71516382, -0.08, -17.19, 61.74, 596.849975586, -35.3631406, 149.1655015, 0.84872251749, 0.0760745108128, -0.128675743937, 0.507272362709
2019-04-03 18:58:09.00,71616342, -0.08, -17.23, 61.72, 596.900024414, -35.3631386, 149.165506, 0.848779320717, 0.0762238875031, -0.128986611962, 0.507075965405
2019-04-03 18:58:09.10,71716302, -0.08, -17.23, 61.7, 596.950012207, -35.3631366, 149.1655104, 0.848860025406, 0.0762127190828, -0.129038020968, 0.506929457188
2019-04-03 18:58:09.20,71816262, -0.07, -17.23, 61.68, 597.010009766, -35.3631345, 149.1655151, 0.848931729794, 0.0762572959065, -0.128940731287, 0.506827414036
2019-04-03 18:58:09.30,71916222, -0.06, -17.21, 61.67, 597.059997559, -35.3631326, 149.1655195, 0.849000751972, 0.0762380808592, -0.12877753377, 0.506756186485
2019-04-03 18:58:09.40,72016182, -0.06, -17.18, 61.66, 597.109985352, -35.3631304, 149.1655242, 0.849071979523, 0.0761095061898, -0.128591120243, 0.506703495979
2019-04-03 18:58:09.50,72116142, -0.05, -17.17, 61.65, 597.159973145, -35.3631284, 149.1655288, 0.849114656448, 0.0761383026838, -0.128439545631, 0.506666183472
2019-04-03 18:58:09.60,72216102, -0.03, -17.19, 61.65, 597.219970703, -35.3631265, 149.1655333, 0.84911108017, 0.0763056576252, -0.128532707691, 0.506623327732
2019-04-03 18:58:09.70,72316062, -0.02, -17.22, 61.64, 597.270019531, -35.3631245, 149.1655379, 0.849085330963, 0.0765414685011, -0.128711342812, 0.506585538387
2019-04-03 18:58:09.80,72416022, 0.0, -17.25, 61.64, 597.320007324, -35.3631224, 149.1655424, 0.849055826664, 0.0767953246832, -0.1288523525, 0.506560742855
2019-04-03 18:58:09.90,72515982, 0.0, -17.28, 61.64, 597.380004883, -35.3631204, 149.1655471, 0.849028348923, 0.0770071148872, -0.129004016519, 0.506536006927
2019-04-03 18:58:10.00,72615942, 0.01, -17.32, 61.63, 597.429992676, -35.3631184, 149.1655516, 0.848988711834, 0.077266857028, -0.129322648048, 0.506481647491
2019-04-03 18:58:10.10,72715902, 0.01, -17.37, 61.63, 597.479980469, -35.3631163, 149.1655563, 0.848961651325, 0.0774619653821, -0.129630446434, 0.506418585777
2019-04-03 18:58:10.20,72815862, 0.01, -17.37, 61.62, 597.530029297, -35.3631144, 149.1655609, 0.848976194859, 0.0774645507336, -0.129704326391, 0.506374835968
2019-04-03 18:58:10.30,72915822, 0.0, -17.36, 61.62, 597.590026855, -35.3631123, 149.1655654, 0.849021434784, 0.077348433435, -0.129605025053, 0.506342232227
2019-04-03 18:58:10.40,73015782, 0.01, -17.34, 61.61, 597.640014648, -35.3631102, 149.1655701, 0.849075615406, 0.0772988647223, -0.129444330931, 0.506299972534
2019-04-03 18:58:10.50,73115742, 0.03, -17.34, 61.6, 597.690002441, -35.3631082, 149.1655748, 0.84910184145, 0.0774248763919, -0.129349887371, 0.506260871887
2019-04-03 18:58:10.60,73215702, 0.04, -17.36, 61.59, 597.739990234, -35.3631062, 149.1655793, 0.849097788334, 0.0776562392712, -0.129498556256, 0.506194293499
2019-04-03 18:58:10.69,73315662, 0.04, -17.39, 61.58, 597.789978027, -35.3631041, 149.165584, 0.849101483822, 0.077787257731, -0.129713997245, 0.506112754345
2019-04-03 18:58:10.80,73416455, 0.02, -17.41, 61.57, 597.849975586, -35.3631021, 149.1655887, 0.84913790226, 0.0776691138744, -0.129908308387, 0.506019949913
2019-04-03 18:58:10.90,73516415, 0.0, -17.41, 61.57, 597.900024414, -35.3630999, 149.1655932, 0.849185407162, 0.0774753168225, -0.130023568869, 0.505940377712
2019-04-03 18:58:11.00,73616375, 0.0, -17.39, 61.56, 597.950012207, -35.363098, 149.165598, 0.84923774004, 0.0773467496037, -0.129973292351, 0.505885064602
2019-04-03 18:58:11.10,73716335, 0.01, -17.38, 61.55, 598.0, -35.3630959, 149.1656027, 0.849265217781, 0.0774841159582, -0.12975281477, 0.505874574184
2019-04-03 18:58:11.20,73816295, 0.04, -17.39, 61.55, 598.059997559, -35.3630938, 149.1656073, 0.849263310432, 0.0777426287532, -0.12970097363, 0.505851387978
2019-04-03 18:58:11.30,73916255, 0.06, -17.42, 61.54, 598.109985352, -35.3630918, 149.1656119, 0.849249541759, 0.0779686197639, -0.129857197404, 0.505799591541
2019-04-03 18:58:11.40,74016215, 0.07, -17.45, 61.53, 598.159973145, -35.3630898, 149.1656166, 0.849237143993, 0.0781489759684, -0.130037277937, 0.505746364594
2019-04-03 18:58:11.50,74116175, 0.07, -17.46, 61.53, 598.219970703, -35.3630877, 149.1656213, 0.84925442934, 0.0781844258308, -0.130120530725, 0.505690395832
2019-04-03 18:58:11.60,74216135, 0.06, -17.47, 61.52, 598.270019531, -35.3630856, 149.165626, 0.849276065826, 0.0781845673919, -0.130193680525, 0.505635201931
2019-04-03 18:58:11.70,74316095, 0.07, -17.48, 61.51, 598.320007324, -35.3630835, 149.1656306, 0.849284470081, 0.0782682821155, -0.130298361182, 0.505581140518
2019-04-03 18:58:11.80,74416055, 0.07, -17.48, 61.51, 598.369995117, -35.3630815, 149.1656353, 0.849305450916, 0.0783208236098, -0.130296781659, 0.505538284779
2019-04-03 18:58:11.90,74516015, 0.07, -17.48, 61.5, 598.41998291, -35.3630793, 149.16564, 0.849335372448, 0.0783239305019, -0.130289465189, 0.505489349365
2019-04-03 18:58:12.00,74615975, 0.08, -17.51, 61.49, 598.479980469, -35.3630774, 149.1656447, 0.849339962006, 0.0784381702542, -0.130455061793, 0.505421221256
2019-04-03 18:58:12.10,74715935, 0.09, -17.55, 61.49, 598.530029297, -35.3630753, 149.1656494, 0.849319696426, 0.0787125006318, -0.130696192384, 0.505350232124
2019-04-03 18:58:12.20,74815895, 0.1, -17.58, 61.48, 598.58001709, -35.3630731, 149.165654, 0.849307060242, 0.0789192691445, -0.130940765142, 0.505275964737
2019-04-03 18:58:12.30,74915855, 0.09, -17.6, 61.47, 598.630004883, -35.3630712, 149.1656588, 0.849323689938, 0.0789178609848, -0.131123811007, 0.50520080328
2019-04-03 18:58:12.40,75015815, 0.05, -17.6, 61.47, 598.690002441, -35.3630691, 149.1656635, 0.849377572536, 0.0786036998034, -0.13128836453, 0.505116403103
2019-04-03 18:58:12.50,75115775, 0.02, -17.59, 61.46, 598.739990234, -35.363067, 149.1656682, 0.849435150623, 0.0783502906561, -0.131305858493, 0.505054414272
2019-04-03 18:58:12.60,75215735, 0.03, -17.58, 61.45, 598.789978027, -35.3630649, 149.1656729, 0.84946846962, 0.0783557593822, -0.131261914968, 0.505008876324
2019-04-03 18:58:12.70,75315695, 0.04, -17.6, 61.45, 598.840026855, -35.3630628, 149.1656775, 0.849476277828, 0.0785142332315, -0.131322577596, 0.504955470562
2019-04-03 18:58:12.80,75416488, 0.06, -17.62, 61.44, 598.900024414, -35.3630608, 149.1656823, 0.849470198154, 0.0787452533841, -0.131411164999, 0.504906654358
2019-04-03 18:58:12.90,75516448, 0.08, -17.62, 61.43, 598.950012207, -35.3630586, 149.165687, 0.849486291409, 0.0788803547621, -0.131301686168, 0.504886984825
2019-04-03 18:58:13.00,75616408, 0.09, -17.62, 61.43, 599.0, -35.3630566, 149.1656918, 0.849503576756, 0.0789685547352, -0.1312456429, 0.504858672619
2019-04-03 18:58:13.10,75716368, 0.1, -17.62, 61.42, 599.059997559, -35.3630544, 149.1656966, 0.849516510963, 0.0790493935347, -0.131256431341, 0.504821419716
2019-04-03 18:58:13.20,75816328, 0.09, -17.63, 61.41, 599.109985352, -35.3630524, 149.1657013, 0.849537312984, 0.0789894908667, -0.131381675601, 0.504763185978
2019-04-03 18:58:13.30,75916288, 0.06, -17.65, 61.41, 599.159973145, -35.3630503, 149.165706, 0.849562942982, 0.0788266509771, -0.131648167968, 0.504676103592
2019-04-03 18:58:13.40,76016248, 0.01, -17.66, 61.4, 599.210021973, -35.3630482, 149.1657108, 0.849609613419, 0.0785305798054, -0.13191537559, 0.504573941231
2019-04-03 18:58:13.50,76116208, 0.0, -17.66, 61.4, 599.270019531, -35.3630462, 149.1657155, 0.84964543581, 0.0783823505044, -0.132077351213, 0.504494190216
2019-04-03 18:58:13.60,76216168, 0.0, -17.69, 61.39, 599.320007324, -35.363044, 149.1657201, 0.849659204483, 0.0784678310156, -0.132240027189, 0.504415094852
2019-04-03 18:58:13.70,76316128, 0.01, -17.69, 61.38, 599.369995117, -35.363042, 149.1657249, 0.84968405962, 0.0786560997367, -0.132208421826, 0.504352211952
2019-04-03 18:58:13.80,76416088, 0.04, -17.7, 61.37, 599.41998291, -35.3630398, 149.1657296, 0.849712729454, 0.0788720846176, -0.132108569145, 0.5042963624
2019-04-03 18:58:13.90,76516048, 0.06, -17.7, 61.35, 599.479980469, -35.3630378, 149.1657344, 0.849747896194, 0.0789787694812, -0.132060170174, 0.504233062267
2019-04-03 18:58:14.00,76616008, 0.06, -17.7, 61.34, 599.530029297, -35.3630357, 149.1657392, 0.8497838974, 0.079008422792, -0.132112577558, 0.504154026508
2019-04-03 18:58:14.10,76715968, 0.05, -17.7, 61.33, 599.58001709, -35.3630336, 149.165744, 0.849841654301, 0.0788734704256, -0.132143601775, 0.504069685936
2019-04-03 18:58:14.20,76815928, 0.03, -17.7, 61.33, 599.630004883, -35.3630315, 149.1657488, 0.849895715714, 0.078747227788, -0.132175579667, 0.503989875317
2019-04-03 18:58:14.30,76915888, 0.04, -17.72, 61.32, 599.690002441, -35.3630293, 149.1657535, 0.849897146225, 0.0789023116231, -0.132289782166, 0.503933250904
2019-04-03 18:58:14.40,77015848, 0.08, -17.74, 61.31, 599.739990234, -35.3630273, 149.1657583, 0.849877178669, 0.0792500972748, -0.132271677256, 0.503917038441
2019-04-03 18:58:14.50,77115808, 0.12, -17.72, 61.31, 599.789978027, -35.3630251, 149.165763, 0.84988117218, 0.0795319378376, -0.131996139884, 0.503938257694
2019-04-03 18:58:14.60,77215768, 0.15, -17.69, 61.3, 599.840026855, -35.3630231, 149.1657678, 0.849915623665, 0.0795856118202, -0.131664693356, 0.503958404064
2019-04-03 18:58:14.70,77315728, 0.16, -17.67, 61.3, 599.900024414, -35.3630209, 149.1657726, 0.84994918108, 0.0795419588685, -0.131472721696, 0.503958702087
2019-04-03 18:58:14.79,77415688, 0.13, -17.69, 61.3, 599.950012207, -35.3630188, 149.1657774, 0.849949359894, 0.0794570818543, -0.13174533844, 0.503900647163
2019-04-03 18:58:14.90,77516481, 0.11, -17.75, 61.3, 600.0, -35.3630166, 149.1657822, 0.849899470806, 0.0795125439763, -0.132311850786, 0.503827512264
2019-04-03 18:58:15.00,77616441, 0.09, -17.8, 61.3, 600.049987793, -35.3630146, 149.1657869, 0.849851369858, 0.079609952867, -0.132756754756, 0.503776371479
2019-04-03 18:58:15.10,77716401, 0.08, -17.82, 61.3, 600.109985352, -35.3630124, 149.1657917, 0.849838256836, 0.0796413123608, -0.132907107472, 0.503753840923
2019-04-03 18:58:15.20,77816361, 0.08, -17.81, 61.3, 600.159973145, -35.3630104, 149.1657965, 0.849866509438, 0.0795390307903, -0.132820263505, 0.503745257854
2019-04-03 18:58:15.30,77916321, 0.07, -17.76, 61.29, 600.210021973, -35.3630083, 149.1658013, 0.849940121174, 0.0792698040605, -0.132515698671, 0.503743708134
2019-04-03 18:58:15.40,78016281, 0.07, -17.72, 61.29, 600.260009766, -35.3630062, 149.1658061, 0.850009143353, 0.0790462568402, -0.132227212191, 0.503738224506
2019-04-03 18:58:15.50,78116241, 0.06, -17.68, 61.28, 600.320007324, -35.3630041, 149.1658108, 0.850066959858, 0.0788883045316, -0.131972521544, 0.503732204437
2019-04-03 18:58:15.60,78216201, 0.08, -17.67, 61.28, 600.369995117, -35.363002, 149.1658156, 0.850092828274, 0.0789235755801, -0.131818965077, 0.503723144531
2019-04-03 18:58:15.70,78316161, 0.08, -17.68, 61.27, 600.41998291, -35.3629998, 149.1658204, 0.850106179714, 0.0789766311646, -0.131887704134, 0.503674328327
2019-04-03 18:58:15.80,78416121, 0.08, -17.71, 61.27, 600.469970703, -35.3629977, 149.1658252, 0.850107133389, 0.0790634155273, -0.132115408778, 0.503599405289
2019-04-03 18:58:15.90,78516081, 0.07, -17.73, 61.26, 600.530029297, -35.3629956, 149.16583, 0.850121676922, 0.0790839344263, -0.132296591997, 0.503524005413
2019-04-03 18:58:16.00,78616041, 0.06, -17.72, 61.25, 600.58001709, -35.3629935, 149.1658348, 0.850166857243, 0.0789839401841, -0.13231793046, 0.503457903862
2019-04-03 18:58:16.10,78716001, 0.03, -17.71, 61.24, 600.630004883, -35.3629914, 149.1658396, 0.850236356258, 0.0787201970816, -0.132327735424, 0.503379285336
2019-04-03 18:58:16.20,78815961, 0.01, -17.71, 61.24, 600.690002441, -35.3629892, 149.1658444, 0.850286066532, 0.0785094201565, -0.132443085313, 0.503297805786
2019-04-03 18:58:16.30,78915921, 0.0, -17.73, 61.23, 600.739990234, -35.3629872, 149.1658492, 0.850302278996, 0.0784953683615, -0.132674232125, 0.503211796284
2019-04-03 18:58:16.40,79015881, 0.0, -17.76, 61.22, 600.789978027, -35.362985, 149.165854, 0.850301623344, 0.078610882163, -0.132912099361, 0.503132045269
2019-04-03 18:58:16.50,79115841, 0.01, -17.77, 61.21, 600.840026855, -35.3629829, 149.1658588, 0.850314974785, 0.0787834450603, -0.132895156741, 0.503086984158
2019-04-03 18:58:16.60,79215801, 0.05, -17.78, 61.21, 600.890014648, -35.3629807, 149.1658636, 0.850314557552, 0.0790790095925, -0.132835507393, 0.503057062626
2019-04-03 18:58:16.70,79315761, 0.08, -17.79, 61.2, 600.950012207, -35.3629787, 149.1658683, 0.850321054459, 0.0793428122997, -0.132719680667, 0.503035128117
2019-04-03 18:58:16.80,79415721, 0.1, -17.78, 61.19, 601.0, -35.3629765, 149.1658731, 0.850343704224, 0.0794447287917, -0.132633686066, 0.503003418446
2019-04-03 18:58:16.89,79515681, 0.09, -17.77, 61.18, 601.049987793, -35.3629744, 149.1658779, 0.850386559963, 0.0793653577566, -0.132569536567, 0.502960383892
2019-04-03 18:58:17.00,79616474, 0.09, -17.78, 61.18, 601.109985352, -35.3629722, 149.1658828, 0.850409269333, 0.0793774202466, -0.132610559464, 0.502909362316
2019-04-03 18:58:17.10,79716434, 0.09, -17.8, 61.17, 601.159973145, -35.3629702, 149.1658876, 0.850406944752, 0.0794719085097, -0.132789045572, 0.502851188183
2019-04-03 18:58:17.20,79816394, 0.1, -17.81, 61.17, 601.210021973, -35.3629679, 149.1658924, 0.850412011147, 0.0795315131545, -0.132853895426, 0.502816140652
2019-04-03 18:58:17.30,79916354, 0.08, -17.81, 61.16, 601.260009766, -35.3629659, 149.1658972, 0.850448310375, 0.0793632641435, -0.132907673717, 0.50276696682
2019-04-03 18:58:17.40,80016314, 0.06, -17.79, 61.16, 601.320007324, -35.3629637, 149.165902, 0.850494205952, 0.0791507959366, -0.132897540927, 0.502725541592
2019-04-03 18:58:17.50,80116274, 0.05, -17.77, 61.16, 601.369995117, -35.3629617, 149.1659067, 0.850535333157, 0.0790540799499, -0.13277952373, 0.502702414989
2019-04-03 18:58:17.60,80216234, 0.07, -17.76, 61.15, 601.41998291, -35.3629594, 149.1659115, 0.850566506386, 0.0790790617466, -0.13260409236, 0.502692043781
2019-04-03 18:58:17.70,80316194, 0.09, -17.76, 61.15, 601.469970703, -35.3629574, 149.1659163, 0.850564837456, 0.0792595148087, -0.132548063993, 0.502681255341
2019-04-03 18:58:17.80,80416154, 0.09, -17.78, 61.14, 601.530029297, -35.3629552, 149.1659212, 0.850557923317, 0.0793675109744, -0.132687911391, 0.502639055252
2019-04-03 18:58:17.90,80516114, 0.11, -17.82, 61.14, 601.58001709, -35.3629531, 149.1659261, 0.850517392159, 0.0796539634466, -0.13291913271, 0.502601146698
2019-04-03 18:58:18.00,80616074, 0.12, -17.85, 61.14, 601.630004883, -35.3629509, 149.1659309, 0.85048943758, 0.0798728391528, -0.133020356297, 0.502586960793
2019-04-03 18:58:18.10,80716034, 0.13, -17.85, 61.14, 601.690002441, -35.3629489, 149.1659357, 0.850483119488, 0.0799369513988, -0.133019074798, 0.502587795258
2019-04-03 18:58:18.20,80815994, 0.13, -17.85, 61.13, 601.739990234, -35.3629466, 149.1659405, 0.850478053093, 0.0799767151475, -0.133027136326, 0.502587974072
2019-04-03 18:58:18.30,80915954, 0.13, -17.84, 61.13, 601.789978027, -35.3629446, 149.1659453, 0.850500524044, 0.0798702463508, -0.132965192199, 0.502583265305
2019-04-03 18:58:18.40,81015914, 0.12, -17.82, 61.13, 601.840026855, -35.3629424, 149.1659502, 0.850534081459, 0.0797017067671, -0.13283598423, 0.50258731842
2019-04-03 18:58:18.50,81115874, 0.12, -17.79, 61.13, 601.900024414, -35.3629403, 149.165955, 0.850561738014, 0.0796040296555, -0.132661134005, 0.502602219582
2019-04-03 18:58:18.60,81215834, 0.13, -17.77, 61.13, 601.950012207, -35.3629381, 149.1659598, 0.8505859375, 0.079554438591, -0.132480889559, 0.502616584301
2019-04-03 18:58:18.70,81315794, 0.12, -17.76, 61.13, 602.0, -35.3629361, 149.1659646, 0.850606024265, 0.0795028805733, -0.132409349084, 0.502609670162
2019-04-03 18:58:18.80,81415754, 0.15, -17.79, 61.13, 602.059997559, -35.3629339, 149.1659694, 0.850575208664, 0.0797888711095, -0.13247422874, 0.502599477768
2019-04-03 18:58:18.90,81515714, 0.17, -17.82, 61.12, 602.109985352, -35.3629318, 149.1659742, 0.85053896904, 0.0800944939256, -0.132603138685, 0.502578139305
2019-04-03 18:58:18.99,81615674, 0.19, -17.82, 61.12, 602.159973145, -35.3629296, 149.165979, 0.850536108017, 0.0802131295204, -0.132533058524, 0.502582550049
2019-04-03 18:58:19.10,81716467, 0.19, -17.8, 61.12, 602.210021973, -35.3629275, 149.1659839, 0.850572645664, 0.080090507865, -0.132396742702, 0.502576172352
2019-04-03 18:58:19.20,81816427, 0.17, -17.78, 61.12, 602.270019531, -35.3629254, 149.1659887, 0.850617229939, 0.0798993334174, -0.132337763906, 0.502546727657
2019-04-03 18:58:19.30,81916387, 0.17, -17.78, 61.11, 602.320007324, -35.3629232, 149.1659936, 0.850628912449, 0.0799104049802, -0.13236451149, 0.502518117428
2019-04-03 18:58:19.40,82016347, 0.15, -17.8, 61.11, 602.369995117, -35.3629211, 149.1659984, 0.850633859634, 0.0798687934875, -0.132572636008, 0.502461493015
2019-04-03 18:58:19.50,82116307, 0.14, -17.82, 61.11, 602.41998291, -35.362919, 149.1660033, 0.850640177727, 0.0798223614693, -0.132759302855, 0.502408862114
2019-04-03 18:58:19.60,82216267, 0.13, -17.82, 61.1, 602.479980469, -35.3629169, 149.1660081, 0.850659012794, 0.0797421187162, -0.132794961333, 0.502380251884
2019-04-03 18:58:19.70,82316227, 0.14, -17.8, 61.1, 602.530029297, -35.3629147, 149.1660129, 0.850679814816, 0.0797656401992, -0.132603392005, 0.502391934395
2019-04-03 18:58:19.80,82416187, 0.16, -17.77, 61.1, 602.58001709, -35.3629126, 149.1660178, 0.850716292858, 0.0797742307186, -0.132291004062, 0.502411186695
2019-04-03 18:58:19.90,82516147, 0.18, -17.75, 61.1, 602.630004883, -35.3629105, 149.1660226, 0.850735247135, 0.0798485055566, -0.132092177868, 0.502419531345
2019-04-03 18:58:20.00,82616107, 0.23, -17.71, 61.09, 602.679992676, -35.3629083, 149.1660274, 0.850748836994, 0.0800558701158, -0.131589889526, 0.502495408058
2019-04-03 18:58:20.10,82716067, 0.67, -17.25, 61.13, 602.729980469, -35.3629062, 149.1660322, 0.850804030895, 0.0813055038452, -0.126189097762, 0.503585338593
2019-04-03 18:58:20.20,82816027, 1.56, -16.32, 61.3, 602.780029297, -35.3629041, 149.166037, 0.850471258163, 0.0840214416385, -0.115223862231, 0.50632250309
2019-04-03 18:58:20.30,82915987, 2.66, -15.26, 61.69, 602.820007324, -35.362902, 149.1660417, 0.849129796028, 0.0878833532333, -0.102220065892, 0.51069188118
2019-04-03 18:58:20.40,83015947, 3.71, -14.38, 62.32, 602.859985352, -35.3628999, 149.1660465, 0.846399724483, 0.0923217087984, -0.0904456600547, 0.516627311707
2019-04-03 18:58:20.50,83115907, 4.55, -13.81, 63.24, 602.900024414, -35.362898, 149.1660513, 0.842181563377, 0.0965534076095, -0.0816341266036, 0.52415984869
2019-04-03 18:58:20.60,83215867, 5.11, -13.53, 64.44, 602.929992676, -35.3628962, 149.166056, 0.836456179619, 0.100268229842, -0.0759300142527, 0.533405959606
2019-04-03 18:58:20.70,83315827, 5.47, -13.42, 65.93, 602.950012207, -35.3628944, 149.1660605, 0.829247057438, 0.103285461664, -0.0721294060349, 0.544498741627
2019-04-03 18:58:20.80,83415787, 5.72, -13.37, 67.7, 602.969970703, -35.3628928, 149.1660652, 0.820531845093, 0.106002934277, -0.0689098387957, 0.5574426651
2019-04-03 18:58:20.90,83515747, 5.98, -13.31, 69.74, 602.989990234, -35.3628913, 149.1660698, 0.810315430164, 0.10872580111, -0.0653355643153, 0.572100400925
2019-04-03 18:58:21.00,83615707, 6.25, -13.23, 72.01, 603.010009766, -35.3628899, 149.1660743, 0.798656284809, 0.111499346793, -0.0612517558038, 0.588187277317
2019-04-03 18:58:21.09,83715667, 6.54, -13.17, 74.47, 603.020019531, -35.3628886, 149.1660789, 0.785618722439, 0.114450015128, -0.0568755865097, 0.605367302895
2019-04-03 18:58:21.20,83816460, 6.83, -13.14, 77.12, 603.030029297, -35.3628874, 149.1660834, 0.771175265312, 0.1175416857, -0.0524519197643, 0.623475372791
2019-04-03 18:58:21.30,83916420, 7.11, -13.17, 79.87, 603.039978027, -35.3628863, 149.166088, 0.755656123161, 0.120747283101, -0.0482279919088, 0.64193302393
2019-04-03 18:58:21.40,84016380, 7.36, -13.26, 82.72, 603.049987793, -35.3628853, 149.1660924, 0.739056408405, 0.124034233391, -0.0443849042058, 0.66063696146
2019-04-03 18:58:21.50,84116340, 7.55, -13.44, 85.66, 603.059997559, -35.3628846, 149.1660968, 0.721471250057, 0.127381816506, -0.0411315336823, 0.679383039474
2019-04-03 18:58:21.60,84216300, 7.69, -13.7, 88.66, 603.059997559, -35.362884, 149.1661012, 0.703004896641, 0.130828127265, -0.0386056303978, 0.697981238365
2019-04-03 18:58:21.70,84316260, 7.73, -14.04, 91.7, 603.070007324, -35.3628835, 149.1661057, 0.683803200722, 0.134149685502, -0.0369245037436, 0.716277658939
2019-04-03 18:58:21.80,84416220, 7.65, -14.43, 94.76, 603.070007324, -35.3628832, 149.1661101, 0.664065182209, 0.137102037668, -0.0361409448087, 0.734107851982
2019-04-03 18:58:21.90,84516180, 7.45, -14.82, 97.81, 603.070007324, -35.3628831, 149.1661144, 0.644059121609, 0.139374777675, -0.0360234081745, 0.751308858395
2019-04-03 18:58:22.00,84616140, 7.11, -15.17, 100.82, 603.08001709, -35.3628831, 149.1661188, 0.624145567417, 0.140765622258, -0.0365463495255, 0.767653405666
2019-04-03 18:58:22.10,84716100, 6.68, -15.47, 103.72, 603.08001709, -35.3628832, 149.1661231, 0.604682743549, 0.141400650144, -0.0376154892147, 0.782911062241
2019-04-03 18:58:22.20,84816060, 6.19, -15.74, 106.48, 603.08001709, -35.3628834, 149.1661274, 0.585993468761, 0.141599550843, -0.0389688387513, 0.796895682812
2019-04-03 18:58:22.30,84916020, 5.71, -15.98, 109.04, 603.08001709, -35.362884, 149.1661316, 0.568362474442, 0.141706198454, -0.040385119617, 0.809476673603
2019-04-03 18:58:22.40,85015980, 5.25, -16.19, 111.39, 603.08001709, -35.3628845, 149.1661359, 0.552031755447, 0.141843721271, -0.0417898595333, 0.820606410503
2019-04-03 18:58:22.50,85115940, 4.85, -16.38, 113.5, 603.090026855, -35.3628852, 149.1661401, 0.5371311903, 0.142055034637, -0.0430022105575, 0.830338060856
2019-04-03 18:58:22.60,85215900, 4.5, -16.54, 115.38, 603.090026855, -35.3628861, 149.1661442, 0.523742437363, 0.142262041569, -0.0439771898091, 0.838761866093
2019-04-03 18:58:22.70,85315860, 4.2, -16.65, 117.04, 603.090026855, -35.362887, 149.1661485, 0.51181024313, 0.142369270325, -0.0446241609752, 0.846043765545
2019-04-03 18:58:22.80,85415820, 3.97, -16.72, 118.5, 603.090026855, -35.3628881, 149.1661526, 0.501214623451, 0.142477914691, -0.0448650345206, 0.852332830429
2019-04-03 18:58:22.90,85515780, 3.8, -16.78, 119.78, 603.090026855, -35.3628892, 149.1661567, 0.491795539856, 0.142696872354, -0.04477673769, 0.857770264149
2019-04-03 18:58:23.00,85615740, 3.65, -16.83, 120.92, 603.090026855, -35.3628905, 149.1661609, 0.48340433836, 0.142855495214, -0.0446688830853, 0.862506389618
2019-04-03 18:58:23.10,85715700, 3.52, -16.88, 121.94, 603.090026855, -35.3628919, 149.166165, 0.475816309452, 0.143076717854, -0.0446163676679, 0.866681814194
2019-04-03 18:58:23.19,85815660, 3.39, -16.94, 122.87, 603.090026855, -35.3628934, 149.166169, 0.468848854303, 0.143352583051, -0.0446454845369, 0.870423793793
2019-04-03 18:58:23.30,85916453, 3.26, -17.02, 123.75, 603.090026855, -35.3628949, 149.166173, 0.462295889854, 0.143740981817, -0.0449279770255, 0.873843550682
2019-04-03 18:58:23.40,86016413, 3.09, -17.1, 124.56, 603.090026855, -35.3628966, 149.1661771, 0.456174850464, 0.144044399261, -0.0454654879868, 0.876976966858
2019-04-03 18:58:23.50,86116373, 2.92, -17.14, 125.35, 603.090026855, -35.3628983, 149.1661811, 0.450368762016, 0.143975824118, -0.0460206344724, 0.879955172539
2019-04-03 18:58:23.60,86216333, 2.72, -17.16, 126.1, 603.090026855, -35.3629002, 149.1661851, 0.4448389709, 0.143643900752, -0.0466526038945, 0.882784426212
2019-04-03 18:58:23.70,86316293, 2.51, -17.17, 126.81, 603.090026855, -35.3629021, 149.166189, 0.439557760954, 0.143230691552, -0.0473901070654, 0.885453641415
2019-04-03 18:58:23.80,86416253, 2.29, -17.2, 127.49, 603.090026855, -35.362904, 149.1661929, 0.434554755688, 0.14286467433, -0.048381652683, 0.88792514801
2019-04-03 18:58:23.90,86516213, 2.08, -17.23, 128.13, 603.090026855, -35.362906, 149.1661968, 0.429826140404, 0.142570257187, -0.0492903217673, 0.890221178532
2019-04-03 18:58:24.00,86616173, 1.9, -17.25, 128.73, 603.090026855, -35.3629082, 149.1662007, 0.42540872097, 0.142320618033, -0.0500385425985, 0.892338752747
2019-04-03 18:58:24.10,86716133, 1.75, -17.26, 129.27, 603.090026855, -35.3629102, 149.1662045, 0.421329379082, 0.142130747437, -0.0506114214659, 0.894270062447
2019-04-03 18:58:24.20,86816093, 1.62, -17.28, 129.77, 603.090026855, -35.3629125, 149.1662084, 0.417612403631, 0.142034068704, -0.0510652065277, 0.896001458168
2019-04-03 18:58:24.30,86916053, 1.51, -17.3, 130.21, 603.090026855, -35.3629148, 149.1662122, 0.414271742105, 0.14199693501, -0.0514602921903, 0.897534251213
2019-04-03 18:58:24.40,87016013, 1.42, -17.35, 130.6, 603.090026855, -35.3629171, 149.166216, 0.411295562983, 0.142160221934, -0.051868699491, 0.898852646351
2019-04-03 18:58:24.50,87115973, 1.34, -17.38, 130.95, 603.090026855, -35.3629193, 149.1662199, 0.408658713102, 0.14229054749, -0.0521455481648, 0.900017976761
2019-04-03 18:58:24.60,87215933, 1.26, -17.4, 131.25, 603.090026855, -35.3629217, 149.1662237, 0.406360507011, 0.142291948199, -0.052469342947, 0.901038885117
2019-04-03 18:58:24.70,87315893, 1.17, -17.39, 131.52, 603.090026855, -35.3629242, 149.1662275, 0.40436604619, 0.142039015889, -0.0528485029936, 0.901953458786
2019-04-03 18:58:24.80,87415853, 1.07, -17.38, 131.76, 603.090026855, -35.3629266, 149.1662313, 0.402624845505, 0.141741544008, -0.0533222220838, 0.902750968933
2019-04-03 18:58:24.90,87515813, 0.95, -17.39, 131.97, 603.090026855, -35.3629291, 149.1662352, 0.401113331318, 0.141444668174, -0.0539800077677, 0.90343105793
2019-04-03 18:58:25.00,87615773, 0.86, -17.39, 132.15, 603.090026855, -35.3629317, 149.1662389, 0.39974078536, 0.141281992197, -0.0544658377767, 0.904035508633
2019-04-03 18:58:25.10,87715733, 0.8, -17.41, 132.32, 603.090026855, -35.3629342, 149.1662427, 0.398474663496, 0.141279280186, -0.0548200346529, 0.904573321342
2019-04-03 18:58:25.20,87815693, 0.74, -17.45, 132.48, 603.090026855, -35.3629368, 149.1662465, 0.397311389446, 0.141438633204, -0.0552094988525, 0.905036330223
2019-04-03 18:58:25.30,87916486, 0.68, -17.49, 132.62, 603.090026855, -35.3629394, 149.1662503, 0.396242588758, 0.141629844904, -0.0557001754642, 0.905444800854
2019-04-03 18:58:25.40,88016446, 0.61, -17.52, 132.75, 603.090026855, -35.3629421, 149.1662539, 0.395281851292, 0.141719296575, -0.0561961308122, 0.905820012093
2019-04-03 18:58:25.50,88116406, 0.56, -17.56, 132.87, 603.099975586, -35.3629448, 149.1662577, 0.394388467073, 0.141854971647, -0.0565669573843, 0.906165063381
2019-04-03 18:58:25.60,88216366, 0.52, -17.59, 132.98, 603.099975586, -35.3629473, 149.1662615, 0.393558382988, 0.142019659281, -0.0568638443947, 0.906481564045
2019-04-03 18:58:25.70,88316326, 0.47, -17.61, 133.08, 603.099975586, -35.3629501, 149.1662652, 0.39281001687, 0.142116740346, -0.0572119690478, 0.906768977642
2019-04-03 18:58:25.80,88416286, 0.42, -17.64, 133.17, 603.099975586, -35.3629527, 149.166269, 0.392135411501, 0.142238870263, -0.0575750768185, 0.907018780708
2019-04-03 18:58:25.90,88516246, 0.38, -17.66, 133.25, 603.099975586, -35.3629556, 149.1662726, 0.391533970833, 0.142278850079, -0.0578989423811, 0.907251656055
2019-04-03 18:58:26.00,88616206, 0.34, -17.67, 133.32, 603.099975586, -35.3629582, 149.1662764, 0.391018033028, 0.142249643803, -0.0581604428589, 0.907462000847
2019-04-03 18:58:26.10,88716166, 0.31, -17.68, 133.38, 603.099975586, -35.3629611, 149.1662802, 0.390566170216, 0.142209723592, -0.0583226494491, 0.907652437687
2019-04-03 18:58:26.20,88816126, 0.28, -17.68, 133.43, 603.099975586, -35.3629638, 149.166284, 0.390183597803, 0.142168149352, -0.0585086494684, 0.907811522484
2019-04-03 18:58:26.30,88916086, 0.24, -17.67, 133.48, 603.099975586, -35.3629667, 149.1662877, 0.389880985022, 0.141972109675, -0.0587325170636, 0.907957732677
2019-04-03 18:58:26.40,89016046, 0.18, -17.67, 133.52, 603.099975586, -35.3629695, 149.1662914, 0.389652043581, 0.141768619418, -0.059119489044, 0.908062696457
2019-04-03 18:58:26.50,89116006, 0.13, -17.68, 133.55, 603.099975586, -35.3629722, 149.1662951, 0.3894726336, 0.141717284918, -0.0595832802355, 0.908117353916
2019-04-03 18:58:26.60,89215966, 0.09, -17.71, 133.57, 603.099975586, -35.3629752, 149.1662988, 0.38931581378, 0.141824632883, -0.0599515028298, 0.90814357996
2019-04-03 18:58:26.70,89315926, 0.07, -17.76, 133.59, 603.099975586, -35.362978, 149.1663027, 0.389164835215, 0.14219610393, -0.0602223388851, 0.908132314682
2019-04-03 18:58:26.80,89415886, 0.07, -17.81, 133.6, 603.099975586, -35.3629807, 149.1663064, 0.389049232006, 0.142610892653, -0.0603791177273, 0.908106386662
2019-04-03 18:58:26.90,89515846, 0.07, -17.85, 133.61, 603.099975586, -35.3629837, 149.1663102, 0.388961791992, 0.142915174365, -0.0604865439236, 0.908088862896
2019-04-03 18:58:27.00,89615806, 0.09, -17.87, 133.61, 603.099975586, -35.3629866, 149.166314, 0.38889542222, 0.143111929297, -0.0604456551373, 0.90808904171
2019-04-03 18:58:27.10,89715766, 0.11, -17.87, 133.61, 603.099975586, -35.3629895, 149.1663176, 0.388862729073, 0.143174737692, -0.0602868646383, 0.908103704453
2019-04-03 18:58:27.20,89815726, 0.12, -17.86, 133.61, 603.099975586, -35.3629923, 149.1663214, 0.388858914375, 0.143121495843, -0.0601405091584, 0.90812343359
2019-04-03 18:58:27.29,89915686, 0.11, -17.83, 133.61, 603.099975586, -35.3629952, 149.1663252, 0.388894587755, 0.142863675952, -0.0601308532059, 0.90814936161
2019-04-03 18:58:27.40,90016479, 0.09, -17.8, 133.61, 603.099975586, -35.3629982, 149.166329, 0.388945579529, 0.142586633563, -0.060233283788, 0.908164262772
2019-04-03 18:58:27.50,90116439, 0.07, -17.79, 133.61, 603.109985352, -35.3630011, 149.1663328, 0.388974845409, 0.14243195951, -0.060290645808, 0.908172190189
2019-04-03 18:58:27.60,90216399, 0.07, -17.8, 133.61, 603.109985352, -35.3630039, 149.1663366, 0.38898062706, 0.142491728067, -0.0603823214769, 0.908154249191
2019-04-03 18:58:27.70,90316359, 0.05, -17.82, 133.61, 603.109985352, -35.3630068, 149.1663405, 0.388988524675, 0.142604038119, -0.0605869889259, 0.908119618893
2019-04-03 18:58:27.80,90416319, 0.02, -17.85, 133.61, 603.109985352, -35.3630098, 149.1663443, 0.389018267393, 0.142680510879, -0.0609203726053, 0.908072590828
2019-04-03 18:58:27.90,90516279, 0.0, -17.86, 133.61, 603.109985352, -35.3630128, 149.1663481, 0.389043986797, 0.14274032414, -0.0611813291907, 0.908034622669
2019-04-03 18:58:28.00,90616239, -0.02, -17.89, 133.61, 603.109985352, -35.3630157, 149.1663519, 0.389066457748, 0.142884612083, -0.0614171810448, 0.907986402512
