Start,TimeUS,Roll,Pitch,Yaw,Alt,Lat,Lng,Q1,Q2,Q3,Q4
2019-04-03 19:03:25.30,202315708, 0.0, 0.0, 353.0, 584.090026855, -35.363261, 149.1652299, 0.998134791851, 0.0, 0.0, -0.0610485821962
2019-04-03 19:03:25.40,202415668, 0.0, 0.0, 353.0, 584.090026855, -35.363261, 149.1652299, 0.998134791851, 0.0, 0.0, -0.0610485821962
2019-04-03 19:03:25.50,202516461, 0.0, 0.0, 353.0, 584.090026855, -35.363261, 149.1652299, 0.998134791851, 0.0, 0.0, -0.0610485821962
2019-04-03 19:03:25.60,202616421, 0.0, 0.0, 353.0, 584.090026855, -35.363261, 149.1652299, 0.998134791851, 0.0, 0.0, -0.0610485821962
2019-04-03 19:03:25.70,202716381, 0.0, 0.0, 353.0, 584.090026855, -35.363261, 149.1652299, 0.998134791851, 0.0, 0.0, -0.0610485821962
2019-04-03 19:03:25.80,202816341, 0.0, 0.0, 353.0, 584.090026855, -35.363261, 149.1652299, 0.998134791851, 0.0, 0.0, -0.0610485821962
2019-04-03 19:03:25.90,202916301, 0.0, 0.0, 353.0, 584.090026855, -35.363261, 149.1652299, 0.998134791851, 0.0, 0.0, -0.0610485821962
2019-04-03 19:03:26.00,203016261, 0.0, 0.0, 353.0, 584.090026855, -35.363261, 149.1652299, 0.998134791851, 0.0, 0.0, -0.0610485821962
2019-04-03 19:03:26.10,203116221, 0.0, 0.0, 353.0, 584.090026855, -35.363261, 149.1652299, 0.998134791851, 0.0, 0.0, -0.0610485821962
2019-04-03 19:03:26.20,203216181, 0.0, 0.0, 353.0, 584.090026855, -35.363261, 149.1652299, 0.998134791851, 0.0, 0.0, -0.0610485821962
2019-04-03 19:03:26.30,203316141, 0.0, 0.0, 353.0, 584.090026855, -35.363261, 149.1652299, 0.998134791851, 0.0, 0.0, -0.0610485821962
2019-04-03 19:03:26.40,203416101, 0.0, 0.0, 353.0, 584.090026855, -35.363261, 149.1652299, 0.998134791851, 0.0, 0.0, -0.0610485821962
2019-04-03 19:03:26.50,203516061, 0.0, 0.0, 353.0, 584.090026855, -35.363261, 149.1652299, 0.998134791851, 0.0, 0.0, -0.0610485821962
2019-04-03 19:03:26.60,203616021, 0.0, 0.0, 353.0, 584.090026855, -35.363261, 149.1652299, 0.998134791851, 0.0, 0.0, -0.0610485821962
2019-04-03 19:03:26.70,203715981, 0.0, 0.0, 353.0, 584.090026855, -35.363261, 149.1652299, 0.998134791851, 0.0, 0.0, -0.0610485821962
2019-04-03 19:03:26.80,203815941, 0.0, 0.0, 353.0, 584.090026855, -35.363261, 149.1652299, 0.998134791851, 0.0, 0.0, -0.0610485821962
2019-04-03 19:03:26.90,203915901, 0.0, 0.0, 353.0, 584.090026855, -35.363261, 149.1652299, 0.998134791851, 0.0, 0.0, -0.0610485821962
2019-04-03 19:03:27.00,204015861, 0.0, 0.0, 353.0, 584.090026855, -35.363261, 149.1652299, 0.998134791851, 0.0, 0.0, -0.0610485821962
2019-04-03 19:03:27.10,204115821, 0.0, 0.0, 353.0, 584.090026855, -35.363261, 149.1652299, 0.998134791851, 0.0, 0.0, -0.0610485821962
2019-04-03 19:03:27.20,204215781, 0.0, 0.0, 353.0, 584.090026855, -35.363261, 149.1652299, 0.998134791851, 0.0, 0.0, -0.0610485821962
2019-04-03 19:03:27.30,204315741, 0.0, 0.0, 353.0, 584.090026855, -35.363261, 149.1652299, 0.998134791851, 0.0, 0.0, -0.0610485821962
2019-04-03 19:03:27.40,204415701, 0.0, 0.0, 353.0, 584.090026855, -35.363261, 149.1652299, 0.998134791851, 0.0, 0.0, -0.0610485821962
2019-04-03 19:03:27.49,204515661, 0.0, 0.0, 353.0, 584.090026855, -35.363261, 149.1652299, 0.998134791851, 0.0, 0.0, -0.0610485821962
2019-04-03 19:03:27.60,204616454, 0.0, 0.0, 353.0, 584.090026855, -35.363261, 149.1652299, 0.998134791851, 0.0, 0.0, -0.0610485821962
2019-04-03 19:03:27.70,204716414, 0.0, 0.0, 353.0, 584.090026855, -35.363261, 149.1652299, 0.998134791851, 0.0, 0.0, -0.0610485821962
2019-04-03 19:03:27.80,204816374, 0.0, 0.0, 353.0, 584.090026855, -35.363261, 149.1652299, 0.998134791851, 0.0, 0.0, -0.0610485821962
2019-04-03 19:03:27.90,204916334, 0.0, 0.0, 353.0, 584.090026855, -35.363261, 149.1652299, 0.998134791851, 0.0, 0.0, -0.0610485821962
2019-04-03 19:03:28.00,205016294, 0.0, 0.0, 353.0, 584.090026855, -35.363261, 149.1652299, 0.998134791851, 0.0, 0.0, -0.0610485821962
2019-04-03 19:03:28.10,205116254, 0.0, 0.0, 353.0, 584.090026855, -35.363261, 149.1652299, 0.998134791851, 0.0, 0.0, -0.0610485821962
2019-04-03 19:03:28.20,205216214, 0.0, 0.0, 353.0, 584.090026855, -35.363261, 149.1652299, 0.998134791851, 0.0, 0.0, -0.0610485821962
2019-04-03 19:03:28.30,205316174, 0.0, 0.0, 353.0, 584.090026855, -35.363261, 149.1652299, 0.998134791851, 0.0, 0.0, -0.0610485821962
2019-04-03 19:03:28.40,205416134, 0.0, 0.0, 353.0, 584.090026855, -35.363261, 149.1652299, 0.998134791851, 0.0, 0.0, -0.0610485821962
2019-04-03 19:03:28.50,205516094, 0.0, 0.0, 353.0, 584.090026855, -35.363261, 149.1652299, 0.998134791851, 0.0, 0.0, -0.0610485821962
2019-04-03 19:03:28.60,205616054, 0.0, 0.0, 353.0, 584.090026855, -35.363261, 149.1652299, 0.998134791851, 0.0, 0.0, -0.0610485821962
2019-04-03 19:03:28.70,205716014, 0.0, 0.0, 353.0, 584.090026855, -35.363261, 149.1652299, 0.998134791851, 0.0, 0.0, -0.0610485821962
2019-04-03 19:03:28.80,205815974, 0.0, 0.0, 353.0, 584.090026855, -35.363261, 149.1652299, 0.998134791851, 0.0, 0.0, -0.0610485821962
2019-04-03 19:03:28.90,205915934, 0.0, 0.0, 353.0, 584.090026855, -35.363261, 149.1652299, 0.998134791851, 0.0, 0.0, -0.0610485821962
2019-04-03 19:03:29.00,206015894, 0.0, 0.0, 353.0, 584.090026855, -35.363261, 149.1652299, 0.998134791851, 0.0, 0.0, -0.0610485821962
2019-04-03 19:03:29.10,206115854, 0.0, 0.0, 353.0, 584.090026855, -35.363261, 149.1652299, 0.998134791851, 0.0, 0.0, -0.0610485821962
2019-04-03 19:03:29.20,206215814, 0.0, 0.0, 353.0, 584.090026855, -35.363261, 149.1652299, 0.998134791851, 0.0, 0.0, -0.0610485821962
2019-04-03 19:03:29.30,206315774, 0.0, 0.0, 353.0, 584.090026855, -35.363261, 149.1652299, 0.998134791851, 0.0, 0.0, -0.0610485821962
2019-04-03 19:03:29.40,206415734, 0.0, 0.0, 353.0, 584.090026855, -35.363261, 149.1652299, 0.998134791851, 0.0, 0.0, -0.0610485821962
2019-04-03 19:03:29.50,206515694, 0.0, 0.0, 353.0, 584.090026855, -35.363261, 149.1652299, 0.998134791851, 0.0, 0.0, -0.0610485821962
2019-04-03 19:03:29.60,206616487, 0.0, 0.0, 353.0, 584.090026855, -35.363261, 149.1652299, 0.998134791851, 0.0, 0.0, -0.0610485821962
2019-04-03 19:03:29.70,206716447, 0.0, 0.0, 353.0, 584.090026855, -35.363261, 149.1652299, 0.998134791851, 0.0, 0.0, -0.0610485821962
2019-04-03 19:03:29.80,206816407, 0.0, 0.0, 353.0, 584.090026855, -35.363261, 149.1652299, 0.998134791851, 0.0, 0.0, -0.0610485821962
2019-04-03 19:03:29.90,206916367, 0.0, 0.0, 353.0, 584.090026855, -35.363261, 149.1652299, 0.998134791851, 0.0, 0.0, -0.0610485821962
2019-04-03 19:03:30.00,207016327, 0.0, 0.0, 353.0, 584.090026855, -35.363261, 149.1652299, 0.998134791851, 0.0, 0.0, -0.0610485821962
2019-04-03 19:03:30.10,207116287, 0.0, 0.0, 353.0, 584.090026855, -35.363261, 149.1652299, 0.998134791851, 0.0, 0.0, -0.0610485821962
2019-04-03 19:03:30.20,207216247, 0.0, 0.0, 353.0, 584.090026855, -35.363261, 149.1652299, 0.998134791851, 0.0, 0.0, -0.0610485821962
2019-04-03 19:03:30.30,207316207, 0.0, 0.0, 353.0, 584.090026855, -35.363261, 149.1652299, 0.998134791851, 0.0, 0.0, -0.0610485821962
2019-04-03 19:03:30.40,207416167, 0.0, 0.0, 353.0, 584.090026855, -35.363261, 149.1652299, 0.998134791851, 0.0, 0.0, -0.0610485821962
2019-04-03 19:03:30.50,207516127, 0.0, 0.0, 353.0, 584.090026855, -35.363261, 149.1652299, 0.998134791851, 0.0, 0.0, -0.0610485821962
2019-04-03 19:03:30.60,207616087, 0.0, 0.0, 353.0, 584.090026855, -35.363261, 149.1652299, 0.998134791851, 0.0, 0.0, -0.0610485821962
2019-04-03 19:03:30.70,207716047, 0.0, 0.0, 353.0, 584.090026855, -35.363261, 149.1652299, 0.998134791851, 0.0, 0.0, -0.0610485821962
2019-04-03 19:03:30.80,207816007, 0.0, 0.0, 353.0, 584.090026855, -35.363261, 149.1652299, 0.998134791851, 0.0, 0.0, -0.0610485821962
2019-04-03 19:03:30.90,207915967, 0.0, 0.0, 353.0, 584.090026855, -35.363261, 149.1652299, 0.998134791851, 0.0, 0.0, -0.0610485821962
2019-04-03 19:03:31.00,208015927, 0.0, 0.0, 353.0, 584.090026855, -35.363261, 149.1652299, 0.998134791851, 0.0, 0.0, -0.0610485821962
2019-04-03 19:03:31.10,208115887, 0.0, 0.0, 353.0, 584.090026855, -35.363261, 149.1652299, 0.998134791851, 0.0, 0.0, -0.0610485821962
2019-04-03 19:03:31.20,208215847, 0.0, 0.0, 353.0, 584.090026855, -35.363261, 149.1652299, 0.998134791851, 0.0, 0.0, -0.0610485821962
2019-04-03 19:03:31.30,208315807, 0.0, 0.0, 353.0, 584.090026855, -35.363261, 149.1652299, 0.998134791851, 0.0, 0.0, -0.0610485821962
2019-04-03 19:03:31.40,208415767, 0.0, 0.0, 353.0, 584.090026855, -35.363261, 149.1652299, 0.998134791851, 0.0, 0.0, -0.0610485821962
2019-04-03 19:03:31.50,208515727, 0.0, 0.0, 353.0, 584.090026855, -35.363261, 149.1652299, 0.998134791851, 0.0, 0.0, -0.0610485821962
2019-04-03 19:03:31.60,208615687, 0.0, 0.0, 353.0, 584.090026855, -35.363261, 149.1652299, 0.998134791851, 0.0, 0.0, -0.0610485821962
2019-04-03 19:03:31.70,208716480, 0.0, 0.0, 353.0, 584.090026855, -35.363261, 149.1652299, 0.998134791851, 0.0, 0.0, -0.0610485821962
2019-04-03 19:03:31.80,208816440, 0.0, 0.0, 353.0, 584.090026855, -35.363261, 149.1652299, 0.998134791851, 0.0, 0.0, -0.0610485821962
2019-04-03 19:03:31.90,208916400, 0.0, 0.0, 353.0, 584.090026855, -35.363261, 149.1652299, 0.998134791851, 0.0, 0.0, -0.0610485821962
2019-04-03 19:03:32.00,209016360, 0.0, 0.0, 353.0, 584.090026855, -35.363261, 149.1652299, 0.998134791851, 0.0, 0.0, -0.0610485821962
2019-04-03 19:03:32.10,209116320, 0.0, 0.0, 353.0, 584.090026855, -35.363261, 149.1652299, 0.998134791851, 0.0, 0.0, -0.0610485821962
2019-04-03 19:03:32.20,209216280, 0.0, 0.0, 353.0, 584.090026855, -35.363261, 149.1652299, 0.998134791851, 0.0, 0.0, -0.0610485821962
2019-04-03 19:03:32.30,209316240, 0.0, 0.0, 353.0, 584.090026855, -35.363261, 149.1652299, 0.998134791851, 0.0, 0.0, -0.0610485821962
2019-04-03 19:03:32.40,209416200, 0.0, 0.0, 353.0, 584.090026855, -35.363261, 149.1652299, 0.998134791851, 0.0, 0.0, -0.0610485821962
2019-04-03 19:03:32.50,209516160, 0.0, 0.0, 353.0, 584.090026855, -35.363261, 149.1652299, 0.998134791851, 0.0, 0.0, -0.0610485821962
2019-04-03 19:03:32.60,209616120, 0.0, 0.0, 353.0, 584.090026855, -35.363261, 149.1652299, 0.998134791851, 0.0, 0.0, -0.0610485821962
2019-04-03 19:03:32.70,209716080, 0.0, 0.0, 353.0, 584.090026855, -35.363261, 149.1652299, 0.998134791851, 0.0, 0.0, -0.0610485821962
2019-04-03 19:03:32.80,209816040, 0.0, 0.0, 353.0, 584.090026855, -35.363261, 149.1652299, 0.998134791851, 0.0, 0.0, -0.0610485821962
2019-04-03 19:03:32.90,209916000, 0.0, 0.0, 353.0, 584.090026855, -35.363261, 149.1652299, 0.998134791851, 0.0, 0.0, -0.0610485821962
2019-04-03 19:03:33.00,210015960, 0.0, 0.0, 353.0, 584.090026855, -35.363261, 149.1652299, 0.998134791851, 0.0, 0.0, -0.0610485821962
2019-04-03 19:03:33.10,210115920, 0.0, 0.0, 353.0, 584.090026855, -35.363261, 149.1652299, 0.998134791851, 0.0, 0.0, -0.0610485821962
2019-04-03 19:03:33.20,210215880, 0.0, 0.0, 353.0, 584.090026855, -35.363261, 149.1652299, 0.998134791851, 0.0, 0.0, -0.0610485821962
2019-04-03 19:03:33.30,210315840, 0.0, 0.0, 353.0, 584.090026855, -35.363261, 149.1652299, 0.998134791851, 0.0, 0.0, -0.0610485821962
2019-04-03 19:03:33.40,210415800, 0.0, 0.0, 353.0, 584.090026855, -35.363261, 149.1652299, 0.998134791851, 0.0, 0.0, -0.0610485821962
2019-04-03 19:03:33.50,210515760, 0.0, 0.0, 353.0, 584.090026855, -35.363261, 149.1652299, 0.998134791851, 0.0, 0.0, -0.0610485821962
2019-04-03 19:03:33.60,210615720, 0.0, 0.0, 353.0, 584.090026855, -35.363261, 149.1652299, 0.998134791851, 0.0, 0.0, -0.0610485821962
2019-04-03 19:03:33.70,210715680, 0.0, 0.0, 353.0, 584.090026855, -35.363261, 149.1652299, 0.998134791851, 0.0, 0.0, -0.0610485821962
2019-04-03 19:03:33.80,210816473, 0.0, 0.0, 353.0, 584.090026855, -35.363261, 149.1652299, 0.998134791851, 0.0, 0.0, -0.0610485821962
2019-04-03 19:03:33.90,210916433, 0.0, 0.0, 353.0, 584.090026855, -35.363261, 149.1652299, 0.998134791851, 0.0, 0.0, -0.0610485821962
2019-04-03 19:03:34.00,211016393, 0.0, 0.0, 353.0, 584.090026855, -35.363261, 149.1652299, 0.998134791851, 0.0, 0.0, -0.0610485821962
2019-04-03 19:03:34.10,211116353, 0.0, 0.0, 353.0, 584.090026855, -35.363261, 149.1652299, 0.998134791851, 0.0, 0.0, -0.0610485821962
2019-04-03 19:03:34.20,211216313, 0.0, 0.0, 353.0, 584.090026855, -35.363261, 149.1652299, 0.998134791851, 0.0, 0.0, -0.0610485821962
2019-04-03 19:03:34.30,211316273, 0.0, 0.0, 353.0, 584.090026855, -35.363261, 149.1652299, 0.998134791851, 0.0, 0.0, -0.0610485821962
2019-04-03 19:03:34.40,211416233, 0.0, 0.0, 353.0, 584.090026855, -35.363261, 149.1652299, 0.998134791851, 0.0, 0.0, -0.0610485821962
2019-04-03 19:03:34.50,211516193, 0.0, 0.0, 353.0, 584.090026855, -35.363261, 149.1652299, 0.998134791851, 0.0, 0.0, -0.0610485821962
2019-04-03 19:03:34.60,211616153, 0.0, 0.0, 353.0, 584.090026855, -35.363261, 149.1652299, 0.998134791851, 0.0, 0.0, -0.0610485821962
2019-04-03 19:03:34.70,211716113, 0.0, 0.0, 353.0, 584.090026855, -35.363261, 149.1652299, 0.998134791851, 0.0, 0.0, -0.0610485821962
2019-04-03 19:03:34.80,211816073, 0.0, 0.0, 353.0, 584.090026855, -35.363261, 149.1652299, 0.998134791851, 0.0, 0.0, -0.0610485821962
2019-04-03 19:03:34.90,211916033, 0.0, 0.0, 353.0, 584.090026855, -35.363261, 149.1652299, 0.998134791851, 0.0, 0.0, -0.0610485821962
2019-04-03 19:03:35.00,212015993, 0.0, 0.0, 353.0, 584.090026855, -35.363261, 149.1652299, 0.998134791851, 0.0, 0.0, -0.0610485821962
2019-04-03 19:03:35.10,212115953, 0.0, 0.0, 353.0, 584.090026855, -35.363261, 149.1652299, 0.998134791851, 0.0, 0.0, -0.0610485821962
2019-04-03 19:04:03.30,240316335, 0.0, 0.0, 353.0, 584.090026855, -35.363261, 149.1652299, 0.998134791851, 0.0, 0.0, -0.0610485821962
2019-04-03 19:04:03.40,240416295, 0.0, 0.0, 353.0, 584.090026855, -35.363261, 149.1652299, 0.998134791851, 0.0, 0.0, -0.0610485821962
2019-04-03 19:04:03.50,240516255, 0.0, 0.0, 353.0, 584.090026855, -35.363261, 149.1652299, 0.998134791851, 0.0, 0.0, -0.0610485821962
2019-04-03 19:04:03.60,240616215, 0.0, 0.0, 353.0, 584.090026855, -35.363261, 149.1652299, 0.998134791851, 0.0, 0.0, -0.0610485821962
2019-04-03 19:04:03.70,240716175, 0.0, 0.0, 353.0, 584.090026855, -35.363261, 149.1652299, 0.998134791851, 0.0, 0.0, -0.0610485821962
2019-04-03 19:04:03.80,240816135, 0.0, 0.0, 353.0, 584.090026855, -35.363261, 149.1652299, 0.998134791851, 0.0, 0.0, -0.0610485821962
2019-04-03 19:04:03.90,240916095, 0.0, 0.0, 353.0, 584.090026855, -35.363261, 149.1652299, 0.998134791851, 0.0, 0.0, -0.0610485821962
2019-04-03 19:04:04.00,241016055, 0.0, 0.0, 353.0, 584.090026855, -35.363261, 149.1652299, 0.998134791851, 0.0, 0.0, -0.0610485821962
2019-04-03 19:04:04.10,241116015, 0.0, 0.0, 353.0, 584.090026855, -35.363261, 149.1652299, 0.998134791851, 0.0, 0.0, -0.0610485821962
2019-04-03 19:04:04.20,241215975, 0.0, 0.0, 353.0, 584.090026855, -35.363261, 149.1652299, 0.998134791851, 0.0, 0.0, -0.0610485821962
2019-04-03 19:04:04.30,241315935, 0.0, 0.0, 353.0, 584.090026855, -35.363261, 149.1652299, 0.998134791851, 0.0, 0.0, -0.0610485821962
2019-04-03 19:04:04.40,241415895, 0.0, 0.0, 353.0, 584.090026855, -35.363261, 149.1652299, 0.998134791851, 0.0, 0.0, -0.0610485821962
2019-04-03 19:04:04.50,241515855, 0.0, 0.0, 353.0, 584.090026855, -35.363261, 149.1652299, 0.998134791851, 0.0, 0.0, -0.0610485821962
2019-04-03 19:04:04.60,241615815, 0.0, 0.0, 353.0, 584.090026855, -35.363261, 149.1652299, 0.998134791851, 0.0, 0.0, -0.0610485821962
2019-04-03 19:04:04.70,241715775, 0.0, 0.0, 353.0, 584.090026855, -35.363261, 149.1652299, 0.998134791851, 0.0, 0.0, -0.0610485821962
2019-04-03 19:04:04.80,241815735, 0.0, 0.0, 353.0, 584.090026855, -35.363261, 149.1652299, 0.998134791851, 0.0, 0.0, -0.0610485821962
2019-04-03 19:04:04.90,241915695, 0.0, 0.0, 353.0, 584.090026855, -35.363261, 149.1652299, 0.998134791851, 0.0, 0.0, -0.0610485821962
2019-04-03 19:04:05.00,242016488, 0.0, 0.0, 353.0, 584.090026855, -35.363261, 149.1652299, 0.998134791851, 0.0, 0.0, -0.0610485821962
2019-04-03 19:04:05.10,242116448, 0.0, 0.0, 353.0, 584.090026855, -35.363261, 149.1652299, 0.998134791851, 0.0, 0.0, -0.0610485821962
2019-04-03 19:04:05.20,242216408, 0.0, 0.0, 353.0, 584.090026855, -35.363261, 149.1652299, 0.998134791851, 0.0, 0.0, -0.0610485821962
2019-04-03 19:04:05.30,242316368, 0.0, 0.0, 353.0, 584.090026855, -35.363261, 149.1652299, 0.998134791851, 0.0, 0.0, -0.0610485821962
2019-04-03 19:04:05.40,242416328, 0.0, 0.0, 353.0, 584.090026855, -35.363261, 149.1652299, 0.998134791851, 0.0, 0.0, -0.0610485821962
2019-04-03 19:04:05.50,242516288, 0.0, 0.0, 353.0, 584.090026855, -35.363261, 149.1652299, 0.998134791851, 0.0, 0.0, -0.0610485821962
2019-04-03 19:04:05.60,242616248, 0.0, 0.0, 353.0, 584.090026855, -35.363261, 149.1652299, 0.998134791851, 0.0, 0.0, -0.0610485821962
2019-04-03 19:04:05.70,242716208, 0.0, 0.0, 353.0, 584.090026855, -35.363261, 149.1652299, 0.998134791851, 0.0, 0.0, -0.0610485821962
2019-04-03 19:04:05.80,242816168, 0.0, 0.0, 353.0, 584.090026855, -35.363261, 149.1652299, 0.998134791851, 0.0, 0.0, -0.0610485821962
2019-04-03 19:04:05.90,242916128, 0.0, 0.0, 353.0, 584.090026855, -35.363261, 149.1652299, 0.998134791851, 0.0, 0.0, -0.0610485821962
2019-04-03 19:04:06.00,243016088, 0.0, 0.0, 353.0, 584.090026855, -35.363261, 149.1652299, 0.998134791851, 0.0, 0.0, -0.0610485821962
2019-04-03 19:04:06.10,243116048, 0.0, 0.0, 353.0, 584.090026855, -35.363261, 149.1652299, 0.998134791851, 0.0, 0.0, -0.0610485821962
2019-04-03 19:04:06.20,243216008, 0.0, 0.0, 353.0, 584.090026855, -35.363261, 149.1652299, 0.998134791851, 0.0, 0.0, -0.0610485821962
2019-04-03 19:04:06.30,243315968, 0.0, 0.0, 353.0, 584.090026855, -35.363261, 149.1652299, 0.998134791851, 0.0, 0.0, -0.0610485821962
2019-04-03 19:04:06.40,243415928, 0.0, 0.0, 353.0, 584.090026855, -35.363261, 149.1652299, 0.998134791851, 0.0, 0.0, -0.0610485821962
2019-04-03 19:04:06.50,243515888, 0.0, 0.0, 353.0, 584.090026855, -35.363261, 149.1652299, 0.998134791851, 0.0, 0.0, -0.0610485821962
2019-04-03 19:04:06.60,243615848, 0.0, 0.0, 353.0, 584.090026855, -35.363261, 149.1652299, 0.998134791851, 0.0, 0.0, -0.0610485821962
2019-04-03 19:04:06.70,243715808, 0.0, 0.0, 353.0, 584.090026855, -35.363261, 149.1652299, 0.998134791851, 0.0, 0.0, -0.0610485821962
2019-04-03 19:04:06.80,243815768, 0.0, 0.0, 353.0, 584.090026855, -35.363261, 149.1652299, 0.998134791851, 0.0, 0.0, -0.0610485821962
2019-04-03 19:04:06.90,243915728, 0.0, 0.0, 353.0, 584.090026855, -35.363261, 149.1652299, 0.998134791851, 0.0, 0.0, -0.0610485821962
2019-04-03 19:04:07.00,244015688, 0.0, 0.0, 353.0, 584.090026855, -35.363261, 149.1652299, 0.998134791851, 0.0, 0.0, -0.061048604548
2019-04-03 19:04:07.10,244116481, 0.0, 0.0, 353.0, 584.090026855, -35.363261, 149.1652299, 0.998134791851, 0.0, 0.0, -0.0610486753285
2019-04-03 19:04:07.20,244216441, 0.0, 0.0, 353.0, 584.090026855, -35.363261, 149.1652299, 0.998134791851, 0.0, 0.0, -0.0610486753285
2019-04-03 19:04:07.30,244316401, 0.0, 0.0, 353.0, 584.090026855, -35.363261, 149.1652299, 0.998134791851, 0.0, 0.0, -0.0610486753285
2019-04-03 19:04:07.40,244416361, 0.0, 0.0, 353.0, 584.090026855, -35.363261, 149.1652299, 0.998134791851, 0.0, 0.0, -0.0610486790538
2019-04-03 19:04:07.50,244516321, 0.0, 0.0, 353.0, 584.090026855, -35.363261, 149.1652299, 0.998134791851, 0.0, 0.0, -0.0610486790538
2019-04-03 19:04:07.60,244616281, 0.0, 0.0, 353.0, 584.090026855, -35.363261, 149.1652299, 0.998134791851, 0.0, 0.0, -0.0610486753285
2019-04-03 19:04:07.70,244716241, 0.0, 0.0, 353.0, 584.090026855, -35.363261, 149.1652299, 0.998134791851, 0.0, 0.0, -0.0610486753285
2019-04-03 19:04:07.80,244816201, 0.0, 0.0, 353.0, 584.090026855, -35.363261, 149.1652299, 0.998134791851, 0.0, 0.0, -0.0610486753285
2019-04-03 19:04:07.90,244916161, 0.0, 0.0, 353.0, 584.099975586, -35.363261, 149.1652299, 0.998134791851, 0.0, 0.0, -0.0610486827791
2019-04-03 19:04:08.00,245016121, 0.0, 0.0, 353.0, 584.099975586, -35.363261, 149.1652299, 0.998134791851, 0.0, 0.0, -0.0610486753285
2019-04-03 19:04:08.10,245116081, 0.0, 0.0, 353.0, 584.119995117, -35.363261, 149.1652299, 0.998134791851, 0.0, 0.0, -0.0610486753285
2019-04-03 19:04:08.20,245216041, 0.0, 0.0, 353.0, 584.140014648, -35.363261, 149.1652299, 0.998134791851, 0.0, 0.0, -0.0610486753285
2019-04-03 19:04:08.30,245316001, 0.0, 0.0, 353.0, 584.179992676, -35.363261, 149.1652299, 0.998134791851, 0.0, 0.0, -0.0610486753285
2019-04-03 19:04:08.40,245415961, 0.0, 0.0, 352.99, 584.210021973, -35.363261, 149.1652299, 0.998134791851, -2.9309862839e-06, -1.70554767465e-06, -0.0610487498343
2019-04-03 19:04:08.50,245515921, -0.06, -0.04, 352.99, 584.270019531, -35.363261, 149.1652299, 0.99813324213, -0.000577345199417, -0.000384577782825, -0.0610701441765
2019-04-03 19:04:08.60,245615881, -0.21, -0.14, 352.99, 584.390014648, -35.363261, 149.1652299, 0.99812746048, -0.00195162789896, -0.00116281141527, -0.0611268058419
2019-04-03 19:04:08.70,245715841, -0.36, -0.25, 352.98, 584.539978027, -35.363261, 149.1652299, 0.998117148876, -0.00328661920503, -0.00202125753276, -0.0612145625055
2019-04-03 19:04:08.80,245815801, -0.44, -0.34, 352.97, 584.690002441, -35.363261, 149.1652299, 0.998106122017, -0.00409251498058, -0.00275300093926, -0.0613176673651
2019-04-03 19:04:08.90,245915761, -0.43, -0.35, 352.95, 584.849975586, -35.363261, 149.1652299, 0.998099565506, -0.00397506915033, -0.00289340922609, -0.0614254996181
2019-04-03 19:04:09.00,246015721, -0.34, -0.32, 352.94, 585.0, -35.363261, 149.1652299, 0.998097240925, -0.00317954225466, -0.00263349339366, -0.0615211501718
2019-04-03 19:04:09.10,246115681, -0.2, -0.24, 352.93, 585.150024414, -35.363261, 149.1652298, 0.998096764088, -0.00195997208357, -0.00204857392237, -0.0616023615003
2019-04-03 19:04:09.20,246216474, -0.09, -0.17, 352.92, 585.309997559, -35.363261, 149.1652298, 0.998095393181, -0.000905073306058, -0.00143623177428, -0.0616666004062
2019-04-03 19:04:09.30,246316434, 0.0, -0.1, 352.92, 585.479980469, -35.363261, 149.1652298, 0.998093903065, -6.43778257654e-05, -0.000881596002728, -0.0617082566023
2019-04-03 19:04:09.40,246416394, 0.02, -0.07, 352.92, 585.650024414, -35.3632609, 149.1652298, 0.998092710972, 0.000175890221726, -0.000630781112704, -0.0617287419736
2019-04-03 19:04:09.50,246516354, 0.01, -0.05, 352.92, 585.83001709, -35.3632609, 149.1652298, 0.998092889786, 0.000125234175357, -0.000486179196741, -0.0617279745638
2019-04-03 19:04:09.60,246616314, -0.03, -0.04, 352.92, 586.010009766, -35.3632609, 149.1652297, 0.998094260693, -0.000336547294864, -0.000359562400263, -0.0617064349353
2019-04-03 19:04:09.70,246716274, -0.09, -0.03, 352.92, 586.190002441, -35.3632609, 149.1652297, 0.998095631599, -0.000830449338537, -0.000220124813495, -0.0616799332201
2019-04-03 19:04:09.80,246816234, -0.13, -0.04, 352.92, 586.380004883, -35.3632609, 149.1652297, 0.998096227646, -0.00121254881378, -0.000289016286843, -0.0616637803614
2019-04-03 19:04:09.90,246916194, -0.11, -0.05, 352.93, 586.58001709, -35.3632608, 149.1652296, 0.998097658157, -0.00106544734444, -0.00040625417023, -0.061642087996
2019-04-03 19:04:10.00,247016154, -0.07, -0.09, 352.93, 586.770019531, -35.3632608, 149.1652296, 0.998098731041, -0.000714207417332, -0.000775087799411, -0.061627227813
2019-04-03 19:04:10.10,247116114, -0.01, -0.11, 352.93, 586.969970703, -35.3632608, 149.1652296, 0.998099029064, -0.000201793460292, -0.000958640943281, -0.0616232305765
2019-04-03 19:04:10.20,247216074, 0.02, -0.1, 352.93, 587.16998291, -35.3632608, 149.1652296, 0.99809885025, 0.000158320719493, -0.000891997828148, -0.0616272054613
2019-04-03 19:04:10.30,247316034, 0.03, -0.05, 352.93, 587.369995117, -35.3632608, 149.1652294, 0.998098552227, 0.0002638513688, -0.0004722790909, -0.0616358742118
2019-04-03 19:04:10.40,247415994, 0.0, 0.0, 352.93, 587.58001709, -35.3632607, 149.1652294, 0.998097419739, 4.04037491535e-05, 1.46048205352e-05, -0.0616566725075
2019-04-03 19:04:10.50,247515954, -0.02, 0.06, 352.92, 587.780029297, -35.3632607, 149.1652294, 0.998095035553, -0.000208312063478, 0.000543243309949, -0.0616928823292
2019-04-03 19:04:10.60,247615914, -0.06, 0.07, 352.92, 587.989990234, -35.3632607, 149.1652294, 0.998091876507, -0.000506690237671, 0.000697522249538, -0.0617401525378
2019-04-03 19:04:10.70,247715874, -0.09, 0.05, 352.91, 588.200012207, -35.3632607, 149.1652293, 0.998088479042, -0.000832783873193, 0.000547137227841, -0.0617933534086
2019-04-03 19:04:10.80,247815834, -0.14, 0.0, 352.9, 588.409973145, -35.3632607, 149.1652293, 0.998084545135, -0.00124506326392, 5.08187040396e-05, -0.0618527568877
2019-04-03 19:04:10.90,247915794, -0.15, -0.07, 352.9, 588.619995117, -35.3632607, 149.1652293, 0.998081028461, -0.00138640613295, -0.000536476320121, -0.0619039610028
2019-04-03 19:04:11.00,248015754, -0.18, -0.15, 352.89, 588.840026855, -35.3632607, 149.1652293, 0.998076796532, -0.00166022579651, -0.00129105860833, -0.0619540512562
2019-04-03 19:04:11.10,248115714, -0.2, -0.23, 352.89, 589.049987793, -35.3632605, 149.1652293, 0.998072206974, -0.0019255336374, -0.00193008838687, -0.0620031654835
2019-04-03 19:04:11.20,248215674, -0.23, -0.25, 352.88, 589.270019531, -35.3632605, 149.1652293, 0.998068332672, -0.00216929381713, -0.00213242811151, -0.0620515011251
2019-04-03 19:04:11.30,248316467, -0.25, -0.24, 352.87, 589.489990234, -35.3632605, 149.1652293, 0.998063981533, -0.00232556904666, -0.00203599315137, -0.0621196739376
2019-04-03 19:04:11.40,248416427, -0.27, -0.24, 352.86, 589.710021973, -35.3632605, 149.1652292, 0.998058497906, -0.00248683313839, -0.00199570134282, -0.0622016005218
2019-04-03 19:04:11.50,248516387, -0.28, -0.23, 352.85, 589.929992676, -35.3632605, 149.1652292, 0.998051583767, -0.00261631514877, -0.00191041058861, -0.0623100474477
2019-04-03 19:04:11.60,248616347, -0.3, -0.26, 352.84, 590.140014648, -35.3632604, 149.1652291, 0.998043179512, -0.00276938197203, -0.00213936204091, -0.0624301098287
2019-04-03 19:04:11.70,248716307, -0.29, -0.28, 352.82, 590.369995117, -35.3632604, 149.1652291, 0.998035609722, -0.00276584899984, -0.00232680165209, -0.062545247376
2019-04-03 19:04:11.80,248816267, -0.29, -0.28, 352.81, 590.590026855, -35.3632604, 149.1652289, 0.998028218746, -0.00274484744295, -0.00232584495097, -0.0626630112529
2019-04-03 19:04:11.90,248916227, -0.27, -0.27, 352.8, 590.809997559, -35.3632604, 149.1652289, 0.998021304607, -0.00251914770342, -0.00223615579307, -0.062786616385
2019-04-03 19:04:12.00,249016187, -0.27, -0.27, 352.78, 591.030029297, -35.3632604, 149.1652289, 0.99801325798, -0.00252380315214, -0.00223687221296, -0.0629144236445
2019-04-03 19:04:12.10,249116147, -0.25, -0.26, 352.77, 591.25, -35.3632604, 149.1652288, 0.998006701469, -0.00232874485664, -0.00219520158134, -0.0630268156528
2019-04-03 19:04:12.20,249216107, -0.22, -0.26, 352.76, 591.479980469, -35.3632604, 149.1652288, 0.9980006814, -0.00208972161636, -0.00222605303861, -0.0631290376186
2019-04-03 19:04:12.30,249316067, -0.21, -0.23, 352.75, 591.700012207, -35.3632603, 149.1652287, 0.997995793819, -0.00200729304925, -0.00192056270316, -0.0632187575102
2019-04-03 19:04:12.40,249416027, -0.22, -0.19, 352.74, 591.929992676, -35.3632603, 149.1652286, 0.997991502285, -0.00204334082082, -0.00161743664648, -0.0632947161794
2019-04-03 19:04:12.50,249515987, -0.2, -0.17, 352.73, 592.150024414, -35.3632602, 149.1652286, 0.997987747192, -0.0018847003812, -0.00138607015833, -0.0633644983172
2019-04-03 19:04:12.60,249615947, -0.18, -0.16, 352.72, 592.380004883, -35.3632602, 149.1652284, 0.997983813286, -0.00167039304506, -0.00131622049958, -0.0634328871965
2019-04-03 19:04:12.70,249715907, -0.13, -0.13, 352.71, 592.609985352, -35.3632602, 149.1652284, 0.997980833054, -0.00126558018383, -0.00111538998317, -0.0634932592511
2019-04-03 19:04:12.80,249815867, -0.1, -0.1, 352.71, 592.83001709, -35.3632601, 149.1652284, 0.99797719717, -0.000957705895416, -0.000858617422637, -0.0635600611567
2019-04-03 19:04:12.90,249915827, -0.07, -0.08, 352.7, 593.059997559, -35.3632601, 149.1652283, 0.997972786427, -0.000730669533368, -0.000690001237672, -0.0636350810528
2019-04-03 19:04:13.00,250015787, -0.08, -0.09, 352.69, 593.289978027, -35.3632599, 149.1652282, 0.997967898846, -0.000816657789983, -0.000768205383793, -0.0637089461088
2019-04-03 19:04:13.10,250115747, -0.08, -0.09, 352.68, 593.520019531, -35.3632599, 149.1652282, 0.997963309288, -0.000807748059742, -0.00075155106606, -0.0637816265225
2019-04-03 19:04:13.20,250215707, -0.09, -0.06, 352.67, 593.75, -35.3632599, 149.1652281, 0.997958064079, -0.000859823485371, -0.00054929574253, -0.0638649389148
2019-04-03 19:04:13.29,250315667, -0.07, -0.01, 352.66, 593.979980469, -35.3632598, 149.1652281, 0.997953057289, -0.00062824197812, -6.96319693816e-05, -0.0639477297664
2019-04-03 19:04:13.40,250416460, -0.02, 0.02, 352.65, 594.210021973, -35.3632598, 149.1652279, 0.99794781208, -0.000222230344662, 0.000245772884227, -0.0640320554376
2019-04-03 19:04:13.50,250516420, 0.0, 0.05, 352.64, 594.440002441, -35.3632598, 149.1652279, 0.99794203043, 3.28716487275e-05, 0.000474927044706, -0.0641205683351
2019-04-03 19:04:13.60,250616380, 0.01, 0.04, 352.63, 594.66998291, -35.3632598, 149.1652279, 0.997936010361, 0.000169935490703, 0.000395133392885, -0.0642144158483
2019-04-03 19:04:13.70,250716340, 0.04, 0.03, 352.62, 594.900024414, -35.3632598, 149.1652279, 0.997929930687, 0.00043108308455, 0.000300045940094, -0.0643084719777
2019-04-03 19:04:13.80,250816300, 0.06, 0.04, 352.61, 595.130004883, -35.3632598, 149.1652278, 0.997923493385, 0.000632736715488, 0.00033073083614, -0.0644061714411
2019-04-03 19:04:13.90,250916260, 0.11, 0.08, 352.6, 595.369995117, -35.3632598, 149.1652278, 0.997917234898, 0.00103758159094, 0.000663992366754, -0.0644966959953
2019-04-03 19:04:14.00,251016220, 0.11, 0.12, 352.59, 595.599975586, -35.3632597, 149.1652278, 0.997912287712, 0.00111284514423, 0.00102912343573, -0.0645657256246
2019-04-03 19:04:14.10,251116180, 0.1, 0.16, 352.58, 595.83001709, -35.3632597, 149.1652278, 0.997907102108, 0.00102918955963, 0.00140996894334, -0.0646399483085
2019-04-03 19:04:14.20,251216140, 0.09, 0.18, 352.57, 596.059997559, -35.3632597, 149.1652277, 0.99790251255, 0.000925045460463, 0.00158524280414, -0.0647086277604
2019-04-03 19:04:14.30,251316100, 0.1, 0.19, 352.57, 596.299987793, -35.3632597, 149.1652277, 0.997898340225, 0.0010043727234, 0.00164636550471, -0.0647704154253
2019-04-03 19:04:14.40,251416060, 0.12, 0.18, 352.56, 596.530029297, -35.3632597, 149.1652277, 0.997893512249, 0.0011558055412, 0.00152192998212, -0.0648449659348
2019-04-03 19:04:14.50,251516020, 0.15, 0.17, 352.55, 596.760009766, -35.3632597, 149.1652277, 0.99788749218, 0.00149122043513, 0.00144767481834, -0.0649328157306
2019-04-03 19:04:14.60,251615980, 0.18, 0.17, 352.54, 596.989990234, -35.3632597, 149.1652277, 0.99788081646, 0.00173397350591, 0.00141368573532, -0.0650300309062
2019-04-03 19:04:14.70,251715940, 0.21, 0.18, 352.53, 597.229980469, -35.3632597, 149.1652277, 0.997874200344, 0.00195538671687, 0.00153222552035, -0.0651221945882
2019-04-03 19:04:14.80,251815900, 0.23, 0.19, 352.52, 597.460021973, -35.3632597, 149.1652277, 0.997867465019, 0.00216235569678, 0.00154327321798, -0.0652185305953
2019-04-03 19:04:14.90,251915860, 0.27, 0.22, 352.51, 597.690002441, -35.3632597, 149.1652277, 0.997859716415, 0.0025422249455, 0.00181430787779, -0.0653167888522
2019-04-03 19:04:15.00,252015820, 0.28, 0.24, 352.49, 597.91998291, -35.3632597, 149.1652277, 0.997852802277, 0.00266068382189, 0.00197807094082, -0.0654129311442
2019-04-03 19:04:15.10,252115780, 0.29, 0.25, 352.48, 598.130004883, -35.3632597, 149.1652277, 0.997846126556, 0.00272347242571, 0.00207550777122, -0.0655090436339
2019-04-03 19:04:15.20,252215740, 0.27, 0.23, 352.47, 598.340026855, -35.3632597, 149.1652278, 0.997840583324, 0.00253042997792, 0.00191365706269, -0.0656063109636
2019-04-03 19:04:15.30,252315700, 0.25, 0.21, 352.46, 598.530029297, -35.3632598, 149.1652278, 0.997835218906, 0.00233692070469, 0.00171964813489, -0.0657000094652
2019-04-03 19:04:15.39,252415660, 0.24, 0.17, 352.45, 598.710021973, -35.3632598, 149.1652278, 0.997830033302, 0.00220232154243, 0.0014031091705, -0.0657906755805
2019-04-03 19:04:15.50,252516453, 0.24, 0.15, 352.44, 598.890014648, -35.3632598, 149.1652279, 0.997824251652, 0.00226285681129, 0.00123511091806, -0.0658795833588
2019-04-03 19:04:15.60,252616413, 0.24, 0.14, 352.43, 599.049987793, -35.3632598, 149.1652279, 0.997819185257, 0.00218671467155, 0.00109158235136, -0.0659614875913
2019-04-03 19:04:15.70,252716373, 0.36, 0.1, 352.42, 599.190002441, -35.3632598, 149.1652279, 0.997811198235, 0.00321449362673, 0.000678433629218, -0.0660458505154
2019-04-03 19:04:15.80,252816333, 0.73, -0.04, 352.41, 599.33001709, -35.3632598, 149.1652279, 0.997790455818, 0.00637942692265, -0.000816750631202, -0.0661274269223
2019-04-03 19:04:15.90,252916293, 1.38, -0.28, 352.4, 599.450012207, -35.3632598, 149.1652281, 0.997729718685, 0.0119190160185, -0.00331025617197, -0.066199362278
2019-04-03 19:04:16.00,253016253, 2.25, -0.61, 352.38, 599.559997559, -35.3632598, 149.1652281, 0.99759465456, 0.0192722380161, -0.00664030294865, -0.0662525817752
2019-04-03 19:04:16.10,253116213, 3.27, -0.97, 352.36, 599.650024414, -35.3632598, 149.1652283, 0.997357845306, 0.027905607596, -0.0103744128719, -0.066264487803
2019-04-03 19:04:16.20,253216173, 4.29, -1.36, 352.34, 599.739990234, -35.3632598, 149.1652284, 0.997028648853, 0.036620657891, -0.0143794296309, -0.0662272721529
2019-04-03 19:04:16.30,253316133, 5.22, -1.71, 352.33, 599.809997559, -35.3632598, 149.1652286, 0.996660411358, 0.0444410666823, -0.017935546115, -0.0661159530282
2019-04-03 19:04:16.40,253416093, 5.95, -2.0, 352.32, 599.880004883, -35.3632598, 149.1652289, 0.996318876743, 0.0506288595498, -0.0208758059889, -0.0659513324499
2019-04-03 19:04:16.50,253516053, 6.51, -2.2, 352.32, 599.940002441, -35.3632597, 149.1652293, 0.996031880379, 0.0553998164833, -0.0230121314526, -0.0657406449318
2019-04-03 19:04:16.60,253616013, 6.94, -2.38, 352.32, 599.989990234, -35.3632595, 149.1652297, 0.995796263218, 0.0590277053416, -0.0247552487999, -0.0655189231038
2019-04-03 19:04:16.70,253715973, 7.28, -2.53, 352.33, 600.030029297, -35.3632593, 149.1652302, 0.995596826077, 0.0619010925293, -0.0262648854405, -0.0653102472425
2019-04-03 19:04:16.80,253815933, 7.53, -2.69, 352.33, 600.059997559, -35.3632591, 149.1652308, 0.995432436466, 0.0640161633492, -0.0277875289321, -0.065146446228
2019-04-03 19:04:16.90,253915893, 7.73, -2.84, 352.33, 600.099975586, -35.3632589, 149.1652315, 0.995295166969, 0.0656212642789, -0.0292339231819, -0.0650134384632
2019-04-03 19:04:17.00,254015853, 7.85, -2.98, 352.33, 600.119995117, -35.3632586, 149.1652322, 0.995197951794, 0.0665827691555, -0.0305488053709, -0.0649195984006
2019-04-03 19:04:17.10,254115813, 7.96, -3.1, 352.32, 600.150024414, -35.3632582, 149.1652332, 0.995110273361, 0.0674320533872, -0.0316532216966, -0.0648572966456
2019-04-03 19:04:17.20,254215773, 8.07, -3.21, 352.31, 600.16998291, -35.3632578, 149.1652341, 0.99501901865, 0.0683230012655, -0.0326754525304, -0.0648185610771
2019-04-03 19:04:17.30,254315733, 8.24, -3.27, 352.32, 600.190002441, -35.3632574, 149.1652351, 0.994908750057, 0.0697689652443, -0.0332709550858, -0.0646682232618
2019-04-03 19:04:17.40,254415693, 8.55, -3.09, 352.63, 600.210021973, -35.363257, 149.1652363, 0.99491918087, 0.0726718902588, -0.0317054018378, -0.0620432533324
2019-04-03 19:04:17.50,254516486, 9.04, -2.72, 353.91, 600.219970703, -35.3632565, 149.1652375, 0.995302557945, 0.0774376243353, -0.0278299320489, -0.0510066412389
2019-04-03 19:04:17.60,254616446, 9.52, -2.59, 356.73, 600.229980469, -35.363256, 149.1652388, 0.995942592621, 0.0823186933994, -0.0249330978841, -0.0264643505216
2019-04-03 19:04:17.70,254716406, 9.82, -3.04, 1.18, 600.25, -35.3632554, 149.1652401, 0.995901107788, 0.0858394950628, -0.0255945269018, 0.0125532420352
2019-04-03 19:04:17.80,254816366, 9.76, -4.15, 7.04, 600.260009766, -35.3632549, 149.1652416, 0.993648409843, 0.0871108174324, -0.0308129098266, 0.0642277002335
2019-04-03 19:04:17.90,254916326, 9.26, -5.76, 14.04, 600.270019531, -35.3632543, 149.1652432, 0.987506508827, 0.0861542373896, -0.0399009622633, 0.125762909651
2019-04-03 19:04:18.00,255016286, 8.22, -7.66, 21.92, 600.280029297, -35.3632537, 149.1652447, 0.97612631321, 0.0829171910882, -0.0518197007477, 0.193950861692
2019-04-03 19:04:18.10,255116246, 6.68, -9.58, 30.4, 600.289978027, -35.3632531, 149.1652466, 0.958723425865, 0.0779454857111, -0.0652112141252, 0.265558719635
2019-04-03 19:04:18.20,255216206, 4.7, -11.26, 39.21, 600.309997559, -35.3632525, 149.1652484, 0.935334444046, 0.0714113414288, -0.0786289870739, 0.337442427874
2019-04-03 19:04:18.30,255316166, 2.45, -12.5, 48.03, 600.320007324, -35.3632519, 149.1652503, 0.906818687916, 0.0637739002705, -0.0908015444875, 0.406654477119
2019-04-03 19:04:18.40,255416126, 0.08, -13.25, 56.55, 600.33001709, -35.3632512, 149.1652523, 0.874741315842, 0.0553308129311, -0.101310797036, 0.470640331507
2019-04-03 19:04:18.50,255516086, -2.48, -13.55, 64.32, 600.340026855, -35.3632504, 149.1652543, 0.841775476933, 0.0445831269026, -0.111291483045, 0.526346445084
2019-04-03 19:04:18.60,255616046, -5.04, -13.43, 70.66, 600.349975586, -35.3632494, 149.1652566, 0.812402546406, 0.0319106169045, -0.120649620891, 0.569585323334
2019-04-03 19:04:18.70,255716006, -7.08, -13.1, 75.03, 600.369995117, -35.3632486, 149.1652588, 0.79077732563, 0.0206870473921, -0.127698242664, 0.598277926445
2019-04-03 19:04:18.80,255815966, -8.25, -12.8, 77.35, 600.380004883, -35.3632475, 149.165261, 0.778795421124, 0.0136567223817, -0.131511688232, 0.613184988499
2019-04-03 19:04:18.90,255915926, -8.46, -12.71, 77.86, 600.390014648, -35.3632464, 149.1652633, 0.776116549969, 0.0123305339366, -0.132048472762, 0.616485416889
2019-04-03 19:04:19.00,256015886, -7.83, -12.91, 76.91, 600.400024414, -35.3632451, 149.1652657, 0.781052350998, 0.0166488811374, -0.130090534687, 0.610537827015
2019-04-03 19:04:19.10,256115846, -6.52, -13.36, 74.88, 600.409973145, -35.3632438, 149.1652681, 0.791330099106, 0.0258013270795, -0.126614287496, 0.597578287125
2019-04-03 19:04:19.20,256215806, -4.77, -14.0, 72.12, 600.41998291, -35.3632424, 149.1652706, 0.804662525654, 0.0382639691234, -0.12280716002, 0.579631388187
2019-04-03 19:04:19.30,256315766, -2.82, -14.69, 68.96, 600.440002441, -35.3632409, 149.1652733, 0.819057643414, 0.0522727929056, -0.119247592986, 0.558741569519
2019-04-03 19:04:19.40,256415726, -0.89, -15.29, 65.75, 600.450012207, -35.3632395, 149.165276, 0.832911789417, 0.0657844468951, -0.115982197225, 0.537101924419
2019-04-03 19:04:19.50,256515686, 0.79, -15.7, 62.82, 600.469970703, -35.3632379, 149.1652786, 0.844913721085, 0.0770886316895, -0.112965531647, 0.517123758793
2019-04-03 19:04:19.60,256616479, 2.07, -15.89, 60.46, 600.479980469, -35.3632365, 149.1652815, 0.854280471802, 0.0850893259048, -0.110372498631, 0.500782012939
2019-04-03 19:04:19.70,256716439, 2.83, -15.93, 58.89, 600.489990234, -35.3632349, 149.1652844, 0.860459208488, 0.0894201993942, -0.108619056642, 0.489710062742
2019-04-03 19:04:19.80,256816399, 3.07, -15.9, 58.13, 600.510009766, -35.3632335, 149.1652875, 0.863539040089, 0.0904104933143, -0.108003817499, 0.484212219715
2019-04-03 19:04:19.90,256916359, 2.88, -15.88, 58.12, 600.520019531, -35.3632319, 149.1652906, 0.863763749599, 0.0888946801424, -0.108589090407, 0.483961105347
2019-04-03 19:04:20.00,257016319, 2.36, -15.9, 58.72, 600.539978027, -35.3632306, 149.1652938, 0.861584067345, 0.0856386572123, -0.110570460558, 0.487968295813
2019-04-03 19:04:20.10,257116279, 1.61, -15.99, 59.75, 600.549987793, -35.3632291, 149.1652971, 0.857607245445, 0.0814340934157, -0.113654993474, 0.494935184717
2019-04-03 19:04:20.20,257216239, 0.77, -16.08, 61.01, 600.559997559, -35.3632276, 149.1653005, 0.852580547333, 0.0767915695906, -0.117118403316, 0.503480672836
2019-04-03 19:04:20.30,257316199, -0.04, -16.18, 62.32, 600.58001709, -35.3632261, 149.1653039, 0.847201883793, 0.0724942833185, -0.120703235269, 0.512273669243
2019-04-03 19:04:20.40,257416159, -0.77, -16.29, 63.51, 600.590026855, -35.3632245, 149.1653074, 0.842162013054, 0.0689224898815, -0.124059394002, 0.520213544369
2019-04-03 19:04:20.50,257516119, -1.33, -16.4, 64.47, 600.609985352, -35.363223, 149.1653108, 0.838015198708, 0.0663479939103, -0.126818478107, 0.526541113853
2019-04-03 19:04:20.60,257616079, -1.69, -16.48, 65.12, 600.619995117, -35.3632214, 149.1653145, 0.83513969183, 0.0647990107536, -0.128732219338, 0.530820906162
2019-04-03 19:04:20.70,257716039, -1.83, -16.56, 65.44, 600.630004883, -35.3632197, 149.165318, 0.833641886711, 0.0645703449845, -0.129728600383, 0.532956302166
2019-04-03 19:04:20.80,257815999, -1.76, -16.62, 65.46, 600.650024414, -35.3632181, 149.1653217, 0.833479881287, 0.0653378665447, -0.129864647985, 0.533082962036
2019-04-03 19:04:20.90,257915959, -1.54, -16.66, 65.22, 600.659973145, -35.3632164, 149.1653254, 0.834446012974, 0.066815905273, -0.129237800837, 0.531538426876
2019-04-03 19:04:21.00,258015919, -1.24, -16.69, 64.79, 600.679992676, -35.3632147, 149.1653292, 0.836207389832, 0.06869328022, -0.128325730562, 0.528744697571
2019-04-03 19:04:21.10,258115879, -0.9, -16.74, 64.26, 600.690002441, -35.363213, 149.165333, 0.838389277458, 0.0708402842283, -0.127403512597, 0.525217533112
2019-04-03 19:04:21.20,258215839, -0.55, -16.79, 63.7, 600.700012207, -35.3632112, 149.1653368, 0.840665578842, 0.0729762241244, -0.126564323902, 0.521476089954
2019-04-03 19:04:21.30,258315799, -0.22, -16.85, 63.18, 600.719970703, -35.3632094, 149.1653405, 0.842733740807, 0.0751167982817, -0.125857293606, 0.517993450165
2019-04-03 19:04:21.40,258415759, 0.03, -16.92, 62.75, 600.729980469, -35.3632078, 149.1653445, 0.844412446022, 0.076896674931, -0.125523433089, 0.51507127285
2019-04-03 19:04:21.50,258515719, 0.19, -16.98, 62.44, 600.75, -35.363206, 149.1653484, 0.845629990101, 0.0780232101679, -0.125400021672, 0.512929975986
2019-04-03 19:04:21.60,258615679, 0.26, -17.02, 62.26, 600.760009766, -35.3632043, 149.1653524, 0.846337616444, 0.0785395056009, -0.125534921885, 0.511649429798
2019-04-03 19:04:21.70,258716472, 0.27, -17.06, 62.21, 600.770019531, -35.3632025, 149.1653565, 0.846536576748, 0.0787242278457, -0.125833183527, 0.511218488216
2019-04-03 19:04:21.80,258816432, 0.21, -17.08, 62.26, 600.789978027, -35.3632007, 149.1653605, 0.84633821249, 0.0783911123872, -0.126233130693, 0.511499464512
2019-04-03 19:04:21.90,258916392, 0.11, -17.09, 62.38, 600.799987793, -35.3631989, 149.1653646, 0.845843970776, 0.0777852684259, -0.126627191901, 0.512311458588
2019-04-03 19:04:22.00,259016352, -0.01, -17.11, 62.55, 600.820007324, -35.3631971, 149.1653686, 0.845146000385, 0.0771589204669, -0.127211675048, 0.513412058353
2019-04-03 19:04:22.10,259116312, -0.14, -17.15, 62.73, 600.83001709, -35.3631953, 149.1653728, 0.844379246235, 0.0765203759074, -0.127986758947, 0.514575302601
2019-04-03 19:04:22.20,259216272, -0.28, -17.18, 62.9, 600.849975586, -35.3631934, 149.165377, 0.843675732613, 0.0758735314012, -0.128775447607, 0.515627145767
2019-04-03 19:04:22.30,259316232, -0.37, -17.23, 63.03, 600.859985352, -35.3631916, 149.1653811, 0.843094527721, 0.075541459024, -0.129421576858, 0.516464173794
2019-04-03 19:04:22.40,259416192, -0.43, -17.28, 63.12, 600.880004883, -35.3631897, 149.1653854, 0.842699050903, 0.0754122510552, -0.130010306835, 0.516980350018
2019-04-03 19:04:22.50,259516152, -0.47, -17.33, 63.15, 600.890014648, -35.3631879, 149.1653896, 0.842515230179, 0.0754292234778, -0.130514472723, 0.517150342464
2019-04-03 19:04:22.60,259616112, -0.46, -17.36, 63.13, 600.909973145, -35.363186, 149.1653939, 0.842550814152, 0.0756427273154, -0.130717620254, 0.517009854317
2019-04-03 19:04:22.70,259716072, -0.4, -17.38, 63.07, 600.91998291, -35.3631841, 149.1653982, 0.84277677536, 0.0760324671865, -0.130628600717, 0.516606807709
2019-04-03 19:04:22.80,259816032, -0.35, -17.42, 62.98, 600.940002441, -35.3631823, 149.1654025, 0.843114972115, 0.0765576958656, -0.130763530731, 0.515942811966
2019-04-03 19:04:22.90,259915992, -0.28, -17.48, 62.87, 600.950012207, -35.3631804, 149.1654068, 0.84351760149, 0.0771398767829, -0.130965352058, 0.515146195889
2019-04-03 19:04:23.00,260015952, -0.23, -17.54, 62.75, 600.969970703, -35.3631784, 149.1654111, 0.843955278397, 0.0776555389166, -0.131226018071, 0.514284789562
2019-04-03 19:04:23.10,260115912, -0.18, -17.57, 62.63, 600.979980469, -35.3631765, 149.1654155, 0.844400167465, 0.0780764371157, -0.131364285946, 0.513454794884
2019-04-03 19:04:23.20,260215872, -0.13, -17.59, 62.52, 601.0, -35.3631746, 149.1654198, 0.844816565514, 0.0784104242921, -0.131305411458, 0.512733519077
2019-04-03 19:04:23.30,260315832, -0.08, -17.59, 62.44, 601.010009766, -35.3631727, 149.1654242, 0.845165848732, 0.0786347985268, -0.131195440888, 0.512151360512
2019-04-03 19:04:23.40,260415792, -0.07, -17.59, 62.38, 601.030029297, -35.3631708, 149.1654285, 0.84543710947, 0.0786482691765, -0.131212323904, 0.511697113514
2019-04-03 19:04:23.50,260515752, -0.09, -17.61, 62.33, 601.039978027, -35.3631687, 149.1654331, 0.84562265873, 0.0785250067711, -0.131413578987, 0.511357724667
2019-04-03 19:04:23.60,260615712, -0.14, -17.64, 62.31, 601.059997559, -35.3631668, 149.1654375, 0.845720052719, 0.078335955739, -0.13190741837, 0.511098325253
2019-04-03 19:04:23.70,260715672, -0.17, -17.68, 62.3, 601.070007324, -35.3631649, 149.1654419, 0.845751345158, 0.0782387182117, -0.132359340787, 0.510944604874
2019-04-03 19:04:23.80,260816465, -0.19, -17.72, 62.29, 601.090026855, -35.363163, 149.1654465, 0.845754742622, 0.0782081112266, -0.132709264755, 0.51085293293
2019-04-03 19:04:23.90,260916425, -0.2, -17.74, 62.29, 601.099975586, -35.363161, 149.165451, 0.845744907856, 0.0782807320356, -0.132925376296, 0.510801851749
2019-04-03 19:04:24.00,261016385, -0.2, -17.75, 62.28, 601.119995117, -35.3631589, 149.1654555, 0.845760762691, 0.0782862976193, -0.133002221584, 0.51075476408
2019-04-03 19:04:24.10,261116345, -0.19, -17.75, 62.27, 601.130004883, -35.363157, 149.16546, 0.845788478851, 0.0783717855811, -0.132989019156, 0.510699152946
2019-04-03 19:04:24.20,261216305, -0.18, -17.76, 62.26, 601.150024414, -35.3631551, 149.1654644, 0.845852673054, 0.0784550234675, -0.132955789566, 0.51058870554
2019-04-03 19:04:24.30,261316265, -0.17, -17.76, 62.23, 601.159973145, -35.3631531, 149.1654691, 0.845957398415, 0.07846981287, -0.132978469133, 0.510407030582
2019-04-03 19:04:24.40,261416225, -0.19, -17.78, 62.2, 601.179992676, -35.363151, 149.1654735, 0.846077978611, 0.0784469395876, -0.133252248168, 0.510139167309
2019-04-03 19:04:24.50,261516185, -0.2, -17.81, 62.16, 601.200012207, -35.3631491, 149.1654782, 0.846231818199, 0.0784009844065, -0.133499532938, 0.509826362133
2019-04-03 19:04:24.60,261616145, -0.2, -17.81, 62.12, 601.210021973, -35.3631471, 149.1654828, 0.846416652203, 0.0783808752894, -0.133536338806, 0.509512901306
2019-04-03 19:04:24.70,261716105, -0.15, -17.82, 62.07, 601.229980469, -35.363145, 149.1654873, 0.846574723721, 0.0787144526839, -0.133438557386, 0.509224295616
2019-04-03 19:04:24.80,261816065, -0.11, -17.85, 62.03, 601.239990234, -35.363143, 149.1654919, 0.846720635891, 0.0791073739529, -0.133475184441, 0.508911132812
2019-04-03 19:04:24.90,261916025, -0.08, -17.87, 61.98, 601.260009766, -35.3631411, 149.1654965, 0.846877276897, 0.0793650299311, -0.133526936173, 0.508596718311
2019-04-03 19:04:25.00,262015985, -0.07, -17.91, 61.94, 601.270019531, -35.3631391, 149.1655011, 0.84701281786, 0.0795484110713, -0.133807361126, 0.508268535137
2019-04-03 19:04:25.10,262115945, -0.06, -17.93, 61.9, 601.289978027, -35.363137, 149.1655058, 0.847148060799, 0.0796919390559, -0.133968830109, 0.507978081703
2019-04-03 19:04:25.20,262215905, -0.04, -17.93, 61.87, 601.299987793, -35.363135, 149.1655103, 0.847287714481, 0.0797726809978, -0.133926987648, 0.507743477821
2019-04-03 19:04:25.30,262315865, -0.02, -17.92, 61.84, 601.320007324, -35.363133, 149.165515, 0.84742295742, 0.0798465460539, -0.13375556469, 0.507551312447
2019-04-03 19:04:25.40,262415825, -0.02, -17.91, 61.81, 601.33001709, -35.3631309, 149.1655197, 0.847539544106, 0.0798206701875, -0.133696049452, 0.507376372814
2019-04-03 19:04:25.50,262515785, -0.03, -17.91, 61.79, 601.349975586, -35.3631289, 149.1655242, 0.847637534142, 0.0797410160303, -0.133773908019, 0.507204651833
2019-04-03 19:04:25.60,262615745, -0.04, -17.94, 61.77, 601.369995117, -35.3631269, 149.165529, 0.847708642483, 0.0797208547592, -0.134001418948, 0.50702881813
2019-04-03 19:04:25.70,262715705, -0.04, -17.95, 61.75, 601.380004883, -35.3631248, 149.1655336, 0.847771942616, 0.0797799155116, -0.134138032794, 0.506877601147
2019-04-03 19:04:25.79,262815665, -0.04, -17.97, 61.73, 601.400024414, -35.3631228, 149.1655382, 0.847837030888, 0.0798458307981, -0.134272754192, 0.50672262907
2019-04-03 19:04:25.90,262916458, -0.01, -17.99, 61.71, 601.409973145, -35.3631206, 149.1655429, 0.847888052464, 0.0801259353757, -0.134331807494, 0.506577432156
2019-04-03 19:04:26.00,263016418, 0.02, -18.0, 61.69, 601.429992676, -35.3631187, 149.1655477, 0.847963452339, 0.0803705826402, -0.134217396379, 0.506442725658
2019-04-03 19:04:26.10,263116378, 0.04, -17.98, 61.66, 601.440002441, -35.3631166, 149.1655524, 0.848080039024, 0.0804547220469, -0.134011700749, 0.506288707256
2019-04-03 19:04:26.20,263216338, 0.06, -17.96, 61.63, 601.460021973, -35.3631145, 149.1655571, 0.848202705383, 0.0804930999875, -0.13381268084, 0.506129682064
2019-04-03 19:04:26.30,263316298, 0.08, -17.95, 61.61, 601.469970703, -35.3631125, 149.1655618, 0.848315119743, 0.0805476754904, -0.133698016405, 0.505962789059
2019-04-03 19:04:26.40,263416258, 0.09, -17.96, 61.58, 601.489990234, -35.3631103, 149.1655664, 0.848410367966, 0.0806788876653, -0.133702084422, 0.505781054497
2019-04-03 19:04:26.50,263516218, 0.1, -17.99, 61.55, 601.5, -35.3631083, 149.1655711, 0.848491966724, 0.0808397457004, -0.133867204189, 0.50557488203
2019-04-03 19:04:26.60,263616178, 0.1, -18.03, 61.53, 601.520019531, -35.3631062, 149.1655759, 0.84856981039, 0.0809452757239, -0.134178087115, 0.505344808102
2019-04-03 19:04:26.70,263716138, 0.11, -18.07, 61.5, 601.539978027, -35.3631041, 149.1655806, 0.848620057106, 0.0812204703689, -0.13448767364, 0.505134046078
2019-04-03 19:04:26.80,263816098, 0.12, -18.1, 61.48, 601.549987793, -35.3631021, 149.1655853, 0.848693728447, 0.0813581421971, -0.134690284729, 0.504934072495
2019-04-03 19:04:26.90,263916058, 0.12, -18.12, 61.45, 601.570007324, -35.3630999, 149.1655899, 0.848778247833, 0.0813956856728, -0.134871080518, 0.504737615585
2019-04-03 19:04:27.00,264016018, 0.11, -18.13, 61.43, 601.58001709, -35.3630979, 149.1655947, 0.848883092403, 0.0813191458583, -0.134966343641, 0.504548192024
2019-04-03 19:04:27.10,264115978, 0.1, -18.11, 61.41, 601.599975586, -35.3630959, 149.1655994, 0.84900778532, 0.0811678394675, -0.134884670377, 0.504384458065
2019-04-03 19:04:27.20,264215938, 0.11, -18.11, 61.38, 601.619995117, -35.3630938, 149.1656042, 0.849093675613, 0.0812356546521, -0.134878233075, 0.504230737686
2019-04-03 19:04:27.30,264315898, 0.11, -18.11, 61.36, 601.630004883, -35.3630917, 149.165609, 0.849192500114, 0.0811777114868, -0.134892508388, 0.504069805145
2019-04-03 19:04:27.40,264415858, 0.1, -18.11, 61.34, 601.650024414, -35.3630895, 149.1656137, 0.849298894405, 0.0810615345836, -0.134921237826, 0.503901541233
2019-04-03 19:04:27.50,264515818, 0.1, -18.11, 61.32, 601.659973145, -35.3630875, 149.1656185, 0.849398732185, 0.0810422003269, -0.134925469756, 0.50373506546
2019-04-03 19:04:27.60,264615778, 0.11, -18.1, 61.29, 601.679992676, -35.3630853, 149.1656232, 0.849497973919, 0.0810870304704, -0.134875044227, 0.50357401371
2019-04-03 19:04:27.70,264715738, 0.13, -18.09, 61.27, 601.690002441, -35.3630834, 149.165628, 0.849601089954, 0.0811741501093, -0.134728848934, 0.503425180912
2019-04-03 19:04:27.80,264815698, 0.16, -18.1, 61.24, 601.710021973, -35.3630813, 149.1656328, 0.849685430527, 0.081366866827, -0.134708791971, 0.503257036209
2019-04-03 19:04:27.90,264916491, 0.17, -18.12, 61.22, 601.729980469, -35.3630791, 149.1656376, 0.849772572517, 0.0814815610647, -0.134805351496, 0.503065466881
2019-04-03 19:04:28.00,265016451, 0.18, -18.14, 61.19, 601.739990234, -35.3630771, 149.1656423, 0.849848628044, 0.0816595628858, -0.13490922749, 0.502880275249
2019-04-03 19:04:28.10,265116411, 0.19, -18.15, 61.17, 601.760009766, -35.3630749, 149.1656471, 0.849948167801, 0.0816816315055, -0.13496029377, 0.50269472599
2019-04-03 19:04:28.20,265216371, 0.17, -18.14, 61.14, 601.770019531, -35.3630729, 149.1656519, 0.850077927113, 0.0814611315727, -0.134999334812, 0.502500474453
2019-04-03 19:04:28.30,265316331, 0.14, -18.11, 61.12, 601.789978027, -35.3630707, 149.1656566, 0.850228846073, 0.0811208114028, -0.134971067309, 0.502307891846
2019-04-03 19:04:28.40,265416291, 0.12, -18.09, 61.1, 601.799987793, -35.3630687, 149.1656614, 0.850370287895, 0.0808896198869, -0.134858012199, 0.50213599205
2019-04-03 19:04:28.50,265516251, 0.14, -18.08, 61.07, 601.820007324, -35.3630665, 149.1656662, 0.850472569466, 0.0809607505798, -0.134718835354, 0.501988649368
2019-04-03 19:04:28.60,265616211, 0.17, -18.1, 61.05, 601.83001709, -35.3630645, 149.165671, 0.850530266762, 0.0812449380755, -0.134738981724, 0.501839578152
2019-04-03 19:04:28.70,265716171, 0.2, -18.1, 61.03, 601.849975586, -35.3630623, 149.1656758, 0.850601017475, 0.0814528614283, -0.134671583772, 0.501704037189
2019-04-03 19:04:28.80,265816131, 0.21, -18.13, 61.01, 601.869995117, -35.3630603, 149.1656806, 0.850658535957, 0.0816058963537, -0.134866312146, 0.501529276371
2019-04-03 19:04:28.90,265916091, 0.19, -18.17, 60.98, 601.880004883, -35.3630582, 149.1656853, 0.850725948811, 0.0816000923514, -0.135209307075, 0.501323521137
2019-04-03 19:04:29.00,266016051, 0.17, -18.2, 60.96, 601.900024414, -35.3630561, 149.1656901, 0.850797116756, 0.0815452858806, -0.135569512844, 0.501114308834
2019-04-03 19:04:29.10,266116011, 0.15, -18.21, 60.94, 601.909973145, -35.363054, 149.1656949, 0.850892364979, 0.0814104750752, -0.135778263211, 0.50091791153
2019-04-03 19:04:29.20,266215971, 0.14, -18.19, 60.92, 601.929992676, -35.3630518, 149.1656997, 0.851022064686, 0.0812236890197, -0.135681837797, 0.500754058361
2019-04-03 19:04:29.30,266315931, 0.16, -18.16, 60.9, 601.940002441, -35.3630497, 149.1657045, 0.851138591766, 0.0811998397112, -0.135392859578, 0.500638127327
2019-04-03 19:04:29.40,266415891, 0.17, -18.16, 60.88, 601.960021973, -35.3630476, 149.1657093, 0.851216435432, 0.0813237652183, -0.135333836079, 0.500501573086
2019-04-03 19:04:29.50,266515851, 0.19, -18.18, 60.85, 601.969970703, -35.3630455, 149.1657141, 0.851271688938, 0.0815212056041, -0.135421156883, 0.500351786613
2019-04-03 19:04:29.60,266615811, 0.2, -18.21, 60.83, 601.989990234, -35.3630433, 149.1657189, 0.851333916187, 0.0816527381539, -0.135586768389, 0.500179648399
2019-04-03 19:04:29.70,266715771, 0.21, -18.22, 60.81, 602.0, -35.3630413, 149.1657237, 0.851408839226, 0.081732198596, -0.135653376579, 0.500021100044
2019-04-03 19:04:29.80,266815731, 0.21, -18.22, 60.79, 602.020019531, -35.3630391, 149.1657285, 0.851492524147, 0.0817354470491, -0.135713011026, 0.499861806631
2019-04-03 19:04:29.90,266915691, 0.22, -18.21, 60.77, 602.039978027, -35.3630371, 149.1657333, 0.851588070393, 0.0817669481039, -0.135573238134, 0.499731779099
2019-04-03 19:04:30.00,267016484, 0.25, -18.2, 60.75, 602.049987793, -35.3630348, 149.1657381, 0.851675450802, 0.081907607615, -0.135343179107, 0.499622195959
2019-04-03 19:04:30.10,267116444, 0.29, -18.19, 60.73, 602.070007324, -35.3630328, 149.1657429, 0.851750433445, 0.082111120224, -0.135099485517, 0.499526828527
2019-04-03 19:04:30.20,267216404, 0.31, -18.19, 60.71, 602.08001709, -35.3630306, 149.1657477, 0.851816654205, 0.082229077816, -0.135096728802, 0.499395221472
2019-04-03 19:04:30.30,267316364, 0.3, -18.21, 60.69, 602.099975586, -35.3630286, 149.1657525, 0.851892828941, 0.0822088420391, -0.135250329971, 0.499227106571
2019-04-03 19:04:30.40,267416324, 0.29, -18.22, 60.67, 602.109985352, -35.3630263, 149.1657573, 0.851962447166, 0.0821978077292, -0.135431468487, 0.499060988426
2019-04-03 19:04:30.50,267516284, 0.28, -18.23, 60.65, 602.130004883, -35.3630243, 149.1657621, 0.852046310902, 0.0821136385202, -0.135534763336, 0.498903572559
2019-04-03 19:04:30.60,267616244, 0.24, -18.22, 60.63, 602.140014648, -35.3630221, 149.1657669, 0.852160453796, 0.0817869007587, -0.135652244091, 0.498730391264
2019-04-03 19:04:30.70,267716204, 0.21, -18.21, 60.62, 602.159973145, -35.3630201, 149.1657717, 0.852274537086, 0.0814771801233, -0.135684907436, 0.498577237129
2019-04-03 19:04:30.80,267816164, 0.19, -18.19, 60.6, 602.16998291, -35.3630178, 149.1657765, 0.852385222912, 0.0812226980925, -0.13562746346, 0.498445153236
2019-04-03 19:04:30.90,267916124, 0.2, -18.16, 60.58, 602.190002441, -35.3630158, 149.1657813, 0.852477371693, 0.0811454057693, -0.135458558798, 0.49834600091
2019-04-03 19:04:31.00,268016084, 0.21, -18.17, 60.57, 602.200012207, -35.3630136, 149.1657861, 0.852538526058, 0.0812040567398, -0.135433122516, 0.498238801956
2019-04-03 19:04:31.10,268116044, 0.21, -18.18, 60.55, 602.219970703, -35.3630116, 149.1657909, 0.852589488029, 0.081279233098, -0.135534331203, 0.498111724854
2019-04-03 19:04:31.20,268216004, 0.22, -18.2, 60.53, 602.239990234, -35.3630093, 149.1657957, 0.852639853954, 0.0813860818744, -0.135636612773, 0.497980237007
2019-04-03 19:04:31.30,268315964, 0.24, -18.2, 60.51, 602.25, -35.3630073, 149.1658005, 0.852703750134, 0.081513158977, -0.135592147708, 0.497862190008
2019-04-03 19:04:31.40,268415924, 0.25, -18.2, 60.49, 602.270019531, -35.3630051, 149.1658053, 0.852780818939, 0.0815870761871, -0.13553802669, 0.497732758522
2019-04-03 19:04:31.50,268515884, 0.27, -18.2, 60.47, 602.280029297, -35.3630031, 149.1658101, 0.852856338024, 0.0816784873605, -0.135483056307, 0.497603297234
2019-04-03 19:04:31.60,268615844, 0.28, -18.21, 60.46, 602.299987793, -35.3630008, 149.1658149, 0.852921247482, 0.0817938745022, -0.135512828827, 0.497464954853
2019-04-03 19:04:31.70,268715804, 0.28, -18.21, 60.44, 602.309997559, -35.3629988, 149.1658197, 0.852996766567, 0.0818051025271, -0.135528564453, 0.497329384089
2019-04-03 19:04:31.80,268815764, 0.28, -18.21, 60.42, 602.33001709, -35.3629966, 149.1658245, 0.853069543839, 0.0817912146449, -0.135569527745, 0.497195631266
2019-04-03 19:04:31.90,268915724, 0.29, -18.21, 60.4, 602.340026855, -35.3629945, 149.1658295, 0.853142023087, 0.0818239748478, -0.135485142469, 0.497088849545
2019-04-03 19:04:32.00,269015684, 0.31, -18.19, 60.39, 602.359985352, -35.3629923, 149.1658343, 0.853220582008, 0.0818687453866, -0.135288491845, 0.497000187635
2019-04-03 19:04:32.10,269116477, 0.33, -18.16, 60.37, 602.380004883, -35.3629902, 149.1658391, 0.853304207325, 0.0819127187133, -0.134996473789, 0.496928811073
2019-04-03 19:04:32.20,269216437, 0.35, -18.16, 60.35, 602.390014648, -35.362988, 149.1658439, 0.853367507458, 0.0819659754634, -0.134916305542, 0.496833056211
2019-04-03 19:04:32.30,269316397, 0.36, -18.16, 60.34, 602.409973145, -35.362986, 149.1658487, 0.853415906429, 0.0820538699627, -0.1349363029, 0.496729999781
2019-04-03 19:04:32.40,269416357, 0.36, -18.19, 60.33, 602.41998291, -35.3629837, 149.1658535, 0.853436887264, 0.0821835622191, -0.135138005018, 0.496617645025
2019-04-03 19:04:32.50,269516317, 0.36, -18.23, 60.31, 602.440002441, -35.3629817, 149.1658584, 0.853449046612, 0.0823113098741, -0.135404080153, 0.496503084898
2019-04-03 19:04:32.60,269616277, 0.34, -18.26, 60.3, 602.450012207, -35.3629795, 149.1658632, 0.853474020958, 0.0823007598519, -0.135751530528, 0.496367037296
2019-04-03 19:04:32.70,269716237, 0.32, -18.27, 60.29, 602.469970703, -35.3629774, 149.165868, 0.853524506092, 0.0822176709771, -0.135921820998, 0.496247410774
2019-04-03 19:04:32.80,269816197, 0.33, -18.3, 60.28, 602.479980469, -35.3629752, 149.1658728, 0.853538393974, 0.0823515355587, -0.136141523719, 0.49614110589
