Start,TimeUS,Roll,Pitch,Yaw,Alt,Lat,Lng,Q1,Q2,Q3,Q4
2019-04-03 18:28:21.80,57416191, 0.0, 0.0, 353.0, 584.090026855, -35.363261, 149.1652299, 0.998134791851, 0.0, 0.0, -0.0610485821962
2019-04-03 18:28:21.89,57516151, 0.0, 0.0, 353.0, 584.090026855, -35.363261, 149.1652299, 0.998134791851, 0.0, 0.0, -0.0610485821962
2019-04-03 18:28:21.99,57616111, 0.0, 0.0, 353.0, 584.090026855, -35.363261, 149.1652299, 0.998134791851, 0.0, 0.0, -0.0610485821962
2019-04-03 18:28:22.09,57716071, 0.0, 0.0, 353.0, 584.090026855, -35.363261, 149.1652299, 0.998134791851, 0.0, 0.0, -0.0610485821962
2019-04-03 18:28:22.19,57816031, 0.0, 0.0, 353.0, 584.090026855, -35.363261, 149.1652299, 0.998134791851, 0.0, 0.0, -0.0610485821962
2019-04-03 18:28:22.29,57915991, 0.0, 0.0, 353.0, 584.090026855, -35.363261, 149.1652299, 0.998134791851, 0.0, 0.0, -0.0610485821962
2019-04-03 18:28:22.39,58015951, 0.0, 0.0, 353.0, 584.090026855, -35.363261, 149.1652299, 0.998134791851, 0.0, 0.0, -0.0610485821962
2019-04-03 18:28:22.49,58115911, 0.0, 0.0, 353.0, 584.090026855, -35.363261, 149.1652299, 0.998134791851, 0.0, 0.0, -0.0610485821962
2019-04-03 18:28:22.59,58215871, 0.0, 0.0, 353.0, 584.090026855, -35.363261, 149.1652299, 0.998134791851, 0.0, 0.0, -0.0610485821962
2019-04-03 18:28:22.69,58315831, 0.0, 0.0, 353.0, 584.090026855, -35.363261, 149.1652299, 0.998134791851, 0.0, 0.0, -0.0610485821962
2019-04-03 18:28:22.79,58415791, 0.0, 0.0, 353.0, 584.090026855, -35.363261, 149.1652299, 0.998134791851, 0.0, 0.0, -0.0610485821962
2019-04-03 18:28:22.89,58515751, 0.0, 0.0, 353.0, 584.090026855, -35.363261, 149.1652299, 0.998134791851, 0.0, 0.0, -0.0610485821962
2019-04-03 18:28:22.99,58615711, 0.0, 0.0, 353.0, 584.090026855, -35.363261, 149.1652299, 0.998134791851, 0.0, 0.0, -0.0610485821962
2019-04-03 18:28:23.09,58715671, 0.0, 0.0, 353.0, 584.090026855, -35.363261, 149.1652299, 0.998134791851, 0.0, 0.0, -0.0610485821962
2019-04-03 18:28:23.20,58816464, 0.0, 0.0, 353.0, 584.090026855, -35.363261, 149.1652299, 0.998134791851, 0.0, 0.0, -0.0610485821962
2019-04-03 18:28:23.30,58916424, 0.0, 0.0, 353.0, 584.090026855, -35.363261, 149.1652299, 0.998134791851, 0.0, 0.0, -0.0610485821962
2019-04-03 18:28:23.40,59016384, 0.0, 0.0, 353.0, 584.090026855, -35.363261, 149.1652299, 0.998134791851, 0.0, 0.0, -0.0610485821962
2019-04-03 18:28:23.50,59116344, 0.0, 0.0, 353.0, 584.090026855, -35.363261, 149.1652299, 0.998134791851, 0.0, 0.0, -0.0610485821962
2019-04-03 18:28:23.60,59216304, 0.0, 0.0, 353.0, 584.090026855, -35.363261, 149.1652299, 0.998134791851, 0.0, 0.0, -0.0610485821962
2019-04-03 18:28:23.70,59316264, 0.0, 0.0, 353.0, 584.090026855, -35.363261, 149.1652299, 0.998134791851, 0.0, 0.0, -0.0610485821962
2019-04-03 18:28:23.80,59416224, 0.0, 0.0, 353.0, 584.090026855, -35.363261, 149.1652299, 0.998134791851, 0.0, 0.0, -0.0610485821962
2019-04-03 18:28:23.89,59516184, 0.0, 0.0, 353.0, 584.090026855, -35.363261, 149.1652299, 0.998134791851, 0.0, 0.0, -0.0610485821962
2019-04-03 18:28:23.99,59616144, 0.0, 0.0, 353.0, 584.090026855, -35.363261, 149.1652299, 0.998134791851, 0.0, 0.0, -0.0610485821962
2019-04-03 18:28:24.09,59716104, 0.0, 0.0, 353.0, 584.090026855, -35.363261, 149.1652299, 0.998134791851, 0.0, 0.0, -0.0610485821962
2019-04-03 18:28:24.19,59816064, 0.0, 0.0, 353.0, 584.090026855, -35.363261, 149.1652299, 0.998134791851, 0.0, 0.0, -0.0610485821962
2019-04-03 18:28:24.29,59916024, 0.0, 0.0, 353.0, 584.090026855, -35.363261, 149.1652299, 0.998134791851, 0.0, 0.0, -0.0610485821962
2019-04-03 18:28:24.39,60015984, 0.0, 0.0, 353.0, 584.090026855, -35.363261, 149.1652299, 0.998134791851, 0.0, 0.0, -0.0610485821962
2019-04-03 18:28:24.49,60115944, 0.0, 0.0, 353.0, 584.090026855, -35.363261, 149.1652299, 0.998134791851, 0.0, 0.0, -0.0610485821962
2019-04-03 18:28:24.59,60215904, 0.0, 0.0, 353.0, 584.090026855, -35.363261, 149.1652299, 0.998134791851, 0.0, 0.0, -0.0610485821962
2019-04-03 18:28:24.69,60315864, 0.0, 0.0, 353.0, 584.090026855, -35.363261, 149.1652299, 0.998134791851, 0.0, 0.0, -0.0610485821962
2019-04-03 18:28:24.79,60415824, 0.0, 0.0, 353.0, 584.090026855, -35.363261, 149.1652299, 0.998134791851, 0.0, 0.0, -0.0610485821962
2019-04-03 18:28:24.89,60515784, 0.0, 0.0, 353.0, 584.090026855, -35.363261, 149.1652299, 0.998134791851, 0.0, 0.0, -0.0610485821962
2019-04-03 18:28:24.99,60615744, 0.0, 0.0, 353.0, 584.090026855, -35.363261, 149.1652299, 0.998134791851, 0.0, 0.0, -0.0610485821962
2019-04-03 18:28:25.09,60715704, 0.0, 0.0, 353.0, 584.090026855, -35.363261, 149.1652299, 0.998134791851, 0.0, 0.0, -0.0610485821962
2019-04-03 18:28:25.19,60815664, 0.0, 0.0, 353.0, 584.090026855, -35.363261, 149.1652299, 0.998134791851, 0.0, 0.0, -0.0610485821962
2019-04-03 18:28:25.30,60916457, 0.0, 0.0, 353.0, 584.090026855, -35.363261, 149.1652299, 0.998134791851, 0.0, 0.0, -0.0610485821962
2019-04-03 18:28:25.40,61016417, 0.0, 0.0, 353.0, 584.090026855, -35.363261, 149.1652299, 0.998134791851, 0.0, 0.0, -0.0610485821962
2019-04-03 18:28:25.50,61116377, 0.0, 0.0, 353.0, 584.090026855, -35.363261, 149.1652299, 0.998134791851, 0.0, 0.0, -0.0610485821962
2019-04-03 18:28:25.60,61216337, 0.0, 0.0, 353.0, 584.090026855, -35.363261, 149.1652299, 0.998134791851, 0.0, 0.0, -0.0610485821962
2019-04-03 18:28:25.70,61316297, 0.0, 0.0, 353.0, 584.090026855, -35.363261, 149.1652299, 0.998134791851, 0.0, 0.0, -0.0610485821962
2019-04-03 18:28:25.80,61416257, 0.0, 0.0, 353.0, 584.090026855, -35.363261, 149.1652299, 0.998134791851, 0.0, 0.0, -0.0610485821962
2019-04-03 18:28:25.90,61516217, 0.0, 0.0, 353.0, 584.090026855, -35.363261, 149.1652299, 0.998134791851, 0.0, 0.0, -0.0610485821962
2019-04-03 18:28:25.99,61616177, 0.0, 0.0, 353.0, 584.090026855, -35.363261, 149.1652299, 0.998134791851, 0.0, 0.0, -0.0610485821962
2019-04-03 18:28:26.09,61716137, 0.0, 0.0, 353.0, 584.090026855, -35.363261, 149.1652299, 0.998134791851, 0.0, 0.0, -0.0610485821962
2019-04-03 18:28:26.19,61816097, 0.0, 0.0, 353.0, 584.090026855, -35.363261, 149.1652299, 0.998134791851, 0.0, 0.0, -0.0610485821962
2019-04-03 18:28:26.29,61916057, 0.0, 0.0, 353.0, 584.090026855, -35.363261, 149.1652299, 0.998134791851, 0.0, 0.0, -0.0610485821962
2019-04-03 18:28:26.39,62016017, 0.0, 0.0, 353.0, 584.090026855, -35.363261, 149.1652299, 0.998134791851, 0.0, 0.0, -0.0610485821962
2019-04-03 18:28:26.49,62115977, 0.0, 0.0, 353.0, 584.090026855, -35.363261, 149.1652299, 0.998134791851, 0.0, 0.0, -0.0610485821962
2019-04-03 18:28:26.59,62215937, 0.0, 0.0, 353.0, 584.090026855, -35.363261, 149.1652299, 0.998134791851, 0.0, 0.0, -0.0610485821962
2019-04-03 18:28:26.69,62315897, 0.0, 0.0, 353.0, 584.090026855, -35.363261, 149.1652299, 0.998134791851, 0.0, 0.0, -0.0610485821962
2019-04-03 18:28:26.79,62415857, 0.0, 0.0, 353.0, 584.090026855, -35.363261, 149.1652299, 0.998134791851, 0.0, 0.0, -0.0610485821962
2019-04-03 18:28:26.89,62515817, 0.0, 0.0, 353.0, 584.090026855, -35.363261, 149.1652299, 0.998134791851, 0.0, 0.0, -0.0610486753285
2019-04-03 18:28:26.99,62615777, 0.0, 0.0, 353.0, 584.090026855, -35.363261, 149.1652299, 0.998134791851, 0.0, 0.0, -0.0610486753285
2019-04-03 18:28:27.09,62715737, 0.0, 0.0, 353.0, 584.090026855, -35.363261, 149.1652299, 0.998134791851, 0.0, 0.0, -0.0610486753285
2019-04-03 18:28:27.19,62815697, 0.0, 0.0, 353.0, 584.090026855, -35.363261, 149.1652299, 0.998134791851, 0.0, 0.0, -0.0610486753285
2019-04-03 18:28:27.30,62916490, 0.0, 0.0, 353.0, 584.090026855, -35.363261, 149.1652299, 0.998134791851, 0.0, 0.0, -0.0610486753285
2019-04-03 18:28:27.40,63016450, 0.0, 0.0, 353.0, 584.090026855, -35.363261, 149.1652299, 0.998134791851, 0.0, 0.0, -0.0610486753285
2019-04-03 18:28:27.50,63116410, 0.0, 0.0, 353.0, 584.090026855, -35.363261, 149.1652299, 0.998134791851, 0.0, 0.0, -0.0610486753285
2019-04-03 18:28:27.60,63216370, 0.0, 0.0, 353.0, 584.090026855, -35.363261, 149.1652299, 0.998134791851, 0.0, 0.0, -0.0610486753285
2019-04-03 18:28:27.70,63316330, 0.0, 0.0, 353.0, 584.099975586, -35.363261, 149.1652299, 0.998134791851, 0.0, 0.0, -0.0610486529768
2019-04-03 18:28:27.80,63416290, 0.0, 0.0, 353.0, 584.099975586, -35.363261, 149.1652299, 0.998134791851, 0.0, 0.0, -0.0610486753285
2019-04-03 18:28:27.90,63516250, 0.0, 0.0, 353.0, 584.119995117, -35.363261, 149.1652299, 0.998134791851, 0.0, 0.0, -0.0610486753285
2019-04-03 18:28:28.00,63616210, 0.0, 0.0, 353.0, 584.140014648, -35.363261, 149.1652299, 0.998134791851, 0.0, 0.0, -0.0610486753285
2019-04-03 18:28:28.09,63716170, 0.0, 0.0, 353.0, 584.16998291, -35.363261, 149.1652299, 0.998134791851, 0.0, 0.0, -0.0610486753285
2019-04-03 18:28:28.19,63816130, 0.0, 0.0, 353.0, 584.210021973, -35.363261, 149.1652299, 0.998134791851, -1.06143438927e-07, -9.47699163589e-08, -0.0610486753285
2019-04-03 18:28:28.29,63916090, -0.02, 0.0, 352.99, 584.270019531, -35.363261, 149.1652299, 0.998134732246, -0.000179650029168, -6.73335889587e-05, -0.0610496625304
2019-04-03 18:28:28.39,64016050, -0.08, -0.04, 352.99, 584.380004883, -35.363261, 149.1652299, 0.998133897781, -0.000751268700697, -0.000344851985574, -0.0610573478043
2019-04-03 18:28:28.49,64116010, -0.15, -0.1, 352.99, 584.530029297, -35.363261, 149.1652299, 0.998132288456, -0.0013881494524, -0.000811804900877, -0.061069265008
2019-04-03 18:28:28.59,64215970, -0.18, -0.12, 352.99, 584.690002441, -35.363261, 149.1652299, 0.998130440712, -0.00168242619839, -0.000991697655991, -0.0610889978707
2019-04-03 18:28:28.69,64315930, -0.15, -0.12, 352.99, 584.840026855, -35.363261, 149.1652299, 0.99812912941, -0.00143858010415, -0.00103754329029, -0.0611155293882
2019-04-03 18:28:28.79,64415890, -0.11, -0.12, 352.98, 584.989990234, -35.363261, 149.1652299, 0.998128056526, -0.00108034606092, -0.00104077265132, -0.0611411929131
2019-04-03 18:28:28.89,64515850, -0.06, -0.09, 352.98, 585.140014648, -35.363261, 149.1652299, 0.998126983643, -0.000633953663055, -0.000816080661025, -0.0611676648259
2019-04-03 18:28:28.99,64615810, -0.01, -0.03, 352.98, 585.299987793, -35.363261, 149.1652299, 0.998125910759, -0.000184678923688, -0.000329829315888, -0.0611925572157
2019-04-03 18:28:29.09,64715770, 0.01, 0.01, 352.98, 585.469970703, -35.363261, 149.1652299, 0.998124778271, 0.000127879538923, 0.000137852010084, -0.0612122043967
2019-04-03 18:28:29.19,64815730, 0.0, 0.04, 352.98, 585.640014648, -35.363261, 149.1652299, 0.998124063015, 6.04015804129e-05, 0.000358844117727, -0.0612223707139
2019-04-03 18:28:29.29,64915690, -0.02, 0.03, 352.98, 585.820007324, -35.363261, 149.1652298, 0.998124241829, -0.000212037819438, 0.00028162394301, -0.0612191446126
2019-04-03 18:28:29.40,65016483, -0.05, 0.02, 352.98, 586.0, -35.363261, 149.1652298, 0.998124480247, -0.000500253052451, 0.000226630989346, -0.0612146742642
2019-04-03 18:28:29.50,65116443, -0.06, 0.03, 352.98, 586.190002441, -35.363261, 149.1652298, 0.998124599457, -0.000541259068996, 0.00036128051579, -0.0612117126584
2019-04-03 18:28:29.60,65216403, -0.04, 0.04, 352.98, 586.369995117, -35.363261, 149.1652298, 0.998125314713, -0.000339498743415, 0.000424981437391, -0.0612020343542
2019-04-03 18:28:29.70,65316363, -0.02, 0.06, 352.98, 586.570007324, -35.363261, 149.1652298, 0.998125910759, -0.000150721039972, 0.000537726155017, -0.0611914694309
2019-04-03 18:28:29.80,65416323, -0.01, 0.07, 352.98, 586.760009766, -35.3632609, 149.1652298, 0.998126506805, -9.77504168986e-05, 0.000703120895196, -0.0611806176603
2019-04-03 18:28:29.90,65516283, -0.03, 0.08, 352.98, 586.940002441, -35.3632609, 149.1652298, 0.998126924038, -0.000290829542791, 0.000766799261328, -0.0611720494926
2019-04-03 18:28:30.00,65616243, -0.05, 0.08, 352.98, 587.109985352, -35.3632609, 149.1652298, 0.998126983643, -0.000436480768258, 0.000740583695006, -0.0611707605422
2019-04-03 18:28:30.10,65716203, -0.04, 0.05, 352.98, 587.280029297, -35.3632609, 149.1652298, 0.998126864433, -0.000336565717589, 0.000502485025208, -0.0611758343875
2019-04-03 18:28:30.19,65816163, -0.01, -0.1, 352.98, 587.429992676, -35.3632609, 149.1652298, 0.998126029968, -0.000175896653673, -0.000902451109141, -0.061185233295
2019-04-03 18:28:30.29,65916123, 0.03, -0.52, 352.98, 587.570007324, -35.3632609, 149.1652298, 0.998115539551, 5.70298398088e-05, -0.00456083891913, -0.061193395406
2019-04-03 18:28:30.39,66016083, 0.09, -1.22, 352.98, 587.700012207, -35.3632609, 149.1652298, 0.998068153858, 0.000134644811624, -0.0107171395794, -0.0611977167428
2019-04-03 18:28:30.49,66116043, 0.14, -2.15, 352.97, 587.809997559, -35.3632609, 149.1652298, 0.997948169708, 7.42995252949e-05, -0.0188401937485, -0.0611923336983
2019-04-03 18:28:30.59,66216003, 0.18, -3.2, 352.97, 587.909973145, -35.3632608, 149.1652298, 0.99773234129, -7.31372419978e-05, -0.0280543696135, -0.0611808672547
2019-04-03 18:28:30.69,66315963, 0.25, -4.25, 352.97, 588.0, -35.3632608, 149.1652298, 0.997435390949, -3.07408881781e-05, -0.0372038595378, -0.0611432902515
2019-04-03 18:28:30.79,66415923, 0.32, -5.15, 352.97, 588.08001709, -35.3632605, 149.1652298, 0.997115433216, 9.13665717235e-05, -0.0450491532683, -0.0610852055252
2019-04-03 18:28:30.89,66515883, 0.35, -5.81, 352.97, 588.150024414, -35.3632604, 149.1652297, 0.996839821339, 6.07629135629e-06, -0.0508466772735, -0.0610329397023
2019-04-03 18:28:30.99,66615843, 0.34, -6.31, 352.97, 588.210021973, -35.3632601, 149.1652297, 0.996612429619, -0.000347520050127, -0.0551626682281, -0.060997415334
2019-04-03 18:28:31.09,66715803, 0.33, -6.72, 352.97, 588.260009766, -35.3632598, 149.1652297, 0.996413111687, -0.000710717984475, -0.0586849041283, -0.0609635747969
2019-04-03 18:28:31.19,66815763, 0.3, -7.07, 352.98, 588.299987793, -35.3632592, 149.1652296, 0.996226966381, -0.00115999975242, -0.0617777071893, -0.0609427019954
2019-04-03 18:28:31.29,66915723, 0.28, -7.43, 352.98, 588.340026855, -35.3632587, 149.1652296, 0.99602907896, -0.00153343100101, -0.064896851778, -0.0609277226031
2019-04-03 18:28:31.39,67015683, 0.28, -7.8, 352.98, 588.380004883, -35.3632582, 149.1652294, 0.99582028389, -0.00169711722992, -0.0680400133133, -0.0609066709876
2019-04-03 18:28:31.50,67116476, 0.29, -8.11, 352.97, 588.409973145, -35.3632576, 149.1652294, 0.995632648468, -0.00172928662505, -0.0707485228777, -0.0608876049519
2019-04-03 18:28:31.60,67216436, 0.29, -8.33, 352.97, 588.429992676, -35.3632567, 149.1652293, 0.995489358902, -0.00184785912279, -0.0727310106158, -0.06089059636
2019-04-03 18:28:31.70,67316396, 0.29, -8.5, 352.97, 588.460021973, -35.363256, 149.1652293, 0.995381891727, -0.00201701931655, -0.0741759091616, -0.0608998015523
2019-04-03 18:28:31.80,67416356, 0.28, -8.63, 352.97, 588.479980469, -35.363255, 149.1652293, 0.995295286179, -0.00216005393304, -0.0753184854984, -0.0609073080122
2019-04-03 18:28:31.90,67516316, 0.28, -8.74, 352.97, 588.5, -35.3632542, 149.1652292, 0.99522715807, -0.00219405256212, -0.0762140974402, -0.0609054006636
2019-04-03 18:28:32.00,67616276, 0.31, -8.86, 352.97, 588.520019531, -35.3632531, 149.1652291, 0.995145022869, -0.00198606029153, -0.0773131623864, -0.0608695223927
2019-04-03 18:28:32.10,67716236, 0.49, -9.08, 353.12, 588.539978027, -35.363252, 149.1652289, 0.995073139668, -0.000465597113362, -0.0793294161558, -0.0594656541944
2019-04-03 18:28:32.20,67816196, 0.59, -9.43, 353.63, 588.559997559, -35.3632509, 149.1652289, 0.99508690834, 0.000595938006882, -0.0823855623603, -0.0549025014043
2019-04-03 18:28:32.29,67916156, 0.51, -9.87, 354.45, 588.570007324, -35.3632497, 149.1652287, 0.995133161545, 0.000332639348926, -0.0861534252763, -0.0478279516101
2019-04-03 18:28:32.39,68016116, 0.26, -10.34, 355.4, 588.590026855, -35.3632483, 149.1652286, 0.995136022568, -0.00133937294595, -0.0901504009962, -0.0396915376186
2019-04-03 18:28:32.49,68116076, -0.1, -10.8, 356.34, 588.609985352, -35.363247, 149.1652284, 0.9950491786, -0.00390741974115, -0.0940679982305, -0.0318280160427
2019-04-03 18:28:32.59,68216036, -0.5, -11.23, 357.14, 588.630004883, -35.3632455, 149.1652284, 0.994870007038, -0.00682563474402, -0.0977211296558, -0.0252529699355
2019-04-03 18:28:32.69,68315996, -0.84, -11.61, 357.71, 588.640014648, -35.363244, 149.1652282, 0.994625508785, -0.00934789795429, -0.101043388247, -0.0205678213388
2019-04-03 18:28:32.79,68415956, -1.04, -11.97, 358.03, 588.659973145, -35.3632424, 149.1652281, 0.994338750839, -0.0108837615699, -0.104152910411, -0.0180065333843
2019-04-03 18:28:32.89,68515916, -1.09, -12.31, 358.1, 588.679992676, -35.3632407, 149.1652279, 0.994032263756, -0.0113024516031, -0.107080377638, -0.0174908097833
2019-04-03 18:28:32.99,68615876, -1.0, -12.64, 357.95, 588.700012207, -35.3632389, 149.1652277, 0.993700444698, -0.010716480203, -0.109973400831, -0.0187196582556
2019-04-03 18:28:33.09,68715836, -0.81, -13.0, 357.64, 588.719970703, -35.3632371, 149.1652274, 0.993315756321, -0.00938080158085, -0.11307310313, -0.0212210845202
2019-04-03 18:28:33.19,68815796, -0.55, -13.38, 357.24, 588.739990234, -35.3632351, 149.1652273, 0.992873549461, -0.00762617774308, -0.116384156048, -0.0244688075036
2019-04-03 18:28:33.29,68915756, -0.29, -13.76, 356.8, 588.760009766, -35.363233, 149.165227, 0.992396175861, -0.00589066836983, -0.119723573327, -0.0279535166919
2019-04-03 18:28:33.39,69015716, -0.07, -14.14, 356.4, 588.780029297, -35.363231, 149.1652268, 0.991895198822, -0.00452242931351, -0.123077534139, -0.031231738627
2019-04-03 18:28:33.49,69115676, 0.08, -14.48, 356.06, 588.799987793, -35.3632288, 149.1652265, 0.991440296173, -0.00361608061939, -0.126015216112, -0.0339590795338
2019-04-03 18:28:33.60,69216469, 0.17, -14.74, 355.82, 588.820007324, -35.3632264, 149.1652263, 0.991078913212, -0.00314541254193, -0.128304123878, -0.0359277315438
2019-04-03 18:28:33.70,69316429, 0.22, -14.92, 355.69, 588.849975586, -35.363224, 149.165226, 0.990842521191, -0.00297357351519, -0.129821583629, -0.0369954220951
2019-04-03 18:28:33.80,69416389, 0.2, -15.05, 355.66, 588.869995117, -35.3632216, 149.1652259, 0.990685880184, -0.00316975265741, -0.130938664079, -0.0372355878353
2019-04-03 18:28:33.90,69516349, 0.15, -15.14, 355.72, 588.900024414, -35.3632191, 149.1652255, 0.990592956543, -0.00357105932198, -0.131760507822, -0.0367709212005
2019-04-03 18:28:34.00,69616309, 0.07, -15.23, 355.84, 588.91998291, -35.3632166, 149.1652254, 0.990526616573, -0.0041827573441, -0.132503315806, -0.0358101725578
2019-04-03 18:28:34.10,69716269, -0.01, -15.31, 356.0, 588.950012207, -35.3632139, 149.165225, 0.990478157997, -0.00476491590962, -0.133179813623, -0.0345461219549
2019-04-03 18:28:34.20,69816229, -0.09, -15.39, 356.17, 588.969970703, -35.3632111, 149.1652248, 0.990428328514, -0.00527577707544, -0.13387657702, -0.0331804193556
2019-04-03 18:28:34.29,69916189, -0.16, -15.47, 356.33, 589.0, -35.3632084, 149.1652245, 0.990383923054, -0.00575015600771, -0.134495690465, -0.0318990983069
2019-04-03 18:28:34.39,70016149, -0.24, -15.54, 356.46, 589.020019531, -35.3632055, 149.1652243, 0.990331470966, -0.00625174632296, -0.135099694133, -0.030863462016
2019-04-03 18:28:34.49,70116109, -0.3, -15.61, 356.55, 589.049987793, -35.3632026, 149.165224, 0.990266263485, -0.00669398298487, -0.135716333985, -0.0301505848765
2019-04-03 18:28:34.59,70216069, -0.34, -15.68, 356.6, 589.08001709, -35.3631996, 149.1652238, 0.990195453167, -0.00699059758335, -0.136297762394, -0.0297841634601
2019-04-03 18:28:34.69,70316029, -0.34, -15.73, 356.6, 589.109985352, -35.3631965, 149.1652235, 0.990132927895, -0.00700314296409, -0.136761397123, -0.0297333262861
2019-04-03 18:28:34.79,70415989, -0.32, -15.79, 356.57, 589.130004883, -35.3631934, 149.1652231, 0.990062892437, -0.00692423526198, -0.13721935451, -0.0299743562937
2019-04-03 18:28:34.89,70515949, -0.29, -15.86, 356.52, 589.159973145, -35.3631903, 149.1652229, 0.989965498447, -0.0067673586309, -0.137827903032, -0.0304300785065
2019-04-03 18:28:34.99,70615909, -0.25, -15.94, 356.44, 589.190002441, -35.3631871, 149.1652226, 0.989848434925, -0.00646857591346, -0.138553693891, -0.0310027636588
2019-04-03 18:28:35.09,70715869, -0.17, -16.01, 356.36, 589.219970703, -35.3631838, 149.1652222, 0.989741802216, -0.00596167566255, -0.139201700687, -0.031598944217
2019-04-03 18:28:35.19,70815829, -0.1, -16.08, 356.29, 589.25, -35.3631806, 149.1652219, 0.989642739296, -0.00542357051745, -0.139798209071, -0.0321615003049
2019-04-03 18:28:35.29,70915789, -0.04, -16.13, 356.22, 589.280029297, -35.3631772, 149.1652216, 0.989565849304, -0.00502212252468, -0.140243768692, -0.0326484441757
2019-04-03 18:28:35.39,71015749, -0.03, -16.16, 356.17, 589.299987793, -35.3631739, 149.1652212, 0.989521026611, -0.0049640997313, -0.140468761325, -0.0330467447639
2019-04-03 18:28:35.49,71115709, -0.04, -16.17, 356.14, 589.33001709, -35.3631704, 149.165221, 0.98949098587, -0.00513580488041, -0.140609487891, -0.0333210937679
2019-04-03 18:28:35.59,71215669, -0.07, -16.19, 356.13, 589.359985352, -35.3631671, 149.1652207, 0.989466190338, -0.00541181722656, -0.140738368034, -0.0334685109556
2019-04-03 18:28:35.70,71316462, -0.09, -16.22, 356.13, 589.390014648, -35.3631636, 149.1652202, 0.989432275295, -0.00553557742387, -0.140973910689, -0.0334591157734
2019-04-03 18:28:35.80,71416422, -0.1, -16.27, 356.15, 589.41998291, -35.3631601, 149.16522, 0.989367187023, -0.00565811572596, -0.141451105475, -0.0333505049348
2019-04-03 18:28:35.90,71516382, -0.14, -16.34, 356.17, 589.450012207, -35.3631564, 149.1652197, 0.9892821908, -0.00600752281025, -0.142058864236, -0.0332256704569
2019-04-03 18:28:36.00,71616342, -0.19, -16.4, 356.19, 589.479980469, -35.3631529, 149.1652193, 0.989211440086, -0.00641870638356, -0.142560020089, -0.0331082269549
2019-04-03 18:28:36.10,71716302, -0.21, -16.43, 356.21, 589.5, -35.3631494, 149.1652189, 0.989176571369, -0.00658168690279, -0.14282348752, -0.0329824350774
2019-04-03 18:28:36.20,71816262, -0.2, -16.45, 356.22, 589.530029297, -35.3631456, 149.1652187, 0.989154756069, -0.00648213364184, -0.143004342914, -0.0328727029264
2019-04-03 18:28:36.30,71916222, -0.18, -16.46, 356.22, 589.559997559, -35.3631421, 149.1652183, 0.989150285721, -0.00633672764525, -0.143057286739, -0.0328062586486
2019-04-03 18:28:36.39,72016182, -0.17, -16.46, 356.22, 589.590026855, -35.3631383, 149.1652179, 0.989153981209, -0.00624193670228, -0.14303278923, -0.0328181646764
2019-04-03 18:28:36.49,72116142, -0.15, -16.46, 356.21, 589.619995117, -35.3631346, 149.1652177, 0.989141821861, -0.0060828444548, -0.143107503653, -0.0328901931643
2019-04-03 18:28:36.59,72216102, -0.13, -16.5, 356.19, 589.650024414, -35.3631309, 149.1652173, 0.989092826843, -0.00592011399567, -0.143425151706, -0.0330101363361
2019-04-03 18:28:36.69,72316062, -0.11, -16.55, 356.17, 589.679992676, -35.3631272, 149.1652169, 0.989030361176, -0.00576519686729, -0.143827348948, -0.033157993108
2019-04-03 18:28:36.79,72416022, -0.08, -16.6, 356.15, 589.700012207, -35.3631235, 149.1652165, 0.988961160183, -0.00561974290758, -0.144273251295, -0.0333100520074
2019-04-03 18:28:36.89,72515982, -0.07, -16.64, 356.13, 589.729980469, -35.3631197, 149.1652163, 0.988901853561, -0.00552385859191, -0.14464507997, -0.0334728658199
2019-04-03 18:28:36.99,72615942, -0.06, -16.71, 356.11, 589.760009766, -35.3631158, 149.1652159, 0.988813698292, -0.00550141651183, -0.145209521055, -0.0336369685829
2019-04-03 18:28:37.09,72715902, -0.06, -16.76, 356.09, 589.789978027, -35.363112, 149.1652155, 0.988735079765, -0.00550420209765, -0.145710259676, -0.0337810404599
2019-04-03 18:28:37.19,72815862, -0.06, -16.79, 356.08, 589.820007324, -35.3631082, 149.1652152, 0.988702595234, -0.00554173765704, -0.145898714662, -0.0339123643935
2019-04-03 18:28:37.29,72915822, -0.06, -16.79, 356.06, 589.849975586, -35.3631042, 149.1652149, 0.988699197769, -0.0055940784514, -0.145891830325, -0.0340327769518
2019-04-03 18:28:37.39,73015782, -0.06, -16.79, 356.05, 589.869995117, -35.3631005, 149.1652145, 0.988689899445, -0.0055629434064, -0.145932674408, -0.0341322794557
2019-04-03 18:28:37.49,73115742, -0.04, -16.81, 356.04, 589.900024414, -35.3630966, 149.1652141, 0.988659381866, -0.00544459884986, -0.146127313375, -0.0342025384307
2019-04-03 18:28:37.59,73215702, -0.02, -16.86, 356.03, 589.929992676, -35.3630926, 149.1652138, 0.988593935966, -0.00531257176772, -0.146562606096, -0.0342525728047
2019-04-03 18:28:37.69,73315662, -0.02, -16.91, 356.02, 589.960021973, -35.3630887, 149.1652134, 0.988534212112, -0.00533438567072, -0.14694930613, -0.0343159288168
2019-04-03 18:28:37.80,73416455, -0.05, -16.94, 356.02, 589.989990234, -35.3630847, 149.1652131, 0.988494575024, -0.00557424407452, -0.147187396884, -0.0343995317817
2019-04-03 18:28:37.90,73516415, -0.08, -16.95, 356.01, 590.020019531, -35.3630808, 149.1652126, 0.988477826118, -0.00582469487563, -0.14727139473, -0.034478481859
2019-04-03 18:28:38.00,73616375, -0.09, -16.95, 356.01, 590.049987793, -35.3630768, 149.1652124, 0.988475620747, -0.00592588121071, -0.147266000509, -0.0345476716757
2019-04-03 18:28:38.10,73716335, -0.06, -16.94, 356.0, 590.070007324, -35.3630728, 149.165212, 0.988477230072, -0.00569098349661, -0.147256880999, -0.0345806032419
2019-04-03 18:28:38.20,73816295, -0.03, -16.96, 355.99, 590.099975586, -35.3630688, 149.1652116, 0.988458395004, -0.00543715571985, -0.147386267781, -0.0346092432737
2019-04-03 18:28:38.30,73916255, -0.01, -17.0, 355.98, 590.130004883, -35.3630647, 149.1652112, 0.988402187824, -0.00533596239984, -0.147752568126, -0.0346680618823
2019-04-03 18:28:38.40,74016215, 0.0, -17.05, 355.97, 590.159973145, -35.3630608, 149.1652109, 0.988334417343, -0.00528515130281, -0.148190632463, -0.0347379669547
2019-04-03 18:28:38.49,74116175, -0.01, -17.08, 355.96, 590.190002441, -35.3630567, 149.1652105, 0.988286077976, -0.00532727409154, -0.148488208652, -0.0348358936608
2019-04-03 18:28:38.59,74216135, -0.01, -17.11, 355.95, 590.219970703, -35.3630527, 149.1652101, 0.988249838352, -0.00539449509233, -0.148700594902, -0.0349482409656
2019-04-03 18:28:38.69,74316095, -0.01, -17.14, 355.93, 590.25, -35.3630487, 149.1652097, 0.988206744194, -0.00543106161058, -0.148958861828, -0.0350603610277
2019-04-03 18:28:38.79,74416055, 0.0, -17.16, 355.92, 590.270019531, -35.3630445, 149.1652093, 0.988178670406, -0.00532853323966, -0.149126276374, -0.0351552180946
2019-04-03 18:28:38.89,74516015, 0.01, -17.17, 355.91, 590.299987793, -35.3630404, 149.165209, 0.98815792799, -0.00518978899345, -0.149247586727, -0.035244371742
2019-04-03 18:28:38.99,74615975, 0.03, -17.2, 355.89, 590.33001709, -35.3630365, 149.1652087, 0.988117575645, -0.00509032560512, -0.14949695766, -0.0353336036205
2019-04-03 18:28:39.09,74715935, 0.04, -17.25, 355.88, 590.359985352, -35.3630324, 149.1652083, 0.988047242165, -0.00496938638389, -0.149948850274, -0.0354023352265
2019-04-03 18:28:39.19,74815895, 0.04, -17.3, 355.87, 590.390014648, -35.3630282, 149.1652078, 0.987978279591, -0.00502749346197, -0.150379002094, -0.0354952327907
2019-04-03 18:28:39.29,74915855, 0.01, -17.33, 355.86, 590.41998291, -35.3630242, 149.1652074, 0.987941741943, -0.00530079798773, -0.150579452515, -0.0356209948659
2019-04-03 18:28:39.39,75015815, -0.02, -17.34, 355.85, 590.440002441, -35.36302, 149.1652072, 0.987915098667, -0.00563135510311, -0.15071003139, -0.0357565619051
2019-04-03 18:28:39.49,75115775, -0.03, -17.34, 355.84, 590.469970703, -35.3630159, 149.1652068, 0.987910091877, -0.00577924633399, -0.150709137321, -0.035874824971
2019-04-03 18:28:39.59,75215735, -0.02, -17.36, 355.83, 590.5, -35.3630117, 149.1652064, 0.987883746624, -0.00569916050881, -0.150864943862, -0.0359595790505
2019-04-03 18:28:39.69,75315695, -0.01, -17.39, 355.82, 590.530029297, -35.3630075, 149.1652059, 0.987847924232, -0.00566049711779, -0.151079311967, -0.0360494181514
2019-04-03 18:28:39.80,75416488, -0.01, -17.41, 355.81, 590.559997559, -35.3630033, 149.1652057, 0.987808287144, -0.00562274828553, -0.15131752193, -0.0361407250166
2019-04-03 18:28:39.90,75516448, 0.0, -17.41, 355.79, 590.590026855, -35.3629993, 149.1652053, 0.987810492516, -0.00550461234525, -0.15128532052, -0.0362350717187
2019-04-03 18:28:40.00,75616408, 0.01, -17.41, 355.78, 590.619995117, -35.3629951, 149.1652049, 0.98779964447, -0.00540913781151, -0.151335477829, -0.0363338440657
2019-04-03 18:28:40.10,75716368, 0.03, -17.43, 355.77, 590.640014648, -35.3629909, 149.1652044, 0.987774848938, -0.00533193675801, -0.151477217674, -0.0364299975336
2019-04-03 18:28:40.20,75816328, 0.02, -17.45, 355.75, 590.66998291, -35.3629867, 149.165204, 0.987748146057, -0.00538213411346, -0.151623174548, -0.0365382879972
2019-04-03 18:28:40.30,75916288, 0.0, -17.49, 355.74, 590.700012207, -35.3629825, 149.1652038, 0.987690627575, -0.0056541794911, -0.15195453167, -0.0366751588881
2019-04-03 18:28:40.40,76016248, -0.04, -17.52, 355.73, 590.729980469, -35.3629783, 149.1652034, 0.987638354301, -0.00602197134867, -0.152243882418, -0.0368237420917
2019-04-03 18:28:40.50,76116208, -0.07, -17.55, 355.72, 590.760009766, -35.362974, 149.165203, 0.987600982189, -0.00630866922438, -0.152442246675, -0.0369581244886
2019-04-03 18:28:40.59,76216168, -0.07, -17.56, 355.71, 590.789978027, -35.3629698, 149.1652025, 0.987573564053, -0.00636789016426, -0.1525952667, -0.0370492450893
2019-04-03 18:28:40.69,76316128, -0.05, -17.56, 355.7, 590.820007324, -35.3629656, 149.1652021, 0.987571656704, -0.00620557693765, -0.152599811554, -0.0371080487967
2019-04-03 18:28:40.79,76416088, -0.03, -17.57, 355.69, 590.840026855, -35.3629613, 149.1652018, 0.98756891489, -0.00600109761581, -0.152612358332, -0.0371636152267
2019-04-03 18:28:40.89,76516048, -0.01, -17.57, 355.68, 590.869995117, -35.3629571, 149.1652014, 0.987558603287, -0.0058933342807, -0.152666866779, -0.0372311882675
2019-04-03 18:28:40.99,76616008, -0.01, -17.59, 355.67, 590.900024414, -35.3629528, 149.1652011, 0.98753374815, -0.0059193847701, -0.152805611491, -0.0373160839081
2019-04-03 18:28:41.09,76715968, -0.02, -17.6, 355.66, 590.929992676, -35.3629486, 149.1652006, 0.987519681454, -0.00602901820093, -0.152867808938, -0.0374156460166
2019-04-03 18:28:41.19,76815928, -0.03, -17.61, 355.65, 590.960021973, -35.3629443, 149.1652002, 0.987500429153, -0.00610626162961, -0.152966186404, -0.03750988096
2019-04-03 18:28:41.29,76915888, -0.01, -17.64, 355.64, 590.989990234, -35.3629402, 149.1651999, 0.9874548316, -0.00597741222009, -0.153251394629, -0.0375661961734
2019-04-03 18:28:41.39,77015848, 0.02, -17.67, 355.63, 591.020019531, -35.3629358, 149.1651995, 0.987407743931, -0.00563490809873, -0.153562411666, -0.0375878326595
2019-04-03 18:28:41.49,77115808, 0.06, -17.68, 355.62, 591.039978027, -35.3629315, 149.1651991, 0.987402796745, -0.00528046954423, -0.153602480888, -0.0376047864556
2019-04-03 18:28:41.59,77215768, 0.09, -17.66, 355.61, 591.070007324, -35.3629273, 149.1651987, 0.987428963184, -0.00505458749831, -0.153434365988, -0.037635192275
2019-04-03 18:28:41.69,77315728, 0.1, -17.64, 355.61, 591.099975586, -35.362923, 149.1651982, 0.987453043461, -0.0049633551389, -0.153273537755, -0.0376703701913
2019-04-03 18:28:41.79,77415688, 0.08, -17.66, 355.61, 591.130004883, -35.3629187, 149.1651978, 0.987426042557, -0.00514238746837, -0.153426796198, -0.0377313420177
2019-04-03 18:28:41.90,77516481, 0.06, -17.71, 355.6, 591.159973145, -35.3629144, 149.1651975, 0.987351000309, -0.00537208002061, -0.153889492154, -0.0377775579691
2019-04-03 18:28:42.00,77616441, 0.03, -17.77, 355.6, 591.190002441, -35.3629102, 149.1651971, 0.987273395061, -0.00557662593201, -0.154369920492, -0.0378159359097
2019-04-03 18:28:42.10,77716401, 0.03, -17.79, 355.6, 591.219970703, -35.3629059, 149.1651967, 0.987244963646, -0.00564600806683, -0.154542505741, -0.0378431864083
2019-04-03 18:28:42.20,77816361, 0.02, -17.78, 355.59, 591.239990234, -35.3629016, 149.1651963, 0.987253069878, -0.00574311986566, -0.154473036528, -0.0379010923207
2019-04-03 18:28:42.30,77916321, 0.0, -17.75, 355.59, 591.270019531, -35.3628973, 149.1651958, 0.987293601036, -0.00585493352264, -0.154189601541, -0.0379820093513
2019-04-03 18:28:42.40,78016281, 0.0, -17.72, 355.58, 591.299987793, -35.3628929, 149.1651954, 0.987329661846, -0.00591026851907, -0.153936758637, -0.0380617305636
2019-04-03 18:28:42.50,78116241, 0.01, -17.7, 355.57, 591.33001709, -35.3628886, 149.1651951, 0.987355291843, -0.00577684631571, -0.153764843941, -0.0381132140756
2019-04-03 18:28:42.60,78216201, 0.04, -17.69, 355.56, 591.359985352, -35.3628843, 149.1651947, 0.98736846447, -0.00560200400651, -0.153674602509, -0.0381608009338
2019-04-03 18:28:42.69,78316161, 0.04, -17.69, 355.55, 591.390014648, -35.3628799, 149.1651943, 0.987367868423, -0.00553557276726, -0.153665363789, -0.0382231809199
2019-04-03 18:28:42.79,78416121, 0.04, -17.71, 355.55, 591.41998291, -35.3628755, 149.1651939, 0.987335205078, -0.00557184126228, -0.153856933117, -0.0382912307978
2019-04-03 18:28:42.89,78516081, 0.01, -17.74, 355.54, 591.440002441, -35.3628713, 149.1651934, 0.987294197083, -0.00583753176033, -0.154086962342, -0.0383844338357
2019-04-03 18:28:42.99,78616041, 0.0, -17.76, 355.53, 591.469970703, -35.362867, 149.165193, 0.987264156342, -0.00609239935875, -0.154247000813, -0.0384740047157
2019-04-03 18:28:43.09,78716001, -0.04, -17.76, 355.53, 591.5, -35.3628626, 149.1651927, 0.987252116203, -0.0063816732727, -0.15428686142, -0.0385760627687
2019-04-03 18:28:43.19,78815961, -0.06, -17.78, 355.52, 591.530029297, -35.3628583, 149.1651923, 0.987223386765, -0.00658302986994, -0.15443970263, -0.0386662781239
2019-04-03 18:28:43.29,78915921, -0.06, -17.81, 355.51, 591.559997559, -35.362854, 149.1651919, 0.987179458141, -0.00658490555361, -0.154706344008, -0.03872115165
2019-04-03 18:28:43.39,79015881, -0.04, -17.83, 355.5, 591.590026855, -35.3628495, 149.1651915, 0.987155854702, -0.00646706251428, -0.15484970808, -0.0387691967189
2019-04-03 18:28:43.49,79115841, -0.02, -17.83, 355.5, 591.619995117, -35.3628452, 149.165191, 0.987144768238, -0.00630128895864, -0.154916748405, -0.0388107672334
2019-04-03 18:28:43.59,79215801, 0.01, -17.85, 355.49, 591.640014648, -35.3628409, 149.1651906, 0.98712426424, -0.00601217383519, -0.155053824186, -0.0388306342065
2019-04-03 18:28:43.69,79315761, 0.04, -17.86, 355.48, 591.66998291, -35.3628365, 149.1651903, 0.987112164497, -0.00573233608156, -0.155136182904, -0.0388527624309
2019-04-03 18:28:43.79,79415721, 0.06, -17.86, 355.47, 591.700012207, -35.3628322, 149.1651898, 0.987111508846, -0.00559752248228, -0.155134081841, -0.0388978645205
2019-04-03 18:28:43.89,79515681, 0.04, -17.84, 355.47, 591.729980469, -35.3628278, 149.1651894, 0.987124145031, -0.0057084299624, -0.155029967427, -0.0389748923481
2019-04-03 18:28:44.00,79616474, 0.03, -17.85, 355.46, 591.760009766, -35.3628233, 149.165189, 0.987118601799, -0.00582976220176, -0.155044868588, -0.039038695395
2019-04-03 18:28:44.10,79716434, 0.03, -17.87, 355.45, 591.789978027, -35.362819, 149.1651886, 0.98707985878, -0.00582259008661, -0.15528228879, -0.0390758104622
2019-04-03 18:28:44.20,79816394, 0.04, -17.89, 355.45, 591.820007324, -35.3628147, 149.1651882, 0.987052202225, -0.00580393383279, -0.155450135469, -0.0391095727682
2019-04-03 18:28:44.30,79916354, 0.02, -17.9, 355.45, 591.840026855, -35.3628103, 149.1651877, 0.98704457283, -0.0059450562112, -0.155479937792, -0.0391616784036
2019-04-03 18:28:44.40,80016314, 0.0, -17.89, 355.44, 591.869995117, -35.3628059, 149.1651873, 0.987057328224, -0.00609992165118, -0.155380114913, -0.0392134599388
2019-04-03 18:28:44.50,80116274, 0.01, -17.87, 355.44, 591.900024414, -35.3628014, 149.165187, 0.987073898315, -0.00607369141653, -0.1552708745, -0.0392329990864
2019-04-03 18:28:44.60,80216234, 0.03, -17.86, 355.44, 591.929992676, -35.3627971, 149.1651866, 0.987095177174, -0.00584446219727, -0.155144840479, -0.039230376482
2019-04-03 18:28:44.70,80316194, 0.06, -17.87, 355.43, 591.960021973, -35.3627927, 149.1651862, 0.987084805965, -0.00564445834607, -0.155216813087, -0.0392367430031
2019-04-03 18:28:44.79,80416154, 0.05, -17.89, 355.43, 591.989990234, -35.3627884, 149.1651857, 0.987047314644, -0.00572537491098, -0.155439078808, -0.0392887182534
2019-04-03 18:28:44.89,80516114, 0.05, -17.93, 355.42, 592.020019531, -35.362784, 149.1651853, 0.98698669672, -0.0057856393978, -0.155809596181, -0.0393335707486
2019-04-03 18:28:44.99,80616074, 0.05, -17.96, 355.42, 592.049987793, -35.3627795, 149.1651848, 0.986945092678, -0.00578740146011, -0.156064063311, -0.039369020611
2019-04-03 18:28:45.09,80716034, 0.05, -17.98, 355.41, 592.08001709, -35.3627752, 149.1651844, 0.986927688122, -0.00573679804802, -0.156168684363, -0.0393982566893
2019-04-03 18:28:45.19,80815994, 0.07, -17.99, 355.41, 592.099975586, -35.3627708, 149.1651841, 0.98691123724, -0.00561372470111, -0.156271860003, -0.0394174680114
2019-04-03 18:28:45.29,80915954, 0.08, -17.99, 355.4, 592.130004883, -35.3627664, 149.1651837, 0.986911833286, -0.00553559605032, -0.156264618039, -0.0394438542426
2019-04-03 18:28:45.39,81015914, 0.09, -17.96, 355.4, 592.159973145, -35.3627619, 149.1651833, 0.986951172352, -0.00546854967251, -0.156009227037, -0.0394805558026
2019-04-03 18:28:45.49,81115874, 0.1, -17.93, 355.39, 592.190002441, -35.3627576, 149.1651828, 0.986985146999, -0.00533137004822, -0.155793875456, -0.0394984856248
2019-04-03 18:28:45.59,81215834, 0.11, -17.91, 355.39, 592.219970703, -35.3627531, 149.1651824, 0.987012565136, -0.00528532871976, -0.155615344644, -0.0395245589316
2019-04-03 18:28:45.69,81315794, 0.1, -17.91, 355.39, 592.25, -35.3627487, 149.1651819, 0.987007796764, -0.00534667866305, -0.155635014176, -0.0395577475429
2019-04-03 18:28:45.79,81415754, 0.11, -17.95, 355.39, 592.280029297, -35.3627442, 149.1651815, 0.986963033676, -0.00525733968243, -0.155919730663, -0.0395656637847
2019-04-03 18:28:45.89,81515714, 0.12, -17.98, 355.38, 592.309997559, -35.3627399, 149.1651812, 0.986912071705, -0.00519214849919, -0.156240805984, -0.039578564465
2019-04-03 18:28:45.99,81615674, 0.13, -17.98, 355.38, 592.33001709, -35.3627355, 149.1651808, 0.986910998821, -0.00510686496273, -0.156247258186, -0.0395912975073
2019-04-03 18:28:46.10,81716467, 0.13, -17.97, 355.38, 592.359985352, -35.3627309, 149.1651804, 0.986930668354, -0.00512416241691, -0.15611577034, -0.039616137743
2019-04-03 18:28:46.20,81816427, 0.12, -17.95, 355.37, 592.390014648, -35.3627265, 149.16518, 0.986951470375, -0.00521007319912, -0.155972704291, -0.0396506860852
2019-04-03 18:28:46.30,81916387, 0.12, -17.95, 355.37, 592.41998291, -35.3627222, 149.1651795, 0.9869582057, -0.00521450163797, -0.155925795436, -0.0396678559482
2019-04-03 18:28:46.40,82016347, 0.11, -17.96, 355.37, 592.450012207, -35.3627178, 149.1651791, 0.986932396889, -0.00534538086504, -0.156077325344, -0.0396967492998
2019-04-03 18:28:46.50,82116307, 0.09, -17.99, 355.37, 592.479980469, -35.3627133, 149.1651786, 0.986899554729, -0.00547066004947, -0.156273156404, -0.0397239923477
2019-04-03 18:28:46.60,82216267, 0.09, -17.99, 355.37, 592.510009766, -35.3627089, 149.1651782, 0.986897468567, -0.00551098491997, -0.156278774142, -0.0397486761212
2019-04-03 18:28:46.70,82316227, 0.1, -17.98, 355.36, 592.530029297, -35.3627045, 149.1651779, 0.986910462379, -0.00538160232827, -0.156200960279, -0.0397503338754
2019-04-03 18:28:46.79,82416187, 0.12, -17.95, 355.36, 592.559997559, -35.3627001, 149.1651775, 0.986943662167, -0.00519989663735, -0.155997663736, -0.0397488735616
2019-04-03 18:28:46.89,82516147, 0.14, -17.95, 355.36, 592.590026855, -35.3626955, 149.1651771, 0.986952483654, -0.00502977659926, -0.155946850777, -0.0397508852184
2019-04-03 18:28:46.99,82616107, 0.15, -17.95, 355.35, 592.619995117, -35.3626912, 149.1651767, 0.986944019794, -0.00499426806346, -0.155994236469, -0.0397786647081
2019-04-03 18:28:47.09,82716067, 0.15, -17.96, 355.35, 592.650024414, -35.3626868, 149.1651762, 0.986933648586, -0.00501404795796, -0.156048029661, -0.0398232862353
2019-04-03 18:28:47.19,82816027, 0.13, -17.97, 355.34, 592.679992676, -35.3626822, 149.1651758, 0.986915171146, -0.00515923416242, -0.156144216657, -0.039885237813
2019-04-03 18:28:47.29,82915987, 0.12, -17.97, 355.34, 592.700012207, -35.3626779, 149.1651755, 0.986909031868, -0.00530496379361, -0.156161740422, -0.0399491265416
2019-04-03 18:28:47.39,83015947, 0.13, -17.96, 355.33, 592.729980469, -35.3626735, 149.165175, 0.986919999123, -0.00516420416534, -0.15609203279, -0.0399698615074
2019-04-03 18:28:47.49,83115907, 0.16, -17.96, 355.33, 592.760009766, -35.3626689, 149.1651746, 0.98692303896, -0.0049639865756, -0.156074911356, -0.0399865955114
2019-04-03 18:28:47.59,83215867, 0.16, -17.99, 355.32, 592.789978027, -35.3626645, 149.1651742, 0.98687928915, -0.00495070591569, -0.156339451671, -0.0400343611836
2019-04-03 18:28:47.69,83315827, 0.15, -18.02, 355.32, 592.820007324, -35.3626602, 149.1651738, 0.986834704876, -0.00505654001608, -0.156599521637, -0.0401039160788
2019-04-03 18:28:47.79,83415787, 0.15, -18.04, 355.31, 592.849975586, -35.3626557, 149.1651733, 0.986813127995, -0.00506522273645, -0.15672147274, -0.0401581563056
2019-04-03 18:28:47.89,83515747, 0.17, -18.04, 355.3, 592.869995117, -35.3626512, 149.1651729, 0.986812949181, -0.00492770923302, -0.156718865037, -0.0401883348823
2019-04-03 18:28:47.99,83615707, 0.19, -18.02, 355.3, 592.900024414, -35.3626469, 149.1651726, 0.986837744713, -0.00474129570648, -0.156566351652, -0.0401965267956
2019-04-03 18:28:48.09,83715667, 0.2, -18.01, 355.3, 592.929992676, -35.3626424, 149.1651722, 0.98685336113, -0.00462653581053, -0.156469732523, -0.0402034968138
2019-04-03 18:28:48.20,83816460, 0.2, -18.01, 355.29, 592.960021973, -35.3626378, 149.1651718, 0.986846804619, -0.00469145737588, -0.156502172351, -0.040230691433
2019-04-03 18:28:48.30,83916420, 0.19, -18.02, 355.29, 592.989990234, -35.3626335, 149.1651714, 0.986837506294, -0.00473587820306, -0.156553342938, -0.0402547083795
2019-04-03 18:28:48.40,84016380, 0.19, -18.01, 355.29, 593.020019531, -35.3626291, 149.1651709, 0.986839771271, -0.00474925199524, -0.156531959772, -0.0402807481587
2019-04-03 18:28:48.50,84116340, 0.19, -18.01, 355.29, 593.039978027, -35.3626245, 149.1651704, 0.986846506596, -0.00479203183204, -0.156479343772, -0.0403143763542
2019-04-03 18:28:48.60,84216300, 0.18, -18.01, 355.28, 593.070007324, -35.3626201, 149.16517, 0.98684078455, -0.00482976995409, -0.15650524199, -0.0403494238853
2019-04-03 18:28:48.70,84316260, 0.16, -18.03, 355.28, 593.099975586, -35.3626157, 149.1651697, 0.986813426018, -0.00498560303822, -0.156657874584, -0.0404068343341
2019-04-03 18:28:48.80,84416220, 0.13, -18.05, 355.27, 593.130004883, -35.3626113, 149.1651693, 0.986780107021, -0.00531332660466, -0.156833186746, -0.0404992997646
2019-04-03 18:28:48.89,84516180, 0.1, -18.05, 355.27, 593.159973145, -35.3626068, 149.1651689, 0.986772894859, -0.0055370060727, -0.15684813261, -0.0405858047307
2019-04-03 18:28:48.99,84616140, 0.1, -18.04, 355.26, 593.179992676, -35.3626024, 149.1651685, 0.986783802509, -0.00557263661176, -0.156761094928, -0.0406533256173
2019-04-03 18:28:49.09,84716100, 0.11, -18.04, 355.25, 593.210021973, -35.362598, 149.1651681, 0.986790716648, -0.00551685318351, -0.156704381108, -0.0407106392086
2019-04-03 18:28:49.19,84816060, 0.14, -18.03, 355.24, 593.239990234, -35.3625934, 149.1651676, 0.98679703474, -0.00527716660872, -0.156665161252, -0.0407413057983
2019-04-03 18:28:49.29,84916020, 0.17, -18.03, 355.24, 593.270019531, -35.3625891, 149.1651673, 0.986798882484, -0.00496171182021, -0.156660631299, -0.0407530479133
2019-04-03 18:28:49.39,85015980, 0.21, -18.04, 355.23, 593.299987793, -35.3625846, 149.1651669, 0.986778974533, -0.0046830191277, -0.156791701913, -0.0407639220357
2019-04-03 18:28:49.49,85115940, 0.21, -18.07, 355.22, 593.33001709, -35.3625801, 149.1651665, 0.98674505949, -0.00467357970774, -0.156991526484, -0.0408174879849
2019-04-03 18:28:49.59,85215900, 0.19, -18.08, 355.22, 593.349975586, -35.3625757, 149.165166, 0.986724317074, -0.00486452458426, -0.157095134258, -0.0408972650766
2019-04-03 18:28:49.69,85315860, 0.15, -18.08, 355.21, 593.380004883, -35.3625712, 149.1651656, 0.986726760864, -0.00520381890237, -0.157044067979, -0.0409934446216
2019-04-03 18:28:49.79,85415820, 0.13, -18.05, 355.21, 593.409973145, -35.3625667, 149.1651652, 0.986758053303, -0.00542282965034, -0.156821072102, -0.0410646907985
2019-04-03 18:28:49.89,85515780, 0.12, -18.02, 355.2, 593.440002441, -35.3625623, 149.1651647, 0.986794054508, -0.00547689944506, -0.15658134222, -0.041107211262
2019-04-03 18:28:49.99,85615740, 0.11, -18.0, 355.2, 593.469970703, -35.3625579, 149.1651643, 0.986820340157, -0.00554935866967, -0.15640167892, -0.0411508157849
2019-04-03 18:28:50.09,85715700, 0.11, -18.0, 355.2, 593.5, -35.3625533, 149.165164, 0.986824333668, -0.00558896828443, -0.156363815069, -0.041193023324
2019-04-03 18:28:50.19,85815660, 0.11, -18.01, 355.19, 593.520019531, -35.362549, 149.1651636, 0.986809790134, -0.00553255388513, -0.156450346112, -0.0412216112018
2019-04-03 18:28:50.30,85916453, 0.12, -18.06, 355.19, 593.549987793, -35.3625445, 149.1651632, 0.986743092537, -0.00549613079056, -0.156860977411, -0.0412621349096
2019-04-03 18:28:50.40,86016413, 0.12, -18.1, 355.18, 593.58001709, -35.3625399, 149.1651628, 0.986674249172, -0.00555927399546, -0.157274782658, -0.0413245037198
2019-04-03 18:28:50.50,86116373, 0.11, -18.11, 355.17, 593.609985352, -35.3625355, 149.1651623, 0.98665958643, -0.00561885721982, -0.157350063324, -0.0413786880672
2019-04-03 18:28:50.60,86216333, 0.1, -18.1, 355.17, 593.640014648, -35.3625311, 149.1651619, 0.986675441265, -0.00569860683754, -0.1572329849, -0.0414354912937
2019-04-03 18:28:50.70,86316293, 0.08, -18.08, 355.16, 593.659973145, -35.3625265, 149.1651616, 0.986701965332, -0.00584994442761, -0.15704330802, -0.0415024869144
2019-04-03 18:28:50.80,86416253, 0.06, -18.07, 355.16, 593.690002441, -35.3625222, 149.1651612, 0.986707568169, -0.00609704479575, -0.156976997852, -0.0415841266513
2019-04-03 18:28:50.90,86516213, 0.04, -18.07, 355.15, 593.719970703, -35.3625177, 149.1651607, 0.986712872982, -0.00624181842431, -0.156919211149, -0.0416550450027
2019-04-03 18:28:50.99,86616173, 0.05, -18.05, 355.15, 593.75, -35.3625131, 149.1651603, 0.986729741096, -0.0061201620847, -0.156809970737, -0.0416839756072
2019-04-03 18:28:51.09,86716133, 0.08, -18.04, 355.14, 593.780029297, -35.3625088, 149.1651599, 0.986742556095, -0.00590181350708, -0.156733334064, -0.0417012497783
2019-04-03 18:28:51.19,86816093, 0.12, -18.03, 355.14, 593.799987793, -35.3625043, 149.1651594, 0.986755430698, -0.00558416219428, -0.156664207578, -0.0416991040111
2019-04-03 18:28:51.29,86916053, 0.15, -18.04, 355.13, 593.83001709, -35.3624998, 149.165159, 0.986749589443, -0.00529962265864, -0.156711548567, -0.0416969172657
2019-04-03 18:28:51.39,87016013, 0.19, -18.06, 355.12, 593.859985352, -35.3624954, 149.1651587, 0.986714839935, -0.00503397034481, -0.156936571002, -0.0417067483068
2019-04-03 18:28:51.49,87115973, 0.21, -18.07, 355.12, 593.890014648, -35.3624909, 149.1651581, 0.986697256565, -0.00479392893612, -0.157052218914, -0.0417160950601
2019-04-03 18:28:51.59,87215933, 0.23, -18.07, 355.11, 593.91998291, -35.3624864, 149.1651578, 0.986703336239, -0.00470216618851, -0.157010167837, -0.0417400859296
2019-04-03 18:28:51.69,87315893, 0.23, -18.06, 355.11, 593.950012207, -35.362482, 149.1651574, 0.986718356609, -0.00470279017463, -0.156907111406, -0.0417724773288
2019-04-03 18:28:51.79,87415853, 0.21, -18.04, 355.11, 593.979980469, -35.3624775, 149.165157, 0.986744642258, -0.00485777202994, -0.156725555658, -0.0418149232864
2019-04-03 18:28:51.89,87515813, 0.16, -18.02, 355.11, 594.0, -35.362473, 149.1651566, 0.986765384674, -0.00526289734989, -0.156567379832, -0.041869238019
2019-04-03 18:28:51.99,87615773, 0.13, -18.01, 355.11, 594.030029297, -35.3624686, 149.1651561, 0.986777842045, -0.00553811714053, -0.156471595168, -0.0418980754912
2019-04-03 18:28:52.09,87715733, 0.12, -18.01, 355.11, 594.059997559, -35.362464, 149.1651556, 0.986771941185, -0.00561333680525, -0.156506597996, -0.0418973341584
2019-04-03 18:28:52.19,87815693, 0.12, -18.04, 355.11, 594.090026855, -35.3624596, 149.1651552, 0.986736536026, -0.00560279563069, -0.156732201576, -0.0418885797262
2019-04-03 18:28:52.30,87916486, 0.12, -18.08, 355.11, 594.119995117, -35.3624552, 149.1651549, 0.986687481403, -0.00563260400668, -0.15703754127, -0.0418967679143
2019-04-03 18:28:52.40,88016446, 0.12, -18.09, 355.11, 594.150024414, -35.3624506, 149.1651545, 0.986667811871, -0.00564306974411, -0.157155677676, -0.0419145859778
2019-04-03 18:28:52.50,88116406, 0.14, -18.1, 355.11, 594.179992676, -35.3624462, 149.1651541, 0.986653327942, -0.00548636401072, -0.157255202532, -0.0419040955603
2019-04-03 18:28:52.60,88216366, 0.16, -18.12, 355.11, 594.210021973, -35.3624418, 149.1651536, 0.986633062363, -0.00530875846744, -0.15739120543, -0.041892722249
2019-04-03 18:28:52.70,88316326, 0.16, -18.13, 355.1, 594.229980469, -35.3624372, 149.1651532, 0.986617565155, -0.00530489487574, -0.157483771443, -0.0419114492834
2019-04-03 18:28:52.80,88416286, 0.16, -18.14, 355.1, 594.260009766, -35.3624328, 149.1651527, 0.986592710018, -0.00527844950557, -0.157634854317, -0.0419316925108
2019-04-03 18:28:52.90,88516246, 0.17, -18.15, 355.1, 594.289978027, -35.3624284, 149.1651523, 0.986587285995, -0.00523912347853, -0.15766428411, -0.0419530309737
2019-04-03 18:28:53.00,88616206, 0.18, -18.13, 355.09, 594.320007324, -35.3624238, 149.165152, 0.986603677273, -0.00516036339104, -0.15756060183, -0.0419674776495
2019-04-03 18:28:53.09,88716166, 0.19, -18.12, 355.09, 594.349975586, -35.3624194, 149.1651515, 0.986627101898, -0.00506913149729, -0.157414913177, -0.0419741533697
2019-04-03 18:28:53.19,88816126, 0.19, -18.1, 355.09, 594.380004883, -35.362415, 149.1651511, 0.986645817757, -0.00505820196122, -0.15729470551, -0.0419873185456
2019-04-03 18:28:53.29,88916086, 0.18, -18.07, 355.09, 594.409973145, -35.3624104, 149.1651507, 0.986686885357, -0.00509067624807, -0.157030925155, -0.0420046374202
2019-04-03 18:28:53.39,89016046, 0.16, -18.05, 355.09, 594.440002441, -35.3624061, 149.1651503, 0.98671579361, -0.00530194677413, -0.15683157742, -0.0420439913869
2019-04-03 18:28:53.49,89116006, 0.13, -18.06, 355.09, 594.469970703, -35.3624016, 149.1651499, 0.986706793308, -0.00551586039364, -0.156873002648, -0.042072635144
2019-04-03 18:28:53.59,89215966, 0.12, -18.08, 355.09, 594.489990234, -35.362397, 149.1651494, 0.986680686474, -0.00565437600017, -0.157028928399, -0.0420858338475
2019-04-03 18:28:53.69,89315926, 0.12, -18.12, 355.09, 594.520019531, -35.3623927, 149.1651489, 0.986626207829, -0.00564688909799, -0.157372325659, -0.042081490159
2019-04-03 18:28:53.79,89415886, 0.14, -18.14, 355.09, 594.549987793, -35.3623882, 149.1651485, 0.986587524414, -0.005542375613, -0.157618820667, -0.0420790016651
2019-04-03 18:28:53.89,89515846, 0.15, -18.16, 355.09, 594.58001709, -35.3623836, 149.1651482, 0.986568152905, -0.00541918771341, -0.157744988799, -0.0420771576464
2019-04-03 18:28:53.99,89615806, 0.18, -18.15, 355.08, 594.609985352, -35.3623793, 149.1651478, 0.986578226089, -0.0051915962249, -0.157692924142, -0.0420641340315
2019-04-03 18:28:54.09,89715766, 0.21, -18.13, 355.08, 594.640014648, -35.3623748, 149.1651474, 0.986602783203, -0.00491414451972, -0.15755340457, -0.0420441739261
2019-04-03 18:28:54.19,89815726, 0.23, -18.11, 355.08, 594.66998291, -35.3623702, 149.1651469, 0.986640036106, -0.00470945937559, -0.157329767942, -0.0420320555568
2019-04-03 18:28:54.29,89915686, 0.23, -18.06, 355.08, 594.700012207, -35.3623658, 149.1651465, 0.986700296402, -0.00473211100325, -0.156943947077, -0.0420572496951
2019-04-03 18:28:54.40,90016479, 0.21, -18.02, 355.08, 594.719970703, -35.3623612, 149.165146, 0.986756205559, -0.00488161714748, -0.156576246023, -0.0420979969203
2019-04-03 18:28:54.50,90116439, 0.2, -17.99, 355.07, 594.75, -35.3623569, 149.1651456, 0.98679703474, -0.00494213448837, -0.15631210804, -0.0421158410609
2019-04-03 18:28:54.60,90216399, 0.2, -17.99, 355.07, 594.780029297, -35.3623524, 149.1651453, 0.986794233322, -0.00491055706516, -0.156332552433, -0.0421089082956
2019-04-03 18:28:54.70,90316359, 0.21, -18.01, 355.07, 594.809997559, -35.3623478, 149.1651448, 0.986767828465, -0.00486462982371, -0.156501829624, -0.0421039015055
2019-04-03 18:28:54.80,90416319, 0.2, -18.03, 355.07, 594.840026855, -35.3623434, 149.1651444, 0.986740410328, -0.0049507021904, -0.156668961048, -0.0421154461801
2019-04-03 18:28:54.90,90516279, 0.19, -18.04, 355.07, 594.869995117, -35.362339, 149.165144, 0.986729621887, -0.00506110489368, -0.156728178263, -0.0421346984804
2019-04-03 18:28:55.00,90616239, 0.17, -18.05, 355.07, 594.900024414, -35.3623344, 149.1651436, 0.986714541912, -0.00520658260211, -0.156811490655, -0.0421599373221
2019-04-03 18:28:55.10,90716199, 0.17, -18.04, 355.07, 594.929992676, -35.36233, 149.1651432, 0.986720740795, -0.00525555852801, -0.156766593456, -0.0421757884324
2019-04-03 18:28:55.19,90816159, 0.16, -18.04, 355.07, 594.950012207, -35.3623256, 149.1651427, 0.986724853516, -0.00528022786602, -0.156734764576, -0.0421951524913
2019-04-03 18:28:55.29,90916119, 0.17, -18.04, 355.07, 594.979980469, -35.362321, 149.1651422, 0.986716747284, -0.0052319932729, -0.156784385443, -0.0422062687576
2019-04-03 18:28:55.39,91016079, 0.17, -18.07, 355.06, 595.010009766, -35.3623166, 149.1651418, 0.986685037613, -0.00522032659501, -0.156977057457, -0.0422333963215
2019-04-03 18:28:55.49,91116039, 0.16, -18.09, 355.06, 595.039978027, -35.3623122, 149.1651415, 0.986650288105, -0.00534710893407, -0.157175645232, -0.0422899648547
2019-04-03 18:28:55.59,91215999, 0.14, -18.13, 355.06, 595.070007324, -35.3623076, 149.1651411, 0.986588835716, -0.00552647607401, -0.15753723681, -0.0423547811806
2019-04-03 18:28:55.69,91315959, 0.15, -18.15, 355.05, 595.099975586, -35.3623032, 149.1651407, 0.986565411091, -0.00547657255083, -0.15767917037, -0.042379129678
2019-04-03 18:28:55.79,91415919, 0.17, -18.14, 355.05, 595.130004883, -35.3622988, 149.1651403, 0.986572563648, -0.00531489308923, -0.157639816403, -0.0423798039556
2019-04-03 18:28:55.89,91515879, 0.18, -18.12, 355.05, 595.159973145, -35.3622942, 149.1651398, 0.986610889435, -0.00519269006327, -0.157405644655, -0.0423736721277
2019-04-03 18:28:55.99,91615839, 0.19, -18.09, 355.05, 595.190002441, -35.3622898, 149.1651393, 0.986648440361, -0.00511684967205, -0.157172292471, -0.0423748940229
2019-04-03 18:28:56.09,91715799, 0.2, -18.06, 355.04, 595.210021973, -35.3622854, 149.1651389, 0.986694037914, -0.005002935417, -0.156889200211, -0.0423749797046
2019-04-03 18:28:56.19,91815759, 0.21, -18.03, 355.04, 595.239990234, -35.3622809, 149.1651386, 0.98672991991, -0.00488020852208, -0.156666636467, -0.0423776879907
2019-04-03 18:28:56.29,91915719, 0.22, -18.02, 355.04, 595.270019531, -35.3622764, 149.1651382, 0.986741065979, -0.00479396758601, -0.156597241759, -0.0423847772181
2019-04-03 18:28:56.39,92015679, 0.21, -18.04, 355.04, 595.299987793, -35.362272, 149.1651378, 0.98671233654, -0.0049052387476, -0.156765326858, -0.0424190536141
2019-04-03 18:28:56.50,92116472, 0.19, -18.09, 355.03, 595.33001709, -35.3622675, 149.1651374, 0.986637949944, -0.00511190993711, -0.157213315368, -0.0424672327936
2019-04-03 18:28:56.60,92216432, 0.18, -18.14, 355.03, 595.359985352, -35.362263, 149.1651369, 0.986574947834, -0.00520510412753, -0.157595485449, -0.0425025336444
2019-04-03 18:28:56.70,92316392, 0.19, -18.16, 355.03, 595.390014648, -35.3622584, 149.1651365, 0.986547470093, -0.00515863951296, -0.157764837146, -0.042518466711
2019-04-03 18:28:56.80,92416352, 0.21, -18.17, 355.02, 595.41998291, -35.3622541, 149.165136, 0.986527979374, -0.00498812319711, -0.157892182469, -0.0425184071064
2019-04-03 18:28:56.90,92516312, 0.24, -18.19, 355.02, 595.440002441, -35.3622496, 149.1651356, 0.986507296562, -0.00478224176913, -0.158029899001, -0.0425100028515
2019-04-03 18:28:57.00,92616272, 0.26, -18.19, 355.02, 595.469970703, -35.362245, 149.1651353, 0.986499607563, -0.00459785340354, -0.158083692193, -0.0425074175
2019-04-03 18:28:57.10,92716232, 0.27, -18.17, 355.02, 595.5, -35.3622407, 149.1651349, 0.986536204815, -0.00450982013717, -0.157855585217, -0.0425163209438
2019-04-03 18:28:57.20,92816192, 0.26, -18.12, 355.01, 595.530029297, -35.3622362, 149.1651345, 0.986602425575, -0.00453905342147, -0.157433927059, -0.0425392836332
2019-04-03 18:28:57.29,92916152, 0.25, -18.07, 355.01, 595.559997559, -35.3622316, 149.165134, 0.986671864986, -0.00464999722317, -0.156986624002, -0.0425698459148
2019-04-03 18:28:57.39,93016112, 0.23, -18.04, 355.01, 595.590026855, -35.3622272, 149.1651336, 0.986706256866, -0.00478550093248, -0.156759977341, -0.0425932332873
2019-04-03 18:28:57.49,93116072, 0.22, -18.05, 355.01, 595.619995117, -35.3622228, 149.1651331, 0.986698925495, -0.00483656441793, -0.156803280115, -0.0425972528756
2019-04-03 18:28:57.59,93216032, 0.23, -18.07, 355.01, 595.640014648, -35.3622182, 149.1651327, 0.986658632755, -0.00479802070186, -0.157059893012, -0.0425909124315
2019-04-03 18:28:57.69,93315992, 0.23, -18.1, 355.01, 595.66998291, -35.3622138, 149.1651324, 0.986626148224, -0.00483128940687, -0.157259762287, -0.0426012761891
2019-04-03 18:28:57.79,93415952, 0.21, -18.12, 355.01, 595.700012207, -35.3622092, 149.165132, 0.986593961716, -0.00496982270852, -0.157446935773, -0.0426387153566
2019-04-03 18:28:57.89,93515912, 0.2, -18.14, 355.01, 595.729980469, -35.3622049, 149.1651316, 0.986570000648, -0.00508497515693, -0.157582476735, -0.0426789931953
2019-04-03 18:28:57.99,93615872, 0.21, -18.13, 355.0, 595.760009766, -35.3622004, 149.1651311, 0.986572027206, -0.00500950450078, -0.157568603754, -0.04269272089
2019-04-03 18:28:58.09,93715832, 0.21, -18.11, 355.0, 595.789978027, -35.3621958, 149.1651307, 0.98660492897, -0.00498274853453, -0.157357946038, -0.042713098228
2019-04-03 18:28:58.19,93815792, 0.21, -18.09, 355.0, 595.820007324, -35.3621914, 149.1651302, 0.986637949944, -0.00500750541687, -0.157141730189, -0.0427426360548
2019-04-03 18:28:58.29,93915752, 0.2, -18.08, 355.0, 595.840026855, -35.3621869, 149.1651298, 0.986650049686, -0.00510517274961, -0.157051116228, -0.0427860245109
2019-04-03 18:28:58.39,94015712, 0.19, -18.08, 354.99, 595.869995117, -35.3621824, 149.1651295, 0.9866361022, -0.00520974909887, -0.157122179866, -0.0428337268531
2019-04-03 18:28:58.49,94115672, 0.18, -18.1, 354.99, 595.900024414, -35.362178, 149.1651291, 0.986607968807, -0.00525762885809, -0.157286539674, -0.0428724214435
2019-04-03 18:28:58.60,94216465, 0.17, -18.12, 354.98, 595.929992676, -35.3621735, 149.1651287, 0.986582577229, -0.00534424884245, -0.157429337502, -0.0429217666388
2019-04-03 18:28:58.70,94316425, 0.17, -18.14, 354.98, 595.960021973, -35.362169, 149.1651283, 0.986549079418, -0.00540769426152, -0.157625481486, -0.0429638698697
2019-04-03 18:28:58.80,94416385, 0.17, -18.16, 354.98, 595.989990234, -35.3621645, 149.1651278, 0.986522495747, -0.00539821758866, -0.157783970237, -0.0429940372705
2019-04-03 18:28:58.90,94516345, 0.18, -18.17, 354.97, 596.020019531, -35.36216, 149.1651274, 0.986508369446, -0.00533827021718, -0.15786716342, -0.0430205501616
2019-04-03 18:28:59.00,94616305, 0.21, -18.16, 354.97, 596.049987793, -35.3621556, 149.1651269, 0.986516535282, -0.00508549297228, -0.1578258425, -0.0430141873658
2019-04-03 18:28:59.10,94716265, 0.24, -18.15, 354.96, 596.070007324, -35.3621511, 149.1651265, 0.986541390419, -0.0047942083329, -0.157682999969, -0.0430033914745
2019-04-03 18:28:59.20,94816225, 0.26, -18.11, 354.96, 596.099975586, -35.3621465, 149.1651262, 0.986598014832, -0.00460003549233, -0.157333239913, -0.0430063307285
2019-04-03 18:28:59.29,94916185, 0.25, -18.08, 354.96, 596.130004883, -35.3621421, 149.1651258, 0.986636579037, -0.00469900481403, -0.157076314092, -0.0430487282574
2019-04-03 18:28:59.39,95016145, 0.23, -18.08, 354.96, 596.159973145, -35.3621377, 149.1651254, 0.986633062363, -0.00491968961433, -0.157078355551, -0.0430977009237
