Start,TimeUS,Roll,Pitch,Yaw,Alt,Lat,Lng,Q1,Q2,Q3,Q4
2019-04-03 19:55:47.80,57416191, 0.0, 0.0, 353.0, 584.090026855, -35.363261, 149.1652299, 0.998134791851, 0.0, 0.0, -0.0610485821962
2019-04-03 19:55:47.89,57516151, 0.0, 0.0, 353.0, 584.090026855, -35.363261, 149.1652299, 0.998134791851, 0.0, 0.0, -0.0610485821962
2019-04-03 19:55:47.99,57616111, 0.0, 0.0, 353.0, 584.090026855, -35.363261, 149.1652299, 0.998134791851, 0.0, 0.0, -0.0610485821962
2019-04-03 19:55:48.09,57716071, 0.0, 0.0, 353.0, 584.090026855, -35.363261, 149.1652299, 0.998134791851, 0.0, 0.0, -0.0610485821962
2019-04-03 19:55:48.19,57816031, 0.0, 0.0, 353.0, 584.090026855, -35.363261, 149.1652299, 0.998134791851, 0.0, 0.0, -0.0610485821962
2019-04-03 19:55:48.29,57915991, 0.0, 0.0, 353.0, 584.090026855, -35.363261, 149.1652299, 0.998134791851, 0.0, 0.0, -0.0610485821962
2019-04-03 19:55:48.39,58015951, 0.0, 0.0, 353.0, 584.090026855, -35.363261, 149.1652299, 0.998134791851, 0.0, 0.0, -0.0610485821962
2019-04-03 19:55:48.49,58115911, 0.0, 0.0, 353.0, 584.090026855, -35.363261, 149.1652299, 0.998134791851, 0.0, 0.0, -0.0610485821962
2019-04-03 19:55:48.59,58215871, 0.0, 0.0, 353.0, 584.090026855, -35.363261, 149.1652299, 0.998134791851, 0.0, 0.0, -0.0610485821962
2019-04-03 19:55:48.69,58315831, 0.0, 0.0, 353.0, 584.090026855, -35.363261, 149.1652299, 0.998134791851, 0.0, 0.0, -0.0610485821962
2019-04-03 19:55:48.79,58415791, 0.0, 0.0, 353.0, 584.090026855, -35.363261, 149.1652299, 0.998134791851, 0.0, 0.0, -0.0610485821962
2019-04-03 19:55:48.89,58515751, 0.0, 0.0, 353.0, 584.090026855, -35.363261, 149.1652299, 0.998134791851, 0.0, 0.0, -0.0610485821962
2019-04-03 19:55:48.99,58615711, 0.0, 0.0, 353.0, 584.090026855, -35.363261, 149.1652299, 0.998134791851, 0.0, 0.0, -0.0610485821962
2019-04-03 19:55:49.09,58715671, 0.0, 0.0, 353.0, 584.090026855, -35.363261, 149.1652299, 0.998134791851, 0.0, 0.0, -0.0610485821962
2019-04-03 19:55:49.20,58816464, 0.0, 0.0, 353.0, 584.090026855, -35.363261, 149.1652299, 0.998134791851, 0.0, 0.0, -0.0610485821962
2019-04-03 19:55:49.30,58916424, 0.0, 0.0, 353.0, 584.090026855, -35.363261, 149.1652299, 0.998134791851, 0.0, 0.0, -0.0610485821962
2019-04-03 19:55:49.40,59016384, 0.0, 0.0, 353.0, 584.090026855, -35.363261, 149.1652299, 0.998134791851, 0.0, 0.0, -0.0610485821962
2019-04-03 19:55:49.50,59116344, 0.0, 0.0, 353.0, 584.090026855, -35.363261, 149.1652299, 0.998134791851, 0.0, 0.0, -0.0610485821962
2019-04-03 19:55:49.60,59216304, 0.0, 0.0, 353.0, 584.090026855, -35.363261, 149.1652299, 0.998134791851, 0.0, 0.0, -0.0610485821962
2019-04-03 19:55:49.70,59316264, 0.0, 0.0, 353.0, 584.090026855, -35.363261, 149.1652299, 0.998134791851, 0.0, 0.0, -0.0610485821962
2019-04-03 19:55:49.80,59416224, 0.0, 0.0, 353.0, 584.090026855, -35.363261, 149.1652299, 0.998134791851, 0.0, 0.0, -0.0610485821962
2019-04-03 19:55:49.89,59516184, 0.0, 0.0, 353.0, 584.090026855, -35.363261, 149.1652299, 0.998134791851, 0.0, 0.0, -0.0610485821962
2019-04-03 19:55:49.99,59616144, 0.0, 0.0, 353.0, 584.090026855, -35.363261, 149.1652299, 0.998134791851, 0.0, 0.0, -0.0610485821962
2019-04-03 19:55:50.09,59716104, 0.0, 0.0, 353.0, 584.090026855, -35.363261, 149.1652299, 0.998134791851, 0.0, 0.0, -0.0610485821962
2019-04-03 19:55:50.19,59816064, 0.0, 0.0, 353.0, 584.090026855, -35.363261, 149.1652299, 0.998134791851, 0.0, 0.0, -0.0610485821962
2019-04-03 19:55:50.29,59916024, 0.0, 0.0, 353.0, 584.090026855, -35.363261, 149.1652299, 0.998134791851, 0.0, 0.0, -0.0610485821962
2019-04-03 19:55:50.39,60015984, 0.0, 0.0, 353.0, 584.090026855, -35.363261, 149.1652299, 0.998134791851, 0.0, 0.0, -0.0610485821962
2019-04-03 19:55:50.49,60115944, 0.0, 0.0, 353.0, 584.090026855, -35.363261, 149.1652299, 0.998134791851, 0.0, 0.0, -0.0610485821962
2019-04-03 19:55:50.59,60215904, 0.0, 0.0, 353.0, 584.090026855, -35.363261, 149.1652299, 0.998134791851, 0.0, 0.0, -0.0610485821962
2019-04-03 19:55:50.69,60315864, 0.0, 0.0, 353.0, 584.090026855, -35.363261, 149.1652299, 0.998134791851, 0.0, 0.0, -0.0610485821962
2019-04-03 19:55:50.79,60415824, 0.0, 0.0, 353.0, 584.090026855, -35.363261, 149.1652299, 0.998134791851, 0.0, 0.0, -0.0610486268997
2019-04-03 19:55:50.89,60515784, 0.0, 0.0, 353.0, 584.090026855, -35.363261, 149.1652299, 0.998134791851, 0.0, 0.0, -0.0610486753285
2019-04-03 19:55:50.99,60615744, 0.0, 0.0, 353.0, 584.090026855, -35.363261, 149.1652299, 0.998134791851, 0.0, 0.0, -0.0610486753285
2019-04-03 19:55:51.09,60715704, 0.0, 0.0, 353.0, 584.090026855, -35.363261, 149.1652299, 0.998134791851, 0.0, 0.0, -0.0610486753285
2019-04-03 19:55:51.19,60815664, 0.0, 0.0, 353.0, 584.090026855, -35.363261, 149.1652299, 0.998134791851, 0.0, 0.0, -0.0610486753285
2019-04-03 19:55:51.30,60916457, 0.0, 0.0, 353.0, 584.090026855, -35.363261, 149.1652299, 0.998134791851, 0.0, 0.0, -0.0610486753285
2019-04-03 19:55:51.40,61016417, 0.0, 0.0, 353.0, 584.090026855, -35.363261, 149.1652299, 0.998134791851, 0.0, 0.0, -0.0610486641526
2019-04-03 19:55:51.50,61116377, 0.0, 0.0, 353.0, 584.090026855, -35.363261, 149.1652299, 0.998134791851, 0.0, 0.0, -0.0610486753285
2019-04-03 19:55:51.60,61216337, 0.0, 0.0, 353.0, 584.099975586, -35.363261, 149.1652299, 0.998134791851, 0.0, 0.0, -0.0610486753285
2019-04-03 19:55:51.70,61316297, 0.0, 0.0, 353.0, 584.099975586, -35.363261, 149.1652299, 0.998134791851, 0.0, 0.0, -0.0610486753285
2019-04-03 19:55:51.80,61416257, 0.0, 0.0, 353.0, 584.109985352, -35.363261, 149.1652299, 0.998134791851, 0.0, 0.0, -0.0610486641526
2019-04-03 19:55:51.90,61516217, 0.0, 0.0, 353.0, 584.130004883, -35.363261, 149.1652299, 0.998134791851, 0.0, 0.0, -0.0610486529768
2019-04-03 19:55:51.99,61616177, 0.0, 0.0, 353.0, 584.150024414, -35.363261, 149.1652299, 0.998134791851, 0.0, 0.0, -0.0610486753285
2019-04-03 19:55:52.09,61716137, 0.0, 0.0, 353.0, 584.179992676, -35.363261, 149.1652299, 0.998134791851, 0.0, 0.0, -0.0610486641526
2019-04-03 19:55:52.19,61816097, 0.0, 0.0, 353.0, 584.219970703, -35.363261, 149.1652299, 0.998134791851, -3.97562725993e-05, -8.46833756896e-07, -0.0610486716032
2019-04-03 19:55:52.29,61916057, -0.04, -0.01, 352.99, 584.299987793, -35.363261, 149.1652299, 0.998134374619, -0.000396052200813, -7.04662961653e-05, -0.0610546693206
2019-04-03 19:55:52.39,62016017, -0.1, -0.04, 352.99, 584.41998291, -35.363261, 149.1652299, 0.998133003712, -0.000943893857766, -0.00032394102891, -0.0610701590776
2019-04-03 19:55:52.49,62115977, -0.15, -0.07, 352.99, 584.58001709, -35.363261, 149.1652299, 0.998130857944, -0.00141965691, -0.000573357916437, -0.0610943436623
2019-04-03 19:55:52.59,62215937, -0.17, -0.1, 352.99, 584.729980469, -35.363261, 149.1652299, 0.99812912941, -0.00159905909095, -0.000784069707152, -0.0611158646643
2019-04-03 19:55:52.69,62315897, -0.16, -0.09, 352.99, 584.890014648, -35.363261, 149.1652299, 0.998128056526, -0.00148572691251, -0.000744584482163, -0.0611364543438
2019-04-03 19:55:52.79,62415857, -0.11, -0.06, 352.98, 585.039978027, -35.363261, 149.1652299, 0.998127400875, -0.00105254282244, -0.000524842413142, -0.0611588545144
2019-04-03 19:55:52.89,62515817, -0.05, -0.03, 352.98, 585.190002441, -35.363261, 149.1652299, 0.998126745224, -0.000485041557113, -0.000272088334896, -0.0611777417362
2019-04-03 19:55:52.99,62615777, -0.01, -0.01, 352.98, 585.349975586, -35.363261, 149.1652299, 0.998126029968, -0.000102008641989, -0.000142382181366, -0.0611923970282
2019-04-03 19:55:53.09,62715737, 0.0, -0.02, 352.98, 585.520019531, -35.363261, 149.1652299, 0.998125255108, -2.68609182967e-05, -0.000220673682634, -0.061204534024
2019-04-03 19:55:53.19,62815697, 0.0, -0.04, 352.98, 585.700012207, -35.363261, 149.1652298, 0.998124778271, -9.34251147555e-05, -0.000366115244105, -0.0612117312849
2019-04-03 19:55:53.30,62916490, 0.0, -0.05, 352.98, 585.880004883, -35.363261, 149.1652298, 0.998124778271, -2.57732826867e-05, -0.00049888092326, -0.0612104609609
2019-04-03 19:55:53.40,63016450, 0.01, -0.05, 352.98, 586.059997559, -35.363261, 149.1652298, 0.998124480247, 9.28308363655e-05, -0.000443955592345, -0.0612153783441
2019-04-03 19:55:53.50,63116410, 0.03, -0.01, 352.97, 586.25, -35.363261, 149.1652298, 0.998123526573, 0.000273083132925, -0.000122504454339, -0.061231739819
2019-04-03 19:55:53.60,63216370, 0.02, 0.02, 352.97, 586.440002441, -35.363261, 149.1652298, 0.998123466969, 0.000220335015911, 0.000230801480939, -0.0612323321402
2019-04-03 19:55:53.70,63316330, 0.01, 0.06, 352.97, 586.630004883, -35.363261, 149.1652298, 0.998123586178, 0.000133377194288, 0.000556818267796, -0.0612285025418
2019-04-03 19:55:53.80,63416290, 0.01, 0.11, 352.98, 586.83001709, -35.363261, 149.1652298, 0.998123705387, 0.000201471164473, 0.000955938361585, -0.0612212382257
2019-04-03 19:55:53.90,63516250, 0.02, 0.13, 352.98, 587.020019531, -35.363261, 149.1652298, 0.998123943806, 0.000291587377433, 0.00115064717829, -0.06121417135
2019-04-03 19:55:54.00,63616210, 0.04, 0.13, 352.98, 587.200012207, -35.363261, 149.1652298, 0.99812412262, 0.00047856773017, 0.00115925294813, -0.0612104348838
2019-04-03 19:55:54.09,63716170, 0.05, 0.11, 352.98, 587.369995117, -35.363261, 149.1652298, 0.998124361038, 0.000515385298058, 0.000961957324762, -0.0612092614174
2019-04-03 19:55:54.19,63816130, 0.0, 0.06, 352.98, 587.539978027, -35.363261, 149.1652298, 0.998124539852, -7.59267720696e-07, 0.000592570577282, -0.0612136423588
2019-04-03 19:55:54.29,63916090, -0.31, 0.03, 352.98, 587.690002441, -35.363261, 149.1652298, 0.99812066555, -0.00268760765903, 0.000467941747047, -0.061218559742
2019-04-03 19:55:54.39,64016050, -0.96, 0.01, 352.97, 587.83001709, -35.363261, 149.1652298, 0.998088657856, -0.00839163921773, 0.000627784756944, -0.0612228997052
2019-04-03 19:55:54.49,64116010, -1.89, 0.0, 352.97, 587.960021973, -35.363261, 149.1652298, 0.997987031937, -0.0165085345507, 0.000926228472963, -0.0612251870334
2019-04-03 19:55:54.59,64215970, -2.98, 0.0, 352.97, 588.070007324, -35.363261, 149.1652297, 0.997784793377, -0.0259689092636, 0.00150778261013, -0.0612279772758
2019-04-03 19:55:54.69,64315930, -4.1, -0.02, 352.97, 588.16998291, -35.363261, 149.1652296, 0.997482120991, -0.035721514374, 0.00198976020329, -0.0612333603203
2019-04-03 19:55:54.79,64415890, -5.11, -0.05, 352.97, 588.260009766, -35.363261, 149.1652294, 0.997125327587, -0.0445786267519, 0.00222865096293, -0.0612289980054
2019-04-03 19:55:54.89,64515850, -5.9, -0.08, 352.97, 588.340026855, -35.363261, 149.1652292, 0.996791899204, -0.0514838472009, 0.00242546875961, -0.0612329244614
2019-04-03 19:55:54.99,64615810, -6.47, -0.08, 352.97, 588.409973145, -35.363261, 149.1652289, 0.996521234512, -0.0564485266805, 0.00271203764714, -0.0612508133054
2019-04-03 19:55:55.09,64715770, -6.9, -0.07, 352.96, 588.469970703, -35.363261, 149.1652284, 0.996303260326, -0.0601389221847, 0.00301515404135, -0.061270352453
2019-04-03 19:55:55.19,64815730, -7.27, -0.08, 352.96, 588.530029297, -35.363261, 149.1652279, 0.996099829674, -0.063401915133, 0.00319810840301, -0.0612794235349
2019-04-03 19:55:55.29,64915690, -7.65, -0.1, 352.96, 588.58001709, -35.363261, 149.1652273, 0.995883584023, -0.0667142271996, 0.00322150951251, -0.0612759180367
2019-04-03 19:55:55.40,65016483, -8.02, -0.1, 352.96, 588.619995117, -35.363261, 149.1652265, 0.995664000511, -0.0699007809162, 0.00334297004156, -0.0612853392959
2019-04-03 19:55:55.50,65116443, -8.3, -0.09, 352.95, 588.659973145, -35.3632611, 149.1652258, 0.995491027832, -0.0722880512476, 0.00362129835412, -0.0613097138703
2019-04-03 19:55:55.60,65216403, -8.47, -0.09, 352.95, 588.700012207, -35.3632613, 149.1652248, 0.995381295681, -0.0737646371126, 0.00374748930335, -0.0613259933889
2019-04-03 19:55:55.70,65316363, -8.58, -0.09, 352.95, 588.739990234, -35.3632614, 149.1652238, 0.995306372643, -0.0747571960092, 0.00379448034801, -0.061337120831
2019-04-03 19:55:55.80,65416323, -8.69, -0.1, 352.95, 588.770019531, -35.3632615, 149.1652226, 0.995236098766, -0.0756853744388, 0.0037634356413, -0.0613412968814
2019-04-03 19:55:55.90,65516283, -8.83, -0.11, 352.95, 588.799987793, -35.3632616, 149.1652215, 0.995141923428, -0.0769034028053, 0.00376439536922, -0.0613541342318
2019-04-03 19:55:56.00,65616243, -9.01, -0.05, 352.92, 588.83001709, -35.3632616, 149.1652202, 0.995004475117, -0.078474342823, 0.00437428569421, -0.0615534670651
2019-04-03 19:55:56.10,65716203, -9.27, 0.25, 352.55, 588.859985352, -35.3632617, 149.1652188, 0.99463391304, -0.0805134475231, 0.00742683140561, -0.0645434707403
2019-04-03 19:55:56.19,65816163, -9.64, 0.72, 351.17, 588.890014648, -35.363262, 149.1652174, 0.993524730206, -0.0833352059126, 0.0127982143313, -0.076157964766
2019-04-03 19:55:56.29,65916123, -10.1, 0.96, 348.23, 588.91998291, -35.3632621, 149.1652159, 0.990912497044, -0.0867196321487, 0.0173507686704, -0.101346336305
2019-04-03 19:55:56.39,66016083, -10.55, 0.61, 343.7, 588.950012207, -35.3632622, 149.1652143, 0.985758244991, -0.0903293341398, 0.0183462481946, -0.140658557415
2019-04-03 19:55:56.49,66116043, -10.87, -0.43, 337.79, 588.979980469, -35.3632626, 149.1652126, 0.976788818836, -0.0937477126718, 0.0145467128605, -0.192050665617
2019-04-03 19:55:56.59,66216003, -10.92, -2.13, 330.8, 589.010009766, -35.3632628, 149.1652107, 0.962713479996, -0.0967353507876, 0.00605194596574, -0.252563565969
2019-04-03 19:55:56.69,66315963, -10.55, -4.28, 322.99, 589.039978027, -35.3632632, 149.1652088, 0.942557096481, -0.0989394709468, -0.00612182263285, -0.318997830153
2019-04-03 19:55:56.79,66415923, -9.71, -6.63, 314.62, 589.08001709, -35.3632634, 149.1652068, 0.915885090828, -0.100206725299, -0.0206193719059, -0.388185471296
2019-04-03 19:55:56.89,66515883, -8.43, -8.9, 305.91, 589.119995117, -35.3632639, 149.1652048, 0.882974863052, -0.100510254502, -0.0356111973524, -0.457148700953
2019-04-03 19:55:56.99,66615843, -6.78, -10.87, 297.12, 589.159973145, -35.3632641, 149.1652025, 0.844949781895, -0.0996270254254, -0.0499646067619, -0.523104071617
2019-04-03 19:55:57.09,66715803, -4.87, -12.39, 288.54, 589.200012207, -35.3632646, 149.1652004, 0.80364793539, -0.0972927436233, -0.0628681629896, -0.583722293377
2019-04-03 19:55:57.19,66815763, -2.88, -13.39, 280.43, 589.239990234, -35.3632649, 149.165198, 0.761105597019, -0.0938008949161, -0.0735818594694, -0.637577772141
2019-04-03 19:55:57.29,66915723, -0.99, -13.93, 272.97, 589.280029297, -35.3632653, 149.1651953, 0.719084978104, -0.0897837951779, -0.0820278003812, -0.684198200703
2019-04-03 19:55:57.39,67015683, 0.71, -14.15, 266.23, 589.33001709, -35.3632656, 149.1651928, 0.678842425346, -0.0856688842177, -0.0887314751744, -0.723851203918
2019-04-03 19:55:57.50,67116476, 2.49, -14.16, 260.33, 589.380004883, -35.3632659, 149.1651901, 0.642030954361, -0.0802396908402, -0.0959846526384, -0.756402552128
2019-04-03 19:55:57.60,67216436, 4.2, -13.99, 255.79, 589.41998291, -35.3632661, 149.1651872, 0.612762391567, -0.0737580657005, -0.10351113975, -0.779979169369
2019-04-03 19:55:57.70,67316396, 5.54, -13.77, 252.82, 589.469970703, -35.3632664, 149.1651843, 0.593277275562, -0.0679211243987, -0.109724871814, -0.794587552547
2019-04-03 19:55:57.80,67416356, 6.26, -13.61, 251.44, 589.530029297, -35.3632665, 149.1651812, 0.58413028717, -0.0644319504499, -0.113190978765, -0.801141798496
2019-04-03 19:55:57.90,67516316, 6.26, -13.59, 251.46, 589.58001709, -35.3632668, 149.1651781, 0.584290325642, -0.0642796978354, -0.113040223718, -0.801058590412
2019-04-03 19:55:58.00,67616276, 5.53, -13.75, 252.6, 589.630004883, -35.3632669, 149.1651748, 0.591793119907, -0.0679709762335, -0.10946123302, -0.795725524426
2019-04-03 19:55:58.10,67716236, 4.25, -14.07, 254.56, 589.690002441, -35.363267, 149.1651714, 0.604365468025, -0.0751463547349, -0.103468067944, -0.786377608776
2019-04-03 19:55:58.20,67816196, 2.63, -14.5, 257.02, 589.75, -35.3632671, 149.1651681, 0.619800329208, -0.0845715478063, -0.0964495763183, -0.774204611778
2019-04-03 19:55:58.29,67916156, 0.94, -14.92, 259.68, 589.799987793, -35.3632671, 149.1651646, 0.636073231697, -0.0944832116365, -0.0894762575626, -0.760577261448
2019-04-03 19:55:58.39,68016116, -0.59, -15.24, 262.24, 589.859985352, -35.3632672, 149.1651611, 0.651313126087, -0.103306375444, -0.0833398848772, -0.747110068798
2019-04-03 19:55:58.49,68116076, -1.81, -15.42, 264.4, 589.91998291, -35.3632674, 149.1651575, 0.664026081562, -0.109940901399, -0.0785589814186, -0.735398471355
2019-04-03 19:55:58.59,68216036, -2.61, -15.49, 265.98, 589.979980469, -35.3632676, 149.1651537, 0.673275530338, -0.113988362253, -0.0753606036305, -0.726655066013
2019-04-03 19:55:58.69,68315996, -2.99, -15.47, 266.9, 590.039978027, -35.3632678, 149.1651501, 0.678684651852, -0.115519203246, -0.0738043263555, -0.721522986889
2019-04-03 19:55:58.79,68415956, -2.96, -15.44, 267.15, 590.099975586, -35.3632682, 149.1651463, 0.680338740349, -0.114977955818, -0.0740020126104, -0.720029890537
2019-04-03 19:55:58.89,68515916, -2.62, -15.42, 266.83, 590.159973145, -35.3632684, 149.1651423, 0.678682148457, -0.113050408661, -0.0757709667087, -0.721712470055
2019-04-03 19:55:58.99,68615876, -2.04, -15.46, 266.07, 590.219970703, -35.3632689, 149.1651384, 0.674430847168, -0.11037709564, -0.078910395503, -0.725763857365
2019-04-03 19:55:59.09,68715836, -1.34, -15.55, 265.04, 590.280029297, -35.3632693, 149.1651345, 0.668450534344, -0.107556417584, -0.0829013437033, -0.731254339218
2019-04-03 19:55:59.19,68815796, -0.6, -15.66, 263.89, 590.340026855, -35.3632696, 149.1651305, 0.661689758301, -0.104888439178, -0.0872155204415, -0.737264275551
2019-04-03 19:55:59.29,68915756, 0.05, -15.77, 262.78, 590.400024414, -35.3632701, 149.1651264, 0.655031681061, -0.102600008249, -0.0910819023848, -0.74304163456
2019-04-03 19:55:59.39,69015716, 0.58, -15.85, 261.83, 590.460021973, -35.3632705, 149.1651224, 0.649209499359, -0.100924238563, -0.0941670164466, -0.747979879379
2019-04-03 19:55:59.49,69115676, 0.93, -15.9, 261.1, 590.520019531, -35.3632708, 149.1651182, 0.644759893417, -0.0998264178634, -0.0960937589407, -0.75172162056
2019-04-03 19:55:59.60,69216469, 1.11, -15.93, 260.65, 590.58001709, -35.3632713, 149.165114, 0.641927480698, -0.0994171872735, -0.0970695391297, -0.754070818424
2019-04-03 19:55:59.70,69316429, 1.13, -15.95, 260.48, 590.640014648, -35.3632718, 149.1651096, 0.640792012215, -0.0996167734265, -0.0971164032817, -0.75500369072
2019-04-03 19:55:59.80,69416389, 1.0, -15.99, 260.55, 590.700012207, -35.3632722, 149.1651054, 0.641118347645, -0.100551240146, -0.0965458452702, -0.754675865173
2019-04-03 19:55:59.90,69516349, 0.77, -16.04, 260.81, 590.760009766, -35.3632726, 149.165101, 0.642604589462, -0.101916991174, -0.0955855622888, -0.753349661827
2019-04-03 19:56:00.00,69616309, 0.5, -16.09, 261.2, 590.820007324, -35.363273, 149.1650967, 0.644865870476, -0.103467158973, -0.0944289118052, -0.751349270344
2019-04-03 19:56:00.10,69716269, 0.23, -16.13, 261.65, 590.880004883, -35.3632734, 149.1650924, 0.647516429424, -0.104879073799, -0.0933280363679, -0.749007821083
2019-04-03 19:56:00.20,69816229, 0.0, -16.17, 262.09, 590.940002441, -35.3632738, 149.165088, 0.650172114372, -0.106097735465, -0.0923715233803, -0.746650576591
2019-04-03 19:56:00.29,69916189, -0.2, -16.19, 262.49, 591.0, -35.3632743, 149.1650834, 0.652524888515, -0.107054673135, -0.0915122330189, -0.744564414024
2019-04-03 19:56:00.39,70016149, -0.35, -16.19, 262.79, 591.059997559, -35.3632748, 149.165079, 0.654362618923, -0.107707314193, -0.0908217951655, -0.742940187454
2019-04-03 19:56:00.49,70116109, -0.44, -16.2, 262.99, 591.119995117, -35.3632751, 149.1650745, 0.655573904514, -0.108109667897, -0.0904618427157, -0.741857051849
2019-04-03 19:56:00.59,70216069, -0.47, -16.22, 263.09, 591.190002441, -35.3632756, 149.1650699, 0.656148135662, -0.108281970024, -0.0905225798488, -0.74131667614
2019-04-03 19:56:00.69,70316029, -0.43, -16.23, 263.08, 591.25, -35.3632762, 149.1650654, 0.656154990196, -0.108172401786, -0.0908300876617, -0.74128895998
2019-04-03 19:56:00.79,70415989, -0.36, -16.25, 263.0, 591.309997559, -35.3632766, 149.1650608, 0.655681371689, -0.107960306108, -0.0913745835423, -0.741671919823
2019-04-03 19:56:00.89,70515949, -0.26, -16.29, 262.87, 591.369995117, -35.3632771, 149.165056, 0.654864788055, -0.107769094408, -0.0920561105013, -0.742336630821
2019-04-03 19:56:00.99,70615909, -0.15, -16.34, 262.71, 591.429992676, -35.3632775, 149.1650515, 0.653870761395, -0.107609793544, -0.092914506793, -0.743128597736
2019-04-03 19:56:01.09,70715869, -0.03, -16.39, 262.54, 591.489990234, -35.363278, 149.1650468, 0.652880847454, -0.107326425612, -0.0938477367163, -0.743922233582
2019-04-03 19:56:01.19,70815829, 0.09, -16.43, 262.39, 591.559997559, -35.3632786, 149.1650421, 0.652010083199, -0.10703343153, -0.0947771966457, -0.744609951973
2019-04-03 19:56:01.29,70915789, 0.19, -16.46, 262.28, 591.619995117, -35.3632791, 149.1650374, 0.651353240013, -0.106740035117, -0.0955042466521, -0.745133876801
2019-04-03 19:56:01.39,71015749, 0.23, -16.48, 262.21, 591.679992676, -35.3632796, 149.1650326, 0.650930583477, -0.106669068336, -0.0958074182272, -0.745474398136
2019-04-03 19:56:01.49,71115709, 0.21, -16.49, 262.19, 591.739990234, -35.3632801, 149.1650278, 0.650741398335, -0.106870241463, -0.0956793054938, -0.745627164841
2019-04-03 19:56:01.59,71215669, 0.16, -16.5, 262.2, 591.799987793, -35.3632807, 149.165023, 0.650778412819, -0.107213757932, -0.0954039767385, -0.745580852032
2019-04-03 19:56:01.70,71316462, 0.11, -16.52, 262.25, 591.869995117, -35.3632811, 149.1650182, 0.651025474072, -0.107604168355, -0.0952816307545, -0.745324552059
2019-04-03 19:56:01.80,71416422, 0.07, -16.57, 262.32, 591.929992676, -35.3632817, 149.1650134, 0.651413798332, -0.108121439815, -0.0953872948885, -0.744896709919
2019-04-03 19:56:01.90,71516382, 0.02, -16.64, 262.41, 591.989990234, -35.3632822, 149.1650086, 0.651872813702, -0.108730517328, -0.095515280962, -0.744389891624
2019-04-03 19:56:02.00,71616342, -0.02, -16.68, 262.5, 592.049987793, -35.3632827, 149.1650038, 0.652358412743, -0.109252355993, -0.0954876691103, -0.743891477585
2019-04-03 19:56:02.10,71716302, -0.06, -16.68, 262.58, 592.109985352, -35.3632832, 149.164999, 0.652852714062, -0.109417378902, -0.0952956601977, -0.743458151817
2019-04-03 19:56:02.20,71816262, -0.08, -16.68, 262.65, 592.16998291, -35.3632836, 149.1649941, 0.653300642967, -0.109380230308, -0.095265455544, -0.743073880672
2019-04-03 19:56:02.30,71916222, -0.08, -16.67, 262.7, 592.239990234, -35.3632841, 149.1649891, 0.653649330139, -0.109303027391, -0.0952631309628, -0.742778837681
2019-04-03 19:56:02.39,72016182, -0.08, -16.65, 262.74, 592.299987793, -35.3632847, 149.1649842, 0.653895974159, -0.10916351527, -0.0951730310917, -0.742593765259
2019-04-03 19:56:02.49,72116142, -0.07, -16.64, 262.76, 592.359985352, -35.3632853, 149.1649794, 0.654050529003, -0.109049096704, -0.0952305868268, -0.742467105389
2019-04-03 19:56:02.59,72216102, -0.05, -16.67, 262.77, 592.41998291, -35.3632858, 149.1649745, 0.654092907906, -0.109100781381, -0.0954607054591, -0.742392599583
2019-04-03 19:56:02.69,72316062, -0.04, -16.71, 262.76, 592.479980469, -35.3632863, 149.1649694, 0.654047906399, -0.109293140471, -0.0958410054445, -0.742354989052
2019-04-03 19:56:02.79,72416022, -0.01, -16.76, 262.76, 592.539978027, -35.3632869, 149.1649646, 0.653977453709, -0.109465412796, -0.096290923655, -0.74233341217
2019-04-03 19:56:02.89,72515982, 0.01, -16.8, 262.75, 592.609985352, -35.3632874, 149.1649596, 0.653911232948, -0.109526894987, -0.0966863632202, -0.742331326008
2019-04-03 19:56:02.99,72615942, 0.03, -16.85, 262.74, 592.66998291, -35.3632878, 149.1649545, 0.653823971748, -0.109760783613, -0.0971214473248, -0.742316842079
2019-04-03 19:56:03.09,72715902, 0.04, -16.9, 262.73, 592.729980469, -35.3632884, 149.1649496, 0.653755784035, -0.110066868365, -0.0974661782384, -0.742286384106
2019-04-03 19:56:03.19,72815862, 0.04, -16.92, 262.73, 592.789978027, -35.363289, 149.1649445, 0.653753042221, -0.11016792804, -0.0975554510951, -0.742262065411
2019-04-03 19:56:03.29,72915822, 0.04, -16.91, 262.74, 592.849975586, -35.3632895, 149.1649396, 0.653813838959, -0.110104978085, -0.0974715054035, -0.742228865623
2019-04-03 19:56:03.39,73015782, 0.04, -16.9, 262.75, 592.909973145, -35.36329, 149.1649345, 0.653915166855, -0.110001564026, -0.0974817425013, -0.742153584957
2019-04-03 19:56:03.49,73115742, 0.06, -16.9, 262.77, 592.969970703, -35.3632906, 149.1649295, 0.65405279398, -0.109911479056, -0.0976252704859, -0.742026805878
2019-04-03 19:56:03.59,73215702, 0.07, -16.93, 262.8, 593.039978027, -35.3632911, 149.1649244, 0.654186189175, -0.110000349581, -0.0978676304221, -0.741864085197
2019-04-03 19:56:03.69,73315662, 0.06, -16.96, 262.82, 593.099975586, -35.3632915, 149.1649194, 0.654301464558, -0.110280379653, -0.0980177074671, -0.741701006889
2019-04-03 19:56:03.80,73416455, 0.03, -16.99, 262.85, 593.159973145, -35.363292, 149.1649143, 0.654411673546, -0.110629200935, -0.0979948267341, -0.741554915905
2019-04-03 19:56:03.90,73516415, 0.0, -17.01, 262.87, 593.219970703, -35.3632926, 149.1649093, 0.65452760458, -0.110886313021, -0.0978736653924, -0.741430103779
2019-04-03 19:56:04.00,73616375, -0.02, -17.0, 262.89, 593.280029297, -35.3632932, 149.1649042, 0.654654681683, -0.110959537327, -0.0977533459663, -0.741322815418
2019-04-03 19:56:04.10,73716335, -0.01, -17.0, 262.91, 593.340026855, -35.3632937, 149.164899, 0.654781937599, -0.11090798676, -0.0977990999818, -0.741212129593
2019-04-03 19:56:04.20,73816295, 0.0, -17.02, 262.92, 593.400024414, -35.3632943, 149.164894, 0.654866099358, -0.11089977622, -0.098048992455, -0.741105914116
2019-04-03 19:56:04.30,73916255, 0.02, -17.06, 262.93, 593.469970703, -35.3632948, 149.1648888, 0.654904127121, -0.111037716269, -0.0983689203858, -0.741009294987
2019-04-03 19:56:04.40,74016215, 0.03, -17.09, 262.94, 593.530029297, -35.3632953, 149.1648837, 0.654915869236, -0.111204192042, -0.0986404418945, -0.740937888622
2019-04-03 19:56:04.49,74116175, 0.03, -17.12, 262.94, 593.590026855, -35.3632959, 149.1648785, 0.654925763607, -0.111326888204, -0.0988359972835, -0.74088460207
2019-04-03 19:56:04.59,74216135, 0.04, -17.13, 262.95, 593.650024414, -35.3632963, 149.1648735, 0.65495288372, -0.111360155046, -0.0989489480853, -0.740840673447
2019-04-03 19:56:04.69,74316095, 0.05, -17.14, 262.95, 593.710021973, -35.3632969, 149.1648683, 0.654983758926, -0.111389793456, -0.0991143807769, -0.740786731243
2019-04-03 19:56:04.79,74416055, 0.06, -17.15, 262.96, 593.770019531, -35.3632975, 149.1648631, 0.655025780201, -0.111350141466, -0.0992179587483, -0.740741670132
2019-04-03 19:56:04.89,74516015, 0.06, -17.15, 262.96, 593.83001709, -35.363298, 149.1648579, 0.655069410801, -0.111322708428, -0.0992298871279, -0.740705609322
2019-04-03 19:56:04.99,74615975, 0.07, -17.17, 262.97, 593.890014648, -35.3632985, 149.1648529, 0.655095338821, -0.111444272101, -0.0993752032518, -0.740644872189
2019-04-03 19:56:05.09,74715935, 0.08, -17.21, 262.98, 593.960021973, -35.3632991, 149.1648477, 0.655113935471, -0.111647211015, -0.0996911302209, -0.740555465221
2019-04-03 19:56:05.19,74815895, 0.08, -17.25, 262.98, 594.020019531, -35.3632996, 149.1648425, 0.65512752533, -0.11189751327, -0.0999383628368, -0.740472316742
2019-04-03 19:56:05.29,74915855, 0.06, -17.28, 262.99, 594.08001709, -35.3633, 149.1648372, 0.655135452747, -0.112164735794, -0.0999876111746, -0.740418195724
2019-04-03 19:56:05.39,75015815, 0.01, -17.29, 263.0, 594.140014648, -35.3633005, 149.164832, 0.655135691166, -0.112509489059, -0.0997564867139, -0.740396857262
2019-04-03 19:56:05.49,75115775, -0.01, -17.29, 263.01, 594.200012207, -35.3633011, 149.1648268, 0.655158758163, -0.112693294883, -0.0995611026883, -0.740374803543
2019-04-03 19:56:05.59,75215735, -0.01, -17.3, 263.02, 594.260009766, -35.3633017, 149.1648217, 0.655201494694, -0.112738274038, -0.099597685039, -0.740325212479
2019-04-03 19:56:05.69,75315695, 0.0, -17.32, 263.02, 594.320007324, -35.3633022, 149.1648165, 0.655238687992, -0.112822145224, -0.0997875407338, -0.740253984928
2019-04-03 19:56:05.80,75416488, 0.01, -17.34, 263.03, 594.390014648, -35.3633028, 149.1648113, 0.655282855034, -0.112821772695, -0.10005004704, -0.740179419518
2019-04-03 19:56:05.90,75516448, 0.04, -17.34, 263.04, 594.450012207, -35.3633033, 149.164806, 0.655347943306, -0.11264642328, -0.10022239387, -0.740125238895
2019-04-03 19:56:06.00,75616408, 0.05, -17.34, 263.04, 594.510009766, -35.3633038, 149.1648008, 0.655395567417, -0.112554468215, -0.100310824811, -0.740085065365
2019-04-03 19:56:06.10,75716368, 0.05, -17.34, 263.05, 594.570007324, -35.3633042, 149.1647956, 0.655420899391, -0.112580910325, -0.10036084801, -0.740051805973
2019-04-03 19:56:06.20,75816328, 0.04, -17.36, 263.05, 594.630004883, -35.3633048, 149.1647903, 0.655413210392, -0.112764410675, -0.10036996007, -0.740029513836
2019-04-03 19:56:06.30,75916288, 0.01, -17.39, 263.05, 594.690002441, -35.3633054, 149.1647851, 0.655381321907, -0.11307567358, -0.100338205695, -0.74001455307
2019-04-03 19:56:06.40,76016248, -0.03, -17.4, 263.05, 594.75, -35.3633059, 149.1647798, 0.655337810516, -0.113440588117, -0.100102707744, -0.740029096603
2019-04-03 19:56:06.50,76116208, -0.05, -17.42, 263.06, 594.820007324, -35.3633065, 149.1647745, 0.655316829681, -0.113681614399, -0.100052565336, -0.740017473698
2019-04-03 19:56:06.59,76216168, -0.05, -17.44, 263.05, 594.880004883, -35.363307, 149.1647693, 0.655286192894, -0.11385114491, -0.10018107295, -0.740001142025
2019-04-03 19:56:06.69,76316128, -0.03, -17.45, 263.05, 594.940002441, -35.3633075, 149.164764, 0.655275404453, -0.113846518099, -0.100374221802, -0.739985227585
2019-04-03 19:56:06.79,76416088, -0.01, -17.46, 263.05, 595.0, -35.3633079, 149.1647587, 0.655274808407, -0.113747484982, -0.100556604564, -0.739976227283
2019-04-03 19:56:06.89,76516048, 0.0, -17.46, 263.05, 595.059997559, -35.3633085, 149.1647534, 0.655275046825, -0.113662391901, -0.100667215884, -0.739974081516
2019-04-03 19:56:06.99,76616008, 0.0, -17.47, 263.05, 595.119995117, -35.363309, 149.1647482, 0.655255138874, -0.113719277084, -0.100702419877, -0.739978134632
2019-04-03 19:56:07.09,76715968, -0.01, -17.47, 263.04, 595.179992676, -35.3633096, 149.1647429, 0.655235946178, -0.113768652081, -0.100619517267, -0.739998936653
2019-04-03 19:56:07.19,76815928, -0.01, -17.47, 263.04, 595.239990234, -35.3633102, 149.1647376, 0.655226349831, -0.113797686994, -0.100580476224, -0.740008234978
2019-04-03 19:56:07.29,76915888, 0.0, -17.49, 263.04, 595.309997559, -35.3633107, 149.1647323, 0.65521979332, -0.113874681294, -0.100761063397, -0.73997759819
2019-04-03 19:56:07.39,77015848, 0.03, -17.52, 263.04, 595.369995117, -35.3633112, 149.1647269, 0.655238032341, -0.113853558898, -0.101180642843, -0.739907443523
2019-04-03 19:56:07.49,77115808, 0.07, -17.52, 263.05, 595.429992676, -35.3633118, 149.1647216, 0.655299246311, -0.11358576268, -0.1014906317, -0.739851951599
2019-04-03 19:56:07.59,77215768, 0.11, -17.5, 263.05, 595.489990234, -35.3633122, 149.1647162, 0.655373632908, -0.113259762526, -0.101577959955, -0.739824056625
2019-04-03 19:56:07.69,77315728, 0.12, -17.47, 263.06, 595.549987793, -35.3633127, 149.1647109, 0.655441462994, -0.113044314086, -0.101507872343, -0.739806473255
2019-04-03 19:56:07.79,77415688, 0.09, -17.49, 263.06, 595.609985352, -35.3633133, 149.1647056, 0.655451774597, -0.11327701807, -0.101425230503, -0.739773094654
2019-04-03 19:56:07.90,77516481, 0.06, -17.53, 263.07, 595.66998291, -35.3633139, 149.1647003, 0.65544128418, -0.113754972816, -0.101497262716, -0.739699184895
2019-04-03 19:56:08.00,77616441, 0.03, -17.59, 263.08, 595.739990234, -35.3633144, 149.164695, 0.655427753925, -0.114239923656, -0.101631104946, -0.739618003368
2019-04-03 19:56:08.10,77716401, 0.02, -17.6, 263.09, 595.799987793, -35.363315, 149.1646896, 0.655445218086, -0.114426165819, -0.101654700935, -0.739570617676
2019-04-03 19:56:08.20,77816361, 0.0, -17.6, 263.09, 595.859985352, -35.3633155, 149.1646843, 0.655460298061, -0.114453405142, -0.101516589522, -0.739571869373
2019-04-03 19:56:08.30,77916321, -0.01, -17.56, 263.09, 595.91998291, -35.363316, 149.1646788, 0.65546631813, -0.114389762282, -0.101190850139, -0.73962110281
2019-04-03 19:56:08.40,78016281, -0.03, -17.54, 263.09, 595.979980469, -35.3633166, 149.1646735, 0.655462265015, -0.114282801747, -0.100931420922, -0.739676654339
2019-04-03 19:56:08.50,78116241, -0.01, -17.51, 263.09, 596.039978027, -35.363317, 149.1646682, 0.655470132828, -0.114025264978, -0.100921027362, -0.739710867405
2019-04-03 19:56:08.60,78216201, 0.01, -17.49, 263.08, 596.099975586, -35.3633175, 149.1646629, 0.655478596687, -0.113723397255, -0.100976087153, -0.739742279053
2019-04-03 19:56:08.69,78316161, 0.03, -17.48, 263.07, 596.16998291, -35.3633181, 149.1646575, 0.655466079712, -0.113575346768, -0.101007863879, -0.739771723747
2019-04-03 19:56:08.79,78416121, 0.03, -17.5, 263.07, 596.229980469, -35.3633187, 149.1646522, 0.655420184135, -0.113688103855, -0.101103529334, -0.739782094955
2019-04-03 19:56:08.89,78516081, 0.0, -17.52, 263.07, 596.289978027, -35.3633192, 149.1646467, 0.655354499817, -0.114005580544, -0.101047620177, -0.739799022675
2019-04-03 19:56:08.99,78616041, -0.02, -17.53, 263.07, 596.349975586, -35.3633197, 149.1646414, 0.655305922031, -0.114248968661, -0.100925840437, -0.739821135998
2019-04-03 19:56:09.09,78716001, -0.06, -17.53, 263.06, 596.409973145, -35.3633203, 149.1646361, 0.655259072781, -0.114467702806, -0.100683674216, -0.73986184597
2019-04-03 19:56:09.19,78815961, -0.08, -17.55, 263.06, 596.469970703, -35.3633207, 149.1646307, 0.655209422112, -0.114716231823, -0.100598081946, -0.739878952503
2019-04-03 19:56:09.29,78915921, -0.08, -17.58, 263.06, 596.539978027, -35.3633212, 149.1646254, 0.655175328255, -0.114913068712, -0.100763753057, -0.73985606432
2019-04-03 19:56:09.39,79015881, -0.07, -17.6, 263.06, 596.599975586, -35.3633218, 149.1646199, 0.65515345335, -0.114960968494, -0.100955091417, -0.739841878414
2019-04-03 19:56:09.49,79115841, -0.05, -17.6, 263.05, 596.659973145, -35.3633224, 149.1646146, 0.655139327049, -0.114900745451, -0.101090438664, -0.739845275879
2019-04-03 19:56:09.59,79215801, -0.02, -17.61, 263.05, 596.719970703, -35.3633229, 149.1646092, 0.65512907505, -0.114792898297, -0.101362012327, -0.739833950996
2019-04-03 19:56:09.69,79315761, 0.0, -17.62, 263.04, 596.780029297, -35.3633234, 149.1646039, 0.655123114586, -0.114634469151, -0.101600632071, -0.739831030369
2019-04-03 19:56:09.79,79415721, 0.02, -17.61, 263.04, 596.840026855, -35.363324, 149.1645984, 0.655108034611, -0.114519156516, -0.10166310519, -0.739853680134
2019-04-03 19:56:09.89,79515681, 0.01, -17.6, 263.03, 596.900024414, -35.3633245, 149.1645931, 0.655091941357, -0.114441543818, -0.101536035538, -0.739897429943
2019-04-03 19:56:10.00,79616474, 0.01, -17.6, 263.03, 596.960021973, -35.3633251, 149.1645877, 0.655074357986, -0.114461012185, -0.101517729461, -0.739912509918
2019-04-03 19:56:10.10,79716434, 0.02, -17.62, 263.03, 597.030029297, -35.3633255, 149.1645823, 0.655051708221, -0.114582747221, -0.101673945785, -0.739892184734
2019-04-03 19:56:10.20,79816394, 0.02, -17.64, 263.03, 597.090026855, -35.3633261, 149.1645768, 0.655028581619, -0.114702105522, -0.10185213387, -0.739869713783
2019-04-03 19:56:10.30,79916354, 0.02, -17.66, 263.03, 597.150024414, -35.3633267, 149.1645715, 0.655003428459, -0.114827163517, -0.101890429854, -0.739867329597
2019-04-03 19:56:10.40,80016314, 0.0, -17.64, 263.03, 597.210021973, -35.3633272, 149.1645661, 0.65498238802, -0.114862777293, -0.101695664227, -0.739907205105
2019-04-03 19:56:10.50,80116274, 0.0, -17.62, 263.03, 597.270019531, -35.3633277, 149.1645606, 0.654993355274, -0.114745520055, -0.101566597819, -0.739933371544
2019-04-03 19:56:10.60,80216234, 0.01, -17.6, 263.03, 597.33001709, -35.3633283, 149.1645553, 0.655032873154, -0.114474907517, -0.101506255567, -0.739948630333
2019-04-03 19:56:10.70,80316194, 0.02, -17.59, 263.03, 597.400024414, -35.3633288, 149.1645499, 0.655054271221, -0.114340111613, -0.101558238268, -0.739943385124
2019-04-03 19:56:10.79,80416154, 0.02, -17.61, 263.03, 597.460021973, -35.3633292, 149.1645445, 0.655028164387, -0.114537708461, -0.101621627808, -0.739927232265
2019-04-03 19:56:10.89,80516114, 0.02, -17.66, 263.03, 597.520019531, -35.3633298, 149.164539, 0.654996991158, -0.114811696112, -0.101909711957, -0.739872694016
2019-04-03 19:56:10.99,80616074, 0.03, -17.69, 263.03, 597.58001709, -35.3633303, 149.1645337, 0.654981017113, -0.114970639348, -0.102156311274, -0.739828169346
2019-04-03 19:56:11.09,80716034, 0.04, -17.71, 263.03, 597.640014648, -35.3633309, 149.1645283, 0.654985547066, -0.115008018911, -0.102324642241, -0.739795148373
2019-04-03 19:56:11.19,80815994, 0.06, -17.71, 263.03, 597.710021973, -35.3633315, 149.1645227, 0.655001044273, -0.114973954856, -0.102484233677, -0.739764511585
2019-04-03 19:56:11.29,80915954, 0.06, -17.7, 263.03, 597.770019531, -35.363332, 149.1645174, 0.655024886131, -0.114852748811, -0.10241523385, -0.739771842957
2019-04-03 19:56:11.39,81015914, 0.06, -17.65, 263.03, 597.83001709, -35.3633325, 149.164512, 0.655056715012, -0.114573612809, -0.102139204741, -0.739825069904
2019-04-03 19:56:11.49,81115874, 0.06, -17.61, 263.03, 597.890014648, -35.3633331, 149.1645065, 0.655085742474, -0.114282108843, -0.101881168783, -0.739880084991
2019-04-03 19:56:11.59,81215834, 0.05, -17.58, 263.03, 597.950012207, -35.3633336, 149.1645012, 0.655091762543, -0.114102251828, -0.101666904986, -0.739931941032
2019-04-03 19:56:11.69,81315794, 0.05, -17.57, 263.02, 598.010009766, -35.363334, 149.1644957, 0.655075550079, -0.114067494869, -0.101586446166, -0.739962756634
2019-04-03 19:56:11.79,81415754, 0.08, -17.6, 263.02, 598.070007324, -35.3633346, 149.1644902, 0.655054688454, -0.114114403725, -0.101940184832, -0.739925324917
2019-04-03 19:56:11.89,81515714, 0.11, -17.64, 263.02, 598.140014648, -35.3633352, 149.1644849, 0.655034959316, -0.114192970097, -0.102365024388, -0.73987197876
2019-04-03 19:56:11.99,81615674, 0.13, -17.65, 263.02, 598.200012207, -35.3633357, 149.1644795, 0.65504783392, -0.114116460085, -0.102551013231, -0.73984670639
2019-04-03 19:56:12.10,81716467, 0.12, -17.63, 263.02, 598.260009766, -35.3633363, 149.1644739, 0.655050635338, -0.114055149257, -0.10244089365, -0.739868879318
2019-04-03 19:56:12.20,81816427, 0.1, -17.61, 263.01, 598.320007324, -35.3633368, 149.1644686, 0.655031561852, -0.114055782557, -0.10217461735, -0.739922523499
2019-04-03 19:56:12.30,81916387, 0.1, -17.6, 263.01, 598.380004883, -35.3633373, 149.1644632, 0.655013620853, -0.114025741816, -0.102074630558, -0.739956855774
2019-04-03 19:56:12.40,82016347, 0.08, -17.61, 263.01, 598.440002441, -35.3633377, 149.1644577, 0.654967010021, -0.11418017745, -0.101964235306, -0.739989459515
2019-04-03 19:56:12.50,82116307, 0.06, -17.62, 263.0, 598.5, -35.3633383, 149.1644523, 0.6549218297, -0.114334069192, -0.101920023561, -0.740011751652
2019-04-03 19:56:12.60,82216267, 0.05, -17.62, 263.0, 598.559997559, -35.3633388, 149.1644469, 0.654891014099, -0.114414520562, -0.101849317551, -0.74003636837
2019-04-03 19:56:12.70,82316227, 0.06, -17.6, 263.0, 598.619995117, -35.3633394, 149.1644414, 0.654901087284, -0.114257484674, -0.101862341166, -0.740049898624
2019-04-03 19:56:12.79,82416187, 0.08, -17.58, 263.0, 598.679992676, -35.3633399, 149.164436, 0.654922664165, -0.113990575075, -0.101799450815, -0.740080654621
2019-04-03 19:56:12.89,82516147, 0.1, -17.56, 262.99, 598.739990234, -35.3633405, 149.1644306, 0.654931664467, -0.11378711462, -0.101851679385, -0.74009680748
2019-04-03 19:56:12.99,82616107, 0.11, -17.56, 262.99, 598.809997559, -35.363341, 149.1644251, 0.654914677143, -0.11373129487, -0.101932398975, -0.740109264851
2019-04-03 19:56:13.09,82716067, 0.12, -17.57, 262.98, 598.869995117, -35.3633415, 149.1644198, 0.654889166355, -0.11372513324, -0.102002367377, -0.740123152733
2019-04-03 19:56:13.19,82816027, 0.1, -17.58, 262.98, 598.929992676, -35.3633419, 149.1644143, 0.654831409454, -0.113925792277, -0.101952426136, -0.740150332451
2019-04-03 19:56:13.29,82915987, 0.09, -17.58, 262.98, 598.989990234, -35.3633425, 149.1644088, 0.654798328876, -0.113990090787, -0.101894184947, -0.740177690983
2019-04-03 19:56:13.39,83015947, 0.1, -17.57, 262.97, 599.049987793, -35.3633431, 149.1644035, 0.654806613922, -0.113801710308, -0.101906053722, -0.740197718143
2019-04-03 19:56:13.49,83115907, 0.12, -17.56, 262.97, 599.109985352, -35.3633436, 149.1643981, 0.654812276363, -0.113639488816, -0.101958245039, -0.740210473537
2019-04-03 19:56:13.59,83215867, 0.12, -17.59, 262.97, 599.16998291, -35.3633441, 149.1643926, 0.654766023159, -0.11384691298, -0.102078594267, -0.740202903748
2019-04-03 19:56:13.69,83315827, 0.1, -17.61, 262.96, 599.229980469, -35.3633447, 149.1643872, 0.654700756073, -0.114147044718, -0.102105915546, -0.740210652351
2019-04-03 19:56:13.79,83415787, 0.09, -17.63, 262.96, 599.289978027, -35.3633452, 149.1643818, 0.654649376869, -0.114332728088, -0.10216126591, -0.740219831467
2019-04-03 19:56:13.89,83515747, 0.11, -17.63, 262.95, 599.349975586, -35.3633456, 149.1643763, 0.654638707638, -0.114214472473, -0.10226649791, -0.740232944489
2019-04-03 19:56:13.99,83615707, 0.13, -17.62, 262.95, 599.409973145, -35.3633461, 149.164371, 0.654638290405, -0.114023223519, -0.102381803095, -0.740246891975
2019-04-03 19:56:14.09,83715667, 0.16, -17.62, 262.94, 599.479980469, -35.3633467, 149.1643656, 0.654634177685, -0.113839700818, -0.102503627539, -0.740261852741
2019-04-03 19:56:14.20,83816460, 0.16, -17.62, 262.94, 599.539978027, -35.3633473, 149.16436, 0.654602825642, -0.113820113242, -0.102553963661, -0.740285694599
2019-04-03 19:56:14.30,83916420, 0.17, -17.62, 262.93, 599.599975586, -35.3633478, 149.1643547, 0.654572427273, -0.113799229264, -0.102541565895, -0.740317523479
2019-04-03 19:56:14.40,84016380, 0.16, -17.6, 262.93, 599.659973145, -35.3633484, 149.1643493, 0.654541432858, -0.113755859435, -0.102390050888, -0.740372478962
2019-04-03 19:56:14.50,84116340, 0.14, -17.59, 262.92, 599.719970703, -35.3633489, 149.1643439, 0.654494583607, -0.113801963627, -0.102188907564, -0.740434587002
2019-04-03 19:56:14.60,84216300, 0.13, -17.6, 262.92, 599.780029297, -35.3633494, 149.1643384, 0.654438793659, -0.113896369934, -0.102200470865, -0.740467786789
2019-04-03 19:56:14.70,84316260, 0.12, -17.62, 262.91, 599.840026855, -35.3633498, 149.164333, 0.654363751411, -0.114130184054, -0.102258510888, -0.740490078926
2019-04-03 19:56:14.80,84416220, 0.09, -17.64, 262.9, 599.900024414, -35.3633504, 149.1643276, 0.654282748699, -0.114408738911, -0.10218949616, -0.740528225899
2019-04-03 19:56:14.89,84516180, 0.07, -17.64, 262.9, 599.960021973, -35.363351, 149.1643221, 0.654229223728, -0.114510513842, -0.101984724402, -0.740588068962
2019-04-03 19:56:14.99,84616140, 0.05, -17.61, 262.89, 600.020019531, -35.3633515, 149.1643168, 0.654200851917, -0.114449307323, -0.101764060557, -0.740652918816
2019-04-03 19:56:15.09,84716100, 0.05, -17.59, 262.89, 600.08001709, -35.363352, 149.1643114, 0.654179275036, -0.11431787163, -0.101617917418, -0.740712285042
2019-04-03 19:56:15.19,84816060, 0.08, -17.58, 262.88, 600.140014648, -35.3633526, 149.1643058, 0.654178142548, -0.11407135427, -0.101700268686, -0.740739941597
2019-04-03 19:56:15.29,84916020, 0.13, -17.58, 262.87, 600.200012207, -35.3633531, 149.1643005, 0.654184818268, -0.113796524704, -0.101999357343, -0.740735292435
2019-04-03 19:56:15.39,85015980, 0.17, -17.59, 262.87, 600.260009766, -35.3633535, 149.1642951, 0.654165804386, -0.113681256771, -0.102358706295, -0.740720152855
2019-04-03 19:56:15.49,85115940, 0.18, -17.61, 262.86, 600.320007324, -35.363354, 149.1642896, 0.654107570648, -0.113788083196, -0.102523811162, -0.740732371807
2019-04-03 19:56:15.59,85215900, 0.16, -17.63, 262.85, 600.390014648, -35.3633546, 149.1642843, 0.654036998749, -0.11398512125, -0.102462209761, -0.740772902966
2019-04-03 19:56:15.69,85315860, 0.12, -17.63, 262.85, 600.450012207, -35.3633552, 149.1642788, 0.653964817524, -0.114208608866, -0.102183952928, -0.740840673447
2019-04-03 19:56:15.79,85415820, 0.09, -17.61, 262.84, 600.510009766, -35.3633557, 149.1642733, 0.653924882412, -0.11424266547, -0.101914606988, -0.740907788277
2019-04-03 19:56:15.89,85515780, 0.09, -17.58, 262.84, 600.570007324, -35.3633562, 149.164268, 0.653919100761, -0.11411998421, -0.101743921638, -0.740955233574
2019-04-03 19:56:15.99,85615740, 0.07, -17.56, 262.84, 600.630004883, -35.3633568, 149.1642626, 0.653897047043, -0.114065282047, -0.101519443095, -0.741013944149
2019-04-03 19:56:16.09,85715700, 0.07, -17.56, 262.83, 600.690002441, -35.3633572, 149.164257, 0.653867006302, -0.114080488682, -0.101454086602, -0.741047024727
2019-04-03 19:56:16.19,85815660, 0.07, -17.57, 262.83, 600.75, -35.3633577, 149.1642517, 0.653828859329, -0.114155724645, -0.101589687169, -0.741050481796
2019-04-03 19:56:16.30,85916453, 0.08, -17.62, 262.82, 600.809997559, -35.3633583, 149.1642463, 0.653754889965, -0.11443593353, -0.101924240589, -0.741026580334
2019-04-03 19:56:16.40,86016413, 0.07, -17.67, 262.82, 600.869995117, -35.3633589, 149.1642407, 0.653674066067, -0.114745467901, -0.102115668356, -0.741023719311
2019-04-03 19:56:16.50,86116373, 0.06, -17.67, 262.81, 600.929992676, -35.3633594, 149.1642354, 0.653630673885, -0.114845812321, -0.102074168622, -0.741052150726
2019-04-03 19:56:16.60,86216333, 0.05, -17.65, 262.81, 600.989990234, -35.3633599, 149.16423, 0.653619229794, -0.114760920405, -0.101886630058, -0.741101205349
2019-04-03 19:56:16.70,86316293, 0.04, -17.62, 262.8, 601.049987793, -35.3633604, 149.1642245, 0.653609275818, -0.114664949477, -0.101629279554, -0.741160213947
2019-04-03 19:56:16.80,86416253, 0.02, -17.6, 262.8, 601.109985352, -35.3633608, 149.1642191, 0.653580307961, -0.114688567817, -0.101372204721, -0.741217315197
2019-04-03 19:56:16.90,86516213, 0.0, -17.6, 262.8, 601.16998291, -35.3633614, 149.1642137, 0.653540313244, -0.114751860499, -0.101202897727, -0.741265833378
2019-04-03 19:56:16.99,86616173, 0.01, -17.59, 262.79, 601.229980469, -35.3633619, 149.1642082, 0.653509318829, -0.114691123366, -0.101243428886, -0.741297066212
2019-04-03 19:56:17.09,86716133, 0.03, -17.59, 262.78, 601.289978027, -35.3633625, 149.1642029, 0.653487026691, -0.114547200501, -0.101376593113, -0.741320729256
2019-04-03 19:56:17.19,86816093, 0.07, -17.59, 262.78, 601.349975586, -35.3633631, 149.1641974, 0.653486788273, -0.114292003214, -0.101631738245, -0.741325497627
2019-04-03 19:56:17.29,86916053, 0.11, -17.6, 262.77, 601.41998291, -35.3633636, 149.1641919, 0.653477370739, -0.114110887051, -0.101911783218, -0.741323173046
2019-04-03 19:56:17.39,87016013, 0.15, -17.63, 262.76, 601.479980469, -35.3633641, 149.1641866, 0.653438568115, -0.114117734134, -0.102307938039, -0.741301774979
2019-04-03 19:56:17.49,87115973, 0.17, -17.63, 262.76, 601.539978027, -35.3633647, 149.1641812, 0.653414845467, -0.114020548761, -0.102487206459, -0.741312861443
2019-04-03 19:56:17.59,87215933, 0.18, -17.6, 262.75, 601.599975586, -35.3633651, 149.1641756, 0.653416931629, -0.11381085217, -0.102361828089, -0.741360604763
2019-04-03 19:56:17.69,87315893, 0.17, -17.58, 262.75, 601.659973145, -35.3633656, 149.1641703, 0.65342015028, -0.113669671118, -0.102156877518, -0.741407632828
2019-04-03 19:56:17.79,87415853, 0.15, -17.56, 262.75, 601.719970703, -35.3633662, 149.1641649, 0.653405487537, -0.11369419843, -0.101913735271, -0.741450309753
2019-04-03 19:56:17.89,87515813, 0.11, -17.56, 262.75, 601.780029297, -35.3633668, 149.1641594, 0.653370082378, -0.113914981484, -0.101638875902, -0.74148529768
2019-04-03 19:56:17.99,87615773, 0.08, -17.56, 262.75, 601.840026855, -35.3633673, 149.164154, 0.653353273869, -0.11409586668, -0.101482011378, -0.741493821144
2019-04-03 19:56:18.09,87715733, 0.07, -17.57, 262.75, 601.900024414, -35.3633679, 149.1641486, 0.653348147869, -0.11421058327, -0.101443439722, -0.741485953331
2019-04-03 19:56:18.19,87815693, 0.07, -17.59, 262.75, 601.969970703, -35.3633684, 149.1641431, 0.653340876102, -0.114328704774, -0.101545251906, -0.741460204124
2019-04-03 19:56:18.30,87916486, 0.07, -17.61, 262.75, 602.030029297, -35.3633689, 149.1641377, 0.653314888477, -0.11449380219, -0.101705111563, -0.741435706615
2019-04-03 19:56:18.40,88016446, 0.07, -17.62, 262.75, 602.090026855, -35.3633695, 149.1641323, 0.653294444084, -0.114552743733, -0.1017607674, -0.741437017918
2019-04-03 19:56:18.50,88116406, 0.09, -17.64, 262.75, 602.150024414, -35.3633699, 149.1641268, 0.653278827667, -0.114538736641, -0.102005369961, -0.741419315338
2019-04-03 19:56:18.60,88216366, 0.11, -17.66, 262.74, 602.210021973, -35.3633704, 149.1641215, 0.653254628181, -0.114528752863, -0.102248772979, -0.741408646107
2019-04-03 19:56:18.70,88316326, 0.12, -17.67, 262.74, 602.270019531, -35.3633711, 149.1641161, 0.653207838535, -0.11460121721, -0.102329462767, -0.741427540779
2019-04-03 19:56:18.80,88416286, 0.12, -17.68, 262.73, 602.33001709, -35.3633716, 149.1641106, 0.653167665005, -0.114659957588, -0.102409102023, -0.741442859173
2019-04-03 19:56:18.90,88516246, 0.13, -17.68, 262.73, 602.390014648, -35.3633721, 149.1641052, 0.653140604496, -0.114649541676, -0.102461002767, -0.741461157799
2019-04-03 19:56:19.00,88616206, 0.13, -17.67, 262.72, 602.460021973, -35.3633727, 149.1640998, 0.653126120567, -0.11454103142, -0.102429263294, -0.741495013237
2019-04-03 19:56:19.09,88716166, 0.14, -17.65, 262.72, 602.520019531, -35.3633732, 149.1640943, 0.653129160404, -0.114362925291, -0.102387063205, -0.741525709629
2019-04-03 19:56:19.19,88816126, 0.14, -17.63, 262.72, 602.58001709, -35.3633736, 149.164089, 0.653137564659, -0.11422418803, -0.102272383869, -0.741555511951
2019-04-03 19:56:19.29,88916086, 0.14, -17.42, 262.72, 602.640014648, -35.3633742, 149.1640836, 0.653323411942, -0.112869843841, -0.101037703454, -0.741768419743
2019-04-03 19:56:19.39,89016046, 0.13, -16.62, 262.72, 602.700012207, -35.3633747, 149.1640782, 0.654016375542, -0.107755698264, -0.0964332297444, -0.742530763149
2019-04-03 19:56:19.49,89116006, 0.13, -15.47, 262.73, 602.75, -35.3633753, 149.1640727, 0.654984951019, -0.100269518793, -0.0898360833526, -0.743552446365
2019-04-03 19:56:19.59,89215966, 0.14, -14.34, 262.74, 602.799987793, -35.3633758, 149.1640674, 0.655895233154, -0.0929030776024, -0.0834807828069, -0.744447052479
2019-04-03 19:56:19.69,89315926, 0.16, -13.49, 262.75, 602.840026855, -35.3633763, 149.1640622, 0.656585633755, -0.087240986526, -0.0787640288472, -0.745037317276
2019-04-03 19:56:19.79,89415886, 0.18, -12.93, 262.77, 602.880004883, -35.3633768, 149.164057, 0.657078802586, -0.0834008082747, -0.0756878703833, -0.745361089706
2019-04-03 19:56:19.89,89515846, 0.21, -12.55, 262.79, 602.909973145, -35.3633772, 149.1640521, 0.657461047173, -0.0807977244258, -0.0736908316612, -0.745510816574
2019-04-03 19:56:19.99,89615806, 0.24, -12.24, 262.81, 602.940002441, -35.3633777, 149.1640471, 0.657826960087, -0.0785997882485, -0.0721165686846, -0.74557697773
2019-04-03 19:56:20.09,89715766, 0.27, -11.9, 262.84, 602.960021973, -35.3633783, 149.1640423, 0.658229291439, -0.0761761516333, -0.0703786686063, -0.745639562607
2019-04-03 19:56:20.19,89815726, 0.29, -11.47, 262.87, 602.989990234, -35.3633787, 149.1640375, 0.658680379391, -0.0732959657907, -0.0680764615536, -0.745743572712
2019-04-03 19:56:20.29,89915686, 0.28, -10.95, 262.9, 603.0, -35.3633792, 149.1640328, 0.659178495407, -0.0699145719409, -0.0650907233357, -0.745894730091
2019-04-03 19:56:20.40,90016479, 0.26, -10.37, 262.94, 603.020019531, -35.3633796, 149.1640282, 0.659695148468, -0.0662259981036, -0.0616130121052, -0.746069848537
2019-04-03 19:56:20.50,90116439, 0.25, -9.77, 262.98, 603.030029297, -35.36338, 149.1640237, 0.660219848156, -0.0623939819634, -0.0580947212875, -0.746218264103
2019-04-03 19:56:20.60,90216399, 0.25, -9.2, 263.01, 603.039978027, -35.3633805, 149.1640193, 0.660731434822, -0.0586626753211, -0.0548347532749, -0.746314883232
2019-04-03 19:56:20.70,90316359, 0.25, -8.66, 263.05, 603.049987793, -35.3633808, 149.1640151, 0.661234915257, -0.0551072955132, -0.0517297536135, -0.746361613274
2019-04-03 19:56:20.80,90416319, 0.23, -8.14, 263.1, 603.059997559, -35.3633812, 149.1640109, 0.661732077599, -0.0517495274544, -0.0486367046833, -0.746369242668
2019-04-03 19:56:20.90,90516279, 0.22, -7.61, 263.15, 603.070007324, -35.3633815, 149.1640069, 0.66223347187, -0.0483453534544, -0.0455526784062, -0.746347427368
2019-04-03 19:56:21.00,90616239, 0.22, -7.09, 263.19, 603.070007324, -35.363382, 149.1640029, 0.662728488445, -0.044976670295, -0.0425424091518, -0.746296346188
2019-04-03 19:56:21.10,90716199, 0.22, -6.55, 263.24, 603.08001709, -35.3633823, 149.1639992, 0.663232147694, -0.0414436087012, -0.0394191481173, -0.746224999428
2019-04-03 19:56:21.19,90816159, 0.21, -6.0, 263.29, 603.08001709, -35.3633826, 149.1639955, 0.663726806641, -0.0378973819315, -0.0362106822431, -0.746136307716
2019-04-03 19:56:21.29,90916119, 0.21, -5.45, 263.35, 603.090026855, -35.3633829, 149.1639918, 0.664218246937, -0.0343275442719, -0.0330631136894, -0.746017813683
2019-04-03 19:56:21.39,91016079, 0.21, -4.9, 263.4, 603.090026855, -35.3633832, 149.1639884, 0.664724171162, -0.0307282228023, -0.0298394095153, -0.745860040188
2019-04-03 19:56:21.49,91116039, 0.19, -4.32, 263.46, 603.090026855, -35.3633835, 149.1639851, 0.665247142315, -0.0270288232714, -0.0264207981527, -0.74566590786
2019-04-03 19:56:21.59,91215999, 0.16, -3.76, 263.53, 603.090026855, -35.3633838, 149.1639821, 0.665781199932, -0.0234993025661, -0.0229642298073, -0.745423257351
2019-04-03 19:56:21.69,91315959, 0.15, -3.15, 263.6, 603.099975586, -35.3633841, 149.1639789, 0.666330099106, -0.0196354538202, -0.0193521827459, -0.745147109032
2019-04-03 19:56:21.79,91415919, 0.11, -2.49, 263.66, 603.099975586, -35.3633843, 149.163976, 0.666825771332, -0.0155259910971, -0.0152671737596, -0.744895458221
2019-04-03 19:56:21.89,91515879, 0.03, -1.77, 263.7, 603.099975586, -35.3633844, 149.1639734, 0.667129099369, -0.0113233560696, -0.0105545362458, -0.744781315327
2019-04-03 19:56:21.99,91615839, -0.09, -1.01, 263.68, 603.099975586, -35.3633848, 149.1639707, 0.667033135891, -0.00713654048741, -0.00525577180088, -0.74497538805
2019-04-03 19:56:22.09,91715799, -0.26, -0.17, 263.57, 603.099975586, -35.363385, 149.1639683, 0.666374564171, -0.00267501920462, 0.000713964924216, -0.745612025261
2019-04-03 19:56:22.19,91815759, -0.47, 0.73, 263.4, 603.109985352, -35.3633851, 149.1639659, 0.665254771709, 0.00205054716207, 0.00737353274599, -0.746577203274
2019-04-03 19:56:22.29,91915719, -0.72, 1.77, 263.19, 603.109985352, -35.3633854, 149.1639638, 0.663875579834, 0.00734290387481, 0.0150119652972, -0.747656285763
2019-04-03 19:56:22.39,92015679, -1.03, 2.94, 262.98, 603.109985352, -35.3633856, 149.1639617, 0.662428975105, 0.0132751790807, 0.0237980466336, -0.748628973961
2019-04-03 19:56:22.50,92116472, -1.37, 4.11, 262.79, 603.109985352, -35.3633857, 149.16396, 0.661098301411, 0.0189833715558, 0.0327489934862, -0.749343812466
2019-04-03 19:56:22.60,92216432, -1.73, 5.04, 262.64, 603.109985352, -35.3633859, 149.1639583, 0.660094082355, 0.0230815391988, 0.0403984263539, -0.749740600586
2019-04-03 19:56:22.70,92316392, -2.09, 5.64, 262.56, 603.109985352, -35.3633861, 149.1639569, 0.659533560276, 0.0249365922064, 0.0462122485042, -0.749838709831
2019-04-03 19:56:22.80,92416352, -2.47, 5.92, 262.54, 603.109985352, -35.3633863, 149.1639558, 0.659434318542, 0.0245942790061, 0.0502862036228, -0.749675154686
2019-04-03 19:56:22.90,92516312, -2.87, 5.98, 262.57, 603.109985352, -35.3633865, 149.1639547, 0.659721016884, 0.0226959958673, 0.0532848834991, -0.749275565147
2019-04-03 19:56:23.00,92616272, -3.28, 5.95, 262.64, 603.109985352, -35.3633868, 149.1639539, 0.660262346268, 0.0200484860688, 0.0557784326375, -0.748692512512
2019-04-03 19:56:23.10,92716232, -3.7, 5.92, 262.73, 603.109985352, -35.3633869, 149.1639531, 0.660919487476, 0.0173981506377, 0.0583948716521, -0.747979164124
2019-04-03 19:56:23.20,92816192, -4.15, 5.93, 262.82, 603.109985352, -35.3633873, 149.1639526, 0.661582112312, 0.0148587720469, 0.0613702945411, -0.747209489346
2019-04-03 19:56:23.29,92916152, -4.6, 5.97, 262.91, 603.109985352, -35.3633875, 149.1639523, 0.662192285061, 0.0125176273286, 0.0645453631878, -0.746443986893
2019-04-03 19:56:23.39,93016112, -5.05, 6.01, 262.98, 603.109985352, -35.363388, 149.1639521, 0.662712097168, 0.0100511265919, 0.067703306675, -0.745739817619
2019-04-03 19:56:23.49,93116072, -5.5, 6.0, 263.04, 603.109985352, -35.3633884, 149.163952, 0.663120448589, 0.00733542162925, 0.0706022456288, -0.745139420033
2019-04-03 19:56:23.59,93216032, -5.95, 5.93, 263.08, 603.109985352, -35.3633887, 149.1639521, 0.663408458233, 0.00429262360558, 0.0731543302536, -0.744660496712
2019-04-03 19:56:23.69,93315992, -6.37, 5.8, 263.11, 603.109985352, -35.3633893, 149.1639521, 0.663578212261, 0.00100985856261, 0.0751328393817, -0.744323849678
2019-04-03 19:56:23.79,93415952, -6.73, 5.6, 263.12, 603.109985352, -35.3633899, 149.1639525, 0.663636863232, -0.0023999477271, 0.0762935951352, -0.744150340557
2019-04-03 19:56:23.89,93515912, -7.01, 5.35, 263.12, 603.109985352, -35.3633905, 149.1639528, 0.663590073586, -0.00570044480264, 0.076668612659, -0.744135499001
2019-04-03 19:56:23.99,93615872, -7.25, 5.07, 263.1, 603.109985352, -35.3633911, 149.1639533, 0.663442850113, -0.00886160042137, 0.0765930339694, -0.744243621826
2019-04-03 19:56:24.09,93715832, -7.47, 4.79, 263.08, 603.109985352, -35.3633918, 149.1639538, 0.663221120834, -0.0119410511106, 0.0764589831233, -0.744411945343
2019-04-03 19:56:24.19,93815792, -7.69, 4.55, 263.05, 603.109985352, -35.3633926, 149.1639544, 0.66293990612, -0.0147674428299, 0.0765360891819, -0.744603872299
2019-04-03 19:56:24.29,93915752, -7.89, 4.4, 262.99, 603.109985352, -35.3633935, 149.163955, 0.662478983402, -0.0168651100248, 0.0769700035453, -0.744924724102
2019-04-03 19:56:24.39,94015712, -8.01, 4.5, 262.58, 603.109985352, -35.3633944, 149.1639558, 0.659832000732, -0.0165787301958, 0.0783409401774, -0.747134208679
2019-04-03 19:56:24.49,94115672, -8.13, 4.81, 261.14, 603.109985352, -35.3633953, 149.1639566, 0.650489091873, -0.0142299309373, 0.0810858160257, -0.755040764809
2019-04-03 19:56:24.60,94216465, -8.49, 4.96, 258.1, 603.109985352, -35.3633963, 149.1639573, 0.630199849606, -0.0130863916129, 0.0846750661731, -0.771691024303
2019-04-03 19:56:24.70,94316425, -9.15, 4.59, 253.46, 603.109985352, -35.3633972, 149.1639583, 0.598222434521, -0.0156519692391, 0.0877944901586, -0.79635232687
2019-04-03 19:56:24.80,94416385, -9.97, 3.56, 247.43, 603.099975586, -35.3633984, 149.1639592, 0.554982423782, -0.02250081487, 0.0894924104214, -0.826728105545
2019-04-03 19:56:24.90,94516345, -10.77, 1.85, 240.35, 603.099975586, -35.3633995, 149.1639603, 0.501690745354, -0.0332565158606, 0.0892281159759, -0.859789848328
2019-04-03 19:56:25.00,94616305, -11.3, -0.39, 232.51, 603.099975586, -35.3634007, 149.1639615, -0.439934998751, 0.0466470383108, -0.0867878198624, 0.892608046532
2019-04-03 19:56:25.10,94716265, -11.4, -2.96, 224.17, 603.099975586, -35.363402, 149.1639626, -0.371683955193, 0.0612419731915, -0.082363717258, 0.922668218613
2019-04-03 19:56:25.20,94816225, -11.01, -5.59, 215.57, 603.099975586, -35.3634033, 149.1639638, -0.299278110266, 0.075547337532, -0.076416336, 0.948095858097
2019-04-03 19:56:25.29,94916185, -10.11, -8.05, 206.94, 603.099975586, -35.3634046, 149.163965, -0.2254986763, 0.0885525941849, -0.0691805258393, 0.967741131783
2019-04-03 19:56:25.39,95016145, -8.78, -10.18, 198.53, 603.099975586, -35.3634063, 149.1639663, -0.153252184391, 0.0996078774333, -0.0610411055386, 0.981257379055
2019-04-03 19:56:25.49,95116105, -7.19, -11.85, 190.56, 603.109985352, -35.3634078, 149.1639676, -0.0849372595549, 0.108331777155, -0.0526473633945, 0.989079475403
