Start,TimeUS,Roll,Pitch,Yaw,Alt,Lat,Lng,Q1,Q2,Q3,Q4
2019-04-03 18:19:29.50,74116175, 0.0, 0.0, 353.0, 584.090026855, -35.363261, 149.1652299, 0.998134791851, 0.0, 0.0, -0.0610485821962
2019-04-03 18:19:29.60,74216135, 0.0, 0.0, 353.0, 584.090026855, -35.363261, 149.1652299, 0.998134791851, 0.0, 0.0, -0.0610485821962
2019-04-03 18:19:29.69,74316095, 0.0, 0.0, 353.0, 584.090026855, -35.363261, 149.1652299, 0.998134791851, 0.0, 0.0, -0.0610485821962
2019-04-03 18:19:29.79,74416055, 0.0, 0.0, 353.0, 584.090026855, -35.363261, 149.1652299, 0.998134791851, 0.0, 0.0, -0.0610485821962
2019-04-03 18:19:29.89,74516015, 0.0, 0.0, 353.0, 584.090026855, -35.363261, 149.1652299, 0.998134791851, 0.0, 0.0, -0.0610485821962
2019-04-03 18:19:29.99,74615975, 0.0, 0.0, 353.0, 584.090026855, -35.363261, 149.1652299, 0.998134791851, 0.0, 0.0, -0.0610485821962
2019-04-03 18:19:30.09,74715935, 0.0, 0.0, 353.0, 584.090026855, -35.363261, 149.1652299, 0.998134791851, 0.0, 0.0, -0.0610485821962
2019-04-03 18:19:30.19,74815895, 0.0, 0.0, 353.0, 584.090026855, -35.363261, 149.1652299, 0.998134791851, 0.0, 0.0, -0.0610485821962
2019-04-03 18:19:30.29,74915855, 0.0, 0.0, 353.0, 584.090026855, -35.363261, 149.1652299, 0.998134791851, 0.0, 0.0, -0.0610485821962
2019-04-03 18:19:30.39,75015815, 0.0, 0.0, 353.0, 584.090026855, -35.363261, 149.1652299, 0.998134791851, 0.0, 0.0, -0.0610485821962
2019-04-03 18:19:30.49,75115775, 0.0, 0.0, 353.0, 584.090026855, -35.363261, 149.1652299, 0.998134791851, 0.0, 0.0, -0.0610485821962
2019-04-03 18:19:30.59,75215735, 0.0, 0.0, 353.0, 584.090026855, -35.363261, 149.1652299, 0.998134791851, 0.0, 0.0, -0.0610485821962
2019-04-03 18:19:30.69,75315695, 0.0, 0.0, 353.0, 584.090026855, -35.363261, 149.1652299, 0.998134791851, 0.0, 0.0, -0.0610485821962
2019-04-03 18:19:30.80,75416488, 0.0, 0.0, 353.0, 584.090026855, -35.363261, 149.1652299, 0.998134791851, 0.0, 0.0, -0.0610485821962
2019-04-03 18:19:30.90,75516448, 0.0, 0.0, 353.0, 584.090026855, -35.363261, 149.1652299, 0.998134791851, 0.0, 0.0, -0.0610485821962
2019-04-03 18:19:31.00,75616408, 0.0, 0.0, 353.0, 584.090026855, -35.363261, 149.1652299, 0.998134791851, 0.0, 0.0, -0.0610485821962
2019-04-03 18:19:31.10,75716368, 0.0, 0.0, 353.0, 584.090026855, -35.363261, 149.1652299, 0.998134791851, 0.0, 0.0, -0.0610485821962
2019-04-03 18:19:31.20,75816328, 0.0, 0.0, 353.0, 584.090026855, -35.363261, 149.1652299, 0.998134791851, 0.0, 0.0, -0.0610485821962
2019-04-03 18:19:31.30,75916288, 0.0, 0.0, 353.0, 584.090026855, -35.363261, 149.1652299, 0.998134791851, 0.0, 0.0, -0.0610485821962
2019-04-03 18:19:31.40,76016248, 0.0, 0.0, 353.0, 584.090026855, -35.363261, 149.1652299, 0.998134791851, 0.0, 0.0, -0.0610485821962
2019-04-03 18:19:31.50,76116208, 0.0, 0.0, 353.0, 584.090026855, -35.363261, 149.1652299, 0.998134791851, 0.0, 0.0, -0.0610485821962
2019-04-03 18:19:31.60,76216168, 0.0, 0.0, 353.0, 584.090026855, -35.363261, 149.1652299, 0.998134791851, 0.0, 0.0, -0.0610485821962
2019-04-03 18:19:31.69,76316128, 0.0, 0.0, 353.0, 584.090026855, -35.363261, 149.1652299, 0.998134791851, 0.0, 0.0, -0.0610485821962
2019-04-03 18:19:31.79,76416088, 0.0, 0.0, 353.0, 584.090026855, -35.363261, 149.1652299, 0.998134791851, 0.0, 0.0, -0.0610485821962
2019-04-03 18:19:31.89,76516048, 0.0, 0.0, 353.0, 584.090026855, -35.363261, 149.1652299, 0.998134791851, 0.0, 0.0, -0.0610485821962
2019-04-03 18:19:31.99,76616008, 0.0, 0.0, 353.0, 584.090026855, -35.363261, 149.1652299, 0.998134791851, 0.0, 0.0, -0.0610485821962
2019-04-03 18:19:32.09,76715968, 0.0, 0.0, 353.0, 584.090026855, -35.363261, 149.1652299, 0.998134791851, 0.0, 0.0, -0.0610485821962
2019-04-03 18:19:32.19,76815928, 0.0, 0.0, 353.0, 584.090026855, -35.363261, 149.1652299, 0.998134791851, 0.0, 0.0, -0.0610485821962
2019-04-03 18:19:32.29,76915888, 0.0, 0.0, 353.0, 584.090026855, -35.363261, 149.1652299, 0.998134791851, 0.0, 0.0, -0.0610485821962
2019-04-03 18:19:32.39,77015848, 0.0, 0.0, 353.0, 584.090026855, -35.363261, 149.1652299, 0.998134791851, 0.0, 0.0, -0.0610485821962
2019-04-03 18:19:32.49,77115808, 0.0, 0.0, 353.0, 584.090026855, -35.363261, 149.1652299, 0.998134791851, 0.0, 0.0, -0.0610485821962
2019-04-03 18:19:32.59,77215768, 0.0, 0.0, 353.0, 584.090026855, -35.363261, 149.1652299, 0.998134791851, 0.0, 0.0, -0.0610485821962
2019-04-03 18:19:32.69,77315728, 0.0, 0.0, 353.0, 584.090026855, -35.363261, 149.1652299, 0.998134791851, 0.0, 0.0, -0.0610485821962
2019-04-03 18:19:32.79,77415688, 0.0, 0.0, 353.0, 584.090026855, -35.363261, 149.1652299, 0.998134791851, 0.0, 0.0, -0.0610485821962
2019-04-03 18:19:32.90,77516481, 0.0, 0.0, 353.0, 584.090026855, -35.363261, 149.1652299, 0.998134791851, 0.0, 0.0, -0.0610485821962
2019-04-03 18:19:33.00,77616441, 0.0, 0.0, 353.0, 584.090026855, -35.363261, 149.1652299, 0.998134791851, 0.0, 0.0, -0.0610485821962
2019-04-03 18:19:33.10,77716401, 0.0, 0.0, 353.0, 584.090026855, -35.363261, 149.1652299, 0.998134791851, 0.0, 0.0, -0.0610485821962
2019-04-03 18:19:33.20,77816361, 0.0, 0.0, 353.0, 584.090026855, -35.363261, 149.1652299, 0.998134791851, 0.0, 0.0, -0.0610485821962
2019-04-03 18:19:33.30,77916321, 0.0, 0.0, 353.0, 584.090026855, -35.363261, 149.1652299, 0.998134791851, 0.0, 0.0, -0.0610485821962
2019-04-03 18:19:33.40,78016281, 0.0, 0.0, 353.0, 584.090026855, -35.363261, 149.1652299, 0.998134791851, 0.0, 0.0, -0.0610485821962
2019-04-03 18:19:33.50,78116241, 0.0, 0.0, 353.0, 584.090026855, -35.363261, 149.1652299, 0.998134791851, 0.0, 0.0, -0.0610485821962
2019-04-03 18:19:33.60,78216201, 0.0, 0.0, 353.0, 584.090026855, -35.363261, 149.1652299, 0.998134791851, 0.0, 0.0, -0.0610485821962
2019-04-03 18:19:33.70,78316161, 0.0, 0.0, 353.0, 584.090026855, -35.363261, 149.1652299, 0.998134791851, 0.0, 0.0, -0.0610486492515
2019-04-03 18:19:33.79,78416121, 0.0, 0.0, 353.0, 584.090026855, -35.363261, 149.1652299, 0.998134791851, 0.0, 0.0, -0.0610486753285
2019-04-03 18:19:33.89,78516081, 0.0, 0.0, 353.0, 584.090026855, -35.363261, 149.1652299, 0.998134791851, 0.0, 0.0, -0.0610486641526
2019-04-03 18:19:33.99,78616041, 0.0, 0.0, 353.0, 584.090026855, -35.363261, 149.1652299, 0.998134791851, 0.0, 0.0, -0.0610486753285
2019-04-03 18:19:34.09,78716001, 0.0, 0.0, 353.0, 584.090026855, -35.363261, 149.1652299, 0.998134791851, 0.0, 0.0, -0.0610486753285
2019-04-03 18:19:34.19,78815961, 0.0, 0.0, 353.0, 584.090026855, -35.363261, 149.1652299, 0.998134791851, 0.0, 0.0, -0.0610486753285
2019-04-03 18:19:34.29,78915921, 0.0, 0.0, 353.0, 584.090026855, -35.363261, 149.1652299, 0.998134791851, 0.0, 0.0, -0.0610486641526
2019-04-03 18:19:34.39,79015881, 0.0, 0.0, 353.0, 584.090026855, -35.363261, 149.1652299, 0.998134791851, 0.0, 0.0, -0.0610486753285
2019-04-03 18:19:34.49,79115841, 0.0, 0.0, 353.0, 584.099975586, -35.363261, 149.1652299, 0.998134791851, 0.0, 0.0, -0.0610486753285
2019-04-03 18:19:34.59,79215801, 0.0, 0.0, 353.0, 584.099975586, -35.363261, 149.1652299, 0.998134791851, 0.0, 0.0, -0.0610486753285
2019-04-03 18:19:34.69,79315761, 0.0, 0.0, 353.0, 584.109985352, -35.363261, 149.1652299, 0.998134791851, 0.0, 0.0, -0.0610486753285
2019-04-03 18:19:34.79,79415721, 0.0, 0.0, 353.0, 584.130004883, -35.363261, 149.1652299, 0.998134791851, 0.0, 0.0, -0.0610486753285
2019-04-03 18:19:34.89,79515681, 0.0, 0.0, 353.0, 584.150024414, -35.363261, 149.1652299, 0.998134791851, 0.0, 0.0, -0.0610486753285
2019-04-03 18:19:35.00,79616474, 0.0, 0.0, 353.0, 584.190002441, -35.363261, 149.1652299, 0.998134791851, 0.0, 0.0, -0.0610485970974
2019-04-03 18:19:35.10,79716434, 0.0, 0.0, 352.99, 584.229980469, -35.363261, 149.1652299, 0.998134672642, -5.73828219785e-05, -6.06343055551e-05, -0.0610506571829
2019-04-03 18:19:35.20,79816394, -0.07, -0.04, 352.99, 584.309997559, -35.363261, 149.1652299, 0.998133480549, -0.000664185441565, -0.000316923658829, -0.0610656067729
2019-04-03 18:19:35.30,79916354, -0.18, -0.08, 352.99, 584.440002441, -35.363261, 149.1652299, 0.998130738735, -0.00166388682555, -0.00067248439882, -0.0610883012414
2019-04-03 18:19:35.40,80016314, -0.27, -0.13, 352.99, 584.590026855, -35.363261, 149.1652299, 0.998126685619, -0.00246775592677, -0.00103791709989, -0.0611234344542
2019-04-03 18:19:35.50,80116274, -0.3, -0.15, 352.98, 584.75, -35.363261, 149.1652299, 0.998123526573, -0.00269627920352, -0.00118613545783, -0.0611610598862
2019-04-03 18:19:35.60,80216234, -0.26, -0.14, 352.98, 584.900024414, -35.363261, 149.1652299, 0.99812245369, -0.00237512378953, -0.0011475586798, -0.0611928999424
2019-04-03 18:19:35.70,80316194, -0.18, -0.12, 352.98, 585.059997559, -35.363261, 149.1652299, 0.998122274876, -0.00169704365544, -0.00100215210114, -0.0612210333347
2019-04-03 18:19:35.80,80416154, -0.12, -0.1, 352.97, 585.210021973, -35.363261, 149.1652299, 0.998121798038, -0.00117365980987, -0.000833984115161, -0.0612442344427
2019-04-03 18:19:35.89,80516114, -0.07, -0.09, 352.97, 585.369995117, -35.363261, 149.1652299, 0.998121261597, -0.000674760958645, -0.000817191903479, -0.0612608008087
2019-04-03 18:19:35.99,80616074, -0.03, -0.07, 352.97, 585.539978027, -35.363261, 149.1652298, 0.998120844364, -0.00031849151128, -0.000661009107716, -0.0612720251083
2019-04-03 18:19:36.09,80716034, 0.0, -0.05, 352.97, 585.719970703, -35.363261, 149.1652298, 0.998120605946, -6.55408002785e-05, -0.000448684673756, -0.0612783171237
2019-04-03 18:19:36.19,80815994, 0.0, -0.05, 352.97, 585.900024414, -35.363261, 149.1652298, 0.998121023178, 7.14427733328e-06, -0.000456317793578, -0.0612714625895
2019-04-03 18:19:36.29,80915954, 0.0, -0.05, 352.97, 586.08001709, -35.3632609, 149.1652298, 0.998121976852, -1.01233754322e-05, -0.000439754192485, -0.0612563826144
2019-04-03 18:19:36.39,81015914, 0.0, -0.02, 352.97, 586.270019531, -35.3632609, 149.1652298, 0.998122572899, -4.52137146567e-06, -0.000205291202292, -0.0612477473915
2019-04-03 18:19:36.49,81115874, 0.01, 0.0, 352.97, 586.460021973, -35.3632609, 149.1652298, 0.998122870922, 0.000122031626233, 3.06868641928e-05, -0.0612434744835
2019-04-03 18:19:36.59,81215834, 0.01, 0.03, 352.97, 586.659973145, -35.3632609, 149.1652298, 0.998123168945, 0.00016408166266, 0.000255806808127, -0.0612371563911
2019-04-03 18:19:36.69,81315794, 0.01, 0.04, 352.97, 586.849975586, -35.3632609, 149.1652298, 0.998123764992, 0.000149589861394, 0.000413276604377, -0.0612273700535
2019-04-03 18:19:36.79,81415754, 0.03, 0.03, 352.98, 587.049987793, -35.3632609, 149.1652298, 0.99812412262, 0.000294814904919, 0.0002898145176, -0.0612214580178
2019-04-03 18:19:36.89,81515714, 0.04, 0.01, 352.97, 587.25, -35.3632609, 149.1652298, 0.998123943806, 0.000431193067925, 6.19874117547e-05, -0.0612243227661
2019-04-03 18:19:36.99,81615674, 0.05, 0.0, 352.97, 587.460021973, -35.3632608, 149.1652298, 0.998123049736, 0.000498212059028, 1.27119619719e-05, -0.0612382404506
2019-04-03 18:19:37.10,81716467, 0.05, 0.01, 352.97, 587.66998291, -35.3632608, 149.1652298, 0.998121917248, 0.000511001329869, 6.43909224891e-05, -0.0612566545606
2019-04-03 18:19:37.20,81816427, 0.04, 0.02, 352.97, 587.869995117, -35.3632608, 149.1652297, 0.998120486736, 0.000377715652576, 0.000197130313609, -0.061280246824
2019-04-03 18:19:37.30,81916387, 0.03, 0.02, 352.97, 588.08001709, -35.3632608, 149.1652297, 0.998119294643, 0.000327758665662, 0.000228287986829, -0.0613008737564
2019-04-03 18:19:37.40,82016347, 0.0, 0.0, 352.96, 588.289978027, -35.3632608, 149.1652297, 0.998117923737, 5.98722253926e-05, 7.54839347792e-05, -0.061324223876
2019-04-03 18:19:37.50,82116307, -0.02, 0.0, 352.96, 588.5, -35.3632608, 149.1652297, 0.998116374016, -0.000203470786801, -7.04195626895e-05, -0.0613484755158
2019-04-03 18:19:37.60,82216267, -0.04, 0.0, 352.96, 588.719970703, -35.3632608, 149.1652297, 0.998114585876, -0.000419362622779, -3.10287432512e-05, -0.0613768473268
2019-04-03 18:19:37.70,82316227, -0.04, 0.0, 352.95, 588.929992676, -35.3632608, 149.1652297, 0.998113274574, -0.000405835482525, 2.39777073148e-05, -0.0613988116384
2019-04-03 18:19:37.80,82416187, -0.04, 0.01, 352.95, 589.140014648, -35.3632608, 149.1652297, 0.998112142086, -0.000351312599378, 0.000139536015922, -0.0614168159664
2019-04-03 18:19:37.90,82516147, -0.02, 0.01, 352.95, 589.359985352, -35.3632608, 149.1652297, 0.998111367226, -0.000246041716309, 0.000156306574354, -0.0614303722978
2019-04-03 18:19:37.99,82616107, -0.02, 0.0, 352.95, 589.58001709, -35.3632608, 149.1652297, 0.998110949993, -0.000226893942454, -2.13752282434e-05, -0.0614367499948
2019-04-03 18:19:38.09,82716067, -0.03, -0.03, 352.95, 589.799987793, -35.3632607, 149.1652297, 0.998110413551, -0.000289091578452, -0.000260803208221, -0.0614449419081
2019-04-03 18:19:38.19,82816027, -0.06, -0.06, 352.95, 590.020019531, -35.3632607, 149.1652297, 0.998109102249, -0.000593464763369, -0.000500068941619, -0.0614625178277
2019-04-03 18:19:38.29,82915987, -0.08, -0.05, 352.94, 590.239990234, -35.3632607, 149.1652297, 0.998107612133, -0.000761958537623, -0.000459051399957, -0.0614855214953
2019-04-03 18:19:38.39,83015947, -0.07, -0.03, 352.94, 590.460021973, -35.3632607, 149.1652296, 0.998105883598, -0.000673823757097, -0.00027722743107, -0.0615153387189
2019-04-03 18:19:38.49,83115907, -0.05, -0.02, 352.94, 590.679992676, -35.3632607, 149.1652296, 0.998104035854, -0.000518897839356, -0.000159760311362, -0.0615474805236
2019-04-03 18:19:38.59,83215867, -0.05, -0.04, 352.93, 590.900024414, -35.3632607, 149.1652296, 0.99810218811, -0.000508746306878, -0.000346523942426, -0.0615769065917
2019-04-03 18:19:38.69,83315827, -0.07, -0.07, 352.93, 591.119995117, -35.3632607, 149.1652296, 0.99809974432, -0.000709536019713, -0.000585511268582, -0.0616130009294
2019-04-03 18:19:38.79,83415787, -0.08, -0.09, 352.93, 591.349975586, -35.3632607, 149.1652296, 0.998097836971, -0.000796637788881, -0.000814938393887, -0.061640188098
2019-04-03 18:19:38.89,83515747, -0.06, -0.11, 352.92, 591.570007324, -35.3632607, 149.1652296, 0.998096287251, -0.000635567645077, -0.000922691600863, -0.061665661633
2019-04-03 18:19:38.99,83615707, -0.03, -0.09, 352.92, 591.799987793, -35.3632607, 149.1652294, 0.998094499111, -0.000338738958817, -0.000806526688393, -0.0616986490786
2019-04-03 18:19:39.09,83715667, 0.0, -0.07, 352.92, 592.020019531, -35.3632607, 149.1652294, 0.998092651367, 5.2763457461e-06, -0.000666390522383, -0.0617305934429
2019-04-03 18:19:39.20,83816460, 0.01, -0.06, 352.91, 592.25, -35.3632605, 149.1652294, 0.998091101646, 0.000123104939121, -0.00056596432114, -0.0617563910782
2019-04-03 18:19:39.30,83916420, 0.02, -0.04, 352.91, 592.479980469, -35.3632605, 149.1652294, 0.998089373112, 0.000226384945563, -0.000422318262281, -0.0617848262191
2019-04-03 18:19:39.40,84016380, 0.03, -0.03, 352.91, 592.700012207, -35.3632605, 149.1652293, 0.998087644577, 0.000293357821647, -0.000280946900602, -0.0618134327233
2019-04-03 18:19:39.50,84116340, 0.03, -0.01, 352.9, 592.929992676, -35.3632605, 149.1652293, 0.998085796833, 0.000328239664668, -0.000129220250528, -0.0618432685733
2019-04-03 18:19:39.60,84216300, 0.04, -0.01, 352.9, 593.159973145, -35.3632605, 149.1652293, 0.99808382988, 0.000361270620488, -0.000123412450193, -0.0618754699826
2019-04-03 18:19:39.70,84316260, 0.03, -0.02, 352.9, 593.390014648, -35.3632605, 149.1652293, 0.998082101345, 0.000316309684422, -0.000255484541412, -0.0619031041861
2019-04-03 18:19:39.80,84416220, 0.0, -0.04, 352.89, 593.609985352, -35.3632605, 149.1652293, 0.99808049202, -8.80334573594e-06, -0.00041772579425, -0.0619292631745
2019-04-03 18:19:39.90,84516180, -0.02, -0.03, 352.89, 593.840026855, -35.3632605, 149.1652293, 0.998078763485, -0.000257153937127, -0.000273017823929, -0.0619570501149
2019-04-03 18:19:40.00,84616140, -0.03, 0.0, 352.89, 594.070007324, -35.3632605, 149.1652293, 0.998077094555, -0.000290478172246, 3.96950599679e-05, -0.061983641237
2019-04-03 18:19:40.09,84716100, -0.02, 0.04, 352.89, 594.299987793, -35.3632604, 149.1652293, 0.998075723648, -0.00018147737137, 0.000373096670955, -0.0620055086911
2019-04-03 18:19:40.19,84816060, 0.01, 0.07, 352.88, 594.530029297, -35.3632604, 149.1652293, 0.998074054718, 0.000158484617714, 0.000660594203509, -0.0620304457843
2019-04-03 18:19:40.29,84916020, 0.06, 0.08, 352.88, 594.760009766, -35.3632604, 149.1652293, 0.998071730137, 0.000645801890641, 0.000723462202586, -0.0620634220541
2019-04-03 18:19:40.39,85015980, 0.11, 0.07, 352.87, 594.989990234, -35.3632604, 149.1652293, 0.998069286346, 0.00105546892155, 0.000557483930606, -0.0620991513133
2019-04-03 18:19:40.49,85115940, 0.13, 0.05, 352.87, 595.219970703, -35.3632604, 149.1652293, 0.998066723347, 0.00119096389972, 0.000404394580983, -0.0621388964355
2019-04-03 18:19:40.59,85215900, 0.1, 0.03, 352.87, 595.450012207, -35.3632604, 149.1652293, 0.998065233231, 0.000950213579927, 0.000280014326563, -0.0621673204005
2019-04-03 18:19:40.69,85315860, 0.05, 0.03, 352.86, 595.679992676, -35.3632604, 149.1652293, 0.998064160347, 0.000536920910235, 0.000286520342343, -0.0621899813414
2019-04-03 18:19:40.79,85415820, 0.01, 0.04, 352.86, 595.91998291, -35.3632604, 149.1652293, 0.99806278944, 0.000191402519704, 0.000413886591559, -0.0622134432197
2019-04-03 18:19:40.89,85515780, 0.0, 0.07, 352.86, 596.150024414, -35.3632604, 149.1652293, 0.998061418533, 7.0614318247e-05, 0.000618762278464, -0.0622333176434
2019-04-03 18:19:40.99,85615740, -0.01, 0.09, 352.86, 596.380004883, -35.3632604, 149.1652293, 0.998059868813, -4.6138149628e-05, 0.000869953131769, -0.0622553415596
2019-04-03 18:19:41.09,85715700, -0.02, 0.12, 352.85, 596.609985352, -35.3632604, 149.1652293, 0.998057842255, -0.00012692665041, 0.00113333703484, -0.0622835047543
2019-04-03 18:19:41.19,85815660, -0.02, 0.13, 352.85, 596.849975586, -35.3632604, 149.1652293, 0.998055815697, -0.000104289276351, 0.00119639548939, -0.062315043062
2019-04-03 18:19:41.30,85916453, -0.01, 0.09, 352.85, 597.08001709, -35.3632604, 149.1652293, 0.998054802418, -8.26753384899e-05, 0.000816307379864, -0.0623369887471
2019-04-03 18:19:41.40,86016413, -0.02, 0.03, 352.84, 597.309997559, -35.3632604, 149.1652293, 0.998053491116, -0.000203335410333, 0.00030003770371, -0.0623633340001
2019-04-03 18:19:41.50,86116373, -0.04, 0.01, 352.84, 597.549987793, -35.3632604, 149.1652293, 0.998052179813, -0.000370768073481, 0.000115088972962, -0.062383711338
2019-04-03 18:19:41.60,86216333, -0.05, 0.01, 352.84, 597.780029297, -35.3632604, 149.1652293, 0.998051047325, -0.000493011029903, 0.000178420828888, -0.0624006167054
2019-04-03 18:19:41.70,86316293, -0.06, 0.04, 352.84, 598.010009766, -35.3632604, 149.1652293, 0.998049974442, -0.000567139999475, 0.000421497708885, -0.0624161139131
2019-04-03 18:19:41.80,86416253, -0.09, 0.06, 352.84, 598.239990234, -35.3632604, 149.1652293, 0.998048484325, -0.000775734311901, 0.000605344714131, -0.0624369569123
2019-04-03 18:19:41.90,86516213, -0.11, 0.07, 352.83, 598.479980469, -35.3632604, 149.1652293, 0.998046696186, -0.000956857693382, 0.000686695449986, -0.0624613650143
2019-04-03 18:19:42.00,86616173, -0.1, 0.07, 352.83, 598.710021973, -35.3632604, 149.1652293, 0.998045146465, -0.000895469333045, 0.000741676136386, -0.0624860934913
2019-04-03 18:19:42.09,86716133, -0.07, 0.08, 352.83, 598.940002441, -35.3632604, 149.1652293, 0.998043119907, -0.000636173703242, 0.000748978753109, -0.062521673739
2019-04-03 18:19:42.19,86816093, -0.03, 0.08, 352.82, 599.179992676, -35.3632604, 149.1652293, 0.99804097414, -0.00026661233278, 0.000716462323908, -0.0625593215227
2019-04-03 18:19:42.29,86916053, 0.0, 0.07, 352.82, 599.409973145, -35.3632604, 149.1652293, 0.998038589954, 0.000128386716824, 0.000686314480845, -0.0625976398587
2019-04-03 18:19:42.39,87016013, 0.05, 0.05, 352.81, 599.640014648, -35.3632604, 149.1652293, 0.998036205769, 0.000510134792421, 0.000427914550528, -0.0626363903284
2019-04-03 18:19:42.49,87115973, 0.09, 0.04, 352.81, 599.869995117, -35.3632605, 149.1652293, 0.998033702374, 0.000859118648805, 0.000308324670186, -0.0626736059785
2019-04-03 18:19:42.59,87215933, 0.11, 0.05, 352.8, 600.099975586, -35.3632605, 149.1652293, 0.998031318188, 0.000994887435809, 0.000424200668931, -0.0627083182335
2019-04-03 18:19:42.69,87315893, 0.09, 0.08, 352.8, 600.320007324, -35.3632605, 149.1652293, 0.998029232025, 0.000885714078322, 0.000665390514769, -0.062740534544
2019-04-03 18:19:42.79,87415853, 0.06, 0.11, 352.8, 600.539978027, -35.3632605, 149.1652293, 0.998027563095, 0.000604120781645, 0.000935380638111, -0.0627672672272
2019-04-03 18:19:42.89,87515813, 0.01, 0.12, 352.79, 600.75, -35.3632605, 149.1652293, 0.99802583456, 0.000194800581085, 0.00110234436579, -0.0627947971225
2019-04-03 18:19:42.99,87615773, -0.01, 0.11, 352.79, 600.960021973, -35.3632605, 149.1652293, 0.998024106026, -8.00946145318e-05, 0.00104586302768, -0.0628234967589
2019-04-03 18:19:43.09,87715733, -0.02, 0.09, 352.79, 601.159973145, -35.3632605, 149.1652293, 0.998022794724, -0.000144373436342, 0.000847455114126, -0.0628472268581
2019-04-03 18:19:43.19,87815693, -0.01, 0.05, 352.79, 601.349975586, -35.3632605, 149.1652293, 0.998021781445, -0.000140622199979, 0.000515568361152, -0.0628668144345
2019-04-03 18:19:43.30,87916486, -0.02, 0.02, 352.78, 601.530029297, -35.3632605, 149.1652293, 0.998020887375, -0.000186342425877, 0.000232658407185, -0.0628828108311
2019-04-03 18:19:43.40,88016446, -0.03, 0.0, 352.78, 601.700012207, -35.3632605, 149.1652293, 0.998019993305, -0.000289419374894, 8.40721550048e-05, -0.0628968626261
2019-04-03 18:19:43.50,88116406, -0.01, -0.01, 352.78, 601.849975586, -35.3632607, 149.1652293, 0.998018801212, -0.000148780003656, -0.00011189707584, -0.0629163980484
2019-04-03 18:19:43.60,88216366, 0.0, -0.04, 352.78, 602.0, -35.3632607, 149.1652293, 0.998017191887, 2.54520928138e-05, -0.000368769920897, -0.0629417598248
2019-04-03 18:19:43.70,88316326, 0.01, -0.05, 352.77, 602.140014648, -35.3632607, 149.1652293, 0.998015165329, 6.15232056589e-05, -0.000518027809449, -0.0629717335105
2019-04-03 18:19:43.80,88416286, 0.01, -0.06, 352.77, 602.260009766, -35.3632607, 149.1652293, 0.998013198376, 0.000127095190692, -0.000590538722463, -0.0630024671555
2019-04-03 18:19:43.90,88516246, 0.02, -0.06, 352.77, 602.369995117, -35.3632607, 149.1652293, 0.998011231422, 0.000184642689419, -0.000538704509381, -0.0630344226956
2019-04-03 18:19:44.00,88616206, 0.03, -0.04, 352.76, 602.460021973, -35.3632607, 149.1652293, 0.998009264469, 0.000243163187406, -0.000423949299147, -0.063065610826
2019-04-03 18:19:44.10,88716166, 0.04, -0.03, 352.76, 602.549987793, -35.3632607, 149.1652293, 0.998007237911, 0.000340777187375, -0.000362310587661, -0.0630975365639
2019-04-03 18:19:44.19,88816126, 0.04, -0.04, 352.76, 602.619995117, -35.3632607, 149.1652293, 0.998005211353, 0.000361046317266, -0.000377367628971, -0.0631296411157
2019-04-03 18:19:44.29,88916086, 0.04, -0.02, 352.75, 602.690002441, -35.3632607, 149.1652293, 0.998003542423, 0.000340359663824, -0.000279379310086, -0.063156247139
2019-04-03 18:19:44.39,89016046, 0.01, -0.02, 352.75, 602.739990234, -35.3632607, 149.1652293, 0.998001754284, 0.000145703117596, -0.000221572961891, -0.0631865337491
2019-04-03 18:19:44.49,89116006, -0.01, -0.03, 352.75, 602.789978027, -35.3632607, 149.1652293, 0.997999668121, -0.000107113351987, -0.000276808568742, -0.0632186383009
2019-04-03 18:19:44.59,89215966, -0.02, -0.05, 352.74, 602.83001709, -35.3632607, 149.1652293, 0.99799734354, -0.000278062187135, -0.000461813586298, -0.0632536411285
2019-04-03 18:19:44.69,89315926, -0.03, -0.11, 352.74, 602.869995117, -35.3632608, 149.1652293, 0.997994959354, -0.000399849697715, -0.00100790720899, -0.0632846355438
2019-04-03 18:19:44.79,89415886, -0.04, -0.32, 352.73, 602.900024414, -35.3632608, 149.1652293, 0.99798899889, -0.000535150058568, -0.00282393884845, -0.0633229166269
2019-04-03 18:19:44.89,89515846, -0.02, -0.78, 352.73, 602.91998291, -35.3632608, 149.1652293, 0.997968137264, -0.000640804995783, -0.00678062438965, -0.0633498579264
2019-04-03 18:19:44.99,89615806, 0.0, -1.48, 352.73, 602.940002441, -35.3632607, 149.1652293, 0.99790596962, -0.000740848190617, -0.0129799144343, -0.063360825181
2019-04-03 18:19:45.09,89715766, 0.06, -2.38, 352.73, 602.960021973, -35.3632607, 149.1652293, 0.997773110867, -0.000796414271463, -0.0208369642496, -0.0633564889431
2019-04-03 18:19:45.19,89815726, 0.11, -3.37, 352.73, 602.969970703, -35.3632605, 149.1652293, 0.997556865215, -0.000896032724995, -0.0294845178723, -0.0633258074522
2019-04-03 18:19:45.29,89915686, 0.13, -4.28, 352.73, 602.989990234, -35.3632604, 149.1652293, 0.997294664383, -0.0011947901221, -0.0373692512512, -0.0632889419794
2019-04-03 18:19:45.40,90016479, 0.13, -5.0, 352.73, 603.0, -35.3632604, 149.1652292, 0.997040748596, -0.00160441198386, -0.043652407825, -0.0632590800524
2019-04-03 18:19:45.50,90116439, 0.13, -5.52, 352.73, 603.010009766, -35.3632601, 149.1652292, 0.996834099293, -0.00184910814278, -0.0481622666121, -0.0632353872061
2019-04-03 18:19:45.60,90216399, 0.15, -5.93, 352.73, 603.020019531, -35.3632598, 149.1652292, 0.996654450893, -0.00194418267347, -0.0517581775784, -0.0632237941027
2019-04-03 18:19:45.70,90316359, 0.16, -6.29, 352.73, 603.020019531, -35.3632593, 149.1652291, 0.996487081051, -0.00205010245554, -0.0548894628882, -0.0632169246674
2019-04-03 18:19:45.80,90416319, 0.15, -6.65, 352.72, 603.030029297, -35.363259, 149.1652291, 0.996310651302, -0.00229695951566, -0.05799587816, -0.0632165744901
2019-04-03 18:19:45.90,90516279, 0.15, -7.04, 352.72, 603.030029297, -35.3632585, 149.1652289, 0.996106088161, -0.00258572609164, -0.0613819360733, -0.0632323026657
2019-04-03 18:19:46.00,90616239, 0.14, -7.46, 352.72, 603.039978027, -35.3632579, 149.1652289, 0.995870113373, -0.00289908493869, -0.0650499537587, -0.0632679462433
2019-04-03 18:19:46.10,90716199, 0.14, -7.83, 352.71, 603.039978027, -35.3632572, 149.1652288, 0.995650351048, -0.00311568938196, -0.0682968199253, -0.0632945224643
2019-04-03 18:19:46.20,90816159, 0.13, -8.12, 352.71, 603.039978027, -35.3632565, 149.1652287, 0.995474398136, -0.00335004134104, -0.0707835257053, -0.0633179396391
2019-04-03 18:19:46.29,90916119, 0.13, -8.33, 352.7, 603.049987793, -35.3632556, 149.1652286, 0.99534124136, -0.00349147152156, -0.0726007521152, -0.0633462369442
2019-04-03 18:19:46.39,91016079, 0.12, -8.49, 352.7, 603.049987793, -35.3632548, 149.1652284, 0.995236873627, -0.00361064937897, -0.0739785432816, -0.0633852481842
2019-04-03 18:19:46.49,91116039, 0.11, -8.62, 352.69, 603.049987793, -35.3632538, 149.1652284, 0.995150029659, -0.00380334467627, -0.0750964358449, -0.0634233951569
2019-04-03 18:19:46.59,91215999, 0.08, -8.79, 352.69, 603.049987793, -35.3632529, 149.1652283, 0.995031774044, -0.00411852682009, -0.0765980035067, -0.0634631887078
2019-04-03 18:19:46.69,91315959, 0.17, -9.02, 352.74, 603.049987793, -35.3632518, 149.1652281, 0.994907021523, -0.00342538719997, -0.0786417722702, -0.0629587322474
2019-04-03 18:19:46.79,91415919, 0.26, -9.34, 353.02, 603.049987793, -35.3632506, 149.1652279, 0.994840979576, -0.00263980170712, -0.0814148634672, -0.0604653768241
2019-04-03 18:19:46.89,91515879, 0.24, -9.72, 353.51, 603.049987793, -35.3632494, 149.1652278, 0.994816124439, -0.00269893580116, -0.0847412347794, -0.0561476834118
2019-04-03 18:19:46.99,91615839, 0.09, -10.15, 354.12, 603.059997559, -35.3632481, 149.1652275, 0.994769275188, -0.00374856358394, -0.0884445756674, -0.0509662255645
2019-04-03 18:19:47.09,91715799, -0.13, -10.58, 354.73, 603.059997559, -35.3632468, 149.1652274, 0.994676113129, -0.00539313070476, -0.0921297520399, -0.0458529628813
2019-04-03 18:19:47.19,91815759, -0.37, -11.01, 355.25, 603.059997559, -35.3632453, 149.1652273, 0.994510233402, -0.00726738432422, -0.0957654863596, -0.04154060781
2019-04-03 18:19:47.29,91915719, -0.59, -11.42, 355.62, 603.049987793, -35.3632439, 149.165227, 0.994275569916, -0.00892558973283, -0.0992782264948, -0.0384741611779
2019-04-03 18:19:47.39,92015679, -0.74, -11.83, 355.82, 603.049987793, -35.3632422, 149.1652269, 0.993963122368, -0.0101831210777, -0.102830670774, -0.0368718840182
2019-04-03 18:19:47.50,92116472, -0.79, -12.27, 355.85, 603.049987793, -35.3632406, 149.1652265, 0.993569731712, -0.0107974316925, -0.106565520167, -0.0366934612393
2019-04-03 18:19:47.60,92216432, -0.76, -12.68, 355.73, 603.049987793, -35.3632389, 149.1652264, 0.993142306805, -0.0107348524034, -0.110131964087, -0.037737198174
2019-04-03 18:19:47.70,92316392, -0.64, -13.08, 355.49, 603.049987793, -35.3632371, 149.165226, 0.992683231831, -0.0100745847449, -0.113597862422, -0.0396746061742
2019-04-03 18:19:47.80,92416352, -0.48, -13.47, 355.19, 603.049987793, -35.3632352, 149.1652259, 0.992192149162, -0.00908007286489, -0.117032319307, -0.042139839381
2019-04-03 18:19:47.90,92516312, -0.29, -13.88, 354.86, 603.049987793, -35.3632331, 149.1652255, 0.991659045219, -0.00799138750881, -0.120600149035, -0.044767126441
2019-04-03 18:19:48.00,92616272, -0.12, -14.27, 354.55, 603.049987793, -35.3632311, 149.1652253, 0.991125702858, -0.00700534926727, -0.124053500593, -0.0472388714552
2019-04-03 18:19:48.10,92716232, 0.0, -14.62, 354.29, 603.049987793, -35.3632289, 149.165225, 0.990638673306, -0.00628659827635, -0.127127796412, -0.0493356361985
2019-04-03 18:19:48.20,92816192, 0.07, -14.89, 354.1, 603.049987793, -35.3632268, 149.1652246, 0.990258038044, -0.00598889077082, -0.129465803504, -0.0509099140763
2019-04-03 18:19:48.30,92916152, 0.11, -15.07, 353.98, 603.049987793, -35.3632244, 149.1652243, 0.989999711514, -0.00589974131435, -0.131051272154, -0.0518780909479
2019-04-03 18:19:48.39,93016112, 0.11, -15.2, 353.93, 603.039978027, -35.363222, 149.165224, 0.989825308323, -0.00604554777965, -0.132199853659, -0.0522732250392
2019-04-03 18:19:48.49,93116072, 0.08, -15.31, 353.95, 603.039978027, -35.3632196, 149.1652236, 0.98970323801, -0.00630805641413, -0.133144915104, -0.0521547198296
2019-04-03 18:19:48.59,93216032, 0.04, -15.42, 354.01, 603.039978027, -35.363217, 149.1652232, 0.989605307579, -0.0066527351737, -0.134050160646, -0.05164995417
2019-04-03 18:19:48.69,93315992, -0.02, -15.52, 354.11, 603.039978027, -35.3632143, 149.165223, 0.989528357983, -0.00714192073792, -0.134868741035, -0.0509223677218
2019-04-03 18:19:48.79,93415952, -0.09, -15.63, 354.21, 603.039978027, -35.3632117, 149.1652226, 0.989436507225, -0.00772889377549, -0.135803967714, -0.0501286163926
2019-04-03 18:19:48.89,93515912, -0.15, -15.74, 354.31, 603.039978027, -35.3632088, 149.1652222, 0.989348351955, -0.00815605279058, -0.136702537537, -0.0493528991938
2019-04-03 18:19:48.99,93615872, -0.19, -15.84, 354.39, 603.039978027, -35.3632061, 149.1652219, 0.989261209965, -0.00846191123128, -0.137545034289, -0.0487036295235
2019-04-03 18:19:49.09,93715832, -0.23, -15.91, 354.44, 603.039978027, -35.3632032, 149.1652215, 0.989187955856, -0.00875640846789, -0.138201922178, -0.0482782199979
2019-04-03 18:19:49.19,93815792, -0.26, -15.98, 354.46, 603.039978027, -35.3632002, 149.1652211, 0.989113807678, -0.00901599600911, -0.138777717948, -0.0480977781117
2019-04-03 18:19:49.29,93915752, -0.28, -16.05, 354.46, 603.039978027, -35.3631972, 149.1652207, 0.989027798176, -0.00916423648596, -0.139364823699, -0.0481402389705
2019-04-03 18:19:49.39,94015712, -0.27, -16.13, 354.44, 603.039978027, -35.3631941, 149.1652202, 0.988921225071, -0.00916472263634, -0.140045329928, -0.048354562372
2019-04-03 18:19:49.49,94115672, -0.24, -16.2, 354.39, 603.039978027, -35.3631911, 149.1652198, 0.988817334175, -0.00898678787053, -0.140669003129, -0.0487007983029
2019-04-03 18:19:49.60,94216465, -0.21, -16.26, 354.33, 603.039978027, -35.3631879, 149.1652193, 0.988717257977, -0.0088047683239, -0.141227081418, -0.0491483025253
2019-04-03 18:19:49.70,94316425, -0.18, -16.33, 354.27, 603.039978027, -35.3631847, 149.1652189, 0.988607525826, -0.00866628531367, -0.141835153103, -0.0496266596019
2019-04-03 18:19:49.80,94416385, -0.15, -16.4, 354.22, 603.039978027, -35.3631813, 149.1652184, 0.988505065441, -0.00851338356733, -0.14239820838, -0.0500806309283
2019-04-03 18:19:49.90,94516345, -0.12, -16.45, 354.17, 603.039978027, -35.3631781, 149.1652181, 0.988414466381, -0.0083225229755, -0.142903581262, -0.0504605807364
2019-04-03 18:19:50.00,94616305, -0.07, -16.51, 354.13, 603.039978027, -35.3631747, 149.1652176, 0.988333523273, -0.00800984539092, -0.143379449844, -0.0507451742887
2019-04-03 18:19:50.10,94716265, -0.02, -16.55, 354.1, 603.039978027, -35.3631714, 149.1652172, 0.988274335861, -0.00763269886374, -0.143743857741, -0.0509244687855
2019-04-03 18:19:50.20,94816225, -0.01, -16.56, 354.08, 603.039978027, -35.363168, 149.1652167, 0.988250672817, -0.00752786453813, -0.143867149949, -0.051051300019
2019-04-03 18:19:50.30,94916185, -0.01, -16.57, 354.08, 603.039978027, -35.3631646, 149.1652163, 0.988232910633, -0.0075850803405, -0.143961563706, -0.051119517535
2019-04-03 18:19:50.40,95016145, -0.04, -16.61, 354.07, 603.039978027, -35.3631611, 149.1652158, 0.988183021545, -0.00783215183765, -0.144278392196, -0.0511536300182
2019-04-03 18:19:50.49,95116105, -0.06, -16.65, 354.08, 603.039978027, -35.3631575, 149.1652153, 0.988128244877, -0.0080671608448, -0.144640028477, -0.0511543601751
2019-04-03 18:19:50.59,95216065, -0.09, -16.71, 354.08, 603.039978027, -35.363154, 149.1652148, 0.988059163094, -0.00830812659115, -0.145102649927, -0.0511397607625
2019-04-03 18:19:50.69,95316025, -0.11, -16.78, 354.09, 603.039978027, -35.3631503, 149.1652144, 0.987969338894, -0.00847008544952, -0.145713359118, -0.051112357527
2019-04-03 18:19:50.79,95415985, -0.1, -16.87, 354.09, 603.039978027, -35.3631467, 149.1652139, 0.987856924534, -0.00842624530196, -0.146489426494, -0.0510741956532
2019-04-03 18:19:50.89,95515945, -0.07, -16.93, 354.09, 603.039978027, -35.3631431, 149.1652134, 0.987776398659, -0.00822789873928, -0.147053107619, -0.0510442741215
2019-04-03 18:19:50.99,95615905, -0.04, -16.96, 354.09, 603.039978027, -35.3631394, 149.1652129, 0.987742960453, -0.00797459855676, -0.147291883826, -0.0510423667729
2019-04-03 18:19:51.09,95715865, 0.0, -16.98, 354.08, 603.039978027, -35.3631357, 149.1652124, 0.987716197968, -0.0076983445324, -0.147478461266, -0.0510639250278
2019-04-03 18:19:51.19,95815825, 0.0, -17.0, 354.07, 603.039978027, -35.3631321, 149.1652119, 0.987686514854, -0.00757788401097, -0.147661164403, -0.0511290803552
2019-04-03 18:19:51.29,95915785, 0.01, -17.02, 354.05, 603.039978027, -35.3631284, 149.1652114, 0.987661004066, -0.00753496959805, -0.147794514894, -0.0512422844768
2019-04-03 18:19:51.39,96015745, 0.0, -17.05, 354.04, 603.039978027, -35.3631246, 149.1652109, 0.987612843513, -0.00764947617427, -0.148056715727, -0.0513970591128
2019-04-03 18:19:51.49,96115705, -0.01, -17.07, 354.02, 603.039978027, -35.3631208, 149.1652104, 0.98757737875, -0.00784760154784, -0.14821575582, -0.0515891835093
2019-04-03 18:19:51.59,96215665, -0.04, -17.08, 354.0, 603.049987793, -35.3631169, 149.1652098, 0.987553417683, -0.00812600459903, -0.148284927011, -0.0518051944673
2019-04-03 18:19:51.70,96316458, -0.05, -17.08, 353.97, 603.049987793, -35.3631132, 149.1652093, 0.987535834312, -0.00828625354916, -0.148324623704, -0.0520009249449
2019-04-03 18:19:51.80,96416418, -0.04, -17.09, 353.96, 603.049987793, -35.3631093, 149.1652088, 0.987515866756, -0.00823860242963, -0.148408323526, -0.0521490313113
2019-04-03 18:19:51.90,96516378, 0.0, -17.12, 353.94, 603.049987793, -35.3631054, 149.1652083, 0.987468004227, -0.00794117059559, -0.148710042238, -0.0522421896458
2019-04-03 18:19:52.00,96616338, 0.03, -17.18, 353.92, 603.049987793, -35.3631016, 149.1652078, 0.987392127514, -0.00760147254914, -0.149205759168, -0.0523134917021
2019-04-03 18:19:52.10,96716298, 0.05, -17.22, 353.91, 603.049987793, -35.3630977, 149.1652073, 0.98733484745, -0.00751346070319, -0.149550944567, -0.0524205379188
2019-04-03 18:19:52.20,96816258, 0.04, -17.24, 353.89, 603.049987793, -35.3630938, 149.1652068, 0.987305879593, -0.00759631581604, -0.149692222476, -0.0525515675545
2019-04-03 18:19:52.30,96916218, 0.03, -17.24, 353.88, 603.049987793, -35.3630898, 149.1652064, 0.987291514874, -0.00768930371851, -0.14973847568, -0.0526762381196
2019-04-03 18:19:52.40,97016178, 0.0, -17.26, 353.87, 603.049987793, -35.3630859, 149.1652058, 0.987265646458, -0.00794517528266, -0.149844691157, -0.0528207235038
2019-04-03 18:19:52.50,97116138, -0.02, -17.27, 353.86, 603.049987793, -35.3630819, 149.1652053, 0.987240254879, -0.0082808341831, -0.149936765432, -0.0529814586043
2019-04-03 18:19:52.59,97216098, -0.03, -17.29, 353.84, 603.049987793, -35.3630779, 149.1652048, 0.987205862999, -0.00840578321368, -0.150107264519, -0.0531203225255
2019-04-03 18:19:52.69,97316058, -0.02, -17.32, 353.82, 603.049987793, -35.3630738, 149.1652043, 0.987160801888, -0.00833533052355, -0.150365144014, -0.0532392002642
2019-04-03 18:19:52.79,97416018, -0.02, -17.36, 353.81, 603.049987793, -35.3630699, 149.1652038, 0.987099349499, -0.00833679083735, -0.150719344616, -0.0533767566085
2019-04-03 18:19:52.89,97515978, -0.02, -17.39, 353.79, 603.049987793, -35.3630658, 149.1652033, 0.987049162388, -0.00843770150095, -0.15098656714, -0.0535341389477
2019-04-03 18:19:52.99,97615938, -0.01, -17.42, 353.77, 603.059997559, -35.3630619, 149.1652026, 0.98700851202, -0.00837624445558, -0.151209518313, -0.0536635182798
2019-04-03 18:19:53.09,97715898, 0.01, -17.44, 353.76, 603.059997559, -35.3630579, 149.1652021, 0.986975371838, -0.00810508802533, -0.151405736804, -0.0537608526647
2019-04-03 18:19:53.19,97815858, 0.05, -17.46, 353.74, 603.059997559, -35.3630537, 149.1652016, 0.986942470074, -0.00779448030517, -0.151605978608, -0.053846437484
2019-04-03 18:19:53.29,97915818, 0.07, -17.47, 353.73, 603.059997559, -35.3630498, 149.1652011, 0.986917674541, -0.00768798775971, -0.151733770967, -0.0539565980434
2019-04-03 18:19:53.39,98015778, 0.07, -17.51, 353.71, 603.059997559, -35.3630457, 149.1652006, 0.986863553524, -0.00766078848392, -0.152049064636, -0.0540620237589
2019-04-03 18:19:53.49,98115738, 0.08, -17.56, 353.7, 603.059997559, -35.3630415, 149.1652001, 0.986791491508, -0.00760990008712, -0.152484819293, -0.0541571564972
2019-04-03 18:19:53.59,98215698, 0.09, -17.59, 353.69, 603.059997559, -35.3630375, 149.1651995, 0.98674094677, -0.00763359060511, -0.152775228024, -0.0542569123209
2019-04-03 18:19:53.70,98316491, 0.08, -17.6, 353.67, 603.059997559, -35.3630334, 149.165199, 0.986729085445, -0.00767807196826, -0.152812182903, -0.0543623231351
2019-04-03 18:19:53.80,98416451, 0.08, -17.59, 353.66, 603.059997559, -35.3630293, 149.1651985, 0.986737966537, -0.00771220913157, -0.1527133286, -0.0544741339982
2019-04-03 18:19:53.90,98516411, 0.08, -17.56, 353.65, 603.070007324, -35.3630251, 149.1651978, 0.986759543419, -0.00772702414542, -0.15253059566, -0.0545917712152
2019-04-03 18:19:54.00,98616371, 0.08, -17.56, 353.64, 603.070007324, -35.3630211, 149.1651973, 0.986763954163, -0.00773432757705, -0.152460098267, -0.0547088570893
2019-04-03 18:19:54.10,98716331, 0.07, -17.56, 353.62, 603.070007324, -35.3630169, 149.1651968, 0.986750125885, -0.00781554263085, -0.152499169111, -0.0548375472426
2019-04-03 18:19:54.20,98816291, 0.06, -17.59, 353.61, 603.070007324, -35.3630128, 149.1651963, 0.986709535122, -0.0079546328634, -0.152707859874, -0.0549661144614
2019-04-03 18:19:54.30,98916251, 0.06, -17.62, 353.6, 603.070007324, -35.3630086, 149.1651958, 0.986660718918, -0.00797224137932, -0.152985036373, -0.0550701543689
2019-04-03 18:19:54.40,99016211, 0.07, -17.66, 353.58, 603.070007324, -35.3630044, 149.1651952, 0.986597716808, -0.00793583039194, -0.153360024095, -0.0551604777575
2019-04-03 18:19:54.50,99116171, 0.08, -17.7, 353.57, 603.070007324, -35.3630002, 149.1651947, 0.986543715, -0.00792875420302, -0.153673142195, -0.0552562810481
2019-04-03 18:19:54.59,99216131, 0.08, -17.73, 353.56, 603.070007324, -35.3629962, 149.165194, 0.986496806145, -0.00792967155576, -0.153938144445, -0.0553550943732
2019-04-03 18:19:54.69,99316091, 0.07, -17.75, 353.55, 603.070007324, -35.362992, 149.1651935, 0.986457884312, -0.00804252643138, -0.154138684273, -0.0554753392935
2019-04-03 18:19:54.79,99416051, 0.05, -17.76, 353.53, 603.08001709, -35.3629878, 149.165193, 0.986445724964, -0.00826401263475, -0.15415738523, -0.0556058436632
2019-04-03 18:19:54.89,99516011, 0.02, -17.76, 353.52, 603.08001709, -35.3629836, 149.1651925, 0.986434578896, -0.00847507547587, -0.154171973467, -0.0557312779129
2019-04-03 18:19:54.99,99615971, 0.02, -17.76, 353.51, 603.08001709, -35.3629794, 149.165192, 0.986424744129, -0.00850507430732, -0.154197514057, -0.0558298453689
2019-04-03 18:19:55.09,99715931, 0.06, -17.77, 353.5, 603.08001709, -35.3629752, 149.1651914, 0.986405670643, -0.0082150278613, -0.154318317771, -0.0558769851923
2019-04-03 18:19:55.19,99815891, 0.1, -17.79, 353.49, 603.08001709, -35.362971, 149.1651909, 0.986379683018, -0.00789706408978, -0.154481425881, -0.0559307448566
2019-04-03 18:19:55.29,99915851, 0.13, -17.81, 353.48, 603.08001709, -35.3629667, 149.1651903, 0.986352741718, -0.00767461070791, -0.154639080167, -0.0560019761324
2019-04-03 18:19:55.39,100015811, 0.13, -17.83, 353.46, 603.08001709, -35.3629625, 149.1651896, 0.98631465435, -0.00766616594046, -0.154844045639, -0.0561070665717
2019-04-03 18:19:55.49,100115771, 0.12, -17.85, 353.45, 603.08001709, -35.3629583, 149.1651891, 0.986279726028, -0.0077941166237, -0.155014574528, -0.056232303381
2019-04-03 18:19:55.59,100215731, 0.09, -17.86, 353.44, 603.08001709, -35.362954, 149.1651886, 0.986255884171, -0.00804031454027, -0.155101716518, -0.0563747659326
2019-04-03 18:19:55.69,100315691, 0.06, -17.87, 353.43, 603.08001709, -35.3629498, 149.1651881, 0.986237883568, -0.0083635430783, -0.155145779252, -0.0565215609968
2019-04-03 18:19:55.80,100416484, 0.03, -17.87, 353.41, 603.08001709, -35.3629455, 149.1651875, 0.986227631569, -0.00857578683645, -0.155153334141, -0.0566477403045
2019-04-03 18:19:55.90,100516444, 0.05, -17.87, 353.4, 603.08001709, -35.3629413, 149.165187, 0.986231803894, -0.00849669706076, -0.155105292797, -0.0567183755338
2019-04-03 18:19:56.00,100616404, 0.07, -17.87, 353.39, 603.08001709, -35.362937, 149.1651863, 0.986231803894, -0.00831368751824, -0.155097290874, -0.0567676350474
2019-04-03 18:19:56.10,100716364, 0.09, -17.87, 353.39, 603.08001709, -35.3629328, 149.1651858, 0.986220836639, -0.00812225509435, -0.155160963535, -0.0568122901022
2019-04-03 18:19:56.20,100816324, 0.14, -17.9, 353.38, 603.08001709, -35.3629285, 149.1651853, 0.986180126667, -0.00776917021722, -0.155431225896, -0.0568290092051
2019-04-03 18:19:56.30,100916284, 0.16, -17.95, 353.37, 603.08001709, -35.3629242, 149.1651847, 0.98611164093, -0.0076075787656, -0.155854076147, -0.0568812973797
2019-04-03 18:19:56.40,101016244, 0.15, -17.98, 353.36, 603.08001709, -35.36292, 149.1651842, 0.98605877161, -0.00770742958412, -0.156148299575, -0.056977905333
2019-04-03 18:19:56.50,101116204, 0.14, -18.02, 353.35, 603.08001709, -35.3629157, 149.1651836, 0.986009299755, -0.00786393880844, -0.156416028738, -0.0570776611567
2019-04-03 18:19:56.60,101216164, 0.13, -18.03, 353.34, 603.090026855, -35.3629114, 149.1651829, 0.985982954502, -0.00791248586029, -0.156553417444, -0.0571494363248
2019-04-03 18:19:56.69,101316124, 0.16, -18.04, 353.33, 603.090026855, -35.3629071, 149.1651824, 0.985971987247, -0.00773344747722, -0.156619861722, -0.057181507349
2019-04-03 18:19:56.79,101416084, 0.18, -18.04, 353.32, 603.090026855, -35.3629029, 149.1651819, 0.985969603062, -0.00749779352918, -0.156636834145, -0.0572068318725
2019-04-03 18:19:56.89,101516044, 0.21, -18.03, 353.32, 603.090026855, -35.3628986, 149.1651813, 0.985975801945, -0.00725544802845, -0.156600624323, -0.057230938226
2019-04-03 18:19:56.99,101616004, 0.24, -18.03, 353.31, 603.090026855, -35.3628943, 149.1651806, 0.985971868038, -0.00701494608074, -0.15663087368, -0.057245824486
2019-04-03 18:19:57.09,101715964, 0.26, -18.04, 353.3, 603.090026855, -35.36289, 149.1651801, 0.985964775085, -0.00690061692148, -0.156671747565, -0.0572698824108
2019-04-03 18:19:57.19,101815924, 0.24, -18.05, 353.3, 603.090026855, -35.3628857, 149.1651795, 0.985951006413, -0.00708802603185, -0.156727865338, -0.0573299750686
2019-04-03 18:19:57.29,101915884, 0.2, -18.05, 353.3, 603.090026855, -35.3628814, 149.165179, 0.98593878746, -0.00739503558725, -0.156765207648, -0.0573995113373
2019-04-03 18:19:57.39,102015844, 0.17, -18.04, 353.3, 603.090026855, -35.3628771, 149.1651785, 0.985947132111, -0.0076203243807, -0.156681239605, -0.0574555508792
2019-04-03 18:19:57.49,102115804, 0.17, -18.03, 353.29, 603.090026855, -35.3628728, 149.1651779, 0.985961973667, -0.00762446178123, -0.156575083733, -0.0574908219278
2019-04-03 18:19:57.59,102215764, 0.18, -18.04, 353.29, 603.090026855, -35.3628685, 149.1651772, 0.985948860645, -0.00755357369781, -0.156649067998, -0.057522919029
2019-04-03 18:19:57.69,102315724, 0.2, -18.05, 353.28, 603.090026855, -35.362864, 149.1651767, 0.985929906368, -0.00742610404268, -0.156763568521, -0.0575521402061
2019-04-03 18:19:57.79,102415684, 0.2, -18.08, 353.27, 603.090026855, -35.3628597, 149.1651762, 0.985884428024, -0.00741885742173, -0.157031431794, -0.0576020218432
2019-04-03 18:19:57.90,102516477, 0.19, -18.11, 353.27, 603.090026855, -35.3628554, 149.1651756, 0.985845983028, -0.00752997258678, -0.157240644097, -0.0576747246087
2019-04-03 18:19:58.00,102616437, 0.17, -18.12, 353.26, 603.090026855, -35.3628511, 149.165175, 0.985822141171, -0.00771355768666, -0.157350048423, -0.0577591657639
2019-04-03 18:19:58.10,102716397, 0.16, -18.13, 353.25, 603.090026855, -35.3628468, 149.1651745, 0.985810101032, -0.00787799060345, -0.157383054495, -0.0578534901142
2019-04-03 18:19:58.20,102816357, 0.15, -18.13, 353.24, 603.090026855, -35.3628424, 149.1651738, 0.985799133778, -0.0079764937982, -0.157408356667, -0.0579573661089
2019-04-03 18:19:58.30,102916317, 0.15, -18.15, 353.23, 603.090026855, -35.3628381, 149.1651733, 0.985763013363, -0.00800830405205, -0.157598048449, -0.0580517686903
2019-04-03 18:19:58.40,103016277, 0.14, -18.19, 353.22, 603.090026855, -35.3628336, 149.1651728, 0.985707938671, -0.00811511650681, -0.157896861434, -0.0581610426307
2019-04-03 18:19:58.50,103116237, 0.14, -18.22, 353.21, 603.090026855, -35.3628293, 149.1651722, 0.985658228397, -0.00811873562634, -0.158174827695, -0.0582467205822
2019-04-03 18:19:58.60,103216197, 0.15, -18.24, 353.2, 603.090026855, -35.362825, 149.1651715, 0.985632956028, -0.00808526389301, -0.158304795623, -0.0583253987134
2019-04-03 18:19:58.70,103316157, 0.15, -18.23, 353.19, 603.090026855, -35.3628207, 149.1651709, 0.985639989376, -0.00810790341347, -0.158226132393, -0.0584177263081
2019-04-03 18:19:58.79,103416117, 0.14, -18.2, 353.18, 603.090026855, -35.3628163, 149.1651704, 0.985670208931, -0.00817393232137, -0.157996937633, -0.0585181899369
2019-04-03 18:19:58.89,103516077, 0.13, -18.17, 353.17, 603.090026855, -35.362812, 149.1651699, 0.985709607601, -0.00822707172483, -0.157715529203, -0.0586065798998
2019-04-03 18:19:58.99,103616037, 0.13, -18.16, 353.16, 603.090026855, -35.3628075, 149.1651693, 0.985721230507, -0.00827232375741, -0.157614573836, -0.0586765222251
2019-04-03 18:19:59.09,103715997, 0.1, -18.17, 353.15, 603.090026855, -35.3628032, 149.1651686, 0.985700368881, -0.00853577349335, -0.157694965601, -0.058773368597
2019-04-03 18:19:59.19,103815957, 0.08, -18.19, 353.15, 603.099975586, -35.3627989, 149.1651681, 0.985667586327, -0.00875327922404, -0.157854989171, -0.0588608644903
2019-04-03 18:19:59.29,103915917, 0.09, -18.21, 353.14, 603.099975586, -35.3627945, 149.1651676, 0.985634148121, -0.00864210724831, -0.158062174916, -0.058881290257
2019-04-03 18:19:59.39,104015877, 0.14, -18.23, 353.14, 603.099975586, -35.3627901, 149.165167, 0.985614478588, -0.00826651696116, -0.158213287592, -0.0588588304818
2019-04-03 18:19:59.49,104115837, 0.18, -18.22, 353.13, 603.099975586, -35.3627856, 149.1651664, 0.985616743565, -0.0078558512032, -0.15822955966, -0.0588334798813
2019-04-03 18:19:59.59,104215797, 0.2, -18.22, 353.13, 603.099975586, -35.3627813, 149.1651657, 0.985622704029, -0.00773242628202, -0.158188447356, -0.0588607564569
2019-04-03 18:19:59.69,104315757, 0.19, -18.21, 353.12, 603.099975586, -35.362777, 149.1651652, 0.985636591911, -0.00781427044421, -0.15807364881, -0.0589254274964
2019-04-03 18:19:59.79,104415717, 0.16, -18.2, 353.12, 603.099975586, -35.3627726, 149.1651646, 0.985635757446, -0.0080911712721, -0.158029183745, -0.0590210184455
2019-04-03 18:19:59.89,104515677, 0.12, -18.21, 353.11, 603.099975586, -35.3627682, 149.165164, 0.9856159091, -0.00844345800579, -0.158099770546, -0.0591137297451
2019-04-03 18:20:00.00,104616470, 0.11, -18.24, 353.11, 603.099975586, -35.3627637, 149.1651633, 0.985579073429, -0.00850175414234, -0.158313661814, -0.0591470338404
2019-04-03 18:20:00.10,104716430, 0.11, -18.25, 353.1, 603.099975586, -35.3627594, 149.1651628, 0.985563695431, -0.00850804336369, -0.158399999142, -0.0591718778014
2019-04-03 18:20:00.20,104816390, 0.11, -18.26, 353.1, 603.099975586, -35.362755, 149.1651622, 0.985544502735, -0.0085534574464, -0.158505812287, -0.0592018775642
2019-04-03 18:20:00.30,104916350, 0.11, -18.26, 353.1, 603.099975586, -35.3627506, 149.1651616, 0.985538542271, -0.00851977802813, -0.158535391092, -0.0592261962593
2019-04-03 18:20:00.40,105016310, 0.12, -18.26, 353.09, 603.099975586, -35.3627461, 149.1651611, 0.985542118549, -0.00849441997707, -0.158501923084, -0.0592599511147
2019-04-03 18:20:00.50,105116270, 0.1, -18.24, 353.09, 603.099975586, -35.3627417, 149.1651604, 0.985564231873, -0.00860789045691, -0.158334642649, -0.0593224093318
2019-04-03 18:20:00.60,105216230, 0.1, -18.23, 353.08, 603.099975586, -35.3627374, 149.1651599, 0.985573172569, -0.0086641414091, -0.158256679773, -0.0593743547797
2019-04-03 18:20:00.70,105316190, 0.11, -18.22, 353.08, 603.099975586, -35.362733, 149.1651593, 0.985589504242, -0.00853147543967, -0.15815448761, -0.0593947246671
2019-04-03 18:20:00.80,105416150, 0.15, -18.21, 353.07, 603.099975586, -35.3627285, 149.1651587, 0.985607147217, -0.00822985172272, -0.158063337207, -0.0593867599964
2019-04-03 18:20:00.89,105516110, 0.19, -18.2, 353.07, 603.099975586, -35.3627241, 149.165158, 0.985622048378, -0.00790798198432, -0.157991409302, -0.0593748092651
2019-04-03 18:20:00.99,105616070, 0.21, -18.21, 353.07, 603.109985352, -35.3627198, 149.1651575, 0.985607743263, -0.00773950200528, -0.158088028431, -0.0593774802983
2019-04-03 18:20:01.09,105716030, 0.21, -18.22, 353.06, 603.109985352, -35.3627154, 149.1651569, 0.985586285591, -0.00769182154909, -0.158220127225, -0.0593880228698
2019-04-03 18:20:01.19,105815990, 0.22, -18.24, 353.06, 603.109985352, -35.362711, 149.1651563, 0.985557258129, -0.00764548080042, -0.158406227827, -0.0593791827559
2019-04-03 18:20:01.29,105915950, 0.23, -18.28, 353.07, 603.109985352, -35.3627065, 149.1651556, 0.985507726669, -0.00761849991977, -0.158726081252, -0.0593509674072
2019-04-03 18:20:01.39,106015910, 0.22, -18.31, 353.07, 603.109985352, -35.3627022, 149.1651551, 0.985473632812, -0.00769757339731, -0.15894305706, -0.0593259781599
2019-04-03 18:20:01.49,106115870, 0.2, -18.33, 353.07, 603.109985352, -35.3626978, 149.1651545, 0.985438942909, -0.00785517692566, -0.159156650305, -0.0593084208667
2019-04-03 18:20:01.59,106215830, 0.18, -18.35, 353.08, 603.109985352, -35.3626934, 149.1651539, 0.985421538353, -0.00800944957882, -0.15926207602, -0.0592950806022
2019-04-03 18:20:01.69,106315790, 0.18, -18.33, 353.08, 603.109985352, -35.3626888, 149.1651532, 0.985438108444, -0.00802828557789, -0.159167930484, -0.0592700205743
2019-04-03 18:20:01.79,106415750, 0.21, -18.32, 353.08, 603.109985352, -35.3626845, 149.1651527, 0.985462963581, -0.00778774451464, -0.159050002694, -0.0592047311366
2019-04-03 18:20:01.89,106515710, 0.24, -18.29, 353.09, 603.109985352, -35.3626801, 149.1651521, 0.985508441925, -0.00747675215825, -0.158805206418, -0.0591445602477
2019-04-03 18:20:01.99,106615670, 0.27, -18.26, 353.09, 603.109985352, -35.3626756, 149.1651515, 0.985548377037, -0.00717660365626, -0.158586114645, -0.0591048412025
2019-04-03 18:20:02.10,106716463, 0.28, -18.25, 353.08, 603.109985352, -35.3626712, 149.1651508, 0.985565662384, -0.0071145859547, -0.158479422331, -0.059109468013
2019-04-03 18:20:02.20,106816423, 0.25, -18.26, 353.08, 603.109985352, -35.3626668, 149.1651503, 0.985541582108, -0.00735083688051, -0.158600583673, -0.0591573379934
2019-04-03 18:20:02.30,106916383, 0.24, -18.31, 353.08, 603.109985352, -35.3626624, 149.1651497, 0.98547410965, -0.00752526707947, -0.158998191357, -0.0591922961175
2019-04-03 18:20:02.40,107016343, 0.24, -18.36, 353.08, 603.109985352, -35.3626579, 149.165149, 0.985409080982, -0.00755812507123, -0.159397944808, -0.0591954886913
2019-04-03 18:20:02.50,107116303, 0.26, -18.39, 353.08, 603.109985352, -35.3626536, 149.1651484, 0.985360920429, -0.00738687394187, -0.159715175629, -0.0591642670333
2019-04-03 18:20:02.60,107216263, 0.29, -18.41, 353.08, 603.109985352, -35.3626492, 149.1651479, 0.985342204571, -0.00715517345816, -0.159855246544, -0.0591261461377
2019-04-03 18:20:02.70,107316223, 0.29, -18.39, 353.08, 603.109985352, -35.3626447, 149.1651473, 0.985367000103, -0.00710621336475, -0.159704059362, -0.0591270700097
2019-04-03 18:20:02.80,107416183, 0.27, -18.37, 353.08, 603.109985352, -35.3626402, 149.1651466, 0.985391020775, -0.00726376892999, -0.159538954496, -0.059153277427
2019-04-03 18:20:02.90,107516143, 0.24, -18.38, 353.08, 603.119995117, -35.3626359, 149.165146, 0.985384583473, -0.00755787733942, -0.159548640251, -0.0591975226998
2019-04-03 18:20:02.99,107616103, 0.22, -18.4, 353.08, 603.119995117, -35.3626315, 149.1651455, 0.985353171825, -0.00772528536618, -0.159725368023, -0.0592221356928
2019-04-03 18:20:03.09,107716063, 0.22, -18.41, 353.08, 603.119995117, -35.3626269, 149.1651449, 0.985341489315, -0.00771864736453, -0.159796506166, -0.059226334095
2019-04-03 18:20:03.19,107816023, 0.25, -18.39, 353.08, 603.119995117, -35.3626226, 149.1651442, 0.985359489918, -0.00746477674693, -0.159703969955, -0.0592081770301
2019-04-03 18:20:03.29,107915983, 0.28, -18.38, 353.07, 603.119995117, -35.3626182, 149.1651436, 0.985376179218, -0.00719018885866, -0.159619569778, -0.0591918230057
2019-04-03 18:20:03.39,108015943, 0.31, -18.39, 353.07, 603.119995117, -35.3626137, 149.1651432, 0.985360860825, -0.00696635665372, -0.159726426005, -0.0591850578785
2019-04-03 18:20:03.49,108115903, 0.3, -18.39, 353.07, 603.119995117, -35.3626092, 149.1651426, 0.98535990715, -0.00703527964652, -0.159716531634, -0.0592203773558
2019-04-03 18:20:03.59,108215863, 0.28, -18.4, 353.06, 603.119995117, -35.3626049, 149.165142, 0.985350489616, -0.00721335178241, -0.15974843502, -0.0592690519989
2019-04-03 18:20:03.69,108315823, 0.26, -18.38, 353.06, 603.119995117, -35.3626004, 149.1651413, 0.985370278358, -0.00739765865728, -0.159601509571, -0.0593136437237
2019-04-03 18:20:03.79,108415783, 0.22, -18.36, 353.06, 603.119995117, -35.3625959, 149.1651408, 0.985389530659, -0.00770058576018, -0.159441784024, -0.059383995831
2019-04-03 18:20:03.89,108515743, 0.19, -18.36, 353.06, 603.119995117, -35.3625915, 149.1651402, 0.985391020775, -0.00795200839639, -0.159394040704, -0.0594550780952
2019-04-03 18:20:03.99,108615703, 0.19, -18.37, 353.05, 603.119995117, -35.3625871, 149.1651396, 0.985374212265, -0.00801776815206, -0.159478232265, -0.0594993941486
2019-04-03 18:20:04.09,108715663, 0.2, -18.36, 353.05, 603.119995117, -35.3625825, 149.1651391, 0.985384941101, -0.00787558406591, -0.159413322806, -0.0595142133534
2019-04-03 18:20:04.20,108816456, 0.23, -18.34, 353.04, 603.119995117, -35.3625782, 149.1651384, 0.98540943861, -0.00763145554811, -0.159273132682, -0.0595150776207
2019-04-03 18:20:04.30,108916416, 0.26, -18.32, 353.04, 603.119995117, -35.3625737, 149.1651379, 0.985443949699, -0.00735229160637, -0.159073919058, -0.0595119781792
2019-04-03 18:20:04.40,109016376, 0.29, -18.31, 353.04, 603.119995117, -35.3625692, 149.1651373, 0.985462248325, -0.00715704029426, -0.158965364099, -0.0595223866403
2019-04-03 18:20:04.50,109116336, 0.3, -18.31, 353.03, 603.119995117, -35.3625648, 149.1651367, 0.985452830791, -0.00705459155142, -0.159020468593, -0.0595438145101
2019-04-03 18:20:04.60,109216296, 0.3, -18.33, 353.03, 603.119995117, -35.3625604, 149.165136, 0.985423207283, -0.00702753569931, -0.159191757441, -0.0595800429583
2019-04-03 18:20:04.70,109316256, 0.29, -18.35, 353.02, 603.119995117, -35.3625558, 149.1651355, 0.985393166542, -0.00713365059346, -0.159350335598, -0.0596392638981
2019-04-03 18:20:04.80,109416216, 0.28, -18.38, 353.01, 603.130004883, -35.3625514, 149.1651349, 0.985351324081, -0.00728375697508, -0.159576609731, -0.059707634151
2019-04-03 18:20:04.90,109516176, 0.26, -18.41, 353.01, 603.130004883, -35.3625471, 149.1651344, 0.985305011272, -0.0074482942, -0.159829676151, -0.0597753226757
2019-04-03 18:20:05.00,109616136, 0.25, -18.43, 353.0, 603.130004883, -35.3625426, 149.1651338, 0.985268414021, -0.00759463896975, -0.160023882985, -0.0598407797515
2019-04-03 18:20:05.09,109716096, 0.24, -18.43, 353.0, 603.130004883, -35.3625381, 149.1651331, 0.985264778137, -0.00770516088232, -0.160018160939, -0.0599018521607
2019-04-03 18:20:05.19,109816056, 0.22, -18.41, 352.99, 603.130004883, -35.3625337, 149.1651326, 0.985284924507, -0.00787697453052, -0.159858003259, -0.0599751248956
2019-04-03 18:20:05.29,109916016, 0.21, -18.37, 352.99, 603.130004883, -35.3625293, 149.165132, 0.985338926315, -0.00788818486035, -0.159502029419, -0.0600338838995
2019-04-03 18:20:05.39,110015976, 0.23, -18.34, 352.98, 603.130004883, -35.3625247, 149.1651315, 0.985376775265, -0.00775902532041, -0.159260332584, -0.0600713230669
2019-04-03 18:20:05.49,110115936, 0.25, -18.34, 352.97, 603.130004883, -35.3625204, 149.1651308, 0.98537838459, -0.00757893174887, -0.159250304103, -0.0600955337286
2019-04-03 18:20:05.59,110215896, 0.27, -18.37, 352.97, 603.130004883, -35.3625159, 149.1651302, 0.985335707664, -0.00742601370439, -0.159512341022, -0.060118522495
2019-04-03 18:20:05.69,110315856, 0.29, -18.4, 352.96, 603.130004883, -35.3625114, 149.1651297, 0.985299050808, -0.00725189177319, -0.159739598632, -0.0601372458041
2019-04-03 18:20:05.79,110415816, 0.3, -18.42, 352.96, 603.130004883, -35.362507, 149.1651291, 0.985266208649, -0.00724232988432, -0.159927114844, -0.0601784661412
2019-04-03 18:20:05.89,110515776, 0.28, -18.43, 352.95, 603.130004883, -35.3625026, 149.1651284, 0.985246181488, -0.00734638050199, -0.160025492311, -0.0602313838899
2019-04-03 18:20:05.99,110615736, 0.27, -18.41, 352.95, 603.130004883, -35.3624982, 149.1651278, 0.985263228416, -0.00747787114233, -0.159890279174, -0.0602955110371
2019-04-03 18:20:06.09,110715696, 0.25, -18.37, 352.94, 603.130004883, -35.3624937, 149.1651273, 0.98531717062, -0.00760630797595, -0.159526273608, -0.060362547636
2019-04-03 18:20:06.20,110816489, 0.25, -18.34, 352.94, 603.130004883, -35.3624892, 149.1651268, 0.985364079475, -0.00762762269005, -0.159220889211, -0.0604003481567
2019-04-03 18:20:06.30,110916449, 0.25, -18.32, 352.94, 603.130004883, -35.3624848, 149.1651262, 0.985386431217, -0.00764892436564, -0.159070432186, -0.0604289062321
2019-04-03 18:20:06.40,111016409, 0.25, -18.33, 352.93, 603.130004883, -35.3624803, 149.1651255, 0.985375583172, -0.00761052966118, -0.159131497145, -0.060449950397
2019-04-03 18:20:06.50,111116369, 0.27, -18.36, 352.93, 603.130004883, -35.3624759, 149.165125, 0.985331773758, -0.00748884445056, -0.159402683377, -0.0604651123285
2019-04-03 18:20:06.60,111216329, 0.3, -18.4, 352.92, 603.130004883, -35.3624713, 149.1651244, 0.985274136066, -0.00727513525635, -0.159767642617, -0.0604664571583
2019-04-03 18:20:06.70,111316289, 0.31, -18.43, 352.92, 603.130004883, -35.3624669, 149.1651238, 0.985233008862, -0.00715144257993, -0.160022810102, -0.0604770891368
2019-04-03 18:20:06.80,111416249, 0.31, -18.45, 352.91, 603.130004883, -35.3624625, 149.1651231, 0.985199689865, -0.00722281541675, -0.160209074616, -0.0605183131993
