Start,TimeUS,Roll,Pitch,Yaw,Alt,Lat,Lng,Q1,Q2,Q3,Q4
2019-04-03 20:18:44.20,165816147, 0.0, 0.0, 353.0, 584.090026855, -35.363261, 149.1652299, 0.998134791851, 0.0, 0.0, -0.0610485821962
2019-04-03 20:18:44.31,165935266, 0.0, 0.0, 353.0, 584.090026855, -35.363261, 149.1652299, 0.998134791851, 0.0, 0.0, -0.0610485821962
2019-04-03 20:18:44.41,166035226, 0.0, 0.0, 353.0, 584.090026855, -35.363261, 149.1652299, 0.998134791851, 0.0, 0.0, -0.0610485821962
2019-04-03 20:18:44.51,166135186, 0.0, 0.0, 353.0, 584.090026855, -35.363261, 149.1652299, 0.998134791851, 0.0, 0.0, -0.0610485821962
2019-04-03 20:18:44.61,166235146, 0.0, 0.0, 353.0, 584.090026855, -35.363261, 149.1652299, 0.998134791851, 0.0, 0.0, -0.0610485821962
2019-04-03 20:18:44.71,166335106, 0.0, 0.0, 353.0, 584.090026855, -35.363261, 149.1652299, 0.998134791851, 0.0, 0.0, -0.0610485821962
2019-04-03 20:18:44.81,166435066, 0.0, 0.0, 353.0, 584.090026855, -35.363261, 149.1652299, 0.998134791851, 0.0, 0.0, -0.0610485821962
2019-04-03 20:18:44.91,166535026, 0.0, 0.0, 353.0, 584.090026855, -35.363261, 149.1652299, 0.998134791851, 0.0, 0.0, -0.0610485821962
2019-04-03 20:18:45.01,166634986, 0.0, 0.0, 353.0, 584.090026855, -35.363261, 149.1652299, 0.998134791851, 0.0, 0.0, -0.0610485821962
2019-04-03 20:18:45.11,166734946, 0.0, 0.0, 353.0, 584.090026855, -35.363261, 149.1652299, 0.998134791851, 0.0, 0.0, -0.0610485821962
2019-04-03 20:18:45.21,166834906, 0.0, 0.0, 353.0, 584.090026855, -35.363261, 149.1652299, 0.998134791851, 0.0, 0.0, -0.0610485821962
2019-04-03 20:18:45.31,166934866, 0.0, 0.0, 353.0, 584.090026855, -35.363261, 149.1652299, 0.998134791851, 0.0, 0.0, -0.0610485821962
2019-04-03 20:18:45.41,167034826, 0.0, 0.0, 353.0, 584.090026855, -35.363261, 149.1652299, 0.998134791851, 0.0, 0.0, -0.0610485821962
2019-04-03 20:18:45.51,167134786, 0.0, 0.0, 353.0, 584.090026855, -35.363261, 149.1652299, 0.998134791851, 0.0, 0.0, -0.0610485821962
2019-04-03 20:18:45.61,167234746, 0.0, 0.0, 353.0, 584.090026855, -35.363261, 149.1652299, 0.998134791851, 0.0, 0.0, -0.0610485821962
2019-04-03 20:18:45.71,167334706, 0.0, 0.0, 353.0, 584.090026855, -35.363261, 149.1652299, 0.998134791851, 0.0, 0.0, -0.0610485821962
2019-04-03 20:18:45.81,167434666, 0.0, 0.0, 353.0, 584.090026855, -35.363261, 149.1652299, 0.998134791851, 0.0, 0.0, -0.0610485821962
2019-04-03 20:18:45.91,167534626, 0.0, 0.0, 353.0, 584.090026855, -35.363261, 149.1652299, 0.998134791851, 0.0, 0.0, -0.0610485821962
2019-04-03 20:18:46.01,167634586, 0.0, 0.0, 353.0, 584.090026855, -35.363261, 149.1652299, 0.998134791851, 0.0, 0.0, -0.0610485821962
2019-04-03 20:18:46.11,167734546, 0.0, 0.0, 353.0, 584.090026855, -35.363261, 149.1652299, 0.998134791851, 0.0, 0.0, -0.0610485821962
2019-04-03 20:18:46.21,167834506, 0.0, 0.0, 353.0, 584.090026855, -35.363261, 149.1652299, 0.998134791851, 0.0, 0.0, -0.0610485821962
2019-04-03 20:18:46.31,167935299, 0.0, 0.0, 353.0, 584.090026855, -35.363261, 149.1652299, 0.998134791851, 0.0, 0.0, -0.0610485821962
2019-04-03 20:18:46.41,168035259, 0.0, 0.0, 353.0, 584.090026855, -35.363261, 149.1652299, 0.998134791851, 0.0, 0.0, -0.0610485821962
2019-04-03 20:18:46.51,168135219, 0.0, 0.0, 353.0, 584.090026855, -35.363261, 149.1652299, 0.998134791851, 0.0, 0.0, -0.0610485821962
2019-04-03 20:18:46.61,168235179, 0.0, 0.0, 353.0, 584.090026855, -35.363261, 149.1652299, 0.998134791851, 0.0, 0.0, -0.0610485821962
2019-04-03 20:18:46.71,168335139, 0.0, 0.0, 353.0, 584.090026855, -35.363261, 149.1652299, 0.998134791851, 0.0, 0.0, -0.0610485821962
2019-04-03 20:18:46.81,168435099, 0.0, 0.0, 353.0, 584.090026855, -35.363261, 149.1652299, 0.998134791851, 0.0, 0.0, -0.0610485821962
2019-04-03 20:18:46.91,168535059, 0.0, 0.0, 353.0, 584.090026855, -35.363261, 149.1652299, 0.998134791851, 0.0, 0.0, -0.0610485821962
2019-04-03 20:18:47.01,168635019, 0.0, 0.0, 353.0, 584.090026855, -35.363261, 149.1652299, 0.998134791851, 0.0, 0.0, -0.0610485821962
2019-04-03 20:18:47.11,168734979, 0.0, 0.0, 353.0, 584.090026855, -35.363261, 149.1652299, 0.998134791851, 0.0, 0.0, -0.0610485821962
2019-04-03 20:18:47.21,168834939, 0.0, 0.0, 353.0, 584.090026855, -35.363261, 149.1652299, 0.998134791851, 0.0, 0.0, -0.0610485821962
2019-04-03 20:18:47.31,168934899, 0.0, 0.0, 353.0, 584.090026855, -35.363261, 149.1652299, 0.998134791851, 0.0, 0.0, -0.0610485821962
2019-04-03 20:18:47.41,169034859, 0.0, 0.0, 353.0, 584.090026855, -35.363261, 149.1652299, 0.998134791851, 0.0, 0.0, -0.0610485821962
2019-04-03 20:18:47.51,169134819, 0.0, 0.0, 353.0, 584.090026855, -35.363261, 149.1652299, 0.998134791851, 0.0, 0.0, -0.0610485821962
2019-04-03 20:18:47.61,169234779, 0.0, 0.0, 353.0, 584.090026855, -35.363261, 149.1652299, 0.998134791851, 0.0, 0.0, -0.0610485821962
2019-04-03 20:18:47.71,169334739, 0.0, 0.0, 353.0, 584.090026855, -35.363261, 149.1652299, 0.998134791851, 0.0, 0.0, -0.0610485821962
2019-04-03 20:18:47.81,169434699, 0.0, 0.0, 353.0, 584.090026855, -35.363261, 149.1652299, 0.998134791851, 0.0, 0.0, -0.0610485821962
2019-04-03 20:18:47.91,169534659, 0.0, 0.0, 353.0, 584.090026855, -35.363261, 149.1652299, 0.998134791851, 0.0, 0.0, -0.0610485821962
2019-04-03 20:18:48.01,169634619, 0.0, 0.0, 353.0, 584.090026855, -35.363261, 149.1652299, 0.998134791851, 0.0, 0.0, -0.0610485821962
2019-04-03 20:18:48.11,169734579, 0.0, 0.0, 353.0, 584.090026855, -35.363261, 149.1652299, 0.998134791851, 0.0, 0.0, -0.0610485821962
2019-04-03 20:18:48.21,169834539, 0.0, 0.0, 353.0, 584.090026855, -35.363261, 149.1652299, 0.998134791851, 0.0, 0.0, -0.0610485821962
2019-04-03 20:18:48.31,169934499, 0.0, 0.0, 353.0, 584.090026855, -35.363261, 149.1652299, 0.998134791851, 0.0, 0.0, -0.0610485821962
2019-04-03 20:18:48.41,170035292, 0.0, 0.0, 353.0, 584.090026855, -35.363261, 149.1652299, 0.998134791851, 0.0, 0.0, -0.0610485821962
2019-04-03 20:18:48.51,170135252, 0.0, 0.0, 353.0, 584.090026855, -35.363261, 149.1652299, 0.998134791851, 0.0, 0.0, -0.0610485821962
2019-04-03 20:18:48.61,170235212, 0.0, 0.0, 353.0, 584.090026855, -35.363261, 149.1652299, 0.998134791851, 0.0, 0.0, -0.0610485821962
2019-04-03 20:18:48.71,170335172, 0.0, 0.0, 353.0, 584.090026855, -35.363261, 149.1652299, 0.998134791851, 0.0, 0.0, -0.0610485821962
2019-04-03 20:18:48.81,170435132, 0.0, 0.0, 353.0, 584.090026855, -35.363261, 149.1652299, 0.998134791851, 0.0, 0.0, -0.0610485821962
2019-04-03 20:18:48.91,170535092, 0.0, 0.0, 353.0, 584.090026855, -35.363261, 149.1652299, 0.998134791851, 0.0, 0.0, -0.0610485821962
2019-04-03 20:18:49.01,170635052, 0.0, 0.0, 353.0, 584.090026855, -35.363261, 149.1652299, 0.998134791851, 0.0, 0.0, -0.0610485821962
2019-04-03 20:18:49.11,170735012, 0.0, 0.0, 353.0, 584.090026855, -35.363261, 149.1652299, 0.998134791851, 0.0, 0.0, -0.0610485821962
2019-04-03 20:18:49.21,170834972, 0.0, 0.0, 353.0, 584.090026855, -35.363261, 149.1652299, 0.998134791851, 0.0, 0.0, -0.0610485821962
2019-04-03 20:18:49.31,170934932, 0.0, 0.0, 353.0, 584.090026855, -35.363261, 149.1652299, 0.998134791851, 0.0, 0.0, -0.0610485821962
2019-04-03 20:18:49.41,171034892, 0.0, 0.0, 353.0, 584.090026855, -35.363261, 149.1652299, 0.998134791851, 0.0, 0.0, -0.0610485821962
2019-04-03 20:18:49.51,171134852, 0.0, 0.0, 353.0, 584.090026855, -35.363261, 149.1652299, 0.998134791851, 0.0, 0.0, -0.0610485821962
2019-04-03 20:18:49.61,171234812, 0.0, 0.0, 353.0, 584.090026855, -35.363261, 149.1652299, 0.998134791851, 0.0, 0.0, -0.0610485821962
2019-04-03 20:18:49.71,171334772, 0.0, 0.0, 353.0, 584.090026855, -35.363261, 149.1652299, 0.998134791851, 0.0, 0.0, -0.0610485821962
2019-04-03 20:18:49.81,171434732, 0.0, 0.0, 353.0, 584.090026855, -35.363261, 149.1652299, 0.998134791851, 0.0, 0.0, -0.0610485821962
2019-04-03 20:18:49.91,171534692, 0.0, 0.0, 353.0, 584.090026855, -35.363261, 149.1652299, 0.998134791851, 0.0, 0.0, -0.0610485821962
2019-04-03 20:18:50.01,171634652, 0.0, 0.0, 353.0, 584.090026855, -35.363261, 149.1652299, 0.998134791851, 0.0, 0.0, -0.0610485821962
2019-04-03 20:18:50.11,171734612, 0.0, 0.0, 353.0, 584.090026855, -35.363261, 149.1652299, 0.998134791851, 0.0, 0.0, -0.0610485821962
2019-04-03 20:18:50.21,171834572, 0.0, 0.0, 353.0, 584.090026855, -35.363261, 149.1652299, 0.998134791851, 0.0, 0.0, -0.0610485821962
2019-04-03 20:18:50.31,171934532, 0.0, 0.0, 353.0, 584.090026855, -35.363261, 149.1652299, 0.998134791851, 0.0, 0.0, -0.0610485821962
2019-04-03 20:18:50.41,172034492, 0.0, 0.0, 353.0, 584.090026855, -35.363261, 149.1652299, 0.998134791851, 0.0, 0.0, -0.0610485821962
2019-04-03 20:18:50.51,172135285, 0.0, 0.0, 353.0, 584.090026855, -35.363261, 149.1652299, 0.998134791851, 0.0, 0.0, -0.0610485821962
2019-04-03 20:18:50.61,172235245, 0.0, 0.0, 353.0, 584.090026855, -35.363261, 149.1652299, 0.998134791851, 0.0, 0.0, -0.0610485821962
2019-04-03 20:18:50.71,172335205, 0.0, 0.0, 353.0, 584.090026855, -35.363261, 149.1652299, 0.998134791851, 0.0, 0.0, -0.0610485821962
2019-04-03 20:18:50.81,172435165, 0.0, 0.0, 353.0, 584.090026855, -35.363261, 149.1652299, 0.998134791851, 0.0, 0.0, -0.0610485821962
2019-04-03 20:18:50.91,172535125, 0.0, 0.0, 353.0, 584.090026855, -35.363261, 149.1652299, 0.998134791851, 0.0, 0.0, -0.0610485821962
2019-04-03 20:18:51.01,172635085, 0.0, 0.0, 353.0, 584.090026855, -35.363261, 149.1652299, 0.998134791851, 0.0, 0.0, -0.0610485821962
2019-04-03 20:18:51.11,172735045, 0.0, 0.0, 353.0, 584.090026855, -35.363261, 149.1652299, 0.998134791851, 0.0, 0.0, -0.0610485821962
2019-04-03 20:18:51.21,172835005, 0.0, 0.0, 353.0, 584.090026855, -35.363261, 149.1652299, 0.998134791851, 0.0, 0.0, -0.0610485821962
2019-04-03 20:18:51.31,172934965, 0.0, 0.0, 353.0, 584.090026855, -35.363261, 149.1652299, 0.998134791851, 0.0, 0.0, -0.0610485821962
2019-04-03 20:18:51.41,173034925, 0.0, 0.0, 353.0, 584.090026855, -35.363261, 149.1652299, 0.998134791851, 0.0, 0.0, -0.0610485821962
2019-04-03 20:18:51.51,173134885, 0.0, 0.0, 353.0, 584.090026855, -35.363261, 149.1652299, 0.998134791851, 0.0, 0.0, -0.0610485821962
2019-04-03 20:18:51.61,173234845, 0.0, 0.0, 353.0, 584.090026855, -35.363261, 149.1652299, 0.998134791851, 0.0, 0.0, -0.0610485821962
2019-04-03 20:18:51.71,173334805, 0.0, 0.0, 353.0, 584.090026855, -35.363261, 149.1652299, 0.998134791851, 0.0, 0.0, -0.0610485821962
2019-04-03 20:18:51.81,173434765, 0.0, 0.0, 353.0, 584.090026855, -35.363261, 149.1652299, 0.998134791851, 0.0, 0.0, -0.0610485821962
2019-04-03 20:18:51.91,173534725, 0.0, 0.0, 353.0, 584.090026855, -35.363261, 149.1652299, 0.998134791851, 0.0, 0.0, -0.0610485821962
2019-04-03 20:18:52.01,173634685, 0.0, 0.0, 353.0, 584.090026855, -35.363261, 149.1652299, 0.998134791851, 0.0, 0.0, -0.0610485821962
2019-04-03 20:18:52.11,173734645, 0.0, 0.0, 353.0, 584.090026855, -35.363261, 149.1652299, 0.998134791851, 0.0, 0.0, -0.0610485821962
2019-04-03 20:18:52.21,173834605, 0.0, 0.0, 353.0, 584.090026855, -35.363261, 149.1652299, 0.998134791851, 0.0, 0.0, -0.0610485821962
2019-04-03 20:18:52.31,173934565, 0.0, 0.0, 353.0, 584.090026855, -35.363261, 149.1652299, 0.998134791851, 0.0, 0.0, -0.0610485821962
2019-04-03 20:18:52.41,174034525, 0.0, 0.0, 353.0, 584.090026855, -35.363261, 149.1652299, 0.998134791851, 0.0, 0.0, -0.0610485821962
2019-04-03 20:18:52.51,174134485, 0.0, 0.0, 353.0, 584.090026855, -35.363261, 149.1652299, 0.998134791851, 0.0, 0.0, -0.0610485821962
2019-04-03 20:18:52.61,174235278, 0.0, 0.0, 353.0, 584.090026855, -35.363261, 149.1652299, 0.998134791851, 0.0, 0.0, -0.0610485821962
2019-04-03 20:18:52.71,174335238, 0.0, 0.0, 353.0, 584.090026855, -35.363261, 149.1652299, 0.998134791851, 0.0, 0.0, -0.0610485821962
2019-04-03 20:18:52.81,174435198, 0.0, 0.0, 353.0, 584.090026855, -35.363261, 149.1652299, 0.998134791851, 0.0, 0.0, -0.0610485821962
2019-04-03 20:18:52.91,174535158, 0.0, 0.0, 353.0, 584.090026855, -35.363261, 149.1652299, 0.998134791851, 0.0, 0.0, -0.0610485821962
2019-04-03 20:18:53.01,174635118, 0.0, 0.0, 353.0, 584.090026855, -35.363261, 149.1652299, 0.998134791851, 0.0, 0.0, -0.0610485821962
2019-04-03 20:18:53.11,174735078, 0.0, 0.0, 353.0, 584.090026855, -35.363261, 149.1652299, 0.998134791851, 0.0, 0.0, -0.0610485821962
2019-04-03 20:18:53.21,174835038, 0.0, 0.0, 353.0, 584.090026855, -35.363261, 149.1652299, 0.998134791851, 0.0, 0.0, -0.0610485821962
2019-04-03 20:18:53.31,174934998, 0.0, 0.0, 353.0, 584.090026855, -35.363261, 149.1652299, 0.998134791851, 0.0, 0.0, -0.0610485821962
2019-04-03 20:18:53.41,175034958, 0.0, 0.0, 353.0, 584.090026855, -35.363261, 149.1652299, 0.998134791851, 0.0, 0.0, -0.0610485821962
2019-04-03 20:18:53.51,175134918, 0.0, 0.0, 353.0, 584.090026855, -35.363261, 149.1652299, 0.998134791851, 0.0, 0.0, -0.0610485821962
2019-04-03 20:18:53.61,175234878, 0.0, 0.0, 353.0, 584.090026855, -35.363261, 149.1652299, 0.998134791851, 0.0, 0.0, -0.0610485821962
2019-04-03 20:18:53.71,175334838, 0.0, 0.0, 353.0, 584.090026855, -35.363261, 149.1652299, 0.998134791851, 0.0, 0.0, -0.0610485821962
2019-04-03 20:18:53.81,175434798, 0.0, 0.0, 353.0, 584.090026855, -35.363261, 149.1652299, 0.998134791851, 0.0, 0.0, -0.0610485821962
2019-04-03 20:18:53.91,175534758, 0.0, 0.0, 353.0, 584.090026855, -35.363261, 149.1652299, 0.998134791851, 0.0, 0.0, -0.0610485821962
2019-04-03 20:18:54.01,175634718, 0.0, 0.0, 353.0, 584.090026855, -35.363261, 149.1652299, 0.998134791851, 0.0, 0.0, -0.0610485821962
2019-04-03 20:18:56.31,177934631, 0.0, 0.0, 353.0, 584.090026855, -35.363261, 149.1652299, 0.998134791851, 0.0, 0.0, -0.0610485821962
2019-04-03 20:18:56.41,178034591, 0.0, 0.0, 353.0, 584.090026855, -35.363261, 149.1652299, 0.998134791851, 0.0, 0.0, -0.0610485821962
2019-04-03 20:18:56.51,178134551, 0.0, 0.0, 353.0, 584.090026855, -35.363261, 149.1652299, 0.998134791851, 0.0, 0.0, -0.0610485821962
2019-04-03 20:18:56.61,178234511, 0.0, 0.0, 353.0, 584.090026855, -35.363261, 149.1652299, 0.998134791851, 0.0, 0.0, -0.0610485821962
2019-04-03 20:18:56.71,178335304, 0.0, 0.0, 353.0, 584.090026855, -35.363261, 149.1652299, 0.998134791851, 0.0, 0.0, -0.0610485821962
2019-04-03 20:18:56.81,178435264, 0.0, 0.0, 353.0, 584.090026855, -35.363261, 149.1652299, 0.998134791851, 0.0, 0.0, -0.0610485821962
2019-04-03 20:18:56.91,178535224, 0.0, 0.0, 353.0, 584.090026855, -35.363261, 149.1652299, 0.998134791851, 0.0, 0.0, -0.0610485821962
2019-04-03 20:18:57.01,178635184, 0.0, 0.0, 353.0, 584.090026855, -35.363261, 149.1652299, 0.998134791851, 0.0, 0.0, -0.0610485821962
2019-04-03 20:18:57.11,178735144, 0.0, 0.0, 353.0, 584.090026855, -35.363261, 149.1652299, 0.998134791851, 0.0, 0.0, -0.0610485821962
2019-04-03 20:18:57.21,178835104, 0.0, 0.0, 353.0, 584.090026855, -35.363261, 149.1652299, 0.998134791851, 0.0, 0.0, -0.0610485821962
2019-04-03 20:18:57.31,178935064, 0.0, 0.0, 353.0, 584.090026855, -35.363261, 149.1652299, 0.998134791851, 0.0, 0.0, -0.0610485821962
2019-04-03 20:18:57.41,179035024, 0.0, 0.0, 353.0, 584.090026855, -35.363261, 149.1652299, 0.998134791851, 0.0, 0.0, -0.0610485821962
2019-04-03 20:18:57.51,179134984, 0.0, 0.0, 353.0, 584.090026855, -35.363261, 149.1652299, 0.998134791851, 0.0, 0.0, -0.0610485821962
2019-04-03 20:18:57.61,179234944, 0.0, 0.0, 353.0, 584.090026855, -35.363261, 149.1652299, 0.998134791851, 0.0, 0.0, -0.0610485821962
2019-04-03 20:18:57.71,179334904, 0.0, 0.0, 353.0, 584.090026855, -35.363261, 149.1652299, 0.998134791851, 0.0, 0.0, -0.0610485821962
2019-04-03 20:18:57.81,179434864, 0.0, 0.0, 353.0, 584.090026855, -35.363261, 149.1652299, 0.998134791851, 0.0, 0.0, -0.0610485821962
2019-04-03 20:18:57.91,179534824, 0.0, 0.0, 353.0, 584.090026855, -35.363261, 149.1652299, 0.998134791851, 0.0, 0.0, -0.0610485821962
2019-04-03 20:18:58.01,179634784, 0.0, 0.0, 353.0, 584.090026855, -35.363261, 149.1652299, 0.998134791851, 0.0, 0.0, -0.0610485821962
2019-04-03 20:18:58.11,179734744, 0.0, 0.0, 353.0, 584.090026855, -35.363261, 149.1652299, 0.998134791851, 0.0, 0.0, -0.0610485821962
2019-04-03 20:18:58.21,179834704, 0.0, 0.0, 353.0, 584.090026855, -35.363261, 149.1652299, 0.998134791851, 0.0, 0.0, -0.0610485821962
2019-04-03 20:18:58.31,179934664, 0.0, 0.0, 353.0, 584.090026855, -35.363261, 149.1652299, 0.998134791851, 0.0, 0.0, -0.0610485821962
2019-04-03 20:18:58.41,180034624, 0.0, 0.0, 353.0, 584.090026855, -35.363261, 149.1652299, 0.998134791851, 0.0, 0.0, -0.0610485821962
2019-04-03 20:18:58.51,180134584, 0.0, 0.0, 353.0, 584.090026855, -35.363261, 149.1652299, 0.998134791851, 0.0, 0.0, -0.0610485821962
2019-04-03 20:18:58.61,180234544, 0.0, 0.0, 353.0, 584.090026855, -35.363261, 149.1652299, 0.998134791851, 0.0, 0.0, -0.0610485821962
2019-04-03 20:18:58.71,180334504, 0.0, 0.0, 353.0, 584.090026855, -35.363261, 149.1652299, 0.998134791851, 0.0, 0.0, -0.0610485821962
2019-04-03 20:18:58.81,180435297, 0.0, 0.0, 353.0, 584.090026855, -35.363261, 149.1652299, 0.998134791851, 0.0, 0.0, -0.0610485821962
2019-04-03 20:18:58.91,180535257, 0.0, 0.0, 353.0, 584.090026855, -35.363261, 149.1652299, 0.998134791851, 0.0, 0.0, -0.0610485821962
2019-04-03 20:18:59.01,180635217, 0.0, 0.0, 353.0, 584.090026855, -35.363261, 149.1652299, 0.998134791851, 0.0, 0.0, -0.0610485821962
2019-04-03 20:18:59.11,180735177, 0.0, 0.0, 353.0, 584.090026855, -35.363261, 149.1652299, 0.998134791851, 0.0, 0.0, -0.0610485821962
2019-04-03 20:18:59.21,180835137, 0.0, 0.0, 353.0, 584.090026855, -35.363261, 149.1652299, 0.998134791851, 0.0, 0.0, -0.0610485821962
2019-04-03 20:18:59.31,180935097, 0.0, 0.0, 353.0, 584.090026855, -35.363261, 149.1652299, 0.998134791851, 0.0, 0.0, -0.0610485821962
2019-04-03 20:18:59.41,181035057, 0.0, 0.0, 353.0, 584.090026855, -35.363261, 149.1652299, 0.998134791851, 0.0, 0.0, -0.0610485821962
2019-04-03 20:18:59.51,181135017, 0.0, 0.0, 353.0, 584.090026855, -35.363261, 149.1652299, 0.998134791851, 0.0, 0.0, -0.0610485821962
2019-04-03 20:18:59.61,181234977, 0.0, 0.0, 353.0, 584.090026855, -35.363261, 149.1652299, 0.998134791851, 0.0, 0.0, -0.0610485821962
2019-04-03 20:18:59.71,181334937, 0.0, 0.0, 353.0, 584.090026855, -35.363261, 149.1652299, 0.998134791851, 0.0, 0.0, -0.0610485821962
2019-04-03 20:18:59.81,181434897, 0.0, 0.0, 353.0, 584.090026855, -35.363261, 149.1652299, 0.998134791851, 0.0, 0.0, -0.0610485821962
2019-04-03 20:18:59.91,181534857, 0.0, 0.0, 353.0, 584.090026855, -35.363261, 149.1652299, 0.998134791851, 0.0, 0.0, -0.0610485821962
2019-04-03 20:19:00.01,181634817, 0.0, 0.0, 353.0, 584.090026855, -35.363261, 149.1652299, 0.998134791851, 0.0, 0.0, -0.0610485821962
2019-04-03 20:19:00.11,181734777, 0.0, 0.0, 353.0, 584.090026855, -35.363261, 149.1652299, 0.998134791851, 0.0, 0.0, -0.0610485821962
2019-04-03 20:19:00.21,181834737, 0.0, 0.0, 353.0, 584.090026855, -35.363261, 149.1652299, 0.998134791851, 0.0, 0.0, -0.0610485821962
2019-04-03 20:19:00.31,181934697, 0.0, 0.0, 353.0, 584.090026855, -35.363261, 149.1652299, 0.998134791851, 0.0, 0.0, -0.0610485821962
2019-04-03 20:19:00.41,182034657, 0.0, 0.0, 353.0, 584.090026855, -35.363261, 149.1652299, 0.998134791851, 0.0, 0.0, -0.0610485821962
2019-04-03 20:19:00.51,182134617, 0.0, 0.0, 353.0, 584.090026855, -35.363261, 149.1652299, 0.998134791851, 0.0, 0.0, -0.0610485821962
2019-04-03 20:19:00.61,182234577, 0.0, 0.0, 353.0, 584.090026855, -35.363261, 149.1652299, 0.998134791851, 0.0, 0.0, -0.0610485821962
2019-04-03 20:19:00.71,182334537, 0.0, 0.0, 353.0, 584.090026855, -35.363261, 149.1652299, 0.998134791851, 0.0, 0.0, -0.0610485821962
2019-04-03 20:19:00.81,182434497, 0.0, 0.0, 353.0, 584.090026855, -35.363261, 149.1652299, 0.998134791851, 0.0, 0.0, -0.0610485821962
2019-04-03 20:19:00.91,182535290, 0.0, 0.0, 353.0, 584.090026855, -35.363261, 149.1652299, 0.998134791851, 0.0, 0.0, -0.0610485821962
2019-04-03 20:19:01.01,182635250, 0.0, 0.0, 353.0, 584.090026855, -35.363261, 149.1652299, 0.998134791851, 0.0, 0.0, -0.0610485821962
2019-04-03 20:19:01.11,182735210, 0.0, 0.0, 353.0, 584.090026855, -35.363261, 149.1652299, 0.998134791851, 0.0, 0.0, -0.0610486753285
2019-04-03 20:19:01.21,182835170, 0.0, 0.0, 353.0, 584.090026855, -35.363261, 149.1652299, 0.998134791851, 0.0, 0.0, -0.0610486753285
2019-04-03 20:19:01.31,182935130, 0.0, 0.0, 353.0, 584.090026855, -35.363261, 149.1652299, 0.998134791851, 0.0, 0.0, -0.0610486753285
2019-04-03 20:19:01.41,183035090, 0.0, 0.0, 353.0, 584.090026855, -35.363261, 149.1652299, 0.998134791851, 0.0, 0.0, -0.0610486753285
2019-04-03 20:19:01.51,183135050, 0.0, 0.0, 353.0, 584.090026855, -35.363261, 149.1652299, 0.998134791851, 0.0, 0.0, -0.0610486753285
2019-04-03 20:19:01.61,183235010, 0.0, 0.0, 353.0, 584.090026855, -35.363261, 149.1652299, 0.998134791851, 0.0, 0.0, -0.0610486827791
2019-04-03 20:19:01.71,183334970, 0.0, 0.0, 353.0, 584.090026855, -35.363261, 149.1652299, 0.998134791851, 0.0, 0.0, -0.0610486753285
2019-04-03 20:19:01.81,183434930, 0.0, 0.0, 353.0, 584.090026855, -35.363261, 149.1652299, 0.998134791851, 0.0, 0.0, -0.0610486753285
2019-04-03 20:19:01.91,183534890, 0.0, 0.0, 353.0, 584.099975586, -35.363261, 149.1652299, 0.998134791851, 0.0, 0.0, -0.0610486865044
2019-04-03 20:19:02.01,183634850, 0.0, 0.0, 353.0, 584.099975586, -35.363261, 149.1652299, 0.998134791851, 0.0, 0.0, -0.0610486753285
2019-04-03 20:19:02.11,183734810, 0.0, 0.0, 353.0, 584.109985352, -35.363261, 149.1652299, 0.998134791851, 0.0, 0.0, -0.0610486753285
2019-04-03 20:19:02.21,183834770, 0.0, 0.0, 353.0, 584.130004883, -35.363261, 149.1652299, 0.998134791851, 0.0, 0.0, -0.0610486865044
2019-04-03 20:19:02.31,183934730, 0.0, 0.0, 353.0, 584.159973145, -35.363261, 149.1652299, 0.998134791851, 0.0, 0.0, -0.0610486827791
2019-04-03 20:19:02.41,184034690, 0.0, 0.0, 353.0, 584.200012207, -35.363261, 149.1652299, 0.998134791851, 0.0, 0.0, -0.0610486753285
2019-04-03 20:19:02.51,184134650, -0.02, -0.03, 352.99, 584.239990234, -35.363261, 149.1652299, 0.998134374619, -0.000227880562306, -0.000263241148787, -0.0610543116927
2019-04-03 20:19:02.61,184234610, -0.11, -0.13, 352.99, 584.340026855, -35.363261, 149.1652299, 0.998131394386, -0.00111148902215, -0.0010851258412, -0.0610845908523
2019-04-03 20:19:02.71,184334570, -0.26, -0.25, 352.99, 584.479980469, -35.363261, 149.1652299, 0.998124063015, -0.00242812791839, -0.00209546135738, -0.0611394941807
2019-04-03 20:19:02.81,184434530, -0.36, -0.35, 352.98, 584.630004883, -35.363261, 149.1652299, 0.99811476469, -0.0034049982205, -0.00288330717012, -0.061213478446
2019-04-03 20:19:02.91,184534490, -0.38, -0.38, 352.97, 584.789978027, -35.363261, 149.1652299, 0.998107910156, -0.0035670879297, -0.00318695302121, -0.0612997189164
2019-04-03 20:19:03.01,184635283, -0.32, -0.35, 352.96, 584.940002441, -35.363261, 149.1652299, 0.998105406761, -0.00306223146617, -0.00287886988372, -0.0613837279379
2019-04-03 20:19:03.11,184735243, -0.22, -0.24, 352.95, 585.090026855, -35.363261, 149.1652299, 0.998105466366, -0.00205135648139, -0.0020394672174, -0.0614587776363
2019-04-03 20:19:03.21,184835203, -0.1, -0.14, 352.94, 585.25, -35.363261, 149.1652298, 0.998104631901, -0.00096482533263, -0.00119243422523, -0.0615206211805
2019-04-03 20:19:03.31,184935163, -0.01, -0.07, 352.94, 585.409973145, -35.363261, 149.1652298, 0.998102724552, -0.000183575888514, -0.00064297177596, -0.0615674108267
2019-04-03 20:19:03.41,185035123, 0.01, -0.02, 352.93, 585.58001709, -35.3632609, 149.1652298, 0.998101174831, 0.000156536174472, -0.000197104542167, -0.0615953505039
2019-04-03 20:19:03.51,185135083, 0.02, 0.02, 352.93, 585.760009766, -35.3632609, 149.1652298, 0.998100042343, 0.000187704077689, 0.000193018029677, -0.0616140589118
2019-04-03 20:19:03.61,185235043, 0.0, 0.04, 352.93, 585.940002441, -35.3632609, 149.1652298, 0.998099267483, 3.9260747144e-05, 0.000375095609343, -0.0616256259382
2019-04-03 20:19:03.71,185335003, 0.0, 0.03, 352.93, 586.119995117, -35.3632609, 149.1652298, 0.998099505901, -1.80911174539e-05, 0.000271300261375, -0.0616224147379
2019-04-03 20:19:03.81,185434963, 0.0, 0.0, 352.93, 586.309997559, -35.3632609, 149.1652297, 0.99810051918, 7.27092410671e-05, -8.54756290209e-05, -0.0616062730551
2019-04-03 20:19:03.91,185534923, 0.02, -0.04, 352.93, 586.5, -35.3632608, 149.1652297, 0.998101651669, 0.000169473089045, -0.000387121195672, -0.0615868233144
2019-04-03 20:19:04.01,185634883, 0.0, -0.06, 352.94, 586.690002441, -35.3632608, 149.1652297, 0.998102605343, 1.81380164577e-05, -0.000559807405807, -0.0615705661476
2019-04-03 20:19:04.11,185734843, -0.01, -0.07, 352.94, 586.890014648, -35.3632608, 149.1652297, 0.998103380203, -0.000207282690099, -0.000642157625407, -0.0615566521883
2019-04-03 20:19:04.21,185834803, -0.04, -0.07, 352.94, 587.090026855, -35.3632608, 149.1652297, 0.998103916645, -0.00043814786477, -0.000633492483757, -0.0615470036864
2019-04-03 20:19:04.31,185934763, -0.06, -0.05, 352.94, 587.289978027, -35.3632608, 149.1652296, 0.998104453087, -0.000559532083571, -0.000451402622275, -0.0615381710231
2019-04-03 20:19:04.41,186034723, -0.06, -0.02, 352.94, 587.489990234, -35.3632608, 149.1652296, 0.998104810715, -0.000587669434026, -0.000205409014598, -0.0615336745977
2019-04-03 20:19:04.51,186134683, -0.05, 0.0, 352.94, 587.700012207, -35.3632608, 149.1652296, 0.998104214668, -0.000467277131975, 3.61376805813e-05, -0.0615450963378
2019-04-03 20:19:04.61,186234643, -0.03, 0.0, 352.94, 587.909973145, -35.3632608, 149.1652296, 0.998103022575, -0.000297992315609, 9.44499697653e-05, -0.0615650191903
2019-04-03 20:19:04.71,186334603, -0.02, 0.0, 352.93, 588.119995117, -35.3632607, 149.1652296, 0.998101472855, -0.000200126407435, 4.69989245175e-05, -0.06159061566
2019-04-03 20:19:04.81,186434563, -0.03, -0.02, 352.93, 588.33001709, -35.3632607, 149.1652294, 0.998099446297, -0.000358455406968, -0.00022596141207, -0.0616231486201
2019-04-03 20:19:04.91,186534523, -0.05, -0.06, 352.92, 588.539978027, -35.3632607, 149.1652294, 0.998096466064, -0.000535807106644, -0.000576686288696, -0.0616678707302
2019-04-03 20:19:05.01,186634483, -0.08, -0.12, 352.92, 588.75, -35.3632607, 149.1652294, 0.998092710972, -0.000776500557549, -0.00100390880834, -0.0617192350328
2019-04-03 20:19:05.11,186735276, -0.11, -0.16, 352.91, 588.969970703, -35.3632607, 149.1652294, 0.998088896275, -0.00111003872007, -0.0013425181387, -0.0617704130709
2019-04-03 20:19:05.21,186835236, -0.16, -0.18, 352.91, 589.179992676, -35.3632607, 149.1652294, 0.998084545135, -0.00152308028191, -0.00151063723024, -0.0618277974427
2019-04-03 20:19:05.31,186935196, -0.19, -0.17, 352.9, 589.400024414, -35.3632607, 149.1652293, 0.998080193996, -0.00182729866356, -0.00144759635441, -0.0618909075856
2019-04-03 20:19:05.41,187035156, -0.22, -0.16, 352.89, 589.619995117, -35.3632607, 149.1652293, 0.998075187206, -0.00209155422635, -0.00130794104189, -0.0619667991996
2019-04-03 20:19:05.51,187135116, -0.25, -0.14, 352.88, 589.840026855, -35.3632607, 149.1652293, 0.99806958437, -0.00227993098088, -0.0011436882196, -0.0620539188385
2019-04-03 20:19:05.61,187235076, -0.24, -0.16, 352.87, 590.059997559, -35.3632605, 149.1652293, 0.998064100742, -0.00224545877427, -0.0013377192663, -0.0621395632625
2019-04-03 20:19:05.71,187335036, -0.21, -0.2, 352.86, 590.280029297, -35.3632605, 149.1652293, 0.998058497906, -0.00202469644137, -0.00168740656227, -0.0622277148068
2019-04-03 20:19:05.81,187434996, -0.17, -0.24, 352.85, 590.5, -35.3632605, 149.1652293, 0.998053014278, -0.00169418239966, -0.00206403038464, -0.0623146146536
2019-04-03 20:19:05.91,187534956, -0.15, -0.28, 352.84, 590.719970703, -35.3632605, 149.1652292, 0.998047828674, -0.00153031817172, -0.00235303444788, -0.0623919926584
2019-04-03 20:19:06.01,187634916, -0.17, -0.27, 352.83, 590.940002441, -35.3632604, 149.1652292, 0.998043715954, -0.00163834018167, -0.00229006819427, -0.0624563917518
2019-04-03 20:19:06.11,187734876, -0.18, -0.29, 352.83, 591.159973145, -35.3632604, 149.1652291, 0.998039841652, -0.00181010272354, -0.00248921476305, -0.062506467104
2019-04-03 20:19:06.21,187834836, -0.17, -0.29, 352.82, 591.380004883, -35.3632604, 149.1652291, 0.998036623001, -0.0017138622934, -0.00251105730422, -0.0625596567988
2019-04-03 20:19:06.31,187934796, -0.15, -0.25, 352.82, 591.590026855, -35.3632604, 149.1652289, 0.998034477234, -0.00145989865996, -0.00210643745959, -0.0626156851649
2019-04-03 20:19:06.41,188034756, -0.14, -0.18, 352.81, 591.789978027, -35.3632604, 149.1652289, 0.998032033443, -0.00137692957651, -0.00149040401448, -0.0626737624407
2019-04-03 20:19:06.51,188134716, -0.13, -0.11, 352.8, 591.979980469, -35.3632604, 149.1652289, 0.998028874397, -0.00127579644322, -0.00091738300398, -0.0627371668816
2019-04-03 20:19:06.61,188234676, -0.11, -0.05, 352.79, 592.150024414, -35.3632603, 149.1652289, 0.998025000095, -0.00103102496359, -0.000417091883719, -0.0628080889583
2019-04-03 20:19:06.71,188334636, -0.07, 0.0, 352.78, 592.320007324, -35.3632603, 149.1652289, 0.998020410538, -0.000684235186782, -2.27759755944e-05, -0.0628874972463
2019-04-03 20:19:06.81,188434596, 0.05, 0.0, 352.77, 592.469970703, -35.3632603, 149.1652288, 0.998015582561, 0.000458997557871, 5.57131279493e-05, -0.0629664734006
2019-04-03 20:19:06.91,188534556, 0.45, 0.03, 352.77, 592.609985352, -35.3632602, 149.1652288, 0.998002767563, 0.00402075145394, 3.906711936e-05, -0.0630425959826
2019-04-03 20:19:07.01,188634516, 1.16, 0.09, 352.76, 592.739990234, -35.3632602, 149.1652287, 0.997954010963, 0.0102058006451, 0.000143212382682, -0.0631162077188
2019-04-03 20:19:07.11,188734476, 2.09, 0.17, 352.75, 592.859985352, -35.3632602, 149.1652287, 0.997832715511, 0.0183591544628, 0.000363989005564, -0.0631880536675
2019-04-03 20:19:07.21,188835269, 3.17, 0.26, 352.75, 592.960021973, -35.3632601, 149.1652288, 0.997609436512, 0.0278074946254, 0.000542865309399, -0.0632606595755
2019-04-03 20:19:07.31,188935229, 4.29, 0.36, 352.74, 593.049987793, -35.3632601, 149.1652289, 0.997284948826, 0.0375653579831, 0.000773138541263, -0.0633326992393
2019-04-03 20:19:07.41,189035189, 5.31, 0.44, 352.74, 593.130004883, -35.3632601, 149.1652289, 0.996901452541, 0.0465257838368, 0.000917710713111, -0.0634189769626
2019-04-03 20:19:07.51,189135149, 6.14, 0.5, 352.73, 593.200012207, -35.3632601, 149.1652293, 0.996529102325, 0.0537938550115, 0.000973863468971, -0.063521400094
2019-04-03 20:19:07.61,189235109, 6.78, 0.55, 352.72, 593.260009766, -35.3632599, 149.1652296, 0.996203899384, 0.0593967214227, 0.0010542414384, -0.0636301636696
2019-04-03 20:19:07.71,189335069, 7.29, 0.61, 352.71, 593.309997559, -35.3632599, 149.1652299, 0.995923757553, 0.0638093799353, 0.00131598615553, -0.0637379065156
2019-04-03 20:19:07.81,189435029, 7.7, 0.69, 352.7, 593.359985352, -35.3632599, 149.1652303, 0.995675504208, 0.0674590840936, 0.00173331261612, -0.063847951591
2019-04-03 20:19:07.91,189534989, 8.03, 0.74, 352.69, 593.400024414, -35.3632598, 149.1652311, 0.995466470718, 0.0703567788005, 0.00197862437926, -0.0639736354351
2019-04-03 20:19:08.01,189634949, 8.27, 0.75, 352.68, 593.429992676, -35.3632598, 149.1652317, 0.995310842991, 0.0723955705762, 0.00192244548816, -0.0641212463379
2019-04-03 20:19:08.11,189734909, 8.43, 0.73, 352.66, 593.460021973, -35.3632598, 149.1652327, 0.995199501514, 0.0737900808454, 0.00172037503216, -0.0642656311393
2019-04-03 20:19:08.21,189834869, 8.57, 0.71, 352.64, 593.489990234, -35.3632598, 149.1652336, 0.995102345943, 0.0749818459153, 0.00139617710374, -0.0643980205059
2019-04-03 20:19:08.31,189934829, 8.71, 0.69, 352.63, 593.510009766, -35.3632597, 149.1652346, 0.995004713535, 0.0761924237013, 0.00111307692714, -0.0644911676645
2019-04-03 20:19:08.41,190034789, 8.86, 0.84, 352.76, 593.539978027, -35.3632597, 149.1652356, 0.994956433773, 0.0776249691844, 0.00247024279088, -0.0634822323918
2019-04-03 20:19:08.51,190134749, 9.09, 1.29, 353.57, 593.549987793, -35.3632596, 149.165237, 0.995174109936, 0.0797703713179, 0.00684213032946, -0.0567312650383
2019-04-03 20:19:08.61,190234709, 9.44, 1.74, 355.76, 593.570007324, -35.3632596, 149.1652383, 0.995765686035, 0.0827860534191, 0.0121392887086, -0.0380765497684
2019-04-03 20:19:08.71,190334669, 9.91, 1.72, 359.59, 593.590026855, -35.3632595, 149.1652397, 0.996135413647, 0.086461044848, 0.0146867632866, -0.00480912206694
2019-04-03 20:19:08.81,190434629, 10.39, 0.99, 4.93, 593.599975586, -35.3632595, 149.1652412, 0.994962275028, 0.0901218131185, 0.0125678870827, 0.0420735180378
2019-04-03 20:19:08.91,190534589, 10.72, -0.42, 11.49, 593.619995117, -35.3632596, 149.1652427, 0.990575551987, 0.0933386906981, 0.00564307253808, 0.100080527365
2019-04-03 20:19:09.01,190634549, 10.74, -2.41, 18.99, 593.630004883, -35.3632596, 149.1652445, 0.981417715549, 0.0957544445992, -0.00528493430465, 0.16620002687
2019-04-03 20:19:09.11,190734509, 10.34, -4.73, 27.16, 593.650024414, -35.3632597, 149.1652461, 0.966381669044, 0.0972078368068, -0.018817698583, 0.237282559276
2019-04-03 20:19:09.21,190835302, 9.47, -7.14, 35.82, 593.659973145, -35.3632598, 149.165248, 0.944851338863, 0.0975511744618, -0.0337545350194, 0.310806125402
2019-04-03 20:19:09.31,190935262, 8.17, -9.38, 44.59, 593.66998291, -35.3632598, 149.16525, 0.917586088181, 0.096646502614, -0.0485376417637, 0.382543295622
2019-04-03 20:19:09.41,191035222, 6.49, -11.24, 53.25, 593.690002441, -35.3632598, 149.1652522, 0.885712146759, 0.0942454338074, -0.0621304735541, 0.450301647186
2019-04-03 20:19:09.51,191135182, 4.6, -12.62, 61.54, 593.700012207, -35.3632598, 149.1652543, 0.851033687592, 0.0905017778277, -0.0739387869835, 0.511941552162
2019-04-03 20:19:09.61,191235142, 2.67, -13.54, 69.24, 593.719970703, -35.3632598, 149.1652566, 0.815363705158, 0.0860491842031, -0.0838436186314, 0.566346108913
2019-04-03 20:19:09.71,191335102, 0.87, -14.09, 76.24, 593.729980469, -35.3632598, 149.1652591, 0.780145347118, 0.0816868618131, -0.0918096527457, 0.613409757614
2019-04-03 20:19:09.81,191435062, -0.67, -14.38, 82.52, 593.75, -35.3632598, 149.1652617, 0.746228575706, 0.0781673043966, -0.0979305356741, 0.653790771961
2019-04-03 20:19:09.91,191535022, -2.2, -14.51, 88.09, 593.760009766, -35.3632597, 149.1652643, 0.714567482471, 0.0741047263145, -0.104028791189, 0.687808036804
2019-04-03 20:19:10.01,191634982, -3.84, -14.51, 92.62, 593.780029297, -35.3632595, 149.1652671, 0.687868893147, 0.0683223232627, -0.111265420914, 0.71399474144
2019-04-03 20:19:10.11,191734942, -5.28, -14.42, 95.76, 593.789978027, -35.3632592, 149.1652699, 0.668935358524, 0.0623623728752, -0.118042252958, 0.731233537197
2019-04-03 20:19:10.21,191834902, -6.2, -14.31, 97.39, 593.799987793, -35.3632591, 149.1652729, 0.658966898918, 0.0580096878111, -0.122427031398, 0.739871025085
2019-04-03 20:19:10.31,191934862, -6.42, -14.27, 97.65, 593.820007324, -35.3632587, 149.1652758, 0.657465100288, 0.0568071417511, -0.123521193862, 0.741117417812
2019-04-03 20:19:10.41,192034822, -5.91, -14.39, 96.76, 593.83001709, -35.3632585, 149.165279, 0.66287624836, 0.0595204085112, -0.121364541352, 0.736425876617
2019-04-03 20:19:10.51,192134782, -4.8, -14.65, 95.03, 593.849975586, -35.363258, 149.1652822, 0.673195004463, 0.0659032613039, -0.116679169238, 0.727221608162
2019-04-03 20:19:10.61,192234742, -3.29, -15.02, 92.76, 593.859985352, -35.3632577, 149.1652854, 0.686350882053, 0.0749436020851, -0.11080891639, 0.714861750603
2019-04-03 20:19:10.71,192334702, -1.66, -15.43, 90.25, 593.880004883, -35.3632573, 149.1652889, 0.700433015823, 0.0850099548697, -0.104927904904, 0.700825989246
2019-04-03 20:19:10.81,192434662, -0.12, -15.77, 87.81, 593.890014648, -35.3632567, 149.1652923, 0.713740408421, 0.0943803712726, -0.0996238738298, 0.686834812164
2019-04-03 20:19:10.91,192534622, 1.14, -16.0, 85.71, 593.909973145, -35.3632564, 149.1652959, 0.724922478199, 0.101922467351, -0.095356695354, 0.674541532993
2019-04-03 20:19:11.01,192634582, 2.01, -16.12, 84.14, 593.929992676, -35.3632561, 149.1652995, 0.73317861557, 0.106863588095, -0.0924534872174, 0.665192961693
2019-04-03 20:19:11.11,192734542, 2.45, -16.16, 83.2, 593.940002441, -35.3632556, 149.1653031, 0.738168597221, 0.109187804163, -0.0910585075617, 0.659464657307
2019-04-03 20:19:11.21,192834502, 2.49, -16.17, 82.88, 593.960021973, -35.3632554, 149.1653069, 0.739960074425, 0.109231628478, -0.0911861211061, 0.657428860664
2019-04-03 20:19:11.31,192935295, 2.17, -16.19, 83.11, 593.969970703, -35.363255, 149.1653107, 0.73891055584, 0.107497796416, -0.0928663611412, 0.6586586833
2019-04-03 20:19:11.41,193035255, 1.63, -16.22, 83.76, 593.989990234, -35.3632548, 149.1653146, 0.735616862774, 0.104760654271, -0.0956063121557, 0.662383973598
2019-04-03 20:19:11.51,193135215, 0.99, -16.28, 84.68, 594.0, -35.3632546, 149.1653187, 0.7307959795, 0.101761206985, -0.0989200174809, 0.66768014431
2019-04-03 20:19:11.61,193235175, 0.33, -16.35, 85.72, 594.020019531, -35.3632543, 149.1653227, 0.725254118443, 0.0988605245948, -0.102336481214, 0.673617362976
2019-04-03 20:19:11.71,193335135, -0.26, -16.41, 86.73, 594.039978027, -35.3632541, 149.1653268, 0.719756603241, 0.0963410288095, -0.105356000364, 0.679388642311
2019-04-03 20:19:11.81,193435095, -0.74, -16.47, 87.6, 594.049987793, -35.3632538, 149.1653308, 0.714924693108, 0.0945110172033, -0.107898265123, 0.684330642223
2019-04-03 20:19:11.91,193535055, -1.09, -16.55, 88.25, 594.070007324, -35.3632536, 149.1653351, 0.711206316948, 0.0934989154339, -0.109909459949, 0.68801420927
2019-04-03 20:19:12.01,193635015, -1.27, -16.63, 88.66, 594.08001709, -35.3632532, 149.1653393, 0.708868324757, 0.0931945741177, -0.111204445362, 0.690256536007
2019-04-03 20:19:12.11,193734975, -1.3, -16.71, 88.81, 594.099975586, -35.3632531, 149.1653436, 0.70792734623, 0.093612767756, -0.111732691526, 0.69107991457
2019-04-03 20:19:12.21,193834935, -1.21, -16.78, 88.73, 594.109985352, -35.3632528, 149.1653479, 0.708254098892, 0.0945507735014, -0.111614428461, 0.690636277199
2019-04-03 20:19:12.31,193934895, -1.03, -16.82, 88.48, 594.130004883, -35.3632525, 149.1653523, 0.709603428841, 0.095664203167, -0.11099153012, 0.689196765423
2019-04-03 20:19:12.41,194034855, -0.8, -16.85, 88.1, 594.150024414, -35.3632522, 149.1653567, 0.711616754532, 0.0969239473343, -0.110175043344, 0.687072694302
2019-04-03 20:19:12.51,194134815, -0.53, -16.91, 87.68, 594.159973145, -35.3632519, 149.1653612, 0.713893830776, 0.0985048934817, -0.109254345298, 0.684628307819
2019-04-03 20:19:12.61,194234775, -0.26, -16.96, 87.25, 594.179992676, -35.3632516, 149.1653657, 0.716144621372, 0.100100040436, -0.108325839043, 0.682189464569
2019-04-03 20:19:12.71,194334735, -0.02, -17.01, 86.88, 594.190002441, -35.3632513, 149.1653701, 0.718116164207, 0.101542651653, -0.10759845376, 0.680015325546
2019-04-03 20:19:12.81,194434695, 0.14, -17.05, 86.58, 594.210021973, -35.363251, 149.1653748, 0.71967035532, 0.10260181874, -0.107056632638, 0.678296685219
2019-04-03 20:19:12.91,194534655, 0.25, -17.08, 86.39, 594.219970703, -35.3632507, 149.1653794, 0.720712482929, 0.103235788643, -0.10678421706, 0.677135884762
2019-04-03 20:19:13.01,194634615, 0.28, -17.1, 86.29, 594.239990234, -35.3632505, 149.165384, 0.721226930618, 0.103511497378, -0.106797583401, 0.676543712616
2019-04-03 20:19:13.11,194734575, 0.24, -17.14, 86.28, 594.25, -35.3632501, 149.1653887, 0.721268773079, 0.103471174836, -0.10729663074, 0.676426291466
2019-04-03 20:19:13.21,194834535, 0.15, -17.18, 86.35, 594.270019531, -35.3632499, 149.1653933, 0.720933020115, 0.103194601834, -0.108033917844, 0.676709115505
2019-04-03 20:19:13.31,194934495, 0.04, -17.21, 86.46, 594.289978027, -35.3632495, 149.1653981, 0.720332145691, 0.102841310203, -0.108790136874, 0.6772813797
2019-04-03 20:19:13.41,195035288, -0.07, -17.25, 86.6, 594.299987793, -35.3632494, 149.1654029, 0.719593942165, 0.102436438203, -0.109603211284, 0.677995979786
2019-04-03 20:19:13.51,195135248, -0.17, -17.28, 86.73, 594.320007324, -35.3632491, 149.1654075, 0.718852162361, 0.10207477212, -0.110289737582, 0.678725659847
2019-04-03 20:19:13.61,195235208, -0.26, -17.32, 86.85, 594.33001709, -35.3632488, 149.1654123, 0.718196809292, 0.101867377758, -0.110939770937, 0.67934435606
2019-04-03 20:19:13.71,195335168, -0.33, -17.37, 86.94, 594.349975586, -35.3632485, 149.1654173, 0.71768784523, 0.101865716279, -0.111619725823, 0.679771006107
2019-04-03 20:19:13.81,195435128, -0.36, -17.43, 86.99, 594.359985352, -35.3632482, 149.1654221, 0.717385053635, 0.101998984814, -0.112094044685, 0.679992496967
2019-04-03 20:19:13.91,195535088, -0.37, -17.46, 86.99, 594.380004883, -35.363248, 149.165427, 0.717309057713, 0.102185927331, -0.112360008061, 0.680000782013
2019-04-03 20:19:14.01,195635048, -0.35, -17.48, 86.96, 594.400024414, -35.3632476, 149.1654318, 0.717450022697, 0.102369144559, -0.112414471805, 0.679815471172
2019-04-03 20:19:14.11,195735008, -0.34, -17.48, 86.91, 594.409973145, -35.3632474, 149.1654367, 0.717786073685, 0.102380938828, -0.112332373857, 0.679472446442
2019-04-03 20:19:14.21,195834968, -0.31, -17.48, 86.83, 594.429992676, -35.363247, 149.1654417, 0.71821564436, 0.102513447404, -0.112273678184, 0.679008066654
2019-04-03 20:19:14.31,195934928, -0.26, -17.5, 86.74, 594.450012207, -35.3632469, 149.1654467, 0.718671560287, 0.102872177958, -0.112163834274, 0.678489327431
2019-04-03 20:19:14.41,196034888, -0.21, -17.56, 86.65, 594.460021973, -35.3632465, 149.1654517, 0.719115555286, 0.103370562196, -0.112333185971, 0.677914917469
2019-04-03 20:19:14.51,196134848, -0.18, -17.6, 86.57, 594.479980469, -35.3632463, 149.1654566, 0.719540297985, 0.103770896792, -0.112443268299, 0.677384614944
2019-04-03 20:19:14.61,196234808, -0.15, -17.63, 86.49, 594.489990234, -35.3632459, 149.1654615, 0.719907641411, 0.104064688087, -0.112591460347, 0.676924467087
2019-04-03 20:19:14.71,196334768, -0.13, -17.67, 86.44, 594.510009766, -35.3632457, 149.1654667, 0.720189750195, 0.104313574731, -0.112739905715, 0.676561236382
2019-04-03 20:19:14.81,196434728, -0.13, -17.67, 86.4, 594.530029297, -35.3632453, 149.1654716, 0.72040271759, 0.10436989367, -0.112791374326, 0.676317214966
2019-04-03 20:19:14.91,196534688, -0.15, -17.68, 86.38, 594.539978027, -35.3632451, 149.1654768, 0.720553159714, 0.104238137603, -0.112936370075, 0.676153123379
2019-04-03 20:19:15.01,196634648, -0.17, -17.69, 86.37, 594.559997559, -35.3632447, 149.1654817, 0.720630407333, 0.104131601751, -0.113147161901, 0.676051914692
2019-04-03 20:19:15.11,196734608, -0.19, -17.7, 86.36, 594.58001709, -35.3632445, 149.1654869, 0.720659852028, 0.104094035923, -0.113316625357, 0.675997912884
2019-04-03 20:19:15.21,196834568, -0.21, -17.71, 86.36, 594.590026855, -35.3632443, 149.165492, 0.720673203468, 0.104029476643, -0.113544672728, 0.675955355167
2019-04-03 20:19:15.31,196934528, -0.22, -17.72, 86.36, 594.609985352, -35.363244, 149.165497, 0.720678091049, 0.104017011821, -0.113661043346, 0.675932526588
2019-04-03 20:19:15.41,197034488, -0.2, -17.73, 86.36, 594.630004883, -35.3632437, 149.1655022, 0.720678925514, 0.104171529412, -0.113583169878, 0.675920903683
2019-04-03 20:19:15.51,197135281, -0.17, -17.75, 86.35, 594.640014648, -35.3632434, 149.1655075, 0.720688819885, 0.104480355978, -0.113563798368, 0.6758659482
2019-04-03 20:19:15.61,197235241, -0.13, -17.77, 86.33, 594.659973145, -35.3632431, 149.1655126, 0.720727860928, 0.104809880257, -0.113486908376, 0.675786197186
2019-04-03 20:19:15.71,197335201, -0.11, -17.8, 86.31, 594.679992676, -35.3632428, 149.1655178, 0.720789372921, 0.10510456562, -0.113544374704, 0.675665199757
2019-04-03 20:19:15.81,197435161, -0.12, -17.83, 86.29, 594.690002441, -35.3632424, 149.165523, 0.72089445591, 0.105202667415, -0.113818511367, 0.675491631031
2019-04-03 20:19:15.91,197535121, -0.15, -17.86, 86.26, 594.710021973, -35.3632421, 149.1655281, 0.721045732498, 0.105140164495, -0.114209331572, 0.675273895264
2019-04-03 20:19:16.01,197635081, -0.17, -17.87, 86.24, 594.729980469, -35.3632418, 149.1655333, 0.721224784851, 0.10507465899, -0.114385992289, 0.675062954426
2019-04-03 20:19:16.11,197735041, -0.14, -17.85, 86.2, 594.739990234, -35.3632415, 149.1655386, 0.721405088902, 0.105098858476, -0.114156834781, 0.67490530014
2019-04-03 20:19:16.21,197835001, -0.12, -17.83, 86.17, 594.760009766, -35.3632412, 149.1655438, 0.721587121487, 0.10510174185, -0.113922938704, 0.674749732018
2019-04-03 20:19:16.31,197934961, -0.12, -17.82, 86.14, 594.780029297, -35.3632409, 149.165549, 0.721763014793, 0.105050504208, -0.11390735954, 0.674572229385
2019-04-03 20:19:16.41,198034921, -0.12, -17.85, 86.12, 594.789978027, -35.3632406, 149.1655542, 0.721897721291, 0.105123981833, -0.114109762013, 0.674382388592
2019-04-03 20:19:16.51,198134881, -0.12, -17.88, 86.09, 594.809997559, -35.3632403, 149.1655595, 0.721997082233, 0.105288781226, -0.114314265549, 0.6742156744
2019-04-03 20:19:16.61,198234841, -0.14, -17.9, 86.08, 594.83001709, -35.36324, 149.1655648, 0.72209918499, 0.105307996273, -0.114538930357, 0.674065172672
2019-04-03 20:19:16.71,198334801, -0.16, -17.91, 86.06, 594.840026855, -35.3632396, 149.16557, 0.722205042839, 0.105229668319, -0.114742361009, 0.673929393291
2019-04-03 20:19:16.81,198434761, -0.15, -17.91, 86.05, 594.859985352, -35.3632392, 149.1655753, 0.722281098366, 0.105259150267, -0.114786632359, 0.67383569479
2019-04-03 20:19:16.91,198534721, -0.15, -17.92, 86.03, 594.880004883, -35.363239, 149.1655806, 0.7223559618, 0.105270422995, -0.114795669913, 0.673752188683
2019-04-03 20:19:17.01,198634681, -0.15, -17.92, 86.02, 594.890014648, -35.3632386, 149.1655859, 0.722423970699, 0.105298355222, -0.114850975573, 0.673665463924
2019-04-03 20:19:17.11,198734641, -0.13, -17.95, 86.01, 594.909973145, -35.3632384, 149.1655912, 0.722451925278, 0.105567395687, -0.114897802472, 0.673585414886
2019-04-03 20:19:17.21,198834601, -0.11, -17.97, 85.99, 594.929992676, -35.363238, 149.1655965, 0.722487568855, 0.105838626623, -0.114957332611, 0.673494398594
2019-04-03 20:19:17.31,198934561, -0.09, -18.0, 85.98, 594.940002441, -35.3632377, 149.1656018, 0.722531020641, 0.106064677238, -0.115013897419, 0.673402607441
2019-04-03 20:19:17.41,199034521, -0.09, -18.0, 85.96, 594.960021973, -35.3632373, 149.1656071, 0.722609460354, 0.106095664203, -0.115017332137, 0.673312902451
2019-04-03 20:19:17.51,199134481, -0.09, -18.0, 85.95, 594.979980469, -35.3632371, 149.1656123, 0.722703397274, 0.106059543788, -0.115011699498, 0.673218786716
2019-04-03 20:19:17.61,199235274, -0.08, -18.01, 85.93, 594.989990234, -35.3632367, 149.1656178, 0.722769916058, 0.106222495437, -0.11504843086, 0.673115372658
2019-04-03 20:19:17.71,199335234, -0.04, -18.02, 85.92, 595.010009766, -35.3632364, 149.1656231, 0.722824811935, 0.106454193592, -0.114925675094, 0.673040807247
2019-04-03 20:19:17.81,199435194, -0.03, -18.04, 85.9, 595.030029297, -35.3632361, 149.1656285, 0.722885608673, 0.106602720916, -0.114968337119, 0.67294472456
2019-04-03 20:19:17.91,199535154, -0.04, -18.06, 85.89, 595.039978027, -35.3632358, 149.1656338, 0.722952485085, 0.106676191092, -0.115167610347, 0.672827124596
2019-04-03 20:19:18.01,199635114, -0.06, -18.06, 85.87, 595.059997559, -35.3632354, 149.1656391, 0.723045945168, 0.1065672189, -0.115308180451, 0.672719836235
2019-04-03 20:19:18.11,199735074, -0.07, -18.06, 85.86, 595.08001709, -35.3632351, 149.1656444, 0.723134458065, 0.106455415487, -0.115335457027, 0.672637760639
2019-04-03 20:19:18.21,199835034, -0.06, -18.06, 85.85, 595.090026855, -35.3632348, 149.1656499, 0.723180890083, 0.106546893716, -0.115316234529, 0.672576665878
2019-04-03 20:19:18.31,199934994, -0.02, -18.08, 85.84, 595.109985352, -35.3632343, 149.1656552, 0.723187506199, 0.106871403754, -0.115213096142, 0.672535717487
2019-04-03 20:19:18.41,200034954, 0.0, -18.09, 85.83, 595.130004883, -35.3632341, 149.1656606, 0.723214328289, 0.107067577541, -0.115217074752, 0.672474980354
2019-04-03 20:19:18.51,200134914, -0.01, -18.11, 85.82, 595.140014648, -35.3632337, 149.1656659, 0.723261535168, 0.107085898519, -0.115353964269, 0.672397851944
2019-04-03 20:19:18.61,200234874, -0.04, -18.11, 85.82, 595.159973145, -35.3632334, 149.1656713, 0.723330140114, 0.106894731522, -0.115533798933, 0.672323584557
2019-04-03 20:19:18.71,200334834, -0.06, -18.12, 85.81, 595.179992676, -35.363233, 149.1656767, 0.723372042179, 0.106854446232, -0.115775108337, 0.672243416309
2019-04-03 20:19:18.81,200434794, -0.08, -18.15, 85.8, 595.200012207, -35.3632328, 149.1656821, 0.723407566547, 0.10690575093, -0.116056397557, 0.67214846611
2019-04-03 20:19:18.91,200534754, -0.08, -18.15, 85.79, 595.210021973, -35.3632324, 149.1656875, 0.723466098309, 0.10688329488, -0.116054736078, 0.672089338303
2019-04-03 20:19:19.01,200634714, -0.06, -18.13, 85.78, 595.229980469, -35.3632321, 149.1656928, 0.723527193069, 0.106865093112, -0.115877516568, 0.672057032585
2019-04-03 20:19:19.11,200734674, -0.06, -18.12, 85.77, 595.25, -35.3632318, 149.1656983, 0.723595619202, 0.106812760234, -0.115810021758, 0.6720033288
2019-04-03 20:19:19.21,200834634, -0.07, -18.12, 85.76, 595.260009766, -35.3632315, 149.1657037, 0.723667323589, 0.106753565371, -0.11586715281, 0.671925723553
2019-04-03 20:19:19.31,200934594, -0.06, -18.11, 85.75, 595.280029297, -35.3632311, 149.165709, 0.723746299744, 0.106700927019, -0.11575768888, 0.671867787838
2019-04-03 20:19:19.41,201034554, -0.04, -18.09, 85.73, 595.299987793, -35.3632307, 149.1657146, 0.723830938339, 0.106687568128, -0.115475617349, 0.671827316284
2019-04-03 20:19:19.51,201134514, 0.0, -18.07, 85.72, 595.309997559, -35.3632305, 149.16572, 0.723903298378, 0.106808878481, -0.115220703185, 0.671773910522
2019-04-03 20:19:19.61,201234474, 0.0, -18.09, 85.7, 595.33001709, -35.36323, 149.1657253, 0.723962962627, 0.106978707016, -0.115246035159, 0.671678185463
2019-04-03 20:19:19.71,201335267, 0.0, -18.1, 85.69, 595.349975586, -35.3632298, 149.1657308, 0.724039494991, 0.107040211558, -0.115278333426, 0.671580374241
2019-04-03 20:19:19.81,201435227, 0.01, -18.12, 85.67, 595.359985352, -35.3632294, 149.1657363, 0.724095880985, 0.107204914093, -0.115401834249, 0.671472012997
2019-04-03 20:19:19.91,201535187, 0.01, -18.16, 85.66, 595.380004883, -35.3632291, 149.1657416, 0.724139094353, 0.107414200902, -0.115626901388, 0.671353280544
2019-04-03 20:19:20.01,201635147, 0.02, -18.17, 85.65, 595.400024414, -35.3632288, 149.1657471, 0.72419244051, 0.107522711158, -0.115698330104, 0.671266078949
2019-04-03 20:19:20.11,201735107, 0.03, -18.17, 85.64, 595.409973145, -35.3632283, 149.1657525, 0.72424519062, 0.107590779662, -0.11568492651, 0.671200573444
2019-04-03 20:19:20.21,201835067, 0.03, -18.18, 85.63, 595.429992676, -35.3632281, 149.1657579, 0.724289834499, 0.10761475563, -0.115700691938, 0.671145796776
2019-04-03 20:19:20.31,201935027, 0.03, -18.17, 85.62, 595.440002441, -35.3632278, 149.1657634, 0.724344193935, 0.107529662549, -0.115657269955, 0.67110824585
2019-04-03 20:19:20.41,202034987, 0.04, -18.16, 85.61, 595.460021973, -35.3632274, 149.1657688, 0.724380552769, 0.107551679015, -0.115595683455, 0.671076059341
2019-04-03 20:19:20.51,202134947, 0.04, -18.17, 85.61, 595.479980469, -35.363227, 149.1657741, 0.724405944347, 0.107583507895, -0.115581378341, 0.6710460186
2019-04-03 20:19:20.61,202234907, 0.04, -18.16, 85.6, 595.489990234, -35.3632268, 149.1657797, 0.72444164753, 0.107545785606, -0.115541867912, 0.671020388603
2019-04-03 20:19:20.71,202334867, 0.03, -18.15, 85.6, 595.510009766, -35.3632263, 149.1657851, 0.724495053291, 0.107425734401, -0.115550450981, 0.670980453491
2019-04-03 20:19:20.81,202434827, 0.0, -18.14, 85.59, 595.520019531, -35.3632261, 149.1657904, 0.724571943283, 0.10718523711, -0.115678071976, 0.670913875103
2019-04-03 20:19:20.91,202534787, -0.01, -18.13, 85.58, 595.539978027, -35.3632257, 149.165796, 0.724654972553, 0.106970056891, -0.115779586136, 0.670841038227
2019-04-03 20:19:21.01,202634747, -0.01, -18.13, 85.57, 595.559997559, -35.3632254, 149.1658014, 0.724717438221, 0.106932237744, -0.115725517273, 0.670788943768
2019-04-03 20:19:21.11,202734707, -0.01, -18.12, 85.56, 595.570007324, -35.3632251, 149.1658069, 0.72478979826, 0.106867961586, -0.115715734661, 0.670722603798
2019-04-03 20:19:21.21,202834667, -0.04, -18.13, 85.55, 595.590026855, -35.3632248, 149.1658123, 0.724870562553, 0.106784418225, -0.115958467126, 0.670606791973
2019-04-03 20:19:21.31,202934627, -0.04, -18.16, 85.53, 595.609985352, -35.3632244, 149.1658177, 0.724926114082, 0.106917887926, -0.116131387651, 0.670495510101
2019-04-03 20:19:21.41,203034587, -0.01, -18.16, 85.52, 595.619995117, -35.363224, 149.1658232, 0.724987089634, 0.10708194226, -0.116036511958, 0.670419812202
2019-04-03 20:19:21.51,203134547, 0.0, -18.16, 85.5, 595.640014648, -35.3632238, 149.1658286, 0.725058317184, 0.107207715511, -0.115906462073, 0.670345246792
2019-04-03 20:19:21.61,203234507, 0.0, -18.17, 85.49, 595.659973145, -35.3632233, 149.165834, 0.725138604641, 0.107248112559, -0.11598187685, 0.670238852501
2019-04-03 20:19:21.71,203335300, -0.01, -18.19, 85.47, 595.66998291, -35.3632231, 149.1658396, 0.725228130817, 0.107193641365, -0.116244420409, 0.670105218887
2019-04-03 20:19:21.81,203435260, -0.01, -18.2, 85.46, 595.690002441, -35.3632227, 149.165845, 0.72529733181, 0.10724888742, -0.116306386888, 0.670010685921
2019-04-03 20:19:21.91,203535220, 0.0, -18.2, 85.45, 595.710021973, -35.3632224, 149.1658505, 0.725372254848, 0.107253231108, -0.116238892078, 0.669940590858
2019-04-03 20:19:22.01,203635180, -0.01, -18.19, 85.43, 595.719970703, -35.3632221, 149.1658559, 0.725460410118, 0.10715610534, -0.116272673011, 0.669854819775
2019-04-03 20:19:22.11,203735140, -0.01, -18.19, 85.42, 595.739990234, -35.3632218, 149.1658613, 0.725532233715, 0.107133172452, -0.116247192025, 0.66978508234
2019-04-03 20:19:22.21,203835100, 0.02, -18.18, 85.41, 595.760009766, -35.3632214, 149.1658668, 0.725566625595, 0.107321813703, -0.115978725255, 0.669764220715
2019-04-03 20:19:22.31,203935060, 0.08, -18.16, 85.4, 595.770019531, -35.363221, 149.1658723, 0.725592017174, 0.107555881143, -0.115499593318, 0.669781923294
2019-04-03 20:19:22.41,204035020, 0.12, -18.12, 85.39, 595.789978027, -35.3632207, 149.1658776, 0.725639820099, 0.107614651322, -0.115075655282, 0.669793665409
2019-04-03 20:19:22.51,204134980, 0.12, -18.09, 85.38, 595.809997559, -35.3632203, 149.1658832, 0.725720703602, 0.107438452542, -0.114821128547, 0.669777989388
2019-04-03 20:19:22.61,204234940, 0.1, -18.08, 85.38, 595.820007324, -35.3632201, 149.1658886, 0.725790560246, 0.107220329344, -0.114885002375, 0.66972631216
2019-04-03 20:19:22.71,204334900, 0.07, -18.09, 85.37, 595.840026855, -35.3632197, 149.1658941, 0.725835978985, 0.107076697052, -0.115193583071, 0.669647097588
2019-04-03 20:19:22.81,204434860, 0.04, -18.12, 85.37, 595.859985352, -35.3632194, 149.1658996, 0.725860893726, 0.107040293515, -0.115532405674, 0.669567525387
2019-04-03 20:19:22.91,204534820, 0.03, -18.14, 85.36, 595.869995117, -35.363219, 149.1659049, 0.725858032703, 0.107174485922, -0.115706130862, 0.669519126415
2019-04-03 20:19:23.01,204634780, 0.05, -18.18, 85.36, 595.890014648, -35.3632187, 149.1659105, 0.725838601589, 0.10749578476, -0.11585624516, 0.669462680817
2019-04-03 20:19:23.11,204734740, 0.06, -18.21, 85.35, 595.909973145, -35.3632184, 149.1659159, 0.725841879845, 0.107737071812, -0.115960344672, 0.669402360916
2019-04-03 20:19:23.21,204834700, 0.07, -18.23, 85.34, 595.91998291, -35.3632179, 149.1659214, 0.725870370865, 0.107875794172, -0.116026841104, 0.669337630272
2019-04-03 20:19:23.31,204934660, 0.08, -18.22, 85.33, 595.940002441, -35.3632177, 149.1659269, 0.725933611393, 0.107868604362, -0.115950249135, 0.66928344965
2019-04-03 20:19:23.41,205034620, 0.09, -18.21, 85.32, 595.950012207, -35.3632173, 149.1659322, 0.726007461548, 0.107828095555, -0.115839883685, 0.669228971004
2019-04-03 20:19:23.51,205134580, 0.1, -18.2, 85.31, 595.969970703, -35.363217, 149.1659378, 0.726069688797, 0.107852742076, -0.115773908794, 0.669168889523
2019-04-03 20:19:23.61,205234540, 0.11, -18.21, 85.3, 595.989990234, -35.3632166, 149.1659431, 0.726115465164, 0.107956022024, -0.115711294115, 0.669113457203
2019-04-03 20:19:23.71,205334500, 0.13, -18.21, 85.29, 596.0, -35.3632163, 149.1659487, 0.726158201694, 0.108043193817, -0.115626186132, 0.669067680836
2019-04-03 20:19:23.81,205435293, 0.13, -18.22, 85.28, 596.020019531, -35.363216, 149.1659541, 0.726195156574, 0.108107626438, -0.11570712924, 0.669003129005
2019-04-03 20:19:23.91,205535253, 0.12, -18.25, 85.27, 596.030029297, -35.3632157, 149.1659597, 0.726213753223, 0.108244948089, -0.115915991366, 0.668924570084
2019-04-03 20:19:24.01,205635213, 0.13, -18.25, 85.26, 596.049987793, -35.3632153, 149.1659651, 0.726248085499, 0.108308315277, -0.115936398506, 0.668873548508
2019-04-03 20:19:24.11,205735173, 0.15, -18.24, 85.26, 596.070007324, -35.3632149, 149.1659705, 0.726289451122, 0.108320139349, -0.115761041641, 0.668857097626
2019-04-03 20:19:24.21,205835133, 0.16, -18.22, 85.25, 596.08001709, -35.3632146, 149.1659761, 0.726332604885, 0.108310461044, -0.115585938096, 0.668842077255
2019-04-03 20:19:24.31,205935093, 0.17, -18.2, 85.24, 596.099975586, -35.3632142, 149.1659814, 0.726377725601, 0.108242787421, -0.115377746522, 0.668839991093
2019-04-03 20:19:24.41,206035053, 0.17, -18.18, 85.24, 596.119995117, -35.363214, 149.165987, 0.726423799992, 0.108129642904, -0.115289844573, 0.668823421001
2019-04-03 20:19:24.51,206135013, 0.15, -18.18, 85.23, 596.130004883, -35.3632136, 149.1659924, 0.726472854614, 0.107987895608, -0.11537591368, 0.668778181076
2019-04-03 20:19:24.61,206234973, 0.13, -18.18, 85.23, 596.150024414, -35.3632133, 149.1659978, 0.726520895958, 0.107884511352, -0.115537233651, 0.668714821339
2019-04-03 20:19:24.71,206334933, 0.12, -18.2, 85.22, 596.16998291, -35.3632129, 149.1660034, 0.726561188698, 0.107859224081, -0.115712597966, 0.668644785881
2019-04-03 20:19:24.81,206434893, 0.11, -18.23, 85.21, 596.179992676, -35.3632126, 149.1660088, 0.726577818394, 0.108020476997, -0.115917511284, 0.66856521368
2019-04-03 20:19:24.91,206534853, 0.14, -18.26, 85.2, 596.200012207, -35.3632123, 149.1660144, 0.726575911045, 0.108360365033, -0.115965314209, 0.66850399971
2019-04-03 20:19:25.01,206634813, 0.17, -18.28, 85.19, 596.219970703, -35.3632118, 149.1660197, 0.726586997509, 0.108691632748, -0.11592258513, 0.668445587158
2019-04-03 20:19:25.11,206734773, 0.19, -18.26, 85.18, 596.229980469, -35.3632116, 149.1660253, 0.72666490078, 0.108660630882, -0.115751892328, 0.668395459652
2019-04-03 20:19:25.21,206834733, 0.2, -18.24, 85.17, 596.25, -35.3632111, 149.1660307, 0.726747989655, 0.108591072261, -0.115548342466, 0.668351650238
2019-04-03 20:19:25.31,206934693, 0.21, -18.22, 85.16, 596.270019531, -35.3632109, 149.1660363, 0.726816892624, 0.108573801816, -0.115357115865, 0.668312609196
2019-04-03 20:19:25.41,207034653, 0.2, -18.2, 85.15, 596.280029297, -35.3632105, 149.1660417, 0.726916491985, 0.108359508216, -0.115324243903, 0.668244719505
2019-04-03 20:19:25.51,207134613, 0.18, -18.19, 85.13, 596.299987793, -35.3632102, 149.1660471, 0.727018535137, 0.108113743365, -0.115356437862, 0.668167948723
2019-04-03 20:19:25.61,207234573, 0.16, -18.18, 85.12, 596.320007324, -35.3632099, 149.1660527, 0.727103888988, 0.107948325574, -0.115403003991, 0.66809374094
2019-04-03 20:19:25.71,207334533, 0.16, -18.18, 85.12, 596.33001709, -35.3632096, 149.1660581, 0.727152109146, 0.107936032116, -0.115401394665, 0.668043553829
2019-04-03 20:19:25.81,207434493, 0.17, -18.2, 85.11, 596.349975586, -35.3632092, 149.1660637, 0.727162003517, 0.108093053102, -0.11551246047, 0.667988240719
2019-04-03 20:19:25.91,207535286, 0.19, -18.25, 85.1, 596.369995117, -35.3632088, 149.1660691, 0.727123022079, 0.108502954245, -0.115685626864, 0.667934179306
2019-04-03 20:19:26.01,207635246, 0.21, -18.29, 85.1, 596.380004883, -35.3632086, 149.1660747, 0.727092206478, 0.108869582415, -0.115819424391, 0.667884886265
2019-04-03 20:19:26.11,207735206, 0.22, -18.31, 85.09, 596.400024414, -35.3632081, 149.1660801, 0.727093815804, 0.10906727612, -0.115891523659, 0.667838394642
2019-04-03 20:19:26.21,207835166, 0.22, -18.32, 85.09, 596.41998291, -35.3632079, 149.1660857, 0.72711789608, 0.109148479998, -0.116009347141, 0.667778372765
