Start,TimeUS,Roll,Pitch,Yaw,Alt,Lat,Lng,Q1,Q2,Q3,Q4
2019-04-03 22:22:10.90,40916127, 0.0, 0.0, 353.0, 584.090026855, -35.363261, 149.1652299, 0.998134791851, 0.0, 0.0, -0.0610485821962
2019-04-03 22:22:11.01,41035246, 0.0, 0.0, 353.0, 584.090026855, -35.363261, 149.1652299, 0.998134791851, 0.0, 0.0, -0.0610485821962
2019-04-03 22:22:11.11,41135206, 0.0, 0.0, 353.0, 584.090026855, -35.363261, 149.1652299, 0.998134791851, 0.0, 0.0, -0.0610485821962
2019-04-03 22:22:11.21,41235166, 0.0, 0.0, 353.0, 584.090026855, -35.363261, 149.1652299, 0.998134791851, 0.0, 0.0, -0.0610485821962
2019-04-03 22:22:11.31,41335126, 0.0, 0.0, 353.0, 584.090026855, -35.363261, 149.1652299, 0.998134791851, 0.0, 0.0, -0.0610485821962
2019-04-03 22:22:11.41,41435086, 0.0, 0.0, 353.0, 584.090026855, -35.363261, 149.1652299, 0.998134791851, 0.0, 0.0, -0.0610485821962
2019-04-03 22:22:11.51,41535046, 0.0, 0.0, 353.0, 584.090026855, -35.363261, 149.1652299, 0.998134791851, 0.0, 0.0, -0.0610485821962
2019-04-03 22:22:11.61,41635006, 0.0, 0.0, 353.0, 584.090026855, -35.363261, 149.1652299, 0.998134791851, 0.0, 0.0, -0.0610485821962
2019-04-03 22:22:11.71,41734966, 0.0, 0.0, 353.0, 584.090026855, -35.363261, 149.1652299, 0.998134791851, 0.0, 0.0, -0.0610485821962
2019-04-03 22:22:11.81,41834926, 0.0, 0.0, 353.0, 584.090026855, -35.363261, 149.1652299, 0.998134791851, 0.0, 0.0, -0.0610485821962
2019-04-03 22:22:11.91,41934886, 0.0, 0.0, 353.0, 584.090026855, -35.363261, 149.1652299, 0.998134791851, 0.0, 0.0, -0.0610485821962
2019-04-03 22:22:12.01,42034846, 0.0, 0.0, 353.0, 584.090026855, -35.363261, 149.1652299, 0.998134791851, 0.0, 0.0, -0.0610485821962
2019-04-03 22:22:12.11,42134806, 0.0, 0.0, 353.0, 584.090026855, -35.363261, 149.1652299, 0.998134791851, 0.0, 0.0, -0.0610485821962
2019-04-03 22:22:12.21,42234766, 0.0, 0.0, 353.0, 584.090026855, -35.363261, 149.1652299, 0.998134791851, 0.0, 0.0, -0.0610485821962
2019-04-03 22:22:12.31,42334726, 0.0, 0.0, 353.0, 584.090026855, -35.363261, 149.1652299, 0.998134791851, 0.0, 0.0, -0.0610485821962
2019-04-03 22:22:12.41,42434686, 0.0, 0.0, 353.0, 584.090026855, -35.363261, 149.1652299, 0.998134791851, 0.0, 0.0, -0.0610485821962
2019-04-03 22:22:12.51,42534646, 0.0, 0.0, 353.0, 584.090026855, -35.363261, 149.1652299, 0.998134791851, 0.0, 0.0, -0.0610485821962
2019-04-03 22:22:12.61,42634606, 0.0, 0.0, 353.0, 584.090026855, -35.363261, 149.1652299, 0.998134791851, 0.0, 0.0, -0.0610485821962
2019-04-03 22:22:12.71,42734566, 0.0, 0.0, 353.0, 584.090026855, -35.363261, 149.1652299, 0.998134791851, 0.0, 0.0, -0.0610485821962
2019-04-03 22:22:12.81,42834526, 0.0, 0.0, 353.0, 584.090026855, -35.363261, 149.1652299, 0.998134791851, 0.0, 0.0, -0.0610485821962
2019-04-03 22:22:12.91,42934486, 0.0, 0.0, 353.0, 584.090026855, -35.363261, 149.1652299, 0.998134791851, 0.0, 0.0, -0.0610485821962
2019-04-03 22:22:13.02,43035279, 0.0, 0.0, 353.0, 584.090026855, -35.363261, 149.1652299, 0.998134791851, 0.0, 0.0, -0.0610485821962
2019-04-03 22:22:13.11,43135239, 0.0, 0.0, 353.0, 584.090026855, -35.363261, 149.1652299, 0.998134791851, 0.0, 0.0, -0.0610485821962
2019-04-03 22:22:13.21,43235199, 0.0, 0.0, 353.0, 584.090026855, -35.363261, 149.1652299, 0.998134791851, 0.0, 0.0, -0.0610485821962
2019-04-03 22:22:13.31,43335159, 0.0, 0.0, 353.0, 584.090026855, -35.363261, 149.1652299, 0.998134791851, 0.0, 0.0, -0.0610485821962
2019-04-03 22:22:13.41,43435119, 0.0, 0.0, 353.0, 584.090026855, -35.363261, 149.1652299, 0.998134791851, 0.0, 0.0, -0.0610485821962
2019-04-03 22:22:13.51,43535079, 0.0, 0.0, 353.0, 584.090026855, -35.363261, 149.1652299, 0.998134791851, 0.0, 0.0, -0.0610485821962
2019-04-03 22:22:13.61,43635039, 0.0, 0.0, 353.0, 584.090026855, -35.363261, 149.1652299, 0.998134791851, 0.0, 0.0, -0.0610485821962
2019-04-03 22:22:13.71,43734999, 0.0, 0.0, 353.0, 584.090026855, -35.363261, 149.1652299, 0.998134791851, 0.0, 0.0, -0.0610485821962
2019-04-03 22:22:13.81,43834959, 0.0, 0.0, 353.0, 584.090026855, -35.363261, 149.1652299, 0.998134791851, 0.0, 0.0, -0.0610485821962
2019-04-03 22:22:13.91,43934919, 0.0, 0.0, 353.0, 584.090026855, -35.363261, 149.1652299, 0.998134791851, 0.0, 0.0, -0.0610485821962
2019-04-03 22:22:14.01,44034879, 0.0, 0.0, 353.0, 584.090026855, -35.363261, 149.1652299, 0.998134791851, 0.0, 0.0, -0.0610485821962
2019-04-03 22:22:14.11,44134839, 0.0, 0.0, 353.0, 584.090026855, -35.363261, 149.1652299, 0.998134791851, 0.0, 0.0, -0.0610485821962
2019-04-03 22:22:14.21,44234799, 0.0, 0.0, 353.0, 584.090026855, -35.363261, 149.1652299, 0.998134791851, 0.0, 0.0, -0.0610485821962
2019-04-03 22:22:14.31,44334759, 0.0, 0.0, 353.0, 584.090026855, -35.363261, 149.1652299, 0.998134791851, 0.0, 0.0, -0.0610485821962
2019-04-03 22:22:14.41,44434719, 0.0, 0.0, 353.0, 584.090026855, -35.363261, 149.1652299, 0.998134791851, 0.0, 0.0, -0.0610485821962
2019-04-03 22:22:14.51,44534679, 0.0, 0.0, 353.0, 584.090026855, -35.363261, 149.1652299, 0.998134791851, 0.0, 0.0, -0.0610485821962
2019-04-03 22:22:14.61,44634639, 0.0, 0.0, 353.0, 584.090026855, -35.363261, 149.1652299, 0.998134791851, 0.0, 0.0, -0.0610485821962
2019-04-03 22:22:14.71,44734599, 0.0, 0.0, 353.0, 584.090026855, -35.363261, 149.1652299, 0.998134791851, 0.0, 0.0, -0.0610485821962
2019-04-03 22:22:14.81,44834559, 0.0, 0.0, 353.0, 584.090026855, -35.363261, 149.1652299, 0.998134791851, 0.0, 0.0, -0.0610485821962
2019-04-03 22:22:14.91,44934519, 0.0, 0.0, 353.0, 584.090026855, -35.363261, 149.1652299, 0.998134791851, 0.0, 0.0, -0.0610485821962
2019-04-03 22:22:15.01,45034479, 0.0, 0.0, 353.0, 584.090026855, -35.363261, 149.1652299, 0.998134791851, 0.0, 0.0, -0.0610485821962
2019-04-03 22:22:15.12,45135272, 0.0, 0.0, 353.0, 584.090026855, -35.363261, 149.1652299, 0.998134791851, 0.0, 0.0, -0.0610485821962
2019-04-03 22:22:15.21,45235232, 0.0, 0.0, 353.0, 584.090026855, -35.363261, 149.1652299, 0.998134791851, 0.0, 0.0, -0.0610485821962
2019-04-03 22:22:15.31,45335192, 0.0, 0.0, 353.0, 584.090026855, -35.363261, 149.1652299, 0.998134791851, 0.0, 0.0, -0.0610485821962
2019-04-03 22:22:15.41,45435152, 0.0, 0.0, 353.0, 584.090026855, -35.363261, 149.1652299, 0.998134791851, 0.0, 0.0, -0.0610485821962
2019-04-03 22:22:15.51,45535112, 0.0, 0.0, 353.0, 584.090026855, -35.363261, 149.1652299, 0.998134791851, 0.0, 0.0, -0.0610485821962
2019-04-03 22:22:15.61,45635072, 0.0, 0.0, 353.0, 584.090026855, -35.363261, 149.1652299, 0.998134791851, 0.0, 0.0, -0.0610485821962
2019-04-03 22:22:15.71,45735032, 0.0, 0.0, 353.0, 584.090026855, -35.363261, 149.1652299, 0.998134791851, 0.0, 0.0, -0.0610485821962
2019-04-03 22:22:15.81,45834992, 0.0, 0.0, 353.0, 584.090026855, -35.363261, 149.1652299, 0.998134791851, 0.0, 0.0, -0.0610485821962
2019-04-03 22:22:15.91,45934952, 0.0, 0.0, 353.0, 584.090026855, -35.363261, 149.1652299, 0.998134791851, 0.0, 0.0, -0.0610485821962
2019-04-03 22:22:16.01,46034912, 0.0, 0.0, 353.0, 584.090026855, -35.363261, 149.1652299, 0.998134791851, 0.0, 0.0, -0.0610485821962
2019-04-03 22:22:16.11,46134872, 0.0, 0.0, 353.0, 584.090026855, -35.363261, 149.1652299, 0.998134791851, 0.0, 0.0, -0.0610485821962
2019-04-03 22:22:16.21,46234832, 0.0, 0.0, 353.0, 584.090026855, -35.363261, 149.1652299, 0.998134791851, 0.0, 0.0, -0.0610485821962
2019-04-03 22:22:16.31,46334792, 0.0, 0.0, 353.0, 584.090026855, -35.363261, 149.1652299, 0.998134791851, 0.0, 0.0, -0.0610485821962
2019-04-03 22:22:16.41,46434752, 0.0, 0.0, 353.0, 584.090026855, -35.363261, 149.1652299, 0.998134791851, 0.0, 0.0, -0.0610485821962
2019-04-03 22:22:16.51,46534712, 0.0, 0.0, 353.0, 584.090026855, -35.363261, 149.1652299, 0.998134791851, 0.0, 0.0, -0.0610485821962
2019-04-03 22:22:16.61,46634672, 0.0, 0.0, 353.0, 584.090026855, -35.363261, 149.1652299, 0.998134791851, 0.0, 0.0, -0.0610485821962
2019-04-03 22:22:16.71,46734632, 0.0, 0.0, 353.0, 584.090026855, -35.363261, 149.1652299, 0.998134791851, 0.0, 0.0, -0.0610485821962
2019-04-03 22:22:16.81,46834592, 0.0, 0.0, 353.0, 584.090026855, -35.363261, 149.1652299, 0.998134791851, 0.0, 0.0, -0.0610485821962
2019-04-03 22:22:16.91,46934552, 0.0, 0.0, 353.0, 584.090026855, -35.363261, 149.1652299, 0.998134791851, 0.0, 0.0, -0.0610485821962
2019-04-03 22:22:17.01,47034512, 0.0, 0.0, 353.0, 584.090026855, -35.363261, 149.1652299, 0.998134791851, 0.0, 0.0, -0.0610485821962
2019-04-03 22:22:17.11,47134472, 0.0, 0.0, 353.0, 584.090026855, -35.363261, 149.1652299, 0.998134791851, 0.0, 0.0, -0.0610485821962
2019-04-03 22:22:17.22,47235265, 0.0, 0.0, 353.0, 584.090026855, -35.363261, 149.1652299, 0.998134791851, 0.0, 0.0, -0.0610485821962
2019-04-03 22:22:17.31,47335225, 0.0, 0.0, 353.0, 584.090026855, -35.363261, 149.1652299, 0.998134791851, 0.0, 0.0, -0.0610485821962
2019-04-03 22:22:17.41,47435185, 0.0, 0.0, 353.0, 584.090026855, -35.363261, 149.1652299, 0.998134791851, 0.0, 0.0, -0.0610485821962
2019-04-03 22:22:17.51,47535145, 0.0, 0.0, 353.0, 584.090026855, -35.363261, 149.1652299, 0.998134791851, 0.0, 0.0, -0.0610485821962
2019-04-03 22:22:17.61,47635105, 0.0, 0.0, 353.0, 584.090026855, -35.363261, 149.1652299, 0.998134791851, 0.0, 0.0, -0.0610485821962
2019-04-03 22:22:17.71,47735065, 0.0, 0.0, 353.0, 584.090026855, -35.363261, 149.1652299, 0.998134791851, 0.0, 0.0, -0.0610485821962
2019-04-03 22:22:17.81,47835025, 0.0, 0.0, 353.0, 584.090026855, -35.363261, 149.1652299, 0.998134791851, 0.0, 0.0, -0.0610485821962
2019-04-03 22:22:17.91,47934985, 0.0, 0.0, 353.0, 584.090026855, -35.363261, 149.1652299, 0.998134791851, 0.0, 0.0, -0.0610485821962
2019-04-03 22:22:18.01,48034945, 0.0, 0.0, 353.0, 584.090026855, -35.363261, 149.1652299, 0.998134791851, 0.0, 0.0, -0.0610485821962
2019-04-03 22:22:18.11,48134905, 0.0, 0.0, 353.0, 584.090026855, -35.363261, 149.1652299, 0.998134791851, 0.0, 0.0, -0.0610485821962
2019-04-03 22:22:18.21,48234865, 0.0, 0.0, 353.0, 584.090026855, -35.363261, 149.1652299, 0.998134791851, 0.0, 0.0, -0.0610485821962
2019-04-03 22:22:18.31,48334825, 0.0, 0.0, 353.0, 584.090026855, -35.363261, 149.1652299, 0.998134791851, 0.0, 0.0, -0.0610485821962
2019-04-03 22:22:18.41,48434785, 0.0, 0.0, 353.0, 584.090026855, -35.363261, 149.1652299, 0.998134791851, 0.0, 0.0, -0.0610485821962
2019-04-03 22:22:18.51,48534745, 0.0, 0.0, 353.0, 584.090026855, -35.363261, 149.1652299, 0.998134791851, 0.0, 0.0, -0.0610485821962
2019-04-03 22:22:18.61,48634705, 0.0, 0.0, 353.0, 584.090026855, -35.363261, 149.1652299, 0.998134791851, 0.0, 0.0, -0.0610485821962
2019-04-03 22:22:18.71,48734665, 0.0, 0.0, 353.0, 584.090026855, -35.363261, 149.1652299, 0.998134791851, 0.0, 0.0, -0.0610485821962
2019-04-03 22:22:18.81,48834625, 0.0, 0.0, 353.0, 584.090026855, -35.363261, 149.1652299, 0.998134791851, 0.0, 0.0, -0.0610485821962
2019-04-03 22:22:18.91,48934585, 0.0, 0.0, 353.0, 584.090026855, -35.363261, 149.1652299, 0.998134791851, 0.0, 0.0, -0.0610485821962
2019-04-03 22:22:19.01,49034545, 0.0, 0.0, 353.0, 584.090026855, -35.363261, 149.1652299, 0.998134791851, 0.0, 0.0, -0.0610485821962
2019-04-03 22:22:19.11,49134505, 0.0, 0.0, 353.0, 584.090026855, -35.363261, 149.1652299, 0.998134791851, 0.0, 0.0, -0.0610485821962
2019-04-03 22:22:19.21,49234465, 0.0, 0.0, 353.0, 584.090026855, -35.363261, 149.1652299, 0.998134791851, 0.0, 0.0, -0.0610485821962
2019-04-03 22:22:19.32,49335258, 0.0, 0.0, 353.0, 584.090026855, -35.363261, 149.1652299, 0.998134791851, 0.0, 0.0, -0.0610485821962
2019-04-03 22:22:19.41,49435218, 0.0, 0.0, 353.0, 584.090026855, -35.363261, 149.1652299, 0.998134791851, 0.0, 0.0, -0.0610485821962
2019-04-03 22:22:19.51,49535178, 0.0, 0.0, 353.0, 584.090026855, -35.363261, 149.1652299, 0.998134791851, 0.0, 0.0, -0.0610485821962
2019-04-03 22:22:19.61,49635138, 0.0, 0.0, 353.0, 584.090026855, -35.363261, 149.1652299, 0.998134791851, 0.0, 0.0, -0.0610485821962
2019-04-03 22:22:19.71,49735098, 0.0, 0.0, 353.0, 584.090026855, -35.363261, 149.1652299, 0.998134791851, 0.0, 0.0, -0.0610485821962
2019-04-03 22:22:19.81,49835058, 0.0, 0.0, 353.0, 584.090026855, -35.363261, 149.1652299, 0.998134791851, 0.0, 0.0, -0.0610485821962
2019-04-03 22:22:19.91,49935018, 0.0, 0.0, 353.0, 584.090026855, -35.363261, 149.1652299, 0.998134791851, 0.0, 0.0, -0.0610485821962
2019-04-03 22:22:20.01,50034978, 0.0, 0.0, 353.0, 584.090026855, -35.363261, 149.1652299, 0.998134791851, 0.0, 0.0, -0.0610485821962
2019-04-03 22:22:20.11,50134938, 0.0, 0.0, 353.0, 584.090026855, -35.363261, 149.1652299, 0.998134791851, 0.0, 0.0, -0.0610485821962
2019-04-03 22:22:20.21,50234898, 0.0, 0.0, 353.0, 584.090026855, -35.363261, 149.1652299, 0.998134791851, 0.0, 0.0, -0.0610485821962
2019-04-03 22:22:20.31,50334858, 0.0, 0.0, 353.0, 584.090026855, -35.363261, 149.1652299, 0.998134791851, 0.0, 0.0, -0.0610485821962
2019-04-03 22:22:20.41,50434818, 0.0, 0.0, 353.0, 584.090026855, -35.363261, 149.1652299, 0.998134791851, 0.0, 0.0, -0.0610485821962
2019-04-03 22:22:20.51,50534778, 0.0, 0.0, 353.0, 584.090026855, -35.363261, 149.1652299, 0.998134791851, 0.0, 0.0, -0.0610485821962
2019-04-03 22:22:20.61,50634738, 0.0, 0.0, 353.0, 584.090026855, -35.363261, 149.1652299, 0.998134791851, 0.0, 0.0, -0.0610485821962
2019-04-03 22:22:20.71,50734698, 0.0, 0.0, 353.0, 584.090026855, -35.363261, 149.1652299, 0.998134791851, 0.0, 0.0, -0.0610485821962
2019-04-03 22:22:22.71,52734731, 0.0, 0.0, 353.0, 584.090026855, -35.363261, 149.1652299, 0.998134791851, 0.0, 0.0, -0.0610485821962
2019-04-03 22:22:22.81,52834691, 0.0, 0.0, 353.0, 584.090026855, -35.363261, 149.1652299, 0.998134791851, 0.0, 0.0, -0.0610485821962
2019-04-03 22:22:22.91,52934651, 0.0, 0.0, 353.0, 584.090026855, -35.363261, 149.1652299, 0.998134791851, 0.0, 0.0, -0.0610485821962
2019-04-03 22:22:23.01,53034611, 0.0, 0.0, 353.0, 584.090026855, -35.363261, 149.1652299, 0.998134791851, 0.0, 0.0, -0.0610485821962
2019-04-03 22:22:23.11,53134571, 0.0, 0.0, 353.0, 584.090026855, -35.363261, 149.1652299, 0.998134791851, 0.0, 0.0, -0.0610485821962
2019-04-03 22:22:23.21,53234531, 0.0, 0.0, 353.0, 584.090026855, -35.363261, 149.1652299, 0.998134791851, 0.0, 0.0, -0.0610485821962
2019-04-03 22:22:23.31,53334491, 0.0, 0.0, 353.0, 584.090026855, -35.363261, 149.1652299, 0.998134791851, 0.0, 0.0, -0.0610485821962
2019-04-03 22:22:23.42,53435284, 0.0, 0.0, 353.0, 584.090026855, -35.363261, 149.1652299, 0.998134791851, 0.0, 0.0, -0.0610485821962
2019-04-03 22:22:23.51,53535244, 0.0, 0.0, 353.0, 584.090026855, -35.363261, 149.1652299, 0.998134791851, 0.0, 0.0, -0.0610485821962
2019-04-03 22:22:23.61,53635204, 0.0, 0.0, 353.0, 584.090026855, -35.363261, 149.1652299, 0.998134791851, 0.0, 0.0, -0.0610485821962
2019-04-03 22:22:23.71,53735164, 0.0, 0.0, 353.0, 584.090026855, -35.363261, 149.1652299, 0.998134791851, 0.0, 0.0, -0.0610485821962
2019-04-03 22:22:23.81,53835124, 0.0, 0.0, 353.0, 584.090026855, -35.363261, 149.1652299, 0.998134791851, 0.0, 0.0, -0.0610485821962
2019-04-03 22:22:23.91,53935084, 0.0, 0.0, 353.0, 584.090026855, -35.363261, 149.1652299, 0.998134791851, 0.0, 0.0, -0.0610485821962
2019-04-03 22:22:24.01,54035044, 0.0, 0.0, 353.0, 584.090026855, -35.363261, 149.1652299, 0.998134791851, 0.0, 0.0, -0.0610485821962
2019-04-03 22:22:24.11,54135004, 0.0, 0.0, 353.0, 584.090026855, -35.363261, 149.1652299, 0.998134791851, 0.0, 0.0, -0.0610485821962
2019-04-03 22:22:24.21,54234964, 0.0, 0.0, 353.0, 584.090026855, -35.363261, 149.1652299, 0.998134791851, 0.0, 0.0, -0.0610485821962
2019-04-03 22:22:24.31,54334924, 0.0, 0.0, 353.0, 584.090026855, -35.363261, 149.1652299, 0.998134791851, 0.0, 0.0, -0.0610485821962
2019-04-03 22:22:24.41,54434884, 0.0, 0.0, 353.0, 584.090026855, -35.363261, 149.1652299, 0.998134791851, 0.0, 0.0, -0.0610485821962
2019-04-03 22:22:24.51,54534844, 0.0, 0.0, 353.0, 584.090026855, -35.363261, 149.1652299, 0.998134791851, 0.0, 0.0, -0.0610485821962
2019-04-03 22:22:24.61,54634804, 0.0, 0.0, 353.0, 584.090026855, -35.363261, 149.1652299, 0.998134791851, 0.0, 0.0, -0.0610485821962
2019-04-03 22:22:24.71,54734764, 0.0, 0.0, 353.0, 584.090026855, -35.363261, 149.1652299, 0.998134791851, 0.0, 0.0, -0.0610485821962
2019-04-03 22:22:24.81,54834724, 0.0, 0.0, 353.0, 584.090026855, -35.363261, 149.1652299, 0.998134791851, 0.0, 0.0, -0.0610485821962
2019-04-03 22:22:24.91,54934684, 0.0, 0.0, 353.0, 584.090026855, -35.363261, 149.1652299, 0.998134791851, 0.0, 0.0, -0.0610485821962
2019-04-03 22:22:25.01,55034644, 0.0, 0.0, 353.0, 584.090026855, -35.363261, 149.1652299, 0.998134791851, 0.0, 0.0, -0.0610485821962
2019-04-03 22:22:25.11,55134604, 0.0, 0.0, 353.0, 584.090026855, -35.363261, 149.1652299, 0.998134791851, 0.0, 0.0, -0.0610485821962
2019-04-03 22:22:25.21,55234564, 0.0, 0.0, 353.0, 584.090026855, -35.363261, 149.1652299, 0.998134791851, 0.0, 0.0, -0.0610485821962
2019-04-03 22:22:25.31,55334524, 0.0, 0.0, 353.0, 584.090026855, -35.363261, 149.1652299, 0.998134791851, 0.0, 0.0, -0.0610485821962
2019-04-03 22:22:25.41,55434484, 0.0, 0.0, 353.0, 584.090026855, -35.363261, 149.1652299, 0.998134791851, 0.0, 0.0, -0.0610485821962
2019-04-03 22:22:25.52,55535277, 0.0, 0.0, 353.0, 584.090026855, -35.363261, 149.1652299, 0.998134791851, 0.0, 0.0, -0.0610485821962
2019-04-03 22:22:25.61,55635237, 0.0, 0.0, 353.0, 584.090026855, -35.363261, 149.1652299, 0.998134791851, 0.0, 0.0, -0.0610485821962
2019-04-03 22:22:25.71,55735197, 0.0, 0.0, 353.0, 584.090026855, -35.363261, 149.1652299, 0.998134791851, 0.0, 0.0, -0.0610485821962
2019-04-03 22:22:25.81,55835157, 0.0, 0.0, 353.0, 584.090026855, -35.363261, 149.1652299, 0.998134791851, 0.0, 0.0, -0.0610485821962
2019-04-03 22:22:25.91,55935117, 0.0, 0.0, 353.0, 584.090026855, -35.363261, 149.1652299, 0.998134791851, 0.0, 0.0, -0.0610485821962
2019-04-03 22:22:26.01,56035077, 0.0, 0.0, 353.0, 584.090026855, -35.363261, 149.1652299, 0.998134791851, 0.0, 0.0, -0.0610485821962
2019-04-03 22:22:26.11,56135037, 0.0, 0.0, 353.0, 584.090026855, -35.363261, 149.1652299, 0.998134791851, 0.0, 0.0, -0.0610485821962
2019-04-03 22:22:26.21,56234997, 0.0, 0.0, 353.0, 584.090026855, -35.363261, 149.1652299, 0.998134791851, 0.0, 0.0, -0.0610485821962
2019-04-03 22:22:26.31,56334957, 0.0, 0.0, 353.0, 584.090026855, -35.363261, 149.1652299, 0.998134791851, 0.0, 0.0, -0.0610485821962
2019-04-03 22:22:26.41,56434917, 0.0, 0.0, 353.0, 584.090026855, -35.363261, 149.1652299, 0.998134791851, 0.0, 0.0, -0.0610485821962
2019-04-03 22:22:26.51,56534877, 0.0, 0.0, 353.0, 584.090026855, -35.363261, 149.1652299, 0.998134791851, 0.0, 0.0, -0.0610485821962
2019-04-03 22:22:26.61,56634837, 0.0, 0.0, 353.0, 584.090026855, -35.363261, 149.1652299, 0.998134791851, 0.0, 0.0, -0.0610486268997
2019-04-03 22:22:26.71,56734797, 0.0, 0.0, 353.0, 584.090026855, -35.363261, 149.1652299, 0.998134791851, 0.0, 0.0, -0.0610486418009
2019-04-03 22:22:26.81,56834757, 0.0, 0.0, 353.0, 584.090026855, -35.363261, 149.1652299, 0.998134791851, 0.0, 0.0, -0.0610486753285
2019-04-03 22:22:26.91,56934717, 0.0, 0.0, 353.0, 584.090026855, -35.363261, 149.1652299, 0.998134791851, 0.0, 0.0, -0.0610486753285
2019-04-03 22:22:27.01,57034677, 0.0, 0.0, 353.0, 584.090026855, -35.363261, 149.1652299, 0.998134791851, 0.0, 0.0, -0.0610486641526
2019-04-03 22:22:27.11,57134637, 0.0, 0.0, 353.0, 584.090026855, -35.363261, 149.1652299, 0.998134791851, 0.0, 0.0, -0.0610486753285
2019-04-03 22:22:27.21,57234597, 0.0, 0.0, 353.0, 584.090026855, -35.363261, 149.1652299, 0.998134791851, 0.0, 0.0, -0.0610486753285
2019-04-03 22:22:27.31,57334557, 0.0, 0.0, 353.0, 584.090026855, -35.363261, 149.1652299, 0.998134791851, 0.0, 0.0, -0.0610486753285
2019-04-03 22:22:27.41,57434517, 0.0, 0.0, 353.0, 584.099975586, -35.363261, 149.1652299, 0.998134791851, 0.0, 0.0, -0.0610486753285
2019-04-03 22:22:27.51,57534477, 0.0, 0.0, 353.0, 584.099975586, -35.363261, 149.1652299, 0.998134791851, 0.0, 0.0, -0.0610486753285
2019-04-03 22:22:27.62,57635270, 0.0, 0.0, 353.0, 584.119995117, -35.363261, 149.1652299, 0.998134791851, 0.0, 0.0, -0.0610486753285
2019-04-03 22:22:27.71,57735230, 0.0, 0.0, 353.0, 584.140014648, -35.363261, 149.1652299, 0.998134791851, 0.0, 0.0, -0.0610486753285
2019-04-03 22:22:27.81,57835190, 0.0, 0.0, 353.0, 584.16998291, -35.363261, 149.1652299, 0.998134791851, 0.0, 0.0, -0.0610486753285
2019-04-03 22:22:27.91,57935150, 0.0, 0.0, 353.0, 584.200012207, -35.363261, 149.1652299, 0.998134791851, 0.0, 0.0, -0.0610486753285
2019-04-03 22:22:28.01,58035110, -0.02, -0.03, 352.99, 584.260009766, -35.363261, 149.1652299, 0.998134553432, -0.000260358676314, -0.000283679022687, -0.0610509030521
2019-04-03 22:22:28.11,58135070, -0.11, -0.11, 352.99, 584.359985352, -35.363261, 149.1652299, 0.998133063316, -0.00103712908458, -0.000969574321061, -0.0610607154667
2019-04-03 22:22:28.21,58235030, -0.18, -0.18, 352.99, 584.510009766, -35.363261, 149.1652299, 0.998130679131, -0.0017434587935, -0.00148922449443, -0.0610735304654
2019-04-03 22:22:28.31,58334990, -0.2, -0.19, 352.99, 584.659973145, -35.363261, 149.1652299, 0.99812912941, -0.00192645878997, -0.00158983585425, -0.0610904991627
2019-04-03 22:22:28.41,58434950, -0.2, -0.16, 352.99, 584.820007324, -35.363261, 149.1652299, 0.998128056526, -0.001853424008, -0.00136923138052, -0.061115462333
2019-04-03 22:22:28.51,58534910, -0.15, -0.12, 352.98, 584.969970703, -35.363261, 149.1652299, 0.998127520084, -0.00142793147825, -0.000993169727735, -0.0611430667341
2019-04-03 22:22:28.61,58634870, -0.07, -0.05, 352.98, 585.119995117, -35.363261, 149.1652299, 0.998127162457, -0.000660312420223, -0.000407547166105, -0.0611687898636
2019-04-03 22:22:28.71,58734830, 0.0, 0.02, 352.98, 585.280029297, -35.363261, 149.1652299, 0.998125970364, 7.34788545742e-06, 0.000198159264983, -0.061192676425
2019-04-03 22:22:28.81,58834790, 0.02, 0.06, 352.98, 585.450012207, -35.363261, 149.1652299, 0.99812489748, 0.000278884079307, 0.000559542328119, -0.0612078048289
2019-04-03 22:22:28.91,58934750, 0.01, 0.06, 352.98, 585.619995117, -35.363261, 149.1652298, 0.998124301434, 0.000206593176699, 0.000565189926419, -0.0612171776593
2019-04-03 22:22:29.01,59034710, 0.0, 0.02, 352.98, 585.789978027, -35.3632609, 149.1652298, 0.998124241829, -5.69970470679e-05, 0.000209997946513, -0.0612210184336
2019-04-03 22:22:29.11,59134670, -0.03, -0.01, 352.97, 585.979980469, -35.3632609, 149.1652298, 0.99812400341, -0.000348696863512, -9.30574824451e-05, -0.0612237714231
2019-04-03 22:22:29.21,59234630, -0.06, -0.03, 352.98, 586.159973145, -35.3632609, 149.1652298, 0.998124063015, -0.000564858026337, -0.00029032828752, -0.0612205341458
2019-04-03 22:22:29.31,59334590, -0.06, -0.04, 352.98, 586.349975586, -35.3632609, 149.1652298, 0.998124718666, -0.000625222164672, -0.000312991964165, -0.061209410429
2019-04-03 22:22:29.41,59434550, -0.06, -0.03, 352.98, 586.539978027, -35.3632609, 149.1652298, 0.99812579155, -0.000598165090196, -0.000228759352467, -0.0611926987767
2019-04-03 22:22:29.51,59534510, -0.04, 0.0, 352.98, 586.739990234, -35.3632609, 149.1652298, 0.998126745224, -0.000375692587113, 1.7927418412e-06, -0.0611796453595
2019-04-03 22:22:29.61,59634470, 0.0, 0.03, 352.98, 586.940002441, -35.3632609, 149.1652298, 0.998126506805, 2.67953128059e-05, 0.000280251377262, -0.0611829608679
2019-04-03 22:22:29.72,59735263, 0.03, 0.06, 352.98, 587.140014648, -35.3632609, 149.1652298, 0.998125910759, 0.000362936145393, 0.000587198475841, -0.0611903779209
2019-04-03 22:22:29.81,59835223, 0.05, 0.08, 352.98, 587.340026855, -35.3632609, 149.1652298, 0.998125493526, 0.000530723889824, 0.0007340045413, -0.0611941441894
2019-04-03 22:22:29.91,59935183, 0.05, 0.08, 352.98, 587.549987793, -35.3632609, 149.1652298, 0.998125314713, 0.000537592568435, 0.000722440367099, -0.0611969232559
2019-04-03 22:22:30.01,60035143, 0.02, 0.06, 352.98, 587.75, -35.3632609, 149.1652298, 0.998125493526, 0.000281917542452, 0.000521503039636, -0.061198014766
2019-04-03 22:22:30.11,60135103, -0.02, 0.04, 352.98, 587.960021973, -35.3632609, 149.1652298, 0.998125255108, -0.000155103814905, 0.000366087420844, -0.0612035579979
2019-04-03 22:22:30.21,60235063, -0.07, 0.03, 352.98, 588.16998291, -35.3632609, 149.1652298, 0.998124957085, -0.000630323309451, 0.000305611465592, -0.0612055510283
2019-04-03 22:22:30.31,60335023, -0.12, 0.02, 352.98, 588.380004883, -35.3632609, 149.1652298, 0.998124480247, -0.00109020387754, 0.000273969577393, -0.0612068399787
2019-04-03 22:22:30.41,60434983, -0.15, 0.02, 352.98, 588.590026855, -35.3632609, 149.1652298, 0.998124063015, -0.00132272415794, 0.000284099427518, -0.0612086392939
2019-04-03 22:22:30.51,60534943, -0.15, 0.01, 352.98, 588.789978027, -35.3632609, 149.1652298, 0.998123407364, -0.00135637517087, 0.000219278997974, -0.061218906194
2019-04-03 22:22:30.61,60634903, -0.14, 0.0, 352.97, 588.979980469, -35.3632609, 149.1652298, 0.998122692108, -0.00123354292009, 9.16733824852e-06, -0.0612340159714
2019-04-03 22:22:30.71,60734863, -0.1, -0.04, 352.97, 589.16998291, -35.3632609, 149.1652298, 0.998121857643, -0.000958866614383, -0.00032509418088, -0.0612507462502
2019-04-03 22:22:30.81,60834823, -0.08, -0.06, 352.97, 589.340026855, -35.3632609, 149.1652298, 0.99812078476, -0.000779514433816, -0.000541714020073, -0.0612701624632
2019-04-03 22:22:30.91,60934783, -0.04, -0.03, 352.97, 589.5, -35.3632609, 149.1652298, 0.99811989069, -0.000450692867162, -0.000286235328531, -0.0612899884582
2019-04-03 22:22:31.01,61034743, 0.13, 0.14, 352.96, 589.640014648, -35.3632609, 149.1652298, 0.998117148876, 0.00121589552145, 0.00116339256056, -0.0613134838641
2019-04-03 22:22:31.11,61134703, 0.55, 0.51, 352.96, 589.780029297, -35.3632609, 149.1652298, 0.998094916344, 0.00510642537847, 0.004152698908, -0.0613454468548
2019-04-03 22:22:31.21,61234663, 1.19, 1.04, 352.97, 589.900024414, -35.3632609, 149.1652298, 0.998018026352, 0.010960098356, 0.00843486841768, -0.0613905750215
2019-04-03 22:22:31.31,61334623, 1.99, 1.66, 352.97, 590.010009766, -35.3632609, 149.1652298, 0.997851073742, 0.018285792321, 0.0134478062391, -0.0614655837417
2019-04-03 22:22:31.41,61434583, 2.86, 2.32, 352.99, 590.099975586, -35.363261, 149.1652298, 0.997583031654, 0.0262029971927, 0.0186855457723, -0.0615820512176
2019-04-03 22:22:31.51,61534543, 3.67, 2.96, 353.0, 590.179992676, -35.363261, 149.1652299, 0.997241199017, 0.0336037576199, 0.0238227434456, -0.0617518387735
2019-04-03 22:22:31.61,61634503, 4.33, 3.51, 353.01, 590.260009766, -35.363261, 149.1652299, 0.996888816357, 0.0396247692406, 0.0282801911235, -0.0619900934398
2019-04-03 22:22:31.71,61734463, 4.82, 3.93, 353.01, 590.320007324, -35.363261, 149.1652303, 0.99658292532, 0.0440536364913, 0.0316412039101, -0.0622946433723
2019-04-03 22:22:31.82,61835256, 5.17, 4.23, 352.99, 590.369995117, -35.3632613, 149.1652306, 0.996332585812, 0.0472676120698, 0.0340914390981, -0.0626498237252
2019-04-03 22:22:31.91,61935216, 5.46, 4.48, 352.97, 590.41998291, -35.3632615, 149.165231, 0.996106505394, 0.049954123795, 0.036124471575, -0.0630193203688
2019-04-03 22:22:32.01,62035176, 5.74, 4.73, 352.95, 590.460021973, -35.3632617, 149.1652315, 0.995877444744, 0.0525509826839, 0.0380608737469, -0.0633867681026
2019-04-03 22:22:32.11,62135136, 6.02, 4.96, 352.93, 590.5, -35.3632621, 149.165232, 0.995646953583, 0.0550458580256, 0.0399284772575, -0.0637406557798
2019-04-03 22:22:32.21,62235096, 6.25, 5.14, 352.91, 590.530029297, -35.3632623, 149.1652327, 0.995446503162, 0.0571708865464, 0.0413935482502, -0.0640655606985
2019-04-03 22:22:32.31,62335056, 6.43, 5.29, 352.9, 590.559997559, -35.3632628, 149.1652334, 0.995286285877, 0.0587900467217, 0.0425404421985, -0.0643377155066
2019-04-03 22:22:32.41,62435016, 6.56, 5.39, 352.88, 590.58001709, -35.3632632, 149.1652341, 0.995163619518, 0.0599976927042, 0.0433899387717, -0.064552180469
2019-04-03 22:22:32.51,62534976, 6.67, 5.48, 352.87, 590.609985352, -35.3632637, 149.1652351, 0.995065629482, 0.0609729737043, 0.044032227248, -0.0647137835622
2019-04-03 22:22:32.61,62634936, 6.76, 5.56, 352.87, 590.630004883, -35.3632641, 149.165236, 0.994974672794, 0.06184932217, 0.0447394400835, -0.06479626894
2019-04-03 22:22:32.71,62734896, 6.78, 5.84, 353.03, 590.650024414, -35.3632646, 149.165237, 0.994928717613, 0.0620370805264, 0.0472061932087, -0.0635602548718
2019-04-03 22:22:32.81,62834856, 6.72, 6.4, 353.91, 590.659973145, -35.3632653, 149.1652382, 0.995141208172, 0.061442874372, 0.0525503456593, -0.056189391762
2019-04-03 22:22:32.91,62934816, 6.82, 7.0, 356.2, 590.679992676, -35.3632659, 149.1652394, 0.995694458485, 0.0614280514419, 0.0589454583824, -0.036667779088
2019-04-03 22:22:33.01,63034776, 7.28, 7.25, 0.16, 590.690002441, -35.3632665, 149.1652406, 0.995980739594, 0.0633528530598, 0.0632605105639, -0.0026245105546
2019-04-03 22:22:33.11,63134736, 8.12, 6.94, 5.64, 590.710021973, -35.3632674, 149.1652418, 0.994655609131, 0.067695133388, 0.0638322085142, 0.0447557047009
2019-04-03 22:22:33.21,63234696, 9.21, 5.96, 12.34, 590.719970703, -35.3632682, 149.1652432, 0.990095853806, 0.0741852074862, 0.0601694919169, 0.102890186012
2019-04-03 22:22:33.31,63334656, 10.36, 4.35, 19.92, 590.739990234, -35.3632689, 149.1652447, 0.980778932571, 0.0823912471533, 0.0528653673828, 0.168788775802
2019-04-03 22:22:33.41,63434616, 11.37, 2.23, 28.07, 590.75, -35.36327, 149.1652461, 0.96564412117, 0.0914454311132, 0.0428856834769, 0.239437013865
2019-04-03 22:22:33.51,63534576, 12.04, -0.21, 36.53, 590.770019531, -35.363271, 149.1652476, 0.944296419621, 0.100240908563, 0.0311025884002, 0.311911344528
2019-04-03 22:22:33.61,63634536, 12.26, -2.78, 45.08, 590.789978027, -35.3632719, 149.1652493, 0.917053461075, 0.107896983624, 0.018605556339, 0.383438378572
2019-04-03 22:22:33.71,63734496, 11.97, -5.27, 53.49, 590.799987793, -35.3632731, 149.1652511, 0.885025978088, 0.11366019398, 0.0060428683646, 0.4514131248
2019-04-03 22:22:33.81,63834456, 11.26, -7.51, 61.57, 590.820007324, -35.3632742, 149.1652528, 0.849784016609, 0.117532491684, -0.00583927426487, 0.51382791996
2019-04-03 22:22:33.91,63935249, 10.26, -9.38, 69.24, 590.840026855, -35.3632753, 149.1652548, 0.812696158886, 0.119713015854, -0.0164117738605, 0.570021510124
2019-04-03 22:22:34.01,64035209, 9.13, -10.87, 76.27, 590.849975586, -35.3632765, 149.1652569, 0.775853037834, 0.120665132999, -0.0253568384796, 0.6187479496
2019-04-03 22:22:34.11,64135169, 8.0, -12.01, 82.7, 590.869995117, -35.3632777, 149.165259, 0.739896416664, 0.121073395014, -0.032550830394, 0.660934925079
2019-04-03 22:22:34.21,64235129, 6.96, -12.85, 88.58, 590.890014648, -35.3632789, 149.1652614, 0.705242931843, 0.121202178299, -0.0378519780934, 0.697502434254
2019-04-03 22:22:34.31,64335089, 6.01, -13.49, 94.0, 590.909973145, -35.3632801, 149.1652638, 0.671811580658, 0.121308155358, -0.0418886691332, 0.729519605637
2019-04-03 22:22:34.41,64435049, 5.12, -13.99, 99.1, 590.929992676, -35.3632814, 149.1652662, 0.639126956463, 0.121366724372, -0.0452031418681, 0.758118391037
2019-04-03 22:22:34.51,64535009, 4.24, -14.4, 104.04, 590.950012207, -35.3632827, 149.1652688, 0.606448471546, 0.121346667409, -0.0481244027615, 0.784333646297
2019-04-03 22:22:34.61,64634969, 3.34, -14.74, 108.95, 590.969970703, -35.363284, 149.1652714, 0.572950303555, 0.121198952198, -0.0510033294559, 0.808973073959
2019-04-03 22:22:34.71,64734929, 2.28, -15.06, 113.95, 590.979980469, -35.3632853, 149.1652742, 0.537954330444, 0.120651304722, -0.0548704080284, 0.832488834858
2019-04-03 22:22:34.81,64834889, 0.68, -15.35, 118.95, 591.0, -35.3632868, 149.165277, 0.502607703209, 0.118090257049, -0.062750518322, 0.854109227657
2019-04-03 22:22:34.91,64934849, -1.36, -15.5, 123.47, 591.020019531, -35.3632883, 149.1652797, 0.470540106297, 0.113224081695, -0.0742719247937, 0.871926605701
2019-04-03 22:22:35.01,65034809, -3.37, -15.44, 127.02, 591.039978027, -35.3632896, 149.1652828, 0.445272684097, 0.107222303748, -0.0860441029072, 0.884777963161
2019-04-03 22:22:35.11,65134769, -4.84, -15.26, 129.32, 591.059997559, -35.3632912, 149.1652858, 0.428839802742, 0.102031491697, -0.0946547314525, 0.892595410347
2019-04-03 22:22:35.21,65234729, -5.49, -15.1, 130.33, 591.08001709, -35.3632926, 149.1652889, 0.421544969082, 0.0992307439446, -0.0982509031892, 0.895991027355
2019-04-03 22:22:35.31,65334689, -5.32, -15.07, 130.21, 591.099975586, -35.3632942, 149.165292, 0.422365307808, 0.0994691625237, -0.0969296097755, 0.895722091198
2019-04-03 22:22:35.41,65434649, -4.5, -15.19, 129.19, 591.119995117, -35.3632956, 149.1652954, 0.429558962584, 0.102640070021, -0.0918270349503, 0.892475128174
2019-04-03 22:22:35.51,65534609, -3.25, -15.43, 127.55, 591.140014648, -35.363297, 149.1652987, 0.441120952368, 0.107998117805, -0.0845760703087, 0.886902213097
2019-04-03 22:22:35.61,65634569, -1.8, -15.72, 125.56, 591.159973145, -35.3632986, 149.1653021, 0.454966545105, 0.114512324333, -0.0764710530639, 0.879798054695
2019-04-03 22:22:35.71,65734529, -0.37, -15.99, 123.5, 591.190002441, -35.3633, 149.1653057, 0.469070702791, 0.121074184775, -0.0686907544732, 0.872121155262
2019-04-03 22:22:35.81,65834489, 0.86, -16.19, 121.64, 591.210021973, -35.3633016, 149.1653092, 0.481735944748, 0.12659715116, -0.0621629245579, 0.864892721176
2019-04-03 22:22:35.92,65935282, 1.77, -16.3, 120.15, 591.229980469, -35.3633032, 149.1653127, 0.491802573204, 0.130572512746, -0.0574115775526, 0.858944118023
2019-04-03 22:22:36.01,66035242, 2.3, -16.34, 119.18, 591.25, -35.3633048, 149.1653163, 0.498425781727, 0.132679194212, -0.0547901466489, 0.854965507984
2019-04-03 22:22:36.11,66135202, 2.45, -16.35, 118.74, 591.270019531, -35.3633066, 149.1653198, 0.501524448395, 0.133166149259, -0.0542211383581, 0.853111982346
2019-04-03 22:22:36.21,66235162, 2.29, -16.36, 118.79, 591.289978027, -35.3633083, 149.1653235, 0.501325845718, 0.132528930902, -0.0553783141077, 0.853253722191
2019-04-03 22:22:36.31,66335122, 1.92, -16.38, 119.25, 591.309997559, -35.3633101, 149.1653272, 0.498357176781, 0.131347551942, -0.057711109519, 0.855018973351
2019-04-03 22:22:36.41,66435082, 1.42, -16.44, 119.98, 591.33001709, -35.3633119, 149.1653308, 0.493402272463, 0.130009457469, -0.0608885139227, 0.857871949673
2019-04-03 22:22:36.51,66535042, 0.83, -16.51, 120.86, 591.349975586, -35.3633137, 149.1653345, 0.487387657166, 0.128447279334, -0.0645849704742, 0.861268460751
2019-04-03 22:22:36.61,66635002, 0.23, -16.59, 121.77, 591.380004883, -35.3633156, 149.1653381, 0.481139779091, 0.127056375146, -0.0683891996741, 0.86468732357
2019-04-03 22:22:36.71,66734962, -0.28, -16.67, 122.61, 591.400024414, -35.3633175, 149.1653418, 0.475379526615, 0.126035243273, -0.0717474669218, 0.867745220661
2019-04-03 22:22:36.81,66834922, -0.68, -16.72, 123.28, 591.41998291, -35.3633194, 149.1653457, 0.470698088408, 0.125181257725, -0.07433116436, 0.870199918747
2019-04-03 22:22:36.91,66934882, -0.94, -16.76, 123.74, 591.440002441, -35.3633213, 149.1653495, 0.467421531677, 0.124681159854, -0.0759354531765, 0.871897637844
2019-04-03 22:22:37.01,67034842, -1.04, -16.77, 123.99, 591.460021973, -35.3633233, 149.1653533, 0.465661436319, 0.124575674534, -0.0764559656382, 0.87280857563
2019-04-03 22:22:37.11,67134802, -0.99, -16.79, 124.02, 591.479980469, -35.3633252, 149.1653572, 0.465327084064, 0.12487962842, -0.0761341452599, 0.872971594334
2019-04-03 22:22:37.21,67234762, -0.86, -16.8, 123.89, 591.5, -35.3633272, 149.165361, 0.466194778681, 0.125460654497, -0.075311280787, 0.872496604919
2019-04-03 22:22:37.31,67334722, -0.67, -16.84, 123.63, 591.520019531, -35.3633291, 149.1653651, 0.467929393053, 0.12638220191, -0.0743147581816, 0.87151992321
2019-04-03 22:22:37.41,67434682, -0.44, -16.89, 123.3, 591.539978027, -35.3633312, 149.165369, 0.470154464245, 0.127505794168, -0.0731377527118, 0.870257377625
2019-04-03 22:22:37.51,67534642, -0.19, -16.93, 122.95, 591.559997559, -35.3633332, 149.165373, 0.472523182631, 0.128525525331, -0.0718020051718, 0.868934750557
2019-04-03 22:22:37.61,67634602, 0.01, -16.94, 122.62, 591.590026855, -35.3633352, 149.165377, 0.474741101265, 0.129328906536, -0.0706297233701, 0.867701768875
2019-04-03 22:22:37.71,67734562, 0.17, -16.97, 122.36, 591.609985352, -35.3633371, 149.165381, 0.4765612185, 0.130061835051, -0.0698131844401, 0.866659939289
2019-04-03 22:22:37.81,67834522, 0.28, -17.01, 122.17, 591.630004883, -35.3633392, 149.165385, 0.477842926979, 0.130708619952, -0.0693578720093, 0.865893125534
2019-04-03 22:22:37.91,67934482, 0.34, -17.05, 122.06, 591.650024414, -35.3633413, 149.1653891, 0.478532373905, 0.131170913577, -0.0692180544138, 0.865453541279
2019-04-03 22:22:38.02,68035275, 0.33, -17.09, 122.04, 591.66998291, -35.3633434, 149.1653931, 0.47867205739, 0.131395608187, -0.069444462657, 0.86532407999
2019-04-03 22:22:38.11,68135235, 0.26, -17.12, 122.09, 591.690002441, -35.3633454, 149.1653973, 0.478358149529, 0.131420508027, -0.0700595080853, 0.865444302559
2019-04-03 22:22:38.21,68235195, 0.15, -17.16, 122.19, 591.710021973, -35.3633474, 149.1654013, 0.477719038725, 0.131248220801, -0.0709542781115, 0.865750551224
2019-04-03 22:22:38.31,68335155, 0.02, -17.18, 122.32, 591.739990234, -35.3633496, 149.1654055, 0.476889163256, 0.131024956703, -0.0718682855368, 0.866166353226
2019-04-03 22:22:38.41,68435115, -0.07, -17.2, 122.45, 591.760009766, -35.3633517, 149.1654096, 0.475994199514, 0.130777195096, -0.0725765004754, 0.866636931896
2019-04-03 22:22:38.51,68535075, -0.16, -17.2, 122.58, 591.780029297, -35.3633539, 149.1654137, 0.475161463022, 0.130516514182, -0.0731308162212, 0.867086470127
2019-04-03 22:22:38.61,68635035, -0.22, -17.22, 122.67, 591.799987793, -35.3633559, 149.1654179, 0.474462658167, 0.130444139242, -0.0734916254878, 0.867449402809
2019-04-03 22:22:38.71,68734995, -0.23, -17.25, 122.74, 591.820007324, -35.3633582, 149.1654221, 0.473941683769, 0.130664333701, -0.0736714601517, 0.86768579483
2019-04-03 22:22:38.81,68834955, -0.22, -17.29, 122.78, 591.840026855, -35.3633602, 149.1654263, 0.473641246557, 0.131028324366, -0.073690623045, 0.867793321609
2019-04-03 22:22:38.91,68934915, -0.2, -17.32, 122.78, 591.859985352, -35.3633624, 149.1654304, 0.473564654589, 0.131368920207, -0.0736777558923, 0.867784738541
2019-04-03 22:22:39.01,69034875, -0.19, -17.35, 122.76, 591.890014648, -35.3633646, 149.1654347, 0.473715513945, 0.131635650992, -0.0737077593803, 0.867659449577
2019-04-03 22:22:39.11,69134835, -0.17, -17.36, 122.71, 591.909973145, -35.3633668, 149.165439, 0.474039971828, 0.131749302149, -0.0736815780401, 0.867467164993
2019-04-03 22:22:39.21,69234795, -0.15, -17.38, 122.65, 591.929992676, -35.3633689, 149.1654432, 0.474448889494, 0.131953284144, -0.0736831054091, 0.867212474346
2019-04-03 22:22:39.31,69334755, -0.12, -17.41, 122.59, 591.950012207, -35.3633711, 149.1654475, 0.474879652262, 0.132217273116, -0.0736669227481, 0.866937816143
2019-04-03 22:22:39.41,69434715, -0.11, -17.45, 122.53, 591.969970703, -35.3633733, 149.1654517, 0.475291252136, 0.132592797279, -0.0737829878926, 0.866644978523
2019-04-03 22:22:39.51,69534675, -0.09, -17.49, 122.48, 591.989990234, -35.3633754, 149.165456, 0.475646078587, 0.132932126522, -0.0738783404231, 0.866390109062
2019-04-03 22:22:39.61,69634635, -0.07, -17.52, 122.43, 592.010009766, -35.3633777, 149.1654603, 0.47592023015, 0.133200258017, -0.0739445835352, 0.866192758083
2019-04-03 22:22:39.71,69734595, -0.05, -17.54, 122.41, 592.030029297, -35.3633799, 149.1654646, 0.476101189852, 0.133412733674, -0.0738945752382, 0.866064846516
2019-04-03 22:22:39.81,69834555, -0.03, -17.55, 122.39, 592.049987793, -35.363382, 149.1654688, 0.47619369626, 0.133524790406, -0.0738040059805, 0.86600446701
2019-04-03 22:22:39.91,69934515, -0.03, -17.54, 122.39, 592.08001709, -35.3633843, 149.1654731, 0.476220786572, 0.133494585752, -0.0737099349499, 0.866002202034
2019-04-03 22:22:40.01,70034475, -0.04, -17.53, 122.39, 592.099975586, -35.3633865, 149.1654776, 0.476199120283, 0.133410438895, -0.0737490952015, 0.866023778915
2019-04-03 22:22:40.12,70135268, -0.06, -17.54, 122.4, 592.119995117, -35.3633887, 149.165482, 0.476142406464, 0.133349195123, -0.0739419683814, 0.866047978401
2019-04-03 22:22:40.21,70235228, -0.09, -17.54, 122.42, 592.140014648, -35.363391, 149.1654863, 0.476070612669, 0.13327768445, -0.0741586685181, 0.866079866886
2019-04-03 22:22:40.31,70335188, -0.12, -17.54, 122.43, 592.159973145, -35.3633932, 149.1654907, 0.476013153791, 0.133175894618, -0.0743498802185, 0.866110682487
2019-04-03 22:22:40.41,70435148, -0.14, -17.54, 122.44, 592.190002441, -35.3633954, 149.165495, 0.475981235504, 0.133084192872, -0.0745319798589, 0.866126716137
2019-04-03 22:22:40.51,70535108, -0.16, -17.56, 122.44, 592.210021973, -35.3633977, 149.1654993, 0.4759722054, 0.13314665854, -0.0747843980789, 0.866100311279
2019-04-03 22:22:40.61,70635068, -0.16, -17.6, 122.44, 592.229980469, -35.3634, 149.1655037, 0.475964426994, 0.133439734578, -0.0749334543943, 0.866046607494
2019-04-03 22:22:40.71,70735028, -0.14, -17.64, 122.43, 592.25, -35.3634021, 149.1655082, 0.475992828608, 0.133770421147, -0.0749593675137, 0.86597776413
2019-04-03 22:22:40.81,70834988, -0.11, -17.66, 122.41, 592.270019531, -35.3634045, 149.1655126, 0.476044893265, 0.134100228548, -0.0748379603028, 0.865908563137
2019-04-03 22:22:40.91,70934948, -0.09, -17.67, 122.39, 592.289978027, -35.3634067, 149.165517, 0.476156294346, 0.134280204773, -0.0747225061059, 0.865829408169
2019-04-03 22:22:41.01,71034908, -0.09, -17.68, 122.37, 592.320007324, -35.363409, 149.1655214, 0.476324260235, 0.134278386831, -0.0748150125146, 0.86572933197
2019-04-03 22:22:41.11,71134868, -0.11, -17.68, 122.35, 592.340026855, -35.3634112, 149.1655259, 0.476508975029, 0.134199589491, -0.0750047788024, 0.865623414516
2019-04-03 22:22:41.21,71234828, -0.12, -17.68, 122.33, 592.359985352, -35.3634135, 149.1655303, 0.476671129465, 0.134138479829, -0.0751012116671, 0.865535318851
2019-04-03 22:22:41.31,71334788, -0.12, -17.69, 122.31, 592.380004883, -35.3634158, 149.1655348, 0.476789981127, 0.134220644832, -0.0751513391733, 0.865452706814
2019-04-03 22:22:41.41,71434748, -0.12, -17.73, 122.3, 592.409973145, -35.3634179, 149.1655391, 0.476865053177, 0.134520590305, -0.0753158405423, 0.865350484848
2019-04-03 22:22:41.51,71534708, -0.13, -17.77, 122.29, 592.429992676, -35.3634203, 149.1655437, 0.476937294006, 0.134718939662, -0.0755613595247, 0.865258395672
2019-04-03 22:22:41.61,71634668, -0.14, -17.78, 122.28, 592.450012207, -35.3634226, 149.1655481, 0.476999253035, 0.134749934077, -0.0756811052561, 0.865208983421
2019-04-03 22:22:41.71,71734628, -0.14, -17.77, 122.28, 592.469970703, -35.3634249, 149.1655525, 0.477039396763, 0.134706258774, -0.0756249651313, 0.865198552608
2019-04-03 22:22:41.81,71834588, -0.12, -17.76, 122.27, 592.489990234, -35.363427, 149.1655571, 0.477054029703, 0.134707942605, -0.0754446014762, 0.865205943584
2019-04-03 22:22:41.91,71934548, -0.11, -17.74, 122.27, 592.510009766, -35.3634294, 149.1655615, 0.477081269026, 0.134620532393, -0.0753054842353, 0.865216672421
2019-04-03 22:22:42.01,72034508, -0.11, -17.72, 122.26, 592.539978027, -35.3634317, 149.1655659, 0.477130293846, 0.134410560131, -0.0752167180181, 0.865229964256
2019-04-03 22:22:42.11,72134468, -0.1, -17.7, 122.26, 592.559997559, -35.363434, 149.1655705, 0.477162241936, 0.134358286858, -0.0751069933176, 0.865230023861
2019-04-03 22:22:42.22,72235261, -0.09, -17.71, 122.25, 592.58001709, -35.3634362, 149.165575, 0.477185696363, 0.134469881654, -0.0750690028071, 0.865203082561
2019-04-03 22:22:42.31,72335221, -0.07, -17.73, 122.25, 592.599975586, -35.3634385, 149.1655795, 0.47719836235, 0.13468106091, -0.0750421956182, 0.865165531635
2019-04-03 22:22:42.41,72435181, -0.06, -17.76, 122.24, 592.619995117, -35.3634409, 149.165584, 0.477210432291, 0.134912639856, -0.0750364437699, 0.865123331547
2019-04-03 22:22:42.51,72535141, -0.05, -17.79, 122.24, 592.640014648, -35.3634432, 149.1655884, 0.477229207754, 0.135170966387, -0.0750964805484, 0.86506742239
2019-04-03 22:22:42.61,72635101, -0.05, -17.83, 122.23, 592.66998291, -35.3634455, 149.165593, 0.477245211601, 0.135546579957, -0.075269177556, 0.864984810352
2019-04-03 22:22:42.71,72735061, -0.04, -17.87, 122.22, 592.690002441, -35.3634477, 149.1655975, 0.477266937494, 0.135866075754, -0.0754239857197, 0.864909172058
2019-04-03 22:22:42.81,72835021, -0.04, -17.87, 122.21, 592.710021973, -35.3634501, 149.1656021, 0.477325111628, 0.135853260756, -0.0754488408566, 0.86487698555
2019-04-03 22:22:42.91,72934981, -0.04, -17.85, 122.21, 592.729980469, -35.3634524, 149.1656066, 0.477383762598, 0.135702669621, -0.0753309726715, 0.864878475666
2019-04-03 22:22:43.01,73034941, -0.03, -17.84, 122.2, 592.75, -35.3634547, 149.1656111, 0.477422207594, 0.135625898838, -0.0751803889871, 0.864882409573
2019-04-03 22:22:43.11,73134901, -0.01, -17.84, 122.2, 592.770019531, -35.3634569, 149.1656157, 0.477431535721, 0.135700136423, -0.0750350952148, 0.864878237247
2019-04-03 22:22:43.21,73234861, 0.0, -17.85, 122.19, 592.789978027, -35.3634592, 149.1656202, 0.477429419756, 0.13587655127, -0.07498306036, 0.864856243134
2019-04-03 22:22:43.31,73334821, 0.0, -17.87, 122.19, 592.820007324, -35.3634616, 149.1656247, 0.477446585894, 0.135965168476, -0.0751525387168, 0.864818096161
2019-04-03 22:22:43.41,73434781, -0.03, -17.88, 122.19, 592.840026855, -35.3634639, 149.1656293, 0.477481037378, 0.135964736342, -0.0754080638289, 0.864776909351
2019-04-03 22:22:43.51,73534741, -0.06, -17.9, 122.19, 592.859985352, -35.3634662, 149.1656338, 0.477517575026, 0.135938242078, -0.0756661817431, 0.864738345146
2019-04-03 22:22:43.61,73634701, -0.07, -17.9, 122.19, 592.880004883, -35.3634686, 149.1656382, 0.477550774813, 0.135881990194, -0.075772754848, 0.864719510078
2019-04-03 22:22:43.71,73734661, -0.05, -17.89, 122.18, 592.900024414, -35.3634708, 149.1656429, 0.477558553219, 0.135889723897, -0.0755854919553, 0.864730358124
2019-04-03 22:22:43.81,73834621, -0.03, -17.88, 122.18, 592.91998291, -35.3634732, 149.1656473, 0.477562278509, 0.135964587331, -0.0754031538963, 0.864732503891
2019-04-03 22:22:43.91,73934581, 0.0, -17.9, 122.17, 592.940002441, -35.3634755, 149.165652, 0.477560847998, 0.136144965887, -0.0752827376127, 0.864715397358
2019-04-03 22:22:44.01,74034541, 0.0, -17.91, 122.17, 592.969970703, -35.3634778, 149.1656566, 0.477566808462, 0.13632696867, -0.0752568766475, 0.86468565464
2019-04-03 22:22:44.11,74134501, 0.0, -17.92, 122.17, 592.989990234, -35.3634802, 149.1656611, 0.477595210075, 0.136408343911, -0.0752831622958, 0.864654839039
2019-04-03 22:22:44.21,74234461, 0.0, -17.93, 122.16, 593.010009766, -35.3634824, 149.1656657, 0.477625072002, 0.136501461267, -0.0753146186471, 0.864620923996
2019-04-03 22:22:44.32,74335254, 0.01, -17.94, 122.15, 593.030029297, -35.3634848, 149.1656702, 0.477652490139, 0.136611759663, -0.0753243416548, 0.864587545395
2019-04-03 22:22:44.41,74435214, 0.02, -17.94, 122.15, 593.049987793, -35.3634872, 149.1656748, 0.477688550949, 0.136590734124, -0.0751925036311, 0.864582419395
2019-04-03 22:22:44.51,74535174, 0.03, -17.93, 122.14, 593.070007324, -35.3634895, 149.1656793, 0.477724134922, 0.136598840356, -0.075096257031, 0.864569842815
2019-04-03 22:22:44.61,74635134, 0.04, -17.95, 122.14, 593.090026855, -35.3634918, 149.165684, 0.477738261223, 0.136793270707, -0.075132638216, 0.864528119564
2019-04-03 22:22:44.71,74735094, 0.05, -18.0, 122.13, 593.119995117, -35.363494, 149.1656884, 0.477734237909, 0.137157201767, -0.0752615109086, 0.864461421967
2019-04-03 22:22:44.81,74835054, 0.05, -18.03, 122.13, 593.140014648, -35.3634964, 149.1656931, 0.477742135525, 0.137391105294, -0.0754321292043, 0.864405095577
2019-04-03 22:22:44.91,74935014, 0.03, -18.04, 122.13, 593.159973145, -35.3634987, 149.1656976, 0.477786302567, 0.137373551726, -0.0756277069449, 0.864366352558
2019-04-03 22:22:45.01,75034974, 0.0, -18.04, 122.12, 593.179992676, -35.3635011, 149.1657023, 0.477854579687, 0.137260213494, -0.0759155601263, 0.864321410656
2019-04-03 22:22:45.11,75134934, -0.02, -18.05, 122.12, 593.200012207, -35.3635035, 149.1657067, 0.47789773345, 0.137203067541, -0.0760863572359, 0.864291608334
2019-04-03 22:22:45.21,75234894, -0.01, -18.06, 122.12, 593.219970703, -35.3635058, 149.1657114, 0.477896630764, 0.137310802937, -0.0760608837008, 0.864277303219
2019-04-03 22:22:45.31,75334854, 0.0, -18.07, 122.11, 593.25, -35.3635082, 149.165716, 0.477897167206, 0.137440145016, -0.0759999081492, 0.864261865616
2019-04-03 22:22:45.41,75434814, 0.01, -18.07, 122.11, 593.270019531, -35.3635104, 149.1657205, 0.477906435728, 0.137527883053, -0.0758583247662, 0.864255189896
2019-04-03 22:22:45.51,75534774, 0.03, -18.05, 122.1, 593.289978027, -35.3635128, 149.1657252, 0.477937906981, 0.137484177947, -0.0756715238094, 0.86426115036
2019-04-03 22:22:45.61,75634734, 0.04, -18.05, 122.1, 593.309997559, -35.3635152, 149.1657297, 0.477983593941, 0.137463256717, -0.0755784064531, 0.864247322083
2019-04-03 22:22:45.71,75734694, 0.04, -18.04, 122.09, 593.33001709, -35.3635175, 149.1657344, 0.478038519621, 0.137462034822, -0.0755575820804, 0.864219009876
2019-04-03 22:22:45.81,75834654, 0.04, -18.05, 122.08, 593.349975586, -35.3635199, 149.165739, 0.478106826544, 0.137485906482, -0.0756774768233, 0.864166855812
2019-04-03 22:22:45.91,75934614, 0.01, -18.07, 122.07, 593.369995117, -35.3635222, 149.1657435, 0.478183507919, 0.137498989701, -0.0759132876992, 0.864101707935
2019-04-03 22:22:46.01,76034574, -0.01, -18.07, 122.06, 593.400024414, -35.3635246, 149.1657481, 0.478291302919, 0.137328371406, -0.0762101337314, 0.864043056965
2019-04-03 22:22:46.11,76134534, -0.03, -18.07, 122.06, 593.41998291, -35.3635268, 149.1657526, 0.478368490934, 0.137301892042, -0.0763747394085, 0.863989949226
2019-04-03 22:22:46.21,76234494, -0.03, -18.09, 122.05, 593.440002441, -35.3635292, 149.1657573, 0.478426128626, 0.137409806252, -0.0764778181911, 0.863931834698
2019-04-03 22:22:46.31,76334454, -0.02, -18.1, 122.04, 593.460021973, -35.3635316, 149.165762, 0.4784719944, 0.137539491057, -0.0764295384288, 0.863890051842
2019-04-03 22:22:46.41,76435247, 0.0, -18.1, 122.03, 593.479980469, -35.363534, 149.1657665, 0.478518307209, 0.137621879578, -0.0763000845909, 0.86386269331
2019-04-03 22:22:46.51,76535207, 0.0, -18.1, 122.02, 593.5, -35.3635364, 149.1657712, 0.478579580784, 0.137610629201, -0.0761994346976, 0.863839447498
2019-04-03 22:22:46.61,76635167, 0.0, -18.09, 122.01, 593.530029297, -35.3635387, 149.1657758, 0.478645920753, 0.13760496676, -0.0761741623282, 0.863805830479
2019-04-03 22:22:46.71,76735127, 0.0, -18.08, 122.0, 593.549987793, -35.3635411, 149.1657804, 0.478738218546, 0.137429744005, -0.0762548968196, 0.863775491714
2019-04-03 22:22:46.81,76835087, -0.01, -18.08, 121.99, 593.570007324, -35.3635435, 149.1657851, 0.47880217433, 0.137397557497, -0.0762792676687, 0.863742947578
2019-04-03 22:22:46.91,76935047, 0.0, -18.1, 121.99, 593.590026855, -35.3635458, 149.1657897, 0.478815883398, 0.137652367353, -0.0762710571289, 0.863695502281
2019-04-03 22:22:47.01,77035007, 0.04, -18.12, 121.98, 593.609985352, -35.3635481, 149.1657942, 0.478798121214, 0.137987270951, -0.0760218650103, 0.863673865795
2019-04-03 22:22:47.11,77134967, 0.09, -18.12, 121.98, 593.630004883, -35.3635504, 149.1657989, 0.478796154261, 0.138119637966, -0.0756800994277, 0.863683819771
2019-04-03 22:22:47.21,77234927, 0.11, -18.1, 121.97, 593.650024414, -35.3635528, 149.1658034, 0.478823721409, 0.138055354357, -0.0754024833441, 0.863703072071
2019-04-03 22:22:47.31,77334887, 0.12, -18.08, 121.97, 593.679992676, -35.3635552, 149.1658081, 0.478862524033, 0.13795953989, -0.0753291100264, 0.86370331049
2019-04-03 22:22:47.41,77434847, 0.08, -18.11, 121.96, 593.700012207, -35.3635576, 149.1658128, 0.47890624404, 0.138008505106, -0.0756649300456, 0.863641858101
2019-04-03 22:22:47.51,77534807, 0.05, -18.16, 121.96, 593.719970703, -35.36356, 149.1658173, 0.478918522596, 0.138279184699, -0.0761368274689, 0.863550305367
2019-04-03 22:22:47.61,77634767, 0.03, -18.2, 121.96, 593.739990234, -35.3635623, 149.165822, 0.478922873735, 0.138491600752, -0.076467871666, 0.863484621048
2019-04-03 22:22:47.71,77734727, 0.03, -18.21, 121.96, 593.760009766, -35.3635647, 149.1658267, 0.478935569525, 0.138537064195, -0.0765426009893, 0.863463640213
2019-04-03 22:22:47.81,77834687, 0.02, -18.19, 121.95, 593.780029297, -35.3635669, 149.1658312, 0.478991359472, 0.138328254223, -0.0765035748482, 0.863469600677
2019-04-03 22:22:47.91,77934647, 0.0, -18.14, 121.95, 593.809997559, -35.3635693, 149.1658359, 0.479085505009, 0.137899547815, -0.0764389559627, 0.863491654396
2019-04-03 22:22:48.01,78034607, 0.0, -18.1, 121.94, 593.83001709, -35.3635717, 149.1658405, 0.479173660278, 0.137557134032, -0.0763355791569, 0.863506555557
2019-04-03 22:22:48.11,78134567, 0.01, -18.07, 121.94, 593.849975586, -35.3635741, 149.1658452, 0.479226469994, 0.137392491102, -0.0761271268129, 0.863521814346
2019-04-03 22:22:48.21,78234527, 0.03, -18.06, 121.93, 593.869995117, -35.3635765, 149.1658498, 0.479261517525, 0.13736332953, -0.0759354904294, 0.863523900509
2019-04-03 22:22:48.31,78334487, 0.03, -18.06, 121.92, 593.890014648, -35.3635789, 149.1658544, 0.479300379753, 0.137421801686, -0.0759116187692, 0.86349517107
2019-04-03 22:22:48.42,78435280, 0.03, -18.09, 121.92, 593.909973145, -35.3635813, 149.1658591, 0.479336380959, 0.137606844306, -0.0760329142213, 0.863435029984
2019-04-03 22:22:48.51,78535240, 0.02, -18.1, 121.91, 593.940002441, -35.3635836, 149.1658637, 0.479390770197, 0.137674346566, -0.0761604085565, 0.863382816315
2019-04-03 22:22:48.61,78635200, 0.01, -18.09, 121.9, 593.960021973, -35.363586, 149.1658684, 0.479469358921, 0.137566328049, -0.0762527063489, 0.863348245621
2019-04-03 22:22:48.71,78735160, -0.01, -18.08, 121.89, 593.979980469, -35.3635884, 149.165873, 0.479577422142, 0.137311473489, -0.0764317810535, 0.863312959671
2019-04-03 22:22:48.81,78835120, -0.03, -18.08, 121.89, 594.0, -35.3635906, 149.1658776, 0.479660540819, 0.137214049697, -0.0766107067466, 0.863266408443
2019-04-03 22:22:48.91,78935080, -0.04, -18.1, 121.88, 594.020019531, -35.363593, 149.1658823, 0.479710251093, 0.137366473675, -0.0767709240317, 0.863200306892
2019-04-03 22:22:49.01,79035040, -0.03, -18.13, 121.87, 594.039978027, -35.3635954, 149.1658869, 0.479746490717, 0.137586787343, -0.0768443048, 0.86313855648
2019-04-03 22:22:49.11,79135000, -0.01, -18.14, 121.86, 594.059997559, -35.3635978, 149.1658915, 0.479773908854, 0.137777656317, -0.0766908153892, 0.863106548786
2019-04-03 22:22:49.21,79234960, 0.02, -18.16, 121.85, 594.090026855, -35.3636002, 149.1658962, 0.479790478945, 0.138037189841, -0.0765167325735, 0.863071322441
2019-04-03 22:22:49.31,79334920, 0.04, -18.17, 121.84, 594.109985352, -35.3636026, 149.1659008, 0.47981095314, 0.138214692473, -0.0763637199998, 0.863045036793
2019-04-03 22:22:49.41,79434880, 0.05, -18.16, 121.84, 594.130004883, -35.3636049, 149.1659054, 0.479843527079, 0.138244837523, -0.0762937441468, 0.863028287888
2019-04-03 22:22:49.51,79534840, 0.05, -18.15, 121.83, 594.150024414, -35.3636073, 149.1659101, 0.479897946119, 0.138120472431, -0.0762968808413, 0.863017678261
2019-04-03 22:22:49.61,79634800, 0.05, -18.16, 121.83, 594.16998291, -35.3636097, 149.1659148, 0.479934036732, 0.138152524829, -0.0763461515307, 0.862988114357
2019-04-03 22:22:49.71,79734760, 0.05, -18.18, 121.82, 594.190002441, -35.3636119, 149.1659194, 0.479952454567, 0.138319119811, -0.0764390826225, 0.862942993641
2019-04-03 22:22:49.81,79834720, 0.05, -18.19, 121.82, 594.210021973, -35.3636143, 149.165924, 0.479970961809, 0.138375356793, -0.0764689221978, 0.862920999527
2019-04-03 22:22:49.91,79934680, 0.03, -18.18, 121.82, 594.239990234, -35.3636167, 149.1659287, 0.480012029409, 0.138250038028, -0.0765388831496, 0.86291205883
2019-04-03 22:22:50.01,80034640, 0.02, -18.16, 121.81, 594.260009766, -35.3636191, 149.1659334, 0.480069130659, 0.138038173318, -0.0765536800027, 0.862912893295
2019-04-03 22:22:50.11,80134600, 0.02, -18.13, 121.81, 594.280029297, -35.3636215, 149.1659379, 0.48011687398, 0.137842729688, -0.07643122226, 0.862928390503
2019-04-03 22:22:50.21,80234560, 0.04, -18.11, 121.8, 594.299987793, -35.3636239, 149.1659426, 0.480147480965, 0.137734442949, -0.0762400701642, 0.862945616245
2019-04-03 22:22:50.31,80334520, 0.05, -18.12, 121.8, 594.320007324, -35.3636263, 149.1659473, 0.480154901743, 0.137833446264, -0.076169192791, 0.862931907177
2019-04-03 22:22:50.41,80434480, 0.05, -18.14, 121.8, 594.349975586, -35.3636287, 149.165952, 0.480171829462, 0.138017445803, -0.0762923583388, 0.862882196903
2019-04-03 22:22:50.52,80535273, 0.06, -18.19, 121.79, 594.369995117, -35.363631, 149.1659566, 0.48017168045, 0.138377591968, -0.0764233916998, 0.862812995911
2019-04-03 22:22:50.61,80635233, 0.06, -18.2, 121.79, 594.390014648, -35.3636334, 149.1659613, 0.480192542076, 0.138523325324, -0.0764447748661, 0.862776100636
2019-04-03 22:22:50.71,80735193, 0.07, -18.2, 121.78, 594.409973145, -35.3636358, 149.165966, 0.480220735073, 0.138531520963, -0.0763483196497, 0.862767636776
2019-04-03 22:22:50.81,80835153, 0.08, -18.19, 121.78, 594.429992676, -35.3636381, 149.1659707, 0.480248838663, 0.138551577926, -0.0762693211436, 0.862755775452
2019-04-03 22:22:50.91,80935113, 0.09, -18.18, 121.77, 594.460021973, -35.3636404, 149.1659752, 0.480291008949, 0.138453200459, -0.0761535540223, 0.862758338451
2019-04-03 22:22:51.01,81035073, 0.1, -18.16, 121.77, 594.479980469, -35.3636428, 149.16598, 0.480328530073, 0.138309970498, -0.076014958322, 0.862772583961
2019-04-03 22:22:51.11,81135033, 0.11, -18.14, 121.76, 594.5, -35.3636453, 149.1659846, 0.480349510908, 0.138243228197, -0.0758831724524, 0.862783253193
2019-04-03 22:22:51.21,81234993, 0.11, -18.13, 121.76, 594.520019531, -35.3636477, 149.1659893, 0.480373471975, 0.138165891171, -0.0758348181844, 0.862786531448
2019-04-03 22:22:51.31,81334953, 0.11, -18.14, 121.76, 594.539978027, -35.3636501, 149.1659939, 0.4803802073, 0.138216555119, -0.0758611634374, 0.862772345543
2019-04-03 22:22:51.41,81434913, 0.13, -18.17, 121.76, 594.559997559, -35.3636524, 149.1659986, 0.480338603258, 0.138564914465, -0.075855910778, 0.86274009943
2019-04-03 22:22:51.51,81534873, 0.14, -18.2, 121.76, 594.590026855, -35.3636548, 149.1660033, 0.480307042599, 0.138830304146, -0.0758883059025, 0.862712144852
2019-04-03 22:22:51.61,81634833, 0.15, -18.2, 121.76, 594.609985352, -35.3636572, 149.1660078, 0.480285704136, 0.138830721378, -0.0758152231574, 0.862730383873
2019-04-03 22:22:51.71,81734793, 0.14, -18.18, 121.76, 594.630004883, -35.3636596, 149.1660125, 0.480298578739, 0.138653457165, -0.0758210271597, 0.862751185894
2019-04-03 22:22:51.81,81834753, 0.12, -18.16, 121.76, 594.650024414, -35.3636618, 149.1660173, 0.480351448059, 0.138422071934, -0.075830578804, 0.862758100033
2019-04-03 22:22:51.91,81934713, 0.12, -18.15, 121.75, 594.66998291, -35.3636642, 149.1660219, 0.480403751135, 0.138325482607, -0.0758408904076, 0.862743556499
2019-04-03 22:22:52.01,82034673, 0.1, -18.16, 121.75, 594.690002441, -35.3636666, 149.1660265, 0.480458259583, 0.138329952955, -0.0759956091642, 0.862698912621
2019-04-03 22:22:52.11,82134633, 0.09, -18.16, 121.74, 594.710021973, -35.363669, 149.1660312, 0.480510562658, 0.138325929642, -0.0760894045234, 0.862662136555
2019-04-03 22:22:52.21,82234593, 0.1, -18.15, 121.74, 594.729980469, -35.3636714, 149.1660359, 0.480562090874, 0.138277933002, -0.0760552883148, 0.862644135952
2019-04-03 22:22:52.31,82334553, 0.12, -18.14, 121.73, 594.760009766, -35.3636738, 149.1660404, 0.480595469475, 0.138255521655, -0.075860247016, 0.862646341324
2019-04-03 22:22:52.41,82434513, 0.14, -18.12, 121.72, 594.780029297, -35.3636762, 149.1660451, 0.480629533529, 0.138164684176, -0.0756151899695, 0.862663447857
2019-04-03 22:22:52.51,82534473, 0.16, -18.11, 121.72, 594.799987793, -35.3636786, 149.1660499, 0.48065072298, 0.13816742599, -0.0754332542419, 0.86266708374
2019-04-03 22:22:52.62,82635266, 0.16, -18.12, 121.71, 594.820007324, -35.363681, 149.1660546, 0.480674803257, 0.138253614306, -0.0754352733493, 0.862639665604
