Start,TimeUS,Roll,Pitch,Yaw,Alt,Lat,Lng,Q1,Q2,Q3,Q4
2019-04-03 18:23:37.20,52616445, 0.0, 0.0, 353.0, 584.090026855, -35.363261, 149.1652299, 0.998134791851, 0.0, 0.0, -0.0610485821962
2019-04-03 18:23:37.29,52716405, 0.0, 0.0, 353.0, 584.090026855, -35.363261, 149.1652299, 0.998134791851, 0.0, 0.0, -0.0610485821962
2019-04-03 18:23:37.39,52816365, 0.0, 0.0, 353.0, 584.090026855, -35.363261, 149.1652299, 0.998134791851, 0.0, 0.0, -0.0610485821962
2019-04-03 18:23:37.49,52916325, 0.0, 0.0, 353.0, 584.090026855, -35.363261, 149.1652299, 0.998134791851, 0.0, 0.0, -0.0610485821962
2019-04-03 18:23:37.59,53016285, 0.0, 0.0, 353.0, 584.090026855, -35.363261, 149.1652299, 0.998134791851, 0.0, 0.0, -0.0610485821962
2019-04-03 18:23:37.69,53116245, 0.0, 0.0, 353.0, 584.090026855, -35.363261, 149.1652299, 0.998134791851, 0.0, 0.0, -0.0610485821962
2019-04-03 18:23:37.79,53216205, 0.0, 0.0, 353.0, 584.090026855, -35.363261, 149.1652299, 0.998134791851, 0.0, 0.0, -0.0610485821962
2019-04-03 18:23:37.89,53316165, 0.0, 0.0, 353.0, 584.090026855, -35.363261, 149.1652299, 0.998134791851, 0.0, 0.0, -0.0610485821962
2019-04-03 18:23:37.99,53416125, 0.0, 0.0, 353.0, 584.090026855, -35.363261, 149.1652299, 0.998134791851, 0.0, 0.0, -0.0610485821962
2019-04-03 18:23:38.09,53516085, 0.0, 0.0, 353.0, 584.090026855, -35.363261, 149.1652299, 0.998134791851, 0.0, 0.0, -0.0610485821962
2019-04-03 18:23:38.19,53616045, 0.0, 0.0, 353.0, 584.090026855, -35.363261, 149.1652299, 0.998134791851, 0.0, 0.0, -0.0610485821962
2019-04-03 18:23:38.29,53716005, 0.0, 0.0, 353.0, 584.090026855, -35.363261, 149.1652299, 0.998134791851, 0.0, 0.0, -0.0610485821962
2019-04-03 18:23:38.39,53815965, 0.0, 0.0, 353.0, 584.090026855, -35.363261, 149.1652299, 0.998134791851, 0.0, 0.0, -0.0610485821962
2019-04-03 18:23:38.49,53915925, 0.0, 0.0, 353.0, 584.090026855, -35.363261, 149.1652299, 0.998134791851, 0.0, 0.0, -0.0610485821962
2019-04-03 18:23:38.59,54015885, 0.0, 0.0, 353.0, 584.090026855, -35.363261, 149.1652299, 0.998134791851, 0.0, 0.0, -0.0610485821962
2019-04-03 18:23:38.69,54115845, 0.0, 0.0, 353.0, 584.090026855, -35.363261, 149.1652299, 0.998134791851, 0.0, 0.0, -0.0610485821962
2019-04-03 18:23:38.79,54215805, 0.0, 0.0, 353.0, 584.090026855, -35.363261, 149.1652299, 0.998134791851, 0.0, 0.0, -0.0610485821962
2019-04-03 18:23:38.89,54315765, 0.0, 0.0, 353.0, 584.090026855, -35.363261, 149.1652299, 0.998134791851, 0.0, 0.0, -0.0610485821962
2019-04-03 18:23:38.99,54415725, 0.0, 0.0, 353.0, 584.090026855, -35.363261, 149.1652299, 0.998134791851, 0.0, 0.0, -0.0610485821962
2019-04-03 18:23:39.09,54515685, 0.0, 0.0, 353.0, 584.090026855, -35.363261, 149.1652299, 0.998134791851, 0.0, 0.0, -0.0610485821962
2019-04-03 18:23:39.20,54616478, 0.0, 0.0, 353.0, 584.090026855, -35.363261, 149.1652299, 0.998134791851, 0.0, 0.0, -0.0610485821962
2019-04-03 18:23:39.29,54716438, 0.0, 0.0, 353.0, 584.090026855, -35.363261, 149.1652299, 0.998134791851, 0.0, 0.0, -0.0610485821962
2019-04-03 18:23:39.39,54816398, 0.0, 0.0, 353.0, 584.090026855, -35.363261, 149.1652299, 0.998134791851, 0.0, 0.0, -0.0610485821962
2019-04-03 18:23:39.49,54916358, 0.0, 0.0, 353.0, 584.090026855, -35.363261, 149.1652299, 0.998134791851, 0.0, 0.0, -0.0610485821962
2019-04-03 18:23:39.59,55016318, 0.0, 0.0, 353.0, 584.090026855, -35.363261, 149.1652299, 0.998134791851, 0.0, 0.0, -0.0610485821962
2019-04-03 18:23:39.69,55116278, 0.0, 0.0, 353.0, 584.090026855, -35.363261, 149.1652299, 0.998134791851, 0.0, 0.0, -0.0610485821962
2019-04-03 18:23:39.79,55216238, 0.0, 0.0, 353.0, 584.090026855, -35.363261, 149.1652299, 0.998134791851, 0.0, 0.0, -0.0610485821962
2019-04-03 18:23:39.89,55316198, 0.0, 0.0, 353.0, 584.090026855, -35.363261, 149.1652299, 0.998134791851, 0.0, 0.0, -0.0610485821962
2019-04-03 18:23:39.99,55416158, 0.0, 0.0, 353.0, 584.090026855, -35.363261, 149.1652299, 0.998134791851, 0.0, 0.0, -0.0610485821962
2019-04-03 18:23:40.09,55516118, 0.0, 0.0, 353.0, 584.090026855, -35.363261, 149.1652299, 0.998134791851, 0.0, 0.0, -0.0610485821962
2019-04-03 18:23:40.19,55616078, 0.0, 0.0, 353.0, 584.090026855, -35.363261, 149.1652299, 0.998134791851, 0.0, 0.0, -0.0610485821962
2019-04-03 18:23:40.29,55716038, 0.0, 0.0, 353.0, 584.090026855, -35.363261, 149.1652299, 0.998134791851, 0.0, 0.0, -0.0610485821962
2019-04-03 18:23:40.39,55815998, 0.0, 0.0, 353.0, 584.090026855, -35.363261, 149.1652299, 0.998134791851, 0.0, 0.0, -0.0610485821962
2019-04-03 18:23:40.49,55915958, 0.0, 0.0, 353.0, 584.090026855, -35.363261, 149.1652299, 0.998134791851, 0.0, 0.0, -0.0610485821962
2019-04-03 18:23:40.59,56015918, 0.0, 0.0, 353.0, 584.090026855, -35.363261, 149.1652299, 0.998134791851, 0.0, 0.0, -0.0610485821962
2019-04-03 18:23:40.69,56115878, 0.0, 0.0, 353.0, 584.090026855, -35.363261, 149.1652299, 0.998134791851, 0.0, 0.0, -0.0610485821962
2019-04-03 18:23:40.79,56215838, 0.0, 0.0, 353.0, 584.090026855, -35.363261, 149.1652299, 0.998134791851, 0.0, 0.0, -0.0610485821962
2019-04-03 18:23:40.89,56315798, 0.0, 0.0, 353.0, 584.090026855, -35.363261, 149.1652299, 0.998134791851, 0.0, 0.0, -0.0610485821962
2019-04-03 18:23:40.99,56415758, 0.0, 0.0, 353.0, 584.090026855, -35.363261, 149.1652299, 0.998134791851, 0.0, 0.0, -0.0610485821962
2019-04-03 18:23:41.09,56515718, 0.0, 0.0, 353.0, 584.090026855, -35.363261, 149.1652299, 0.998134791851, 0.0, 0.0, -0.0610485821962
2019-04-03 18:23:41.19,56615678, 0.0, 0.0, 353.0, 584.090026855, -35.363261, 149.1652299, 0.998134791851, 0.0, 0.0, -0.0610485821962
2019-04-03 18:23:41.30,56716471, 0.0, 0.0, 353.0, 584.090026855, -35.363261, 149.1652299, 0.998134791851, 0.0, 0.0, -0.0610485821962
2019-04-03 18:23:41.39,56816431, 0.0, 0.0, 353.0, 584.090026855, -35.363261, 149.1652299, 0.998134791851, 0.0, 0.0, -0.0610485821962
2019-04-03 18:23:41.49,56916391, 0.0, 0.0, 353.0, 584.090026855, -35.363261, 149.1652299, 0.998134791851, 0.0, 0.0, -0.0610485821962
2019-04-03 18:23:41.59,57016351, 0.0, 0.0, 353.0, 584.090026855, -35.363261, 149.1652299, 0.998134791851, 0.0, 0.0, -0.0610485821962
2019-04-03 18:23:41.69,57116311, 0.0, 0.0, 353.0, 584.090026855, -35.363261, 149.1652299, 0.998134791851, 0.0, 0.0, -0.0610485821962
2019-04-03 18:23:41.79,57216271, 0.0, 0.0, 353.0, 584.090026855, -35.363261, 149.1652299, 0.998134791851, 0.0, 0.0, -0.0610485821962
2019-04-03 18:23:41.89,57316231, 0.0, 0.0, 353.0, 584.090026855, -35.363261, 149.1652299, 0.998134791851, 0.0, 0.0, -0.0610485821962
2019-04-03 18:23:41.99,57416191, 0.0, 0.0, 353.0, 584.090026855, -35.363261, 149.1652299, 0.998134791851, 0.0, 0.0, -0.0610485821962
2019-04-03 18:23:42.09,57516151, 0.0, 0.0, 353.0, 584.090026855, -35.363261, 149.1652299, 0.998134791851, 0.0, 0.0, -0.0610485821962
2019-04-03 18:23:42.19,57616111, 0.0, 0.0, 353.0, 584.090026855, -35.363261, 149.1652299, 0.998134791851, 0.0, 0.0, -0.0610485821962
2019-04-03 18:23:42.29,57716071, 0.0, 0.0, 353.0, 584.090026855, -35.363261, 149.1652299, 0.998134791851, 0.0, 0.0, -0.0610485821962
2019-04-03 18:23:42.39,57816031, 0.0, 0.0, 353.0, 584.090026855, -35.363261, 149.1652299, 0.998134791851, 0.0, 0.0, -0.0610485821962
2019-04-03 18:23:42.49,57915991, 0.0, 0.0, 353.0, 584.090026855, -35.363261, 149.1652299, 0.998134791851, 0.0, 0.0, -0.0610485821962
2019-04-03 18:23:42.59,58015951, 0.0, 0.0, 353.0, 584.090026855, -35.363261, 149.1652299, 0.998134791851, 0.0, 0.0, -0.0610486641526
2019-04-03 18:23:42.69,58115911, 0.0, 0.0, 353.0, 584.090026855, -35.363261, 149.1652299, 0.998134791851, 0.0, 0.0, -0.0610486753285
2019-04-03 18:23:42.79,58215871, 0.0, 0.0, 353.0, 584.090026855, -35.363261, 149.1652299, 0.998134791851, 0.0, 0.0, -0.0610486753285
2019-04-03 18:23:42.89,58315831, 0.0, 0.0, 353.0, 584.090026855, -35.363261, 149.1652299, 0.998134791851, 0.0, 0.0, -0.0610486753285
2019-04-03 18:23:42.99,58415791, 0.0, 0.0, 353.0, 584.090026855, -35.363261, 149.1652299, 0.998134791851, 0.0, 0.0, -0.0610486641526
2019-04-03 18:23:43.09,58515751, 0.0, 0.0, 353.0, 584.090026855, -35.363261, 149.1652299, 0.998134791851, 0.0, 0.0, -0.0610486753285
2019-04-03 18:23:43.19,58615711, 0.0, 0.0, 353.0, 584.090026855, -35.363261, 149.1652299, 0.998134791851, 0.0, 0.0, -0.0610486753285
2019-04-03 18:23:43.29,58715671, 0.0, 0.0, 353.0, 584.090026855, -35.363261, 149.1652299, 0.998134791851, 0.0, 0.0, -0.0610486753285
2019-04-03 18:23:43.40,58816464, 0.0, 0.0, 353.0, 584.099975586, -35.363261, 149.1652299, 0.998134791851, 0.0, 0.0, -0.0610486753285
2019-04-03 18:23:43.49,58916424, 0.0, 0.0, 353.0, 584.099975586, -35.363261, 149.1652299, 0.998134791851, 0.0, 0.0, -0.0610486753285
2019-04-03 18:23:43.59,59016384, 0.0, 0.0, 353.0, 584.119995117, -35.363261, 149.1652299, 0.998134791851, 0.0, 0.0, -0.0610486753285
2019-04-03 18:23:43.69,59116344, 0.0, 0.0, 353.0, 584.140014648, -35.363261, 149.1652299, 0.998134791851, 0.0, 0.0, -0.0610486753285
2019-04-03 18:23:43.79,59216304, 0.0, 0.0, 353.0, 584.16998291, -35.363261, 149.1652299, 0.998134791851, 0.0, 0.0, -0.0610486753285
2019-04-03 18:23:43.89,59316264, 0.0, 0.0, 353.0, 584.210021973, -35.363261, 149.1652299, 0.998134791851, -6.89308876645e-08, -2.90122041946e-08, -0.0610486790538
2019-04-03 18:23:43.99,59416224, -0.02, -0.02, 352.99, 584.270019531, -35.363261, 149.1652299, 0.998134613037, -0.000214258936467, -0.000162826574524, -0.0610508210957
2019-04-03 18:23:44.09,59516184, -0.05, -0.05, 352.99, 584.380004883, -35.363261, 149.1652299, 0.998133778572, -0.000546262948774, -0.000465219171019, -0.0610610954463
2019-04-03 18:23:44.19,59616144, -0.08, -0.09, 352.99, 584.530029297, -35.363261, 149.1652299, 0.998132288456, -0.000759976275731, -0.000772679515649, -0.061080340296
2019-04-03 18:23:44.29,59716104, -0.09, -0.1, 352.99, 584.690002441, -35.363261, 149.1652299, 0.998130619526, -0.000890129536856, -0.000905440014321, -0.0611039213836
2019-04-03 18:23:44.39,59816064, -0.09, -0.1, 352.99, 584.840026855, -35.363261, 149.1652299, 0.998129189014, -0.000903546519112, -0.000839351268951, -0.0611280426383
2019-04-03 18:23:44.49,59916024, -0.08, -0.08, 352.98, 584.989990234, -35.363261, 149.1652299, 0.998127937317, -0.000771372870076, -0.000671940506436, -0.0611529611051
2019-04-03 18:23:44.59,60015984, -0.06, -0.06, 352.98, 585.140014648, -35.363261, 149.1652299, 0.998126626015, -0.000621863291599, -0.000508002238348, -0.0611770562828
2019-04-03 18:23:44.69,60115944, -0.07, -0.04, 352.98, 585.299987793, -35.363261, 149.1652299, 0.998125195503, -0.000657533528283, -0.000328019086737, -0.0612009502947
2019-04-03 18:23:44.79,60215904, -0.09, 0.0, 352.98, 585.469970703, -35.363261, 149.1652299, 0.998124420643, -0.000840961234644, -3.53438445018e-05, -0.0612121038139
2019-04-03 18:23:44.89,60315864, -0.12, 0.01, 352.98, 585.640014648, -35.363261, 149.1652299, 0.998123884201, -0.00106626399793, 0.000192650899407, -0.0612170100212
2019-04-03 18:23:44.99,60415824, -0.12, 0.0, 352.98, 585.820007324, -35.363261, 149.1652299, 0.998123824596, -0.00108113675378, 0.0001125521012, -0.0612181127071
2019-04-03 18:23:45.09,60515784, -0.1, 0.0, 352.98, 586.0, -35.363261, 149.1652299, 0.998124361038, -0.000925808446482, -1.70829262061e-05, -0.0612121075392
2019-04-03 18:23:45.19,60615744, -0.08, -0.02, 352.98, 586.190002441, -35.363261, 149.1652299, 0.998124599457, -0.000741214316804, -0.000191716942936, -0.0612097382545
2019-04-03 18:23:45.29,60715704, -0.03, -0.05, 352.98, 586.380004883, -35.363261, 149.1652298, 0.998124957085, -0.000367153406842, -0.000452092353953, -0.0612068586051
2019-04-03 18:23:45.39,60815664, -0.01, -0.07, 352.98, 586.570007324, -35.363261, 149.1652298, 0.998125255108, -0.000129141815705, -0.000612797972281, -0.0612015649676
2019-04-03 18:23:45.50,60916457, 0.0, -0.05, 352.98, 586.770019531, -35.363261, 149.1652298, 0.99812579155, -0.000104138664028, -0.000500734720845, -0.0611937493086
2019-04-03 18:23:45.59,61016417, -0.03, -0.03, 352.98, 586.969970703, -35.363261, 149.1652298, 0.998125731945, -0.000334994023433, -0.000242175359745, -0.0611954405904
2019-04-03 18:23:45.69,61116377, -0.05, 0.0, 352.98, 587.16998291, -35.363261, 149.1652298, 0.998125553131, -0.000437510898337, 0.000104725171695, -0.0611985661089
2019-04-03 18:23:45.79,61216337, -0.05, 0.03, 352.98, 587.369995117, -35.363261, 149.1652298, 0.998124837875, -0.000458994123619, 0.000328894966515, -0.061209499836
2019-04-03 18:23:45.89,61316297, -0.03, 0.03, 352.97, 587.58001709, -35.363261, 149.1652298, 0.99812400341, -0.00025788883795, 0.000318711419823, -0.0612229220569
2019-04-03 18:23:45.99,61416257, 0.0, -0.01, 352.97, 587.780029297, -35.363261, 149.1652298, 0.998123884201, 2.59059415839e-05, -9.87592284218e-05, -0.0612265206873
2019-04-03 18:23:46.09,61516217, 0.03, -0.04, 352.97, 587.989990234, -35.363261, 149.1652298, 0.998123347759, 0.000293351273285, -0.000435664027464, -0.0612328611314
2019-04-03 18:23:46.19,61616177, 0.05, -0.03, 352.97, 588.200012207, -35.363261, 149.1652298, 0.998122513294, 0.000473726249766, -0.000376388867153, -0.0612463541329
2019-04-03 18:23:46.29,61716137, 0.04, -0.02, 352.97, 588.409973145, -35.3632609, 149.1652298, 0.998121023178, 0.000418047537096, -0.000257097912254, -0.0612717755139
2019-04-03 18:23:46.39,61816097, 0.0, -0.03, 352.97, 588.630004883, -35.3632609, 149.1652298, 0.998119592667, -1.20313570733e-05, -0.000318050093483, -0.0612960979342
2019-04-03 18:23:46.49,61916057, -0.04, -0.04, 352.96, 588.840026855, -35.3632609, 149.1652298, 0.998118460178, -0.000394603790483, -0.000349864421878, -0.0613126344979
2019-04-03 18:23:46.59,62016017, -0.07, -0.04, 352.96, 589.049987793, -35.3632609, 149.1652298, 0.998117506504, -0.000689894368406, -0.000381639838452, -0.0613255873322
2019-04-03 18:23:46.69,62115977, -0.08, -0.04, 352.96, 589.270019531, -35.3632609, 149.1652298, 0.998116731644, -0.000803104951046, -0.000347056629835, -0.0613369569182
2019-04-03 18:23:46.79,62215937, -0.07, -0.05, 352.96, 589.479980469, -35.3632609, 149.1652298, 0.998115837574, -0.000653005437925, -0.000405449274695, -0.0613534711301
2019-04-03 18:23:46.89,62315897, -0.04, -0.04, 352.96, 589.700012207, -35.3632609, 149.1652297, 0.998114526272, -0.000409752363339, -0.000351425755071, -0.0613769628108
2019-04-03 18:23:46.99,62415857, -0.02, -0.03, 352.95, 589.91998291, -35.3632609, 149.1652297, 0.998113334179, -0.000197644534637, -0.000307138892822, -0.061397343874
2019-04-03 18:23:47.09,62515817, 0.0, -0.03, 352.95, 590.140014648, -35.3632609, 149.1652297, 0.998112261295, -1.79051512532e-05, -0.000294768571621, -0.0614154748619
2019-04-03 18:23:47.19,62615777, 0.0, -0.04, 352.95, 590.359985352, -35.3632609, 149.1652297, 0.998110711575, -4.23940291512e-05, -0.000377997406758, -0.061440885067
2019-04-03 18:23:47.29,62715737, -0.03, -0.07, 352.95, 590.58001709, -35.3632609, 149.1652297, 0.998108804226, -0.000382636615541, -0.000595496327151, -0.0614683292806
2019-04-03 18:23:47.39,62815697, -0.08, -0.1, 352.94, 590.799987793, -35.3632609, 149.1652297, 0.998107075691, -0.000814930885099, -0.000882960041054, -0.0614883042872
2019-04-03 18:23:47.50,62916490, -0.09, -0.12, 352.94, 591.030029297, -35.3632609, 149.1652296, 0.998106539249, -0.000922095961869, -0.00107695907354, -0.0614921562374
2019-04-03 18:23:47.60,63016450, -0.08, -0.12, 352.94, 591.25, -35.3632609, 149.1652296, 0.99810642004, -0.000840473570861, -0.00106400984805, -0.0614961870015
2019-04-03 18:23:47.69,63116410, -0.07, -0.08, 352.94, 591.469970703, -35.3632608, 149.1652296, 0.99810642004, -0.000671790447086, -0.00071503786603, -0.0615033581853
2019-04-03 18:23:47.79,63216370, -0.06, -0.02, 352.94, 591.700012207, -35.3632608, 149.1652296, 0.998105883598, -0.000571054406464, -0.000207517805393, -0.0615163967013
2019-04-03 18:23:47.89,63316330, -0.05, 0.02, 352.94, 591.91998291, -35.3632608, 149.1652296, 0.998105347157, -0.000506444077473, 0.000273609999567, -0.0615255385637
2019-04-03 18:23:47.99,63416290, -0.04, 0.06, 352.94, 592.150024414, -35.3632608, 149.1652294, 0.998104512691, -0.000397643714678, 0.000552698969841, -0.0615376867354
2019-04-03 18:23:48.09,63516250, -0.04, 0.05, 352.94, 592.369995117, -35.3632608, 149.1652294, 0.998103022575, -0.00039807066787, 0.000525472976733, -0.0615623667836
2019-04-03 18:23:48.19,63616210, -0.03, 0.03, 352.93, 592.599975586, -35.3632608, 149.1652294, 0.998101770878, -0.000318089965731, 0.000300068611978, -0.0615848600864
2019-04-03 18:23:48.29,63716170, -0.04, 0.0, 352.93, 592.83001709, -35.3632608, 149.1652294, 0.998100578785, -0.000369487417629, 3.08608141495e-05, -0.0616048946977
2019-04-03 18:23:48.39,63816130, -0.04, -0.01, 352.93, 593.049987793, -35.3632607, 149.1652294, 0.998099148273, -0.000368191627786, -0.000116155293654, -0.0616278499365
2019-04-03 18:23:48.49,63916090, -0.02, -0.01, 352.93, 593.270019531, -35.3632607, 149.1652294, 0.998097717762, -0.000216078129597, -0.000108698957774, -0.0616520866752
2019-04-03 18:23:48.59,64016050, -0.01, 0.0, 352.92, 593.479980469, -35.3632607, 149.1652293, 0.99809640646, -0.000127605890157, -2.54114966083e-05, -0.0616730824113
2019-04-03 18:23:48.69,64116010, 0.0, 0.0, 352.92, 593.679992676, -35.3632607, 149.1652293, 0.998095154762, -6.89818480168e-05, 1.67788221006e-05, -0.0616934895515
2019-04-03 18:23:48.79,64215970, 0.0, 0.03, 352.92, 593.869995117, -35.3632607, 149.1652293, 0.998093724251, 9.95435329969e-05, 0.000272789242445, -0.0617158301175
2019-04-03 18:23:48.89,64315930, 0.05, 0.04, 352.92, 594.049987793, -35.3632607, 149.1652293, 0.998092353344, 0.000464205426397, 0.000407817278756, -0.0617354810238
2019-04-03 18:23:48.99,64415890, 0.07, 0.04, 352.91, 594.210021973, -35.3632607, 149.1652293, 0.998091220856, 0.000646979198791, 0.000330096896505, -0.0617528297007
2019-04-03 18:23:49.09,64515850, 0.09, 0.01, 352.91, 594.369995117, -35.3632607, 149.1652293, 0.998090088367, 0.000815927167423, 6.82624813635e-05, -0.0617701970041
2019-04-03 18:23:49.19,64615810, 0.11, -0.14, 352.91, 594.510009766, -35.3632607, 149.1652293, 0.998088002205, 0.000924353080336, -0.00136322330218, -0.0617873780429
2019-04-03 18:23:49.29,64715770, 0.14, -0.56, 352.91, 594.640014648, -35.3632607, 149.1652293, 0.998075485229, 0.000972860725597, -0.00502110645175, -0.0617992579937
2019-04-03 18:23:49.39,64815730, 0.16, -1.26, 352.91, 594.75, -35.3632605, 149.1652293, 0.998025596142, 0.00077982590301, -0.0111505640671, -0.061806011945
2019-04-03 18:23:49.49,64915690, 0.18, -2.2, 352.9, 594.859985352, -35.3632605, 149.1652293, 0.997900903225, 0.000453971326351, -0.0193476974964, -0.0618008598685
2019-04-03 18:23:49.60,65016483, 0.22, -3.26, 352.9, 594.950012207, -35.3632604, 149.1652293, 0.997681736946, 0.000190543883946, -0.0285305827856, -0.0617834143341
2019-04-03 18:23:49.69,65116443, 0.27, -4.23, 352.9, 595.030029297, -35.3632604, 149.1652293, 0.997403144836, 0.00013413526176, -0.0370669998229, -0.0617489181459
2019-04-03 18:23:49.79,65216403, 0.34, -5.04, 352.9, 595.090026855, -35.3632603, 149.1652293, 0.997117996216, 0.000234473103774, -0.0441436208785, -0.0617012828588
2019-04-03 18:23:49.89,65316363, 0.38, -5.66, 352.9, 595.150024414, -35.3632599, 149.1652293, 0.996870160103, 0.000287572096568, -0.0494863316417, -0.0616518817842
2019-04-03 18:23:49.99,65416323, 0.39, -6.12, 352.9, 595.210021973, -35.3632598, 149.1652293, 0.99666506052, 0.00011920601537, -0.0535053573549, -0.0616112798452
2019-04-03 18:23:50.09,65516283, 0.36, -6.5, 352.9, 595.25, -35.3632593, 149.1652292, 0.996482908726, -0.000302377302432, -0.0568231903017, -0.0615869574249
2019-04-03 18:23:50.19,65616243, 0.34, -6.87, 352.9, 595.289978027, -35.363259, 149.1652292, 0.996298074722, -0.000665715138894, -0.0599980503321, -0.0615630932152
2019-04-03 18:23:50.29,65716203, 0.36, -7.25, 352.9, 595.320007324, -35.3632585, 149.1652292, 0.996090769768, -0.000761890609283, -0.0633731707931, -0.0615342371166
2019-04-03 18:23:50.39,65816163, 0.38, -7.65, 352.9, 595.349975586, -35.3632579, 149.1652291, 0.995866596699, -0.000789613171946, -0.066826492548, -0.0615092813969
2019-04-03 18:23:50.49,65916123, 0.42, -8.0, 352.9, 595.380004883, -35.3632572, 149.1652291, 0.995658576488, -0.000662655802444, -0.0698793977499, -0.0614857710898
2019-04-03 18:23:50.59,66016083, 0.43, -8.27, 352.9, 595.400024414, -35.3632565, 149.1652289, 0.995491802692, -0.000651271140669, -0.0722222700715, -0.0614791288972
2019-04-03 18:23:50.69,66116043, 0.44, -8.46, 352.89, 595.41998291, -35.3632556, 149.1652289, 0.995371341705, -0.00072107790038, -0.0738627165556, -0.061478767544
2019-04-03 18:23:50.79,66216003, 0.44, -8.58, 352.89, 595.440002441, -35.3632548, 149.1652289, 0.995292007923, -0.000765689124819, -0.0749226808548, -0.0614809505641
2019-04-03 18:23:50.89,66315963, 0.47, -8.68, 352.89, 595.450012207, -35.3632538, 149.1652288, 0.995226979256, -0.000586612499319, -0.0757900699973, -0.0614720471203
2019-04-03 18:23:50.99,66415923, 0.51, -8.82, 352.89, 595.469970703, -35.3632528, 149.1652287, 0.995132029057, -0.000303256878396, -0.077040694654, -0.0614559315145
2019-04-03 18:23:51.09,66515883, 0.67, -9.03, 352.99, 595.479980469, -35.3632518, 149.1652286, 0.995043456554, 0.00103905564174, -0.0789378136396, -0.0604672394693
2019-04-03 18:23:51.19,66615843, 0.76, -9.35, 353.46, 595.5, -35.3632506, 149.1652284, 0.995058774948, 0.00201942562126, -0.0818046405911, -0.0562321133912
2019-04-03 18:23:51.29,66715803, 0.66, -9.78, 354.3, 595.510009766, -35.3632494, 149.1652284, 0.995133817196, 0.0015406064922, -0.0854582116008, -0.0490226000547
2019-04-03 18:23:51.39,66815763, 0.35, -10.24, 355.31, 595.520019531, -35.3632481, 149.1652283, 0.995185375214, -0.000560167129152, -0.0892974287271, -0.0403951443732
2019-04-03 18:23:51.49,66915723, -0.07, -10.68, 356.33, 595.530029297, -35.3632467, 149.1652283, 0.995143473148, -0.00362032442354, -0.0930637419224, -0.0318677909672
2019-04-03 18:23:51.59,67015683, -0.5, -11.1, 357.21, 595.539978027, -35.3632452, 149.1652282, 0.994993209839, -0.0067754178308, -0.0966271236539, -0.0246121194214
2019-04-03 18:23:51.70,67116476, -0.85, -11.49, 357.86, 595.549987793, -35.3632438, 149.1652279, 0.994761526585, -0.00929726660252, -0.0999485179782, -0.0193252991885
2019-04-03 18:23:51.79,67216436, -1.07, -11.85, 358.21, 595.559997559, -35.3632421, 149.1652279, 0.994474947453, -0.0109145874158, -0.103104710579, -0.0164285935462
2019-04-03 18:23:51.89,67316396, -1.14, -12.22, 358.29, 595.570007324, -35.3632404, 149.1652278, 0.994138419628, -0.0115235643461, -0.106326252222, -0.0158359631896
2019-04-03 18:23:51.99,67416356, -1.08, -12.61, 358.13, 595.58001709, -35.3632386, 149.1652275, 0.99375385046, -0.0111771849915, -0.109687879682, -0.0172335579991
2019-04-03 18:23:52.09,67516316, -0.89, -12.99, 357.78, 595.590026855, -35.3632368, 149.1652274, 0.993345379829, -0.00996730476618, -0.112965501845, -0.0201100949198
2019-04-03 18:23:52.19,67616276, -0.64, -13.36, 357.31, 595.599975586, -35.3632349, 149.1652272, 0.992905378342, -0.00830337125808, -0.116186365485, -0.0238908901811
2019-04-03 18:23:52.29,67716236, -0.37, -13.74, 356.81, 595.609985352, -35.363233, 149.1652269, 0.992413640022, -0.00655779801309, -0.119534105062, -0.0279948562384
2019-04-03 18:23:52.39,67816196, -0.12, -14.13, 356.33, 595.619995117, -35.3632309, 149.1652268, 0.991884887218, -0.0049887355417, -0.122973114252, -0.0318936295807
2019-04-03 18:23:52.49,67916156, 0.09, -14.51, 355.92, 595.630004883, -35.3632287, 149.1652265, 0.991368830204, -0.00366421276703, -0.126242890954, -0.0351732708514
2019-04-03 18:23:52.59,68016116, 0.24, -14.8, 355.62, 595.640014648, -35.3632264, 149.1652264, 0.990947365761, -0.00276936334558, -0.128851592541, -0.0375903360546
2019-04-03 18:23:52.69,68116076, 0.32, -15.02, 355.44, 595.659973145, -35.3632242, 149.165226, 0.990642726421, -0.00237425649539, -0.130755037069, -0.0390458703041
2019-04-03 18:23:52.79,68216036, 0.32, -15.16, 355.38, 595.66998291, -35.3632216, 149.1652259, 0.99045675993, -0.00254941964522, -0.131998732686, -0.0395638979971
2019-04-03 18:23:52.89,68315996, 0.24, -15.26, 355.42, 595.679992676, -35.3632193, 149.1652256, 0.990361809731, -0.00319314328954, -0.132780566812, -0.0392758697271
2019-04-03 18:23:52.99,68415956, 0.13, -15.33, 355.54, 595.690002441, -35.3632166, 149.1652254, 0.990314006805, -0.00402669049799, -0.133378475904, -0.0383684635162
2019-04-03 18:23:53.09,68515916, 0.01, -15.4, 355.71, 595.710021973, -35.363214, 149.1652251, 0.990289211273, -0.00485841138288, -0.133903607726, -0.0370600745082
2019-04-03 18:23:53.19,68615876, -0.09, -15.47, 355.89, 595.719970703, -35.3632112, 149.1652249, 0.99025195837, -0.0056412210688, -0.134541660547, -0.0356064103544
2019-04-03 18:23:53.29,68715836, -0.17, -15.57, 356.06, 595.729980469, -35.3632085, 149.1652246, 0.990183770657, -0.00617994694039, -0.135382086039, -0.0341995246708
2019-04-03 18:23:53.39,68815796, -0.22, -15.67, 356.21, 595.75, -35.3632057, 149.1652244, 0.990101277828, -0.0064515885897, -0.136266902089, -0.033002614975
2019-04-03 18:23:53.49,68915756, -0.25, -15.76, 356.31, 595.760009766, -35.3632027, 149.1652241, 0.990023553371, -0.00657663913444, -0.137027472258, -0.0321506485343
2019-04-03 18:23:53.59,69015716, -0.26, -15.85, 356.37, 595.770019531, -35.3631997, 149.1652239, 0.989931762218, -0.00669564679265, -0.137789607048, -0.031690467149
2019-04-03 18:23:53.69,69115676, -0.27, -15.92, 356.38, 595.780029297, -35.3631968, 149.1652236, 0.98985439539, -0.00677006551996, -0.138358667493, -0.0316122658551
2019-04-03 18:23:53.80,69216469, -0.26, -15.98, 356.35, 595.799987793, -35.3631936, 149.1652232, 0.989765644073, -0.0067592007108, -0.138936638832, -0.0318581722677
2019-04-03 18:23:53.89,69316429, -0.24, -16.04, 356.29, 595.809997559, -35.3631905, 149.165223, 0.98967820406, -0.00662954477593, -0.139453366399, -0.0323390364647
2019-04-03 18:23:53.99,69416389, -0.21, -16.12, 356.21, 595.83001709, -35.3631874, 149.1652226, 0.989559650421, -0.00647549144924, -0.140154182911, -0.0329642891884
2019-04-03 18:23:54.09,69516349, -0.17, -16.2, 356.13, 595.840026855, -35.3631842, 149.1652224, 0.989438891411, -0.00625984463841, -0.140856027603, -0.033632196486
2019-04-03 18:23:54.19,69616309, -0.13, -16.27, 356.05, 595.849975586, -35.363181, 149.1652221, 0.989332377911, -0.00607560388744, -0.141455739737, -0.034275688231
2019-04-03 18:23:54.29,69716269, -0.08, -16.32, 355.98, 595.869995117, -35.3631777, 149.1652217, 0.989254653454, -0.00572536233813, -0.141885504127, -0.0347993820906
2019-04-03 18:23:54.39,69816229, -0.03, -16.36, 355.93, 595.880004883, -35.3631743, 149.1652214, 0.989191651344, -0.00536195095628, -0.142246797681, -0.03517235443
2019-04-03 18:23:54.49,69916189, 0.0, -16.38, 355.9, 595.890014648, -35.3631709, 149.1652211, 0.989161014557, -0.00511511601508, -0.142409920692, -0.0354085899889
2019-04-03 18:23:54.59,70016149, 0.0, -16.39, 355.88, 595.909973145, -35.3631674, 149.1652207, 0.98914206028, -0.00507069332525, -0.142516553402, -0.0355164073408
2019-04-03 18:23:54.69,70116109, 0.0, -16.42, 355.88, 595.91998291, -35.363164, 149.1652205, 0.98911356926, -0.00513880001381, -0.142714455724, -0.0355038158596
2019-04-03 18:23:54.79,70216069, -0.02, -16.45, 355.9, 595.940002441, -35.3631605, 149.1652201, 0.989075362682, -0.00533771933988, -0.142996251583, -0.0354059562087
2019-04-03 18:23:54.89,70316029, -0.04, -16.48, 355.92, 595.950012207, -35.363157, 149.1652198, 0.98904389143, -0.00552053190768, -0.143246814609, -0.035242471844
2019-04-03 18:23:54.99,70415989, -0.07, -16.51, 355.94, 595.969970703, -35.3631534, 149.1652195, 0.98900783062, -0.00571262370795, -0.143532350659, -0.0350626036525
2019-04-03 18:23:55.09,70515949, -0.1, -16.56, 355.97, 595.979980469, -35.3631497, 149.1652191, 0.988954305649, -0.00594347994775, -0.143929600716, -0.0349052548409
2019-04-03 18:23:55.19,70615909, -0.12, -16.63, 355.98, 596.0, -35.3631461, 149.1652188, 0.988875448704, -0.00610963301733, -0.144490689039, -0.0347908698022
2019-04-03 18:23:55.29,70715869, -0.1, -16.68, 355.99, 596.010009766, -35.3631425, 149.1652184, 0.988814890385, -0.00601382972673, -0.144930690527, -0.0346995927393
2019-04-03 18:23:55.39,70815829, -0.08, -16.73, 355.99, 596.030029297, -35.3631388, 149.1652181, 0.988752901554, -0.00581955630332, -0.145371094346, -0.0346575342119
2019-04-03 18:23:55.49,70915789, -0.06, -16.75, 355.99, 596.039978027, -35.3631351, 149.1652178, 0.988717496395, -0.00565650314093, -0.145612999797, -0.0346796736121
2019-04-03 18:23:55.59,71015749, -0.06, -16.77, 355.97, 596.059997559, -35.3631315, 149.1652174, 0.988696098328, -0.00570512702689, -0.14572969079, -0.0347901396453
2019-04-03 18:23:55.69,71115709, -0.08, -16.78, 355.96, 596.070007324, -35.3631277, 149.1652171, 0.988676726818, -0.00584678445011, -0.14581823349, -0.0349451303482
2019-04-03 18:23:55.79,71215669, -0.09, -16.79, 355.94, 596.090026855, -35.3631239, 149.1652167, 0.988660812378, -0.00601164577529, -0.145877614617, -0.0351190976799
2019-04-03 18:23:55.90,71316462, -0.09, -16.81, 355.92, 596.099975586, -35.36312, 149.1652164, 0.98861938715, -0.00604791240767, -0.146113976836, -0.0352962128818
2019-04-03 18:23:55.99,71416422, -0.09, -16.87, 355.9, 596.119995117, -35.3631163, 149.1652159, 0.988541662693, -0.00605019321665, -0.146596476436, -0.0354713015258
2019-04-03 18:23:56.09,71516382, -0.1, -16.93, 355.88, 596.130004883, -35.3631125, 149.1652155, 0.988450944424, -0.00619121361524, -0.147155210376, -0.0356625467539
2019-04-03 18:23:56.19,71616342, -0.11, -16.98, 355.86, 596.150024414, -35.3631085, 149.1652153, 0.988388359547, -0.00633366499096, -0.147526070476, -0.0358394049108
2019-04-03 18:23:56.29,71716302, -0.1, -16.99, 355.84, 596.159973145, -35.3631047, 149.1652149, 0.98836261034, -0.00627945922315, -0.147667661309, -0.0359752252698
2019-04-03 18:23:56.39,71816262, -0.07, -17.01, 355.83, 596.179992676, -35.3631009, 149.1652145, 0.988344490528, -0.00605705566704, -0.147775620222, -0.0360673815012
2019-04-03 18:23:56.49,71916222, -0.05, -17.01, 355.81, 596.190002441, -35.3630969, 149.1652141, 0.988337814808, -0.00587973371148, -0.147809073329, -0.0361438021064
2019-04-03 18:23:56.59,72016182, -0.04, -17.0, 355.8, 596.210021973, -35.3630931, 149.1652138, 0.988344311714, -0.00576861388981, -0.147751823068, -0.036217674613
2019-04-03 18:23:56.69,72116142, -0.02, -17.0, 355.79, 596.229980469, -35.363089, 149.1652135, 0.988344669342, -0.00560983503237, -0.147741705179, -0.0362723208964
2019-04-03 18:23:56.79,72216102, -0.01, -17.02, 355.79, 596.239990234, -35.3630852, 149.1652131, 0.988318800926, -0.00554301496595, -0.147904440761, -0.0363246239722
2019-04-03 18:23:56.89,72316062, 0.0, -17.05, 355.78, 596.260009766, -35.3630811, 149.1652126, 0.98827624321, -0.00551715446636, -0.148178577423, -0.0363698936999
2019-04-03 18:23:56.99,72416022, 0.0, -17.09, 355.77, 596.270019531, -35.3630772, 149.1652123, 0.988228082657, -0.00546876061708, -0.148491293192, -0.0364096350968
2019-04-03 18:23:57.09,72515982, 0.0, -17.12, 355.77, 596.289978027, -35.3630731, 149.165212, 0.988182604313, -0.00542106805369, -0.148786962032, -0.0364454612136
2019-04-03 18:23:57.19,72615942, 0.01, -17.18, 355.76, 596.299987793, -35.3630692, 149.1652116, 0.988098621368, -0.0053624114953, -0.149336263537, -0.0364837758243
2019-04-03 18:23:57.29,72715902, 0.02, -17.24, 355.76, 596.320007324, -35.3630652, 149.1652111, 0.988019585609, -0.00534850684926, -0.149845317006, -0.0365384444594
2019-04-03 18:23:57.39,72815862, 0.02, -17.27, 355.75, 596.33001709, -35.3630612, 149.1652109, 0.987986207008, -0.00538371596485, -0.150049000978, -0.0366010479629
2019-04-03 18:23:57.49,72915822, 0.01, -17.27, 355.74, 596.349975586, -35.3630572, 149.1652105, 0.987983345985, -0.00544435344636, -0.15005004406, -0.0366640128195
2019-04-03 18:23:57.59,73015782, 0.02, -17.26, 355.74, 596.359985352, -35.3630531, 149.1652101, 0.987986862659, -0.00540620787069, -0.150015413761, -0.0367164574564
2019-04-03 18:23:57.69,73115742, 0.04, -17.27, 355.73, 596.380004883, -35.3630489, 149.1652097, 0.987973153591, -0.00521557498723, -0.150103420019, -0.0367542617023
2019-04-03 18:23:57.79,73215702, 0.06, -17.31, 355.72, 596.390014648, -35.363045, 149.1652093, 0.987920761108, -0.00503885839134, -0.150442287326, -0.0368009023368
2019-04-03 18:23:57.89,73315662, 0.06, -17.34, 355.71, 596.409973145, -35.3630409, 149.165209, 0.9878718853, -0.00505593279377, -0.150743454695, -0.0368790253997
2019-04-03 18:23:58.00,73416455, 0.03, -17.36, 355.7, 596.41998291, -35.3630367, 149.1652086, 0.987850189209, -0.00531773548573, -0.150846689939, -0.0370014086366
2019-04-03 18:23:58.09,73516415, 0.0, -17.36, 355.69, 596.440002441, -35.3630327, 149.1652082, 0.987841069698, -0.00559130590409, -0.150866225362, -0.0371232070029
2019-04-03 18:23:58.19,73616375, 0.0, -17.36, 355.68, 596.450012207, -35.3630286, 149.1652078, 0.987844109535, -0.00567085808143, -0.150819391012, -0.0372202172875
2019-04-03 18:23:58.29,73716335, 0.02, -17.35, 355.67, 596.469970703, -35.3630244, 149.1652074, 0.987845003605, -0.00545851467177, -0.150808975101, -0.0372710563242
2019-04-03 18:23:58.39,73816295, 0.05, -17.38, 355.66, 596.479980469, -35.3630202, 149.1652071, 0.987815201283, -0.0052161985077, -0.151002496481, -0.0373119264841
2019-04-03 18:23:58.49,73916255, 0.07, -17.41, 355.65, 596.5, -35.3630161, 149.1652067, 0.987761735916, -0.0051237330772, -0.151340052485, -0.037372302264
2019-04-03 18:23:58.59,74016215, 0.08, -17.45, 355.64, 596.510009766, -35.363012, 149.1652063, 0.987710893154, -0.00502850022167, -0.151659488678, -0.0374336913228
2019-04-03 18:23:58.69,74116175, 0.09, -17.47, 355.63, 596.530029297, -35.3630079, 149.1652059, 0.98768478632, -0.00500449631363, -0.151811331511, -0.0375122241676
2019-04-03 18:23:58.79,74216135, 0.09, -17.48, 355.62, 596.539978027, -35.3630037, 149.1652056, 0.987664699554, -0.00499679706991, -0.151921629906, -0.037594370544
2019-04-03 18:23:58.89,74316095, 0.09, -17.5, 355.61, 596.559997559, -35.3629995, 149.1652052, 0.987634301186, -0.00498732505366, -0.152100250125, -0.0376712009311
2019-04-03 18:23:58.99,74416055, 0.1, -17.51, 355.6, 596.58001709, -35.3629953, 149.1652048, 0.987618625164, -0.00495536858216, -0.152185708284, -0.0377423688769
2019-04-03 18:23:59.09,74516015, 0.1, -17.52, 355.59, 596.590026855, -35.3629911, 149.1652044, 0.987610042095, -0.00492246681824, -0.152227580547, -0.0378022156656
2019-04-03 18:23:59.19,74615975, 0.1, -17.55, 355.59, 596.609985352, -35.3629869, 149.165204, 0.987567484379, -0.00492827966809, -0.152487754822, -0.0378638803959
2019-04-03 18:23:59.29,74715935, 0.11, -17.6, 355.58, 596.619995117, -35.3629828, 149.1652035, 0.987496733665, -0.00486194714904, -0.152934968472, -0.0379145853221
2019-04-03 18:23:59.39,74815895, 0.11, -17.64, 355.57, 596.640014648, -35.3629786, 149.1652033, 0.987433433533, -0.00489086192101, -0.153325527906, -0.0379818864167
2019-04-03 18:23:59.49,74915855, 0.09, -17.66, 355.56, 596.650024414, -35.3629744, 149.1652029, 0.987405002117, -0.00510973576456, -0.153477802873, -0.0380766578019
2019-04-03 18:23:59.59,75015815, 0.05, -17.67, 355.56, 596.66998291, -35.3629702, 149.1652025, 0.987384200096, -0.00550160184503, -0.153566330671, -0.0382042378187
2019-04-03 18:23:59.69,75115775, 0.02, -17.68, 355.55, 596.679992676, -35.362966, 149.165202, 0.987372994423, -0.00575315440074, -0.153603881598, -0.0383071824908
2019-04-03 18:23:59.79,75215735, 0.03, -17.69, 355.54, 596.700012207, -35.3629617, 149.1652016, 0.987358152866, -0.00567219033837, -0.153689652681, -0.0383561737835
2019-04-03 18:23:59.89,75315695, 0.05, -17.7, 355.53, 596.710021973, -35.3629575, 149.1652013, 0.987337350845, -0.00553725846112, -0.153815284371, -0.0384086184204
2019-04-03 18:24:00.00,75416488, 0.07, -17.72, 355.52, 596.729980469, -35.3629532, 149.165201, 0.987314641476, -0.00535462703556, -0.153953880072, -0.0384615026414
2019-04-03 18:24:00.10,75516448, 0.09, -17.72, 355.51, 596.739990234, -35.362949, 149.1652006, 0.987307071686, -0.00517659541219, -0.153994739056, -0.0385184027255
2019-04-03 18:24:00.19,75616408, 0.1, -17.73, 355.5, 596.760009766, -35.3629447, 149.1652001, 0.987297832966, -0.00509746465832, -0.154036849737, -0.038596983999
2019-04-03 18:24:00.29,75716368, 0.11, -17.73, 355.49, 596.770019531, -35.3629405, 149.1651997, 0.987285196781, -0.00505606736988, -0.154096007347, -0.0386887378991
2019-04-03 18:24:00.39,75816328, 0.1, -17.75, 355.48, 596.789978027, -35.3629362, 149.1651994, 0.987252652645, -0.00520419469103, -0.154268786311, -0.038811314851
2019-04-03 18:24:00.49,75916288, 0.07, -17.78, 355.47, 596.809997559, -35.362932, 149.165199, 0.987209379673, -0.00544115854427, -0.154505193233, -0.0389390252531
2019-04-03 18:24:00.59,76016248, 0.04, -17.8, 355.45, 596.820007324, -35.3629277, 149.1651986, 0.987183511257, -0.00576756382361, -0.154623925686, -0.0390761047602
2019-04-03 18:24:00.69,76116208, 0.03, -17.81, 355.45, 596.840026855, -35.3629234, 149.1651982, 0.987160980701, -0.00586738437414, -0.154740482569, -0.0391688384116
2019-04-03 18:24:00.79,76216168, 0.02, -17.83, 355.44, 596.849975586, -35.3629191, 149.1651977, 0.987132191658, -0.00592173216864, -0.154901385307, -0.0392507351935
2019-04-03 18:24:00.89,76316128, 0.03, -17.85, 355.43, 596.869995117, -35.3629148, 149.1651973, 0.987104058266, -0.00591994263232, -0.155062809587, -0.039320319891
2019-04-03 18:24:00.99,76416088, 0.05, -17.86, 355.42, 596.880004883, -35.3629106, 149.165197, 0.987092614174, -0.0057478165254, -0.155133411288, -0.0393551290035
2019-04-03 18:24:01.09,76516048, 0.06, -17.86, 355.41, 596.900024414, -35.3629063, 149.1651966, 0.987081229687, -0.00562346167862, -0.15519875288, -0.0393995046616
2019-04-03 18:24:01.19,76616008, 0.06, -17.88, 355.4, 596.909973145, -35.362902, 149.1651963, 0.987060904503, -0.00562705984339, -0.155311480165, -0.0394650027156
2019-04-03 18:24:01.29,76715968, 0.06, -17.88, 355.4, 596.929992676, -35.3628975, 149.1651958, 0.987047791481, -0.00571477971971, -0.155370280147, -0.0395483411849
2019-04-03 18:24:01.39,76815928, 0.05, -17.89, 355.39, 596.940002441, -35.3628932, 149.1651954, 0.987035036087, -0.00575107429177, -0.155431896448, -0.0396200716496
2019-04-03 18:24:01.49,76915888, 0.06, -17.91, 355.38, 596.960021973, -35.3628889, 149.1651951, 0.98700094223, -0.00567656429484, -0.155635997653, -0.0396780483425
2019-04-03 18:24:01.59,77015848, 0.1, -17.95, 355.37, 596.969970703, -35.3628846, 149.1651946, 0.98695152998, -0.00541502004489, -0.155952051282, -0.0397029332817
2019-04-03 18:24:01.69,77115808, 0.14, -17.95, 355.36, 596.989990234, -35.3628804, 149.1651942, 0.986950039864, -0.00504321372136, -0.155971333385, -0.0397123508155
2019-04-03 18:24:01.79,77215768, 0.17, -17.92, 355.36, 597.0, -35.362876, 149.1651938, 0.98698580265, -0.0047875395976, -0.155745461583, -0.0397419184446
2019-04-03 18:24:01.89,77315728, 0.18, -17.9, 355.35, 597.020019531, -35.3628717, 149.1651934, 0.987018585205, -0.00469026202336, -0.15552893281, -0.0397881455719
2019-04-03 18:24:01.99,77415688, 0.16, -17.91, 355.34, 597.030029297, -35.3628674, 149.1651929, 0.986993670464, -0.00493395002559, -0.155656263232, -0.0398787967861
2019-04-03 18:24:02.10,77516481, 0.13, -17.96, 355.34, 597.049987793, -35.362863, 149.1651925, 0.986926853657, -0.00520840287209, -0.156049281359, -0.0399602651596
2019-04-03 18:24:02.19,77616441, 0.11, -18.0, 355.33, 597.059997559, -35.3628586, 149.1651922, 0.986864745617, -0.00536293769255, -0.156426101923, -0.0400015488267
2019-04-03 18:24:02.29,77716401, 0.11, -18.02, 355.33, 597.08001709, -35.3628542, 149.1651918, 0.986838340759, -0.00541529525071, -0.156586095691, -0.0400198101997
2019-04-03 18:24:02.39,77816361, 0.11, -18.01, 355.33, 597.099975586, -35.36285, 149.1651914, 0.98685079813, -0.00540952617303, -0.156506612897, -0.0400242730975
2019-04-03 18:24:02.49,77916321, 0.1, -17.99, 355.33, 597.109985352, -35.3628456, 149.165191, 0.986886024475, -0.00549012841657, -0.156276524067, -0.0400433577597
2019-04-03 18:24:02.59,78016281, 0.08, -17.97, 355.33, 597.130004883, -35.3628413, 149.1651906, 0.986914694309, -0.00560238258913, -0.156084150076, -0.0400724075735
2019-04-03 18:24:02.69,78116241, 0.09, -17.94, 355.33, 597.140014648, -35.3628369, 149.1651901, 0.986947178841, -0.00557009223849, -0.155874609947, -0.0400917753577
2019-04-03 18:24:02.79,78216201, 0.1, -17.93, 355.32, 597.159973145, -35.3628324, 149.1651898, 0.986961662769, -0.0054851542227, -0.155779957771, -0.0401138700545
2019-04-03 18:24:02.89,78316161, 0.09, -17.94, 355.32, 597.16998291, -35.3628281, 149.1651894, 0.986947953701, -0.00553134828806, -0.155850932002, -0.0401693508029
2019-04-03 18:24:02.99,78416121, 0.08, -17.96, 355.31, 597.190002441, -35.3628238, 149.165189, 0.986919403076, -0.00563916889951, -0.156008511782, -0.0402453914285
2019-04-03 18:24:03.09,78516081, 0.07, -17.97, 355.3, 597.200012207, -35.3628195, 149.1651886, 0.986899256706, -0.00577522814274, -0.156108379364, -0.0403321273625
2019-04-03 18:24:03.19,78616041, 0.06, -17.97, 355.29, 597.219970703, -35.3628151, 149.1651882, 0.98689520359, -0.00587196834385, -0.156108513474, -0.0404164418578
2019-04-03 18:24:03.29,78716001, 0.04, -17.97, 355.29, 597.229980469, -35.3628107, 149.1651877, 0.986892700195, -0.00605810526758, -0.156090676785, -0.0405196584761
2019-04-03 18:24:03.39,78815961, 0.02, -17.99, 355.28, 597.25, -35.3628062, 149.1651873, 0.986858546734, -0.00619417056441, -0.156274423003, -0.0406224355102
2019-04-03 18:24:03.49,78915921, 0.02, -18.03, 355.27, 597.260009766, -35.3628019, 149.165187, 0.986806690693, -0.00622460013255, -0.156577140093, -0.0407115519047
2019-04-03 18:24:03.59,79015881, 0.03, -18.05, 355.26, 597.280029297, -35.3627976, 149.1651866, 0.986774682999, -0.00620869453996, -0.156760886312, -0.0407822355628
2019-04-03 18:24:03.69,79115841, 0.04, -18.05, 355.25, 597.289978027, -35.3627932, 149.1651862, 0.986765801907, -0.00608167005703, -0.156810164452, -0.0408263877034
2019-04-03 18:24:03.79,79215801, 0.07, -18.06, 355.24, 597.309997559, -35.3627888, 149.1651858, 0.986754179001, -0.00586935365573, -0.156884670258, -0.0408525243402
2019-04-03 18:24:03.89,79315761, 0.1, -18.06, 355.24, 597.320007324, -35.3627843, 149.1651853, 0.98674839735, -0.0056488965638, -0.156924441457, -0.0408716201782
2019-04-03 18:24:03.99,79415721, 0.11, -18.06, 355.23, 597.340026855, -35.36278, 149.1651848, 0.986748039722, -0.00549480179325, -0.156926557422, -0.0408928580582
2019-04-03 18:24:04.09,79515681, 0.12, -18.06, 355.22, 597.349975586, -35.3627756, 149.1651844, 0.986756801605, -0.00549636781216, -0.156859621406, -0.0409370735288
2019-04-03 18:24:04.20,79616474, 0.11, -18.06, 355.22, 597.369995117, -35.3627712, 149.1651841, 0.986752748489, -0.00553801609203, -0.156871944666, -0.0409825369716
2019-04-03 18:24:04.29,79716434, 0.11, -18.09, 355.22, 597.390014648, -35.3627667, 149.1651837, 0.986707389355, -0.00556333363056, -0.157150641084, -0.0410026609898
2019-04-03 18:24:04.39,79816394, 0.1, -18.1, 355.22, 597.400024414, -35.3627624, 149.1651833, 0.986693561077, -0.00561616476625, -0.157234221697, -0.0410085506737
2019-04-03 18:24:04.49,79916354, 0.08, -18.1, 355.22, 597.41998291, -35.362758, 149.1651829, 0.986692845821, -0.0058192498982, -0.15722797811, -0.0410224311054
2019-04-03 18:24:04.59,80016314, 0.06, -18.09, 355.22, 597.429992676, -35.3627536, 149.1651824, 0.986704647541, -0.00598404882476, -0.157146632671, -0.0410255230963
2019-04-03 18:24:04.69,80116274, 0.07, -18.08, 355.22, 597.450012207, -35.3627491, 149.1651819, 0.986723542213, -0.00592931592837, -0.157034516335, -0.0410072356462
2019-04-03 18:24:04.79,80216234, 0.09, -18.06, 355.22, 597.460021973, -35.3627448, 149.1651815, 0.986746370792, -0.00569682894275, -0.15690676868, -0.0409804880619
2019-04-03 18:24:04.89,80316194, 0.12, -18.07, 355.22, 597.479980469, -35.3627404, 149.1651812, 0.986730337143, -0.00549921905622, -0.157017081976, -0.0409722663462
2019-04-03 18:24:04.99,80416154, 0.11, -18.1, 355.22, 597.489990234, -35.362736, 149.1651808, 0.986692488194, -0.0055615035817, -0.157241627574, -0.0410132594407
2019-04-03 18:24:05.09,80516114, 0.11, -18.14, 355.21, 597.510009766, -35.3627315, 149.1651804, 0.986638069153, -0.00556852063164, -0.157574757934, -0.0410427078605
2019-04-03 18:24:05.19,80616074, 0.12, -18.16, 355.21, 597.530029297, -35.3627271, 149.16518, 0.986606776714, -0.00549514126033, -0.157768383622, -0.0410614348948
2019-04-03 18:24:05.29,80716034, 0.14, -18.16, 355.2, 597.539978027, -35.3627227, 149.1651795, 0.986600279808, -0.0053847222589, -0.157809838653, -0.0410730913281
2019-04-03 18:24:05.39,80815994, 0.15, -18.17, 355.2, 597.559997559, -35.3627183, 149.1651791, 0.986586809158, -0.00527036096901, -0.157897993922, -0.0410719774663
2019-04-03 18:24:05.49,80915954, 0.15, -18.17, 355.2, 597.570007324, -35.3627138, 149.1651786, 0.986587643623, -0.00523440493271, -0.157891258597, -0.0410829782486
2019-04-03 18:24:05.59,81015914, 0.16, -18.15, 355.2, 597.590026855, -35.3627095, 149.1651782, 0.986619472504, -0.00520133133978, -0.157691016793, -0.0410923361778
2019-04-03 18:24:05.69,81115874, 0.16, -18.13, 355.2, 597.599975586, -35.362705, 149.1651779, 0.986650407314, -0.00514517864212, -0.157496750355, -0.0411003194749
2019-04-03 18:24:05.79,81215834, 0.16, -18.11, 355.2, 597.619995117, -35.3627005, 149.1651775, 0.986676156521, -0.00513538718224, -0.15733191371, -0.0411157384515
2019-04-03 18:24:05.89,81315794, 0.16, -18.11, 355.19, 597.630004883, -35.3626961, 149.165177, 0.986678123474, -0.00517732091248, -0.157313361764, -0.0411343686283
2019-04-03 18:24:05.99,81415754, 0.18, -18.14, 355.19, 597.650024414, -35.3626917, 149.1651766, 0.986638844013, -0.00500676827505, -0.157569915056, -0.041115257889
2019-04-03 18:24:06.09,81515714, 0.2, -18.17, 355.19, 597.659973145, -35.3626873, 149.1651762, 0.986593961716, -0.00485020456836, -0.157859697938, -0.0410991236567
2019-04-03 18:24:06.19,81615674, 0.21, -18.17, 355.19, 597.679992676, -35.3626828, 149.1651757, 0.986596286297, -0.00473932223395, -0.157852560282, -0.0410835258663
2019-04-03 18:24:06.30,81716467, 0.2, -18.15, 355.19, 597.690002441, -35.3626784, 149.1651753, 0.986619651318, -0.0048274458386, -0.157698318362, -0.0411051809788
2019-04-03 18:24:06.39,81816427, 0.18, -18.13, 355.19, 597.710021973, -35.362674, 149.165175, 0.986643612385, -0.00499361334369, -0.157533124089, -0.0411432720721
2019-04-03 18:24:06.49,81916387, 0.18, -18.13, 355.19, 597.719970703, -35.3626694, 149.1651746, 0.986645758152, -0.00502359913662, -0.157515615225, -0.0411554351449
2019-04-03 18:24:06.59,82016347, 0.16, -18.14, 355.19, 597.739990234, -35.3626651, 149.1651742, 0.986622691154, -0.00515217706561, -0.157649308443, -0.0411812961102
2019-04-03 18:24:06.69,82116307, 0.15, -18.16, 355.19, 597.75, -35.3626607, 149.1651737, 0.986599981785, -0.00525423465297, -0.157781973481, -0.04120323807
2019-04-03 18:24:06.79,82216267, 0.15, -18.16, 355.19, 597.770019531, -35.3626561, 149.1651733, 0.986600637436, -0.0052862255834, -0.157771959901, -0.0412227362394
2019-04-03 18:24:06.89,82316227, 0.17, -18.15, 355.18, 597.780029297, -35.3626518, 149.1651728, 0.986610591412, -0.00515820411965, -0.157713472843, -0.041224218905
2019-04-03 18:24:06.99,82416187, 0.19, -18.13, 355.18, 597.799987793, -35.3626473, 149.1651724, 0.98664098978, -0.00498533155769, -0.157527193427, -0.041230276227
2019-04-03 18:24:07.09,82516147, 0.2, -18.12, 355.18, 597.809997559, -35.3626429, 149.1651721, 0.98665356636, -0.00484074652195, -0.157450422645, -0.0412396453321
2019-04-03 18:24:07.19,82616107, 0.21, -18.13, 355.17, 597.83001709, -35.3626384, 149.1651717, 0.986643254757, -0.00481544667855, -0.157508134842, -0.04126810655
2019-04-03 18:24:07.29,82716067, 0.21, -18.14, 355.17, 597.840026855, -35.362634, 149.1651713, 0.986627280712, -0.00481758266687, -0.157600209117, -0.0412989370525
2019-04-03 18:24:07.39,82816027, 0.19, -18.15, 355.16, 597.859985352, -35.3626296, 149.1651709, 0.986608564854, -0.00496483081952, -0.157700195909, -0.0413468815386
2019-04-03 18:24:07.49,82915987, 0.18, -18.15, 355.16, 597.869995117, -35.362625, 149.1651704, 0.986610651016, -0.00505335535854, -0.157675340772, -0.0413808710873
2019-04-03 18:24:07.59,83015947, 0.2, -18.13, 355.16, 597.890014648, -35.3626207, 149.16517, 0.9866284132, -0.00491451704875, -0.157569631934, -0.041377749294
2019-04-03 18:24:07.69,83115907, 0.21, -18.13, 355.16, 597.900024414, -35.3626162, 149.1651697, 0.986633718014, -0.00478692958131, -0.157538771629, -0.0413828901947
2019-04-03 18:24:07.79,83215867, 0.2, -18.16, 355.15, 597.91998291, -35.3626117, 149.1651691, 0.986590623856, -0.00486123980954, -0.157797068357, -0.0414184257388
2019-04-03 18:24:07.89,83315827, 0.19, -18.19, 355.15, 597.929992676, -35.3626073, 149.1651688, 0.986544132233, -0.00501829199493, -0.158069193363, -0.041469398886
2019-04-03 18:24:07.99,83415787, 0.19, -18.21, 355.15, 597.950012207, -35.3626029, 149.1651684, 0.986512601376, -0.00503757642582, -0.158256068826, -0.0415035523474
2019-04-03 18:24:08.09,83515747, 0.21, -18.21, 355.14, 597.960021973, -35.3625985, 149.165168, 0.986511826515, -0.00485907215625, -0.158264398575, -0.0415119603276
2019-04-03 18:24:08.19,83615707, 0.24, -18.2, 355.14, 597.979980469, -35.362594, 149.1651676, 0.986527919769, -0.00460199592635, -0.158172592521, -0.041508693248
2019-04-03 18:24:08.29,83715667, 0.26, -18.2, 355.13, 597.989990234, -35.3625896, 149.1651671, 0.986537158489, -0.00442169420421, -0.158119574189, -0.0415107905865
2019-04-03 18:24:08.40,83816460, 0.26, -18.2, 355.13, 598.010009766, -35.362585, 149.1651667, 0.986528098583, -0.00445502391085, -0.158167183399, -0.0415406227112
2019-04-03 18:24:08.49,83916420, 0.25, -18.2, 355.13, 598.020019531, -35.3625806, 149.1651664, 0.986525714397, -0.00449826475233, -0.158174037933, -0.0415667854249
2019-04-03 18:24:08.59,84016380, 0.25, -18.2, 355.13, 598.039978027, -35.3625762, 149.165166, 0.986530721188, -0.0045473142527, -0.158134534955, -0.041593298316
2019-04-03 18:24:08.69,84116340, 0.23, -18.19, 355.12, 598.049987793, -35.3625716, 149.1651655, 0.986535608768, -0.00466179475188, -0.158091202378, -0.0416294336319
2019-04-03 18:24:08.79,84216300, 0.23, -18.2, 355.12, 598.059997559, -35.3625672, 149.1651651, 0.98652857542, -0.00467571849003, -0.158128529787, -0.041653059423
2019-04-03 18:24:08.89,84316260, 0.23, -18.22, 355.12, 598.08001709, -35.3625628, 149.1651647, 0.986502230167, -0.00475383782759, -0.158282414079, -0.0416828095913
2019-04-03 18:24:08.99,84416220, 0.19, -18.24, 355.12, 598.090026855, -35.3625584, 149.1651642, 0.986472606659, -0.00502995075658, -0.158441483974, -0.0417469404638
2019-04-03 18:24:09.09,84516180, 0.17, -18.24, 355.11, 598.109985352, -35.3625539, 149.1651638, 0.986470997334, -0.00527944928035, -0.158425495028, -0.0418150275946
2019-04-03 18:24:09.19,84616140, 0.16, -18.22, 355.11, 598.119995117, -35.3625495, 149.1651635, 0.986489534378, -0.00535242212936, -0.158295750618, -0.0418595969677
2019-04-03 18:24:09.29,84716100, 0.16, -18.2, 355.1, 598.140014648, -35.362545, 149.1651631, 0.986510872841, -0.00532656628639, -0.158153966069, -0.0418964065611
2019-04-03 18:24:09.39,84816060, 0.18, -18.19, 355.1, 598.150024414, -35.3625405, 149.1651627, 0.986526489258, -0.00513788545504, -0.158058479428, -0.0419115424156
2019-04-03 18:24:09.49,84916020, 0.22, -18.19, 355.09, 598.16998291, -35.3625361, 149.1651623, 0.986523389816, -0.00483121536672, -0.158087834716, -0.041909892112
2019-04-03 18:24:09.59,85015980, 0.25, -18.21, 355.09, 598.179992676, -35.3625315, 149.1651618, 0.986498057842, -0.00454541947693, -0.158256471157, -0.041903167963
2019-04-03 18:24:09.69,85115940, 0.26, -18.24, 355.08, 598.200012207, -35.3625271, 149.1651614, 0.986461758614, -0.00453789811581, -0.15847247839, -0.0419417284429
2019-04-03 18:24:09.79,85215900, 0.24, -18.25, 355.08, 598.210021973, -35.3625227, 149.1651611, 0.98644131422, -0.00472654681653, -0.158577114344, -0.042006034404
2019-04-03 18:24:09.89,85315860, 0.19, -18.24, 355.08, 598.229980469, -35.3625183, 149.1651606, 0.986447751522, -0.0050856419839, -0.158502876759, -0.0420935899019
2019-04-03 18:24:09.99,85415820, 0.17, -18.22, 355.07, 598.239990234, -35.3625137, 149.1651602, 0.986472249031, -0.00530561897904, -0.1583250314, -0.0421609804034
2019-04-03 18:24:10.09,85515780, 0.17, -18.2, 355.07, 598.260009766, -35.3625093, 149.1651598, 0.986502408981, -0.00533398287371, -0.158128559589, -0.0421898663044
2019-04-03 18:24:10.19,85615740, 0.16, -18.18, 355.07, 598.270019531, -35.3625049, 149.1651594, 0.986528337002, -0.00539077958092, -0.157955318689, -0.0422259233892
2019-04-03 18:24:10.29,85715700, 0.16, -18.17, 355.06, 598.280029297, -35.3625004, 149.165159, 0.986535966396, -0.00537445768714, -0.157900109887, -0.042254332453
2019-04-03 18:24:10.39,85815660, 0.17, -18.19, 355.06, 598.299987793, -35.3624959, 149.1651585, 0.98652100563, -0.00528914993629, -0.157991543412, -0.042273323983
2019-04-03 18:24:10.50,85916453, 0.17, -18.23, 355.05, 598.309997559, -35.3624913, 149.1651581, 0.986455023289, -0.00531667470932, -0.158389091492, -0.0423212870955
2019-04-03 18:24:10.59,86016413, 0.16, -18.27, 355.05, 598.33001709, -35.362487, 149.1651578, 0.986394822598, -0.00543762883171, -0.158740818501, -0.0423927381635
2019-04-03 18:24:10.69,86116373, 0.15, -18.28, 355.04, 598.340026855, -35.3624825, 149.1651574, 0.986376583576, -0.00554148666561, -0.15883217752, -0.0424598231912
2019-04-03 18:24:10.79,86216333, 0.14, -18.27, 355.04, 598.359985352, -35.3624779, 149.165157, 0.986391961575, -0.00560014508665, -0.158719673753, -0.0425168387592
2019-04-03 18:24:10.89,86316293, 0.13, -18.25, 355.03, 598.369995117, -35.3624736, 149.1651566, 0.986415266991, -0.00570486858487, -0.158554777503, -0.0425765700638
2019-04-03 18:24:10.99,86416253, 0.11, -18.24, 355.03, 598.390014648, -35.3624691, 149.1651561, 0.986432731152, -0.00590414367616, -0.158418744802, -0.0426511876285
2019-04-03 18:24:11.09,86516213, 0.09, -18.23, 355.02, 598.400024414, -35.3624645, 149.1651557, 0.986443936825, -0.00609371066093, -0.158321380615, -0.0427259095013
2019-04-03 18:24:11.19,86616173, 0.09, -18.21, 355.02, 598.41998291, -35.3624602, 149.1651552, 0.986460328102, -0.00604721158743, -0.158211529255, -0.0427614375949
2019-04-03 18:24:11.29,86716133, 0.11, -18.2, 355.01, 598.429992676, -35.3624557, 149.1651549, 0.986476421356, -0.0058975033462, -0.158111304045, -0.0427830033004
2019-04-03 18:24:11.39,86816093, 0.15, -18.2, 355.01, 598.440002441, -35.3624511, 149.1651545, 0.986482560635, -0.00558020779863, -0.158086821437, -0.0427730493248
2019-04-03 18:24:11.49,86916053, 0.19, -18.2, 355.0, 598.460021973, -35.3624468, 149.1651541, 0.986481189728, -0.00523069361225, -0.158111423254, -0.0427583828568
2019-04-03 18:24:11.59,87016013, 0.23, -18.22, 354.99, 598.469970703, -35.3624423, 149.1651537, 0.986445784569, -0.00489487452433, -0.158344104886, -0.0427547506988
2019-04-03 18:24:11.69,87115973, 0.26, -18.24, 354.99, 598.489990234, -35.3624377, 149.1651532, 0.98642873764, -0.00464398832992, -0.158458024263, -0.0427530035377
2019-04-03 18:24:11.79,87215933, 0.26, -18.23, 354.99, 598.5, -35.3624334, 149.1651527, 0.986440122128, -0.00460250396281, -0.15838432312, -0.0427690707147
2019-04-03 18:24:11.89,87315893, 0.26, -18.21, 354.98, 598.520019531, -35.3624289, 149.1651523, 0.986458599567, -0.00467215618119, -0.158259600401, -0.0427961871028
2019-04-03 18:24:11.99,87415853, 0.23, -18.19, 354.98, 598.530029297, -35.3624244, 149.165152, 0.986484229565, -0.00486957747489, -0.15808455646, -0.0428306907415
2019-04-03 18:24:12.09,87515813, 0.19, -18.18, 354.99, 598.549987793, -35.3624199, 149.1651516, 0.986499190331, -0.00525395572186, -0.157969594002, -0.0428643636405
2019-04-03 18:24:12.19,87615773, 0.15, -18.18, 354.99, 598.559997559, -35.3624155, 149.1651512, 0.986507892609, -0.00553184747696, -0.157902926207, -0.0428748205304
2019-04-03 18:24:12.29,87715733, 0.14, -18.18, 355.0, 598.58001709, -35.362411, 149.1651507, 0.986504495144, -0.0056042028591, -0.157925516367, -0.042860340327
2019-04-03 18:24:12.39,87815693, 0.16, -18.21, 355.0, 598.590026855, -35.3624065, 149.1651503, 0.986465930939, -0.00552125042304, -0.158180639148, -0.0428183116019
2019-04-03 18:24:12.50,87916486, 0.16, -18.25, 355.0, 598.609985352, -35.3624019, 149.1651499, 0.986413657665, -0.00551781617105, -0.158511474729, -0.0427994430065
2019-04-03 18:24:12.60,88016446, 0.15, -18.26, 355.0, 598.630004883, -35.3623976, 149.1651494, 0.986393749714, -0.00555706536397, -0.158633649349, -0.0428001694381
2019-04-03 18:24:12.69,88116406, 0.17, -18.27, 355.0, 598.640014648, -35.3623931, 149.1651489, 0.986381590366, -0.00545293511823, -0.15871539712, -0.0427910126746
2019-04-03 18:24:12.79,88216366, 0.18, -18.28, 355.0, 598.659973145, -35.3623885, 149.1651485, 0.986360371113, -0.0053061041981, -0.15885284543, -0.0427876226604
2019-04-03 18:24:12.89,88316326, 0.19, -18.29, 354.99, 598.66998291, -35.3623842, 149.1651482, 0.98634916544, -0.00527709769085, -0.15891765058, -0.0428100265563
2019-04-03 18:24:12.99,88416286, 0.2, -18.3, 354.99, 598.690002441, -35.3623797, 149.1651478, 0.986332297325, -0.005221712403, -0.159020140767, -0.0428242832422
2019-04-03 18:24:13.09,88516246, 0.21, -18.3, 354.99, 598.700012207, -35.3623751, 149.1651474, 0.986332178116, -0.00513706263155, -0.15902172029, -0.04283156991
2019-04-03 18:24:13.19,88616206, 0.22, -18.29, 354.99, 598.719970703, -35.3623708, 149.1651469, 0.986346960068, -0.00502792187035, -0.158933073282, -0.0428330488503
2019-04-03 18:24:13.29,88716166, 0.23, -18.28, 354.99, 598.729980469, -35.3623663, 149.1651465, 0.986366212368, -0.00489226263016, -0.158821821213, -0.0428190939128
2019-04-03 18:24:13.39,88816126, 0.23, -18.27, 354.99, 598.75, -35.3623617, 149.165146, 0.986379981041, -0.00487445946783, -0.158738836646, -0.0428114943206
2019-04-03 18:24:13.49,88916086, 0.22, -18.23, 354.99, 598.760009766, -35.3623574, 149.1651456, 0.986428022385, -0.00497275358066, -0.15843577683, -0.0428148917854
2019-04-03 18:24:13.59,89016046, 0.19, -18.21, 354.99, 598.780029297, -35.3623529, 149.1651453, 0.986462235451, -0.00524631422013, -0.15820685029, -0.0428416766226
2019-04-03 18:24:13.69,89116006, 0.16, -18.21, 354.99, 598.789978027, -35.3623484, 149.1651448, 0.986455261707, -0.00550459325314, -0.158236026764, -0.042861867696
2019-04-03 18:24:13.79,89215966, 0.14, -18.23, 355.0, 598.809997559, -35.3623439, 149.1651444, 0.986429870129, -0.00566894141957, -0.15838816762, -0.0428629145026
2019-04-03 18:24:13.89,89315926, 0.14, -18.28, 355.0, 598.820007324, -35.3623395, 149.165144, 0.986371636391, -0.00564693333581, -0.158757045865, -0.0428403615952
2019-04-03 18:24:13.99,89415886, 0.16, -18.31, 355.0, 598.840026855, -35.362335, 149.1651436, 0.986325085163, -0.00552855385467, -0.159054175019, -0.0428261049092
2019-04-03 18:24:14.09,89515846, 0.18, -18.33, 354.99, 598.849975586, -35.3623305, 149.1651432, 0.986301898956, -0.00539849698544, -0.1592053473, -0.0428139828146
2019-04-03 18:24:14.19,89615806, 0.21, -18.32, 354.99, 598.869995117, -35.3623261, 149.1651427, 0.986310184002, -0.00513846287504, -0.159171015024, -0.0427835807204
2019-04-03 18:24:14.29,89715766, 0.24, -18.3, 354.99, 598.880004883, -35.3623216, 149.1651422, 0.986337244511, -0.00482532661408, -0.159021630883, -0.0427510105073
2019-04-03 18:24:14.39,89815726, 0.27, -18.27, 354.99, 598.900024414, -35.3623171, 149.1651418, 0.986379563808, -0.0045904899016, -0.158770829439, -0.042733322829
2019-04-03 18:24:14.49,89915686, 0.26, -18.23, 354.99, 598.909973145, -35.3623126, 149.1651415, 0.986440479755, -0.00461948802695, -0.158385679126, -0.0427540875971
2019-04-03 18:24:14.60,90016479, 0.24, -18.19, 354.99, 598.929992676, -35.3623082, 149.1651411, 0.986495137215, -0.00477755861357, -0.158029004931, -0.0427942164242
2019-04-03 18:24:14.69,90116439, 0.23, -18.16, 354.99, 598.940002441, -35.3623037, 149.1651406, 0.98653614521, -0.00483321538195, -0.157767295837, -0.0428084209561
2019-04-03 18:24:14.79,90216399, 0.23, -18.15, 354.99, 598.960021973, -35.3622991, 149.1651402, 0.986541807652, -0.00482742814347, -0.1577334553, -0.0428037531674
