Start,TimeUS,Roll,Pitch,Yaw,Alt,Lat,Lng,Q1,Q2,Q3,Q4
2019-04-03 21:35:26.50,103715997, 0.0, 0.0, 353.0, 584.090026855, -35.363261, 149.1652299, 0.998134791851, 0.0, 0.0, -0.0610485821962
2019-04-03 21:35:26.60,103815957, 0.0, 0.0, 353.0, 584.090026855, -35.363261, 149.1652299, 0.998134791851, 0.0, 0.0, -0.0610485821962
2019-04-03 21:35:26.69,103915917, 0.0, 0.0, 353.0, 584.090026855, -35.363261, 149.1652299, 0.998134791851, 0.0, 0.0, -0.0610485821962
2019-04-03 21:35:26.79,104015877, 0.0, 0.0, 353.0, 584.090026855, -35.363261, 149.1652299, 0.998134791851, 0.0, 0.0, -0.0610485821962
2019-04-03 21:35:26.89,104115837, 0.0, 0.0, 353.0, 584.090026855, -35.363261, 149.1652299, 0.998134791851, 0.0, 0.0, -0.0610485821962
2019-04-03 21:35:26.99,104215797, 0.0, 0.0, 353.0, 584.090026855, -35.363261, 149.1652299, 0.998134791851, 0.0, 0.0, -0.0610485821962
2019-04-03 21:35:27.09,104315757, 0.0, 0.0, 353.0, 584.090026855, -35.363261, 149.1652299, 0.998134791851, 0.0, 0.0, -0.0610485821962
2019-04-03 21:35:27.19,104415717, 0.0, 0.0, 353.0, 584.090026855, -35.363261, 149.1652299, 0.998134791851, 0.0, 0.0, -0.0610485821962
2019-04-03 21:35:27.29,104515677, 0.0, 0.0, 353.0, 584.090026855, -35.363261, 149.1652299, 0.998134791851, 0.0, 0.0, -0.0610485821962
2019-04-03 21:35:27.40,104616470, 0.0, 0.0, 353.0, 584.090026855, -35.363261, 149.1652299, 0.998134791851, 0.0, 0.0, -0.0610485821962
2019-04-03 21:35:27.50,104716430, 0.0, 0.0, 353.0, 584.090026855, -35.363261, 149.1652299, 0.998134791851, 0.0, 0.0, -0.0610485821962
2019-04-03 21:35:27.60,104816390, 0.0, 0.0, 353.0, 584.090026855, -35.363261, 149.1652299, 0.998134791851, 0.0, 0.0, -0.0610485821962
2019-04-03 21:35:27.70,104916350, 0.0, 0.0, 353.0, 584.090026855, -35.363261, 149.1652299, 0.998134791851, 0.0, 0.0, -0.0610485821962
2019-04-03 21:35:27.80,105016310, 0.0, 0.0, 353.0, 584.090026855, -35.363261, 149.1652299, 0.998134791851, 0.0, 0.0, -0.0610485821962
2019-04-03 21:35:27.90,105116270, 0.0, 0.0, 353.0, 584.090026855, -35.363261, 149.1652299, 0.998134791851, 0.0, 0.0, -0.0610485821962
2019-04-03 21:35:28.00,105216230, 0.0, 0.0, 353.0, 584.090026855, -35.363261, 149.1652299, 0.998134791851, 0.0, 0.0, -0.0610485821962
2019-04-03 21:35:28.10,105316190, 0.0, 0.0, 353.0, 584.090026855, -35.363261, 149.1652299, 0.998134791851, 0.0, 0.0, -0.0610485821962
2019-04-03 21:35:28.20,105416150, 0.0, 0.0, 353.0, 584.090026855, -35.363261, 149.1652299, 0.998134791851, 0.0, 0.0, -0.0610485821962
2019-04-03 21:35:28.30,105516110, 0.0, 0.0, 353.0, 584.090026855, -35.363261, 149.1652299, 0.998134791851, 0.0, 0.0, -0.0610485821962
2019-04-03 21:35:28.40,105616070, 0.0, 0.0, 353.0, 584.090026855, -35.363261, 149.1652299, 0.998134791851, 0.0, 0.0, -0.0610485821962
2019-04-03 21:35:28.50,105716030, 0.0, 0.0, 353.0, 584.090026855, -35.363261, 149.1652299, 0.998134791851, 0.0, 0.0, -0.0610485821962
2019-04-03 21:35:28.60,105815990, 0.0, 0.0, 353.0, 584.090026855, -35.363261, 149.1652299, 0.998134791851, 0.0, 0.0, -0.0610485821962
2019-04-03 21:35:28.69,105915950, 0.0, 0.0, 353.0, 584.090026855, -35.363261, 149.1652299, 0.998134791851, 0.0, 0.0, -0.0610485821962
2019-04-03 21:35:28.79,106015910, 0.0, 0.0, 353.0, 584.090026855, -35.363261, 149.1652299, 0.998134791851, 0.0, 0.0, -0.0610485821962
2019-04-03 21:35:28.89,106115870, 0.0, 0.0, 353.0, 584.090026855, -35.363261, 149.1652299, 0.998134791851, 0.0, 0.0, -0.0610485821962
2019-04-03 21:35:28.99,106215830, 0.0, 0.0, 353.0, 584.090026855, -35.363261, 149.1652299, 0.998134791851, 0.0, 0.0, -0.0610485821962
2019-04-03 21:35:29.09,106315790, 0.0, 0.0, 353.0, 584.090026855, -35.363261, 149.1652299, 0.998134791851, 0.0, 0.0, -0.0610485821962
2019-04-03 21:35:29.19,106415750, 0.0, 0.0, 353.0, 584.090026855, -35.363261, 149.1652299, 0.998134791851, 0.0, 0.0, -0.0610485821962
2019-04-03 21:35:29.29,106515710, 0.0, 0.0, 353.0, 584.090026855, -35.363261, 149.1652299, 0.998134791851, 0.0, 0.0, -0.0610485821962
2019-04-03 21:35:29.39,106615670, 0.0, 0.0, 353.0, 584.090026855, -35.363261, 149.1652299, 0.998134791851, 0.0, 0.0, -0.0610485821962
2019-04-03 21:35:29.50,106716463, 0.0, 0.0, 353.0, 584.090026855, -35.363261, 149.1652299, 0.998134791851, 0.0, 0.0, -0.0610485821962
2019-04-03 21:35:29.60,106816423, 0.0, 0.0, 353.0, 584.090026855, -35.363261, 149.1652299, 0.998134791851, 0.0, 0.0, -0.0610485821962
2019-04-03 21:35:29.70,106916383, 0.0, 0.0, 353.0, 584.090026855, -35.363261, 149.1652299, 0.998134791851, 0.0, 0.0, -0.0610485821962
2019-04-03 21:35:29.80,107016343, 0.0, 0.0, 353.0, 584.090026855, -35.363261, 149.1652299, 0.998134791851, 0.0, 0.0, -0.0610485821962
2019-04-03 21:35:29.90,107116303, 0.0, 0.0, 353.0, 584.090026855, -35.363261, 149.1652299, 0.998134791851, 0.0, 0.0, -0.0610485821962
2019-04-03 21:35:30.00,107216263, 0.0, 0.0, 353.0, 584.090026855, -35.363261, 149.1652299, 0.998134791851, 0.0, 0.0, -0.0610485821962
2019-04-03 21:35:30.10,107316223, 0.0, 0.0, 353.0, 584.090026855, -35.363261, 149.1652299, 0.998134791851, 0.0, 0.0, -0.0610485821962
2019-04-03 21:35:30.20,107416183, 0.0, 0.0, 353.0, 584.090026855, -35.363261, 149.1652299, 0.998134791851, 0.0, 0.0, -0.0610485821962
2019-04-03 21:35:30.30,107516143, 0.0, 0.0, 353.0, 584.090026855, -35.363261, 149.1652299, 0.998134791851, 0.0, 0.0, -0.0610485821962
2019-04-03 21:35:30.40,107616103, 0.0, 0.0, 353.0, 584.090026855, -35.363261, 149.1652299, 0.998134791851, 0.0, 0.0, -0.0610485821962
2019-04-03 21:35:30.50,107716063, 0.0, 0.0, 353.0, 584.090026855, -35.363261, 149.1652299, 0.998134791851, 0.0, 0.0, -0.0610485821962
2019-04-03 21:35:30.60,107816023, 0.0, 0.0, 353.0, 584.090026855, -35.363261, 149.1652299, 0.998134791851, 0.0, 0.0, -0.0610485821962
2019-04-03 21:35:30.70,107915983, 0.0, 0.0, 353.0, 584.090026855, -35.363261, 149.1652299, 0.998134791851, 0.0, 0.0, -0.0610485821962
2019-04-03 21:35:30.79,108015943, 0.0, 0.0, 353.0, 584.090026855, -35.363261, 149.1652299, 0.998134791851, 0.0, 0.0, -0.0610485821962
2019-04-03 21:35:30.89,108115903, 0.0, 0.0, 353.0, 584.090026855, -35.363261, 149.1652299, 0.998134791851, 0.0, 0.0, -0.0610485821962
2019-04-03 21:35:30.99,108215863, 0.0, 0.0, 353.0, 584.090026855, -35.363261, 149.1652299, 0.998134791851, 0.0, 0.0, -0.0610485821962
2019-04-03 21:35:31.09,108315823, 0.0, 0.0, 353.0, 584.090026855, -35.363261, 149.1652299, 0.998134791851, 0.0, 0.0, -0.0610485821962
2019-04-03 21:35:31.19,108415783, 0.0, 0.0, 353.0, 584.090026855, -35.363261, 149.1652299, 0.998134791851, 0.0, 0.0, -0.0610485821962
2019-04-03 21:35:31.29,108515743, 0.0, 0.0, 353.0, 584.090026855, -35.363261, 149.1652299, 0.998134791851, 0.0, 0.0, -0.0610485821962
2019-04-03 21:35:31.39,108615703, 0.0, 0.0, 353.0, 584.090026855, -35.363261, 149.1652299, 0.998134791851, 0.0, 0.0, -0.0610485821962
2019-04-03 21:35:31.49,108715663, 0.0, 0.0, 353.0, 584.090026855, -35.363261, 149.1652299, 0.998134791851, 0.0, 0.0, -0.0610485821962
2019-04-03 21:35:31.60,108816456, 0.0, 0.0, 353.0, 584.090026855, -35.363261, 149.1652299, 0.998134791851, 0.0, 0.0, -0.0610485821962
2019-04-03 21:35:31.70,108916416, 0.0, 0.0, 353.0, 584.090026855, -35.363261, 149.1652299, 0.998134791851, 0.0, 0.0, -0.0610485821962
2019-04-03 21:35:31.80,109016376, 0.0, 0.0, 353.0, 584.090026855, -35.363261, 149.1652299, 0.998134791851, 0.0, 0.0, -0.0610485821962
2019-04-03 21:35:31.90,109116336, 0.0, 0.0, 353.0, 584.090026855, -35.363261, 149.1652299, 0.998134791851, 0.0, 0.0, -0.0610485821962
2019-04-03 21:35:32.00,109216296, 0.0, 0.0, 353.0, 584.090026855, -35.363261, 149.1652299, 0.998134791851, 0.0, 0.0, -0.0610485821962
2019-04-03 21:35:32.10,109316256, 0.0, 0.0, 353.0, 584.090026855, -35.363261, 149.1652299, 0.998134791851, 0.0, 0.0, -0.0610485821962
2019-04-03 21:35:32.20,109416216, 0.0, 0.0, 353.0, 584.090026855, -35.363261, 149.1652299, 0.998134791851, 0.0, 0.0, -0.0610485821962
2019-04-03 21:35:32.30,109516176, 0.0, 0.0, 353.0, 584.090026855, -35.363261, 149.1652299, 0.998134791851, 0.0, 0.0, -0.0610485821962
2019-04-03 21:35:32.40,109616136, 0.0, 0.0, 353.0, 584.090026855, -35.363261, 149.1652299, 0.998134791851, 0.0, 0.0, -0.0610485821962
2019-04-03 21:35:32.50,109716096, 0.0, 0.0, 353.0, 584.090026855, -35.363261, 149.1652299, 0.998134791851, 0.0, 0.0, -0.0610485821962
2019-04-03 21:35:32.60,109816056, 0.0, 0.0, 353.0, 584.090026855, -35.363261, 149.1652299, 0.998134791851, 0.0, 0.0, -0.0610485821962
2019-04-03 21:35:32.70,109916016, 0.0, 0.0, 353.0, 584.090026855, -35.363261, 149.1652299, 0.998134791851, 0.0, 0.0, -0.0610485821962
2019-04-03 21:35:32.80,110015976, 0.0, 0.0, 353.0, 584.090026855, -35.363261, 149.1652299, 0.998134791851, 0.0, 0.0, -0.0610485821962
2019-04-03 21:35:32.89,110115936, 0.0, 0.0, 353.0, 584.090026855, -35.363261, 149.1652299, 0.998134791851, 0.0, 0.0, -0.0610485821962
2019-04-03 21:35:32.99,110215896, 0.0, 0.0, 353.0, 584.090026855, -35.363261, 149.1652299, 0.998134791851, 0.0, 0.0, -0.0610485821962
2019-04-03 21:35:33.09,110315856, 0.0, 0.0, 353.0, 584.090026855, -35.363261, 149.1652299, 0.998134791851, 0.0, 0.0, -0.0610485821962
2019-04-03 21:35:33.19,110415816, 0.0, 0.0, 353.0, 584.090026855, -35.363261, 149.1652299, 0.998134791851, 0.0, 0.0, -0.0610485821962
2019-04-03 21:35:33.29,110515776, 0.0, 0.0, 353.0, 584.090026855, -35.363261, 149.1652299, 0.998134791851, 0.0, 0.0, -0.0610485821962
2019-04-03 21:35:33.39,110615736, 0.0, 0.0, 353.0, 584.090026855, -35.363261, 149.1652299, 0.998134791851, 0.0, 0.0, -0.0610485821962
2019-04-03 21:35:33.49,110715696, 0.0, 0.0, 353.0, 584.090026855, -35.363261, 149.1652299, 0.998134791851, 0.0, 0.0, -0.0610485821962
2019-04-03 21:35:33.60,110816489, 0.0, 0.0, 353.0, 584.090026855, -35.363261, 149.1652299, 0.998134791851, 0.0, 0.0, -0.0610485821962
2019-04-03 21:35:33.70,110916449, 0.0, 0.0, 353.0, 584.090026855, -35.363261, 149.1652299, 0.998134791851, 0.0, 0.0, -0.0610485821962
2019-04-03 21:35:33.80,111016409, 0.0, 0.0, 353.0, 584.090026855, -35.363261, 149.1652299, 0.998134791851, 0.0, 0.0, -0.0610486753285
2019-04-03 21:35:33.90,111116369, 0.0, 0.0, 353.0, 584.090026855, -35.363261, 149.1652299, 0.998134791851, 0.0, 0.0, -0.0610486753285
2019-04-03 21:35:34.00,111216329, 0.0, 0.0, 353.0, 584.090026855, -35.363261, 149.1652299, 0.998134791851, 0.0, 0.0, -0.0610486753285
2019-04-03 21:35:34.10,111316289, 0.0, 0.0, 353.0, 584.090026855, -35.363261, 149.1652299, 0.998134791851, 0.0, 0.0, -0.0610486753285
2019-04-03 21:35:34.20,111416249, 0.0, 0.0, 353.0, 584.090026855, -35.363261, 149.1652299, 0.998134791851, 0.0, 0.0, -0.0610486753285
2019-04-03 21:35:34.30,111516209, 0.0, 0.0, 353.0, 584.090026855, -35.363261, 149.1652299, 0.998134791851, 0.0, 0.0, -0.0610486753285
2019-04-03 21:35:34.40,111616169, 0.0, 0.0, 353.0, 584.090026855, -35.363261, 149.1652299, 0.998134791851, 0.0, 0.0, -0.0610486753285
2019-04-03 21:35:34.50,111716129, 0.0, 0.0, 353.0, 584.090026855, -35.363261, 149.1652299, 0.998134791851, 0.0, 0.0, -0.0610486753285
2019-04-03 21:35:34.60,111816089, 0.0, 0.0, 353.0, 584.099975586, -35.363261, 149.1652299, 0.998134791851, 0.0, 0.0, -0.0610486753285
2019-04-03 21:35:34.70,111916049, 0.0, 0.0, 353.0, 584.099975586, -35.363261, 149.1652299, 0.998134791851, 0.0, 0.0, -0.0610486753285
2019-04-03 21:35:34.80,112016009, 0.0, 0.0, 353.0, 584.119995117, -35.363261, 149.1652299, 0.998134791851, 0.0, 0.0, -0.0610486753285
2019-04-03 21:35:34.90,112115969, 0.0, 0.0, 353.0, 584.140014648, -35.363261, 149.1652299, 0.998134791851, 0.0, 0.0, -0.0610486753285
2019-04-03 21:35:34.99,112215929, 0.0, 0.0, 353.0, 584.16998291, -35.363261, 149.1652299, 0.998134791851, 0.0, 0.0, -0.0610486753285
2019-04-03 21:35:35.09,112315889, 0.0, 0.0, 353.0, 584.210021973, -35.363261, 149.1652299, 0.998134791851, 0.0, 0.0, -0.0610486753285
2019-04-03 21:35:35.19,112415849, -0.02, -0.03, 352.99, 584.260009766, -35.363261, 149.1652299, 0.998134255409, -0.000242510417593, -0.000278584804619, -0.0610559694469
2019-04-03 21:35:35.29,112515809, -0.08, -0.11, 352.99, 584.359985352, -35.363261, 149.1652299, 0.998131930828, -0.000836811843328, -0.000987019739114, -0.0610818043351
2019-04-03 21:35:35.39,112615769, -0.19, -0.21, 352.99, 584.510009766, -35.363261, 149.1652299, 0.998127222061, -0.00185249943752, -0.00175923446659, -0.0611199662089
2019-04-03 21:35:35.49,112715729, -0.29, -0.26, 352.98, 584.66998291, -35.363261, 149.1652299, 0.998121440411, -0.0027032229118, -0.00213998858817, -0.0611690580845
2019-04-03 21:35:35.59,112815689, -0.32, -0.26, 352.98, 584.820007324, -35.363261, 149.1652299, 0.998117685318, -0.00295839016326, -0.00213131145574, -0.0612189918756
2019-04-03 21:35:35.70,112916482, -0.26, -0.21, 352.97, 584.969970703, -35.363261, 149.1652299, 0.998117148876, -0.00242517655715, -0.00174273154698, -0.0612641498446
2019-04-03 21:35:35.80,113016442, -0.16, -0.15, 352.97, 585.130004883, -35.363261, 149.1652299, 0.998117148876, -0.00151902763173, -0.00124360236805, -0.0613055415452
2019-04-03 21:35:35.90,113116402, -0.05, -0.08, 352.96, 585.280029297, -35.363261, 149.1652299, 0.998116791248, -0.000563649344258, -0.000705570972059, -0.0613351799548
2019-04-03 21:35:36.00,113216362, 0.02, -0.03, 352.96, 585.450012207, -35.363261, 149.1652298, 0.998115956783, 0.000167986232555, -0.000307614624035, -0.0613547451794
2019-04-03 21:35:36.10,113316322, 0.09, -0.01, 352.96, 585.619995117, -35.363261, 149.1652298, 0.998115062714, 0.000852986471727, -0.000161300122272, -0.0613641366363
2019-04-03 21:35:36.20,113416282, 0.14, -0.02, 352.96, 585.799987793, -35.363261, 149.1652298, 0.998114526272, 0.00128853588831, -0.000275584781775, -0.0613648965955
2019-04-03 21:35:36.30,113516242, 0.16, -0.02, 352.96, 585.979980469, -35.3632609, 149.1652298, 0.99811476469, 0.0014600440627, -0.000271718745353, -0.0613574124873
2019-04-03 21:35:36.40,113616202, 0.14, -0.01, 352.96, 586.16998291, -35.3632609, 149.1652298, 0.998115301132, 0.00121805770323, -0.000180429808097, -0.0613547973335
2019-04-03 21:35:36.50,113716162, 0.09, 0.0, 352.96, 586.359985352, -35.3632609, 149.1652298, 0.998115599155, 0.000803689239547, -0.0001085207914, -0.0613561496139
2019-04-03 21:35:36.60,113816122, 0.04, 0.0, 352.96, 586.549987793, -35.3632609, 149.1652298, 0.998115837574, 0.000390012486605, -4.35528418166e-05, -0.061356946826
2019-04-03 21:35:36.70,113916082, 0.0, 0.0, 352.96, 586.739990234, -35.3632609, 149.1652298, 0.998115897179, 7.50373656047e-05, 8.26271570986e-06, -0.0613565817475
2019-04-03 21:35:36.80,114016042, -0.01, 0.01, 352.96, 586.940002441, -35.3632609, 149.1652298, 0.998115837574, -0.000135331167257, 0.000127825202071, -0.0613572560251
2019-04-03 21:35:36.90,114116002, -0.01, 0.02, 352.96, 587.140014648, -35.3632609, 149.1652298, 0.998115777969, -0.000162113734405, 0.000196787485038, -0.0613588280976
2019-04-03 21:35:37.00,114215962, -0.01, 0.02, 352.96, 587.340026855, -35.3632609, 149.1652298, 0.998115599155, -0.000126839469885, 0.000216126165469, -0.0613613910973
2019-04-03 21:35:37.09,114315922, 0.01, 0.03, 352.96, 587.549987793, -35.3632608, 149.1652297, 0.998116135597, 0.00018988433294, 0.000322240404785, -0.0613519325852
2019-04-03 21:35:37.19,114415882, 0.05, 0.04, 352.96, 587.75, -35.3632608, 149.1652297, 0.998116612434, 0.000485565251438, 0.000375161762349, -0.061342664063
2019-04-03 21:35:37.29,114515842, 0.06, 0.04, 352.96, 587.960021973, -35.3632608, 149.1652297, 0.998116314411, 0.000556934333872, 0.000355561962351, -0.0613460727036
2019-04-03 21:35:37.39,114615802, 0.05, 0.06, 352.96, 588.16998291, -35.3632608, 149.1652297, 0.998115718365, 0.000522256246768, 0.000521883950569, -0.0613554790616
2019-04-03 21:35:37.49,114715762, 0.0, 0.08, 352.96, 588.369995117, -35.3632608, 149.1652297, 0.998114466667, 0.000126355153043, 0.000754170236178, -0.0613756887615
2019-04-03 21:35:37.59,114815722, -0.03, 0.07, 352.95, 588.570007324, -35.3632608, 149.1652297, 0.998112380505, -0.000243374583079, 0.000698857649695, -0.0614094920456
2019-04-03 21:35:37.69,114915682, -0.04, 0.06, 352.95, 588.75, -35.3632608, 149.1652297, 0.998109400272, -0.000386564206565, 0.000556669023354, -0.0614587627351
2019-04-03 21:35:37.80,115016475, -0.06, 0.04, 352.94, 588.91998291, -35.3632608, 149.1652297, 0.998106002808, -0.000533260637894, 0.00045578693971, -0.0615134388208
2019-04-03 21:35:37.90,115116435, -0.07, 0.0, 352.94, 589.08001709, -35.3632608, 149.1652297, 0.998102784157, -0.000629794725683, -1.67480066011e-05, -0.0615663640201
2019-04-03 21:35:38.00,115216395, -0.07, -0.27, 352.93, 589.229980469, -35.3632608, 149.1652297, 0.998096704483, -0.000779769325163, -0.00239885225892, -0.0616167634726
2019-04-03 21:35:38.10,115316355, -0.08, -0.84, 352.93, 589.369995117, -35.3632608, 149.1652297, 0.998069882393, -0.00122456345707, -0.00731066521257, -0.0616570003331
2019-04-03 21:35:38.20,115416315, -0.1, -1.67, 352.92, 589.489990234, -35.3632608, 149.1652297, 0.997988581657, -0.00179801310878, -0.0145166888833, -0.0616831891239
2019-04-03 21:35:38.30,115516275, -0.1, -2.67, 352.92, 589.599975586, -35.3632607, 149.1652297, 0.997822582722, -0.00232596532442, -0.0232017803937, -0.061696048826
2019-04-03 21:35:38.40,115616235, -0.07, -3.73, 352.92, 589.700012207, -35.3632605, 149.1652296, 0.997562527657, -0.00269860681146, -0.0325053110719, -0.0616862922907
2019-04-03 21:35:38.50,115716195, -0.04, -4.72, 352.92, 589.780029297, -35.3632604, 149.1652296, 0.997246801853, -0.00293554109521, -0.0410892739892, -0.061658911407
2019-04-03 21:35:38.60,115816155, -0.03, -5.51, 352.92, 589.859985352, -35.3632603, 149.1652296, 0.996937453747, -0.00324403983541, -0.0480240285397, -0.0616354197264
2019-04-03 21:35:38.70,115916115, -0.02, -6.1, 352.92, 589.91998291, -35.3632601, 149.1652294, 0.996678352356, -0.0034776199609, -0.0531388558447, -0.0616155043244
2019-04-03 21:35:38.80,116016075, -0.01, -6.55, 352.92, 589.979980469, -35.3632598, 149.1652294, 0.99646282196, -0.00363020109944, -0.0570486485958, -0.0615971162915
2019-04-03 21:35:38.90,116116035, 0.0, -6.91, 352.92, 590.030029297, -35.3632593, 149.1652293, 0.996278882027, -0.0037139672786, -0.0601762793958, -0.0615909434855
2019-04-03 21:35:39.00,116215995, 0.0, -7.26, 352.92, 590.08001709, -35.3632589, 149.1652293, 0.996089935303, -0.00392581429332, -0.0632049441338, -0.0616007074714
2019-04-03 21:35:39.09,116315955, 0.0, -7.6, 352.92, 590.119995117, -35.3632584, 149.1652292, 0.99589651823, -0.00415118411183, -0.0661569312215, -0.0616128891706
2019-04-03 21:35:39.19,116415915, -0.01, -7.92, 352.91, 590.150024414, -35.3632578, 149.1652291, 0.995705544949, -0.00435832841322, -0.068943336606, -0.0616303682327
2019-04-03 21:35:39.29,116515875, -0.01, -8.18, 352.91, 590.190002441, -35.3632571, 149.1652289, 0.995540380478, -0.00456963432953, -0.0712517946959, -0.0616581439972
2019-04-03 21:35:39.39,116615835, -0.02, -8.42, 352.9, 590.219970703, -35.3632562, 149.1652289, 0.995391428471, -0.00477650621906, -0.073267005384, -0.0616852082312
2019-04-03 21:35:39.49,116715795, 0.0, -8.59, 352.9, 590.239990234, -35.3632555, 149.1652288, 0.995279848576, -0.00470770103857, -0.0747596621513, -0.061699744314
2019-04-03 21:35:39.59,116815755, 0.0, -8.69, 352.9, 590.270019531, -35.3632544, 149.1652286, 0.995208084583, -0.00460862508044, -0.0757028087974, -0.0617148242891
2019-04-03 21:35:39.69,116915715, 0.0, -8.79, 352.89, 590.289978027, -35.3632535, 149.1652284, 0.995139300823, -0.00467171752825, -0.0765718892217, -0.0617476515472
2019-04-03 21:35:39.79,117015675, 0.01, -8.93, 352.89, 590.320007324, -35.3632525, 149.1652283, 0.995047450066, -0.00473543535918, -0.0777369514108, -0.0617673173547
2019-04-03 21:35:39.90,117116468, 0.12, -9.16, 353.0, 590.340026855, -35.3632513, 149.1652281, 0.994954407215, -0.00380059354939, -0.0798020213842, -0.0606870613992
2019-04-03 21:35:40.00,117216428, 0.15, -9.5, 353.39, 590.359985352, -35.3632501, 149.1652279, 0.99490737915, -0.00340280495584, -0.0828346684575, -0.0573250502348
2019-04-03 21:35:40.10,117316388, 0.07, -9.92, 353.98, 590.380004883, -35.3632488, 149.1652278, 0.994880855083, -0.00389781780541, -0.0864112526178, -0.0522498264909
2019-04-03 21:35:40.20,117416348, -0.11, -10.36, 354.65, 590.409973145, -35.3632475, 149.1652275, 0.994825661182, -0.00523860566318, -0.0901567414403, -0.0465427674353
2019-04-03 21:35:40.30,117516308, -0.38, -10.78, 355.29, 590.429992676, -35.3632461, 149.1652274, 0.994719147682, -0.00719721615314, -0.0937395989895, -0.0411700718105
2019-04-03 21:35:40.40,117616268, -0.65, -11.16, 355.82, 590.450012207, -35.3632446, 149.1652272, 0.994556963444, -0.00920262746513, -0.0970337688923, -0.0368259586394
2019-04-03 21:35:40.50,117716228, -0.84, -11.52, 356.18, 590.469970703, -35.3632431, 149.1652269, 0.994338691235, -0.0107048889622, -0.100135967135, -0.0338933691382
2019-04-03 21:35:40.60,117816188, -0.95, -11.87, 356.35, 590.5, -35.3632414, 149.1652267, 0.994071662426, -0.0115946698934, -0.103100858629, -0.0325166806579
2019-04-03 21:35:40.70,117916148, -0.94, -12.21, 356.34, 590.520019531, -35.3632397, 149.1652264, 0.993757963181, -0.0116204656661, -0.106059201062, -0.0325823426247
2019-04-03 21:35:40.80,118016108, -0.86, -12.57, 356.19, 590.549987793, -35.3632379, 149.1652262, 0.993375718594, -0.0111346170306, -0.109241589904, -0.0338667668402
2019-04-03 21:35:40.90,118116068, -0.73, -12.96, 355.92, 590.58001709, -35.363236, 149.1652259, 0.992936730385, -0.0103459237143, -0.112566515803, -0.0360334068537
2019-04-03 21:35:41.00,118216028, -0.55, -13.35, 355.6, 590.609985352, -35.363234, 149.1652255, 0.992446959019, -0.00926783680916, -0.116047345102, -0.0386798381805
2019-04-03 21:35:41.10,118315988, -0.37, -13.73, 355.25, 590.640014648, -35.3632319, 149.1652253, 0.991953372955, -0.00820487178862, -0.119342111051, -0.0414561256766
2019-04-03 21:35:41.19,118415948, -0.23, -14.09, 354.94, 590.66998291, -35.3632299, 149.1652249, 0.991468906403, -0.00742845050991, -0.122446976602, -0.044055685401
2019-04-03 21:35:41.29,118515908, -0.12, -14.4, 354.67, 590.700012207, -35.3632276, 149.1652245, 0.99103051424, -0.00694782612845, -0.125191628933, -0.0462315231562
2019-04-03 21:35:41.39,118615868, -0.07, -14.64, 354.47, 590.729980469, -35.3632252, 149.1652243, 0.990684092045, -0.00677831890061, -0.12731423974, -0.0478556491435
2019-04-03 21:35:41.49,118715828, -0.05, -14.82, 354.35, 590.770019531, -35.363223, 149.1652239, 0.990443825722, -0.0067862002179, -0.128796339035, -0.0488517992198
2019-04-03 21:35:41.59,118815788, -0.05, -14.93, 354.31, 590.799987793, -35.3632205, 149.1652236, 0.990297079086, -0.00688508711755, -0.129761174321, -0.0492582321167
2019-04-03 21:35:41.69,118915748, -0.08, -14.98, 354.32, 590.840026855, -35.3632179, 149.1652231, 0.990236878395, -0.00717334309593, -0.130242496729, -0.0491559617221
2019-04-03 21:35:41.79,119015708, -0.13, -15.02, 354.39, 590.869995117, -35.3632153, 149.1652229, 0.990215778351, -0.00759912375361, -0.130562648177, -0.0486660711467
2019-04-03 21:35:41.89,119115668, -0.2, -15.07, 354.48, 590.909973145, -35.3632127, 149.1652225, 0.990200102329, -0.0080847023055, -0.130921199918, -0.0479384064674
2019-04-03 21:35:42.00,119216461, -0.26, -15.13, 354.58, 590.950012207, -35.3632099, 149.1652221, 0.9901663661, -0.00847639329731, -0.13145069778, -0.0471110455692
2019-04-03 21:35:42.10,119316421, -0.31, -15.21, 354.68, 590.989990234, -35.363207, 149.1652217, 0.990107655525, -0.00883261300623, -0.132144093513, -0.0463327020407
2019-04-03 21:35:42.20,119416381, -0.36, -15.3, 354.76, 591.030029297, -35.3632042, 149.1652212, 0.990038335323, -0.00920707453042, -0.132852077484, -0.0457135513425
2019-04-03 21:35:42.30,119516341, -0.41, -15.37, 354.81, 591.070007324, -35.3632013, 149.1652208, 0.989963412285, -0.00962499156594, -0.13351072371, -0.045328348875
2019-04-03 21:35:42.40,119616301, -0.44, -15.46, 354.83, 591.109985352, -35.3631983, 149.1652205, 0.989871919155, -0.00992918945849, -0.134212613106, -0.045188345015
2019-04-03 21:35:42.50,119716261, -0.43, -15.54, 354.82, 591.150024414, -35.3631952, 149.1652201, 0.989768862724, -0.00988740287721, -0.134948730469, -0.0452625565231
2019-04-03 21:35:42.60,119816221, -0.4, -15.63, 354.78, 591.190002441, -35.3631921, 149.1652197, 0.989651620388, -0.0096517605707, -0.135734468699, -0.045527100563
2019-04-03 21:35:42.70,119916181, -0.35, -15.7, 354.73, 591.229980469, -35.363189, 149.1652192, 0.989554286003, -0.00935024861246, -0.136325851083, -0.0459369160235
2019-04-03 21:35:42.80,120016141, -0.31, -15.75, 354.66, 591.270019531, -35.3631857, 149.1652188, 0.989468097687, -0.00907222833484, -0.136795803905, -0.0464495532215
2019-04-03 21:35:42.90,120116101, -0.26, -15.8, 354.59, 591.309997559, -35.3631826, 149.1652183, 0.989389240742, -0.00879041943699, -0.137198835611, -0.0469913706183
2019-04-03 21:35:43.00,120216061, -0.22, -15.84, 354.53, 591.349975586, -35.3631793, 149.1652178, 0.989309310913, -0.00853265542537, -0.137610450387, -0.0475143007934
2019-04-03 21:35:43.10,120316021, -0.2, -15.89, 354.47, 591.390014648, -35.3631759, 149.1652174, 0.989232778549, -0.00840651616454, -0.138006016612, -0.0479806140065
2019-04-03 21:35:43.20,120415981, -0.19, -15.95, 354.42, 591.440002441, -35.3631727, 149.1652169, 0.989137530327, -0.0084667429328, -0.138545557857, -0.0483786687255
2019-04-03 21:35:43.29,120515941, -0.21, -16.01, 354.39, 591.479980469, -35.3631692, 149.1652164, 0.98904645443, -0.00865237321705, -0.13907431066, -0.0486900135875
2019-04-03 21:35:43.39,120615901, -0.21, -16.08, 354.37, 591.520019531, -35.3631659, 149.1652159, 0.988958835602, -0.00870085973293, -0.139628633857, -0.0488729700446
2019-04-03 21:35:43.49,120715861, -0.2, -16.13, 354.36, 591.559997559, -35.3631624, 149.1652154, 0.988893508911, -0.00867943745106, -0.140063747764, -0.0489533618093
2019-04-03 21:35:43.59,120815821, -0.19, -16.16, 354.35, 591.599975586, -35.3631589, 149.165215, 0.988856673241, -0.00859704427421, -0.140328556299, -0.0489541478455
2019-04-03 21:35:43.69,120915781, -0.19, -16.19, 354.36, 591.640014648, -35.3631553, 149.1652145, 0.988822698593, -0.00859080534428, -0.140579536557, -0.048921380192
2019-04-03 21:35:43.79,121015741, -0.2, -16.23, 354.36, 591.679992676, -35.3631518, 149.165214, 0.988775670528, -0.00869552697986, -0.140919327736, -0.048875361681
2019-04-03 21:35:43.89,121115701, -0.21, -16.28, 354.37, 591.729980469, -35.3631482, 149.1652135, 0.988713741302, -0.00878587551415, -0.141362205148, -0.0488325767219
2019-04-03 21:35:43.99,121215661, -0.21, -16.33, 354.37, 591.770019531, -35.3631446, 149.1652131, 0.988653957844, -0.00878776889294, -0.141787603498, -0.0488098226488
2019-04-03 21:35:44.10,121316454, -0.22, -16.36, 354.37, 591.809997559, -35.363141, 149.1652126, 0.988618731499, -0.00888423249125, -0.142018824816, -0.0488342940807
2019-04-03 21:35:44.20,121416414, -0.23, -16.38, 354.36, 591.849975586, -35.3631373, 149.1652121, 0.988589823246, -0.00905579514802, -0.14218352735, -0.0489080101252
2019-04-03 21:35:44.30,121516374, -0.23, -16.4, 354.35, 591.890014648, -35.3631336, 149.1652116, 0.988559782505, -0.00903973169625, -0.142365932465, -0.0489876680076
2019-04-03 21:35:44.40,121616334, -0.2, -16.41, 354.34, 591.940002441, -35.3631298, 149.1652111, 0.988541185856, -0.00881628505886, -0.142475455999, -0.0490855462849
2019-04-03 21:35:44.50,121716294, -0.17, -16.43, 354.32, 591.979980469, -35.3631261, 149.1652106, 0.988513350487, -0.00854207854718, -0.142640933394, -0.0492139346898
2019-04-03 21:35:44.60,121816254, -0.16, -16.47, 354.3, 592.020019531, -35.3631224, 149.16521, 0.988444268703, -0.00851709488779, -0.143058881164, -0.0493917800486
2019-04-03 21:35:44.70,121916214, -0.16, -16.51, 354.27, 592.059997559, -35.3631186, 149.1652095, 0.988393485546, -0.00858284812421, -0.143332436681, -0.0496033839881
2019-04-03 21:35:44.80,122016174, -0.15, -16.55, 354.25, 592.099975586, -35.3631148, 149.165209, 0.988323926926, -0.00855330564082, -0.143748015165, -0.0497913658619
2019-04-03 21:35:44.90,122116134, -0.16, -16.61, 354.23, 592.150024414, -35.3631109, 149.1652085, 0.988246619701, -0.00867891963571, -0.144203081727, -0.0499875470996
2019-04-03 21:35:45.00,122216094, -0.17, -16.66, 354.21, 592.190002441, -35.3631072, 149.1652078, 0.988163888454, -0.00885179266334, -0.144693478942, -0.050175268203
2019-04-03 21:35:45.10,122316054, -0.18, -16.7, 354.19, 592.229980469, -35.3631033, 149.1652073, 0.988112449646, -0.00891760829836, -0.144987270236, -0.0503290742636
2019-04-03 21:35:45.20,122416014, -0.15, -16.72, 354.17, 592.270019531, -35.3630995, 149.1652068, 0.98808079958, -0.00871349312365, -0.145180091262, -0.0504294522107
2019-04-03 21:35:45.30,122515974, -0.12, -16.75, 354.16, 592.320007324, -35.3630956, 149.1652063, 0.988041460514, -0.00846905168146, -0.145433694124, -0.0505108721554
2019-04-03 21:35:45.39,122615934, -0.11, -16.78, 354.15, 592.359985352, -35.3630917, 149.1652058, 0.987994194031, -0.00842767115682, -0.145718917251, -0.0506213083863
2019-04-03 21:35:45.49,122715894, -0.14, -16.8, 354.13, 592.400024414, -35.3630877, 149.1652052, 0.987958908081, -0.00868581421673, -0.145891591907, -0.0507683604956
2019-04-03 21:35:45.59,122815854, -0.17, -16.81, 354.12, 592.440002441, -35.3630838, 149.1652047, 0.987939238548, -0.00898698251694, -0.145950913429, -0.0509281009436
2019-04-03 21:35:45.69,122915814, -0.18, -16.83, 354.1, 592.489990234, -35.3630798, 149.1652042, 0.987905263901, -0.00911984313279, -0.146122977138, -0.0510688014328
2019-04-03 21:35:45.79,123015774, -0.19, -16.86, 354.09, 592.530029297, -35.3630759, 149.1652035, 0.987866461277, -0.00922231283039, -0.146328523755, -0.0512134879827
2019-04-03 21:35:45.89,123115734, -0.18, -16.88, 354.07, 592.570007324, -35.3630719, 149.165203, 0.987833023071, -0.00916265044361, -0.146513655782, -0.0513391569257
2019-04-03 21:35:45.99,123215694, -0.15, -16.89, 354.06, 592.609985352, -35.363068, 149.1652025, 0.987805664539, -0.00896986946464, -0.146672174335, -0.0514472201467
2019-04-03 21:35:46.10,123316487, -0.12, -16.91, 354.04, 592.659973145, -35.3630639, 149.1652019, 0.987785995007, -0.00870365370065, -0.146783351898, -0.0515538603067
2019-04-03 21:35:46.20,123416447, -0.09, -16.91, 354.02, 592.700012207, -35.3630598, 149.1652014, 0.987776517868, -0.00844829156995, -0.146823257208, -0.0516630262136
2019-04-03 21:35:46.30,123516407, -0.07, -16.92, 354.0, 592.739990234, -35.3630559, 149.1652007, 0.987755954266, -0.00834915880114, -0.146922677755, -0.0517898648977
2019-04-03 21:35:46.40,123616367, -0.09, -16.95, 353.99, 592.789978027, -35.3630518, 149.1652002, 0.987705886364, -0.00851630698889, -0.147195696831, -0.0519425570965
2019-04-03 21:35:46.50,123716327, -0.1, -16.99, 353.97, 592.83001709, -35.3630477, 149.1651996, 0.987649977207, -0.00869750790298, -0.147507667542, -0.052090164274
2019-04-03 21:35:46.60,123816287, -0.12, -17.02, 353.96, 592.869995117, -35.3630437, 149.1651991, 0.987597763538, -0.00885983649641, -0.147797107697, -0.0522316917777
2019-04-03 21:35:46.70,123916247, -0.13, -17.05, 353.94, 592.91998291, -35.3630397, 149.1651986, 0.98755967617, -0.00898073427379, -0.147995576262, -0.0523695126176
2019-04-03 21:35:46.80,124016207, -0.12, -17.07, 353.93, 592.960021973, -35.3630355, 149.165198, 0.987524688244, -0.0089108813554, -0.148198276758, -0.0524672158062
2019-04-03 21:35:46.90,124116167, -0.11, -17.08, 353.92, 593.0, -35.3630315, 149.1651973, 0.987502515316, -0.00884690601379, -0.148316368461, -0.0525620877743
2019-04-03 21:35:47.00,124216127, -0.09, -17.1, 353.91, 593.039978027, -35.3630274, 149.1651968, 0.987480998039, -0.00872214604169, -0.148435473442, -0.0526508130133
2019-04-03 21:35:47.10,124316087, -0.08, -17.12, 353.89, 593.090026855, -35.3630233, 149.1651963, 0.987444102764, -0.00863256305456, -0.148653209209, -0.0527440421283
2019-04-03 21:35:47.20,124416047, -0.07, -17.16, 353.88, 593.130004883, -35.3630191, 149.1651957, 0.987385630608, -0.00861714407802, -0.149005815387, -0.0528454072773
2019-04-03 21:35:47.30,124516007, -0.08, -17.19, 353.87, 593.16998291, -35.3630151, 149.1651952, 0.987347722054, -0.00870062224567, -0.149208247662, -0.052968159318
2019-04-03 21:35:47.40,124615967, -0.1, -17.2, 353.85, 593.210021973, -35.3630109, 149.1651946, 0.987324178219, -0.0089104687795, -0.149298891425, -0.0531165450811
2019-04-03 21:35:47.49,124715927, -0.12, -17.23, 353.84, 593.260009766, -35.3630068, 149.1651939, 0.987275719643, -0.00913573801517, -0.149549841881, -0.0532731041312
2019-04-03 21:35:47.59,124815887, -0.14, -17.26, 353.82, 593.299987793, -35.3630026, 149.1651934, 0.98722589016, -0.0092976372689, -0.14981558919, -0.0534219928086
2019-04-03 21:35:47.69,124915847, -0.14, -17.29, 353.81, 593.340026855, -35.3629984, 149.1651929, 0.987182915211, -0.00932311452925, -0.150047928095, -0.0535594038665
2019-04-03 21:35:47.79,125015807, -0.14, -17.29, 353.79, 593.380004883, -35.3629942, 149.1651923, 0.987165212631, -0.00939179770648, -0.150105029345, -0.053713336587
2019-04-03 21:35:47.89,125115767, -0.13, -17.28, 353.77, 593.429992676, -35.3629902, 149.1651916, 0.987179160118, -0.00929033197463, -0.149972304702, -0.05384580791
2019-04-03 21:35:47.99,125215727, -0.12, -17.28, 353.75, 593.469970703, -35.362986, 149.1651911, 0.987171947956, -0.00924239307642, -0.149972036481, -0.0539858825505
2019-04-03 21:35:48.09,125315687, -0.13, -17.28, 353.74, 593.510009766, -35.3629818, 149.1651906, 0.987155079842, -0.0093294410035, -0.150024726987, -0.0541323386133
2019-04-03 21:35:48.20,125416480, -0.14, -17.32, 353.72, 593.549987793, -35.3629776, 149.16519, 0.987100183964, -0.00945669878274, -0.150326013565, -0.0542765334249
2019-04-03 21:35:48.30,125516440, -0.14, -17.36, 353.71, 593.599975586, -35.3629734, 149.1651894, 0.987040579319, -0.00955593585968, -0.150661632419, -0.0544127747416
2019-04-03 21:35:48.40,125616400, -0.12, -17.4, 353.69, 593.640014648, -35.3629691, 149.1651887, 0.986982584, -0.00939556024969, -0.151017919183, -0.0545046627522
2019-04-03 21:35:48.50,125716360, -0.08, -17.43, 353.68, 593.679992676, -35.3629649, 149.1651882, 0.986943542957, -0.00908161327243, -0.15126721561, -0.0545724332333
2019-04-03 21:35:48.60,125816320, -0.06, -17.45, 353.67, 593.719970703, -35.3629606, 149.1651877, 0.986903488636, -0.00897927954793, -0.151502460241, -0.0546622537076
2019-04-03 21:35:48.70,125916280, -0.06, -17.48, 353.65, 593.770019531, -35.3629564, 149.1651871, 0.986861944199, -0.00895561184734, -0.151735723019, -0.0547685362399
2019-04-03 21:35:48.80,126016240, -0.05, -17.51, 353.64, 593.809997559, -35.3629522, 149.1651865, 0.986823856831, -0.00889448821545, -0.151952326298, -0.0548639558256
2019-04-03 21:35:48.90,126116200, -0.04, -17.51, 353.63, 593.849975586, -35.3629479, 149.1651858, 0.986809074879, -0.00884448550642, -0.152019292116, -0.0549528226256
2019-04-03 21:35:49.00,126216160, -0.05, -17.51, 353.62, 593.890014648, -35.3629437, 149.1651853, 0.986805558205, -0.00893773231655, -0.151998654008, -0.0550575703382
2019-04-03 21:35:49.10,126316120, -0.07, -17.5, 353.61, 593.940002441, -35.3629394, 149.1651847, 0.986814200878, -0.00914390105754, -0.151887252927, -0.0551773831248
2019-04-03 21:35:49.20,126416080, -0.09, -17.47, 353.6, 593.979980469, -35.3629352, 149.1651841, 0.986842930317, -0.00931944791228, -0.151648059487, -0.055291172117
2019-04-03 21:35:49.30,126516040, -0.09, -17.47, 353.59, 594.020019531, -35.3629309, 149.1651834, 0.986847043037, -0.00929599162191, -0.151596873999, -0.0553622283041
2019-04-03 21:35:49.40,126616000, -0.08, -17.49, 353.58, 594.059997559, -35.3629266, 149.1651829, 0.98681730032, -0.00926115270704, -0.151770710945, -0.0554207749665
2019-04-03 21:35:49.50,126715960, -0.07, -17.52, 353.57, 594.109985352, -35.3629224, 149.1651823, 0.986763417721, -0.00917230173945, -0.152105003595, -0.0554787665606
2019-04-03 21:35:49.59,126815920, -0.06, -17.57, 353.56, 594.150024414, -35.3629181, 149.1651817, 0.986696004868, -0.00911371968687, -0.152518555522, -0.055551841855
2019-04-03 21:35:49.69,126915880, -0.06, -17.61, 353.55, 594.190002441, -35.3629138, 149.1651812, 0.986636936665, -0.00914489291608, -0.152865499258, -0.0556428097188
2019-04-03 21:35:49.79,127015840, -0.06, -17.63, 353.54, 594.229980469, -35.3629096, 149.1651805, 0.986613929272, -0.00917794462293, -0.152975916862, -0.055741339922
2019-04-03 21:35:49.89,127115800, -0.05, -17.61, 353.53, 594.280029297, -35.3629053, 149.16518, 0.986629366875, -0.0090846568346, -0.152848437428, -0.0558328814805
2019-04-03 21:35:49.99,127215760, -0.02, -17.59, 353.51, 594.320007324, -35.362901, 149.1651794, 0.98665356636, -0.00883630849421, -0.152682214975, -0.0559001527727
2019-04-03 21:35:50.09,127315720, 0.0, -17.57, 353.5, 594.359985352, -35.3628968, 149.1651788, 0.986672759056, -0.0085698030889, -0.152552321553, -0.0559579953551
2019-04-03 21:35:50.19,127415680, 0.02, -17.59, 353.49, 594.400024414, -35.3628925, 149.1651781, 0.986652076244, -0.00847513694316, -0.152666255832, -0.056025069207
2019-04-03 21:35:50.30,127516473, 0.02, -17.6, 353.48, 594.440002441, -35.3628881, 149.1651776, 0.986625909805, -0.00846491102129, -0.152813151479, -0.0560884140432
2019-04-03 21:35:50.40,127616433, 0.01, -17.61, 353.48, 594.489990234, -35.3628838, 149.165177, 0.986606836319, -0.00860319007188, -0.152904704213, -0.0561527721584
2019-04-03 21:35:50.50,127716393, 0.0, -17.63, 353.47, 594.530029297, -35.3628795, 149.1651764, 0.986586749554, -0.00873863417655, -0.153006598353, -0.0562069602311
2019-04-03 21:35:50.60,127816353, 0.0, -17.64, 353.47, 594.570007324, -35.3628752, 149.1651757, 0.98656886816, -0.00877398252487, -0.15310639143, -0.0562432743609
2019-04-03 21:35:50.70,127916313, 0.02, -17.63, 353.47, 594.609985352, -35.3628709, 149.1651751, 0.986575007439, -0.00848418008536, -0.153086334467, -0.0562349185348
2019-04-03 21:35:50.80,128016273, 0.04, -17.63, 353.46, 594.659973145, -35.3628664, 149.1651745, 0.986574649811, -0.00837102811784, -0.153090298176, -0.0562471970916
2019-04-03 21:35:50.90,128116233, 0.04, -17.63, 353.46, 594.700012207, -35.3628621, 149.1651738, 0.986570835114, -0.00839778967202, -0.153097748756, -0.0562902577221
2019-04-03 21:35:51.00,128216193, 0.04, -17.64, 353.45, 594.739990234, -35.3628579, 149.1651733, 0.986561655998, -0.00838534161448, -0.153140097857, -0.0563373751938
2019-04-03 21:35:51.10,128316153, 0.05, -17.65, 353.45, 594.780029297, -35.3628535, 149.1651727, 0.986549198627, -0.00825708918273, -0.153215780854, -0.0563688091934
2019-04-03 21:35:51.20,128416113, 0.09, -17.67, 353.44, 594.83001709, -35.3628492, 149.1651721, 0.986522316933, -0.00796667393297, -0.153400942683, -0.0563773848116
2019-04-03 21:35:51.30,128516073, 0.11, -17.68, 353.43, 594.869995117, -35.3628449, 149.1651714, 0.9864975214, -0.00777744175866, -0.153561413288, -0.0564008280635
2019-04-03 21:35:51.40,128616033, 0.12, -17.7, 353.43, 594.909973145, -35.3628405, 149.1651709, 0.986477613449, -0.00778106320649, -0.153668642044, -0.0564561225474
2019-04-03 21:35:51.50,128715993, 0.11, -17.7, 353.42, 594.950012207, -35.3628361, 149.1651703, 0.986475408077, -0.00786775443703, -0.153655052185, -0.0565207339823
2019-04-03 21:35:51.59,128815953, 0.1, -17.71, 353.41, 594.989990234, -35.3628317, 149.1651697, 0.986450254917, -0.00790918618441, -0.153791934252, -0.0565804056823
2019-04-03 21:35:51.69,128915913, 0.11, -17.74, 353.41, 595.039978027, -35.3628275, 149.165169, 0.986412227154, -0.00790523272008, -0.154016286135, -0.0566339716315
2019-04-03 21:35:51.79,129015873, 0.08, -17.75, 353.4, 595.08001709, -35.3628231, 149.1651685, 0.98638600111, -0.00812918599695, -0.15413749218, -0.0567296482623
2019-04-03 21:35:51.89,129115833, 0.06, -17.76, 353.39, 595.119995117, -35.3628188, 149.1651679, 0.986367881298, -0.00835684500635, -0.154201731086, -0.056836925447
2019-04-03 21:35:51.99,129215793, 0.05, -17.77, 353.38, 595.159973145, -35.3628144, 149.1651673, 0.986346781254, -0.00842456985265, -0.154298841953, -0.0569294802845
2019-04-03 21:35:52.09,129315753, 0.08, -17.78, 353.37, 595.200012207, -35.3628101, 149.1651666, 0.986334145069, -0.00818133912981, -0.154375582933, -0.0569753758609
2019-04-03 21:35:52.19,129415713, 0.12, -17.79, 353.36, 595.25, -35.3628056, 149.1651661, 0.98631966114, -0.00790430326015, -0.154468491673, -0.0570131391287
2019-04-03 21:35:52.29,129515673, 0.14, -17.79, 353.35, 595.289978027, -35.3628013, 149.1651655, 0.986316263676, -0.00771735049784, -0.154480174184, -0.0570663921535
2019-04-03 21:35:52.40,129616466, 0.16, -17.79, 353.34, 595.33001709, -35.3627969, 149.1651648, 0.986314415932, -0.00756507972255, -0.154477715492, -0.0571257211268
2019-04-03 21:35:52.50,129716426, 0.17, -17.79, 353.33, 595.369995117, -35.3627926, 149.1651642, 0.986307919025, -0.00751875014976, -0.154494360089, -0.057198215276
2019-04-03 21:35:52.60,129816386, 0.17, -17.79, 353.32, 595.409973145, -35.3627882, 149.1651637, 0.986298203468, -0.00748679786921, -0.154531747103, -0.0572690553963
2019-04-03 21:35:52.70,129916346, 0.19, -17.8, 353.31, 595.460021973, -35.3627837, 149.1651631, 0.986288428307, -0.0073175500147, -0.154587581754, -0.0573092214763
2019-04-03 21:35:52.80,130016306, 0.2, -17.8, 353.31, 595.5, -35.3627794, 149.1651624, 0.98628371954, -0.00726530095562, -0.154602363706, -0.0573566854
2019-04-03 21:35:52.90,130116266, 0.2, -17.79, 353.3, 595.539978027, -35.3627751, 149.1651618, 0.986292541027, -0.00730225816369, -0.154521092772, -0.0574194155633
2019-04-03 21:35:53.00,130216226, 0.18, -17.78, 353.29, 595.58001709, -35.3627707, 149.1651613, 0.986297249794, -0.0074671022594, -0.154450699687, -0.0575061701238
2019-04-03 21:35:53.10,130316186, 0.15, -17.77, 353.29, 595.619995117, -35.3627662, 149.1651607, 0.986316144466, -0.00772765697911, -0.154278352857, -0.0576108209789
2019-04-03 21:35:53.20,130416146, 0.12, -17.74, 353.28, 595.66998291, -35.3627618, 149.16516, 0.986345767975, -0.00795880705118, -0.154037982225, -0.0577153898776
2019-04-03 21:35:53.30,130516106, 0.11, -17.72, 353.27, 595.710021973, -35.3627575, 149.1651594, 0.986373305321, -0.00801441911608, -0.153824463487, -0.057805147022
2019-04-03 21:35:53.40,130616066, 0.11, -17.72, 353.26, 595.75, -35.3627531, 149.1651589, 0.986361920834, -0.00804073549807, -0.1538644135, -0.0578906238079
2019-04-03 21:35:53.50,130716026, 0.12, -17.75, 353.25, 595.789978027, -35.3627487, 149.1651583, 0.986318767071, -0.0080375932157, -0.154111489654, -0.0579685121775
2019-04-03 21:35:53.60,130815986, 0.12, -17.79, 353.24, 595.83001709, -35.3627442, 149.1651576, 0.986260533333, -0.00800499133766, -0.15445689857, -0.0580442845821
2019-04-03 21:35:53.69,130915946, 0.12, -17.8, 353.23, 595.880004883, -35.3627399, 149.165157, 0.986237704754, -0.00804872158915, -0.154564067721, -0.0581407956779
2019-04-03 21:35:53.79,131015906, 0.12, -17.79, 353.22, 595.91998291, -35.3627355, 149.1651565, 0.986249029636, -0.0080416444689, -0.154454663396, -0.0582400299609
2019-04-03 21:35:53.89,131115866, 0.12, -17.79, 353.2, 595.960021973, -35.3627311, 149.1651559, 0.986247003078, -0.00811107736081, -0.154420763254, -0.0583552718163
2019-04-03 21:35:53.99,131215826, 0.09, -17.78, 353.19, 596.0, -35.3627266, 149.1651552, 0.986243546009, -0.0083885891363, -0.154366403818, -0.0585177391768
2019-04-03 21:35:54.09,131315786, 0.07, -17.77, 353.17, 596.039978027, -35.3627223, 149.1651546, 0.98624420166, -0.00855188723654, -0.154296070337, -0.0586687028408
2019-04-03 21:35:54.19,131415746, 0.06, -17.78, 353.16, 596.090026855, -35.3627179, 149.1651541, 0.986225903034, -0.00865548662841, -0.154356256127, -0.0588022060692
2019-04-03 21:35:54.29,131515706, 0.08, -17.79, 353.15, 596.130004883, -35.3627135, 149.1651535, 0.986209869385, -0.00854916777462, -0.154425740242, -0.058903940022
2019-04-03 21:35:54.39,131615666, 0.11, -17.8, 353.13, 596.16998291, -35.362709, 149.1651528, 0.986194193363, -0.00830645672977, -0.154508531094, -0.0589843578637
2019-04-03 21:35:54.50,131716459, 0.14, -17.82, 353.12, 596.210021973, -35.3627047, 149.1651523, 0.986153423786, -0.00807222630829, -0.154753804207, -0.0590555891395
2019-04-03 21:35:54.60,131816419, 0.16, -17.86, 353.11, 596.260009766, -35.3627003, 149.1651517, 0.986098885536, -0.00792543310672, -0.155082449317, -0.0591235160828
2019-04-03 21:35:54.70,131916379, 0.16, -17.87, 353.1, 596.299987793, -35.3626959, 149.1651509, 0.98608225584, -0.00792945548892, -0.155155926943, -0.0592082366347
2019-04-03 21:35:54.80,132016339, 0.15, -17.84, 353.09, 596.340026855, -35.3626914, 149.1651503, 0.986114263535, -0.00798100698739, -0.15491682291, -0.0592941008508
2019-04-03 21:35:54.90,132116299, 0.14, -17.81, 353.08, 596.390014648, -35.362687, 149.1651498, 0.986152410507, -0.00807613972574, -0.154632925987, -0.0593869946897
2019-04-03 21:35:55.00,132216259, 0.14, -17.79, 353.07, 596.429992676, -35.3626826, 149.1651492, 0.986178457737, -0.00812366511673, -0.154431536794, -0.0594723001122
2019-04-03 21:35:55.10,132316219, 0.15, -17.79, 353.06, 596.469970703, -35.3626782, 149.1651485, 0.986168384552, -0.00802981946617, -0.15447832644, -0.059530608356
2019-04-03 21:35:55.20,132416179, 0.16, -17.81, 353.05, 596.510009766, -35.3626737, 149.1651479, 0.986133277416, -0.0079881567508, -0.154680863023, -0.0595922060311
2019-04-03 21:35:55.30,132516139, 0.14, -17.84, 353.05, 596.549987793, -35.3626694, 149.1651474, 0.986092805862, -0.00817522313446, -0.154893502593, -0.0596838854253
2019-04-03 21:35:55.40,132616099, 0.13, -17.88, 353.04, 596.599975586, -35.362665, 149.1651468, 0.986038327217, -0.00830887258053, -0.1552054286, -0.0597557164729
2019-04-03 21:35:55.50,132716059, 0.12, -17.91, 353.03, 596.640014648, -35.3626604, 149.1651461, 0.985996365547, -0.00840070843697, -0.155440181494, -0.0598246641457
2019-04-03 21:35:55.60,132816019, 0.1, -17.9, 353.02, 596.679992676, -35.362656, 149.1651456, 0.986005663872, -0.00852682255208, -0.155343323946, -0.0599047802389
2019-04-03 21:35:55.70,132915979, 0.08, -17.87, 353.02, 596.719970703, -35.3626517, 149.165145, 0.98603951931, -0.00871012825519, -0.155080631375, -0.0600018948317
2019-04-03 21:35:55.79,133015939, 0.06, -17.84, 353.01, 596.770019531, -35.3626473, 149.1651444, 0.986075103283, -0.00885099824518, -0.154808849096, -0.060098040849
2019-04-03 21:35:55.89,133115899, 0.07, -17.83, 353.0, 596.809997559, -35.3626427, 149.1651437, 0.986072838306, -0.00879179872572, -0.154799595475, -0.0601677075028
2019-04-03 21:35:55.99,133215859, 0.08, -17.85, 352.99, 596.849975586, -35.3626384, 149.1651432, 0.986044645309, -0.00877067446709, -0.154950335622, -0.0602444373071
2019-04-03 21:35:56.09,133315819, 0.1, -17.86, 352.98, 596.900024414, -35.362634, 149.1651425, 0.986026525497, -0.00859327986836, -0.15505848825, -0.0602887682617
2019-04-03 21:35:56.19,133415779, 0.12, -17.87, 352.97, 596.940002441, -35.3626296, 149.1651418, 0.986015677452, -0.0084084412083, -0.15511867404, -0.0603382922709
2019-04-03 21:35:56.29,133515739, 0.13, -17.86, 352.96, 596.979980469, -35.362625, 149.1651412, 0.986017405987, -0.0083242142573, -0.155087798834, -0.0603999309242
2019-04-03 21:35:56.39,133615699, 0.14, -17.85, 352.95, 597.020019531, -35.3626207, 149.1651407, 0.986029565334, -0.0082770595327, -0.154986143112, -0.060469225049
2019-04-03 21:35:56.49,133715659, 0.15, -17.82, 352.94, 597.070007324, -35.3626163, 149.1651401, 0.986062943935, -0.00815214589238, -0.15475705266, -0.0605291202664
2019-04-03 21:35:56.60,133816452, 0.17, -17.81, 352.94, 597.109985352, -35.3626117, 149.1651394, 0.986074149609, -0.0080676022917, -0.154664054513, -0.0605946406722
2019-04-03 21:35:56.70,133916412, 0.16, -17.82, 352.93, 597.150024414, -35.3626074, 149.1651388, 0.986065626144, -0.00809679646045, -0.154691830277, -0.0606593489647
2019-04-03 21:35:56.80,134016372, 0.16, -17.83, 352.92, 597.190002441, -35.3626029, 149.1651382, 0.986041069031, -0.00811433047056, -0.154827862978, -0.0607084222138
2019-04-03 21:35:56.90,134116332, 0.16, -17.86, 352.92, 597.239990234, -35.3625985, 149.1651375, 0.985994815826, -0.00812636129558, -0.155103519559, -0.060754686594
2019-04-03 21:35:57.00,134216292, 0.18, -17.9, 352.91, 597.280029297, -35.362594, 149.1651369, 0.98594558239, -0.00802909210324, -0.155414134264, -0.0607725903392
2019-04-03 21:35:57.10,134316252, 0.17, -17.93, 352.91, 597.320007324, -35.3625896, 149.1651364, 0.985898137093, -0.00814099609852, -0.15569126606, -0.0608177371323
2019-04-03 21:35:57.20,134416212, 0.14, -17.95, 352.9, 597.369995117, -35.3625852, 149.1651356, 0.985870480537, -0.00836327578872, -0.155831158161, -0.0608782581985
2019-04-03 21:35:57.30,134516172, 0.13, -17.96, 352.9, 597.409973145, -35.3625807, 149.165135, 0.985856890678, -0.00850536767393, -0.155890136957, -0.060927849263
2019-04-03 21:35:57.40,134616132, 0.13, -17.95, 352.9, 597.450012207, -35.3625763, 149.1651345, 0.985859453678, -0.00853915978223, -0.155858919024, -0.0609604604542
2019-04-03 21:35:57.50,134716092, 0.13, -17.94, 352.89, 597.489990234, -35.3625719, 149.1651339, 0.985875546932, -0.00848030019552, -0.155753597617, -0.0609776638448
2019-04-03 21:35:57.60,134816052, 0.15, -17.92, 352.89, 597.539978027, -35.3625675, 149.1651332, 0.985902070999, -0.00831953436136, -0.155590370297, -0.0609884783626
2019-04-03 21:35:57.70,134916012, 0.15, -17.91, 352.89, 597.58001709, -35.362563, 149.1651326, 0.985912144184, -0.00831343978643, -0.15550853312, -0.0610347054899
2019-04-03 21:35:57.80,135015972, 0.15, -17.91, 352.88, 597.619995117, -35.3625586, 149.165132, 0.985909938812, -0.00836575776339, -0.155498713255, -0.0610891506076
2019-04-03 21:35:57.89,135115932, 0.16, -17.92, 352.87, 597.66998291, -35.3625542, 149.1651314, 0.985899984837, -0.00821939110756, -0.155561506748, -0.0611093267798
2019-04-03 21:35:57.99,135215892, 0.21, -17.94, 352.87, 597.710021973, -35.3625496, 149.1651307, 0.985870182514, -0.00788410939276, -0.155774772167, -0.0610910318792
2019-04-03 21:35:58.09,135315852, 0.24, -17.95, 352.87, 597.75, -35.3625453, 149.1651302, 0.985854148865, -0.00760045368224, -0.155898094177, -0.0610700696707
2019-04-03 21:35:58.19,135415812, 0.25, -17.96, 352.86, 597.789978027, -35.3625408, 149.1651295, 0.985846936703, -0.00747311394662, -0.155951723456, -0.0610659532249
2019-04-03 21:35:58.29,135515772, 0.25, -17.94, 352.86, 597.83001709, -35.3625363, 149.1651288, 0.985868513584, -0.00749306986108, -0.155802384019, -0.0610962286592
2019-04-03 21:35:58.39,135615732, 0.23, -17.92, 352.86, 597.880004883, -35.362532, 149.1651283, 0.98589605093, -0.00768112950027, -0.155595749617, -0.0611543878913
2019-04-03 21:35:58.49,135715692, 0.21, -17.9, 352.86, 597.91998291, -35.3625275, 149.1651277, 0.985920369625, -0.00780597515404, -0.155414924026, -0.0612067915499
2019-04-03 21:35:58.60,135816485, 0.2, -17.9, 352.85, 597.960021973, -35.3625229, 149.1651271, 0.985919237137, -0.00792997609824, -0.155394628644, -0.0612610913813
2019-04-03 21:35:58.70,135916445, 0.2, -17.9, 352.85, 598.010009766, -35.3625186, 149.1651264, 0.985911428928, -0.0079589234665, -0.155426815152, -0.061300970614
2019-04-03 21:35:58.80,136016405, 0.21, -17.9, 352.84, 598.049987793, -35.3625142, 149.1651258, 0.985912799835, -0.00786947086453, -0.15541125834, -0.0613299831748
2019-04-03 21:35:58.90,136116365, 0.21, -17.9, 352.84, 598.090026855, -35.3625096, 149.1651252, 0.985911309719, -0.00782359298319, -0.155408009887, -0.061368253082
2019-04-03 21:35:59.00,136216325, 0.21, -17.89, 352.83, 598.130004883, -35.3625052, 149.1651245, 0.985918819904, -0.00787285435945, -0.155337825418, -0.0614194385707
2019-04-03 21:35:59.10,136316285, 0.2, -17.88, 352.83, 598.179992676, -35.3625008, 149.165124, 0.985935211182, -0.00791924167424, -0.15521107614, -0.0614706166089
2019-04-03 21:35:59.20,136416245, 0.2, -17.89, 352.82, 598.219970703, -35.3624964, 149.1651233, 0.985912680626, -0.00794227886945, -0.155339628458, -0.0615040957928
2019-04-03 21:35:59.30,136516205, 0.2, -17.91, 352.82, 598.260009766, -35.3624918, 149.1651226, 0.985884547234, -0.00795380212367, -0.155504748225, -0.061536051333
2019-04-03 21:35:59.40,136616165, 0.21, -17.92, 352.81, 598.309997559, -35.3624875, 149.1651221, 0.985862314701, -0.00792394019663, -0.155635133386, -0.061566170305
2019-04-03 21:35:59.50,136716125, 0.23, -17.92, 352.81, 598.349975586, -35.362483, 149.1651215, 0.985869705677, -0.00775113934651, -0.155592516065, -0.0615778565407
2019-04-03 21:35:59.60,136816085, 0.25, -17.93, 352.81, 598.390014648, -35.3624785, 149.1651207, 0.985857605934, -0.00761939538643, -0.155667632818, -0.0615977011621
2019-04-03 21:35:59.70,136916045, 0.26, -17.95, 352.8, 598.429992676, -35.3624741, 149.1651202, 0.985824167728, -0.00750580243766, -0.155877485871, -0.0616169534624
2019-04-03 21:35:59.80,137016005, 0.26, -17.97, 352.8, 598.479980469, -35.3624697, 149.1651196, 0.985797226429, -0.00756067223847, -0.156026527286, -0.0616634227335
2019-04-03 21:35:59.90,137115965, 0.23, -17.95, 352.79, 598.520019531, -35.3624651, 149.165119, 0.985811948776, -0.0077616199851, -0.155894845724, -0.0617368668318
2019-04-03 21:35:59.99,137215925, 0.21, -17.94, 352.79, 598.559997559, -35.3624608, 149.1651183, 0.985825359821, -0.00795280374587, -0.155774191022, -0.0618030913174
2019-04-03 21:36:00.09,137315885, 0.18, -17.94, 352.78, 598.599975586, -35.3624563, 149.1651177, 0.985824525356, -0.00822702422738, -0.155736148357, -0.0618752613664
2019-04-03 21:36:00.19,137415845, 0.14, -17.95, 352.78, 598.650024414, -35.3624518, 149.1651171, 0.985800862312, -0.00855793710798, -0.155836358666, -0.0619554556906
2019-04-03 21:36:00.29,137515805, 0.12, -17.96, 352.77, 598.690002441, -35.3624474, 149.1651164, 0.985783517361, -0.00872168969363, -0.155911892653, -0.0620184391737
2019-04-03 21:36:00.39,137615765, 0.14, -17.97, 352.77, 598.729980469, -35.362443, 149.1651159, 0.985768318176, -0.00861834362149, -0.156001105905, -0.0620497390628
2019-04-03 21:36:00.49,137715725, 0.15, -17.98, 352.76, 598.780029297, -35.3624384, 149.1651153, 0.985750675201, -0.00852857902646, -0.156104639173, -0.0620824508369
2019-04-03 21:36:00.59,137815685, 0.16, -18.0, 352.76, 598.820007324, -35.3624341, 149.1651145, 0.985732018948, -0.00841571390629, -0.156215205789, -0.0621158033609
2019-04-03 21:36:00.70,137916478, 0.19, -18.01, 352.75, 598.859985352, -35.3624296, 149.165114, 0.985712409019, -0.00824514124542, -0.156334534287, -0.0621495768428
2019-04-03 21:36:00.80,138016438, 0.2, -18.01, 352.74, 598.900024414, -35.3624251, 149.1651134, 0.985699176788, -0.00815853197128, -0.156402662396, -0.0621998757124
2019-04-03 21:36:00.90,138116398, 0.22, -17.99, 352.73, 598.950012207, -35.3624207, 149.1651128, 0.985736727715, -0.00794411823153, -0.156166389585, -0.0622262358665
2019-04-03 21:36:01.00,138216358, 0.23, -17.95, 352.73, 598.989990234, -35.3624162, 149.165112, 0.985777497292, -0.00784062128514, -0.155900448561, -0.0622598268092
2019-04-03 21:36:01.10,138316318, 0.25, -17.94, 352.72, 599.030029297, -35.3624117, 149.1651115, 0.985801815987, -0.00773098273203, -0.155741974711, -0.0622852034867
2019-04-03 21:36:01.20,138416278, 0.25, -17.93, 352.72, 599.08001709, -35.3624073, 149.1651109, 0.985801160336, -0.00768570834771, -0.155735135078, -0.0623182617128
2019-04-03 21:36:01.30,138516238, 0.26, -17.93, 352.72, 599.119995117, -35.3624029, 149.1651102, 0.985811233521, -0.0075837909244, -0.155670404434, -0.0623337142169
2019-04-03 21:36:01.40,138616198, 0.26, -17.92, 352.71, 599.159973145, -35.3623983, 149.1651096, 0.985814988613, -0.00760503252968, -0.155637741089, -0.0623534210026
2019-04-03 21:36:01.50,138716158, 0.24, -17.94, 352.71, 599.200012207, -35.362394, 149.165109, 0.985788881779, -0.00775476871058, -0.15578506887, -0.0623791068792
2019-04-03 21:36:01.60,138816118, 0.23, -17.96, 352.71, 599.25, -35.3623895, 149.1651083, 0.985761642456, -0.00787491630763, -0.155943587422, -0.0623985417187
2019-04-03 21:36:01.70,138916078, 0.23, -17.96, 352.71, 599.289978027, -35.3623851, 149.1651077, 0.985767245293, -0.00788026209921, -0.155905306339, -0.0624055229127
2019-04-03 21:36:01.80,139016038, 0.25, -17.94, 352.71, 599.33001709, -35.3623806, 149.1651071, 0.985786616802, -0.00771028501913, -0.155794456601, -0.0623969957232
2019-04-03 21:36:01.90,139115998, 0.28, -17.92, 352.71, 599.369995117, -35.3623761, 149.1651065, 0.985815107822, -0.00742861116305, -0.155635327101, -0.0623783357441
2019-04-03 21:36:02.00,139215958, 0.31, -17.91, 352.71, 599.41998291, -35.3623717, 149.1651058, 0.985823452473, -0.00720663648099, -0.155596509576, -0.0623695813119
2019-04-03 21:36:02.09,139315918, 0.32, -17.92, 352.7, 599.460021973, -35.3623672, 149.1651053, 0.985818982124, -0.00710784876719, -0.155627638102, -0.0623739100993
2019-04-03 21:36:02.19,139415878, 0.32, -17.92, 352.7, 599.5, -35.3623628, 149.1651046, 0.985815703869, -0.00709998980165, -0.15564160049, -0.0623912513256
2019-04-03 21:36:02.29,139515838, 0.33, -17.91, 352.7, 599.539978027, -35.3623582, 149.1651039, 0.985827088356, -0.00704427715391, -0.155568540096, -0.062400508672
2019-04-03 21:36:02.39,139615798, 0.32, -17.91, 352.7, 599.58001709, -35.3623538, 149.1651034, 0.985829651356, -0.00714339967817, -0.155532583594, -0.0624385513365
2019-04-03 21:36:02.49,139715758, 0.3, -17.91, 352.69, 599.630004883, -35.3623494, 149.1651028, 0.98581802845, -0.00726765114814, -0.155583843589, -0.0624799318612
2019-04-03 21:36:02.59,139815718, 0.3, -17.93, 352.69, 599.66998291, -35.3623448, 149.1651022, 0.985788166523, -0.00734105380252, -0.155759871006, -0.0625036656857
2019-04-03 21:36:02.69,139915678, 0.28, -17.93, 352.69, 599.710021973, -35.3623404, 149.1651015, 0.985793471336, -0.0075199031271, -0.155701562762, -0.0625432729721
2019-04-03 21:36:02.80,140016471, 0.25, -17.92, 352.69, 599.75, -35.362336, 149.1651009, 0.985797822475, -0.00774695537984, -0.155642360449, -0.0625948905945
2019-04-03 21:36:02.90,140116431, 0.24, -17.93, 352.69, 599.799987793, -35.3623314, 149.1651003, 0.98579376936, -0.00784657616168, -0.155648693442, -0.0626304671168
2019-04-03 21:36:03.00,140216391, 0.23, -17.93, 352.68, 599.840026855, -35.3623271, 149.1650996, 0.985784888268, -0.00792253110558, -0.155686631799, -0.0626663789153
2019-04-03 21:36:03.10,140316351, 0.22, -17.94, 352.68, 599.880004883, -35.3623226, 149.1650991, 0.985766947269, -0.00802440755069, -0.155777558684, -0.062710262835
2019-04-03 21:36:03.20,140416311, 0.21, -17.97, 352.67, 599.91998291, -35.3623182, 149.1650985, 0.985729813576, -0.00812382996082, -0.155981644988, -0.0627735778689
2019-04-03 21:36:03.30,140516271, 0.21, -17.97, 352.67, 599.960021973, -35.3623137, 149.1650979, 0.985725283623, -0.00812579318881, -0.15598320961, -0.0628407001495
2019-04-03 21:36:03.40,140616231, 0.22, -17.96, 352.66, 600.010009766, -35.3623092, 149.1650972, 0.985725939274, -0.00804805848747, -0.155956253409, -0.0629065036774
2019-04-03 21:36:03.50,140716191, 0.24, -17.98, 352.65, 600.049987793, -35.3623047, 149.1650966, 0.985700845718, -0.00792721938342, -0.156095549464, -0.0629695355892
2019-04-03 21:36:03.60,140816151, 0.27, -18.02, 352.64, 600.090026855, -35.3623003, 149.165096, 0.985639035702, -0.00772213097662, -0.156475558877, -0.0630197972059
2019-04-03 21:36:03.70,140916111, 0.28, -18.06, 352.62, 600.130004883, -35.3622959, 149.1650953, 0.985580265522, -0.00762885808945, -0.156821936369, -0.0630893707275
2019-04-03 21:36:03.80,141016071, 0.27, -18.08, 352.61, 600.16998291, -35.3622913, 149.1650948, 0.985545873642, -0.00776122417301, -0.156987369061, -0.0631983578205
2019-04-03 21:36:03.90,141116031, 0.26, -18.05, 352.6, 600.210021973, -35.3622869, 149.1650942, 0.985579311848, -0.00780335068703, -0.156737923622, -0.0632914379239
2019-04-03 21:36:04.00,141215991, 0.28, -18.01, 352.6, 600.260009766, -35.3622825, 149.1650936, 0.985634088516, -0.00769046181813, -0.156373545527, -0.0633533522487
2019-04-03 21:36:04.09,141315951, 0.29, -17.95, 352.59, 600.299987793, -35.3622781, 149.1650929, 0.985707223415, -0.00752586545423, -0.155902341008, -0.0633960738778
2019-04-03 21:36:04.19,141415911, 0.3, -17.92, 352.58, 600.340026855, -35.3622736, 149.1650923, 0.985751628876, -0.00740970345214, -0.155609041452, -0.0634398981929
2019-04-03 21:36:04.29,141515871, 0.31, -17.92, 352.58, 600.380004883, -35.3622691, 149.1650917, 0.985742688179, -0.00738865835592, -0.155648320913, -0.063485532999
