Start,TimeUS,Roll,Pitch,Yaw,Alt,Lat,Lng,Q1,Q2,Q3,Q4
2019-04-03 22:38:46.50,41915727, 0.0, 0.0, 353.0, 584.090026855, -35.363261, 149.1652299, 0.998134791851, 0.0, 0.0, -0.0610485821962
2019-04-03 22:38:46.61,42034846, 0.0, 0.0, 353.0, 584.090026855, -35.363261, 149.1652299, 0.998134791851, 0.0, 0.0, -0.0610485821962
2019-04-03 22:38:46.71,42134806, 0.0, 0.0, 353.0, 584.090026855, -35.363261, 149.1652299, 0.998134791851, 0.0, 0.0, -0.0610485821962
2019-04-03 22:38:46.81,42234766, 0.0, 0.0, 353.0, 584.090026855, -35.363261, 149.1652299, 0.998134791851, 0.0, 0.0, -0.0610485821962
2019-04-03 22:38:46.91,42334726, 0.0, 0.0, 353.0, 584.090026855, -35.363261, 149.1652299, 0.998134791851, 0.0, 0.0, -0.0610485821962
2019-04-03 22:38:47.01,42434686, 0.0, 0.0, 353.0, 584.090026855, -35.363261, 149.1652299, 0.998134791851, 0.0, 0.0, -0.0610485821962
2019-04-03 22:38:47.11,42534646, 0.0, 0.0, 353.0, 584.090026855, -35.363261, 149.1652299, 0.998134791851, 0.0, 0.0, -0.0610485821962
2019-04-03 22:38:47.21,42634606, 0.0, 0.0, 353.0, 584.090026855, -35.363261, 149.1652299, 0.998134791851, 0.0, 0.0, -0.0610485821962
2019-04-03 22:38:47.31,42734566, 0.0, 0.0, 353.0, 584.090026855, -35.363261, 149.1652299, 0.998134791851, 0.0, 0.0, -0.0610485821962
2019-04-03 22:38:47.41,42834526, 0.0, 0.0, 353.0, 584.090026855, -35.363261, 149.1652299, 0.998134791851, 0.0, 0.0, -0.0610485821962
2019-04-03 22:38:47.51,42934486, 0.0, 0.0, 353.0, 584.090026855, -35.363261, 149.1652299, 0.998134791851, 0.0, 0.0, -0.0610485821962
2019-04-03 22:38:47.61,43034446, 0.0, 0.0, 353.0, 584.090026855, -35.363261, 149.1652299, 0.998134791851, 0.0, 0.0, -0.0610485821962
2019-04-03 22:38:47.71,43134406, 0.0, 0.0, 353.0, 584.090026855, -35.363261, 149.1652299, 0.998134791851, 0.0, 0.0, -0.0610485821962
2019-04-03 22:38:47.81,43234366, 0.0, 0.0, 353.0, 584.090026855, -35.363261, 149.1652299, 0.998134791851, 0.0, 0.0, -0.0610485821962
2019-04-03 22:38:47.91,43334326, 0.0, 0.0, 353.0, 584.090026855, -35.363261, 149.1652299, 0.998134791851, 0.0, 0.0, -0.0610485821962
2019-04-03 22:38:48.01,43434286, 0.0, 0.0, 353.0, 584.090026855, -35.363261, 149.1652299, 0.998134791851, 0.0, 0.0, -0.0610485821962
2019-04-03 22:38:48.11,43534246, 0.0, 0.0, 353.0, 584.090026855, -35.363261, 149.1652299, 0.998134791851, 0.0, 0.0, -0.0610485821962
2019-04-03 22:38:48.21,43634206, 0.0, 0.0, 353.0, 584.090026855, -35.363261, 149.1652299, 0.998134791851, 0.0, 0.0, -0.0610485821962
2019-04-03 22:38:48.31,43734166, 0.0, 0.0, 353.0, 584.090026855, -35.363261, 149.1652299, 0.998134791851, 0.0, 0.0, -0.0610485821962
2019-04-03 22:38:48.41,43834126, 0.0, 0.0, 353.0, 584.090026855, -35.363261, 149.1652299, 0.998134791851, 0.0, 0.0, -0.0610485821962
2019-04-03 22:38:48.51,43934086, 0.0, 0.0, 353.0, 584.090026855, -35.363261, 149.1652299, 0.998134791851, 0.0, 0.0, -0.0610485821962
2019-04-03 22:38:48.62,44034879, 0.0, 0.0, 353.0, 584.090026855, -35.363261, 149.1652299, 0.998134791851, 0.0, 0.0, -0.0610485821962
2019-04-03 22:38:48.71,44134839, 0.0, 0.0, 353.0, 584.090026855, -35.363261, 149.1652299, 0.998134791851, 0.0, 0.0, -0.0610485821962
2019-04-03 22:38:48.81,44234799, 0.0, 0.0, 353.0, 584.090026855, -35.363261, 149.1652299, 0.998134791851, 0.0, 0.0, -0.0610485821962
2019-04-03 22:38:48.91,44334759, 0.0, 0.0, 353.0, 584.090026855, -35.363261, 149.1652299, 0.998134791851, 0.0, 0.0, -0.0610485821962
2019-04-03 22:38:49.01,44434719, 0.0, 0.0, 353.0, 584.090026855, -35.363261, 149.1652299, 0.998134791851, 0.0, 0.0, -0.0610485821962
2019-04-03 22:38:49.11,44534679, 0.0, 0.0, 353.0, 584.090026855, -35.363261, 149.1652299, 0.998134791851, 0.0, 0.0, -0.0610485821962
2019-04-03 22:38:49.21,44634639, 0.0, 0.0, 353.0, 584.090026855, -35.363261, 149.1652299, 0.998134791851, 0.0, 0.0, -0.0610485821962
2019-04-03 22:38:49.31,44734599, 0.0, 0.0, 353.0, 584.090026855, -35.363261, 149.1652299, 0.998134791851, 0.0, 0.0, -0.0610485821962
2019-04-03 22:38:49.41,44834559, 0.0, 0.0, 353.0, 584.090026855, -35.363261, 149.1652299, 0.998134791851, 0.0, 0.0, -0.0610485821962
2019-04-03 22:38:49.51,44934519, 0.0, 0.0, 353.0, 584.090026855, -35.363261, 149.1652299, 0.998134791851, 0.0, 0.0, -0.0610485821962
2019-04-03 22:38:49.61,45034479, 0.0, 0.0, 353.0, 584.090026855, -35.363261, 149.1652299, 0.998134791851, 0.0, 0.0, -0.0610485821962
2019-04-03 22:38:49.71,45134439, 0.0, 0.0, 353.0, 584.090026855, -35.363261, 149.1652299, 0.998134791851, 0.0, 0.0, -0.0610485821962
2019-04-03 22:38:49.81,45234399, 0.0, 0.0, 353.0, 584.090026855, -35.363261, 149.1652299, 0.998134791851, 0.0, 0.0, -0.0610485821962
2019-04-03 22:38:49.91,45334359, 0.0, 0.0, 353.0, 584.090026855, -35.363261, 149.1652299, 0.998134791851, 0.0, 0.0, -0.0610485821962
2019-04-03 22:38:50.01,45434319, 0.0, 0.0, 353.0, 584.090026855, -35.363261, 149.1652299, 0.998134791851, 0.0, 0.0, -0.0610485821962
2019-04-03 22:38:50.11,45534279, 0.0, 0.0, 353.0, 584.090026855, -35.363261, 149.1652299, 0.998134791851, 0.0, 0.0, -0.0610485821962
2019-04-03 22:38:50.21,45634239, 0.0, 0.0, 353.0, 584.090026855, -35.363261, 149.1652299, 0.998134791851, 0.0, 0.0, -0.0610485821962
2019-04-03 22:38:50.31,45734199, 0.0, 0.0, 353.0, 584.090026855, -35.363261, 149.1652299, 0.998134791851, 0.0, 0.0, -0.0610485821962
2019-04-03 22:38:50.41,45834159, 0.0, 0.0, 353.0, 584.090026855, -35.363261, 149.1652299, 0.998134791851, 0.0, 0.0, -0.0610485821962
2019-04-03 22:38:50.51,45934119, 0.0, 0.0, 353.0, 584.090026855, -35.363261, 149.1652299, 0.998134791851, 0.0, 0.0, -0.0610485821962
2019-04-03 22:38:50.61,46034079, 0.0, 0.0, 353.0, 584.090026855, -35.363261, 149.1652299, 0.998134791851, 0.0, 0.0, -0.0610485821962
2019-04-03 22:38:50.72,46134872, 0.0, 0.0, 353.0, 584.090026855, -35.363261, 149.1652299, 0.998134791851, 0.0, 0.0, -0.0610485821962
2019-04-03 22:38:50.81,46234832, 0.0, 0.0, 353.0, 584.090026855, -35.363261, 149.1652299, 0.998134791851, 0.0, 0.0, -0.0610485821962
2019-04-03 22:38:50.91,46334792, 0.0, 0.0, 353.0, 584.090026855, -35.363261, 149.1652299, 0.998134791851, 0.0, 0.0, -0.0610485821962
2019-04-03 22:38:51.01,46434752, 0.0, 0.0, 353.0, 584.090026855, -35.363261, 149.1652299, 0.998134791851, 0.0, 0.0, -0.0610485821962
2019-04-03 22:38:51.11,46534712, 0.0, 0.0, 353.0, 584.090026855, -35.363261, 149.1652299, 0.998134791851, 0.0, 0.0, -0.0610485821962
2019-04-03 22:38:51.21,46634672, 0.0, 0.0, 353.0, 584.090026855, -35.363261, 149.1652299, 0.998134791851, 0.0, 0.0, -0.0610485821962
2019-04-03 22:38:51.31,46734632, 0.0, 0.0, 353.0, 584.090026855, -35.363261, 149.1652299, 0.998134791851, 0.0, 0.0, -0.0610485821962
2019-04-03 22:38:51.41,46834592, 0.0, 0.0, 353.0, 584.090026855, -35.363261, 149.1652299, 0.998134791851, 0.0, 0.0, -0.0610485821962
2019-04-03 22:38:51.51,46934552, 0.0, 0.0, 353.0, 584.090026855, -35.363261, 149.1652299, 0.998134791851, 0.0, 0.0, -0.0610485821962
2019-04-03 22:38:51.61,47034512, 0.0, 0.0, 353.0, 584.090026855, -35.363261, 149.1652299, 0.998134791851, 0.0, 0.0, -0.0610485821962
2019-04-03 22:38:51.71,47134472, 0.0, 0.0, 353.0, 584.090026855, -35.363261, 149.1652299, 0.998134791851, 0.0, 0.0, -0.0610485821962
2019-04-03 22:38:51.81,47234432, 0.0, 0.0, 353.0, 584.090026855, -35.363261, 149.1652299, 0.998134791851, 0.0, 0.0, -0.0610485821962
2019-04-03 22:38:51.91,47334392, 0.0, 0.0, 353.0, 584.090026855, -35.363261, 149.1652299, 0.998134791851, 0.0, 0.0, -0.0610485821962
2019-04-03 22:38:52.01,47434352, 0.0, 0.0, 353.0, 584.090026855, -35.363261, 149.1652299, 0.998134791851, 0.0, 0.0, -0.0610485821962
2019-04-03 22:38:52.11,47534312, 0.0, 0.0, 353.0, 584.090026855, -35.363261, 149.1652299, 0.998134791851, 0.0, 0.0, -0.0610485821962
2019-04-03 22:38:52.21,47634272, 0.0, 0.0, 353.0, 584.090026855, -35.363261, 149.1652299, 0.998134791851, 0.0, 0.0, -0.0610485821962
2019-04-03 22:38:52.31,47734232, 0.0, 0.0, 353.0, 584.090026855, -35.363261, 149.1652299, 0.998134791851, 0.0, 0.0, -0.0610485821962
2019-04-03 22:38:52.41,47834192, 0.0, 0.0, 353.0, 584.090026855, -35.363261, 149.1652299, 0.998134791851, 0.0, 0.0, -0.0610485821962
2019-04-03 22:38:52.51,47934152, 0.0, 0.0, 353.0, 584.090026855, -35.363261, 149.1652299, 0.998134791851, 0.0, 0.0, -0.0610485821962
2019-04-03 22:38:52.61,48034112, 0.0, 0.0, 353.0, 584.090026855, -35.363261, 149.1652299, 0.998134791851, 0.0, 0.0, -0.0610485821962
2019-04-03 22:38:52.71,48134072, 0.0, 0.0, 353.0, 584.090026855, -35.363261, 149.1652299, 0.998134791851, 0.0, 0.0, -0.0610485821962
2019-04-03 22:38:52.82,48234865, 0.0, 0.0, 353.0, 584.090026855, -35.363261, 149.1652299, 0.998134791851, 0.0, 0.0, -0.0610485821962
2019-04-03 22:38:52.91,48334825, 0.0, 0.0, 353.0, 584.090026855, -35.363261, 149.1652299, 0.998134791851, 0.0, 0.0, -0.0610485821962
2019-04-03 22:38:53.01,48434785, 0.0, 0.0, 353.0, 584.090026855, -35.363261, 149.1652299, 0.998134791851, 0.0, 0.0, -0.0610485821962
2019-04-03 22:38:53.11,48534745, 0.0, 0.0, 353.0, 584.090026855, -35.363261, 149.1652299, 0.998134791851, 0.0, 0.0, -0.0610485821962
2019-04-03 22:38:53.21,48634705, 0.0, 0.0, 353.0, 584.090026855, -35.363261, 149.1652299, 0.998134791851, 0.0, 0.0, -0.0610485821962
2019-04-03 22:38:53.31,48734665, 0.0, 0.0, 353.0, 584.090026855, -35.363261, 149.1652299, 0.998134791851, 0.0, 0.0, -0.0610485821962
2019-04-03 22:38:53.41,48834625, 0.0, 0.0, 353.0, 584.090026855, -35.363261, 149.1652299, 0.998134791851, 0.0, 0.0, -0.0610485821962
2019-04-03 22:38:53.51,48934585, 0.0, 0.0, 353.0, 584.090026855, -35.363261, 149.1652299, 0.998134791851, 0.0, 0.0, -0.0610485821962
2019-04-03 22:38:53.61,49034545, 0.0, 0.0, 353.0, 584.090026855, -35.363261, 149.1652299, 0.998134791851, 0.0, 0.0, -0.0610485821962
2019-04-03 22:38:53.71,49134505, 0.0, 0.0, 353.0, 584.090026855, -35.363261, 149.1652299, 0.998134791851, 0.0, 0.0, -0.0610485821962
2019-04-03 22:38:53.81,49234465, 0.0, 0.0, 353.0, 584.090026855, -35.363261, 149.1652299, 0.998134791851, 0.0, 0.0, -0.0610485821962
2019-04-03 22:38:53.91,49334425, 0.0, 0.0, 353.0, 584.090026855, -35.363261, 149.1652299, 0.998134791851, 0.0, 0.0, -0.0610485821962
2019-04-03 22:38:54.01,49434385, 0.0, 0.0, 353.0, 584.090026855, -35.363261, 149.1652299, 0.998134791851, 0.0, 0.0, -0.0610485821962
2019-04-03 22:38:54.11,49534345, 0.0, 0.0, 353.0, 584.090026855, -35.363261, 149.1652299, 0.998134791851, 0.0, 0.0, -0.0610485821962
2019-04-03 22:38:54.21,49634305, 0.0, 0.0, 353.0, 584.090026855, -35.363261, 149.1652299, 0.998134791851, 0.0, 0.0, -0.0610485821962
2019-04-03 22:38:54.31,49734265, 0.0, 0.0, 353.0, 584.090026855, -35.363261, 149.1652299, 0.998134791851, 0.0, 0.0, -0.0610485821962
2019-04-03 22:38:54.41,49834225, 0.0, 0.0, 353.0, 584.090026855, -35.363261, 149.1652299, 0.998134791851, 0.0, 0.0, -0.0610485821962
2019-04-03 22:38:54.51,49934185, 0.0, 0.0, 353.0, 584.090026855, -35.363261, 149.1652299, 0.998134791851, 0.0, 0.0, -0.0610485821962
2019-04-03 22:38:54.61,50034145, 0.0, 0.0, 353.0, 584.090026855, -35.363261, 149.1652299, 0.998134791851, 0.0, 0.0, -0.0610485821962
2019-04-03 22:38:54.71,50134105, 0.0, 0.0, 353.0, 584.090026855, -35.363261, 149.1652299, 0.998134791851, 0.0, 0.0, -0.0610485821962
2019-04-03 22:38:54.81,50234065, 0.0, 0.0, 353.0, 584.090026855, -35.363261, 149.1652299, 0.998134791851, 0.0, 0.0, -0.0610485821962
2019-04-03 22:38:54.92,50334858, 0.0, 0.0, 353.0, 584.090026855, -35.363261, 149.1652299, 0.998134791851, 0.0, 0.0, -0.0610485821962
2019-04-03 22:38:55.01,50434818, 0.0, 0.0, 353.0, 584.090026855, -35.363261, 149.1652299, 0.998134791851, 0.0, 0.0, -0.0610485821962
2019-04-03 22:38:55.11,50534778, 0.0, 0.0, 353.0, 584.090026855, -35.363261, 149.1652299, 0.998134791851, 0.0, 0.0, -0.0610485821962
2019-04-03 22:38:55.21,50634738, 0.0, 0.0, 353.0, 584.090026855, -35.363261, 149.1652299, 0.998134791851, 0.0, 0.0, -0.0610485821962
2019-04-03 22:38:55.31,50734698, 0.0, 0.0, 353.0, 584.090026855, -35.363261, 149.1652299, 0.998134791851, 0.0, 0.0, -0.0610485821962
2019-04-03 22:38:55.41,50834658, 0.0, 0.0, 353.0, 584.090026855, -35.363261, 149.1652299, 0.998134791851, 0.0, 0.0, -0.0610485821962
2019-04-03 22:38:55.51,50934618, 0.0, 0.0, 353.0, 584.090026855, -35.363261, 149.1652299, 0.998134791851, 0.0, 0.0, -0.0610485821962
2019-04-03 22:38:55.61,51034578, 0.0, 0.0, 353.0, 584.090026855, -35.363261, 149.1652299, 0.998134791851, 0.0, 0.0, -0.0610485821962
2019-04-03 22:38:55.71,51134538, 0.0, 0.0, 353.0, 584.090026855, -35.363261, 149.1652299, 0.998134791851, 0.0, 0.0, -0.0610485821962
2019-04-03 22:38:55.81,51234498, 0.0, 0.0, 353.0, 584.090026855, -35.363261, 149.1652299, 0.998134791851, 0.0, 0.0, -0.0610485821962
2019-04-03 22:38:55.91,51334458, 0.0, 0.0, 353.0, 584.090026855, -35.363261, 149.1652299, 0.998134791851, 0.0, 0.0, -0.0610485821962
2019-04-03 22:38:56.01,51434418, 0.0, 0.0, 353.0, 584.090026855, -35.363261, 149.1652299, 0.998134791851, 0.0, 0.0, -0.0610485821962
2019-04-03 22:38:56.11,51534378, 0.0, 0.0, 353.0, 584.090026855, -35.363261, 149.1652299, 0.998134791851, 0.0, 0.0, -0.0610485821962
2019-04-03 22:38:56.21,51634338, 0.0, 0.0, 353.0, 584.090026855, -35.363261, 149.1652299, 0.998134791851, 0.0, 0.0, -0.0610485821962
2019-04-03 22:38:56.31,51734298, 0.0, 0.0, 353.0, 584.090026855, -35.363261, 149.1652299, 0.998134791851, 0.0, 0.0, -0.0610485821962
2019-04-03 22:38:58.11,53534411, 0.0, 0.0, 353.0, 584.090026855, -35.363261, 149.1652299, 0.998134791851, 0.0, 0.0, -0.0610485821962
2019-04-03 22:38:58.21,53634371, 0.0, 0.0, 353.0, 584.090026855, -35.363261, 149.1652299, 0.998134791851, 0.0, 0.0, -0.0610485821962
2019-04-03 22:38:58.31,53734331, 0.0, 0.0, 353.0, 584.090026855, -35.363261, 149.1652299, 0.998134791851, 0.0, 0.0, -0.0610485821962
2019-04-03 22:38:58.41,53834291, 0.0, 0.0, 353.0, 584.090026855, -35.363261, 149.1652299, 0.998134791851, 0.0, 0.0, -0.0610485821962
2019-04-03 22:38:58.51,53934251, 0.0, 0.0, 353.0, 584.090026855, -35.363261, 149.1652299, 0.998134791851, 0.0, 0.0, -0.0610485821962
2019-04-03 22:38:58.61,54034211, 0.0, 0.0, 353.0, 584.090026855, -35.363261, 149.1652299, 0.998134791851, 0.0, 0.0, -0.0610485821962
2019-04-03 22:38:58.71,54134171, 0.0, 0.0, 353.0, 584.090026855, -35.363261, 149.1652299, 0.998134791851, 0.0, 0.0, -0.0610485821962
2019-04-03 22:38:58.81,54234131, 0.0, 0.0, 353.0, 584.090026855, -35.363261, 149.1652299, 0.998134791851, 0.0, 0.0, -0.0610485821962
2019-04-03 22:38:58.91,54334091, 0.0, 0.0, 353.0, 584.090026855, -35.363261, 149.1652299, 0.998134791851, 0.0, 0.0, -0.0610485821962
2019-04-03 22:38:59.02,54434884, 0.0, 0.0, 353.0, 584.090026855, -35.363261, 149.1652299, 0.998134791851, 0.0, 0.0, -0.0610485821962
2019-04-03 22:38:59.11,54534844, 0.0, 0.0, 353.0, 584.090026855, -35.363261, 149.1652299, 0.998134791851, 0.0, 0.0, -0.0610485821962
2019-04-03 22:38:59.21,54634804, 0.0, 0.0, 353.0, 584.090026855, -35.363261, 149.1652299, 0.998134791851, 0.0, 0.0, -0.0610485821962
2019-04-03 22:38:59.31,54734764, 0.0, 0.0, 353.0, 584.090026855, -35.363261, 149.1652299, 0.998134791851, 0.0, 0.0, -0.0610485821962
2019-04-03 22:38:59.41,54834724, 0.0, 0.0, 353.0, 584.090026855, -35.363261, 149.1652299, 0.998134791851, 0.0, 0.0, -0.0610485821962
2019-04-03 22:38:59.51,54934684, 0.0, 0.0, 353.0, 584.090026855, -35.363261, 149.1652299, 0.998134791851, 0.0, 0.0, -0.0610485821962
2019-04-03 22:38:59.61,55034644, 0.0, 0.0, 353.0, 584.090026855, -35.363261, 149.1652299, 0.998134791851, 0.0, 0.0, -0.0610485821962
2019-04-03 22:38:59.71,55134604, 0.0, 0.0, 353.0, 584.090026855, -35.363261, 149.1652299, 0.998134791851, 0.0, 0.0, -0.0610485821962
2019-04-03 22:38:59.81,55234564, 0.0, 0.0, 353.0, 584.090026855, -35.363261, 149.1652299, 0.998134791851, 0.0, 0.0, -0.0610485821962
2019-04-03 22:38:59.91,55334524, 0.0, 0.0, 353.0, 584.090026855, -35.363261, 149.1652299, 0.998134791851, 0.0, 0.0, -0.0610485821962
2019-04-03 22:39:00.01,55434484, 0.0, 0.0, 353.0, 584.090026855, -35.363261, 149.1652299, 0.998134791851, 0.0, 0.0, -0.0610485821962
2019-04-03 22:39:00.11,55534444, 0.0, 0.0, 353.0, 584.090026855, -35.363261, 149.1652299, 0.998134791851, 0.0, 0.0, -0.0610485821962
2019-04-03 22:39:00.21,55634404, 0.0, 0.0, 353.0, 584.090026855, -35.363261, 149.1652299, 0.998134791851, 0.0, 0.0, -0.0610485821962
2019-04-03 22:39:00.31,55734364, 0.0, 0.0, 353.0, 584.090026855, -35.363261, 149.1652299, 0.998134791851, 0.0, 0.0, -0.0610485821962
2019-04-03 22:39:00.41,55834324, 0.0, 0.0, 353.0, 584.090026855, -35.363261, 149.1652299, 0.998134791851, 0.0, 0.0, -0.0610485821962
2019-04-03 22:39:00.51,55934284, 0.0, 0.0, 353.0, 584.090026855, -35.363261, 149.1652299, 0.998134791851, 0.0, 0.0, -0.0610485821962
2019-04-03 22:39:00.61,56034244, 0.0, 0.0, 353.0, 584.090026855, -35.363261, 149.1652299, 0.998134791851, 0.0, 0.0, -0.0610485821962
2019-04-03 22:39:00.71,56134204, 0.0, 0.0, 353.0, 584.090026855, -35.363261, 149.1652299, 0.998134791851, 0.0, 0.0, -0.0610485821962
2019-04-03 22:39:00.81,56234164, 0.0, 0.0, 353.0, 584.090026855, -35.363261, 149.1652299, 0.998134791851, 0.0, 0.0, -0.0610485821962
2019-04-03 22:39:00.91,56334124, 0.0, 0.0, 353.0, 584.090026855, -35.363261, 149.1652299, 0.998134791851, 0.0, 0.0, -0.0610485821962
2019-04-03 22:39:01.01,56434084, 0.0, 0.0, 353.0, 584.090026855, -35.363261, 149.1652299, 0.998134791851, 0.0, 0.0, -0.0610485821962
2019-04-03 22:39:01.12,56534877, 0.0, 0.0, 353.0, 584.090026855, -35.363261, 149.1652299, 0.998134791851, 0.0, 0.0, -0.0610485821962
2019-04-03 22:39:01.21,56634837, 0.0, 0.0, 353.0, 584.090026855, -35.363261, 149.1652299, 0.998134791851, 0.0, 0.0, -0.0610485821962
2019-04-03 22:39:01.31,56734797, 0.0, 0.0, 353.0, 584.090026855, -35.363261, 149.1652299, 0.998134791851, 0.0, 0.0, -0.0610485821962
2019-04-03 22:39:01.41,56834757, 0.0, 0.0, 353.0, 584.090026855, -35.363261, 149.1652299, 0.998134791851, 0.0, 0.0, -0.0610485821962
2019-04-03 22:39:01.51,56934717, 0.0, 0.0, 353.0, 584.090026855, -35.363261, 149.1652299, 0.998134791851, 0.0, 0.0, -0.0610485821962
2019-04-03 22:39:01.61,57034677, 0.0, 0.0, 353.0, 584.090026855, -35.363261, 149.1652299, 0.998134791851, 0.0, 0.0, -0.0610485821962
2019-04-03 22:39:01.71,57134637, 0.0, 0.0, 353.0, 584.090026855, -35.363261, 149.1652299, 0.998134791851, 0.0, 0.0, -0.0610485821962
2019-04-03 22:39:01.81,57234597, 0.0, 0.0, 353.0, 584.090026855, -35.363261, 149.1652299, 0.998134791851, 0.0, 0.0, -0.0610485821962
2019-04-03 22:39:01.91,57334557, 0.0, 0.0, 353.0, 584.090026855, -35.363261, 149.1652299, 0.998134791851, 0.0, 0.0, -0.0610485821962
2019-04-03 22:39:02.01,57434517, 0.0, 0.0, 353.0, 584.090026855, -35.363261, 149.1652299, 0.998134791851, 0.0, 0.0, -0.0610485821962
2019-04-03 22:39:02.11,57534477, 0.0, 0.0, 353.0, 584.090026855, -35.363261, 149.1652299, 0.998134791851, 0.0, 0.0, -0.0610485821962
2019-04-03 22:39:02.21,57634437, 0.0, 0.0, 353.0, 584.090026855, -35.363261, 149.1652299, 0.998134791851, 0.0, 0.0, -0.0610485821962
2019-04-03 22:39:02.31,57734397, 0.0, 0.0, 353.0, 584.090026855, -35.363261, 149.1652299, 0.998134791851, 0.0, 0.0, -0.0610485821962
2019-04-03 22:39:02.41,57834357, 0.0, 0.0, 353.0, 584.090026855, -35.363261, 149.1652299, 0.998134791851, 0.0, 0.0, -0.0610485821962
2019-04-03 22:39:02.51,57934317, 0.0, 0.0, 353.0, 584.090026855, -35.363261, 149.1652299, 0.998134791851, 0.0, 0.0, -0.0610485821962
2019-04-03 22:39:02.61,58034277, 0.0, 0.0, 353.0, 584.090026855, -35.363261, 149.1652299, 0.998134791851, 0.0, 0.0, -0.0610485821962
2019-04-03 22:39:02.71,58134237, 0.0, 0.0, 353.0, 584.090026855, -35.363261, 149.1652299, 0.998134791851, 0.0, 0.0, -0.0610485821962
2019-04-03 22:39:02.81,58234197, 0.0, 0.0, 353.0, 584.090026855, -35.363261, 149.1652299, 0.998134791851, 0.0, 0.0, -0.0610485821962
2019-04-03 22:39:02.91,58334157, 0.0, 0.0, 353.0, 584.090026855, -35.363261, 149.1652299, 0.998134791851, 0.0, 0.0, -0.0610485821962
2019-04-03 22:39:03.01,58434117, 0.0, 0.0, 353.0, 584.090026855, -35.363261, 149.1652299, 0.998134791851, 0.0, 0.0, -0.0610485933721
2019-04-03 22:39:03.11,58534077, 0.0, 0.0, 353.0, 584.090026855, -35.363261, 149.1652299, 0.998134791851, 0.0, 0.0, -0.0610486753285
2019-04-03 22:39:03.22,58634870, 0.0, 0.0, 353.0, 584.090026855, -35.363261, 149.1652299, 0.998134791851, 0.0, 0.0, -0.0610486753285
2019-04-03 22:39:03.31,58734830, 0.0, 0.0, 353.0, 584.090026855, -35.363261, 149.1652299, 0.998134791851, 0.0, 0.0, -0.0610486753285
2019-04-03 22:39:03.41,58834790, 0.0, 0.0, 353.0, 584.090026855, -35.363261, 149.1652299, 0.998134791851, 0.0, 0.0, -0.0610486753285
2019-04-03 22:39:03.51,58934750, 0.0, 0.0, 353.0, 584.090026855, -35.363261, 149.1652299, 0.998134791851, 0.0, 0.0, -0.0610486753285
2019-04-03 22:39:03.61,59034710, 0.0, 0.0, 353.0, 584.090026855, -35.363261, 149.1652299, 0.998134791851, 0.0, 0.0, -0.0610486753285
2019-04-03 22:39:03.71,59134670, 0.0, 0.0, 353.0, 584.090026855, -35.363261, 149.1652299, 0.998134791851, 0.0, 0.0, -0.0610486753285
2019-04-03 22:39:03.81,59234630, 0.0, 0.0, 353.0, 584.090026855, -35.363261, 149.1652299, 0.998134791851, 0.0, 0.0, -0.0610486753285
2019-04-03 22:39:03.91,59334590, 0.0, 0.0, 353.0, 584.099975586, -35.363261, 149.1652299, 0.998134791851, 0.0, 0.0, -0.0610486753285
2019-04-03 22:39:04.01,59434550, 0.0, 0.0, 353.0, 584.109985352, -35.363261, 149.1652299, 0.998134791851, 0.0, 0.0, -0.0610486753285
2019-04-03 22:39:04.11,59534510, 0.0, 0.0, 353.0, 584.119995117, -35.363261, 149.1652299, 0.998134791851, 0.0, 0.0, -0.0610486641526
2019-04-03 22:39:04.21,59634470, 0.0, 0.0, 353.0, 584.150024414, -35.363261, 149.1652299, 0.998134791851, 0.0, 0.0, -0.0610486753285
2019-04-03 22:39:04.31,59734430, 0.0, 0.0, 353.0, 584.179992676, -35.363261, 149.1652299, 0.998134791851, 0.0, 0.0, -0.0610486753285
2019-04-03 22:39:04.41,59834390, 0.0, 0.0, 353.0, 584.219970703, -35.363261, 149.1652299, 0.998134791851, -9.6485218819e-06, -7.89584464655e-06, -0.0610487125814
2019-04-03 22:39:04.51,59934350, -0.04, -0.03, 352.99, 584.280029297, -35.363261, 149.1652299, 0.998134255409, -0.000386641710065, -0.000292119890219, -0.061055470258
2019-04-03 22:39:04.61,60034310, -0.11, -0.08, 352.99, 584.409973145, -35.363261, 149.1652299, 0.998132705688, -0.00105073570739, -0.000699780939613, -0.0610702075064
2019-04-03 22:39:04.71,60134270, -0.2, -0.12, 352.99, 584.559997559, -35.363261, 149.1652299, 0.998130261898, -0.00182097696234, -0.000955512165092, -0.0610882714391
2019-04-03 22:39:04.81,60234230, -0.26, -0.12, 352.99, 584.710021973, -35.363261, 149.1652299, 0.998127818108, -0.00238140183501, -0.000936546945013, -0.061108995229
2019-04-03 22:39:04.91,60334190, -0.28, -0.11, 352.99, 584.869995117, -35.363261, 149.1652299, 0.998126685619, -0.00257846387103, -0.000811495177913, -0.0611217394471
2019-04-03 22:39:05.01,60434150, -0.25, -0.08, 352.99, 585.020019531, -35.363261, 149.1652299, 0.998126685619, -0.0022703523282, -0.000634936499409, -0.0611356981099
2019-04-03 22:39:05.11,60534110, -0.19, -0.06, 352.98, 585.16998291, -35.363261, 149.1652299, 0.998127043247, -0.00169508554973, -0.000426564685768, -0.0611505135894
2019-04-03 22:39:05.21,60634070, -0.11, -0.04, 352.98, 585.33001709, -35.363261, 149.1652299, 0.998127102852, -0.00100867787842, -0.000328746682499, -0.0611651018262
2019-04-03 22:39:05.32,60734863, -0.03, -0.04, 352.98, 585.5, -35.363261, 149.1652299, 0.998126864433, -0.000314749893732, -0.000411923072534, -0.0611767135561
2019-04-03 22:39:05.41,60834823, 0.01, -0.05, 352.98, 585.66998291, -35.363261, 149.1652299, 0.998126268387, 0.000104216451291, -0.000483273586724, -0.0611863657832
2019-04-03 22:39:05.51,60934783, 0.01, -0.04, 352.98, 585.849975586, -35.363261, 149.1652298, 0.998126327991, 0.000133781912155, -0.000413187313825, -0.0611860156059
2019-04-03 22:39:05.61,61034743, 0.0, -0.02, 352.98, 586.030029297, -35.363261, 149.1652298, 0.998127281666, -9.67058222159e-05, -0.000222211936489, -0.0611713528633
2019-04-03 22:39:05.71,61134703, -0.02, 0.0, 352.98, 586.219970703, -35.363261, 149.1652298, 0.998127937317, -0.000237650252529, 9.01379826246e-05, -0.0611607022583
2019-04-03 22:39:05.81,61234663, -0.04, 0.03, 352.98, 586.409973145, -35.363261, 149.1652298, 0.998128831387, -0.00035407874384, 0.000325631030137, -0.0611445754766
2019-04-03 22:39:05.91,61334623, -0.02, 0.02, 352.99, 586.599975586, -35.363261, 149.1652298, 0.998129665852, -0.000235540108406, 0.000260179687757, -0.0611317493021
2019-04-03 22:39:06.01,61434583, 0.0, -0.01, 352.99, 586.799987793, -35.363261, 149.1652298, 0.998129725456, 4.789284867e-05, -0.000138185132528, -0.0611314810812
2019-04-03 22:39:06.11,61534543, 0.03, -0.02, 352.98, 587.0, -35.363261, 149.1652298, 0.998128175735, 0.000297721155221, -0.000247341638897, -0.0611557886004
2019-04-03 22:39:06.21,61634503, 0.05, 0.0, 352.98, 587.200012207, -35.363261, 149.1652298, 0.998125553131, 0.000487580429763, -5.1160230214e-05, -0.0611981712282
2019-04-03 22:39:06.31,61734463, 0.05, 0.0, 352.97, 587.400024414, -35.3632609, 149.1652298, 0.998122751713, 0.00046481777099, 5.75835547352e-05, -0.0612430162728
2019-04-03 22:39:06.41,61834423, 0.03, 0.0, 352.97, 587.599975586, -35.3632609, 149.1652298, 0.998120725155, 0.00027500174474, 3.81451573048e-05, -0.0612782277167
2019-04-03 22:39:06.51,61934383, 0.01, 0.0, 352.97, 587.809997559, -35.3632609, 149.1652298, 0.998119652271, 0.00015115950373, -1.17201434477e-05, -0.0612956024706
2019-04-03 22:39:06.61,62034343, 0.0, 0.0, 352.97, 588.020019531, -35.3632609, 149.1652298, 0.99811899662, 1.4735480363e-05, -8.291737322e-05, -0.061306681484
2019-04-03 22:39:06.71,62134303, -0.01, -0.01, 352.96, 588.229980469, -35.3632609, 149.1652298, 0.998118519783, -0.000113363057608, -0.000144872377859, -0.0613141320646
2019-04-03 22:39:06.81,62234263, -0.01, -0.03, 352.96, 588.440002441, -35.3632609, 149.1652298, 0.998118579388, -0.000131091583171, -0.000263204128714, -0.0613122396171
2019-04-03 22:39:06.91,62334223, -0.01, -0.02, 352.97, 588.650024414, -35.3632609, 149.1652298, 0.998118758202, -0.000128066458274, -0.000251838675467, -0.0613096058369
2019-04-03 22:39:07.01,62434183, 0.0, -0.02, 352.97, 588.859985352, -35.3632609, 149.1652297, 0.99811899662, -9.01758103282e-05, -0.000233594197198, -0.0613052137196
2019-04-03 22:39:07.11,62534143, 0.0, -0.02, 352.97, 589.070007324, -35.3632609, 149.1652297, 0.998119354248, -5.54995494895e-05, -0.000221772046643, -0.0612997487187
2019-04-03 22:39:07.21,62634103, -0.02, -0.04, 352.97, 589.289978027, -35.3632609, 149.1652297, 0.998119354248, -0.000220111061935, -0.000347526249243, -0.0612996146083
2019-04-03 22:39:07.31,62734063, -0.05, -0.07, 352.97, 589.510009766, -35.3632609, 149.1652297, 0.998119354248, -0.000532152887899, -0.000591234304011, -0.0612959712744
2019-04-03 22:39:07.42,62834856, -0.07, -0.09, 352.97, 589.719970703, -35.3632609, 149.1652297, 0.998119056225, -0.000704475038219, -0.000797400833108, -0.0612956695259
2019-04-03 22:39:07.51,62934816, -0.06, -0.1, 352.97, 589.929992676, -35.3632609, 149.1652297, 0.998118638992, -0.000657119322568, -0.000902073865291, -0.0613021403551
2019-04-03 22:39:07.61,63034776, -0.05, -0.09, 352.96, 590.130004883, -35.3632609, 149.1652297, 0.998117685318, -0.000518997316249, -0.000810183933936, -0.0613199174404
2019-04-03 22:39:07.71,63134736, -0.03, -0.05, 352.96, 590.309997559, -35.3632609, 149.1652297, 0.99811643362, -0.000348690577084, -0.000470201746793, -0.0613455437124
2019-04-03 22:39:07.81,63234696, -0.03, -0.01, 352.96, 590.489990234, -35.3632609, 149.1652296, 0.998114585876, -0.000347620691173, -0.000111981193186, -0.06137765944
2019-04-03 22:39:07.91,63334656, -0.04, 0.02, 352.95, 590.659973145, -35.3632609, 149.1652296, 0.9981123209, -0.000346074695699, 0.000225444717216, -0.061413936317
2019-04-03 22:39:08.01,63434616, 0.1, 0.03, 352.95, 590.809997559, -35.3632608, 149.1652296, 0.9981097579, 0.000927246001083, 0.000226450967602, -0.0614494308829
2019-04-03 22:39:08.11,63534576, 0.56, -0.02, 352.94, 590.950012207, -35.3632608, 149.1652296, 0.998095989227, 0.00488873198628, -0.000527724158019, -0.0614837519825
2019-04-03 22:39:08.21,63634536, 1.34, -0.13, 352.94, 591.08001709, -35.3632608, 149.1652296, 0.998036623001, 0.0116400206462, -0.00190675223712, -0.0615126788616
2019-04-03 22:39:08.31,63734496, 2.33, -0.29, 352.93, 591.190002441, -35.3632608, 149.1652296, 0.997894346714, 0.0201645996422, -0.00379222678021, -0.0615297704935
2019-04-03 22:39:08.41,63834456, 3.44, -0.46, 352.92, 591.299987793, -35.3632608, 149.1652297, 0.997645795345, 0.0297094155103, -0.00593832787126, -0.0615225471556
2019-04-03 22:39:08.51,63934416, 4.53, -0.61, 352.92, 591.390014648, -35.3632607, 149.1652298, 0.997308850288, 0.0391644835472, -0.00783570297062, -0.0614800564945
2019-04-03 22:39:08.61,64034376, 5.46, -0.73, 352.91, 591.469970703, -35.3632607, 149.1652299, 0.99695456028, 0.0471567027271, -0.00936801731586, -0.0614011287689
2019-04-03 22:39:08.71,64134336, 6.16, -0.81, 352.91, 591.539978027, -35.3632605, 149.1652302, 0.996644675732, 0.0532344914973, -0.0104076806456, -0.0612959712744
2019-04-03 22:39:08.81,64234296, 6.69, -0.85, 352.92, 591.599975586, -35.3632604, 149.1652305, 0.99638915062, 0.0578375943005, -0.0110002979636, -0.061176430434
2019-04-03 22:39:08.91,64334256, 7.12, -0.89, 352.92, 591.659973145, -35.3632604, 149.165231, 0.996167719364, 0.0615203641355, -0.0116047561169, -0.0610776096582
2019-04-03 22:39:09.01,64434216, 7.49, -0.95, 352.92, 591.710021973, -35.3632603, 149.1652315, 0.995960474014, 0.0647331923246, -0.012353869155, -0.0609898939729
2019-04-03 22:39:09.11,64534176, 7.84, -1.0, 352.93, 591.75, -35.3632602, 149.1652322, 0.995759010315, 0.0677280128002, -0.0129844248295, -0.0608965344727
2019-04-03 22:39:09.21,64634136, 8.12, -1.03, 352.93, 591.789978027, -35.3632599, 149.1652329, 0.995589852333, 0.0701820850372, -0.0133343515918, -0.0608074851334
2019-04-03 22:39:09.31,64734096, 8.33, -1.04, 352.94, 591.820007324, -35.3632598, 149.1652336, 0.995465636253, 0.0719420537353, -0.0135098844767, -0.060745652765
2019-04-03 22:39:09.41,64834056, 8.45, -1.05, 352.93, 591.859985352, -35.3632596, 149.1652346, 0.995383143425, 0.0730484724045, -0.0137161277235, -0.060730855912
2019-04-03 22:39:09.51,64934849, 8.54, -1.09, 352.93, 591.890014648, -35.3632593, 149.1652356, 0.995320558548, 0.0738116651773, -0.0140679487959, -0.0607532858849
2019-04-03 22:39:09.61,65034809, 8.65, -1.09, 352.93, 591.909973145, -35.3632591, 149.1652368, 0.995252490044, 0.0747035816312, -0.0141696799546, -0.0607538037002
2019-04-03 22:39:09.71,65134769, 8.87, -0.93, 353.04, 591.940002441, -35.3632589, 149.1652379, 0.995176374912, 0.0766953378916, -0.012793363072, -0.059818033129
2019-04-03 22:39:09.81,65234729, 9.25, -0.52, 353.8, 591.969970703, -35.3632586, 149.1652393, 0.99529337883, 0.0802964568138, -0.00888559967279, -0.0535227432847
2019-04-03 22:39:09.91,65334689, 9.75, -0.13, 355.88, 591.989990234, -35.3632583, 149.1652407, 0.995741903782, 0.0848888382316, -0.00424542324618, -0.0356931611896
2019-04-03 22:39:10.01,65434649, 10.24, -0.23, 359.59, 592.010009766, -35.363258, 149.1652421, 0.996001183987, 0.0892454311252, -0.00237434194423, -0.00336529128253
2019-04-03 22:39:10.11,65534609, 10.57, -1.01, 4.81, 592.039978027, -35.3632578, 149.1652437, 0.99479496479, 0.0924173370004, -0.00491924118251, 0.0426353849471
2019-04-03 22:39:10.21,65634569, 10.62, -2.44, 11.28, 592.059997559, -35.3632576, 149.1652454, 0.990458846092, 0.0941873788834, -0.0120502682403, 0.0998738706112
2019-04-03 22:39:10.31,65734529, 10.28, -4.37, 18.73, 592.090026855, -35.3632573, 149.165247, 0.981423676014, 0.0945519506931, -0.0229722615331, 0.165347322822
2019-04-03 22:39:10.41,65834489, 9.48, -6.56, 26.88, 592.109985352, -35.3632571, 149.165249, 0.966586351395, 0.093513675034, -0.0362803675234, 0.235901877284
2019-04-03 22:39:10.51,65934449, 8.21, -8.74, 35.5, 592.140014648, -35.3632568, 149.1652509, 0.945522606373, 0.0911752134562, -0.0506401397288, 0.308398544788
2019-04-03 22:39:10.61,66034409, 6.5, -10.69, 44.31, 592.16998291, -35.3632566, 149.165253, 0.918634533882, 0.0873690247536, -0.0648544803262, 0.379830390215
2019-04-03 22:39:10.71,66134369, 4.47, -12.22, 53.04, 592.200012207, -35.3632562, 149.1652552, 0.887125074863, 0.0822623670101, -0.0778831467032, 0.447410553694
2019-04-03 22:39:10.81,66234329, 2.33, -13.25, 61.39, 592.229980469, -35.363256, 149.1652575, 0.852741241455, 0.0763017088175, -0.088912434876, 0.509023606777
2019-04-03 22:39:10.91,66334289, 0.28, -13.81, 69.14, 592.260009766, -35.3632555, 149.1652598, 0.817270040512, 0.070300579071, -0.0976045802236, 0.563560903072
2019-04-03 22:39:11.01,66434249, -1.73, -14.03, 76.1, 592.289978027, -35.3632552, 149.1652623, 0.782621085644, 0.0634767413139, -0.10546554625, 0.610206484795
2019-04-03 22:39:11.11,66534209, -3.83, -13.99, 81.84, 592.320007324, -35.3632547, 149.1652648, 0.752215385437, 0.0546218603849, -0.113761395216, 0.646720051765
2019-04-03 22:39:11.21,66634169, -5.66, -13.78, 85.93, 592.349975586, -35.3632541, 149.1652675, 0.729621708393, 0.0457906201482, -0.121139056981, 0.671476483345
2019-04-03 22:39:11.31,66734129, -6.83, -13.55, 88.22, 592.390014648, -35.3632535, 149.1652703, 0.716582536697, 0.039468690753, -0.125775128603, 0.684932351112
2019-04-03 22:39:11.41,66834089, -7.18, -13.41, 88.86, 592.41998291, -35.3632528, 149.1652731, 0.712906599045, 0.037130407989, -0.126799076796, 0.688699901104
2019-04-03 22:39:11.52,66934882, -6.7, -13.46, 88.13, 592.460021973, -35.363252, 149.165276, 0.717106163502, 0.0396746695042, -0.124459512532, 0.684612691402
2019-04-03 22:39:11.61,67034842, -5.53, -13.72, 86.37, 592.5, -35.3632512, 149.165279, 0.72697520256, 0.0467524603009, -0.119826950133, 0.67450928688
2019-04-03 22:39:11.71,67134802, -3.91, -14.16, 83.92, 592.530029297, -35.3632504, 149.165282, 0.740308463573, 0.0571336746216, -0.114294990897, 0.660011947155
2019-04-03 22:39:11.81,67234762, -2.13, -14.67, 81.08, 592.570007324, -35.3632494, 149.1652851, 0.755104005337, 0.0689979791641, -0.109035305679, 0.64278191328
2019-04-03 22:39:11.91,67334722, -0.39, -15.16, 78.18, 592.609985352, -35.3632486, 149.1652882, 0.769604623318, 0.0805747583508, -0.104597605765, 0.624720573425
2019-04-03 22:39:12.01,67434682, 1.11, -15.52, 75.55, 592.650024414, -35.3632476, 149.1652916, 0.782340168953, 0.0903224870563, -0.100878804922, 0.607954978943
2019-04-03 22:39:12.11,67534642, 2.25, -15.68, 73.43, 592.690002441, -35.3632468, 149.1652949, 0.792316257954, 0.0971754789352, -0.0977133959532, 0.594343304634
2019-04-03 22:39:12.21,67634602, 2.94, -15.7, 72.01, 592.729980469, -35.3632458, 149.1652983, 0.799022376537, 0.100829206407, -0.0955082848668, 0.585042655468
2019-04-03 22:39:12.31,67734562, 3.16, -15.66, 71.33, 592.770019531, -35.363245, 149.1653019, 0.802356660366, 0.10166503489, -0.0947261154652, 0.580443799496
2019-04-03 22:39:12.41,67834522, 2.98, -15.65, 71.32, 592.809997559, -35.3632441, 149.1653055, 0.802562534809, 0.100335136056, -0.0955362096429, 0.580257713795
2019-04-03 22:39:12.51,67934482, 2.49, -15.68, 71.87, 592.849975586, -35.3632434, 149.1653092, 0.800132572651, 0.0975611880422, -0.0977838486433, 0.583701968193
2019-04-03 22:39:12.61,68034442, 1.8, -15.77, 72.82, 592.890014648, -35.3632426, 149.165313, 0.795745849609, 0.0940131321549, -0.101129420102, 0.589680373669
2019-04-03 22:39:12.71,68134402, 1.02, -15.89, 74.0, 592.940002441, -35.3632418, 149.1653168, 0.790179252625, 0.0903113931417, -0.105093866587, 0.597005844116
2019-04-03 22:39:12.81,68234362, 0.24, -16.02, 75.22, 592.979980469, -35.3632409, 149.1653207, 0.784262776375, 0.0867577269673, -0.1090792045, 0.604571580887
2019-04-03 22:39:12.91,68334322, -0.42, -16.11, 76.34, 593.020019531, -35.3632402, 149.1653246, 0.778734743595, 0.0837215334177, -0.112512610853, 0.611476778984
2019-04-03 22:39:13.01,68434282, -0.94, -16.17, 77.24, 593.059997559, -35.3632394, 149.1653285, 0.774185717106, 0.081443823874, -0.11496501416, 0.617078959942
2019-04-03 22:39:13.11,68534242, -1.25, -16.19, 77.87, 593.099975586, -35.3632385, 149.1653326, 0.770993769169, 0.0800532922149, -0.11634927243, 0.62098544836
2019-04-03 22:39:13.21,68634202, -1.36, -16.2, 78.2, 593.140014648, -35.3632377, 149.1653366, 0.769276320934, 0.0797127634287, -0.116818189621, 0.623067677021
2019-04-03 22:39:13.31,68734162, -1.29, -16.23, 78.25, 593.179992676, -35.3632367, 149.1653408, 0.768950939178, 0.0803930163383, -0.116598814726, 0.623422980309
2019-04-03 22:39:13.41,68834122, -1.08, -16.27, 78.06, 593.219970703, -35.3632359, 149.1653448, 0.769804477692, 0.0818365961313, -0.11586214602, 0.622318089008
2019-04-03 22:39:13.51,68934082, -0.79, -16.32, 77.69, 593.270019531, -35.3632349, 149.165349, 0.771524846554, 0.0836642459035, -0.114889465272, 0.620121061802
2019-04-03 22:39:13.62,69034875, -0.49, -16.37, 77.22, 593.309997559, -35.3632341, 149.1653533, 0.773770213127, 0.0855781584978, -0.113961718976, 0.617226719856
2019-04-03 22:39:13.71,69134835, -0.2, -16.41, 76.73, 593.349975586, -35.3632331, 149.1653576, 0.776171565056, 0.0872287228703, -0.113024570048, 0.614145219326
2019-04-03 22:39:13.81,69234795, 0.04, -16.45, 76.27, 593.390014648, -35.3632322, 149.1653619, 0.778404414654, 0.0887232422829, -0.112312331796, 0.611228883266
2019-04-03 22:39:13.91,69334755, 0.25, -16.49, 75.88, 593.429992676, -35.3632312, 149.1653663, 0.780248224735, 0.0899522528052, -0.111814267933, 0.608784735203
2019-04-03 22:39:14.01,69434715, 0.38, -16.55, 75.61, 593.469970703, -35.3632304, 149.1653706, 0.78155630827, 0.0908676683903, -0.111761830747, 0.606977880001
2019-04-03 22:39:14.11,69534675, 0.42, -16.61, 75.45, 593.510009766, -35.3632294, 149.1653751, 0.782292604446, 0.0913340449333, -0.112019240856, 0.60591095686
2019-04-03 22:39:14.21,69634635, 0.41, -16.66, 75.41, 593.549987793, -35.3632285, 149.1653795, 0.782478749752, 0.0914648026228, -0.112425394356, 0.605575561523
2019-04-03 22:39:14.31,69734595, 0.37, -16.69, 75.46, 593.590026855, -35.3632276, 149.165384, 0.782201886177, 0.091360129416, -0.112820036709, 0.605875551701
2019-04-03 22:39:14.41,69834555, 0.28, -16.7, 75.59, 593.640014648, -35.3632266, 149.1653885, 0.781586587429, 0.0910019204021, -0.113284260035, 0.606636464596
2019-04-03 22:39:14.51,69934515, 0.17, -16.71, 75.76, 593.679992676, -35.3632257, 149.165393, 0.780774414539, 0.0904331803322, -0.113836728036, 0.607663035393
2019-04-03 22:39:14.61,70034475, 0.03, -16.72, 75.94, 593.719970703, -35.3632248, 149.1653976, 0.779900550842, 0.0897289738059, -0.114443913102, 0.608774542809
2019-04-03 22:39:14.71,70134435, -0.09, -16.74, 76.11, 593.760009766, -35.3632238, 149.1654022, 0.779063463211, 0.0890837833285, -0.115158297122, 0.609805583954
2019-04-03 22:39:14.81,70234395, -0.21, -16.76, 76.26, 593.799987793, -35.3632228, 149.1654068, 0.778376162052, 0.0885541141033, -0.115801684558, 0.610638022423
2019-04-03 22:39:14.91,70334355, -0.29, -16.77, 76.35, 593.849975586, -35.3632219, 149.1654113, 0.777902662754, 0.0881748795509, -0.116222761571, 0.611215949059
2019-04-03 22:39:15.01,70434315, -0.34, -16.78, 76.4, 593.890014648, -35.3632209, 149.165416, 0.777664959431, 0.0879456624389, -0.116524264216, 0.611493945122
2019-04-03 22:39:15.11,70534275, -0.36, -16.81, 76.4, 593.929992676, -35.36322, 149.1654208, 0.777645587921, 0.0879571810365, -0.11680418998, 0.611463546753
2019-04-03 22:39:15.21,70634235, -0.32, -16.85, 76.36, 593.969970703, -35.363219, 149.1654255, 0.777790725231, 0.0883825346828, -0.116910383105, 0.6111972332
2019-04-03 22:39:15.31,70734195, -0.24, -16.89, 76.29, 594.020019531, -35.3632179, 149.1654302, 0.778073370457, 0.0890615954995, -0.11687001586, 0.610746502876
2019-04-03 22:39:15.41,70834155, -0.16, -16.94, 76.2, 594.059997559, -35.3632171, 149.1654348, 0.778452336788, 0.0898210629821, -0.11682549119, 0.610160589218
2019-04-03 22:39:15.51,70934115, -0.09, -16.97, 76.1, 594.099975586, -35.363216, 149.1654395, 0.778908550739, 0.0903429165483, -0.11674580723, 0.609516263008
2019-04-03 22:39:15.61,71034075, -0.06, -16.99, 76.0, 594.140014648, -35.3632151, 149.1654443, 0.77939003706, 0.0905131474137, -0.116771675646, 0.608870208263
2019-04-03 22:39:15.72,71134868, -0.05, -17.0, 75.91, 594.190002441, -35.3632141, 149.1654491, 0.779830574989, 0.0905197635293, -0.116867884994, 0.608286440372
2019-04-03 22:39:15.81,71234828, -0.06, -17.0, 75.85, 594.229980469, -35.363213, 149.1654539, 0.780184984207, 0.0904386788607, -0.116925217211, 0.607832789421
2019-04-03 22:39:15.91,71334788, -0.04, -17.01, 75.8, 594.270019531, -35.3632121, 149.1654587, 0.780407428741, 0.0905561074615, -0.117002852261, 0.607514798641
2019-04-03 22:39:16.01,71434748, -0.04, -17.06, 75.77, 594.309997559, -35.3632111, 149.1654637, 0.780500292778, 0.0907774940133, -0.117318935692, 0.607301354408
2019-04-03 22:39:16.11,71534708, -0.07, -17.11, 75.77, 594.359985352, -35.36321, 149.1654685, 0.78052097559, 0.0908488854766, -0.117800466716, 0.607170939445
2019-04-03 22:39:16.21,71634668, -0.1, -17.13, 75.77, 594.400024414, -35.363209, 149.1654734, 0.780505418777, 0.090778157115, -0.118144527078, 0.607134640217
2019-04-03 22:39:16.31,71734628, -0.11, -17.14, 75.78, 594.440002441, -35.363208, 149.1654782, 0.78044462204, 0.0907722786069, -0.118247941136, 0.607193648815
2019-04-03 22:39:16.41,71834588, -0.1, -17.14, 75.79, 594.479980469, -35.3632069, 149.1654831, 0.780352294445, 0.0908526033163, -0.118203356862, 0.607308924198
2019-04-03 22:39:16.51,71934548, -0.1, -17.14, 75.81, 594.530029297, -35.363206, 149.1654879, 0.780272126198, 0.090841203928, -0.118137486279, 0.607426404953
2019-04-03 22:39:16.61,72034508, -0.11, -17.12, 75.82, 594.570007324, -35.363205, 149.1654929, 0.78023147583, 0.0906904414296, -0.118087023497, 0.607510983944
2019-04-03 22:39:16.71,72134468, -0.11, -17.12, 75.83, 594.609985352, -35.3632038, 149.1654978, 0.780207037926, 0.0906532853842, -0.118059046566, 0.607553303242
2019-04-03 22:39:16.81,72234428, -0.11, -17.14, 75.83, 594.650024414, -35.3632029, 149.1655027, 0.780179440975, 0.0908066928387, -0.118206061423, 0.607537329197
2019-04-03 22:39:16.91,72334388, -0.1, -17.17, 75.82, 594.690002441, -35.3632019, 149.1655077, 0.780169129372, 0.0910479724407, -0.118399083614, 0.607476830482
2019-04-03 22:39:17.01,72434348, -0.09, -17.21, 75.81, 594.739990234, -35.3632008, 149.1655126, 0.780178070068, 0.091301202774, -0.118545405567, 0.607398808002
2019-04-03 22:39:17.11,72534308, -0.08, -17.23, 75.8, 594.780029297, -35.3631997, 149.1655175, 0.780218839645, 0.0914895012975, -0.118660323322, 0.607295691967
2019-04-03 22:39:17.21,72634268, -0.06, -17.27, 75.78, 594.820007324, -35.3631987, 149.1655226, 0.780251026154, 0.0918131396174, -0.118877477944, 0.607162952423
2019-04-03 22:39:17.31,72734228, -0.04, -17.31, 75.76, 594.859985352, -35.3631977, 149.1655275, 0.780301034451, 0.0921036079526, -0.119078248739, 0.607015311718
2019-04-03 22:39:17.41,72834188, -0.04, -17.31, 75.74, 594.909973145, -35.3631966, 149.1655324, 0.780411422253, 0.0921216234565, -0.11907094717, 0.606872081757
2019-04-03 22:39:17.51,72934148, -0.04, -17.3, 75.72, 594.950012207, -35.3631956, 149.1655375, 0.780541419983, 0.0920525789261, -0.118997886777, 0.606729745865
2019-04-03 22:39:17.61,73034108, -0.03, -17.3, 75.7, 594.989990234, -35.3631946, 149.1655424, 0.780649125576, 0.0920832455158, -0.118940539658, 0.606597721577
2019-04-03 22:39:17.71,73134068, 0.0, -17.31, 75.68, 595.030029297, -35.3631935, 149.1655475, 0.780713498592, 0.0923020243645, -0.118853770196, 0.606498658657
2019-04-03 22:39:17.82,73234861, 0.01, -17.33, 75.66, 595.070007324, -35.3631923, 149.1655525, 0.780751287937, 0.0925615355372, -0.118947640061, 0.606392025948
2019-04-03 22:39:17.91,73334821, 0.0, -17.36, 75.65, 595.119995117, -35.3631914, 149.1655576, 0.780791521072, 0.0926258638501, -0.119170792401, 0.606286585331
2019-04-03 22:39:18.01,73434781, -0.02, -17.38, 75.65, 595.159973145, -35.3631903, 149.1655626, 0.780827283859, 0.0925330892205, -0.119469895959, 0.606195807457
2019-04-03 22:39:18.11,73534741, -0.04, -17.39, 75.64, 595.200012207, -35.3631893, 149.1655677, 0.780853152275, 0.0923950299621, -0.119695611298, 0.60613900423
2019-04-03 22:39:18.21,73634701, -0.05, -17.39, 75.64, 595.239990234, -35.3631881, 149.1655728, 0.780865609646, 0.0923572555184, -0.11969268322, 0.606129288673
2019-04-03 22:39:18.31,73734661, -0.03, -17.38, 75.64, 595.280029297, -35.3631871, 149.1655778, 0.780857205391, 0.0924713984132, -0.11954806, 0.606151223183
2019-04-03 22:39:18.41,73834621, -0.01, -17.4, 75.64, 595.33001709, -35.3631861, 149.1655829, 0.780837774277, 0.0926749780774, -0.119561694562, 0.606142520905
2019-04-03 22:39:18.51,73934581, 0.0, -17.42, 75.64, 595.369995117, -35.363185, 149.1655879, 0.780819714069, 0.092875726521, -0.119672700763, 0.606113135815
2019-04-03 22:39:18.61,74034541, 0.0, -17.45, 75.63, 595.409973145, -35.3631838, 149.165593, 0.780805826187, 0.0930561795831, -0.11983268708, 0.606071710587
2019-04-03 22:39:18.71,74134501, 0.0, -17.47, 75.63, 595.450012207, -35.3631829, 149.165598, 0.780813097954, 0.0931433737278, -0.119953140616, 0.606025159359
2019-04-03 22:39:18.81,74234461, 0.0, -17.47, 75.62, 595.5, -35.3631818, 149.1656032, 0.780840039253, 0.093197606504, -0.120001092553, 0.605972647667
2019-04-03 22:39:18.91,74334421, 0.01, -17.49, 75.61, 595.539978027, -35.3631807, 149.1656083, 0.780864477158, 0.0933014973998, -0.120069682598, 0.605911552906
2019-04-03 22:39:19.01,74434381, 0.02, -17.49, 75.6, 595.58001709, -35.3631795, 149.1656133, 0.780900478363, 0.0933711379766, -0.120055504143, 0.60585719347
2019-04-03 22:39:19.11,74534341, 0.02, -17.49, 75.59, 595.619995117, -35.3631786, 149.1656185, 0.780953943729, 0.0933918133378, -0.120030917227, 0.605790019035
2019-04-03 22:39:19.21,74634301, 0.04, -17.51, 75.58, 595.659973145, -35.3631775, 149.1656236, 0.780981242657, 0.0935805365443, -0.120107226074, 0.605710566044
2019-04-03 22:39:19.31,74734261, 0.06, -17.55, 75.57, 595.710021973, -35.3631764, 149.1656286, 0.780979454517, 0.0939290151, -0.12027644366, 0.605625271797
2019-04-03 22:39:19.41,74834221, 0.06, -17.59, 75.56, 595.75, -35.3631753, 149.1656338, 0.7809933424, 0.0941461697221, -0.120483726263, 0.60553252697
2019-04-03 22:39:19.51,74934181, 0.05, -17.6, 75.55, 595.789978027, -35.3631743, 149.1656389, 0.781037032604, 0.0941142737865, -0.120718955994, 0.605434238911
2019-04-03 22:39:19.61,75034141, 0.01, -17.62, 75.54, 595.83001709, -35.3631732, 149.1656439, 0.781094014645, 0.0939195305109, -0.120986096561, 0.605337619781
2019-04-03 22:39:19.71,75134101, 0.0, -17.61, 75.54, 595.869995117, -35.3631721, 149.1656492, 0.781141519547, 0.0938188284636, -0.121034875512, 0.605282187462
2019-04-03 22:39:19.81,75234061, 0.01, -17.63, 75.53, 595.91998291, -35.363171, 149.1656543, 0.781149208546, 0.0939491838217, -0.121100828052, 0.605238854885
2019-04-03 22:39:19.91,75334854, 0.01, -17.65, 75.53, 595.960021973, -35.3631698, 149.1656595, 0.781152963638, 0.0940803289413, -0.121217496693, 0.6051902771
2019-04-03 22:39:20.01,75434814, 0.02, -17.67, 75.52, 596.0, -35.3631689, 149.1656646, 0.781154453754, 0.0942356064916, -0.121291801333, 0.605149328709
2019-04-03 22:39:20.11,75534774, 0.04, -17.66, 75.51, 596.039978027, -35.3631678, 149.1656698, 0.781180083752, 0.0942948684096, -0.121134594083, 0.605138480663
2019-04-03 22:39:20.21,75634734, 0.05, -17.66, 75.51, 596.090026855, -35.3631667, 149.165675, 0.781195759773, 0.0944011583924, -0.121084779501, 0.605111658573
2019-04-03 22:39:20.31,75734694, 0.06, -17.67, 75.5, 596.130004883, -35.3631655, 149.1656801, 0.781215846539, 0.0944751352072, -0.12111325562, 0.60506850481
2019-04-03 22:39:20.41,75834654, 0.05, -17.67, 75.5, 596.16998291, -35.3631644, 149.1656853, 0.781245648861, 0.0944608449936, -0.121212340891, 0.605012357235
2019-04-03 22:39:20.51,75934614, 0.01, -17.7, 75.49, 596.210021973, -35.3631634, 149.1656904, 0.781289637089, 0.0943102091551, -0.121606953442, 0.60489988327
2019-04-03 22:39:20.61,76034574, -0.02, -17.71, 75.48, 596.25, -35.3631624, 149.1656956, 0.781357944012, 0.0940595716238, -0.121931031346, 0.604785442352
2019-04-03 22:39:20.71,76134534, -0.05, -17.72, 75.47, 596.299987793, -35.3631613, 149.1657008, 0.7814219594, 0.0939054191113, -0.122175440192, 0.604677379131
2019-04-03 22:39:20.81,76234494, -0.06, -17.74, 75.46, 596.340026855, -35.3631601, 149.165706, 0.781471192837, 0.093910753727, -0.122340410948, 0.604579508305
2019-04-03 22:39:20.91,76334454, -0.04, -17.75, 75.45, 596.380004883, -35.3631591, 149.1657112, 0.781511247158, 0.0941253826022, -0.122266091406, 0.604509472847
2019-04-03 22:39:21.01,76434414, 0.0, -17.75, 75.43, 596.41998291, -35.363158, 149.1657163, 0.781550824642, 0.0943703502417, -0.122143574059, 0.604444861412
2019-04-03 22:39:21.11,76534374, 0.0, -17.76, 75.42, 596.469970703, -35.3631569, 149.1657215, 0.781599283218, 0.0945140942931, -0.122102200985, 0.604368031025
2019-04-03 22:39:21.21,76634334, 0.01, -17.77, 75.41, 596.510009766, -35.3631558, 149.1657267, 0.781652808189, 0.0945672616363, -0.12212831527, 0.604285240173
2019-04-03 22:39:21.31,76734294, 0.0, -17.76, 75.4, 596.549987793, -35.3631546, 149.165732, 0.781725466251, 0.0944547280669, -0.122133553028, 0.604207754135
2019-04-03 22:39:21.41,76834254, 0.0, -17.75, 75.39, 596.590026855, -35.3631535, 149.1657372, 0.781783044338, 0.0943967849016, -0.122093267739, 0.604150474072
2019-04-03 22:39:21.51,76934214, 0.01, -17.77, 75.38, 596.630004883, -35.3631525, 149.1657424, 0.78178447485, 0.0946055650711, -0.122171804309, 0.604100108147
2019-04-03 22:39:21.61,77034174, 0.05, -17.8, 75.37, 596.679992676, -35.3631514, 149.1657477, 0.78175842762, 0.0949918925762, -0.122135974467, 0.604080379009
2019-04-03 22:39:21.71,77134134, 0.09, -17.79, 75.37, 596.719970703, -35.3631503, 149.1657529, 0.781761825085, 0.0952111929655, -0.121893145144, 0.604090571404
2019-04-03 22:39:21.81,77234094, 0.11, -17.76, 75.37, 596.760009766, -35.3631491, 149.1657581, 0.78179448843, 0.0951927229762, -0.121605426073, 0.604109168053
2019-04-03 22:39:21.91,77334054, 0.11, -17.75, 75.36, 596.799987793, -35.363148, 149.1657632, 0.781825780869, 0.0951076820493, -0.121515534818, 0.604100167751
2019-04-03 22:39:22.01,77434847, 0.07, -17.78, 75.36, 596.840026855, -35.363147, 149.1657686, 0.781833946705, 0.095009855926, -0.121903806925, 0.604026734829
2019-04-03 22:39:22.11,77534807, 0.04, -17.83, 75.36, 596.890014648, -35.3631459, 149.1657737, 0.781810760498, 0.0950609147549, -0.122444964945, 0.603939294815
2019-04-03 22:39:22.21,77634767, 0.02, -17.87, 75.36, 596.929992676, -35.3631447, 149.165779, 0.781792283058, 0.0951464548707, -0.122784227133, 0.603880822659
2019-04-03 22:39:22.31,77734727, 0.03, -17.88, 75.35, 596.969970703, -35.3631436, 149.1657842, 0.781791269779, 0.0952315703034, -0.122873865068, 0.603850483894
2019-04-03 22:39:22.41,77834687, 0.03, -17.86, 75.35, 597.010009766, -35.3631424, 149.1657895, 0.7818364501, 0.0951197147369, -0.122689992189, 0.603847026825
2019-04-03 22:39:22.51,77934647, 0.03, -17.81, 75.35, 597.059997559, -35.3631413, 149.1657947, 0.781907618046, 0.0949020534754, -0.122402176261, 0.603847503662
2019-04-03 22:39:22.61,78034607, 0.03, -17.77, 75.34, 597.099975586, -35.3631403, 149.1658, 0.78198236227, 0.0946901664138, -0.122096769512, 0.603845775127
2019-04-03 22:39:22.71,78134567, 0.04, -17.73, 75.33, 597.140014648, -35.3631392, 149.1658053, 0.782050430775, 0.0945173278451, -0.121818341315, 0.603841006756
2019-04-03 22:39:22.81,78234527, 0.05, -17.73, 75.33, 597.179992676, -35.3631381, 149.1658105, 0.782088160515, 0.0945123285055, -0.121723532677, 0.603812038898
2019-04-03 22:39:22.91,78334487, 0.04, -17.74, 75.32, 597.229980469, -35.363137, 149.1658158, 0.782111167908, 0.0945474505424, -0.121879599988, 0.603745222092
2019-04-03 22:39:23.01,78434447, 0.03, -17.78, 75.31, 597.270019531, -35.3631358, 149.165821, 0.782121479511, 0.0946593880653, -0.122176855803, 0.603654265404
2019-04-03 22:39:23.11,78534407, 0.02, -17.8, 75.31, 597.309997559, -35.3631348, 149.1658263, 0.782142281532, 0.0947040393949, -0.122401937842, 0.603574633598
2019-04-03 22:39:23.21,78634367, 0.01, -17.8, 75.3, 597.349975586, -35.3631337, 149.1658315, 0.78218215704, 0.0946471840143, -0.122445449233, 0.603523075581
2019-04-03 22:39:23.31,78734327, 0.0, -17.79, 75.29, 597.390014648, -35.3631326, 149.1658368, 0.78224170208, 0.0944427624345, -0.122490257025, 0.603468835354
2019-04-03 22:39:23.41,78834287, -0.01, -17.8, 75.29, 597.440002441, -35.3631315, 149.1658421, 0.782267153263, 0.0944139659405, -0.122605539858, 0.603416979313
2019-04-03 22:39:23.51,78934247, -0.01, -17.82, 75.28, 597.479980469, -35.3631303, 149.1658473, 0.782271027565, 0.0945228934288, -0.122779734433, 0.603359460831
2019-04-03 22:39:23.61,79034207, -0.01, -17.84, 75.28, 597.520019531, -35.3631291, 149.1658526, 0.782282233238, 0.09461581707, -0.122892253101, 0.603307425976
2019-04-03 22:39:23.71,79134167, 0.0, -17.84, 75.27, 597.559997559, -35.3631281, 149.1658578, 0.782307744026, 0.0947085246444, -0.122856363654, 0.603267133236
2019-04-03 22:39:23.81,79234127, 0.02, -17.85, 75.26, 597.609985352, -35.363127, 149.1658631, 0.782317101955, 0.094935618341, -0.122805655003, 0.60322958231
2019-04-03 22:39:23.91,79334087, 0.05, -17.86, 75.25, 597.650024414, -35.3631259, 149.1658684, 0.782324194908, 0.0951883718371, -0.12271618098, 0.603198826313
2019-04-03 22:39:24.02,79434880, 0.07, -17.87, 75.25, 597.690002441, -35.3631248, 149.1658737, 0.782342374325, 0.0953282415867, -0.122646011412, 0.603167414665
2019-04-03 22:39:24.11,79534840, 0.07, -17.86, 75.24, 597.729980469, -35.3631236, 149.165879, 0.782388687134, 0.0952488258481, -0.122593685985, 0.603130578995
2019-04-03 22:39:24.21,79634800, 0.06, -17.86, 75.23, 597.770019531, -35.3631224, 149.1658842, 0.78241199255, 0.0952664986253, -0.122634314001, 0.603089213371
2019-04-03 22:39:24.31,79734760, 0.07, -17.89, 75.23, 597.820007324, -35.3631214, 149.1658895, 0.782404005527, 0.0954060554504, -0.122794859111, 0.603044867516
2019-04-03 22:39:24.41,79834720, 0.06, -17.89, 75.23, 597.859985352, -35.3631203, 149.1658948, 0.782419621944, 0.095365613699, -0.122830748558, 0.603023648262
2019-04-03 22:39:24.51,79934680, 0.04, -17.88, 75.23, 597.900024414, -35.3631192, 149.1659, 0.782452940941, 0.0951630622149, -0.122923009098, 0.602993667126
2019-04-03 22:39:24.61,80034640, 0.02, -17.87, 75.23, 597.940002441, -35.3631181, 149.1659053, 0.782491207123, 0.0949424654245, -0.122920632362, 0.602979302406
2019-04-03 22:39:24.71,80134600, 0.02, -17.85, 75.22, 597.989990234, -35.3631169, 149.1659106, 0.782519698143, 0.0948918610811, -0.122773692012, 0.602980196476
2019-04-03 22:39:24.81,80234560, 0.05, -17.84, 75.22, 598.030029297, -35.3631157, 149.1659158, 0.78253287077, 0.0950267314911, -0.122557200491, 0.602985918522
2019-04-03 22:39:24.91,80334520, 0.07, -17.85, 75.21, 598.070007324, -35.3631146, 149.1659211, 0.782524049282, 0.0952526479959, -0.122563235462, 0.602960467339
2019-04-03 22:39:25.01,80434480, 0.07, -17.88, 75.21, 598.109985352, -35.3631136, 149.1659264, 0.782522678375, 0.0953994393349, -0.122768089175, 0.60289734602
2019-04-03 22:39:25.11,80534440, 0.08, -17.93, 75.2, 598.159973145, -35.3631125, 149.1659317, 0.782498061657, 0.0956916287541, -0.123028174043, 0.602829933167
2019-04-03 22:39:25.21,80634400, 0.09, -17.95, 75.2, 598.200012207, -35.3631114, 149.165937, 0.782497346401, 0.0958490595222, -0.123118765652, 0.60278737545
2019-04-03 22:39:25.31,80734360, 0.1, -17.95, 75.19, 598.239990234, -35.3631102, 149.1659424, 0.78251260519, 0.0959058701992, -0.123103640974, 0.602761685848
2019-04-03 22:39:25.41,80834320, 0.1, -17.95, 75.19, 598.280029297, -35.363109, 149.1659477, 0.782526671886, 0.095948792994, -0.123114712536, 0.602734327316
2019-04-03 22:39:25.51,80934280, 0.1, -17.94, 75.18, 598.33001709, -35.3631079, 149.165953, 0.782566964626, 0.0958582311869, -0.122995018959, 0.602720797062
2019-04-03 22:39:25.61,81034240, 0.1, -17.9, 75.18, 598.369995117, -35.3631069, 149.1659583, 0.78261744976, 0.0956881865859, -0.122774660587, 0.602727234364
2019-04-03 22:39:25.71,81134200, 0.11, -17.87, 75.18, 598.409973145, -35.3631058, 149.1659636, 0.782661557198, 0.0955639854074, -0.122530579567, 0.602739334106
2019-04-03 22:39:25.81,81234160, 0.11, -17.85, 75.18, 598.450012207, -35.3631047, 149.1659689, 0.782703280449, 0.0954184755683, -0.122373700142, 0.602740049362
2019-04-03 22:39:25.91,81334120, 0.11, -17.85, 75.17, 598.5, -35.3631035, 149.1659742, 0.782717347145, 0.0954070091248, -0.122370660305, 0.602724313736
2019-04-03 22:39:26.01,81434080, 0.13, -17.88, 75.17, 598.539978027, -35.3631023, 149.1659795, 0.78267288208, 0.0957664474845, -0.122498176992, 0.602699041367
2019-04-03 22:39:26.12,81534873, 0.15, -17.92, 75.17, 598.58001709, -35.3631012, 149.1659848, 0.782629370689, 0.0961051285267, -0.122658759356, 0.602669000626
2019-04-03 22:39:26.21,81634833, 0.16, -17.92, 75.17, 598.619995117, -35.3631002, 149.16599, 0.782632350922, 0.0961503386497, -0.122542075813, 0.602681696415
2019-04-03 22:39:26.31,81734793, 0.15, -17.89, 75.16, 598.66998291, -35.363099, 149.1659953, 0.782681584358, 0.0959246009588, -0.122434347868, 0.602675616741
2019-04-03 22:39:26.41,81834753, 0.14, -17.88, 75.16, 598.710021973, -35.3630979, 149.1660006, 0.782726883888, 0.0957410037518, -0.122415840626, 0.602649688721
2019-04-03 22:39:26.51,81934713, 0.13, -17.88, 75.16, 598.75, -35.3630968, 149.1660059, 0.782749056816, 0.0957147777081, -0.122476868331, 0.602612614632
2019-04-03 22:39:26.61,82034673, 0.12, -17.9, 75.15, 598.789978027, -35.3630956, 149.1660114, 0.782761573792, 0.0957341343164, -0.122658737004, 0.602556288242
2019-04-03 22:39:26.71,82134633, 0.1, -17.91, 75.15, 598.83001709, -35.3630945, 149.1660167, 0.782784581184, 0.0957085937262, -0.122844107449, 0.602492809296
2019-04-03 22:39:26.81,82234593, 0.1, -17.91, 75.14, 598.880004883, -35.3630935, 149.166022, 0.782813608646, 0.0956891775131, -0.122833564878, 0.60246026516
2019-04-03 22:39:26.91,82334553, 0.12, -17.89, 75.14, 598.91998291, -35.3630923, 149.1660273, 0.782843887806, 0.0957213714719, -0.122620239854, 0.602459251881
2019-04-03 22:39:27.01,82434513, 0.14, -17.87, 75.13, 598.960021973, -35.3630912, 149.1660326, 0.782883048058, 0.095715560019, -0.122338317335, 0.602466642857
2019-04-03 22:39:27.11,82534473, 0.16, -17.86, 75.13, 599.0, -35.3630901, 149.1660379, 0.782906770706, 0.0957673490047, -0.122188158333, 0.602458059788
2019-04-03 22:39:27.21,82634433, 0.17, -17.87, 75.12, 599.039978027, -35.3630889, 149.1660432, 0.782920897007, 0.0958530604839, -0.122224994004, 0.602418601513
2019-04-03 22:39:27.31,82734393, 0.17, -17.88, 75.12, 599.090026855, -35.3630878, 149.1660484, 0.782933354378, 0.0959269851446, -0.122322313488, 0.602370858192
2019-04-03 22:39:27.41,82834353, 0.14, -17.89, 75.11, 599.130004883, -35.3630866, 149.1660538, 0.782965481281, 0.0958406254649, -0.122523114085, 0.602302074432
2019-04-03 22:39:27.51,82934313, 0.14, -17.89, 75.11, 599.16998291, -35.3630856, 149.1660592, 0.783002197742, 0.0957805141807, -0.122528173029, 0.602262794971
2019-04-03 22:39:27.61,83034273, 0.16, -17.87, 75.1, 599.210021973, -35.3630845, 149.1660645, 0.7830311656, 0.0958236753941, -0.122322686017, 0.602260112762
2019-04-03 22:39:27.71,83134233, 0.17, -17.87, 75.09, 599.25, -35.3630834, 149.1660698, 0.78304952383, 0.0958926528692, -0.122261241078, 0.602237701416
2019-04-03 22:39:27.81,83234193, 0.16, -17.9, 75.09, 599.299987793, -35.3630822, 149.1660751, 0.783056914806, 0.0959551632404, -0.122491210699, 0.602171361446
2019-04-03 22:39:27.91,83334153, 0.15, -17.92, 75.08, 599.340026855, -35.3630811, 149.1660804, 0.783072352409, 0.0959728211164, -0.122739121318, 0.602098047733
2019-04-03 22:39:28.01,83434113, 0.15, -17.93, 75.08, 599.380004883, -35.3630799, 149.1660857, 0.783084392548, 0.0960896834731, -0.12278213352, 0.60205489397
2019-04-03 22:39:28.11,83534073, 0.18, -17.93, 75.07, 599.41998291, -35.3630789, 149.1660911, 0.78309994936, 0.0962299406528, -0.122663490474, 0.60203653574
2019-04-03 22:39:28.22,83634866, 0.21, -17.93, 75.07, 599.460021973, -35.3630778, 149.1660963, 0.783115148544, 0.0963831692934, -0.12246979028, 0.602031707764
