Start,TimeUS,Roll,Pitch,Yaw,Alt,Lat,Lng,Q1,Q2,Q3,Q4,Category
2019-04-03 21:22:58.40,112815689, 0.0, 0.0, 353.0, 584.090026855, -35.363261, 149.1652299, 0.998134791851, 0.0, 0.0, -0.0610485821962,0
2019-04-03 21:22:58.50,112916482, 0.0, 0.0, 353.0, 584.090026855, -35.363261, 149.1652299, 0.998134791851, 0.0, 0.0, -0.0610485821962,0
2019-04-03 21:22:58.60,113016442, 0.0, 0.0, 353.0, 584.090026855, -35.363261, 149.1652299, 0.998134791851, 0.0, 0.0, -0.0610485821962,0
2019-04-03 21:22:58.70,113116402, 0.0, 0.0, 353.0, 584.090026855, -35.363261, 149.1652299, 0.998134791851, 0.0, 0.0, -0.0610485821962,0
2019-04-03 21:22:58.80,113216362, 0.0, 0.0, 353.0, 584.090026855, -35.363261, 149.1652299, 0.998134791851, 0.0, 0.0, -0.0610485821962,0
2019-04-03 21:22:58.90,113316322, 0.0, 0.0, 353.0, 584.090026855, -35.363261, 149.1652299, 0.998134791851, 0.0, 0.0, -0.0610485821962,0
2019-04-03 21:22:59.00,113416282, 0.0, 0.0, 353.0, 584.090026855, -35.363261, 149.1652299, 0.998134791851, 0.0, 0.0, -0.0610485821962,0
2019-04-03 21:22:59.10,113516242, 0.0, 0.0, 353.0, 584.090026855, -35.363261, 149.1652299, 0.998134791851, 0.0, 0.0, -0.0610485821962,0
2019-04-03 21:22:59.20,113616202, 0.0, 0.0, 353.0, 584.090026855, -35.363261, 149.1652299, 0.998134791851, 0.0, 0.0, -0.0610485821962,0
2019-04-03 21:22:59.30,113716162, 0.0, 0.0, 353.0, 584.090026855, -35.363261, 149.1652299, 0.998134791851, 0.0, 0.0, -0.0610485821962,0
2019-04-03 21:22:59.40,113816122, 0.0, 0.0, 353.0, 584.090026855, -35.363261, 149.1652299, 0.998134791851, 0.0, 0.0, -0.0610485821962,0
2019-04-03 21:22:59.50,113916082, 0.0, 0.0, 353.0, 584.090026855, -35.363261, 149.1652299, 0.998134791851, 0.0, 0.0, -0.0610485821962,0
2019-04-03 21:22:59.60,114016042, 0.0, 0.0, 353.0, 584.090026855, -35.363261, 149.1652299, 0.998134791851, 0.0, 0.0, -0.0610485821962,0
2019-04-03 21:22:59.70,114116002, 0.0, 0.0, 353.0, 584.090026855, -35.363261, 149.1652299, 0.998134791851, 0.0, 0.0, -0.0610485821962,0
2019-04-03 21:22:59.80,114215962, 0.0, 0.0, 353.0, 584.090026855, -35.363261, 149.1652299, 0.998134791851, 0.0, 0.0, -0.0610485821962,0
2019-04-03 21:22:59.90,114315922, 0.0, 0.0, 353.0, 584.090026855, -35.363261, 149.1652299, 0.998134791851, 0.0, 0.0, -0.0610485821962,0
2019-04-03 21:23:00.00,114415882, 0.0, 0.0, 353.0, 584.090026855, -35.363261, 149.1652299, 0.998134791851, 0.0, 0.0, -0.0610485821962,0
2019-04-03 21:23:00.10,114515842, 0.0, 0.0, 353.0, 584.090026855, -35.363261, 149.1652299, 0.998134791851, 0.0, 0.0, -0.0610485821962,0
2019-04-03 21:23:00.20,114615802, 0.0, 0.0, 353.0, 584.090026855, -35.363261, 149.1652299, 0.998134791851, 0.0, 0.0, -0.0610485821962,0
2019-04-03 21:23:00.30,114715762, 0.0, 0.0, 353.0, 584.090026855, -35.363261, 149.1652299, 0.998134791851, 0.0, 0.0, -0.0610485821962,0
2019-04-03 21:23:00.40,114815722, 0.0, 0.0, 353.0, 584.090026855, -35.363261, 149.1652299, 0.998134791851, 0.0, 0.0, -0.0610485821962,0
2019-04-03 21:23:00.49,114915682, 0.0, 0.0, 353.0, 584.090026855, -35.363261, 149.1652299, 0.998134791851, 0.0, 0.0, -0.0610485821962,0
2019-04-03 21:23:00.60,115016475, 0.0, 0.0, 353.0, 584.090026855, -35.363261, 149.1652299, 0.998134791851, 0.0, 0.0, -0.0610485821962,0
2019-04-03 21:23:00.70,115116435, 0.0, 0.0, 353.0, 584.090026855, -35.363261, 149.1652299, 0.998134791851, 0.0, 0.0, -0.0610485821962,0
2019-04-03 21:23:00.80,115216395, 0.0, 0.0, 353.0, 584.090026855, -35.363261, 149.1652299, 0.998134791851, 0.0, 0.0, -0.0610485821962,0
2019-04-03 21:23:00.90,115316355, 0.0, 0.0, 353.0, 584.090026855, -35.363261, 149.1652299, 0.998134791851, 0.0, 0.0, -0.0610485821962,0
2019-04-03 21:23:01.00,115416315, 0.0, 0.0, 353.0, 584.090026855, -35.363261, 149.1652299, 0.998134791851, 0.0, 0.0, -0.0610485821962,0
2019-04-03 21:23:01.10,115516275, 0.0, 0.0, 353.0, 584.090026855, -35.363261, 149.1652299, 0.998134791851, 0.0, 0.0, -0.0610485821962,0
2019-04-03 21:23:01.20,115616235, 0.0, 0.0, 353.0, 584.090026855, -35.363261, 149.1652299, 0.998134791851, 0.0, 0.0, -0.0610485821962,0
2019-04-03 21:23:01.30,115716195, 0.0, 0.0, 353.0, 584.090026855, -35.363261, 149.1652299, 0.998134791851, 0.0, 0.0, -0.0610485821962,0
2019-04-03 21:23:01.40,115816155, 0.0, 0.0, 353.0, 584.090026855, -35.363261, 149.1652299, 0.998134791851, 0.0, 0.0, -0.0610485821962,0
2019-04-03 21:23:01.50,115916115, 0.0, 0.0, 353.0, 584.090026855, -35.363261, 149.1652299, 0.998134791851, 0.0, 0.0, -0.0610485821962,0
2019-04-03 21:23:01.60,116016075, 0.0, 0.0, 353.0, 584.090026855, -35.363261, 149.1652299, 0.998134791851, 0.0, 0.0, -0.0610485821962,0
2019-04-03 21:23:01.70,116116035, 0.0, 0.0, 353.0, 584.090026855, -35.363261, 149.1652299, 0.998134791851, 0.0, 0.0, -0.0610485821962,0
2019-04-03 21:23:01.80,116215995, 0.0, 0.0, 353.0, 584.090026855, -35.363261, 149.1652299, 0.998134791851, 0.0, 0.0, -0.0610485821962,0
2019-04-03 21:23:01.90,116315955, 0.0, 0.0, 353.0, 584.090026855, -35.363261, 149.1652299, 0.998134791851, 0.0, 0.0, -0.0610485821962,0
2019-04-03 21:23:02.00,116415915, 0.0, 0.0, 353.0, 584.090026855, -35.363261, 149.1652299, 0.998134791851, 0.0, 0.0, -0.0610486753285,0
2019-04-03 21:23:02.10,116515875, 0.0, 0.0, 353.0, 584.090026855, -35.363261, 149.1652299, 0.998134791851, 0.0, 0.0, -0.0610486753285,0
2019-04-03 21:23:02.20,116615835, 0.0, 0.0, 353.0, 584.090026855, -35.363261, 149.1652299, 0.998134791851, 0.0, 0.0, -0.0610486753285,0
2019-04-03 21:23:02.30,116715795, 0.0, 0.0, 353.0, 584.090026855, -35.363261, 149.1652299, 0.998134791851, 0.0, 0.0, -0.0610486753285,0
2019-04-03 21:23:02.40,116815755, 0.0, 0.0, 353.0, 584.090026855, -35.363261, 149.1652299, 0.998134791851, 0.0, 0.0, -0.0610486753285,0
2019-04-03 21:23:02.50,116915715, 0.0, 0.0, 353.0, 584.090026855, -35.363261, 149.1652299, 0.998134791851, 0.0, 0.0, -0.0610486753285,0
2019-04-03 21:23:02.59,117015675, 0.0, 0.0, 353.0, 584.090026855, -35.363261, 149.1652299, 0.998134791851, 0.0, 0.0, -0.0610486753285,0
2019-04-03 21:23:02.70,117116468, 0.0, 0.0, 353.0, 584.090026855, -35.363261, 149.1652299, 0.998134791851, 0.0, 0.0, -0.0610486753285,0
2019-04-03 21:23:02.80,117216428, 0.0, 0.0, 353.0, 584.099975586, -35.363261, 149.1652299, 0.998134791851, 0.0, 0.0, -0.0610486529768,0
2019-04-03 21:23:02.90,117316388, 0.0, 0.0, 353.0, 584.099975586, -35.363261, 149.1652299, 0.998134791851, 0.0, 0.0, -0.0610486753285,0
2019-04-03 21:23:03.00,117416348, 0.0, 0.0, 353.0, 584.119995117, -35.363261, 149.1652299, 0.998134791851, 0.0, 0.0, -0.0610486753285,0
2019-04-03 21:23:03.10,117516308, 0.0, 0.0, 353.0, 584.140014648, -35.363261, 149.1652299, 0.998134791851, 0.0, 0.0, -0.0610486753285,0
2019-04-03 21:23:03.20,117616268, 0.0, 0.0, 353.0, 584.16998291, -35.363261, 149.1652299, 0.998134791851, 0.0, 0.0, -0.0610486753285,0
2019-04-03 21:23:03.30,117716228, 0.0, 0.0, 353.0, 584.210021973, -35.363261, 149.1652299, 0.998134791851, 0.0, 0.0, -0.0610486753285,0
2019-04-03 21:23:03.40,117816188, -0.03, -0.04, 352.99, 584.260009766, -35.363261, 149.1652299, 0.998134255409, -0.000345603009919, -0.00036396633368, -0.0610553137958,0
2019-04-03 21:23:03.50,117916148, -0.1, -0.14, 352.99, 584.369995117, -35.363261, 149.1652299, 0.9981315732, -0.00101596082095, -0.00123184185941, -0.0610806941986,0
2019-04-03 21:23:03.60,118016108, -0.19, -0.27, 352.99, 584.510009766, -35.363261, 149.1652299, 0.998126029968, -0.00185064342804, -0.00227514165454, -0.0611214712262,0
2019-04-03 21:23:03.70,118116068, -0.25, -0.35, 352.98, 584.66998291, -35.363261, 149.1652299, 0.998120248318, -0.00243245391175, -0.0029186415486, -0.0611685328186,0
2019-04-03 21:23:03.80,118216028, -0.25, -0.36, 352.98, 584.820007324, -35.363261, 149.1652299, 0.998116850853, -0.00240877154283, -0.00308049772866, -0.0612167678773,0
2019-04-03 21:23:03.90,118315988, -0.19, -0.31, 352.97, 584.979980469, -35.363261, 149.1652299, 0.99811643362, -0.0018844694132, -0.00264128949493, -0.0612624138594,0
2019-04-03 21:23:04.00,118415948, -0.12, -0.21, 352.97, 585.130004883, -35.363261, 149.1652299, 0.998116672039, -0.00124244380277, -0.00184128480032, -0.0613038539886,0
2019-04-03 21:23:04.10,118515908, -0.07, -0.12, 352.96, 585.289978027, -35.363261, 149.1652299, 0.998116254807, -0.000744228425901, -0.00105323607568, -0.0613375715911,0
2019-04-03 21:23:04.20,118615868, -0.05, -0.07, 352.96, 585.450012207, -35.363261, 149.1652299, 0.998115003109, -0.000549195450731, -0.000599243445322, -0.0613656975329,0
2019-04-03 21:23:04.30,118715828, -0.05, -0.06, 352.96, 585.630004883, -35.3632609, 149.1652298, 0.998113870621, -0.000515141058713, -0.000520008383319, -0.0613859184086,0
2019-04-03 21:23:04.40,118815788, -0.05, -0.08, 352.96, 585.799987793, -35.3632609, 149.1652298, 0.998113811016, -0.000510467623826, -0.000709408312105, -0.0613852627575,0
2019-04-03 21:23:04.50,118915748, -0.05, -0.08, 352.96, 585.989990234, -35.3632609, 149.1652298, 0.998114168644, -0.000536490173545, -0.000728957063984, -0.0613786391914,0
2019-04-03 21:23:04.60,119015708, -0.05, -0.06, 352.96, 586.16998291, -35.3632609, 149.1652298, 0.998114526272, -0.000555796083063, -0.000564965419471, -0.0613742731512,0
2019-04-03 21:23:04.69,119115668, -0.04, -0.01, 352.96, 586.349975586, -35.3632609, 149.1652298, 0.9981148839, -0.000393333495595, -0.000115650400403, -0.06137252599,0
2019-04-03 21:23:04.80,119216461, -0.01, 0.05, 352.96, 586.530029297, -35.3632608, 149.1652298, 0.998114705086, -0.000140046569868, 0.000459228234831, -0.0613746643066,0
2019-04-03 21:23:04.90,119316421, 0.0, 0.1, 352.96, 586.700012207, -35.3632608, 149.1652298, 0.998113930225, 2.12036811718e-05, 0.000935203279369, -0.0613816790283,0
2019-04-03 21:23:05.00,119416381, -0.11, 0.09, 352.96, 586.849975586, -35.3632608, 149.1652298, 0.998112976551, -0.000927253393456, 0.000927891524043, -0.0613902509212,0
2019-04-03 21:23:05.10,119516341, -0.49, -0.01, 352.96, 587.0, -35.3632608, 149.1652298, 0.998104333878, -0.00428170803934, 0.000129625492264, -0.0613950565457,0
2019-04-03 21:23:05.20,119616301, -1.14, -0.25, 352.96, 587.130004883, -35.3632608, 149.1652298, 0.998060584068, -0.0101374126971, -0.00164517958183, -0.0613974109292,0
2019-04-03 21:23:05.30,119716261, -2.0, -0.6, 352.96, 587.25, -35.3632608, 149.1652297, 0.997946321964, -0.0177640262991, -0.00420450279489, -0.0613994970918,0
2019-04-03 21:23:05.40,119816221, -2.97, -1.02, 352.98, 587.349975586, -35.3632608, 149.1652297, 0.997733771801, -0.0264932177961, -0.00732764462009, -0.0614140927792,0
2019-04-03 21:23:05.50,119916181, -3.94, -1.42, 352.99, 587.450012207, -35.3632607, 149.1652294, 0.99743616581, -0.0351493544877, -0.0103308884427, -0.0614728145301,0
2019-04-03 21:23:05.60,120016141, -4.76, -1.76, 353.0, 587.530029297, -35.3632607, 149.1652293, 0.997116565704, -0.0424317233264, -0.0128666162491, -0.0615843273699,0
2019-04-03 21:23:05.70,120116101, -5.37, -2.03, 353.0, 587.599975586, -35.3632605, 149.1652291, 0.996832609177, -0.0478735044599, -0.014832239598, -0.0617486052215,0
2019-04-03 21:23:05.80,120216061, -5.81, -2.23, 352.99, 587.66998291, -35.3632605, 149.1652288, 0.996600985527, -0.0517781116068, -0.0163561273366, -0.0619520433247,0
2019-04-03 21:23:05.90,120316021, -6.16, -2.4, 352.98, 587.719970703, -35.3632604, 149.1652283, 0.996398210526, -0.0549026764929, -0.0175913050771, -0.0621841959655,0
2019-04-03 21:23:06.00,120415981, -6.49, -2.56, 352.97, 587.770019531, -35.3632604, 149.1652278, 0.996192097664, -0.0578867197037, -0.0188030060381, -0.0624244734645,0
2019-04-03 21:23:06.10,120515941, -6.84, -2.72, 352.96, 587.820007324, -35.3632603, 149.1652272, 0.995964050293, -0.061060782522, -0.0199881829321, -0.0626708716154,0
2019-04-03 21:23:06.20,120615901, -7.2, -2.89, 352.95, 587.849975586, -35.3632601, 149.1652265, 0.995724022388, -0.0642181932926, -0.0212807264179, -0.0629040449858,0
2019-04-03 21:23:06.30,120715861, -7.52, -3.04, 352.94, 587.890014648, -35.3632599, 149.1652258, 0.995497524738, -0.0670619979501, -0.0223875436932, -0.0631365850568,0
2019-04-03 21:23:06.40,120815821, -7.75, -3.15, 352.92, 587.91998291, -35.3632598, 149.1652249, 0.99531775713, -0.0691863447428, -0.0232766419649, -0.0633567497134,0
2019-04-03 21:23:06.50,120915781, -7.91, -3.24, 352.91, 587.950012207, -35.3632596, 149.1652239, 0.99518930912, -0.0706356465816, -0.0238935649395, -0.0635449141264,0
2019-04-03 21:23:06.60,121015741, -8.03, -3.3, 352.9, 587.979980469, -35.3632593, 149.1652229, 0.995091199875, -0.0717164576054, -0.0243548806757, -0.0636952221394,0
2019-04-03 21:23:06.70,121115701, -8.13, -3.35, 352.9, 588.0, -35.3632591, 149.1652217, 0.995012819767, -0.0725534707308, -0.0247891359031, -0.0638042539358,0
2019-04-03 21:23:06.79,121215661, -8.22, -3.4, 352.89, 588.030029297, -35.3632587, 149.1652205, 0.994935810566, -0.0734182819724, -0.0251352582127, -0.0638803616166,0
2019-04-03 21:23:06.90,121316454, -8.41, -3.41, 352.88, 588.049987793, -35.3632586, 149.1652192, 0.994805634022, -0.0750188156962, -0.0250960811973, -0.064063899219,0
2019-04-03 21:23:07.00,121416414, -8.79, -3.24, 352.58, 588.08001709, -35.3632583, 149.1652178, 0.994434952736, -0.0782782137394, -0.0232003852725, -0.0665835514665,0
2019-04-03 21:23:07.10,121516374, -9.34, -2.93, 351.36, 588.099975586, -35.3632579, 149.1652163, 0.993367910385, -0.0830869823694, -0.0193262435496, -0.0770932137966,0
2019-04-03 21:23:07.20,121616334, -9.86, -2.85, 348.61, 588.130004883, -35.3632576, 149.1652147, 0.990866839886, -0.0879834219813, -0.016154916957, -0.100900180638,0
2019-04-03 21:23:07.30,121716294, -10.16, -3.28, 344.24, 588.150024414, -35.3632573, 149.1652131, 0.985918402672, -0.0916327014565, -0.0161830075085, -0.138947665691,0
2019-04-03 21:23:07.40,121816254, -10.1, -4.35, 338.45, 588.16998291, -35.363257, 149.1652112, 0.977238118649, -0.0934884473681, -0.020724363625, -0.189304232597,0
2019-04-03 21:23:07.50,121916214, -9.56, -5.92, 331.51, 588.200012207, -35.3632567, 149.1652093, 0.963540732861, -0.0933380424976, -0.0294463764876, -0.249018520117,0
2019-04-03 21:23:07.60,122016174, -8.48, -7.81, 323.69, 588.229980469, -35.3632565, 149.1652074, 0.94384676218, -0.0913072600961, -0.0415653251112, -0.314783453941,0
2019-04-03 21:23:07.70,122116134, -6.91, -9.75, 315.24, 588.260009766, -35.3632561, 149.1652054, 0.917724132538, -0.0879031866789, -0.0556347705424, -0.383353918791,0
2019-04-03 21:23:07.80,122216094, -4.92, -11.5, 306.44, 588.289978027, -35.3632559, 149.1652033, 0.885524511337, -0.0832364037633, -0.0701445415616, -0.451661139727,0
2019-04-03 21:23:07.90,122316054, -2.62, -12.79, 297.58, 588.320007324, -35.3632555, 149.165201, 0.848432898521, -0.0771837234497, -0.0834732502699, -0.516949236393,0
2019-04-03 21:23:08.00,122416014, -0.08, -13.53, 289.02, 588.349975586, -35.3632552, 149.1651987, 0.808509647846, -0.0690322592854, -0.0955396294594, -0.576557815075,0
2019-04-03 21:23:08.10,122515974, 2.67, -13.73, 281.38, 588.390014648, -35.3632548, 149.1651963, 0.769743978977, -0.0578175038099, -0.107167392969, -0.626631081104,0
2019-04-03 21:23:08.20,122615934, 5.2, -13.51, 275.4, 588.41998291, -35.3632543, 149.1651937, 0.737352371216, -0.0457776002586, -0.117276370525, -0.66367328167,0
2019-04-03 21:23:08.30,122715894, 7.03, -13.13, 271.48, 588.460021973, -35.3632537, 149.165191, 0.71505767107, -0.036020886153, -0.124260149896, -0.686989426613,0
2019-04-03 21:23:08.40,122815854, 7.93, -12.82, 269.58, 588.5, -35.3632531, 149.1651884, 0.703924536705, -0.0306253340095, -0.127264648676, -0.698108911514,0
2019-04-03 21:23:08.50,122915814, 7.86, -12.74, 269.41, 588.539978027, -35.3632525, 149.1651856, 0.702901482582, -0.0307459440082, -0.126386925578, -0.699292957783,0
2019-04-03 21:23:08.60,123015774, 6.96, -12.96, 270.61, 588.58001709, -35.3632518, 149.1651828, 0.709841191769, -0.0363634079695, -0.122508622706, -0.692672252655,0
2019-04-03 21:23:08.70,123115734, 5.43, -13.42, 272.8, 588.619995117, -35.3632509, 149.1651798, 0.722241044044, -0.0464119315147, -0.117058858275, -0.680081665516,0
2019-04-03 21:23:08.80,123215694, 3.56, -14.03, 275.64, 588.66998291, -35.36325, 149.1651767, 0.737739980221, -0.0590723194182, -0.111237049103, -0.663231909275,0
2019-04-03 21:23:08.90,123316487, 1.59, -14.63, 278.84, 588.710021973, -35.3632491, 149.1651737, 0.754438519478, -0.0723320245743, -0.105675823987, -0.643757104874,0
2019-04-03 21:23:09.00,123416447, -0.21, -15.08, 282.0, 588.760009766, -35.3632482, 149.1651705, 0.770303964615, -0.0840562582016, -0.100790925324, -0.624025285244,0
2019-04-03 21:23:09.10,123516407, -1.71, -15.33, 284.81, 588.809997559, -35.3632473, 149.1651673, 0.783959448338, -0.0931357741356, -0.0966700091958, -0.606125593185,0
2019-04-03 21:23:09.20,123616367, -2.78, -15.42, 286.99, 588.849975586, -35.3632464, 149.165164, 0.794368207455, -0.0991367399693, -0.093530036509, -0.59194868803,0
2019-04-03 21:23:09.30,123716327, -3.36, -15.4, 288.39, 588.900024414, -35.3632456, 149.1651606, 0.801070809364, -0.102022893727, -0.0916507393122, -0.582646608353,0
2019-04-03 21:23:09.40,123816287, -3.48, -15.35, 288.99, 588.950012207, -35.3632447, 149.165157, 0.804072678089, -0.102119266987, -0.0912179127336, -0.578548312187,0
2019-04-03 21:23:09.50,123916247, -3.23, -15.32, 288.87, 589.0, -35.363244, 149.1651533, 0.803690671921, -0.100271746516, -0.0921488925815, -0.5792542696,0
2019-04-03 21:23:09.60,124016207, -2.67, -15.35, 288.16, 589.049987793, -35.3632432, 149.1651498, 0.800532996655, -0.0970552191138, -0.0946194007993, -0.583758890629,0
2019-04-03 21:23:09.70,124116167, -1.92, -15.43, 287.04, 589.099975586, -35.3632424, 149.165146, 0.795367717743, -0.093177869916, -0.0980437844992, -0.590843081474,0
2019-04-03 21:23:09.80,124216127, -1.09, -15.54, 285.72, 589.150024414, -35.3632416, 149.1651422, 0.789066493511, -0.0891516283154, -0.102086313069, -0.599169790745,0
2019-04-03 21:23:09.90,124316087, -0.29, -15.66, 284.38, 589.200012207, -35.3632409, 149.1651384, 0.782493770123, -0.0855701342225, -0.106118291616, -0.607552647591,0
2019-04-03 21:23:10.00,124416047, 0.38, -15.78, 283.18, 589.25, -35.3632401, 149.1651345, 0.776448845863, -0.0826931744814, -0.109721668065, -0.615020513535,0
2019-04-03 21:23:10.10,124516007, 0.89, -15.86, 282.22, 589.289978027, -35.3632392, 149.1651305, 0.771576821804, -0.0805779322982, -0.112268924713, -0.620944559574,0
2019-04-03 21:23:10.20,124615967, 1.19, -15.89, 281.57, 589.340026855, -35.3632385, 149.1651264, 0.768242001534, -0.0794312879443, -0.113660432398, -0.624960958958,0
2019-04-03 21:23:10.30,124715927, 1.27, -15.92, 281.25, 589.390014648, -35.3632377, 149.1651225, 0.766536176205, -0.0793779864907, -0.114080093801, -0.626982569695,0
2019-04-03 21:23:10.40,124815887, 1.17, -15.95, 281.24, 589.440002441, -35.3632368, 149.1651183, 0.766373157501, -0.0801884010434, -0.113755382597, -0.627137720585,0
2019-04-03 21:23:10.50,124915847, 0.96, -15.98, 281.48, 589.489990234, -35.363236, 149.1651143, 0.767502009869, -0.0815425887704, -0.112919211388, -0.625732183456,0
2019-04-03 21:23:10.60,125015807, 0.66, -16.0, 281.9, 589.539978027, -35.3632352, 149.1651101, 0.769534826279, -0.083278901875, -0.111716978252, -0.623217582703,0
2019-04-03 21:23:10.70,125115767, 0.33, -16.01, 282.41, 589.590026855, -35.3632342, 149.1651058, 0.772077202797, -0.0850326567888, -0.110391452909, -0.620064496994,0
2019-04-03 21:23:10.80,125215727, 0.0, -16.03, 282.95, 589.640014648, -35.3632334, 149.1651016, 0.774711728096, -0.0868216976523, -0.109190046787, -0.61673438549,0
2019-04-03 21:23:10.89,125315687, -0.29, -16.06, 283.44, 589.690002441, -35.3632324, 149.1650973, 0.777106881142, -0.0885302647948, -0.108112856746, -0.613660216331,0
2019-04-03 21:23:11.00,125416480, -0.52, -16.11, 283.85, 589.739990234, -35.3632316, 149.1650931, 0.779045522213, -0.0899971500039, -0.107563391328, -0.611079990864,0
2019-04-03 21:23:11.10,125516440, -0.66, -16.17, 284.13, 589.789978027, -35.3632307, 149.1650888, 0.780368328094, -0.0910392776132, -0.107410900295, -0.609261929989,0
2019-04-03 21:23:11.20,125616400, -0.68, -16.23, 284.28, 589.849975586, -35.3632299, 149.1650843, 0.781089425087, -0.0913492739201, -0.10780903697, -0.608220219612,0
2019-04-03 21:23:11.30,125716360, -0.62, -16.28, 284.31, 589.900024414, -35.3632289, 149.16508, 0.781234562397, -0.0911486297846, -0.108513638377, -0.607938587666,0
2019-04-03 21:23:11.40,125816320, -0.52, -16.33, 284.23, 589.950012207, -35.3632281, 149.1650756, 0.780874609947, -0.0908146724105, -0.109300620854, -0.608309924603,0
2019-04-03 21:23:11.50,125916280, -0.4, -16.37, 284.09, 590.0, -35.3632273, 149.1650711, 0.780160069466, -0.0902929753065, -0.110136635602, -0.609152972698,0
2019-04-03 21:23:11.60,126016240, -0.25, -16.39, 283.9, 590.049987793, -35.3632263, 149.1650666, 0.779252290726, -0.0896086394787, -0.110965639353, -0.610264539719,0
2019-04-03 21:23:11.70,126116200, -0.11, -16.41, 283.7, 590.099975586, -35.3632255, 149.1650621, 0.778286516666, -0.0889859721065, -0.11167434603, -0.611457705498,0
2019-04-03 21:23:11.80,126216160, -0.01, -16.43, 283.52, 590.150024414, -35.3632245, 149.1650575, 0.777385592461, -0.088582277298, -0.112153224647, -0.612573683262,0
2019-04-03 21:23:11.90,126316120, 0.02, -16.44, 283.38, 590.200012207, -35.3632238, 149.165053, 0.776637613773, -0.0884601548314, -0.112352915108, -0.613502800465,0
2019-04-03 21:23:12.00,126416080, 0.05, -16.44, 283.28, 590.25, -35.3632228, 149.1650484, 0.77613568306, -0.0883546620607, -0.112428881228, -0.614138960838,0
2019-04-03 21:23:12.10,126516040, 0.07, -16.45, 283.23, 590.299987793, -35.363222, 149.1650438, 0.775880217552, -0.0883144885302, -0.112577974796, -0.614440143108,0
2019-04-03 21:23:12.20,126616000, 0.09, -16.48, 283.23, 590.349975586, -35.363221, 149.1650392, 0.775847911835, -0.0884109884501, -0.112877681851, -0.614412128925,0
2019-04-03 21:23:12.30,126715960, 0.08, -16.54, 283.27, 590.400024414, -35.3632201, 149.1650345, 0.77600479126, -0.0886988714337, -0.113260664046, -0.614101886749,0
2019-04-03 21:23:12.40,126815920, 0.06, -16.61, 283.34, 590.450012207, -35.3632191, 149.1650298, 0.776295781136, -0.0891711711884, -0.113671071827, -0.613589644432,0
2019-04-03 21:23:12.50,126915880, 0.01, -16.66, 283.43, 590.5, -35.3632183, 149.1650252, 0.776685595512, -0.0897291377187, -0.113847516477, -0.612982034683,0
2019-04-03 21:23:12.60,127015840, -0.04, -16.7, 283.53, 590.549987793, -35.3632173, 149.1650206, 0.777131259441, -0.0902092009783, -0.113874807954, -0.612341284752,0
2019-04-03 21:23:12.70,127115800, -0.08, -16.71, 283.63, 590.599975586, -35.3632165, 149.1650158, 0.777605116367, -0.0904460921884, -0.113792449236, -0.611719846725,0
2019-04-03 21:23:12.80,127215760, -0.1, -16.71, 283.71, 590.650024414, -35.3632154, 149.165011, 0.778058826923, -0.0904769897461, -0.113762162626, -0.611143648624,0
2019-04-03 21:23:12.90,127315720, -0.11, -16.71, 283.79, 590.700012207, -35.3632146, 149.1650063, 0.778441369534, -0.0904512405396, -0.113773480058, -0.610658049583,0
2019-04-03 21:23:12.99,127415680, -0.11, -16.72, 283.84, 590.75, -35.3632136, 149.1650015, 0.778707802296, -0.0904892981052, -0.113897480071, -0.610289394855,0
2019-04-03 21:23:13.10,127516473, -0.12, -16.76, 283.87, 590.809997559, -35.3632127, 149.1649967, 0.778841972351, -0.0906843021512, -0.114129960537, -0.610045850277,0
2019-04-03 21:23:13.20,127616433, -0.12, -16.79, 283.89, 590.859985352, -35.3632117, 149.1649919, 0.778874099255, -0.0909152403474, -0.114326305687, -0.609933674335,0
2019-04-03 21:23:13.30,127716393, -0.13, -16.83, 283.89, 590.909973145, -35.3632109, 149.1649871, 0.778839290142, -0.0911301523447, -0.114555262029, -0.609903097153,0
2019-04-03 21:23:13.40,127816353, -0.12, -16.86, 283.88, 590.960021973, -35.3632099, 149.1649823, 0.778764843941, -0.0912692993879, -0.114758603275, -0.609939098358,0
2019-04-03 21:23:13.50,127916313, -0.1, -16.87, 283.86, 591.010009766, -35.363209, 149.1649775, 0.778699874878, -0.0911463648081, -0.114967882633, -0.610001027584,0
2019-04-03 21:23:13.60,128016273, -0.07, -16.88, 283.85, 591.059997559, -35.363208, 149.1649727, 0.778621017933, -0.0910616368055, -0.1151458323, -0.610080778599,0
2019-04-03 21:23:13.70,128116233, -0.05, -16.89, 283.83, 591.109985352, -35.363207, 149.1649679, 0.778542757034, -0.0910205766559, -0.11535500735, -0.610147297382,0
2019-04-03 21:23:13.80,128216193, -0.02, -16.92, 283.82, 591.159973145, -35.3632061, 149.164963, 0.778496980667, -0.0909199714661, -0.115664422512, -0.610162079334,0
2019-04-03 21:23:13.90,128316153, 0.01, -16.94, 283.82, 591.210021973, -35.3632051, 149.1649581, 0.778491377831, -0.0908044204116, -0.116062872112, -0.61011081934,0
2019-04-03 21:23:14.00,128416113, 0.05, -16.98, 283.83, 591.260009766, -35.3632042, 149.1649532, 0.778521060944, -0.0907315611839, -0.116519294679, -0.60999673605,0
2019-04-03 21:23:14.10,128516073, 0.06, -17.01, 283.84, 591.309997559, -35.3632032, 149.1649483, 0.7785846591, -0.0908062681556, -0.116820193827, -0.609846889973,0
2019-04-03 21:23:14.20,128616033, 0.05, -17.03, 283.87, 591.359985352, -35.3632023, 149.1649435, 0.778681218624, -0.0909753590822, -0.116909302771, -0.609681248665,0
2019-04-03 21:23:14.30,128715993, 0.03, -17.04, 283.9, 591.409973145, -35.3632013, 149.1649385, 0.778819024563, -0.0911072716117, -0.116857878864, -0.609495401382,0
2019-04-03 21:23:14.40,128815953, 0.01, -17.07, 283.93, 591.460021973, -35.3632002, 149.1649335, 0.778944671154, -0.0913486108184, -0.116992011666, -0.609272956848,0
2019-04-03 21:23:14.50,128915913, 0.0, -17.11, 283.96, 591.510009766, -35.3631994, 149.1649287, 0.779061794281, -0.0915930569172, -0.117267519236, -0.609033405781,0
2019-04-03 21:23:14.60,129015873, -0.02, -17.14, 283.99, 591.570007324, -35.3631984, 149.1649237, 0.779153347015, -0.0919570401311, -0.117359064519, -0.608843922615,0
2019-04-03 21:23:14.70,129115833, -0.05, -17.17, 284.01, 591.619995117, -35.3631974, 149.1649187, 0.779220998287, -0.0923202708364, -0.117364019156, -0.6087012887,0
2019-04-03 21:23:14.80,129215793, -0.07, -17.19, 284.03, 591.66998291, -35.3631964, 149.1649138, 0.779284358025, -0.0925103500485, -0.117477983236, -0.608569383621,0
2019-04-03 21:23:14.90,129315753, -0.04, -17.21, 284.04, 591.719970703, -35.3631953, 149.1649088, 0.779360532761, -0.092411339283, -0.117715403438, -0.608440995216,0
2019-04-03 21:23:15.00,129415713, -0.01, -17.22, 284.05, 591.770019531, -35.3631944, 149.1649038, 0.779423236847, -0.0922391340137, -0.11801134795, -0.608329415321,0
2019-04-03 21:23:15.09,129515673, 0.01, -17.23, 284.06, 591.820007324, -35.3631934, 149.1648988, 0.779460132122, -0.0920959711075, -0.118216603994, -0.608263969421,0
2019-04-03 21:23:15.20,129616466, 0.03, -17.24, 284.06, 591.869995117, -35.3631923, 149.1648937, 0.779484331608, -0.0919963642955, -0.118422530591, -0.60820800066,0
2019-04-03 21:23:15.30,129716426, 0.05, -17.26, 284.06, 591.91998291, -35.3631915, 149.1648888, 0.779498398304, -0.0919626057148, -0.11858997494, -0.608162462711,0
2019-04-03 21:23:15.40,129816386, 0.06, -17.27, 284.07, 591.969970703, -35.3631905, 149.1648837, 0.779511332512, -0.0919300466776, -0.11878759414, -0.608112215996,0
2019-04-03 21:23:15.50,129916346, 0.09, -17.29, 284.07, 592.020019531, -35.3631895, 149.1648787, 0.77953773737, -0.091856919229, -0.119027331471, -0.608042597771,0
2019-04-03 21:23:15.60,130016306, 0.09, -17.3, 284.08, 592.070007324, -35.3631884, 149.1648736, 0.779560387135, -0.0918828770518, -0.119176603854, -0.607980310917,0
2019-04-03 21:23:15.70,130116266, 0.07, -17.31, 284.09, 592.119995117, -35.3631874, 149.1648687, 0.779587984085, -0.0920359492302, -0.119111388922, -0.607934594154,0
2019-04-03 21:23:15.80,130216226, 0.04, -17.32, 284.1, 592.16998291, -35.3631863, 149.1648636, 0.779608786106, -0.0922762751579, -0.118990518153, -0.60789513588,0
2019-04-03 21:23:15.90,130316186, 0.0, -17.31, 284.11, 592.219970703, -35.3631854, 149.1648586, 0.779628813267, -0.0925237387419, -0.118774667382, -0.607874035835,0
2019-04-03 21:23:16.00,130416146, -0.01, -17.29, 284.12, 592.270019531, -35.3631844, 149.1648535, 0.779676318169, -0.0925824269652, -0.118489280343, -0.607859909534,0
2019-04-03 21:23:16.10,130516106, -0.01, -17.27, 284.12, 592.320007324, -35.3631833, 149.1648483, 0.779738247395, -0.0924711599946, -0.118381693959, -0.607818365097,0
2019-04-03 21:23:16.20,130616066, 0.0, -17.28, 284.13, 592.369995117, -35.3631823, 149.1648433, 0.779779016972, -0.0924143269658, -0.118467569351, -0.607757925987,0
2019-04-03 21:23:16.30,130716026, 0.0, -17.31, 284.14, 592.41998291, -35.3631813, 149.1648382, 0.779774665833, -0.0925414934754, -0.118773289025, -0.60768455267,0
2019-04-03 21:23:16.40,130815986, 0.01, -17.37, 284.14, 592.469970703, -35.3631802, 149.1648332, 0.779749512672, -0.0927241519094, -0.11924982816, -0.60759562254,0
2019-04-03 21:23:16.50,130915946, 0.01, -17.4, 284.14, 592.520019531, -35.3631792, 149.1648281, 0.779741823673, -0.0928443297744, -0.119418978691, -0.607553899288,0
2019-04-03 21:23:16.60,131015906, 0.01, -17.39, 284.14, 592.570007324, -35.3631782, 149.1648229, 0.779750585556, -0.0928717628121, -0.119335852563, -0.607554793358,0
2019-04-03 21:23:16.70,131115866, 0.0, -17.39, 284.14, 592.619995117, -35.3631771, 149.1648179, 0.779736161232, -0.0929923281074, -0.119204908609, -0.607580602169,0
2019-04-03 21:23:16.80,131215826, -0.03, -17.38, 284.14, 592.66998291, -35.363176, 149.1648127, 0.779711842537, -0.093165807426, -0.119046203792, -0.607616364956,0
2019-04-03 21:23:16.90,131315786, -0.05, -17.39, 284.14, 592.719970703, -35.3631751, 149.1648076, 0.779685676098, -0.0933108255267, -0.119002476335, -0.607636213303,0
2019-04-03 21:23:17.00,131415746, -0.06, -17.42, 284.14, 592.770019531, -35.363174, 149.1648024, 0.779636800289, -0.0935202017426, -0.11915115267, -0.607637584209,0
2019-04-03 21:23:17.10,131515706, -0.04, -17.44, 284.14, 592.820007324, -35.3631729, 149.1647974, 0.779611229897, -0.0935365706682, -0.119381219149, -0.607622742653,0
2019-04-03 21:23:17.19,131615666, -0.02, -17.46, 284.13, 592.869995117, -35.363172, 149.1647922, 0.779602050781, -0.093454092741, -0.119607977569, -0.607602596283,0
2019-04-03 21:23:17.30,131716459, 0.01, -17.47, 284.13, 592.91998291, -35.3631709, 149.164787, 0.779600203037, -0.0933208316565, -0.119880996644, -0.607571661472,0
2019-04-03 21:23:17.40,131816419, 0.02, -17.49, 284.13, 592.969970703, -35.3631698, 149.1647818, 0.779582977295, -0.0933150947094, -0.120111905038, -0.607549071312,0
2019-04-03 21:23:17.50,131916379, 0.02, -17.51, 284.13, 593.020019531, -35.3631687, 149.1647768, 0.779556810856, -0.09344073385, -0.120187483728, -0.607548356056,0
2019-04-03 21:23:17.60,132016339, 0.01, -17.5, 284.13, 593.070007324, -35.3631678, 149.1647716, 0.779546380043, -0.0934825614095, -0.120097048581, -0.607573151588,0
2019-04-03 21:23:17.70,132116299, 0.0, -17.49, 284.13, 593.130004883, -35.3631667, 149.1647664, 0.77954685688, -0.0934876278043, -0.119928143919, -0.607605159283,0
2019-04-03 21:23:17.80,132216259, 0.0, -17.48, 284.13, 593.179992676, -35.3631655, 149.1647612, 0.779558241367, -0.093383051455, -0.119870491326, -0.607618033886,0
2019-04-03 21:23:17.90,132316219, 0.02, -17.49, 284.12, 593.229980469, -35.3631646, 149.1647561, 0.779545724392, -0.093363635242, -0.120064400136, -0.607598781586,0
2019-04-03 21:23:18.00,132416179, 0.02, -17.52, 284.12, 593.280029297, -35.3631635, 149.164751, 0.779510080814, -0.0935039147735, -0.120313815773, -0.607573628426,0
2019-04-03 21:23:18.10,132516139, 0.0, -17.55, 284.12, 593.33001709, -35.3631625, 149.1647458, 0.77944868803, -0.093842677772, -0.120369017124, -0.607589185238,0
2019-04-03 21:23:18.20,132616099, -0.02, -17.59, 284.12, 593.380004883, -35.3631613, 149.1647405, 0.779380738735, -0.0941906571388, -0.120485335588, -0.607599496841,0
2019-04-03 21:23:18.30,132716059, -0.03, -17.61, 284.12, 593.429992676, -35.3631604, 149.1647355, 0.779339373112, -0.0943977311254, -0.12055990845, -0.607605576515,0
2019-04-03 21:23:18.40,132816019, -0.05, -17.6, 284.12, 593.479980469, -35.3631593, 149.1647303, 0.779334187508, -0.0944338813424, -0.120396845043, -0.607638955116,0
2019-04-03 21:23:18.50,132915979, -0.07, -17.57, 284.11, 593.530029297, -35.3631582, 149.1647251, 0.779329061508, -0.0944194495678, -0.120106786489, -0.607705175877,0
2019-04-03 21:23:18.60,133015939, -0.08, -17.55, 284.11, 593.58001709, -35.3631571, 149.1647199, 0.779317200184, -0.0943991690874, -0.119889900088, -0.607766389847,0
2019-04-03 21:23:18.70,133115899, -0.07, -17.56, 284.1, 593.630004883, -35.3631561, 149.1647147, 0.779287755489, -0.0943911224604, -0.120044060051, -0.607774913311,0
2019-04-03 21:23:18.80,133215859, -0.06, -17.59, 284.1, 593.679992676, -35.363155, 149.1647094, 0.779245078564, -0.0944599881768, -0.120250977576, -0.607778072357,0
2019-04-03 21:23:18.90,133315819, -0.03, -17.61, 284.1, 593.729980469, -35.363154, 149.1647042, 0.779223263264, -0.0944058001041, -0.120510183275, -0.607763111591,0
2019-04-03 21:23:19.00,133415779, -0.01, -17.62, 284.09, 593.780029297, -35.3631528, 149.1646991, 0.779205799103, -0.0943406000733, -0.120718717575, -0.607754170895,0
2019-04-03 21:23:19.10,133515739, 0.0, -17.63, 284.09, 593.83001709, -35.3631518, 149.1646939, 0.779187738895, -0.0943150743842, -0.120795890689, -0.607766032219,0
2019-04-03 21:23:19.20,133615699, 0.0, -17.62, 284.08, 593.880004883, -35.3631508, 149.1646886, 0.77917599678, -0.0942795723677, -0.120732262731, -0.607799172401,0
2019-04-03 21:23:19.29,133715659, 0.0, -17.6, 284.08, 593.940002441, -35.3631497, 149.1646834, 0.779190778732, -0.0940377861261, -0.120674334466, -0.607829213142,0
2019-04-03 21:23:19.40,133816452, 0.02, -17.58, 284.08, 593.989990234, -35.3631485, 149.1646781, 0.779193818569, -0.0938747450709, -0.12068900466, -0.607847571373,0
2019-04-03 21:23:19.50,133916412, 0.02, -17.59, 284.07, 594.039978027, -35.3631476, 149.1646729, 0.77918022871, -0.0938648208976, -0.120717175305, -0.607860982418,0
2019-04-03 21:23:19.60,134016372, 0.03, -17.6, 284.07, 594.090026855, -35.3631465, 149.1646677, 0.779163062572, -0.0939136594534, -0.120795220137, -0.607859969139,0
2019-04-03 21:23:19.70,134116332, 0.03, -17.63, 284.07, 594.140014648, -35.3631454, 149.1646624, 0.779119133949, -0.0940682590008, -0.121033407748, -0.607844948769,0
2019-04-03 21:23:19.80,134216292, 0.04, -17.67, 284.07, 594.190002441, -35.3631443, 149.1646572, 0.779077172279, -0.0941979140043, -0.121417984366, -0.60780197382,0
2019-04-03 21:23:19.90,134316252, 0.03, -17.72, 284.07, 594.239990234, -35.3631433, 149.164652, 0.779020547867, -0.0944994837046, -0.121670156717, -0.607777297497,0
2019-04-03 21:23:20.00,134416212, 0.01, -17.75, 284.07, 594.289978027, -35.3631422, 149.1646467, 0.778975129128, -0.0948084965348, -0.1217225492, -0.607776880264,0
2019-04-03 21:23:20.10,134516172, 0.0, -17.76, 284.07, 594.340026855, -35.3631411, 149.1646414, 0.778951466084, -0.0949962288141, -0.121718019247, -0.607778787613,0
2019-04-03 21:23:20.20,134616132, -0.01, -17.76, 284.07, 594.390014648, -35.36314, 149.1646362, 0.778945624828, -0.0950423255563, -0.121653012931, -0.607792139053,0
2019-04-03 21:23:20.30,134716092, 0.0, -17.75, 284.07, 594.440002441, -35.3631389, 149.1646309, 0.778953492641, -0.0949739515781, -0.121599912643, -0.607803285122,0
2019-04-03 21:23:20.40,134816052, 0.0, -17.73, 284.07, 594.5, -35.3631379, 149.1646257, 0.778970837593, -0.0947858244181, -0.121585227549, -0.607813358307,0
2019-04-03 21:23:20.50,134916012, 0.01, -17.73, 284.06, 594.549987793, -35.3631368, 149.1646204, 0.778959214687, -0.0947424471378, -0.121560163796, -0.607840061188,0
2019-04-03 21:23:20.60,135015972, 0.0, -17.73, 284.06, 594.599975586, -35.3631357, 149.1646152, 0.778930306435, -0.0947938114405, -0.121547870338, -0.607871592045,0
2019-04-03 21:23:20.70,135115932, 0.01, -17.74, 284.05, 594.650024414, -35.3631346, 149.1646099, 0.778908252716, -0.0947474315763, -0.121657438576, -0.607885122299,0
2019-04-03 21:23:20.80,135215892, 0.05, -17.76, 284.05, 594.700012207, -35.3631336, 149.1646048, 0.778889834881, -0.0946081504226, -0.121998235583, -0.607862174511,0
2019-04-03 21:23:20.90,135315852, 0.08, -17.77, 284.04, 594.75, -35.3631325, 149.1645994, 0.778882741928, -0.0944594889879, -0.122221440077, -0.607849538326,0
2019-04-03 21:23:21.00,135415812, 0.09, -17.77, 284.04, 594.799987793, -35.3631314, 149.1645941, 0.778869986534, -0.0943959206343, -0.122311212122, -0.607857704163,0
2019-04-03 21:23:21.10,135515772, 0.09, -17.76, 284.04, 594.849975586, -35.3631303, 149.164589, 0.778865695, -0.0943472161889, -0.122230432928, -0.607886910439,0
2019-04-03 21:23:21.20,135615732, 0.07, -17.74, 284.03, 594.900024414, -35.3631293, 149.1645836, 0.778853356838, -0.0944077298045, -0.121965587139, -0.607946634293,0
2019-04-03 21:23:21.30,135715692, 0.06, -17.72, 284.03, 594.950012207, -35.3631282, 149.1645783, 0.778844177723, -0.0944073498249, -0.121769480407, -0.607997715473,0
2019-04-03 21:23:21.40,135816485, 0.04, -17.73, 284.03, 595.0, -35.3631271, 149.164573, 0.778808414936, -0.0945212543011, -0.121725656092, -0.608034610748,0
2019-04-03 21:23:21.50,135916445, 0.04, -17.73, 284.02, 595.049987793, -35.363126, 149.1645678, 0.778778851032, -0.094562664628, -0.121791779995, -0.608052790165,0
2019-04-03 21:23:21.60,136016405, 0.05, -17.74, 284.02, 595.099975586, -35.3631248, 149.1645625, 0.778753042221, -0.094553925097, -0.121857978404, -0.608074009418,0
2019-04-03 21:23:21.70,136116365, 0.06, -17.74, 284.01, 595.159973145, -35.3631237, 149.1645572, 0.778732955456, -0.0944995582104, -0.121861867607, -0.60810726881,0
2019-04-03 21:23:21.80,136216325, 0.05, -17.72, 284.01, 595.210021973, -35.3631227, 149.1645519, 0.778713822365, -0.0944692194462, -0.121754325926, -0.608158111572,0
2019-04-03 21:23:21.90,136316285, 0.05, -17.71, 284.0, 595.260009766, -35.3631216, 149.1645467, 0.778701066971, -0.0943899303675, -0.121646724641, -0.608208239079,0
2019-04-03 21:23:22.00,136416245, 0.05, -17.73, 284.0, 595.309997559, -35.3631205, 149.1645414, 0.778657615185, -0.0944879874587, -0.121756382287, -0.608226716518,0
2019-04-03 21:23:22.10,136516205, 0.06, -17.75, 283.99, 595.359985352, -35.3631194, 149.1645361, 0.77860814333, -0.09460375458, -0.121967181563, -0.608229875565,0
2019-04-03 21:23:22.20,136616165, 0.07, -17.78, 283.99, 595.409973145, -35.3631184, 149.1645309, 0.778565049171, -0.0946848839521, -0.122211240232, -0.608223378658,0
2019-04-03 21:23:22.30,136716125, 0.09, -17.78, 283.99, 595.460021973, -35.3631173, 149.1645256, 0.778563797474, -0.0945607349277, -0.122298523784, -0.608226716518,0
2019-04-03 21:23:22.40,136816085, 0.1, -17.78, 283.98, 595.510009766, -35.3631162, 149.1645203, 0.778560876846, -0.0944555699825, -0.122369475663, -0.608232557774,0
2019-04-03 21:23:22.50,136916045, 0.12, -17.78, 283.98, 595.559997559, -35.3631151, 149.1645151, 0.778555452824, -0.0943646803498, -0.122462779284, -0.60823482275,0
2019-04-03 21:23:22.60,137016005, 0.11, -17.79, 283.98, 595.609985352, -35.3631139, 149.1645098, 0.778525114059, -0.0944542363286, -0.122473880649, -0.60825753212,0
2019-04-03 21:23:22.70,137115965, 0.09, -17.79, 283.97, 595.659973145, -35.363113, 149.1645045, 0.778490424156, -0.0946137532592, -0.12231271714, -0.60830950737,0
2019-04-03 21:23:22.80,137215925, 0.06, -17.79, 283.97, 595.719970703, -35.3631119, 149.1644992, 0.778446912766, -0.0948097035289, -0.122185371816, -0.608360290527,0
2019-04-03 21:23:22.90,137315885, 0.02, -17.8, 283.96, 595.770019531, -35.3631108, 149.1644939, 0.778376281261, -0.0951439067721, -0.122096009552, -0.608416497707,0
2019-04-03 21:23:23.00,137415845, 0.0, -17.83, 283.96, 595.820007324, -35.3631096, 149.1644886, 0.778287708759, -0.095543757081, -0.12210329622, -0.608465671539,0
2019-04-03 21:23:23.10,137515805, -0.02, -17.85, 283.95, 595.869995117, -35.3631085, 149.1644833, 0.778231322765, -0.0957274883986, -0.122090995312, -0.608511328697,0
2019-04-03 21:23:23.20,137615765, 0.0, -17.85, 283.95, 595.91998291, -35.3631075, 149.164478, 0.778206288815, -0.0956195220351, -0.122232057154, -0.608532071114,0
2019-04-03 21:23:23.30,137715725, 0.0, -17.86, 283.94, 595.969970703, -35.3631064, 149.1644727, 0.778157114983, -0.0956057757139, -0.12237393856, -0.608568549156,0
2019-04-03 21:23:23.39,137815685, 0.02, -17.87, 283.93, 596.020019531, -35.3631053, 149.1644674, 0.778104066849, -0.0955692753196, -0.122530035675, -0.608610630035,0
2019-04-03 21:23:23.50,137916478, 0.05, -17.88, 283.92, 596.070007324, -35.3631041, 149.164462, 0.778056740761, -0.0954621806741, -0.122719749808, -0.608649790287,0
2019-04-03 21:23:23.60,138016438, 0.07, -17.88, 283.91, 596.119995117, -35.363103, 149.1644567, 0.778025627136, -0.0952903628349, -0.122818753123, -0.608696520329,0
2019-04-03 21:23:23.70,138116398, 0.09, -17.84, 283.9, 596.16998291, -35.363102, 149.1644514, 0.778045296669, -0.0948988497257, -0.122644677758, -0.60876762867,0
2019-04-03 21:23:23.80,138216358, 0.09, -17.78, 283.89, 596.219970703, -35.3631009, 149.1644461, 0.778068840504, -0.0946165844798, -0.122258372605, -0.608859181404,0
2019-04-03 21:23:23.90,138316318, 0.1, -17.75, 283.89, 596.280029297, -35.3630998, 149.1644409, 0.778082132339, -0.0943959876895, -0.122070737183, -0.608914136887,0
2019-04-03 21:23:24.00,138416278, 0.11, -17.76, 283.88, 596.33001709, -35.3630987, 149.1644356, 0.778060138226, -0.0943841934204, -0.122160047293, -0.608926057816,0
2019-04-03 21:23:24.10,138516238, 0.13, -17.77, 283.88, 596.380004883, -35.3630975, 149.1644303, 0.778041362762, -0.0943706408143, -0.122371472418, -0.608909726143,0
2019-04-03 21:23:24.20,138616198, 0.12, -17.8, 283.88, 596.429992676, -35.3630966, 149.1644249, 0.778006196022, -0.094529800117, -0.12255743891, -0.60889261961,0
2019-04-03 21:23:24.30,138716158, 0.11, -17.83, 283.88, 596.479980469, -35.3630955, 149.1644196, 0.777967214584, -0.0947796776891, -0.122614279389, -0.608892083168,0
2019-04-03 21:23:24.40,138816118, 0.1, -17.83, 283.88, 596.530029297, -35.3630944, 149.1644143, 0.777948260307, -0.0948715433478, -0.122642427683, -0.608896374702,0
2019-04-03 21:23:24.50,138916078, 0.1, -17.84, 283.88, 596.58001709, -35.3630932, 149.164409, 0.777943611145, -0.0948645547032, -0.122676685452, -0.608896434307,0
2019-04-03 21:23:24.60,139016038, 0.12, -17.83, 283.88, 596.630004883, -35.3630921, 149.1644036, 0.777958512306, -0.0947009325027, -0.122689567506, -0.608900249004,0
2019-04-03 21:23:24.70,139115998, 0.15, -17.81, 283.87, 596.679992676, -35.3630911, 149.1643983, 0.777986288071, -0.0944115519524, -0.122731268406, -0.608901381493,0
2019-04-03 21:23:24.80,139215958, 0.17, -17.8, 283.87, 596.729980469, -35.36309, 149.164393, 0.77799654007, -0.0941919013858, -0.12276866287, -0.608914732933,0
2019-04-03 21:23:24.90,139315918, 0.18, -17.79, 283.86, 596.780029297, -35.3630889, 149.1643877, 0.77798897028, -0.0940942391753, -0.122734151781, -0.608946442604,0
2019-04-03 21:23:25.00,139415878, 0.18, -17.78, 283.86, 596.83001709, -35.3630877, 149.1643824, 0.777968883514, -0.0940694287419, -0.122689276934, -0.608985006809,0
2019-04-03 21:23:25.10,139515838, 0.18, -17.78, 283.85, 596.880004883, -35.3630866, 149.1643771, 0.777948796749, -0.0940296798944, -0.122693449259, -0.609016001225,0
2019-04-03 21:23:25.20,139615798, 0.18, -17.79, 283.85, 596.929992676, -35.3630856, 149.1643718, 0.777909219265, -0.0941155105829, -0.122712761164, -0.609049320221,0
2019-04-03 21:23:25.30,139715758, 0.17, -17.8, 283.84, 596.979980469, -35.3630845, 149.1643665, 0.777860283852, -0.0942698121071, -0.12277058512, -0.609076321125,0
2019-04-03 21:23:25.40,139815718, 0.17, -17.82, 283.84, 597.030029297, -35.3630834, 149.1643612, 0.777814686298, -0.0944095849991, -0.122885592282, -0.60908973217,0
2019-04-03 21:23:25.49,139915678, 0.15, -17.83, 283.84, 597.08001709, -35.3630822, 149.1643559, 0.777781963348, -0.0945197790861, -0.122855737805, -0.609120428562,0
2019-04-03 21:23:25.60,140016471, 0.12, -17.82, 283.83, 597.130004883, -35.3630811, 149.1643504, 0.777740061283, -0.0947190672159, -0.122618563473, -0.609190762043,0
2019-04-03 21:23:25.70,140116431, 0.1, -17.82, 283.83, 597.179992676, -35.3630801, 149.1643451, 0.777701616287, -0.0948734357953, -0.122483588755, -0.609242975712,0
2019-04-03 21:23:25.80,140216391, 0.09, -17.83, 283.83, 597.239990234, -35.363079, 149.1643398, 0.777666807175, -0.0949691385031, -0.122475229204, -0.609274208546,0
2019-04-03 21:23:25.90,140316351, 0.08, -17.84, 283.82, 597.289978027, -35.3630779, 149.1643346, 0.777614235878, -0.0950850024819, -0.122502788901, -0.609317660332,0
2019-04-03 21:23:26.00,140416311, 0.08, -17.85, 283.81, 597.340026855, -35.3630768, 149.1643293, 0.777554571629, -0.0951736569405, -0.122558563948, -0.609368860722,0
2019-04-03 21:23:26.10,140516271, 0.09, -17.84, 283.8, 597.390014648, -35.3630756, 149.164324, 0.777523100376, -0.0950751677155, -0.122533462942, -0.609429359436,0
2019-04-03 21:23:26.20,140616231, 0.09, -17.83, 283.79, 597.440002441, -35.3630744, 149.1643186, 0.777484297752, -0.0950182005763, -0.122508354485, -0.609492778778,0
2019-04-03 21:23:26.30,140716191, 0.1, -17.85, 283.78, 597.489990234, -35.3630734, 149.1643133, 0.777433037758, -0.0950007140636, -0.122661210597, -0.60953015089,0
2019-04-03 21:23:26.40,140816151, 0.13, -17.88, 283.77, 597.539978027, -35.3630723, 149.164308, 0.777373850346, -0.0949847176671, -0.123014964163, -0.609536826611,0
2019-04-03 21:23:26.50,140916111, 0.15, -17.91, 283.76, 597.590026855, -35.3630712, 149.1643026, 0.777310431004, -0.0950243324041, -0.123304322362, -0.609553098679,0
2019-04-03 21:23:26.60,141016071, 0.14, -17.92, 283.76, 597.640014648, -35.3630701, 149.1642973, 0.777235388756, -0.0951852723956, -0.123373754323, -0.609609603882,0
2019-04-03 21:23:26.70,141116031, 0.15, -17.91, 283.75, 597.690002441, -35.3630689, 149.164292, 0.777200460434, -0.0951060429215, -0.12329595536, -0.609682202339,0
2019-04-03 21:23:26.80,141215991, 0.16, -17.9, 283.74, 597.739990234, -35.3630679, 149.1642867, 0.777177751064, -0.0949156582355, -0.123276300728, -0.609744846821,0
2019-04-03 21:23:26.90,141315951, 0.18, -17.87, 283.73, 597.789978027, -35.3630668, 149.1642814, 0.777162909508, -0.0946994423866, -0.123176492751, -0.609817504883,0
2019-04-03 21:23:27.00,141415911, 0.17, -17.85, 283.72, 597.840026855, -35.3630657, 149.1642761, 0.777138829231, -0.0946264192462, -0.122952133417, -0.609904825687,0
2019-04-03 21:23:27.10,141515871, 0.16, -17.83, 283.71, 597.890014648, -35.3630646, 149.1642708, 0.777110815048, -0.0946043431759, -0.122795499861, -0.609975457191,0
2019-04-03 21:23:27.20,141615831, 0.17, -17.83, 283.7, 597.940002441, -35.3630634, 149.1642655, 0.777076661587, -0.0945933610201, -0.122838184237, -0.610012114048,0
2019-04-03 21:23:27.30,141715791, 0.19, -17.84, 283.7, 597.989990234, -35.3630623, 149.1642601, 0.777058899403, -0.0944823175669, -0.122960984707, -0.610027194023,0
2019-04-03 21:23:27.40,141815751, 0.21, -17.86, 283.69, 598.039978027, -35.3630613, 149.1642547, 0.77702575922, -0.0944297462702, -0.123246639967, -0.610019862652,0
2019-04-03 21:23:27.50,141915711, 0.22, -17.88, 283.69, 598.090026855, -35.3630602, 149.1642494, 0.776978552341, -0.0945282503963, -0.123436868191, -0.610026359558,0
2019-04-03 21:23:27.59,142015671, 0.21, -17.9, 283.68, 598.140014648, -35.3630591, 149.1642441, 0.776927947998, -0.0946857556701, -0.123542539775, -0.610044956207,0
2019-04-03 21:23:27.70,142116464, 0.2, -17.9, 283.68, 598.190002441, -35.3630579, 149.1642388, 0.77689653635, -0.0947558879852, -0.123497396708, -0.610083162785,0
2019-04-03 21:23:27.80,142216424, 0.19, -17.88, 283.67, 598.239990234, -35.3630568, 149.1642335, 0.776890099049, -0.0947005599737, -0.123279199004, -0.610144078732,0
2019-04-03 21:23:27.90,142316384, 0.19, -17.86, 283.67, 598.289978027, -35.3630558, 149.1642281, 0.776887476444, -0.0945657268167, -0.123111918569, -0.610202133656,0
2019-04-03 21:23:28.00,142416344, 0.18, -17.85, 283.66, 598.340026855, -35.3630547, 149.1642228, 0.776852011681, -0.0946229472756, -0.122988507152, -0.610263288021,0
2019-04-03 21:23:28.10,142516304, 0.17, -17.86, 283.66, 598.390014648, -35.3630536, 149.1642175, 0.776802420616, -0.0947497934103, -0.122986197472, -0.610307216644,0
2019-04-03 21:23:28.20,142616264, 0.15, -17.86, 283.65, 598.440002441, -35.3630524, 149.1642121, 0.776747882366, -0.0949096083641, -0.122895024717, -0.610370159149,0
2019-04-03 21:23:28.30,142716224, 0.14, -17.86, 283.64, 598.489990234, -35.3630513, 149.1642068, 0.776698410511, -0.0950333327055, -0.122824706137, -0.610428035259,0
2019-04-03 21:23:28.40,142816184, 0.14, -17.85, 283.64, 598.539978027, -35.3630503, 149.1642015, 0.776676774025, -0.094960808754, -0.122786022723, -0.610474646091,0
2019-04-03 21:23:28.50,142916144, 0.17, -17.83, 283.63, 598.590026855, -35.3630491, 149.1641962, 0.776688635349, -0.0946424379945, -0.122733905911, -0.61051940918,0
2019-04-03 21:23:28.60,143016104, 0.19, -17.8, 283.62, 598.640014648, -35.363048, 149.1641909, 0.776694715023, -0.0943413153291, -0.122721649706, -0.610560774803,0
2019-04-03 21:23:28.70,143116064, 0.21, -17.77, 283.61, 598.690002441, -35.3630469, 149.1641855, 0.77670109272, -0.0940755754709, -0.122565083206, -0.61062514782,0
2019-04-03 21:23:28.80,143216024, 0.2, -17.75, 283.61, 598.739990234, -35.3630458, 149.1641802, 0.776678979397, -0.0940226018429, -0.122386775911, -0.610697209835,0
2019-04-03 21:23:28.90,143315984, 0.19, -17.76, 283.6, 598.789978027, -35.3630446, 149.1641749, 0.776613295078, -0.0941674932837, -0.122378155589, -0.610760092735,0
2019-04-03 21:23:29.00,143415944, 0.19, -17.8, 283.59, 598.840026855, -35.3630436, 149.1641694, 0.776512145996, -0.0943974256516, -0.122672535479, -0.610794126987,0
2019-04-03 21:23:29.10,143515904, 0.19, -17.83, 283.58, 598.890014648, -35.3630425, 149.1641641, 0.776434004307, -0.0945399180055, -0.122857376933, -0.610834360123,0
2019-04-03 21:23:29.20,143615864, 0.18, -17.85, 283.57, 598.940002441, -35.3630414, 149.1641589, 0.77636128664, -0.0947064161301, -0.122890621424, -0.610894262791,0
2019-04-03 21:23:29.30,143715824, 0.17, -17.84, 283.56, 598.989990234, -35.3630403, 149.1641536, 0.776310265064, -0.0947788208723, -0.122822582722, -0.61096149683,0
2019-04-03 21:23:29.40,143815784, 0.18, -17.82, 283.55, 599.039978027, -35.3630391, 149.1641482, 0.776301324368, -0.0946223661304, -0.122671253979, -0.611027598381,0
2019-04-03 21:23:29.50,143915744, 0.18, -17.8, 283.55, 599.090026855, -35.3630381, 149.1641429, 0.776292264462, -0.094466432929, -0.122581958771, -0.611081063747,0
2019-04-03 21:23:29.60,144015704, 0.18, -17.8, 283.54, 599.140014648, -35.3630369, 149.1641376, 0.77625232935, -0.0945023447275, -0.122569903731, -0.611128687859,0
2019-04-03 21:23:29.69,144115664, 0.16, -17.8, 283.53, 599.190002441, -35.3630358, 149.1641323, 0.776201486588, -0.0946058183908, -0.122454710305, -0.611200332642,0
2019-04-03 21:23:29.80,144216457, 0.17, -17.8, 283.52, 599.239990234, -35.3630347, 149.1641268, 0.776153981686, -0.0946091338992, -0.122464291751, -0.611258208752,0
2019-04-03 21:23:29.90,144316417, 0.19, -17.8, 283.51, 599.289978027, -35.3630336, 149.1641215, 0.776118159294, -0.094478353858, -0.122571848333, -0.611302435398,0
2019-04-03 21:23:30.00,144416377, 0.21, -17.81, 283.5, 599.340026855, -35.3630324, 149.1641162, 0.776078522205, -0.0943754836917, -0.122728414834, -0.611337184906,0
2019-04-03 21:23:30.10,144516337, 0.22, -17.84, 283.5, 599.390014648, -35.3630313, 149.1641109, 0.776014387608, -0.0944478660822, -0.123007945716, -0.611351191998,0
2019-04-03 21:23:30.20,144616297, 0.23, -17.87, 283.49, 599.440002441, -35.3630303, 149.1641056, 0.775939226151, -0.0945997610688, -0.123253025115, -0.611373782158,0
2019-04-03 21:23:30.30,144716257, 0.22, -17.91, 283.48, 599.489990234, -35.3630292, 149.1641003, 0.775855958462, -0.0948530137539, -0.123458229005, -0.611398816109,0
2019-04-03 21:23:30.40,144816217, 0.23, -17.91, 283.47, 599.539978027, -35.3630281, 149.164095, 0.775817990303, -0.0948583260179, -0.123539842665, -0.611429750919,0
2019-04-03 21:23:30.50,144916177, 0.25, -17.89, 283.47, 599.590026855, -35.3630269, 149.1640895, 0.775833666325, -0.0945830792189, -0.123458780348, -0.611468791962,0
2019-04-03 21:23:30.60,145016137, 0.25, -17.86, 283.46, 599.640014648, -35.3630258, 149.1640842, 0.775836586952, -0.0944459959865, -0.123286120594, -0.611521184444,0
2019-04-03 21:23:30.70,145116097, 0.24, -17.84, 283.46, 599.690002441, -35.3630248, 149.1640789, 0.775828897953, -0.0944040417671, -0.123041749001, -0.611586630344,0
2019-04-03 21:23:30.80,145216057, 0.22, -17.82, 283.46, 599.739990234, -35.3630237, 149.1640737, 0.775815367699, -0.0944052189589, -0.122854307294, -0.611641228199,0
2019-04-03 21:23:30.90,145316017, 0.21, -17.81, 283.45, 599.789978027, -35.3630226, 149.1640683, 0.775794148445, -0.0944264903665, -0.122739806771, -0.611687898636,0
2019-04-03 21:23:31.00,145415977, 0.21, -17.82, 283.45, 599.840026855, -35.3630214, 149.164063, 0.775759637356, -0.0944758728147, -0.122750945389, -0.611721813679,0
2019-04-03 21:23:31.10,145515937, 0.22, -17.83, 283.44, 599.890014648, -35.3630203, 149.1640577, 0.775716543198, -0.0944879949093, -0.122870720923, -0.611750543118,0
2019-04-03 21:23:31.20,145615897, 0.25, -17.84, 283.43, 599.940002441, -35.3630193, 149.1640524, 0.775692880154, -0.0943275392056, -0.123122371733, -0.611754715443,0
2019-04-03 21:23:31.30,145715857, 0.29, -17.84, 283.42, 599.989990234, -35.3630182, 149.1640469, 0.775682747364, -0.0941030308604, -0.123325563967, -0.611761152744,0
2019-04-03 21:23:31.40,145815817, 0.31, -17.84, 283.42, 600.039978027, -35.3630171, 149.1640416, 0.775667250156, -0.0939535051584, -0.123461917043, -0.611776351929,0
2019-04-03 21:23:31.50,145915777, 0.32, -17.85, 283.41, 600.090026855, -35.363016, 149.1640363, 0.775632739067, -0.0939369425178, -0.123552702367, -0.611804246902,0
2019-04-03 21:23:31.60,146015737, 0.31, -17.85, 283.41, 600.140014648, -35.3630147, 149.1640311, 0.775596678257, -0.0939774513245, -0.123469777405, -0.611860513687,0
2019-04-03 21:23:31.70,146115697, 0.3, -17.83, 283.4, 600.190002441, -35.3630136, 149.1640257, 0.775570034981, -0.0939851999283, -0.123320944607, -0.611923098564,0
2019-04-03 21:23:31.80,146216490, 0.27, -17.83, 283.39, 600.25, -35.3630126, 149.1640204, 0.775515317917, -0.094188965857, -0.12312541157, -0.612000465393,0
2019-04-03 21:23:31.90,146316450, 0.26, -17.82, 283.39, 600.299987793, -35.3630115, 149.164015, 0.775487780571, -0.0942086055875, -0.122961498797, -0.612065315247,0
2019-04-03 21:23:32.00,146416410, 0.26, -17.8, 283.38, 600.349975586, -35.3630104, 149.1640096, 0.775468528271, -0.0941664278507, -0.122833818197, -0.61212182045,0
2019-04-03 21:23:32.10,146516370, 0.26, -17.78, 283.38, 600.400024414, -35.3630093, 149.1640043, 0.775467932224, -0.0939953699708, -0.122704319656, -0.612174868584,0
2019-04-03 21:23:32.20,146616330, 0.26, -17.78, 283.37, 600.450012207, -35.3630081, 149.163999, 0.775432050228, -0.0940174087882, -0.122712060809, -0.612215340137,0
2019-04-03 21:23:32.30,146716290, 0.26, -17.82, 283.36, 600.5, -35.3630071, 149.1639937, 0.775350153446, -0.0942715108395, -0.122950740159, -0.612232089043,0
2019-04-03 21:23:32.40,146816250, 0.24, -17.84, 283.36, 600.549987793, -35.363006, 149.1639884, 0.775278806686, -0.0945128276944, -0.123030737042, -0.612269222736,0
2019-04-03 21:23:32.50,146916210, 0.23, -17.86, 283.35, 600.599975586, -35.3630049, 149.1639831, 0.77522200346, -0.0946630686522, -0.123104758561, -0.61230301857,0
2019-04-03 21:23:32.60,147016170, 0.25, -17.87, 283.34, 600.650024414, -35.3630038, 149.1639778, 0.775187194347, -0.0946521162987, -0.123228095472, -0.612323999405,0
2019-04-03 21:23:32.70,147116130, 0.27, -17.88, 283.34, 600.700012207, -35.3630026, 149.1639724, 0.775169432163, -0.0945158228278, -0.123377263546, -0.612337529659,0
2019-04-03 21:23:32.80,147216090, 0.29, -17.88, 283.33, 600.75, -35.3630015, 149.163967, 0.775148034096, -0.0943991839886, -0.123551085591, -0.61234754324,0
2019-04-03 21:23:32.90,147316050, 0.31, -17.89, 283.33, 600.799987793, -35.3630005, 149.1639617, 0.775124132633, -0.0943334177136, -0.12364063412, -0.612369835377,0
2019-04-03 21:23:33.00,147416010, 0.31, -17.89, 283.32, 600.849975586, -35.3629994, 149.1639564, 0.775097548962, -0.094315931201, -0.123693622649, -0.612395465374,0
2019-04-03 21:23:33.10,147515970, 0.3, -17.89, 283.32, 600.900024414, -35.3629983, 149.1639511, 0.775062918663, -0.0944062247872, -0.123595751822, -0.612445175648,0
2019-04-03 21:23:33.20,147615930, 0.28, -17.87, 283.31, 600.950012207, -35.3629971, 149.1639458, 0.775048136711, -0.0944022983313, -0.123382121325, -0.612507522106,0
2019-04-03 21:23:33.30,147715890, 0.28, -17.86, 283.31, 601.0, -35.362996, 149.1639405, 0.775029480457, -0.0943979769945, -0.123298361897, -0.612548708916,0
2019-04-03 21:23:33.40,147815850, 0.29, -17.86, 283.3, 601.049987793, -35.362995, 149.1639352, 0.775007963181, -0.0943651869893, -0.123379863799, -0.612564504147,0
2019-04-03 21:23:33.50,147915810, 0.31, -17.87, 283.3, 601.099975586, -35.3629939, 149.1639298, 0.774997770786, -0.0942447930574, -0.12350063026, -0.612571597099,0
2019-04-03 21:23:33.60,148015770, 0.32, -17.87, 283.29, 601.150024414, -35.3629928, 149.1639245, 0.774979174137, -0.0942183062434, -0.123545460403, -0.612590134144,0
2019-04-03 21:23:33.70,148115730, 0.31, -17.88, 283.29, 601.200012207, -35.3629916, 149.1639191, 0.774935722351, -0.0943574681878, -0.123566754162, -0.612619459629,0
2019-04-03 21:23:33.80,148215690, 0.29, -17.88, 283.29, 601.260009766, -35.3629905, 149.1639138, 0.774890065193, -0.0944973230362, -0.123496964574, -0.612669706345,0
2019-04-03 21:23:33.90,148316483, 0.28, -17.88, 283.28, 601.309997559, -35.3629895, 149.1639085, 0.774862825871, -0.0945016443729, -0.123415619135, -0.612719833851,0
2019-04-03 21:23:34.00,148416443, 0.29, -17.86, 283.27, 601.359985352, -35.3629884, 149.1639032, 0.774859786034, -0.0943687930703, -0.123299442232, -0.612767577171,0
2019-04-03 21:23:34.10,148516403, 0.3, -17.84, 283.27, 601.409973145, -35.3629872, 149.1638978, 0.774861037731, -0.0942146629095, -0.123223915696, -0.612804949284,0
2019-04-03 21:23:34.20,148616363, 0.28, -17.85, 283.27, 601.460021973, -35.3629861, 149.1638925, 0.774816155434, -0.0943688005209, -0.123179838061, -0.612846791744,0
2019-04-03 21:23:34.30,148716323, 0.26, -17.87, 283.26, 601.510009766, -35.362985, 149.1638872, 0.774748504162, -0.094610594213, -0.123224385083, -0.61288613081,0
2019-04-03 21:23:34.40,148816283, 0.26, -17.88, 283.25, 601.559997559, -35.3629838, 149.1638817, 0.774707973003, -0.0946638509631, -0.123271115124, -0.612919688225,0
2019-04-03 21:23:34.50,148916243, 0.27, -17.87, 283.25, 601.609985352, -35.3629828, 149.1638764, 0.774689376354, -0.0945596173406, -0.123275704682, -0.612958431244,0
2019-04-03 21:23:34.60,149016203, 0.28, -17.87, 283.24, 601.659973145, -35.3629817, 149.1638712, 0.774661958218, -0.0944947451353, -0.123319461942, -0.612994253635,0
2019-04-03 21:23:34.70,149116163, 0.26, -17.87, 283.23, 601.710021973, -35.3629806, 149.1638658, 0.774608612061, -0.0946426093578, -0.123231135309, -0.613056600094,0
2019-04-03 21:23:34.80,149216123, 0.24, -17.88, 283.23, 601.760009766, -35.3629795, 149.1638605, 0.774531602859, -0.0949096381664, -0.12316211313, -0.613126456738,0
2019-04-03 21:23:34.90,149316083, 0.23, -17.9, 283.22, 601.809997559, -35.3629783, 149.1638552, 0.774467468262, -0.0950330346823, -0.12323012203, -0.6131747365,0
2019-04-03 21:23:35.00,149416043, 0.25, -17.9, 283.21, 601.859985352, -35.3629773, 149.1638497, 0.774431586266, -0.0949608758092, -0.123322725296, -0.613212585449,0
2019-04-03 21:23:35.10,149516003, 0.27, -17.89, 283.2, 601.909973145, -35.3629762, 149.1638444, 0.774421930313, -0.0947306528687, -0.1233843714, -0.613247990608,0
2019-04-03 21:23:35.20,149615963, 0.28, -17.87, 283.19, 601.960021973, -35.3629751, 149.1638391, 0.774419665337, -0.0945377349854, -0.123281948268, -0.613301217556,0
2019-04-03 21:23:35.30,149715923, 0.3, -17.85, 283.19, 602.020019531, -35.362974, 149.1638338, 0.774415373802, -0.0943499356508, -0.12327016145, -0.613337874413,0
2019-04-03 21:23:35.40,149815883, 0.32, -17.85, 283.18, 602.070007324, -35.3629728, 149.1638285, 0.774410784245, -0.0941901728511, -0.123318262398, -0.613358557224,0
