Start,TimeUS,Roll,Pitch,Yaw,Alt,Lat,Lng,Q1,Q2,Q3,Q4
2019-04-03 19:38:41.00,44416393, 0.0, 0.0, 353.0, 584.090026855, -35.363261, 149.1652299, 0.998134791851, 0.0, 0.0, -0.0610485821962
2019-04-03 19:38:41.09,44516353, 0.0, 0.0, 353.0, 584.090026855, -35.363261, 149.1652299, 0.998134791851, 0.0, 0.0, -0.0610485821962
2019-04-03 19:38:41.19,44616313, 0.0, 0.0, 353.0, 584.090026855, -35.363261, 149.1652299, 0.998134791851, 0.0, 0.0, -0.0610485821962
2019-04-03 19:38:41.29,44716273, 0.0, 0.0, 353.0, 584.090026855, -35.363261, 149.1652299, 0.998134791851, 0.0, 0.0, -0.0610485821962
2019-04-03 19:38:41.39,44816233, 0.0, 0.0, 353.0, 584.090026855, -35.363261, 149.1652299, 0.998134791851, 0.0, 0.0, -0.0610485821962
2019-04-03 19:38:41.49,44916193, 0.0, 0.0, 353.0, 584.090026855, -35.363261, 149.1652299, 0.998134791851, 0.0, 0.0, -0.0610485821962
2019-04-03 19:38:41.59,45016153, 0.0, 0.0, 353.0, 584.090026855, -35.363261, 149.1652299, 0.998134791851, 0.0, 0.0, -0.0610485821962
2019-04-03 19:38:41.69,45116113, 0.0, 0.0, 353.0, 584.090026855, -35.363261, 149.1652299, 0.998134791851, 0.0, 0.0, -0.0610485821962
2019-04-03 19:38:41.79,45216073, 0.0, 0.0, 353.0, 584.090026855, -35.363261, 149.1652299, 0.998134791851, 0.0, 0.0, -0.0610485821962
2019-04-03 19:38:41.89,45316033, 0.0, 0.0, 353.0, 584.090026855, -35.363261, 149.1652299, 0.998134791851, 0.0, 0.0, -0.0610485821962
2019-04-03 19:38:41.99,45415993, 0.0, 0.0, 353.0, 584.090026855, -35.363261, 149.1652299, 0.998134791851, 0.0, 0.0, -0.0610485821962
2019-04-03 19:38:42.09,45515953, 0.0, 0.0, 353.0, 584.090026855, -35.363261, 149.1652299, 0.998134791851, 0.0, 0.0, -0.0610485821962
2019-04-03 19:38:42.19,45615913, 0.0, 0.0, 353.0, 584.090026855, -35.363261, 149.1652299, 0.998134791851, 0.0, 0.0, -0.0610485821962
2019-04-03 19:38:42.29,45715873, 0.0, 0.0, 353.0, 584.090026855, -35.363261, 149.1652299, 0.998134791851, 0.0, 0.0, -0.0610485821962
2019-04-03 19:38:42.39,45815833, 0.0, 0.0, 353.0, 584.090026855, -35.363261, 149.1652299, 0.998134791851, 0.0, 0.0, -0.0610485821962
2019-04-03 19:38:42.49,45915793, 0.0, 0.0, 353.0, 584.090026855, -35.363261, 149.1652299, 0.998134791851, 0.0, 0.0, -0.0610485821962
2019-04-03 19:38:42.59,46015753, 0.0, 0.0, 353.0, 584.090026855, -35.363261, 149.1652299, 0.998134791851, 0.0, 0.0, -0.0610485821962
2019-04-03 19:38:42.69,46115713, 0.0, 0.0, 353.0, 584.090026855, -35.363261, 149.1652299, 0.998134791851, 0.0, 0.0, -0.0610485821962
2019-04-03 19:38:42.79,46215673, 0.0, 0.0, 353.0, 584.090026855, -35.363261, 149.1652299, 0.998134791851, 0.0, 0.0, -0.0610485821962
2019-04-03 19:38:42.90,46316466, 0.0, 0.0, 353.0, 584.090026855, -35.363261, 149.1652299, 0.998134791851, 0.0, 0.0, -0.0610485821962
2019-04-03 19:38:43.00,46416426, 0.0, 0.0, 353.0, 584.090026855, -35.363261, 149.1652299, 0.998134791851, 0.0, 0.0, -0.0610485821962
2019-04-03 19:38:43.09,46516386, 0.0, 0.0, 353.0, 584.090026855, -35.363261, 149.1652299, 0.998134791851, 0.0, 0.0, -0.0610485821962
2019-04-03 19:38:43.19,46616346, 0.0, 0.0, 353.0, 584.090026855, -35.363261, 149.1652299, 0.998134791851, 0.0, 0.0, -0.0610485821962
2019-04-03 19:38:43.29,46716306, 0.0, 0.0, 353.0, 584.090026855, -35.363261, 149.1652299, 0.998134791851, 0.0, 0.0, -0.0610485821962
2019-04-03 19:38:43.39,46816266, 0.0, 0.0, 353.0, 584.090026855, -35.363261, 149.1652299, 0.998134791851, 0.0, 0.0, -0.0610485821962
2019-04-03 19:38:43.49,46916226, 0.0, 0.0, 353.0, 584.090026855, -35.363261, 149.1652299, 0.998134791851, 0.0, 0.0, -0.0610485933721
2019-04-03 19:38:43.59,47016186, 0.0, 0.0, 353.0, 584.090026855, -35.363261, 149.1652299, 0.998134791851, 0.0, 0.0, -0.0610486492515
2019-04-03 19:38:43.69,47116146, 0.0, 0.0, 353.0, 584.090026855, -35.363261, 149.1652299, 0.998134791851, 0.0, 0.0, -0.0610486753285
2019-04-03 19:38:43.79,47216106, 0.0, 0.0, 353.0, 584.090026855, -35.363261, 149.1652299, 0.998134791851, 0.0, 0.0, -0.0610486641526
2019-04-03 19:38:43.89,47316066, 0.0, 0.0, 353.0, 584.090026855, -35.363261, 149.1652299, 0.998134791851, 0.0, 0.0, -0.0610486753285
2019-04-03 19:38:43.99,47416026, 0.0, 0.0, 353.0, 584.090026855, -35.363261, 149.1652299, 0.998134791851, 0.0, 0.0, -0.0610486753285
2019-04-03 19:38:44.09,47515986, 0.0, 0.0, 353.0, 584.099975586, -35.363261, 149.1652299, 0.998134791851, 0.0, 0.0, -0.0610486753285
2019-04-03 19:38:44.19,47615946, 0.0, 0.0, 353.0, 584.099975586, -35.363261, 149.1652299, 0.998134791851, 0.0, 0.0, -0.0610486753285
2019-04-03 19:38:44.29,47715906, 0.0, 0.0, 353.0, 584.109985352, -35.363261, 149.1652299, 0.998134791851, 0.0, 0.0, -0.0610486753285
2019-04-03 19:38:44.39,47815866, 0.0, 0.0, 353.0, 584.130004883, -35.363261, 149.1652299, 0.998134791851, 0.0, 0.0, -0.0610486119986
2019-04-03 19:38:44.49,47915826, 0.0, 0.0, 353.0, 584.159973145, -35.363261, 149.1652299, 0.998134791851, 0.0, 0.0, -0.0610486753285
2019-04-03 19:38:44.59,48015786, 0.0, 0.0, 353.0, 584.200012207, -35.363261, 149.1652299, 0.998134791851, 0.0, 0.0, -0.0610486753285
2019-04-03 19:38:44.69,48115746, 0.0, 0.0, 352.99, 584.239990234, -35.363261, 149.1652299, 0.998134672642, -6.69863802614e-05, -4.68274265586e-06, -0.061050940305
2019-04-03 19:38:44.79,48215706, -0.02, 0.0, 352.99, 584.33001709, -35.363261, 149.1652299, 0.9981341362, -0.000219954978093, 1.83748361451e-05, -0.0610592588782
2019-04-03 19:38:44.89,48315666, -0.06, 0.0, 352.99, 584.469970703, -35.363261, 149.1652299, 0.998133003712, -0.000534838240128, 5.24418901477e-05, -0.0610754936934
2019-04-03 19:38:45.00,48416459, -0.09, 0.0, 352.99, 584.630004883, -35.363261, 149.1652299, 0.998131453991, -0.000810984522104, -7.26584357835e-06, -0.0610980242491
2019-04-03 19:38:45.10,48516419, -0.1, 0.0, 352.99, 584.780029297, -35.363261, 149.1652299, 0.998130142689, -0.000918775389437, 0.000120921460621, -0.0611179508269
2019-04-03 19:38:45.19,48616379, -0.1, 0.01, 352.98, 584.929992676, -35.363261, 149.1652299, 0.998128950596, -0.000893678457942, 0.00019546461408, -0.0611379854381
2019-04-03 19:38:45.29,48716339, -0.06, 0.01, 352.98, 585.090026855, -35.363261, 149.1652299, 0.998128294945, -0.00059124751715, 0.000149834653712, -0.0611521340907
2019-04-03 19:38:45.39,48816299, -0.01, 0.03, 352.98, 585.239990234, -35.363261, 149.1652299, 0.998127698898, -0.000120215838251, 0.000283269881038, -0.0611641816795
2019-04-03 19:38:45.49,48916259, 0.04, 0.06, 352.98, 585.409973145, -35.363261, 149.1652299, 0.998126924038, 0.000405454600696, 0.000556672050152, -0.0611730702221
2019-04-03 19:38:45.59,49016219, 0.08, 0.09, 352.98, 585.58001709, -35.363261, 149.1652299, 0.998126268387, 0.000792362901848, 0.000767789140809, -0.0611783154309
2019-04-03 19:38:45.69,49116179, 0.08, 0.11, 352.98, 585.75, -35.363261, 149.1652299, 0.998125851154, 0.000801218790002, 0.000972922309302, -0.0611823126674
2019-04-03 19:38:45.79,49216139, 0.03, 0.13, 352.98, 585.929992676, -35.363261, 149.1652299, 0.998124837875, 0.000364404259017, 0.00113829725888, -0.0611999407411
2019-04-03 19:38:45.89,49316099, -0.02, 0.13, 352.98, 586.119995117, -35.363261, 149.1652299, 0.99812400341, -0.000154605513671, 0.00119114073459, -0.061212696135
2019-04-03 19:38:45.99,49416059, -0.06, 0.1, 352.98, 586.299987793, -35.363261, 149.1652299, 0.998123943806, -0.000472985120723, 0.000978119904175, -0.0612154975533
2019-04-03 19:38:46.09,49516019, -0.06, 0.06, 352.98, 586.5, -35.363261, 149.1652299, 0.998124420643, -0.000523350317962, 0.000605935812928, -0.0612118281424
2019-04-03 19:38:46.19,49615979, -0.05, 0.04, 352.98, 586.690002441, -35.363261, 149.1652299, 0.998125493526, -0.000453440938145, 0.000452508364106, -0.0611974671483
2019-04-03 19:38:46.29,49715939, -0.01, 0.06, 352.98, 586.890014648, -35.363261, 149.1652299, 0.998126149178, -8.82240274223e-05, 0.000539191649295, -0.0611883252859
2019-04-03 19:38:46.39,49815899, 0.04, 0.06, 352.98, 587.090026855, -35.363261, 149.1652299, 0.998126089573, 0.000453665619716, 0.000575105601456, -0.0611863434315
2019-04-03 19:38:46.49,49915859, 0.08, 0.04, 352.98, 587.289978027, -35.363261, 149.1652298, 0.998126089573, 0.000794992083684, 0.000366648222553, -0.0611850991845
2019-04-03 19:38:46.59,50015819, 0.07, 0.0, 352.98, 587.489990234, -35.363261, 149.1652298, 0.998125910759, 0.000696092960425, 1.99088335648e-05, -0.0611904338002
2019-04-03 19:38:46.69,50115779, 0.02, -0.01, 352.98, 587.700012207, -35.363261, 149.1652298, 0.998125493526, 0.000231065831031, -0.000109447973955, -0.0612001009285
2019-04-03 19:38:46.79,50215739, -0.03, -0.01, 352.98, 587.909973145, -35.363261, 149.1652298, 0.998124837875, -0.000291831645882, -9.92944114842e-05, -0.0612102709711
2019-04-03 19:38:46.89,50315699, -0.07, 0.0, 352.98, 588.119995117, -35.363261, 149.1652298, 0.998124182224, -0.000628148030955, -8.5649171524e-06, -0.0612185448408
2019-04-03 19:38:46.99,50415659, -0.1, 0.0, 352.97, 588.33001709, -35.363261, 149.1652298, 0.998123526573, -0.000884572276846, 3.42679923051e-05, -0.061226375401
2019-04-03 19:38:47.10,50516452, -0.11, -0.02, 352.97, 588.530029297, -35.363261, 149.1652298, 0.998122692108, -0.00102728116326, -0.000122896846733, -0.0612370744348
2019-04-03 19:38:47.20,50616412, -0.12, -0.04, 352.97, 588.729980469, -35.363261, 149.1652298, 0.998121857643, -0.00112476479262, -0.00033046817407, -0.0612490214407
2019-04-03 19:38:47.29,50716372, -0.11, -0.06, 352.97, 588.929992676, -35.363261, 149.1652298, 0.998121201992, -0.00107672123704, -0.000480994553072, -0.0612593330443
2019-04-03 19:38:47.39,50816332, -0.09, -0.06, 352.97, 589.109985352, -35.363261, 149.1652298, 0.998120844364, -0.000884981476702, -0.000537382962648, -0.0612673722208
2019-04-03 19:38:47.49,50916292, -0.07, -0.05, 352.97, 589.280029297, -35.363261, 149.1652298, 0.998120546341, -0.000718650175259, -0.000460293143988, -0.0612746700644
2019-04-03 19:38:47.59,51016252, -0.12, -0.03, 352.97, 589.429992676, -35.363261, 149.1652298, 0.998119771481, -0.00113174750004, -0.000229750934523, -0.0612829960883
2019-04-03 19:38:47.69,51116212, -0.4, 0.03, 352.97, 589.58001709, -35.363261, 149.1652298, 0.998113393784, -0.00352842430584, 0.000551158329472, -0.0612939745188
2019-04-03 19:38:47.79,51216172, -0.98, 0.19, 352.96, 589.710021973, -35.363261, 149.1652298, 0.998080968857, -0.00844081956893, 0.00222210935317, -0.0613046735525
2019-04-03 19:38:47.89,51316132, -1.8, 0.42, 352.96, 589.83001709, -35.363261, 149.1652298, 0.997988641262, -0.0154533348978, 0.00469973031431, -0.0613012202084
2019-04-03 19:38:47.99,51416092, -2.79, 0.71, 352.95, 589.940002441, -35.363261, 149.1652298, 0.997803628445, -0.0239502117038, 0.00768970744684, -0.0612796843052
2019-04-03 19:38:48.09,51516052, -3.86, 1.01, 352.94, 590.030029297, -35.363261, 149.1652297, 0.99751573801, -0.0330747514963, 0.0109320068732, -0.0612283684313
2019-04-03 19:38:48.19,51616012, -4.84, 1.29, 352.92, 590.109985352, -35.363261, 149.1652296, 0.997170507908, -0.0415020287037, 0.0138410627842, -0.0611315593123
2019-04-03 19:38:48.29,51715972, -5.61, 1.5, 352.92, 590.190002441, -35.363261, 149.1652293, 0.996847689152, -0.0480986535549, 0.0161244720221, -0.0610017590225
2019-04-03 19:38:48.39,51815932, -6.17, 1.67, 352.92, 590.25, -35.3632611, 149.1652289, 0.996586322784, -0.0528541021049, 0.0178874917328, -0.0608459487557
2019-04-03 19:38:48.49,51915892, -6.57, 1.81, 352.92, 590.309997559, -35.3632613, 149.1652286, 0.996384382248, -0.0562432967126, 0.0193175263703, -0.0606774501503
2019-04-03 19:38:48.59,52015852, -6.9, 1.93, 352.93, 590.359985352, -35.3632614, 149.1652282, 0.996211051941, -0.0590222366154, 0.0204966329038, -0.0604962334037
2019-04-03 19:38:48.69,52115812, -7.22, 2.03, 352.94, 590.400024414, -35.3632616, 149.1652275, 0.996032357216, -0.0617726184428, 0.0215953420848, -0.0603107139468
2019-04-03 19:38:48.79,52215772, -7.56, 2.13, 352.94, 590.440002441, -35.3632617, 149.1652269, 0.995834112167, -0.0647216886282, 0.0226079728454, -0.0601201094687
2019-04-03 19:38:48.89,52315732, -7.86, 2.21, 352.95, 590.469970703, -35.3632621, 149.1652262, 0.995654284954, -0.0672905221581, 0.0234691090882, -0.0599483288825
2019-04-03 19:38:48.99,52415692, -8.08, 2.26, 352.96, 590.5, -35.3632622, 149.1652254, 0.995524525642, -0.0691298320889, 0.0239889957011, -0.0598044246435
2019-04-03 19:38:49.10,52516485, -8.23, 2.29, 352.97, 590.530029297, -35.3632627, 149.1652244, 0.995430409908, -0.0704322606325, 0.0243549570441, -0.0597028881311
2019-04-03 19:38:49.20,52616445, -8.35, 2.31, 352.97, 590.559997559, -35.3632629, 149.1652234, 0.995357275009, -0.0714310780168, 0.0245834123343, -0.0596423260868
2019-04-03 19:38:49.30,52716405, -8.43, 2.35, 352.96, 590.58001709, -35.3632634, 149.1652222, 0.995298802853, -0.0721076875925, 0.0249781738967, -0.0596402660012
2019-04-03 19:38:49.39,52816365, -8.53, 2.45, 352.94, 590.609985352, -35.3632637, 149.1652212, 0.995208919048, -0.0729236453772, 0.0258788857609, -0.0597631782293
2019-04-03 19:38:49.49,52916325, -8.66, 2.8, 352.65, 590.630004883, -35.3632641, 149.1652198, 0.994913816452, -0.0738155096769, 0.0291648432612, -0.0620260648429
2019-04-03 19:38:49.59,53016285, -8.87, 3.38, 351.45, 590.650024414, -35.3632646, 149.1652186, 0.993967533112, -0.0749577507377, 0.0351094938815, -0.0719530880451
2019-04-03 19:38:49.69,53116245, -9.25, 3.81, 348.74, 590.66998291, -35.3632651, 149.1652172, 0.991647005081, -0.0770285278559, 0.0409519858658, -0.0950038507581
2019-04-03 19:38:49.79,53216205, -9.82, 3.72, 344.4, 590.690002441, -35.3632657, 149.1652157, 0.986969470978, -0.080430790782, 0.04367217049, -0.132344067097
2019-04-03 19:38:49.89,53316165, -10.5, 2.91, 338.64, 590.710021973, -35.3632663, 149.1652141, 0.978674650192, -0.0851958915591, 0.0418549589813, -0.182169601321
2019-04-03 19:38:49.99,53416125, -11.09, 1.4, 331.76, 590.729980469, -35.3632669, 149.1652126, 0.965473532677, -0.0907441601157, 0.0354004018009, -0.241605386138
2019-04-03 19:38:50.09,53516085, -11.43, -0.69, 324.07, 590.75, -35.3632677, 149.1652109, 0.946308851242, -0.0966498851776, 0.0249811299145, -0.307464241982
2019-04-03 19:38:50.19,53616045, -11.4, -3.15, 315.81, 590.780029297, -35.3632683, 149.1652092, 0.920631051064, -0.102312378585, 0.0119228521362, -0.376601308584
2019-04-03 19:38:50.29,53716005, -10.88, -5.7, 307.23, 590.799987793, -35.3632693, 149.1652073, 0.888606369495, -0.106892473996, -0.00231831846759, -0.446035206318
2019-04-03 19:38:50.39,53815965, -9.89, -8.11, 298.55, 590.820007324, -35.3632701, 149.1652054, 0.851174175739, -0.109978333116, -0.0166571959853, -0.512961864471
2019-04-03 19:38:50.49,53915925, -8.51, -10.21, 290.02, 590.849975586, -35.363271, 149.1652034, 0.809976398945, -0.111475281417, -0.0303084533662, -0.57497215271
2019-04-03 19:38:50.59,54015885, -6.89, -11.86, 281.87, 590.880004883, -35.3632719, 149.1652011, 0.766999721527, -0.111482530832, -0.0424305573106, -0.630462348461
2019-04-03 19:38:50.69,54115845, -5.21, -13.08, 274.3, 590.900024414, -35.3632726, 149.165199, 0.724089205265, -0.110531806946, -0.0527004264295, -0.678749084473
2019-04-03 19:38:50.79,54215805, -3.6, -13.9, 267.38, 590.929992676, -35.3632737, 149.1651966, 0.682626128197, -0.109034180641, -0.0610310509801, -0.720005810261
2019-04-03 19:38:50.89,54315765, -2.15, -14.39, 261.13, 590.960021973, -35.3632745, 149.165194, 0.643342971802, -0.107275091112, -0.067304469645, -0.755031108856
2019-04-03 19:38:50.99,54415725, -0.91, -14.64, 255.48, 590.989990234, -35.3632755, 149.1651915, 0.606292545795, -0.1056766361, -0.0717401579022, -0.784917294979
2019-04-03 19:38:51.09,54515685, 0.18, -14.76, 250.3, 591.020019531, -35.3632763, 149.1651889, 0.571125507355, -0.104149907827, -0.0753095373511, -0.810738503933
2019-04-03 19:38:51.20,54616478, 1.52, -14.81, 245.61, 591.049987793, -35.3632774, 149.165186, 0.538686096668, -0.101221971214, -0.0809381902218, -0.83247846365
2019-04-03 19:38:51.30,54716438, 2.98, -14.79, 241.87, 591.090026855, -35.3632784, 149.1651832, 0.512522757053, -0.0970966443419, -0.0883495509624, -0.848579525948
2019-04-03 19:38:51.40,54816398, 4.28, -14.72, 239.34, 591.119995117, -35.3632792, 149.1651801, -0.494783043861, 0.0928879976273, 0.0955896303058, 0.858734071255
2019-04-03 19:38:51.49,54916358, 5.09, -14.65, 238.1, 591.150024414, -35.3632803, 149.1651771, -0.486157625914, 0.0899440944195, 0.100432433188, 0.863408446312
2019-04-03 19:38:51.59,55016318, 5.23, -14.63, 238.05, 591.190002441, -35.3632813, 149.1651738, -0.485852301121, 0.0893017277122, 0.101314023137, 0.863543987274
2019-04-03 19:38:51.69,55116278, 4.66, -14.73, 238.95, 591.219970703, -35.3632822, 149.1651707, -0.492171704769, 0.0916362926364, 0.0982084870338, 0.860072612762
2019-04-03 19:38:51.79,55216238, 3.54, -14.93, 240.55, 591.25, -35.363283, 149.1651673, 0.503109693527, -0.0967309549451, -0.0920166894794, -0.853848218918
2019-04-03 19:38:51.89,55316198, 2.11, -15.19, 242.55, 591.289978027, -35.3632841, 149.1651638, 0.5166451931, -0.10348328203, -0.0842999741435, -0.845731973648
2019-04-03 19:38:51.99,55416158, 0.62, -15.44, 244.69, 591.33001709, -35.3632851, 149.1651604, 0.530797839165, -0.110581919551, -0.0764664709568, -0.8367664814
2019-04-03 19:38:52.09,55516118, -0.7, -15.63, 246.68, 591.359985352, -35.363286, 149.1651569, 0.543802917004, -0.116923958063, -0.0696779713035, -0.82810151577
2019-04-03 19:38:52.19,55616078, -1.7, -15.74, 248.3, 591.400024414, -35.3632871, 149.1651532, 0.554383337498, -0.121575333178, -0.0647131353617, -0.820786774158
2019-04-03 19:38:52.29,55716038, -2.29, -15.79, 249.43, 591.440002441, -35.3632882, 149.1651497, 0.561774075031, -0.124221511185, -0.0619853250682, -0.815559148788
2019-04-03 19:38:52.39,55815998, -2.49, -15.81, 250.02, 591.469970703, -35.3632894, 149.165146, 0.565678417683, -0.125051498413, -0.061279386282, -0.812782168388
2019-04-03 19:38:52.49,55915958, -2.38, -15.83, 250.08, 591.510009766, -35.3632906, 149.1651422, 0.566210329533, -0.124581135809, -0.0621891729534, -0.812414884567
2019-04-03 19:38:52.59,56015918, -2.04, -15.85, 249.69, 591.549987793, -35.3632918, 149.1651386, 0.563858568668, -0.123252995312, -0.0643221735954, -0.814085304737
2019-04-03 19:38:52.69,56115878, -1.54, -15.9, 248.99, 591.58001709, -35.3632931, 149.1651348, 0.559339225292, -0.121592923999, -0.0673647150397, -0.817200601101
2019-04-03 19:38:52.79,56215838, -0.96, -15.99, 248.1, 591.619995117, -35.3632944, 149.165131, 0.553513109684, -0.119916498661, -0.07102625072, -0.821095943451
2019-04-03 19:38:52.89,56315798, -0.39, -16.09, 247.15, 591.659973145, -35.3632957, 149.1651272, 0.5472214818, -0.11850053817, -0.0745941996574, -0.825192153454
2019-04-03 19:38:52.99,56415758, 0.1, -16.17, 246.26, 591.690002441, -35.363297, 149.1651233, 0.541256904602, -0.117311455309, -0.0776519328356, -0.829004943371
2019-04-03 19:38:53.09,56515718, 0.5, -16.24, 245.52, 591.729980469, -35.3632984, 149.1651193, 0.53624266386, -0.1164220348, -0.0801088735461, -0.832149147987
2019-04-03 19:38:53.19,56615678, 0.78, -16.29, 244.98, 591.770019531, -35.3632998, 149.1651154, 0.532583355904, -0.115858711302, -0.0818801671267, -0.834402382374
2019-04-03 19:38:53.30,56716471, 0.94, -16.31, 244.67, 591.809997559, -35.3633011, 149.1651114, 0.530446469784, -0.115571476519, -0.0827790573239, -0.835713744164
2019-04-03 19:38:53.40,56816431, 0.95, -16.34, 244.58, 591.840026855, -35.3633026, 149.1651073, 0.52979940176, -0.115703992546, -0.0829198881984, -0.83609187603
2019-04-03 19:38:53.49,56916391, 0.85, -16.35, 244.68, 591.880004883, -35.363304, 149.1651033, 0.530412256718, -0.116199530661, -0.0823158845305, -0.835694134235
2019-04-03 19:38:53.59,57016351, 0.66, -16.35, 244.92, 591.91998291, -35.3633054, 149.1650991, 0.531974494457, -0.11696614325, -0.0812072083354, -0.834702014923
2019-04-03 19:38:53.69,57116311, 0.42, -16.37, 245.25, 591.950012207, -35.3633067, 149.1650949, 0.534129977226, -0.117929667234, -0.0798779577017, -0.833316981792
2019-04-03 19:38:53.79,57216271, 0.17, -16.38, 245.62, 591.989990234, -35.3633083, 149.1650908, 0.536514341831, -0.118976466358, -0.0784772187471, -0.831768214703
2019-04-03 19:38:53.89,57316231, -0.06, -16.4, 245.97, 592.030029297, -35.3633096, 149.1650866, 0.538809359074, -0.119987331331, -0.077250123024, -0.830252945423
2019-04-03 19:38:53.99,57416191, -0.25, -16.44, 246.27, 592.059997559, -35.3633112, 149.1650824, 0.540756881237, -0.120966225863, -0.0763449966908, -0.828927338123
2019-04-03 19:38:54.09,57516151, -0.38, -16.48, 246.49, 592.099975586, -35.3633126, 149.1650781, 0.542204320431, -0.121763639152, -0.0758264064789, -0.827912151814
2019-04-03 19:38:54.19,57616111, -0.44, -16.52, 246.63, 592.140014648, -35.363314, 149.1650738, 0.543081045151, -0.122257113457, -0.0757095590234, -0.827275216579
2019-04-03 19:38:54.29,57716071, -0.45, -16.56, 246.67, 592.179992676, -35.3633156, 149.1650695, 0.543387532234, -0.122502490878, -0.0758508220315, -0.827024638653
2019-04-03 19:38:54.39,57816031, -0.4, -16.58, 246.65, 592.210021973, -35.363317, 149.1650652, 0.543217241764, -0.122442729771, -0.0763375759125, -0.827100634575
2019-04-03 19:38:54.49,57915991, -0.29, -16.62, 246.56, 592.25, -35.3633187, 149.1650609, 0.542670488358, -0.122291684151, -0.0771787986159, -0.827403724194
2019-04-03 19:38:54.59,58015951, -0.18, -16.67, 246.43, 592.289978027, -35.3633201, 149.1650566, 0.541873455048, -0.122139766812, -0.0781114846468, -0.827860832214
2019-04-03 19:38:54.69,58115911, -0.07, -16.72, 246.3, 592.320007324, -35.3633218, 149.1650522, 0.540956020355, -0.122108817101, -0.0789720118046, -0.828383624554
2019-04-03 19:38:54.79,58215871, 0.0, -16.75, 246.17, 592.359985352, -35.3633233, 149.1650479, 0.540060579777, -0.122092530131, -0.0795758962631, -0.828912377357
2019-04-03 19:38:54.89,58315831, 0.08, -16.77, 246.05, 592.400024414, -35.3633248, 149.1650436, 0.539329588413, -0.121897548437, -0.0801155641675, -0.829364895821
2019-04-03 19:38:54.99,58415791, 0.12, -16.77, 245.97, 592.440002441, -35.3633265, 149.1650392, 0.538803756237, -0.121730066836, -0.0803572386503, -0.829707801342
2019-04-03 19:38:55.09,58515751, 0.16, -16.77, 245.93, 592.469970703, -35.3633279, 149.1650347, 0.538530349731, -0.121638990939, -0.0805938839912, -0.829875767231
2019-04-03 19:38:55.19,58615711, 0.2, -16.78, 245.93, 592.510009766, -35.3633296, 149.1650302, 0.538529753685, -0.121489748359, -0.0808966755867, -0.829868495464
2019-04-03 19:38:55.29,58715671, 0.21, -16.78, 245.96, 592.549987793, -35.3633312, 149.1650258, 0.538745820522, -0.121424257755, -0.0809854716063, -0.829729259014
2019-04-03 19:38:55.40,58816464, 0.17, -16.8, 246.01, 592.590026855, -35.3633327, 149.1650213, 0.539100527763, -0.121686145663, -0.0808877274394, -0.829469978809
2019-04-03 19:38:55.50,58916424, 0.11, -16.83, 246.08, 592.619995117, -35.3633344, 149.1650168, 0.539525568485, -0.1222089082, -0.0806661918759, -0.829138219357
2019-04-03 19:38:55.59,59016384, 0.04, -16.89, 246.16, 592.659973145, -35.3633359, 149.1650123, 0.539989352226, -0.122830487788, -0.0805227607489, -0.828758299351
2019-04-03 19:38:55.69,59116344, 0.0, -16.93, 246.24, 592.700012207, -35.3633376, 149.1650077, 0.540460526943, -0.123364016414, -0.0804581567645, -0.828378081322
2019-04-03 19:38:55.79,59216304, -0.04, -16.97, 246.31, 592.739990234, -35.3633393, 149.1650033, 0.540890216827, -0.123763971031, -0.0804205015302, -0.828041613102
2019-04-03 19:38:55.89,59316264, -0.06, -16.99, 246.36, 592.770019531, -35.3633409, 149.1649986, 0.541254997253, -0.124014317989, -0.0804235860705, -0.827765345573
2019-04-03 19:38:55.99,59416224, -0.07, -17.01, 246.41, 592.809997559, -35.3633425, 149.1649942, 0.541541695595, -0.124154165387, -0.0805106237531, -0.827548384666
2019-04-03 19:38:56.09,59516184, -0.05, -17.03, 246.43, 592.849975586, -35.3633441, 149.1649895, 0.541746735573, -0.124154500663, -0.0806943848729, -0.827396273613
2019-04-03 19:38:56.19,59616144, -0.02, -17.04, 246.45, 592.890014648, -35.3633458, 149.164985, 0.541867017746, -0.124086238444, -0.0809772983193, -0.827300131321
2019-04-03 19:38:56.29,59716104, -0.01, -17.05, 246.45, 592.929992676, -35.3633473, 149.1649804, 0.54189568758, -0.124083206058, -0.0811586529016, -0.827263951302
2019-04-03 19:38:56.39,59816064, 0.0, -17.06, 246.44, 592.960021973, -35.363349, 149.1649757, 0.541861534119, -0.124128125608, -0.0813336968422, -0.827262401581
2019-04-03 19:38:56.49,59916024, 0.01, -17.09, 246.44, 593.0, -35.3633507, 149.1649712, 0.541803121567, -0.124247521162, -0.0814992263913, -0.827266454697
2019-04-03 19:38:56.59,60015984, 0.01, -17.12, 246.43, 593.039978027, -35.3633522, 149.1649665, 0.541724264622, -0.124479100108, -0.0816380605102, -0.827269554138
2019-04-03 19:38:56.69,60115944, 0.0, -17.15, 246.42, 593.08001709, -35.363354, 149.164962, 0.541647017002, -0.124803721905, -0.0816242620349, -0.82727265358
2019-04-03 19:38:56.79,60215904, -0.03, -17.16, 246.42, 593.119995117, -35.3633556, 149.1649573, 0.541604936123, -0.125056669116, -0.0815040245652, -0.827273905277
2019-04-03 19:38:56.89,60315864, -0.06, -17.18, 246.43, 593.150024414, -35.3633572, 149.1649526, 0.541593790054, -0.125290870667, -0.0813798755407, -0.827257990837
2019-04-03 19:38:56.99,60415824, -0.07, -17.21, 246.44, 593.190002441, -35.3633589, 149.1649479, 0.541629731655, -0.125524610281, -0.0814299210906, -0.827194094658
2019-04-03 19:38:57.09,60515784, -0.06, -17.23, 246.45, 593.229980469, -35.3633606, 149.1649433, 0.541723072529, -0.125661045313, -0.081650853157, -0.827090382576
2019-04-03 19:38:57.19,60615744, -0.04, -17.26, 246.47, 593.270019531, -35.3633623, 149.1649386, 0.54186052084, -0.125741302967, -0.0819698646665, -0.826956629753
2019-04-03 19:38:57.29,60715704, 0.0, -17.29, 246.49, 593.309997559, -35.3633638, 149.164934, 0.542040407658, -0.125731304288, -0.0824302136898, -0.826794505119
2019-04-03 19:38:57.39,60815664, 0.02, -17.31, 246.51, 593.340026855, -35.3633656, 149.1649292, 0.542210698128, -0.125780880451, -0.0827413350344, -0.82664424181
2019-04-03 19:38:57.50,60916457, 0.02, -17.32, 246.54, 593.380004883, -35.3633673, 149.1649244, 0.542359948158, -0.125854194164, -0.082797691226, -0.826529502869
2019-04-03 19:38:57.60,61016417, 0.0, -17.33, 246.56, 593.41998291, -35.363369, 149.1649198, 0.54248291254, -0.12603020668, -0.0826323181391, -0.826438486576
2019-04-03 19:38:57.69,61116377, -0.03, -17.33, 246.58, 593.460021973, -35.3633707, 149.1649151, 0.542599081993, -0.126135349274, -0.0824246406555, -0.826366841793
2019-04-03 19:38:57.79,61216337, -0.05, -17.33, 246.6, 593.5, -35.3633723, 149.1649103, 0.542704164982, -0.126201450825, -0.0823726654053, -0.826292991638
2019-04-03 19:38:57.89,61316297, -0.03, -17.35, 246.61, 593.530029297, -35.363374, 149.1649056, 0.542808234692, -0.126283675432, -0.0826199948788, -0.826187431812
2019-04-03 19:38:57.99,61416257, 0.0, -17.4, 246.62, 593.570007324, -35.3633757, 149.1649009, 0.54288995266, -0.12651629746, -0.0830523595214, -0.826054811478
2019-04-03 19:38:58.09,61516217, 0.0, -17.44, 246.63, 593.609985352, -35.3633774, 149.1648961, 0.542965650558, -0.126679971814, -0.0833256915212, -0.825952351093
2019-04-03 19:38:58.19,61616177, 0.0, -17.43, 246.65, 593.650024414, -35.363379, 149.1648913, 0.543060898781, -0.126617178321, -0.083329051733, -0.825899064541
2019-04-03 19:38:58.29,61716137, 0.0, -17.42, 246.66, 593.679992676, -35.3633808, 149.1648866, 0.543144404888, -0.12651835382, -0.0832840874791, -0.825863778591
2019-04-03 19:38:58.39,61816097, 0.0, -17.43, 246.67, 593.719970703, -35.3633825, 149.1648818, 0.543191790581, -0.126625210047, -0.0832389444113, -0.825820803642
2019-04-03 19:38:58.49,61916057, 0.0, -17.44, 246.67, 593.760009766, -35.3633842, 149.164877, 0.5432305336, -0.126733541489, -0.0833069160581, -0.825771868229
2019-04-03 19:38:58.59,62016017, -0.01, -17.46, 246.68, 593.799987793, -35.3633859, 149.1648722, 0.543259620667, -0.126884579659, -0.0833704322577, -0.825723171234
2019-04-03 19:38:58.69,62115977, -0.01, -17.47, 246.69, 593.840026855, -35.3633875, 149.1648674, 0.543301701546, -0.126979351044, -0.0834197476506, -0.825675904751
2019-04-03 19:38:58.79,62215937, -0.01, -17.49, 246.7, 593.869995117, -35.3633893, 149.1648626, 0.543347418308, -0.127081826329, -0.0835205838084, -0.825619876385
2019-04-03 19:38:58.89,62315897, 0.0, -17.5, 246.7, 593.909973145, -35.363391, 149.1648578, 0.54340159893, -0.127144873142, -0.083643451333, -0.825562059879
2019-04-03 19:38:58.99,62415857, 0.0, -17.52, 246.71, 593.950012207, -35.3633927, 149.164853, 0.543466746807, -0.127199053764, -0.0838406905532, -0.825490832329
2019-04-03 19:38:59.09,62515817, 0.03, -17.54, 246.72, 593.989990234, -35.3633944, 149.1648482, 0.543542981148, -0.127244114876, -0.0840991660953, -0.825407385826
2019-04-03 19:38:59.19,62615777, 0.03, -17.57, 246.73, 594.020019531, -35.363396, 149.1648434, 0.543606817722, -0.127406954765, -0.0842576101422, -0.825324058533
2019-04-03 19:38:59.29,62715737, 0.02, -17.6, 246.74, 594.059997559, -35.3633978, 149.1648385, 0.543653666973, -0.127668127418, -0.0843315199018, -0.825245261192
2019-04-03 19:38:59.39,62815697, 0.0, -17.63, 246.76, 594.099975586, -35.3633995, 149.1648337, 0.543693125248, -0.12797626853, -0.0843536183238, -0.825169324875
2019-04-03 19:38:59.50,62916490, 0.0, -17.65, 246.77, 594.140014648, -35.3634013, 149.1648287, 0.54376488924, -0.128081053495, -0.0844805464149, -0.825092792511
2019-04-03 19:38:59.60,63016450, 0.01, -17.64, 246.78, 594.16998291, -35.363403, 149.1648238, 0.543860137463, -0.127968132496, -0.0845184847713, -0.825043678284
2019-04-03 19:38:59.70,63116410, 0.02, -17.61, 246.79, 594.210021973, -35.3634046, 149.1648191, 0.543967545033, -0.127671226859, -0.0844549164176, -0.825025260448
2019-04-03 19:38:59.79,63216370, 0.02, -17.58, 246.8, 594.25, -35.3634063, 149.1648142, 0.54404258728, -0.127499088645, -0.084316752851, -0.825016617775
2019-04-03 19:38:59.89,63316330, 0.01, -17.57, 246.8, 594.289978027, -35.3634081, 149.1648093, 0.544088959694, -0.127463415265, -0.0841825827956, -0.825005173683
2019-04-03 19:38:59.99,63416290, 0.0, -17.55, 246.81, 594.33001709, -35.3634098, 149.1648045, 0.544135928154, -0.127405449748, -0.0840507075191, -0.824996590614
2019-04-03 19:39:00.09,63516250, 0.0, -17.56, 246.82, 594.359985352, -35.3634116, 149.1647995, 0.544167876244, -0.127511993051, -0.0840447619557, -0.824959695339
2019-04-03 19:39:00.19,63616210, 0.0, -17.59, 246.82, 594.400024414, -35.3634133, 149.1647946, 0.544199228287, -0.127677321434, -0.0842283219099, -0.824894726276
2019-04-03 19:39:00.29,63716170, 0.0, -17.64, 246.83, 594.440002441, -35.3634149, 149.1647898, 0.544204652309, -0.128004953265, -0.084427125752, -0.824820101261
2019-04-03 19:39:00.39,63816130, 0.0, -17.69, 246.83, 594.479980469, -35.3634167, 149.1647849, 0.544192254543, -0.128417655826, -0.0846741050482, -0.824738800526
2019-04-03 19:39:00.49,63916090, 0.0, -17.72, 246.84, 594.510009766, -35.3634184, 149.1647799, 0.544196665287, -0.128608345985, -0.0848086252809, -0.824692368507
2019-04-03 19:39:00.59,64016050, -0.01, -17.73, 246.84, 594.549987793, -35.3634201, 149.164775, 0.544210314751, -0.128709957004, -0.0848131775856, -0.824667096138
2019-04-03 19:39:00.69,64116010, -0.01, -17.74, 246.84, 594.590026855, -35.3634219, 149.1647702, 0.544227182865, -0.128825813532, -0.084848433733, -0.824634075165
2019-04-03 19:39:00.79,64215970, 0.0, -17.73, 246.85, 594.630004883, -35.3634236, 149.1647653, 0.544272303581, -0.128683805466, -0.084869839251, -0.824624419212
2019-04-03 19:39:00.89,64315930, 0.01, -17.72, 246.85, 594.66998291, -35.3634252, 149.1647604, 0.544328510761, -0.128506436944, -0.0850035250187, -0.824601054192
2019-04-03 19:39:00.99,64415890, 0.02, -17.74, 246.85, 594.700012207, -35.363427, 149.1647554, 0.544349312782, -0.128559798002, -0.0851513817906, -0.824563801289
2019-04-03 19:39:01.09,64515850, 0.03, -17.75, 246.86, 594.739990234, -35.3634288, 149.1647505, 0.544363677502, -0.128611698747, -0.0852551758289, -0.824535548687
2019-04-03 19:39:01.19,64615810, 0.03, -17.75, 246.86, 594.780029297, -35.3634305, 149.1647456, 0.544379115105, -0.128614991903, -0.0852626860142, -0.824524044991
2019-04-03 19:39:01.29,64715770, 0.03, -17.74, 246.86, 594.820007324, -35.3634322, 149.1647406, 0.544402122498, -0.128578364849, -0.0852324217558, -0.824517667294
2019-04-03 19:39:01.39,64815730, 0.01, -17.75, 246.86, 594.849975586, -35.363434, 149.1647357, 0.544396400452, -0.128706589341, -0.0850925967097, -0.824515938759
2019-04-03 19:39:01.49,64915690, -0.01, -17.77, 246.87, 594.890014648, -35.3634356, 149.1647308, 0.544368207455, -0.128998667002, -0.0849923714995, -0.824499249458
2019-04-03 19:39:01.60,65016483, -0.04, -17.78, 246.87, 594.929992676, -35.3634373, 149.1647257, 0.544346511364, -0.129215687513, -0.0848617702723, -0.824492931366
2019-04-03 19:39:01.70,65116443, -0.03, -17.76, 246.87, 594.969970703, -35.3634391, 149.1647208, 0.544381856918, -0.129030391574, -0.0848123580217, -0.824503719807
2019-04-03 19:39:01.80,65216403, -0.01, -17.74, 246.87, 595.0, -35.3634409, 149.1647159, 0.544431686401, -0.128763988614, -0.0849174112082, -0.824501693249
2019-04-03 19:39:01.89,65316363, 0.0, -17.74, 246.87, 595.039978027, -35.3634426, 149.1647109, 0.544453561306, -0.128654047847, -0.0850387215614, -0.824491858482
2019-04-03 19:39:01.99,65416323, 0.0, -17.75, 246.87, 595.08001709, -35.3634444, 149.164706, 0.544434726238, -0.128752142191, -0.0850546807051, -0.824487388134
2019-04-03 19:39:02.09,65516283, -0.03, -17.77, 246.87, 595.119995117, -35.3634461, 149.1647009, 0.544370770454, -0.129094287753, -0.0849125832319, -0.824490785599
2019-04-03 19:39:02.19,65616243, -0.05, -17.79, 246.87, 595.159973145, -35.3634477, 149.164696, 0.544317185879, -0.129365503788, -0.0848145410419, -0.824493706226
2019-04-03 19:39:02.29,65716203, -0.05, -17.81, 246.87, 595.190002441, -35.3634495, 149.1646911, 0.544303774834, -0.129492402077, -0.0849254727364, -0.824471235275
2019-04-03 19:39:02.39,65816163, -0.03, -17.82, 246.87, 595.229980469, -35.3634513, 149.164686, 0.544305324554, -0.129488632083, -0.0851352363825, -0.824449181557
2019-04-03 19:39:02.49,65916123, 0.0, -17.83, 246.86, 595.270019531, -35.363453, 149.1646811, 0.5443187356, -0.129391059279, -0.0853593200445, -0.824432492256
2019-04-03 19:39:02.59,66016083, 0.01, -17.84, 246.86, 595.309997559, -35.3634548, 149.1646762, 0.544317305088, -0.129354968667, -0.0855515301228, -0.82441920042
2019-04-03 19:39:02.69,66116043, 0.02, -17.86, 246.86, 595.349975586, -35.3634565, 149.1646711, 0.544288992882, -0.129440397024, -0.0856830105186, -0.824410796165
2019-04-03 19:39:02.79,66216003, 0.02, -17.87, 246.85, 595.380004883, -35.3634581, 149.1646662, 0.544251859188, -0.129496440291, -0.0857636705041, -0.824418067932
2019-04-03 19:39:02.89,66315963, 0.05, -17.87, 246.85, 595.41998291, -35.3634599, 149.1646611, 0.544251799583, -0.129384681582, -0.0860134214163, -0.824409663677
2019-04-03 19:39:02.99,66415923, 0.09, -17.88, 246.85, 595.460021973, -35.3634616, 149.1646563, 0.544267296791, -0.129303351045, -0.0863242447376, -0.824379742146
2019-04-03 19:39:03.09,66515883, 0.09, -17.88, 246.85, 595.5, -35.3634634, 149.1646513, 0.544261872768, -0.129286527634, -0.0862801000476, -0.824390530586
2019-04-03 19:39:03.19,66615843, 0.05, -17.88, 246.85, 595.539978027, -35.3634652, 149.1646462, 0.54422968626, -0.129442885518, -0.086014777422, -0.824414968491
2019-04-03 19:39:03.29,66715803, 0.02, -17.88, 246.85, 595.570007324, -35.3634669, 149.1646413, 0.544194638729, -0.129661679268, -0.0858021527529, -0.824425876141
2019-04-03 19:39:03.39,66815763, -0.01, -17.88, 246.85, 595.609985352, -35.3634687, 149.1646362, 0.544164299965, -0.129829600453, -0.085545681417, -0.824446201324
2019-04-03 19:39:03.49,66915723, -0.04, -17.88, 246.85, 595.650024414, -35.3634704, 149.1646313, 0.544142484665, -0.129941537976, -0.0853153318167, -0.824466824532
2019-04-03 19:39:03.59,67015683, -0.04, -17.88, 246.85, 595.690002441, -35.363472, 149.1646262, 0.544142127037, -0.129961386323, -0.0852773934603, -0.824467837811
2019-04-03 19:39:03.70,67116476, -0.03, -17.87, 246.85, 595.729980469, -35.3634738, 149.1646213, 0.544168233871, -0.129833459854, -0.0853799059987, -0.824460148811
2019-04-03 19:39:03.80,67216436, -0.01, -17.87, 246.85, 595.760009766, -35.3634756, 149.1646163, 0.544179797173, -0.129714146256, -0.0854518264532, -0.824463903904
2019-04-03 19:39:03.90,67316396, -0.01, -17.88, 246.85, 595.799987793, -35.3634774, 149.1646113, 0.544150531292, -0.129827439785, -0.0855056345463, -0.824459671974
2019-04-03 19:39:03.99,67416356, -0.01, -17.91, 246.84, 595.840026855, -35.3634791, 149.1646063, 0.544101178646, -0.13002872467, -0.0856289491057, -0.824447751045
2019-04-03 19:39:04.09,67516316, 0.0, -17.92, 246.84, 595.880004883, -35.3634808, 149.1646012, 0.544072210789, -0.130035862327, -0.0857669487596, -0.824451386929
2019-04-03 19:39:04.19,67616276, 0.01, -17.91, 246.83, 595.909973145, -35.3634826, 149.1645963, 0.544052779675, -0.129896894097, -0.0858557075262, -0.824476957321
2019-04-03 19:39:04.29,67716236, 0.03, -17.91, 246.83, 595.950012207, -35.3634842, 149.1645912, 0.544027805328, -0.12978541851, -0.0859508439898, -0.824501037598
2019-04-03 19:39:04.39,67816196, 0.04, -17.92, 246.82, 595.989990234, -35.363486, 149.1645862, 0.543992817402, -0.12980851531, -0.0860940292478, -0.824505627155
2019-04-03 19:39:04.49,67916156, 0.05, -17.93, 246.81, 596.030029297, -35.3634878, 149.1645811, 0.543953478336, -0.129854992032, -0.0862157419324, -0.824511408806
2019-04-03 19:39:04.59,68016116, 0.06, -17.94, 246.81, 596.070007324, -35.3634895, 149.1645762, 0.54391515255, -0.129901781678, -0.0863142460585, -0.8245190382
2019-04-03 19:39:04.69,68116076, 0.06, -17.96, 246.8, 596.099975586, -35.3634913, 149.1645711, 0.543874740601, -0.130003452301, -0.0864113271236, -0.824519574642
2019-04-03 19:39:04.79,68216036, 0.04, -17.96, 246.8, 596.140014648, -35.363493, 149.1645662, 0.543814599514, -0.130156561732, -0.0863137021661, -0.824545264244
2019-04-03 19:39:04.89,68315996, 0.02, -17.96, 246.8, 596.179992676, -35.3634948, 149.1645611, 0.543770909309, -0.130237177014, -0.0861532539129, -0.824578106403
2019-04-03 19:39:04.99,68415956, 0.01, -17.95, 246.79, 596.219970703, -35.3634964, 149.1645562, 0.543754994869, -0.130191192031, -0.0860005617142, -0.824611783028
2019-04-03 19:39:05.09,68515916, 0.01, -17.93, 246.79, 596.260009766, -35.3634982, 149.1645512, 0.54375743866, -0.130027756095, -0.0859073996544, -0.82464581728
2019-04-03 19:39:05.19,68615876, 0.02, -17.92, 246.79, 596.289978027, -35.3635, 149.1645461, 0.543755710125, -0.129905089736, -0.0859196931124, -0.824665009975
2019-04-03 19:39:05.29,68715836, 0.04, -17.92, 246.79, 596.33001709, -35.3635017, 149.164541, 0.543746709824, -0.129861831665, -0.0860456898808, -0.824664592743
2019-04-03 19:39:05.39,68815796, 0.06, -17.94, 246.78, 596.369995117, -35.3635035, 149.1645361, 0.543739199638, -0.129868730903, -0.0863225385547, -0.824639439583
2019-04-03 19:39:05.49,68915756, 0.09, -17.95, 246.78, 596.409973145, -35.3635052, 149.1645311, 0.543733119965, -0.129836603999, -0.086517803371, -0.8246281147
2019-04-03 19:39:05.59,69015716, 0.09, -17.96, 246.78, 596.440002441, -35.363507, 149.1645261, 0.54370701313, -0.129930958152, -0.0866175964475, -0.824619948864
2019-04-03 19:39:05.69,69115676, 0.08, -17.97, 246.78, 596.479980469, -35.3635087, 149.1645209, 0.543685734272, -0.129988089204, -0.0865724459291, -0.824629724026
2019-04-03 19:39:05.80,69216469, 0.07, -17.97, 246.77, 596.520019531, -35.3635104, 149.164516, 0.543662846088, -0.130060434341, -0.0865101292729, -0.824640035629
2019-04-03 19:39:05.90,69316429, 0.06, -17.97, 246.77, 596.559997559, -35.3635121, 149.164511, 0.543638288975, -0.130136221647, -0.0864402428269, -0.824651479721
2019-04-03 19:39:05.99,69416389, 0.04, -18.0, 246.77, 596.590026855, -35.3635139, 149.1645059, 0.543590724468, -0.130409449339, -0.0864263698459, -0.824641168118
2019-04-03 19:39:06.09,69516349, 0.03, -18.02, 246.77, 596.630004883, -35.3635157, 149.1645009, 0.543547451496, -0.130653291941, -0.0864517986774, -0.824628412724
2019-04-03 19:39:06.19,69616309, 0.02, -18.04, 246.77, 596.66998291, -35.3635175, 149.1644959, 0.543508112431, -0.130810394883, -0.086459890008, -0.824628531933
2019-04-03 19:39:06.29,69716269, 0.03, -18.04, 246.76, 596.710021973, -35.3635192, 149.1644907, 0.543495535851, -0.130772843957, -0.0865635722876, -0.824631989002
2019-04-03 19:39:06.39,69816229, 0.06, -18.03, 246.76, 596.739990234, -35.363521, 149.1644858, 0.543492853642, -0.130608811975, -0.0867082998157, -0.824644565582
2019-04-03 19:39:06.49,69916189, 0.08, -18.02, 246.75, 596.780029297, -35.3635227, 149.1644808, 0.54349809885, -0.130364149809, -0.0867968648672, -0.824670374393
2019-04-03 19:39:06.59,70016149, 0.09, -17.99, 246.75, 596.820007324, -35.3635244, 149.1644757, 0.54349052906, -0.130144715309, -0.0867231711745, -0.824717879295
2019-04-03 19:39:06.69,70116109, 0.08, -17.97, 246.75, 596.859985352, -35.3635261, 149.1644706, 0.543462812901, -0.130035921931, -0.0865551754832, -0.824770867825
2019-04-03 19:39:06.79,70216069, 0.07, -17.95, 246.74, 596.890014648, -35.3635279, 149.1644656, 0.543433487415, -0.129965752363, -0.0863857865334, -0.824819028378
2019-04-03 19:39:06.89,70316029, 0.06, -17.94, 246.74, 596.929992676, -35.3635297, 149.1644605, 0.543408453465, -0.129907995462, -0.0862435698509, -0.824859619141
2019-04-03 19:39:06.99,70415989, 0.05, -17.93, 246.73, 596.969970703, -35.3635315, 149.1644555, 0.543380618095, -0.129887938499, -0.0861064344645, -0.824895381927
2019-04-03 19:39:07.09,70515949, 0.04, -17.93, 246.73, 597.010009766, -35.3635332, 149.1644504, 0.543338298798, -0.129955947399, -0.0860023871064, -0.824923336506
2019-04-03 19:39:07.19,70615909, 0.03, -17.95, 246.73, 597.049987793, -35.363535, 149.1644454, 0.543283700943, -0.130163401365, -0.0860648825765, -0.824920117855
2019-04-03 19:39:07.29,70715869, 0.06, -17.97, 246.72, 597.08001709, -35.3635367, 149.1644404, 0.543266236782, -0.13019631803, -0.0863761678338, -0.824893891811
2019-04-03 19:39:07.39,70815829, 0.09, -17.99, 246.72, 597.119995117, -35.3635385, 149.1644354, 0.543253183365, -0.130194813013, -0.0866920873523, -0.824869573116
2019-04-03 19:39:07.49,70915789, 0.11, -17.99, 246.71, 597.159973145, -35.3635402, 149.1644303, 0.543246507645, -0.130124092102, -0.0868190899491, -0.824871778488
2019-04-03 19:39:07.59,71015749, 0.1, -17.98, 246.71, 597.200012207, -35.3635419, 149.1644253, 0.543213367462, -0.130095899105, -0.0866859406233, -0.824912130833
2019-04-03 19:39:07.69,71115709, 0.06, -17.97, 246.71, 597.239990234, -35.3635437, 149.1644202, 0.543159782887, -0.130155578256, -0.086351506412, -0.824972987175
2019-04-03 19:39:07.79,71215669, 0.03, -17.95, 246.7, 597.270019531, -35.3635455, 149.1644151, 0.543114721775, -0.130163833499, -0.0860038325191, -0.825037658215
2019-04-03 19:39:07.90,71316462, 0.02, -17.94, 246.7, 597.309997559, -35.3635473, 149.1644101, 0.543089210987, -0.130161032081, -0.0859452411532, -0.825060963631
2019-04-03 19:39:08.00,71416422, 0.02, -17.97, 246.7, 597.349975586, -35.363549, 149.1644049, 0.543046593666, -0.130332067609, -0.0860862284899, -0.825047254562
2019-04-03 19:39:08.09,71516382, 0.01, -18.0, 246.69, 597.390014648, -35.3635508, 149.1644, 0.542973816395, -0.130626812577, -0.0861537754536, -0.825041592121
2019-04-03 19:39:08.19,71616342, 0.0, -18.01, 246.68, 597.429992676, -35.3635525, 149.1643949, 0.542894601822, -0.1308080405, -0.0860598534346, -0.825074851513
2019-04-03 19:39:08.29,71716302, 0.0, -18.0, 246.68, 597.460021973, -35.3635542, 149.1643899, 0.542859613895, -0.13070486486, -0.0860137119889, -0.82511895895
2019-04-03 19:39:08.39,71816262, 0.02, -17.98, 246.67, 597.5, -35.363556, 149.1643848, 0.542855203152, -0.130484029651, -0.0861128643155, -0.825146555901
2019-04-03 19:39:08.49,71916222, 0.05, -17.96, 246.67, 597.539978027, -35.3635577, 149.1643796, 0.542865395546, -0.130196765065, -0.0862070322037, -0.825175404549
2019-04-03 19:39:08.59,72016182, 0.06, -17.92, 246.66, 597.58001709, -35.3635595, 149.1643747, 0.542886257172, -0.129808649421, -0.0860647857189, -0.825237691402
2019-04-03 19:39:08.69,72116142, 0.08, -17.88, 246.66, 597.619995117, -35.3635613, 149.1643695, 0.542915582657, -0.129475846887, -0.0859884545207, -0.825278580189
2019-04-03 19:39:08.79,72216102, 0.09, -17.87, 246.66, 597.650024414, -35.3635631, 149.1643646, 0.542926907539, -0.129383549094, -0.0860302448273, -0.825281262398
2019-04-03 19:39:08.89,72316062, 0.1, -17.89, 246.66, 597.690002441, -35.3635649, 149.1643595, 0.54291754961, -0.129486143589, -0.0862247720361, -0.825251042843
2019-04-03 19:39:08.99,72416022, 0.11, -17.92, 246.66, 597.729980469, -35.3635666, 149.1643545, 0.542905330658, -0.129614904523, -0.0864510312676, -0.825215101242
2019-04-03 19:39:09.09,72515982, 0.12, -17.94, 246.66, 597.770019531, -35.3635684, 149.1643494, 0.542901992798, -0.129702329636, -0.086603179574, -0.825187623501
2019-04-03 19:39:09.19,72615942, 0.12, -17.97, 246.66, 597.799987793, -35.36357, 149.1643444, 0.5428789258, -0.129939869046, -0.0867866575718, -0.825146198273
2019-04-03 19:39:09.29,72715902, 0.12, -18.0, 246.66, 597.840026855, -35.3635718, 149.1643393, 0.542856037617, -0.130190208554, -0.0868823379278, -0.825111687183
2019-04-03 19:39:09.39,72815862, 0.1, -18.0, 246.66, 597.880004883, -35.3635735, 149.1643343, 0.542854905128, -0.130219191313, -0.0867638364434, -0.825120329857
2019-04-03 19:39:09.49,72915822, 0.09, -17.97, 246.66, 597.91998291, -35.3635753, 149.1643292, 0.542870104313, -0.130075097084, -0.0865547284484, -0.825155079365
2019-04-03 19:39:09.59,73015782, 0.09, -17.95, 246.66, 597.950012207, -35.3635771, 149.1643241, 0.542871236801, -0.129916772246, -0.0864130184054, -0.825194239616
2019-04-03 19:39:09.69,73115742, 0.11, -17.94, 246.66, 597.989990234, -35.3635789, 149.1643191, 0.542876005173, -0.12975654006, -0.0865046679974, -0.825206518173
2019-04-03 19:39:09.79,73215702, 0.13, -17.95, 246.65, 598.030029297, -35.3635807, 149.164314, 0.542851984501, -0.129772379994, -0.0867284610868, -0.825196444988
2019-04-03 19:39:09.89,73315662, 0.13, -17.97, 246.65, 598.070007324, -35.3635824, 149.164309, 0.542803704739, -0.129854202271, -0.0868013352156, -0.825207591057
2019-04-03 19:39:10.00,73416455, 0.11, -17.96, 246.64, 598.099975586, -35.3635842, 149.1643039, 0.542745649815, -0.129923135042, -0.0866100862622, -0.825255036354
2019-04-03 19:39:10.10,73516415, 0.09, -17.95, 246.64, 598.140014648, -35.3635858, 149.1642989, 0.542697608471, -0.129928454757, -0.0863590613008, -0.825312077999
2019-04-03 19:39:10.19,73616375, 0.08, -17.92, 246.63, 598.179992676, -35.3635876, 149.1642938, 0.54268091917, -0.12979452312, -0.0862038135529, -0.825360357761
2019-04-03 19:39:10.29,73716335, 0.1, -17.9, 246.63, 598.219970703, -35.3635893, 149.1642887, 0.542699694633, -0.129565238953, -0.086243018508, -0.82537996769
2019-04-03 19:39:10.39,73816295, 0.12, -17.91, 246.63, 598.25, -35.3635912, 149.1642837, 0.542704880238, -0.129475101829, -0.0864281281829, -0.825371444225
2019-04-03 19:39:10.49,73916255, 0.13, -17.93, 246.62, 598.289978027, -35.363593, 149.1642786, 0.542682051659, -0.129562497139, -0.0865937769413, -0.825355291367
2019-04-03 19:39:10.59,74016215, 0.14, -17.94, 246.62, 598.33001709, -35.3635947, 149.1642736, 0.542657136917, -0.12966914475, -0.0867249369621, -0.825341105461
2019-04-03 19:39:10.69,74116175, 0.14, -17.95, 246.62, 598.369995117, -35.3635965, 149.1642685, 0.542644619942, -0.129699900746, -0.0867796391249, -0.825338721275
2019-04-03 19:39:10.79,74216135, 0.15, -17.95, 246.62, 598.400024414, -35.3635982, 149.1642635, 0.542638540268, -0.129663124681, -0.0867815464735, -0.825348377228
2019-04-03 19:39:10.89,74316095, 0.15, -17.95, 246.62, 598.440002441, -35.3636, 149.1642584, 0.542628467083, -0.129665672779, -0.0868008062243, -0.825352430344
2019-04-03 19:39:10.99,74416055, 0.15, -17.95, 246.62, 598.479980469, -35.3636016, 149.1642534, 0.54262650013, -0.129625961185, -0.0868175327778, -0.825358331203
2019-04-03 19:39:11.09,74516015, 0.16, -17.94, 246.61, 598.520019531, -35.3636034, 149.1642483, 0.542628347874, -0.12957136333, -0.0868195146322, -0.825365543365
2019-04-03 19:39:11.19,74615975, 0.16, -17.95, 246.61, 598.549987793, -35.3636051, 149.1642432, 0.542620122433, -0.129607498646, -0.0868926793337, -0.825357437134
2019-04-03 19:39:11.29,74715935, 0.17, -17.98, 246.61, 598.590026855, -35.363607, 149.1642383, 0.542596757412, -0.129785940051, -0.0871035084128, -0.825322508812
2019-04-03 19:39:11.39,74815895, 0.17, -18.01, 246.61, 598.630004883, -35.3636087, 149.1642331, 0.542548537254, -0.130004733801, -0.0872033759952, -0.825309336185
2019-04-03 19:39:11.49,74915855, 0.15, -18.01, 246.6, 598.66998291, -35.3636105, 149.1642282, 0.542493283749, -0.130141943693, -0.0870509967208, -0.825340092182
2019-04-03 19:39:11.59,75015815, 0.11, -18.01, 246.6, 598.700012207, -35.3636122, 149.164223, 0.54241925478, -0.130308032036, -0.0867904126644, -0.82538998127
2019-04-03 19:39:11.69,75115775, 0.09, -18.01, 246.6, 598.739990234, -35.363614, 149.1642181, 0.542371451855, -0.130377009511, -0.0866163522005, -0.825428843498
2019-04-03 19:39:11.79,75215735, 0.1, -18.01, 246.59, 598.780029297, -35.3636156, 149.164213, 0.542369365692, -0.130339339375, -0.086704544723, -0.825426876545
2019-04-03 19:39:11.89,75315695, 0.12, -18.02, 246.59, 598.820007324, -35.3636174, 149.1642078, 0.542363166809, -0.130336344242, -0.0868682414293, -0.825414180756
2019-04-03 19:39:12.00,75416488, 0.14, -18.02, 246.59, 598.849975586, -35.3636192, 149.1642029, 0.5423630476, -0.130274176598, -0.0870448350906, -0.825405478477
2019-04-03 19:39:12.10,75516448, 0.16, -18.01, 246.59, 598.890014648, -35.3636209, 149.1641977, 0.542377710342, -0.130067020655, -0.0871011391282, -0.825422644615
2019-04-03 19:39:12.20,75616408, 0.16, -17.99, 246.58, 598.929992676, -35.3636228, 149.1641927, 0.542371332645, -0.129950493574, -0.0870859846473, -0.825446665287
2019-04-03 19:39:12.29,75716368, 0.16, -17.99, 246.58, 598.969970703, -35.3636245, 149.1641876, 0.542346537113, -0.129940748215, -0.0870795547962, -0.825465202332
2019-04-03 19:39:12.39,75816328, 0.14, -18.0, 246.58, 599.0, -35.3636263, 149.1641826, 0.542289853096, -0.13010661304, -0.0869739204645, -0.825487434864
2019-04-03 19:39:12.49,75916288, 0.12, -18.02, 246.57, 599.039978027, -35.363628, 149.1641775, 0.542224705219, -0.130323573947, -0.086858317256, -0.825508236885
2019-04-03 19:39:12.59,76016248, 0.09, -18.01, 246.57, 599.08001709, -35.3636298, 149.1641725, 0.542158901691, -0.130485132337, -0.0865985527635, -0.825553238392
2019-04-03 19:39:12.69,76116208, 0.07, -18.02, 246.57, 599.119995117, -35.3636314, 149.1641675, 0.542121708393, -0.130551561713, -0.086501441896, -0.825577378273
2019-04-03 19:39:12.79,76216168, 0.06, -18.03, 246.56, 599.150024414, -35.3636332, 149.1641623, 0.542071223259, -0.130684569478, -0.0865054354072, -0.825588941574
2019-04-03 19:39:12.89,76316128, 0.07, -18.03, 246.56, 599.190002441, -35.3636349, 149.1641574, 0.542039692402, -0.130689382553, -0.086562037468, -0.82560300827
2019-04-03 19:39:12.99,76416088, 0.09, -18.03, 246.55, 599.229980469, -35.3636368, 149.1641522, 0.542020738125, -0.130613297224, -0.0866647213697, -0.825616657734
2019-04-03 19:39:13.09,76516048, 0.1, -18.02, 246.55, 599.270019531, -35.3636385, 149.1641473, 0.542001068592, -0.130508288741, -0.08668628335, -0.825643956661
2019-04-03 19:39:13.19,76616008, 0.09, -18.02, 246.54, 599.299987793, -35.3636403, 149.1641421, 0.541962385178, -0.130488961935, -0.0866438373923, -0.825676858425
2019-04-03 19:39:13.29,76715968, 0.08, -18.01, 246.53, 599.340026855, -35.3636421, 149.1641371, 0.541914999485, -0.130469098687, -0.0864779576659, -0.825728476048
2019-04-03 19:39:13.39,76815928, 0.07, -18.0, 246.53, 599.380004883, -35.3636438, 149.1641321, 0.541871070862, -0.130472123623, -0.0863675475121, -0.825768351555
2019-04-03 19:39:13.49,76915888, 0.09, -18.02, 246.52, 599.41998291, -35.3636456, 149.1641269, 0.541840791702, -0.13057090342, -0.0865878909826, -0.825749635696
2019-04-03 19:39:13.59,77015848, 0.13, -18.05, 246.52, 599.450012207, -35.3636472, 149.164122, 0.541842877865, -0.130550026894, -0.0869973450899, -0.825708508492
2019-04-03 19:39:13.69,77115808, 0.17, -18.04, 246.52, 599.489990234, -35.363649, 149.1641168, 0.541877269745, -0.130279868841, -0.0872619077563, -0.825700640678
2019-04-03 19:39:13.79,77215768, 0.2, -18.01, 246.52, 599.530029297, -35.3636508, 149.1641118, 0.54191583395, -0.129943788052, -0.0872916802764, -0.825725138187
2019-04-03 19:39:13.89,77315728, 0.2, -17.98, 246.52, 599.570007324, -35.3636526, 149.1641067, 0.54194021225, -0.129735127091, -0.0872171372175, -0.825749874115
2019-04-03 19:39:13.99,77415688, 0.17, -18.0, 246.52, 599.599975586, -35.3636544, 149.1641017, 0.54190582037, -0.129977047443, -0.087065950036, -0.825750291348
2019-04-03 19:39:14.10,77516481, 0.14, -18.05, 246.52, 599.640014648, -35.3636562, 149.1640966, 0.541853189468, -0.130514785647, -0.0870654210448, -0.825700163841
2019-04-03 19:39:14.20,77616441, 0.12, -18.09, 246.52, 599.679992676, -35.3636579, 149.1640916, 0.54182523489, -0.130908370018, -0.0871235206723, -0.82565009594
2019-04-03 19:39:14.30,77716401, 0.11, -18.1, 246.53, 599.719970703, -35.3636597, 149.1640865, 0.5418227911, -0.131029903889, -0.0871242806315, -0.825632274151
2019-04-03 19:39:14.39,77816361, 0.1, -18.08, 246.53, 599.760009766, -35.3636614, 149.1640813, 0.541834056377, -0.130908384919, -0.0869741588831, -0.825659990311
2019-04-03 19:39:14.49,77916321, 0.09, -18.03, 246.53, 599.789978027, -35.3636632, 149.1640764, 0.541851043701, -0.130597263575, -0.0866682752967, -0.825730264187
2019-04-03 19:39:14.59,78016281, 0.09, -17.98, 246.52, 599.83001709, -35.3636648, 149.1640713, 0.541865825653, -0.130278632045, -0.0864181444049, -0.825797140598
2019-04-03 19:39:14.69,78116241, 0.09, -17.94, 246.52, 599.869995117, -35.3636666, 149.1640663, 0.541875660419, -0.12999330461, -0.0862345099449, -0.82585477829
2019-04-03 19:39:14.79,78216201, 0.1, -17.93, 246.52, 599.909973145, -35.3636684, 149.1640612, 0.541872680187, -0.129842996597, -0.0862443447113, -0.825879335403
2019-04-03 19:39:14.89,78316161, 0.1, -17.95, 246.51, 599.940002441, -35.3636702, 149.164056, 0.54182523489, -0.129964053631, -0.0863348096609, -0.825882017612
2019-04-03 19:39:14.99,78416121, 0.09, -17.97, 246.51, 599.979980469, -35.363672, 149.1640511, 0.541751980782, -0.130153492093, -0.0863595530391, -0.825897634029
2019-04-03 19:39:15.09,78516081, 0.08, -17.98, 246.5, 600.020019531, -35.3636737, 149.1640459, 0.541684389114, -0.130294278264, -0.0863109081984, -0.825924873352
2019-04-03 19:39:15.19,78616041, 0.07, -17.97, 246.49, 600.059997559, -35.3636755, 149.1640409, 0.541639268398, -0.13031424582, -0.0862288251519, -0.825959920883
2019-04-03 19:39:15.29,78716001, 0.05, -17.97, 246.49, 600.090026855, -35.3636773, 149.1640358, 0.541594207287, -0.130351513624, -0.0860408023, -0.826003193855
2019-04-03 19:39:15.39,78815961, 0.03, -17.97, 246.49, 600.130004883, -35.363679, 149.1640308, 0.54155087471, -0.130501314998, -0.085947945714, -0.826017618179
2019-04-03 19:39:15.49,78915921, 0.03, -18.0, 246.49, 600.16998291, -35.3636808, 149.1640258, 0.541522920132, -0.130664885044, -0.0860322117805, -0.826001286507
2019-04-03 19:39:15.59,79015881, 0.04, -18.02, 246.49, 600.210021973, -35.3636824, 149.1640206, 0.541510999203, -0.130784958601, -0.0861498191953, -0.825977861881
2019-04-03 19:39:15.69,79115841, 0.05, -18.01, 246.49, 600.239990234, -35.3636842, 149.1640156, 0.541541755199, -0.130658090115, -0.0862263590097, -0.825969815254
2019-04-03 19:39:15.79,79215801, 0.07, -18.01, 246.49, 600.280029297, -35.363686, 149.1640105, 0.541579186916, -0.130532845855, -0.0863856896758, -0.825948357582
2019-04-03 19:39:15.89,79315761, 0.1, -18.01, 246.49, 600.320007324, -35.3636878, 149.1640055, 0.541613817215, -0.130432426929, -0.0866035595536, -0.825918734074
2019-04-03 19:39:15.99,79415721, 0.12, -18.01, 246.49, 600.359985352, -35.3636896, 149.1640004, 0.541640937328, -0.130349218845, -0.0867462307215, -0.825899004936
2019-04-03 19:39:16.09,79515681, 0.12, -18.0, 246.49, 600.390014648, -35.3636914, 149.1639954, 0.541647315025, -0.130296215415, -0.0866684615612, -0.825911462307
2019-04-03 19:39:16.20,79616474, 0.11, -18.0, 246.49, 600.429992676, -35.3636931, 149.1639903, 0.541643381119, -0.13032014668, -0.0866121947765, -0.825916230679
2019-04-03 19:39:16.30,79716434, 0.11, -18.02, 246.49, 600.469970703, -35.3636949, 149.1639851, 0.541632115841, -0.130473330617, -0.0867091491818, -0.82588917017
2019-04-03 19:39:16.40,79816394, 0.1, -18.02, 246.49, 600.510009766, -35.3636967, 149.1639802, 0.541634559631, -0.130503490567, -0.086683884263, -0.825885415077
2019-04-03 19:39:16.49,79916354, 0.08, -18.01, 246.49, 600.549987793, -35.3636983, 149.163975, 0.541620254517, -0.130536004901, -0.0864410549402, -0.825915038586
2019-04-03 19:39:16.59,80016314, 0.06, -17.99, 246.5, 600.58001709, -35.3637001, 149.16397, 0.541619479656, -0.130494058132, -0.0861787199974, -0.825949668884
2019-04-03 19:39:16.69,80116274, 0.06, -17.97, 246.5, 600.619995117, -35.3637019, 149.163965, 0.541644275188, -0.130337908864, -0.0861181393266, -0.825964391232
2019-04-03 19:39:16.79,80216234, 0.08, -17.96, 246.5, 600.659973145, -35.3637036, 149.1639598, 0.541680335999, -0.130121663213, -0.0862153023481, -0.825964748859
2019-04-03 19:39:16.89,80316194, 0.1, -17.97, 246.5, 600.700012207, -35.3637055, 149.1639548, 0.541697025299, -0.130110800266, -0.0864143744111, -0.825934708118
2019-04-03 19:39:16.99,80416154, 0.09, -17.99, 246.5, 600.739990234, -35.3637073, 149.1639497, 0.54167252779, -0.130306005478, -0.0864529237151, -0.825915932655
2019-04-03 19:39:17.09,80516114, 0.09, -18.02, 246.5, 600.770019531, -35.363709, 149.1639447, 0.541648387909, -0.130555585027, -0.086593747139, -0.825877547264
2019-04-03 19:39:17.19,80616074, 0.1, -18.04, 246.5, 600.809997559, -35.3637108, 149.1639396, 0.541642129421, -0.130684942007, -0.0867436230183, -0.82584553957
2019-04-03 19:39:17.29,80716034, 0.11, -18.05, 246.5, 600.849975586, -35.3637125, 149.1639346, 0.541656434536, -0.130659788847, -0.08685323596, -0.825828552246
2019-04-03 19:39:17.39,80815994, 0.12, -18.05, 246.5, 600.890014648, -35.3637143, 149.1639295, 0.541670501232, -0.130628675222, -0.0869713127613, -0.82581192255
2019-04-03 19:39:17.49,80915954, 0.13, -18.05, 246.5, 600.91998291, -35.3637161, 149.1639245, 0.541687846184, -0.130550786853, -0.0870020836592, -0.825809597969
2019-04-03 19:39:17.59,81015914, 0.14, -18.01, 246.5, 600.960021973, -35.3637177, 149.1639194, 0.541734755039, -0.130258560181, -0.0869279131293, -0.825832784176
2019-04-03 19:39:17.69,81115874, 0.15, -17.99, 246.5, 601.0, -35.3637195, 149.1639142, 0.541780531406, -0.130031824112, -0.0868876576424, -0.825842678547
2019-04-03 19:39:17.79,81215834, 0.15, -17.97, 246.5, 601.039978027, -35.3637213, 149.1639093, 0.541810393333, -0.129884406924, -0.0868044346571, -0.825855016708
2019-04-03 19:39:17.89,81315794, 0.14, -17.97, 246.51, 601.08001709, -35.3637231, 149.1639042, 0.541814029217, -0.129916667938, -0.0867074131966, -0.825857758522
2019-04-03 19:39:17.99,81415754, 0.15, -17.99, 246.51, 601.109985352, -35.3637249, 149.163899, 0.541821539402, -0.130038380623, -0.0868768319488, -0.825815916061
2019-04-03 19:39:18.09,81515714, 0.16, -18.02, 246.51, 601.150024414, -35.3637267, 149.1638941, 0.541822373867, -0.130205154419, -0.0870876386762, -0.825766801834
2019-04-03 19:39:18.19,81615674, 0.17, -18.01, 246.51, 601.190002441, -35.3637284, 149.1638889, 0.541850924492, -0.130110323429, -0.0871460959315, -0.825756847858
2019-04-03 19:39:18.30,81716467, 0.17, -18.0, 246.51, 601.229980469, -35.3637302, 149.1638839, 0.541884422302, -0.129989206791, -0.0870617330074, -0.825762867928
2019-04-03 19:39:18.40,81816427, 0.16, -17.98, 246.52, 601.260009766, -35.363732, 149.1638788, 0.541908502579, -0.12989962101, -0.0869129225612, -0.825776875019
2019-04-03 19:39:18.49,81916387, 0.16, -17.97, 246.52, 601.299987793, -35.3637337, 149.1638738, 0.541940689087, -0.129823759198, -0.0868511497974, -0.82577419281
