Start,TimeUS,Roll,Pitch,Yaw,Alt,Lat,Lng,Q1,Q2,Q3,Q4
2019-04-03 21:31:22.70,187715717, 0.0, 0.0, 353.0, 584.090026855, -35.363261, 149.1652299, 0.998134791851, 0.0, 0.0, -0.0610485821962
2019-04-03 21:31:22.80,187815677, 0.0, 0.0, 353.0, 584.090026855, -35.363261, 149.1652299, 0.998134791851, 0.0, 0.0, -0.0610485821962
2019-04-03 21:31:22.90,187916470, 0.0, 0.0, 353.0, 584.090026855, -35.363261, 149.1652299, 0.998134791851, 0.0, 0.0, -0.0610485821962
2019-04-03 21:31:23.00,188016430, 0.0, 0.0, 353.0, 584.090026855, -35.363261, 149.1652299, 0.998134791851, 0.0, 0.0, -0.0610485821962
2019-04-03 21:31:23.10,188116390, 0.0, 0.0, 353.0, 584.090026855, -35.363261, 149.1652299, 0.998134791851, 0.0, 0.0, -0.0610485821962
2019-04-03 21:31:23.20,188216350, 0.0, 0.0, 353.0, 584.090026855, -35.363261, 149.1652299, 0.998134791851, 0.0, 0.0, -0.0610485821962
2019-04-03 21:31:23.30,188316310, 0.0, 0.0, 353.0, 584.090026855, -35.363261, 149.1652299, 0.998134791851, 0.0, 0.0, -0.0610485821962
2019-04-03 21:31:23.40,188416270, 0.0, 0.0, 353.0, 584.090026855, -35.363261, 149.1652299, 0.998134791851, 0.0, 0.0, -0.0610485821962
2019-04-03 21:31:23.50,188516230, 0.0, 0.0, 353.0, 584.090026855, -35.363261, 149.1652299, 0.998134791851, 0.0, 0.0, -0.0610485821962
2019-04-03 21:31:23.60,188616190, 0.0, 0.0, 353.0, 584.090026855, -35.363261, 149.1652299, 0.998134791851, 0.0, 0.0, -0.0610485821962
2019-04-03 21:31:23.70,188716150, 0.0, 0.0, 353.0, 584.090026855, -35.363261, 149.1652299, 0.998134791851, 0.0, 0.0, -0.0610485821962
2019-04-03 21:31:23.80,188816110, 0.0, 0.0, 353.0, 584.090026855, -35.363261, 149.1652299, 0.998134791851, 0.0, 0.0, -0.0610485821962
2019-04-03 21:31:23.90,188916070, 0.0, 0.0, 353.0, 584.090026855, -35.363261, 149.1652299, 0.998134791851, 0.0, 0.0, -0.0610485821962
2019-04-03 21:31:24.00,189016030, 0.0, 0.0, 353.0, 584.090026855, -35.363261, 149.1652299, 0.998134791851, 0.0, 0.0, -0.0610485821962
2019-04-03 21:31:24.10,189115990, 0.0, 0.0, 353.0, 584.090026855, -35.363261, 149.1652299, 0.998134791851, 0.0, 0.0, -0.0610485821962
2019-04-03 21:31:24.20,189215950, 0.0, 0.0, 353.0, 584.090026855, -35.363261, 149.1652299, 0.998134791851, 0.0, 0.0, -0.0610485821962
2019-04-03 21:31:24.30,189315910, 0.0, 0.0, 353.0, 584.090026855, -35.363261, 149.1652299, 0.998134791851, 0.0, 0.0, -0.0610485821962
2019-04-03 21:31:24.40,189415870, 0.0, 0.0, 353.0, 584.090026855, -35.363261, 149.1652299, 0.998134791851, 0.0, 0.0, -0.0610485821962
2019-04-03 21:31:24.50,189515830, 0.0, 0.0, 353.0, 584.090026855, -35.363261, 149.1652299, 0.998134791851, 0.0, 0.0, -0.0610485821962
2019-04-03 21:31:24.60,189615790, 0.0, 0.0, 353.0, 584.090026855, -35.363261, 149.1652299, 0.998134791851, 0.0, 0.0, -0.0610485821962
2019-04-03 21:31:24.70,189715750, 0.0, 0.0, 353.0, 584.090026855, -35.363261, 149.1652299, 0.998134791851, 0.0, 0.0, -0.0610485821962
2019-04-03 21:31:24.80,189815710, 0.0, 0.0, 353.0, 584.090026855, -35.363261, 149.1652299, 0.998134791851, 0.0, 0.0, -0.0610485821962
2019-04-03 21:31:24.89,189915670, 0.0, 0.0, 353.0, 584.090026855, -35.363261, 149.1652299, 0.998134791851, 0.0, 0.0, -0.0610485821962
2019-04-03 21:31:25.00,190016463, 0.0, 0.0, 353.0, 584.090026855, -35.363261, 149.1652299, 0.998134791851, 0.0, 0.0, -0.0610485821962
2019-04-03 21:31:25.10,190116423, 0.0, 0.0, 353.0, 584.090026855, -35.363261, 149.1652299, 0.998134791851, 0.0, 0.0, -0.0610485821962
2019-04-03 21:31:25.20,190216383, 0.0, 0.0, 353.0, 584.090026855, -35.363261, 149.1652299, 0.998134791851, 0.0, 0.0, -0.0610485821962
2019-04-03 21:31:25.30,190316343, 0.0, 0.0, 353.0, 584.090026855, -35.363261, 149.1652299, 0.998134791851, 0.0, 0.0, -0.0610485821962
2019-04-03 21:31:25.40,190416303, 0.0, 0.0, 353.0, 584.090026855, -35.363261, 149.1652299, 0.998134791851, 0.0, 0.0, -0.0610485821962
2019-04-03 21:31:25.50,190516263, 0.0, 0.0, 353.0, 584.090026855, -35.363261, 149.1652299, 0.998134791851, 0.0, 0.0, -0.0610485821962
2019-04-03 21:31:25.60,190616223, 0.0, 0.0, 353.0, 584.090026855, -35.363261, 149.1652299, 0.998134791851, 0.0, 0.0, -0.0610485821962
2019-04-03 21:31:25.70,190716183, 0.0, 0.0, 353.0, 584.090026855, -35.363261, 149.1652299, 0.998134791851, 0.0, 0.0, -0.0610485821962
2019-04-03 21:31:25.80,190816143, 0.0, 0.0, 353.0, 584.090026855, -35.363261, 149.1652299, 0.998134791851, 0.0, 0.0, -0.0610485821962
2019-04-03 21:31:25.90,190916103, 0.0, 0.0, 353.0, 584.090026855, -35.363261, 149.1652299, 0.998134791851, 0.0, 0.0, -0.0610485821962
2019-04-03 21:31:26.00,191016063, 0.0, 0.0, 353.0, 584.090026855, -35.363261, 149.1652299, 0.998134791851, 0.0, 0.0, -0.0610485821962
2019-04-03 21:31:26.10,191116023, 0.0, 0.0, 353.0, 584.090026855, -35.363261, 149.1652299, 0.998134791851, 0.0, 0.0, -0.0610485821962
2019-04-03 21:31:26.20,191215983, 0.0, 0.0, 353.0, 584.090026855, -35.363261, 149.1652299, 0.998134791851, 0.0, 0.0, -0.0610485821962
2019-04-03 21:31:26.30,191315943, 0.0, 0.0, 353.0, 584.090026855, -35.363261, 149.1652299, 0.998134791851, 0.0, 0.0, -0.0610485821962
2019-04-03 21:31:26.40,191415903, 0.0, 0.0, 353.0, 584.090026855, -35.363261, 149.1652299, 0.998134791851, 0.0, 0.0, -0.0610486157238
2019-04-03 21:31:26.50,191515863, 0.0, 0.0, 353.0, 584.090026855, -35.363261, 149.1652299, 0.998134791851, 0.0, 0.0, -0.0610486753285
2019-04-03 21:31:26.60,191615823, 0.0, 0.0, 353.0, 584.090026855, -35.363261, 149.1652299, 0.998134791851, 0.0, 0.0, -0.0610486753285
2019-04-03 21:31:26.70,191715783, 0.0, 0.0, 353.0, 584.090026855, -35.363261, 149.1652299, 0.998134791851, 0.0, 0.0, -0.0610486790538
2019-04-03 21:31:26.80,191815743, 0.0, 0.0, 353.0, 584.090026855, -35.363261, 149.1652299, 0.998134791851, 0.0, 0.0, -0.0610486753285
2019-04-03 21:31:26.90,191915703, 0.0, 0.0, 353.0, 584.090026855, -35.363261, 149.1652299, 0.998134791851, 0.0, 0.0, -0.0610486753285
2019-04-03 21:31:26.99,192015663, 0.0, 0.0, 353.0, 584.090026855, -35.363261, 149.1652299, 0.998134791851, 0.0, 0.0, -0.0610486790538
2019-04-03 21:31:27.10,192116456, 0.0, 0.0, 353.0, 584.090026855, -35.363261, 149.1652299, 0.998134791851, 0.0, 0.0, -0.0610486753285
2019-04-03 21:31:27.20,192216416, 0.0, 0.0, 353.0, 584.090026855, -35.363261, 149.1652299, 0.998134791851, 0.0, 0.0, -0.0610486753285
2019-04-03 21:31:27.30,192316376, 0.0, 0.0, 353.0, 584.099975586, -35.363261, 149.1652299, 0.998134791851, 0.0, 0.0, -0.0610486753285
2019-04-03 21:31:27.40,192416336, 0.0, 0.0, 353.0, 584.109985352, -35.363261, 149.1652299, 0.998134791851, 0.0, 0.0, -0.0610486827791
2019-04-03 21:31:27.50,192516296, 0.0, 0.0, 353.0, 584.119995117, -35.363261, 149.1652299, 0.998134791851, 0.0, 0.0, -0.0610486753285
2019-04-03 21:31:27.60,192616256, 0.0, 0.0, 353.0, 584.150024414, -35.363261, 149.1652299, 0.998134791851, 0.0, 0.0, -0.0610487014055
2019-04-03 21:31:27.70,192716216, 0.0, 0.0, 353.0, 584.179992676, -35.363261, 149.1652299, 0.998134791851, 0.0, 0.0, -0.0610486753285
2019-04-03 21:31:27.80,192816176, 0.0, 0.0, 352.99, 584.219970703, -35.363261, 149.1652299, 0.998134732246, -3.4305430745e-05, -2.3377378966e-05, -0.0610494688153
2019-04-03 21:31:27.90,192916136, -0.08, -0.07, 352.99, 584.280029297, -35.363261, 149.1652299, 0.998133003712, -0.000801645102911, -0.000572641438339, -0.0610699951649
2019-04-03 21:31:28.00,193016096, -0.23, -0.18, 352.99, 584.409973145, -35.363261, 149.1652299, 0.99812746048, -0.00216076290235, -0.00150781625416, -0.0611120536923
2019-04-03 21:31:28.10,193116056, -0.36, -0.28, 352.98, 584.559997559, -35.363261, 149.1652299, 0.998118817806, -0.00329467304982, -0.00230344152078, -0.0611770041287
2019-04-03 21:31:28.20,193216016, -0.42, -0.33, 352.97, 584.719970703, -35.363261, 149.1652299, 0.998111128807, -0.0039199218154, -0.0026800497435, -0.0612505748868
2019-04-03 21:31:28.30,193315976, -0.4, -0.28, 352.96, 584.869995117, -35.363261, 149.1652299, 0.99810808897, -0.00368388881907, -0.00230504758656, -0.0613304190338
2019-04-03 21:31:28.40,193415936, -0.3, -0.2, 352.95, 585.020019531, -35.363261, 149.1652299, 0.998107373714, -0.00279631069861, -0.00161951524206, -0.0614108368754
2019-04-03 21:31:28.50,193515896, -0.17, -0.12, 352.95, 585.16998291, -35.363261, 149.1652298, 0.99810642004, -0.00162286683917, -0.000986057100818, -0.0614814348519
2019-04-03 21:31:28.60,193615856, -0.06, -0.07, 352.94, 585.33001709, -35.3632609, 149.1652298, 0.998104333878, -0.000610456976574, -0.000582909386139, -0.0615390315652
2019-04-03 21:31:28.70,193715816, 0.01, -0.05, 352.93, 585.5, -35.3632609, 149.1652298, 0.998102009296, 0.00014480255777, -0.000458645634353, -0.0615807510912
2019-04-03 21:31:28.80,193815776, 0.04, -0.05, 352.93, 585.679992676, -35.3632609, 149.1652298, 0.998100340366, 0.000381642923458, -0.000491523416713, -0.0616066269577
2019-04-03 21:31:28.90,193915736, 0.02, -0.04, 352.93, 585.859985352, -35.3632609, 149.1652298, 0.998099982738, 0.000237813525018, -0.00038504684926, -0.0616141147912
2019-04-03 21:31:29.00,194015696, -0.02, -0.02, 352.93, 586.039978027, -35.3632609, 149.1652298, 0.998100042343, -0.000232680671616, -0.000203878807952, -0.0616139210761
2019-04-03 21:31:29.10,194116489, -0.05, 0.0, 352.93, 586.229980469, -35.3632608, 149.1652297, 0.998100817204, -0.000488763034809, -5.37185587746e-05, -0.0616000518203
2019-04-03 21:31:29.20,194216449, -0.05, 0.0, 352.93, 586.41998291, -35.3632608, 149.1652297, 0.998102009296, -0.000518541433848, -4.2936335376e-05, -0.0615806803107
2019-04-03 21:31:29.30,194316409, -0.03, -0.02, 352.94, 586.609985352, -35.3632608, 149.1652297, 0.998103797436, -0.000276539096376, -0.000168355472852, -0.0615525692701
2019-04-03 21:31:29.40,194416369, 0.01, -0.03, 352.94, 586.799987793, -35.3632608, 149.1652296, 0.998105227947, 7.58843161748e-05, -0.000339616846759, -0.061529558152
2019-04-03 21:31:29.50,194516329, 0.06, -0.03, 352.94, 587.0, -35.3632608, 149.1652296, 0.998105883598, 0.000513816252351, -0.000325724016875, -0.0615168362856
2019-04-03 21:31:29.60,194616289, 0.1, -0.02, 352.94, 587.200012207, -35.3632608, 149.1652296, 0.998106062412, 0.000862947432324, -0.000228267410421, -0.0615101233125
2019-04-03 21:31:29.70,194716249, 0.09, 0.0, 352.94, 587.409973145, -35.3632607, 149.1652294, 0.998106181622, 0.000850399665069, -0.000114742913865, -0.0615082345903
2019-04-03 21:31:29.80,194816209, 0.05, 0.0, 352.94, 587.609985352, -35.3632607, 149.1652294, 0.998105764389, 0.000509525998496, -5.44483627891e-05, -0.0615195669234
2019-04-03 21:31:29.90,194916169, 0.02, 0.01, 352.94, 587.820007324, -35.3632607, 149.1652294, 0.998104453087, 0.000246784562478, 7.36843285267e-05, -0.0615421161056
2019-04-03 21:31:30.00,195016129, 0.0, 0.0, 352.93, 588.030029297, -35.3632607, 149.1652294, 0.998102426529, -6.50582660455e-05, 4.95190433867e-05, -0.061575461179
2019-04-03 21:31:30.10,195116089, -0.02, 0.0, 352.93, 588.239990234, -35.3632607, 149.1652294, 0.998099446297, -0.00018005783204, -2.44903785642e-05, -0.061623994261
2019-04-03 21:31:30.20,195216049, -0.02, -0.03, 352.92, 588.450012207, -35.3632607, 149.1652294, 0.998096048832, -0.000261419889284, -0.000281670450931, -0.0616775043309
2019-04-03 21:31:30.30,195316009, -0.03, -0.07, 352.92, 588.659973145, -35.3632607, 149.1652293, 0.99809217453, -0.000345186737832, -0.000634004827589, -0.0617373734713
2019-04-03 21:31:30.40,195415969, -0.05, -0.11, 352.91, 588.869995117, -35.3632607, 149.1652293, 0.998088419437, -0.000505727599375, -0.00100263149943, -0.0617913492024
2019-04-03 21:31:30.50,195515929, -0.07, -0.14, 352.9, 589.090026855, -35.3632607, 149.1652293, 0.998084306717, -0.000705270504113, -0.00120425561909, -0.0618523173034
2019-04-03 21:31:30.60,195615889, -0.1, -0.16, 352.89, 589.309997559, -35.3632607, 149.1652293, 0.998079359531, -0.000977469375357, -0.00136414146982, -0.061925727874
2019-04-03 21:31:30.70,195715849, -0.13, -0.15, 352.89, 589.520019531, -35.3632605, 149.1652293, 0.998074054718, -0.00129324849695, -0.00128221011255, -0.0620079487562
2019-04-03 21:31:30.80,195815809, -0.18, -0.16, 352.88, 589.739990234, -35.3632605, 149.1652293, 0.998068630695, -0.00171321176458, -0.00133517477661, -0.0620836056769
2019-04-03 21:31:30.90,195915769, -0.19, -0.18, 352.87, 589.960021973, -35.3632605, 149.1652293, 0.998062849045, -0.00180656462908, -0.00149668415543, -0.062170278281
2019-04-03 21:31:31.00,196015729, -0.2, -0.24, 352.86, 590.179992676, -35.3632605, 149.1652293, 0.99805611372, -0.00192172278184, -0.00204269960523, -0.0622583888471
2019-04-03 21:31:31.10,196115689, -0.21, -0.28, 352.85, 590.400024414, -35.3632605, 149.1652293, 0.998050153255, -0.00201576668769, -0.00236321124248, -0.0623405054212
2019-04-03 21:31:31.20,196216482, -0.23, -0.31, 352.84, 590.619995117, -35.3632605, 149.1652292, 0.998044490814, -0.00221921293996, -0.0025867591612, -0.0624145492911
2019-04-03 21:31:31.30,196316442, -0.24, -0.31, 352.83, 590.849975586, -35.3632605, 149.1652292, 0.998039782047, -0.00229975860566, -0.0026414541062, -0.0624852627516
2019-04-03 21:31:31.40,196416402, -0.28, -0.35, 352.82, 591.070007324, -35.3632604, 149.1652292, 0.998033821583, -0.00264315633103, -0.00289593846537, -0.0625552609563
2019-04-03 21:31:31.50,196516362, -0.32, -0.36, 352.82, 591.280029297, -35.3632604, 149.1652291, 0.998028337955, -0.00305998907425, -0.00298457499593, -0.0626192986965
2019-04-03 21:31:31.60,196616322, -0.34, -0.34, 352.81, 591.489990234, -35.3632604, 149.1652291, 0.998024702072, -0.00322089204565, -0.00282999523915, -0.0626762509346
2019-04-03 21:31:31.70,196716282, -0.31, -0.28, 352.8, 591.690002441, -35.3632604, 149.1652289, 0.998023748398, -0.00290746474639, -0.00233423826285, -0.0627272874117
2019-04-03 21:31:31.80,196816242, -0.28, -0.22, 352.8, 591.880004883, -35.3632604, 149.1652289, 0.998022675514, -0.00257104611956, -0.00176258548163, -0.0627774149179
2019-04-03 21:31:31.90,196916202, -0.22, -0.13, 352.79, 592.059997559, -35.3632604, 149.1652289, 0.998021841049, -0.00204508611932, -0.00104524812195, -0.0628264173865
2019-04-03 21:31:32.00,197016162, -0.15, -0.05, 352.79, 592.229980469, -35.3632604, 149.1652289, 0.998020291328, -0.00135429855436, -0.000408991967561, -0.062877677381
2019-04-03 21:31:32.10,197116122, -0.05, -0.03, 352.78, 592.380004883, -35.3632603, 149.1652288, 0.998017311096, -0.000527683179826, -0.000298006925732, -0.0629379600286
2019-04-03 21:31:32.20,197216082, 0.02, -0.21, 352.77, 592.530029297, -35.3632603, 149.1652288, 0.998011648655, 9.17675351957e-05, -0.00190814607777, -0.0630012974143
2019-04-03 21:31:32.30,197316042, 0.09, -0.68, 352.76, 592.659973145, -35.3632603, 149.1652287, 0.997990965843, 0.00049054127885, -0.00605725357309, -0.0630646646023
2019-04-03 21:31:32.40,197416002, 0.13, -1.45, 352.75, 592.770019531, -35.3632602, 149.1652287, 0.997925043106, 0.000371038593585, -0.0127049358562, -0.0631200820208
2019-04-03 21:31:32.50,197515962, 0.14, -2.39, 352.75, 592.880004883, -35.3632602, 149.1652286, 0.997783482075, -3.34427750204e-05, -0.0209807325155, -0.0631506368518
2019-04-03 21:31:32.60,197615922, 0.16, -3.42, 352.75, 592.969970703, -35.3632601, 149.1652286, 0.99755525589, -0.000414808630012, -0.0299227852374, -0.063151024282
2019-04-03 21:31:32.70,197715882, 0.21, -4.33, 352.74, 593.049987793, -35.3632599, 149.1652284, 0.99728757143, -0.000525889219716, -0.0378336571157, -0.0631333217025
2019-04-03 21:31:32.80,197815842, 0.25, -5.03, 352.74, 593.119995117, -35.3632598, 149.1652284, 0.997038245201, -0.000567962939385, -0.043961647898, -0.0631018877029
2019-04-03 21:31:32.90,197915802, 0.28, -5.52, 352.74, 593.179992676, -35.3632595, 149.1652284, 0.996840953827, -0.000567434821278, -0.0482748672366, -0.0630664378405
2019-04-03 21:31:33.00,198015762, 0.29, -5.9, 352.74, 593.229980469, -35.3632592, 149.1652284, 0.996678113937, -0.000683861901052, -0.0515618510544, -0.0630366206169
2019-04-03 21:31:33.10,198115722, 0.31, -6.22, 352.74, 593.280029297, -35.3632587, 149.1652283, 0.99653249979, -0.000714376801625, -0.0543322488666, -0.0630117505789
2019-04-03 21:31:33.20,198215682, 0.3, -6.53, 352.74, 593.320007324, -35.3632584, 149.1652283, 0.99637901783, -0.000926594133489, -0.057073097676, -0.0630132257938
2019-04-03 21:31:33.30,198316475, 0.29, -6.87, 352.74, 593.359985352, -35.3632579, 149.1652282, 0.996203660965, -0.00121555803344, -0.0600272491574, -0.0630359128118
2019-04-03 21:31:33.40,198416435, 0.29, -7.25, 352.73, 593.390014648, -35.3632573, 149.1652281, 0.996000111103, -0.00146520382259, -0.06328317523, -0.0630627721548
2019-04-03 21:31:33.50,198516395, 0.3, -7.63, 352.72, 593.41998291, -35.3632567, 149.1652279, 0.995783448219, -0.00160936382599, -0.0665686130524, -0.0630979016423
2019-04-03 21:31:33.60,198616355, 0.29, -7.97, 352.72, 593.440002441, -35.3632559, 149.1652279, 0.995577514172, -0.00187178712804, -0.0695274919271, -0.0631496757269
2019-04-03 21:31:33.70,198716315, 0.29, -8.23, 352.71, 593.469970703, -35.363255, 149.1652278, 0.995408892632, -0.00197438476607, -0.0718546286225, -0.063199698925
2019-04-03 21:31:33.80,198816275, 0.29, -8.42, 352.7, 593.489990234, -35.3632543, 149.1652277, 0.995284795761, -0.0021459646523, -0.0734863206744, -0.063271895051
2019-04-03 21:31:33.90,198916235, 0.27, -8.54, 352.69, 593.510009766, -35.3632532, 149.1652275, 0.995206594467, -0.00232236506417, -0.0744672566652, -0.0633489042521
2019-04-03 21:31:34.00,199016195, 0.24, -8.61, 352.68, 593.520019531, -35.3632523, 149.1652274, 0.995152831078, -0.00266110338271, -0.0750907212496, -0.0634443536401
2019-04-03 21:31:34.10,199116155, 0.22, -8.7, 352.67, 593.539978027, -35.3632513, 149.1652274, 0.995086491108, -0.00289372238331, -0.0758915916085, -0.0635214373469
2019-04-03 21:31:34.20,199216115, 0.24, -8.9, 352.67, 593.559997559, -35.3632501, 149.1652272, 0.994955480099, -0.00279588531703, -0.0776094272733, -0.0635023340583
2019-04-03 21:31:34.30,199316075, 0.47, -9.21, 352.88, 593.58001709, -35.3632488, 149.165227, 0.99485963583, -0.000870623916853, -0.0803977176547, -0.0615607276559
2019-04-03 21:31:34.40,199416035, 0.57, -9.62, 353.59, 593.590026855, -35.3632476, 149.1652269, 0.994928777218, 0.000337977980962, -0.084029302001, -0.0552781298757
2019-04-03 21:31:34.50,199515995, 0.39, -10.09, 354.71, 593.609985352, -35.3632463, 149.1652268, 0.995066404343, -0.000610316288657, -0.0880892500281, -0.0456373393536
2019-04-03 21:31:34.60,199615955, -0.05, -10.57, 355.99, 593.630004883, -35.3632449, 149.1652265, 0.995136499405, -0.00365620944649, -0.0920812040567, -0.0348017290235
2019-04-03 21:31:34.70,199715915, -0.63, -11.0, 357.21, 593.640014648, -35.3632434, 149.1652265, 0.995068490505, -0.00782174989581, -0.095746986568, -0.0246987305582
2019-04-03 21:31:34.80,199815875, -1.2, -11.39, 358.19, 593.659973145, -35.3632419, 149.1652263, 0.994861781597, -0.012011943385, -0.0991239324212, -0.0167399942875
2019-04-03 21:31:34.90,199915835, -1.61, -11.76, 358.81, 593.679992676, -35.3632403, 149.165226, 0.99456590414, -0.0150530282408, -0.10234887898, -0.0116944359615
2019-04-03 21:31:35.00,200015795, -1.82, -12.12, 359.06, 593.700012207, -35.3632385, 149.1652259, 0.994233548641, -0.0167294591665, -0.105465173721, -0.00984010193497
2019-04-03 21:31:35.10,200115755, -1.82, -12.47, 358.93, 593.710021973, -35.3632367, 149.1652256, 0.993896603584, -0.0168615002185, -0.108468808234, -0.0109437890351
2019-04-03 21:31:35.20,200215715, -1.67, -12.83, 358.51, 593.729980469, -35.3632349, 149.1652254, 0.993526756763, -0.015959540382, -0.11153267324, -0.0145017839968
2019-04-03 21:31:35.29,200315675, -1.39, -13.2, 357.88, 593.75, -35.363233, 149.165225, 0.993097364902, -0.014180932194, -0.114746250212, -0.0197453256696
2019-04-03 21:31:35.40,200416468, -1.05, -13.61, 357.13, 593.780029297, -35.363231, 149.1652248, 0.992566764355, -0.0121034737676, -0.118286840618, -0.0259436089545
2019-04-03 21:31:35.50,200516428, -0.71, -13.99, 356.36, 593.799987793, -35.3632288, 149.1652245, 0.992005646229, -0.0100174983963, -0.121602140367, -0.0322076790035
2019-04-03 21:31:35.60,200616388, -0.39, -14.34, 355.66, 593.820007324, -35.3632267, 149.1652241, 0.991445720196, -0.00809906236827, -0.124625377357, -0.037925645709
2019-04-03 21:31:35.70,200716348, -0.14, -14.62, 355.09, 593.840026855, -35.3632244, 149.1652238, 0.990946054459, -0.00668025389314, -0.127136588097, -0.0426340438426
2019-04-03 21:31:35.80,200816308, 0.0, -14.84, 354.67, 593.869995117, -35.3632221, 149.1652235, 0.990548074245, -0.00597808510065, -0.129063755274, -0.0460588335991
2019-04-03 21:31:35.90,200916268, 0.07, -14.97, 354.43, 593.900024414, -35.3632197, 149.1652231, 0.990303277969, -0.00567339546978, -0.13021287322, -0.0480819381773
2019-04-03 21:31:36.00,201016228, 0.07, -15.03, 354.34, 593.91998291, -35.3632171, 149.1652227, 0.990200638771, -0.00577158806846, -0.130721837282, -0.0487975254655
2019-04-03 21:31:36.10,201116188, 0.03, -15.07, 354.39, 593.950012207, -35.3632146, 149.1652225, 0.9901714921, -0.00611452944577, -0.131070226431, -0.0484107770026
2019-04-03 21:31:36.20,201216148, -0.06, -15.15, 354.54, 593.979980469, -35.3632118, 149.1652221, 0.990141689777, -0.00687668472528, -0.131678938866, -0.0472522638738
2019-04-03 21:31:36.30,201316108, -0.21, -15.23, 354.74, 594.0, -35.3632092, 149.1652217, 0.990116536617, -0.00790631957352, -0.132375761867, -0.0456438660622
2019-04-03 21:31:36.40,201416068, -0.36, -15.35, 354.97, 594.030029297, -35.3632063, 149.1652214, 0.990056574345, -0.00899285916239, -0.13334235549, -0.043897818774
2019-04-03 21:31:36.50,201516028, -0.5, -15.49, 355.17, 594.059997559, -35.3632035, 149.165221, 0.989956915379, -0.0100176166743, -0.134522303939, -0.04229285568
2019-04-03 21:31:36.60,201615988, -0.6, -15.61, 355.33, 594.090026855, -35.3632006, 149.1652206, 0.989869058132, -0.0107480585575, -0.135502532125, -0.0410229638219
2019-04-03 21:31:36.70,201715948, -0.66, -15.69, 355.44, 594.119995117, -35.3631977, 149.1652202, 0.989801645279, -0.0111351013184, -0.136209979653, -0.0401951596141
2019-04-03 21:31:36.80,201815908, -0.69, -15.77, 355.47, 594.150024414, -35.3631946, 149.1652198, 0.989717960358, -0.0114041650668, -0.136882171035, -0.039894208312
2019-04-03 21:31:36.90,201915868, -0.69, -15.82, 355.45, 594.179992676, -35.3631916, 149.1652193, 0.989648640156, -0.0114836031571, -0.137322217226, -0.0400782451034
2019-04-03 21:31:37.00,202015828, -0.66, -15.87, 355.38, 594.210021973, -35.3631884, 149.1652188, 0.989566147327, -0.0112766586244, -0.137765139341, -0.0406503230333
2019-04-03 21:31:37.10,202115788, -0.59, -15.93, 355.27, 594.229980469, -35.3631853, 149.1652184, 0.989466190338, -0.010836083442, -0.13826303184, -0.0415037386119
2019-04-03 21:31:37.20,202215748, -0.51, -15.97, 355.15, 594.260009766, -35.363182, 149.1652179, 0.989370703697, -0.010333458893, -0.138674005866, -0.0425249896944
2019-04-03 21:31:37.30,202315708, -0.44, -16.0, 355.01, 594.289978027, -35.3631788, 149.1652176, 0.989295423031, -0.00988084729761, -0.138912364841, -0.0435923114419
2019-04-03 21:31:37.39,202415668, -0.39, -16.04, 354.89, 594.320007324, -35.3631754, 149.1652171, 0.989207565784, -0.00966128241271, -0.139227330685, -0.0446188598871
2019-04-03 21:31:37.50,202516461, -0.36, -16.07, 354.78, 594.359985352, -35.3631721, 149.1652165, 0.989120125771, -0.00950508378446, -0.139572545886, -0.0455032810569
2019-04-03 21:31:37.60,202616421, -0.33, -16.12, 354.69, 594.390014648, -35.3631686, 149.165216, 0.989036619663, -0.00935578718781, -0.139949709177, -0.0461856126785
2019-04-03 21:31:37.70,202716381, -0.31, -16.16, 354.64, 594.41998291, -35.3631653, 149.1652157, 0.988958716393, -0.0092989327386, -0.140348941088, -0.0466512739658
2019-04-03 21:31:37.80,202816341, -0.35, -16.22, 354.61, 594.450012207, -35.3631618, 149.1652152, 0.988871395588, -0.00965552218258, -0.140838056803, -0.0469555072486
2019-04-03 21:31:37.90,202916301, -0.37, -16.29, 354.6, 594.479980469, -35.3631583, 149.1652147, 0.988785266876, -0.00991028454155, -0.141387209296, -0.0470659248531
2019-04-03 21:31:38.00,203016261, -0.38, -16.35, 354.6, 594.510009766, -35.3631547, 149.1652141, 0.988710522652, -0.00997264217585, -0.141916066408, -0.0470309332013
2019-04-03 21:31:38.10,203116221, -0.38, -16.39, 354.62, 594.539978027, -35.3631513, 149.1652136, 0.98866212368, -0.00997172296047, -0.142291143537, -0.0469155348837
2019-04-03 21:31:38.20,203216181, -0.41, -16.44, 354.63, 594.570007324, -35.3631477, 149.1652131, 0.988605439663, -0.0102362232283, -0.142701148987, -0.0468073710799
2019-04-03 21:31:38.30,203316141, -0.45, -16.49, 354.65, 594.599975586, -35.3631441, 149.1652126, 0.988544285297, -0.0106237791479, -0.143120259047, -0.0467327572405
2019-04-03 21:31:38.40,203416101, -0.47, -16.54, 354.66, 594.640014648, -35.3631405, 149.1652121, 0.988489627838, -0.0107709467411, -0.143503054976, -0.0466815903783
2019-04-03 21:31:38.50,203516061, -0.46, -16.57, 354.65, 594.66998291, -35.3631368, 149.1652116, 0.988452553749, -0.010706092231, -0.143763720989, -0.0466788224876
2019-04-03 21:31:38.60,203616021, -0.46, -16.59, 354.64, 594.700012207, -35.3631331, 149.1652111, 0.988420546055, -0.0107274129987, -0.143952205777, -0.0467706806958
2019-04-03 21:31:38.70,203715981, -0.44, -16.61, 354.62, 594.729980469, -35.3631294, 149.1652106, 0.988384842873, -0.0106287822127, -0.144153878093, -0.046926856041
2019-04-03 21:31:38.80,203815941, -0.4, -16.64, 354.6, 594.760009766, -35.3631257, 149.1652101, 0.988336980343, -0.0103551950306, -0.144436791539, -0.0471253804862
2019-04-03 21:31:38.90,203915901, -0.35, -16.66, 354.56, 594.789978027, -35.3631218, 149.1652096, 0.988303482533, -0.00990276411176, -0.144628420472, -0.0473378263414
2019-04-03 21:31:39.00,204015861, -0.3, -16.66, 354.53, 594.820007324, -35.3631181, 149.165209, 0.988292396069, -0.00952371116728, -0.144651502371, -0.0475751757622
2019-04-03 21:31:39.10,204115821, -0.27, -16.64, 354.49, 594.859985352, -35.3631143, 149.1652085, 0.988302826881, -0.00932404957712, -0.144505307078, -0.0478419028223
2019-04-03 21:31:39.20,204215781, -0.27, -16.64, 354.46, 594.890014648, -35.3631105, 149.1652078, 0.988297700882, -0.00935775227845, -0.144447162747, -0.0481155961752
2019-04-03 21:31:39.30,204315741, -0.29, -16.67, 354.43, 594.91998291, -35.3631066, 149.1652073, 0.988249063492, -0.00955458544195, -0.144679144025, -0.0483790971339
2019-04-03 21:31:39.40,204415701, -0.31, -16.73, 354.41, 594.950012207, -35.3631028, 149.1652068, 0.988161742687, -0.00982300005853, -0.145171940327, -0.0486306957901
2019-04-03 21:31:39.49,204515661, -0.31, -16.78, 354.38, 594.979980469, -35.3630989, 149.1652063, 0.988076388836, -0.00987722817808, -0.145684614778, -0.0488213524222
2019-04-03 21:31:39.60,204616454, -0.3, -16.86, 354.37, 595.020019531, -35.363095, 149.1652058, 0.987974405289, -0.00979247223586, -0.146332994103, -0.0489625260234
2019-04-03 21:31:39.70,204716414, -0.28, -16.93, 354.35, 595.049987793, -35.3630911, 149.1652052, 0.987883448601, -0.00969285331666, -0.146912038326, -0.0490839183331
2019-04-03 21:31:39.80,204816374, -0.27, -16.97, 354.33, 595.08001709, -35.3630871, 149.1652045, 0.987825393677, -0.00964938290417, -0.147268220782, -0.0491935089231
2019-04-03 21:31:39.90,204916334, -0.26, -16.98, 354.32, 595.109985352, -35.3630833, 149.165204, 0.987807929516, -0.00960303004831, -0.147358104587, -0.0492839068174
2019-04-03 21:31:40.00,205016294, -0.25, -16.98, 354.31, 595.140014648, -35.3630792, 149.1652035, 0.987798392773, -0.00956301111728, -0.147395655513, -0.0493703074753
2019-04-03 21:31:40.10,205116254, -0.25, -16.99, 354.3, 595.16998291, -35.3630753, 149.165203, 0.987778663635, -0.00952315330505, -0.147502139211, -0.0494553297758
2019-04-03 21:31:40.20,205216214, -0.23, -17.03, 354.29, 595.210021973, -35.3630713, 149.1652024, 0.987733602524, -0.00941488519311, -0.147784680128, -0.0495316237211
2019-04-03 21:31:40.30,205316174, -0.21, -17.06, 354.28, 595.239990234, -35.3630674, 149.1652018, 0.987691342831, -0.00924001820385, -0.148053154349, -0.0496059656143
2019-04-03 21:31:40.40,205416134, -0.21, -17.09, 354.26, 595.270019531, -35.3630634, 149.1652013, 0.987640380859, -0.00926745589823, -0.148353517056, -0.0497181378305
2019-04-03 21:31:40.50,205516094, -0.21, -17.14, 354.25, 595.299987793, -35.3630594, 149.1652006, 0.987567842007, -0.00931648910046, -0.148790866137, -0.0498425252736
2019-04-03 21:31:40.60,205616054, -0.21, -17.17, 354.23, 595.33001709, -35.3630553, 149.1652001, 0.987517356873, -0.0093216476962, -0.149081662297, -0.0499722547829
2019-04-03 21:31:40.70,205716014, -0.19, -17.18, 354.22, 595.359985352, -35.3630512, 149.1651996, 0.987499177456, -0.00918027479202, -0.149172946811, -0.0500853434205
2019-04-03 21:31:40.80,205815974, -0.17, -17.19, 354.2, 595.400024414, -35.3630471, 149.165199, 0.987488687038, -0.00908207520843, -0.149207532406, -0.0502065941691
2019-04-03 21:31:40.90,205915934, -0.16, -17.18, 354.18, 595.429992676, -35.3630432, 149.1651983, 0.987490057945, -0.00900037866086, -0.149159818888, -0.0503356382251
2019-04-03 21:31:41.00,206015894, -0.16, -17.18, 354.17, 595.460021973, -35.3630391, 149.1651978, 0.987480282784, -0.00905767269433, -0.149169296026, -0.0504899919033
2019-04-03 21:31:41.10,206115854, -0.19, -17.2, 354.15, 595.489990234, -35.3630349, 149.1651973, 0.987445652485, -0.00927826203406, -0.149320110679, -0.0506804548204
2019-04-03 21:31:41.20,206215814, -0.2, -17.23, 354.13, 595.520019531, -35.3630309, 149.1651967, 0.987396538258, -0.00947687961161, -0.149565175176, -0.050877340138
2019-04-03 21:31:41.30,206315774, -0.2, -17.26, 354.11, 595.559997559, -35.3630268, 149.1651961, 0.987345337868, -0.00946628302336, -0.149845734239, -0.0510481074452
2019-04-03 21:31:41.40,206415734, -0.17, -17.31, 354.08, 595.590026855, -35.3630227, 149.1651956, 0.98727864027, -0.00928211770952, -0.150244355202, -0.0511991083622
2019-04-03 21:31:41.50,206515694, -0.13, -17.35, 354.06, 595.619995117, -35.3630185, 149.1651949, 0.987222254276, -0.00895710103214, -0.150592461228, -0.0513220466673
2019-04-03 21:31:41.60,206616487, -0.09, -17.39, 354.04, 595.650024414, -35.3630144, 149.1651944, 0.987166523933, -0.00863580405712, -0.150937542319, -0.0514345169067
2019-04-03 21:31:41.70,206716447, -0.07, -17.39, 354.03, 595.679992676, -35.3630103, 149.1651938, 0.987154960632, -0.00847628433257, -0.150980010629, -0.0515583306551
2019-04-03 21:31:41.80,206816407, -0.06, -17.38, 354.01, 595.719970703, -35.3630061, 149.1651932, 0.987161457539, -0.00846755970269, -0.150894924998, -0.0516843982041
2019-04-03 21:31:41.90,206916367, -0.06, -17.36, 354.0, 595.75, -35.363002, 149.1651925, 0.987179100513, -0.0084430295974, -0.150740072131, -0.0518033504486
2019-04-03 21:31:42.00,207016327, -0.08, -17.35, 353.98, 595.780029297, -35.3629977, 149.165192, 0.987181782722, -0.00868534483016, -0.150658592582, -0.0519499145448
2019-04-03 21:31:42.10,207116287, -0.13, -17.35, 353.97, 595.809997559, -35.3629935, 149.1651915, 0.987172663212, -0.00905622448772, -0.150641277432, -0.0521090403199
2019-04-03 21:31:42.20,207216247, -0.15, -17.36, 353.96, 595.849975586, -35.3629893, 149.1651909, 0.987152278423, -0.00931268278509, -0.150709792972, -0.0522513128817
2019-04-03 21:31:42.30,207316207, -0.15, -17.38, 353.94, 595.880004883, -35.3629852, 149.1651903, 0.987126231194, -0.00929253641516, -0.150838196278, -0.0523766763508
2019-04-03 21:31:42.40,207416167, -0.13, -17.42, 353.93, 595.909973145, -35.362981, 149.1651896, 0.987068474293, -0.00920020230114, -0.151177838445, -0.052502181381
2019-04-03 21:31:42.50,207516127, -0.1, -17.48, 353.91, 595.940002441, -35.3629768, 149.1651891, 0.986983537674, -0.00897034630179, -0.151705384254, -0.0526171587408
2019-04-03 21:31:42.60,207616087, -0.08, -17.54, 353.89, 595.979980469, -35.3629726, 149.1651886, 0.986895024776, -0.008823717013, -0.152240127325, -0.0527575872838
2019-04-03 21:31:42.70,207716047, -0.06, -17.58, 353.87, 596.010009766, -35.3629684, 149.165188, 0.986832201481, -0.00874527730048, -0.152593538165, -0.0529234446585
2019-04-03 21:31:42.80,207816007, -0.06, -17.61, 353.84, 596.039978027, -35.3629642, 149.1651873, 0.98677521944, -0.00876207277179, -0.152896553278, -0.0531084053218
2019-04-03 21:31:42.90,207915967, -0.04, -17.61, 353.82, 596.070007324, -35.36296, 149.1651867, 0.986773192883, -0.00867009535432, -0.152855545282, -0.053279735148
2019-04-03 21:31:43.00,208015927, -0.03, -17.59, 353.8, 596.099975586, -35.3629557, 149.1651862, 0.986786365509, -0.00852855481207, -0.15271987021, -0.0534465871751
2019-04-03 21:31:43.10,208115887, 0.0, -17.58, 353.78, 596.140014648, -35.3629515, 149.1651856, 0.986787855625, -0.00834633875638, -0.152668252587, -0.0535959117115
2019-04-03 21:31:43.20,208215847, 0.0, -17.59, 353.76, 596.16998291, -35.3629473, 149.1651849, 0.986771047115, -0.00826873350888, -0.152728065848, -0.0537462979555
2019-04-03 21:31:43.30,208315807, 0.0, -17.59, 353.74, 596.200012207, -35.362943, 149.1651843, 0.986759305, -0.00826633814722, -0.152750939131, -0.0538973137736
2019-04-03 21:31:43.40,208415767, 0.01, -17.58, 353.72, 596.229980469, -35.3629387, 149.1651839, 0.986766815186, -0.00824205391109, -0.152654662728, -0.0540359765291
2019-04-03 21:31:43.50,208515727, 0.0, -17.59, 353.71, 596.270019531, -35.3629345, 149.1651833, 0.986752510071, -0.00839998479933, -0.152679890394, -0.054201580584
2019-04-03 21:31:43.60,208615687, -0.02, -17.61, 353.69, 596.299987793, -35.3629302, 149.1651827, 0.986717283726, -0.00862432084978, -0.152836292982, -0.0543667711318
2019-04-03 21:31:43.70,208716480, -0.03, -17.62, 353.68, 596.33001709, -35.3629259, 149.165182, 0.986688256264, -0.00878601428121, -0.152958527207, -0.0545230954885
2019-04-03 21:31:43.80,208816440, -0.04, -17.63, 353.66, 596.359985352, -35.3629216, 149.1651815, 0.986672759056, -0.00881687179208, -0.153007566929, -0.0546612627804
2019-04-03 21:31:43.90,208916400, -0.01, -17.62, 353.64, 596.390014648, -35.3629173, 149.1651809, 0.98667627573, -0.00864821299911, -0.152956187725, -0.0547675229609
2019-04-03 21:31:44.00,209016360, 0.0, -17.64, 353.63, 596.429992676, -35.362913, 149.1651803, 0.986647129059, -0.00853704847395, -0.153111979365, -0.0548757314682
2019-04-03 21:31:44.10,209116320, 0.0, -17.66, 353.61, 596.460021973, -35.3629088, 149.1651796, 0.986614584923, -0.00846459157765, -0.153285607696, -0.0549872294068
2019-04-03 21:31:44.20,209216280, 0.01, -17.68, 353.6, 596.489990234, -35.3629045, 149.1651791, 0.986582100391, -0.0084231859073, -0.153455659747, -0.055101569742
2019-04-03 21:31:44.30,209316240, 0.0, -17.7, 353.58, 596.520019531, -35.3629002, 149.1651785, 0.986548542976, -0.00856121722609, -0.153609991074, -0.055251210928
2019-04-03 21:31:44.40,209416200, -0.03, -17.71, 353.57, 596.549987793, -35.3628959, 149.165178, 0.986513972282, -0.00896467361599, -0.153733208776, -0.0554612465203
2019-04-03 21:31:44.50,209516160, -0.06, -17.72, 353.55, 596.590026855, -35.3628916, 149.1651774, 0.986487209797, -0.00923377275467, -0.153815850616, -0.0556631311774
2019-04-03 21:31:44.60,209616120, -0.06, -17.74, 353.53, 596.619995117, -35.3628873, 149.1651767, 0.986460626125, -0.00924802944064, -0.153925850987, -0.0558277182281
2019-04-03 21:31:44.70,209716080, -0.02, -17.74, 353.51, 596.650024414, -35.3628828, 149.1651762, 0.986443281174, -0.00896121188998, -0.154006570578, -0.0559580139816
2019-04-03 21:31:44.80,209816040, 0.03, -17.75, 353.48, 596.679992676, -35.3628786, 149.1651756, 0.986425161362, -0.00847675930709, -0.154108777642, -0.0560724958777
2019-04-03 21:31:44.90,209916000, 0.07, -17.77, 353.46, 596.710021973, -35.3628743, 149.165175, 0.986391305923, -0.00814556702971, -0.154293000698, -0.0562092065811
2019-04-03 21:31:45.00,210015960, 0.09, -17.8, 353.44, 596.75, -35.36287, 149.1651743, 0.986337721348, -0.00801962800324, -0.154585108161, -0.056365583092
2019-04-03 21:31:45.10,210115920, 0.09, -17.83, 353.42, 596.780029297, -35.3628657, 149.1651738, 0.986292183399, -0.00807665195316, -0.154806271195, -0.0565470531583
2019-04-03 21:31:45.20,210215880, 0.08, -17.85, 353.4, 596.809997559, -35.3628613, 149.1651732, 0.986257731915, -0.00819449778646, -0.154953420162, -0.0567272007465
2019-04-03 21:31:45.30,210315840, 0.06, -17.85, 353.38, 596.840026855, -35.362857, 149.1651726, 0.986241996288, -0.00835203472525, -0.154982551932, -0.0568984299898
2019-04-03 21:31:45.40,210415800, 0.06, -17.86, 353.36, 596.880004883, -35.3628527, 149.1651719, 0.986219584942, -0.00843628495932, -0.155064016581, -0.0570519194007
2019-04-03 21:31:45.50,210515760, 0.06, -17.85, 353.35, 596.909973145, -35.3628482, 149.1651714, 0.986222743988, -0.00842182524502, -0.154990255833, -0.0571996681392
2019-04-03 21:31:45.60,210615720, 0.07, -17.84, 353.33, 596.940002441, -35.3628439, 149.1651709, 0.986227333546, -0.00835381820798, -0.154916852713, -0.0573298372328
2019-04-03 21:31:45.70,210715680, 0.07, -17.82, 353.31, 596.969970703, -35.3628396, 149.1651703, 0.986255347729, -0.00835808645934, -0.154687777162, -0.0574654042721
2019-04-03 21:31:45.80,210816473, 0.06, -17.81, 353.3, 597.0, -35.3628353, 149.1651697, 0.986257612705, -0.00844984315336, -0.154617369175, -0.0576023682952
2019-04-03 21:31:45.90,210916433, 0.07, -17.81, 353.28, 597.039978027, -35.3628309, 149.165169, 0.986258208752, -0.00841299258173, -0.154571861029, -0.0577188283205
2019-04-03 21:31:46.00,211016393, 0.08, -17.81, 353.27, 597.070007324, -35.3628265, 149.1651685, 0.986250460148, -0.00834621954709, -0.154582902789, -0.0578316561878
2019-04-03 21:31:46.10,211116353, 0.08, -17.82, 353.25, 597.099975586, -35.3628221, 149.1651679, 0.9862216115, -0.00837520137429, -0.154716879129, -0.0579609982669
2019-04-03 21:31:46.20,211216313, 0.08, -17.85, 353.24, 597.130004883, -35.3628177, 149.1651673, 0.986181914806, -0.00841988995671, -0.154916867614, -0.0580954179168
2019-04-03 21:31:46.30,211316273, 0.08, -17.86, 353.22, 597.159973145, -35.3628135, 149.1651666, 0.986155092716, -0.00844839029014, -0.155031099916, -0.0582413859665
2019-04-03 21:31:46.40,211416233, 0.08, -17.87, 353.2, 597.200012207, -35.3628091, 149.1651661, 0.986128985882, -0.00849880464375, -0.155135914683, -0.0583970397711
2019-04-03 21:31:46.50,211516193, 0.09, -17.88, 353.19, 597.229980469, -35.3628047, 149.1651655, 0.986102223396, -0.00840893294662, -0.155259266496, -0.0585349164903
2019-04-03 21:31:46.60,211616153, 0.1, -17.89, 353.17, 597.260009766, -35.3628004, 149.1651648, 0.986084580421, -0.00832901615649, -0.155322358012, -0.0586757995188
2019-04-03 21:31:46.70,211716113, 0.11, -17.87, 353.15, 597.289978027, -35.3627959, 149.1651642, 0.986101090908, -0.00825288239866, -0.155166894197, -0.0588199421763
2019-04-03 21:31:46.80,211816073, 0.13, -17.85, 353.13, 597.320007324, -35.3627916, 149.1651637, 0.986125648022, -0.00813992414623, -0.154967173934, -0.0589508451521
2019-04-03 21:31:46.90,211916033, 0.15, -17.84, 353.12, 597.359985352, -35.3627873, 149.1651631, 0.986133635044, -0.00796841830015, -0.154882207513, -0.0590640306473
2019-04-03 21:31:47.00,212015993, 0.16, -17.85, 353.1, 597.390014648, -35.3627829, 149.1651624, 0.986112177372, -0.00790111441165, -0.154977023602, -0.0591822750866
2019-04-03 21:31:47.10,212115953, 0.16, -17.87, 353.09, 597.41998291, -35.3627785, 149.1651618, 0.98607057333, -0.00795376393944, -0.15519104898, -0.0593071430922
2019-04-03 21:31:47.20,212215913, 0.16, -17.89, 353.07, 597.450012207, -35.362774, 149.1651612, 0.986040592194, -0.00797055661678, -0.155340135098, -0.059413086623
2019-04-03 21:31:47.30,212315873, 0.16, -17.89, 353.06, 597.479980469, -35.3627697, 149.1651606, 0.986037313938, -0.00802070181817, -0.1553196311, -0.0595139153302
2019-04-03 21:31:47.40,212415833, 0.14, -17.88, 353.05, 597.520019531, -35.3627654, 149.1651599, 0.986045062542, -0.00812764465809, -0.15522390604, -0.0596201196313
2019-04-03 21:31:47.50,212515793, 0.15, -17.87, 353.04, 597.549987793, -35.362761, 149.1651594, 0.986046969891, -0.00812959764153, -0.155179530382, -0.0597044490278
2019-04-03 21:31:47.60,212615753, 0.17, -17.89, 353.03, 597.58001709, -35.3627566, 149.1651588, 0.986019670963, -0.0079750828445, -0.155339211226, -0.0597603470087
2019-04-03 21:31:47.70,212715713, 0.18, -17.91, 353.02, 597.609985352, -35.3627521, 149.1651581, 0.985994637012, -0.00788391008973, -0.155470490456, -0.0598451569676
2019-04-03 21:31:47.79,212815673, 0.19, -17.92, 353.01, 597.640014648, -35.3627478, 149.1651575, 0.985973596573, -0.00783165730536, -0.155568614602, -0.0599426999688
2019-04-03 21:31:47.90,212916466, 0.2, -17.92, 352.99, 597.679992676, -35.3627434, 149.165157, 0.985956668854, -0.0077687795274, -0.155643239617, -0.0600366964936
2019-04-03 21:31:48.00,213016426, 0.19, -17.93, 352.98, 597.710021973, -35.362739, 149.1651564, 0.985939264297, -0.00782308727503, -0.155709028244, -0.0601441860199
2019-04-03 21:31:48.10,213116386, 0.18, -17.94, 352.97, 597.739990234, -35.3627345, 149.1651557, 0.985925316811, -0.00795342586935, -0.155741989613, -0.0602703467011
2019-04-03 21:31:48.20,213216346, 0.17, -17.94, 352.96, 597.770019531, -35.3627302, 149.1651551, 0.985909938812, -0.00807178579271, -0.155785828829, -0.0603931546211
2019-04-03 21:31:48.30,213316306, 0.17, -17.94, 352.94, 597.809997559, -35.3627258, 149.1651546, 0.985906898975, -0.00811870582402, -0.155757620931, -0.0605081953108
2019-04-03 21:31:48.40,213416266, 0.17, -17.93, 352.93, 597.840026855, -35.3627214, 149.165154, 0.985913097858, -0.00813912972808, -0.155673786998, -0.0606203489006
2019-04-03 21:31:48.50,213516226, 0.17, -17.9, 352.92, 597.869995117, -35.3627169, 149.1651532, 0.985945761204, -0.00806427653879, -0.155429974198, -0.0607248395681
2019-04-03 21:31:48.60,213616186, 0.17, -17.87, 352.9, 597.900024414, -35.3627126, 149.1651527, 0.985978662968, -0.00809143483639, -0.155172929168, -0.0608443766832
2019-04-03 21:31:48.70,213716146, 0.17, -17.86, 352.89, 597.929992676, -35.3627081, 149.1651521, 0.985993683338, -0.00810385122895, -0.155031949282, -0.0609580427408
2019-04-03 21:31:48.80,213816106, 0.19, -17.88, 352.88, 597.960021973, -35.3627037, 149.1651515, 0.985950410366, -0.00800822488964, -0.15527766943, -0.0610454417765
2019-04-03 21:31:48.90,213916066, 0.19, -17.92, 352.87, 598.0, -35.3626992, 149.1651508, 0.985891819, -0.00798412784934, -0.15561644733, -0.0611318126321
2019-04-03 21:31:49.00,214016026, 0.2, -17.95, 352.86, 598.030029297, -35.3626949, 149.1651503, 0.985848009586, -0.00794011447579, -0.155863493681, -0.0612147562206
2019-04-03 21:31:49.10,214115986, 0.23, -17.96, 352.84, 598.059997559, -35.3626905, 149.1651497, 0.985827028751, -0.00768839102238, -0.1559869349, -0.0612703301013
2019-04-03 21:31:49.20,214215946, 0.25, -17.97, 352.83, 598.090026855, -35.3626861, 149.165149, 0.985818326473, -0.0075458958745, -0.156018823385, -0.0613465197384
2019-04-03 21:31:49.30,214315906, 0.25, -17.96, 352.82, 598.119995117, -35.3626816, 149.1651484, 0.985821723938, -0.00760283321142, -0.155949413776, -0.0614616088569
2019-04-03 21:31:49.40,214415866, 0.22, -17.95, 352.81, 598.159973145, -35.3626773, 149.1651479, 0.985823154449, -0.00780980102718, -0.155871644616, -0.0616104826331
2019-04-03 21:31:49.50,214515826, 0.21, -17.94, 352.79, 598.190002441, -35.3626728, 149.1651473, 0.98583483696, -0.00798454228789, -0.155733570457, -0.0617494434118
2019-04-03 21:31:49.60,214615786, 0.2, -17.94, 352.78, 598.219970703, -35.3626683, 149.1651466, 0.985828220844, -0.00804999470711, -0.155725419521, -0.0618672966957
2019-04-03 21:31:49.70,214715746, 0.19, -17.94, 352.77, 598.25, -35.3626639, 149.165146, 0.985820710659, -0.0081350337714, -0.155719429255, -0.0619905330241
2019-04-03 21:31:49.80,214815706, 0.18, -17.95, 352.75, 598.280029297, -35.3626596, 149.1651454, 0.985794067383, -0.00823405757546, -0.15583319962, -0.0621153004467
2019-04-03 21:31:49.89,214915666, 0.18, -17.97, 352.74, 598.309997559, -35.3626552, 149.1651448, 0.985760033131, -0.00830484367907, -0.155997902155, -0.0622320137918
2019-04-03 21:31:50.00,215016459, 0.18, -17.99, 352.73, 598.349975586, -35.3626506, 149.1651441, 0.985723793507, -0.00828415993601, -0.156186640263, -0.0623362250626
2019-04-03 21:31:50.10,215116419, 0.21, -18.01, 352.72, 598.380004883, -35.3626463, 149.1651436, 0.985690891743, -0.00811847764999, -0.156371682882, -0.0624137818813
2019-04-03 21:31:50.20,215216379, 0.25, -18.03, 352.7, 598.409973145, -35.3626419, 149.165143, 0.985661029816, -0.00779162207618, -0.156558275223, -0.062459051609
2019-04-03 21:31:50.30,215316339, 0.28, -18.03, 352.69, 598.440002441, -35.3626375, 149.1651423, 0.985656321049, -0.00753882946447, -0.156578332186, -0.0625139772892
2019-04-03 21:31:50.40,215416299, 0.28, -18.03, 352.68, 598.469970703, -35.3626329, 149.1651417, 0.98565608263, -0.00757460435852, -0.156531184912, -0.0626322552562
2019-04-03 21:31:50.50,215516259, 0.29, -18.02, 352.67, 598.5, -35.3626286, 149.1651411, 0.98566031456, -0.00744762644172, -0.156477555633, -0.0627148598433
2019-04-03 21:31:50.60,215616219, 0.31, -18.01, 352.66, 598.539978027, -35.3626242, 149.1651405, 0.985666751862, -0.0073277791962, -0.156415805221, -0.0627814903855
2019-04-03 21:31:50.70,215716179, 0.33, -18.0, 352.65, 598.570007324, -35.3626198, 149.1651398, 0.985676765442, -0.00713169015944, -0.156351685524, -0.0628063902259
2019-04-03 21:31:50.80,215816139, 0.34, -18.0, 352.64, 598.599975586, -35.3626153, 149.1651393, 0.985670983791, -0.00707610556856, -0.156377449632, -0.0628397092223
2019-04-03 21:31:50.90,215916099, 0.32, -18.01, 352.64, 598.630004883, -35.3626109, 149.1651387, 0.985652804375, -0.00727339275181, -0.15645390749, -0.0629112571478
2019-04-03 21:31:51.00,216016059, 0.31, -18.03, 352.63, 598.659973145, -35.3626065, 149.1651381, 0.985627353191, -0.0073929973878, -0.156583279371, -0.0629743337631
2019-04-03 21:31:51.10,216116019, 0.31, -18.03, 352.63, 598.690002441, -35.3626019, 149.1651374, 0.985620081425, -0.00733380019665, -0.156612247229, -0.063022993505
2019-04-03 21:31:51.20,216215979, 0.33, -18.02, 352.62, 598.729980469, -35.3625976, 149.1651368, 0.985630393028, -0.00722706224769, -0.156529843807, -0.0630790144205
2019-04-03 21:31:51.30,216315939, 0.35, -18.0, 352.61, 598.760009766, -35.3625932, 149.1651362, 0.985654950142, -0.00702763162553, -0.156364455819, -0.0631280988455
2019-04-03 21:31:51.40,216415899, 0.37, -18.01, 352.6, 598.789978027, -35.3625886, 149.1651355, 0.985637843609, -0.00687975017354, -0.156453222036, -0.063191473484
2019-04-03 21:31:51.50,216515859, 0.36, -18.02, 352.59, 598.820007324, -35.3625843, 149.165135, 0.985625088215, -0.00695603899658, -0.156488075852, -0.0632954165339
2019-04-03 21:31:51.60,216615819, 0.35, -18.0, 352.58, 598.849975586, -35.3625799, 149.1651344, 0.98563426733, -0.00709373736754, -0.156378284097, -0.0634080320597
2019-04-03 21:31:51.70,216715779, 0.34, -17.98, 352.57, 598.890014648, -35.3625754, 149.1651336, 0.985665440559, -0.00716531369835, -0.156138658524, -0.06350582093
2019-04-03 21:31:51.80,216815739, 0.33, -17.96, 352.56, 598.91998291, -35.3625709, 149.1651331, 0.985675752163, -0.00725565943867, -0.156029045582, -0.0636055991054
2019-04-03 21:31:51.90,216915699, 0.32, -17.97, 352.55, 598.950012207, -35.3625665, 149.1651325, 0.985659241676, -0.00733757764101, -0.156091555953, -0.0636983662844
2019-04-03 21:31:51.99,217015659, 0.33, -17.99, 352.54, 598.979980469, -35.3625621, 149.1651319, 0.985628783703, -0.00732486881316, -0.156250983477, -0.0637794807553
2019-04-03 21:31:52.10,217116452, 0.33, -18.02, 352.53, 599.010009766, -35.3625575, 149.1651312, 0.985587716103, -0.0072835679166, -0.15647983551, -0.0638589411974
2019-04-03 21:31:52.20,217216412, 0.36, -18.03, 352.52, 599.049987793, -35.3625532, 149.1651307, 0.985563397408, -0.00708963721991, -0.156618013978, -0.0639171227813
2019-04-03 21:31:52.30,217316372, 0.37, -18.02, 352.51, 599.08001709, -35.3625487, 149.1651301, 0.985568583012, -0.00698046898469, -0.1565605551, -0.0639894455671
2019-04-03 21:31:52.40,217416332, 0.36, -18.02, 352.5, 599.109985352, -35.3625442, 149.1651293, 0.985561430454, -0.0071294256486, -0.15655733645, -0.0640912279487
2019-04-03 21:31:52.50,217516292, 0.34, -18.03, 352.49, 599.140014648, -35.3625399, 149.1651288, 0.985553383827, -0.00730871362612, -0.156557127833, -0.0641950145364
2019-04-03 21:31:52.60,217616252, 0.31, -18.03, 352.48, 599.16998291, -35.3625354, 149.1651282, 0.985544204712, -0.00759032415226, -0.156549364328, -0.0643222630024
2019-04-03 21:31:52.70,217716212, 0.28, -18.03, 352.47, 599.200012207, -35.362531, 149.1651276, 0.985525906086, -0.00784806255251, -0.156599357724, -0.0644502863288
2019-04-03 21:31:52.80,217816172, 0.28, -18.05, 352.45, 599.239990234, -35.3625265, 149.1651269, 0.985499978065, -0.00785015057772, -0.156722813845, -0.0645455121994
2019-04-03 21:31:52.90,217916132, 0.3, -18.06, 352.44, 599.270019531, -35.3625221, 149.1651264, 0.985475003719, -0.00769963627681, -0.156853556633, -0.0646274760365
2019-04-03 21:31:53.00,218016092, 0.32, -18.08, 352.43, 599.299987793, -35.3625175, 149.1651258, 0.985448479652, -0.00759321823716, -0.156985938549, -0.0647236257792
2019-04-03 21:31:53.10,218116052, 0.33, -18.09, 352.41, 599.33001709, -35.3625131, 149.1651252, 0.985419929028, -0.00750808604062, -0.157127708197, -0.0648233667016
2019-04-03 21:31:53.20,218216012, 0.33, -18.11, 352.4, 599.359985352, -35.3625088, 149.1651245, 0.985394656658, -0.00752738583833, -0.157234355807, -0.0649469569325
2019-04-03 21:31:53.30,218315972, 0.33, -18.11, 352.38, 599.400024414, -35.3625043, 149.165124, 0.985386431217, -0.00756149832159, -0.157230556011, -0.0650770887733
2019-04-03 21:31:53.40,218415932, 0.32, -18.11, 352.37, 599.429992676, -35.3624998, 149.1651233, 0.98536503315, -0.00766043132171, -0.15730188787, -0.0652162954211
2019-04-03 21:31:53.50,218515892, 0.33, -18.11, 352.35, 599.460021973, -35.3624954, 149.1651226, 0.985358417034, -0.00757966190577, -0.157300308347, -0.06532984972
2019-04-03 21:31:53.60,218615852, 0.36, -18.11, 352.34, 599.489990234, -35.362491, 149.1651221, 0.985362291336, -0.00741025898606, -0.157243818045, -0.0654267072678
2019-04-03 21:31:53.70,218715812, 0.39, -18.09, 352.33, 599.520019531, -35.3624865, 149.1651215, 0.985379159451, -0.00709318835288, -0.157120838761, -0.0655033141375
2019-04-03 21:31:53.80,218815772, 0.43, -18.07, 352.31, 599.549987793, -35.3624821, 149.1651209, 0.985395371914, -0.00676395511255, -0.157008677721, -0.0655629038811
2019-04-03 21:31:53.90,218915732, 0.45, -18.06, 352.3, 599.590026855, -35.3624777, 149.1651202, 0.985410630703, -0.00664923666045, -0.156890571117, -0.0656284540892
2019-04-03 21:31:54.00,219015692, 0.43, -18.03, 352.3, 599.619995117, -35.3624731, 149.1651196, 0.985444545746, -0.00675531709567, -0.156637132168, -0.0657134279609
2019-04-03 21:31:54.10,219116485, 0.43, -18.0, 352.29, 599.650024414, -35.3624687, 149.165119, 0.985484361649, -0.00677199894562, -0.156359255314, -0.0657755881548
2019-04-03 21:31:54.20,219216445, 0.43, -18.01, 352.28, 599.679992676, -35.3624643, 149.1651183, 0.985471904278, -0.00682022003457, -0.156416192651, -0.0658228099346
2019-04-03 21:31:54.30,219316405, 0.42, -18.02, 352.28, 599.710021973, -35.3624597, 149.1651178, 0.985452830791, -0.00687600160018, -0.156514972448, -0.0658676326275
2019-04-03 21:31:54.40,219416365, 0.42, -18.03, 352.27, 599.739990234, -35.3624554, 149.1651172, 0.985435605049, -0.00689893355593, -0.156604856253, -0.0659096688032
2019-04-03 21:31:54.50,219516325, 0.42, -18.04, 352.27, 599.780029297, -35.3624509, 149.1651164, 0.985412538052, -0.0068980390206, -0.156730473042, -0.065955594182
2019-04-03 21:31:54.60,219616285, 0.41, -18.04, 352.26, 599.809997559, -35.3624465, 149.1651159, 0.985415279865, -0.0070045911707, -0.156673282385, -0.0660395771265
2019-04-03 21:31:54.70,219716245, 0.4, -18.01, 352.25, 599.840026855, -35.362442, 149.1651153, 0.985439181328, -0.00709081906825, -0.156473815441, -0.0661459118128
2019-04-03 21:31:54.80,219816205, 0.39, -18.0, 352.24, 599.869995117, -35.3624375, 149.1651147, 0.985448658466, -0.00718321977183, -0.15636216104, -0.0662584379315
2019-04-03 21:31:54.90,219916165, 0.39, -17.99, 352.23, 599.900024414, -35.362433, 149.165114, 0.985451161861, -0.00721982121468, -0.156299009919, -0.0663660168648
2019-04-03 21:31:55.00,220016125, 0.39, -18.02, 352.21, 599.929992676, -35.3624286, 149.1651135, 0.985415220261, -0.00719198258594, -0.156483367085, -0.0664688721299
2019-04-03 21:31:55.10,220116085, 0.41, -18.04, 352.2, 599.960021973, -35.3624242, 149.1651129, 0.985380530357, -0.00704709347337, -0.156668975949, -0.0665608122945
2019-04-03 21:31:55.20,220216045, 0.44, -18.03, 352.19, 599.989990234, -35.3624196, 149.1651121, 0.985378324986, -0.00682707736269, -0.156655356288, -0.0666489228606
2019-04-03 21:31:55.30,220316005, 0.45, -18.02, 352.17, 600.020019531, -35.3624152, 149.1651116, 0.985390901566, -0.0067565147765, -0.156530588865, -0.0667631700635
2019-04-03 21:31:55.40,220415965, 0.44, -18.01, 352.16, 600.059997559, -35.3624108, 149.165111, 0.985393106937, -0.00683332327753, -0.156459093094, -0.066890232265
2019-04-03 21:31:55.50,220515925, 0.43, -18.02, 352.14, 600.090026855, -35.3624064, 149.1651104, 0.985366940498, -0.00701134745032, -0.156561136246, -0.0670181959867
2019-04-03 21:31:55.60,220615885, 0.42, -18.06, 352.13, 600.119995117, -35.3624019, 149.1651097, 0.985309958458, -0.00714077567682, -0.156868100166, -0.0671246722341
2019-04-03 21:31:55.70,220715845, 0.4, -18.09, 352.12, 600.150024414, -35.3623975, 149.1651092, 0.985265731812, -0.00729957595468, -0.157091885805, -0.0672334730625
2019-04-03 21:31:55.80,220815805, 0.39, -18.1, 352.11, 600.179992676, -35.362393, 149.1651086, 0.985242307186, -0.00742058549076, -0.157190844417, -0.0673322677612
2019-04-03 21:31:55.90,220915765, 0.4, -18.08, 352.1, 600.210021973, -35.3623885, 149.165108, 0.985264778137, -0.00736831314862, -0.157024040818, -0.0673986971378
2019-04-03 21:31:56.00,221015725, 0.41, -18.04, 352.1, 600.25, -35.3623841, 149.1651073, 0.985308110714, -0.00720307277516, -0.156733825803, -0.06745801121
2019-04-03 21:31:56.10,221115685, 0.42, -18.01, 352.09, 600.280029297, -35.3623796, 149.1651067, 0.985345184803, -0.00711651612073, -0.156473711133, -0.0675289705396
2019-04-03 21:31:56.20,221216478, 0.43, -18.02, 352.07, 600.309997559, -35.3623751, 149.1651061, 0.985331177711, -0.00705473311245, -0.156529173255, -0.067611426115
2019-04-03 21:31:56.30,221316438, 0.44, -18.04, 352.06, 600.340026855, -35.3623707, 149.1651054, 0.985291182995, -0.00706175109372, -0.156738758087, -0.0677082613111
2019-04-03 21:31:56.40,221416398, 0.43, -18.07, 352.05, 600.369995117, -35.3623661, 149.1651049, 0.985251843929, -0.00714417174459, -0.156936392188, -0.0678138062358
2019-04-03 21:31:56.50,221516358, 0.42, -18.07, 352.04, 600.400024414, -35.3623617, 149.1651043, 0.985244572163, -0.00721326796338, -0.156936854124, -0.0679114758968
2019-04-03 21:31:56.60,221616318, 0.42, -18.06, 352.03, 600.429992676, -35.3623573, 149.1651035, 0.985250353813, -0.00728241167963, -0.156855225563, -0.0680080652237
2019-04-03 21:31:56.70,221716278, 0.42, -18.05, 352.02, 600.460021973, -35.3623527, 149.1651029, 0.985251128674, -0.00727351941168, -0.156815335155, -0.0680897682905
2019-04-03 21:31:56.80,221816238, 0.44, -18.05, 352.01, 600.5, -35.3623484, 149.1651024, 0.985253155231, -0.00712457345799, -0.156783610582, -0.068149805069
2019-04-03 21:31:56.90,221916198, 0.47, -18.04, 352.0, 600.530029297, -35.3623439, 149.1651018, 0.985265910625, -0.00684731872752, -0.156697779894, -0.0681914538145
2019-04-03 21:31:57.00,222016158, 0.49, -18.03, 351.99, 600.559997559, -35.3623395, 149.1651011, 0.985272824764, -0.0066440445371, -0.156644210219, -0.0682345405221
2019-04-03 21:31:57.10,222116118, 0.52, -18.02, 351.98, 600.590026855, -35.362335, 149.1651005, 0.985277891159, -0.00646983692423, -0.156602472067, -0.0682736709714
2019-04-03 21:31:57.20,222216078, 0.52, -18.03, 351.98, 600.619995117, -35.3623306, 149.1650999, 0.985261082649, -0.00641806889325, -0.156688436866, -0.0683245584369
2019-04-03 21:31:57.30,222316038, 0.53, -18.06, 351.97, 600.650024414, -35.3623261, 149.1650992, 0.985223591328, -0.00639323750511, -0.156906038523, -0.0683672279119
2019-04-03 21:31:57.40,222415998, 0.53, -18.1, 351.96, 600.679992676, -35.3623216, 149.1650986, 0.985167324543, -0.00642239581794, -0.157237455249, -0.0684142261744
2019-04-03 21:31:57.50,222515958, 0.53, -18.12, 351.96, 600.719970703, -35.3623172, 149.1650981, 0.985133528709, -0.00644805608317, -0.157426476479, -0.0684642270207
2019-04-03 21:31:57.60,222615918, 0.52, -18.11, 351.95, 600.75, -35.3623126, 149.1650973, 0.985136628151, -0.00651867035776, -0.157378062606, -0.0685239285231
2019-04-03 21:31:57.70,222715878, 0.52, -18.08, 351.95, 600.780029297, -35.3623082, 149.1650967, 0.985172688961, -0.00655545433983, -0.157125160098, -0.0685817599297
2019-04-03 21:31:57.80,222815838, 0.52, -18.05, 351.94, 600.809997559, -35.3623038, 149.1650962, 0.985220849514, -0.00649654632434, -0.156802788377, -0.0686337128282
2019-04-03 21:31:57.90,222915798, 0.53, -18.01, 351.93, 600.840026855, -35.3622992, 149.1650956, 0.985263228416, -0.00637647788972, -0.156521618366, -0.0686785280704
2019-04-03 21:31:58.00,223015758, 0.55, -18.01, 351.93, 600.869995117, -35.3622948, 149.1650949, 0.9852643013, -0.00620381906629, -0.156503975391, -0.0687186717987
2019-04-03 21:31:58.10,223115718, 0.57, -18.03, 351.92, 600.900024414, -35.3622904, 149.1650943, 0.985234677792, -0.00612655095756, -0.15667013824, -0.0687723010778
2019-04-03 21:31:58.20,223215678, 0.57, -18.05, 351.91, 600.929992676, -35.362286, 149.1650937, 0.985201537609, -0.00608342513442, -0.156854987144, -0.0688289776444
2019-04-03 21:31:58.30,223316471, 0.59, -18.05, 351.9, 600.969970703, -35.3622815, 149.1650931, 0.985189497471, -0.00595761183649, -0.15691588819, -0.0688738897443
2019-04-03 21:31:58.40,223416431, 0.58, -18.05, 351.9, 601.0, -35.362277, 149.1650924, 0.98518717289, -0.00603586854413, -0.156899228692, -0.0689382851124
2019-04-03 21:31:58.50,223516391, 0.55, -18.08, 351.89, 601.030029297, -35.3622726, 149.1650919, 0.98513931036, -0.00636120326817, -0.157145649195, -0.0690310001373
2019-04-03 21:31:58.60,223616351, 0.51, -18.13, 351.88, 601.059997559, -35.3622681, 149.1650912, 0.98507475853, -0.00674559175968, -0.157486364245, -0.0691395625472
2019-04-03 21:31:58.70,223716311, 0.5, -18.13, 351.88, 601.090026855, -35.3622636, 149.1650905, 0.985065102577, -0.00677518406883, -0.157518044114, -0.0692016854882
2019-04-03 21:31:58.80,223816271, 0.51, -18.12, 351.87, 601.119995117, -35.3622591, 149.16509, 0.98508143425, -0.00669756531715, -0.157394170761, -0.0692589133978
2019-04-03 21:31:58.90,223916231, 0.53, -18.08, 351.86, 601.150024414, -35.3622547, 149.1650894, 0.985123515129, -0.00651786290109, -0.157115370035, -0.0693108737469
2019-04-03 21:31:59.00,224016191, 0.55, -18.05, 351.85, 601.179992676, -35.3622503, 149.1650888, 0.985165476799, -0.00638689054176, -0.156827747822, -0.0693774372339
2019-04-03 21:31:59.10,224116151, 0.54, -18.02, 351.84, 601.219970703, -35.3622457, 149.1650881, 0.985192418098, -0.00645991927013, -0.156613588333, -0.0694719925523
2019-04-03 21:31:59.20,224216111, 0.52, -18.01, 351.83, 601.25, -35.3622413, 149.1650876, 0.985196709633, -0.0066610169597, -0.156525433064, -0.0695910975337
2019-04-03 21:31:59.30,224316071, 0.52, -18.01, 351.82, 601.280029297, -35.3622369, 149.1650869, 0.985200822353, -0.00663763610646, -0.156461551785, -0.0696789473295
2019-04-03 21:31:59.40,224416031, 0.53, -18.0, 351.81, 601.309997559, -35.3622323, 149.1650862, 0.985200285912, -0.00654493365437, -0.156432986259, -0.0697587877512
2019-04-03 21:31:59.50,224515991, 0.56, -17.98, 351.8, 601.340026855, -35.362228, 149.1650857, 0.98522233963, -0.00633344240487, -0.156272634864, -0.06982652843
2019-04-03 21:31:59.60,224615951, 0.59, -17.97, 351.79, 601.369995117, -35.3622235, 149.1650851, 0.985231459141, -0.00605626869947, -0.156198367476, -0.069888740778
2019-04-03 21:31:59.70,224715911, 0.6, -17.98, 351.77, 601.400024414, -35.3622189, 149.1650845, 0.985209941864, -0.00599259091541, -0.156295359135, -0.069980122149
2019-04-03 21:31:59.80,224815871, 0.59, -18.0, 351.76, 601.440002441, -35.3622146, 149.1650838, 0.98517626524, -0.00614427914843, -0.156450122595, -0.0700957998633
