2019-04-03 20:23:33.80: SIM {TimeUS : 162815681, Roll : 0.0, Pitch : 0.0, Yaw : 353.0, Alt : 584.090026855, Lat : -35.363261, Lng : 149.1652299, Q1 : 0.998134791851, Q2 : 0.0, Q3 : 0.0, Q4 : -0.0610485821962}
2019-04-03 20:23:33.90: SIM {TimeUS : 162916474, Roll : 0.0, Pitch : 0.0, Yaw : 353.0, Alt : 584.090026855, Lat : -35.363261, Lng : 149.1652299, Q1 : 0.998134791851, Q2 : 0.0, Q3 : 0.0, Q4 : -0.0610485821962}
2019-04-03 20:23:34.00: SIM {TimeUS : 163016434, Roll : 0.0, Pitch : 0.0, Yaw : 353.0, Alt : 584.090026855, Lat : -35.363261, Lng : 149.1652299, Q1 : 0.998134791851, Q2 : 0.0, Q3 : 0.0, Q4 : -0.0610485821962}
2019-04-03 20:23:34.10: SIM {TimeUS : 163116394, Roll : 0.0, Pitch : 0.0, Yaw : 353.0, Alt : 584.090026855, Lat : -35.363261, Lng : 149.1652299, Q1 : 0.998134791851, Q2 : 0.0, Q3 : 0.0, Q4 : -0.0610485821962}
2019-04-03 20:23:34.20: SIM {TimeUS : 163216354, Roll : 0.0, Pitch : 0.0, Yaw : 353.0, Alt : 584.090026855, Lat : -35.363261, Lng : 149.1652299, Q1 : 0.998134791851, Q2 : 0.0, Q3 : 0.0, Q4 : -0.0610485821962}
2019-04-03 20:23:34.30: SIM {TimeUS : 163316314, Roll : 0.0, Pitch : 0.0, Yaw : 353.0, Alt : 584.090026855, Lat : -35.363261, Lng : 149.1652299, Q1 : 0.998134791851, Q2 : 0.0, Q3 : 0.0, Q4 : -0.0610485821962}
2019-04-03 20:23:34.40: SIM {TimeUS : 163416274, Roll : 0.0, Pitch : 0.0, Yaw : 353.0, Alt : 584.090026855, Lat : -35.363261, Lng : 149.1652299, Q1 : 0.998134791851, Q2 : 0.0, Q3 : 0.0, Q4 : -0.0610485821962}
2019-04-03 20:23:34.50: SIM {TimeUS : 163516234, Roll : 0.0, Pitch : 0.0, Yaw : 353.0, Alt : 584.090026855, Lat : -35.363261, Lng : 149.1652299, Q1 : 0.998134791851, Q2 : 0.0, Q3 : 0.0, Q4 : -0.0610485821962}
2019-04-03 20:23:34.60: SIM {TimeUS : 163616194, Roll : 0.0, Pitch : 0.0, Yaw : 353.0, Alt : 584.090026855, Lat : -35.363261, Lng : 149.1652299, Q1 : 0.998134791851, Q2 : 0.0, Q3 : 0.0, Q4 : -0.0610485821962}
2019-04-03 20:23:34.70: SIM {TimeUS : 163716154, Roll : 0.0, Pitch : 0.0, Yaw : 353.0, Alt : 584.090026855, Lat : -35.363261, Lng : 149.1652299, Q1 : 0.998134791851, Q2 : 0.0, Q3 : 0.0, Q4 : -0.0610485821962}
2019-04-03 20:23:34.80: SIM {TimeUS : 163816114, Roll : 0.0, Pitch : 0.0, Yaw : 353.0, Alt : 584.090026855, Lat : -35.363261, Lng : 149.1652299, Q1 : 0.998134791851, Q2 : 0.0, Q3 : 0.0, Q4 : -0.0610485821962}
2019-04-03 20:23:34.90: SIM {TimeUS : 163916074, Roll : 0.0, Pitch : 0.0, Yaw : 353.0, Alt : 584.090026855, Lat : -35.363261, Lng : 149.1652299, Q1 : 0.998134791851, Q2 : 0.0, Q3 : 0.0, Q4 : -0.0610485821962}
2019-04-03 20:23:35.00: SIM {TimeUS : 164016034, Roll : 0.0, Pitch : 0.0, Yaw : 353.0, Alt : 584.090026855, Lat : -35.363261, Lng : 149.1652299, Q1 : 0.998134791851, Q2 : 0.0, Q3 : 0.0, Q4 : -0.0610485821962}
2019-04-03 20:23:35.10: SIM {TimeUS : 164115994, Roll : 0.0, Pitch : 0.0, Yaw : 353.0, Alt : 584.090026855, Lat : -35.363261, Lng : 149.1652299, Q1 : 0.998134791851, Q2 : 0.0, Q3 : 0.0, Q4 : -0.0610485821962}
2019-04-03 20:23:35.20: SIM {TimeUS : 164215954, Roll : 0.0, Pitch : 0.0, Yaw : 353.0, Alt : 584.090026855, Lat : -35.363261, Lng : 149.1652299, Q1 : 0.998134791851, Q2 : 0.0, Q3 : 0.0, Q4 : -0.0610485821962}
2019-04-03 20:23:35.30: SIM {TimeUS : 164315914, Roll : 0.0, Pitch : 0.0, Yaw : 353.0, Alt : 584.090026855, Lat : -35.363261, Lng : 149.1652299, Q1 : 0.998134791851, Q2 : 0.0, Q3 : 0.0, Q4 : -0.0610485821962}
2019-04-03 20:23:35.40: SIM {TimeUS : 164415874, Roll : 0.0, Pitch : 0.0, Yaw : 353.0, Alt : 584.090026855, Lat : -35.363261, Lng : 149.1652299, Q1 : 0.998134791851, Q2 : 0.0, Q3 : 0.0, Q4 : -0.0610485821962}
2019-04-03 20:23:35.50: SIM {TimeUS : 164515834, Roll : 0.0, Pitch : 0.0, Yaw : 353.0, Alt : 584.090026855, Lat : -35.363261, Lng : 149.1652299, Q1 : 0.998134791851, Q2 : 0.0, Q3 : 0.0, Q4 : -0.0610485821962}
2019-04-03 20:23:35.60: SIM {TimeUS : 164615794, Roll : 0.0, Pitch : 0.0, Yaw : 353.0, Alt : 584.090026855, Lat : -35.363261, Lng : 149.1652299, Q1 : 0.998134791851, Q2 : 0.0, Q3 : 0.0, Q4 : -0.0610485821962}
2019-04-03 20:23:35.70: SIM {TimeUS : 164715754, Roll : 0.0, Pitch : 0.0, Yaw : 353.0, Alt : 584.090026855, Lat : -35.363261, Lng : 149.1652299, Q1 : 0.998134791851, Q2 : 0.0, Q3 : 0.0, Q4 : -0.0610485821962}
2019-04-03 20:23:35.80: SIM {TimeUS : 164815714, Roll : 0.0, Pitch : 0.0, Yaw : 353.0, Alt : 584.090026855, Lat : -35.363261, Lng : 149.1652299, Q1 : 0.998134791851, Q2 : 0.0, Q3 : 0.0, Q4 : -0.0610485821962}
2019-04-03 20:23:35.89: SIM {TimeUS : 164915674, Roll : 0.0, Pitch : 0.0, Yaw : 353.0, Alt : 584.090026855, Lat : -35.363261, Lng : 149.1652299, Q1 : 0.998134791851, Q2 : 0.0, Q3 : 0.0, Q4 : -0.0610485821962}
2019-04-03 20:23:36.00: SIM {TimeUS : 165016467, Roll : 0.0, Pitch : 0.0, Yaw : 353.0, Alt : 584.090026855, Lat : -35.363261, Lng : 149.1652299, Q1 : 0.998134791851, Q2 : 0.0, Q3 : 0.0, Q4 : -0.0610485821962}
2019-04-03 20:23:36.10: SIM {TimeUS : 165116427, Roll : 0.0, Pitch : 0.0, Yaw : 353.0, Alt : 584.090026855, Lat : -35.363261, Lng : 149.1652299, Q1 : 0.998134791851, Q2 : 0.0, Q3 : 0.0, Q4 : -0.0610485821962}
2019-04-03 20:23:36.20: SIM {TimeUS : 165216387, Roll : 0.0, Pitch : 0.0, Yaw : 353.0, Alt : 584.090026855, Lat : -35.363261, Lng : 149.1652299, Q1 : 0.998134791851, Q2 : 0.0, Q3 : 0.0, Q4 : -0.0610485821962}
2019-04-03 20:23:36.30: SIM {TimeUS : 165316347, Roll : 0.0, Pitch : 0.0, Yaw : 353.0, Alt : 584.090026855, Lat : -35.363261, Lng : 149.1652299, Q1 : 0.998134791851, Q2 : 0.0, Q3 : 0.0, Q4 : -0.0610485821962}
2019-04-03 20:23:36.40: SIM {TimeUS : 165416307, Roll : 0.0, Pitch : 0.0, Yaw : 353.0, Alt : 584.090026855, Lat : -35.363261, Lng : 149.1652299, Q1 : 0.998134791851, Q2 : 0.0, Q3 : 0.0, Q4 : -0.0610485821962}
2019-04-03 20:23:36.50: SIM {TimeUS : 165516267, Roll : 0.0, Pitch : 0.0, Yaw : 353.0, Alt : 584.090026855, Lat : -35.363261, Lng : 149.1652299, Q1 : 0.998134791851, Q2 : 0.0, Q3 : 0.0, Q4 : -0.0610485821962}
2019-04-03 20:23:36.60: SIM {TimeUS : 165616227, Roll : 0.0, Pitch : 0.0, Yaw : 353.0, Alt : 584.090026855, Lat : -35.363261, Lng : 149.1652299, Q1 : 0.998134791851, Q2 : 0.0, Q3 : 0.0, Q4 : -0.0610485821962}
2019-04-03 20:23:36.70: SIM {TimeUS : 165716187, Roll : 0.0, Pitch : 0.0, Yaw : 353.0, Alt : 584.090026855, Lat : -35.363261, Lng : 149.1652299, Q1 : 0.998134791851, Q2 : 0.0, Q3 : 0.0, Q4 : -0.0610485821962}
2019-04-03 20:23:36.80: SIM {TimeUS : 165816147, Roll : 0.0, Pitch : 0.0, Yaw : 353.0, Alt : 584.090026855, Lat : -35.363261, Lng : 149.1652299, Q1 : 0.998134791851, Q2 : 0.0, Q3 : 0.0, Q4 : -0.0610485821962}
2019-04-03 20:23:36.90: SIM {TimeUS : 165916107, Roll : 0.0, Pitch : 0.0, Yaw : 353.0, Alt : 584.090026855, Lat : -35.363261, Lng : 149.1652299, Q1 : 0.998134791851, Q2 : 0.0, Q3 : 0.0, Q4 : -0.0610485821962}
2019-04-03 20:23:37.00: SIM {TimeUS : 166016067, Roll : 0.0, Pitch : 0.0, Yaw : 353.0, Alt : 584.090026855, Lat : -35.363261, Lng : 149.1652299, Q1 : 0.998134791851, Q2 : 0.0, Q3 : 0.0, Q4 : -0.0610485821962}
2019-04-03 20:23:37.10: SIM {TimeUS : 166116027, Roll : 0.0, Pitch : 0.0, Yaw : 353.0, Alt : 584.090026855, Lat : -35.363261, Lng : 149.1652299, Q1 : 0.998134791851, Q2 : 0.0, Q3 : 0.0, Q4 : -0.0610485821962}
2019-04-03 20:23:37.20: SIM {TimeUS : 166215987, Roll : 0.0, Pitch : 0.0, Yaw : 353.0, Alt : 584.090026855, Lat : -35.363261, Lng : 149.1652299, Q1 : 0.998134791851, Q2 : 0.0, Q3 : 0.0, Q4 : -0.0610485821962}
2019-04-03 20:23:37.30: SIM {TimeUS : 166315947, Roll : 0.0, Pitch : 0.0, Yaw : 353.0, Alt : 584.090026855, Lat : -35.363261, Lng : 149.1652299, Q1 : 0.998134791851, Q2 : 0.0, Q3 : 0.0, Q4 : -0.0610485821962}
2019-04-03 20:23:37.40: SIM {TimeUS : 166415907, Roll : 0.0, Pitch : 0.0, Yaw : 353.0, Alt : 584.090026855, Lat : -35.363261, Lng : 149.1652299, Q1 : 0.998134791851, Q2 : 0.0, Q3 : 0.0, Q4 : -0.0610485821962}
2019-04-03 20:23:37.50: SIM {TimeUS : 166515867, Roll : 0.0, Pitch : 0.0, Yaw : 353.0, Alt : 584.090026855, Lat : -35.363261, Lng : 149.1652299, Q1 : 0.998134791851, Q2 : 0.0, Q3 : 0.0, Q4 : -0.0610485821962}
2019-04-03 20:23:37.60: SIM {TimeUS : 166615827, Roll : 0.0, Pitch : 0.0, Yaw : 353.0, Alt : 584.090026855, Lat : -35.363261, Lng : 149.1652299, Q1 : 0.998134791851, Q2 : 0.0, Q3 : 0.0, Q4 : -0.0610485821962}
2019-04-03 20:23:37.70: SIM {TimeUS : 166715787, Roll : 0.0, Pitch : 0.0, Yaw : 353.0, Alt : 584.090026855, Lat : -35.363261, Lng : 149.1652299, Q1 : 0.998134791851, Q2 : 0.0, Q3 : 0.0, Q4 : -0.0610485821962}
2019-04-03 20:23:37.80: SIM {TimeUS : 166815747, Roll : 0.0, Pitch : 0.0, Yaw : 353.0, Alt : 584.090026855, Lat : -35.363261, Lng : 149.1652299, Q1 : 0.998134791851, Q2 : 0.0, Q3 : 0.0, Q4 : -0.0610485821962}
2019-04-03 20:23:37.90: SIM {TimeUS : 166915707, Roll : 0.0, Pitch : 0.0, Yaw : 353.0, Alt : 584.090026855, Lat : -35.363261, Lng : 149.1652299, Q1 : 0.998134791851, Q2 : 0.0, Q3 : 0.0, Q4 : -0.0610485821962}
2019-04-03 20:23:37.99: SIM {TimeUS : 167015667, Roll : 0.0, Pitch : 0.0, Yaw : 353.0, Alt : 584.090026855, Lat : -35.363261, Lng : 149.1652299, Q1 : 0.998134791851, Q2 : 0.0, Q3 : 0.0, Q4 : -0.0610485821962}
2019-04-03 20:23:38.10: SIM {TimeUS : 167116460, Roll : 0.0, Pitch : 0.0, Yaw : 353.0, Alt : 584.090026855, Lat : -35.363261, Lng : 149.1652299, Q1 : 0.998134791851, Q2 : 0.0, Q3 : 0.0, Q4 : -0.0610485821962}
2019-04-03 20:23:38.20: SIM {TimeUS : 167216420, Roll : 0.0, Pitch : 0.0, Yaw : 353.0, Alt : 584.090026855, Lat : -35.363261, Lng : 149.1652299, Q1 : 0.998134791851, Q2 : 0.0, Q3 : 0.0, Q4 : -0.0610485821962}
2019-04-03 20:23:38.30: SIM {TimeUS : 167316380, Roll : 0.0, Pitch : 0.0, Yaw : 353.0, Alt : 584.090026855, Lat : -35.363261, Lng : 149.1652299, Q1 : 0.998134791851, Q2 : 0.0, Q3 : 0.0, Q4 : -0.0610485821962}
2019-04-03 20:23:38.40: SIM {TimeUS : 167416340, Roll : 0.0, Pitch : 0.0, Yaw : 353.0, Alt : 584.090026855, Lat : -35.363261, Lng : 149.1652299, Q1 : 0.998134791851, Q2 : 0.0, Q3 : 0.0, Q4 : -0.0610486753285}
2019-04-03 20:23:38.50: SIM {TimeUS : 167516300, Roll : 0.0, Pitch : 0.0, Yaw : 353.0, Alt : 584.090026855, Lat : -35.363261, Lng : 149.1652299, Q1 : 0.998134791851, Q2 : 0.0, Q3 : 0.0, Q4 : -0.0610486753285}
2019-04-03 20:23:38.60: SIM {TimeUS : 167616260, Roll : 0.0, Pitch : 0.0, Yaw : 353.0, Alt : 584.090026855, Lat : -35.363261, Lng : 149.1652299, Q1 : 0.998134791851, Q2 : 0.0, Q3 : 0.0, Q4 : -0.0610486753285}
2019-04-03 20:23:38.70: SIM {TimeUS : 167716220, Roll : 0.0, Pitch : 0.0, Yaw : 353.0, Alt : 584.090026855, Lat : -35.363261, Lng : 149.1652299, Q1 : 0.998134791851, Q2 : 0.0, Q3 : 0.0, Q4 : -0.0610486753285}
2019-04-03 20:23:38.80: SIM {TimeUS : 167816180, Roll : 0.0, Pitch : 0.0, Yaw : 353.0, Alt : 584.090026855, Lat : -35.363261, Lng : 149.1652299, Q1 : 0.998134791851, Q2 : 0.0, Q3 : 0.0, Q4 : -0.0610486753285}
2019-04-03 20:23:38.90: SIM {TimeUS : 167916140, Roll : 0.0, Pitch : 0.0, Yaw : 353.0, Alt : 584.090026855, Lat : -35.363261, Lng : 149.1652299, Q1 : 0.998134791851, Q2 : 0.0, Q3 : 0.0, Q4 : -0.0610486753285}
2019-04-03 20:23:39.00: SIM {TimeUS : 168016100, Roll : 0.0, Pitch : 0.0, Yaw : 353.0, Alt : 584.090026855, Lat : -35.363261, Lng : 149.1652299, Q1 : 0.998134791851, Q2 : 0.0, Q3 : 0.0, Q4 : -0.0610486753285}
2019-04-03 20:23:39.10: SIM {TimeUS : 168116060, Roll : 0.0, Pitch : 0.0, Yaw : 353.0, Alt : 584.090026855, Lat : -35.363261, Lng : 149.1652299, Q1 : 0.998134791851, Q2 : 0.0, Q3 : 0.0, Q4 : -0.0610486753285}
2019-04-03 20:23:39.20: SIM {TimeUS : 168216020, Roll : 0.0, Pitch : 0.0, Yaw : 353.0, Alt : 584.099975586, Lat : -35.363261, Lng : 149.1652299, Q1 : 0.998134791851, Q2 : 0.0, Q3 : 0.0, Q4 : -0.0610486753285}
2019-04-03 20:23:39.30: SIM {TimeUS : 168315980, Roll : 0.0, Pitch : 0.0, Yaw : 353.0, Alt : 584.099975586, Lat : -35.363261, Lng : 149.1652299, Q1 : 0.998134791851, Q2 : 0.0, Q3 : 0.0, Q4 : -0.0610486753285}
2019-04-03 20:23:39.40: SIM {TimeUS : 168415940, Roll : 0.0, Pitch : 0.0, Yaw : 353.0, Alt : 584.109985352, Lat : -35.363261, Lng : 149.1652299, Q1 : 0.998134791851, Q2 : 0.0, Q3 : 0.0, Q4 : -0.0610486753285}
2019-04-03 20:23:39.50: SIM {TimeUS : 168515900, Roll : 0.0, Pitch : 0.0, Yaw : 353.0, Alt : 584.130004883, Lat : -35.363261, Lng : 149.1652299, Q1 : 0.998134791851, Q2 : 0.0, Q3 : 0.0, Q4 : -0.0610486678779}
2019-04-03 20:23:39.60: SIM {TimeUS : 168615860, Roll : 0.0, Pitch : 0.0, Yaw : 353.0, Alt : 584.150024414, Lat : -35.363261, Lng : 149.1652299, Q1 : 0.998134791851, Q2 : 0.0, Q3 : 0.0, Q4 : -0.0610486753285}
2019-04-03 20:23:39.70: SIM {TimeUS : 168715820, Roll : 0.0, Pitch : 0.0, Yaw : 353.0, Alt : 584.190002441, Lat : -35.363261, Lng : 149.1652299, Q1 : 0.998134791851, Q2 : 0.0, Q3 : 0.0, Q4 : -0.0610486753285}
2019-04-03 20:23:39.80: SIM {TimeUS : 168815780, Roll : -0.01, Pitch : 0.0, Yaw : 352.99, Alt : 584.229980469, Lat : -35.363261, Lng : 149.1652299, Q1 : 0.998134613037, Q2 : -9.36015858315e-05, Q3 : -6.29359637969e-05, Q4 : -0.0610514506698}
2019-04-03 20:23:39.90: SIM {TimeUS : 168915740, Roll : -0.07, Pitch : -0.07, Yaw : 352.99, Alt : 584.309997559, Lat : -35.363261, Lng : 149.1652299, Q1 : 0.998132526875, Q2 : -0.000686053419486, Q3 : -0.000617948709987, Q4 : -0.0610787384212}
2019-04-03 20:23:40.00: SIM {TimeUS : 169015700, Roll : -0.18, Pitch : -0.19, Yaw : 352.99, Alt : 584.440002441, Lat : -35.363261, Lng : 149.1652299, Q1 : 0.998127281666, Q2 : -0.00168988993391, Q3 : -0.00158157502301, Q4 : -0.0611282400787}
2019-04-03 20:23:40.09: SIM {TimeUS : 169115660, Roll : -0.28, Pitch : -0.29, Yaw : 352.98, Alt : 584.590026855, Lat : -35.363261, Lng : 149.1652299, Q1 : 0.998119354248, Q2 : -0.00261720782146, Q3 : -0.00245474535041, Q4 : -0.0611955188215}
2019-04-03 20:23:40.20: SIM {TimeUS : 169216453, Roll : -0.33, Pitch : -0.35, Yaw : 352.97, Alt : 584.75, Lat : -35.363261, Lng : 149.1652299, Q1 : 0.998112261295, Q2 : -0.00306905736215, Q3 : -0.0029044165276, Q4 : -0.0612710528076}
2019-04-03 20:23:40.30: SIM {TimeUS : 169316413, Roll : -0.29, Pitch : -0.31, Yaw : 352.96, Alt : 584.900024414, Lat : -35.363261, Lng : 149.1652299, Q1 : 0.998109519482, Q2 : -0.00275781215169, Q3 : -0.00259646959603, Q4 : -0.061344448477}
2019-04-03 20:23:40.40: SIM {TimeUS : 169416373, Roll : -0.21, Pitch : -0.23, Yaw : 352.95, Alt : 585.049987793, Lat : -35.363261, Lng : 149.1652299, Q1 : 0.998108565807, Q2 : -0.00203670654446, Q3 : -0.00191101210658, Q4 : -0.0614122413099}
2019-04-03 20:23:40.50: SIM {TimeUS : 169516333, Roll : -0.12, Pitch : -0.13, Yaw : 352.95, Alt : 585.210021973, Lat : -35.363261, Lng : 149.1652298, Q1 : 0.998108029366, Q2 : -0.00115083984565, Q3 : -0.00108387321234, Q4 : -0.0614644885063}
2019-04-03 20:23:40.60: SIM {TimeUS : 169616293, Roll : -0.05, Pitch : -0.05, Yaw : 352.94, Alt : 585.369995117, Lat : -35.363261, Lng : 149.1652298, Q1 : 0.998106598854, Q2 : -0.00051595561672, Q3 : -0.000463255273644, Q4 : -0.0615044385195}
2019-04-03 20:23:40.70: SIM {TimeUS : 169716253, Roll : 0.0, Pitch : 0.0, Yaw : 352.94, Alt : 585.539978027, Lat : -35.3632609, Lng : 149.1652298, Q1 : 0.998105049133, Q2 : -7.5901276432e-05, Q3 : 7.33339838916e-05, Q4 : -0.0615329816937}
2019-04-03 20:23:40.80: SIM {TimeUS : 169816213, Roll : 0.04, Pitch : 0.05, Yaw : 352.94, Alt : 585.710021973, Lat : -35.3632609, Lng : 149.1652298, Q1 : 0.998104035854, Q2 : 0.000394072325435, Q3 : 0.000426794984378, Q4 : -0.0615472458303}
2019-04-03 20:23:40.90: SIM {TimeUS : 169916173, Roll : 0.08, Pitch : 0.1, Yaw : 352.94, Alt : 585.880004883, Lat : -35.3632609, Lng : 149.1652298, Q1 : 0.998103260994, Q2 : 0.000839635904413, Q3 : 0.000894605356734, Q4 : -0.0615496560931}
2019-04-03 20:23:41.00: SIM {TimeUS : 170016133, Roll : 0.07, Pitch : 0.14, Yaw : 352.94, Alt : 586.039978027, Lat : -35.3632609, Lng : 149.1652298, Q1 : 0.998103380203, Q2 : 0.000741451221984, Q3 : 0.00125435227528, Q4 : -0.0615433044732}
2019-04-03 20:23:41.10: SIM {TimeUS : 170116093, Roll : -0.11, Pitch : 0.11, Yaw : 352.94, Alt : 586.190002441, Lat : -35.3632609, Lng : 149.1652298, Q1 : 0.998104274273, Q2 : -0.000903921492863, Q3 : 0.00104780320544, Q4 : -0.0615305453539}
2019-04-03 20:23:41.20: SIM {TimeUS : 170216053, Roll : -0.56, Pitch : -0.02, Yaw : 352.94, Alt : 586.33001709, Lat : -35.3632609, Lng : 149.1652297, Q1 : 0.998094022274, Q2 : -0.00492385495454, Q3 : 9.48243250605e-05, Q4 : -0.0615157410502}
2019-04-03 20:23:41.30: SIM {TimeUS : 170316013, Roll : -1.26, Pitch : -0.21, Yaw : 352.95, Alt : 586.450012207, Lat : -35.3632609, Lng : 149.1652297, Q1 : 0.998044252396, Q2 : -0.0111335134134, Q3 : -0.00118074228521, Q4 : -0.0615003593266}
2019-04-03 20:23:41.40: SIM {TimeUS : 170415973, Roll : -2.17, Pitch : -0.43, Yaw : 352.95, Alt : 586.570007324, Lat : -35.3632609, Lng : 149.1652297, Q1 : 0.99792021513, Q2 : -0.0191620104015, Q3 : -0.00263050151989, Q4 : -0.0614914447069}
2019-04-03 20:23:41.50: SIM {TimeUS : 170515933, Roll : -3.18, Pitch : -0.65, Yaw : 352.96, Alt : 586.66998291, Lat : -35.3632608, Lng : 149.1652296, Q1 : 0.997702479362, Q2 : -0.0281184185296, Q3 : -0.00401026010513, Q4 : -0.0615068487823}
2019-04-03 20:23:41.60: SIM {TimeUS : 170615893, Roll : -4.13, Pitch : -0.85, Yaw : 352.96, Alt : 586.760009766, Lat : -35.3632608, Lng : 149.1652293, Q1 : 0.997422516346, Q2 : -0.0365009978414, Q3 : -0.00521177658811, Q4 : -0.0615534894168}
2019-04-03 20:23:41.70: SIM {TimeUS : 170715853, Roll : -4.87, Pitch : -0.99, Yaw : 352.96, Alt : 586.840026855, Lat : -35.3632608, Lng : 149.1652292, Q1 : 0.997153878212, Q2 : -0.0430014133453, Q3 : -0.00606523640454, Q4 : -0.0616304017603}
2019-04-03 20:23:41.80: SIM {TimeUS : 170815813, Roll : -5.4, Pitch : -1.14, Yaw : 352.97, Alt : 586.900024414, Lat : -35.3632608, Lng : 149.1652289, Q1 : 0.996928572655, Q2 : -0.0477090068161, Q3 : -0.0070566968061, Q4 : -0.0617047846317}
2019-04-03 20:23:41.90: SIM {TimeUS : 170915773, Roll : -5.79, Pitch : -1.27, Yaw : 352.97, Alt : 586.960021973, Lat : -35.3632608, Lng : 149.1652286, Q1 : 0.996745049953, Q2 : -0.0511616878211, Q3 : -0.00800814479589, Q4 : -0.0617876015604}
2019-04-03 20:23:42.00: SIM {TimeUS : 171015733, Roll : -6.11, Pitch : -1.42, Yaw : 352.97, Alt : 587.010009766, Lat : -35.3632607, Lng : 149.1652282, Q1 : 0.996579110622, Q2 : -0.0540276803076, Q3 : -0.00912575609982, Q4 : -0.0618700943887}
2019-04-03 20:23:42.10: SIM {TimeUS : 171115693, Roll : -6.44, Pitch : -1.57, Yaw : 352.97, Alt : 587.059997559, Lat : -35.3632607, Lng : 149.1652277, Q1 : 0.996398448944, Q2 : -0.0569620132446, Q3 : -0.0102622052655, Q4 : -0.0619694553316}
2019-04-03 20:23:42.20: SIM {TimeUS : 171216486, Roll : -6.81, Pitch : -1.71, Yaw : 352.96, Alt : 587.099975586, Lat : -35.3632607, Lng : 149.165227, Q1 : 0.996184945107, Q2 : -0.0602675527334, Q3 : -0.0112829329446, Q4 : -0.0620966628194}
2019-04-03 20:23:42.30: SIM {TimeUS : 171316446, Roll : -7.2, Pitch : -1.82, Yaw : 352.96, Alt : 587.130004883, Lat : -35.3632605, Lng : 149.1652264, Q1 : 0.995955944061, Q2 : -0.0636521428823, Q3 : -0.012043569237, Q4 : -0.0622501336038}
2019-04-03 20:23:42.40: SIM {TimeUS : 171416406, Roll : -7.57, Pitch : -1.93, Yaw : 352.95, Alt : 587.159973145, Lat : -35.3632604, Lng : 149.1652255, Q1 : 0.995720207691, Q2 : -0.0669477283955, Q3 : -0.0127895390615, Q4 : -0.0624154210091}
2019-04-03 20:23:42.50: SIM {TimeUS : 171516366, Roll : -7.89, Pitch : -2.03, Yaw : 352.94, Alt : 587.179992676, Lat : -35.3632604, Lng : 149.1652246, Q1 : 0.995506703854, Q2 : -0.0697708278894, Q3 : -0.0134649761021, Q4 : -0.0625874996185}
2019-04-03 20:23:42.60: SIM {TimeUS : 171616326, Roll : -8.13, Pitch : -2.12, Yaw : 352.93, Alt : 587.210021973, Lat : -35.3632604, Lng : 149.1652238, Q1 : 0.995333135128, Q2 : -0.0719314217567, Q3 : -0.0141255808994, Q4 : -0.0627560317516}
2019-04-03 20:23:42.70: SIM {TimeUS : 171716286, Roll : -8.3, Pitch : -2.19, Yaw : 352.92, Alt : 587.229980469, Lat : -35.3632603, Lng : 149.1652226, Q1 : 0.995203912258, Q2 : -0.0734598189592, Q3 : -0.0146222664043, Q4 : -0.0629214048386}
2019-04-03 20:23:42.80: SIM {TimeUS : 171816246, Roll : -8.42, Pitch : -2.25, Yaw : 352.91, Alt : 587.25, Lat : -35.3632601, Lng : 149.1652216, Q1 : 0.995110332966, Q2 : -0.0745112299919, Q3 : -0.0150267016143, Q4 : -0.0630695074797}
2019-04-03 20:23:42.90: SIM {TimeUS : 171916206, Roll : -8.5, Pitch : -2.3, Yaw : 352.9, Alt : 587.270019531, Lat : -35.3632599, Lng : 149.1652203, Q1 : 0.995040416718, Q2 : -0.0752577930689, Q3 : -0.0153990099207, Q4 : -0.0631960406899}
2019-04-03 20:23:43.00: SIM {TimeUS : 172016166, Roll : -8.62, Pitch : -2.36, Yaw : 352.89, Alt : 587.280029297, Lat : -35.3632598, Lng : 149.1652189, Q1 : 0.994944870472, Q2 : -0.0763356313109, Q3 : -0.015837168321, Q4 : -0.063299715519}
2019-04-03 20:23:43.10: SIM {TimeUS : 172116126, Roll : -8.84, Pitch : -2.36, Yaw : 352.86, Alt : 587.299987793, Lat : -35.3632597, Lng : 149.1652176, Q1 : 0.994780957699, Q2 : -0.0782303437591, Q3 : -0.0157447345555, Q4 : -0.0635843425989}
2019-04-03 20:23:43.20: SIM {TimeUS : 172216086, Roll : -9.22, Pitch : -2.15, Yaw : 352.5, Alt : 587.320007324, Lat : -35.3632596, Lng : 149.1652162, Q1 : 0.994354724884, Q2 : -0.0814410373569, Q3 : -0.0134530644864, Q4 : -0.066671513021}
2019-04-03 20:23:43.30: SIM {TimeUS : 172316046, Roll : -9.75, Pitch : -1.79, Yaw : 351.12, Alt : 587.33001709, Lat : -35.3632593, Lng : 149.1652145, Q1 : 0.993165135384, Q2 : -0.0859639570117, Q3 : -0.00895839370787, Q4 : -0.078440785408}
2019-04-03 20:23:43.40: SIM {TimeUS : 172416006, Roll : -10.29, Pitch : -1.68, Yaw : 348.18, Alt : 587.349975586, Lat : -35.3632592, Lng : 149.165213, Q1 : 0.990429580212, Q2 : -0.0907708629966, Q3 : -0.00531212240458, Q4 : -0.10383503139}
2019-04-03 20:23:43.50: SIM {TimeUS : 172515966, Roll : -10.69, Pitch : -2.14, Yaw : 343.63, Alt : 587.359985352, Lat : -35.3632591, Lng : 149.1652112, Q1 : 0.985093474388, Q2 : -0.0948648527265, Q3 : -0.00516502186656, Q4 : -0.143404603004}
2019-04-03 20:23:43.60: SIM {TimeUS : 172615926, Roll : -10.76, Pitch : -3.27, Yaw : 337.7, Alt : 587.380004883, Lat : -35.363259, Lng : 149.1652093, Q1 : 0.975879371166, Q2 : -0.0975365042686, Q3 : -0.00975555367768, Q4 : -0.195066511631}
2019-04-03 20:23:43.70: SIM {TimeUS : 172715886, Roll : -10.4, Pitch : -4.97, Yaw : 330.65, Alt : 587.390014648, Lat : -35.363259, Lng : 149.1652074, Q1 : 0.961508631706, Q2 : -0.0985678583384, Q3 : -0.0188636574894, Q4 : -0.255792468786}
2019-04-03 20:23:43.80: SIM {TimeUS : 172815846, Roll : -9.52, Pitch : -7.03, Yaw : 322.77, Alt : 587.409973145, Lat : -35.3632589, Lng : 149.1652054, Q1 : 0.941025674343, Q2 : -0.0980550199747, Q3 : -0.0314944311976, Q4 : -0.322279423475}
2019-04-03 20:23:43.90: SIM {TimeUS : 172915806, Roll : -8.14, Pitch : -9.14, Yaw : 314.3, Alt : 587.429992676, Lat : -35.3632587, Lng : 149.1652034, Q1 : 0.914079010487, Q2 : -0.096130810678, Q3 : -0.0457705482841, Q4 : -0.391310036182}
2019-04-03 20:23:44.00: SIM {TimeUS : 173015766, Roll : -6.29, Pitch : -11.06, Yaw : 305.49, Alt : 587.440002441, Lat : -35.3632586, Lng : 149.1652011, Q1 : 0.881098866463, Q2 : -0.0927035063505, Q3 : -0.0605705194175, Q4 : -0.459784835577}
2019-04-03 20:23:44.10: SIM {TimeUS : 173115726, Roll : -4.11, Pitch : -12.59, Yaw : 296.65, Alt : 587.460021973, Lat : -35.3632586, Lng : 149.1651989, Q1 : 0.843316137791, Q2 : -0.0878784880042, Q3 : -0.0745501816273, Q4 : -0.524916708469}
2019-04-03 20:23:44.20: SIM {TimeUS : 173215686, Roll : -1.78, Pitch : -13.6, Yaw : 288.08, Alt : 587.479980469, Lat : -35.3632586, Lng : 149.1651964, Q1 : 0.802583098412, Q2 : -0.0820888355374, Q3 : -0.0867971628904, Q4 : -0.584455370903}
2019-04-03 20:23:44.30: SIM {TimeUS : 173316479, Roll : 0.53, Pitch : -14.14, Yaw : 280.01, Alt : 587.5, Lat : -35.3632584, Lng : 149.1651939, Q1 : 0.760638058186, Q2 : -0.0755497589707, Q3 : -0.0972951576114, Q4 : -0.637381851673}
2019-04-03 20:23:44.40: SIM {TimeUS : 173416439, Roll : 2.92, Pitch : -14.27, Yaw : 272.95, Alt : 587.530029297, Lat : -35.3632582, Lng : 149.1651913, Q1 : 0.721457004547, Q2 : -0.0671840384603, Q3 : -0.107466906309, Q4 : -0.680762112141}
2019-04-03 20:23:44.50: SIM {TimeUS : 173516399, Roll : 5.12, Pitch : -14.08, Yaw : 267.46, Alt : 587.549987793, Lat : -35.363258, Lng : 149.1651886, Q1 : 0.689369499683, Q2 : -0.0578551255167, Q3 : -0.11672886461, Q4 : -0.712598741055}
2019-04-03 20:23:44.60: SIM {TimeUS : 173616359, Roll : 6.79, Pitch : -13.75, Yaw : 263.89, Alt : 587.570007324, Lat : -35.3632577, Lng : 149.1651858, Q1 : 0.667740941048, Q2 : -0.0496129356325, Q3 : -0.123646169901, Q4 : -0.732374429703}
2019-04-03 20:23:44.70: SIM {TimeUS : 173716319, Roll : 7.66, Pitch : -13.46, Yaw : 262.21, Alt : 587.590026855, Lat : -35.3632574, Lng : 149.1651829, Q1 : 0.657373011112, Q2 : -0.0444869101048, Q3 : -0.126877427101, Q4 : -0.741474032402}
2019-04-03 20:23:44.80: SIM {TimeUS : 173816279, Roll : 7.64, Pitch : -13.36, Yaw : 262.16, Alt : 587.609985352, Lat : -35.363257, Lng : 149.1651799, Q1 : 0.657070934772, Q2 : -0.044013146311, Q3 : -0.126168802381, Q4 : -0.741890907288}
2019-04-03 20:23:44.90: SIM {TimeUS : 173916239, Roll : 6.79, Pitch : -13.54, Yaw : 263.39, Alt : 587.640014648, Lat : -35.3632565, Lng : 149.1651767, Q1 : 0.664617300034, Q2 : -0.0487309731543, Q3 : -0.122225575149, Q4 : -0.73550671339}
2019-04-03 20:23:45.00: SIM {TimeUS : 174016199, Roll : 5.31, Pitch : -13.97, Yaw : 265.55, Alt : 587.659973145, Lat : -35.363256, Lng : 149.1651736, Q1 : 0.677514731884, Q2 : -0.05794018507, Q3 : -0.116288751364, Q4 : -0.723943173885}
2019-04-03 20:23:45.10: SIM {TimeUS : 174116159, Roll : 3.45, Pitch : -14.52, Yaw : 268.3, Alt : 587.690002441, Lat : -35.3632554, Lng : 149.1651704, Q1 : 0.693419039249, Q2 : -0.0698587149382, Q3 : -0.109459795058, Q4 : -0.708737134933}
2019-04-03 20:23:45.20: SIM {TimeUS : 174216119, Roll : 1.49, Pitch : -15.07, Yaw : 271.33, Alt : 587.710021973, Lat : -35.3632548, Lng : 149.1651671, Q1 : 0.710254371166, Q2 : -0.0823893323541, Q3 : -0.102859057486, Q4 : -0.691498935223}
2019-04-03 20:23:45.30: SIM {TimeUS : 174316079, Roll : -0.31, Pitch : -15.5, Yaw : 274.29, Alt : 587.739990234, Lat : -35.3632543, Lng : 149.1651637, Q1 : 0.726159751415, Q2 : -0.0937737822533, Q3 : -0.0970250293612, Q4 : -0.674154758453}
2019-04-03 20:23:45.40: SIM {TimeUS : 174416039, Roll : -1.8, Pitch : -15.76, Yaw : 276.86, Alt : 587.770019531, Lat : -35.3632537, Lng : 149.1651602, Q1 : 0.739602148533, Q2 : -0.102645389736, Q3 : -0.0922188162804, Q4 : -0.658747494221}
2019-04-03 20:23:45.50: SIM {TimeUS : 174515999, Roll : -2.83, Pitch : -15.84, Yaw : 278.8, Alt : 587.789978027, Lat : -35.3632531, Lng : 149.1651566, Q1 : 0.749603033066, Q2 : -0.108262822032, Q3 : -0.0886770039797, Q4 : -0.646924197674}
2019-04-03 20:23:45.60: SIM {TimeUS : 174615959, Roll : -3.33, Pitch : -15.81, Yaw : 279.98, Alt : 587.820007324, Lat : -35.3632526, Lng : 149.165153, Q1 : 0.755764722824, Q2 : -0.110512815416, Q3 : -0.0868292450905, Q4 : -0.639583647251}
2019-04-03 20:23:45.70: SIM {TimeUS : 174715919, Roll : -3.36, Pitch : -15.75, Yaw : 280.39, Alt : 587.849975586, Lat : -35.3632523, Lng : 149.1651493, Q1 : 0.758104085922, Q2 : -0.110078074038, Q3 : -0.0866524279118, Q4 : -0.636908471584}
2019-04-03 20:23:45.80: SIM {TimeUS : 174815879, Roll : -3.0, Pitch : -15.72, Yaw : 280.13, Alt : 587.880004883, Lat : -35.3632519, Lng : 149.1651455, Q1 : 0.757033348083, Q2 : -0.107666872442, Q3 : -0.0882041454315, Q4 : -0.638379514217}
2019-04-03 20:23:45.90: SIM {TimeUS : 174915839, Roll : -2.38, Pitch : -15.73, Yaw : 279.34, Alt : 587.900024414, Lat : -35.3632516, Lng : 149.1651417, Q1 : 0.753177165985, Q2 : -0.104316368699, Q3 : -0.0910096392035, Q4 : -0.643085896969}
2019-04-03 20:23:46.00: SIM {TimeUS : 175015799, Roll : -1.63, Pitch : -15.81, Yaw : 278.21, Alt : 587.929992676, Lat : -35.3632512, Lng : 149.1651378, Q1 : 0.74737983942, Q2 : -0.100741662085, Q3 : -0.0947068110108, Q4 : -0.649850130081}
2019-04-03 20:23:46.10: SIM {TimeUS : 175115759, Roll : -0.85, Pitch : -15.93, Yaw : 276.92, Alt : 587.960021973, Lat : -35.3632509, Lng : 149.1651338, Q1 : 0.740577340126, Q2 : -0.0974501594901, Q3 : -0.0987941622734, Q4 : -0.657486438751}
2019-04-03 20:23:46.20: SIM {TimeUS : 175215719, Roll : -0.11, Pitch : -16.05, Yaw : 275.64, Alt : 587.989990234, Lat : -35.3632505, Lng : 149.1651298, Q1 : 0.73372977972, Q2 : -0.094512693584, Q3 : -0.102811358869, Q4 : -0.664934456348}
2019-04-03 20:23:46.29: SIM {TimeUS : 175315679, Roll : 0.5, Pitch : -16.15, Yaw : 274.53, Alt : 588.020019531, Lat : -35.3632501, Lng : 149.1651257, Q1 : 0.727632761002, Q2 : -0.0921796634793, Q3 : -0.106146663427, Q4 : -0.671406328678}
2019-04-03 20:23:46.40: SIM {TimeUS : 175416472, Roll : 0.93, Pitch : -16.23, Yaw : 273.66, Alt : 588.039978027, Lat : -35.3632499, Lng : 149.1651216, Q1 : 0.722825169563, Q2 : -0.0906637087464, Q3 : -0.108502425253, Q4 : -0.67641043663}
2019-04-03 20:23:46.50: SIM {TimeUS : 175516432, Roll : 1.18, Pitch : -16.27, Yaw : 273.11, Alt : 588.070007324, Lat : -35.3632494, Lng : 149.1651173, Q1 : 0.719729721546, Q2 : -0.0899085104465, Q3 : -0.109771296382, Q4 : -0.679599821568}
2019-04-03 20:23:46.60: SIM {TimeUS : 175616392, Roll : 1.24, Pitch : -16.29, Yaw : 272.88, Alt : 588.099975586, Lat : -35.3632492, Lng : 149.1651131, Q1 : 0.718367278576, Q2 : -0.0898614525795, Q3 : -0.110078275204, Q4 : -0.680996477604}
2019-04-03 20:23:46.70: SIM {TimeUS : 175716352, Roll : 1.12, Pitch : -16.27, Yaw : 272.92, Alt : 588.130004883, Lat : -35.3632488, Lng : 149.165109, Q1 : 0.718570172787, Q2 : -0.090461358428, Q3 : -0.109339132905, Q4 : -0.680822014809}
2019-04-03 20:23:46.80: SIM {TimeUS : 175816312, Roll : 0.88, Pitch : -16.27, Yaw : 273.2, Alt : 588.159973145, Lat : -35.3632483, Lng : 149.1651047, Q1 : 0.719998717308, Q2 : -0.0916954651475, Q3 : -0.108063727617, Q4 : -0.679349720478}
2019-04-03 20:23:46.90: SIM {TimeUS : 175916272, Roll : 0.55, Pitch : -16.27, Yaw : 273.62, Alt : 588.179992676, Lat : -35.3632481, Lng : 149.1651003, Q1 : 0.722248375416, Q2 : -0.093341268599, Q3 : -0.106493912637, Q4 : -0.676981389523}
2019-04-03 20:23:47.00: SIM {TimeUS : 176016232, Roll : 0.2, Pitch : -16.29, Yaw : 274.12, Alt : 588.210021973, Lat : -35.3632476, Lng : 149.165096, Q1 : 0.724888801575, Q2 : -0.0952093377709, Q3 : -0.104937322438, Q4 : -0.674136221409}
2019-04-03 20:23:47.10: SIM {TimeUS : 176116192, Roll : -0.11, Pitch : -16.31, Yaw : 274.62, Alt : 588.239990234, Lat : -35.3632473, Lng : 149.1650915, Q1 : 0.727547347546, Q2 : -0.0969880819321, Q3 : -0.103634335101, Q4 : -0.671213924885}
2019-04-03 20:23:47.20: SIM {TimeUS : 176216152, Roll : -0.37, Pitch : -16.35, Yaw : 275.07, Alt : 588.270019531, Lat : -35.3632469, Lng : 149.1650871, Q1 : 0.729924440384, Q2 : -0.0984160080552, Q3 : -0.10276761651, Q4 : -0.668553233147}
2019-04-03 20:23:47.30: SIM {TimeUS : 176316112, Roll : -0.55, Pitch : -16.41, Yaw : 275.43, Alt : 588.299987793, Lat : -35.3632465, Lng : 149.1650827, Q1 : 0.731776416302, Q2 : -0.0995678380132, Q3 : -0.102381512523, Q4 : -0.666414022446}
2019-04-03 20:23:47.40: SIM {TimeUS : 176416072, Roll : -0.63, Pitch : -16.46, Yaw : 275.66, Alt : 588.320007324, Lat : -35.3632462, Lng : 149.1650781, Q1 : 0.73303592205, Q2 : -0.100135326385, Q3 : -0.102455280721, Q4 : -0.664931774139}
2019-04-03 20:23:47.50: SIM {TimeUS : 176516032, Roll : -0.64, Pitch : -16.49, Yaw : 275.78, Alt : 588.349975586, Lat : -35.3632458, Lng : 149.1650737, Q1 : 0.733651041985, Q2 : -0.100312538445, Q3 : -0.102684319019, Q4 : -0.6641908288}
2019-04-03 20:23:47.60: SIM {TimeUS : 176615992, Roll : -0.6, Pitch : -16.52, Yaw : 275.78, Alt : 588.380004883, Lat : -35.3632455, Lng : 149.165069, Q1 : 0.733673870564, Q2 : -0.100248165429, Q3 : -0.103094063699, Q4 : -0.664111912251}
2019-04-03 20:23:47.70: SIM {TimeUS : 176715952, Roll : -0.52, Pitch : -16.55, Yaw : 275.7, Alt : 588.409973145, Lat : -35.3632452, Lng : 149.1650646, Q1 : 0.733235001564, Q2 : -0.0999154001474, Q3 : -0.103693202138, Q4 : -0.66455334425}
2019-04-03 20:23:47.80: SIM {TimeUS : 176815912, Roll : -0.38, Pitch : -16.58, Yaw : 275.55, Alt : 588.440002441, Lat : -35.3632447, Lng : 149.1650599, Q1 : 0.732487797737, Q2 : -0.0993462428451, Q3 : -0.104548454285, Q4 : -0.665328204632}
2019-04-03 20:23:47.90: SIM {TimeUS : 176915872, Roll : -0.24, Pitch : -16.6, Yaw : 275.38, Alt : 588.469970703, Lat : -35.3632445, Lng : 149.1650553, Q1 : 0.731569111347, Q2 : -0.0987555384636, Q3 : -0.105417273939, Q4 : -0.666289150715}
2019-04-03 20:23:48.00: SIM {TimeUS : 177015832, Roll : -0.12, Pitch : -16.63, Yaw : 275.2, Alt : 588.5, Lat : -35.3632441, Lng : 149.1650507, Q1 : 0.730620622635, Q2 : -0.0983124822378, Q3 : -0.106082908809, Q4 : -0.667288959026}
2019-04-03 20:23:48.10: SIM {TimeUS : 177115792, Roll : -0.04, Pitch : -16.64, Yaw : 275.05, Alt : 588.530029297, Lat : -35.3632439, Lng : 149.165046, Q1 : 0.729778289795, Q2 : -0.0980286896229, Q3 : -0.106535948813, Q4 : -0.668179750443}
2019-04-03 20:23:48.20: SIM {TimeUS : 177215752, Roll : 0.02, Pitch : -16.69, Yaw : 274.93, Alt : 588.559997559, Lat : -35.3632434, Lng : 149.1650412, Q1 : 0.729122638702, Q2 : -0.097975410521, Q3 : -0.107102543116, Q4 : -0.668812453747}
2019-04-03 20:23:48.30: SIM {TimeUS : 177315712, Roll : 0.05, Pitch : -16.72, Yaw : 274.87, Alt : 588.58001709, Lat : -35.3632432, Lng : 149.1650365, Q1 : 0.728737175465, Q2 : -0.0979786738753, Q3 : -0.107432246208, Q4 : -0.669179081917}
2019-04-03 20:23:48.39: SIM {TimeUS : 177415672, Roll : 0.06, Pitch : -16.74, Yaw : 274.85, Alt : 588.609985352, Lat : -35.3632428, Lng : 149.1650317, Q1 : 0.728635907173, Q2 : -0.0980608910322, Q3 : -0.10759010911, Q4 : -0.669251918793}
2019-04-03 20:23:48.50: SIM {TimeUS : 177516465, Roll : 0.06, Pitch : -16.75, Yaw : 274.88, Alt : 588.640014648, Lat : -35.3632425, Lng : 149.1650269, Q1 : 0.728809714317, Q2 : -0.0980816408992, Q3 : -0.107682436705, Q4 : -0.669044792652}
2019-04-03 20:23:48.60: SIM {TimeUS : 177616425, Roll : 0.05, Pitch : -16.76, Yaw : 274.95, Alt : 588.66998291, Lat : -35.3632421, Lng : 149.1650223, Q1 : 0.729187786579, Q2 : -0.0981625318527, Q3 : -0.107759185135, Q4 : -0.668608486652}
2019-04-03 20:23:48.70: SIM {TimeUS : 177716385, Roll : 0.0, Pitch : -16.77, Yaw : 275.04, Alt : 588.700012207, Lat : -35.3632418, Lng : 149.1650175, Q1 : 0.729684472084, Q2 : -0.0984555706382, Q3 : -0.107649005949, Q4 : -0.668040990829}
2019-04-03 20:23:48.80: SIM {TimeUS : 177816345, Roll : -0.05, Pitch : -16.8, Yaw : 275.15, Alt : 588.729980469, Lat : -35.3632415, Lng : 149.1650125, Q1 : 0.73022133112, Q2 : -0.0989300012589, Q3 : -0.107552312315, Q4 : -0.667399644852}
2019-04-03 20:23:48.90: SIM {TimeUS : 177916305, Roll : -0.13, Pitch : -16.83, Yaw : 275.26, Alt : 588.760009766, Lat : -35.363241, Lng : 149.1650077, Q1 : 0.730754137039, Q2 : -0.0995034277439, Q3 : -0.107367813587, Q4 : -0.66676056385}
2019-04-03 20:23:49.00: SIM {TimeUS : 178016265, Roll : -0.19, Pitch : -16.86, Yaw : 275.36, Alt : 588.789978027, Lat : -35.3632408, Lng : 149.1650029, Q1 : 0.731255710125, Q2 : -0.0999990329146, Q3 : -0.107281513512, Q4 : -0.666150093079}
2019-04-03 20:23:49.10: SIM {TimeUS : 178116225, Roll : -0.23, Pitch : -16.9, Yaw : 275.44, Alt : 588.820007324, Lat : -35.3632404, Lng : 149.1649981, Q1 : 0.731676220894, Q2 : -0.100403681397, Q3 : -0.107425861061, Q4 : -0.665603995323}
2019-04-03 20:23:49.20: SIM {TimeUS : 178216185, Roll : -0.24, Pitch : -16.97, Yaw : 275.51, Alt : 588.849975586, Lat : -35.3632401, Lng : 149.1649932, Q1 : 0.73198312521, Q2 : -0.100784942508, Q3 : -0.107790015638, Q4 : -0.665149927139}
2019-04-03 20:23:49.30: SIM {TimeUS : 178316145, Roll : -0.25, Pitch : -17.02, Yaw : 275.56, Alt : 588.880004883, Lat : -35.3632397, Lng : 149.1649884, Q1 : 0.732191562653, Q2 : -0.101083479822, Q3 : -0.10812677443, Q4 : -0.664820492268}
2019-04-03 20:23:49.40: SIM {TimeUS : 178416105, Roll : -0.25, Pitch : -17.06, Yaw : 275.58, Alt : 588.909973145, Lat : -35.3632394, Lng : 149.1649835, Q1 : 0.732314705849, Q2 : -0.101299248636, Q3 : -0.108391553164, Q4 : -0.664608895779}
2019-04-03 20:23:49.50: SIM {TimeUS : 178516065, Roll : -0.24, Pitch : -17.06, Yaw : 275.6, Alt : 588.929992676, Lat : -35.3632391, Lng : 149.1649785, Q1 : 0.732395529747, Q2 : -0.101259745657, Q3 : -0.108486436307, Q4 : -0.664510309696}
2019-04-03 20:23:49.60: SIM {TimeUS : 178616025, Roll : -0.23, Pitch : -17.06, Yaw : 275.6, Alt : 588.960021973, Lat : -35.3632386, Lng : 149.1649736, Q1 : 0.732436299324, Q2 : -0.101102463901, Q3 : -0.108551986516, Q4 : -0.66447865963}
2019-04-03 20:23:49.70: SIM {TimeUS : 178715985, Roll : -0.2, Pitch : -17.04, Yaw : 275.6, Alt : 588.989990234, Lat : -35.3632384, Lng : 149.1649687, Q1 : 0.732465147972, Q2 : -0.100843191147, Q3 : -0.108594797552, Q4 : -0.664479255676}
2019-04-03 20:23:49.80: SIM {TimeUS : 178815945, Roll : -0.18, Pitch : -17.04, Yaw : 275.6, Alt : 589.020019531, Lat : -35.3632379, Lng : 149.1649636, Q1 : 0.732477128506, Q2 : -0.100698001683, Q3 : -0.108737140894, Q4 : -0.664464771748}
2019-04-03 20:23:49.90: SIM {TimeUS : 178915905, Roll : -0.15, Pitch : -17.06, Yaw : 275.6, Alt : 589.049987793, Lat : -35.3632377, Lng : 149.1649587, Q1 : 0.732477426529, Q2 : -0.100692436099, Q3 : -0.108998507261, Q4 : -0.66442245245}
2019-04-03 20:23:50.00: SIM {TimeUS : 179015865, Roll : -0.15, Pitch : -17.1, Yaw : 275.6, Alt : 589.08001709, Lat : -35.3632373, Lng : 149.1649536, Q1 : 0.732475757599, Q2 : -0.100844345987, Q3 : -0.109263747931, Q4 : -0.664357721806}
2019-04-03 20:23:50.10: SIM {TimeUS : 179115825, Roll : -0.15, Pitch : -17.13, Yaw : 275.61, Alt : 589.109985352, Lat : -35.363237, Lng : 149.1649487, Q1 : 0.732499480247, Q2 : -0.101082198322, Q3 : -0.109457708895, Q4 : -0.664263427258}
2019-04-03 20:23:50.20: SIM {TimeUS : 179215785, Roll : -0.17, Pitch : -17.16, Yaw : 275.63, Alt : 589.140014648, Lat : -35.3632366, Lng : 149.1649436, Q1 : 0.732566952705, Q2 : -0.101327829063, Q3 : -0.109592489898, Q4 : -0.664129376411}
2019-04-03 20:23:50.30: SIM {TimeUS : 179315745, Roll : -0.17, Pitch : -17.18, Yaw : 275.66, Alt : 589.16998291, Lat : -35.3632361, Lng : 149.1649387, Q1 : 0.732697367668, Q2 : -0.101456351578, Q3 : -0.109732210636, Q4 : -0.663942813873}
2019-04-03 20:23:50.40: SIM {TimeUS : 179415705, Roll : -0.16, Pitch : -17.2, Yaw : 275.69, Alt : 589.190002441, Lat : -35.3632359, Lng : 149.1649337, Q1 : 0.732888460159, Q2 : -0.101433254778, Q3 : -0.109986625612, Q4 : -0.663693249226}
2019-04-03 20:23:50.49: SIM {TimeUS : 179515665, Roll : -0.11, Pitch : -17.25, Yaw : 275.73, Alt : 589.219970703, Lat : -35.3632355, Lng : 149.1649286, Q1 : 0.733103632927, Q2 : -0.101355321705, Q3 : -0.110618181527, Q4 : -0.663362503052}
2019-04-03 20:23:50.60: SIM {TimeUS : 179616458, Roll : -0.07, Pitch : -17.32, Yaw : 275.77, Alt : 589.25, Lat : -35.3632351, Lng : 149.1649234, Q1 : 0.733291745186, Q2 : -0.101505473256, Q3 : -0.111257895827, Q4 : -0.663024544716}
2019-04-03 20:23:50.70: SIM {TimeUS : 179716418, Roll : -0.08, Pitch : -17.37, Yaw : 275.81, Alt : 589.280029297, Lat : -35.3632348, Lng : 149.1649185, Q1 : 0.73345631361, Q2 : -0.101807750762, Q3 : -0.111569717526, Q4 : -0.66274368763}
2019-04-03 20:23:50.80: SIM {TimeUS : 179816378, Roll : -0.11, Pitch : -17.38, Yaw : 275.84, Alt : 589.309997559, Lat : -35.3632343, Lng : 149.1649134, Q1 : 0.733621895313, Q2 : -0.102041535079, Q3 : -0.11149186641, Q4 : -0.662537634373}
2019-04-03 20:23:50.90: SIM {TimeUS : 179916338, Roll : -0.14, Pitch : -17.38, Yaw : 275.87, Alt : 589.340026855, Lat : -35.363234, Lng : 149.1649082, Q1 : 0.733779370785, Q2 : -0.102190516889, Q3 : -0.111354604363, Q4 : -0.662363231182}
2019-04-03 20:23:51.00: SIM {TimeUS : 180016298, Roll : -0.14, Pitch : -17.39, Yaw : 275.9, Alt : 589.369995117, Lat : -35.3632336, Lng : 149.1649032, Q1 : 0.733926296234, Q2 : -0.102235727012, Q3 : -0.111469313502, Q4 : -0.662174224854}
2019-04-03 20:23:51.10: SIM {TimeUS : 180116258, Roll : -0.14, Pitch : -17.41, Yaw : 275.93, Alt : 589.400024414, Lat : -35.3632333, Lng : 149.164898, Q1 : 0.734054982662, Q2 : -0.102297089994, Q3 : -0.111586347222, Q4 : -0.662002325058}
2019-04-03 20:23:51.20: SIM {TimeUS : 180216218, Roll : -0.15, Pitch : -17.43, Yaw : 275.95, Alt : 589.429992676, Lat : -35.3632329, Lng : 149.164893, Q1 : 0.734163403511, Q2 : -0.102409079671, Q3 : -0.111682116985, Q4 : -0.661848664284}
2019-04-03 20:23:51.30: SIM {TimeUS : 180316178, Roll : -0.16, Pitch : -17.45, Yaw : 275.97, Alt : 589.450012207, Lat : -35.3632324, Lng : 149.1648879, Q1 : 0.734238922596, Q2 : -0.102606356144, Q3 : -0.1118087098, Q4 : -0.661712944508}
2019-04-03 20:23:51.40: SIM {TimeUS : 180416138, Roll : -0.16, Pitch : -17.49, Yaw : 275.98, Alt : 589.479980469, Lat : -35.3632321, Lng : 149.1648827, Q1 : 0.734286427498, Q2 : -0.10287310183, Q3 : -0.112040542066, Q4 : -0.661579549313}
2019-04-03 20:23:51.50: SIM {TimeUS : 180516098, Roll : -0.18, Pitch : -17.54, Yaw : 276.0, Alt : 589.510009766, Lat : -35.3632317, Lng : 149.1648777, Q1 : 0.734309256077, Q2 : -0.103194415569, Q3 : -0.112273983657, Q4 : -0.661464571953}
2019-04-03 20:23:51.60: SIM {TimeUS : 180616058, Roll : -0.19, Pitch : -17.57, Yaw : 276.01, Alt : 589.539978027, Lat : -35.3632312, Lng : 149.1648725, Q1 : 0.734327495098, Q2 : -0.103462032974, Q3 : -0.112449206412, Q4 : -0.661372721195}
2019-04-03 20:23:51.70: SIM {TimeUS : 180716018, Roll : -0.18, Pitch : -17.59, Yaw : 276.02, Alt : 589.570007324, Lat : -35.3632309, Lng : 149.1648674, Q1 : 0.734377563, Q2 : -0.103495396674, Q3 : -0.112655080855, Q4 : -0.661276936531}
2019-04-03 20:23:51.80: SIM {TimeUS : 180815978, Roll : -0.16, Pitch : -17.6, Yaw : 276.03, Alt : 589.599975586, Lat : -35.3632305, Lng : 149.1648621, Q1 : 0.734439015388, Q2 : -0.103456541896, Q3 : -0.112791009247, Q4 : -0.66119158268}
2019-04-03 20:23:51.90: SIM {TimeUS : 180915938, Roll : -0.15, Pitch : -17.6, Yaw : 276.04, Alt : 589.630004883, Lat : -35.36323, Lng : 149.1648569, Q1 : 0.734514772892, Q2 : -0.103362396359, Q3 : -0.112905569375, Q4 : -0.661102592945}
2019-04-03 20:23:52.00: SIM {TimeUS : 181015898, Roll : -0.13, Pitch : -17.62, Yaw : 276.05, Alt : 589.659973145, Lat : -35.3632297, Lng : 149.1648517, Q1 : 0.734597325325, Q2 : -0.103259518743, Q3 : -0.113122485578, Q4 : -0.660989820957}
2019-04-03 20:23:52.10: SIM {TimeUS : 181115858, Roll : -0.11, Pitch : -17.63, Yaw : 276.07, Alt : 589.690002441, Lat : -35.3632293, Lng : 149.1648467, Q1 : 0.73467952013, Q2 : -0.103221774101, Q3 : -0.11335041374, Q4 : -0.660865366459}
2019-04-03 20:23:52.20: SIM {TimeUS : 181215818, Roll : -0.1, Pitch : -17.64, Yaw : 276.08, Alt : 589.710021973, Lat : -35.3632288, Lng : 149.1648415, Q1 : 0.734761416912, Q2 : -0.103215761483, Q3 : -0.113424085081, Q4 : -0.660762548447}
2019-04-03 20:23:52.30: SIM {TimeUS : 181315778, Roll : -0.11, Pitch : -17.63, Yaw : 276.1, Alt : 589.739990234, Lat : -35.3632285, Lng : 149.1648362, Q1 : 0.734846115112, Q2 : -0.103200986981, Q3 : -0.11329831183, Q4 : -0.66069227457}
2019-04-03 20:23:52.40: SIM {TimeUS : 181415738, Roll : -0.12, Pitch : -17.63, Yaw : 276.11, Alt : 589.770019531, Lat : -35.3632281, Lng : 149.164831, Q1 : 0.734915971756, Q2 : -0.103267230093, Q3 : -0.113285027444, Q4 : -0.660606503487}
2019-04-03 20:23:52.50: SIM {TimeUS : 181515698, Roll : -0.13, Pitch : -17.63, Yaw : 276.12, Alt : 589.799987793, Lat : -35.3632276, Lng : 149.1648258, Q1 : 0.734979152679, Q2 : -0.103354975581, Q3 : -0.113265663385, Q4 : -0.660525798798}
2019-04-03 20:23:52.60: SIM {TimeUS : 181616491, Roll : -0.15, Pitch : -17.63, Yaw : 276.14, Alt : 589.83001709, Lat : -35.3632273, Lng : 149.1648205, Q1 : 0.735040068626, Q2 : -0.103427328169, Q3 : -0.113181620836, Q4 : -0.660461068153}
2019-04-03 20:23:52.70: SIM {TimeUS : 181716451, Roll : -0.13, Pitch : -17.63, Yaw : 276.15, Alt : 589.859985352, Lat : -35.3632269, Lng : 149.1648152, Q1 : 0.735135793686, Q2 : -0.103247046471, Q3 : -0.113257683814, Q4 : -0.660369694233}
2019-04-03 20:23:52.80: SIM {TimeUS : 181816411, Roll : -0.08, Pitch : -17.63, Yaw : 276.16, Alt : 589.890014648, Lat : -35.3632264, Lng : 149.16481, Q1 : 0.735237181187, Q2 : -0.102960400283, Q3 : -0.113575033844, Q4 : -0.660247027874}
2019-04-03 20:23:52.90: SIM {TimeUS : 181916371, Roll : -0.04, Pitch : -17.64, Yaw : 276.17, Alt : 589.91998291, Lat : -35.3632261, Lng : 149.1648047, Q1 : 0.735325396061, Q2 : -0.102715924382, Q3 : -0.113888382912, Q4 : -0.660132944584}
2019-04-03 20:23:53.00: SIM {TimeUS : 182016331, Roll : -0.03, Pitch : -17.66, Yaw : 276.18, Alt : 589.940002441, Lat : -35.3632257, Lng : 149.1647995, Q1 : 0.73536914587, Q2 : -0.102747805417, Q3 : -0.114082053304, Q4 : -0.660045742989}
2019-04-03 20:23:53.10: SIM {TimeUS : 182116291, Roll : -0.04, Pitch : -17.68, Yaw : 276.19, Alt : 589.969970703, Lat : -35.3632252, Lng : 149.1647942, Q1 : 0.73538762331, Q2 : -0.102973893285, Q3 : -0.11414141953, Q4 : -0.659979701042}
2019-04-03 20:23:53.20: SIM {TimeUS : 182216251, Roll : -0.09, Pitch : -17.7, Yaw : 276.2, Alt : 590.0, Lat : -35.3632249, Lng : 149.1647889, Q1 : 0.735387384892, Q2 : -0.103346027434, Q3 : -0.114006206393, Q4 : -0.659945189953}
2019-04-03 20:23:53.30: SIM {TimeUS : 182316211, Roll : -0.13, Pitch : -17.72, Yaw : 276.21, Alt : 590.030029297, Lat : -35.3632244, Lng : 149.1647837, Q1 : 0.73538339138, Q2 : -0.103733353317, Q3 : -0.113877519965, Q4 : -0.659911036491}
2019-04-03 20:23:53.40: SIM {TimeUS : 182416171, Roll : -0.16, Pitch : -17.74, Yaw : 276.22, Alt : 590.059997559, Lat : -35.3632239, Lng : 149.1647784, Q1 : 0.735389351845, Q2 : -0.104012422264, Q3 : -0.113897643983, Q4 : -0.659856975079}
2019-04-03 20:23:53.50: SIM {TimeUS : 182516131, Roll : -0.15, Pitch : -17.76, Yaw : 276.23, Alt : 590.090026855, Lat : -35.3632236, Lng : 149.1647731, Q1 : 0.73542457819, Q2 : -0.1040943712, Q3 : -0.114027231932, Q4 : -0.659782409668}
2019-04-03 20:23:53.60: SIM {TimeUS : 182616091, Roll : -0.16, Pitch : -17.77, Yaw : 276.23, Alt : 590.119995117, Lat : -35.3632232, Lng : 149.1647678, Q1 : 0.73545140028, Q2 : -0.104200333357, Q3 : -0.114128775895, Q4 : -0.65971827507}
2019-04-03 20:23:53.70: SIM {TimeUS : 182716051, Roll : -0.17, Pitch : -17.79, Yaw : 276.24, Alt : 590.150024414, Lat : -35.3632227, Lng : 149.1647626, Q1 : 0.735449612141, Q2 : -0.104386292398, Q3 : -0.114194370806, Q4 : -0.659679532051}
2019-04-03 20:23:53.80: SIM {TimeUS : 182816011, Roll : -0.16, Pitch : -17.82, Yaw : 276.24, Alt : 590.179992676, Lat : -35.3632222, Lng : 149.1647573, Q1 : 0.735453307629, Q2 : -0.104477994144, Q3 : -0.114395335317, Q4 : -0.659626066685}
2019-04-03 20:23:53.90: SIM {TimeUS : 182915971, Roll : -0.13, Pitch : -17.84, Yaw : 276.25, Alt : 590.210021973, Lat : -35.3632219, Lng : 149.164752, Q1 : 0.735488474369, Q2 : -0.104347109795, Q3 : -0.11469873786, Q4 : -0.659554839134}
2019-04-03 20:23:54.00: SIM {TimeUS : 183015931, Roll : -0.09, Pitch : -17.85, Yaw : 276.25, Alt : 590.239990234, Lat : -35.3632215, Lng : 149.1647467, Q1 : 0.735522389412, Q2 : -0.104171484709, Q3 : -0.114999845624, Q4 : -0.659492313862}
2019-04-03 20:23:54.10: SIM {TimeUS : 183115891, Roll : -0.06, Pitch : -17.85, Yaw : 276.25, Alt : 590.270019531, Lat : -35.3632209, Lng : 149.1647414, Q1 : 0.735548079014, Q2 : -0.104005172849, Q3 : -0.115216575563, Q4 : -0.659452140331}
2019-04-03 20:23:54.20: SIM {TimeUS : 183215851, Roll : -0.07, Pitch : -17.84, Yaw : 276.25, Alt : 590.299987793, Lat : -35.3632206, Lng : 149.1647361, Q1 : 0.7355479002, Q2 : -0.104008875787, Q3 : -0.115101590753, Q4 : -0.659471809864}
2019-04-03 20:23:54.30: SIM {TimeUS : 183315811, Roll : -0.08, Pitch : -17.84, Yaw : 276.25, Alt : 590.320007324, Lat : -35.3632202, Lng : 149.1647308, Q1 : 0.735534548759, Q2 : -0.10407999903, Q3 : -0.114974409342, Q4 : -0.65949767828}
2019-04-03 20:23:54.40: SIM {TimeUS : 183415771, Roll : -0.08, Pitch : -17.84, Yaw : 276.25, Alt : 590.349975586, Lat : -35.3632197, Lng : 149.1647255, Q1 : 0.73552441597, Q2 : -0.104119740427, Q3 : -0.114990472794, Q4 : -0.659499943256}
2019-04-03 20:23:54.50: SIM {TimeUS : 183515731, Roll : -0.07, Pitch : -17.84, Yaw : 276.25, Alt : 590.380004883, Lat : -35.3632193, Lng : 149.1647202, Q1 : 0.735540390015, Q2 : -0.104032926261, Q3 : -0.115068092942, Q4 : -0.659482240677}
2019-04-03 20:23:54.60: SIM {TimeUS : 183615691, Roll : -0.06, Pitch : -17.84, Yaw : 276.25, Alt : 590.409973145, Lat : -35.3632189, Lng : 149.1647147, Q1 : 0.735562384129, Q2 : -0.103953868151, Q3 : -0.115109719336, Q4 : -0.659462988377}
2019-04-03 20:23:54.70: SIM {TimeUS : 183716484, Roll : -0.06, Pitch : -17.85, Yaw : 276.25, Alt : 590.440002441, Lat : -35.3632184, Lng : 149.1647094, Q1 : 0.735575318336, Q2 : -0.103965349495, Q3 : -0.115186743438, Q4 : -0.659433245659}
2019-04-03 20:23:54.80: SIM {TimeUS : 183816444, Roll : -0.07, Pitch : -17.87, Yaw : 276.26, Alt : 590.469970703, Lat : -35.3632179, Lng : 149.1647041, Q1 : 0.7355645895, Q2 : -0.104134999216, Q3 : -0.115278638899, Q4 : -0.659402370453}
2019-04-03 20:23:54.90: SIM {TimeUS : 183916404, Roll : -0.08, Pitch : -17.89, Yaw : 276.26, Alt : 590.5, Lat : -35.3632175, Lng : 149.1646988, Q1 : 0.735556066036, Q2 : -0.104340225458, Q3 : -0.11529071629, Q4 : -0.659377336502}
2019-04-03 20:23:55.00: SIM {TimeUS : 184016364, Roll : -0.1, Pitch : -17.9, Yaw : 276.26, Alt : 590.530029297, Lat : -35.3632171, Lng : 149.1646934, Q1 : 0.735546886921, Q2 : -0.104521021247, Q3 : -0.115300603211, Q4 : -0.659357249737}
2019-04-03 20:23:55.10: SIM {TimeUS : 184116324, Roll : -0.1, Pitch : -17.91, Yaw : 276.27, Alt : 590.559997559, Lat : -35.3632166, Lng : 149.1646881, Q1 : 0.735547482967, Q2 : -0.10459523648, Q3 : -0.115359887481, Q4 : -0.659334421158}
2019-04-03 20:23:55.20: SIM {TimeUS : 184216284, Roll : -0.1, Pitch : -17.92, Yaw : 276.27, Alt : 590.590026855, Lat : -35.3632161, Lng : 149.1646827, Q1 : 0.735550880432, Q2 : -0.104635410011, Q3 : -0.115431450307, Q4 : -0.659311771393}
2019-04-03 20:23:55.30: SIM {TimeUS : 184316244, Roll : -0.09, Pitch : -17.93, Yaw : 276.27, Alt : 590.609985352, Lat : -35.3632158, Lng : 149.1646773, Q1 : 0.735558450222, Q2 : -0.10463257134, Q3 : -0.115502901375, Q4 : -0.65929120779}
2019-04-03 20:23:55.40: SIM {TimeUS : 184416204, Roll : -0.08, Pitch : -17.93, Yaw : 276.27, Alt : 590.640014648, Lat : -35.3632153, Lng : 149.164672, Q1 : 0.735566496849, Q2 : -0.104591034353, Q3 : -0.115578576922, Q4 : -0.659275591373}
2019-04-03 20:23:55.50: SIM {TimeUS : 184516164, Roll : -0.06, Pitch : -17.93, Yaw : 276.27, Alt : 590.66998291, Lat : -35.3632148, Lng : 149.1646667, Q1 : 0.735583305359, Q2 : -0.104465059936, Q3 : -0.115735188127, Q4 : -0.659249305725}
2019-04-03 20:23:55.60: SIM {TimeUS : 184616124, Roll : -0.05, Pitch : -17.94, Yaw : 276.27, Alt : 590.700012207, Lat : -35.3632143, Lng : 149.1646613, Q1 : 0.735588550568, Q2 : -0.104417651892, Q3 : -0.115847818553, Q4 : -0.659231126308}
2019-04-03 20:23:55.70: SIM {TimeUS : 184716084, Roll : -0.03, Pitch : -17.92, Yaw : 276.27, Alt : 590.729980469, Lat : -35.363214, Lng : 149.1646559, Q1 : 0.735605657101, Q2 : -0.104232847691, Q3 : -0.11582583189, Q4 : -0.6592451334}
2019-04-03 20:23:55.80: SIM {TimeUS : 184816044, Roll : -0.02, Pitch : -17.92, Yaw : 276.27, Alt : 590.760009766, Lat : -35.3632135, Lng : 149.1646505, Q1 : 0.735613286495, Q2 : -0.104100517929, Q3 : -0.115848653018, Q4 : -0.65925359726}
2019-04-03 20:23:55.90: SIM {TimeUS : 184916004, Roll : -0.02, Pitch : -17.93, Yaw : 276.26, Alt : 590.789978027, Lat : -35.363213, Lng : 149.1646452, Q1 : 0.735588371754, Q2 : -0.104147456586, Q3 : -0.115951418877, Q4 : -0.659255921841}
2019-04-03 20:23:56.00: SIM {TimeUS : 185015964, Roll : -0.02, Pitch : -17.93, Yaw : 276.26, Alt : 590.809997559, Lat : -35.3632126, Lng : 149.1646399, Q1 : 0.735561966896, Q2 : -0.104221090674, Q3 : -0.115951612592, Q4 : -0.659273684025}
2019-04-03 20:23:56.10: SIM {TimeUS : 185115924, Roll : -0.03, Pitch : -17.92, Yaw : 276.26, Alt : 590.840026855, Lat : -35.3632122, Lng : 149.1646345, Q1 : 0.735560178757, Q2 : -0.104203611612, Q3 : -0.115824319422, Q4 : -0.659300804138}
2019-04-03 20:23:56.20: SIM {TimeUS : 185215884, Roll : -0.03, Pitch : -17.91, Yaw : 276.26, Alt : 590.869995117, Lat : -35.3632117, Lng : 149.164629, Q1 : 0.735565602779, Q2 : -0.104117512703, Q3 : -0.11572226882, Q4 : -0.659326314926}
2019-04-03 20:23:56.30: SIM {TimeUS : 185315844, Roll : -0.02, Pitch : -17.89, Yaw : 276.25, Alt : 590.900024414, Lat : -35.3632111, Lng : 149.1646237, Q1 : 0.735576272011, Q2 : -0.103966124356, Q3 : -0.115668080747, Q4 : -0.659347832203}
2019-04-03 20:23:56.40: SIM {TimeUS : 185415804, Roll : 0.0, Pitch : -17.91, Yaw : 276.25, Alt : 590.929992676, Lat : -35.3632108, Lng : 149.1646183, Q1 : 0.735567927361, Q2 : -0.103924393654, Q3 : -0.115934856236, Q4 : -0.659316837788}
2019-04-03 20:23:56.50: SIM {TimeUS : 185515764, Roll : 0.0, Pitch : -17.94, Yaw : 276.25, Alt : 590.960021973, Lat : -35.3632103, Lng : 149.1646128, Q1 : 0.73553365469, Q2 : -0.104057691991, Q3 : -0.116145536304, Q4 : -0.659296989441}
2019-04-03 20:23:56.60: SIM {TimeUS : 185615724, Roll : -0.02, Pitch : -17.97, Yaw : 276.25, Alt : 590.989990234, Lat : -35.3632099, Lng : 149.1646075, Q1 : 0.735477864742, Q2 : -0.104384087026, Q3 : -0.116185419261, Q4 : -0.65930056572}
2019-04-03 20:23:56.70: SIM {TimeUS : 185715684, Roll : -0.06, Pitch : -17.99, Yaw : 276.25, Alt : 591.010009766, Lat : -35.3632093, Lng : 149.1646022, Q1 : 0.735400378704, Q2 : -0.104789555073, Q3 : -0.11611096561, Q4 : -0.659335792065}
2019-04-03 20:23:56.80: SIM {TimeUS : 185816477, Roll : -0.09, Pitch : -18.02, Yaw : 276.24, Alt : 591.039978027, Lat : -35.3632088, Lng : 149.1645967, Q1 : 0.735323607922, Q2 : -0.105149634182, Q3 : -0.116060651839, Q4 : -0.659372925758}
2019-04-03 20:23:56.90: SIM {TimeUS : 185916437, Roll : -0.1, Pitch : -18.01, Yaw : 276.24, Alt : 591.070007324, Lat : -35.3632085, Lng : 149.1645912, Q1 : 0.73528701067, Q2 : -0.10518476367, Q3 : -0.115989439189, Q4 : -0.659420669079}
2019-04-03 20:23:57.00: SIM {TimeUS : 186016397, Roll : -0.08, Pitch : -17.99, Yaw : 276.23, Alt : 591.099975586, Lat : -35.363208, Lng : 149.1645859, Q1 : 0.735288023949, Q2 : -0.104944601655, Q3 : -0.115959711373, Q4 : -0.659463047981}
2019-04-03 20:23:57.10: SIM {TimeUS : 186116357, Roll : -0.04, Pitch : -17.96, Yaw : 276.22, Alt : 591.130004883, Lat : -35.3632075, Lng : 149.1645805, Q1 : 0.735303997993, Q2 : -0.104554004967, Q3 : -0.115974701941, Q4 : -0.659504652023}
2019-04-03 20:23:57.20: SIM {TimeUS : 186216317, Roll : -0.01, Pitch : -17.95, Yaw : 276.22, Alt : 591.159973145, Lat : -35.363207, Lng : 149.164575, Q1 : 0.735301613808, Q2 : -0.104277230799, Q3 : -0.11606785655, Q4 : -0.659534752369}
2019-04-03 20:23:57.30: SIM {TimeUS : 186316277, Roll : 0.01, Pitch : -17.95, Yaw : 276.21, Alt : 591.190002441, Lat : -35.3632066, Lng : 149.1645696, Q1 : 0.735279917717, Q2 : -0.104077652097, Q3 : -0.116249397397, Q4 : -0.659558415413}
2019-04-03 20:23:57.40: SIM {TimeUS : 186416237, Roll : 0.01, Pitch : -17.97, Yaw : 276.2, Alt : 591.219970703, Lat : -35.3632062, Lng : 149.1645643, Q1 : 0.735204041004, Q2 : -0.104200094938, Q3 : -0.116377472878, Q4 : -0.659601151943}
2019-04-03 20:23:57.50: SIM {TimeUS : 186516197, Roll : 0.01, Pitch : -17.99, Yaw : 276.19, Alt : 591.25, Lat : -35.3632057, Lng : 149.1645589, Q1 : 0.735117018223, Q2 : -0.104389257729, Q3 : -0.116507470608, Q4 : -0.65964525938}
2019-04-03 20:23:57.60: SIM {TimeUS : 186616157, Roll : 0.0, Pitch : -18.02, Yaw : 276.18, Alt : 591.270019531, Lat : -35.3632051, Lng : 149.1645534, Q1 : 0.735035777092, Q2 : -0.104563981295, Q3 : -0.116596609354, Q4 : -0.65969234705}
2019-04-03 20:23:57.70: SIM {TimeUS : 186716117, Roll : 0.0, Pitch : -18.02, Yaw : 276.17, Alt : 591.299987793, Lat : -35.3632048, Lng : 149.1645481, Q1 : 0.734971106052, Q2 : -0.104662433267, Q3 : -0.116606660187, Q4 : -0.659747004509}
2019-04-03 20:23:57.80: SIM {TimeUS : 186816077, Roll : 0.0, Pitch : -18.03, Yaw : 276.16, Alt : 591.33001709, Lat : -35.3632043, Lng : 149.1645427, Q1 : 0.734909951687, Q2 : -0.104752920568, Q3 : -0.116551235318, Q4 : -0.659810602665}
2019-04-03 20:23:57.90: SIM {TimeUS : 186916037, Roll : -0.01, Pitch : -18.01, Yaw : 276.15, Alt : 591.359985352, Lat : -35.3632038, Lng : 149.1645373, Q1 : 0.734883129597, Q2 : -0.104648508132, Q3 : -0.116397999227, Q4 : -0.659884095192}
2019-04-03 20:23:58.00: SIM {TimeUS : 187015997, Roll : -0.01, Pitch : -17.99, Yaw : 276.14, Alt : 591.390014648, Lat : -35.3632032, Lng : 149.1645318, Q1 : 0.734851419926, Q2 : -0.104582302272, Q3 : -0.11622685194, Q4 : -0.659960091114}
2019-04-03 20:23:58.10: SIM {TimeUS : 187115957, Roll : -0.02, Pitch : -17.98, Yaw : 276.14, Alt : 591.41998291, Lat : -35.3632029, Lng : 149.1645265, Q1 : 0.734806478024, Q2 : -0.104598253965, Q3 : -0.116100773215, Q4 : -0.660029709339}
2019-04-03 20:23:58.20: SIM {TimeUS : 187215917, Roll : -0.02, Pitch : -17.99, Yaw : 276.13, Alt : 591.450012207, Lat : -35.3632024, Lng : 149.1645209, Q1 : 0.734747886658, Q2 : -0.104682259262, Q3 : -0.11620169878, Q4 : -0.660063922405}
2019-04-03 20:23:58.30: SIM {TimeUS : 187315877, Roll : 0.0, Pitch : -18.02, Yaw : 276.12, Alt : 591.479980469, Lat : -35.3632019, Lng : 149.1645155, Q1 : 0.734689295292, Q2 : -0.104750327766, Q3 : -0.116473458707, Q4 : -0.660070419312}
2019-04-03 20:23:58.40: SIM {TimeUS : 187415837, Roll : 0.03, Pitch : -18.06, Yaw : 276.11, Alt : 591.5, Lat : -35.3632014, Lng : 149.1645102, Q1 : 0.734646439552, Q2 : -0.10473112762, Q3 : -0.116962037981, Q4 : -0.660034775734}
2019-04-03 20:23:58.50: SIM {TimeUS : 187515797, Roll : 0.05, Pitch : -18.09, Yaw : 276.11, Alt : 591.530029297, Lat : -35.3632009, Lng : 149.1645048, Q1 : 0.734611093998, Q2 : -0.104734838009, Q3 : -0.117268510163, Q4 : -0.660019159317}
2019-04-03 20:23:58.60: SIM {TimeUS : 187615757, Roll : 0.04, Pitch : -18.08, Yaw : 276.1, Alt : 591.559997559, Lat : -35.3632005, Lng : 149.1644993, Q1 : 0.734569013119, Q2 : -0.104745462537, Q3 : -0.11718763411, Q4 : -0.660078704357}
2019-04-03 20:23:58.70: SIM {TimeUS : 187715717, Roll : 0.04, Pitch : -18.05, Yaw : 276.09, Alt : 591.590026855, Lat : -35.3632, Lng : 149.1644939, Q1 : 0.734547138214, Q2 : -0.104575410485, Q3 : -0.116954527795, Q4 : -0.66017127037}
2019-04-03 20:23:58.79: SIM {TimeUS : 187815677, Roll : 0.05, Pitch : -18.03, Yaw : 276.08, Alt : 591.619995117, Lat : -35.3631996, Lng : 149.1644885, Q1 : 0.734523296356, Q2 : -0.104405499995, Q3 : -0.116865210235, Q4 : -0.660240530968}
2019-04-03 20:23:58.90: SIM {TimeUS : 187916470, Roll : 0.06, Pitch : -18.0, Yaw : 276.07, Alt : 591.650024414, Lat : -35.363199, Lng : 149.164483, Q1 : 0.734494745731, Q2 : -0.104253254831, Q3 : -0.116743974388, Q4 : -0.660317838192}
2019-04-03 20:23:59.00: SIM {TimeUS : 188016430, Roll : 0.03, Pitch : -18.0, Yaw : 276.06, Alt : 591.679992676, Lat : -35.3631985, Lng : 149.1644776, Q1 : 0.734423995018, Q2 : -0.104360438883, Q3 : -0.116540141404, Q4 : -0.660415530205}
2019-04-03 20:23:59.10: SIM {TimeUS : 188116390, Roll : 0.01, Pitch : -18.01, Yaw : 276.05, Alt : 591.710021973, Lat : -35.3631981, Lng : 149.164472, Q1 : 0.734322011471, Q2 : -0.104647442698, Q3 : -0.116493210196, Q4 : -0.660491883755}
2019-04-03 20:23:59.20: SIM {TimeUS : 188216350, Roll : 0.0, Pitch : -18.04, Yaw : 276.04, Alt : 591.729980469, Lat : -35.3631976, Lng : 149.1644667, Q1 : 0.734229624271, Q2 : -0.104839615524, Q3 : -0.116611517966, Q4 : -0.660543203354}
2019-04-03 20:23:59.30: SIM {TimeUS : 188316310, Roll : 0.02, Pitch : -18.05, Yaw : 276.03, Alt : 591.760009766, Lat : -35.3631972, Lng : 149.1644613, Q1 : 0.734174191952, Q2 : -0.104811444879, Q3 : -0.116755574942, Q4 : -0.660583794117}
2019-04-03 20:23:59.40: SIM {TimeUS : 188416270, Roll : 0.03, Pitch : -18.07, Yaw : 276.02, Alt : 591.789978027, Lat : -35.3631966, Lng : 149.1644557, Q1 : 0.734107196331, Q2 : -0.104843854904, Q3 : -0.116956844926, Q4 : -0.660617530346}
2019-04-03 20:23:59.50: SIM {TimeUS : 188516230, Roll : 0.05, Pitch : -18.08, Yaw : 276.01, Alt : 591.820007324, Lat : -35.3631962, Lng : 149.1644504, Q1 : 0.734057784081, Q2 : -0.104798451066, Q3 : -0.117181293666, Q4 : -0.660639882088}
2019-04-03 20:23:59.60: SIM {TimeUS : 188616190, Roll : 0.07, Pitch : -18.09, Yaw : 276.0, Alt : 591.849975586, Lat : -35.3631957, Lng : 149.164445, Q1 : 0.734013795853, Q2 : -0.104720830917, Q3 : -0.117316201329, Q4 : -0.660677075386}
