2019-04-03 19:03:25.30: SIM {TimeUS : 202315708, Roll : 0.0, Pitch : 0.0, Yaw : 353.0, Alt : 584.090026855, Lat : -35.363261, Lng : 149.1652299, Q1 : 0.998134791851, Q2 : 0.0, Q3 : 0.0, Q4 : -0.0610485821962}
2019-04-03 19:03:25.40: SIM {TimeUS : 202415668, Roll : 0.0, Pitch : 0.0, Yaw : 353.0, Alt : 584.090026855, Lat : -35.363261, Lng : 149.1652299, Q1 : 0.998134791851, Q2 : 0.0, Q3 : 0.0, Q4 : -0.0610485821962}
2019-04-03 19:03:25.50: SIM {TimeUS : 202516461, Roll : 0.0, Pitch : 0.0, Yaw : 353.0, Alt : 584.090026855, Lat : -35.363261, Lng : 149.1652299, Q1 : 0.998134791851, Q2 : 0.0, Q3 : 0.0, Q4 : -0.0610485821962}
2019-04-03 19:03:25.60: SIM {TimeUS : 202616421, Roll : 0.0, Pitch : 0.0, Yaw : 353.0, Alt : 584.090026855, Lat : -35.363261, Lng : 149.1652299, Q1 : 0.998134791851, Q2 : 0.0, Q3 : 0.0, Q4 : -0.0610485821962}
2019-04-03 19:03:25.70: SIM {TimeUS : 202716381, Roll : 0.0, Pitch : 0.0, Yaw : 353.0, Alt : 584.090026855, Lat : -35.363261, Lng : 149.1652299, Q1 : 0.998134791851, Q2 : 0.0, Q3 : 0.0, Q4 : -0.0610485821962}
2019-04-03 19:03:25.80: SIM {TimeUS : 202816341, Roll : 0.0, Pitch : 0.0, Yaw : 353.0, Alt : 584.090026855, Lat : -35.363261, Lng : 149.1652299, Q1 : 0.998134791851, Q2 : 0.0, Q3 : 0.0, Q4 : -0.0610485821962}
2019-04-03 19:03:25.90: SIM {TimeUS : 202916301, Roll : 0.0, Pitch : 0.0, Yaw : 353.0, Alt : 584.090026855, Lat : -35.363261, Lng : 149.1652299, Q1 : 0.998134791851, Q2 : 0.0, Q3 : 0.0, Q4 : -0.0610485821962}
2019-04-03 19:03:26.00: SIM {TimeUS : 203016261, Roll : 0.0, Pitch : 0.0, Yaw : 353.0, Alt : 584.090026855, Lat : -35.363261, Lng : 149.1652299, Q1 : 0.998134791851, Q2 : 0.0, Q3 : 0.0, Q4 : -0.0610485821962}
2019-04-03 19:03:26.10: SIM {TimeUS : 203116221, Roll : 0.0, Pitch : 0.0, Yaw : 353.0, Alt : 584.090026855, Lat : -35.363261, Lng : 149.1652299, Q1 : 0.998134791851, Q2 : 0.0, Q3 : 0.0, Q4 : -0.0610485821962}
2019-04-03 19:03:26.20: SIM {TimeUS : 203216181, Roll : 0.0, Pitch : 0.0, Yaw : 353.0, Alt : 584.090026855, Lat : -35.363261, Lng : 149.1652299, Q1 : 0.998134791851, Q2 : 0.0, Q3 : 0.0, Q4 : -0.0610485821962}
2019-04-03 19:03:26.30: SIM {TimeUS : 203316141, Roll : 0.0, Pitch : 0.0, Yaw : 353.0, Alt : 584.090026855, Lat : -35.363261, Lng : 149.1652299, Q1 : 0.998134791851, Q2 : 0.0, Q3 : 0.0, Q4 : -0.0610485821962}
2019-04-03 19:03:26.40: SIM {TimeUS : 203416101, Roll : 0.0, Pitch : 0.0, Yaw : 353.0, Alt : 584.090026855, Lat : -35.363261, Lng : 149.1652299, Q1 : 0.998134791851, Q2 : 0.0, Q3 : 0.0, Q4 : -0.0610485821962}
2019-04-03 19:03:26.50: SIM {TimeUS : 203516061, Roll : 0.0, Pitch : 0.0, Yaw : 353.0, Alt : 584.090026855, Lat : -35.363261, Lng : 149.1652299, Q1 : 0.998134791851, Q2 : 0.0, Q3 : 0.0, Q4 : -0.0610485821962}
2019-04-03 19:03:26.60: SIM {TimeUS : 203616021, Roll : 0.0, Pitch : 0.0, Yaw : 353.0, Alt : 584.090026855, Lat : -35.363261, Lng : 149.1652299, Q1 : 0.998134791851, Q2 : 0.0, Q3 : 0.0, Q4 : -0.0610485821962}
2019-04-03 19:03:26.70: SIM {TimeUS : 203715981, Roll : 0.0, Pitch : 0.0, Yaw : 353.0, Alt : 584.090026855, Lat : -35.363261, Lng : 149.1652299, Q1 : 0.998134791851, Q2 : 0.0, Q3 : 0.0, Q4 : -0.0610485821962}
2019-04-03 19:03:26.80: SIM {TimeUS : 203815941, Roll : 0.0, Pitch : 0.0, Yaw : 353.0, Alt : 584.090026855, Lat : -35.363261, Lng : 149.1652299, Q1 : 0.998134791851, Q2 : 0.0, Q3 : 0.0, Q4 : -0.0610485821962}
2019-04-03 19:03:26.90: SIM {TimeUS : 203915901, Roll : 0.0, Pitch : 0.0, Yaw : 353.0, Alt : 584.090026855, Lat : -35.363261, Lng : 149.1652299, Q1 : 0.998134791851, Q2 : 0.0, Q3 : 0.0, Q4 : -0.0610485821962}
2019-04-03 19:03:27.00: SIM {TimeUS : 204015861, Roll : 0.0, Pitch : 0.0, Yaw : 353.0, Alt : 584.090026855, Lat : -35.363261, Lng : 149.1652299, Q1 : 0.998134791851, Q2 : 0.0, Q3 : 0.0, Q4 : -0.0610485821962}
2019-04-03 19:03:27.10: SIM {TimeUS : 204115821, Roll : 0.0, Pitch : 0.0, Yaw : 353.0, Alt : 584.090026855, Lat : -35.363261, Lng : 149.1652299, Q1 : 0.998134791851, Q2 : 0.0, Q3 : 0.0, Q4 : -0.0610485821962}
2019-04-03 19:03:27.20: SIM {TimeUS : 204215781, Roll : 0.0, Pitch : 0.0, Yaw : 353.0, Alt : 584.090026855, Lat : -35.363261, Lng : 149.1652299, Q1 : 0.998134791851, Q2 : 0.0, Q3 : 0.0, Q4 : -0.0610485821962}
2019-04-03 19:03:27.30: SIM {TimeUS : 204315741, Roll : 0.0, Pitch : 0.0, Yaw : 353.0, Alt : 584.090026855, Lat : -35.363261, Lng : 149.1652299, Q1 : 0.998134791851, Q2 : 0.0, Q3 : 0.0, Q4 : -0.0610485821962}
2019-04-03 19:03:27.40: SIM {TimeUS : 204415701, Roll : 0.0, Pitch : 0.0, Yaw : 353.0, Alt : 584.090026855, Lat : -35.363261, Lng : 149.1652299, Q1 : 0.998134791851, Q2 : 0.0, Q3 : 0.0, Q4 : -0.0610485821962}
2019-04-03 19:03:27.49: SIM {TimeUS : 204515661, Roll : 0.0, Pitch : 0.0, Yaw : 353.0, Alt : 584.090026855, Lat : -35.363261, Lng : 149.1652299, Q1 : 0.998134791851, Q2 : 0.0, Q3 : 0.0, Q4 : -0.0610485821962}
2019-04-03 19:03:27.60: SIM {TimeUS : 204616454, Roll : 0.0, Pitch : 0.0, Yaw : 353.0, Alt : 584.090026855, Lat : -35.363261, Lng : 149.1652299, Q1 : 0.998134791851, Q2 : 0.0, Q3 : 0.0, Q4 : -0.0610485821962}
2019-04-03 19:03:27.70: SIM {TimeUS : 204716414, Roll : 0.0, Pitch : 0.0, Yaw : 353.0, Alt : 584.090026855, Lat : -35.363261, Lng : 149.1652299, Q1 : 0.998134791851, Q2 : 0.0, Q3 : 0.0, Q4 : -0.0610485821962}
2019-04-03 19:03:27.80: SIM {TimeUS : 204816374, Roll : 0.0, Pitch : 0.0, Yaw : 353.0, Alt : 584.090026855, Lat : -35.363261, Lng : 149.1652299, Q1 : 0.998134791851, Q2 : 0.0, Q3 : 0.0, Q4 : -0.0610485821962}
2019-04-03 19:03:27.90: SIM {TimeUS : 204916334, Roll : 0.0, Pitch : 0.0, Yaw : 353.0, Alt : 584.090026855, Lat : -35.363261, Lng : 149.1652299, Q1 : 0.998134791851, Q2 : 0.0, Q3 : 0.0, Q4 : -0.0610485821962}
2019-04-03 19:03:28.00: SIM {TimeUS : 205016294, Roll : 0.0, Pitch : 0.0, Yaw : 353.0, Alt : 584.090026855, Lat : -35.363261, Lng : 149.1652299, Q1 : 0.998134791851, Q2 : 0.0, Q3 : 0.0, Q4 : -0.0610485821962}
2019-04-03 19:03:28.10: SIM {TimeUS : 205116254, Roll : 0.0, Pitch : 0.0, Yaw : 353.0, Alt : 584.090026855, Lat : -35.363261, Lng : 149.1652299, Q1 : 0.998134791851, Q2 : 0.0, Q3 : 0.0, Q4 : -0.0610485821962}
2019-04-03 19:03:28.20: SIM {TimeUS : 205216214, Roll : 0.0, Pitch : 0.0, Yaw : 353.0, Alt : 584.090026855, Lat : -35.363261, Lng : 149.1652299, Q1 : 0.998134791851, Q2 : 0.0, Q3 : 0.0, Q4 : -0.0610485821962}
2019-04-03 19:03:28.30: SIM {TimeUS : 205316174, Roll : 0.0, Pitch : 0.0, Yaw : 353.0, Alt : 584.090026855, Lat : -35.363261, Lng : 149.1652299, Q1 : 0.998134791851, Q2 : 0.0, Q3 : 0.0, Q4 : -0.0610485821962}
2019-04-03 19:03:28.40: SIM {TimeUS : 205416134, Roll : 0.0, Pitch : 0.0, Yaw : 353.0, Alt : 584.090026855, Lat : -35.363261, Lng : 149.1652299, Q1 : 0.998134791851, Q2 : 0.0, Q3 : 0.0, Q4 : -0.0610485821962}
2019-04-03 19:03:28.50: SIM {TimeUS : 205516094, Roll : 0.0, Pitch : 0.0, Yaw : 353.0, Alt : 584.090026855, Lat : -35.363261, Lng : 149.1652299, Q1 : 0.998134791851, Q2 : 0.0, Q3 : 0.0, Q4 : -0.0610485821962}
2019-04-03 19:03:28.60: SIM {TimeUS : 205616054, Roll : 0.0, Pitch : 0.0, Yaw : 353.0, Alt : 584.090026855, Lat : -35.363261, Lng : 149.1652299, Q1 : 0.998134791851, Q2 : 0.0, Q3 : 0.0, Q4 : -0.0610485821962}
2019-04-03 19:03:28.70: SIM {TimeUS : 205716014, Roll : 0.0, Pitch : 0.0, Yaw : 353.0, Alt : 584.090026855, Lat : -35.363261, Lng : 149.1652299, Q1 : 0.998134791851, Q2 : 0.0, Q3 : 0.0, Q4 : -0.0610485821962}
2019-04-03 19:03:28.80: SIM {TimeUS : 205815974, Roll : 0.0, Pitch : 0.0, Yaw : 353.0, Alt : 584.090026855, Lat : -35.363261, Lng : 149.1652299, Q1 : 0.998134791851, Q2 : 0.0, Q3 : 0.0, Q4 : -0.0610485821962}
2019-04-03 19:03:28.90: SIM {TimeUS : 205915934, Roll : 0.0, Pitch : 0.0, Yaw : 353.0, Alt : 584.090026855, Lat : -35.363261, Lng : 149.1652299, Q1 : 0.998134791851, Q2 : 0.0, Q3 : 0.0, Q4 : -0.0610485821962}
2019-04-03 19:03:29.00: SIM {TimeUS : 206015894, Roll : 0.0, Pitch : 0.0, Yaw : 353.0, Alt : 584.090026855, Lat : -35.363261, Lng : 149.1652299, Q1 : 0.998134791851, Q2 : 0.0, Q3 : 0.0, Q4 : -0.0610485821962}
2019-04-03 19:03:29.10: SIM {TimeUS : 206115854, Roll : 0.0, Pitch : 0.0, Yaw : 353.0, Alt : 584.090026855, Lat : -35.363261, Lng : 149.1652299, Q1 : 0.998134791851, Q2 : 0.0, Q3 : 0.0, Q4 : -0.0610485821962}
2019-04-03 19:03:29.20: SIM {TimeUS : 206215814, Roll : 0.0, Pitch : 0.0, Yaw : 353.0, Alt : 584.090026855, Lat : -35.363261, Lng : 149.1652299, Q1 : 0.998134791851, Q2 : 0.0, Q3 : 0.0, Q4 : -0.0610485821962}
2019-04-03 19:03:29.30: SIM {TimeUS : 206315774, Roll : 0.0, Pitch : 0.0, Yaw : 353.0, Alt : 584.090026855, Lat : -35.363261, Lng : 149.1652299, Q1 : 0.998134791851, Q2 : 0.0, Q3 : 0.0, Q4 : -0.0610485821962}
2019-04-03 19:03:29.40: SIM {TimeUS : 206415734, Roll : 0.0, Pitch : 0.0, Yaw : 353.0, Alt : 584.090026855, Lat : -35.363261, Lng : 149.1652299, Q1 : 0.998134791851, Q2 : 0.0, Q3 : 0.0, Q4 : -0.0610485821962}
2019-04-03 19:03:29.50: SIM {TimeUS : 206515694, Roll : 0.0, Pitch : 0.0, Yaw : 353.0, Alt : 584.090026855, Lat : -35.363261, Lng : 149.1652299, Q1 : 0.998134791851, Q2 : 0.0, Q3 : 0.0, Q4 : -0.0610485821962}
2019-04-03 19:03:29.60: SIM {TimeUS : 206616487, Roll : 0.0, Pitch : 0.0, Yaw : 353.0, Alt : 584.090026855, Lat : -35.363261, Lng : 149.1652299, Q1 : 0.998134791851, Q2 : 0.0, Q3 : 0.0, Q4 : -0.0610485821962}
2019-04-03 19:03:29.70: SIM {TimeUS : 206716447, Roll : 0.0, Pitch : 0.0, Yaw : 353.0, Alt : 584.090026855, Lat : -35.363261, Lng : 149.1652299, Q1 : 0.998134791851, Q2 : 0.0, Q3 : 0.0, Q4 : -0.0610485821962}
2019-04-03 19:03:29.80: SIM {TimeUS : 206816407, Roll : 0.0, Pitch : 0.0, Yaw : 353.0, Alt : 584.090026855, Lat : -35.363261, Lng : 149.1652299, Q1 : 0.998134791851, Q2 : 0.0, Q3 : 0.0, Q4 : -0.0610485821962}
2019-04-03 19:03:29.90: SIM {TimeUS : 206916367, Roll : 0.0, Pitch : 0.0, Yaw : 353.0, Alt : 584.090026855, Lat : -35.363261, Lng : 149.1652299, Q1 : 0.998134791851, Q2 : 0.0, Q3 : 0.0, Q4 : -0.0610485821962}
2019-04-03 19:03:30.00: SIM {TimeUS : 207016327, Roll : 0.0, Pitch : 0.0, Yaw : 353.0, Alt : 584.090026855, Lat : -35.363261, Lng : 149.1652299, Q1 : 0.998134791851, Q2 : 0.0, Q3 : 0.0, Q4 : -0.0610485821962}
2019-04-03 19:03:30.10: SIM {TimeUS : 207116287, Roll : 0.0, Pitch : 0.0, Yaw : 353.0, Alt : 584.090026855, Lat : -35.363261, Lng : 149.1652299, Q1 : 0.998134791851, Q2 : 0.0, Q3 : 0.0, Q4 : -0.0610485821962}
2019-04-03 19:03:30.20: SIM {TimeUS : 207216247, Roll : 0.0, Pitch : 0.0, Yaw : 353.0, Alt : 584.090026855, Lat : -35.363261, Lng : 149.1652299, Q1 : 0.998134791851, Q2 : 0.0, Q3 : 0.0, Q4 : -0.0610485821962}
2019-04-03 19:03:30.30: SIM {TimeUS : 207316207, Roll : 0.0, Pitch : 0.0, Yaw : 353.0, Alt : 584.090026855, Lat : -35.363261, Lng : 149.1652299, Q1 : 0.998134791851, Q2 : 0.0, Q3 : 0.0, Q4 : -0.0610485821962}
2019-04-03 19:03:30.40: SIM {TimeUS : 207416167, Roll : 0.0, Pitch : 0.0, Yaw : 353.0, Alt : 584.090026855, Lat : -35.363261, Lng : 149.1652299, Q1 : 0.998134791851, Q2 : 0.0, Q3 : 0.0, Q4 : -0.0610485821962}
2019-04-03 19:03:30.50: SIM {TimeUS : 207516127, Roll : 0.0, Pitch : 0.0, Yaw : 353.0, Alt : 584.090026855, Lat : -35.363261, Lng : 149.1652299, Q1 : 0.998134791851, Q2 : 0.0, Q3 : 0.0, Q4 : -0.0610485821962}
2019-04-03 19:03:30.60: SIM {TimeUS : 207616087, Roll : 0.0, Pitch : 0.0, Yaw : 353.0, Alt : 584.090026855, Lat : -35.363261, Lng : 149.1652299, Q1 : 0.998134791851, Q2 : 0.0, Q3 : 0.0, Q4 : -0.0610485821962}
2019-04-03 19:03:30.70: SIM {TimeUS : 207716047, Roll : 0.0, Pitch : 0.0, Yaw : 353.0, Alt : 584.090026855, Lat : -35.363261, Lng : 149.1652299, Q1 : 0.998134791851, Q2 : 0.0, Q3 : 0.0, Q4 : -0.0610485821962}
2019-04-03 19:03:30.80: SIM {TimeUS : 207816007, Roll : 0.0, Pitch : 0.0, Yaw : 353.0, Alt : 584.090026855, Lat : -35.363261, Lng : 149.1652299, Q1 : 0.998134791851, Q2 : 0.0, Q3 : 0.0, Q4 : -0.0610485821962}
2019-04-03 19:03:30.90: SIM {TimeUS : 207915967, Roll : 0.0, Pitch : 0.0, Yaw : 353.0, Alt : 584.090026855, Lat : -35.363261, Lng : 149.1652299, Q1 : 0.998134791851, Q2 : 0.0, Q3 : 0.0, Q4 : -0.0610485821962}
2019-04-03 19:03:31.00: SIM {TimeUS : 208015927, Roll : 0.0, Pitch : 0.0, Yaw : 353.0, Alt : 584.090026855, Lat : -35.363261, Lng : 149.1652299, Q1 : 0.998134791851, Q2 : 0.0, Q3 : 0.0, Q4 : -0.0610485821962}
2019-04-03 19:03:31.10: SIM {TimeUS : 208115887, Roll : 0.0, Pitch : 0.0, Yaw : 353.0, Alt : 584.090026855, Lat : -35.363261, Lng : 149.1652299, Q1 : 0.998134791851, Q2 : 0.0, Q3 : 0.0, Q4 : -0.0610485821962}
2019-04-03 19:03:31.20: SIM {TimeUS : 208215847, Roll : 0.0, Pitch : 0.0, Yaw : 353.0, Alt : 584.090026855, Lat : -35.363261, Lng : 149.1652299, Q1 : 0.998134791851, Q2 : 0.0, Q3 : 0.0, Q4 : -0.0610485821962}
2019-04-03 19:03:31.30: SIM {TimeUS : 208315807, Roll : 0.0, Pitch : 0.0, Yaw : 353.0, Alt : 584.090026855, Lat : -35.363261, Lng : 149.1652299, Q1 : 0.998134791851, Q2 : 0.0, Q3 : 0.0, Q4 : -0.0610485821962}
2019-04-03 19:03:31.40: SIM {TimeUS : 208415767, Roll : 0.0, Pitch : 0.0, Yaw : 353.0, Alt : 584.090026855, Lat : -35.363261, Lng : 149.1652299, Q1 : 0.998134791851, Q2 : 0.0, Q3 : 0.0, Q4 : -0.0610485821962}
2019-04-03 19:03:31.50: SIM {TimeUS : 208515727, Roll : 0.0, Pitch : 0.0, Yaw : 353.0, Alt : 584.090026855, Lat : -35.363261, Lng : 149.1652299, Q1 : 0.998134791851, Q2 : 0.0, Q3 : 0.0, Q4 : -0.0610485821962}
2019-04-03 19:03:31.60: SIM {TimeUS : 208615687, Roll : 0.0, Pitch : 0.0, Yaw : 353.0, Alt : 584.090026855, Lat : -35.363261, Lng : 149.1652299, Q1 : 0.998134791851, Q2 : 0.0, Q3 : 0.0, Q4 : -0.0610485821962}
2019-04-03 19:03:31.70: SIM {TimeUS : 208716480, Roll : 0.0, Pitch : 0.0, Yaw : 353.0, Alt : 584.090026855, Lat : -35.363261, Lng : 149.1652299, Q1 : 0.998134791851, Q2 : 0.0, Q3 : 0.0, Q4 : -0.0610485821962}
2019-04-03 19:03:31.80: SIM {TimeUS : 208816440, Roll : 0.0, Pitch : 0.0, Yaw : 353.0, Alt : 584.090026855, Lat : -35.363261, Lng : 149.1652299, Q1 : 0.998134791851, Q2 : 0.0, Q3 : 0.0, Q4 : -0.0610485821962}
2019-04-03 19:03:31.90: SIM {TimeUS : 208916400, Roll : 0.0, Pitch : 0.0, Yaw : 353.0, Alt : 584.090026855, Lat : -35.363261, Lng : 149.1652299, Q1 : 0.998134791851, Q2 : 0.0, Q3 : 0.0, Q4 : -0.0610485821962}
2019-04-03 19:03:32.00: SIM {TimeUS : 209016360, Roll : 0.0, Pitch : 0.0, Yaw : 353.0, Alt : 584.090026855, Lat : -35.363261, Lng : 149.1652299, Q1 : 0.998134791851, Q2 : 0.0, Q3 : 0.0, Q4 : -0.0610485821962}
2019-04-03 19:03:32.10: SIM {TimeUS : 209116320, Roll : 0.0, Pitch : 0.0, Yaw : 353.0, Alt : 584.090026855, Lat : -35.363261, Lng : 149.1652299, Q1 : 0.998134791851, Q2 : 0.0, Q3 : 0.0, Q4 : -0.0610485821962}
2019-04-03 19:03:32.20: SIM {TimeUS : 209216280, Roll : 0.0, Pitch : 0.0, Yaw : 353.0, Alt : 584.090026855, Lat : -35.363261, Lng : 149.1652299, Q1 : 0.998134791851, Q2 : 0.0, Q3 : 0.0, Q4 : -0.0610485821962}
2019-04-03 19:03:32.30: SIM {TimeUS : 209316240, Roll : 0.0, Pitch : 0.0, Yaw : 353.0, Alt : 584.090026855, Lat : -35.363261, Lng : 149.1652299, Q1 : 0.998134791851, Q2 : 0.0, Q3 : 0.0, Q4 : -0.0610485821962}
2019-04-03 19:03:32.40: SIM {TimeUS : 209416200, Roll : 0.0, Pitch : 0.0, Yaw : 353.0, Alt : 584.090026855, Lat : -35.363261, Lng : 149.1652299, Q1 : 0.998134791851, Q2 : 0.0, Q3 : 0.0, Q4 : -0.0610485821962}
2019-04-03 19:03:32.50: SIM {TimeUS : 209516160, Roll : 0.0, Pitch : 0.0, Yaw : 353.0, Alt : 584.090026855, Lat : -35.363261, Lng : 149.1652299, Q1 : 0.998134791851, Q2 : 0.0, Q3 : 0.0, Q4 : -0.0610485821962}
2019-04-03 19:03:32.60: SIM {TimeUS : 209616120, Roll : 0.0, Pitch : 0.0, Yaw : 353.0, Alt : 584.090026855, Lat : -35.363261, Lng : 149.1652299, Q1 : 0.998134791851, Q2 : 0.0, Q3 : 0.0, Q4 : -0.0610485821962}
2019-04-03 19:03:32.70: SIM {TimeUS : 209716080, Roll : 0.0, Pitch : 0.0, Yaw : 353.0, Alt : 584.090026855, Lat : -35.363261, Lng : 149.1652299, Q1 : 0.998134791851, Q2 : 0.0, Q3 : 0.0, Q4 : -0.0610485821962}
2019-04-03 19:03:32.80: SIM {TimeUS : 209816040, Roll : 0.0, Pitch : 0.0, Yaw : 353.0, Alt : 584.090026855, Lat : -35.363261, Lng : 149.1652299, Q1 : 0.998134791851, Q2 : 0.0, Q3 : 0.0, Q4 : -0.0610485821962}
2019-04-03 19:03:32.90: SIM {TimeUS : 209916000, Roll : 0.0, Pitch : 0.0, Yaw : 353.0, Alt : 584.090026855, Lat : -35.363261, Lng : 149.1652299, Q1 : 0.998134791851, Q2 : 0.0, Q3 : 0.0, Q4 : -0.0610485821962}
2019-04-03 19:03:33.00: SIM {TimeUS : 210015960, Roll : 0.0, Pitch : 0.0, Yaw : 353.0, Alt : 584.090026855, Lat : -35.363261, Lng : 149.1652299, Q1 : 0.998134791851, Q2 : 0.0, Q3 : 0.0, Q4 : -0.0610485821962}
2019-04-03 19:03:33.10: SIM {TimeUS : 210115920, Roll : 0.0, Pitch : 0.0, Yaw : 353.0, Alt : 584.090026855, Lat : -35.363261, Lng : 149.1652299, Q1 : 0.998134791851, Q2 : 0.0, Q3 : 0.0, Q4 : -0.0610485821962}
2019-04-03 19:03:33.20: SIM {TimeUS : 210215880, Roll : 0.0, Pitch : 0.0, Yaw : 353.0, Alt : 584.090026855, Lat : -35.363261, Lng : 149.1652299, Q1 : 0.998134791851, Q2 : 0.0, Q3 : 0.0, Q4 : -0.0610485821962}
2019-04-03 19:03:33.30: SIM {TimeUS : 210315840, Roll : 0.0, Pitch : 0.0, Yaw : 353.0, Alt : 584.090026855, Lat : -35.363261, Lng : 149.1652299, Q1 : 0.998134791851, Q2 : 0.0, Q3 : 0.0, Q4 : -0.0610485821962}
2019-04-03 19:03:33.40: SIM {TimeUS : 210415800, Roll : 0.0, Pitch : 0.0, Yaw : 353.0, Alt : 584.090026855, Lat : -35.363261, Lng : 149.1652299, Q1 : 0.998134791851, Q2 : 0.0, Q3 : 0.0, Q4 : -0.0610485821962}
2019-04-03 19:03:33.50: SIM {TimeUS : 210515760, Roll : 0.0, Pitch : 0.0, Yaw : 353.0, Alt : 584.090026855, Lat : -35.363261, Lng : 149.1652299, Q1 : 0.998134791851, Q2 : 0.0, Q3 : 0.0, Q4 : -0.0610485821962}
2019-04-03 19:03:33.60: SIM {TimeUS : 210615720, Roll : 0.0, Pitch : 0.0, Yaw : 353.0, Alt : 584.090026855, Lat : -35.363261, Lng : 149.1652299, Q1 : 0.998134791851, Q2 : 0.0, Q3 : 0.0, Q4 : -0.0610485821962}
2019-04-03 19:03:33.70: SIM {TimeUS : 210715680, Roll : 0.0, Pitch : 0.0, Yaw : 353.0, Alt : 584.090026855, Lat : -35.363261, Lng : 149.1652299, Q1 : 0.998134791851, Q2 : 0.0, Q3 : 0.0, Q4 : -0.0610485821962}
2019-04-03 19:03:33.80: SIM {TimeUS : 210816473, Roll : 0.0, Pitch : 0.0, Yaw : 353.0, Alt : 584.090026855, Lat : -35.363261, Lng : 149.1652299, Q1 : 0.998134791851, Q2 : 0.0, Q3 : 0.0, Q4 : -0.0610485821962}
2019-04-03 19:03:33.90: SIM {TimeUS : 210916433, Roll : 0.0, Pitch : 0.0, Yaw : 353.0, Alt : 584.090026855, Lat : -35.363261, Lng : 149.1652299, Q1 : 0.998134791851, Q2 : 0.0, Q3 : 0.0, Q4 : -0.0610485821962}
2019-04-03 19:03:34.00: SIM {TimeUS : 211016393, Roll : 0.0, Pitch : 0.0, Yaw : 353.0, Alt : 584.090026855, Lat : -35.363261, Lng : 149.1652299, Q1 : 0.998134791851, Q2 : 0.0, Q3 : 0.0, Q4 : -0.0610485821962}
2019-04-03 19:03:34.10: SIM {TimeUS : 211116353, Roll : 0.0, Pitch : 0.0, Yaw : 353.0, Alt : 584.090026855, Lat : -35.363261, Lng : 149.1652299, Q1 : 0.998134791851, Q2 : 0.0, Q3 : 0.0, Q4 : -0.0610485821962}
2019-04-03 19:03:34.20: SIM {TimeUS : 211216313, Roll : 0.0, Pitch : 0.0, Yaw : 353.0, Alt : 584.090026855, Lat : -35.363261, Lng : 149.1652299, Q1 : 0.998134791851, Q2 : 0.0, Q3 : 0.0, Q4 : -0.0610485821962}
2019-04-03 19:03:34.30: SIM {TimeUS : 211316273, Roll : 0.0, Pitch : 0.0, Yaw : 353.0, Alt : 584.090026855, Lat : -35.363261, Lng : 149.1652299, Q1 : 0.998134791851, Q2 : 0.0, Q3 : 0.0, Q4 : -0.0610485821962}
2019-04-03 19:03:34.40: SIM {TimeUS : 211416233, Roll : 0.0, Pitch : 0.0, Yaw : 353.0, Alt : 584.090026855, Lat : -35.363261, Lng : 149.1652299, Q1 : 0.998134791851, Q2 : 0.0, Q3 : 0.0, Q4 : -0.0610485821962}
2019-04-03 19:03:34.50: SIM {TimeUS : 211516193, Roll : 0.0, Pitch : 0.0, Yaw : 353.0, Alt : 584.090026855, Lat : -35.363261, Lng : 149.1652299, Q1 : 0.998134791851, Q2 : 0.0, Q3 : 0.0, Q4 : -0.0610485821962}
2019-04-03 19:03:34.60: SIM {TimeUS : 211616153, Roll : 0.0, Pitch : 0.0, Yaw : 353.0, Alt : 584.090026855, Lat : -35.363261, Lng : 149.1652299, Q1 : 0.998134791851, Q2 : 0.0, Q3 : 0.0, Q4 : -0.0610485821962}
2019-04-03 19:03:34.70: SIM {TimeUS : 211716113, Roll : 0.0, Pitch : 0.0, Yaw : 353.0, Alt : 584.090026855, Lat : -35.363261, Lng : 149.1652299, Q1 : 0.998134791851, Q2 : 0.0, Q3 : 0.0, Q4 : -0.0610485821962}
2019-04-03 19:03:34.80: SIM {TimeUS : 211816073, Roll : 0.0, Pitch : 0.0, Yaw : 353.0, Alt : 584.090026855, Lat : -35.363261, Lng : 149.1652299, Q1 : 0.998134791851, Q2 : 0.0, Q3 : 0.0, Q4 : -0.0610485821962}
2019-04-03 19:03:34.90: SIM {TimeUS : 211916033, Roll : 0.0, Pitch : 0.0, Yaw : 353.0, Alt : 584.090026855, Lat : -35.363261, Lng : 149.1652299, Q1 : 0.998134791851, Q2 : 0.0, Q3 : 0.0, Q4 : -0.0610485821962}
2019-04-03 19:03:35.00: SIM {TimeUS : 212015993, Roll : 0.0, Pitch : 0.0, Yaw : 353.0, Alt : 584.090026855, Lat : -35.363261, Lng : 149.1652299, Q1 : 0.998134791851, Q2 : 0.0, Q3 : 0.0, Q4 : -0.0610485821962}
2019-04-03 19:03:35.10: SIM {TimeUS : 212115953, Roll : 0.0, Pitch : 0.0, Yaw : 353.0, Alt : 584.090026855, Lat : -35.363261, Lng : 149.1652299, Q1 : 0.998134791851, Q2 : 0.0, Q3 : 0.0, Q4 : -0.0610485821962}
2019-04-03 19:04:03.30: SIM {TimeUS : 240316335, Roll : 0.0, Pitch : 0.0, Yaw : 353.0, Alt : 584.090026855, Lat : -35.363261, Lng : 149.1652299, Q1 : 0.998134791851, Q2 : 0.0, Q3 : 0.0, Q4 : -0.0610485821962}
2019-04-03 19:04:03.40: SIM {TimeUS : 240416295, Roll : 0.0, Pitch : 0.0, Yaw : 353.0, Alt : 584.090026855, Lat : -35.363261, Lng : 149.1652299, Q1 : 0.998134791851, Q2 : 0.0, Q3 : 0.0, Q4 : -0.0610485821962}
2019-04-03 19:04:03.50: SIM {TimeUS : 240516255, Roll : 0.0, Pitch : 0.0, Yaw : 353.0, Alt : 584.090026855, Lat : -35.363261, Lng : 149.1652299, Q1 : 0.998134791851, Q2 : 0.0, Q3 : 0.0, Q4 : -0.0610485821962}
2019-04-03 19:04:03.60: SIM {TimeUS : 240616215, Roll : 0.0, Pitch : 0.0, Yaw : 353.0, Alt : 584.090026855, Lat : -35.363261, Lng : 149.1652299, Q1 : 0.998134791851, Q2 : 0.0, Q3 : 0.0, Q4 : -0.0610485821962}
2019-04-03 19:04:03.70: SIM {TimeUS : 240716175, Roll : 0.0, Pitch : 0.0, Yaw : 353.0, Alt : 584.090026855, Lat : -35.363261, Lng : 149.1652299, Q1 : 0.998134791851, Q2 : 0.0, Q3 : 0.0, Q4 : -0.0610485821962}
2019-04-03 19:04:03.80: SIM {TimeUS : 240816135, Roll : 0.0, Pitch : 0.0, Yaw : 353.0, Alt : 584.090026855, Lat : -35.363261, Lng : 149.1652299, Q1 : 0.998134791851, Q2 : 0.0, Q3 : 0.0, Q4 : -0.0610485821962}
2019-04-03 19:04:03.90: SIM {TimeUS : 240916095, Roll : 0.0, Pitch : 0.0, Yaw : 353.0, Alt : 584.090026855, Lat : -35.363261, Lng : 149.1652299, Q1 : 0.998134791851, Q2 : 0.0, Q3 : 0.0, Q4 : -0.0610485821962}
2019-04-03 19:04:04.00: SIM {TimeUS : 241016055, Roll : 0.0, Pitch : 0.0, Yaw : 353.0, Alt : 584.090026855, Lat : -35.363261, Lng : 149.1652299, Q1 : 0.998134791851, Q2 : 0.0, Q3 : 0.0, Q4 : -0.0610485821962}
2019-04-03 19:04:04.10: SIM {TimeUS : 241116015, Roll : 0.0, Pitch : 0.0, Yaw : 353.0, Alt : 584.090026855, Lat : -35.363261, Lng : 149.1652299, Q1 : 0.998134791851, Q2 : 0.0, Q3 : 0.0, Q4 : -0.0610485821962}
2019-04-03 19:04:04.20: SIM {TimeUS : 241215975, Roll : 0.0, Pitch : 0.0, Yaw : 353.0, Alt : 584.090026855, Lat : -35.363261, Lng : 149.1652299, Q1 : 0.998134791851, Q2 : 0.0, Q3 : 0.0, Q4 : -0.0610485821962}
2019-04-03 19:04:04.30: SIM {TimeUS : 241315935, Roll : 0.0, Pitch : 0.0, Yaw : 353.0, Alt : 584.090026855, Lat : -35.363261, Lng : 149.1652299, Q1 : 0.998134791851, Q2 : 0.0, Q3 : 0.0, Q4 : -0.0610485821962}
2019-04-03 19:04:04.40: SIM {TimeUS : 241415895, Roll : 0.0, Pitch : 0.0, Yaw : 353.0, Alt : 584.090026855, Lat : -35.363261, Lng : 149.1652299, Q1 : 0.998134791851, Q2 : 0.0, Q3 : 0.0, Q4 : -0.0610485821962}
2019-04-03 19:04:04.50: SIM {TimeUS : 241515855, Roll : 0.0, Pitch : 0.0, Yaw : 353.0, Alt : 584.090026855, Lat : -35.363261, Lng : 149.1652299, Q1 : 0.998134791851, Q2 : 0.0, Q3 : 0.0, Q4 : -0.0610485821962}
2019-04-03 19:04:04.60: SIM {TimeUS : 241615815, Roll : 0.0, Pitch : 0.0, Yaw : 353.0, Alt : 584.090026855, Lat : -35.363261, Lng : 149.1652299, Q1 : 0.998134791851, Q2 : 0.0, Q3 : 0.0, Q4 : -0.0610485821962}
2019-04-03 19:04:04.70: SIM {TimeUS : 241715775, Roll : 0.0, Pitch : 0.0, Yaw : 353.0, Alt : 584.090026855, Lat : -35.363261, Lng : 149.1652299, Q1 : 0.998134791851, Q2 : 0.0, Q3 : 0.0, Q4 : -0.0610485821962}
2019-04-03 19:04:04.80: SIM {TimeUS : 241815735, Roll : 0.0, Pitch : 0.0, Yaw : 353.0, Alt : 584.090026855, Lat : -35.363261, Lng : 149.1652299, Q1 : 0.998134791851, Q2 : 0.0, Q3 : 0.0, Q4 : -0.0610485821962}
2019-04-03 19:04:04.90: SIM {TimeUS : 241915695, Roll : 0.0, Pitch : 0.0, Yaw : 353.0, Alt : 584.090026855, Lat : -35.363261, Lng : 149.1652299, Q1 : 0.998134791851, Q2 : 0.0, Q3 : 0.0, Q4 : -0.0610485821962}
2019-04-03 19:04:05.00: SIM {TimeUS : 242016488, Roll : 0.0, Pitch : 0.0, Yaw : 353.0, Alt : 584.090026855, Lat : -35.363261, Lng : 149.1652299, Q1 : 0.998134791851, Q2 : 0.0, Q3 : 0.0, Q4 : -0.0610485821962}
2019-04-03 19:04:05.10: SIM {TimeUS : 242116448, Roll : 0.0, Pitch : 0.0, Yaw : 353.0, Alt : 584.090026855, Lat : -35.363261, Lng : 149.1652299, Q1 : 0.998134791851, Q2 : 0.0, Q3 : 0.0, Q4 : -0.0610485821962}
2019-04-03 19:04:05.20: SIM {TimeUS : 242216408, Roll : 0.0, Pitch : 0.0, Yaw : 353.0, Alt : 584.090026855, Lat : -35.363261, Lng : 149.1652299, Q1 : 0.998134791851, Q2 : 0.0, Q3 : 0.0, Q4 : -0.0610485821962}
2019-04-03 19:04:05.30: SIM {TimeUS : 242316368, Roll : 0.0, Pitch : 0.0, Yaw : 353.0, Alt : 584.090026855, Lat : -35.363261, Lng : 149.1652299, Q1 : 0.998134791851, Q2 : 0.0, Q3 : 0.0, Q4 : -0.0610485821962}
2019-04-03 19:04:05.40: SIM {TimeUS : 242416328, Roll : 0.0, Pitch : 0.0, Yaw : 353.0, Alt : 584.090026855, Lat : -35.363261, Lng : 149.1652299, Q1 : 0.998134791851, Q2 : 0.0, Q3 : 0.0, Q4 : -0.0610485821962}
2019-04-03 19:04:05.50: SIM {TimeUS : 242516288, Roll : 0.0, Pitch : 0.0, Yaw : 353.0, Alt : 584.090026855, Lat : -35.363261, Lng : 149.1652299, Q1 : 0.998134791851, Q2 : 0.0, Q3 : 0.0, Q4 : -0.0610485821962}
2019-04-03 19:04:05.60: SIM {TimeUS : 242616248, Roll : 0.0, Pitch : 0.0, Yaw : 353.0, Alt : 584.090026855, Lat : -35.363261, Lng : 149.1652299, Q1 : 0.998134791851, Q2 : 0.0, Q3 : 0.0, Q4 : -0.0610485821962}
2019-04-03 19:04:05.70: SIM {TimeUS : 242716208, Roll : 0.0, Pitch : 0.0, Yaw : 353.0, Alt : 584.090026855, Lat : -35.363261, Lng : 149.1652299, Q1 : 0.998134791851, Q2 : 0.0, Q3 : 0.0, Q4 : -0.0610485821962}
2019-04-03 19:04:05.80: SIM {TimeUS : 242816168, Roll : 0.0, Pitch : 0.0, Yaw : 353.0, Alt : 584.090026855, Lat : -35.363261, Lng : 149.1652299, Q1 : 0.998134791851, Q2 : 0.0, Q3 : 0.0, Q4 : -0.0610485821962}
2019-04-03 19:04:05.90: SIM {TimeUS : 242916128, Roll : 0.0, Pitch : 0.0, Yaw : 353.0, Alt : 584.090026855, Lat : -35.363261, Lng : 149.1652299, Q1 : 0.998134791851, Q2 : 0.0, Q3 : 0.0, Q4 : -0.0610485821962}
2019-04-03 19:04:06.00: SIM {TimeUS : 243016088, Roll : 0.0, Pitch : 0.0, Yaw : 353.0, Alt : 584.090026855, Lat : -35.363261, Lng : 149.1652299, Q1 : 0.998134791851, Q2 : 0.0, Q3 : 0.0, Q4 : -0.0610485821962}
2019-04-03 19:04:06.10: SIM {TimeUS : 243116048, Roll : 0.0, Pitch : 0.0, Yaw : 353.0, Alt : 584.090026855, Lat : -35.363261, Lng : 149.1652299, Q1 : 0.998134791851, Q2 : 0.0, Q3 : 0.0, Q4 : -0.0610485821962}
2019-04-03 19:04:06.20: SIM {TimeUS : 243216008, Roll : 0.0, Pitch : 0.0, Yaw : 353.0, Alt : 584.090026855, Lat : -35.363261, Lng : 149.1652299, Q1 : 0.998134791851, Q2 : 0.0, Q3 : 0.0, Q4 : -0.0610485821962}
2019-04-03 19:04:06.30: SIM {TimeUS : 243315968, Roll : 0.0, Pitch : 0.0, Yaw : 353.0, Alt : 584.090026855, Lat : -35.363261, Lng : 149.1652299, Q1 : 0.998134791851, Q2 : 0.0, Q3 : 0.0, Q4 : -0.0610485821962}
2019-04-03 19:04:06.40: SIM {TimeUS : 243415928, Roll : 0.0, Pitch : 0.0, Yaw : 353.0, Alt : 584.090026855, Lat : -35.363261, Lng : 149.1652299, Q1 : 0.998134791851, Q2 : 0.0, Q3 : 0.0, Q4 : -0.0610485821962}
2019-04-03 19:04:06.50: SIM {TimeUS : 243515888, Roll : 0.0, Pitch : 0.0, Yaw : 353.0, Alt : 584.090026855, Lat : -35.363261, Lng : 149.1652299, Q1 : 0.998134791851, Q2 : 0.0, Q3 : 0.0, Q4 : -0.0610485821962}
2019-04-03 19:04:06.60: SIM {TimeUS : 243615848, Roll : 0.0, Pitch : 0.0, Yaw : 353.0, Alt : 584.090026855, Lat : -35.363261, Lng : 149.1652299, Q1 : 0.998134791851, Q2 : 0.0, Q3 : 0.0, Q4 : -0.0610485821962}
2019-04-03 19:04:06.70: SIM {TimeUS : 243715808, Roll : 0.0, Pitch : 0.0, Yaw : 353.0, Alt : 584.090026855, Lat : -35.363261, Lng : 149.1652299, Q1 : 0.998134791851, Q2 : 0.0, Q3 : 0.0, Q4 : -0.0610485821962}
2019-04-03 19:04:06.80: SIM {TimeUS : 243815768, Roll : 0.0, Pitch : 0.0, Yaw : 353.0, Alt : 584.090026855, Lat : -35.363261, Lng : 149.1652299, Q1 : 0.998134791851, Q2 : 0.0, Q3 : 0.0, Q4 : -0.0610485821962}
2019-04-03 19:04:06.90: SIM {TimeUS : 243915728, Roll : 0.0, Pitch : 0.0, Yaw : 353.0, Alt : 584.090026855, Lat : -35.363261, Lng : 149.1652299, Q1 : 0.998134791851, Q2 : 0.0, Q3 : 0.0, Q4 : -0.0610485821962}
2019-04-03 19:04:07.00: SIM {TimeUS : 244015688, Roll : 0.0, Pitch : 0.0, Yaw : 353.0, Alt : 584.090026855, Lat : -35.363261, Lng : 149.1652299, Q1 : 0.998134791851, Q2 : 0.0, Q3 : 0.0, Q4 : -0.061048604548}
2019-04-03 19:04:07.10: SIM {TimeUS : 244116481, Roll : 0.0, Pitch : 0.0, Yaw : 353.0, Alt : 584.090026855, Lat : -35.363261, Lng : 149.1652299, Q1 : 0.998134791851, Q2 : 0.0, Q3 : 0.0, Q4 : -0.0610486753285}
2019-04-03 19:04:07.20: SIM {TimeUS : 244216441, Roll : 0.0, Pitch : 0.0, Yaw : 353.0, Alt : 584.090026855, Lat : -35.363261, Lng : 149.1652299, Q1 : 0.998134791851, Q2 : 0.0, Q3 : 0.0, Q4 : -0.0610486753285}
2019-04-03 19:04:07.30: SIM {TimeUS : 244316401, Roll : 0.0, Pitch : 0.0, Yaw : 353.0, Alt : 584.090026855, Lat : -35.363261, Lng : 149.1652299, Q1 : 0.998134791851, Q2 : 0.0, Q3 : 0.0, Q4 : -0.0610486753285}
2019-04-03 19:04:07.40: SIM {TimeUS : 244416361, Roll : 0.0, Pitch : 0.0, Yaw : 353.0, Alt : 584.090026855, Lat : -35.363261, Lng : 149.1652299, Q1 : 0.998134791851, Q2 : 0.0, Q3 : 0.0, Q4 : -0.0610486790538}
2019-04-03 19:04:07.50: SIM {TimeUS : 244516321, Roll : 0.0, Pitch : 0.0, Yaw : 353.0, Alt : 584.090026855, Lat : -35.363261, Lng : 149.1652299, Q1 : 0.998134791851, Q2 : 0.0, Q3 : 0.0, Q4 : -0.0610486790538}
2019-04-03 19:04:07.60: SIM {TimeUS : 244616281, Roll : 0.0, Pitch : 0.0, Yaw : 353.0, Alt : 584.090026855, Lat : -35.363261, Lng : 149.1652299, Q1 : 0.998134791851, Q2 : 0.0, Q3 : 0.0, Q4 : -0.0610486753285}
2019-04-03 19:04:07.70: SIM {TimeUS : 244716241, Roll : 0.0, Pitch : 0.0, Yaw : 353.0, Alt : 584.090026855, Lat : -35.363261, Lng : 149.1652299, Q1 : 0.998134791851, Q2 : 0.0, Q3 : 0.0, Q4 : -0.0610486753285}
2019-04-03 19:04:07.80: SIM {TimeUS : 244816201, Roll : 0.0, Pitch : 0.0, Yaw : 353.0, Alt : 584.090026855, Lat : -35.363261, Lng : 149.1652299, Q1 : 0.998134791851, Q2 : 0.0, Q3 : 0.0, Q4 : -0.0610486753285}
2019-04-03 19:04:07.90: SIM {TimeUS : 244916161, Roll : 0.0, Pitch : 0.0, Yaw : 353.0, Alt : 584.099975586, Lat : -35.363261, Lng : 149.1652299, Q1 : 0.998134791851, Q2 : 0.0, Q3 : 0.0, Q4 : -0.0610486827791}
2019-04-03 19:04:08.00: SIM {TimeUS : 245016121, Roll : 0.0, Pitch : 0.0, Yaw : 353.0, Alt : 584.099975586, Lat : -35.363261, Lng : 149.1652299, Q1 : 0.998134791851, Q2 : 0.0, Q3 : 0.0, Q4 : -0.0610486753285}
2019-04-03 19:04:08.10: SIM {TimeUS : 245116081, Roll : 0.0, Pitch : 0.0, Yaw : 353.0, Alt : 584.119995117, Lat : -35.363261, Lng : 149.1652299, Q1 : 0.998134791851, Q2 : 0.0, Q3 : 0.0, Q4 : -0.0610486753285}
2019-04-03 19:04:08.20: SIM {TimeUS : 245216041, Roll : 0.0, Pitch : 0.0, Yaw : 353.0, Alt : 584.140014648, Lat : -35.363261, Lng : 149.1652299, Q1 : 0.998134791851, Q2 : 0.0, Q3 : 0.0, Q4 : -0.0610486753285}
2019-04-03 19:04:08.30: SIM {TimeUS : 245316001, Roll : 0.0, Pitch : 0.0, Yaw : 353.0, Alt : 584.179992676, Lat : -35.363261, Lng : 149.1652299, Q1 : 0.998134791851, Q2 : 0.0, Q3 : 0.0, Q4 : -0.0610486753285}
2019-04-03 19:04:08.40: SIM {TimeUS : 245415961, Roll : 0.0, Pitch : 0.0, Yaw : 352.99, Alt : 584.210021973, Lat : -35.363261, Lng : 149.1652299, Q1 : 0.998134791851, Q2 : -2.9309862839e-06, Q3 : -1.70554767465e-06, Q4 : -0.0610487498343}
2019-04-03 19:04:08.50: SIM {TimeUS : 245515921, Roll : -0.06, Pitch : -0.04, Yaw : 352.99, Alt : 584.270019531, Lat : -35.363261, Lng : 149.1652299, Q1 : 0.99813324213, Q2 : -0.000577345199417, Q3 : -0.000384577782825, Q4 : -0.0610701441765}
2019-04-03 19:04:08.60: SIM {TimeUS : 245615881, Roll : -0.21, Pitch : -0.14, Yaw : 352.99, Alt : 584.390014648, Lat : -35.363261, Lng : 149.1652299, Q1 : 0.99812746048, Q2 : -0.00195162789896, Q3 : -0.00116281141527, Q4 : -0.0611268058419}
2019-04-03 19:04:08.70: SIM {TimeUS : 245715841, Roll : -0.36, Pitch : -0.25, Yaw : 352.98, Alt : 584.539978027, Lat : -35.363261, Lng : 149.1652299, Q1 : 0.998117148876, Q2 : -0.00328661920503, Q3 : -0.00202125753276, Q4 : -0.0612145625055}
2019-04-03 19:04:08.80: SIM {TimeUS : 245815801, Roll : -0.44, Pitch : -0.34, Yaw : 352.97, Alt : 584.690002441, Lat : -35.363261, Lng : 149.1652299, Q1 : 0.998106122017, Q2 : -0.00409251498058, Q3 : -0.00275300093926, Q4 : -0.0613176673651}
2019-04-03 19:04:08.90: SIM {TimeUS : 245915761, Roll : -0.43, Pitch : -0.35, Yaw : 352.95, Alt : 584.849975586, Lat : -35.363261, Lng : 149.1652299, Q1 : 0.998099565506, Q2 : -0.00397506915033, Q3 : -0.00289340922609, Q4 : -0.0614254996181}
2019-04-03 19:04:09.00: SIM {TimeUS : 246015721, Roll : -0.34, Pitch : -0.32, Yaw : 352.94, Alt : 585.0, Lat : -35.363261, Lng : 149.1652299, Q1 : 0.998097240925, Q2 : -0.00317954225466, Q3 : -0.00263349339366, Q4 : -0.0615211501718}
2019-04-03 19:04:09.10: SIM {TimeUS : 246115681, Roll : -0.2, Pitch : -0.24, Yaw : 352.93, Alt : 585.150024414, Lat : -35.363261, Lng : 149.1652298, Q1 : 0.998096764088, Q2 : -0.00195997208357, Q3 : -0.00204857392237, Q4 : -0.0616023615003}
2019-04-03 19:04:09.20: SIM {TimeUS : 246216474, Roll : -0.09, Pitch : -0.17, Yaw : 352.92, Alt : 585.309997559, Lat : -35.363261, Lng : 149.1652298, Q1 : 0.998095393181, Q2 : -0.000905073306058, Q3 : -0.00143623177428, Q4 : -0.0616666004062}
2019-04-03 19:04:09.30: SIM {TimeUS : 246316434, Roll : 0.0, Pitch : -0.1, Yaw : 352.92, Alt : 585.479980469, Lat : -35.363261, Lng : 149.1652298, Q1 : 0.998093903065, Q2 : -6.43778257654e-05, Q3 : -0.000881596002728, Q4 : -0.0617082566023}
2019-04-03 19:04:09.40: SIM {TimeUS : 246416394, Roll : 0.02, Pitch : -0.07, Yaw : 352.92, Alt : 585.650024414, Lat : -35.3632609, Lng : 149.1652298, Q1 : 0.998092710972, Q2 : 0.000175890221726, Q3 : -0.000630781112704, Q4 : -0.0617287419736}
2019-04-03 19:04:09.50: SIM {TimeUS : 246516354, Roll : 0.01, Pitch : -0.05, Yaw : 352.92, Alt : 585.83001709, Lat : -35.3632609, Lng : 149.1652298, Q1 : 0.998092889786, Q2 : 0.000125234175357, Q3 : -0.000486179196741, Q4 : -0.0617279745638}
2019-04-03 19:04:09.60: SIM {TimeUS : 246616314, Roll : -0.03, Pitch : -0.04, Yaw : 352.92, Alt : 586.010009766, Lat : -35.3632609, Lng : 149.1652297, Q1 : 0.998094260693, Q2 : -0.000336547294864, Q3 : -0.000359562400263, Q4 : -0.0617064349353}
2019-04-03 19:04:09.70: SIM {TimeUS : 246716274, Roll : -0.09, Pitch : -0.03, Yaw : 352.92, Alt : 586.190002441, Lat : -35.3632609, Lng : 149.1652297, Q1 : 0.998095631599, Q2 : -0.000830449338537, Q3 : -0.000220124813495, Q4 : -0.0616799332201}
2019-04-03 19:04:09.80: SIM {TimeUS : 246816234, Roll : -0.13, Pitch : -0.04, Yaw : 352.92, Alt : 586.380004883, Lat : -35.3632609, Lng : 149.1652297, Q1 : 0.998096227646, Q2 : -0.00121254881378, Q3 : -0.000289016286843, Q4 : -0.0616637803614}
2019-04-03 19:04:09.90: SIM {TimeUS : 246916194, Roll : -0.11, Pitch : -0.05, Yaw : 352.93, Alt : 586.58001709, Lat : -35.3632608, Lng : 149.1652296, Q1 : 0.998097658157, Q2 : -0.00106544734444, Q3 : -0.00040625417023, Q4 : -0.061642087996}
2019-04-03 19:04:10.00: SIM {TimeUS : 247016154, Roll : -0.07, Pitch : -0.09, Yaw : 352.93, Alt : 586.770019531, Lat : -35.3632608, Lng : 149.1652296, Q1 : 0.998098731041, Q2 : -0.000714207417332, Q3 : -0.000775087799411, Q4 : -0.061627227813}
2019-04-03 19:04:10.10: SIM {TimeUS : 247116114, Roll : -0.01, Pitch : -0.11, Yaw : 352.93, Alt : 586.969970703, Lat : -35.3632608, Lng : 149.1652296, Q1 : 0.998099029064, Q2 : -0.000201793460292, Q3 : -0.000958640943281, Q4 : -0.0616232305765}
2019-04-03 19:04:10.20: SIM {TimeUS : 247216074, Roll : 0.02, Pitch : -0.1, Yaw : 352.93, Alt : 587.16998291, Lat : -35.3632608, Lng : 149.1652296, Q1 : 0.99809885025, Q2 : 0.000158320719493, Q3 : -0.000891997828148, Q4 : -0.0616272054613}
2019-04-03 19:04:10.30: SIM {TimeUS : 247316034, Roll : 0.03, Pitch : -0.05, Yaw : 352.93, Alt : 587.369995117, Lat : -35.3632608, Lng : 149.1652294, Q1 : 0.998098552227, Q2 : 0.0002638513688, Q3 : -0.0004722790909, Q4 : -0.0616358742118}
2019-04-03 19:04:10.40: SIM {TimeUS : 247415994, Roll : 0.0, Pitch : 0.0, Yaw : 352.93, Alt : 587.58001709, Lat : -35.3632607, Lng : 149.1652294, Q1 : 0.998097419739, Q2 : 4.04037491535e-05, Q3 : 1.46048205352e-05, Q4 : -0.0616566725075}
2019-04-03 19:04:10.50: SIM {TimeUS : 247515954, Roll : -0.02, Pitch : 0.06, Yaw : 352.92, Alt : 587.780029297, Lat : -35.3632607, Lng : 149.1652294, Q1 : 0.998095035553, Q2 : -0.000208312063478, Q3 : 0.000543243309949, Q4 : -0.0616928823292}
2019-04-03 19:04:10.60: SIM {TimeUS : 247615914, Roll : -0.06, Pitch : 0.07, Yaw : 352.92, Alt : 587.989990234, Lat : -35.3632607, Lng : 149.1652294, Q1 : 0.998091876507, Q2 : -0.000506690237671, Q3 : 0.000697522249538, Q4 : -0.0617401525378}
2019-04-03 19:04:10.70: SIM {TimeUS : 247715874, Roll : -0.09, Pitch : 0.05, Yaw : 352.91, Alt : 588.200012207, Lat : -35.3632607, Lng : 149.1652293, Q1 : 0.998088479042, Q2 : -0.000832783873193, Q3 : 0.000547137227841, Q4 : -0.0617933534086}
2019-04-03 19:04:10.80: SIM {TimeUS : 247815834, Roll : -0.14, Pitch : 0.0, Yaw : 352.9, Alt : 588.409973145, Lat : -35.3632607, Lng : 149.1652293, Q1 : 0.998084545135, Q2 : -0.00124506326392, Q3 : 5.08187040396e-05, Q4 : -0.0618527568877}
2019-04-03 19:04:10.90: SIM {TimeUS : 247915794, Roll : -0.15, Pitch : -0.07, Yaw : 352.9, Alt : 588.619995117, Lat : -35.3632607, Lng : 149.1652293, Q1 : 0.998081028461, Q2 : -0.00138640613295, Q3 : -0.000536476320121, Q4 : -0.0619039610028}
2019-04-03 19:04:11.00: SIM {TimeUS : 248015754, Roll : -0.18, Pitch : -0.15, Yaw : 352.89, Alt : 588.840026855, Lat : -35.3632607, Lng : 149.1652293, Q1 : 0.998076796532, Q2 : -0.00166022579651, Q3 : -0.00129105860833, Q4 : -0.0619540512562}
2019-04-03 19:04:11.10: SIM {TimeUS : 248115714, Roll : -0.2, Pitch : -0.23, Yaw : 352.89, Alt : 589.049987793, Lat : -35.3632605, Lng : 149.1652293, Q1 : 0.998072206974, Q2 : -0.0019255336374, Q3 : -0.00193008838687, Q4 : -0.0620031654835}
2019-04-03 19:04:11.20: SIM {TimeUS : 248215674, Roll : -0.23, Pitch : -0.25, Yaw : 352.88, Alt : 589.270019531, Lat : -35.3632605, Lng : 149.1652293, Q1 : 0.998068332672, Q2 : -0.00216929381713, Q3 : -0.00213242811151, Q4 : -0.0620515011251}
2019-04-03 19:04:11.30: SIM {TimeUS : 248316467, Roll : -0.25, Pitch : -0.24, Yaw : 352.87, Alt : 589.489990234, Lat : -35.3632605, Lng : 149.1652293, Q1 : 0.998063981533, Q2 : -0.00232556904666, Q3 : -0.00203599315137, Q4 : -0.0621196739376}
2019-04-03 19:04:11.40: SIM {TimeUS : 248416427, Roll : -0.27, Pitch : -0.24, Yaw : 352.86, Alt : 589.710021973, Lat : -35.3632605, Lng : 149.1652292, Q1 : 0.998058497906, Q2 : -0.00248683313839, Q3 : -0.00199570134282, Q4 : -0.0622016005218}
2019-04-03 19:04:11.50: SIM {TimeUS : 248516387, Roll : -0.28, Pitch : -0.23, Yaw : 352.85, Alt : 589.929992676, Lat : -35.3632605, Lng : 149.1652292, Q1 : 0.998051583767, Q2 : -0.00261631514877, Q3 : -0.00191041058861, Q4 : -0.0623100474477}
2019-04-03 19:04:11.60: SIM {TimeUS : 248616347, Roll : -0.3, Pitch : -0.26, Yaw : 352.84, Alt : 590.140014648, Lat : -35.3632604, Lng : 149.1652291, Q1 : 0.998043179512, Q2 : -0.00276938197203, Q3 : -0.00213936204091, Q4 : -0.0624301098287}
2019-04-03 19:04:11.70: SIM {TimeUS : 248716307, Roll : -0.29, Pitch : -0.28, Yaw : 352.82, Alt : 590.369995117, Lat : -35.3632604, Lng : 149.1652291, Q1 : 0.998035609722, Q2 : -0.00276584899984, Q3 : -0.00232680165209, Q4 : -0.062545247376}
2019-04-03 19:04:11.80: SIM {TimeUS : 248816267, Roll : -0.29, Pitch : -0.28, Yaw : 352.81, Alt : 590.590026855, Lat : -35.3632604, Lng : 149.1652289, Q1 : 0.998028218746, Q2 : -0.00274484744295, Q3 : -0.00232584495097, Q4 : -0.0626630112529}
2019-04-03 19:04:11.90: SIM {TimeUS : 248916227, Roll : -0.27, Pitch : -0.27, Yaw : 352.8, Alt : 590.809997559, Lat : -35.3632604, Lng : 149.1652289, Q1 : 0.998021304607, Q2 : -0.00251914770342, Q3 : -0.00223615579307, Q4 : -0.062786616385}
2019-04-03 19:04:12.00: SIM {TimeUS : 249016187, Roll : -0.27, Pitch : -0.27, Yaw : 352.78, Alt : 591.030029297, Lat : -35.3632604, Lng : 149.1652289, Q1 : 0.99801325798, Q2 : -0.00252380315214, Q3 : -0.00223687221296, Q4 : -0.0629144236445}
2019-04-03 19:04:12.10: SIM {TimeUS : 249116147, Roll : -0.25, Pitch : -0.26, Yaw : 352.77, Alt : 591.25, Lat : -35.3632604, Lng : 149.1652288, Q1 : 0.998006701469, Q2 : -0.00232874485664, Q3 : -0.00219520158134, Q4 : -0.0630268156528}
2019-04-03 19:04:12.20: SIM {TimeUS : 249216107, Roll : -0.22, Pitch : -0.26, Yaw : 352.76, Alt : 591.479980469, Lat : -35.3632604, Lng : 149.1652288, Q1 : 0.9980006814, Q2 : -0.00208972161636, Q3 : -0.00222605303861, Q4 : -0.0631290376186}
2019-04-03 19:04:12.30: SIM {TimeUS : 249316067, Roll : -0.21, Pitch : -0.23, Yaw : 352.75, Alt : 591.700012207, Lat : -35.3632603, Lng : 149.1652287, Q1 : 0.997995793819, Q2 : -0.00200729304925, Q3 : -0.00192056270316, Q4 : -0.0632187575102}
2019-04-03 19:04:12.40: SIM {TimeUS : 249416027, Roll : -0.22, Pitch : -0.19, Yaw : 352.74, Alt : 591.929992676, Lat : -35.3632603, Lng : 149.1652286, Q1 : 0.997991502285, Q2 : -0.00204334082082, Q3 : -0.00161743664648, Q4 : -0.0632947161794}
2019-04-03 19:04:12.50: SIM {TimeUS : 249515987, Roll : -0.2, Pitch : -0.17, Yaw : 352.73, Alt : 592.150024414, Lat : -35.3632602, Lng : 149.1652286, Q1 : 0.997987747192, Q2 : -0.0018847003812, Q3 : -0.00138607015833, Q4 : -0.0633644983172}
2019-04-03 19:04:12.60: SIM {TimeUS : 249615947, Roll : -0.18, Pitch : -0.16, Yaw : 352.72, Alt : 592.380004883, Lat : -35.3632602, Lng : 149.1652284, Q1 : 0.997983813286, Q2 : -0.00167039304506, Q3 : -0.00131622049958, Q4 : -0.0634328871965}
2019-04-03 19:04:12.70: SIM {TimeUS : 249715907, Roll : -0.13, Pitch : -0.13, Yaw : 352.71, Alt : 592.609985352, Lat : -35.3632602, Lng : 149.1652284, Q1 : 0.997980833054, Q2 : -0.00126558018383, Q3 : -0.00111538998317, Q4 : -0.0634932592511}
2019-04-03 19:04:12.80: SIM {TimeUS : 249815867, Roll : -0.1, Pitch : -0.1, Yaw : 352.71, Alt : 592.83001709, Lat : -35.3632601, Lng : 149.1652284, Q1 : 0.99797719717, Q2 : -0.000957705895416, Q3 : -0.000858617422637, Q4 : -0.0635600611567}
2019-04-03 19:04:12.90: SIM {TimeUS : 249915827, Roll : -0.07, Pitch : -0.08, Yaw : 352.7, Alt : 593.059997559, Lat : -35.3632601, Lng : 149.1652283, Q1 : 0.997972786427, Q2 : -0.000730669533368, Q3 : -0.000690001237672, Q4 : -0.0636350810528}
2019-04-03 19:04:13.00: SIM {TimeUS : 250015787, Roll : -0.08, Pitch : -0.09, Yaw : 352.69, Alt : 593.289978027, Lat : -35.3632599, Lng : 149.1652282, Q1 : 0.997967898846, Q2 : -0.000816657789983, Q3 : -0.000768205383793, Q4 : -0.0637089461088}
2019-04-03 19:04:13.10: SIM {TimeUS : 250115747, Roll : -0.08, Pitch : -0.09, Yaw : 352.68, Alt : 593.520019531, Lat : -35.3632599, Lng : 149.1652282, Q1 : 0.997963309288, Q2 : -0.000807748059742, Q3 : -0.00075155106606, Q4 : -0.0637816265225}
2019-04-03 19:04:13.20: SIM {TimeUS : 250215707, Roll : -0.09, Pitch : -0.06, Yaw : 352.67, Alt : 593.75, Lat : -35.3632599, Lng : 149.1652281, Q1 : 0.997958064079, Q2 : -0.000859823485371, Q3 : -0.00054929574253, Q4 : -0.0638649389148}
2019-04-03 19:04:13.29: SIM {TimeUS : 250315667, Roll : -0.07, Pitch : -0.01, Yaw : 352.66, Alt : 593.979980469, Lat : -35.3632598, Lng : 149.1652281, Q1 : 0.997953057289, Q2 : -0.00062824197812, Q3 : -6.96319693816e-05, Q4 : -0.0639477297664}
2019-04-03 19:04:13.40: SIM {TimeUS : 250416460, Roll : -0.02, Pitch : 0.02, Yaw : 352.65, Alt : 594.210021973, Lat : -35.3632598, Lng : 149.1652279, Q1 : 0.99794781208, Q2 : -0.000222230344662, Q3 : 0.000245772884227, Q4 : -0.0640320554376}
2019-04-03 19:04:13.50: SIM {TimeUS : 250516420, Roll : 0.0, Pitch : 0.05, Yaw : 352.64, Alt : 594.440002441, Lat : -35.3632598, Lng : 149.1652279, Q1 : 0.99794203043, Q2 : 3.28716487275e-05, Q3 : 0.000474927044706, Q4 : -0.0641205683351}
2019-04-03 19:04:13.60: SIM {TimeUS : 250616380, Roll : 0.01, Pitch : 0.04, Yaw : 352.63, Alt : 594.66998291, Lat : -35.3632598, Lng : 149.1652279, Q1 : 0.997936010361, Q2 : 0.000169935490703, Q3 : 0.000395133392885, Q4 : -0.0642144158483}
2019-04-03 19:04:13.70: SIM {TimeUS : 250716340, Roll : 0.04, Pitch : 0.03, Yaw : 352.62, Alt : 594.900024414, Lat : -35.3632598, Lng : 149.1652279, Q1 : 0.997929930687, Q2 : 0.00043108308455, Q3 : 0.000300045940094, Q4 : -0.0643084719777}
2019-04-03 19:04:13.80: SIM {TimeUS : 250816300, Roll : 0.06, Pitch : 0.04, Yaw : 352.61, Alt : 595.130004883, Lat : -35.3632598, Lng : 149.1652278, Q1 : 0.997923493385, Q2 : 0.000632736715488, Q3 : 0.00033073083614, Q4 : -0.0644061714411}
2019-04-03 19:04:13.90: SIM {TimeUS : 250916260, Roll : 0.11, Pitch : 0.08, Yaw : 352.6, Alt : 595.369995117, Lat : -35.3632598, Lng : 149.1652278, Q1 : 0.997917234898, Q2 : 0.00103758159094, Q3 : 0.000663992366754, Q4 : -0.0644966959953}
2019-04-03 19:04:14.00: SIM {TimeUS : 251016220, Roll : 0.11, Pitch : 0.12, Yaw : 352.59, Alt : 595.599975586, Lat : -35.3632597, Lng : 149.1652278, Q1 : 0.997912287712, Q2 : 0.00111284514423, Q3 : 0.00102912343573, Q4 : -0.0645657256246}
2019-04-03 19:04:14.10: SIM {TimeUS : 251116180, Roll : 0.1, Pitch : 0.16, Yaw : 352.58, Alt : 595.83001709, Lat : -35.3632597, Lng : 149.1652278, Q1 : 0.997907102108, Q2 : 0.00102918955963, Q3 : 0.00140996894334, Q4 : -0.0646399483085}
2019-04-03 19:04:14.20: SIM {TimeUS : 251216140, Roll : 0.09, Pitch : 0.18, Yaw : 352.57, Alt : 596.059997559, Lat : -35.3632597, Lng : 149.1652277, Q1 : 0.99790251255, Q2 : 0.000925045460463, Q3 : 0.00158524280414, Q4 : -0.0647086277604}
2019-04-03 19:04:14.30: SIM {TimeUS : 251316100, Roll : 0.1, Pitch : 0.19, Yaw : 352.57, Alt : 596.299987793, Lat : -35.3632597, Lng : 149.1652277, Q1 : 0.997898340225, Q2 : 0.0010043727234, Q3 : 0.00164636550471, Q4 : -0.0647704154253}
2019-04-03 19:04:14.40: SIM {TimeUS : 251416060, Roll : 0.12, Pitch : 0.18, Yaw : 352.56, Alt : 596.530029297, Lat : -35.3632597, Lng : 149.1652277, Q1 : 0.997893512249, Q2 : 0.0011558055412, Q3 : 0.00152192998212, Q4 : -0.0648449659348}
2019-04-03 19:04:14.50: SIM {TimeUS : 251516020, Roll : 0.15, Pitch : 0.17, Yaw : 352.55, Alt : 596.760009766, Lat : -35.3632597, Lng : 149.1652277, Q1 : 0.99788749218, Q2 : 0.00149122043513, Q3 : 0.00144767481834, Q4 : -0.0649328157306}
2019-04-03 19:04:14.60: SIM {TimeUS : 251615980, Roll : 0.18, Pitch : 0.17, Yaw : 352.54, Alt : 596.989990234, Lat : -35.3632597, Lng : 149.1652277, Q1 : 0.99788081646, Q2 : 0.00173397350591, Q3 : 0.00141368573532, Q4 : -0.0650300309062}
2019-04-03 19:04:14.70: SIM {TimeUS : 251715940, Roll : 0.21, Pitch : 0.18, Yaw : 352.53, Alt : 597.229980469, Lat : -35.3632597, Lng : 149.1652277, Q1 : 0.997874200344, Q2 : 0.00195538671687, Q3 : 0.00153222552035, Q4 : -0.0651221945882}
2019-04-03 19:04:14.80: SIM {TimeUS : 251815900, Roll : 0.23, Pitch : 0.19, Yaw : 352.52, Alt : 597.460021973, Lat : -35.3632597, Lng : 149.1652277, Q1 : 0.997867465019, Q2 : 0.00216235569678, Q3 : 0.00154327321798, Q4 : -0.0652185305953}
2019-04-03 19:04:14.90: SIM {TimeUS : 251915860, Roll : 0.27, Pitch : 0.22, Yaw : 352.51, Alt : 597.690002441, Lat : -35.3632597, Lng : 149.1652277, Q1 : 0.997859716415, Q2 : 0.0025422249455, Q3 : 0.00181430787779, Q4 : -0.0653167888522}
2019-04-03 19:04:15.00: SIM {TimeUS : 252015820, Roll : 0.28, Pitch : 0.24, Yaw : 352.49, Alt : 597.91998291, Lat : -35.3632597, Lng : 149.1652277, Q1 : 0.997852802277, Q2 : 0.00266068382189, Q3 : 0.00197807094082, Q4 : -0.0654129311442}
2019-04-03 19:04:15.10: SIM {TimeUS : 252115780, Roll : 0.29, Pitch : 0.25, Yaw : 352.48, Alt : 598.130004883, Lat : -35.3632597, Lng : 149.1652277, Q1 : 0.997846126556, Q2 : 0.00272347242571, Q3 : 0.00207550777122, Q4 : -0.0655090436339}
2019-04-03 19:04:15.20: SIM {TimeUS : 252215740, Roll : 0.27, Pitch : 0.23, Yaw : 352.47, Alt : 598.340026855, Lat : -35.3632597, Lng : 149.1652278, Q1 : 0.997840583324, Q2 : 0.00253042997792, Q3 : 0.00191365706269, Q4 : -0.0656063109636}
2019-04-03 19:04:15.30: SIM {TimeUS : 252315700, Roll : 0.25, Pitch : 0.21, Yaw : 352.46, Alt : 598.530029297, Lat : -35.3632598, Lng : 149.1652278, Q1 : 0.997835218906, Q2 : 0.00233692070469, Q3 : 0.00171964813489, Q4 : -0.0657000094652}
2019-04-03 19:04:15.39: SIM {TimeUS : 252415660, Roll : 0.24, Pitch : 0.17, Yaw : 352.45, Alt : 598.710021973, Lat : -35.3632598, Lng : 149.1652278, Q1 : 0.997830033302, Q2 : 0.00220232154243, Q3 : 0.0014031091705, Q4 : -0.0657906755805}
2019-04-03 19:04:15.50: SIM {TimeUS : 252516453, Roll : 0.24, Pitch : 0.15, Yaw : 352.44, Alt : 598.890014648, Lat : -35.3632598, Lng : 149.1652279, Q1 : 0.997824251652, Q2 : 0.00226285681129, Q3 : 0.00123511091806, Q4 : -0.0658795833588}
2019-04-03 19:04:15.60: SIM {TimeUS : 252616413, Roll : 0.24, Pitch : 0.14, Yaw : 352.43, Alt : 599.049987793, Lat : -35.3632598, Lng : 149.1652279, Q1 : 0.997819185257, Q2 : 0.00218671467155, Q3 : 0.00109158235136, Q4 : -0.0659614875913}
2019-04-03 19:04:15.70: SIM {TimeUS : 252716373, Roll : 0.36, Pitch : 0.1, Yaw : 352.42, Alt : 599.190002441, Lat : -35.3632598, Lng : 149.1652279, Q1 : 0.997811198235, Q2 : 0.00321449362673, Q3 : 0.000678433629218, Q4 : -0.0660458505154}
2019-04-03 19:04:15.80: SIM {TimeUS : 252816333, Roll : 0.73, Pitch : -0.04, Yaw : 352.41, Alt : 599.33001709, Lat : -35.3632598, Lng : 149.1652279, Q1 : 0.997790455818, Q2 : 0.00637942692265, Q3 : -0.000816750631202, Q4 : -0.0661274269223}
2019-04-03 19:04:15.90: SIM {TimeUS : 252916293, Roll : 1.38, Pitch : -0.28, Yaw : 352.4, Alt : 599.450012207, Lat : -35.3632598, Lng : 149.1652281, Q1 : 0.997729718685, Q2 : 0.0119190160185, Q3 : -0.00331025617197, Q4 : -0.066199362278}
2019-04-03 19:04:16.00: SIM {TimeUS : 253016253, Roll : 2.25, Pitch : -0.61, Yaw : 352.38, Alt : 599.559997559, Lat : -35.3632598, Lng : 149.1652281, Q1 : 0.99759465456, Q2 : 0.0192722380161, Q3 : -0.00664030294865, Q4 : -0.0662525817752}
2019-04-03 19:04:16.10: SIM {TimeUS : 253116213, Roll : 3.27, Pitch : -0.97, Yaw : 352.36, Alt : 599.650024414, Lat : -35.3632598, Lng : 149.1652283, Q1 : 0.997357845306, Q2 : 0.027905607596, Q3 : -0.0103744128719, Q4 : -0.066264487803}
2019-04-03 19:04:16.20: SIM {TimeUS : 253216173, Roll : 4.29, Pitch : -1.36, Yaw : 352.34, Alt : 599.739990234, Lat : -35.3632598, Lng : 149.1652284, Q1 : 0.997028648853, Q2 : 0.036620657891, Q3 : -0.0143794296309, Q4 : -0.0662272721529}
2019-04-03 19:04:16.30: SIM {TimeUS : 253316133, Roll : 5.22, Pitch : -1.71, Yaw : 352.33, Alt : 599.809997559, Lat : -35.3632598, Lng : 149.1652286, Q1 : 0.996660411358, Q2 : 0.0444410666823, Q3 : -0.017935546115, Q4 : -0.0661159530282}
2019-04-03 19:04:16.40: SIM {TimeUS : 253416093, Roll : 5.95, Pitch : -2.0, Yaw : 352.32, Alt : 599.880004883, Lat : -35.3632598, Lng : 149.1652289, Q1 : 0.996318876743, Q2 : 0.0506288595498, Q3 : -0.0208758059889, Q4 : -0.0659513324499}
2019-04-03 19:04:16.50: SIM {TimeUS : 253516053, Roll : 6.51, Pitch : -2.2, Yaw : 352.32, Alt : 599.940002441, Lat : -35.3632597, Lng : 149.1652293, Q1 : 0.996031880379, Q2 : 0.0553998164833, Q3 : -0.0230121314526, Q4 : -0.0657406449318}
2019-04-03 19:04:16.60: SIM {TimeUS : 253616013, Roll : 6.94, Pitch : -2.38, Yaw : 352.32, Alt : 599.989990234, Lat : -35.3632595, Lng : 149.1652297, Q1 : 0.995796263218, Q2 : 0.0590277053416, Q3 : -0.0247552487999, Q4 : -0.0655189231038}
2019-04-03 19:04:16.70: SIM {TimeUS : 253715973, Roll : 7.28, Pitch : -2.53, Yaw : 352.33, Alt : 600.030029297, Lat : -35.3632593, Lng : 149.1652302, Q1 : 0.995596826077, Q2 : 0.0619010925293, Q3 : -0.0262648854405, Q4 : -0.0653102472425}
2019-04-03 19:04:16.80: SIM {TimeUS : 253815933, Roll : 7.53, Pitch : -2.69, Yaw : 352.33, Alt : 600.059997559, Lat : -35.3632591, Lng : 149.1652308, Q1 : 0.995432436466, Q2 : 0.0640161633492, Q3 : -0.0277875289321, Q4 : -0.065146446228}
2019-04-03 19:04:16.90: SIM {TimeUS : 253915893, Roll : 7.73, Pitch : -2.84, Yaw : 352.33, Alt : 600.099975586, Lat : -35.3632589, Lng : 149.1652315, Q1 : 0.995295166969, Q2 : 0.0656212642789, Q3 : -0.0292339231819, Q4 : -0.0650134384632}
2019-04-03 19:04:17.00: SIM {TimeUS : 254015853, Roll : 7.85, Pitch : -2.98, Yaw : 352.33, Alt : 600.119995117, Lat : -35.3632586, Lng : 149.1652322, Q1 : 0.995197951794, Q2 : 0.0665827691555, Q3 : -0.0305488053709, Q4 : -0.0649195984006}
2019-04-03 19:04:17.10: SIM {TimeUS : 254115813, Roll : 7.96, Pitch : -3.1, Yaw : 352.32, Alt : 600.150024414, Lat : -35.3632582, Lng : 149.1652332, Q1 : 0.995110273361, Q2 : 0.0674320533872, Q3 : -0.0316532216966, Q4 : -0.0648572966456}
2019-04-03 19:04:17.20: SIM {TimeUS : 254215773, Roll : 8.07, Pitch : -3.21, Yaw : 352.31, Alt : 600.16998291, Lat : -35.3632578, Lng : 149.1652341, Q1 : 0.99501901865, Q2 : 0.0683230012655, Q3 : -0.0326754525304, Q4 : -0.0648185610771}
2019-04-03 19:04:17.30: SIM {TimeUS : 254315733, Roll : 8.24, Pitch : -3.27, Yaw : 352.32, Alt : 600.190002441, Lat : -35.3632574, Lng : 149.1652351, Q1 : 0.994908750057, Q2 : 0.0697689652443, Q3 : -0.0332709550858, Q4 : -0.0646682232618}
2019-04-03 19:04:17.40: SIM {TimeUS : 254415693, Roll : 8.55, Pitch : -3.09, Yaw : 352.63, Alt : 600.210021973, Lat : -35.363257, Lng : 149.1652363, Q1 : 0.99491918087, Q2 : 0.0726718902588, Q3 : -0.0317054018378, Q4 : -0.0620432533324}
2019-04-03 19:04:17.50: SIM {TimeUS : 254516486, Roll : 9.04, Pitch : -2.72, Yaw : 353.91, Alt : 600.219970703, Lat : -35.3632565, Lng : 149.1652375, Q1 : 0.995302557945, Q2 : 0.0774376243353, Q3 : -0.0278299320489, Q4 : -0.0510066412389}
2019-04-03 19:04:17.60: SIM {TimeUS : 254616446, Roll : 9.52, Pitch : -2.59, Yaw : 356.73, Alt : 600.229980469, Lat : -35.363256, Lng : 149.1652388, Q1 : 0.995942592621, Q2 : 0.0823186933994, Q3 : -0.0249330978841, Q4 : -0.0264643505216}
2019-04-03 19:04:17.70: SIM {TimeUS : 254716406, Roll : 9.82, Pitch : -3.04, Yaw : 1.18, Alt : 600.25, Lat : -35.3632554, Lng : 149.1652401, Q1 : 0.995901107788, Q2 : 0.0858394950628, Q3 : -0.0255945269018, Q4 : 0.0125532420352}
2019-04-03 19:04:17.80: SIM {TimeUS : 254816366, Roll : 9.76, Pitch : -4.15, Yaw : 7.04, Alt : 600.260009766, Lat : -35.3632549, Lng : 149.1652416, Q1 : 0.993648409843, Q2 : 0.0871108174324, Q3 : -0.0308129098266, Q4 : 0.0642277002335}
2019-04-03 19:04:17.90: SIM {TimeUS : 254916326, Roll : 9.26, Pitch : -5.76, Yaw : 14.04, Alt : 600.270019531, Lat : -35.3632543, Lng : 149.1652432, Q1 : 0.987506508827, Q2 : 0.0861542373896, Q3 : -0.0399009622633, Q4 : 0.125762909651}
2019-04-03 19:04:18.00: SIM {TimeUS : 255016286, Roll : 8.22, Pitch : -7.66, Yaw : 21.92, Alt : 600.280029297, Lat : -35.3632537, Lng : 149.1652447, Q1 : 0.97612631321, Q2 : 0.0829171910882, Q3 : -0.0518197007477, Q4 : 0.193950861692}
2019-04-03 19:04:18.10: SIM {TimeUS : 255116246, Roll : 6.68, Pitch : -9.58, Yaw : 30.4, Alt : 600.289978027, Lat : -35.3632531, Lng : 149.1652466, Q1 : 0.958723425865, Q2 : 0.0779454857111, Q3 : -0.0652112141252, Q4 : 0.265558719635}
2019-04-03 19:04:18.20: SIM {TimeUS : 255216206, Roll : 4.7, Pitch : -11.26, Yaw : 39.21, Alt : 600.309997559, Lat : -35.3632525, Lng : 149.1652484, Q1 : 0.935334444046, Q2 : 0.0714113414288, Q3 : -0.0786289870739, Q4 : 0.337442427874}
2019-04-03 19:04:18.30: SIM {TimeUS : 255316166, Roll : 2.45, Pitch : -12.5, Yaw : 48.03, Alt : 600.320007324, Lat : -35.3632519, Lng : 149.1652503, Q1 : 0.906818687916, Q2 : 0.0637739002705, Q3 : -0.0908015444875, Q4 : 0.406654477119}
2019-04-03 19:04:18.40: SIM {TimeUS : 255416126, Roll : 0.08, Pitch : -13.25, Yaw : 56.55, Alt : 600.33001709, Lat : -35.3632512, Lng : 149.1652523, Q1 : 0.874741315842, Q2 : 0.0553308129311, Q3 : -0.101310797036, Q4 : 0.470640331507}
2019-04-03 19:04:18.50: SIM {TimeUS : 255516086, Roll : -2.48, Pitch : -13.55, Yaw : 64.32, Alt : 600.340026855, Lat : -35.3632504, Lng : 149.1652543, Q1 : 0.841775476933, Q2 : 0.0445831269026, Q3 : -0.111291483045, Q4 : 0.526346445084}
2019-04-03 19:04:18.60: SIM {TimeUS : 255616046, Roll : -5.04, Pitch : -13.43, Yaw : 70.66, Alt : 600.349975586, Lat : -35.3632494, Lng : 149.1652566, Q1 : 0.812402546406, Q2 : 0.0319106169045, Q3 : -0.120649620891, Q4 : 0.569585323334}
2019-04-03 19:04:18.70: SIM {TimeUS : 255716006, Roll : -7.08, Pitch : -13.1, Yaw : 75.03, Alt : 600.369995117, Lat : -35.3632486, Lng : 149.1652588, Q1 : 0.79077732563, Q2 : 0.0206870473921, Q3 : -0.127698242664, Q4 : 0.598277926445}
2019-04-03 19:04:18.80: SIM {TimeUS : 255815966, Roll : -8.25, Pitch : -12.8, Yaw : 77.35, Alt : 600.380004883, Lat : -35.3632475, Lng : 149.165261, Q1 : 0.778795421124, Q2 : 0.0136567223817, Q3 : -0.131511688232, Q4 : 0.613184988499}
2019-04-03 19:04:18.90: SIM {TimeUS : 255915926, Roll : -8.46, Pitch : -12.71, Yaw : 77.86, Alt : 600.390014648, Lat : -35.3632464, Lng : 149.1652633, Q1 : 0.776116549969, Q2 : 0.0123305339366, Q3 : -0.132048472762, Q4 : 0.616485416889}
2019-04-03 19:04:19.00: SIM {TimeUS : 256015886, Roll : -7.83, Pitch : -12.91, Yaw : 76.91, Alt : 600.400024414, Lat : -35.3632451, Lng : 149.1652657, Q1 : 0.781052350998, Q2 : 0.0166488811374, Q3 : -0.130090534687, Q4 : 0.610537827015}
2019-04-03 19:04:19.10: SIM {TimeUS : 256115846, Roll : -6.52, Pitch : -13.36, Yaw : 74.88, Alt : 600.409973145, Lat : -35.3632438, Lng : 149.1652681, Q1 : 0.791330099106, Q2 : 0.0258013270795, Q3 : -0.126614287496, Q4 : 0.597578287125}
2019-04-03 19:04:19.20: SIM {TimeUS : 256215806, Roll : -4.77, Pitch : -14.0, Yaw : 72.12, Alt : 600.41998291, Lat : -35.3632424, Lng : 149.1652706, Q1 : 0.804662525654, Q2 : 0.0382639691234, Q3 : -0.12280716002, Q4 : 0.579631388187}
2019-04-03 19:04:19.30: SIM {TimeUS : 256315766, Roll : -2.82, Pitch : -14.69, Yaw : 68.96, Alt : 600.440002441, Lat : -35.3632409, Lng : 149.1652733, Q1 : 0.819057643414, Q2 : 0.0522727929056, Q3 : -0.119247592986, Q4 : 0.558741569519}
2019-04-03 19:04:19.40: SIM {TimeUS : 256415726, Roll : -0.89, Pitch : -15.29, Yaw : 65.75, Alt : 600.450012207, Lat : -35.3632395, Lng : 149.165276, Q1 : 0.832911789417, Q2 : 0.0657844468951, Q3 : -0.115982197225, Q4 : 0.537101924419}
2019-04-03 19:04:19.50: SIM {TimeUS : 256515686, Roll : 0.79, Pitch : -15.7, Yaw : 62.82, Alt : 600.469970703, Lat : -35.3632379, Lng : 149.1652786, Q1 : 0.844913721085, Q2 : 0.0770886316895, Q3 : -0.112965531647, Q4 : 0.517123758793}
2019-04-03 19:04:19.60: SIM {TimeUS : 256616479, Roll : 2.07, Pitch : -15.89, Yaw : 60.46, Alt : 600.479980469, Lat : -35.3632365, Lng : 149.1652815, Q1 : 0.854280471802, Q2 : 0.0850893259048, Q3 : -0.110372498631, Q4 : 0.500782012939}
2019-04-03 19:04:19.70: SIM {TimeUS : 256716439, Roll : 2.83, Pitch : -15.93, Yaw : 58.89, Alt : 600.489990234, Lat : -35.3632349, Lng : 149.1652844, Q1 : 0.860459208488, Q2 : 0.0894201993942, Q3 : -0.108619056642, Q4 : 0.489710062742}
2019-04-03 19:04:19.80: SIM {TimeUS : 256816399, Roll : 3.07, Pitch : -15.9, Yaw : 58.13, Alt : 600.510009766, Lat : -35.3632335, Lng : 149.1652875, Q1 : 0.863539040089, Q2 : 0.0904104933143, Q3 : -0.108003817499, Q4 : 0.484212219715}
2019-04-03 19:04:19.90: SIM {TimeUS : 256916359, Roll : 2.88, Pitch : -15.88, Yaw : 58.12, Alt : 600.520019531, Lat : -35.3632319, Lng : 149.1652906, Q1 : 0.863763749599, Q2 : 0.0888946801424, Q3 : -0.108589090407, Q4 : 0.483961105347}
2019-04-03 19:04:20.00: SIM {TimeUS : 257016319, Roll : 2.36, Pitch : -15.9, Yaw : 58.72, Alt : 600.539978027, Lat : -35.3632306, Lng : 149.1652938, Q1 : 0.861584067345, Q2 : 0.0856386572123, Q3 : -0.110570460558, Q4 : 0.487968295813}
2019-04-03 19:04:20.10: SIM {TimeUS : 257116279, Roll : 1.61, Pitch : -15.99, Yaw : 59.75, Alt : 600.549987793, Lat : -35.3632291, Lng : 149.1652971, Q1 : 0.857607245445, Q2 : 0.0814340934157, Q3 : -0.113654993474, Q4 : 0.494935184717}
2019-04-03 19:04:20.20: SIM {TimeUS : 257216239, Roll : 0.77, Pitch : -16.08, Yaw : 61.01, Alt : 600.559997559, Lat : -35.3632276, Lng : 149.1653005, Q1 : 0.852580547333, Q2 : 0.0767915695906, Q3 : -0.117118403316, Q4 : 0.503480672836}
