2019-04-03 23:00:58.90: SIM {TimeUS : 61316297, Roll : 0.0, Pitch : 0.0, Yaw : 353.0, Alt : 584.090026855, Lat : -35.363261, Lng : 149.1652299, Q1 : 0.998134791851, Q2 : 0.0, Q3 : 0.0, Q4 : -0.0610485821962}
2019-04-03 23:00:59.01: SIM {TimeUS : 61435416, Roll : 0.0, Pitch : 0.0, Yaw : 353.0, Alt : 584.090026855, Lat : -35.363261, Lng : 149.1652299, Q1 : 0.998134791851, Q2 : 0.0, Q3 : 0.0, Q4 : -0.0610485821962}
2019-04-03 23:00:59.11: SIM {TimeUS : 61535376, Roll : 0.0, Pitch : 0.0, Yaw : 353.0, Alt : 584.090026855, Lat : -35.363261, Lng : 149.1652299, Q1 : 0.998134791851, Q2 : 0.0, Q3 : 0.0, Q4 : -0.0610485821962}
2019-04-03 23:00:59.21: SIM {TimeUS : 61635336, Roll : 0.0, Pitch : 0.0, Yaw : 353.0, Alt : 584.090026855, Lat : -35.363261, Lng : 149.1652299, Q1 : 0.998134791851, Q2 : 0.0, Q3 : 0.0, Q4 : -0.0610485821962}
2019-04-03 23:00:59.31: SIM {TimeUS : 61735296, Roll : 0.0, Pitch : 0.0, Yaw : 353.0, Alt : 584.090026855, Lat : -35.363261, Lng : 149.1652299, Q1 : 0.998134791851, Q2 : 0.0, Q3 : 0.0, Q4 : -0.0610485821962}
2019-04-03 23:00:59.41: SIM {TimeUS : 61835256, Roll : 0.0, Pitch : 0.0, Yaw : 353.0, Alt : 584.090026855, Lat : -35.363261, Lng : 149.1652299, Q1 : 0.998134791851, Q2 : 0.0, Q3 : 0.0, Q4 : -0.0610485821962}
2019-04-03 23:00:59.51: SIM {TimeUS : 61935216, Roll : 0.0, Pitch : 0.0, Yaw : 353.0, Alt : 584.090026855, Lat : -35.363261, Lng : 149.1652299, Q1 : 0.998134791851, Q2 : 0.0, Q3 : 0.0, Q4 : -0.0610485821962}
2019-04-03 23:00:59.61: SIM {TimeUS : 62035176, Roll : 0.0, Pitch : 0.0, Yaw : 353.0, Alt : 584.090026855, Lat : -35.363261, Lng : 149.1652299, Q1 : 0.998134791851, Q2 : 0.0, Q3 : 0.0, Q4 : -0.0610485821962}
2019-04-03 23:00:59.71: SIM {TimeUS : 62135136, Roll : 0.0, Pitch : 0.0, Yaw : 353.0, Alt : 584.090026855, Lat : -35.363261, Lng : 149.1652299, Q1 : 0.998134791851, Q2 : 0.0, Q3 : 0.0, Q4 : -0.0610485821962}
2019-04-03 23:00:59.81: SIM {TimeUS : 62235096, Roll : 0.0, Pitch : 0.0, Yaw : 353.0, Alt : 584.090026855, Lat : -35.363261, Lng : 149.1652299, Q1 : 0.998134791851, Q2 : 0.0, Q3 : 0.0, Q4 : -0.0610485821962}
2019-04-03 23:00:59.91: SIM {TimeUS : 62335056, Roll : 0.0, Pitch : 0.0, Yaw : 353.0, Alt : 584.090026855, Lat : -35.363261, Lng : 149.1652299, Q1 : 0.998134791851, Q2 : 0.0, Q3 : 0.0, Q4 : -0.0610485821962}
2019-04-03 23:01:00.01: SIM {TimeUS : 62435016, Roll : 0.0, Pitch : 0.0, Yaw : 353.0, Alt : 584.090026855, Lat : -35.363261, Lng : 149.1652299, Q1 : 0.998134791851, Q2 : 0.0, Q3 : 0.0, Q4 : -0.0610485821962}
2019-04-03 23:01:00.11: SIM {TimeUS : 62534976, Roll : 0.0, Pitch : 0.0, Yaw : 353.0, Alt : 584.090026855, Lat : -35.363261, Lng : 149.1652299, Q1 : 0.998134791851, Q2 : 0.0, Q3 : 0.0, Q4 : -0.0610485821962}
2019-04-03 23:01:00.21: SIM {TimeUS : 62634936, Roll : 0.0, Pitch : 0.0, Yaw : 353.0, Alt : 584.090026855, Lat : -35.363261, Lng : 149.1652299, Q1 : 0.998134791851, Q2 : 0.0, Q3 : 0.0, Q4 : -0.0610485821962}
2019-04-03 23:01:00.31: SIM {TimeUS : 62734896, Roll : 0.0, Pitch : 0.0, Yaw : 353.0, Alt : 584.090026855, Lat : -35.363261, Lng : 149.1652299, Q1 : 0.998134791851, Q2 : 0.0, Q3 : 0.0, Q4 : -0.0610485821962}
2019-04-03 23:01:00.41: SIM {TimeUS : 62834856, Roll : 0.0, Pitch : 0.0, Yaw : 353.0, Alt : 584.090026855, Lat : -35.363261, Lng : 149.1652299, Q1 : 0.998134791851, Q2 : 0.0, Q3 : 0.0, Q4 : -0.0610485821962}
2019-04-03 23:01:00.51: SIM {TimeUS : 62934816, Roll : 0.0, Pitch : 0.0, Yaw : 353.0, Alt : 584.090026855, Lat : -35.363261, Lng : 149.1652299, Q1 : 0.998134791851, Q2 : 0.0, Q3 : 0.0, Q4 : -0.0610485821962}
2019-04-03 23:01:00.61: SIM {TimeUS : 63034776, Roll : 0.0, Pitch : 0.0, Yaw : 353.0, Alt : 584.090026855, Lat : -35.363261, Lng : 149.1652299, Q1 : 0.998134791851, Q2 : 0.0, Q3 : 0.0, Q4 : -0.0610485821962}
2019-04-03 23:01:00.71: SIM {TimeUS : 63134736, Roll : 0.0, Pitch : 0.0, Yaw : 353.0, Alt : 584.090026855, Lat : -35.363261, Lng : 149.1652299, Q1 : 0.998134791851, Q2 : 0.0, Q3 : 0.0, Q4 : -0.0610485821962}
2019-04-03 23:01:00.81: SIM {TimeUS : 63234696, Roll : 0.0, Pitch : 0.0, Yaw : 353.0, Alt : 584.090026855, Lat : -35.363261, Lng : 149.1652299, Q1 : 0.998134791851, Q2 : 0.0, Q3 : 0.0, Q4 : -0.0610485821962}
2019-04-03 23:01:00.91: SIM {TimeUS : 63334656, Roll : 0.0, Pitch : 0.0, Yaw : 353.0, Alt : 584.090026855, Lat : -35.363261, Lng : 149.1652299, Q1 : 0.998134791851, Q2 : 0.0, Q3 : 0.0, Q4 : -0.0610485821962}
2019-04-03 23:01:01.02: SIM {TimeUS : 63435449, Roll : 0.0, Pitch : 0.0, Yaw : 353.0, Alt : 584.090026855, Lat : -35.363261, Lng : 149.1652299, Q1 : 0.998134791851, Q2 : 0.0, Q3 : 0.0, Q4 : -0.0610485821962}
2019-04-03 23:01:01.11: SIM {TimeUS : 63535409, Roll : 0.0, Pitch : 0.0, Yaw : 353.0, Alt : 584.090026855, Lat : -35.363261, Lng : 149.1652299, Q1 : 0.998134791851, Q2 : 0.0, Q3 : 0.0, Q4 : -0.0610485821962}
2019-04-03 23:01:01.21: SIM {TimeUS : 63635369, Roll : 0.0, Pitch : 0.0, Yaw : 353.0, Alt : 584.090026855, Lat : -35.363261, Lng : 149.1652299, Q1 : 0.998134791851, Q2 : 0.0, Q3 : 0.0, Q4 : -0.0610485821962}
2019-04-03 23:01:01.31: SIM {TimeUS : 63735329, Roll : 0.0, Pitch : 0.0, Yaw : 353.0, Alt : 584.090026855, Lat : -35.363261, Lng : 149.1652299, Q1 : 0.998134791851, Q2 : 0.0, Q3 : 0.0, Q4 : -0.0610485821962}
2019-04-03 23:01:01.41: SIM {TimeUS : 63835289, Roll : 0.0, Pitch : 0.0, Yaw : 353.0, Alt : 584.090026855, Lat : -35.363261, Lng : 149.1652299, Q1 : 0.998134791851, Q2 : 0.0, Q3 : 0.0, Q4 : -0.0610485821962}
2019-04-03 23:01:01.51: SIM {TimeUS : 63935249, Roll : 0.0, Pitch : 0.0, Yaw : 353.0, Alt : 584.090026855, Lat : -35.363261, Lng : 149.1652299, Q1 : 0.998134791851, Q2 : 0.0, Q3 : 0.0, Q4 : -0.0610485821962}
2019-04-03 23:01:01.61: SIM {TimeUS : 64035209, Roll : 0.0, Pitch : 0.0, Yaw : 353.0, Alt : 584.090026855, Lat : -35.363261, Lng : 149.1652299, Q1 : 0.998134791851, Q2 : 0.0, Q3 : 0.0, Q4 : -0.0610485821962}
2019-04-03 23:01:01.71: SIM {TimeUS : 64135169, Roll : 0.0, Pitch : 0.0, Yaw : 353.0, Alt : 584.090026855, Lat : -35.363261, Lng : 149.1652299, Q1 : 0.998134791851, Q2 : 0.0, Q3 : 0.0, Q4 : -0.0610485821962}
2019-04-03 23:01:01.81: SIM {TimeUS : 64235129, Roll : 0.0, Pitch : 0.0, Yaw : 353.0, Alt : 584.090026855, Lat : -35.363261, Lng : 149.1652299, Q1 : 0.998134791851, Q2 : 0.0, Q3 : 0.0, Q4 : -0.0610485821962}
2019-04-03 23:01:01.91: SIM {TimeUS : 64335089, Roll : 0.0, Pitch : 0.0, Yaw : 353.0, Alt : 584.090026855, Lat : -35.363261, Lng : 149.1652299, Q1 : 0.998134791851, Q2 : 0.0, Q3 : 0.0, Q4 : -0.0610485821962}
2019-04-03 23:01:02.01: SIM {TimeUS : 64435049, Roll : 0.0, Pitch : 0.0, Yaw : 353.0, Alt : 584.090026855, Lat : -35.363261, Lng : 149.1652299, Q1 : 0.998134791851, Q2 : 0.0, Q3 : 0.0, Q4 : -0.0610485821962}
2019-04-03 23:01:02.11: SIM {TimeUS : 64535009, Roll : 0.0, Pitch : 0.0, Yaw : 353.0, Alt : 584.090026855, Lat : -35.363261, Lng : 149.1652299, Q1 : 0.998134791851, Q2 : 0.0, Q3 : 0.0, Q4 : -0.0610485821962}
2019-04-03 23:01:02.21: SIM {TimeUS : 64634969, Roll : 0.0, Pitch : 0.0, Yaw : 353.0, Alt : 584.090026855, Lat : -35.363261, Lng : 149.1652299, Q1 : 0.998134791851, Q2 : 0.0, Q3 : 0.0, Q4 : -0.0610485821962}
2019-04-03 23:01:02.31: SIM {TimeUS : 64734929, Roll : 0.0, Pitch : 0.0, Yaw : 353.0, Alt : 584.090026855, Lat : -35.363261, Lng : 149.1652299, Q1 : 0.998134791851, Q2 : 0.0, Q3 : 0.0, Q4 : -0.0610485821962}
2019-04-03 23:01:02.41: SIM {TimeUS : 64834889, Roll : 0.0, Pitch : 0.0, Yaw : 353.0, Alt : 584.090026855, Lat : -35.363261, Lng : 149.1652299, Q1 : 0.998134791851, Q2 : 0.0, Q3 : 0.0, Q4 : -0.0610485821962}
2019-04-03 23:01:02.51: SIM {TimeUS : 64934849, Roll : 0.0, Pitch : 0.0, Yaw : 353.0, Alt : 584.090026855, Lat : -35.363261, Lng : 149.1652299, Q1 : 0.998134791851, Q2 : 0.0, Q3 : 0.0, Q4 : -0.0610485821962}
2019-04-03 23:01:02.61: SIM {TimeUS : 65034809, Roll : 0.0, Pitch : 0.0, Yaw : 353.0, Alt : 584.090026855, Lat : -35.363261, Lng : 149.1652299, Q1 : 0.998134791851, Q2 : 0.0, Q3 : 0.0, Q4 : -0.0610485821962}
2019-04-03 23:01:02.71: SIM {TimeUS : 65134769, Roll : 0.0, Pitch : 0.0, Yaw : 353.0, Alt : 584.090026855, Lat : -35.363261, Lng : 149.1652299, Q1 : 0.998134791851, Q2 : 0.0, Q3 : 0.0, Q4 : -0.0610485821962}
2019-04-03 23:01:02.81: SIM {TimeUS : 65234729, Roll : 0.0, Pitch : 0.0, Yaw : 353.0, Alt : 584.090026855, Lat : -35.363261, Lng : 149.1652299, Q1 : 0.998134791851, Q2 : 0.0, Q3 : 0.0, Q4 : -0.0610485821962}
2019-04-03 23:01:02.91: SIM {TimeUS : 65334689, Roll : 0.0, Pitch : 0.0, Yaw : 353.0, Alt : 584.090026855, Lat : -35.363261, Lng : 149.1652299, Q1 : 0.998134791851, Q2 : 0.0, Q3 : 0.0, Q4 : -0.0610485821962}
2019-04-03 23:01:03.01: SIM {TimeUS : 65434649, Roll : 0.0, Pitch : 0.0, Yaw : 353.0, Alt : 584.090026855, Lat : -35.363261, Lng : 149.1652299, Q1 : 0.998134791851, Q2 : 0.0, Q3 : 0.0, Q4 : -0.0610485821962}
2019-04-03 23:01:03.12: SIM {TimeUS : 65535442, Roll : 0.0, Pitch : 0.0, Yaw : 353.0, Alt : 584.090026855, Lat : -35.363261, Lng : 149.1652299, Q1 : 0.998134791851, Q2 : 0.0, Q3 : 0.0, Q4 : -0.0610485821962}
2019-04-03 23:01:03.21: SIM {TimeUS : 65635402, Roll : 0.0, Pitch : 0.0, Yaw : 353.0, Alt : 584.090026855, Lat : -35.363261, Lng : 149.1652299, Q1 : 0.998134791851, Q2 : 0.0, Q3 : 0.0, Q4 : -0.0610485821962}
2019-04-03 23:01:03.31: SIM {TimeUS : 65735362, Roll : 0.0, Pitch : 0.0, Yaw : 353.0, Alt : 584.090026855, Lat : -35.363261, Lng : 149.1652299, Q1 : 0.998134791851, Q2 : 0.0, Q3 : 0.0, Q4 : -0.0610485821962}
2019-04-03 23:01:03.41: SIM {TimeUS : 65835322, Roll : 0.0, Pitch : 0.0, Yaw : 353.0, Alt : 584.090026855, Lat : -35.363261, Lng : 149.1652299, Q1 : 0.998134791851, Q2 : 0.0, Q3 : 0.0, Q4 : -0.0610485821962}
2019-04-03 23:01:03.51: SIM {TimeUS : 65935282, Roll : 0.0, Pitch : 0.0, Yaw : 353.0, Alt : 584.090026855, Lat : -35.363261, Lng : 149.1652299, Q1 : 0.998134791851, Q2 : 0.0, Q3 : 0.0, Q4 : -0.0610485821962}
2019-04-03 23:01:03.61: SIM {TimeUS : 66035242, Roll : 0.0, Pitch : 0.0, Yaw : 353.0, Alt : 584.090026855, Lat : -35.363261, Lng : 149.1652299, Q1 : 0.998134791851, Q2 : 0.0, Q3 : 0.0, Q4 : -0.0610485821962}
2019-04-03 23:01:03.71: SIM {TimeUS : 66135202, Roll : 0.0, Pitch : 0.0, Yaw : 353.0, Alt : 584.090026855, Lat : -35.363261, Lng : 149.1652299, Q1 : 0.998134791851, Q2 : 0.0, Q3 : 0.0, Q4 : -0.0610485821962}
2019-04-03 23:01:03.81: SIM {TimeUS : 66235162, Roll : 0.0, Pitch : 0.0, Yaw : 353.0, Alt : 584.090026855, Lat : -35.363261, Lng : 149.1652299, Q1 : 0.998134791851, Q2 : 0.0, Q3 : 0.0, Q4 : -0.0610485821962}
2019-04-03 23:01:03.91: SIM {TimeUS : 66335122, Roll : 0.0, Pitch : 0.0, Yaw : 353.0, Alt : 584.090026855, Lat : -35.363261, Lng : 149.1652299, Q1 : 0.998134791851, Q2 : 0.0, Q3 : 0.0, Q4 : -0.0610485821962}
2019-04-03 23:01:04.01: SIM {TimeUS : 66435082, Roll : 0.0, Pitch : 0.0, Yaw : 353.0, Alt : 584.090026855, Lat : -35.363261, Lng : 149.1652299, Q1 : 0.998134791851, Q2 : 0.0, Q3 : 0.0, Q4 : -0.0610485821962}
2019-04-03 23:01:04.11: SIM {TimeUS : 66535042, Roll : 0.0, Pitch : 0.0, Yaw : 353.0, Alt : 584.090026855, Lat : -35.363261, Lng : 149.1652299, Q1 : 0.998134791851, Q2 : 0.0, Q3 : 0.0, Q4 : -0.0610485821962}
2019-04-03 23:01:04.21: SIM {TimeUS : 66635002, Roll : 0.0, Pitch : 0.0, Yaw : 353.0, Alt : 584.090026855, Lat : -35.363261, Lng : 149.1652299, Q1 : 0.998134791851, Q2 : 0.0, Q3 : 0.0, Q4 : -0.0610485821962}
2019-04-03 23:01:04.31: SIM {TimeUS : 66734962, Roll : 0.0, Pitch : 0.0, Yaw : 353.0, Alt : 584.090026855, Lat : -35.363261, Lng : 149.1652299, Q1 : 0.998134791851, Q2 : 0.0, Q3 : 0.0, Q4 : -0.0610485821962}
2019-04-03 23:01:04.41: SIM {TimeUS : 66834922, Roll : 0.0, Pitch : 0.0, Yaw : 353.0, Alt : 584.090026855, Lat : -35.363261, Lng : 149.1652299, Q1 : 0.998134791851, Q2 : 0.0, Q3 : 0.0, Q4 : -0.0610485821962}
2019-04-03 23:01:04.51: SIM {TimeUS : 66934882, Roll : 0.0, Pitch : 0.0, Yaw : 353.0, Alt : 584.090026855, Lat : -35.363261, Lng : 149.1652299, Q1 : 0.998134791851, Q2 : 0.0, Q3 : 0.0, Q4 : -0.0610485821962}
2019-04-03 23:01:04.61: SIM {TimeUS : 67034842, Roll : 0.0, Pitch : 0.0, Yaw : 353.0, Alt : 584.090026855, Lat : -35.363261, Lng : 149.1652299, Q1 : 0.998134791851, Q2 : 0.0, Q3 : 0.0, Q4 : -0.0610485821962}
2019-04-03 23:01:04.71: SIM {TimeUS : 67134802, Roll : 0.0, Pitch : 0.0, Yaw : 353.0, Alt : 584.090026855, Lat : -35.363261, Lng : 149.1652299, Q1 : 0.998134791851, Q2 : 0.0, Q3 : 0.0, Q4 : -0.0610485821962}
2019-04-03 23:01:04.81: SIM {TimeUS : 67234762, Roll : 0.0, Pitch : 0.0, Yaw : 353.0, Alt : 584.090026855, Lat : -35.363261, Lng : 149.1652299, Q1 : 0.998134791851, Q2 : 0.0, Q3 : 0.0, Q4 : -0.0610485821962}
2019-04-03 23:01:04.91: SIM {TimeUS : 67334722, Roll : 0.0, Pitch : 0.0, Yaw : 353.0, Alt : 584.090026855, Lat : -35.363261, Lng : 149.1652299, Q1 : 0.998134791851, Q2 : 0.0, Q3 : 0.0, Q4 : -0.0610485821962}
2019-04-03 23:01:05.01: SIM {TimeUS : 67434682, Roll : 0.0, Pitch : 0.0, Yaw : 353.0, Alt : 584.090026855, Lat : -35.363261, Lng : 149.1652299, Q1 : 0.998134791851, Q2 : 0.0, Q3 : 0.0, Q4 : -0.0610485821962}
2019-04-03 23:01:05.11: SIM {TimeUS : 67534642, Roll : 0.0, Pitch : 0.0, Yaw : 353.0, Alt : 584.090026855, Lat : -35.363261, Lng : 149.1652299, Q1 : 0.998134791851, Q2 : 0.0, Q3 : 0.0, Q4 : -0.0610485821962}
2019-04-03 23:01:05.22: SIM {TimeUS : 67635435, Roll : 0.0, Pitch : 0.0, Yaw : 353.0, Alt : 584.090026855, Lat : -35.363261, Lng : 149.1652299, Q1 : 0.998134791851, Q2 : 0.0, Q3 : 0.0, Q4 : -0.0610485821962}
2019-04-03 23:01:05.31: SIM {TimeUS : 67735395, Roll : 0.0, Pitch : 0.0, Yaw : 353.0, Alt : 584.090026855, Lat : -35.363261, Lng : 149.1652299, Q1 : 0.998134791851, Q2 : 0.0, Q3 : 0.0, Q4 : -0.0610485821962}
2019-04-03 23:01:05.41: SIM {TimeUS : 67835355, Roll : 0.0, Pitch : 0.0, Yaw : 353.0, Alt : 584.090026855, Lat : -35.363261, Lng : 149.1652299, Q1 : 0.998134791851, Q2 : 0.0, Q3 : 0.0, Q4 : -0.0610485821962}
2019-04-03 23:01:05.51: SIM {TimeUS : 67935315, Roll : 0.0, Pitch : 0.0, Yaw : 353.0, Alt : 584.090026855, Lat : -35.363261, Lng : 149.1652299, Q1 : 0.998134791851, Q2 : 0.0, Q3 : 0.0, Q4 : -0.0610485821962}
2019-04-03 23:01:05.61: SIM {TimeUS : 68035275, Roll : 0.0, Pitch : 0.0, Yaw : 353.0, Alt : 584.090026855, Lat : -35.363261, Lng : 149.1652299, Q1 : 0.998134791851, Q2 : 0.0, Q3 : 0.0, Q4 : -0.0610485821962}
2019-04-03 23:01:05.71: SIM {TimeUS : 68135235, Roll : 0.0, Pitch : 0.0, Yaw : 353.0, Alt : 584.090026855, Lat : -35.363261, Lng : 149.1652299, Q1 : 0.998134791851, Q2 : 0.0, Q3 : 0.0, Q4 : -0.0610485821962}
2019-04-03 23:01:05.81: SIM {TimeUS : 68235195, Roll : 0.0, Pitch : 0.0, Yaw : 353.0, Alt : 584.090026855, Lat : -35.363261, Lng : 149.1652299, Q1 : 0.998134791851, Q2 : 0.0, Q3 : 0.0, Q4 : -0.0610485821962}
2019-04-03 23:01:05.91: SIM {TimeUS : 68335155, Roll : 0.0, Pitch : 0.0, Yaw : 353.0, Alt : 584.090026855, Lat : -35.363261, Lng : 149.1652299, Q1 : 0.998134791851, Q2 : 0.0, Q3 : 0.0, Q4 : -0.0610485821962}
2019-04-03 23:01:06.01: SIM {TimeUS : 68435115, Roll : 0.0, Pitch : 0.0, Yaw : 353.0, Alt : 584.090026855, Lat : -35.363261, Lng : 149.1652299, Q1 : 0.998134791851, Q2 : 0.0, Q3 : 0.0, Q4 : -0.0610485821962}
2019-04-03 23:01:06.11: SIM {TimeUS : 68535075, Roll : 0.0, Pitch : 0.0, Yaw : 353.0, Alt : 584.090026855, Lat : -35.363261, Lng : 149.1652299, Q1 : 0.998134791851, Q2 : 0.0, Q3 : 0.0, Q4 : -0.0610485821962}
2019-04-03 23:01:06.21: SIM {TimeUS : 68635035, Roll : 0.0, Pitch : 0.0, Yaw : 353.0, Alt : 584.090026855, Lat : -35.363261, Lng : 149.1652299, Q1 : 0.998134791851, Q2 : 0.0, Q3 : 0.0, Q4 : -0.0610485821962}
2019-04-03 23:01:06.31: SIM {TimeUS : 68734995, Roll : 0.0, Pitch : 0.0, Yaw : 353.0, Alt : 584.090026855, Lat : -35.363261, Lng : 149.1652299, Q1 : 0.998134791851, Q2 : 0.0, Q3 : 0.0, Q4 : -0.0610485821962}
2019-04-03 23:01:06.41: SIM {TimeUS : 68834955, Roll : 0.0, Pitch : 0.0, Yaw : 353.0, Alt : 584.090026855, Lat : -35.363261, Lng : 149.1652299, Q1 : 0.998134791851, Q2 : 0.0, Q3 : 0.0, Q4 : -0.0610485821962}
2019-04-03 23:01:06.51: SIM {TimeUS : 68934915, Roll : 0.0, Pitch : 0.0, Yaw : 353.0, Alt : 584.090026855, Lat : -35.363261, Lng : 149.1652299, Q1 : 0.998134791851, Q2 : 0.0, Q3 : 0.0, Q4 : -0.0610485821962}
2019-04-03 23:01:06.61: SIM {TimeUS : 69034875, Roll : 0.0, Pitch : 0.0, Yaw : 353.0, Alt : 584.090026855, Lat : -35.363261, Lng : 149.1652299, Q1 : 0.998134791851, Q2 : 0.0, Q3 : 0.0, Q4 : -0.0610485821962}
2019-04-03 23:01:06.71: SIM {TimeUS : 69134835, Roll : 0.0, Pitch : 0.0, Yaw : 353.0, Alt : 584.090026855, Lat : -35.363261, Lng : 149.1652299, Q1 : 0.998134791851, Q2 : 0.0, Q3 : 0.0, Q4 : -0.0610485821962}
2019-04-03 23:01:06.81: SIM {TimeUS : 69234795, Roll : 0.0, Pitch : 0.0, Yaw : 353.0, Alt : 584.090026855, Lat : -35.363261, Lng : 149.1652299, Q1 : 0.998134791851, Q2 : 0.0, Q3 : 0.0, Q4 : -0.0610485821962}
2019-04-03 23:01:06.91: SIM {TimeUS : 69334755, Roll : 0.0, Pitch : 0.0, Yaw : 353.0, Alt : 584.090026855, Lat : -35.363261, Lng : 149.1652299, Q1 : 0.998134791851, Q2 : 0.0, Q3 : 0.0, Q4 : -0.0610485821962}
2019-04-03 23:01:07.01: SIM {TimeUS : 69434715, Roll : 0.0, Pitch : 0.0, Yaw : 353.0, Alt : 584.090026855, Lat : -35.363261, Lng : 149.1652299, Q1 : 0.998134791851, Q2 : 0.0, Q3 : 0.0, Q4 : -0.0610485821962}
2019-04-03 23:01:07.11: SIM {TimeUS : 69534675, Roll : 0.0, Pitch : 0.0, Yaw : 353.0, Alt : 584.090026855, Lat : -35.363261, Lng : 149.1652299, Q1 : 0.998134791851, Q2 : 0.0, Q3 : 0.0, Q4 : -0.0610485821962}
2019-04-03 23:01:07.21: SIM {TimeUS : 69634635, Roll : 0.0, Pitch : 0.0, Yaw : 353.0, Alt : 584.090026855, Lat : -35.363261, Lng : 149.1652299, Q1 : 0.998134791851, Q2 : 0.0, Q3 : 0.0, Q4 : -0.0610485821962}
2019-04-03 23:01:07.32: SIM {TimeUS : 69735428, Roll : 0.0, Pitch : 0.0, Yaw : 353.0, Alt : 584.090026855, Lat : -35.363261, Lng : 149.1652299, Q1 : 0.998134791851, Q2 : 0.0, Q3 : 0.0, Q4 : -0.0610485821962}
2019-04-03 23:01:07.41: SIM {TimeUS : 69835388, Roll : 0.0, Pitch : 0.0, Yaw : 353.0, Alt : 584.090026855, Lat : -35.363261, Lng : 149.1652299, Q1 : 0.998134791851, Q2 : 0.0, Q3 : 0.0, Q4 : -0.0610485821962}
2019-04-03 23:01:07.51: SIM {TimeUS : 69935348, Roll : 0.0, Pitch : 0.0, Yaw : 353.0, Alt : 584.090026855, Lat : -35.363261, Lng : 149.1652299, Q1 : 0.998134791851, Q2 : 0.0, Q3 : 0.0, Q4 : -0.0610485821962}
2019-04-03 23:01:07.61: SIM {TimeUS : 70035308, Roll : 0.0, Pitch : 0.0, Yaw : 353.0, Alt : 584.090026855, Lat : -35.363261, Lng : 149.1652299, Q1 : 0.998134791851, Q2 : 0.0, Q3 : 0.0, Q4 : -0.0610485821962}
2019-04-03 23:01:07.71: SIM {TimeUS : 70135268, Roll : 0.0, Pitch : 0.0, Yaw : 353.0, Alt : 584.090026855, Lat : -35.363261, Lng : 149.1652299, Q1 : 0.998134791851, Q2 : 0.0, Q3 : 0.0, Q4 : -0.0610485821962}
2019-04-03 23:01:07.81: SIM {TimeUS : 70235228, Roll : 0.0, Pitch : 0.0, Yaw : 353.0, Alt : 584.090026855, Lat : -35.363261, Lng : 149.1652299, Q1 : 0.998134791851, Q2 : 0.0, Q3 : 0.0, Q4 : -0.0610485821962}
2019-04-03 23:01:07.91: SIM {TimeUS : 70335188, Roll : 0.0, Pitch : 0.0, Yaw : 353.0, Alt : 584.090026855, Lat : -35.363261, Lng : 149.1652299, Q1 : 0.998134791851, Q2 : 0.0, Q3 : 0.0, Q4 : -0.0610485821962}
2019-04-03 23:01:08.01: SIM {TimeUS : 70435148, Roll : 0.0, Pitch : 0.0, Yaw : 353.0, Alt : 584.090026855, Lat : -35.363261, Lng : 149.1652299, Q1 : 0.998134791851, Q2 : 0.0, Q3 : 0.0, Q4 : -0.0610485821962}
2019-04-03 23:01:08.11: SIM {TimeUS : 70535108, Roll : 0.0, Pitch : 0.0, Yaw : 353.0, Alt : 584.090026855, Lat : -35.363261, Lng : 149.1652299, Q1 : 0.998134791851, Q2 : 0.0, Q3 : 0.0, Q4 : -0.0610485821962}
2019-04-03 23:01:08.21: SIM {TimeUS : 70635068, Roll : 0.0, Pitch : 0.0, Yaw : 353.0, Alt : 584.090026855, Lat : -35.363261, Lng : 149.1652299, Q1 : 0.998134791851, Q2 : 0.0, Q3 : 0.0, Q4 : -0.0610485821962}
2019-04-03 23:01:08.31: SIM {TimeUS : 70735028, Roll : 0.0, Pitch : 0.0, Yaw : 353.0, Alt : 584.090026855, Lat : -35.363261, Lng : 149.1652299, Q1 : 0.998134791851, Q2 : 0.0, Q3 : 0.0, Q4 : -0.0610485821962}
2019-04-03 23:01:08.41: SIM {TimeUS : 70834988, Roll : 0.0, Pitch : 0.0, Yaw : 353.0, Alt : 584.090026855, Lat : -35.363261, Lng : 149.1652299, Q1 : 0.998134791851, Q2 : 0.0, Q3 : 0.0, Q4 : -0.0610485821962}
2019-04-03 23:01:08.51: SIM {TimeUS : 70934948, Roll : 0.0, Pitch : 0.0, Yaw : 353.0, Alt : 584.090026855, Lat : -35.363261, Lng : 149.1652299, Q1 : 0.998134791851, Q2 : 0.0, Q3 : 0.0, Q4 : -0.0610485821962}
2019-04-03 23:01:08.61: SIM {TimeUS : 71034908, Roll : 0.0, Pitch : 0.0, Yaw : 353.0, Alt : 584.090026855, Lat : -35.363261, Lng : 149.1652299, Q1 : 0.998134791851, Q2 : 0.0, Q3 : 0.0, Q4 : -0.0610485821962}
2019-04-03 23:01:08.71: SIM {TimeUS : 71134868, Roll : 0.0, Pitch : 0.0, Yaw : 353.0, Alt : 584.090026855, Lat : -35.363261, Lng : 149.1652299, Q1 : 0.998134791851, Q2 : 0.0, Q3 : 0.0, Q4 : -0.0610485821962}
2019-04-03 23:01:10.41: SIM {TimeUS : 72835021, Roll : 0.0, Pitch : 0.0, Yaw : 353.0, Alt : 584.090026855, Lat : -35.363261, Lng : 149.1652299, Q1 : 0.998134791851, Q2 : 0.0, Q3 : 0.0, Q4 : -0.0610485821962}
2019-04-03 23:01:10.51: SIM {TimeUS : 72934981, Roll : 0.0, Pitch : 0.0, Yaw : 353.0, Alt : 584.090026855, Lat : -35.363261, Lng : 149.1652299, Q1 : 0.998134791851, Q2 : 0.0, Q3 : 0.0, Q4 : -0.0610485821962}
2019-04-03 23:01:10.61: SIM {TimeUS : 73034941, Roll : 0.0, Pitch : 0.0, Yaw : 353.0, Alt : 584.090026855, Lat : -35.363261, Lng : 149.1652299, Q1 : 0.998134791851, Q2 : 0.0, Q3 : 0.0, Q4 : -0.0610485821962}
2019-04-03 23:01:10.71: SIM {TimeUS : 73134901, Roll : 0.0, Pitch : 0.0, Yaw : 353.0, Alt : 584.090026855, Lat : -35.363261, Lng : 149.1652299, Q1 : 0.998134791851, Q2 : 0.0, Q3 : 0.0, Q4 : -0.0610485821962}
2019-04-03 23:01:10.81: SIM {TimeUS : 73234861, Roll : 0.0, Pitch : 0.0, Yaw : 353.0, Alt : 584.090026855, Lat : -35.363261, Lng : 149.1652299, Q1 : 0.998134791851, Q2 : 0.0, Q3 : 0.0, Q4 : -0.0610485821962}
2019-04-03 23:01:10.91: SIM {TimeUS : 73334821, Roll : 0.0, Pitch : 0.0, Yaw : 353.0, Alt : 584.090026855, Lat : -35.363261, Lng : 149.1652299, Q1 : 0.998134791851, Q2 : 0.0, Q3 : 0.0, Q4 : -0.0610485821962}
2019-04-03 23:01:11.01: SIM {TimeUS : 73434781, Roll : 0.0, Pitch : 0.0, Yaw : 353.0, Alt : 584.090026855, Lat : -35.363261, Lng : 149.1652299, Q1 : 0.998134791851, Q2 : 0.0, Q3 : 0.0, Q4 : -0.0610485821962}
2019-04-03 23:01:11.11: SIM {TimeUS : 73534741, Roll : 0.0, Pitch : 0.0, Yaw : 353.0, Alt : 584.090026855, Lat : -35.363261, Lng : 149.1652299, Q1 : 0.998134791851, Q2 : 0.0, Q3 : 0.0, Q4 : -0.0610485821962}
2019-04-03 23:01:11.21: SIM {TimeUS : 73634701, Roll : 0.0, Pitch : 0.0, Yaw : 353.0, Alt : 584.090026855, Lat : -35.363261, Lng : 149.1652299, Q1 : 0.998134791851, Q2 : 0.0, Q3 : 0.0, Q4 : -0.0610485821962}
2019-04-03 23:01:11.31: SIM {TimeUS : 73734661, Roll : 0.0, Pitch : 0.0, Yaw : 353.0, Alt : 584.090026855, Lat : -35.363261, Lng : 149.1652299, Q1 : 0.998134791851, Q2 : 0.0, Q3 : 0.0, Q4 : -0.0610485821962}
2019-04-03 23:01:11.42: SIM {TimeUS : 73835454, Roll : 0.0, Pitch : 0.0, Yaw : 353.0, Alt : 584.090026855, Lat : -35.363261, Lng : 149.1652299, Q1 : 0.998134791851, Q2 : 0.0, Q3 : 0.0, Q4 : -0.0610485821962}
2019-04-03 23:01:11.51: SIM {TimeUS : 73935414, Roll : 0.0, Pitch : 0.0, Yaw : 353.0, Alt : 584.090026855, Lat : -35.363261, Lng : 149.1652299, Q1 : 0.998134791851, Q2 : 0.0, Q3 : 0.0, Q4 : -0.0610485821962}
2019-04-03 23:01:11.61: SIM {TimeUS : 74035374, Roll : 0.0, Pitch : 0.0, Yaw : 353.0, Alt : 584.090026855, Lat : -35.363261, Lng : 149.1652299, Q1 : 0.998134791851, Q2 : 0.0, Q3 : 0.0, Q4 : -0.0610485821962}
2019-04-03 23:01:11.71: SIM {TimeUS : 74135334, Roll : 0.0, Pitch : 0.0, Yaw : 353.0, Alt : 584.090026855, Lat : -35.363261, Lng : 149.1652299, Q1 : 0.998134791851, Q2 : 0.0, Q3 : 0.0, Q4 : -0.0610485821962}
2019-04-03 23:01:11.81: SIM {TimeUS : 74235294, Roll : 0.0, Pitch : 0.0, Yaw : 353.0, Alt : 584.090026855, Lat : -35.363261, Lng : 149.1652299, Q1 : 0.998134791851, Q2 : 0.0, Q3 : 0.0, Q4 : -0.0610485821962}
2019-04-03 23:01:11.91: SIM {TimeUS : 74335254, Roll : 0.0, Pitch : 0.0, Yaw : 353.0, Alt : 584.090026855, Lat : -35.363261, Lng : 149.1652299, Q1 : 0.998134791851, Q2 : 0.0, Q3 : 0.0, Q4 : -0.0610485821962}
2019-04-03 23:01:12.01: SIM {TimeUS : 74435214, Roll : 0.0, Pitch : 0.0, Yaw : 353.0, Alt : 584.090026855, Lat : -35.363261, Lng : 149.1652299, Q1 : 0.998134791851, Q2 : 0.0, Q3 : 0.0, Q4 : -0.0610485821962}
2019-04-03 23:01:12.11: SIM {TimeUS : 74535174, Roll : 0.0, Pitch : 0.0, Yaw : 353.0, Alt : 584.090026855, Lat : -35.363261, Lng : 149.1652299, Q1 : 0.998134791851, Q2 : 0.0, Q3 : 0.0, Q4 : -0.0610485821962}
2019-04-03 23:01:12.21: SIM {TimeUS : 74635134, Roll : 0.0, Pitch : 0.0, Yaw : 353.0, Alt : 584.090026855, Lat : -35.363261, Lng : 149.1652299, Q1 : 0.998134791851, Q2 : 0.0, Q3 : 0.0, Q4 : -0.0610485821962}
2019-04-03 23:01:12.31: SIM {TimeUS : 74735094, Roll : 0.0, Pitch : 0.0, Yaw : 353.0, Alt : 584.090026855, Lat : -35.363261, Lng : 149.1652299, Q1 : 0.998134791851, Q2 : 0.0, Q3 : 0.0, Q4 : -0.0610485821962}
2019-04-03 23:01:12.41: SIM {TimeUS : 74835054, Roll : 0.0, Pitch : 0.0, Yaw : 353.0, Alt : 584.090026855, Lat : -35.363261, Lng : 149.1652299, Q1 : 0.998134791851, Q2 : 0.0, Q3 : 0.0, Q4 : -0.0610485821962}
2019-04-03 23:01:12.51: SIM {TimeUS : 74935014, Roll : 0.0, Pitch : 0.0, Yaw : 353.0, Alt : 584.090026855, Lat : -35.363261, Lng : 149.1652299, Q1 : 0.998134791851, Q2 : 0.0, Q3 : 0.0, Q4 : -0.0610485821962}
2019-04-03 23:01:12.61: SIM {TimeUS : 75034974, Roll : 0.0, Pitch : 0.0, Yaw : 353.0, Alt : 584.090026855, Lat : -35.363261, Lng : 149.1652299, Q1 : 0.998134791851, Q2 : 0.0, Q3 : 0.0, Q4 : -0.0610485821962}
2019-04-03 23:01:12.71: SIM {TimeUS : 75134934, Roll : 0.0, Pitch : 0.0, Yaw : 353.0, Alt : 584.090026855, Lat : -35.363261, Lng : 149.1652299, Q1 : 0.998134791851, Q2 : 0.0, Q3 : 0.0, Q4 : -0.0610485821962}
2019-04-03 23:01:12.81: SIM {TimeUS : 75234894, Roll : 0.0, Pitch : 0.0, Yaw : 353.0, Alt : 584.090026855, Lat : -35.363261, Lng : 149.1652299, Q1 : 0.998134791851, Q2 : 0.0, Q3 : 0.0, Q4 : -0.0610485821962}
2019-04-03 23:01:12.91: SIM {TimeUS : 75334854, Roll : 0.0, Pitch : 0.0, Yaw : 353.0, Alt : 584.090026855, Lat : -35.363261, Lng : 149.1652299, Q1 : 0.998134791851, Q2 : 0.0, Q3 : 0.0, Q4 : -0.0610486753285}
2019-04-03 23:01:13.01: SIM {TimeUS : 75434814, Roll : 0.0, Pitch : 0.0, Yaw : 353.0, Alt : 584.090026855, Lat : -35.363261, Lng : 149.1652299, Q1 : 0.998134791851, Q2 : 0.0, Q3 : 0.0, Q4 : -0.0610486753285}
2019-04-03 23:01:13.11: SIM {TimeUS : 75534774, Roll : 0.0, Pitch : 0.0, Yaw : 353.0, Alt : 584.090026855, Lat : -35.363261, Lng : 149.1652299, Q1 : 0.998134791851, Q2 : 0.0, Q3 : 0.0, Q4 : -0.0610486753285}
2019-04-03 23:01:13.21: SIM {TimeUS : 75634734, Roll : 0.0, Pitch : 0.0, Yaw : 353.0, Alt : 584.090026855, Lat : -35.363261, Lng : 149.1652299, Q1 : 0.998134791851, Q2 : 0.0, Q3 : 0.0, Q4 : -0.0610486753285}
2019-04-03 23:01:13.31: SIM {TimeUS : 75734694, Roll : 0.0, Pitch : 0.0, Yaw : 353.0, Alt : 584.090026855, Lat : -35.363261, Lng : 149.1652299, Q1 : 0.998134791851, Q2 : 0.0, Q3 : 0.0, Q4 : -0.0610486753285}
2019-04-03 23:01:13.41: SIM {TimeUS : 75834654, Roll : 0.0, Pitch : 0.0, Yaw : 353.0, Alt : 584.099975586, Lat : -35.363261, Lng : 149.1652299, Q1 : 0.998134791851, Q2 : 0.0, Q3 : 0.0, Q4 : -0.0610486753285}
2019-04-03 23:01:13.52: SIM {TimeUS : 75935447, Roll : 0.0, Pitch : 0.0, Yaw : 353.0, Alt : 584.099975586, Lat : -35.363261, Lng : 149.1652299, Q1 : 0.998134791851, Q2 : 0.0, Q3 : 0.0, Q4 : -0.0610486641526}
2019-04-03 23:01:13.61: SIM {TimeUS : 76035407, Roll : 0.0, Pitch : 0.0, Yaw : 353.0, Alt : 584.109985352, Lat : -35.363261, Lng : 149.1652299, Q1 : 0.998134791851, Q2 : 0.0, Q3 : 0.0, Q4 : -0.0610486753285}
2019-04-03 23:01:13.71: SIM {TimeUS : 76135367, Roll : 0.0, Pitch : 0.0, Yaw : 353.0, Alt : 584.130004883, Lat : -35.363261, Lng : 149.1652299, Q1 : 0.998134791851, Q2 : 0.0, Q3 : 0.0, Q4 : -0.0610486753285}
2019-04-03 23:01:13.81: SIM {TimeUS : 76235327, Roll : 0.0, Pitch : 0.0, Yaw : 353.0, Alt : 584.150024414, Lat : -35.363261, Lng : 149.1652299, Q1 : 0.998134791851, Q2 : 0.0, Q3 : 0.0, Q4 : -0.0610486753285}
2019-04-03 23:01:13.91: SIM {TimeUS : 76335287, Roll : 0.0, Pitch : 0.0, Yaw : 353.0, Alt : 584.179992676, Lat : -35.363261, Lng : 149.1652299, Q1 : 0.998134791851, Q2 : 0.0, Q3 : 0.0, Q4 : -0.0610486753285}
2019-04-03 23:01:14.01: SIM {TimeUS : 76435247, Roll : 0.0, Pitch : 0.0, Yaw : 352.99, Alt : 584.219970703, Lat : -35.363261, Lng : 149.1652299, Q1 : 0.998134732246, Q2 : -4.93058578286e-05, Q3 : -3.08471026074e-05, Q4 : -0.0610497668386}
2019-04-03 23:01:14.11: SIM {TimeUS : 76535207, Roll : -0.09, Pitch : -0.07, Yaw : 352.99, Alt : 584.289978027, Lat : -35.363261, Lng : 149.1652299, Q1 : 0.998133480549, Q2 : -0.000831405690406, Q3 : -0.000640117155854, Q4 : -0.0610609427094}
2019-04-03 23:01:14.21: SIM {TimeUS : 76635167, Roll : -0.21, Pitch : -0.17, Yaw : 352.99, Alt : 584.41998291, Lat : -35.363261, Lng : 149.1652299, Q1 : 0.998129785061, Q2 : -0.00194841064513, Q3 : -0.00144284463022, Q4 : -0.0610824227333}
2019-04-03 23:01:14.31: SIM {TimeUS : 76735127, Roll : -0.3, Pitch : -0.23, Yaw : 352.99, Alt : 584.570007324, Lat : -35.363261, Lng : 149.1652299, Q1 : 0.998125314713, Q2 : -0.00281401816756, Q3 : -0.00189875299111, Q4 : -0.0611101798713}
2019-04-03 23:01:14.41: SIM {TimeUS : 76835087, Roll : -0.33, Pitch : -0.24, Yaw : 352.99, Alt : 584.729980469, Lat : -35.363261, Lng : 149.1652299, Q1 : 0.998122990131, Q2 : -0.00302334665321, Q3 : -0.00197477056645, Q4 : -0.0611350052059}
2019-04-03 23:01:14.51: SIM {TimeUS : 76935047, Roll : -0.28, Pitch : -0.23, Yaw : 352.98, Alt : 584.880004883, Lat : -35.363261, Lng : 149.1652299, Q1 : 0.998122692108, Q2 : -0.0025818743743, Q3 : -0.00191021966748, Q4 : -0.0611620135605}
2019-04-03 23:01:14.61: SIM {TimeUS : 77035007, Roll : -0.17, Pitch : -0.2, Yaw : 352.98, Alt : 585.030029297, Lat : -35.363261, Lng : 149.1652299, Q1 : 0.998123407364, Q2 : -0.00159911159426, Q3 : -0.00169059028849, Q4 : -0.0611905641854}
2019-04-03 23:01:14.71: SIM {TimeUS : 77134967, Roll : -0.04, Pitch : -0.13, Yaw : 352.98, Alt : 585.179992676, Lat : -35.363261, Lng : 149.1652298, Q1 : 0.998123764992, Q2 : -0.000450495572295, Q3 : -0.00111659022514, Q4 : -0.0612166300416}
2019-04-03 23:01:14.81: SIM {TimeUS : 77234927, Roll : 0.05, Pitch : -0.03, Yaw : 352.97, Alt : 585.340026855, Lat : -35.363261, Lng : 149.1652298, Q1 : 0.998122930527, Q2 : 0.000461150048068, Q3 : -0.000365800893633, Q4 : -0.0612390451133}
2019-04-03 23:01:14.91: SIM {TimeUS : 77334887, Roll : 0.1, Pitch : 0.02, Yaw : 352.97, Alt : 585.510009766, Lat : -35.363261, Lng : 149.1652298, Q1 : 0.998121678829, Q2 : 0.000959492404945, Q3 : 0.000183921816642, Q4 : -0.0612554363906}
2019-04-03 23:01:15.01: SIM {TimeUS : 77434847, Roll : 0.09, Pitch : 0.02, Yaw : 352.97, Alt : 585.679992676, Lat : -35.363261, Lng : 149.1652298, Q1 : 0.998121201992, Q2 : 0.000852085067891, Q3 : 0.000164373399457, Q4 : -0.0612641386688}
2019-04-03 23:01:15.11: SIM {TimeUS : 77534807, Roll : 0.06, Pitch : -0.03, Yaw : 352.97, Alt : 585.859985352, Lat : -35.3632609, Lng : 149.1652298, Q1 : 0.998121619225, Q2 : 0.000563119538128, Q3 : -0.000318429607432, Q4 : -0.0612595416605}
2019-04-03 23:01:15.21: SIM {TimeUS : 77634767, Roll : 0.03, Pitch : -0.08, Yaw : 352.97, Alt : 586.049987793, Lat : -35.3632609, Lng : 149.1652298, Q1 : 0.99812155962, Q2 : 0.000256037485087, Q3 : -0.000782002636697, Q4 : -0.0612588338554}
2019-04-03 23:01:15.31: SIM {TimeUS : 77734727, Roll : 0.01, Pitch : -0.11, Yaw : 352.97, Alt : 586.229980469, Lat : -35.3632609, Lng : 149.1652298, Q1 : 0.998121082783, Q2 : 8.37803163449e-05, Q3 : -0.000989209394902, Q4 : -0.0612644329667}
2019-04-03 23:01:15.41: SIM {TimeUS : 77834687, Roll : 0.0, Pitch : -0.09, Yaw : 352.97, Alt : 586.41998291, Lat : -35.3632609, Lng : 149.1652298, Q1 : 0.998120725155, Q2 : -1.7606851543e-05, Q3 : -0.000834387959912, Q4 : -0.0612724684179}
2019-04-03 23:01:15.51: SIM {TimeUS : 77934647, Roll : 0.0, Pitch : -0.04, Yaw : 352.97, Alt : 586.619995117, Lat : -35.3632609, Lng : 149.1652298, Q1 : 0.998121142387, Q2 : -8.61383596202e-05, Q3 : -0.000392073619878, Q4 : -0.0612703412771}
2019-04-03 23:01:15.62: SIM {TimeUS : 78035440, Roll : 0.0, Pitch : 0.0, Yaw : 352.97, Alt : 586.809997559, Lat : -35.3632609, Lng : 149.1652298, Q1 : 0.998121500015, Q2 : -7.36831789254e-05, Q3 : 8.69485083967e-05, Q4 : -0.0612653754652}
2019-04-03 23:01:15.71: SIM {TimeUS : 78135400, Roll : 0.01, Pitch : 0.06, Yaw : 352.97, Alt : 587.010009766, Lat : -35.3632609, Lng : 149.1652298, Q1 : 0.998121500015, Q2 : 0.000164799042977, Q3 : 0.000591161311604, Q4 : -0.0612623356283}
2019-04-03 23:01:15.81: SIM {TimeUS : 78235360, Roll : 0.03, Pitch : 0.12, Yaw : 352.97, Alt : 587.200012207, Lat : -35.3632609, Lng : 149.1652298, Q1 : 0.998121321201, Q2 : 0.000410043343436, Q3 : 0.00104116648436, Q4 : -0.0612586140633}
2019-04-03 23:01:15.91: SIM {TimeUS : 78335320, Roll : 0.04, Pitch : 0.15, Yaw : 352.97, Alt : 587.380004883, Lat : -35.3632609, Lng : 149.1652298, Q1 : 0.998121142387, Q2 : 0.000501391594298, Q3 : 0.00129546492826, Q4 : -0.0612561032176}
2019-04-03 23:01:16.01: SIM {TimeUS : 78435280, Roll : 0.04, Pitch : 0.15, Yaw : 352.97, Alt : 587.559997559, Lat : -35.3632609, Lng : 149.1652297, Q1 : 0.998121082783, Q2 : 0.000458066468127, Q3 : 0.00129122030921, Q4 : -0.061256904155}
2019-04-03 23:01:16.11: SIM {TimeUS : 78535240, Roll : 0.05, Pitch : 0.21, Yaw : 352.97, Alt : 587.719970703, Lat : -35.3632609, Lng : 149.1652297, Q1 : 0.998120009899, Q2 : 0.000628350186162, Q3 : 0.00181981653441, Q4 : -0.0612594299018}
2019-04-03 23:01:16.21: SIM {TimeUS : 78635200, Roll : 0.2, Pitch : 0.54, Yaw : 352.97, Alt : 587.869995117, Lat : -35.3632609, Lng : 149.1652297, Q1 : 0.998108685017, Q2 : 0.00206561456434, Q3 : 0.00461507868022, Q4 : -0.0612657628953}
2019-04-03 23:01:16.31: SIM {TimeUS : 78735160, Roll : 0.48, Pitch : 1.17, Yaw : 352.97, Alt : 588.0, Lat : -35.3632609, Lng : 149.1652297, Q1 : 0.998058617115, Q2 : 0.00486452737823, Q3 : 0.0100141130388, Q4 : -0.0612788833678}
2019-04-03 23:01:16.41: SIM {TimeUS : 78835120, Roll : 0.89, Pitch : 2.02, Yaw : 352.98, Alt : 588.130004883, Lat : -35.3632609, Lng : 149.1652298, Q1 : 0.997931063175, Q2 : 0.00884400866926, Q3 : 0.017192138359, Q4 : -0.061317525804}
2019-04-03 23:01:16.51: SIM {TimeUS : 78935080, Roll : 1.37, Pitch : 2.99, Yaw : 352.99, Alt : 588.239990234, Lat : -35.363261, Lng : 149.1652298, Q1 : 0.997698903084, Q2 : 0.0135819762945, Q3 : 0.0253579001874, Q4 : -0.061395354569}
2019-04-03 23:01:16.61: SIM {TimeUS : 79035040, Roll : 1.87, Pitch : 3.99, Yaw : 353.0, Alt : 588.340026855, Lat : -35.363261, Lng : 149.1652298, Q1 : 0.997363448143, Q2 : 0.0184577610344, Q3 : 0.0337715372443, Q4 : -0.0615219026804}
2019-04-03 23:01:16.71: SIM {TimeUS : 79135000, Roll : 2.34, Pitch : 4.89, Yaw : 353.01, Alt : 588.429992676, Lat : -35.363261, Lng : 149.1652299, Q1 : 0.996970355511, Q2 : 0.0230009406805, Q3 : 0.0413642525673, Q4 : -0.0617263168097}
2019-04-03 23:01:16.81: SIM {TimeUS : 79234960, Roll : 2.73, Pitch : 5.6, Yaw : 353.01, Alt : 588.510009766, Lat : -35.3632613, Lng : 149.1652299, Q1 : 0.996594548225, Q2 : 0.0267546679825, Q3 : 0.0473085865378, Q4 : -0.0620117485523}
2019-04-03 23:01:16.91: SIM {TimeUS : 79334920, Roll : 3.02, Pitch : 6.12, Yaw : 352.99, Alt : 588.570007324, Lat : -35.3632615, Lng : 149.1652302, Q1 : 0.996273875237, Q2 : 0.0295625254512, Q3 : 0.0517411604524, Q4 : -0.0623485483229}
2019-04-03 23:01:17.01: SIM {TimeUS : 79434880, Roll : 3.23, Pitch : 6.53, Yaw : 352.97, Alt : 588.640014648, Lat : -35.3632617, Lng : 149.1652305, Q1 : 0.996008098125, Q2 : 0.0315781310201, Q3 : 0.0551186092198, Q4 : -0.062710724771}
2019-04-03 23:01:17.11: SIM {TimeUS : 79534840, Roll : 3.38, Pitch : 6.88, Yaw : 352.95, Alt : 588.690002441, Lat : -35.3632622, Lng : 149.1652308, Q1 : 0.995768368244, Q2 : 0.0330903977156, Q3 : 0.0580849274993, Q4 : -0.0630600452423}
2019-04-03 23:01:17.21: SIM {TimeUS : 79634800, Roll : 3.5, Pitch : 7.15, Yaw : 352.93, Alt : 588.739990234, Lat : -35.3632627, Lng : 149.1652311, Q1 : 0.995568215847, Q2 : 0.0343226753175, Q3 : 0.0603868477046, Q4 : -0.063397936523}
2019-04-03 23:01:17.31: SIM {TimeUS : 79734760, Roll : 3.6, Pitch : 7.34, Yaw : 352.9, Alt : 588.780029297, Lat : -35.3632632, Lng : 149.1652315, Q1 : 0.995421290398, Q2 : 0.0352498106658, Q3 : 0.0619338899851, Q4 : -0.0637033879757}
2019-04-03 23:01:17.41: SIM {TimeUS : 79834720, Roll : 3.65, Pitch : 7.48, Yaw : 352.88, Alt : 588.820007324, Lat : -35.3632638, Lng : 149.165232, Q1 : 0.995310604572, Q2 : 0.0358458273113, Q3 : 0.0631198585033, Q4 : -0.0639362186193}
2019-04-03 23:01:17.51: SIM {TimeUS : 79934680, Roll : 3.68, Pitch : 7.59, Yaw : 352.87, Alt : 588.859985352, Lat : -35.3632644, Lng : 149.1652325, Q1 : 0.995231926441, Q2 : 0.0361177399755, Q3 : 0.0640405714512, Q4 : -0.0640913620591}
2019-04-03 23:01:17.61: SIM {TimeUS : 80034640, Roll : 3.7, Pitch : 7.7, Yaw : 352.86, Alt : 588.890014648, Lat : -35.3632652, Lng : 149.1652331, Q1 : 0.995156049728, Q2 : 0.0363719947636, Q3 : 0.0649769902229, Q4 : -0.0641833394766}
2019-04-03 23:01:17.72: SIM {TimeUS : 80135433, Roll : 3.73, Pitch : 7.86, Yaw : 352.88, Alt : 588.929992676, Lat : -35.3632659, Lng : 149.1652337, Q1 : 0.995051622391, Q2 : 0.0367244780064, Q3 : 0.0664113014936, Q4 : -0.064133502543}
2019-04-03 23:01:17.81: SIM {TimeUS : 80235393, Roll : 3.61, Pitch : 8.21, Yaw : 353.13, Alt : 588.960021973, Lat : -35.3632668, Lng : 149.1652344, Q1 : 0.99501490593, Q2 : 0.0356794148684, Q3 : 0.0695414319634, Q4 : -0.0619383826852}
2019-04-03 23:01:17.91: SIM {TimeUS : 80335353, Roll : 3.35, Pitch : 8.75, Yaw : 354.26, Alt : 588.989990234, Lat : -35.3632677, Lng : 149.1652351, Q1 : 0.995294332504, Q2 : 0.0329382754862, Q3 : 0.0747498944402, Q4 : -0.0521219037473}
2019-04-03 23:01:18.01: SIM {TimeUS : 80435313, Roll : 3.26, Pitch : 9.3, Yaw : 356.9, Alt : 589.020019531, Lat : -35.3632687, Lng : 149.1652359, Q1 : 0.995873630047, Q2 : 0.0306002236903, Q3 : 0.0802839696407, Q4 : -0.0292195659131}
2019-04-03 23:01:18.11: SIM {TimeUS : 80535273, Roll : 3.68, Pitch : 9.6, Yaw : 1.22, Alt : 589.039978027, Lat : -35.3632696, Lng : 149.1652366, Q1 : 0.995943307877, Q2 : 0.0311364773661, Q3 : 0.0840447321534, Q4 : 0.00799208786339}
2019-04-03 23:01:18.21: SIM {TimeUS : 80635233, Roll : 4.69, Pitch : 9.51, Yaw : 7.04, Alt : 589.070007324, Lat : -35.3632708, Lng : 149.1652375, Q1 : 0.994043827057, Q2 : 0.0356333106756, Q3 : 0.0852521434426, Q4 : 0.0577859431505}
2019-04-03 23:01:18.31: SIM {TimeUS : 80735193, Roll : 6.19, Pitch : 8.9, Yaw : 14.02, Alt : 589.099975586, Lat : -35.363272, Lng : 149.1652383, Q1 : 0.988584816456, Q2 : 0.0440104492009, Q3 : 0.0835443735123, Q4 : 0.11740296334}
2019-04-03 23:01:18.41: SIM {TimeUS : 80835153, Roll : 7.97, Pitch : 7.74, Yaw : 21.82, Alt : 589.130004883, Lat : -35.3632734, Lng : 149.165239, Q1 : 0.978189468384, Q2 : 0.0553617291152, Q3 : 0.0792610198259, Q4 : 0.183842763305}
2019-04-03 23:01:18.51: SIM {TimeUS : 80935113, Roll : 9.75, Pitch : 6.09, Yaw : 30.12, Alt : 589.16998291, Lat : -35.3632748, Lng : 149.1652399, Q1 : 0.961960792542, Q2 : 0.0682161524892, Q3 : 0.0732513293624, Q4 : 0.254189372063}
2019-04-03 23:01:18.61: SIM {TimeUS : 81035073, Roll : 11.29, Pitch : 4.08, Yaw : 38.63, Alt : 589.200012207, Lat : -35.3632762, Lng : 149.1652408, Q1 : 0.939686238766, Q2 : 0.0811004862189, Q3 : 0.0660234764218, Q4 : 0.325658351183}
2019-04-03 23:01:18.71: SIM {TimeUS : 81135033, Roll : 12.42, Pitch : 1.84, Yaw : 47.1, Alt : 589.229980469, Lat : -35.3632777, Lng : 149.1652418, Q1 : 0.91187530756, Q2 : 0.0927574187517, Q3 : 0.0579427219927, Q4 : 0.395628869534}
2019-04-03 23:01:18.81: SIM {TimeUS : 81234993, Roll : 13.03, Pitch : -0.42, Yaw : 55.34, Alt : 589.270019531, Lat : -35.3632792, Lng : 149.1652428, Q1 : 0.879695594311, Q2 : 0.102226771414, Q3 : 0.0494350716472, Q4 : 0.461780816317}
2019-04-03 23:01:18.91: SIM {TimeUS : 81334953, Roll : 13.17, Pitch : -2.59, Yaw : 63.17, Alt : 589.309997559, Lat : -35.3632809, Lng : 149.1652441, Q1 : 0.844635546207, Q2 : 0.109513506293, Q3 : 0.0409374050796, Q4 : 0.522419095039}
2019-04-03 23:01:19.01: SIM {TimeUS : 81434913, Roll : 12.98, Pitch : -4.56, Yaw : 70.5, Alt : 589.349975586, Lat : -35.3632826, Lng : 149.1652452, Q1 : 0.808152258396, Q2 : 0.115126587451, Q3 : 0.0328687541187, Q4 : 0.576676249504}
2019-04-03 23:01:19.11: SIM {TimeUS : 81534873, Roll : 12.55, Pitch : -6.27, Yaw : 77.29, Alt : 589.390014648, Lat : -35.3632844, Lng : 149.1652466, Q1 : 0.771433949471, Q2 : 0.119269371033, Q3 : 0.0257211625576, Q4 : 0.624502122402}
2019-04-03 23:01:19.21: SIM {TimeUS : 81634833, Roll : 12.01, Pitch : -7.68, Yaw : 83.56, Alt : 589.429992676, Lat : -35.3632862, Lng : 149.165248, Q1 : 0.735252082348, Q2 : 0.122226931155, Q3 : 0.0198742933571, Q4 : 0.666385769844}
2019-04-03 23:01:19.31: SIM {TimeUS : 81734793, Roll : 11.38, Pitch : -8.82, Yaw : 89.37, Alt : 589.469970703, Lat : -35.3632881, Lng : 149.1652494, Q1 : 0.69994699955, Q2 : 0.124180160463, Q3 : 0.0151112619787, Q4 : 0.703153729439}
2019-04-03 23:01:19.41: SIM {TimeUS : 81834753, Roll : 10.72, Pitch : -9.77, Yaw : 94.83, Alt : 589.510009766, Lat : -35.3632901, Lng : 149.1652511, Q1 : 0.66540068388, Q2 : 0.12550984323, Q3 : 0.0111551899463, Q4 : 0.735774934292}
2019-04-03 23:01:19.51: SIM {TimeUS : 81934713, Roll : 10.05, Pitch : -10.6, Yaw : 100.03, Alt : 589.559997559, Lat : -35.363292, Lng : 149.1652527, Q1 : 0.631152510643, Q2 : 0.126632869244, Q3 : 0.00771216116846, Q4 : 0.765213131905}
2019-04-03 23:01:19.61: SIM {TimeUS : 82034673, Roll : 9.34, Pitch : -11.37, Yaw : 105.11, Alt : 589.599975586, Lat : -35.3632941, Lng : 149.1652543, Q1 : 0.596578061581, Q2 : 0.127733722329, Q3 : 0.00430348655209, Q4 : 0.792313158512}
2019-04-03 23:01:19.71: SIM {TimeUS : 82134633, Roll : 8.56, Pitch : -12.12, Yaw : 110.18, Alt : 589.650024414, Lat : -35.3632963, Lng : 149.1652561, Q1 : 0.560978412628, Q2 : 0.128857508302, Q3 : 0.000672483933158, Q4 : 0.817739903927}
2019-04-03 23:01:19.82: SIM {TimeUS : 82235426, Roll : 7.68, Pitch : -12.84, Yaw : 115.4, Alt : 589.700012207, Lat : -35.3632985, Lng : 149.165258, Q1 : 0.523407280445, Q2 : 0.129898563027, Q3 : -0.00336965406314, Q4 : 0.842116296291}
2019-04-03 23:01:19.91: SIM {TimeUS : 82335386, Roll : 6.65, Pitch : -13.53, Yaw : 120.75, Alt : 589.75, Lat : -35.3633006, Lng : 149.1652598, Q1 : 0.48402813077, Q2 : 0.130776718259, Q3 : -0.00805829837918, Q4 : 0.86518740654}
2019-04-03 23:01:20.01: SIM {TimeUS : 82435346, Roll : 5.45, Pitch : -14.18, Yaw : 126.32, Alt : 589.789978027, Lat : -35.363303, Lng : 149.1652617, Q1 : 0.442277789116, Q2 : 0.131320506334, Q3 : -0.013558329083, Q4 : 0.887108504772}
2019-04-03 23:01:20.11: SIM {TimeUS : 82535306, Roll : 4.05, Pitch : -14.75, Yaw : 132.1, Alt : 589.840026855, Lat : -35.3633054, Lng : 149.1652636, Q1 : 0.398103684187, Q2 : 0.1315420717, Q3 : -0.0200434066355, Q4 : 0.907638907433}
2019-04-03 23:01:20.21: SIM {TimeUS : 82635266, Roll : 2.35, Pitch : -15.22, Yaw : 138.07, Alt : 589.890014648, Lat : -35.3633078, Lng : 149.1652656, Q1 : 0.351945310831, Q2 : 0.130960568786, Q3 : -0.028326144442, Q4 : 0.926380872726}
2019-04-03 23:01:20.31: SIM {TimeUS : 82735226, Roll : 0.11, Pitch : -15.5, Yaw : 143.91, Alt : 589.940002441, Lat : -35.3633102, Lng : 149.1652676, Q1 : 0.306778937578, Q2 : 0.128563404083, Q3 : -0.0408792346716, Q4 : 0.94217145443}
2019-04-03 23:01:20.41: SIM {TimeUS : 82835186, Roll : -2.4, Pitch : -15.51, Yaw : 148.99, Alt : 589.989990234, Lat : -35.3633127, Lng : 149.1652696, Q1 : 0.26750394702, Q2 : 0.124464809895, Q3 : -0.0561356507242, Q4 : 0.953833818436}
2019-04-03 23:01:20.51: SIM {TimeUS : 82935146, Roll : -4.6, Pitch : -15.28, Yaw : 152.81, Alt : 590.039978027, Lat : -35.3633152, Lng : 149.1652718, Q1 : 0.23794400692, Q2 : 0.119793273509, Q3 : -0.0699066743255, Q4 : 0.961324751377}
2019-04-03 23:01:20.61: SIM {TimeUS : 83035106, Roll : -5.99, Pitch : -14.97, Yaw : 155.13, Alt : 590.090026855, Lat : -35.3633179, Lng : 149.1652739, Q1 : 0.219833225012, Q2 : 0.115912556648, Q3 : -0.0786800533533, Q4 : 0.965425848961}
2019-04-03 23:01:20.71: SIM {TimeUS : 83135066, Roll : -6.43, Pitch : -14.76, Yaw : 156.01, Alt : 590.140014648, Lat : -35.3633204, Lng : 149.1652762, Q1 : 0.212833583355, Q2 : 0.11395291239, Q3 : -0.0811506211758, Q4 : 0.967021822929}
2019-04-03 23:01:20.81: SIM {TimeUS : 83235026, Roll : -6.01, Pitch : -14.77, Yaw : 155.66, Alt : 590.190002441, Lat : -35.363323, Lng : 149.1652786, Q1 : 0.215323790908, Q2 : 0.114521555603, Q3 : -0.07791903615, Q4 : 0.966669142246}
2019-04-03 23:01:20.91: SIM {TimeUS : 83334986, Roll : -4.93, Pitch : -14.97, Yaw : 154.37, Alt : 590.239990234, Lat : -35.3633255, Lng : 149.165281, Q1 : 0.22514295578, Q2 : 0.117446012795, Q3 : -0.0704673156142, Q4 : 0.964650928974}
2019-04-03 23:01:21.01: SIM {TimeUS : 83434946, Roll : -3.42, Pitch : -15.3, Yaw : 152.42, Alt : 590.289978027, Lat : -35.3633282, Lng : 149.1652835, Q1 : 0.239949434996, Q2 : 0.122210904956, Q3 : -0.0604661516845, Q4 : 0.961162149906}
2019-04-03 23:01:21.11: SIM {TimeUS : 83534906, Roll : -1.75, Pitch : -15.67, Yaw : 150.11, Alt : 590.340026855, Lat : -35.3633308, Lng : 149.1652862, Q1 : 0.257455587387, Q2 : 0.127836346626, Q3 : -0.0498084425926, Q4 : 0.956500709057}
2019-04-03 23:01:21.21: SIM {TimeUS : 83634866, Roll : -0.15, Pitch : -15.99, Yaw : 147.73, Alt : 590.390014648, Lat : -35.3633334, Lng : 149.1652887, Q1 : 0.275355219841, Q2 : 0.133286163211, Q3 : -0.0399302840233, Q4 : 0.951220214367}
2019-04-03 23:01:21.31: SIM {TimeUS : 83734826, Roll : 1.18, Pitch : -16.21, Yaw : 145.57, Alt : 590.450012207, Lat : -35.3633362, Lng : 149.1652913, Q1 : 0.291552007198, Q2 : 0.137728348374, Q3 : -0.0319391153753, Q4 : 0.946048736572}
2019-04-03 23:01:21.41: SIM {TimeUS : 83834786, Roll : 2.15, Pitch : -16.31, Yaw : 143.85, Alt : 590.5, Lat : -35.3633389, Lng : 149.1652939, Q1 : 0.304467976093, Q2 : 0.140641570091, Q3 : -0.0263410210609, Q4 : 0.941714048386}
2019-04-03 23:01:21.51: SIM {TimeUS : 83934746, Roll : 2.71, Pitch : -16.32, Yaw : 142.71, Alt : 590.549987793, Lat : -35.3633418, Lng : 149.1652964, Q1 : 0.313163608313, Q2 : 0.14197999239, Q3 : -0.0231749881059, Q4 : 0.938740253448}
2019-04-03 23:01:21.61: SIM {TimeUS : 84034706, Roll : 2.87, Pitch : -16.28, Yaw : 142.17, Alt : 590.599975586, Lat : -35.3633446, Lng : 149.165299, Q1 : 0.317371338606, Q2 : 0.14198346436, Q3 : -0.0223995801061, Q4 : 0.937344372272}
2019-04-03 23:01:21.71: SIM {TimeUS : 84134666, Roll : 2.68, Pitch : -16.25, Yaw : 142.2, Alt : 590.650024414, Lat : -35.3633474, Lng : 149.1653016, Q1 : 0.317379951477, Q2 : 0.141212433577, Q3 : -0.023824699223, Q4 : 0.93742275238}
2019-04-03 23:01:21.81: SIM {TimeUS : 84234626, Roll : 2.24, Pitch : -16.27, Yaw : 142.7, Alt : 590.700012207, Lat : -35.3633504, Lng : 149.165304, Q1 : 0.313871115446, Q2 : 0.140275150537, Q3 : -0.0268778428435, Q4 : 0.938661515713}
2019-04-03 23:01:21.91: SIM {TimeUS : 84335419, Roll : 1.62, Pitch : -16.34, Yaw : 143.53, Alt : 590.75, Lat : -35.3633534, Lng : 149.1653065, Q1 : 0.307775974274, Q2 : 0.139384791255, Q3 : -0.0311812758446, Q4 : 0.94067722559}
2019-04-03 23:01:22.01: SIM {TimeUS : 84435379, Roll : 0.91, Pitch : -16.43, Yaw : 144.54, Alt : 590.799987793, Lat : -35.3633565, Lng : 149.1653092, Q1 : 0.300297915936, Q2 : 0.138537228107, Q3 : -0.0359747521579, Q4 : 0.943045318127}
2019-04-03 23:01:22.11: SIM {TimeUS : 84535339, Roll : 0.24, Pitch : -16.5, Yaw : 145.58, Alt : 590.849975586, Lat : -35.3633595, Lng : 149.1653117, Q1 : 0.292444139719, Q2 : 0.137739986181, Q3 : -0.0404616929591, Q4 : 0.945445418358}
2019-04-03 23:01:22.21: SIM {TimeUS : 84635299, Roll : -0.33, Pitch : -16.55, Yaw : 146.55, Alt : 590.909973145, Lat : -35.3633626, Lng : 149.1653143, Q1 : 0.285149931908, Q2 : 0.137051969767, Q3 : -0.0441712625325, Q4 : 0.947604954243}
2019-04-03 23:01:22.31: SIM {TimeUS : 84735259, Roll : -0.76, Pitch : -16.58, Yaw : 147.34, Alt : 590.960021973, Lat : -35.3633657, Lng : 149.1653169, Q1 : 0.279134213924, Q2 : 0.136580571532, Q3 : -0.0468724220991, Q4 : 0.94933283329}
2019-04-03 23:01:22.41: SIM {TimeUS : 84835219, Roll : -1.0, Pitch : -16.6, Yaw : 147.89, Alt : 591.010009766, Lat : -35.3633689, Lng : 149.1653194, Q1 : 0.274819970131, Q2 : 0.136393934488, Q3 : -0.0482696518302, Q4 : 0.950547575951}
2019-04-03 23:01:22.51: SIM {TimeUS : 84935179, Roll : -1.07, Pitch : -16.63, Yaw : 148.19, Alt : 591.059997559, Lat : -35.363372, Lng : 149.1653221, Q1 : 0.272380173206, Q2 : 0.136534839869, Q3 : -0.0485872216523, Q4 : 0.951213240623}
2019-04-03 23:01:22.61: SIM {TimeUS : 85035139, Roll : -1.01, Pitch : -16.66, Yaw : 148.26, Alt : 591.109985352, Lat : -35.3633752, Lng : 149.1653246, Q1 : 0.271734923124, Q2 : 0.137027621269, Q3 : -0.0480653904378, Q4 : 0.951353371143}
2019-04-03 23:01:22.71: SIM {TimeUS : 85135099, Roll : -0.87, Pitch : -16.71, Yaw : 148.13, Alt : 591.159973145, Lat : -35.3633783, Lng : 149.1653274, Q1 : 0.272656083107, Q2 : 0.137678280473, Q3 : -0.0471522472799, Q4 : 0.951041579247}
2019-04-03 23:01:22.81: SIM {TimeUS : 85235059, Roll : -0.68, Pitch : -16.74, Yaw : 147.85, Alt : 591.210021973, Lat : -35.3633815, Lng : 149.1653301, Q1 : 0.274750083685, Q2 : 0.138291090727, Q3 : -0.0459974817932, Q4 : 0.950406312943}
2019-04-03 23:01:22.91: SIM {TimeUS : 85335019, Roll : -0.47, Pitch : -16.76, Yaw : 147.48, Alt : 591.260009766, Lat : -35.3633848, Lng : 149.1653327, Q1 : 0.277554631233, Q2 : 0.13883048296, Q3 : -0.0447871759534, Q4 : 0.94957023859}
2019-04-03 23:01:23.01: SIM {TimeUS : 85434979, Roll : -0.24, Pitch : -16.77, Yaw : 147.08, Alt : 591.320007324, Lat : -35.363388, Lng : 149.1653355, Q1 : 0.280580192804, Q2 : 0.139308273792, Q3 : -0.0433885864913, Q4 : 0.948675632477}
2019-04-03 23:01:23.11: SIM {TimeUS : 85534939, Roll : -0.03, Pitch : -16.79, Yaw : 146.7, Alt : 591.369995117, Lat : -35.3633911, Lng : 149.1653381, Q1 : 0.283432453871, Q2 : 0.139841780066, Q3 : -0.0420839712024, Q4 : 0.947807610035}
2019-04-03 23:01:23.21: SIM {TimeUS : 85634899, Roll : 0.12, Pitch : -16.8, Yaw : 146.39, Alt : 591.41998291, Lat : -35.3633945, Lng : 149.1653409, Q1 : 0.285843104124, Q2 : 0.140247613192, Q3 : -0.0411855876446, Q4 : 0.947062909603}
2019-04-03 23:01:23.31: SIM {TimeUS : 85734859, Roll : 0.24, Pitch : -16.84, Yaw : 146.16, Alt : 591.469970703, Lat : -35.3633978, Lng : 149.1653437, Q1 : 0.287596046925, Q2 : 0.140713632107, Q3 : -0.0406371019781, Q4 : 0.946486592293}
2019-04-03 23:01:23.41: SIM {TimeUS : 85834819, Roll : 0.29, Pitch : -16.89, Yaw : 146.02, Alt : 591.520019531, Lat : -35.3634011, Lng : 149.1653464, Q1 : 0.288613140583, Q2 : 0.141209036112, Q3 : -0.0404430776834, Q4 : 0.946111440659}
2019-04-03 23:01:23.51: SIM {TimeUS : 85934779, Roll : 0.29, Pitch : -16.96, Yaw : 145.98, Alt : 591.570007324, Lat : -35.3634044, Lng : 149.1653491, Q1 : 0.28891775012, Q2 : 0.14180059731, Q3 : -0.0407232642174, Q4 : 0.945917904377}
2019-04-03 23:01:23.61: SIM {TimeUS : 86034739, Roll : 0.23, Pitch : -17.01, Yaw : 146.02, Alt : 591.619995117, Lat : -35.3634076, Lng : 149.1653519, Q1 : 0.288624465466, Q2 : 0.142084896564, Q3 : -0.0412461943924, Q4 : 0.945942163467}
2019-04-03 23:01:23.71: SIM {TimeUS : 86134699, Roll : 0.13, Pitch : -17.02, Yaw : 146.13, Alt : 591.679992676, Lat : -35.363411, Lng : 149.1653547, Q1 : 0.287897795439, Q2 : 0.141962379217, Q3 : -0.0419850535691, Q4 : 0.946149468422}
2019-04-03 23:01:23.81: SIM {TimeUS : 86234659, Roll : 0.01, Pitch : -17.01, Yaw : 146.27, Alt : 591.729980469, Lat : -35.3634143, Lng : 149.1653575, Q1 : 0.286879867315, Q2 : 0.14165571332, Q3 : -0.0427988506854, Q4 : 0.946468114853}
2019-04-03 23:01:23.92: SIM {TimeUS : 86335452, Roll : -0.11, Pitch : -17.01, Yaw : 146.42, Alt : 591.780029297, Lat : -35.3634178, Lng : 149.1653601, Q1 : 0.285751253366, Q2 : 0.141359239817, Q3 : -0.0436833798885, Q4 : 0.94681340456}
2019-04-03 23:01:24.01: SIM {TimeUS : 86435412, Roll : -0.24, Pitch : -17.03, Yaw : 146.57, Alt : 591.83001709, Lat : -35.3634212, Lng : 149.1653629, Q1 : 0.284689724445, Q2 : 0.141225427389, Q3 : -0.0445824749768, Q4 : 0.947111189365}
2019-04-03 23:01:24.11: SIM {TimeUS : 86535372, Roll : -0.33, Pitch : -17.04, Yaw : 146.69, Alt : 591.880004883, Lat : -35.3634246, Lng : 149.1653658, Q1 : 0.283783018589, Q2 : 0.141174659133, Q3 : -0.0452317595482, Q4 : 0.947359979153}
2019-04-03 23:01:24.21: SIM {TimeUS : 86635332, Roll : -0.38, Pitch : -17.05, Yaw : 146.78, Alt : 591.929992676, Lat : -35.363428, Lng : 149.1653686, Q1 : 0.283103227615, Q2 : 0.141180574894, Q3 : -0.0455543212593, Q4 : 0.947547018528}
2019-04-03 23:01:24.31: SIM {TimeUS : 86735292, Roll : -0.38, Pitch : -17.07, Yaw : 146.83, Alt : 591.979980469, Lat : -35.3634313, Lng : 149.1653714, Q1 : 0.282694965601, Q2 : 0.14132475853, Q3 : -0.0455586835742, Q4 : 0.94764727354}
2019-04-03 23:01:24.41: SIM {TimeUS : 86835252, Roll : -0.36, Pitch : -17.08, Yaw : 146.84, Alt : 592.039978027, Lat : -35.3634348, Lng : 149.1653743, Q1 : 0.282567173243, Q2 : 0.141518935561, Q3 : -0.0453775562346, Q4 : 0.947665095329}
2019-04-03 23:01:24.51: SIM {TimeUS : 86935212, Roll : -0.31, Pitch : -17.11, Yaw : 146.82, Alt : 592.090026855, Lat : -35.3634382, Lng : 149.1653771, Q1 : 0.282677084208, Q2 : 0.141818553209, Q3 : -0.0450450219214, Q4 : 0.947603404522}
2019-04-03 23:01:24.61: SIM {TimeUS : 87035172, Roll : -0.25, Pitch : -17.15, Yaw : 146.78, Alt : 592.140014648, Lat : -35.3634416, Lng : 149.1653799, Q1 : 0.282965362072, Q2 : 0.142280578613, Q3 : -0.0447491556406, Q4 : 0.947462081909}
2019-04-03 23:01:24.71: SIM {TimeUS : 87135132, Roll : -0.19, Pitch : -17.17, Yaw : 146.72, Alt : 592.190002441, Lat : -35.3634451, Lng : 149.1653828, Q1 : 0.283393353224, Q2 : 0.142573997378, Q3 : -0.0444007702172, Q4 : 0.947306394577}
2019-04-03 23:01:24.81: SIM {TimeUS : 87235092, Roll : -0.14, Pitch : -17.16, Yaw : 146.65, Alt : 592.239990234, Lat : -35.3634484, Lng : 149.1653855, Q1 : 0.283878475428, Q2 : 0.142609998584, Q3 : -0.0440128669143, Q4 : 0.947173833847}
2019-04-03 23:01:24.91: SIM {TimeUS : 87335052, Roll : -0.11, Pitch : -17.15, Yaw : 146.58, Alt : 592.289978027, Lat : -35.3634519, Lng : 149.1653885, Q1 : 0.284378707409, Q2 : 0.142554819584, Q3 : -0.0437932275236, Q4 : 0.947042226791}
2019-04-03 23:01:25.01: SIM {TimeUS : 87435012, Roll : -0.1, Pitch : -17.14, Yaw : 146.53, Alt : 592.349975586, Lat : -35.3634555, Lng : 149.1653914, Q1 : 0.28483697772, Q2 : 0.142510786653, Q3 : -0.043811481446, Q4 : 0.946910321712}
2019-04-03 23:01:25.11: SIM {TimeUS : 87534972, Roll : -0.11, Pitch : -17.16, Yaw : 146.48, Alt : 592.400024414, Lat : -35.3634589, Lng : 149.1653943, Q1 : 0.285202890635, Q2 : 0.142574504018, Q3 : -0.0439529903233, Q4 : 0.94678401947}
2019-04-03 23:01:25.21: SIM {TimeUS : 87634932, Roll : -0.12, Pitch : -17.19, Yaw : 146.46, Alt : 592.450012207, Lat : -35.3634623, Lng : 149.1653971, Q1 : 0.285425364971, Q2 : 0.142799586058, Q3 : -0.0441605597734, Q4 : 0.94667339325}
2019-04-03 23:01:25.31: SIM {TimeUS : 87734892, Roll : -0.13, Pitch : -17.22, Yaw : 146.45, Alt : 592.5, Lat : -35.3634659, Lng : 149.1654, Q1 : 0.285515964031, Q2 : 0.143063142896, Q3 : -0.0443774536252, Q4 : 0.94659614563}
2019-04-03 23:01:25.41: SIM {TimeUS : 87834852, Roll : -0.14, Pitch : -17.26, Yaw : 146.45, Alt : 592.559997559, Lat : -35.3634694, Lng : 149.1654029, Q1 : 0.285504490137, Q2 : 0.143378406763, Q3 : -0.0445465482771, Q4 : 0.946543931961}
2019-04-03 23:01:25.51: SIM {TimeUS : 87934812, Roll : -0.17, Pitch : -17.3, Yaw : 146.46, Alt : 592.609985352, Lat : -35.3634729, Lng : 149.1654058, Q1 : 0.285443484783, Q2 : 0.143628388643, Q3 : -0.0448191389441, Q4 : 0.946511626244}
2019-04-03 23:01:25.61: SIM {TimeUS : 88034772, Roll : -0.19, Pitch : -17.32, Yaw : 146.47, Alt : 592.659973145, Lat : -35.3634763, Lng : 149.1654087, Q1 : 0.28534206748, Q2 : 0.143753364682, Q3 : -0.0450156293809, Q4 : 0.94651389122}
2019-04-03 23:01:25.71: SIM {TimeUS : 88134732, Roll : -0.18, Pitch : -17.35, Yaw : 146.49, Alt : 592.710021973, Lat : -35.3634799, Lng : 149.1654116, Q1 : 0.285179436207, Q2 : 0.143996745348, Q3 : -0.0450215786695, Q4 : 0.94652557373}
2019-04-03 23:01:25.81: SIM {TimeUS : 88234692, Roll : -0.17, Pitch : -17.38, Yaw : 146.51, Alt : 592.760009766, Lat : -35.3634834, Lng : 149.1654145, Q1 : 0.28500559926, Q2 : 0.144262999296, Q3 : -0.0449787788093, Q4 : 0.946539461613}
2019-04-03 23:01:25.91: SIM {TimeUS : 88334652, Roll : -0.17, Pitch : -17.4, Yaw : 146.52, Alt : 592.820007324, Lat : -35.3634869, Lng : 149.1654174, Q1 : 0.284860432148, Q2 : 0.144474714994, Q3 : -0.0450260750949, Q4 : 0.946548581123}
2019-04-03 23:01:26.02: SIM {TimeUS : 88435445, Roll : -0.17, Pitch : -17.42, Yaw : 146.54, Alt : 592.869995117, Lat : -35.3634905, Lng : 149.1654203, Q1 : 0.284753888845, Q2 : 0.144643485546, Q3 : -0.0450914800167, Q4 : 0.946551799774}
2019-04-03 23:01:26.11: SIM {TimeUS : 88535405, Roll : -0.18, Pitch : -17.43, Yaw : 146.54, Alt : 592.91998291, Lat : -35.3634939, Lng : 149.1654232, Q1 : 0.284697502851, Q2 : 0.144663646817, Q3 : -0.0451226234436, Q4 : 0.94656419754}
2019-04-03 23:01:26.21: SIM {TimeUS : 88635365, Roll : -0.18, Pitch : -17.41, Yaw : 146.54, Alt : 592.969970703, Lat : -35.3634975, Lng : 149.1654261, Q1 : 0.284693181515, Q2 : 0.144573405385, Q3 : -0.0450735911727, Q4 : 0.946581602097}
2019-04-03 23:01:26.31: SIM {TimeUS : 88735325, Roll : -0.16, Pitch : -17.41, Yaw : 146.54, Alt : 593.020019531, Lat : -35.3635011, Lng : 149.1654292, Q1 : 0.284702688456, Q2 : 0.144568428397, Q3 : -0.0449525378644, Q4 : 0.94658523798}
2019-04-03 23:01:26.41: SIM {TimeUS : 88835285, Roll : -0.15, Pitch : -17.41, Yaw : 146.54, Alt : 593.08001709, Lat : -35.3635046, Lng : 149.1654321, Q1 : 0.284732699394, Q2 : 0.144615992904, Q3 : -0.0448753945529, Q4 : 0.946572601795}
2019-04-03 23:01:26.51: SIM {TimeUS : 88935245, Roll : -0.15, Pitch : -17.41, Yaw : 146.53, Alt : 593.130004883, Lat : -35.3635082, Lng : 149.165435, Q1 : 0.284799605608, Q2 : 0.144558399916, Q3 : -0.0448914244771, Q4 : 0.946560502052}
2019-04-03 23:01:26.61: SIM {TimeUS : 89035205, Roll : -0.17, Pitch : -17.4, Yaw : 146.52, Alt : 593.179992676, Lat : -35.3635116, Lng : 149.165438, Q1 : 0.284896880388, Q2 : 0.144475370646, Q3 : -0.0450434423983, Q4 : 0.946536719799}
2019-04-03 23:01:26.71: SIM {TimeUS : 89135165, Roll : -0.2, Pitch : -17.41, Yaw : 146.51, Alt : 593.229980469, Lat : -35.3635152, Lng : 149.1654409, Q1 : 0.284997671843, Q2 : 0.144476428628, Q3 : -0.0452656075358, Q4 : 0.946495652199}
2019-04-03 23:01:26.81: SIM {TimeUS : 89235125, Roll : -0.21, Pitch : -17.43, Yaw : 146.5, Alt : 593.289978027, Lat : -35.3635188, Lng : 149.1654438, Q1 : 0.285082310438, Q2 : 0.144645452499, Q3 : -0.0454435199499, Q4 : 0.946435809135}
2019-04-03 23:01:26.91: SIM {TimeUS : 89335085, Roll : -0.2, Pitch : -17.48, Yaw : 146.49, Alt : 593.340026855, Lat : -35.3635224, Lng : 149.1654467, Q1 : 0.285132050514, Q2 : 0.145058453083, Q3 : -0.0455030873418, Q4 : 0.946354746819}
2019-04-03 23:01:27.01: SIM {TimeUS : 89435045, Roll : -0.18, Pitch : -17.52, Yaw : 146.48, Alt : 593.390014648, Lat : -35.363526, Lng : 149.1654498, Q1 : 0.285165846348, Q2 : 0.145405367017, Q3 : -0.0454606600106, Q4 : 0.946293354034}
2019-04-03 23:01:27.11: SIM {TimeUS : 89535005, Roll : -0.16, Pitch : -17.53, Yaw : 146.48, Alt : 593.440002441, Lat : -35.3635296, Lng : 149.1654528, Q1 : 0.285178422928, Q2 : 0.145577937365, Q3 : -0.045299898833, Q4 : 0.946270704269}
2019-04-03 23:01:27.21: SIM {TimeUS : 89634965, Roll : -0.12, Pitch : -17.54, Yaw : 146.47, Alt : 593.489990234, Lat : -35.3635332, Lng : 149.1654557, Q1 : 0.285160183907, Q2 : 0.145728871226, Q3 : -0.0450231134892, Q4 : 0.946266174316}
2019-04-03 23:01:27.31: SIM {TimeUS : 89734925, Roll : -0.08, Pitch : -17.54, Yaw : 146.47, Alt : 593.549987793, Lat : -35.3635367, Lng : 149.1654586, Q1 : 0.285133212805, Q2 : 0.145819202065, Q3 : -0.0447271727026, Q4 : 0.946274459362}
2019-04-03 23:01:27.41: SIM {TimeUS : 89834885, Roll : -0.07, Pitch : -17.53, Yaw : 146.47, Alt : 593.599975586, Lat : -35.3635402, Lng : 149.1654616, Q1 : 0.285122454166, Q2 : 0.145734667778, Q3 : -0.0445596538484, Q4 : 0.946298599243}
