2019-04-03 21:13:42.90: SIM {TimeUS : 46716306, Roll : 0.0, Pitch : 0.0, Yaw : 353.0, Alt : 584.090026855, Lat : -35.363261, Lng : 149.1652299, Q1 : 0.998134791851, Q2 : 0.0, Q3 : 0.0, Q4 : -0.0610485821962}
2019-04-03 21:13:43.01: SIM {TimeUS : 46835425, Roll : 0.0, Pitch : 0.0, Yaw : 353.0, Alt : 584.090026855, Lat : -35.363261, Lng : 149.1652299, Q1 : 0.998134791851, Q2 : 0.0, Q3 : 0.0, Q4 : -0.0610485821962}
2019-04-03 21:13:43.11: SIM {TimeUS : 46935385, Roll : 0.0, Pitch : 0.0, Yaw : 353.0, Alt : 584.090026855, Lat : -35.363261, Lng : 149.1652299, Q1 : 0.998134791851, Q2 : 0.0, Q3 : 0.0, Q4 : -0.0610485821962}
2019-04-03 21:13:43.21: SIM {TimeUS : 47035345, Roll : 0.0, Pitch : 0.0, Yaw : 353.0, Alt : 584.090026855, Lat : -35.363261, Lng : 149.1652299, Q1 : 0.998134791851, Q2 : 0.0, Q3 : 0.0, Q4 : -0.0610485821962}
2019-04-03 21:13:43.31: SIM {TimeUS : 47135305, Roll : 0.0, Pitch : 0.0, Yaw : 353.0, Alt : 584.090026855, Lat : -35.363261, Lng : 149.1652299, Q1 : 0.998134791851, Q2 : 0.0, Q3 : 0.0, Q4 : -0.0610485821962}
2019-04-03 21:13:43.41: SIM {TimeUS : 47235265, Roll : 0.0, Pitch : 0.0, Yaw : 353.0, Alt : 584.090026855, Lat : -35.363261, Lng : 149.1652299, Q1 : 0.998134791851, Q2 : 0.0, Q3 : 0.0, Q4 : -0.0610485821962}
2019-04-03 21:13:43.51: SIM {TimeUS : 47335225, Roll : 0.0, Pitch : 0.0, Yaw : 353.0, Alt : 584.090026855, Lat : -35.363261, Lng : 149.1652299, Q1 : 0.998134791851, Q2 : 0.0, Q3 : 0.0, Q4 : -0.0610485821962}
2019-04-03 21:13:43.61: SIM {TimeUS : 47435185, Roll : 0.0, Pitch : 0.0, Yaw : 353.0, Alt : 584.090026855, Lat : -35.363261, Lng : 149.1652299, Q1 : 0.998134791851, Q2 : 0.0, Q3 : 0.0, Q4 : -0.0610485821962}
2019-04-03 21:13:43.71: SIM {TimeUS : 47535145, Roll : 0.0, Pitch : 0.0, Yaw : 353.0, Alt : 584.090026855, Lat : -35.363261, Lng : 149.1652299, Q1 : 0.998134791851, Q2 : 0.0, Q3 : 0.0, Q4 : -0.0610485821962}
2019-04-03 21:13:43.81: SIM {TimeUS : 47635105, Roll : 0.0, Pitch : 0.0, Yaw : 353.0, Alt : 584.090026855, Lat : -35.363261, Lng : 149.1652299, Q1 : 0.998134791851, Q2 : 0.0, Q3 : 0.0, Q4 : -0.0610485821962}
2019-04-03 21:13:43.91: SIM {TimeUS : 47735065, Roll : 0.0, Pitch : 0.0, Yaw : 353.0, Alt : 584.090026855, Lat : -35.363261, Lng : 149.1652299, Q1 : 0.998134791851, Q2 : 0.0, Q3 : 0.0, Q4 : -0.0610485821962}
2019-04-03 21:13:44.01: SIM {TimeUS : 47835025, Roll : 0.0, Pitch : 0.0, Yaw : 353.0, Alt : 584.090026855, Lat : -35.363261, Lng : 149.1652299, Q1 : 0.998134791851, Q2 : 0.0, Q3 : 0.0, Q4 : -0.0610485821962}
2019-04-03 21:13:44.11: SIM {TimeUS : 47934985, Roll : 0.0, Pitch : 0.0, Yaw : 353.0, Alt : 584.090026855, Lat : -35.363261, Lng : 149.1652299, Q1 : 0.998134791851, Q2 : 0.0, Q3 : 0.0, Q4 : -0.0610485821962}
2019-04-03 21:13:44.21: SIM {TimeUS : 48034945, Roll : 0.0, Pitch : 0.0, Yaw : 353.0, Alt : 584.090026855, Lat : -35.363261, Lng : 149.1652299, Q1 : 0.998134791851, Q2 : 0.0, Q3 : 0.0, Q4 : -0.0610485821962}
2019-04-03 21:13:44.31: SIM {TimeUS : 48134905, Roll : 0.0, Pitch : 0.0, Yaw : 353.0, Alt : 584.090026855, Lat : -35.363261, Lng : 149.1652299, Q1 : 0.998134791851, Q2 : 0.0, Q3 : 0.0, Q4 : -0.0610485821962}
2019-04-03 21:13:44.41: SIM {TimeUS : 48234865, Roll : 0.0, Pitch : 0.0, Yaw : 353.0, Alt : 584.090026855, Lat : -35.363261, Lng : 149.1652299, Q1 : 0.998134791851, Q2 : 0.0, Q3 : 0.0, Q4 : -0.0610485821962}
2019-04-03 21:13:44.51: SIM {TimeUS : 48334825, Roll : 0.0, Pitch : 0.0, Yaw : 353.0, Alt : 584.090026855, Lat : -35.363261, Lng : 149.1652299, Q1 : 0.998134791851, Q2 : 0.0, Q3 : 0.0, Q4 : -0.0610485821962}
2019-04-03 21:13:44.61: SIM {TimeUS : 48434785, Roll : 0.0, Pitch : 0.0, Yaw : 353.0, Alt : 584.090026855, Lat : -35.363261, Lng : 149.1652299, Q1 : 0.998134791851, Q2 : 0.0, Q3 : 0.0, Q4 : -0.0610485821962}
2019-04-03 21:13:44.71: SIM {TimeUS : 48534745, Roll : 0.0, Pitch : 0.0, Yaw : 353.0, Alt : 584.090026855, Lat : -35.363261, Lng : 149.1652299, Q1 : 0.998134791851, Q2 : 0.0, Q3 : 0.0, Q4 : -0.0610485821962}
2019-04-03 21:13:44.81: SIM {TimeUS : 48634705, Roll : 0.0, Pitch : 0.0, Yaw : 353.0, Alt : 584.090026855, Lat : -35.363261, Lng : 149.1652299, Q1 : 0.998134791851, Q2 : 0.0, Q3 : 0.0, Q4 : -0.0610485821962}
2019-04-03 21:13:44.91: SIM {TimeUS : 48734665, Roll : 0.0, Pitch : 0.0, Yaw : 353.0, Alt : 584.090026855, Lat : -35.363261, Lng : 149.1652299, Q1 : 0.998134791851, Q2 : 0.0, Q3 : 0.0, Q4 : -0.0610485821962}
2019-04-03 21:13:45.02: SIM {TimeUS : 48835458, Roll : 0.0, Pitch : 0.0, Yaw : 353.0, Alt : 584.090026855, Lat : -35.363261, Lng : 149.1652299, Q1 : 0.998134791851, Q2 : 0.0, Q3 : 0.0, Q4 : -0.0610485821962}
2019-04-03 21:13:45.11: SIM {TimeUS : 48935418, Roll : 0.0, Pitch : 0.0, Yaw : 353.0, Alt : 584.090026855, Lat : -35.363261, Lng : 149.1652299, Q1 : 0.998134791851, Q2 : 0.0, Q3 : 0.0, Q4 : -0.0610485821962}
2019-04-03 21:13:45.21: SIM {TimeUS : 49035378, Roll : 0.0, Pitch : 0.0, Yaw : 353.0, Alt : 584.090026855, Lat : -35.363261, Lng : 149.1652299, Q1 : 0.998134791851, Q2 : 0.0, Q3 : 0.0, Q4 : -0.0610485821962}
2019-04-03 21:13:45.31: SIM {TimeUS : 49135338, Roll : 0.0, Pitch : 0.0, Yaw : 353.0, Alt : 584.090026855, Lat : -35.363261, Lng : 149.1652299, Q1 : 0.998134791851, Q2 : 0.0, Q3 : 0.0, Q4 : -0.0610485821962}
2019-04-03 21:13:45.41: SIM {TimeUS : 49235298, Roll : 0.0, Pitch : 0.0, Yaw : 353.0, Alt : 584.090026855, Lat : -35.363261, Lng : 149.1652299, Q1 : 0.998134791851, Q2 : 0.0, Q3 : 0.0, Q4 : -0.0610485821962}
2019-04-03 21:13:45.51: SIM {TimeUS : 49335258, Roll : 0.0, Pitch : 0.0, Yaw : 353.0, Alt : 584.090026855, Lat : -35.363261, Lng : 149.1652299, Q1 : 0.998134791851, Q2 : 0.0, Q3 : 0.0, Q4 : -0.0610485821962}
2019-04-03 21:13:45.61: SIM {TimeUS : 49435218, Roll : 0.0, Pitch : 0.0, Yaw : 353.0, Alt : 584.090026855, Lat : -35.363261, Lng : 149.1652299, Q1 : 0.998134791851, Q2 : 0.0, Q3 : 0.0, Q4 : -0.0610485821962}
2019-04-03 21:13:45.71: SIM {TimeUS : 49535178, Roll : 0.0, Pitch : 0.0, Yaw : 353.0, Alt : 584.090026855, Lat : -35.363261, Lng : 149.1652299, Q1 : 0.998134791851, Q2 : 0.0, Q3 : 0.0, Q4 : -0.0610485821962}
2019-04-03 21:13:45.81: SIM {TimeUS : 49635138, Roll : 0.0, Pitch : 0.0, Yaw : 353.0, Alt : 584.090026855, Lat : -35.363261, Lng : 149.1652299, Q1 : 0.998134791851, Q2 : 0.0, Q3 : 0.0, Q4 : -0.0610485821962}
2019-04-03 21:13:45.91: SIM {TimeUS : 49735098, Roll : 0.0, Pitch : 0.0, Yaw : 353.0, Alt : 584.090026855, Lat : -35.363261, Lng : 149.1652299, Q1 : 0.998134791851, Q2 : 0.0, Q3 : 0.0, Q4 : -0.0610485821962}
2019-04-03 21:13:46.01: SIM {TimeUS : 49835058, Roll : 0.0, Pitch : 0.0, Yaw : 353.0, Alt : 584.090026855, Lat : -35.363261, Lng : 149.1652299, Q1 : 0.998134791851, Q2 : 0.0, Q3 : 0.0, Q4 : -0.0610485821962}
2019-04-03 21:13:46.11: SIM {TimeUS : 49935018, Roll : 0.0, Pitch : 0.0, Yaw : 353.0, Alt : 584.090026855, Lat : -35.363261, Lng : 149.1652299, Q1 : 0.998134791851, Q2 : 0.0, Q3 : 0.0, Q4 : -0.0610485821962}
2019-04-03 21:13:46.21: SIM {TimeUS : 50034978, Roll : 0.0, Pitch : 0.0, Yaw : 353.0, Alt : 584.090026855, Lat : -35.363261, Lng : 149.1652299, Q1 : 0.998134791851, Q2 : 0.0, Q3 : 0.0, Q4 : -0.0610485821962}
2019-04-03 21:13:46.31: SIM {TimeUS : 50134938, Roll : 0.0, Pitch : 0.0, Yaw : 353.0, Alt : 584.090026855, Lat : -35.363261, Lng : 149.1652299, Q1 : 0.998134791851, Q2 : 0.0, Q3 : 0.0, Q4 : -0.0610485821962}
2019-04-03 21:13:46.41: SIM {TimeUS : 50234898, Roll : 0.0, Pitch : 0.0, Yaw : 353.0, Alt : 584.090026855, Lat : -35.363261, Lng : 149.1652299, Q1 : 0.998134791851, Q2 : 0.0, Q3 : 0.0, Q4 : -0.0610485821962}
2019-04-03 21:13:46.51: SIM {TimeUS : 50334858, Roll : 0.0, Pitch : 0.0, Yaw : 353.0, Alt : 584.090026855, Lat : -35.363261, Lng : 149.1652299, Q1 : 0.998134791851, Q2 : 0.0, Q3 : 0.0, Q4 : -0.0610485821962}
2019-04-03 21:13:46.61: SIM {TimeUS : 50434818, Roll : 0.0, Pitch : 0.0, Yaw : 353.0, Alt : 584.090026855, Lat : -35.363261, Lng : 149.1652299, Q1 : 0.998134791851, Q2 : 0.0, Q3 : 0.0, Q4 : -0.0610485821962}
2019-04-03 21:13:46.71: SIM {TimeUS : 50534778, Roll : 0.0, Pitch : 0.0, Yaw : 353.0, Alt : 584.090026855, Lat : -35.363261, Lng : 149.1652299, Q1 : 0.998134791851, Q2 : 0.0, Q3 : 0.0, Q4 : -0.0610485821962}
2019-04-03 21:13:46.81: SIM {TimeUS : 50634738, Roll : 0.0, Pitch : 0.0, Yaw : 353.0, Alt : 584.090026855, Lat : -35.363261, Lng : 149.1652299, Q1 : 0.998134791851, Q2 : 0.0, Q3 : 0.0, Q4 : -0.0610485821962}
2019-04-03 21:13:46.91: SIM {TimeUS : 50734698, Roll : 0.0, Pitch : 0.0, Yaw : 353.0, Alt : 584.090026855, Lat : -35.363261, Lng : 149.1652299, Q1 : 0.998134791851, Q2 : 0.0, Q3 : 0.0, Q4 : -0.0610485821962}
2019-04-03 21:13:47.01: SIM {TimeUS : 50834658, Roll : 0.0, Pitch : 0.0, Yaw : 353.0, Alt : 584.090026855, Lat : -35.363261, Lng : 149.1652299, Q1 : 0.998134791851, Q2 : 0.0, Q3 : 0.0, Q4 : -0.0610485821962}
2019-04-03 21:13:47.12: SIM {TimeUS : 50935451, Roll : 0.0, Pitch : 0.0, Yaw : 353.0, Alt : 584.090026855, Lat : -35.363261, Lng : 149.1652299, Q1 : 0.998134791851, Q2 : 0.0, Q3 : 0.0, Q4 : -0.0610485821962}
2019-04-03 21:13:47.21: SIM {TimeUS : 51035411, Roll : 0.0, Pitch : 0.0, Yaw : 353.0, Alt : 584.090026855, Lat : -35.363261, Lng : 149.1652299, Q1 : 0.998134791851, Q2 : 0.0, Q3 : 0.0, Q4 : -0.0610485821962}
2019-04-03 21:13:47.31: SIM {TimeUS : 51135371, Roll : 0.0, Pitch : 0.0, Yaw : 353.0, Alt : 584.090026855, Lat : -35.363261, Lng : 149.1652299, Q1 : 0.998134791851, Q2 : 0.0, Q3 : 0.0, Q4 : -0.0610485821962}
2019-04-03 21:13:47.41: SIM {TimeUS : 51235331, Roll : 0.0, Pitch : 0.0, Yaw : 353.0, Alt : 584.090026855, Lat : -35.363261, Lng : 149.1652299, Q1 : 0.998134791851, Q2 : 0.0, Q3 : 0.0, Q4 : -0.0610485821962}
2019-04-03 21:13:47.51: SIM {TimeUS : 51335291, Roll : 0.0, Pitch : 0.0, Yaw : 353.0, Alt : 584.090026855, Lat : -35.363261, Lng : 149.1652299, Q1 : 0.998134791851, Q2 : 0.0, Q3 : 0.0, Q4 : -0.0610485821962}
2019-04-03 21:13:47.61: SIM {TimeUS : 51435251, Roll : 0.0, Pitch : 0.0, Yaw : 353.0, Alt : 584.090026855, Lat : -35.363261, Lng : 149.1652299, Q1 : 0.998134791851, Q2 : 0.0, Q3 : 0.0, Q4 : -0.0610485821962}
2019-04-03 21:13:47.71: SIM {TimeUS : 51535211, Roll : 0.0, Pitch : 0.0, Yaw : 353.0, Alt : 584.090026855, Lat : -35.363261, Lng : 149.1652299, Q1 : 0.998134791851, Q2 : 0.0, Q3 : 0.0, Q4 : -0.0610485821962}
2019-04-03 21:13:47.81: SIM {TimeUS : 51635171, Roll : 0.0, Pitch : 0.0, Yaw : 353.0, Alt : 584.090026855, Lat : -35.363261, Lng : 149.1652299, Q1 : 0.998134791851, Q2 : 0.0, Q3 : 0.0, Q4 : -0.0610485821962}
2019-04-03 21:13:47.91: SIM {TimeUS : 51735131, Roll : 0.0, Pitch : 0.0, Yaw : 353.0, Alt : 584.090026855, Lat : -35.363261, Lng : 149.1652299, Q1 : 0.998134791851, Q2 : 0.0, Q3 : 0.0, Q4 : -0.0610485821962}
2019-04-03 21:13:48.01: SIM {TimeUS : 51835091, Roll : 0.0, Pitch : 0.0, Yaw : 353.0, Alt : 584.090026855, Lat : -35.363261, Lng : 149.1652299, Q1 : 0.998134791851, Q2 : 0.0, Q3 : 0.0, Q4 : -0.0610485821962}
2019-04-03 21:13:48.11: SIM {TimeUS : 51935051, Roll : 0.0, Pitch : 0.0, Yaw : 353.0, Alt : 584.090026855, Lat : -35.363261, Lng : 149.1652299, Q1 : 0.998134791851, Q2 : 0.0, Q3 : 0.0, Q4 : -0.0610485821962}
2019-04-03 21:13:48.21: SIM {TimeUS : 52035011, Roll : 0.0, Pitch : 0.0, Yaw : 353.0, Alt : 584.090026855, Lat : -35.363261, Lng : 149.1652299, Q1 : 0.998134791851, Q2 : 0.0, Q3 : 0.0, Q4 : -0.0610485821962}
2019-04-03 21:13:48.31: SIM {TimeUS : 52134971, Roll : 0.0, Pitch : 0.0, Yaw : 353.0, Alt : 584.090026855, Lat : -35.363261, Lng : 149.1652299, Q1 : 0.998134791851, Q2 : 0.0, Q3 : 0.0, Q4 : -0.0610485821962}
2019-04-03 21:13:48.41: SIM {TimeUS : 52234931, Roll : 0.0, Pitch : 0.0, Yaw : 353.0, Alt : 584.090026855, Lat : -35.363261, Lng : 149.1652299, Q1 : 0.998134791851, Q2 : 0.0, Q3 : 0.0, Q4 : -0.0610485821962}
2019-04-03 21:13:48.51: SIM {TimeUS : 52334891, Roll : 0.0, Pitch : 0.0, Yaw : 353.0, Alt : 584.090026855, Lat : -35.363261, Lng : 149.1652299, Q1 : 0.998134791851, Q2 : 0.0, Q3 : 0.0, Q4 : -0.0610485821962}
2019-04-03 21:13:48.61: SIM {TimeUS : 52434851, Roll : 0.0, Pitch : 0.0, Yaw : 353.0, Alt : 584.090026855, Lat : -35.363261, Lng : 149.1652299, Q1 : 0.998134791851, Q2 : 0.0, Q3 : 0.0, Q4 : -0.0610485821962}
2019-04-03 21:13:48.71: SIM {TimeUS : 52534811, Roll : 0.0, Pitch : 0.0, Yaw : 353.0, Alt : 584.090026855, Lat : -35.363261, Lng : 149.1652299, Q1 : 0.998134791851, Q2 : 0.0, Q3 : 0.0, Q4 : -0.0610485821962}
2019-04-03 21:13:48.81: SIM {TimeUS : 52634771, Roll : 0.0, Pitch : 0.0, Yaw : 353.0, Alt : 584.090026855, Lat : -35.363261, Lng : 149.1652299, Q1 : 0.998134791851, Q2 : 0.0, Q3 : 0.0, Q4 : -0.0610485821962}
2019-04-03 21:13:48.91: SIM {TimeUS : 52734731, Roll : 0.0, Pitch : 0.0, Yaw : 353.0, Alt : 584.090026855, Lat : -35.363261, Lng : 149.1652299, Q1 : 0.998134791851, Q2 : 0.0, Q3 : 0.0, Q4 : -0.0610485821962}
2019-04-03 21:13:49.01: SIM {TimeUS : 52834691, Roll : 0.0, Pitch : 0.0, Yaw : 353.0, Alt : 584.090026855, Lat : -35.363261, Lng : 149.1652299, Q1 : 0.998134791851, Q2 : 0.0, Q3 : 0.0, Q4 : -0.0610485821962}
2019-04-03 21:13:49.11: SIM {TimeUS : 52934651, Roll : 0.0, Pitch : 0.0, Yaw : 353.0, Alt : 584.090026855, Lat : -35.363261, Lng : 149.1652299, Q1 : 0.998134791851, Q2 : 0.0, Q3 : 0.0, Q4 : -0.0610485821962}
2019-04-03 21:13:49.22: SIM {TimeUS : 53035444, Roll : 0.0, Pitch : 0.0, Yaw : 353.0, Alt : 584.090026855, Lat : -35.363261, Lng : 149.1652299, Q1 : 0.998134791851, Q2 : 0.0, Q3 : 0.0, Q4 : -0.0610485821962}
2019-04-03 21:13:49.31: SIM {TimeUS : 53135404, Roll : 0.0, Pitch : 0.0, Yaw : 353.0, Alt : 584.090026855, Lat : -35.363261, Lng : 149.1652299, Q1 : 0.998134791851, Q2 : 0.0, Q3 : 0.0, Q4 : -0.0610485821962}
2019-04-03 21:13:49.41: SIM {TimeUS : 53235364, Roll : 0.0, Pitch : 0.0, Yaw : 353.0, Alt : 584.090026855, Lat : -35.363261, Lng : 149.1652299, Q1 : 0.998134791851, Q2 : 0.0, Q3 : 0.0, Q4 : -0.0610485821962}
2019-04-03 21:13:49.51: SIM {TimeUS : 53335324, Roll : 0.0, Pitch : 0.0, Yaw : 353.0, Alt : 584.090026855, Lat : -35.363261, Lng : 149.1652299, Q1 : 0.998134791851, Q2 : 0.0, Q3 : 0.0, Q4 : -0.0610485821962}
2019-04-03 21:13:49.61: SIM {TimeUS : 53435284, Roll : 0.0, Pitch : 0.0, Yaw : 353.0, Alt : 584.090026855, Lat : -35.363261, Lng : 149.1652299, Q1 : 0.998134791851, Q2 : 0.0, Q3 : 0.0, Q4 : -0.0610485821962}
2019-04-03 21:13:49.71: SIM {TimeUS : 53535244, Roll : 0.0, Pitch : 0.0, Yaw : 353.0, Alt : 584.090026855, Lat : -35.363261, Lng : 149.1652299, Q1 : 0.998134791851, Q2 : 0.0, Q3 : 0.0, Q4 : -0.0610485821962}
2019-04-03 21:13:49.81: SIM {TimeUS : 53635204, Roll : 0.0, Pitch : 0.0, Yaw : 353.0, Alt : 584.090026855, Lat : -35.363261, Lng : 149.1652299, Q1 : 0.998134791851, Q2 : 0.0, Q3 : 0.0, Q4 : -0.0610485821962}
2019-04-03 21:13:49.91: SIM {TimeUS : 53735164, Roll : 0.0, Pitch : 0.0, Yaw : 353.0, Alt : 584.090026855, Lat : -35.363261, Lng : 149.1652299, Q1 : 0.998134791851, Q2 : 0.0, Q3 : 0.0, Q4 : -0.0610485821962}
2019-04-03 21:13:50.01: SIM {TimeUS : 53835124, Roll : 0.0, Pitch : 0.0, Yaw : 353.0, Alt : 584.090026855, Lat : -35.363261, Lng : 149.1652299, Q1 : 0.998134791851, Q2 : 0.0, Q3 : 0.0, Q4 : -0.0610485821962}
2019-04-03 21:13:50.11: SIM {TimeUS : 53935084, Roll : 0.0, Pitch : 0.0, Yaw : 353.0, Alt : 584.090026855, Lat : -35.363261, Lng : 149.1652299, Q1 : 0.998134791851, Q2 : 0.0, Q3 : 0.0, Q4 : -0.0610485821962}
2019-04-03 21:13:50.21: SIM {TimeUS : 54035044, Roll : 0.0, Pitch : 0.0, Yaw : 353.0, Alt : 584.090026855, Lat : -35.363261, Lng : 149.1652299, Q1 : 0.998134791851, Q2 : 0.0, Q3 : 0.0, Q4 : -0.0610485821962}
2019-04-03 21:13:50.31: SIM {TimeUS : 54135004, Roll : 0.0, Pitch : 0.0, Yaw : 353.0, Alt : 584.090026855, Lat : -35.363261, Lng : 149.1652299, Q1 : 0.998134791851, Q2 : 0.0, Q3 : 0.0, Q4 : -0.0610485821962}
2019-04-03 21:13:50.41: SIM {TimeUS : 54234964, Roll : 0.0, Pitch : 0.0, Yaw : 353.0, Alt : 584.090026855, Lat : -35.363261, Lng : 149.1652299, Q1 : 0.998134791851, Q2 : 0.0, Q3 : 0.0, Q4 : -0.0610485821962}
2019-04-03 21:13:50.51: SIM {TimeUS : 54334924, Roll : 0.0, Pitch : 0.0, Yaw : 353.0, Alt : 584.090026855, Lat : -35.363261, Lng : 149.1652299, Q1 : 0.998134791851, Q2 : 0.0, Q3 : 0.0, Q4 : -0.0610485821962}
2019-04-03 21:13:50.61: SIM {TimeUS : 54434884, Roll : 0.0, Pitch : 0.0, Yaw : 353.0, Alt : 584.090026855, Lat : -35.363261, Lng : 149.1652299, Q1 : 0.998134791851, Q2 : 0.0, Q3 : 0.0, Q4 : -0.0610485821962}
2019-04-03 21:13:50.71: SIM {TimeUS : 54534844, Roll : 0.0, Pitch : 0.0, Yaw : 353.0, Alt : 584.090026855, Lat : -35.363261, Lng : 149.1652299, Q1 : 0.998134791851, Q2 : 0.0, Q3 : 0.0, Q4 : -0.0610485821962}
2019-04-03 21:13:50.81: SIM {TimeUS : 54634804, Roll : 0.0, Pitch : 0.0, Yaw : 353.0, Alt : 584.090026855, Lat : -35.363261, Lng : 149.1652299, Q1 : 0.998134791851, Q2 : 0.0, Q3 : 0.0, Q4 : -0.0610485821962}
2019-04-03 21:13:50.91: SIM {TimeUS : 54734764, Roll : 0.0, Pitch : 0.0, Yaw : 353.0, Alt : 584.090026855, Lat : -35.363261, Lng : 149.1652299, Q1 : 0.998134791851, Q2 : 0.0, Q3 : 0.0, Q4 : -0.0610485821962}
2019-04-03 21:13:51.01: SIM {TimeUS : 54834724, Roll : 0.0, Pitch : 0.0, Yaw : 353.0, Alt : 584.090026855, Lat : -35.363261, Lng : 149.1652299, Q1 : 0.998134791851, Q2 : 0.0, Q3 : 0.0, Q4 : -0.0610485821962}
2019-04-03 21:13:51.11: SIM {TimeUS : 54934684, Roll : 0.0, Pitch : 0.0, Yaw : 353.0, Alt : 584.090026855, Lat : -35.363261, Lng : 149.1652299, Q1 : 0.998134791851, Q2 : 0.0, Q3 : 0.0, Q4 : -0.0610485821962}
2019-04-03 21:13:51.21: SIM {TimeUS : 55034644, Roll : 0.0, Pitch : 0.0, Yaw : 353.0, Alt : 584.090026855, Lat : -35.363261, Lng : 149.1652299, Q1 : 0.998134791851, Q2 : 0.0, Q3 : 0.0, Q4 : -0.0610485821962}
2019-04-03 21:13:51.32: SIM {TimeUS : 55135437, Roll : 0.0, Pitch : 0.0, Yaw : 353.0, Alt : 584.090026855, Lat : -35.363261, Lng : 149.1652299, Q1 : 0.998134791851, Q2 : 0.0, Q3 : 0.0, Q4 : -0.0610485821962}
2019-04-03 21:13:51.41: SIM {TimeUS : 55235397, Roll : 0.0, Pitch : 0.0, Yaw : 353.0, Alt : 584.090026855, Lat : -35.363261, Lng : 149.1652299, Q1 : 0.998134791851, Q2 : 0.0, Q3 : 0.0, Q4 : -0.0610485821962}
2019-04-03 21:13:51.51: SIM {TimeUS : 55335357, Roll : 0.0, Pitch : 0.0, Yaw : 353.0, Alt : 584.090026855, Lat : -35.363261, Lng : 149.1652299, Q1 : 0.998134791851, Q2 : 0.0, Q3 : 0.0, Q4 : -0.0610485821962}
2019-04-03 21:13:51.61: SIM {TimeUS : 55435317, Roll : 0.0, Pitch : 0.0, Yaw : 353.0, Alt : 584.090026855, Lat : -35.363261, Lng : 149.1652299, Q1 : 0.998134791851, Q2 : 0.0, Q3 : 0.0, Q4 : -0.0610485821962}
2019-04-03 21:13:51.71: SIM {TimeUS : 55535277, Roll : 0.0, Pitch : 0.0, Yaw : 353.0, Alt : 584.090026855, Lat : -35.363261, Lng : 149.1652299, Q1 : 0.998134791851, Q2 : 0.0, Q3 : 0.0, Q4 : -0.0610485821962}
2019-04-03 21:13:51.81: SIM {TimeUS : 55635237, Roll : 0.0, Pitch : 0.0, Yaw : 353.0, Alt : 584.090026855, Lat : -35.363261, Lng : 149.1652299, Q1 : 0.998134791851, Q2 : 0.0, Q3 : 0.0, Q4 : -0.0610485821962}
2019-04-03 21:13:51.91: SIM {TimeUS : 55735197, Roll : 0.0, Pitch : 0.0, Yaw : 353.0, Alt : 584.090026855, Lat : -35.363261, Lng : 149.1652299, Q1 : 0.998134791851, Q2 : 0.0, Q3 : 0.0, Q4 : -0.0610485821962}
2019-04-03 21:13:52.01: SIM {TimeUS : 55835157, Roll : 0.0, Pitch : 0.0, Yaw : 353.0, Alt : 584.090026855, Lat : -35.363261, Lng : 149.1652299, Q1 : 0.998134791851, Q2 : 0.0, Q3 : 0.0, Q4 : -0.0610485821962}
2019-04-03 21:13:52.11: SIM {TimeUS : 55935117, Roll : 0.0, Pitch : 0.0, Yaw : 353.0, Alt : 584.090026855, Lat : -35.363261, Lng : 149.1652299, Q1 : 0.998134791851, Q2 : 0.0, Q3 : 0.0, Q4 : -0.0610485821962}
2019-04-03 21:13:52.21: SIM {TimeUS : 56035077, Roll : 0.0, Pitch : 0.0, Yaw : 353.0, Alt : 584.090026855, Lat : -35.363261, Lng : 149.1652299, Q1 : 0.998134791851, Q2 : 0.0, Q3 : 0.0, Q4 : -0.0610485821962}
2019-04-03 21:13:52.31: SIM {TimeUS : 56135037, Roll : 0.0, Pitch : 0.0, Yaw : 353.0, Alt : 584.090026855, Lat : -35.363261, Lng : 149.1652299, Q1 : 0.998134791851, Q2 : 0.0, Q3 : 0.0, Q4 : -0.0610485821962}
2019-04-03 21:13:52.41: SIM {TimeUS : 56234997, Roll : 0.0, Pitch : 0.0, Yaw : 353.0, Alt : 584.090026855, Lat : -35.363261, Lng : 149.1652299, Q1 : 0.998134791851, Q2 : 0.0, Q3 : 0.0, Q4 : -0.0610485821962}
2019-04-03 21:13:52.51: SIM {TimeUS : 56334957, Roll : 0.0, Pitch : 0.0, Yaw : 353.0, Alt : 584.090026855, Lat : -35.363261, Lng : 149.1652299, Q1 : 0.998134791851, Q2 : 0.0, Q3 : 0.0, Q4 : -0.0610485821962}
2019-04-03 21:13:52.61: SIM {TimeUS : 56434917, Roll : 0.0, Pitch : 0.0, Yaw : 353.0, Alt : 584.090026855, Lat : -35.363261, Lng : 149.1652299, Q1 : 0.998134791851, Q2 : 0.0, Q3 : 0.0, Q4 : -0.0610485821962}
2019-04-03 21:13:52.71: SIM {TimeUS : 56534877, Roll : 0.0, Pitch : 0.0, Yaw : 353.0, Alt : 584.090026855, Lat : -35.363261, Lng : 149.1652299, Q1 : 0.998134791851, Q2 : 0.0, Q3 : 0.0, Q4 : -0.0610485821962}
2019-04-03 21:13:56.71: SIM {TimeUS : 60534943, Roll : 0.0, Pitch : 0.0, Yaw : 353.0, Alt : 584.090026855, Lat : -35.363261, Lng : 149.1652299, Q1 : 0.998134791851, Q2 : 0.0, Q3 : 0.0, Q4 : -0.0610485821962}
2019-04-03 21:13:56.81: SIM {TimeUS : 60634903, Roll : 0.0, Pitch : 0.0, Yaw : 353.0, Alt : 584.090026855, Lat : -35.363261, Lng : 149.1652299, Q1 : 0.998134791851, Q2 : 0.0, Q3 : 0.0, Q4 : -0.0610485821962}
2019-04-03 21:13:56.91: SIM {TimeUS : 60734863, Roll : 0.0, Pitch : 0.0, Yaw : 353.0, Alt : 584.090026855, Lat : -35.363261, Lng : 149.1652299, Q1 : 0.998134791851, Q2 : 0.0, Q3 : 0.0, Q4 : -0.0610485821962}
2019-04-03 21:13:57.01: SIM {TimeUS : 60834823, Roll : 0.0, Pitch : 0.0, Yaw : 353.0, Alt : 584.090026855, Lat : -35.363261, Lng : 149.1652299, Q1 : 0.998134791851, Q2 : 0.0, Q3 : 0.0, Q4 : -0.0610485821962}
2019-04-03 21:13:57.11: SIM {TimeUS : 60934783, Roll : 0.0, Pitch : 0.0, Yaw : 353.0, Alt : 584.090026855, Lat : -35.363261, Lng : 149.1652299, Q1 : 0.998134791851, Q2 : 0.0, Q3 : 0.0, Q4 : -0.0610485821962}
2019-04-03 21:13:57.21: SIM {TimeUS : 61034743, Roll : 0.0, Pitch : 0.0, Yaw : 353.0, Alt : 584.090026855, Lat : -35.363261, Lng : 149.1652299, Q1 : 0.998134791851, Q2 : 0.0, Q3 : 0.0, Q4 : -0.0610485821962}
2019-04-03 21:13:57.31: SIM {TimeUS : 61134703, Roll : 0.0, Pitch : 0.0, Yaw : 353.0, Alt : 584.090026855, Lat : -35.363261, Lng : 149.1652299, Q1 : 0.998134791851, Q2 : 0.0, Q3 : 0.0, Q4 : -0.0610485821962}
2019-04-03 21:13:57.41: SIM {TimeUS : 61234663, Roll : 0.0, Pitch : 0.0, Yaw : 353.0, Alt : 584.090026855, Lat : -35.363261, Lng : 149.1652299, Q1 : 0.998134791851, Q2 : 0.0, Q3 : 0.0, Q4 : -0.0610485821962}
2019-04-03 21:13:57.52: SIM {TimeUS : 61335456, Roll : 0.0, Pitch : 0.0, Yaw : 353.0, Alt : 584.090026855, Lat : -35.363261, Lng : 149.1652299, Q1 : 0.998134791851, Q2 : 0.0, Q3 : 0.0, Q4 : -0.0610485821962}
2019-04-03 21:13:57.61: SIM {TimeUS : 61435416, Roll : 0.0, Pitch : 0.0, Yaw : 353.0, Alt : 584.090026855, Lat : -35.363261, Lng : 149.1652299, Q1 : 0.998134791851, Q2 : 0.0, Q3 : 0.0, Q4 : -0.0610485821962}
2019-04-03 21:13:57.71: SIM {TimeUS : 61535376, Roll : 0.0, Pitch : 0.0, Yaw : 353.0, Alt : 584.090026855, Lat : -35.363261, Lng : 149.1652299, Q1 : 0.998134791851, Q2 : 0.0, Q3 : 0.0, Q4 : -0.0610485821962}
2019-04-03 21:13:57.81: SIM {TimeUS : 61635336, Roll : 0.0, Pitch : 0.0, Yaw : 353.0, Alt : 584.090026855, Lat : -35.363261, Lng : 149.1652299, Q1 : 0.998134791851, Q2 : 0.0, Q3 : 0.0, Q4 : -0.0610485821962}
2019-04-03 21:13:57.91: SIM {TimeUS : 61735296, Roll : 0.0, Pitch : 0.0, Yaw : 353.0, Alt : 584.090026855, Lat : -35.363261, Lng : 149.1652299, Q1 : 0.998134791851, Q2 : 0.0, Q3 : 0.0, Q4 : -0.0610485821962}
2019-04-03 21:13:58.01: SIM {TimeUS : 61835256, Roll : 0.0, Pitch : 0.0, Yaw : 353.0, Alt : 584.090026855, Lat : -35.363261, Lng : 149.1652299, Q1 : 0.998134791851, Q2 : 0.0, Q3 : 0.0, Q4 : -0.0610485821962}
2019-04-03 21:13:58.11: SIM {TimeUS : 61935216, Roll : 0.0, Pitch : 0.0, Yaw : 353.0, Alt : 584.090026855, Lat : -35.363261, Lng : 149.1652299, Q1 : 0.998134791851, Q2 : 0.0, Q3 : 0.0, Q4 : -0.0610485821962}
2019-04-03 21:13:58.21: SIM {TimeUS : 62035176, Roll : 0.0, Pitch : 0.0, Yaw : 353.0, Alt : 584.090026855, Lat : -35.363261, Lng : 149.1652299, Q1 : 0.998134791851, Q2 : 0.0, Q3 : 0.0, Q4 : -0.0610485821962}
2019-04-03 21:13:58.31: SIM {TimeUS : 62135136, Roll : 0.0, Pitch : 0.0, Yaw : 353.0, Alt : 584.090026855, Lat : -35.363261, Lng : 149.1652299, Q1 : 0.998134791851, Q2 : 0.0, Q3 : 0.0, Q4 : -0.0610485821962}
2019-04-03 21:13:58.41: SIM {TimeUS : 62235096, Roll : 0.0, Pitch : 0.0, Yaw : 353.0, Alt : 584.090026855, Lat : -35.363261, Lng : 149.1652299, Q1 : 0.998134791851, Q2 : 0.0, Q3 : 0.0, Q4 : -0.0610485821962}
2019-04-03 21:13:58.51: SIM {TimeUS : 62335056, Roll : 0.0, Pitch : 0.0, Yaw : 353.0, Alt : 584.090026855, Lat : -35.363261, Lng : 149.1652299, Q1 : 0.998134791851, Q2 : 0.0, Q3 : 0.0, Q4 : -0.0610485821962}
2019-04-03 21:13:58.61: SIM {TimeUS : 62435016, Roll : 0.0, Pitch : 0.0, Yaw : 353.0, Alt : 584.090026855, Lat : -35.363261, Lng : 149.1652299, Q1 : 0.998134791851, Q2 : 0.0, Q3 : 0.0, Q4 : -0.0610485821962}
2019-04-03 21:13:58.71: SIM {TimeUS : 62534976, Roll : 0.0, Pitch : 0.0, Yaw : 353.0, Alt : 584.090026855, Lat : -35.363261, Lng : 149.1652299, Q1 : 0.998134791851, Q2 : 0.0, Q3 : 0.0, Q4 : -0.0610485821962}
2019-04-03 21:13:58.81: SIM {TimeUS : 62634936, Roll : 0.0, Pitch : 0.0, Yaw : 353.0, Alt : 584.090026855, Lat : -35.363261, Lng : 149.1652299, Q1 : 0.998134791851, Q2 : 0.0, Q3 : 0.0, Q4 : -0.0610485821962}
2019-04-03 21:13:58.91: SIM {TimeUS : 62734896, Roll : 0.0, Pitch : 0.0, Yaw : 353.0, Alt : 584.090026855, Lat : -35.363261, Lng : 149.1652299, Q1 : 0.998134791851, Q2 : 0.0, Q3 : 0.0, Q4 : -0.0610485821962}
2019-04-03 21:13:59.01: SIM {TimeUS : 62834856, Roll : 0.0, Pitch : 0.0, Yaw : 353.0, Alt : 584.090026855, Lat : -35.363261, Lng : 149.1652299, Q1 : 0.998134791851, Q2 : 0.0, Q3 : 0.0, Q4 : -0.0610485821962}
2019-04-03 21:13:59.11: SIM {TimeUS : 62934816, Roll : 0.0, Pitch : 0.0, Yaw : 353.0, Alt : 584.090026855, Lat : -35.363261, Lng : 149.1652299, Q1 : 0.998134791851, Q2 : 0.0, Q3 : 0.0, Q4 : -0.0610485821962}
2019-04-03 21:13:59.21: SIM {TimeUS : 63034776, Roll : 0.0, Pitch : 0.0, Yaw : 353.0, Alt : 584.090026855, Lat : -35.363261, Lng : 149.1652299, Q1 : 0.998134791851, Q2 : 0.0, Q3 : 0.0, Q4 : -0.0610485821962}
2019-04-03 21:13:59.31: SIM {TimeUS : 63134736, Roll : 0.0, Pitch : 0.0, Yaw : 353.0, Alt : 584.090026855, Lat : -35.363261, Lng : 149.1652299, Q1 : 0.998134791851, Q2 : 0.0, Q3 : 0.0, Q4 : -0.0610485821962}
2019-04-03 21:13:59.41: SIM {TimeUS : 63234696, Roll : 0.0, Pitch : 0.0, Yaw : 353.0, Alt : 584.090026855, Lat : -35.363261, Lng : 149.1652299, Q1 : 0.998134791851, Q2 : 0.0, Q3 : 0.0, Q4 : -0.0610485821962}
2019-04-03 21:13:59.51: SIM {TimeUS : 63334656, Roll : 0.0, Pitch : 0.0, Yaw : 353.0, Alt : 584.090026855, Lat : -35.363261, Lng : 149.1652299, Q1 : 0.998134791851, Q2 : 0.0, Q3 : 0.0, Q4 : -0.0610485821962}
2019-04-03 21:13:59.62: SIM {TimeUS : 63435449, Roll : 0.0, Pitch : 0.0, Yaw : 353.0, Alt : 584.090026855, Lat : -35.363261, Lng : 149.1652299, Q1 : 0.998134791851, Q2 : 0.0, Q3 : 0.0, Q4 : -0.0610485821962}
2019-04-03 21:13:59.71: SIM {TimeUS : 63535409, Roll : 0.0, Pitch : 0.0, Yaw : 353.0, Alt : 584.090026855, Lat : -35.363261, Lng : 149.1652299, Q1 : 0.998134791851, Q2 : 0.0, Q3 : 0.0, Q4 : -0.0610485821962}
2019-04-03 21:13:59.81: SIM {TimeUS : 63635369, Roll : 0.0, Pitch : 0.0, Yaw : 353.0, Alt : 584.090026855, Lat : -35.363261, Lng : 149.1652299, Q1 : 0.998134791851, Q2 : 0.0, Q3 : 0.0, Q4 : -0.0610485821962}
2019-04-03 21:13:59.91: SIM {TimeUS : 63735329, Roll : 0.0, Pitch : 0.0, Yaw : 353.0, Alt : 584.090026855, Lat : -35.363261, Lng : 149.1652299, Q1 : 0.998134791851, Q2 : 0.0, Q3 : 0.0, Q4 : -0.061048604548}
2019-04-03 21:14:00.01: SIM {TimeUS : 63835289, Roll : 0.0, Pitch : 0.0, Yaw : 353.0, Alt : 584.090026855, Lat : -35.363261, Lng : 149.1652299, Q1 : 0.998134791851, Q2 : 0.0, Q3 : 0.0, Q4 : -0.0610486641526}
2019-04-03 21:14:00.11: SIM {TimeUS : 63935249, Roll : 0.0, Pitch : 0.0, Yaw : 353.0, Alt : 584.090026855, Lat : -35.363261, Lng : 149.1652299, Q1 : 0.998134791851, Q2 : 0.0, Q3 : 0.0, Q4 : -0.0610486753285}
2019-04-03 21:14:00.21: SIM {TimeUS : 64035209, Roll : 0.0, Pitch : 0.0, Yaw : 353.0, Alt : 584.090026855, Lat : -35.363261, Lng : 149.1652299, Q1 : 0.998134791851, Q2 : 0.0, Q3 : 0.0, Q4 : -0.0610486753285}
2019-04-03 21:14:00.31: SIM {TimeUS : 64135169, Roll : 0.0, Pitch : 0.0, Yaw : 353.0, Alt : 584.090026855, Lat : -35.363261, Lng : 149.1652299, Q1 : 0.998134791851, Q2 : 0.0, Q3 : 0.0, Q4 : -0.0610486753285}
2019-04-03 21:14:00.41: SIM {TimeUS : 64235129, Roll : 0.0, Pitch : 0.0, Yaw : 353.0, Alt : 584.090026855, Lat : -35.363261, Lng : 149.1652299, Q1 : 0.998134791851, Q2 : 0.0, Q3 : 0.0, Q4 : -0.0610486753285}
2019-04-03 21:14:00.51: SIM {TimeUS : 64335089, Roll : 0.0, Pitch : 0.0, Yaw : 353.0, Alt : 584.090026855, Lat : -35.363261, Lng : 149.1652299, Q1 : 0.998134791851, Q2 : 0.0, Q3 : 0.0, Q4 : -0.0610486753285}
2019-04-03 21:14:00.61: SIM {TimeUS : 64435049, Roll : 0.0, Pitch : 0.0, Yaw : 353.0, Alt : 584.090026855, Lat : -35.363261, Lng : 149.1652299, Q1 : 0.998134791851, Q2 : 0.0, Q3 : 0.0, Q4 : -0.0610486753285}
2019-04-03 21:14:00.71: SIM {TimeUS : 64535009, Roll : 0.0, Pitch : 0.0, Yaw : 353.0, Alt : 584.090026855, Lat : -35.363261, Lng : 149.1652299, Q1 : 0.998134791851, Q2 : 0.0, Q3 : 0.0, Q4 : -0.0610486753285}
2019-04-03 21:14:00.81: SIM {TimeUS : 64634969, Roll : 0.0, Pitch : 0.0, Yaw : 353.0, Alt : 584.099975586, Lat : -35.363261, Lng : 149.1652299, Q1 : 0.998134791851, Q2 : 0.0, Q3 : 0.0, Q4 : -0.0610486716032}
2019-04-03 21:14:00.91: SIM {TimeUS : 64734929, Roll : 0.0, Pitch : 0.0, Yaw : 353.0, Alt : 584.109985352, Lat : -35.363261, Lng : 149.1652299, Q1 : 0.998134791851, Q2 : 0.0, Q3 : 0.0, Q4 : -0.0610486716032}
2019-04-03 21:14:01.01: SIM {TimeUS : 64834889, Roll : 0.0, Pitch : 0.0, Yaw : 353.0, Alt : 584.119995117, Lat : -35.363261, Lng : 149.1652299, Q1 : 0.998134791851, Q2 : 0.0, Q3 : 0.0, Q4 : -0.0610486753285}
2019-04-03 21:14:01.11: SIM {TimeUS : 64934849, Roll : 0.0, Pitch : 0.0, Yaw : 353.0, Alt : 584.150024414, Lat : -35.363261, Lng : 149.1652299, Q1 : 0.998134791851, Q2 : 0.0, Q3 : 0.0, Q4 : -0.0610486753285}
2019-04-03 21:14:01.21: SIM {TimeUS : 65034809, Roll : 0.0, Pitch : 0.0, Yaw : 353.0, Alt : 584.179992676, Lat : -35.363261, Lng : 149.1652299, Q1 : 0.998134791851, Q2 : 0.0, Q3 : 0.0, Q4 : -0.0610486753285}
2019-04-03 21:14:01.31: SIM {TimeUS : 65134769, Roll : 0.0, Pitch : 0.0, Yaw : 352.99, Alt : 584.219970703, Lat : -35.363261, Lng : 149.1652299, Q1 : 0.998134791851, Q2 : -1.45095864355e-05, Q3 : -1.33285020638e-05, Q4 : -0.0610487423837}
2019-04-03 21:14:01.41: SIM {TimeUS : 65234729, Roll : -0.03, Pitch : -0.03, Yaw : 352.99, Alt : 584.289978027, Lat : -35.363261, Lng : 149.1652299, Q1 : 0.998134195805, Q2 : -0.000342275161529, Q3 : -0.00024778637453, Q4 : -0.0610569864511}
2019-04-03 21:14:01.51: SIM {TimeUS : 65334689, Roll : -0.1, Pitch : -0.06, Yaw : 352.99, Alt : 584.409973145, Lat : -35.363261, Lng : 149.1652299, Q1 : 0.998132705688, Q2 : -0.000966552237514, Q3 : -0.000510258949362, Q4 : -0.0610727444291}
2019-04-03 21:14:01.61: SIM {TimeUS : 65434649, Roll : -0.18, Pitch : -0.08, Yaw : 352.99, Alt : 584.559997559, Lat : -35.363261, Lng : 149.1652299, Q1 : 0.998130440712, Q2 : -0.00165745569393, Q3 : -0.000652447692119, Q4 : -0.0610946044326}
2019-04-03 21:14:01.72: SIM {TimeUS : 65535442, Roll : -0.24, Pitch : -0.08, Yaw : 352.99, Alt : 584.719970703, Lat : -35.363261, Lng : 149.1652299, Q1 : 0.998127877712, Q2 : -0.0021927615162, Q3 : -0.000625842774753, Q4 : -0.0611193887889}
2019-04-03 21:14:01.81: SIM {TimeUS : 65635402, Roll : -0.25, Pitch : -0.07, Yaw : 352.98, Alt : 584.869995117, Lat : -35.363261, Lng : 149.1652299, Q1 : 0.998125970364, Q2 : -0.00225089420564, Q3 : -0.000500398455188, Q4 : -0.0611496530473}
2019-04-03 21:14:01.91: SIM {TimeUS : 65735362, Roll : -0.21, Pitch : -0.06, Yaw : 352.98, Alt : 585.030029297, Lat : -35.363261, Lng : 149.1652299, Q1 : 0.998125374317, Q2 : -0.00186504935846, Q3 : -0.000410904031014, Q4 : -0.0611735731363}
2019-04-03 21:14:02.01: SIM {TimeUS : 65835322, Roll : -0.14, Pitch : -0.04, Yaw : 352.98, Alt : 585.179992676, Lat : -35.363261, Lng : 149.1652299, Q1 : 0.998125076294, Q2 : -0.00128042337019, Q3 : -0.000316476856824, Q4 : -0.0611938722432}
2019-04-03 21:14:02.11: SIM {TimeUS : 65935282, Roll : -0.06, Pitch : -0.03, Yaw : 352.98, Alt : 585.340026855, Lat : -35.363261, Lng : 149.1652299, Q1 : 0.998124599457, Q2 : -0.000613643729594, Q3 : -0.000277932587778, Q4 : -0.0612114779651}
2019-04-03 21:14:02.21: SIM {TimeUS : 66035242, Roll : -0.01, Pitch : -0.03, Yaw : 352.98, Alt : 585.510009766, Lat : -35.363261, Lng : 149.1652299, Q1 : 0.998124063015, Q2 : -0.000180481918505, Q3 : -0.000324538210407, Q4 : -0.0612223446369}
2019-04-03 21:14:02.31: SIM {TimeUS : 66135202, Roll : 0.0, Pitch : -0.04, Yaw : 352.97, Alt : 585.679992676, Lat : -35.363261, Lng : 149.1652298, Q1 : 0.998123884201, Q2 : 3.37549354299e-05, Q3 : -0.00039880379336, Q4 : -0.0612254142761}
2019-04-03 21:14:02.41: SIM {TimeUS : 66235162, Roll : 0.01, Pitch : -0.04, Yaw : 352.97, Alt : 585.859985352, Lat : -35.363261, Lng : 149.1652298, Q1 : 0.998123526573, Q2 : 0.00011244531197, Q3 : -0.000428879691754, Q4 : -0.0612307973206}
2019-04-03 21:14:02.51: SIM {TimeUS : 66335122, Roll : 0.03, Pitch : -0.04, Yaw : 352.97, Alt : 586.049987793, Lat : -35.363261, Lng : 149.1652298, Q1 : 0.998123049736, Q2 : 0.000290195719572, Q3 : -0.000371505651856, Q4 : -0.0612380951643}
2019-04-03 21:14:02.61: SIM {TimeUS : 66435082, Roll : 0.06, Pitch : -0.03, Yaw : 352.97, Alt : 586.229980469, Lat : -35.363261, Lng : 149.1652298, Q1 : 0.998122692108, Q2 : 0.000543776201084, Q3 : -0.000380480254535, Q4 : -0.0612428039312}
2019-04-03 21:14:02.71: SIM {TimeUS : 66535042, Roll : 0.06, Pitch : -0.01, Yaw : 352.97, Alt : 586.41998291, Lat : -35.363261, Lng : 149.1652298, Q1 : 0.998122930527, Q2 : 0.000519062101375, Q3 : -0.000183003168786, Q4 : -0.0612398833036}
2019-04-03 21:14:02.81: SIM {TimeUS : 66635002, Roll : 0.04, Pitch : -0.01, Yaw : 352.97, Alt : 586.619995117, Lat : -35.363261, Lng : 149.1652298, Q1 : 0.998123645782, Q2 : 0.000356296630343, Q3 : -0.000124139769468, Q4 : -0.0612291879952}
2019-04-03 21:14:02.91: SIM {TimeUS : 66734962, Roll : 0.04, Pitch : -0.01, Yaw : 352.98, Alt : 586.809997559, Lat : -35.363261, Lng : 149.1652298, Q1 : 0.998124659061, Q2 : 0.000401648052502, Q3 : -0.000159035858815, Q4 : -0.0612122863531}
2019-04-03 21:14:03.01: SIM {TimeUS : 66834922, Roll : 0.03, Pitch : 0.0, Yaw : 352.98, Alt : 587.0, Lat : -35.363261, Lng : 149.1652298, Q1 : 0.998125970364, Q2 : 0.000282602530206, Q3 : -8.71079100762e-05, Q4 : -0.0611927323043}
2019-04-03 21:14:03.11: SIM {TimeUS : 66934882, Roll : 0.01, Pitch : 0.0, Yaw : 352.98, Alt : 587.179992676, Lat : -35.363261, Lng : 149.1652298, Q1 : 0.998127102852, Q2 : 0.000149359388161, Q3 : -1.66225654539e-05, Q4 : -0.0611743330956}
2019-04-03 21:14:03.21: SIM {TimeUS : 67034842, Roll : 0.03, Pitch : 0.04, Yaw : 352.98, Alt : 587.349975586, Lat : -35.363261, Lng : 149.1652298, Q1 : 0.998127877712, Q2 : 0.000331923394697, Q3 : 0.00033332806197, Q4 : -0.0611608996987}
2019-04-03 21:14:03.31: SIM {TimeUS : 67134802, Roll : 0.25, Pitch : 0.36, Yaw : 352.98, Alt : 587.510009766, Lat : -35.363261, Lng : 149.1652298, Q1 : 0.998120605946, Q2 : 0.00245421240106, Q3 : 0.00304504367523, Q4 : -0.061155308038}
2019-04-03 21:14:03.41: SIM {TimeUS : 67234762, Roll : 0.74, Pitch : 1.07, Yaw : 352.99, Alt : 587.659973145, Lat : -35.363261, Lng : 149.1652298, Q1 : 0.998062670231, Q2 : 0.0070882095024, Q3 : 0.00892371591181, Q4 : -0.0611645206809}
2019-04-03 21:14:03.51: SIM {TimeUS : 67334722, Roll : 1.41, Pitch : 2.01, Yaw : 353.0, Alt : 587.799987793, Lat : -35.363261, Lng : 149.1652298, Q1 : 0.997893035412, Q2 : 0.0134032499045, Q3 : 0.0168334431946, Q4 : -0.0612088926136}
2019-04-03 21:14:03.61: SIM {TimeUS : 67434682, Roll : 2.16, Pitch : 3.06, Yaw : 353.02, Alt : 587.929992676, Lat : -35.363261, Lng : 149.1652298, Q1 : 0.99758285284, Q2 : 0.0204457081854, Q3 : 0.0255164802074, Q4 : -0.0613132454455}
2019-04-03 21:14:03.71: SIM {TimeUS : 67534642, Roll : 2.9, Pitch : 4.09, Yaw : 353.04, Alt : 588.039978027, Lat : -35.363261, Lng : 149.1652299, Q1 : 0.997144162655, Q2 : 0.0274797454476, Q3 : 0.0341496169567, Q4 : -0.0614998787642}
2019-04-03 21:14:03.82: SIM {TimeUS : 67635435, Roll : 3.55, Pitch : 5.0, Yaw : 353.06, Alt : 588.150024414, Lat : -35.363261, Lng : 149.1652301, Q1 : 0.996651411057, Q2 : 0.0336110442877, Q3 : 0.0416905842721, Q4 : -0.0617918036878}
2019-04-03 21:14:03.91: SIM {TimeUS : 67735395, Roll : 4.05, Pitch : 5.68, Yaw : 353.05, Alt : 588.239990234, Lat : -35.3632613, Lng : 149.1652303, Q1 : 0.996209025383, Q2 : 0.0382427237928, Q3 : 0.0473009385169, Q4 : -0.0621903985739}
2019-04-03 21:14:04.01: SIM {TimeUS : 67835355, Roll : 4.39, Pitch : 6.15, Yaw : 353.03, Alt : 588.33001709, Lat : -35.3632616, Lng : 149.1652306, Q1 : 0.995857059956, Q2 : 0.0414771996439, Q3 : 0.0512133948505, Q4 : -0.0626548081636}
2019-04-03 21:14:04.11: SIM {TimeUS : 67935315, Roll : 4.64, Pitch : 6.48, Yaw : 353.0, Alt : 588.409973145, Lat : -35.3632619, Lng : 149.1652308, Q1 : 0.995582222939, Q2 : 0.0438011363149, Q3 : 0.053942732513, Q4 : -0.0631478503346}
2019-04-03 21:14:04.21: SIM {TimeUS : 68035275, Roll : 4.81, Pitch : 6.72, Yaw : 352.96, Alt : 588.479980469, Lat : -35.3632622, Lng : 149.1652313, Q1 : 0.995370447636, Q2 : 0.0454215742648, Q3 : 0.0559168420732, Q4 : -0.0636227652431}
2019-04-03 21:14:04.31: SIM {TimeUS : 68135235, Roll : 4.91, Pitch : 6.87, Yaw : 352.93, Alt : 588.549987793, Lat : -35.3632627, Lng : 149.1652318, Q1 : 0.99522870779, Q2 : 0.0464022643864, Q3 : 0.0571394376457, Q4 : -0.0640452131629}
2019-04-03 21:14:04.41: SIM {TimeUS : 68235195, Roll : 4.94, Pitch : 6.96, Yaw : 352.89, Alt : 588.609985352, Lat : -35.3632633, Lng : 149.1652325, Q1 : 0.995150327682, Q2 : 0.0467298850417, Q3 : 0.0578682012856, Q4 : -0.064369507134}
2019-04-03 21:14:04.51: SIM {TimeUS : 68335155, Roll : 4.94, Pitch : 7.02, Yaw : 352.87, Alt : 588.66998291, Lat : -35.3632638, Lng : 149.1652331, Q1 : 0.995102882385, Q2 : 0.0467959269881, Q3 : 0.0583854727447, Q4 : -0.064587585628}
2019-04-03 21:14:04.61: SIM {TimeUS : 68435115, Roll : 4.96, Pitch : 7.09, Yaw : 352.86, Alt : 588.729980469, Lat : -35.3632645, Lng : 149.1652337, Q1 : 0.99504762888, Q2 : 0.0469916909933, Q3 : 0.0590416975319, Q4 : -0.0646995604038}
2019-04-03 21:14:04.71: SIM {TimeUS : 68535075, Roll : 4.98, Pitch : 7.26, Yaw : 352.89, Alt : 588.780029297, Lat : -35.3632652, Lng : 149.1652346, Q1 : 0.994958639145, Q2 : 0.047240883112, Q3 : 0.0605104416609, Q4 : -0.0645299553871}
2019-04-03 21:14:04.81: SIM {TimeUS : 68635035, Roll : 4.88, Pitch : 7.67, Yaw : 353.25, Alt : 588.840026855, Lat : -35.3632659, Lng : 149.1652354, Q1 : 0.994956374168, Q2 : 0.0464063324034, Q3 : 0.0642720088363, Q4 : -0.0614606700838}
2019-04-03 21:14:04.91: SIM {TimeUS : 68734995, Roll : 4.73, Pitch : 8.29, Yaw : 354.62, Alt : 588.890014648, Lat : -35.3632666, Lng : 149.1652363, Q1 : 0.995291829109, Q2 : 0.0445108860731, Q3 : 0.0702856257558, Q4 : -0.0497282668948}
2019-04-03 21:14:05.01: SIM {TimeUS : 68834955, Roll : 4.83, Pitch : 8.83, Yaw : 357.55, Alt : 588.940002441, Lat : -35.3632676, Lng : 149.1652373, Q1 : 0.995845377445, Q2 : 0.0437232926488, Q3 : 0.0760196447372, Q4 : -0.0245221704245}
2019-04-03 21:14:05.11: SIM {TimeUS : 68934915, Roll : 5.4, Pitch : 9.0, Yaw : 2.12, Alt : 589.0, Lat : -35.3632686, Lng : 149.1652383, Q1 : 0.995705902576, Q2 : 0.0455484576523, Q3 : 0.0792354866862, Q4 : 0.0147247500718}
2019-04-03 21:14:05.21: SIM {TimeUS : 69034875, Roll : 6.43, Pitch : 8.62, Yaw : 8.09, Alt : 589.049987793, Lat : -35.3632695, Lng : 149.1652393, Q1 : 0.993411123753, Q2 : 0.0505338199437, Q3 : 0.0788072422147, Q4 : 0.0661066547036}
2019-04-03 21:14:05.31: SIM {TimeUS : 69134835, Roll : 7.81, Pitch : 7.65, Yaw : 15.17, Alt : 589.109985352, Lat : -35.3632707, Lng : 149.1652403, Q1 : 0.98734074831, Q2 : 0.0585985444486, Q3 : 0.074984818697, Q4 : 0.126892670989}
2019-04-03 21:14:05.41: SIM {TimeUS : 69234795, Roll : 9.33, Pitch : 6.11, Yaw : 22.99, Alt : 589.16998291, Lat : -35.3632719, Lng : 149.1652413, Q1 : 0.976157724857, Q2 : 0.0689852908254, Q3 : 0.0683244615793, Q4 : 0.194136157632}
2019-04-03 21:14:05.51: SIM {TimeUS : 69334755, Roll : 10.73, Pitch : 4.12, Yaw : 31.28, Alt : 589.239990234, Lat : -35.3632732, Lng : 149.1652426, Q1 : 0.959033191204, Q2 : 0.0804028734565, Q3 : 0.0597169212997, Q4 : 0.264999449253}
2019-04-03 21:14:05.61: SIM {TimeUS : 69434715, Roll : 11.81, Pitch : 1.81, Yaw : 39.77, Alt : 589.299987793, Lat : -35.3632745, Lng : 149.1652437, Q1 : 0.935814321041, Q2 : 0.0913932099938, Q3 : 0.0497856922448, Q4 : 0.336779296398}
2019-04-03 21:14:05.71: SIM {TimeUS : 69534675, Roll : 12.41, Pitch : -0.6, Yaw : 48.25, Alt : 589.369995117, Lat : -35.363276, Lng : 149.1652451, Q1 : 0.907025158405, Q2 : 0.100855074823, Q3 : 0.0394298806787, Q4 : 0.406913906336}
2019-04-03 21:14:05.81: SIM {TimeUS : 69634635, Roll : 12.52, Pitch : -2.94, Yaw : 56.53, Alt : 589.450012207, Lat : -35.3632774, Lng : 149.1652465, Q1 : 0.873872876167, Q2 : 0.108140535653, Q3 : 0.0291449856013, Q4 : 0.473077625036}
2019-04-03 21:14:05.91: SIM {TimeUS : 69735428, Roll : 12.21, Pitch : -5.06, Yaw : 64.5, Alt : 589.520019531, Lat : -35.3632791, Lng : 149.165248, Q1 : 0.837577521801, Q2 : 0.113378822803, Q3 : 0.0195437055081, Q4 : 0.534066677094}
2019-04-03 21:14:06.01: SIM {TimeUS : 69835388, Roll : 11.61, Pitch : -6.86, Yaw : 71.9, Alt : 589.599975586, Lat : -35.3632805, Lng : 149.1652495, Q1 : 0.80032324791, Q2 : 0.116754792631, Q3 : 0.0110484929755, Q4 : 0.587987184525}
2019-04-03 21:14:06.11: SIM {TimeUS : 69935348, Roll : 10.85, Pitch : -8.33, Yaw : 78.76, Alt : 589.690002441, Lat : -35.3632822, Lng : 149.1652513, Q1 : 0.763079702854, Q2 : 0.118825852871, Q3 : 0.00389490416273, Q4 : 0.635275185108}
2019-04-03 21:14:06.21: SIM {TimeUS : 70035308, Roll : 10.01, Pitch : -9.5, Yaw : 85.06, Alt : 589.780029297, Lat : -35.3632839, Lng : 149.1652531, Q1 : 0.726687073708, Q2 : 0.119897812605, Q3 : -0.00199085380882, Q4 : 0.676421821117}
2019-04-03 21:14:06.31: SIM {TimeUS : 70135268, Roll : 9.17, Pitch : -10.41, Yaw : 90.86, Alt : 589.869995117, Lat : -35.3632856, Lng : 149.165255, Q1 : 0.691449820995, Q2 : 0.120362065732, Q3 : -0.00672496296465, Q4 : 0.712295532227}
2019-04-03 21:14:06.41: SIM {TimeUS : 70235228, Roll : 8.37, Pitch : -11.13, Yaw : 96.26, Alt : 589.960021973, Lat : -35.3632874, Lng : 149.165257, Q1 : 0.657217502594, Q2 : 0.120574593544, Q3 : -0.0104837259278, Q4 : 0.743920087814}
2019-04-03 21:14:06.51: SIM {TimeUS : 70335188, Roll : 7.61, Pitch : -11.73, Yaw : 101.38, Alt : 590.059997559, Lat : -35.3632891, Lng : 149.165259, Q1 : 0.623489260674, Q2 : 0.120799854398, Q3 : -0.0134905809537, Q4 : 0.772325456142}
2019-04-03 21:14:06.61: SIM {TimeUS : 70435148, Roll : 6.87, Pitch : -12.28, Yaw : 106.37, Alt : 590.159973145, Lat : -35.3632911, Lng : 149.1652612, Q1 : 0.589578151703, Q2 : 0.12118575722, Q3 : -0.0162687934935, Q4 : 0.798402786255}
2019-04-03 21:14:06.71: SIM {TimeUS : 70535108, Roll : 6.08, Pitch : -12.82, Yaw : 111.34, Alt : 590.260009766, Lat : -35.363293, Lng : 149.1652633, Q1 : 0.554729640484, Q2 : 0.121837601066, Q3 : -0.0193705074489, Q4 : 0.822833776474}
2019-04-03 21:14:06.81: SIM {TimeUS : 70635068, Roll : 5.2, Pitch : -13.38, Yaw : 116.41, Alt : 590.359985352, Lat : -35.3632949, Lng : 149.1652657, Q1 : 0.518228411674, Q2 : 0.12266793102, Q3 : -0.0229952614754, Q4 : 0.846087038517}
2019-04-03 21:14:06.91: SIM {TimeUS : 70735028, Roll : 4.18, Pitch : -13.9, Yaw : 121.67, Alt : 590.469970703, Lat : -35.3632969, Lng : 149.165268, Q1 : 0.479537159204, Q2 : 0.123301155865, Q3 : -0.0272903311998, Q4 : 0.868387103081}
2019-04-03 21:14:07.01: SIM {TimeUS : 70834988, Roll : 2.95, Pitch : -14.37, Yaw : 127.16, Alt : 590.570007324, Lat : -35.363299, Lng : 149.1652703, Q1 : 0.438378930092, Q2 : 0.123410210013, Q3 : -0.0327006019652, Q4 : 0.889676630497}
2019-04-03 21:14:07.11: SIM {TimeUS : 70934948, Roll : 1.21, Pitch : -14.73, Yaw : 132.75, Alt : 590.679992676, Lat : -35.3633011, Lng : 149.1652727, Q1 : 0.396132260561, Q2 : 0.121679015458, Q3 : -0.0417629741132, Q4 : 0.909136533737}
2019-04-03 21:14:07.21: SIM {TimeUS : 71034908, Roll : -1.02, Pitch : -14.86, Yaw : 137.93, Alt : 590.789978027, Lat : -35.3633033, Lng : 149.1652752, Q1 : 0.356933772564, Q2 : 0.117588825524, Q3 : -0.0547237768769, Q4 : 0.925081908703}
2019-04-03 21:14:07.31: SIM {TimeUS : 71134868, Roll : -3.27, Pitch : -14.76, Yaw : 142.14, Alt : 590.900024414, Lat : -35.3633054, Lng : 149.1652777, Q1 : 0.324982047081, Q2 : 0.112293981016, Q3 : -0.0684353932738, Q4 : 0.936532616615}
2019-04-03 21:14:07.41: SIM {TimeUS : 71234828, Roll : -4.98, Pitch : -14.51, Yaw : 145.04, Alt : 591.0, Lat : -35.3633077, Lng : 149.1652803, Q1 : 0.302900284529, Q2 : 0.107381932437, Q3 : -0.0790556073189, Q4 : 0.943647563457}
2019-04-03 21:14:07.51: SIM {TimeUS : 71334788, Roll : -5.83, Pitch : -14.28, Yaw : 146.53, Alt : 591.109985352, Lat : -35.3633099, Lng : 149.1652829, Q1 : 0.291333943605, Q2 : 0.10438080132, Q3 : -0.0841524600983, Q4 : 0.947178721428}
2019-04-03 21:14:07.61: SIM {TimeUS : 71434748, Roll : -5.8, Pitch : -14.21, Yaw : 146.77, Alt : 591.219970703, Lat : -35.3633121, Lng : 149.1652857, Q1 : 0.289381235838, Q2 : 0.104088209569, Q3 : -0.0834871977568, Q4 : 0.947868168354}
2019-04-03 21:14:07.71: SIM {TimeUS : 71534708, Roll : -5.05, Pitch : -14.33, Yaw : 145.97, Alt : 591.33001709, Lat : -35.3633143, Lng : 149.1652886, Q1 : 0.295317858458, Q2 : 0.106415167451, Q3 : -0.0783651322126, Q4 : 0.946214616299}
2019-04-03 21:14:07.81: SIM {TimeUS : 71634668, Roll : -3.82, Pitch : -14.59, Yaw : 144.4, Alt : 591.440002441, Lat : -35.3633164, Lng : 149.1652915, Q1 : 0.30705332756, Q2 : 0.110705450177, Q3 : -0.07034753263, Q4 : 0.942610085011}
2019-04-03 21:14:07.92: SIM {TimeUS : 71735461, Roll : -2.33, Pitch : -14.9, Yaw : 142.33, Alt : 591.549987793, Lat : -35.3633188, Lng : 149.1652944, Q1 : 0.322544425726, Q2 : 0.116173893213, Q3 : -0.0609711781144, Q4 : 0.937417328358}
2019-04-03 21:14:08.01: SIM {TimeUS : 71835421, Roll : -0.82, Pitch : -15.19, Yaw : 140.06, Alt : 591.659973145, Lat : -35.3633211, Lng : 149.1652973, Q1 : 0.339341819286, Q2 : 0.121835157275, Q3 : -0.0518256314099, Q4 : 0.931298851967}
2019-04-03 21:14:08.11: SIM {TimeUS : 71935381, Roll : 0.51, Pitch : -15.4, Yaw : 137.88, Alt : 591.770019531, Lat : -35.3633234, Lng : 149.1653004, Q1 : 0.355498194695, Q2 : 0.126685768366, Q3 : -0.0440307818353, Q4 : 0.92500436306}
2019-04-03 21:14:08.21: SIM {TimeUS : 72035341, Roll : 1.54, Pitch : -15.5, Yaw : 136.02, Alt : 591.880004883, Lat : -35.3633257, Lng : 149.1653035, Q1 : 0.369295418262, Q2 : 0.130039781332, Q3 : -0.038148202002, Q4 : 0.919377624989}
2019-04-03 21:14:08.31: SIM {TimeUS : 72135301, Roll : 2.21, Pitch : -15.52, Yaw : 134.64, Alt : 591.989990234, Lat : -35.3633282, Lng : 149.1653064, Q1 : 0.379550546408, Q2 : 0.132010176778, Q3 : -0.0343652963638, Q4 : 0.915059447289}
2019-04-03 21:14:08.41: SIM {TimeUS : 72235261, Roll : 2.53, Pitch : -15.52, Yaw : 133.82, Alt : 592.109985352, Lat : -35.3633306, Lng : 149.1653095, Q1 : 0.385715842247, Q2 : 0.132813319564, Q3 : -0.0327624678612, Q4 : 0.912420153618}
2019-04-03 21:14:08.51: SIM {TimeUS : 72335221, Roll : 2.52, Pitch : -15.52, Yaw : 133.56, Alt : 592.219970703, Lat : -35.3633331, Lng : 149.1653125, Q1 : 0.387800186872, Q2 : 0.132730022073, Q3 : -0.033155951649, Q4 : 0.911534130573}
2019-04-03 21:14:08.61: SIM {TimeUS : 72435181, Roll : 2.25, Pitch : -15.55, Yaw : 133.79, Alt : 592.33001709, Lat : -35.3633357, Lng : 149.1653155, Q1 : 0.386247932911, Q2 : 0.132054030895, Q3 : -0.0351697914302, Q4 : 0.912215650082}
2019-04-03 21:14:08.71: SIM {TimeUS : 72535141, Roll : 1.78, Pitch : -15.6, Yaw : 134.41, Alt : 592.440002441, Lat : -35.3633382, Lng : 149.1653186, Q1 : 0.38182169199, Q2 : 0.131100028753, Q3 : -0.0383949093521, Q4 : 0.914084732533}
2019-04-03 21:14:08.81: SIM {TimeUS : 72635101, Roll : 1.2, Pitch : -15.7, Yaw : 135.28, Alt : 592.549987793, Lat : -35.3633409, Lng : 149.1653216, Q1 : 0.375461161137, Q2 : 0.130263909698, Q3 : -0.0423573590815, Q4 : 0.916660308838}
2019-04-03 21:14:08.91: SIM {TimeUS : 72735061, Roll : 0.59, Pitch : -15.8, Yaw : 136.27, Alt : 592.659973145, Lat : -35.3633436, Lng : 149.1653246, Q1 : 0.368183374405, Q2 : 0.129488900304, Q3 : -0.0464415624738, Q4 : 0.919519901276}
2019-04-03 21:14:09.01: SIM {TimeUS : 72835021, Roll : 0.02, Pitch : -15.86, Yaw : 137.25, Alt : 592.770019531, Lat : -35.3633462, Lng : 149.1653277, Q1 : 0.360942751169, Q2 : 0.128565654159, Q3 : -0.0500789731741, Q4 : 0.922324955463}
2019-04-03 21:14:09.11: SIM {TimeUS : 72934981, Roll : -0.43, Pitch : -15.89, Yaw : 138.11, Alt : 592.880004883, Lat : -35.363349, Lng : 149.1653308, Q1 : 0.354512304068, Q2 : 0.127733841538, Q3 : -0.0529552064836, Q4 : 0.924770712852}
2019-04-03 21:14:09.21: SIM {TimeUS : 73034941, Roll : -0.76, Pitch : -15.91, Yaw : 138.78, Alt : 592.989990234, Lat : -35.3633517, Lng : 149.1653339, Q1 : 0.349440604448, Q2 : 0.127204969525, Q3 : -0.054911557585, Q4 : 0.926657915115}
2019-04-03 21:14:09.31: SIM {TimeUS : 73134901, Roll : -0.94, Pitch : -15.93, Yaw : 139.22, Alt : 593.109985352, Lat : -35.3633545, Lng : 149.165337, Q1 : 0.34603664279, Q2 : 0.127095729113, Q3 : -0.0559050925076, Q4 : 0.927890062332}
2019-04-03 21:14:09.41: SIM {TimeUS : 73234861, Roll : -0.98, Pitch : -15.97, Yaw : 139.43, Alt : 593.219970703, Lat : -35.3633572, Lng : 149.1653402, Q1 : 0.344390124083, Q2 : 0.127426713705, Q3 : -0.0561422780156, Q4 : 0.928442716599}
2019-04-03 21:14:09.51: SIM {TimeUS : 73334821, Roll : -0.93, Pitch : -16.01, Yaw : 139.42, Alt : 593.33001709, Lat : -35.36336, Lng : 149.1653433, Q1 : 0.344390869141, Q2 : 0.127860024571, Q3 : -0.0558526404202, Q4 : 0.928400397301}
2019-04-03 21:14:09.61: SIM {TimeUS : 73434781, Roll : -0.8, Pitch : -16.04, Yaw : 139.24, Alt : 593.440002441, Lat : -35.3633628, Lng : 149.1653466, Q1 : 0.345732688904, Q2 : 0.128375560045, Q3 : -0.055127453059, Q4 : 0.927873671055}
2019-04-03 21:14:09.71: SIM {TimeUS : 73534741, Roll : -0.62, Pitch : -16.05, Yaw : 138.93, Alt : 593.549987793, Lat : -35.3633656, Lng : 149.1653499, Q1 : 0.348013788462, Q2 : 0.128915980458, Q3 : -0.0540564656258, Q4 : 0.927008628845}
2019-04-03 21:14:09.81: SIM {TimeUS : 73634701, Roll : -0.4, Pitch : -16.06, Yaw : 138.55, Alt : 593.659973145, Lat : -35.3633684, Lng : 149.1653531, Q1 : 0.350795507431, Q2 : 0.129456281662, Q3 : -0.0526664555073, Q4 : 0.925964295864}
2019-04-03 21:14:09.91: SIM {TimeUS : 73734661, Roll : -0.15, Pitch : -16.06, Yaw : 138.16, Alt : 593.770019531, Lat : -35.3633713, Lng : 149.1653564, Q1 : 0.353663533926, Q2 : 0.130052193999, Q3 : -0.0511341840029, Q4 : 0.924875020981}
2019-04-03 21:14:10.02: SIM {TimeUS : 73835454, Roll : 0.06, Pitch : -16.09, Yaw : 137.8, Alt : 593.890014648, Lat : -35.3633741, Lng : 149.1653596, Q1 : 0.356312334538, Q2 : 0.130791902542, Q3 : -0.0498381070793, Q4 : 0.923824250698}
2019-04-03 21:14:10.11: SIM {TimeUS : 73935414, Roll : 0.23, Pitch : -16.13, Yaw : 137.51, Alt : 594.0, Lat : -35.363377, Lng : 149.1653629, Q1 : 0.358462899923, Q2 : 0.131513386965, Q3 : -0.0489826016128, Q4 : 0.922935187817}
2019-04-03 21:14:10.21: SIM {TimeUS : 74035374, Roll : 0.32, Pitch : -16.17, Yaw : 137.3, Alt : 594.109985352, Lat : -35.3633799, Lng : 149.1653663, Q1 : 0.359991043806, Q2 : 0.132080972195, Q3 : -0.0485652014613, Q4 : 0.922281146049}
2019-04-03 21:14:10.31: SIM {TimeUS : 74135334, Roll : 0.36, Pitch : -16.21, Yaw : 137.19, Alt : 594.219970703, Lat : -35.3633827, Lng : 149.1653696, Q1 : 0.360848397017, Q2 : 0.13242264092, Q3 : -0.0485595613718, Q4 : 0.921897351742}
2019-04-03 21:14:10.41: SIM {TimeUS : 74235294, Roll : 0.33, Pitch : -16.23, Yaw : 137.17, Alt : 594.340026855, Lat : -35.3633856, Lng : 149.1653729, Q1 : 0.361063480377, Q2 : 0.13254737854, Q3 : -0.0488805286586, Q4 : 0.921778261662}
2019-04-03 21:14:10.51: SIM {TimeUS : 74335254, Roll : 0.27, Pitch : -16.26, Yaw : 137.22, Alt : 594.450012207, Lat : -35.3633886, Lng : 149.1653762, Q1 : 0.360711544752, Q2 : 0.132567733526, Q3 : -0.049354929477, Q4 : 0.921887755394}
2019-04-03 21:14:10.61: SIM {TimeUS : 74435214, Roll : 0.19, Pitch : -16.27, Yaw : 137.32, Alt : 594.559997559, Lat : -35.3633916, Lng : 149.1653796, Q1 : 0.359952181578, Q2 : 0.132420659065, Q3 : -0.0499196536839, Q4 : 0.9221752882}
2019-04-03 21:14:10.71: SIM {TimeUS : 74535174, Roll : 0.09, Pitch : -16.27, Yaw : 137.46, Alt : 594.66998291, Lat : -35.3633945, Lng : 149.1653829, Q1 : 0.358944952488, Q2 : 0.132243722677, Q3 : -0.0505893491209, Q4 : 0.922556698322}
2019-04-03 21:14:10.81: SIM {TimeUS : 74635134, Roll : 0.0, Pitch : -16.31, Yaw : 137.61, Alt : 594.780029297, Lat : -35.3633975, Lng : 149.1653863, Q1 : 0.357832044363, Q2 : 0.132276341319, Q3 : -0.0512680746615, Q4 : 0.922946810722}
2019-04-03 21:14:10.91: SIM {TimeUS : 74735094, Roll : -0.07, Pitch : -16.36, Yaw : 137.75, Alt : 594.890014648, Lat : -35.3634005, Lng : 149.1653896, Q1 : 0.356753736734, Q2 : 0.132564708591, Q3 : -0.0519126355648, Q4 : 0.923286795616}
2019-04-03 21:14:11.01: SIM {TimeUS : 74835054, Roll : -0.14, Pitch : -16.42, Yaw : 137.87, Alt : 595.010009766, Lat : -35.3634033, Lng : 149.165393, Q1 : 0.35586181283, Q2 : 0.132826626301, Q3 : -0.0525379441679, Q4 : 0.923557937145}
2019-04-03 21:14:11.11: SIM {TimeUS : 74935014, Roll : -0.22, Pitch : -16.45, Yaw : 137.95, Alt : 595.119995117, Lat : -35.3634063, Lng : 149.1653964, Q1 : 0.35526612401, Q2 : 0.132885485888, Q3 : -0.0531607307494, Q4 : 0.923743128777}
2019-04-03 21:14:11.21: SIM {TimeUS : 75034974, Roll : -0.29, Pitch : -16.47, Yaw : 138.0, Alt : 595.229980469, Lat : -35.3634094, Lng : 149.1653998, Q1 : 0.354975491762, Q2 : 0.13282969594, Q3 : -0.0537061840296, Q4 : 0.923831343651}
2019-04-03 21:14:11.31: SIM {TimeUS : 75134934, Roll : -0.31, Pitch : -16.48, Yaw : 138.01, Alt : 595.340026855, Lat : -35.3634124, Lng : 149.1654031, Q1 : 0.354941755533, Q2 : 0.132859200239, Q3 : -0.0539337359369, Q4 : 0.923826813698}
2019-04-03 21:14:11.41: SIM {TimeUS : 75234894, Roll : -0.29, Pitch : -16.5, Yaw : 137.98, Alt : 595.450012207, Lat : -35.3634154, Lng : 149.1654065, Q1 : 0.355111688375, Q2 : 0.133081406355, Q3 : -0.05379871279, Q4 : 0.923737347126}
2019-04-03 21:14:11.51: SIM {TimeUS : 75334854, Roll : -0.24, Pitch : -16.52, Yaw : 137.93, Alt : 595.570007324, Lat : -35.3634185, Lng : 149.1654099, Q1 : 0.355462282896, Q2 : 0.133394598961, Q3 : -0.0535800121725, Q4 : 0.923570096493}
2019-04-03 21:14:11.61: SIM {TimeUS : 75434814, Roll : -0.18, Pitch : -16.54, Yaw : 137.86, Alt : 595.679992676, Lat : -35.3634215, Lng : 149.1654134, Q1 : 0.355932712555, Q2 : 0.13369448483, Q3 : -0.0532548874617, Q4 : 0.923364281654}
2019-04-03 21:14:11.71: SIM {TimeUS : 75534774, Roll : -0.12, Pitch : -16.54, Yaw : 137.79, Alt : 595.789978027, Lat : -35.3634246, Lng : 149.1654169, Q1 : 0.35647174716, Q2 : 0.13385348022, Q3 : -0.0528570264578, Q4 : 0.923156142235}
2019-04-03 21:14:11.81: SIM {TimeUS : 75634734, Roll : -0.08, Pitch : -16.56, Yaw : 137.71, Alt : 595.900024414, Lat : -35.3634276, Lng : 149.1654203, Q1 : 0.35701033473, Q2 : 0.134080797434, Q3 : -0.0525910258293, Q4 : 0.922930181026}
2019-04-03 21:14:11.91: SIM {TimeUS : 75734694, Roll : -0.04, Pitch : -16.57, Yaw : 137.65, Alt : 596.010009766, Lat : -35.3634306, Lng : 149.1654237, Q1 : 0.357496261597, Q2 : 0.134276866913, Q3 : -0.0524514056742, Q4 : 0.92272156477}
2019-04-03 21:14:12.01: SIM {TimeUS : 75834654, Roll : -0.03, Pitch : -16.59, Yaw : 137.59, Alt : 596.130004883, Lat : -35.3634337, Lng : 149.1654273, Q1 : 0.35789757967, Q2 : 0.134477376938, Q3 : -0.0524595342577, Q4 : 0.922536253929}
2019-04-03 21:14:12.12: SIM {TimeUS : 75935447, Roll : -0.05, Pitch : -16.63, Yaw : 137.55, Alt : 596.239990234, Lat : -35.3634367, Lng : 149.1654308, Q1 : 0.358207762241, Q2 : 0.134683951735, Q3 : -0.0527640841901, Q4 : 0.922368407249}
2019-04-03 21:14:12.21: SIM {TimeUS : 76035407, Roll : -0.09, Pitch : -16.64, Yaw : 137.53, Alt : 596.349975586, Lat : -35.3634398, Lng : 149.1654342, Q1 : 0.358416855335, Q2 : 0.134651988745, Q3 : -0.0531504154205, Q4 : 0.922269642353}
2019-04-03 21:14:12.31: SIM {TimeUS : 76135367, Roll : -0.12, Pitch : -16.65, Yaw : 137.53, Alt : 596.460021973, Lat : -35.3634429, Lng : 149.1654376, Q1 : 0.358503878117, Q2 : 0.134656921029, Q3 : -0.0534424260259, Q4 : 0.922218203545}
2019-04-03 21:14:12.41: SIM {TimeUS : 76235327, Roll : -0.13, Pitch : -16.67, Yaw : 137.53, Alt : 596.58001709, Lat : -35.3634461, Lng : 149.1654412, Q1 : 0.358485162258, Q2 : 0.13475497067, Q3 : -0.0536197610199, Q4 : 0.922200858593}
2019-04-03 21:14:12.51: SIM {TimeUS : 76335287, Roll : -0.13, Pitch : -16.69, Yaw : 137.54, Alt : 596.690002441, Lat : -35.363449, Lng : 149.1654447, Q1 : 0.358390778303, Q2 : 0.134871721268, Q3 : -0.0536539852619, Q4 : 0.922218501568}
2019-04-03 21:14:12.61: SIM {TimeUS : 76435247, Roll : -0.13, Pitch : -16.7, Yaw : 137.56, Alt : 596.799987793, Lat : -35.3634522, Lng : 149.1654482, Q1 : 0.358248800039, Q2 : 0.135006532073, Q3 : -0.0536768659949, Q4 : 0.922252595425}
2019-04-03 21:14:12.71: SIM {TimeUS : 76535207, Roll : -0.14, Pitch : -16.72, Yaw : 137.58, Alt : 596.909973145, Lat : -35.3634553, Lng : 149.1654518, Q1 : 0.358111172915, Q2 : 0.13513481617, Q3 : -0.0537908524275, Q4 : 0.922280609608}
2019-04-03 21:14:12.81: SIM {TimeUS : 76635167, Roll : -0.16, Pitch : -16.74, Yaw : 137.59, Alt : 597.020019531, Lat : -35.3634585, Lng : 149.1654553, Q1 : 0.358005344868, Q2 : 0.135233864188, Q3 : -0.0539537146688, Q4 : 0.922297656536}
2019-04-03 21:14:12.91: SIM {TimeUS : 76735127, Roll : -0.18, Pitch : -16.74, Yaw : 137.6, Alt : 597.140014648, Lat : -35.3634616, Lng : 149.1654587, Q1 : 0.357957959175, Q2 : 0.135167583823, Q3 : -0.0541595593095, Q4 : 0.922313690186}
2019-04-03 21:14:13.01: SIM {TimeUS : 76835087, Roll : -0.19, Pitch : -16.74, Yaw : 137.6, Alt : 597.25, Lat : -35.3634647, Lng : 149.1654624, Q1 : 0.357927769423, Q2 : 0.13517101109, Q3 : -0.0542170107365, Q4 : 0.922321557999}
2019-04-03 21:14:13.11: SIM {TimeUS : 76935047, Roll : -0.18, Pitch : -16.77, Yaw : 137.6, Alt : 597.359985352, Lat : -35.3634677, Lng : 149.1654658, Q1 : 0.357901841402, Q2 : 0.135472923517, Q3 : -0.0542025640607, Q4 : 0.922288179398}
2019-04-03 21:14:13.21: SIM {TimeUS : 77035007, Roll : -0.13, Pitch : -16.8, Yaw : 137.6, Alt : 597.469970703, Lat : -35.3634708, Lng : 149.1654695, Q1 : 0.35788500309, Q2 : 0.135835915804, Q3 : -0.0539336502552, Q4 : 0.922257065773}
2019-04-03 21:14:13.31: SIM {TimeUS : 77134967, Roll : -0.08, Pitch : -16.8, Yaw : 137.59, Alt : 597.58001709, Lat : -35.3634741, Lng : 149.165473, Q1 : 0.357912123203, Q2 : 0.135937958956, Q3 : -0.0535169132054, Q4 : 0.922255814075}
2019-04-03 21:14:13.41: SIM {TimeUS : 77234927, Roll : -0.05, Pitch : -16.77, Yaw : 137.57, Alt : 597.700012207, Lat : -35.3634772, Lng : 149.1654766, Q1 : 0.357996195555, Q2 : 0.13582405448, Q3 : -0.053199082613, Q4 : 0.922258317471}
2019-04-03 21:14:13.51: SIM {TimeUS : 77334887, Roll : -0.04, Pitch : -16.76, Yaw : 137.56, Alt : 597.809997559, Lat : -35.3634803, Lng : 149.1654802, Q1 : 0.358112037182, Q2 : 0.135774970055, Q3 : -0.0531286336482, Q4 : 0.922224640846}
2019-04-03 21:14:13.61: SIM {TimeUS : 77434847, Roll : -0.07, Pitch : -16.8, Yaw : 137.54, Alt : 597.91998291, Lat : -35.3634835, Lng : 149.1654838, Q1 : 0.358255565166, Q2 : 0.135994821787, Q3 : -0.0535308457911, Q4 : 0.922113239765}
2019-04-03 21:14:13.71: SIM {TimeUS : 77534807, Roll : -0.1, Pitch : -16.87, Yaw : 137.53, Alt : 598.030029297, Lat : -35.3634866, Lng : 149.1654874, Q1 : 0.358370691538, Q2 : 0.136456221342, Q3 : -0.0539920032024, Q4 : 0.921973407269}
2019-04-03 21:14:13.81: SIM {TimeUS : 77634767, Roll : -0.11, Pitch : -16.92, Yaw : 137.52, Alt : 598.140014648, Lat : -35.3634897, Lng : 149.1654908, Q1 : 0.358452260494, Q2 : 0.13682320714, Q3 : -0.0542689152062, Q4 : 0.921871066093}
