2019-04-03 21:31:22.70: SIM {TimeUS : 187715717, Roll : 0.0, Pitch : 0.0, Yaw : 353.0, Alt : 584.090026855, Lat : -35.363261, Lng : 149.1652299, Q1 : 0.998134791851, Q2 : 0.0, Q3 : 0.0, Q4 : -0.0610485821962}
2019-04-03 21:31:22.80: SIM {TimeUS : 187815677, Roll : 0.0, Pitch : 0.0, Yaw : 353.0, Alt : 584.090026855, Lat : -35.363261, Lng : 149.1652299, Q1 : 0.998134791851, Q2 : 0.0, Q3 : 0.0, Q4 : -0.0610485821962}
2019-04-03 21:31:22.90: SIM {TimeUS : 187916470, Roll : 0.0, Pitch : 0.0, Yaw : 353.0, Alt : 584.090026855, Lat : -35.363261, Lng : 149.1652299, Q1 : 0.998134791851, Q2 : 0.0, Q3 : 0.0, Q4 : -0.0610485821962}
2019-04-03 21:31:23.00: SIM {TimeUS : 188016430, Roll : 0.0, Pitch : 0.0, Yaw : 353.0, Alt : 584.090026855, Lat : -35.363261, Lng : 149.1652299, Q1 : 0.998134791851, Q2 : 0.0, Q3 : 0.0, Q4 : -0.0610485821962}
2019-04-03 21:31:23.10: SIM {TimeUS : 188116390, Roll : 0.0, Pitch : 0.0, Yaw : 353.0, Alt : 584.090026855, Lat : -35.363261, Lng : 149.1652299, Q1 : 0.998134791851, Q2 : 0.0, Q3 : 0.0, Q4 : -0.0610485821962}
2019-04-03 21:31:23.20: SIM {TimeUS : 188216350, Roll : 0.0, Pitch : 0.0, Yaw : 353.0, Alt : 584.090026855, Lat : -35.363261, Lng : 149.1652299, Q1 : 0.998134791851, Q2 : 0.0, Q3 : 0.0, Q4 : -0.0610485821962}
2019-04-03 21:31:23.30: SIM {TimeUS : 188316310, Roll : 0.0, Pitch : 0.0, Yaw : 353.0, Alt : 584.090026855, Lat : -35.363261, Lng : 149.1652299, Q1 : 0.998134791851, Q2 : 0.0, Q3 : 0.0, Q4 : -0.0610485821962}
2019-04-03 21:31:23.40: SIM {TimeUS : 188416270, Roll : 0.0, Pitch : 0.0, Yaw : 353.0, Alt : 584.090026855, Lat : -35.363261, Lng : 149.1652299, Q1 : 0.998134791851, Q2 : 0.0, Q3 : 0.0, Q4 : -0.0610485821962}
2019-04-03 21:31:23.50: SIM {TimeUS : 188516230, Roll : 0.0, Pitch : 0.0, Yaw : 353.0, Alt : 584.090026855, Lat : -35.363261, Lng : 149.1652299, Q1 : 0.998134791851, Q2 : 0.0, Q3 : 0.0, Q4 : -0.0610485821962}
2019-04-03 21:31:23.60: SIM {TimeUS : 188616190, Roll : 0.0, Pitch : 0.0, Yaw : 353.0, Alt : 584.090026855, Lat : -35.363261, Lng : 149.1652299, Q1 : 0.998134791851, Q2 : 0.0, Q3 : 0.0, Q4 : -0.0610485821962}
2019-04-03 21:31:23.70: SIM {TimeUS : 188716150, Roll : 0.0, Pitch : 0.0, Yaw : 353.0, Alt : 584.090026855, Lat : -35.363261, Lng : 149.1652299, Q1 : 0.998134791851, Q2 : 0.0, Q3 : 0.0, Q4 : -0.0610485821962}
2019-04-03 21:31:23.80: SIM {TimeUS : 188816110, Roll : 0.0, Pitch : 0.0, Yaw : 353.0, Alt : 584.090026855, Lat : -35.363261, Lng : 149.1652299, Q1 : 0.998134791851, Q2 : 0.0, Q3 : 0.0, Q4 : -0.0610485821962}
2019-04-03 21:31:23.90: SIM {TimeUS : 188916070, Roll : 0.0, Pitch : 0.0, Yaw : 353.0, Alt : 584.090026855, Lat : -35.363261, Lng : 149.1652299, Q1 : 0.998134791851, Q2 : 0.0, Q3 : 0.0, Q4 : -0.0610485821962}
2019-04-03 21:31:24.00: SIM {TimeUS : 189016030, Roll : 0.0, Pitch : 0.0, Yaw : 353.0, Alt : 584.090026855, Lat : -35.363261, Lng : 149.1652299, Q1 : 0.998134791851, Q2 : 0.0, Q3 : 0.0, Q4 : -0.0610485821962}
2019-04-03 21:31:24.10: SIM {TimeUS : 189115990, Roll : 0.0, Pitch : 0.0, Yaw : 353.0, Alt : 584.090026855, Lat : -35.363261, Lng : 149.1652299, Q1 : 0.998134791851, Q2 : 0.0, Q3 : 0.0, Q4 : -0.0610485821962}
2019-04-03 21:31:24.20: SIM {TimeUS : 189215950, Roll : 0.0, Pitch : 0.0, Yaw : 353.0, Alt : 584.090026855, Lat : -35.363261, Lng : 149.1652299, Q1 : 0.998134791851, Q2 : 0.0, Q3 : 0.0, Q4 : -0.0610485821962}
2019-04-03 21:31:24.30: SIM {TimeUS : 189315910, Roll : 0.0, Pitch : 0.0, Yaw : 353.0, Alt : 584.090026855, Lat : -35.363261, Lng : 149.1652299, Q1 : 0.998134791851, Q2 : 0.0, Q3 : 0.0, Q4 : -0.0610485821962}
2019-04-03 21:31:24.40: SIM {TimeUS : 189415870, Roll : 0.0, Pitch : 0.0, Yaw : 353.0, Alt : 584.090026855, Lat : -35.363261, Lng : 149.1652299, Q1 : 0.998134791851, Q2 : 0.0, Q3 : 0.0, Q4 : -0.0610485821962}
2019-04-03 21:31:24.50: SIM {TimeUS : 189515830, Roll : 0.0, Pitch : 0.0, Yaw : 353.0, Alt : 584.090026855, Lat : -35.363261, Lng : 149.1652299, Q1 : 0.998134791851, Q2 : 0.0, Q3 : 0.0, Q4 : -0.0610485821962}
2019-04-03 21:31:24.60: SIM {TimeUS : 189615790, Roll : 0.0, Pitch : 0.0, Yaw : 353.0, Alt : 584.090026855, Lat : -35.363261, Lng : 149.1652299, Q1 : 0.998134791851, Q2 : 0.0, Q3 : 0.0, Q4 : -0.0610485821962}
2019-04-03 21:31:24.70: SIM {TimeUS : 189715750, Roll : 0.0, Pitch : 0.0, Yaw : 353.0, Alt : 584.090026855, Lat : -35.363261, Lng : 149.1652299, Q1 : 0.998134791851, Q2 : 0.0, Q3 : 0.0, Q4 : -0.0610485821962}
2019-04-03 21:31:24.80: SIM {TimeUS : 189815710, Roll : 0.0, Pitch : 0.0, Yaw : 353.0, Alt : 584.090026855, Lat : -35.363261, Lng : 149.1652299, Q1 : 0.998134791851, Q2 : 0.0, Q3 : 0.0, Q4 : -0.0610485821962}
2019-04-03 21:31:24.89: SIM {TimeUS : 189915670, Roll : 0.0, Pitch : 0.0, Yaw : 353.0, Alt : 584.090026855, Lat : -35.363261, Lng : 149.1652299, Q1 : 0.998134791851, Q2 : 0.0, Q3 : 0.0, Q4 : -0.0610485821962}
2019-04-03 21:31:25.00: SIM {TimeUS : 190016463, Roll : 0.0, Pitch : 0.0, Yaw : 353.0, Alt : 584.090026855, Lat : -35.363261, Lng : 149.1652299, Q1 : 0.998134791851, Q2 : 0.0, Q3 : 0.0, Q4 : -0.0610485821962}
2019-04-03 21:31:25.10: SIM {TimeUS : 190116423, Roll : 0.0, Pitch : 0.0, Yaw : 353.0, Alt : 584.090026855, Lat : -35.363261, Lng : 149.1652299, Q1 : 0.998134791851, Q2 : 0.0, Q3 : 0.0, Q4 : -0.0610485821962}
2019-04-03 21:31:25.20: SIM {TimeUS : 190216383, Roll : 0.0, Pitch : 0.0, Yaw : 353.0, Alt : 584.090026855, Lat : -35.363261, Lng : 149.1652299, Q1 : 0.998134791851, Q2 : 0.0, Q3 : 0.0, Q4 : -0.0610485821962}
2019-04-03 21:31:25.30: SIM {TimeUS : 190316343, Roll : 0.0, Pitch : 0.0, Yaw : 353.0, Alt : 584.090026855, Lat : -35.363261, Lng : 149.1652299, Q1 : 0.998134791851, Q2 : 0.0, Q3 : 0.0, Q4 : -0.0610485821962}
2019-04-03 21:31:25.40: SIM {TimeUS : 190416303, Roll : 0.0, Pitch : 0.0, Yaw : 353.0, Alt : 584.090026855, Lat : -35.363261, Lng : 149.1652299, Q1 : 0.998134791851, Q2 : 0.0, Q3 : 0.0, Q4 : -0.0610485821962}
2019-04-03 21:31:25.50: SIM {TimeUS : 190516263, Roll : 0.0, Pitch : 0.0, Yaw : 353.0, Alt : 584.090026855, Lat : -35.363261, Lng : 149.1652299, Q1 : 0.998134791851, Q2 : 0.0, Q3 : 0.0, Q4 : -0.0610485821962}
2019-04-03 21:31:25.60: SIM {TimeUS : 190616223, Roll : 0.0, Pitch : 0.0, Yaw : 353.0, Alt : 584.090026855, Lat : -35.363261, Lng : 149.1652299, Q1 : 0.998134791851, Q2 : 0.0, Q3 : 0.0, Q4 : -0.0610485821962}
2019-04-03 21:31:25.70: SIM {TimeUS : 190716183, Roll : 0.0, Pitch : 0.0, Yaw : 353.0, Alt : 584.090026855, Lat : -35.363261, Lng : 149.1652299, Q1 : 0.998134791851, Q2 : 0.0, Q3 : 0.0, Q4 : -0.0610485821962}
2019-04-03 21:31:25.80: SIM {TimeUS : 190816143, Roll : 0.0, Pitch : 0.0, Yaw : 353.0, Alt : 584.090026855, Lat : -35.363261, Lng : 149.1652299, Q1 : 0.998134791851, Q2 : 0.0, Q3 : 0.0, Q4 : -0.0610485821962}
2019-04-03 21:31:25.90: SIM {TimeUS : 190916103, Roll : 0.0, Pitch : 0.0, Yaw : 353.0, Alt : 584.090026855, Lat : -35.363261, Lng : 149.1652299, Q1 : 0.998134791851, Q2 : 0.0, Q3 : 0.0, Q4 : -0.0610485821962}
2019-04-03 21:31:26.00: SIM {TimeUS : 191016063, Roll : 0.0, Pitch : 0.0, Yaw : 353.0, Alt : 584.090026855, Lat : -35.363261, Lng : 149.1652299, Q1 : 0.998134791851, Q2 : 0.0, Q3 : 0.0, Q4 : -0.0610485821962}
2019-04-03 21:31:26.10: SIM {TimeUS : 191116023, Roll : 0.0, Pitch : 0.0, Yaw : 353.0, Alt : 584.090026855, Lat : -35.363261, Lng : 149.1652299, Q1 : 0.998134791851, Q2 : 0.0, Q3 : 0.0, Q4 : -0.0610485821962}
2019-04-03 21:31:26.20: SIM {TimeUS : 191215983, Roll : 0.0, Pitch : 0.0, Yaw : 353.0, Alt : 584.090026855, Lat : -35.363261, Lng : 149.1652299, Q1 : 0.998134791851, Q2 : 0.0, Q3 : 0.0, Q4 : -0.0610485821962}
2019-04-03 21:31:26.30: SIM {TimeUS : 191315943, Roll : 0.0, Pitch : 0.0, Yaw : 353.0, Alt : 584.090026855, Lat : -35.363261, Lng : 149.1652299, Q1 : 0.998134791851, Q2 : 0.0, Q3 : 0.0, Q4 : -0.0610485821962}
2019-04-03 21:31:26.40: SIM {TimeUS : 191415903, Roll : 0.0, Pitch : 0.0, Yaw : 353.0, Alt : 584.090026855, Lat : -35.363261, Lng : 149.1652299, Q1 : 0.998134791851, Q2 : 0.0, Q3 : 0.0, Q4 : -0.0610486157238}
2019-04-03 21:31:26.50: SIM {TimeUS : 191515863, Roll : 0.0, Pitch : 0.0, Yaw : 353.0, Alt : 584.090026855, Lat : -35.363261, Lng : 149.1652299, Q1 : 0.998134791851, Q2 : 0.0, Q3 : 0.0, Q4 : -0.0610486753285}
2019-04-03 21:31:26.60: SIM {TimeUS : 191615823, Roll : 0.0, Pitch : 0.0, Yaw : 353.0, Alt : 584.090026855, Lat : -35.363261, Lng : 149.1652299, Q1 : 0.998134791851, Q2 : 0.0, Q3 : 0.0, Q4 : -0.0610486753285}
2019-04-03 21:31:26.70: SIM {TimeUS : 191715783, Roll : 0.0, Pitch : 0.0, Yaw : 353.0, Alt : 584.090026855, Lat : -35.363261, Lng : 149.1652299, Q1 : 0.998134791851, Q2 : 0.0, Q3 : 0.0, Q4 : -0.0610486790538}
2019-04-03 21:31:26.80: SIM {TimeUS : 191815743, Roll : 0.0, Pitch : 0.0, Yaw : 353.0, Alt : 584.090026855, Lat : -35.363261, Lng : 149.1652299, Q1 : 0.998134791851, Q2 : 0.0, Q3 : 0.0, Q4 : -0.0610486753285}
2019-04-03 21:31:26.90: SIM {TimeUS : 191915703, Roll : 0.0, Pitch : 0.0, Yaw : 353.0, Alt : 584.090026855, Lat : -35.363261, Lng : 149.1652299, Q1 : 0.998134791851, Q2 : 0.0, Q3 : 0.0, Q4 : -0.0610486753285}
2019-04-03 21:31:26.99: SIM {TimeUS : 192015663, Roll : 0.0, Pitch : 0.0, Yaw : 353.0, Alt : 584.090026855, Lat : -35.363261, Lng : 149.1652299, Q1 : 0.998134791851, Q2 : 0.0, Q3 : 0.0, Q4 : -0.0610486790538}
2019-04-03 21:31:27.10: SIM {TimeUS : 192116456, Roll : 0.0, Pitch : 0.0, Yaw : 353.0, Alt : 584.090026855, Lat : -35.363261, Lng : 149.1652299, Q1 : 0.998134791851, Q2 : 0.0, Q3 : 0.0, Q4 : -0.0610486753285}
2019-04-03 21:31:27.20: SIM {TimeUS : 192216416, Roll : 0.0, Pitch : 0.0, Yaw : 353.0, Alt : 584.090026855, Lat : -35.363261, Lng : 149.1652299, Q1 : 0.998134791851, Q2 : 0.0, Q3 : 0.0, Q4 : -0.0610486753285}
2019-04-03 21:31:27.30: SIM {TimeUS : 192316376, Roll : 0.0, Pitch : 0.0, Yaw : 353.0, Alt : 584.099975586, Lat : -35.363261, Lng : 149.1652299, Q1 : 0.998134791851, Q2 : 0.0, Q3 : 0.0, Q4 : -0.0610486753285}
2019-04-03 21:31:27.40: SIM {TimeUS : 192416336, Roll : 0.0, Pitch : 0.0, Yaw : 353.0, Alt : 584.109985352, Lat : -35.363261, Lng : 149.1652299, Q1 : 0.998134791851, Q2 : 0.0, Q3 : 0.0, Q4 : -0.0610486827791}
2019-04-03 21:31:27.50: SIM {TimeUS : 192516296, Roll : 0.0, Pitch : 0.0, Yaw : 353.0, Alt : 584.119995117, Lat : -35.363261, Lng : 149.1652299, Q1 : 0.998134791851, Q2 : 0.0, Q3 : 0.0, Q4 : -0.0610486753285}
2019-04-03 21:31:27.60: SIM {TimeUS : 192616256, Roll : 0.0, Pitch : 0.0, Yaw : 353.0, Alt : 584.150024414, Lat : -35.363261, Lng : 149.1652299, Q1 : 0.998134791851, Q2 : 0.0, Q3 : 0.0, Q4 : -0.0610487014055}
2019-04-03 21:31:27.70: SIM {TimeUS : 192716216, Roll : 0.0, Pitch : 0.0, Yaw : 353.0, Alt : 584.179992676, Lat : -35.363261, Lng : 149.1652299, Q1 : 0.998134791851, Q2 : 0.0, Q3 : 0.0, Q4 : -0.0610486753285}
2019-04-03 21:31:27.80: SIM {TimeUS : 192816176, Roll : 0.0, Pitch : 0.0, Yaw : 352.99, Alt : 584.219970703, Lat : -35.363261, Lng : 149.1652299, Q1 : 0.998134732246, Q2 : -3.4305430745e-05, Q3 : -2.3377378966e-05, Q4 : -0.0610494688153}
2019-04-03 21:31:27.90: SIM {TimeUS : 192916136, Roll : -0.08, Pitch : -0.07, Yaw : 352.99, Alt : 584.280029297, Lat : -35.363261, Lng : 149.1652299, Q1 : 0.998133003712, Q2 : -0.000801645102911, Q3 : -0.000572641438339, Q4 : -0.0610699951649}
2019-04-03 21:31:28.00: SIM {TimeUS : 193016096, Roll : -0.23, Pitch : -0.18, Yaw : 352.99, Alt : 584.409973145, Lat : -35.363261, Lng : 149.1652299, Q1 : 0.99812746048, Q2 : -0.00216076290235, Q3 : -0.00150781625416, Q4 : -0.0611120536923}
2019-04-03 21:31:28.10: SIM {TimeUS : 193116056, Roll : -0.36, Pitch : -0.28, Yaw : 352.98, Alt : 584.559997559, Lat : -35.363261, Lng : 149.1652299, Q1 : 0.998118817806, Q2 : -0.00329467304982, Q3 : -0.00230344152078, Q4 : -0.0611770041287}
2019-04-03 21:31:28.20: SIM {TimeUS : 193216016, Roll : -0.42, Pitch : -0.33, Yaw : 352.97, Alt : 584.719970703, Lat : -35.363261, Lng : 149.1652299, Q1 : 0.998111128807, Q2 : -0.0039199218154, Q3 : -0.0026800497435, Q4 : -0.0612505748868}
2019-04-03 21:31:28.30: SIM {TimeUS : 193315976, Roll : -0.4, Pitch : -0.28, Yaw : 352.96, Alt : 584.869995117, Lat : -35.363261, Lng : 149.1652299, Q1 : 0.99810808897, Q2 : -0.00368388881907, Q3 : -0.00230504758656, Q4 : -0.0613304190338}
2019-04-03 21:31:28.40: SIM {TimeUS : 193415936, Roll : -0.3, Pitch : -0.2, Yaw : 352.95, Alt : 585.020019531, Lat : -35.363261, Lng : 149.1652299, Q1 : 0.998107373714, Q2 : -0.00279631069861, Q3 : -0.00161951524206, Q4 : -0.0614108368754}
2019-04-03 21:31:28.50: SIM {TimeUS : 193515896, Roll : -0.17, Pitch : -0.12, Yaw : 352.95, Alt : 585.16998291, Lat : -35.363261, Lng : 149.1652298, Q1 : 0.99810642004, Q2 : -0.00162286683917, Q3 : -0.000986057100818, Q4 : -0.0614814348519}
2019-04-03 21:31:28.60: SIM {TimeUS : 193615856, Roll : -0.06, Pitch : -0.07, Yaw : 352.94, Alt : 585.33001709, Lat : -35.3632609, Lng : 149.1652298, Q1 : 0.998104333878, Q2 : -0.000610456976574, Q3 : -0.000582909386139, Q4 : -0.0615390315652}
2019-04-03 21:31:28.70: SIM {TimeUS : 193715816, Roll : 0.01, Pitch : -0.05, Yaw : 352.93, Alt : 585.5, Lat : -35.3632609, Lng : 149.1652298, Q1 : 0.998102009296, Q2 : 0.00014480255777, Q3 : -0.000458645634353, Q4 : -0.0615807510912}
2019-04-03 21:31:28.80: SIM {TimeUS : 193815776, Roll : 0.04, Pitch : -0.05, Yaw : 352.93, Alt : 585.679992676, Lat : -35.3632609, Lng : 149.1652298, Q1 : 0.998100340366, Q2 : 0.000381642923458, Q3 : -0.000491523416713, Q4 : -0.0616066269577}
2019-04-03 21:31:28.90: SIM {TimeUS : 193915736, Roll : 0.02, Pitch : -0.04, Yaw : 352.93, Alt : 585.859985352, Lat : -35.3632609, Lng : 149.1652298, Q1 : 0.998099982738, Q2 : 0.000237813525018, Q3 : -0.00038504684926, Q4 : -0.0616141147912}
2019-04-03 21:31:29.00: SIM {TimeUS : 194015696, Roll : -0.02, Pitch : -0.02, Yaw : 352.93, Alt : 586.039978027, Lat : -35.3632609, Lng : 149.1652298, Q1 : 0.998100042343, Q2 : -0.000232680671616, Q3 : -0.000203878807952, Q4 : -0.0616139210761}
2019-04-03 21:31:29.10: SIM {TimeUS : 194116489, Roll : -0.05, Pitch : 0.0, Yaw : 352.93, Alt : 586.229980469, Lat : -35.3632608, Lng : 149.1652297, Q1 : 0.998100817204, Q2 : -0.000488763034809, Q3 : -5.37185587746e-05, Q4 : -0.0616000518203}
2019-04-03 21:31:29.20: SIM {TimeUS : 194216449, Roll : -0.05, Pitch : 0.0, Yaw : 352.93, Alt : 586.41998291, Lat : -35.3632608, Lng : 149.1652297, Q1 : 0.998102009296, Q2 : -0.000518541433848, Q3 : -4.2936335376e-05, Q4 : -0.0615806803107}
2019-04-03 21:31:29.30: SIM {TimeUS : 194316409, Roll : -0.03, Pitch : -0.02, Yaw : 352.94, Alt : 586.609985352, Lat : -35.3632608, Lng : 149.1652297, Q1 : 0.998103797436, Q2 : -0.000276539096376, Q3 : -0.000168355472852, Q4 : -0.0615525692701}
2019-04-03 21:31:29.40: SIM {TimeUS : 194416369, Roll : 0.01, Pitch : -0.03, Yaw : 352.94, Alt : 586.799987793, Lat : -35.3632608, Lng : 149.1652296, Q1 : 0.998105227947, Q2 : 7.58843161748e-05, Q3 : -0.000339616846759, Q4 : -0.061529558152}
2019-04-03 21:31:29.50: SIM {TimeUS : 194516329, Roll : 0.06, Pitch : -0.03, Yaw : 352.94, Alt : 587.0, Lat : -35.3632608, Lng : 149.1652296, Q1 : 0.998105883598, Q2 : 0.000513816252351, Q3 : -0.000325724016875, Q4 : -0.0615168362856}
2019-04-03 21:31:29.60: SIM {TimeUS : 194616289, Roll : 0.1, Pitch : -0.02, Yaw : 352.94, Alt : 587.200012207, Lat : -35.3632608, Lng : 149.1652296, Q1 : 0.998106062412, Q2 : 0.000862947432324, Q3 : -0.000228267410421, Q4 : -0.0615101233125}
2019-04-03 21:31:29.70: SIM {TimeUS : 194716249, Roll : 0.09, Pitch : 0.0, Yaw : 352.94, Alt : 587.409973145, Lat : -35.3632607, Lng : 149.1652294, Q1 : 0.998106181622, Q2 : 0.000850399665069, Q3 : -0.000114742913865, Q4 : -0.0615082345903}
2019-04-03 21:31:29.80: SIM {TimeUS : 194816209, Roll : 0.05, Pitch : 0.0, Yaw : 352.94, Alt : 587.609985352, Lat : -35.3632607, Lng : 149.1652294, Q1 : 0.998105764389, Q2 : 0.000509525998496, Q3 : -5.44483627891e-05, Q4 : -0.0615195669234}
2019-04-03 21:31:29.90: SIM {TimeUS : 194916169, Roll : 0.02, Pitch : 0.01, Yaw : 352.94, Alt : 587.820007324, Lat : -35.3632607, Lng : 149.1652294, Q1 : 0.998104453087, Q2 : 0.000246784562478, Q3 : 7.36843285267e-05, Q4 : -0.0615421161056}
2019-04-03 21:31:30.00: SIM {TimeUS : 195016129, Roll : 0.0, Pitch : 0.0, Yaw : 352.93, Alt : 588.030029297, Lat : -35.3632607, Lng : 149.1652294, Q1 : 0.998102426529, Q2 : -6.50582660455e-05, Q3 : 4.95190433867e-05, Q4 : -0.061575461179}
2019-04-03 21:31:30.10: SIM {TimeUS : 195116089, Roll : -0.02, Pitch : 0.0, Yaw : 352.93, Alt : 588.239990234, Lat : -35.3632607, Lng : 149.1652294, Q1 : 0.998099446297, Q2 : -0.00018005783204, Q3 : -2.44903785642e-05, Q4 : -0.061623994261}
2019-04-03 21:31:30.20: SIM {TimeUS : 195216049, Roll : -0.02, Pitch : -0.03, Yaw : 352.92, Alt : 588.450012207, Lat : -35.3632607, Lng : 149.1652294, Q1 : 0.998096048832, Q2 : -0.000261419889284, Q3 : -0.000281670450931, Q4 : -0.0616775043309}
2019-04-03 21:31:30.30: SIM {TimeUS : 195316009, Roll : -0.03, Pitch : -0.07, Yaw : 352.92, Alt : 588.659973145, Lat : -35.3632607, Lng : 149.1652293, Q1 : 0.99809217453, Q2 : -0.000345186737832, Q3 : -0.000634004827589, Q4 : -0.0617373734713}
2019-04-03 21:31:30.40: SIM {TimeUS : 195415969, Roll : -0.05, Pitch : -0.11, Yaw : 352.91, Alt : 588.869995117, Lat : -35.3632607, Lng : 149.1652293, Q1 : 0.998088419437, Q2 : -0.000505727599375, Q3 : -0.00100263149943, Q4 : -0.0617913492024}
2019-04-03 21:31:30.50: SIM {TimeUS : 195515929, Roll : -0.07, Pitch : -0.14, Yaw : 352.9, Alt : 589.090026855, Lat : -35.3632607, Lng : 149.1652293, Q1 : 0.998084306717, Q2 : -0.000705270504113, Q3 : -0.00120425561909, Q4 : -0.0618523173034}
2019-04-03 21:31:30.60: SIM {TimeUS : 195615889, Roll : -0.1, Pitch : -0.16, Yaw : 352.89, Alt : 589.309997559, Lat : -35.3632607, Lng : 149.1652293, Q1 : 0.998079359531, Q2 : -0.000977469375357, Q3 : -0.00136414146982, Q4 : -0.061925727874}
2019-04-03 21:31:30.70: SIM {TimeUS : 195715849, Roll : -0.13, Pitch : -0.15, Yaw : 352.89, Alt : 589.520019531, Lat : -35.3632605, Lng : 149.1652293, Q1 : 0.998074054718, Q2 : -0.00129324849695, Q3 : -0.00128221011255, Q4 : -0.0620079487562}
2019-04-03 21:31:30.80: SIM {TimeUS : 195815809, Roll : -0.18, Pitch : -0.16, Yaw : 352.88, Alt : 589.739990234, Lat : -35.3632605, Lng : 149.1652293, Q1 : 0.998068630695, Q2 : -0.00171321176458, Q3 : -0.00133517477661, Q4 : -0.0620836056769}
2019-04-03 21:31:30.90: SIM {TimeUS : 195915769, Roll : -0.19, Pitch : -0.18, Yaw : 352.87, Alt : 589.960021973, Lat : -35.3632605, Lng : 149.1652293, Q1 : 0.998062849045, Q2 : -0.00180656462908, Q3 : -0.00149668415543, Q4 : -0.062170278281}
2019-04-03 21:31:31.00: SIM {TimeUS : 196015729, Roll : -0.2, Pitch : -0.24, Yaw : 352.86, Alt : 590.179992676, Lat : -35.3632605, Lng : 149.1652293, Q1 : 0.99805611372, Q2 : -0.00192172278184, Q3 : -0.00204269960523, Q4 : -0.0622583888471}
2019-04-03 21:31:31.10: SIM {TimeUS : 196115689, Roll : -0.21, Pitch : -0.28, Yaw : 352.85, Alt : 590.400024414, Lat : -35.3632605, Lng : 149.1652293, Q1 : 0.998050153255, Q2 : -0.00201576668769, Q3 : -0.00236321124248, Q4 : -0.0623405054212}
2019-04-03 21:31:31.20: SIM {TimeUS : 196216482, Roll : -0.23, Pitch : -0.31, Yaw : 352.84, Alt : 590.619995117, Lat : -35.3632605, Lng : 149.1652292, Q1 : 0.998044490814, Q2 : -0.00221921293996, Q3 : -0.0025867591612, Q4 : -0.0624145492911}
2019-04-03 21:31:31.30: SIM {TimeUS : 196316442, Roll : -0.24, Pitch : -0.31, Yaw : 352.83, Alt : 590.849975586, Lat : -35.3632605, Lng : 149.1652292, Q1 : 0.998039782047, Q2 : -0.00229975860566, Q3 : -0.0026414541062, Q4 : -0.0624852627516}
2019-04-03 21:31:31.40: SIM {TimeUS : 196416402, Roll : -0.28, Pitch : -0.35, Yaw : 352.82, Alt : 591.070007324, Lat : -35.3632604, Lng : 149.1652292, Q1 : 0.998033821583, Q2 : -0.00264315633103, Q3 : -0.00289593846537, Q4 : -0.0625552609563}
2019-04-03 21:31:31.50: SIM {TimeUS : 196516362, Roll : -0.32, Pitch : -0.36, Yaw : 352.82, Alt : 591.280029297, Lat : -35.3632604, Lng : 149.1652291, Q1 : 0.998028337955, Q2 : -0.00305998907425, Q3 : -0.00298457499593, Q4 : -0.0626192986965}
2019-04-03 21:31:31.60: SIM {TimeUS : 196616322, Roll : -0.34, Pitch : -0.34, Yaw : 352.81, Alt : 591.489990234, Lat : -35.3632604, Lng : 149.1652291, Q1 : 0.998024702072, Q2 : -0.00322089204565, Q3 : -0.00282999523915, Q4 : -0.0626762509346}
2019-04-03 21:31:31.70: SIM {TimeUS : 196716282, Roll : -0.31, Pitch : -0.28, Yaw : 352.8, Alt : 591.690002441, Lat : -35.3632604, Lng : 149.1652289, Q1 : 0.998023748398, Q2 : -0.00290746474639, Q3 : -0.00233423826285, Q4 : -0.0627272874117}
2019-04-03 21:31:31.80: SIM {TimeUS : 196816242, Roll : -0.28, Pitch : -0.22, Yaw : 352.8, Alt : 591.880004883, Lat : -35.3632604, Lng : 149.1652289, Q1 : 0.998022675514, Q2 : -0.00257104611956, Q3 : -0.00176258548163, Q4 : -0.0627774149179}
2019-04-03 21:31:31.90: SIM {TimeUS : 196916202, Roll : -0.22, Pitch : -0.13, Yaw : 352.79, Alt : 592.059997559, Lat : -35.3632604, Lng : 149.1652289, Q1 : 0.998021841049, Q2 : -0.00204508611932, Q3 : -0.00104524812195, Q4 : -0.0628264173865}
2019-04-03 21:31:32.00: SIM {TimeUS : 197016162, Roll : -0.15, Pitch : -0.05, Yaw : 352.79, Alt : 592.229980469, Lat : -35.3632604, Lng : 149.1652289, Q1 : 0.998020291328, Q2 : -0.00135429855436, Q3 : -0.000408991967561, Q4 : -0.062877677381}
2019-04-03 21:31:32.10: SIM {TimeUS : 197116122, Roll : -0.05, Pitch : -0.03, Yaw : 352.78, Alt : 592.380004883, Lat : -35.3632603, Lng : 149.1652288, Q1 : 0.998017311096, Q2 : -0.000527683179826, Q3 : -0.000298006925732, Q4 : -0.0629379600286}
2019-04-03 21:31:32.20: SIM {TimeUS : 197216082, Roll : 0.02, Pitch : -0.21, Yaw : 352.77, Alt : 592.530029297, Lat : -35.3632603, Lng : 149.1652288, Q1 : 0.998011648655, Q2 : 9.17675351957e-05, Q3 : -0.00190814607777, Q4 : -0.0630012974143}
2019-04-03 21:31:32.30: SIM {TimeUS : 197316042, Roll : 0.09, Pitch : -0.68, Yaw : 352.76, Alt : 592.659973145, Lat : -35.3632603, Lng : 149.1652287, Q1 : 0.997990965843, Q2 : 0.00049054127885, Q3 : -0.00605725357309, Q4 : -0.0630646646023}
2019-04-03 21:31:32.40: SIM {TimeUS : 197416002, Roll : 0.13, Pitch : -1.45, Yaw : 352.75, Alt : 592.770019531, Lat : -35.3632602, Lng : 149.1652287, Q1 : 0.997925043106, Q2 : 0.000371038593585, Q3 : -0.0127049358562, Q4 : -0.0631200820208}
2019-04-03 21:31:32.50: SIM {TimeUS : 197515962, Roll : 0.14, Pitch : -2.39, Yaw : 352.75, Alt : 592.880004883, Lat : -35.3632602, Lng : 149.1652286, Q1 : 0.997783482075, Q2 : -3.34427750204e-05, Q3 : -0.0209807325155, Q4 : -0.0631506368518}
2019-04-03 21:31:32.60: SIM {TimeUS : 197615922, Roll : 0.16, Pitch : -3.42, Yaw : 352.75, Alt : 592.969970703, Lat : -35.3632601, Lng : 149.1652286, Q1 : 0.99755525589, Q2 : -0.000414808630012, Q3 : -0.0299227852374, Q4 : -0.063151024282}
2019-04-03 21:31:32.70: SIM {TimeUS : 197715882, Roll : 0.21, Pitch : -4.33, Yaw : 352.74, Alt : 593.049987793, Lat : -35.3632599, Lng : 149.1652284, Q1 : 0.99728757143, Q2 : -0.000525889219716, Q3 : -0.0378336571157, Q4 : -0.0631333217025}
2019-04-03 21:31:32.80: SIM {TimeUS : 197815842, Roll : 0.25, Pitch : -5.03, Yaw : 352.74, Alt : 593.119995117, Lat : -35.3632598, Lng : 149.1652284, Q1 : 0.997038245201, Q2 : -0.000567962939385, Q3 : -0.043961647898, Q4 : -0.0631018877029}
2019-04-03 21:31:32.90: SIM {TimeUS : 197915802, Roll : 0.28, Pitch : -5.52, Yaw : 352.74, Alt : 593.179992676, Lat : -35.3632595, Lng : 149.1652284, Q1 : 0.996840953827, Q2 : -0.000567434821278, Q3 : -0.0482748672366, Q4 : -0.0630664378405}
2019-04-03 21:31:33.00: SIM {TimeUS : 198015762, Roll : 0.29, Pitch : -5.9, Yaw : 352.74, Alt : 593.229980469, Lat : -35.3632592, Lng : 149.1652284, Q1 : 0.996678113937, Q2 : -0.000683861901052, Q3 : -0.0515618510544, Q4 : -0.0630366206169}
2019-04-03 21:31:33.10: SIM {TimeUS : 198115722, Roll : 0.31, Pitch : -6.22, Yaw : 352.74, Alt : 593.280029297, Lat : -35.3632587, Lng : 149.1652283, Q1 : 0.99653249979, Q2 : -0.000714376801625, Q3 : -0.0543322488666, Q4 : -0.0630117505789}
2019-04-03 21:31:33.20: SIM {TimeUS : 198215682, Roll : 0.3, Pitch : -6.53, Yaw : 352.74, Alt : 593.320007324, Lat : -35.3632584, Lng : 149.1652283, Q1 : 0.99637901783, Q2 : -0.000926594133489, Q3 : -0.057073097676, Q4 : -0.0630132257938}
2019-04-03 21:31:33.30: SIM {TimeUS : 198316475, Roll : 0.29, Pitch : -6.87, Yaw : 352.74, Alt : 593.359985352, Lat : -35.3632579, Lng : 149.1652282, Q1 : 0.996203660965, Q2 : -0.00121555803344, Q3 : -0.0600272491574, Q4 : -0.0630359128118}
2019-04-03 21:31:33.40: SIM {TimeUS : 198416435, Roll : 0.29, Pitch : -7.25, Yaw : 352.73, Alt : 593.390014648, Lat : -35.3632573, Lng : 149.1652281, Q1 : 0.996000111103, Q2 : -0.00146520382259, Q3 : -0.06328317523, Q4 : -0.0630627721548}
2019-04-03 21:31:33.50: SIM {TimeUS : 198516395, Roll : 0.3, Pitch : -7.63, Yaw : 352.72, Alt : 593.41998291, Lat : -35.3632567, Lng : 149.1652279, Q1 : 0.995783448219, Q2 : -0.00160936382599, Q3 : -0.0665686130524, Q4 : -0.0630979016423}
2019-04-03 21:31:33.60: SIM {TimeUS : 198616355, Roll : 0.29, Pitch : -7.97, Yaw : 352.72, Alt : 593.440002441, Lat : -35.3632559, Lng : 149.1652279, Q1 : 0.995577514172, Q2 : -0.00187178712804, Q3 : -0.0695274919271, Q4 : -0.0631496757269}
2019-04-03 21:31:33.70: SIM {TimeUS : 198716315, Roll : 0.29, Pitch : -8.23, Yaw : 352.71, Alt : 593.469970703, Lat : -35.363255, Lng : 149.1652278, Q1 : 0.995408892632, Q2 : -0.00197438476607, Q3 : -0.0718546286225, Q4 : -0.063199698925}
2019-04-03 21:31:33.80: SIM {TimeUS : 198816275, Roll : 0.29, Pitch : -8.42, Yaw : 352.7, Alt : 593.489990234, Lat : -35.3632543, Lng : 149.1652277, Q1 : 0.995284795761, Q2 : -0.0021459646523, Q3 : -0.0734863206744, Q4 : -0.063271895051}
2019-04-03 21:31:33.90: SIM {TimeUS : 198916235, Roll : 0.27, Pitch : -8.54, Yaw : 352.69, Alt : 593.510009766, Lat : -35.3632532, Lng : 149.1652275, Q1 : 0.995206594467, Q2 : -0.00232236506417, Q3 : -0.0744672566652, Q4 : -0.0633489042521}
2019-04-03 21:31:34.00: SIM {TimeUS : 199016195, Roll : 0.24, Pitch : -8.61, Yaw : 352.68, Alt : 593.520019531, Lat : -35.3632523, Lng : 149.1652274, Q1 : 0.995152831078, Q2 : -0.00266110338271, Q3 : -0.0750907212496, Q4 : -0.0634443536401}
2019-04-03 21:31:34.10: SIM {TimeUS : 199116155, Roll : 0.22, Pitch : -8.7, Yaw : 352.67, Alt : 593.539978027, Lat : -35.3632513, Lng : 149.1652274, Q1 : 0.995086491108, Q2 : -0.00289372238331, Q3 : -0.0758915916085, Q4 : -0.0635214373469}
2019-04-03 21:31:34.20: SIM {TimeUS : 199216115, Roll : 0.24, Pitch : -8.9, Yaw : 352.67, Alt : 593.559997559, Lat : -35.3632501, Lng : 149.1652272, Q1 : 0.994955480099, Q2 : -0.00279588531703, Q3 : -0.0776094272733, Q4 : -0.0635023340583}
2019-04-03 21:31:34.30: SIM {TimeUS : 199316075, Roll : 0.47, Pitch : -9.21, Yaw : 352.88, Alt : 593.58001709, Lat : -35.3632488, Lng : 149.165227, Q1 : 0.99485963583, Q2 : -0.000870623916853, Q3 : -0.0803977176547, Q4 : -0.0615607276559}
2019-04-03 21:31:34.40: SIM {TimeUS : 199416035, Roll : 0.57, Pitch : -9.62, Yaw : 353.59, Alt : 593.590026855, Lat : -35.3632476, Lng : 149.1652269, Q1 : 0.994928777218, Q2 : 0.000337977980962, Q3 : -0.084029302001, Q4 : -0.0552781298757}
2019-04-03 21:31:34.50: SIM {TimeUS : 199515995, Roll : 0.39, Pitch : -10.09, Yaw : 354.71, Alt : 593.609985352, Lat : -35.3632463, Lng : 149.1652268, Q1 : 0.995066404343, Q2 : -0.000610316288657, Q3 : -0.0880892500281, Q4 : -0.0456373393536}
2019-04-03 21:31:34.60: SIM {TimeUS : 199615955, Roll : -0.05, Pitch : -10.57, Yaw : 355.99, Alt : 593.630004883, Lat : -35.3632449, Lng : 149.1652265, Q1 : 0.995136499405, Q2 : -0.00365620944649, Q3 : -0.0920812040567, Q4 : -0.0348017290235}
2019-04-03 21:31:34.70: SIM {TimeUS : 199715915, Roll : -0.63, Pitch : -11.0, Yaw : 357.21, Alt : 593.640014648, Lat : -35.3632434, Lng : 149.1652265, Q1 : 0.995068490505, Q2 : -0.00782174989581, Q3 : -0.095746986568, Q4 : -0.0246987305582}
2019-04-03 21:31:34.80: SIM {TimeUS : 199815875, Roll : -1.2, Pitch : -11.39, Yaw : 358.19, Alt : 593.659973145, Lat : -35.3632419, Lng : 149.1652263, Q1 : 0.994861781597, Q2 : -0.012011943385, Q3 : -0.0991239324212, Q4 : -0.0167399942875}
2019-04-03 21:31:34.90: SIM {TimeUS : 199915835, Roll : -1.61, Pitch : -11.76, Yaw : 358.81, Alt : 593.679992676, Lat : -35.3632403, Lng : 149.165226, Q1 : 0.99456590414, Q2 : -0.0150530282408, Q3 : -0.10234887898, Q4 : -0.0116944359615}
2019-04-03 21:31:35.00: SIM {TimeUS : 200015795, Roll : -1.82, Pitch : -12.12, Yaw : 359.06, Alt : 593.700012207, Lat : -35.3632385, Lng : 149.1652259, Q1 : 0.994233548641, Q2 : -0.0167294591665, Q3 : -0.105465173721, Q4 : -0.00984010193497}
2019-04-03 21:31:35.10: SIM {TimeUS : 200115755, Roll : -1.82, Pitch : -12.47, Yaw : 358.93, Alt : 593.710021973, Lat : -35.3632367, Lng : 149.1652256, Q1 : 0.993896603584, Q2 : -0.0168615002185, Q3 : -0.108468808234, Q4 : -0.0109437890351}
2019-04-03 21:31:35.20: SIM {TimeUS : 200215715, Roll : -1.67, Pitch : -12.83, Yaw : 358.51, Alt : 593.729980469, Lat : -35.3632349, Lng : 149.1652254, Q1 : 0.993526756763, Q2 : -0.015959540382, Q3 : -0.11153267324, Q4 : -0.0145017839968}
2019-04-03 21:31:35.29: SIM {TimeUS : 200315675, Roll : -1.39, Pitch : -13.2, Yaw : 357.88, Alt : 593.75, Lat : -35.363233, Lng : 149.165225, Q1 : 0.993097364902, Q2 : -0.014180932194, Q3 : -0.114746250212, Q4 : -0.0197453256696}
2019-04-03 21:31:35.40: SIM {TimeUS : 200416468, Roll : -1.05, Pitch : -13.61, Yaw : 357.13, Alt : 593.780029297, Lat : -35.363231, Lng : 149.1652248, Q1 : 0.992566764355, Q2 : -0.0121034737676, Q3 : -0.118286840618, Q4 : -0.0259436089545}
2019-04-03 21:31:35.50: SIM {TimeUS : 200516428, Roll : -0.71, Pitch : -13.99, Yaw : 356.36, Alt : 593.799987793, Lat : -35.3632288, Lng : 149.1652245, Q1 : 0.992005646229, Q2 : -0.0100174983963, Q3 : -0.121602140367, Q4 : -0.0322076790035}
2019-04-03 21:31:35.60: SIM {TimeUS : 200616388, Roll : -0.39, Pitch : -14.34, Yaw : 355.66, Alt : 593.820007324, Lat : -35.3632267, Lng : 149.1652241, Q1 : 0.991445720196, Q2 : -0.00809906236827, Q3 : -0.124625377357, Q4 : -0.037925645709}
2019-04-03 21:31:35.70: SIM {TimeUS : 200716348, Roll : -0.14, Pitch : -14.62, Yaw : 355.09, Alt : 593.840026855, Lat : -35.3632244, Lng : 149.1652238, Q1 : 0.990946054459, Q2 : -0.00668025389314, Q3 : -0.127136588097, Q4 : -0.0426340438426}
2019-04-03 21:31:35.80: SIM {TimeUS : 200816308, Roll : 0.0, Pitch : -14.84, Yaw : 354.67, Alt : 593.869995117, Lat : -35.3632221, Lng : 149.1652235, Q1 : 0.990548074245, Q2 : -0.00597808510065, Q3 : -0.129063755274, Q4 : -0.0460588335991}
2019-04-03 21:31:35.90: SIM {TimeUS : 200916268, Roll : 0.07, Pitch : -14.97, Yaw : 354.43, Alt : 593.900024414, Lat : -35.3632197, Lng : 149.1652231, Q1 : 0.990303277969, Q2 : -0.00567339546978, Q3 : -0.13021287322, Q4 : -0.0480819381773}
2019-04-03 21:31:36.00: SIM {TimeUS : 201016228, Roll : 0.07, Pitch : -15.03, Yaw : 354.34, Alt : 593.91998291, Lat : -35.3632171, Lng : 149.1652227, Q1 : 0.990200638771, Q2 : -0.00577158806846, Q3 : -0.130721837282, Q4 : -0.0487975254655}
2019-04-03 21:31:36.10: SIM {TimeUS : 201116188, Roll : 0.03, Pitch : -15.07, Yaw : 354.39, Alt : 593.950012207, Lat : -35.3632146, Lng : 149.1652225, Q1 : 0.9901714921, Q2 : -0.00611452944577, Q3 : -0.131070226431, Q4 : -0.0484107770026}
2019-04-03 21:31:36.20: SIM {TimeUS : 201216148, Roll : -0.06, Pitch : -15.15, Yaw : 354.54, Alt : 593.979980469, Lat : -35.3632118, Lng : 149.1652221, Q1 : 0.990141689777, Q2 : -0.00687668472528, Q3 : -0.131678938866, Q4 : -0.0472522638738}
2019-04-03 21:31:36.30: SIM {TimeUS : 201316108, Roll : -0.21, Pitch : -15.23, Yaw : 354.74, Alt : 594.0, Lat : -35.3632092, Lng : 149.1652217, Q1 : 0.990116536617, Q2 : -0.00790631957352, Q3 : -0.132375761867, Q4 : -0.0456438660622}
2019-04-03 21:31:36.40: SIM {TimeUS : 201416068, Roll : -0.36, Pitch : -15.35, Yaw : 354.97, Alt : 594.030029297, Lat : -35.3632063, Lng : 149.1652214, Q1 : 0.990056574345, Q2 : -0.00899285916239, Q3 : -0.13334235549, Q4 : -0.043897818774}
2019-04-03 21:31:36.50: SIM {TimeUS : 201516028, Roll : -0.5, Pitch : -15.49, Yaw : 355.17, Alt : 594.059997559, Lat : -35.3632035, Lng : 149.165221, Q1 : 0.989956915379, Q2 : -0.0100176166743, Q3 : -0.134522303939, Q4 : -0.04229285568}
2019-04-03 21:31:36.60: SIM {TimeUS : 201615988, Roll : -0.6, Pitch : -15.61, Yaw : 355.33, Alt : 594.090026855, Lat : -35.3632006, Lng : 149.1652206, Q1 : 0.989869058132, Q2 : -0.0107480585575, Q3 : -0.135502532125, Q4 : -0.0410229638219}
2019-04-03 21:31:36.70: SIM {TimeUS : 201715948, Roll : -0.66, Pitch : -15.69, Yaw : 355.44, Alt : 594.119995117, Lat : -35.3631977, Lng : 149.1652202, Q1 : 0.989801645279, Q2 : -0.0111351013184, Q3 : -0.136209979653, Q4 : -0.0401951596141}
2019-04-03 21:31:36.80: SIM {TimeUS : 201815908, Roll : -0.69, Pitch : -15.77, Yaw : 355.47, Alt : 594.150024414, Lat : -35.3631946, Lng : 149.1652198, Q1 : 0.989717960358, Q2 : -0.0114041650668, Q3 : -0.136882171035, Q4 : -0.039894208312}
2019-04-03 21:31:36.90: SIM {TimeUS : 201915868, Roll : -0.69, Pitch : -15.82, Yaw : 355.45, Alt : 594.179992676, Lat : -35.3631916, Lng : 149.1652193, Q1 : 0.989648640156, Q2 : -0.0114836031571, Q3 : -0.137322217226, Q4 : -0.0400782451034}
2019-04-03 21:31:37.00: SIM {TimeUS : 202015828, Roll : -0.66, Pitch : -15.87, Yaw : 355.38, Alt : 594.210021973, Lat : -35.3631884, Lng : 149.1652188, Q1 : 0.989566147327, Q2 : -0.0112766586244, Q3 : -0.137765139341, Q4 : -0.0406503230333}
2019-04-03 21:31:37.10: SIM {TimeUS : 202115788, Roll : -0.59, Pitch : -15.93, Yaw : 355.27, Alt : 594.229980469, Lat : -35.3631853, Lng : 149.1652184, Q1 : 0.989466190338, Q2 : -0.010836083442, Q3 : -0.13826303184, Q4 : -0.0415037386119}
2019-04-03 21:31:37.20: SIM {TimeUS : 202215748, Roll : -0.51, Pitch : -15.97, Yaw : 355.15, Alt : 594.260009766, Lat : -35.363182, Lng : 149.1652179, Q1 : 0.989370703697, Q2 : -0.010333458893, Q3 : -0.138674005866, Q4 : -0.0425249896944}
2019-04-03 21:31:37.30: SIM {TimeUS : 202315708, Roll : -0.44, Pitch : -16.0, Yaw : 355.01, Alt : 594.289978027, Lat : -35.3631788, Lng : 149.1652176, Q1 : 0.989295423031, Q2 : -0.00988084729761, Q3 : -0.138912364841, Q4 : -0.0435923114419}
2019-04-03 21:31:37.39: SIM {TimeUS : 202415668, Roll : -0.39, Pitch : -16.04, Yaw : 354.89, Alt : 594.320007324, Lat : -35.3631754, Lng : 149.1652171, Q1 : 0.989207565784, Q2 : -0.00966128241271, Q3 : -0.139227330685, Q4 : -0.0446188598871}
2019-04-03 21:31:37.50: SIM {TimeUS : 202516461, Roll : -0.36, Pitch : -16.07, Yaw : 354.78, Alt : 594.359985352, Lat : -35.3631721, Lng : 149.1652165, Q1 : 0.989120125771, Q2 : -0.00950508378446, Q3 : -0.139572545886, Q4 : -0.0455032810569}
2019-04-03 21:31:37.60: SIM {TimeUS : 202616421, Roll : -0.33, Pitch : -16.12, Yaw : 354.69, Alt : 594.390014648, Lat : -35.3631686, Lng : 149.165216, Q1 : 0.989036619663, Q2 : -0.00935578718781, Q3 : -0.139949709177, Q4 : -0.0461856126785}
2019-04-03 21:31:37.70: SIM {TimeUS : 202716381, Roll : -0.31, Pitch : -16.16, Yaw : 354.64, Alt : 594.41998291, Lat : -35.3631653, Lng : 149.1652157, Q1 : 0.988958716393, Q2 : -0.0092989327386, Q3 : -0.140348941088, Q4 : -0.0466512739658}
2019-04-03 21:31:37.80: SIM {TimeUS : 202816341, Roll : -0.35, Pitch : -16.22, Yaw : 354.61, Alt : 594.450012207, Lat : -35.3631618, Lng : 149.1652152, Q1 : 0.988871395588, Q2 : -0.00965552218258, Q3 : -0.140838056803, Q4 : -0.0469555072486}
2019-04-03 21:31:37.90: SIM {TimeUS : 202916301, Roll : -0.37, Pitch : -16.29, Yaw : 354.6, Alt : 594.479980469, Lat : -35.3631583, Lng : 149.1652147, Q1 : 0.988785266876, Q2 : -0.00991028454155, Q3 : -0.141387209296, Q4 : -0.0470659248531}
2019-04-03 21:31:38.00: SIM {TimeUS : 203016261, Roll : -0.38, Pitch : -16.35, Yaw : 354.6, Alt : 594.510009766, Lat : -35.3631547, Lng : 149.1652141, Q1 : 0.988710522652, Q2 : -0.00997264217585, Q3 : -0.141916066408, Q4 : -0.0470309332013}
2019-04-03 21:31:38.10: SIM {TimeUS : 203116221, Roll : -0.38, Pitch : -16.39, Yaw : 354.62, Alt : 594.539978027, Lat : -35.3631513, Lng : 149.1652136, Q1 : 0.98866212368, Q2 : -0.00997172296047, Q3 : -0.142291143537, Q4 : -0.0469155348837}
2019-04-03 21:31:38.20: SIM {TimeUS : 203216181, Roll : -0.41, Pitch : -16.44, Yaw : 354.63, Alt : 594.570007324, Lat : -35.3631477, Lng : 149.1652131, Q1 : 0.988605439663, Q2 : -0.0102362232283, Q3 : -0.142701148987, Q4 : -0.0468073710799}
2019-04-03 21:31:38.30: SIM {TimeUS : 203316141, Roll : -0.45, Pitch : -16.49, Yaw : 354.65, Alt : 594.599975586, Lat : -35.3631441, Lng : 149.1652126, Q1 : 0.988544285297, Q2 : -0.0106237791479, Q3 : -0.143120259047, Q4 : -0.0467327572405}
2019-04-03 21:31:38.40: SIM {TimeUS : 203416101, Roll : -0.47, Pitch : -16.54, Yaw : 354.66, Alt : 594.640014648, Lat : -35.3631405, Lng : 149.1652121, Q1 : 0.988489627838, Q2 : -0.0107709467411, Q3 : -0.143503054976, Q4 : -0.0466815903783}
2019-04-03 21:31:38.50: SIM {TimeUS : 203516061, Roll : -0.46, Pitch : -16.57, Yaw : 354.65, Alt : 594.66998291, Lat : -35.3631368, Lng : 149.1652116, Q1 : 0.988452553749, Q2 : -0.010706092231, Q3 : -0.143763720989, Q4 : -0.0466788224876}
2019-04-03 21:31:38.60: SIM {TimeUS : 203616021, Roll : -0.46, Pitch : -16.59, Yaw : 354.64, Alt : 594.700012207, Lat : -35.3631331, Lng : 149.1652111, Q1 : 0.988420546055, Q2 : -0.0107274129987, Q3 : -0.143952205777, Q4 : -0.0467706806958}
2019-04-03 21:31:38.70: SIM {TimeUS : 203715981, Roll : -0.44, Pitch : -16.61, Yaw : 354.62, Alt : 594.729980469, Lat : -35.3631294, Lng : 149.1652106, Q1 : 0.988384842873, Q2 : -0.0106287822127, Q3 : -0.144153878093, Q4 : -0.046926856041}
2019-04-03 21:31:38.80: SIM {TimeUS : 203815941, Roll : -0.4, Pitch : -16.64, Yaw : 354.6, Alt : 594.760009766, Lat : -35.3631257, Lng : 149.1652101, Q1 : 0.988336980343, Q2 : -0.0103551950306, Q3 : -0.144436791539, Q4 : -0.0471253804862}
2019-04-03 21:31:38.90: SIM {TimeUS : 203915901, Roll : -0.35, Pitch : -16.66, Yaw : 354.56, Alt : 594.789978027, Lat : -35.3631218, Lng : 149.1652096, Q1 : 0.988303482533, Q2 : -0.00990276411176, Q3 : -0.144628420472, Q4 : -0.0473378263414}
2019-04-03 21:31:39.00: SIM {TimeUS : 204015861, Roll : -0.3, Pitch : -16.66, Yaw : 354.53, Alt : 594.820007324, Lat : -35.3631181, Lng : 149.165209, Q1 : 0.988292396069, Q2 : -0.00952371116728, Q3 : -0.144651502371, Q4 : -0.0475751757622}
2019-04-03 21:31:39.10: SIM {TimeUS : 204115821, Roll : -0.27, Pitch : -16.64, Yaw : 354.49, Alt : 594.859985352, Lat : -35.3631143, Lng : 149.1652085, Q1 : 0.988302826881, Q2 : -0.00932404957712, Q3 : -0.144505307078, Q4 : -0.0478419028223}
2019-04-03 21:31:39.20: SIM {TimeUS : 204215781, Roll : -0.27, Pitch : -16.64, Yaw : 354.46, Alt : 594.890014648, Lat : -35.3631105, Lng : 149.1652078, Q1 : 0.988297700882, Q2 : -0.00935775227845, Q3 : -0.144447162747, Q4 : -0.0481155961752}
2019-04-03 21:31:39.30: SIM {TimeUS : 204315741, Roll : -0.29, Pitch : -16.67, Yaw : 354.43, Alt : 594.91998291, Lat : -35.3631066, Lng : 149.1652073, Q1 : 0.988249063492, Q2 : -0.00955458544195, Q3 : -0.144679144025, Q4 : -0.0483790971339}
2019-04-03 21:31:39.40: SIM {TimeUS : 204415701, Roll : -0.31, Pitch : -16.73, Yaw : 354.41, Alt : 594.950012207, Lat : -35.3631028, Lng : 149.1652068, Q1 : 0.988161742687, Q2 : -0.00982300005853, Q3 : -0.145171940327, Q4 : -0.0486306957901}
2019-04-03 21:31:39.49: SIM {TimeUS : 204515661, Roll : -0.31, Pitch : -16.78, Yaw : 354.38, Alt : 594.979980469, Lat : -35.3630989, Lng : 149.1652063, Q1 : 0.988076388836, Q2 : -0.00987722817808, Q3 : -0.145684614778, Q4 : -0.0488213524222}
2019-04-03 21:31:39.60: SIM {TimeUS : 204616454, Roll : -0.3, Pitch : -16.86, Yaw : 354.37, Alt : 595.020019531, Lat : -35.363095, Lng : 149.1652058, Q1 : 0.987974405289, Q2 : -0.00979247223586, Q3 : -0.146332994103, Q4 : -0.0489625260234}
2019-04-03 21:31:39.70: SIM {TimeUS : 204716414, Roll : -0.28, Pitch : -16.93, Yaw : 354.35, Alt : 595.049987793, Lat : -35.3630911, Lng : 149.1652052, Q1 : 0.987883448601, Q2 : -0.00969285331666, Q3 : -0.146912038326, Q4 : -0.0490839183331}
2019-04-03 21:31:39.80: SIM {TimeUS : 204816374, Roll : -0.27, Pitch : -16.97, Yaw : 354.33, Alt : 595.08001709, Lat : -35.3630871, Lng : 149.1652045, Q1 : 0.987825393677, Q2 : -0.00964938290417, Q3 : -0.147268220782, Q4 : -0.0491935089231}
2019-04-03 21:31:39.90: SIM {TimeUS : 204916334, Roll : -0.26, Pitch : -16.98, Yaw : 354.32, Alt : 595.109985352, Lat : -35.3630833, Lng : 149.165204, Q1 : 0.987807929516, Q2 : -0.00960303004831, Q3 : -0.147358104587, Q4 : -0.0492839068174}
2019-04-03 21:31:40.00: SIM {TimeUS : 205016294, Roll : -0.25, Pitch : -16.98, Yaw : 354.31, Alt : 595.140014648, Lat : -35.3630792, Lng : 149.1652035, Q1 : 0.987798392773, Q2 : -0.00956301111728, Q3 : -0.147395655513, Q4 : -0.0493703074753}
2019-04-03 21:31:40.10: SIM {TimeUS : 205116254, Roll : -0.25, Pitch : -16.99, Yaw : 354.3, Alt : 595.16998291, Lat : -35.3630753, Lng : 149.165203, Q1 : 0.987778663635, Q2 : -0.00952315330505, Q3 : -0.147502139211, Q4 : -0.0494553297758}
2019-04-03 21:31:40.20: SIM {TimeUS : 205216214, Roll : -0.23, Pitch : -17.03, Yaw : 354.29, Alt : 595.210021973, Lat : -35.3630713, Lng : 149.1652024, Q1 : 0.987733602524, Q2 : -0.00941488519311, Q3 : -0.147784680128, Q4 : -0.0495316237211}
2019-04-03 21:31:40.30: SIM {TimeUS : 205316174, Roll : -0.21, Pitch : -17.06, Yaw : 354.28, Alt : 595.239990234, Lat : -35.3630674, Lng : 149.1652018, Q1 : 0.987691342831, Q2 : -0.00924001820385, Q3 : -0.148053154349, Q4 : -0.0496059656143}
2019-04-03 21:31:40.40: SIM {TimeUS : 205416134, Roll : -0.21, Pitch : -17.09, Yaw : 354.26, Alt : 595.270019531, Lat : -35.3630634, Lng : 149.1652013, Q1 : 0.987640380859, Q2 : -0.00926745589823, Q3 : -0.148353517056, Q4 : -0.0497181378305}
2019-04-03 21:31:40.50: SIM {TimeUS : 205516094, Roll : -0.21, Pitch : -17.14, Yaw : 354.25, Alt : 595.299987793, Lat : -35.3630594, Lng : 149.1652006, Q1 : 0.987567842007, Q2 : -0.00931648910046, Q3 : -0.148790866137, Q4 : -0.0498425252736}
2019-04-03 21:31:40.60: SIM {TimeUS : 205616054, Roll : -0.21, Pitch : -17.17, Yaw : 354.23, Alt : 595.33001709, Lat : -35.3630553, Lng : 149.1652001, Q1 : 0.987517356873, Q2 : -0.0093216476962, Q3 : -0.149081662297, Q4 : -0.0499722547829}
2019-04-03 21:31:40.70: SIM {TimeUS : 205716014, Roll : -0.19, Pitch : -17.18, Yaw : 354.22, Alt : 595.359985352, Lat : -35.3630512, Lng : 149.1651996, Q1 : 0.987499177456, Q2 : -0.00918027479202, Q3 : -0.149172946811, Q4 : -0.0500853434205}
2019-04-03 21:31:40.80: SIM {TimeUS : 205815974, Roll : -0.17, Pitch : -17.19, Yaw : 354.2, Alt : 595.400024414, Lat : -35.3630471, Lng : 149.165199, Q1 : 0.987488687038, Q2 : -0.00908207520843, Q3 : -0.149207532406, Q4 : -0.0502065941691}
2019-04-03 21:31:40.90: SIM {TimeUS : 205915934, Roll : -0.16, Pitch : -17.18, Yaw : 354.18, Alt : 595.429992676, Lat : -35.3630432, Lng : 149.1651983, Q1 : 0.987490057945, Q2 : -0.00900037866086, Q3 : -0.149159818888, Q4 : -0.0503356382251}
2019-04-03 21:31:41.00: SIM {TimeUS : 206015894, Roll : -0.16, Pitch : -17.18, Yaw : 354.17, Alt : 595.460021973, Lat : -35.3630391, Lng : 149.1651978, Q1 : 0.987480282784, Q2 : -0.00905767269433, Q3 : -0.149169296026, Q4 : -0.0504899919033}
2019-04-03 21:31:41.10: SIM {TimeUS : 206115854, Roll : -0.19, Pitch : -17.2, Yaw : 354.15, Alt : 595.489990234, Lat : -35.3630349, Lng : 149.1651973, Q1 : 0.987445652485, Q2 : -0.00927826203406, Q3 : -0.149320110679, Q4 : -0.0506804548204}
2019-04-03 21:31:41.20: SIM {TimeUS : 206215814, Roll : -0.2, Pitch : -17.23, Yaw : 354.13, Alt : 595.520019531, Lat : -35.3630309, Lng : 149.1651967, Q1 : 0.987396538258, Q2 : -0.00947687961161, Q3 : -0.149565175176, Q4 : -0.050877340138}
2019-04-03 21:31:41.30: SIM {TimeUS : 206315774, Roll : -0.2, Pitch : -17.26, Yaw : 354.11, Alt : 595.559997559, Lat : -35.3630268, Lng : 149.1651961, Q1 : 0.987345337868, Q2 : -0.00946628302336, Q3 : -0.149845734239, Q4 : -0.0510481074452}
2019-04-03 21:31:41.40: SIM {TimeUS : 206415734, Roll : -0.17, Pitch : -17.31, Yaw : 354.08, Alt : 595.590026855, Lat : -35.3630227, Lng : 149.1651956, Q1 : 0.98727864027, Q2 : -0.00928211770952, Q3 : -0.150244355202, Q4 : -0.0511991083622}
2019-04-03 21:31:41.50: SIM {TimeUS : 206515694, Roll : -0.13, Pitch : -17.35, Yaw : 354.06, Alt : 595.619995117, Lat : -35.3630185, Lng : 149.1651949, Q1 : 0.987222254276, Q2 : -0.00895710103214, Q3 : -0.150592461228, Q4 : -0.0513220466673}
2019-04-03 21:31:41.60: SIM {TimeUS : 206616487, Roll : -0.09, Pitch : -17.39, Yaw : 354.04, Alt : 595.650024414, Lat : -35.3630144, Lng : 149.1651944, Q1 : 0.987166523933, Q2 : -0.00863580405712, Q3 : -0.150937542319, Q4 : -0.0514345169067}
2019-04-03 21:31:41.70: SIM {TimeUS : 206716447, Roll : -0.07, Pitch : -17.39, Yaw : 354.03, Alt : 595.679992676, Lat : -35.3630103, Lng : 149.1651938, Q1 : 0.987154960632, Q2 : -0.00847628433257, Q3 : -0.150980010629, Q4 : -0.0515583306551}
2019-04-03 21:31:41.80: SIM {TimeUS : 206816407, Roll : -0.06, Pitch : -17.38, Yaw : 354.01, Alt : 595.719970703, Lat : -35.3630061, Lng : 149.1651932, Q1 : 0.987161457539, Q2 : -0.00846755970269, Q3 : -0.150894924998, Q4 : -0.0516843982041}
2019-04-03 21:31:41.90: SIM {TimeUS : 206916367, Roll : -0.06, Pitch : -17.36, Yaw : 354.0, Alt : 595.75, Lat : -35.363002, Lng : 149.1651925, Q1 : 0.987179100513, Q2 : -0.0084430295974, Q3 : -0.150740072131, Q4 : -0.0518033504486}
2019-04-03 21:31:42.00: SIM {TimeUS : 207016327, Roll : -0.08, Pitch : -17.35, Yaw : 353.98, Alt : 595.780029297, Lat : -35.3629977, Lng : 149.165192, Q1 : 0.987181782722, Q2 : -0.00868534483016, Q3 : -0.150658592582, Q4 : -0.0519499145448}
2019-04-03 21:31:42.10: SIM {TimeUS : 207116287, Roll : -0.13, Pitch : -17.35, Yaw : 353.97, Alt : 595.809997559, Lat : -35.3629935, Lng : 149.1651915, Q1 : 0.987172663212, Q2 : -0.00905622448772, Q3 : -0.150641277432, Q4 : -0.0521090403199}
2019-04-03 21:31:42.20: SIM {TimeUS : 207216247, Roll : -0.15, Pitch : -17.36, Yaw : 353.96, Alt : 595.849975586, Lat : -35.3629893, Lng : 149.1651909, Q1 : 0.987152278423, Q2 : -0.00931268278509, Q3 : -0.150709792972, Q4 : -0.0522513128817}
2019-04-03 21:31:42.30: SIM {TimeUS : 207316207, Roll : -0.15, Pitch : -17.38, Yaw : 353.94, Alt : 595.880004883, Lat : -35.3629852, Lng : 149.1651903, Q1 : 0.987126231194, Q2 : -0.00929253641516, Q3 : -0.150838196278, Q4 : -0.0523766763508}
2019-04-03 21:31:42.40: SIM {TimeUS : 207416167, Roll : -0.13, Pitch : -17.42, Yaw : 353.93, Alt : 595.909973145, Lat : -35.362981, Lng : 149.1651896, Q1 : 0.987068474293, Q2 : -0.00920020230114, Q3 : -0.151177838445, Q4 : -0.052502181381}
2019-04-03 21:31:42.50: SIM {TimeUS : 207516127, Roll : -0.1, Pitch : -17.48, Yaw : 353.91, Alt : 595.940002441, Lat : -35.3629768, Lng : 149.1651891, Q1 : 0.986983537674, Q2 : -0.00897034630179, Q3 : -0.151705384254, Q4 : -0.0526171587408}
2019-04-03 21:31:42.60: SIM {TimeUS : 207616087, Roll : -0.08, Pitch : -17.54, Yaw : 353.89, Alt : 595.979980469, Lat : -35.3629726, Lng : 149.1651886, Q1 : 0.986895024776, Q2 : -0.008823717013, Q3 : -0.152240127325, Q4 : -0.0527575872838}
2019-04-03 21:31:42.70: SIM {TimeUS : 207716047, Roll : -0.06, Pitch : -17.58, Yaw : 353.87, Alt : 596.010009766, Lat : -35.3629684, Lng : 149.165188, Q1 : 0.986832201481, Q2 : -0.00874527730048, Q3 : -0.152593538165, Q4 : -0.0529234446585}
2019-04-03 21:31:42.80: SIM {TimeUS : 207816007, Roll : -0.06, Pitch : -17.61, Yaw : 353.84, Alt : 596.039978027, Lat : -35.3629642, Lng : 149.1651873, Q1 : 0.98677521944, Q2 : -0.00876207277179, Q3 : -0.152896553278, Q4 : -0.0531084053218}
2019-04-03 21:31:42.90: SIM {TimeUS : 207915967, Roll : -0.04, Pitch : -17.61, Yaw : 353.82, Alt : 596.070007324, Lat : -35.36296, Lng : 149.1651867, Q1 : 0.986773192883, Q2 : -0.00867009535432, Q3 : -0.152855545282, Q4 : -0.053279735148}
2019-04-03 21:31:43.00: SIM {TimeUS : 208015927, Roll : -0.03, Pitch : -17.59, Yaw : 353.8, Alt : 596.099975586, Lat : -35.3629557, Lng : 149.1651862, Q1 : 0.986786365509, Q2 : -0.00852855481207, Q3 : -0.15271987021, Q4 : -0.0534465871751}
2019-04-03 21:31:43.10: SIM {TimeUS : 208115887, Roll : 0.0, Pitch : -17.58, Yaw : 353.78, Alt : 596.140014648, Lat : -35.3629515, Lng : 149.1651856, Q1 : 0.986787855625, Q2 : -0.00834633875638, Q3 : -0.152668252587, Q4 : -0.0535959117115}
2019-04-03 21:31:43.20: SIM {TimeUS : 208215847, Roll : 0.0, Pitch : -17.59, Yaw : 353.76, Alt : 596.16998291, Lat : -35.3629473, Lng : 149.1651849, Q1 : 0.986771047115, Q2 : -0.00826873350888, Q3 : -0.152728065848, Q4 : -0.0537462979555}
2019-04-03 21:31:43.30: SIM {TimeUS : 208315807, Roll : 0.0, Pitch : -17.59, Yaw : 353.74, Alt : 596.200012207, Lat : -35.362943, Lng : 149.1651843, Q1 : 0.986759305, Q2 : -0.00826633814722, Q3 : -0.152750939131, Q4 : -0.0538973137736}
2019-04-03 21:31:43.40: SIM {TimeUS : 208415767, Roll : 0.01, Pitch : -17.58, Yaw : 353.72, Alt : 596.229980469, Lat : -35.3629387, Lng : 149.1651839, Q1 : 0.986766815186, Q2 : -0.00824205391109, Q3 : -0.152654662728, Q4 : -0.0540359765291}
2019-04-03 21:31:43.50: SIM {TimeUS : 208515727, Roll : 0.0, Pitch : -17.59, Yaw : 353.71, Alt : 596.270019531, Lat : -35.3629345, Lng : 149.1651833, Q1 : 0.986752510071, Q2 : -0.00839998479933, Q3 : -0.152679890394, Q4 : -0.054201580584}
2019-04-03 21:31:43.60: SIM {TimeUS : 208615687, Roll : -0.02, Pitch : -17.61, Yaw : 353.69, Alt : 596.299987793, Lat : -35.3629302, Lng : 149.1651827, Q1 : 0.986717283726, Q2 : -0.00862432084978, Q3 : -0.152836292982, Q4 : -0.0543667711318}
2019-04-03 21:31:43.70: SIM {TimeUS : 208716480, Roll : -0.03, Pitch : -17.62, Yaw : 353.68, Alt : 596.33001709, Lat : -35.3629259, Lng : 149.165182, Q1 : 0.986688256264, Q2 : -0.00878601428121, Q3 : -0.152958527207, Q4 : -0.0545230954885}
2019-04-03 21:31:43.80: SIM {TimeUS : 208816440, Roll : -0.04, Pitch : -17.63, Yaw : 353.66, Alt : 596.359985352, Lat : -35.3629216, Lng : 149.1651815, Q1 : 0.986672759056, Q2 : -0.00881687179208, Q3 : -0.153007566929, Q4 : -0.0546612627804}
2019-04-03 21:31:43.90: SIM {TimeUS : 208916400, Roll : -0.01, Pitch : -17.62, Yaw : 353.64, Alt : 596.390014648, Lat : -35.3629173, Lng : 149.1651809, Q1 : 0.98667627573, Q2 : -0.00864821299911, Q3 : -0.152956187725, Q4 : -0.0547675229609}
2019-04-03 21:31:44.00: SIM {TimeUS : 209016360, Roll : 0.0, Pitch : -17.64, Yaw : 353.63, Alt : 596.429992676, Lat : -35.362913, Lng : 149.1651803, Q1 : 0.986647129059, Q2 : -0.00853704847395, Q3 : -0.153111979365, Q4 : -0.0548757314682}
2019-04-03 21:31:44.10: SIM {TimeUS : 209116320, Roll : 0.0, Pitch : -17.66, Yaw : 353.61, Alt : 596.460021973, Lat : -35.3629088, Lng : 149.1651796, Q1 : 0.986614584923, Q2 : -0.00846459157765, Q3 : -0.153285607696, Q4 : -0.0549872294068}
2019-04-03 21:31:44.20: SIM {TimeUS : 209216280, Roll : 0.01, Pitch : -17.68, Yaw : 353.6, Alt : 596.489990234, Lat : -35.3629045, Lng : 149.1651791, Q1 : 0.986582100391, Q2 : -0.0084231859073, Q3 : -0.153455659747, Q4 : -0.055101569742}
2019-04-03 21:31:44.30: SIM {TimeUS : 209316240, Roll : 0.0, Pitch : -17.7, Yaw : 353.58, Alt : 596.520019531, Lat : -35.3629002, Lng : 149.1651785, Q1 : 0.986548542976, Q2 : -0.00856121722609, Q3 : -0.153609991074, Q4 : -0.055251210928}
2019-04-03 21:31:44.40: SIM {TimeUS : 209416200, Roll : -0.03, Pitch : -17.71, Yaw : 353.57, Alt : 596.549987793, Lat : -35.3628959, Lng : 149.165178, Q1 : 0.986513972282, Q2 : -0.00896467361599, Q3 : -0.153733208776, Q4 : -0.0554612465203}
2019-04-03 21:31:44.50: SIM {TimeUS : 209516160, Roll : -0.06, Pitch : -17.72, Yaw : 353.55, Alt : 596.590026855, Lat : -35.3628916, Lng : 149.1651774, Q1 : 0.986487209797, Q2 : -0.00923377275467, Q3 : -0.153815850616, Q4 : -0.0556631311774}
2019-04-03 21:31:44.60: SIM {TimeUS : 209616120, Roll : -0.06, Pitch : -17.74, Yaw : 353.53, Alt : 596.619995117, Lat : -35.3628873, Lng : 149.1651767, Q1 : 0.986460626125, Q2 : -0.00924802944064, Q3 : -0.153925850987, Q4 : -0.0558277182281}
2019-04-03 21:31:44.70: SIM {TimeUS : 209716080, Roll : -0.02, Pitch : -17.74, Yaw : 353.51, Alt : 596.650024414, Lat : -35.3628828, Lng : 149.1651762, Q1 : 0.986443281174, Q2 : -0.00896121188998, Q3 : -0.154006570578, Q4 : -0.0559580139816}
2019-04-03 21:31:44.80: SIM {TimeUS : 209816040, Roll : 0.03, Pitch : -17.75, Yaw : 353.48, Alt : 596.679992676, Lat : -35.3628786, Lng : 149.1651756, Q1 : 0.986425161362, Q2 : -0.00847675930709, Q3 : -0.154108777642, Q4 : -0.0560724958777}
2019-04-03 21:31:44.90: SIM {TimeUS : 209916000, Roll : 0.07, Pitch : -17.77, Yaw : 353.46, Alt : 596.710021973, Lat : -35.3628743, Lng : 149.165175, Q1 : 0.986391305923, Q2 : -0.00814556702971, Q3 : -0.154293000698, Q4 : -0.0562092065811}
2019-04-03 21:31:45.00: SIM {TimeUS : 210015960, Roll : 0.09, Pitch : -17.8, Yaw : 353.44, Alt : 596.75, Lat : -35.36287, Lng : 149.1651743, Q1 : 0.986337721348, Q2 : -0.00801962800324, Q3 : -0.154585108161, Q4 : -0.056365583092}
2019-04-03 21:31:45.10: SIM {TimeUS : 210115920, Roll : 0.09, Pitch : -17.83, Yaw : 353.42, Alt : 596.780029297, Lat : -35.3628657, Lng : 149.1651738, Q1 : 0.986292183399, Q2 : -0.00807665195316, Q3 : -0.154806271195, Q4 : -0.0565470531583}
2019-04-03 21:31:45.20: SIM {TimeUS : 210215880, Roll : 0.08, Pitch : -17.85, Yaw : 353.4, Alt : 596.809997559, Lat : -35.3628613, Lng : 149.1651732, Q1 : 0.986257731915, Q2 : -0.00819449778646, Q3 : -0.154953420162, Q4 : -0.0567272007465}
2019-04-03 21:31:45.30: SIM {TimeUS : 210315840, Roll : 0.06, Pitch : -17.85, Yaw : 353.38, Alt : 596.840026855, Lat : -35.362857, Lng : 149.1651726, Q1 : 0.986241996288, Q2 : -0.00835203472525, Q3 : -0.154982551932, Q4 : -0.0568984299898}
2019-04-03 21:31:45.40: SIM {TimeUS : 210415800, Roll : 0.06, Pitch : -17.86, Yaw : 353.36, Alt : 596.880004883, Lat : -35.3628527, Lng : 149.1651719, Q1 : 0.986219584942, Q2 : -0.00843628495932, Q3 : -0.155064016581, Q4 : -0.0570519194007}
2019-04-03 21:31:45.50: SIM {TimeUS : 210515760, Roll : 0.06, Pitch : -17.85, Yaw : 353.35, Alt : 596.909973145, Lat : -35.3628482, Lng : 149.1651714, Q1 : 0.986222743988, Q2 : -0.00842182524502, Q3 : -0.154990255833, Q4 : -0.0571996681392}
2019-04-03 21:31:45.60: SIM {TimeUS : 210615720, Roll : 0.07, Pitch : -17.84, Yaw : 353.33, Alt : 596.940002441, Lat : -35.3628439, Lng : 149.1651709, Q1 : 0.986227333546, Q2 : -0.00835381820798, Q3 : -0.154916852713, Q4 : -0.0573298372328}
2019-04-03 21:31:45.70: SIM {TimeUS : 210715680, Roll : 0.07, Pitch : -17.82, Yaw : 353.31, Alt : 596.969970703, Lat : -35.3628396, Lng : 149.1651703, Q1 : 0.986255347729, Q2 : -0.00835808645934, Q3 : -0.154687777162, Q4 : -0.0574654042721}
2019-04-03 21:31:45.80: SIM {TimeUS : 210816473, Roll : 0.06, Pitch : -17.81, Yaw : 353.3, Alt : 597.0, Lat : -35.3628353, Lng : 149.1651697, Q1 : 0.986257612705, Q2 : -0.00844984315336, Q3 : -0.154617369175, Q4 : -0.0576023682952}
2019-04-03 21:31:45.90: SIM {TimeUS : 210916433, Roll : 0.07, Pitch : -17.81, Yaw : 353.28, Alt : 597.039978027, Lat : -35.3628309, Lng : 149.165169, Q1 : 0.986258208752, Q2 : -0.00841299258173, Q3 : -0.154571861029, Q4 : -0.0577188283205}
2019-04-03 21:31:46.00: SIM {TimeUS : 211016393, Roll : 0.08, Pitch : -17.81, Yaw : 353.27, Alt : 597.070007324, Lat : -35.3628265, Lng : 149.1651685, Q1 : 0.986250460148, Q2 : -0.00834621954709, Q3 : -0.154582902789, Q4 : -0.0578316561878}
2019-04-03 21:31:46.10: SIM {TimeUS : 211116353, Roll : 0.08, Pitch : -17.82, Yaw : 353.25, Alt : 597.099975586, Lat : -35.3628221, Lng : 149.1651679, Q1 : 0.9862216115, Q2 : -0.00837520137429, Q3 : -0.154716879129, Q4 : -0.0579609982669}
2019-04-03 21:31:46.20: SIM {TimeUS : 211216313, Roll : 0.08, Pitch : -17.85, Yaw : 353.24, Alt : 597.130004883, Lat : -35.3628177, Lng : 149.1651673, Q1 : 0.986181914806, Q2 : -0.00841988995671, Q3 : -0.154916867614, Q4 : -0.0580954179168}
2019-04-03 21:31:46.30: SIM {TimeUS : 211316273, Roll : 0.08, Pitch : -17.86, Yaw : 353.22, Alt : 597.159973145, Lat : -35.3628135, Lng : 149.1651666, Q1 : 0.986155092716, Q2 : -0.00844839029014, Q3 : -0.155031099916, Q4 : -0.0582413859665}
2019-04-03 21:31:46.40: SIM {TimeUS : 211416233, Roll : 0.08, Pitch : -17.87, Yaw : 353.2, Alt : 597.200012207, Lat : -35.3628091, Lng : 149.1651661, Q1 : 0.986128985882, Q2 : -0.00849880464375, Q3 : -0.155135914683, Q4 : -0.0583970397711}
2019-04-03 21:31:46.50: SIM {TimeUS : 211516193, Roll : 0.09, Pitch : -17.88, Yaw : 353.19, Alt : 597.229980469, Lat : -35.3628047, Lng : 149.1651655, Q1 : 0.986102223396, Q2 : -0.00840893294662, Q3 : -0.155259266496, Q4 : -0.0585349164903}
2019-04-03 21:31:46.60: SIM {TimeUS : 211616153, Roll : 0.1, Pitch : -17.89, Yaw : 353.17, Alt : 597.260009766, Lat : -35.3628004, Lng : 149.1651648, Q1 : 0.986084580421, Q2 : -0.00832901615649, Q3 : -0.155322358012, Q4 : -0.0586757995188}
2019-04-03 21:31:46.70: SIM {TimeUS : 211716113, Roll : 0.11, Pitch : -17.87, Yaw : 353.15, Alt : 597.289978027, Lat : -35.3627959, Lng : 149.1651642, Q1 : 0.986101090908, Q2 : -0.00825288239866, Q3 : -0.155166894197, Q4 : -0.0588199421763}
2019-04-03 21:31:46.80: SIM {TimeUS : 211816073, Roll : 0.13, Pitch : -17.85, Yaw : 353.13, Alt : 597.320007324, Lat : -35.3627916, Lng : 149.1651637, Q1 : 0.986125648022, Q2 : -0.00813992414623, Q3 : -0.154967173934, Q4 : -0.0589508451521}
2019-04-03 21:31:46.90: SIM {TimeUS : 211916033, Roll : 0.15, Pitch : -17.84, Yaw : 353.12, Alt : 597.359985352, Lat : -35.3627873, Lng : 149.1651631, Q1 : 0.986133635044, Q2 : -0.00796841830015, Q3 : -0.154882207513, Q4 : -0.0590640306473}
2019-04-03 21:31:47.00: SIM {TimeUS : 212015993, Roll : 0.16, Pitch : -17.85, Yaw : 353.1, Alt : 597.390014648, Lat : -35.3627829, Lng : 149.1651624, Q1 : 0.986112177372, Q2 : -0.00790111441165, Q3 : -0.154977023602, Q4 : -0.0591822750866}
2019-04-03 21:31:47.10: SIM {TimeUS : 212115953, Roll : 0.16, Pitch : -17.87, Yaw : 353.09, Alt : 597.41998291, Lat : -35.3627785, Lng : 149.1651618, Q1 : 0.98607057333, Q2 : -0.00795376393944, Q3 : -0.15519104898, Q4 : -0.0593071430922}
2019-04-03 21:31:47.20: SIM {TimeUS : 212215913, Roll : 0.16, Pitch : -17.89, Yaw : 353.07, Alt : 597.450012207, Lat : -35.362774, Lng : 149.1651612, Q1 : 0.986040592194, Q2 : -0.00797055661678, Q3 : -0.155340135098, Q4 : -0.059413086623}
2019-04-03 21:31:47.30: SIM {TimeUS : 212315873, Roll : 0.16, Pitch : -17.89, Yaw : 353.06, Alt : 597.479980469, Lat : -35.3627697, Lng : 149.1651606, Q1 : 0.986037313938, Q2 : -0.00802070181817, Q3 : -0.1553196311, Q4 : -0.0595139153302}
2019-04-03 21:31:47.40: SIM {TimeUS : 212415833, Roll : 0.14, Pitch : -17.88, Yaw : 353.05, Alt : 597.520019531, Lat : -35.3627654, Lng : 149.1651599, Q1 : 0.986045062542, Q2 : -0.00812764465809, Q3 : -0.15522390604, Q4 : -0.0596201196313}
2019-04-03 21:31:47.50: SIM {TimeUS : 212515793, Roll : 0.15, Pitch : -17.87, Yaw : 353.04, Alt : 597.549987793, Lat : -35.362761, Lng : 149.1651594, Q1 : 0.986046969891, Q2 : -0.00812959764153, Q3 : -0.155179530382, Q4 : -0.0597044490278}
2019-04-03 21:31:47.60: SIM {TimeUS : 212615753, Roll : 0.17, Pitch : -17.89, Yaw : 353.03, Alt : 597.58001709, Lat : -35.3627566, Lng : 149.1651588, Q1 : 0.986019670963, Q2 : -0.0079750828445, Q3 : -0.155339211226, Q4 : -0.0597603470087}
2019-04-03 21:31:47.70: SIM {TimeUS : 212715713, Roll : 0.18, Pitch : -17.91, Yaw : 353.02, Alt : 597.609985352, Lat : -35.3627521, Lng : 149.1651581, Q1 : 0.985994637012, Q2 : -0.00788391008973, Q3 : -0.155470490456, Q4 : -0.0598451569676}
2019-04-03 21:31:47.79: SIM {TimeUS : 212815673, Roll : 0.19, Pitch : -17.92, Yaw : 353.01, Alt : 597.640014648, Lat : -35.3627478, Lng : 149.1651575, Q1 : 0.985973596573, Q2 : -0.00783165730536, Q3 : -0.155568614602, Q4 : -0.0599426999688}
2019-04-03 21:31:47.90: SIM {TimeUS : 212916466, Roll : 0.2, Pitch : -17.92, Yaw : 352.99, Alt : 597.679992676, Lat : -35.3627434, Lng : 149.165157, Q1 : 0.985956668854, Q2 : -0.0077687795274, Q3 : -0.155643239617, Q4 : -0.0600366964936}
2019-04-03 21:31:48.00: SIM {TimeUS : 213016426, Roll : 0.19, Pitch : -17.93, Yaw : 352.98, Alt : 597.710021973, Lat : -35.362739, Lng : 149.1651564, Q1 : 0.985939264297, Q2 : -0.00782308727503, Q3 : -0.155709028244, Q4 : -0.0601441860199}
2019-04-03 21:31:48.10: SIM {TimeUS : 213116386, Roll : 0.18, Pitch : -17.94, Yaw : 352.97, Alt : 597.739990234, Lat : -35.3627345, Lng : 149.1651557, Q1 : 0.985925316811, Q2 : -0.00795342586935, Q3 : -0.155741989613, Q4 : -0.0602703467011}
2019-04-03 21:31:48.20: SIM {TimeUS : 213216346, Roll : 0.17, Pitch : -17.94, Yaw : 352.96, Alt : 597.770019531, Lat : -35.3627302, Lng : 149.1651551, Q1 : 0.985909938812, Q2 : -0.00807178579271, Q3 : -0.155785828829, Q4 : -0.0603931546211}
