2019-04-03 18:28:21.80: SIM {TimeUS : 57416191, Roll : 0.0, Pitch : 0.0, Yaw : 353.0, Alt : 584.090026855, Lat : -35.363261, Lng : 149.1652299, Q1 : 0.998134791851, Q2 : 0.0, Q3 : 0.0, Q4 : -0.0610485821962}
2019-04-03 18:28:21.89: SIM {TimeUS : 57516151, Roll : 0.0, Pitch : 0.0, Yaw : 353.0, Alt : 584.090026855, Lat : -35.363261, Lng : 149.1652299, Q1 : 0.998134791851, Q2 : 0.0, Q3 : 0.0, Q4 : -0.0610485821962}
2019-04-03 18:28:21.99: SIM {TimeUS : 57616111, Roll : 0.0, Pitch : 0.0, Yaw : 353.0, Alt : 584.090026855, Lat : -35.363261, Lng : 149.1652299, Q1 : 0.998134791851, Q2 : 0.0, Q3 : 0.0, Q4 : -0.0610485821962}
2019-04-03 18:28:22.09: SIM {TimeUS : 57716071, Roll : 0.0, Pitch : 0.0, Yaw : 353.0, Alt : 584.090026855, Lat : -35.363261, Lng : 149.1652299, Q1 : 0.998134791851, Q2 : 0.0, Q3 : 0.0, Q4 : -0.0610485821962}
2019-04-03 18:28:22.19: SIM {TimeUS : 57816031, Roll : 0.0, Pitch : 0.0, Yaw : 353.0, Alt : 584.090026855, Lat : -35.363261, Lng : 149.1652299, Q1 : 0.998134791851, Q2 : 0.0, Q3 : 0.0, Q4 : -0.0610485821962}
2019-04-03 18:28:22.29: SIM {TimeUS : 57915991, Roll : 0.0, Pitch : 0.0, Yaw : 353.0, Alt : 584.090026855, Lat : -35.363261, Lng : 149.1652299, Q1 : 0.998134791851, Q2 : 0.0, Q3 : 0.0, Q4 : -0.0610485821962}
2019-04-03 18:28:22.39: SIM {TimeUS : 58015951, Roll : 0.0, Pitch : 0.0, Yaw : 353.0, Alt : 584.090026855, Lat : -35.363261, Lng : 149.1652299, Q1 : 0.998134791851, Q2 : 0.0, Q3 : 0.0, Q4 : -0.0610485821962}
2019-04-03 18:28:22.49: SIM {TimeUS : 58115911, Roll : 0.0, Pitch : 0.0, Yaw : 353.0, Alt : 584.090026855, Lat : -35.363261, Lng : 149.1652299, Q1 : 0.998134791851, Q2 : 0.0, Q3 : 0.0, Q4 : -0.0610485821962}
2019-04-03 18:28:22.59: SIM {TimeUS : 58215871, Roll : 0.0, Pitch : 0.0, Yaw : 353.0, Alt : 584.090026855, Lat : -35.363261, Lng : 149.1652299, Q1 : 0.998134791851, Q2 : 0.0, Q3 : 0.0, Q4 : -0.0610485821962}
2019-04-03 18:28:22.69: SIM {TimeUS : 58315831, Roll : 0.0, Pitch : 0.0, Yaw : 353.0, Alt : 584.090026855, Lat : -35.363261, Lng : 149.1652299, Q1 : 0.998134791851, Q2 : 0.0, Q3 : 0.0, Q4 : -0.0610485821962}
2019-04-03 18:28:22.79: SIM {TimeUS : 58415791, Roll : 0.0, Pitch : 0.0, Yaw : 353.0, Alt : 584.090026855, Lat : -35.363261, Lng : 149.1652299, Q1 : 0.998134791851, Q2 : 0.0, Q3 : 0.0, Q4 : -0.0610485821962}
2019-04-03 18:28:22.89: SIM {TimeUS : 58515751, Roll : 0.0, Pitch : 0.0, Yaw : 353.0, Alt : 584.090026855, Lat : -35.363261, Lng : 149.1652299, Q1 : 0.998134791851, Q2 : 0.0, Q3 : 0.0, Q4 : -0.0610485821962}
2019-04-03 18:28:22.99: SIM {TimeUS : 58615711, Roll : 0.0, Pitch : 0.0, Yaw : 353.0, Alt : 584.090026855, Lat : -35.363261, Lng : 149.1652299, Q1 : 0.998134791851, Q2 : 0.0, Q3 : 0.0, Q4 : -0.0610485821962}
2019-04-03 18:28:23.09: SIM {TimeUS : 58715671, Roll : 0.0, Pitch : 0.0, Yaw : 353.0, Alt : 584.090026855, Lat : -35.363261, Lng : 149.1652299, Q1 : 0.998134791851, Q2 : 0.0, Q3 : 0.0, Q4 : -0.0610485821962}
2019-04-03 18:28:23.20: SIM {TimeUS : 58816464, Roll : 0.0, Pitch : 0.0, Yaw : 353.0, Alt : 584.090026855, Lat : -35.363261, Lng : 149.1652299, Q1 : 0.998134791851, Q2 : 0.0, Q3 : 0.0, Q4 : -0.0610485821962}
2019-04-03 18:28:23.30: SIM {TimeUS : 58916424, Roll : 0.0, Pitch : 0.0, Yaw : 353.0, Alt : 584.090026855, Lat : -35.363261, Lng : 149.1652299, Q1 : 0.998134791851, Q2 : 0.0, Q3 : 0.0, Q4 : -0.0610485821962}
2019-04-03 18:28:23.40: SIM {TimeUS : 59016384, Roll : 0.0, Pitch : 0.0, Yaw : 353.0, Alt : 584.090026855, Lat : -35.363261, Lng : 149.1652299, Q1 : 0.998134791851, Q2 : 0.0, Q3 : 0.0, Q4 : -0.0610485821962}
2019-04-03 18:28:23.50: SIM {TimeUS : 59116344, Roll : 0.0, Pitch : 0.0, Yaw : 353.0, Alt : 584.090026855, Lat : -35.363261, Lng : 149.1652299, Q1 : 0.998134791851, Q2 : 0.0, Q3 : 0.0, Q4 : -0.0610485821962}
2019-04-03 18:28:23.60: SIM {TimeUS : 59216304, Roll : 0.0, Pitch : 0.0, Yaw : 353.0, Alt : 584.090026855, Lat : -35.363261, Lng : 149.1652299, Q1 : 0.998134791851, Q2 : 0.0, Q3 : 0.0, Q4 : -0.0610485821962}
2019-04-03 18:28:23.70: SIM {TimeUS : 59316264, Roll : 0.0, Pitch : 0.0, Yaw : 353.0, Alt : 584.090026855, Lat : -35.363261, Lng : 149.1652299, Q1 : 0.998134791851, Q2 : 0.0, Q3 : 0.0, Q4 : -0.0610485821962}
2019-04-03 18:28:23.80: SIM {TimeUS : 59416224, Roll : 0.0, Pitch : 0.0, Yaw : 353.0, Alt : 584.090026855, Lat : -35.363261, Lng : 149.1652299, Q1 : 0.998134791851, Q2 : 0.0, Q3 : 0.0, Q4 : -0.0610485821962}
2019-04-03 18:28:23.89: SIM {TimeUS : 59516184, Roll : 0.0, Pitch : 0.0, Yaw : 353.0, Alt : 584.090026855, Lat : -35.363261, Lng : 149.1652299, Q1 : 0.998134791851, Q2 : 0.0, Q3 : 0.0, Q4 : -0.0610485821962}
2019-04-03 18:28:23.99: SIM {TimeUS : 59616144, Roll : 0.0, Pitch : 0.0, Yaw : 353.0, Alt : 584.090026855, Lat : -35.363261, Lng : 149.1652299, Q1 : 0.998134791851, Q2 : 0.0, Q3 : 0.0, Q4 : -0.0610485821962}
2019-04-03 18:28:24.09: SIM {TimeUS : 59716104, Roll : 0.0, Pitch : 0.0, Yaw : 353.0, Alt : 584.090026855, Lat : -35.363261, Lng : 149.1652299, Q1 : 0.998134791851, Q2 : 0.0, Q3 : 0.0, Q4 : -0.0610485821962}
2019-04-03 18:28:24.19: SIM {TimeUS : 59816064, Roll : 0.0, Pitch : 0.0, Yaw : 353.0, Alt : 584.090026855, Lat : -35.363261, Lng : 149.1652299, Q1 : 0.998134791851, Q2 : 0.0, Q3 : 0.0, Q4 : -0.0610485821962}
2019-04-03 18:28:24.29: SIM {TimeUS : 59916024, Roll : 0.0, Pitch : 0.0, Yaw : 353.0, Alt : 584.090026855, Lat : -35.363261, Lng : 149.1652299, Q1 : 0.998134791851, Q2 : 0.0, Q3 : 0.0, Q4 : -0.0610485821962}
2019-04-03 18:28:24.39: SIM {TimeUS : 60015984, Roll : 0.0, Pitch : 0.0, Yaw : 353.0, Alt : 584.090026855, Lat : -35.363261, Lng : 149.1652299, Q1 : 0.998134791851, Q2 : 0.0, Q3 : 0.0, Q4 : -0.0610485821962}
2019-04-03 18:28:24.49: SIM {TimeUS : 60115944, Roll : 0.0, Pitch : 0.0, Yaw : 353.0, Alt : 584.090026855, Lat : -35.363261, Lng : 149.1652299, Q1 : 0.998134791851, Q2 : 0.0, Q3 : 0.0, Q4 : -0.0610485821962}
2019-04-03 18:28:24.59: SIM {TimeUS : 60215904, Roll : 0.0, Pitch : 0.0, Yaw : 353.0, Alt : 584.090026855, Lat : -35.363261, Lng : 149.1652299, Q1 : 0.998134791851, Q2 : 0.0, Q3 : 0.0, Q4 : -0.0610485821962}
2019-04-03 18:28:24.69: SIM {TimeUS : 60315864, Roll : 0.0, Pitch : 0.0, Yaw : 353.0, Alt : 584.090026855, Lat : -35.363261, Lng : 149.1652299, Q1 : 0.998134791851, Q2 : 0.0, Q3 : 0.0, Q4 : -0.0610485821962}
2019-04-03 18:28:24.79: SIM {TimeUS : 60415824, Roll : 0.0, Pitch : 0.0, Yaw : 353.0, Alt : 584.090026855, Lat : -35.363261, Lng : 149.1652299, Q1 : 0.998134791851, Q2 : 0.0, Q3 : 0.0, Q4 : -0.0610485821962}
2019-04-03 18:28:24.89: SIM {TimeUS : 60515784, Roll : 0.0, Pitch : 0.0, Yaw : 353.0, Alt : 584.090026855, Lat : -35.363261, Lng : 149.1652299, Q1 : 0.998134791851, Q2 : 0.0, Q3 : 0.0, Q4 : -0.0610485821962}
2019-04-03 18:28:24.99: SIM {TimeUS : 60615744, Roll : 0.0, Pitch : 0.0, Yaw : 353.0, Alt : 584.090026855, Lat : -35.363261, Lng : 149.1652299, Q1 : 0.998134791851, Q2 : 0.0, Q3 : 0.0, Q4 : -0.0610485821962}
2019-04-03 18:28:25.09: SIM {TimeUS : 60715704, Roll : 0.0, Pitch : 0.0, Yaw : 353.0, Alt : 584.090026855, Lat : -35.363261, Lng : 149.1652299, Q1 : 0.998134791851, Q2 : 0.0, Q3 : 0.0, Q4 : -0.0610485821962}
2019-04-03 18:28:25.19: SIM {TimeUS : 60815664, Roll : 0.0, Pitch : 0.0, Yaw : 353.0, Alt : 584.090026855, Lat : -35.363261, Lng : 149.1652299, Q1 : 0.998134791851, Q2 : 0.0, Q3 : 0.0, Q4 : -0.0610485821962}
2019-04-03 18:28:25.30: SIM {TimeUS : 60916457, Roll : 0.0, Pitch : 0.0, Yaw : 353.0, Alt : 584.090026855, Lat : -35.363261, Lng : 149.1652299, Q1 : 0.998134791851, Q2 : 0.0, Q3 : 0.0, Q4 : -0.0610485821962}
2019-04-03 18:28:25.40: SIM {TimeUS : 61016417, Roll : 0.0, Pitch : 0.0, Yaw : 353.0, Alt : 584.090026855, Lat : -35.363261, Lng : 149.1652299, Q1 : 0.998134791851, Q2 : 0.0, Q3 : 0.0, Q4 : -0.0610485821962}
2019-04-03 18:28:25.50: SIM {TimeUS : 61116377, Roll : 0.0, Pitch : 0.0, Yaw : 353.0, Alt : 584.090026855, Lat : -35.363261, Lng : 149.1652299, Q1 : 0.998134791851, Q2 : 0.0, Q3 : 0.0, Q4 : -0.0610485821962}
2019-04-03 18:28:25.60: SIM {TimeUS : 61216337, Roll : 0.0, Pitch : 0.0, Yaw : 353.0, Alt : 584.090026855, Lat : -35.363261, Lng : 149.1652299, Q1 : 0.998134791851, Q2 : 0.0, Q3 : 0.0, Q4 : -0.0610485821962}
2019-04-03 18:28:25.70: SIM {TimeUS : 61316297, Roll : 0.0, Pitch : 0.0, Yaw : 353.0, Alt : 584.090026855, Lat : -35.363261, Lng : 149.1652299, Q1 : 0.998134791851, Q2 : 0.0, Q3 : 0.0, Q4 : -0.0610485821962}
2019-04-03 18:28:25.80: SIM {TimeUS : 61416257, Roll : 0.0, Pitch : 0.0, Yaw : 353.0, Alt : 584.090026855, Lat : -35.363261, Lng : 149.1652299, Q1 : 0.998134791851, Q2 : 0.0, Q3 : 0.0, Q4 : -0.0610485821962}
2019-04-03 18:28:25.90: SIM {TimeUS : 61516217, Roll : 0.0, Pitch : 0.0, Yaw : 353.0, Alt : 584.090026855, Lat : -35.363261, Lng : 149.1652299, Q1 : 0.998134791851, Q2 : 0.0, Q3 : 0.0, Q4 : -0.0610485821962}
2019-04-03 18:28:25.99: SIM {TimeUS : 61616177, Roll : 0.0, Pitch : 0.0, Yaw : 353.0, Alt : 584.090026855, Lat : -35.363261, Lng : 149.1652299, Q1 : 0.998134791851, Q2 : 0.0, Q3 : 0.0, Q4 : -0.0610485821962}
2019-04-03 18:28:26.09: SIM {TimeUS : 61716137, Roll : 0.0, Pitch : 0.0, Yaw : 353.0, Alt : 584.090026855, Lat : -35.363261, Lng : 149.1652299, Q1 : 0.998134791851, Q2 : 0.0, Q3 : 0.0, Q4 : -0.0610485821962}
2019-04-03 18:28:26.19: SIM {TimeUS : 61816097, Roll : 0.0, Pitch : 0.0, Yaw : 353.0, Alt : 584.090026855, Lat : -35.363261, Lng : 149.1652299, Q1 : 0.998134791851, Q2 : 0.0, Q3 : 0.0, Q4 : -0.0610485821962}
2019-04-03 18:28:26.29: SIM {TimeUS : 61916057, Roll : 0.0, Pitch : 0.0, Yaw : 353.0, Alt : 584.090026855, Lat : -35.363261, Lng : 149.1652299, Q1 : 0.998134791851, Q2 : 0.0, Q3 : 0.0, Q4 : -0.0610485821962}
2019-04-03 18:28:26.39: SIM {TimeUS : 62016017, Roll : 0.0, Pitch : 0.0, Yaw : 353.0, Alt : 584.090026855, Lat : -35.363261, Lng : 149.1652299, Q1 : 0.998134791851, Q2 : 0.0, Q3 : 0.0, Q4 : -0.0610485821962}
2019-04-03 18:28:26.49: SIM {TimeUS : 62115977, Roll : 0.0, Pitch : 0.0, Yaw : 353.0, Alt : 584.090026855, Lat : -35.363261, Lng : 149.1652299, Q1 : 0.998134791851, Q2 : 0.0, Q3 : 0.0, Q4 : -0.0610485821962}
2019-04-03 18:28:26.59: SIM {TimeUS : 62215937, Roll : 0.0, Pitch : 0.0, Yaw : 353.0, Alt : 584.090026855, Lat : -35.363261, Lng : 149.1652299, Q1 : 0.998134791851, Q2 : 0.0, Q3 : 0.0, Q4 : -0.0610485821962}
2019-04-03 18:28:26.69: SIM {TimeUS : 62315897, Roll : 0.0, Pitch : 0.0, Yaw : 353.0, Alt : 584.090026855, Lat : -35.363261, Lng : 149.1652299, Q1 : 0.998134791851, Q2 : 0.0, Q3 : 0.0, Q4 : -0.0610485821962}
2019-04-03 18:28:26.79: SIM {TimeUS : 62415857, Roll : 0.0, Pitch : 0.0, Yaw : 353.0, Alt : 584.090026855, Lat : -35.363261, Lng : 149.1652299, Q1 : 0.998134791851, Q2 : 0.0, Q3 : 0.0, Q4 : -0.0610485821962}
2019-04-03 18:28:26.89: SIM {TimeUS : 62515817, Roll : 0.0, Pitch : 0.0, Yaw : 353.0, Alt : 584.090026855, Lat : -35.363261, Lng : 149.1652299, Q1 : 0.998134791851, Q2 : 0.0, Q3 : 0.0, Q4 : -0.0610486753285}
2019-04-03 18:28:26.99: SIM {TimeUS : 62615777, Roll : 0.0, Pitch : 0.0, Yaw : 353.0, Alt : 584.090026855, Lat : -35.363261, Lng : 149.1652299, Q1 : 0.998134791851, Q2 : 0.0, Q3 : 0.0, Q4 : -0.0610486753285}
2019-04-03 18:28:27.09: SIM {TimeUS : 62715737, Roll : 0.0, Pitch : 0.0, Yaw : 353.0, Alt : 584.090026855, Lat : -35.363261, Lng : 149.1652299, Q1 : 0.998134791851, Q2 : 0.0, Q3 : 0.0, Q4 : -0.0610486753285}
2019-04-03 18:28:27.19: SIM {TimeUS : 62815697, Roll : 0.0, Pitch : 0.0, Yaw : 353.0, Alt : 584.090026855, Lat : -35.363261, Lng : 149.1652299, Q1 : 0.998134791851, Q2 : 0.0, Q3 : 0.0, Q4 : -0.0610486753285}
2019-04-03 18:28:27.30: SIM {TimeUS : 62916490, Roll : 0.0, Pitch : 0.0, Yaw : 353.0, Alt : 584.090026855, Lat : -35.363261, Lng : 149.1652299, Q1 : 0.998134791851, Q2 : 0.0, Q3 : 0.0, Q4 : -0.0610486753285}
2019-04-03 18:28:27.40: SIM {TimeUS : 63016450, Roll : 0.0, Pitch : 0.0, Yaw : 353.0, Alt : 584.090026855, Lat : -35.363261, Lng : 149.1652299, Q1 : 0.998134791851, Q2 : 0.0, Q3 : 0.0, Q4 : -0.0610486753285}
2019-04-03 18:28:27.50: SIM {TimeUS : 63116410, Roll : 0.0, Pitch : 0.0, Yaw : 353.0, Alt : 584.090026855, Lat : -35.363261, Lng : 149.1652299, Q1 : 0.998134791851, Q2 : 0.0, Q3 : 0.0, Q4 : -0.0610486753285}
2019-04-03 18:28:27.60: SIM {TimeUS : 63216370, Roll : 0.0, Pitch : 0.0, Yaw : 353.0, Alt : 584.090026855, Lat : -35.363261, Lng : 149.1652299, Q1 : 0.998134791851, Q2 : 0.0, Q3 : 0.0, Q4 : -0.0610486753285}
2019-04-03 18:28:27.70: SIM {TimeUS : 63316330, Roll : 0.0, Pitch : 0.0, Yaw : 353.0, Alt : 584.099975586, Lat : -35.363261, Lng : 149.1652299, Q1 : 0.998134791851, Q2 : 0.0, Q3 : 0.0, Q4 : -0.0610486529768}
2019-04-03 18:28:27.80: SIM {TimeUS : 63416290, Roll : 0.0, Pitch : 0.0, Yaw : 353.0, Alt : 584.099975586, Lat : -35.363261, Lng : 149.1652299, Q1 : 0.998134791851, Q2 : 0.0, Q3 : 0.0, Q4 : -0.0610486753285}
2019-04-03 18:28:27.90: SIM {TimeUS : 63516250, Roll : 0.0, Pitch : 0.0, Yaw : 353.0, Alt : 584.119995117, Lat : -35.363261, Lng : 149.1652299, Q1 : 0.998134791851, Q2 : 0.0, Q3 : 0.0, Q4 : -0.0610486753285}
2019-04-03 18:28:28.00: SIM {TimeUS : 63616210, Roll : 0.0, Pitch : 0.0, Yaw : 353.0, Alt : 584.140014648, Lat : -35.363261, Lng : 149.1652299, Q1 : 0.998134791851, Q2 : 0.0, Q3 : 0.0, Q4 : -0.0610486753285}
2019-04-03 18:28:28.09: SIM {TimeUS : 63716170, Roll : 0.0, Pitch : 0.0, Yaw : 353.0, Alt : 584.16998291, Lat : -35.363261, Lng : 149.1652299, Q1 : 0.998134791851, Q2 : 0.0, Q3 : 0.0, Q4 : -0.0610486753285}
2019-04-03 18:28:28.19: SIM {TimeUS : 63816130, Roll : 0.0, Pitch : 0.0, Yaw : 353.0, Alt : 584.210021973, Lat : -35.363261, Lng : 149.1652299, Q1 : 0.998134791851, Q2 : -1.06143438927e-07, Q3 : -9.47699163589e-08, Q4 : -0.0610486753285}
2019-04-03 18:28:28.29: SIM {TimeUS : 63916090, Roll : -0.02, Pitch : 0.0, Yaw : 352.99, Alt : 584.270019531, Lat : -35.363261, Lng : 149.1652299, Q1 : 0.998134732246, Q2 : -0.000179650029168, Q3 : -6.73335889587e-05, Q4 : -0.0610496625304}
2019-04-03 18:28:28.39: SIM {TimeUS : 64016050, Roll : -0.08, Pitch : -0.04, Yaw : 352.99, Alt : 584.380004883, Lat : -35.363261, Lng : 149.1652299, Q1 : 0.998133897781, Q2 : -0.000751268700697, Q3 : -0.000344851985574, Q4 : -0.0610573478043}
2019-04-03 18:28:28.49: SIM {TimeUS : 64116010, Roll : -0.15, Pitch : -0.1, Yaw : 352.99, Alt : 584.530029297, Lat : -35.363261, Lng : 149.1652299, Q1 : 0.998132288456, Q2 : -0.0013881494524, Q3 : -0.000811804900877, Q4 : -0.061069265008}
2019-04-03 18:28:28.59: SIM {TimeUS : 64215970, Roll : -0.18, Pitch : -0.12, Yaw : 352.99, Alt : 584.690002441, Lat : -35.363261, Lng : 149.1652299, Q1 : 0.998130440712, Q2 : -0.00168242619839, Q3 : -0.000991697655991, Q4 : -0.0610889978707}
2019-04-03 18:28:28.69: SIM {TimeUS : 64315930, Roll : -0.15, Pitch : -0.12, Yaw : 352.99, Alt : 584.840026855, Lat : -35.363261, Lng : 149.1652299, Q1 : 0.99812912941, Q2 : -0.00143858010415, Q3 : -0.00103754329029, Q4 : -0.0611155293882}
2019-04-03 18:28:28.79: SIM {TimeUS : 64415890, Roll : -0.11, Pitch : -0.12, Yaw : 352.98, Alt : 584.989990234, Lat : -35.363261, Lng : 149.1652299, Q1 : 0.998128056526, Q2 : -0.00108034606092, Q3 : -0.00104077265132, Q4 : -0.0611411929131}
2019-04-03 18:28:28.89: SIM {TimeUS : 64515850, Roll : -0.06, Pitch : -0.09, Yaw : 352.98, Alt : 585.140014648, Lat : -35.363261, Lng : 149.1652299, Q1 : 0.998126983643, Q2 : -0.000633953663055, Q3 : -0.000816080661025, Q4 : -0.0611676648259}
2019-04-03 18:28:28.99: SIM {TimeUS : 64615810, Roll : -0.01, Pitch : -0.03, Yaw : 352.98, Alt : 585.299987793, Lat : -35.363261, Lng : 149.1652299, Q1 : 0.998125910759, Q2 : -0.000184678923688, Q3 : -0.000329829315888, Q4 : -0.0611925572157}
2019-04-03 18:28:29.09: SIM {TimeUS : 64715770, Roll : 0.01, Pitch : 0.01, Yaw : 352.98, Alt : 585.469970703, Lat : -35.363261, Lng : 149.1652299, Q1 : 0.998124778271, Q2 : 0.000127879538923, Q3 : 0.000137852010084, Q4 : -0.0612122043967}
2019-04-03 18:28:29.19: SIM {TimeUS : 64815730, Roll : 0.0, Pitch : 0.04, Yaw : 352.98, Alt : 585.640014648, Lat : -35.363261, Lng : 149.1652299, Q1 : 0.998124063015, Q2 : 6.04015804129e-05, Q3 : 0.000358844117727, Q4 : -0.0612223707139}
2019-04-03 18:28:29.29: SIM {TimeUS : 64915690, Roll : -0.02, Pitch : 0.03, Yaw : 352.98, Alt : 585.820007324, Lat : -35.363261, Lng : 149.1652298, Q1 : 0.998124241829, Q2 : -0.000212037819438, Q3 : 0.00028162394301, Q4 : -0.0612191446126}
2019-04-03 18:28:29.40: SIM {TimeUS : 65016483, Roll : -0.05, Pitch : 0.02, Yaw : 352.98, Alt : 586.0, Lat : -35.363261, Lng : 149.1652298, Q1 : 0.998124480247, Q2 : -0.000500253052451, Q3 : 0.000226630989346, Q4 : -0.0612146742642}
2019-04-03 18:28:29.50: SIM {TimeUS : 65116443, Roll : -0.06, Pitch : 0.03, Yaw : 352.98, Alt : 586.190002441, Lat : -35.363261, Lng : 149.1652298, Q1 : 0.998124599457, Q2 : -0.000541259068996, Q3 : 0.00036128051579, Q4 : -0.0612117126584}
2019-04-03 18:28:29.60: SIM {TimeUS : 65216403, Roll : -0.04, Pitch : 0.04, Yaw : 352.98, Alt : 586.369995117, Lat : -35.363261, Lng : 149.1652298, Q1 : 0.998125314713, Q2 : -0.000339498743415, Q3 : 0.000424981437391, Q4 : -0.0612020343542}
2019-04-03 18:28:29.70: SIM {TimeUS : 65316363, Roll : -0.02, Pitch : 0.06, Yaw : 352.98, Alt : 586.570007324, Lat : -35.363261, Lng : 149.1652298, Q1 : 0.998125910759, Q2 : -0.000150721039972, Q3 : 0.000537726155017, Q4 : -0.0611914694309}
2019-04-03 18:28:29.80: SIM {TimeUS : 65416323, Roll : -0.01, Pitch : 0.07, Yaw : 352.98, Alt : 586.760009766, Lat : -35.3632609, Lng : 149.1652298, Q1 : 0.998126506805, Q2 : -9.77504168986e-05, Q3 : 0.000703120895196, Q4 : -0.0611806176603}
2019-04-03 18:28:29.90: SIM {TimeUS : 65516283, Roll : -0.03, Pitch : 0.08, Yaw : 352.98, Alt : 586.940002441, Lat : -35.3632609, Lng : 149.1652298, Q1 : 0.998126924038, Q2 : -0.000290829542791, Q3 : 0.000766799261328, Q4 : -0.0611720494926}
2019-04-03 18:28:30.00: SIM {TimeUS : 65616243, Roll : -0.05, Pitch : 0.08, Yaw : 352.98, Alt : 587.109985352, Lat : -35.3632609, Lng : 149.1652298, Q1 : 0.998126983643, Q2 : -0.000436480768258, Q3 : 0.000740583695006, Q4 : -0.0611707605422}
2019-04-03 18:28:30.10: SIM {TimeUS : 65716203, Roll : -0.04, Pitch : 0.05, Yaw : 352.98, Alt : 587.280029297, Lat : -35.3632609, Lng : 149.1652298, Q1 : 0.998126864433, Q2 : -0.000336565717589, Q3 : 0.000502485025208, Q4 : -0.0611758343875}
2019-04-03 18:28:30.19: SIM {TimeUS : 65816163, Roll : -0.01, Pitch : -0.1, Yaw : 352.98, Alt : 587.429992676, Lat : -35.3632609, Lng : 149.1652298, Q1 : 0.998126029968, Q2 : -0.000175896653673, Q3 : -0.000902451109141, Q4 : -0.061185233295}
2019-04-03 18:28:30.29: SIM {TimeUS : 65916123, Roll : 0.03, Pitch : -0.52, Yaw : 352.98, Alt : 587.570007324, Lat : -35.3632609, Lng : 149.1652298, Q1 : 0.998115539551, Q2 : 5.70298398088e-05, Q3 : -0.00456083891913, Q4 : -0.061193395406}
2019-04-03 18:28:30.39: SIM {TimeUS : 66016083, Roll : 0.09, Pitch : -1.22, Yaw : 352.98, Alt : 587.700012207, Lat : -35.3632609, Lng : 149.1652298, Q1 : 0.998068153858, Q2 : 0.000134644811624, Q3 : -0.0107171395794, Q4 : -0.0611977167428}
2019-04-03 18:28:30.49: SIM {TimeUS : 66116043, Roll : 0.14, Pitch : -2.15, Yaw : 352.97, Alt : 587.809997559, Lat : -35.3632609, Lng : 149.1652298, Q1 : 0.997948169708, Q2 : 7.42995252949e-05, Q3 : -0.0188401937485, Q4 : -0.0611923336983}
2019-04-03 18:28:30.59: SIM {TimeUS : 66216003, Roll : 0.18, Pitch : -3.2, Yaw : 352.97, Alt : 587.909973145, Lat : -35.3632608, Lng : 149.1652298, Q1 : 0.99773234129, Q2 : -7.31372419978e-05, Q3 : -0.0280543696135, Q4 : -0.0611808672547}
2019-04-03 18:28:30.69: SIM {TimeUS : 66315963, Roll : 0.25, Pitch : -4.25, Yaw : 352.97, Alt : 588.0, Lat : -35.3632608, Lng : 149.1652298, Q1 : 0.997435390949, Q2 : -3.07408881781e-05, Q3 : -0.0372038595378, Q4 : -0.0611432902515}
2019-04-03 18:28:30.79: SIM {TimeUS : 66415923, Roll : 0.32, Pitch : -5.15, Yaw : 352.97, Alt : 588.08001709, Lat : -35.3632605, Lng : 149.1652298, Q1 : 0.997115433216, Q2 : 9.13665717235e-05, Q3 : -0.0450491532683, Q4 : -0.0610852055252}
2019-04-03 18:28:30.89: SIM {TimeUS : 66515883, Roll : 0.35, Pitch : -5.81, Yaw : 352.97, Alt : 588.150024414, Lat : -35.3632604, Lng : 149.1652297, Q1 : 0.996839821339, Q2 : 6.07629135629e-06, Q3 : -0.0508466772735, Q4 : -0.0610329397023}
2019-04-03 18:28:30.99: SIM {TimeUS : 66615843, Roll : 0.34, Pitch : -6.31, Yaw : 352.97, Alt : 588.210021973, Lat : -35.3632601, Lng : 149.1652297, Q1 : 0.996612429619, Q2 : -0.000347520050127, Q3 : -0.0551626682281, Q4 : -0.060997415334}
2019-04-03 18:28:31.09: SIM {TimeUS : 66715803, Roll : 0.33, Pitch : -6.72, Yaw : 352.97, Alt : 588.260009766, Lat : -35.3632598, Lng : 149.1652297, Q1 : 0.996413111687, Q2 : -0.000710717984475, Q3 : -0.0586849041283, Q4 : -0.0609635747969}
2019-04-03 18:28:31.19: SIM {TimeUS : 66815763, Roll : 0.3, Pitch : -7.07, Yaw : 352.98, Alt : 588.299987793, Lat : -35.3632592, Lng : 149.1652296, Q1 : 0.996226966381, Q2 : -0.00115999975242, Q3 : -0.0617777071893, Q4 : -0.0609427019954}
2019-04-03 18:28:31.29: SIM {TimeUS : 66915723, Roll : 0.28, Pitch : -7.43, Yaw : 352.98, Alt : 588.340026855, Lat : -35.3632587, Lng : 149.1652296, Q1 : 0.99602907896, Q2 : -0.00153343100101, Q3 : -0.064896851778, Q4 : -0.0609277226031}
2019-04-03 18:28:31.39: SIM {TimeUS : 67015683, Roll : 0.28, Pitch : -7.8, Yaw : 352.98, Alt : 588.380004883, Lat : -35.3632582, Lng : 149.1652294, Q1 : 0.99582028389, Q2 : -0.00169711722992, Q3 : -0.0680400133133, Q4 : -0.0609066709876}
2019-04-03 18:28:31.50: SIM {TimeUS : 67116476, Roll : 0.29, Pitch : -8.11, Yaw : 352.97, Alt : 588.409973145, Lat : -35.3632576, Lng : 149.1652294, Q1 : 0.995632648468, Q2 : -0.00172928662505, Q3 : -0.0707485228777, Q4 : -0.0608876049519}
2019-04-03 18:28:31.60: SIM {TimeUS : 67216436, Roll : 0.29, Pitch : -8.33, Yaw : 352.97, Alt : 588.429992676, Lat : -35.3632567, Lng : 149.1652293, Q1 : 0.995489358902, Q2 : -0.00184785912279, Q3 : -0.0727310106158, Q4 : -0.06089059636}
2019-04-03 18:28:31.70: SIM {TimeUS : 67316396, Roll : 0.29, Pitch : -8.5, Yaw : 352.97, Alt : 588.460021973, Lat : -35.363256, Lng : 149.1652293, Q1 : 0.995381891727, Q2 : -0.00201701931655, Q3 : -0.0741759091616, Q4 : -0.0608998015523}
2019-04-03 18:28:31.80: SIM {TimeUS : 67416356, Roll : 0.28, Pitch : -8.63, Yaw : 352.97, Alt : 588.479980469, Lat : -35.363255, Lng : 149.1652293, Q1 : 0.995295286179, Q2 : -0.00216005393304, Q3 : -0.0753184854984, Q4 : -0.0609073080122}
2019-04-03 18:28:31.90: SIM {TimeUS : 67516316, Roll : 0.28, Pitch : -8.74, Yaw : 352.97, Alt : 588.5, Lat : -35.3632542, Lng : 149.1652292, Q1 : 0.99522715807, Q2 : -0.00219405256212, Q3 : -0.0762140974402, Q4 : -0.0609054006636}
2019-04-03 18:28:32.00: SIM {TimeUS : 67616276, Roll : 0.31, Pitch : -8.86, Yaw : 352.97, Alt : 588.520019531, Lat : -35.3632531, Lng : 149.1652291, Q1 : 0.995145022869, Q2 : -0.00198606029153, Q3 : -0.0773131623864, Q4 : -0.0608695223927}
2019-04-03 18:28:32.10: SIM {TimeUS : 67716236, Roll : 0.49, Pitch : -9.08, Yaw : 353.12, Alt : 588.539978027, Lat : -35.363252, Lng : 149.1652289, Q1 : 0.995073139668, Q2 : -0.000465597113362, Q3 : -0.0793294161558, Q4 : -0.0594656541944}
2019-04-03 18:28:32.20: SIM {TimeUS : 67816196, Roll : 0.59, Pitch : -9.43, Yaw : 353.63, Alt : 588.559997559, Lat : -35.3632509, Lng : 149.1652289, Q1 : 0.99508690834, Q2 : 0.000595938006882, Q3 : -0.0823855623603, Q4 : -0.0549025014043}
2019-04-03 18:28:32.29: SIM {TimeUS : 67916156, Roll : 0.51, Pitch : -9.87, Yaw : 354.45, Alt : 588.570007324, Lat : -35.3632497, Lng : 149.1652287, Q1 : 0.995133161545, Q2 : 0.000332639348926, Q3 : -0.0861534252763, Q4 : -0.0478279516101}
2019-04-03 18:28:32.39: SIM {TimeUS : 68016116, Roll : 0.26, Pitch : -10.34, Yaw : 355.4, Alt : 588.590026855, Lat : -35.3632483, Lng : 149.1652286, Q1 : 0.995136022568, Q2 : -0.00133937294595, Q3 : -0.0901504009962, Q4 : -0.0396915376186}
2019-04-03 18:28:32.49: SIM {TimeUS : 68116076, Roll : -0.1, Pitch : -10.8, Yaw : 356.34, Alt : 588.609985352, Lat : -35.363247, Lng : 149.1652284, Q1 : 0.9950491786, Q2 : -0.00390741974115, Q3 : -0.0940679982305, Q4 : -0.0318280160427}
2019-04-03 18:28:32.59: SIM {TimeUS : 68216036, Roll : -0.5, Pitch : -11.23, Yaw : 357.14, Alt : 588.630004883, Lat : -35.3632455, Lng : 149.1652284, Q1 : 0.994870007038, Q2 : -0.00682563474402, Q3 : -0.0977211296558, Q4 : -0.0252529699355}
2019-04-03 18:28:32.69: SIM {TimeUS : 68315996, Roll : -0.84, Pitch : -11.61, Yaw : 357.71, Alt : 588.640014648, Lat : -35.363244, Lng : 149.1652282, Q1 : 0.994625508785, Q2 : -0.00934789795429, Q3 : -0.101043388247, Q4 : -0.0205678213388}
2019-04-03 18:28:32.79: SIM {TimeUS : 68415956, Roll : -1.04, Pitch : -11.97, Yaw : 358.03, Alt : 588.659973145, Lat : -35.3632424, Lng : 149.1652281, Q1 : 0.994338750839, Q2 : -0.0108837615699, Q3 : -0.104152910411, Q4 : -0.0180065333843}
2019-04-03 18:28:32.89: SIM {TimeUS : 68515916, Roll : -1.09, Pitch : -12.31, Yaw : 358.1, Alt : 588.679992676, Lat : -35.3632407, Lng : 149.1652279, Q1 : 0.994032263756, Q2 : -0.0113024516031, Q3 : -0.107080377638, Q4 : -0.0174908097833}
2019-04-03 18:28:32.99: SIM {TimeUS : 68615876, Roll : -1.0, Pitch : -12.64, Yaw : 357.95, Alt : 588.700012207, Lat : -35.3632389, Lng : 149.1652277, Q1 : 0.993700444698, Q2 : -0.010716480203, Q3 : -0.109973400831, Q4 : -0.0187196582556}
2019-04-03 18:28:33.09: SIM {TimeUS : 68715836, Roll : -0.81, Pitch : -13.0, Yaw : 357.64, Alt : 588.719970703, Lat : -35.3632371, Lng : 149.1652274, Q1 : 0.993315756321, Q2 : -0.00938080158085, Q3 : -0.11307310313, Q4 : -0.0212210845202}
2019-04-03 18:28:33.19: SIM {TimeUS : 68815796, Roll : -0.55, Pitch : -13.38, Yaw : 357.24, Alt : 588.739990234, Lat : -35.3632351, Lng : 149.1652273, Q1 : 0.992873549461, Q2 : -0.00762617774308, Q3 : -0.116384156048, Q4 : -0.0244688075036}
2019-04-03 18:28:33.29: SIM {TimeUS : 68915756, Roll : -0.29, Pitch : -13.76, Yaw : 356.8, Alt : 588.760009766, Lat : -35.363233, Lng : 149.165227, Q1 : 0.992396175861, Q2 : -0.00589066836983, Q3 : -0.119723573327, Q4 : -0.0279535166919}
2019-04-03 18:28:33.39: SIM {TimeUS : 69015716, Roll : -0.07, Pitch : -14.14, Yaw : 356.4, Alt : 588.780029297, Lat : -35.363231, Lng : 149.1652268, Q1 : 0.991895198822, Q2 : -0.00452242931351, Q3 : -0.123077534139, Q4 : -0.031231738627}
2019-04-03 18:28:33.49: SIM {TimeUS : 69115676, Roll : 0.08, Pitch : -14.48, Yaw : 356.06, Alt : 588.799987793, Lat : -35.3632288, Lng : 149.1652265, Q1 : 0.991440296173, Q2 : -0.00361608061939, Q3 : -0.126015216112, Q4 : -0.0339590795338}
2019-04-03 18:28:33.60: SIM {TimeUS : 69216469, Roll : 0.17, Pitch : -14.74, Yaw : 355.82, Alt : 588.820007324, Lat : -35.3632264, Lng : 149.1652263, Q1 : 0.991078913212, Q2 : -0.00314541254193, Q3 : -0.128304123878, Q4 : -0.0359277315438}
2019-04-03 18:28:33.70: SIM {TimeUS : 69316429, Roll : 0.22, Pitch : -14.92, Yaw : 355.69, Alt : 588.849975586, Lat : -35.363224, Lng : 149.165226, Q1 : 0.990842521191, Q2 : -0.00297357351519, Q3 : -0.129821583629, Q4 : -0.0369954220951}
2019-04-03 18:28:33.80: SIM {TimeUS : 69416389, Roll : 0.2, Pitch : -15.05, Yaw : 355.66, Alt : 588.869995117, Lat : -35.3632216, Lng : 149.1652259, Q1 : 0.990685880184, Q2 : -0.00316975265741, Q3 : -0.130938664079, Q4 : -0.0372355878353}
2019-04-03 18:28:33.90: SIM {TimeUS : 69516349, Roll : 0.15, Pitch : -15.14, Yaw : 355.72, Alt : 588.900024414, Lat : -35.3632191, Lng : 149.1652255, Q1 : 0.990592956543, Q2 : -0.00357105932198, Q3 : -0.131760507822, Q4 : -0.0367709212005}
2019-04-03 18:28:34.00: SIM {TimeUS : 69616309, Roll : 0.07, Pitch : -15.23, Yaw : 355.84, Alt : 588.91998291, Lat : -35.3632166, Lng : 149.1652254, Q1 : 0.990526616573, Q2 : -0.0041827573441, Q3 : -0.132503315806, Q4 : -0.0358101725578}
2019-04-03 18:28:34.10: SIM {TimeUS : 69716269, Roll : -0.01, Pitch : -15.31, Yaw : 356.0, Alt : 588.950012207, Lat : -35.3632139, Lng : 149.165225, Q1 : 0.990478157997, Q2 : -0.00476491590962, Q3 : -0.133179813623, Q4 : -0.0345461219549}
2019-04-03 18:28:34.20: SIM {TimeUS : 69816229, Roll : -0.09, Pitch : -15.39, Yaw : 356.17, Alt : 588.969970703, Lat : -35.3632111, Lng : 149.1652248, Q1 : 0.990428328514, Q2 : -0.00527577707544, Q3 : -0.13387657702, Q4 : -0.0331804193556}
2019-04-03 18:28:34.29: SIM {TimeUS : 69916189, Roll : -0.16, Pitch : -15.47, Yaw : 356.33, Alt : 589.0, Lat : -35.3632084, Lng : 149.1652245, Q1 : 0.990383923054, Q2 : -0.00575015600771, Q3 : -0.134495690465, Q4 : -0.0318990983069}
2019-04-03 18:28:34.39: SIM {TimeUS : 70016149, Roll : -0.24, Pitch : -15.54, Yaw : 356.46, Alt : 589.020019531, Lat : -35.3632055, Lng : 149.1652243, Q1 : 0.990331470966, Q2 : -0.00625174632296, Q3 : -0.135099694133, Q4 : -0.030863462016}
2019-04-03 18:28:34.49: SIM {TimeUS : 70116109, Roll : -0.3, Pitch : -15.61, Yaw : 356.55, Alt : 589.049987793, Lat : -35.3632026, Lng : 149.165224, Q1 : 0.990266263485, Q2 : -0.00669398298487, Q3 : -0.135716333985, Q4 : -0.0301505848765}
2019-04-03 18:28:34.59: SIM {TimeUS : 70216069, Roll : -0.34, Pitch : -15.68, Yaw : 356.6, Alt : 589.08001709, Lat : -35.3631996, Lng : 149.1652238, Q1 : 0.990195453167, Q2 : -0.00699059758335, Q3 : -0.136297762394, Q4 : -0.0297841634601}
2019-04-03 18:28:34.69: SIM {TimeUS : 70316029, Roll : -0.34, Pitch : -15.73, Yaw : 356.6, Alt : 589.109985352, Lat : -35.3631965, Lng : 149.1652235, Q1 : 0.990132927895, Q2 : -0.00700314296409, Q3 : -0.136761397123, Q4 : -0.0297333262861}
2019-04-03 18:28:34.79: SIM {TimeUS : 70415989, Roll : -0.32, Pitch : -15.79, Yaw : 356.57, Alt : 589.130004883, Lat : -35.3631934, Lng : 149.1652231, Q1 : 0.990062892437, Q2 : -0.00692423526198, Q3 : -0.13721935451, Q4 : -0.0299743562937}
2019-04-03 18:28:34.89: SIM {TimeUS : 70515949, Roll : -0.29, Pitch : -15.86, Yaw : 356.52, Alt : 589.159973145, Lat : -35.3631903, Lng : 149.1652229, Q1 : 0.989965498447, Q2 : -0.0067673586309, Q3 : -0.137827903032, Q4 : -0.0304300785065}
2019-04-03 18:28:34.99: SIM {TimeUS : 70615909, Roll : -0.25, Pitch : -15.94, Yaw : 356.44, Alt : 589.190002441, Lat : -35.3631871, Lng : 149.1652226, Q1 : 0.989848434925, Q2 : -0.00646857591346, Q3 : -0.138553693891, Q4 : -0.0310027636588}
2019-04-03 18:28:35.09: SIM {TimeUS : 70715869, Roll : -0.17, Pitch : -16.01, Yaw : 356.36, Alt : 589.219970703, Lat : -35.3631838, Lng : 149.1652222, Q1 : 0.989741802216, Q2 : -0.00596167566255, Q3 : -0.139201700687, Q4 : -0.031598944217}
2019-04-03 18:28:35.19: SIM {TimeUS : 70815829, Roll : -0.1, Pitch : -16.08, Yaw : 356.29, Alt : 589.25, Lat : -35.3631806, Lng : 149.1652219, Q1 : 0.989642739296, Q2 : -0.00542357051745, Q3 : -0.139798209071, Q4 : -0.0321615003049}
2019-04-03 18:28:35.29: SIM {TimeUS : 70915789, Roll : -0.04, Pitch : -16.13, Yaw : 356.22, Alt : 589.280029297, Lat : -35.3631772, Lng : 149.1652216, Q1 : 0.989565849304, Q2 : -0.00502212252468, Q3 : -0.140243768692, Q4 : -0.0326484441757}
2019-04-03 18:28:35.39: SIM {TimeUS : 71015749, Roll : -0.03, Pitch : -16.16, Yaw : 356.17, Alt : 589.299987793, Lat : -35.3631739, Lng : 149.1652212, Q1 : 0.989521026611, Q2 : -0.0049640997313, Q3 : -0.140468761325, Q4 : -0.0330467447639}
2019-04-03 18:28:35.49: SIM {TimeUS : 71115709, Roll : -0.04, Pitch : -16.17, Yaw : 356.14, Alt : 589.33001709, Lat : -35.3631704, Lng : 149.165221, Q1 : 0.98949098587, Q2 : -0.00513580488041, Q3 : -0.140609487891, Q4 : -0.0333210937679}
2019-04-03 18:28:35.59: SIM {TimeUS : 71215669, Roll : -0.07, Pitch : -16.19, Yaw : 356.13, Alt : 589.359985352, Lat : -35.3631671, Lng : 149.1652207, Q1 : 0.989466190338, Q2 : -0.00541181722656, Q3 : -0.140738368034, Q4 : -0.0334685109556}
2019-04-03 18:28:35.70: SIM {TimeUS : 71316462, Roll : -0.09, Pitch : -16.22, Yaw : 356.13, Alt : 589.390014648, Lat : -35.3631636, Lng : 149.1652202, Q1 : 0.989432275295, Q2 : -0.00553557742387, Q3 : -0.140973910689, Q4 : -0.0334591157734}
2019-04-03 18:28:35.80: SIM {TimeUS : 71416422, Roll : -0.1, Pitch : -16.27, Yaw : 356.15, Alt : 589.41998291, Lat : -35.3631601, Lng : 149.16522, Q1 : 0.989367187023, Q2 : -0.00565811572596, Q3 : -0.141451105475, Q4 : -0.0333505049348}
2019-04-03 18:28:35.90: SIM {TimeUS : 71516382, Roll : -0.14, Pitch : -16.34, Yaw : 356.17, Alt : 589.450012207, Lat : -35.3631564, Lng : 149.1652197, Q1 : 0.9892821908, Q2 : -0.00600752281025, Q3 : -0.142058864236, Q4 : -0.0332256704569}
2019-04-03 18:28:36.00: SIM {TimeUS : 71616342, Roll : -0.19, Pitch : -16.4, Yaw : 356.19, Alt : 589.479980469, Lat : -35.3631529, Lng : 149.1652193, Q1 : 0.989211440086, Q2 : -0.00641870638356, Q3 : -0.142560020089, Q4 : -0.0331082269549}
2019-04-03 18:28:36.10: SIM {TimeUS : 71716302, Roll : -0.21, Pitch : -16.43, Yaw : 356.21, Alt : 589.5, Lat : -35.3631494, Lng : 149.1652189, Q1 : 0.989176571369, Q2 : -0.00658168690279, Q3 : -0.14282348752, Q4 : -0.0329824350774}
2019-04-03 18:28:36.20: SIM {TimeUS : 71816262, Roll : -0.2, Pitch : -16.45, Yaw : 356.22, Alt : 589.530029297, Lat : -35.3631456, Lng : 149.1652187, Q1 : 0.989154756069, Q2 : -0.00648213364184, Q3 : -0.143004342914, Q4 : -0.0328727029264}
2019-04-03 18:28:36.30: SIM {TimeUS : 71916222, Roll : -0.18, Pitch : -16.46, Yaw : 356.22, Alt : 589.559997559, Lat : -35.3631421, Lng : 149.1652183, Q1 : 0.989150285721, Q2 : -0.00633672764525, Q3 : -0.143057286739, Q4 : -0.0328062586486}
2019-04-03 18:28:36.39: SIM {TimeUS : 72016182, Roll : -0.17, Pitch : -16.46, Yaw : 356.22, Alt : 589.590026855, Lat : -35.3631383, Lng : 149.1652179, Q1 : 0.989153981209, Q2 : -0.00624193670228, Q3 : -0.14303278923, Q4 : -0.0328181646764}
2019-04-03 18:28:36.49: SIM {TimeUS : 72116142, Roll : -0.15, Pitch : -16.46, Yaw : 356.21, Alt : 589.619995117, Lat : -35.3631346, Lng : 149.1652177, Q1 : 0.989141821861, Q2 : -0.0060828444548, Q3 : -0.143107503653, Q4 : -0.0328901931643}
2019-04-03 18:28:36.59: SIM {TimeUS : 72216102, Roll : -0.13, Pitch : -16.5, Yaw : 356.19, Alt : 589.650024414, Lat : -35.3631309, Lng : 149.1652173, Q1 : 0.989092826843, Q2 : -0.00592011399567, Q3 : -0.143425151706, Q4 : -0.0330101363361}
2019-04-03 18:28:36.69: SIM {TimeUS : 72316062, Roll : -0.11, Pitch : -16.55, Yaw : 356.17, Alt : 589.679992676, Lat : -35.3631272, Lng : 149.1652169, Q1 : 0.989030361176, Q2 : -0.00576519686729, Q3 : -0.143827348948, Q4 : -0.033157993108}
2019-04-03 18:28:36.79: SIM {TimeUS : 72416022, Roll : -0.08, Pitch : -16.6, Yaw : 356.15, Alt : 589.700012207, Lat : -35.3631235, Lng : 149.1652165, Q1 : 0.988961160183, Q2 : -0.00561974290758, Q3 : -0.144273251295, Q4 : -0.0333100520074}
2019-04-03 18:28:36.89: SIM {TimeUS : 72515982, Roll : -0.07, Pitch : -16.64, Yaw : 356.13, Alt : 589.729980469, Lat : -35.3631197, Lng : 149.1652163, Q1 : 0.988901853561, Q2 : -0.00552385859191, Q3 : -0.14464507997, Q4 : -0.0334728658199}
2019-04-03 18:28:36.99: SIM {TimeUS : 72615942, Roll : -0.06, Pitch : -16.71, Yaw : 356.11, Alt : 589.760009766, Lat : -35.3631158, Lng : 149.1652159, Q1 : 0.988813698292, Q2 : -0.00550141651183, Q3 : -0.145209521055, Q4 : -0.0336369685829}
2019-04-03 18:28:37.09: SIM {TimeUS : 72715902, Roll : -0.06, Pitch : -16.76, Yaw : 356.09, Alt : 589.789978027, Lat : -35.363112, Lng : 149.1652155, Q1 : 0.988735079765, Q2 : -0.00550420209765, Q3 : -0.145710259676, Q4 : -0.0337810404599}
2019-04-03 18:28:37.19: SIM {TimeUS : 72815862, Roll : -0.06, Pitch : -16.79, Yaw : 356.08, Alt : 589.820007324, Lat : -35.3631082, Lng : 149.1652152, Q1 : 0.988702595234, Q2 : -0.00554173765704, Q3 : -0.145898714662, Q4 : -0.0339123643935}
2019-04-03 18:28:37.29: SIM {TimeUS : 72915822, Roll : -0.06, Pitch : -16.79, Yaw : 356.06, Alt : 589.849975586, Lat : -35.3631042, Lng : 149.1652149, Q1 : 0.988699197769, Q2 : -0.0055940784514, Q3 : -0.145891830325, Q4 : -0.0340327769518}
2019-04-03 18:28:37.39: SIM {TimeUS : 73015782, Roll : -0.06, Pitch : -16.79, Yaw : 356.05, Alt : 589.869995117, Lat : -35.3631005, Lng : 149.1652145, Q1 : 0.988689899445, Q2 : -0.0055629434064, Q3 : -0.145932674408, Q4 : -0.0341322794557}
2019-04-03 18:28:37.49: SIM {TimeUS : 73115742, Roll : -0.04, Pitch : -16.81, Yaw : 356.04, Alt : 589.900024414, Lat : -35.3630966, Lng : 149.1652141, Q1 : 0.988659381866, Q2 : -0.00544459884986, Q3 : -0.146127313375, Q4 : -0.0342025384307}
2019-04-03 18:28:37.59: SIM {TimeUS : 73215702, Roll : -0.02, Pitch : -16.86, Yaw : 356.03, Alt : 589.929992676, Lat : -35.3630926, Lng : 149.1652138, Q1 : 0.988593935966, Q2 : -0.00531257176772, Q3 : -0.146562606096, Q4 : -0.0342525728047}
2019-04-03 18:28:37.69: SIM {TimeUS : 73315662, Roll : -0.02, Pitch : -16.91, Yaw : 356.02, Alt : 589.960021973, Lat : -35.3630887, Lng : 149.1652134, Q1 : 0.988534212112, Q2 : -0.00533438567072, Q3 : -0.14694930613, Q4 : -0.0343159288168}
2019-04-03 18:28:37.80: SIM {TimeUS : 73416455, Roll : -0.05, Pitch : -16.94, Yaw : 356.02, Alt : 589.989990234, Lat : -35.3630847, Lng : 149.1652131, Q1 : 0.988494575024, Q2 : -0.00557424407452, Q3 : -0.147187396884, Q4 : -0.0343995317817}
2019-04-03 18:28:37.90: SIM {TimeUS : 73516415, Roll : -0.08, Pitch : -16.95, Yaw : 356.01, Alt : 590.020019531, Lat : -35.3630808, Lng : 149.1652126, Q1 : 0.988477826118, Q2 : -0.00582469487563, Q3 : -0.14727139473, Q4 : -0.034478481859}
2019-04-03 18:28:38.00: SIM {TimeUS : 73616375, Roll : -0.09, Pitch : -16.95, Yaw : 356.01, Alt : 590.049987793, Lat : -35.3630768, Lng : 149.1652124, Q1 : 0.988475620747, Q2 : -0.00592588121071, Q3 : -0.147266000509, Q4 : -0.0345476716757}
2019-04-03 18:28:38.10: SIM {TimeUS : 73716335, Roll : -0.06, Pitch : -16.94, Yaw : 356.0, Alt : 590.070007324, Lat : -35.3630728, Lng : 149.165212, Q1 : 0.988477230072, Q2 : -0.00569098349661, Q3 : -0.147256880999, Q4 : -0.0345806032419}
2019-04-03 18:28:38.20: SIM {TimeUS : 73816295, Roll : -0.03, Pitch : -16.96, Yaw : 355.99, Alt : 590.099975586, Lat : -35.3630688, Lng : 149.1652116, Q1 : 0.988458395004, Q2 : -0.00543715571985, Q3 : -0.147386267781, Q4 : -0.0346092432737}
2019-04-03 18:28:38.30: SIM {TimeUS : 73916255, Roll : -0.01, Pitch : -17.0, Yaw : 355.98, Alt : 590.130004883, Lat : -35.3630647, Lng : 149.1652112, Q1 : 0.988402187824, Q2 : -0.00533596239984, Q3 : -0.147752568126, Q4 : -0.0346680618823}
2019-04-03 18:28:38.40: SIM {TimeUS : 74016215, Roll : 0.0, Pitch : -17.05, Yaw : 355.97, Alt : 590.159973145, Lat : -35.3630608, Lng : 149.1652109, Q1 : 0.988334417343, Q2 : -0.00528515130281, Q3 : -0.148190632463, Q4 : -0.0347379669547}
2019-04-03 18:28:38.49: SIM {TimeUS : 74116175, Roll : -0.01, Pitch : -17.08, Yaw : 355.96, Alt : 590.190002441, Lat : -35.3630567, Lng : 149.1652105, Q1 : 0.988286077976, Q2 : -0.00532727409154, Q3 : -0.148488208652, Q4 : -0.0348358936608}
2019-04-03 18:28:38.59: SIM {TimeUS : 74216135, Roll : -0.01, Pitch : -17.11, Yaw : 355.95, Alt : 590.219970703, Lat : -35.3630527, Lng : 149.1652101, Q1 : 0.988249838352, Q2 : -0.00539449509233, Q3 : -0.148700594902, Q4 : -0.0349482409656}
2019-04-03 18:28:38.69: SIM {TimeUS : 74316095, Roll : -0.01, Pitch : -17.14, Yaw : 355.93, Alt : 590.25, Lat : -35.3630487, Lng : 149.1652097, Q1 : 0.988206744194, Q2 : -0.00543106161058, Q3 : -0.148958861828, Q4 : -0.0350603610277}
2019-04-03 18:28:38.79: SIM {TimeUS : 74416055, Roll : 0.0, Pitch : -17.16, Yaw : 355.92, Alt : 590.270019531, Lat : -35.3630445, Lng : 149.1652093, Q1 : 0.988178670406, Q2 : -0.00532853323966, Q3 : -0.149126276374, Q4 : -0.0351552180946}
2019-04-03 18:28:38.89: SIM {TimeUS : 74516015, Roll : 0.01, Pitch : -17.17, Yaw : 355.91, Alt : 590.299987793, Lat : -35.3630404, Lng : 149.165209, Q1 : 0.98815792799, Q2 : -0.00518978899345, Q3 : -0.149247586727, Q4 : -0.035244371742}
2019-04-03 18:28:38.99: SIM {TimeUS : 74615975, Roll : 0.03, Pitch : -17.2, Yaw : 355.89, Alt : 590.33001709, Lat : -35.3630365, Lng : 149.1652087, Q1 : 0.988117575645, Q2 : -0.00509032560512, Q3 : -0.14949695766, Q4 : -0.0353336036205}
2019-04-03 18:28:39.09: SIM {TimeUS : 74715935, Roll : 0.04, Pitch : -17.25, Yaw : 355.88, Alt : 590.359985352, Lat : -35.3630324, Lng : 149.1652083, Q1 : 0.988047242165, Q2 : -0.00496938638389, Q3 : -0.149948850274, Q4 : -0.0354023352265}
2019-04-03 18:28:39.19: SIM {TimeUS : 74815895, Roll : 0.04, Pitch : -17.3, Yaw : 355.87, Alt : 590.390014648, Lat : -35.3630282, Lng : 149.1652078, Q1 : 0.987978279591, Q2 : -0.00502749346197, Q3 : -0.150379002094, Q4 : -0.0354952327907}
2019-04-03 18:28:39.29: SIM {TimeUS : 74915855, Roll : 0.01, Pitch : -17.33, Yaw : 355.86, Alt : 590.41998291, Lat : -35.3630242, Lng : 149.1652074, Q1 : 0.987941741943, Q2 : -0.00530079798773, Q3 : -0.150579452515, Q4 : -0.0356209948659}
2019-04-03 18:28:39.39: SIM {TimeUS : 75015815, Roll : -0.02, Pitch : -17.34, Yaw : 355.85, Alt : 590.440002441, Lat : -35.36302, Lng : 149.1652072, Q1 : 0.987915098667, Q2 : -0.00563135510311, Q3 : -0.15071003139, Q4 : -0.0357565619051}
2019-04-03 18:28:39.49: SIM {TimeUS : 75115775, Roll : -0.03, Pitch : -17.34, Yaw : 355.84, Alt : 590.469970703, Lat : -35.3630159, Lng : 149.1652068, Q1 : 0.987910091877, Q2 : -0.00577924633399, Q3 : -0.150709137321, Q4 : -0.035874824971}
2019-04-03 18:28:39.59: SIM {TimeUS : 75215735, Roll : -0.02, Pitch : -17.36, Yaw : 355.83, Alt : 590.5, Lat : -35.3630117, Lng : 149.1652064, Q1 : 0.987883746624, Q2 : -0.00569916050881, Q3 : -0.150864943862, Q4 : -0.0359595790505}
2019-04-03 18:28:39.69: SIM {TimeUS : 75315695, Roll : -0.01, Pitch : -17.39, Yaw : 355.82, Alt : 590.530029297, Lat : -35.3630075, Lng : 149.1652059, Q1 : 0.987847924232, Q2 : -0.00566049711779, Q3 : -0.151079311967, Q4 : -0.0360494181514}
2019-04-03 18:28:39.80: SIM {TimeUS : 75416488, Roll : -0.01, Pitch : -17.41, Yaw : 355.81, Alt : 590.559997559, Lat : -35.3630033, Lng : 149.1652057, Q1 : 0.987808287144, Q2 : -0.00562274828553, Q3 : -0.15131752193, Q4 : -0.0361407250166}
2019-04-03 18:28:39.90: SIM {TimeUS : 75516448, Roll : 0.0, Pitch : -17.41, Yaw : 355.79, Alt : 590.590026855, Lat : -35.3629993, Lng : 149.1652053, Q1 : 0.987810492516, Q2 : -0.00550461234525, Q3 : -0.15128532052, Q4 : -0.0362350717187}
2019-04-03 18:28:40.00: SIM {TimeUS : 75616408, Roll : 0.01, Pitch : -17.41, Yaw : 355.78, Alt : 590.619995117, Lat : -35.3629951, Lng : 149.1652049, Q1 : 0.98779964447, Q2 : -0.00540913781151, Q3 : -0.151335477829, Q4 : -0.0363338440657}
2019-04-03 18:28:40.10: SIM {TimeUS : 75716368, Roll : 0.03, Pitch : -17.43, Yaw : 355.77, Alt : 590.640014648, Lat : -35.3629909, Lng : 149.1652044, Q1 : 0.987774848938, Q2 : -0.00533193675801, Q3 : -0.151477217674, Q4 : -0.0364299975336}
2019-04-03 18:28:40.20: SIM {TimeUS : 75816328, Roll : 0.02, Pitch : -17.45, Yaw : 355.75, Alt : 590.66998291, Lat : -35.3629867, Lng : 149.165204, Q1 : 0.987748146057, Q2 : -0.00538213411346, Q3 : -0.151623174548, Q4 : -0.0365382879972}
2019-04-03 18:28:40.30: SIM {TimeUS : 75916288, Roll : 0.0, Pitch : -17.49, Yaw : 355.74, Alt : 590.700012207, Lat : -35.3629825, Lng : 149.1652038, Q1 : 0.987690627575, Q2 : -0.0056541794911, Q3 : -0.15195453167, Q4 : -0.0366751588881}
2019-04-03 18:28:40.40: SIM {TimeUS : 76016248, Roll : -0.04, Pitch : -17.52, Yaw : 355.73, Alt : 590.729980469, Lat : -35.3629783, Lng : 149.1652034, Q1 : 0.987638354301, Q2 : -0.00602197134867, Q3 : -0.152243882418, Q4 : -0.0368237420917}
2019-04-03 18:28:40.50: SIM {TimeUS : 76116208, Roll : -0.07, Pitch : -17.55, Yaw : 355.72, Alt : 590.760009766, Lat : -35.362974, Lng : 149.165203, Q1 : 0.987600982189, Q2 : -0.00630866922438, Q3 : -0.152442246675, Q4 : -0.0369581244886}
2019-04-03 18:28:40.59: SIM {TimeUS : 76216168, Roll : -0.07, Pitch : -17.56, Yaw : 355.71, Alt : 590.789978027, Lat : -35.3629698, Lng : 149.1652025, Q1 : 0.987573564053, Q2 : -0.00636789016426, Q3 : -0.1525952667, Q4 : -0.0370492450893}
2019-04-03 18:28:40.69: SIM {TimeUS : 76316128, Roll : -0.05, Pitch : -17.56, Yaw : 355.7, Alt : 590.820007324, Lat : -35.3629656, Lng : 149.1652021, Q1 : 0.987571656704, Q2 : -0.00620557693765, Q3 : -0.152599811554, Q4 : -0.0371080487967}
2019-04-03 18:28:40.79: SIM {TimeUS : 76416088, Roll : -0.03, Pitch : -17.57, Yaw : 355.69, Alt : 590.840026855, Lat : -35.3629613, Lng : 149.1652018, Q1 : 0.98756891489, Q2 : -0.00600109761581, Q3 : -0.152612358332, Q4 : -0.0371636152267}
2019-04-03 18:28:40.89: SIM {TimeUS : 76516048, Roll : -0.01, Pitch : -17.57, Yaw : 355.68, Alt : 590.869995117, Lat : -35.3629571, Lng : 149.1652014, Q1 : 0.987558603287, Q2 : -0.0058933342807, Q3 : -0.152666866779, Q4 : -0.0372311882675}
2019-04-03 18:28:40.99: SIM {TimeUS : 76616008, Roll : -0.01, Pitch : -17.59, Yaw : 355.67, Alt : 590.900024414, Lat : -35.3629528, Lng : 149.1652011, Q1 : 0.98753374815, Q2 : -0.0059193847701, Q3 : -0.152805611491, Q4 : -0.0373160839081}
2019-04-03 18:28:41.09: SIM {TimeUS : 76715968, Roll : -0.02, Pitch : -17.6, Yaw : 355.66, Alt : 590.929992676, Lat : -35.3629486, Lng : 149.1652006, Q1 : 0.987519681454, Q2 : -0.00602901820093, Q3 : -0.152867808938, Q4 : -0.0374156460166}
2019-04-03 18:28:41.19: SIM {TimeUS : 76815928, Roll : -0.03, Pitch : -17.61, Yaw : 355.65, Alt : 590.960021973, Lat : -35.3629443, Lng : 149.1652002, Q1 : 0.987500429153, Q2 : -0.00610626162961, Q3 : -0.152966186404, Q4 : -0.03750988096}
2019-04-03 18:28:41.29: SIM {TimeUS : 76915888, Roll : -0.01, Pitch : -17.64, Yaw : 355.64, Alt : 590.989990234, Lat : -35.3629402, Lng : 149.1651999, Q1 : 0.9874548316, Q2 : -0.00597741222009, Q3 : -0.153251394629, Q4 : -0.0375661961734}
2019-04-03 18:28:41.39: SIM {TimeUS : 77015848, Roll : 0.02, Pitch : -17.67, Yaw : 355.63, Alt : 591.020019531, Lat : -35.3629358, Lng : 149.1651995, Q1 : 0.987407743931, Q2 : -0.00563490809873, Q3 : -0.153562411666, Q4 : -0.0375878326595}
2019-04-03 18:28:41.49: SIM {TimeUS : 77115808, Roll : 0.06, Pitch : -17.68, Yaw : 355.62, Alt : 591.039978027, Lat : -35.3629315, Lng : 149.1651991, Q1 : 0.987402796745, Q2 : -0.00528046954423, Q3 : -0.153602480888, Q4 : -0.0376047864556}
2019-04-03 18:28:41.59: SIM {TimeUS : 77215768, Roll : 0.09, Pitch : -17.66, Yaw : 355.61, Alt : 591.070007324, Lat : -35.3629273, Lng : 149.1651987, Q1 : 0.987428963184, Q2 : -0.00505458749831, Q3 : -0.153434365988, Q4 : -0.037635192275}
2019-04-03 18:28:41.69: SIM {TimeUS : 77315728, Roll : 0.1, Pitch : -17.64, Yaw : 355.61, Alt : 591.099975586, Lat : -35.362923, Lng : 149.1651982, Q1 : 0.987453043461, Q2 : -0.0049633551389, Q3 : -0.153273537755, Q4 : -0.0376703701913}
2019-04-03 18:28:41.79: SIM {TimeUS : 77415688, Roll : 0.08, Pitch : -17.66, Yaw : 355.61, Alt : 591.130004883, Lat : -35.3629187, Lng : 149.1651978, Q1 : 0.987426042557, Q2 : -0.00514238746837, Q3 : -0.153426796198, Q4 : -0.0377313420177}
2019-04-03 18:28:41.90: SIM {TimeUS : 77516481, Roll : 0.06, Pitch : -17.71, Yaw : 355.6, Alt : 591.159973145, Lat : -35.3629144, Lng : 149.1651975, Q1 : 0.987351000309, Q2 : -0.00537208002061, Q3 : -0.153889492154, Q4 : -0.0377775579691}
2019-04-03 18:28:42.00: SIM {TimeUS : 77616441, Roll : 0.03, Pitch : -17.77, Yaw : 355.6, Alt : 591.190002441, Lat : -35.3629102, Lng : 149.1651971, Q1 : 0.987273395061, Q2 : -0.00557662593201, Q3 : -0.154369920492, Q4 : -0.0378159359097}
2019-04-03 18:28:42.10: SIM {TimeUS : 77716401, Roll : 0.03, Pitch : -17.79, Yaw : 355.6, Alt : 591.219970703, Lat : -35.3629059, Lng : 149.1651967, Q1 : 0.987244963646, Q2 : -0.00564600806683, Q3 : -0.154542505741, Q4 : -0.0378431864083}
2019-04-03 18:28:42.20: SIM {TimeUS : 77816361, Roll : 0.02, Pitch : -17.78, Yaw : 355.59, Alt : 591.239990234, Lat : -35.3629016, Lng : 149.1651963, Q1 : 0.987253069878, Q2 : -0.00574311986566, Q3 : -0.154473036528, Q4 : -0.0379010923207}
2019-04-03 18:28:42.30: SIM {TimeUS : 77916321, Roll : 0.0, Pitch : -17.75, Yaw : 355.59, Alt : 591.270019531, Lat : -35.3628973, Lng : 149.1651958, Q1 : 0.987293601036, Q2 : -0.00585493352264, Q3 : -0.154189601541, Q4 : -0.0379820093513}
2019-04-03 18:28:42.40: SIM {TimeUS : 78016281, Roll : 0.0, Pitch : -17.72, Yaw : 355.58, Alt : 591.299987793, Lat : -35.3628929, Lng : 149.1651954, Q1 : 0.987329661846, Q2 : -0.00591026851907, Q3 : -0.153936758637, Q4 : -0.0380617305636}
2019-04-03 18:28:42.50: SIM {TimeUS : 78116241, Roll : 0.01, Pitch : -17.7, Yaw : 355.57, Alt : 591.33001709, Lat : -35.3628886, Lng : 149.1651951, Q1 : 0.987355291843, Q2 : -0.00577684631571, Q3 : -0.153764843941, Q4 : -0.0381132140756}
2019-04-03 18:28:42.60: SIM {TimeUS : 78216201, Roll : 0.04, Pitch : -17.69, Yaw : 355.56, Alt : 591.359985352, Lat : -35.3628843, Lng : 149.1651947, Q1 : 0.98736846447, Q2 : -0.00560200400651, Q3 : -0.153674602509, Q4 : -0.0381608009338}
2019-04-03 18:28:42.69: SIM {TimeUS : 78316161, Roll : 0.04, Pitch : -17.69, Yaw : 355.55, Alt : 591.390014648, Lat : -35.3628799, Lng : 149.1651943, Q1 : 0.987367868423, Q2 : -0.00553557276726, Q3 : -0.153665363789, Q4 : -0.0382231809199}
2019-04-03 18:28:42.79: SIM {TimeUS : 78416121, Roll : 0.04, Pitch : -17.71, Yaw : 355.55, Alt : 591.41998291, Lat : -35.3628755, Lng : 149.1651939, Q1 : 0.987335205078, Q2 : -0.00557184126228, Q3 : -0.153856933117, Q4 : -0.0382912307978}
2019-04-03 18:28:42.89: SIM {TimeUS : 78516081, Roll : 0.01, Pitch : -17.74, Yaw : 355.54, Alt : 591.440002441, Lat : -35.3628713, Lng : 149.1651934, Q1 : 0.987294197083, Q2 : -0.00583753176033, Q3 : -0.154086962342, Q4 : -0.0383844338357}
2019-04-03 18:28:42.99: SIM {TimeUS : 78616041, Roll : 0.0, Pitch : -17.76, Yaw : 355.53, Alt : 591.469970703, Lat : -35.362867, Lng : 149.165193, Q1 : 0.987264156342, Q2 : -0.00609239935875, Q3 : -0.154247000813, Q4 : -0.0384740047157}
2019-04-03 18:28:43.09: SIM {TimeUS : 78716001, Roll : -0.04, Pitch : -17.76, Yaw : 355.53, Alt : 591.5, Lat : -35.3628626, Lng : 149.1651927, Q1 : 0.987252116203, Q2 : -0.0063816732727, Q3 : -0.15428686142, Q4 : -0.0385760627687}
2019-04-03 18:28:43.19: SIM {TimeUS : 78815961, Roll : -0.06, Pitch : -17.78, Yaw : 355.52, Alt : 591.530029297, Lat : -35.3628583, Lng : 149.1651923, Q1 : 0.987223386765, Q2 : -0.00658302986994, Q3 : -0.15443970263, Q4 : -0.0386662781239}
2019-04-03 18:28:43.29: SIM {TimeUS : 78915921, Roll : -0.06, Pitch : -17.81, Yaw : 355.51, Alt : 591.559997559, Lat : -35.362854, Lng : 149.1651919, Q1 : 0.987179458141, Q2 : -0.00658490555361, Q3 : -0.154706344008, Q4 : -0.03872115165}
2019-04-03 18:28:43.39: SIM {TimeUS : 79015881, Roll : -0.04, Pitch : -17.83, Yaw : 355.5, Alt : 591.590026855, Lat : -35.3628495, Lng : 149.1651915, Q1 : 0.987155854702, Q2 : -0.00646706251428, Q3 : -0.15484970808, Q4 : -0.0387691967189}
2019-04-03 18:28:43.49: SIM {TimeUS : 79115841, Roll : -0.02, Pitch : -17.83, Yaw : 355.5, Alt : 591.619995117, Lat : -35.3628452, Lng : 149.165191, Q1 : 0.987144768238, Q2 : -0.00630128895864, Q3 : -0.154916748405, Q4 : -0.0388107672334}
2019-04-03 18:28:43.59: SIM {TimeUS : 79215801, Roll : 0.01, Pitch : -17.85, Yaw : 355.49, Alt : 591.640014648, Lat : -35.3628409, Lng : 149.1651906, Q1 : 0.98712426424, Q2 : -0.00601217383519, Q3 : -0.155053824186, Q4 : -0.0388306342065}
2019-04-03 18:28:43.69: SIM {TimeUS : 79315761, Roll : 0.04, Pitch : -17.86, Yaw : 355.48, Alt : 591.66998291, Lat : -35.3628365, Lng : 149.1651903, Q1 : 0.987112164497, Q2 : -0.00573233608156, Q3 : -0.155136182904, Q4 : -0.0388527624309}
2019-04-03 18:28:43.79: SIM {TimeUS : 79415721, Roll : 0.06, Pitch : -17.86, Yaw : 355.47, Alt : 591.700012207, Lat : -35.3628322, Lng : 149.1651898, Q1 : 0.987111508846, Q2 : -0.00559752248228, Q3 : -0.155134081841, Q4 : -0.0388978645205}
2019-04-03 18:28:43.89: SIM {TimeUS : 79515681, Roll : 0.04, Pitch : -17.84, Yaw : 355.47, Alt : 591.729980469, Lat : -35.3628278, Lng : 149.1651894, Q1 : 0.987124145031, Q2 : -0.0057084299624, Q3 : -0.155029967427, Q4 : -0.0389748923481}
2019-04-03 18:28:44.00: SIM {TimeUS : 79616474, Roll : 0.03, Pitch : -17.85, Yaw : 355.46, Alt : 591.760009766, Lat : -35.3628233, Lng : 149.165189, Q1 : 0.987118601799, Q2 : -0.00582976220176, Q3 : -0.155044868588, Q4 : -0.039038695395}
2019-04-03 18:28:44.10: SIM {TimeUS : 79716434, Roll : 0.03, Pitch : -17.87, Yaw : 355.45, Alt : 591.789978027, Lat : -35.362819, Lng : 149.1651886, Q1 : 0.98707985878, Q2 : -0.00582259008661, Q3 : -0.15528228879, Q4 : -0.0390758104622}
2019-04-03 18:28:44.20: SIM {TimeUS : 79816394, Roll : 0.04, Pitch : -17.89, Yaw : 355.45, Alt : 591.820007324, Lat : -35.3628147, Lng : 149.1651882, Q1 : 0.987052202225, Q2 : -0.00580393383279, Q3 : -0.155450135469, Q4 : -0.0391095727682}
2019-04-03 18:28:44.30: SIM {TimeUS : 79916354, Roll : 0.02, Pitch : -17.9, Yaw : 355.45, Alt : 591.840026855, Lat : -35.3628103, Lng : 149.1651877, Q1 : 0.98704457283, Q2 : -0.0059450562112, Q3 : -0.155479937792, Q4 : -0.0391616784036}
2019-04-03 18:28:44.40: SIM {TimeUS : 80016314, Roll : 0.0, Pitch : -17.89, Yaw : 355.44, Alt : 591.869995117, Lat : -35.3628059, Lng : 149.1651873, Q1 : 0.987057328224, Q2 : -0.00609992165118, Q3 : -0.155380114913, Q4 : -0.0392134599388}
2019-04-03 18:28:44.50: SIM {TimeUS : 80116274, Roll : 0.01, Pitch : -17.87, Yaw : 355.44, Alt : 591.900024414, Lat : -35.3628014, Lng : 149.165187, Q1 : 0.987073898315, Q2 : -0.00607369141653, Q3 : -0.1552708745, Q4 : -0.0392329990864}
2019-04-03 18:28:44.60: SIM {TimeUS : 80216234, Roll : 0.03, Pitch : -17.86, Yaw : 355.44, Alt : 591.929992676, Lat : -35.3627971, Lng : 149.1651866, Q1 : 0.987095177174, Q2 : -0.00584446219727, Q3 : -0.155144840479, Q4 : -0.039230376482}
2019-04-03 18:28:44.70: SIM {TimeUS : 80316194, Roll : 0.06, Pitch : -17.87, Yaw : 355.43, Alt : 591.960021973, Lat : -35.3627927, Lng : 149.1651862, Q1 : 0.987084805965, Q2 : -0.00564445834607, Q3 : -0.155216813087, Q4 : -0.0392367430031}
2019-04-03 18:28:44.79: SIM {TimeUS : 80416154, Roll : 0.05, Pitch : -17.89, Yaw : 355.43, Alt : 591.989990234, Lat : -35.3627884, Lng : 149.1651857, Q1 : 0.987047314644, Q2 : -0.00572537491098, Q3 : -0.155439078808, Q4 : -0.0392887182534}
2019-04-03 18:28:44.89: SIM {TimeUS : 80516114, Roll : 0.05, Pitch : -17.93, Yaw : 355.42, Alt : 592.020019531, Lat : -35.362784, Lng : 149.1651853, Q1 : 0.98698669672, Q2 : -0.0057856393978, Q3 : -0.155809596181, Q4 : -0.0393335707486}
2019-04-03 18:28:44.99: SIM {TimeUS : 80616074, Roll : 0.05, Pitch : -17.96, Yaw : 355.42, Alt : 592.049987793, Lat : -35.3627795, Lng : 149.1651848, Q1 : 0.986945092678, Q2 : -0.00578740146011, Q3 : -0.156064063311, Q4 : -0.039369020611}
2019-04-03 18:28:45.09: SIM {TimeUS : 80716034, Roll : 0.05, Pitch : -17.98, Yaw : 355.41, Alt : 592.08001709, Lat : -35.3627752, Lng : 149.1651844, Q1 : 0.986927688122, Q2 : -0.00573679804802, Q3 : -0.156168684363, Q4 : -0.0393982566893}
2019-04-03 18:28:45.19: SIM {TimeUS : 80815994, Roll : 0.07, Pitch : -17.99, Yaw : 355.41, Alt : 592.099975586, Lat : -35.3627708, Lng : 149.1651841, Q1 : 0.98691123724, Q2 : -0.00561372470111, Q3 : -0.156271860003, Q4 : -0.0394174680114}
2019-04-03 18:28:45.29: SIM {TimeUS : 80915954, Roll : 0.08, Pitch : -17.99, Yaw : 355.4, Alt : 592.130004883, Lat : -35.3627664, Lng : 149.1651837, Q1 : 0.986911833286, Q2 : -0.00553559605032, Q3 : -0.156264618039, Q4 : -0.0394438542426}
2019-04-03 18:28:45.39: SIM {TimeUS : 81015914, Roll : 0.09, Pitch : -17.96, Yaw : 355.4, Alt : 592.159973145, Lat : -35.3627619, Lng : 149.1651833, Q1 : 0.986951172352, Q2 : -0.00546854967251, Q3 : -0.156009227037, Q4 : -0.0394805558026}
2019-04-03 18:28:45.49: SIM {TimeUS : 81115874, Roll : 0.1, Pitch : -17.93, Yaw : 355.39, Alt : 592.190002441, Lat : -35.3627576, Lng : 149.1651828, Q1 : 0.986985146999, Q2 : -0.00533137004822, Q3 : -0.155793875456, Q4 : -0.0394984856248}
2019-04-03 18:28:45.59: SIM {TimeUS : 81215834, Roll : 0.11, Pitch : -17.91, Yaw : 355.39, Alt : 592.219970703, Lat : -35.3627531, Lng : 149.1651824, Q1 : 0.987012565136, Q2 : -0.00528532871976, Q3 : -0.155615344644, Q4 : -0.0395245589316}
2019-04-03 18:28:45.69: SIM {TimeUS : 81315794, Roll : 0.1, Pitch : -17.91, Yaw : 355.39, Alt : 592.25, Lat : -35.3627487, Lng : 149.1651819, Q1 : 0.987007796764, Q2 : -0.00534667866305, Q3 : -0.155635014176, Q4 : -0.0395577475429}
2019-04-03 18:28:45.79: SIM {TimeUS : 81415754, Roll : 0.11, Pitch : -17.95, Yaw : 355.39, Alt : 592.280029297, Lat : -35.3627442, Lng : 149.1651815, Q1 : 0.986963033676, Q2 : -0.00525733968243, Q3 : -0.155919730663, Q4 : -0.0395656637847}
2019-04-03 18:28:45.89: SIM {TimeUS : 81515714, Roll : 0.12, Pitch : -17.98, Yaw : 355.38, Alt : 592.309997559, Lat : -35.3627399, Lng : 149.1651812, Q1 : 0.986912071705, Q2 : -0.00519214849919, Q3 : -0.156240805984, Q4 : -0.039578564465}
2019-04-03 18:28:45.99: SIM {TimeUS : 81615674, Roll : 0.13, Pitch : -17.98, Yaw : 355.38, Alt : 592.33001709, Lat : -35.3627355, Lng : 149.1651808, Q1 : 0.986910998821, Q2 : -0.00510686496273, Q3 : -0.156247258186, Q4 : -0.0395912975073}
2019-04-03 18:28:46.10: SIM {TimeUS : 81716467, Roll : 0.13, Pitch : -17.97, Yaw : 355.38, Alt : 592.359985352, Lat : -35.3627309, Lng : 149.1651804, Q1 : 0.986930668354, Q2 : -0.00512416241691, Q3 : -0.15611577034, Q4 : -0.039616137743}
2019-04-03 18:28:46.20: SIM {TimeUS : 81816427, Roll : 0.12, Pitch : -17.95, Yaw : 355.37, Alt : 592.390014648, Lat : -35.3627265, Lng : 149.16518, Q1 : 0.986951470375, Q2 : -0.00521007319912, Q3 : -0.155972704291, Q4 : -0.0396506860852}
2019-04-03 18:28:46.30: SIM {TimeUS : 81916387, Roll : 0.12, Pitch : -17.95, Yaw : 355.37, Alt : 592.41998291, Lat : -35.3627222, Lng : 149.1651795, Q1 : 0.9869582057, Q2 : -0.00521450163797, Q3 : -0.155925795436, Q4 : -0.0396678559482}
2019-04-03 18:28:46.40: SIM {TimeUS : 82016347, Roll : 0.11, Pitch : -17.96, Yaw : 355.37, Alt : 592.450012207, Lat : -35.3627178, Lng : 149.1651791, Q1 : 0.986932396889, Q2 : -0.00534538086504, Q3 : -0.156077325344, Q4 : -0.0396967492998}
2019-04-03 18:28:46.50: SIM {TimeUS : 82116307, Roll : 0.09, Pitch : -17.99, Yaw : 355.37, Alt : 592.479980469, Lat : -35.3627133, Lng : 149.1651786, Q1 : 0.986899554729, Q2 : -0.00547066004947, Q3 : -0.156273156404, Q4 : -0.0397239923477}
2019-04-03 18:28:46.60: SIM {TimeUS : 82216267, Roll : 0.09, Pitch : -17.99, Yaw : 355.37, Alt : 592.510009766, Lat : -35.3627089, Lng : 149.1651782, Q1 : 0.986897468567, Q2 : -0.00551098491997, Q3 : -0.156278774142, Q4 : -0.0397486761212}
2019-04-03 18:28:46.70: SIM {TimeUS : 82316227, Roll : 0.1, Pitch : -17.98, Yaw : 355.36, Alt : 592.530029297, Lat : -35.3627045, Lng : 149.1651779, Q1 : 0.986910462379, Q2 : -0.00538160232827, Q3 : -0.156200960279, Q4 : -0.0397503338754}
2019-04-03 18:28:46.79: SIM {TimeUS : 82416187, Roll : 0.12, Pitch : -17.95, Yaw : 355.36, Alt : 592.559997559, Lat : -35.3627001, Lng : 149.1651775, Q1 : 0.986943662167, Q2 : -0.00519989663735, Q3 : -0.155997663736, Q4 : -0.0397488735616}
2019-04-03 18:28:46.89: SIM {TimeUS : 82516147, Roll : 0.14, Pitch : -17.95, Yaw : 355.36, Alt : 592.590026855, Lat : -35.3626955, Lng : 149.1651771, Q1 : 0.986952483654, Q2 : -0.00502977659926, Q3 : -0.155946850777, Q4 : -0.0397508852184}
2019-04-03 18:28:46.99: SIM {TimeUS : 82616107, Roll : 0.15, Pitch : -17.95, Yaw : 355.35, Alt : 592.619995117, Lat : -35.3626912, Lng : 149.1651767, Q1 : 0.986944019794, Q2 : -0.00499426806346, Q3 : -0.155994236469, Q4 : -0.0397786647081}
2019-04-03 18:28:47.09: SIM {TimeUS : 82716067, Roll : 0.15, Pitch : -17.96, Yaw : 355.35, Alt : 592.650024414, Lat : -35.3626868, Lng : 149.1651762, Q1 : 0.986933648586, Q2 : -0.00501404795796, Q3 : -0.156048029661, Q4 : -0.0398232862353}
2019-04-03 18:28:47.19: SIM {TimeUS : 82816027, Roll : 0.13, Pitch : -17.97, Yaw : 355.34, Alt : 592.679992676, Lat : -35.3626822, Lng : 149.1651758, Q1 : 0.986915171146, Q2 : -0.00515923416242, Q3 : -0.156144216657, Q4 : -0.039885237813}
2019-04-03 18:28:47.29: SIM {TimeUS : 82915987, Roll : 0.12, Pitch : -17.97, Yaw : 355.34, Alt : 592.700012207, Lat : -35.3626779, Lng : 149.1651755, Q1 : 0.986909031868, Q2 : -0.00530496379361, Q3 : -0.156161740422, Q4 : -0.0399491265416}
2019-04-03 18:28:47.39: SIM {TimeUS : 83015947, Roll : 0.13, Pitch : -17.96, Yaw : 355.33, Alt : 592.729980469, Lat : -35.3626735, Lng : 149.165175, Q1 : 0.986919999123, Q2 : -0.00516420416534, Q3 : -0.15609203279, Q4 : -0.0399698615074}
2019-04-03 18:28:47.49: SIM {TimeUS : 83115907, Roll : 0.16, Pitch : -17.96, Yaw : 355.33, Alt : 592.760009766, Lat : -35.3626689, Lng : 149.1651746, Q1 : 0.98692303896, Q2 : -0.0049639865756, Q3 : -0.156074911356, Q4 : -0.0399865955114}
2019-04-03 18:28:47.59: SIM {TimeUS : 83215867, Roll : 0.16, Pitch : -17.99, Yaw : 355.32, Alt : 592.789978027, Lat : -35.3626645, Lng : 149.1651742, Q1 : 0.98687928915, Q2 : -0.00495070591569, Q3 : -0.156339451671, Q4 : -0.0400343611836}
