2019-04-03 22:18:09.50: SIM {TimeUS : 41715807, Roll : 0.0, Pitch : 0.0, Yaw : 353.0, Alt : 584.090026855, Lat : -35.363261, Lng : 149.1652299, Q1 : 0.998134791851, Q2 : 0.0, Q3 : 0.0, Q4 : -0.0610485821962}
2019-04-03 22:18:09.61: SIM {TimeUS : 41834926, Roll : 0.0, Pitch : 0.0, Yaw : 353.0, Alt : 584.090026855, Lat : -35.363261, Lng : 149.1652299, Q1 : 0.998134791851, Q2 : 0.0, Q3 : 0.0, Q4 : -0.0610485821962}
2019-04-03 22:18:09.71: SIM {TimeUS : 41934886, Roll : 0.0, Pitch : 0.0, Yaw : 353.0, Alt : 584.090026855, Lat : -35.363261, Lng : 149.1652299, Q1 : 0.998134791851, Q2 : 0.0, Q3 : 0.0, Q4 : -0.0610485821962}
2019-04-03 22:18:09.81: SIM {TimeUS : 42034846, Roll : 0.0, Pitch : 0.0, Yaw : 353.0, Alt : 584.090026855, Lat : -35.363261, Lng : 149.1652299, Q1 : 0.998134791851, Q2 : 0.0, Q3 : 0.0, Q4 : -0.0610485821962}
2019-04-03 22:18:09.91: SIM {TimeUS : 42134806, Roll : 0.0, Pitch : 0.0, Yaw : 353.0, Alt : 584.090026855, Lat : -35.363261, Lng : 149.1652299, Q1 : 0.998134791851, Q2 : 0.0, Q3 : 0.0, Q4 : -0.0610485821962}
2019-04-03 22:18:10.01: SIM {TimeUS : 42234766, Roll : 0.0, Pitch : 0.0, Yaw : 353.0, Alt : 584.090026855, Lat : -35.363261, Lng : 149.1652299, Q1 : 0.998134791851, Q2 : 0.0, Q3 : 0.0, Q4 : -0.0610485821962}
2019-04-03 22:18:10.11: SIM {TimeUS : 42334726, Roll : 0.0, Pitch : 0.0, Yaw : 353.0, Alt : 584.090026855, Lat : -35.363261, Lng : 149.1652299, Q1 : 0.998134791851, Q2 : 0.0, Q3 : 0.0, Q4 : -0.0610485821962}
2019-04-03 22:18:10.21: SIM {TimeUS : 42434686, Roll : 0.0, Pitch : 0.0, Yaw : 353.0, Alt : 584.090026855, Lat : -35.363261, Lng : 149.1652299, Q1 : 0.998134791851, Q2 : 0.0, Q3 : 0.0, Q4 : -0.0610485821962}
2019-04-03 22:18:10.31: SIM {TimeUS : 42534646, Roll : 0.0, Pitch : 0.0, Yaw : 353.0, Alt : 584.090026855, Lat : -35.363261, Lng : 149.1652299, Q1 : 0.998134791851, Q2 : 0.0, Q3 : 0.0, Q4 : -0.0610485821962}
2019-04-03 22:18:10.41: SIM {TimeUS : 42634606, Roll : 0.0, Pitch : 0.0, Yaw : 353.0, Alt : 584.090026855, Lat : -35.363261, Lng : 149.1652299, Q1 : 0.998134791851, Q2 : 0.0, Q3 : 0.0, Q4 : -0.0610485821962}
2019-04-03 22:18:10.51: SIM {TimeUS : 42734566, Roll : 0.0, Pitch : 0.0, Yaw : 353.0, Alt : 584.090026855, Lat : -35.363261, Lng : 149.1652299, Q1 : 0.998134791851, Q2 : 0.0, Q3 : 0.0, Q4 : -0.0610485821962}
2019-04-03 22:18:10.61: SIM {TimeUS : 42834526, Roll : 0.0, Pitch : 0.0, Yaw : 353.0, Alt : 584.090026855, Lat : -35.363261, Lng : 149.1652299, Q1 : 0.998134791851, Q2 : 0.0, Q3 : 0.0, Q4 : -0.0610485821962}
2019-04-03 22:18:10.71: SIM {TimeUS : 42934486, Roll : 0.0, Pitch : 0.0, Yaw : 353.0, Alt : 584.090026855, Lat : -35.363261, Lng : 149.1652299, Q1 : 0.998134791851, Q2 : 0.0, Q3 : 0.0, Q4 : -0.0610485821962}
2019-04-03 22:18:10.81: SIM {TimeUS : 43034446, Roll : 0.0, Pitch : 0.0, Yaw : 353.0, Alt : 584.090026855, Lat : -35.363261, Lng : 149.1652299, Q1 : 0.998134791851, Q2 : 0.0, Q3 : 0.0, Q4 : -0.0610485821962}
2019-04-03 22:18:10.91: SIM {TimeUS : 43134406, Roll : 0.0, Pitch : 0.0, Yaw : 353.0, Alt : 584.090026855, Lat : -35.363261, Lng : 149.1652299, Q1 : 0.998134791851, Q2 : 0.0, Q3 : 0.0, Q4 : -0.0610485821962}
2019-04-03 22:18:11.01: SIM {TimeUS : 43234366, Roll : 0.0, Pitch : 0.0, Yaw : 353.0, Alt : 584.090026855, Lat : -35.363261, Lng : 149.1652299, Q1 : 0.998134791851, Q2 : 0.0, Q3 : 0.0, Q4 : -0.0610485821962}
2019-04-03 22:18:11.11: SIM {TimeUS : 43334326, Roll : 0.0, Pitch : 0.0, Yaw : 353.0, Alt : 584.090026855, Lat : -35.363261, Lng : 149.1652299, Q1 : 0.998134791851, Q2 : 0.0, Q3 : 0.0, Q4 : -0.0610485821962}
2019-04-03 22:18:11.21: SIM {TimeUS : 43434286, Roll : 0.0, Pitch : 0.0, Yaw : 353.0, Alt : 584.090026855, Lat : -35.363261, Lng : 149.1652299, Q1 : 0.998134791851, Q2 : 0.0, Q3 : 0.0, Q4 : -0.0610485821962}
2019-04-03 22:18:11.31: SIM {TimeUS : 43534246, Roll : 0.0, Pitch : 0.0, Yaw : 353.0, Alt : 584.090026855, Lat : -35.363261, Lng : 149.1652299, Q1 : 0.998134791851, Q2 : 0.0, Q3 : 0.0, Q4 : -0.0610485821962}
2019-04-03 22:18:11.41: SIM {TimeUS : 43634206, Roll : 0.0, Pitch : 0.0, Yaw : 353.0, Alt : 584.090026855, Lat : -35.363261, Lng : 149.1652299, Q1 : 0.998134791851, Q2 : 0.0, Q3 : 0.0, Q4 : -0.0610485821962}
2019-04-03 22:18:11.51: SIM {TimeUS : 43734166, Roll : 0.0, Pitch : 0.0, Yaw : 353.0, Alt : 584.090026855, Lat : -35.363261, Lng : 149.1652299, Q1 : 0.998134791851, Q2 : 0.0, Q3 : 0.0, Q4 : -0.0610485821962}
2019-04-03 22:18:11.62: SIM {TimeUS : 43834959, Roll : 0.0, Pitch : 0.0, Yaw : 353.0, Alt : 584.090026855, Lat : -35.363261, Lng : 149.1652299, Q1 : 0.998134791851, Q2 : 0.0, Q3 : 0.0, Q4 : -0.0610485821962}
2019-04-03 22:18:11.71: SIM {TimeUS : 43934919, Roll : 0.0, Pitch : 0.0, Yaw : 353.0, Alt : 584.090026855, Lat : -35.363261, Lng : 149.1652299, Q1 : 0.998134791851, Q2 : 0.0, Q3 : 0.0, Q4 : -0.0610485821962}
2019-04-03 22:18:11.81: SIM {TimeUS : 44034879, Roll : 0.0, Pitch : 0.0, Yaw : 353.0, Alt : 584.090026855, Lat : -35.363261, Lng : 149.1652299, Q1 : 0.998134791851, Q2 : 0.0, Q3 : 0.0, Q4 : -0.0610485821962}
2019-04-03 22:18:11.91: SIM {TimeUS : 44134839, Roll : 0.0, Pitch : 0.0, Yaw : 353.0, Alt : 584.090026855, Lat : -35.363261, Lng : 149.1652299, Q1 : 0.998134791851, Q2 : 0.0, Q3 : 0.0, Q4 : -0.0610485821962}
2019-04-03 22:18:12.01: SIM {TimeUS : 44234799, Roll : 0.0, Pitch : 0.0, Yaw : 353.0, Alt : 584.090026855, Lat : -35.363261, Lng : 149.1652299, Q1 : 0.998134791851, Q2 : 0.0, Q3 : 0.0, Q4 : -0.0610485821962}
2019-04-03 22:18:12.11: SIM {TimeUS : 44334759, Roll : 0.0, Pitch : 0.0, Yaw : 353.0, Alt : 584.090026855, Lat : -35.363261, Lng : 149.1652299, Q1 : 0.998134791851, Q2 : 0.0, Q3 : 0.0, Q4 : -0.0610485821962}
2019-04-03 22:18:12.21: SIM {TimeUS : 44434719, Roll : 0.0, Pitch : 0.0, Yaw : 353.0, Alt : 584.090026855, Lat : -35.363261, Lng : 149.1652299, Q1 : 0.998134791851, Q2 : 0.0, Q3 : 0.0, Q4 : -0.0610485821962}
2019-04-03 22:18:12.31: SIM {TimeUS : 44534679, Roll : 0.0, Pitch : 0.0, Yaw : 353.0, Alt : 584.090026855, Lat : -35.363261, Lng : 149.1652299, Q1 : 0.998134791851, Q2 : 0.0, Q3 : 0.0, Q4 : -0.0610485821962}
2019-04-03 22:18:12.41: SIM {TimeUS : 44634639, Roll : 0.0, Pitch : 0.0, Yaw : 353.0, Alt : 584.090026855, Lat : -35.363261, Lng : 149.1652299, Q1 : 0.998134791851, Q2 : 0.0, Q3 : 0.0, Q4 : -0.0610485821962}
2019-04-03 22:18:12.51: SIM {TimeUS : 44734599, Roll : 0.0, Pitch : 0.0, Yaw : 353.0, Alt : 584.090026855, Lat : -35.363261, Lng : 149.1652299, Q1 : 0.998134791851, Q2 : 0.0, Q3 : 0.0, Q4 : -0.0610485821962}
2019-04-03 22:18:12.61: SIM {TimeUS : 44834559, Roll : 0.0, Pitch : 0.0, Yaw : 353.0, Alt : 584.090026855, Lat : -35.363261, Lng : 149.1652299, Q1 : 0.998134791851, Q2 : 0.0, Q3 : 0.0, Q4 : -0.0610485821962}
2019-04-03 22:18:12.71: SIM {TimeUS : 44934519, Roll : 0.0, Pitch : 0.0, Yaw : 353.0, Alt : 584.090026855, Lat : -35.363261, Lng : 149.1652299, Q1 : 0.998134791851, Q2 : 0.0, Q3 : 0.0, Q4 : -0.0610485821962}
2019-04-03 22:18:12.81: SIM {TimeUS : 45034479, Roll : 0.0, Pitch : 0.0, Yaw : 353.0, Alt : 584.090026855, Lat : -35.363261, Lng : 149.1652299, Q1 : 0.998134791851, Q2 : 0.0, Q3 : 0.0, Q4 : -0.0610485821962}
2019-04-03 22:18:12.91: SIM {TimeUS : 45134439, Roll : 0.0, Pitch : 0.0, Yaw : 353.0, Alt : 584.090026855, Lat : -35.363261, Lng : 149.1652299, Q1 : 0.998134791851, Q2 : 0.0, Q3 : 0.0, Q4 : -0.0610485821962}
2019-04-03 22:18:13.01: SIM {TimeUS : 45234399, Roll : 0.0, Pitch : 0.0, Yaw : 353.0, Alt : 584.090026855, Lat : -35.363261, Lng : 149.1652299, Q1 : 0.998134791851, Q2 : 0.0, Q3 : 0.0, Q4 : -0.0610485821962}
2019-04-03 22:18:13.11: SIM {TimeUS : 45334359, Roll : 0.0, Pitch : 0.0, Yaw : 353.0, Alt : 584.090026855, Lat : -35.363261, Lng : 149.1652299, Q1 : 0.998134791851, Q2 : 0.0, Q3 : 0.0, Q4 : -0.0610485821962}
2019-04-03 22:18:13.21: SIM {TimeUS : 45434319, Roll : 0.0, Pitch : 0.0, Yaw : 353.0, Alt : 584.090026855, Lat : -35.363261, Lng : 149.1652299, Q1 : 0.998134791851, Q2 : 0.0, Q3 : 0.0, Q4 : -0.0610485821962}
2019-04-03 22:18:13.31: SIM {TimeUS : 45534279, Roll : 0.0, Pitch : 0.0, Yaw : 353.0, Alt : 584.090026855, Lat : -35.363261, Lng : 149.1652299, Q1 : 0.998134791851, Q2 : 0.0, Q3 : 0.0, Q4 : -0.0610485821962}
2019-04-03 22:18:13.41: SIM {TimeUS : 45634239, Roll : 0.0, Pitch : 0.0, Yaw : 353.0, Alt : 584.090026855, Lat : -35.363261, Lng : 149.1652299, Q1 : 0.998134791851, Q2 : 0.0, Q3 : 0.0, Q4 : -0.0610485821962}
2019-04-03 22:18:13.51: SIM {TimeUS : 45734199, Roll : 0.0, Pitch : 0.0, Yaw : 353.0, Alt : 584.090026855, Lat : -35.363261, Lng : 149.1652299, Q1 : 0.998134791851, Q2 : 0.0, Q3 : 0.0, Q4 : -0.0610485821962}
2019-04-03 22:18:13.61: SIM {TimeUS : 45834159, Roll : 0.0, Pitch : 0.0, Yaw : 353.0, Alt : 584.090026855, Lat : -35.363261, Lng : 149.1652299, Q1 : 0.998134791851, Q2 : 0.0, Q3 : 0.0, Q4 : -0.0610485821962}
2019-04-03 22:18:13.72: SIM {TimeUS : 45934952, Roll : 0.0, Pitch : 0.0, Yaw : 353.0, Alt : 584.090026855, Lat : -35.363261, Lng : 149.1652299, Q1 : 0.998134791851, Q2 : 0.0, Q3 : 0.0, Q4 : -0.0610485821962}
2019-04-03 22:18:13.81: SIM {TimeUS : 46034912, Roll : 0.0, Pitch : 0.0, Yaw : 353.0, Alt : 584.090026855, Lat : -35.363261, Lng : 149.1652299, Q1 : 0.998134791851, Q2 : 0.0, Q3 : 0.0, Q4 : -0.0610485821962}
2019-04-03 22:18:13.91: SIM {TimeUS : 46134872, Roll : 0.0, Pitch : 0.0, Yaw : 353.0, Alt : 584.090026855, Lat : -35.363261, Lng : 149.1652299, Q1 : 0.998134791851, Q2 : 0.0, Q3 : 0.0, Q4 : -0.0610485821962}
2019-04-03 22:18:14.01: SIM {TimeUS : 46234832, Roll : 0.0, Pitch : 0.0, Yaw : 353.0, Alt : 584.090026855, Lat : -35.363261, Lng : 149.1652299, Q1 : 0.998134791851, Q2 : 0.0, Q3 : 0.0, Q4 : -0.0610485821962}
2019-04-03 22:18:14.11: SIM {TimeUS : 46334792, Roll : 0.0, Pitch : 0.0, Yaw : 353.0, Alt : 584.090026855, Lat : -35.363261, Lng : 149.1652299, Q1 : 0.998134791851, Q2 : 0.0, Q3 : 0.0, Q4 : -0.0610485821962}
2019-04-03 22:18:14.21: SIM {TimeUS : 46434752, Roll : 0.0, Pitch : 0.0, Yaw : 353.0, Alt : 584.090026855, Lat : -35.363261, Lng : 149.1652299, Q1 : 0.998134791851, Q2 : 0.0, Q3 : 0.0, Q4 : -0.0610485821962}
2019-04-03 22:18:14.31: SIM {TimeUS : 46534712, Roll : 0.0, Pitch : 0.0, Yaw : 353.0, Alt : 584.090026855, Lat : -35.363261, Lng : 149.1652299, Q1 : 0.998134791851, Q2 : 0.0, Q3 : 0.0, Q4 : -0.0610485821962}
2019-04-03 22:18:14.41: SIM {TimeUS : 46634672, Roll : 0.0, Pitch : 0.0, Yaw : 353.0, Alt : 584.090026855, Lat : -35.363261, Lng : 149.1652299, Q1 : 0.998134791851, Q2 : 0.0, Q3 : 0.0, Q4 : -0.0610485821962}
2019-04-03 22:18:14.51: SIM {TimeUS : 46734632, Roll : 0.0, Pitch : 0.0, Yaw : 353.0, Alt : 584.090026855, Lat : -35.363261, Lng : 149.1652299, Q1 : 0.998134791851, Q2 : 0.0, Q3 : 0.0, Q4 : -0.0610485821962}
2019-04-03 22:18:14.61: SIM {TimeUS : 46834592, Roll : 0.0, Pitch : 0.0, Yaw : 353.0, Alt : 584.090026855, Lat : -35.363261, Lng : 149.1652299, Q1 : 0.998134791851, Q2 : 0.0, Q3 : 0.0, Q4 : -0.0610485821962}
2019-04-03 22:18:14.71: SIM {TimeUS : 46934552, Roll : 0.0, Pitch : 0.0, Yaw : 353.0, Alt : 584.090026855, Lat : -35.363261, Lng : 149.1652299, Q1 : 0.998134791851, Q2 : 0.0, Q3 : 0.0, Q4 : -0.0610485821962}
2019-04-03 22:18:14.81: SIM {TimeUS : 47034512, Roll : 0.0, Pitch : 0.0, Yaw : 353.0, Alt : 584.090026855, Lat : -35.363261, Lng : 149.1652299, Q1 : 0.998134791851, Q2 : 0.0, Q3 : 0.0, Q4 : -0.0610485821962}
2019-04-03 22:18:14.91: SIM {TimeUS : 47134472, Roll : 0.0, Pitch : 0.0, Yaw : 353.0, Alt : 584.090026855, Lat : -35.363261, Lng : 149.1652299, Q1 : 0.998134791851, Q2 : 0.0, Q3 : 0.0, Q4 : -0.0610485821962}
2019-04-03 22:18:15.01: SIM {TimeUS : 47234432, Roll : 0.0, Pitch : 0.0, Yaw : 353.0, Alt : 584.090026855, Lat : -35.363261, Lng : 149.1652299, Q1 : 0.998134791851, Q2 : 0.0, Q3 : 0.0, Q4 : -0.0610485821962}
2019-04-03 22:18:15.11: SIM {TimeUS : 47334392, Roll : 0.0, Pitch : 0.0, Yaw : 353.0, Alt : 584.090026855, Lat : -35.363261, Lng : 149.1652299, Q1 : 0.998134791851, Q2 : 0.0, Q3 : 0.0, Q4 : -0.0610485821962}
2019-04-03 22:18:15.21: SIM {TimeUS : 47434352, Roll : 0.0, Pitch : 0.0, Yaw : 353.0, Alt : 584.090026855, Lat : -35.363261, Lng : 149.1652299, Q1 : 0.998134791851, Q2 : 0.0, Q3 : 0.0, Q4 : -0.0610485821962}
2019-04-03 22:18:15.31: SIM {TimeUS : 47534312, Roll : 0.0, Pitch : 0.0, Yaw : 353.0, Alt : 584.090026855, Lat : -35.363261, Lng : 149.1652299, Q1 : 0.998134791851, Q2 : 0.0, Q3 : 0.0, Q4 : -0.0610485821962}
2019-04-03 22:18:15.41: SIM {TimeUS : 47634272, Roll : 0.0, Pitch : 0.0, Yaw : 353.0, Alt : 584.090026855, Lat : -35.363261, Lng : 149.1652299, Q1 : 0.998134791851, Q2 : 0.0, Q3 : 0.0, Q4 : -0.0610485821962}
2019-04-03 22:18:15.51: SIM {TimeUS : 47734232, Roll : 0.0, Pitch : 0.0, Yaw : 353.0, Alt : 584.090026855, Lat : -35.363261, Lng : 149.1652299, Q1 : 0.998134791851, Q2 : 0.0, Q3 : 0.0, Q4 : -0.0610485821962}
2019-04-03 22:18:15.61: SIM {TimeUS : 47834192, Roll : 0.0, Pitch : 0.0, Yaw : 353.0, Alt : 584.090026855, Lat : -35.363261, Lng : 149.1652299, Q1 : 0.998134791851, Q2 : 0.0, Q3 : 0.0, Q4 : -0.0610485821962}
2019-04-03 22:18:15.71: SIM {TimeUS : 47934152, Roll : 0.0, Pitch : 0.0, Yaw : 353.0, Alt : 584.090026855, Lat : -35.363261, Lng : 149.1652299, Q1 : 0.998134791851, Q2 : 0.0, Q3 : 0.0, Q4 : -0.0610485821962}
2019-04-03 22:18:15.82: SIM {TimeUS : 48034945, Roll : 0.0, Pitch : 0.0, Yaw : 353.0, Alt : 584.090026855, Lat : -35.363261, Lng : 149.1652299, Q1 : 0.998134791851, Q2 : 0.0, Q3 : 0.0, Q4 : -0.0610485821962}
2019-04-03 22:18:15.91: SIM {TimeUS : 48134905, Roll : 0.0, Pitch : 0.0, Yaw : 353.0, Alt : 584.090026855, Lat : -35.363261, Lng : 149.1652299, Q1 : 0.998134791851, Q2 : 0.0, Q3 : 0.0, Q4 : -0.0610485821962}
2019-04-03 22:18:16.01: SIM {TimeUS : 48234865, Roll : 0.0, Pitch : 0.0, Yaw : 353.0, Alt : 584.090026855, Lat : -35.363261, Lng : 149.1652299, Q1 : 0.998134791851, Q2 : 0.0, Q3 : 0.0, Q4 : -0.0610485821962}
2019-04-03 22:18:16.11: SIM {TimeUS : 48334825, Roll : 0.0, Pitch : 0.0, Yaw : 353.0, Alt : 584.090026855, Lat : -35.363261, Lng : 149.1652299, Q1 : 0.998134791851, Q2 : 0.0, Q3 : 0.0, Q4 : -0.0610485821962}
2019-04-03 22:18:16.21: SIM {TimeUS : 48434785, Roll : 0.0, Pitch : 0.0, Yaw : 353.0, Alt : 584.090026855, Lat : -35.363261, Lng : 149.1652299, Q1 : 0.998134791851, Q2 : 0.0, Q3 : 0.0, Q4 : -0.0610485821962}
2019-04-03 22:18:16.31: SIM {TimeUS : 48534745, Roll : 0.0, Pitch : 0.0, Yaw : 353.0, Alt : 584.090026855, Lat : -35.363261, Lng : 149.1652299, Q1 : 0.998134791851, Q2 : 0.0, Q3 : 0.0, Q4 : -0.0610485821962}
2019-04-03 22:18:16.41: SIM {TimeUS : 48634705, Roll : 0.0, Pitch : 0.0, Yaw : 353.0, Alt : 584.090026855, Lat : -35.363261, Lng : 149.1652299, Q1 : 0.998134791851, Q2 : 0.0, Q3 : 0.0, Q4 : -0.0610485821962}
2019-04-03 22:18:16.51: SIM {TimeUS : 48734665, Roll : 0.0, Pitch : 0.0, Yaw : 353.0, Alt : 584.090026855, Lat : -35.363261, Lng : 149.1652299, Q1 : 0.998134791851, Q2 : 0.0, Q3 : 0.0, Q4 : -0.0610485821962}
2019-04-03 22:18:16.61: SIM {TimeUS : 48834625, Roll : 0.0, Pitch : 0.0, Yaw : 353.0, Alt : 584.090026855, Lat : -35.363261, Lng : 149.1652299, Q1 : 0.998134791851, Q2 : 0.0, Q3 : 0.0, Q4 : -0.0610485821962}
2019-04-03 22:18:16.71: SIM {TimeUS : 48934585, Roll : 0.0, Pitch : 0.0, Yaw : 353.0, Alt : 584.090026855, Lat : -35.363261, Lng : 149.1652299, Q1 : 0.998134791851, Q2 : 0.0, Q3 : 0.0, Q4 : -0.0610485821962}
2019-04-03 22:18:16.81: SIM {TimeUS : 49034545, Roll : 0.0, Pitch : 0.0, Yaw : 353.0, Alt : 584.090026855, Lat : -35.363261, Lng : 149.1652299, Q1 : 0.998134791851, Q2 : 0.0, Q3 : 0.0, Q4 : -0.0610485821962}
2019-04-03 22:18:16.91: SIM {TimeUS : 49134505, Roll : 0.0, Pitch : 0.0, Yaw : 353.0, Alt : 584.090026855, Lat : -35.363261, Lng : 149.1652299, Q1 : 0.998134791851, Q2 : 0.0, Q3 : 0.0, Q4 : -0.0610485821962}
2019-04-03 22:18:17.01: SIM {TimeUS : 49234465, Roll : 0.0, Pitch : 0.0, Yaw : 353.0, Alt : 584.090026855, Lat : -35.363261, Lng : 149.1652299, Q1 : 0.998134791851, Q2 : 0.0, Q3 : 0.0, Q4 : -0.0610485821962}
2019-04-03 22:18:17.11: SIM {TimeUS : 49334425, Roll : 0.0, Pitch : 0.0, Yaw : 353.0, Alt : 584.090026855, Lat : -35.363261, Lng : 149.1652299, Q1 : 0.998134791851, Q2 : 0.0, Q3 : 0.0, Q4 : -0.0610485821962}
2019-04-03 22:18:17.21: SIM {TimeUS : 49434385, Roll : 0.0, Pitch : 0.0, Yaw : 353.0, Alt : 584.090026855, Lat : -35.363261, Lng : 149.1652299, Q1 : 0.998134791851, Q2 : 0.0, Q3 : 0.0, Q4 : -0.0610485821962}
2019-04-03 22:18:17.31: SIM {TimeUS : 49534345, Roll : 0.0, Pitch : 0.0, Yaw : 353.0, Alt : 584.090026855, Lat : -35.363261, Lng : 149.1652299, Q1 : 0.998134791851, Q2 : 0.0, Q3 : 0.0, Q4 : -0.0610485821962}
2019-04-03 22:18:17.41: SIM {TimeUS : 49634305, Roll : 0.0, Pitch : 0.0, Yaw : 353.0, Alt : 584.090026855, Lat : -35.363261, Lng : 149.1652299, Q1 : 0.998134791851, Q2 : 0.0, Q3 : 0.0, Q4 : -0.0610485821962}
2019-04-03 22:18:17.51: SIM {TimeUS : 49734265, Roll : 0.0, Pitch : 0.0, Yaw : 353.0, Alt : 584.090026855, Lat : -35.363261, Lng : 149.1652299, Q1 : 0.998134791851, Q2 : 0.0, Q3 : 0.0, Q4 : -0.0610485821962}
2019-04-03 22:18:17.61: SIM {TimeUS : 49834225, Roll : 0.0, Pitch : 0.0, Yaw : 353.0, Alt : 584.090026855, Lat : -35.363261, Lng : 149.1652299, Q1 : 0.998134791851, Q2 : 0.0, Q3 : 0.0, Q4 : -0.0610485821962}
2019-04-03 22:18:17.71: SIM {TimeUS : 49934185, Roll : 0.0, Pitch : 0.0, Yaw : 353.0, Alt : 584.090026855, Lat : -35.363261, Lng : 149.1652299, Q1 : 0.998134791851, Q2 : 0.0, Q3 : 0.0, Q4 : -0.0610485821962}
2019-04-03 22:18:17.81: SIM {TimeUS : 50034145, Roll : 0.0, Pitch : 0.0, Yaw : 353.0, Alt : 584.090026855, Lat : -35.363261, Lng : 149.1652299, Q1 : 0.998134791851, Q2 : 0.0, Q3 : 0.0, Q4 : -0.0610485821962}
2019-04-03 22:18:17.92: SIM {TimeUS : 50134938, Roll : 0.0, Pitch : 0.0, Yaw : 353.0, Alt : 584.090026855, Lat : -35.363261, Lng : 149.1652299, Q1 : 0.998134791851, Q2 : 0.0, Q3 : 0.0, Q4 : -0.0610485821962}
2019-04-03 22:18:18.01: SIM {TimeUS : 50234898, Roll : 0.0, Pitch : 0.0, Yaw : 353.0, Alt : 584.090026855, Lat : -35.363261, Lng : 149.1652299, Q1 : 0.998134791851, Q2 : 0.0, Q3 : 0.0, Q4 : -0.0610485821962}
2019-04-03 22:18:18.11: SIM {TimeUS : 50334858, Roll : 0.0, Pitch : 0.0, Yaw : 353.0, Alt : 584.090026855, Lat : -35.363261, Lng : 149.1652299, Q1 : 0.998134791851, Q2 : 0.0, Q3 : 0.0, Q4 : -0.0610485821962}
2019-04-03 22:18:18.21: SIM {TimeUS : 50434818, Roll : 0.0, Pitch : 0.0, Yaw : 353.0, Alt : 584.090026855, Lat : -35.363261, Lng : 149.1652299, Q1 : 0.998134791851, Q2 : 0.0, Q3 : 0.0, Q4 : -0.0610485821962}
2019-04-03 22:18:18.31: SIM {TimeUS : 50534778, Roll : 0.0, Pitch : 0.0, Yaw : 353.0, Alt : 584.090026855, Lat : -35.363261, Lng : 149.1652299, Q1 : 0.998134791851, Q2 : 0.0, Q3 : 0.0, Q4 : -0.0610485821962}
2019-04-03 22:18:18.41: SIM {TimeUS : 50634738, Roll : 0.0, Pitch : 0.0, Yaw : 353.0, Alt : 584.090026855, Lat : -35.363261, Lng : 149.1652299, Q1 : 0.998134791851, Q2 : 0.0, Q3 : 0.0, Q4 : -0.0610485821962}
2019-04-03 22:18:18.51: SIM {TimeUS : 50734698, Roll : 0.0, Pitch : 0.0, Yaw : 353.0, Alt : 584.090026855, Lat : -35.363261, Lng : 149.1652299, Q1 : 0.998134791851, Q2 : 0.0, Q3 : 0.0, Q4 : -0.0610485821962}
2019-04-03 22:18:18.61: SIM {TimeUS : 50834658, Roll : 0.0, Pitch : 0.0, Yaw : 353.0, Alt : 584.090026855, Lat : -35.363261, Lng : 149.1652299, Q1 : 0.998134791851, Q2 : 0.0, Q3 : 0.0, Q4 : -0.0610485821962}
2019-04-03 22:18:18.71: SIM {TimeUS : 50934618, Roll : 0.0, Pitch : 0.0, Yaw : 353.0, Alt : 584.090026855, Lat : -35.363261, Lng : 149.1652299, Q1 : 0.998134791851, Q2 : 0.0, Q3 : 0.0, Q4 : -0.0610485821962}
2019-04-03 22:18:18.81: SIM {TimeUS : 51034578, Roll : 0.0, Pitch : 0.0, Yaw : 353.0, Alt : 584.090026855, Lat : -35.363261, Lng : 149.1652299, Q1 : 0.998134791851, Q2 : 0.0, Q3 : 0.0, Q4 : -0.0610485821962}
2019-04-03 22:18:18.91: SIM {TimeUS : 51134538, Roll : 0.0, Pitch : 0.0, Yaw : 353.0, Alt : 584.090026855, Lat : -35.363261, Lng : 149.1652299, Q1 : 0.998134791851, Q2 : 0.0, Q3 : 0.0, Q4 : -0.0610485821962}
2019-04-03 22:18:19.01: SIM {TimeUS : 51234498, Roll : 0.0, Pitch : 0.0, Yaw : 353.0, Alt : 584.090026855, Lat : -35.363261, Lng : 149.1652299, Q1 : 0.998134791851, Q2 : 0.0, Q3 : 0.0, Q4 : -0.0610485821962}
2019-04-03 22:18:19.11: SIM {TimeUS : 51334458, Roll : 0.0, Pitch : 0.0, Yaw : 353.0, Alt : 584.090026855, Lat : -35.363261, Lng : 149.1652299, Q1 : 0.998134791851, Q2 : 0.0, Q3 : 0.0, Q4 : -0.0610485821962}
2019-04-03 22:18:19.21: SIM {TimeUS : 51434418, Roll : 0.0, Pitch : 0.0, Yaw : 353.0, Alt : 584.090026855, Lat : -35.363261, Lng : 149.1652299, Q1 : 0.998134791851, Q2 : 0.0, Q3 : 0.0, Q4 : -0.0610485821962}
2019-04-03 22:18:19.31: SIM {TimeUS : 51534378, Roll : 0.0, Pitch : 0.0, Yaw : 353.0, Alt : 584.090026855, Lat : -35.363261, Lng : 149.1652299, Q1 : 0.998134791851, Q2 : 0.0, Q3 : 0.0, Q4 : -0.0610485821962}
2019-04-03 22:18:21.21: SIM {TimeUS : 53434451, Roll : 0.0, Pitch : 0.0, Yaw : 353.0, Alt : 584.090026855, Lat : -35.363261, Lng : 149.1652299, Q1 : 0.998134791851, Q2 : 0.0, Q3 : 0.0, Q4 : -0.0610485821962}
2019-04-03 22:18:21.31: SIM {TimeUS : 53534411, Roll : 0.0, Pitch : 0.0, Yaw : 353.0, Alt : 584.090026855, Lat : -35.363261, Lng : 149.1652299, Q1 : 0.998134791851, Q2 : 0.0, Q3 : 0.0, Q4 : -0.0610485821962}
2019-04-03 22:18:21.41: SIM {TimeUS : 53634371, Roll : 0.0, Pitch : 0.0, Yaw : 353.0, Alt : 584.090026855, Lat : -35.363261, Lng : 149.1652299, Q1 : 0.998134791851, Q2 : 0.0, Q3 : 0.0, Q4 : -0.0610485821962}
2019-04-03 22:18:21.51: SIM {TimeUS : 53734331, Roll : 0.0, Pitch : 0.0, Yaw : 353.0, Alt : 584.090026855, Lat : -35.363261, Lng : 149.1652299, Q1 : 0.998134791851, Q2 : 0.0, Q3 : 0.0, Q4 : -0.0610485821962}
2019-04-03 22:18:21.61: SIM {TimeUS : 53834291, Roll : 0.0, Pitch : 0.0, Yaw : 353.0, Alt : 584.090026855, Lat : -35.363261, Lng : 149.1652299, Q1 : 0.998134791851, Q2 : 0.0, Q3 : 0.0, Q4 : -0.0610485821962}
2019-04-03 22:18:21.71: SIM {TimeUS : 53934251, Roll : 0.0, Pitch : 0.0, Yaw : 353.0, Alt : 584.090026855, Lat : -35.363261, Lng : 149.1652299, Q1 : 0.998134791851, Q2 : 0.0, Q3 : 0.0, Q4 : -0.0610485821962}
2019-04-03 22:18:21.81: SIM {TimeUS : 54034211, Roll : 0.0, Pitch : 0.0, Yaw : 353.0, Alt : 584.090026855, Lat : -35.363261, Lng : 149.1652299, Q1 : 0.998134791851, Q2 : 0.0, Q3 : 0.0, Q4 : -0.0610485821962}
2019-04-03 22:18:21.91: SIM {TimeUS : 54134171, Roll : 0.0, Pitch : 0.0, Yaw : 353.0, Alt : 584.090026855, Lat : -35.363261, Lng : 149.1652299, Q1 : 0.998134791851, Q2 : 0.0, Q3 : 0.0, Q4 : -0.0610485821962}
2019-04-03 22:18:22.02: SIM {TimeUS : 54234964, Roll : 0.0, Pitch : 0.0, Yaw : 353.0, Alt : 584.090026855, Lat : -35.363261, Lng : 149.1652299, Q1 : 0.998134791851, Q2 : 0.0, Q3 : 0.0, Q4 : -0.0610485821962}
2019-04-03 22:18:22.11: SIM {TimeUS : 54334924, Roll : 0.0, Pitch : 0.0, Yaw : 353.0, Alt : 584.090026855, Lat : -35.363261, Lng : 149.1652299, Q1 : 0.998134791851, Q2 : 0.0, Q3 : 0.0, Q4 : -0.0610485821962}
2019-04-03 22:18:22.21: SIM {TimeUS : 54434884, Roll : 0.0, Pitch : 0.0, Yaw : 353.0, Alt : 584.090026855, Lat : -35.363261, Lng : 149.1652299, Q1 : 0.998134791851, Q2 : 0.0, Q3 : 0.0, Q4 : -0.0610485821962}
2019-04-03 22:18:22.31: SIM {TimeUS : 54534844, Roll : 0.0, Pitch : 0.0, Yaw : 353.0, Alt : 584.090026855, Lat : -35.363261, Lng : 149.1652299, Q1 : 0.998134791851, Q2 : 0.0, Q3 : 0.0, Q4 : -0.0610485821962}
2019-04-03 22:18:22.41: SIM {TimeUS : 54634804, Roll : 0.0, Pitch : 0.0, Yaw : 353.0, Alt : 584.090026855, Lat : -35.363261, Lng : 149.1652299, Q1 : 0.998134791851, Q2 : 0.0, Q3 : 0.0, Q4 : -0.0610485821962}
2019-04-03 22:18:22.51: SIM {TimeUS : 54734764, Roll : 0.0, Pitch : 0.0, Yaw : 353.0, Alt : 584.090026855, Lat : -35.363261, Lng : 149.1652299, Q1 : 0.998134791851, Q2 : 0.0, Q3 : 0.0, Q4 : -0.0610485821962}
2019-04-03 22:18:22.61: SIM {TimeUS : 54834724, Roll : 0.0, Pitch : 0.0, Yaw : 353.0, Alt : 584.090026855, Lat : -35.363261, Lng : 149.1652299, Q1 : 0.998134791851, Q2 : 0.0, Q3 : 0.0, Q4 : -0.0610485821962}
2019-04-03 22:18:22.71: SIM {TimeUS : 54934684, Roll : 0.0, Pitch : 0.0, Yaw : 353.0, Alt : 584.090026855, Lat : -35.363261, Lng : 149.1652299, Q1 : 0.998134791851, Q2 : 0.0, Q3 : 0.0, Q4 : -0.0610485821962}
2019-04-03 22:18:22.81: SIM {TimeUS : 55034644, Roll : 0.0, Pitch : 0.0, Yaw : 353.0, Alt : 584.090026855, Lat : -35.363261, Lng : 149.1652299, Q1 : 0.998134791851, Q2 : 0.0, Q3 : 0.0, Q4 : -0.0610485821962}
2019-04-03 22:18:22.91: SIM {TimeUS : 55134604, Roll : 0.0, Pitch : 0.0, Yaw : 353.0, Alt : 584.090026855, Lat : -35.363261, Lng : 149.1652299, Q1 : 0.998134791851, Q2 : 0.0, Q3 : 0.0, Q4 : -0.0610485821962}
2019-04-03 22:18:23.01: SIM {TimeUS : 55234564, Roll : 0.0, Pitch : 0.0, Yaw : 353.0, Alt : 584.090026855, Lat : -35.363261, Lng : 149.1652299, Q1 : 0.998134791851, Q2 : 0.0, Q3 : 0.0, Q4 : -0.0610485821962}
2019-04-03 22:18:23.11: SIM {TimeUS : 55334524, Roll : 0.0, Pitch : 0.0, Yaw : 353.0, Alt : 584.090026855, Lat : -35.363261, Lng : 149.1652299, Q1 : 0.998134791851, Q2 : 0.0, Q3 : 0.0, Q4 : -0.0610485821962}
2019-04-03 22:18:23.21: SIM {TimeUS : 55434484, Roll : 0.0, Pitch : 0.0, Yaw : 353.0, Alt : 584.090026855, Lat : -35.363261, Lng : 149.1652299, Q1 : 0.998134791851, Q2 : 0.0, Q3 : 0.0, Q4 : -0.0610485821962}
2019-04-03 22:18:23.31: SIM {TimeUS : 55534444, Roll : 0.0, Pitch : 0.0, Yaw : 353.0, Alt : 584.090026855, Lat : -35.363261, Lng : 149.1652299, Q1 : 0.998134791851, Q2 : 0.0, Q3 : 0.0, Q4 : -0.0610485821962}
2019-04-03 22:18:23.41: SIM {TimeUS : 55634404, Roll : 0.0, Pitch : 0.0, Yaw : 353.0, Alt : 584.090026855, Lat : -35.363261, Lng : 149.1652299, Q1 : 0.998134791851, Q2 : 0.0, Q3 : 0.0, Q4 : -0.0610485821962}
2019-04-03 22:18:23.51: SIM {TimeUS : 55734364, Roll : 0.0, Pitch : 0.0, Yaw : 353.0, Alt : 584.090026855, Lat : -35.363261, Lng : 149.1652299, Q1 : 0.998134791851, Q2 : 0.0, Q3 : 0.0, Q4 : -0.0610485821962}
2019-04-03 22:18:23.61: SIM {TimeUS : 55834324, Roll : 0.0, Pitch : 0.0, Yaw : 353.0, Alt : 584.090026855, Lat : -35.363261, Lng : 149.1652299, Q1 : 0.998134791851, Q2 : 0.0, Q3 : 0.0, Q4 : -0.0610485821962}
2019-04-03 22:18:23.71: SIM {TimeUS : 55934284, Roll : 0.0, Pitch : 0.0, Yaw : 353.0, Alt : 584.090026855, Lat : -35.363261, Lng : 149.1652299, Q1 : 0.998134791851, Q2 : 0.0, Q3 : 0.0, Q4 : -0.0610485821962}
2019-04-03 22:18:23.81: SIM {TimeUS : 56034244, Roll : 0.0, Pitch : 0.0, Yaw : 353.0, Alt : 584.090026855, Lat : -35.363261, Lng : 149.1652299, Q1 : 0.998134791851, Q2 : 0.0, Q3 : 0.0, Q4 : -0.0610485821962}
2019-04-03 22:18:23.91: SIM {TimeUS : 56134204, Roll : 0.0, Pitch : 0.0, Yaw : 353.0, Alt : 584.090026855, Lat : -35.363261, Lng : 149.1652299, Q1 : 0.998134791851, Q2 : 0.0, Q3 : 0.0, Q4 : -0.0610485821962}
2019-04-03 22:18:24.01: SIM {TimeUS : 56234164, Roll : 0.0, Pitch : 0.0, Yaw : 353.0, Alt : 584.090026855, Lat : -35.363261, Lng : 149.1652299, Q1 : 0.998134791851, Q2 : 0.0, Q3 : 0.0, Q4 : -0.0610485821962}
2019-04-03 22:18:24.12: SIM {TimeUS : 56334957, Roll : 0.0, Pitch : 0.0, Yaw : 353.0, Alt : 584.090026855, Lat : -35.363261, Lng : 149.1652299, Q1 : 0.998134791851, Q2 : 0.0, Q3 : 0.0, Q4 : -0.0610485821962}
2019-04-03 22:18:24.21: SIM {TimeUS : 56434917, Roll : 0.0, Pitch : 0.0, Yaw : 353.0, Alt : 584.090026855, Lat : -35.363261, Lng : 149.1652299, Q1 : 0.998134791851, Q2 : 0.0, Q3 : 0.0, Q4 : -0.0610485821962}
2019-04-03 22:18:24.31: SIM {TimeUS : 56534877, Roll : 0.0, Pitch : 0.0, Yaw : 353.0, Alt : 584.090026855, Lat : -35.363261, Lng : 149.1652299, Q1 : 0.998134791851, Q2 : 0.0, Q3 : 0.0, Q4 : -0.0610485821962}
2019-04-03 22:18:24.41: SIM {TimeUS : 56634837, Roll : 0.0, Pitch : 0.0, Yaw : 353.0, Alt : 584.090026855, Lat : -35.363261, Lng : 149.1652299, Q1 : 0.998134791851, Q2 : 0.0, Q3 : 0.0, Q4 : -0.0610485821962}
2019-04-03 22:18:24.51: SIM {TimeUS : 56734797, Roll : 0.0, Pitch : 0.0, Yaw : 353.0, Alt : 584.090026855, Lat : -35.363261, Lng : 149.1652299, Q1 : 0.998134791851, Q2 : 0.0, Q3 : 0.0, Q4 : -0.0610485821962}
2019-04-03 22:18:24.61: SIM {TimeUS : 56834757, Roll : 0.0, Pitch : 0.0, Yaw : 353.0, Alt : 584.090026855, Lat : -35.363261, Lng : 149.1652299, Q1 : 0.998134791851, Q2 : 0.0, Q3 : 0.0, Q4 : -0.0610485821962}
2019-04-03 22:18:24.71: SIM {TimeUS : 56934717, Roll : 0.0, Pitch : 0.0, Yaw : 353.0, Alt : 584.090026855, Lat : -35.363261, Lng : 149.1652299, Q1 : 0.998134791851, Q2 : 0.0, Q3 : 0.0, Q4 : -0.0610485821962}
2019-04-03 22:18:24.81: SIM {TimeUS : 57034677, Roll : 0.0, Pitch : 0.0, Yaw : 353.0, Alt : 584.090026855, Lat : -35.363261, Lng : 149.1652299, Q1 : 0.998134791851, Q2 : 0.0, Q3 : 0.0, Q4 : -0.0610485821962}
2019-04-03 22:18:24.91: SIM {TimeUS : 57134637, Roll : 0.0, Pitch : 0.0, Yaw : 353.0, Alt : 584.090026855, Lat : -35.363261, Lng : 149.1652299, Q1 : 0.998134791851, Q2 : 0.0, Q3 : 0.0, Q4 : -0.0610485821962}
2019-04-03 22:18:25.01: SIM {TimeUS : 57234597, Roll : 0.0, Pitch : 0.0, Yaw : 353.0, Alt : 584.090026855, Lat : -35.363261, Lng : 149.1652299, Q1 : 0.998134791851, Q2 : 0.0, Q3 : 0.0, Q4 : -0.0610485821962}
2019-04-03 22:18:25.11: SIM {TimeUS : 57334557, Roll : 0.0, Pitch : 0.0, Yaw : 353.0, Alt : 584.090026855, Lat : -35.363261, Lng : 149.1652299, Q1 : 0.998134791851, Q2 : 0.0, Q3 : 0.0, Q4 : -0.0610485821962}
2019-04-03 22:18:25.21: SIM {TimeUS : 57434517, Roll : 0.0, Pitch : 0.0, Yaw : 353.0, Alt : 584.090026855, Lat : -35.363261, Lng : 149.1652299, Q1 : 0.998134791851, Q2 : 0.0, Q3 : 0.0, Q4 : -0.0610485821962}
2019-04-03 22:18:25.31: SIM {TimeUS : 57534477, Roll : 0.0, Pitch : 0.0, Yaw : 353.0, Alt : 584.090026855, Lat : -35.363261, Lng : 149.1652299, Q1 : 0.998134791851, Q2 : 0.0, Q3 : 0.0, Q4 : -0.0610485821962}
2019-04-03 22:18:25.41: SIM {TimeUS : 57634437, Roll : 0.0, Pitch : 0.0, Yaw : 353.0, Alt : 584.090026855, Lat : -35.363261, Lng : 149.1652299, Q1 : 0.998134791851, Q2 : 0.0, Q3 : 0.0, Q4 : -0.0610485821962}
2019-04-03 22:18:25.51: SIM {TimeUS : 57734397, Roll : 0.0, Pitch : 0.0, Yaw : 353.0, Alt : 584.090026855, Lat : -35.363261, Lng : 149.1652299, Q1 : 0.998134791851, Q2 : 0.0, Q3 : 0.0, Q4 : -0.0610485821962}
2019-04-03 22:18:25.61: SIM {TimeUS : 57834357, Roll : 0.0, Pitch : 0.0, Yaw : 353.0, Alt : 584.090026855, Lat : -35.363261, Lng : 149.1652299, Q1 : 0.998134791851, Q2 : 0.0, Q3 : 0.0, Q4 : -0.0610485821962}
2019-04-03 22:18:25.71: SIM {TimeUS : 57934317, Roll : 0.0, Pitch : 0.0, Yaw : 353.0, Alt : 584.090026855, Lat : -35.363261, Lng : 149.1652299, Q1 : 0.998134791851, Q2 : 0.0, Q3 : 0.0, Q4 : -0.0610485821962}
2019-04-03 22:18:25.81: SIM {TimeUS : 58034277, Roll : 0.0, Pitch : 0.0, Yaw : 353.0, Alt : 584.090026855, Lat : -35.363261, Lng : 149.1652299, Q1 : 0.998134791851, Q2 : 0.0, Q3 : 0.0, Q4 : -0.0610485821962}
2019-04-03 22:18:25.91: SIM {TimeUS : 58134237, Roll : 0.0, Pitch : 0.0, Yaw : 353.0, Alt : 584.090026855, Lat : -35.363261, Lng : 149.1652299, Q1 : 0.998134791851, Q2 : 0.0, Q3 : 0.0, Q4 : -0.0610485821962}
2019-04-03 22:18:26.01: SIM {TimeUS : 58234197, Roll : 0.0, Pitch : 0.0, Yaw : 353.0, Alt : 584.090026855, Lat : -35.363261, Lng : 149.1652299, Q1 : 0.998134791851, Q2 : 0.0, Q3 : 0.0, Q4 : -0.0610485821962}
2019-04-03 22:18:26.11: SIM {TimeUS : 58334157, Roll : 0.0, Pitch : 0.0, Yaw : 353.0, Alt : 584.090026855, Lat : -35.363261, Lng : 149.1652299, Q1 : 0.998134791851, Q2 : 0.0, Q3 : 0.0, Q4 : -0.0610485821962}
2019-04-03 22:18:26.22: SIM {TimeUS : 58434950, Roll : 0.0, Pitch : 0.0, Yaw : 353.0, Alt : 584.090026855, Lat : -35.363261, Lng : 149.1652299, Q1 : 0.998134791851, Q2 : 0.0, Q3 : 0.0, Q4 : -0.0610485821962}
2019-04-03 22:18:26.31: SIM {TimeUS : 58534910, Roll : 0.0, Pitch : 0.0, Yaw : 353.0, Alt : 584.090026855, Lat : -35.363261, Lng : 149.1652299, Q1 : 0.998134791851, Q2 : 0.0, Q3 : 0.0, Q4 : -0.0610485821962}
2019-04-03 22:18:26.41: SIM {TimeUS : 58634870, Roll : 0.0, Pitch : 0.0, Yaw : 353.0, Alt : 584.090026855, Lat : -35.363261, Lng : 149.1652299, Q1 : 0.998134791851, Q2 : 0.0, Q3 : 0.0, Q4 : -0.0610485821962}
2019-04-03 22:18:26.51: SIM {TimeUS : 58734830, Roll : 0.0, Pitch : 0.0, Yaw : 353.0, Alt : 584.090026855, Lat : -35.363261, Lng : 149.1652299, Q1 : 0.998134791851, Q2 : 0.0, Q3 : 0.0, Q4 : -0.0610485821962}
2019-04-03 22:18:26.61: SIM {TimeUS : 58834790, Roll : 0.0, Pitch : 0.0, Yaw : 353.0, Alt : 584.090026855, Lat : -35.363261, Lng : 149.1652299, Q1 : 0.998134791851, Q2 : 0.0, Q3 : 0.0, Q4 : -0.0610485821962}
2019-04-03 22:18:26.71: SIM {TimeUS : 58934750, Roll : 0.0, Pitch : 0.0, Yaw : 353.0, Alt : 584.090026855, Lat : -35.363261, Lng : 149.1652299, Q1 : 0.998134791851, Q2 : 0.0, Q3 : 0.0, Q4 : -0.0610486753285}
2019-04-03 22:18:26.81: SIM {TimeUS : 59034710, Roll : 0.0, Pitch : 0.0, Yaw : 353.0, Alt : 584.090026855, Lat : -35.363261, Lng : 149.1652299, Q1 : 0.998134791851, Q2 : 0.0, Q3 : 0.0, Q4 : -0.0610486753285}
2019-04-03 22:18:26.91: SIM {TimeUS : 59134670, Roll : 0.0, Pitch : 0.0, Yaw : 353.0, Alt : 584.090026855, Lat : -35.363261, Lng : 149.1652299, Q1 : 0.998134791851, Q2 : 0.0, Q3 : 0.0, Q4 : -0.0610486753285}
2019-04-03 22:18:27.01: SIM {TimeUS : 59234630, Roll : 0.0, Pitch : 0.0, Yaw : 353.0, Alt : 584.090026855, Lat : -35.363261, Lng : 149.1652299, Q1 : 0.998134791851, Q2 : 0.0, Q3 : 0.0, Q4 : -0.0610486753285}
2019-04-03 22:18:27.11: SIM {TimeUS : 59334590, Roll : 0.0, Pitch : 0.0, Yaw : 353.0, Alt : 584.090026855, Lat : -35.363261, Lng : 149.1652299, Q1 : 0.998134791851, Q2 : 0.0, Q3 : 0.0, Q4 : -0.0610486753285}
2019-04-03 22:18:27.21: SIM {TimeUS : 59434550, Roll : 0.0, Pitch : 0.0, Yaw : 353.0, Alt : 584.090026855, Lat : -35.363261, Lng : 149.1652299, Q1 : 0.998134791851, Q2 : 0.0, Q3 : 0.0, Q4 : -0.0610486641526}
2019-04-03 22:18:27.31: SIM {TimeUS : 59534510, Roll : 0.0, Pitch : 0.0, Yaw : 353.0, Alt : 584.090026855, Lat : -35.363261, Lng : 149.1652299, Q1 : 0.998134791851, Q2 : 0.0, Q3 : 0.0, Q4 : -0.0610486753285}
2019-04-03 22:18:27.41: SIM {TimeUS : 59634470, Roll : 0.0, Pitch : 0.0, Yaw : 353.0, Alt : 584.090026855, Lat : -35.363261, Lng : 149.1652299, Q1 : 0.998134791851, Q2 : 0.0, Q3 : 0.0, Q4 : -0.0610486753285}
2019-04-03 22:18:27.51: SIM {TimeUS : 59734430, Roll : 0.0, Pitch : 0.0, Yaw : 353.0, Alt : 584.099975586, Lat : -35.363261, Lng : 149.1652299, Q1 : 0.998134791851, Q2 : 0.0, Q3 : 0.0, Q4 : -0.0610486753285}
2019-04-03 22:18:27.61: SIM {TimeUS : 59834390, Roll : 0.0, Pitch : 0.0, Yaw : 353.0, Alt : 584.099975586, Lat : -35.363261, Lng : 149.1652299, Q1 : 0.998134791851, Q2 : 0.0, Q3 : 0.0, Q4 : -0.0610486753285}
2019-04-03 22:18:27.71: SIM {TimeUS : 59934350, Roll : 0.0, Pitch : 0.0, Yaw : 353.0, Alt : 584.119995117, Lat : -35.363261, Lng : 149.1652299, Q1 : 0.998134791851, Q2 : 0.0, Q3 : 0.0, Q4 : -0.0610486753285}
2019-04-03 22:18:27.81: SIM {TimeUS : 60034310, Roll : 0.0, Pitch : 0.0, Yaw : 353.0, Alt : 584.140014648, Lat : -35.363261, Lng : 149.1652299, Q1 : 0.998134791851, Q2 : 0.0, Q3 : 0.0, Q4 : -0.0610486753285}
2019-04-03 22:18:27.91: SIM {TimeUS : 60134270, Roll : 0.0, Pitch : 0.0, Yaw : 353.0, Alt : 584.16998291, Lat : -35.363261, Lng : 149.1652299, Q1 : 0.998134791851, Q2 : 0.0, Q3 : 0.0, Q4 : -0.0610486753285}
2019-04-03 22:18:28.01: SIM {TimeUS : 60234230, Roll : 0.0, Pitch : 0.0, Yaw : 353.0, Alt : 584.200012207, Lat : -35.363261, Lng : 149.1652299, Q1 : 0.998134791851, Q2 : 0.0, Q3 : 0.0, Q4 : -0.0610486641526}
2019-04-03 22:18:28.11: SIM {TimeUS : 60334190, Roll : -0.02, Pitch : -0.02, Yaw : 352.99, Alt : 584.260009766, Lat : -35.363261, Lng : 149.1652299, Q1 : 0.998134493828, Q2 : -0.000222199843847, Q3 : -0.000204705414944, Q4 : -0.0610527358949}
2019-04-03 22:18:28.21: SIM {TimeUS : 60434150, Roll : -0.07, Pitch : -0.08, Yaw : 352.99, Alt : 584.359985352, Lat : -35.363261, Lng : 149.1652299, Q1 : 0.998133480549, Q2 : -0.000673637085129, Q3 : -0.000690593151376, Q4 : -0.0610633790493}
2019-04-03 22:18:28.32: SIM {TimeUS : 60534943, Roll : -0.12, Pitch : -0.13, Yaw : 352.99, Alt : 584.510009766, Lat : -35.363261, Lng : 149.1652299, Q1 : 0.998131453991, Q2 : -0.00119557394646, Q3 : -0.0011209261138, Q4 : -0.0610813163221}
2019-04-03 22:18:28.41: SIM {TimeUS : 60634903, Roll : -0.16, Pitch : -0.16, Yaw : 352.99, Alt : 584.66998291, Lat : -35.363261, Lng : 149.1652299, Q1 : 0.998129248619, Q2 : -0.00156655185856, Q3 : -0.00133241852745, Q4 : -0.0611050389707}
2019-04-03 22:18:28.51: SIM {TimeUS : 60734863, Roll : -0.17, Pitch : -0.17, Yaw : 352.99, Alt : 584.820007324, Lat : -35.363261, Lng : 149.1652299, Q1 : 0.998127579689, Q2 : -0.00164832454175, Q3 : -0.00140095327515, Q4 : -0.0611289665103}
2019-04-03 22:18:28.61: SIM {TimeUS : 60834823, Roll : -0.16, Pitch : -0.15, Yaw : 352.98, Alt : 584.969970703, Lat : -35.363261, Lng : 149.1652299, Q1 : 0.998126268387, Q2 : -0.00155974167865, Q3 : -0.00129756901879, Q4 : -0.0611545778811}
2019-04-03 22:18:28.71: SIM {TimeUS : 60934783, Roll : -0.14, Pitch : -0.1, Yaw : 352.98, Alt : 585.119995117, Lat : -35.363261, Lng : 149.1652299, Q1 : 0.998125851154, Q2 : -0.00130601797719, Q3 : -0.0008628218784, Q4 : -0.0611751191318}
2019-04-03 22:18:28.81: SIM {TimeUS : 61034743, Roll : -0.11, Pitch : -0.04, Yaw : 352.98, Alt : 585.280029297, Lat : -35.363261, Lng : 149.1652299, Q1 : 0.998125493526, Q2 : -0.0010387673974, Q3 : -0.000321120634908, Q4 : -0.0611919388175}
2019-04-03 22:18:28.91: SIM {TimeUS : 61134703, Roll : -0.07, Pitch : 0.01, Yaw : 352.98, Alt : 585.450012207, Lat : -35.363261, Lng : 149.1652299, Q1 : 0.998125135899, Q2 : -0.000616673554759, Q3 : 0.00014749802358, Q4 : -0.0612031593919}
2019-04-03 22:18:29.01: SIM {TimeUS : 61234663, Roll : -0.03, Pitch : 0.04, Yaw : 352.98, Alt : 585.619995117, Lat : -35.363261, Lng : 149.1652299, Q1 : 0.99812489748, Q2 : -0.000263489753706, Q3 : 0.000387347885408, Q4 : -0.0612088255584}
2019-04-03 22:18:29.11: SIM {TimeUS : 61334623, Roll : 0.0, Pitch : 0.03, Yaw : 352.98, Alt : 585.789978027, Lat : -35.363261, Lng : 149.1652298, Q1 : 0.998125195503, Q2 : 8.95203193068e-05, Q3 : 0.000288763461867, Q4 : -0.061204854399}
2019-04-03 22:18:29.21: SIM {TimeUS : 61434583, Roll : 0.03, Pitch : -0.01, Yaw : 352.98, Alt : 585.969970703, Lat : -35.363261, Lng : 149.1652298, Q1 : 0.998126268387, Q2 : 0.000339136371622, Q3 : -0.000150187202962, Q4 : -0.06118664518}
2019-04-03 22:18:29.31: SIM {TimeUS : 61534543, Roll : 0.04, Pitch : -0.03, Yaw : 352.98, Alt : 586.159973145, Lat : -35.363261, Lng : 149.1652298, Q1 : 0.998127698898, Q2 : 0.000367559114238, Q3 : -0.00033188550151, Q4 : -0.0611632689834}
2019-04-03 22:18:29.41: SIM {TimeUS : 61634503, Roll : 0.04, Pitch : -0.01, Yaw : 352.99, Alt : 586.349975586, Lat : -35.363261, Lng : 149.1652298, Q1 : 0.998129665852, Q2 : 0.000364430656191, Q3 : -0.000182080824743, Q4 : -0.0611314438283}
2019-04-03 22:18:29.51: SIM {TimeUS : 61734463, Roll : 0.03, Pitch : 0.0, Yaw : 352.99, Alt : 586.539978027, Lat : -35.363261, Lng : 149.1652298, Q1 : 0.998131275177, Q2 : 0.000337294681231, Q3 : -1.1290263501e-05, Q4 : -0.0611053705215}
2019-04-03 22:18:29.61: SIM {TimeUS : 61834423, Roll : 0.02, Pitch : 0.0, Yaw : 352.99, Alt : 586.729980469, Lat : -35.363261, Lng : 149.1652298, Q1 : 0.998132169247, Q2 : 0.000226897303946, Q3 : 5.52093042643e-05, Q4 : -0.0610915534198}
2019-04-03 22:18:29.71: SIM {TimeUS : 61934383, Roll : 0.02, Pitch : 0.01, Yaw : 352.99, Alt : 586.929992676, Lat : -35.363261, Lng : 149.1652298, Q1 : 0.998132288456, Q2 : 0.000184880525921, Q3 : 8.28371485113e-05, Q4 : -0.0610894747078}
2019-04-03 22:18:29.81: SIM {TimeUS : 62034343, Roll : 0.02, Pitch : 0.0, Yaw : 352.99, Alt : 587.130004883, Lat : -35.363261, Lng : 149.1652298, Q1 : 0.998131752014, Q2 : 0.00017715980357, Q3 : 1.79650778591e-05, Q4 : -0.0610987134278}
2019-04-03 22:18:29.91: SIM {TimeUS : 62134303, Roll : 0.02, Pitch : 0.0, Yaw : 352.99, Alt : 587.33001709, Lat : -35.363261, Lng : 149.1652298, Q1 : 0.998130679131, Q2 : 0.000201465678401, Q3 : -3.28053138219e-05, Q4 : -0.0611162260175}
2019-04-03 22:18:30.01: SIM {TimeUS : 62234263, Roll : 0.02, Pitch : -0.01, Yaw : 352.98, Alt : 587.530029297, Lat : -35.363261, Lng : 149.1652298, Q1 : 0.998129367828, Q2 : 0.000252125581028, Q3 : -0.00011871613242, Q4 : -0.0611371099949}
2019-04-03 22:18:30.11: SIM {TimeUS : 62334223, Roll : 0.03, Pitch : 0.0, Yaw : 352.98, Alt : 587.739990234, Lat : -35.363261, Lng : 149.1652298, Q1 : 0.998127996922, Q2 : 0.000304139219224, Q3 : -4.884900045e-05, Q4 : -0.0611589327455}
2019-04-03 22:18:30.21: SIM {TimeUS : 62434183, Roll : 0.04, Pitch : 0.0, Yaw : 352.98, Alt : 587.950012207, Lat : -35.3632609, Lng : 149.1652298, Q1 : 0.998126089573, Q2 : 0.00039423283306, Q3 : 3.17497979268e-05, Q4 : -0.0611900761724}
2019-04-03 22:18:30.31: SIM {TimeUS : 62534143, Roll : 0.04, Pitch : 0.0, Yaw : 352.97, Alt : 588.150024414, Lat : -35.3632609, Lng : 149.1652298, Q1 : 0.998123586178, Q2 : 0.000416022841819, Q3 : 2.33074661082e-05, Q4 : -0.0612301267684}
2019-04-03 22:18:30.42: SIM {TimeUS : 62634936, Roll : 0.02, Pitch : -0.01, Yaw : 352.97, Alt : 588.369995117, Lat : -35.3632609, Lng : 149.1652298, Q1 : 0.998121201992, Q2 : 0.000223115377594, Q3 : -0.000141507625813, Q4 : -0.0612698942423}
2019-04-03 22:18:30.51: SIM {TimeUS : 62734896, Roll : -0.01, Pitch : -0.04, Yaw : 352.97, Alt : 588.58001709, Lat : -35.3632609, Lng : 149.1652298, Q1 : 0.998119354248, Q2 : -0.000124159851111, Q3 : -0.000377874821424, Q4 : -0.0612996332347}
2019-04-03 22:18:30.61: SIM {TimeUS : 62834856, Roll : -0.04, Pitch : -0.07, Yaw : 352.96, Alt : 588.789978027, Lat : -35.3632609, Lng : 149.1652298, Q1 : 0.998117804527, Q2 : -0.000440725125372, Q3 : -0.000636338896584, Q4 : -0.0613209754229}
2019-04-03 22:18:30.71: SIM {TimeUS : 62934816, Roll : -0.05, Pitch : -0.1, Yaw : 352.96, Alt : 589.0, Lat : -35.3632609, Lng : 149.1652298, Q1 : 0.99811655283, Q2 : -0.000554636237212, Q3 : -0.000873853918165, Q4 : -0.0613375939429}
2019-04-03 22:18:30.81: SIM {TimeUS : 63034776, Roll : -0.05, Pitch : -0.1, Yaw : 352.96, Alt : 589.200012207, Lat : -35.3632609, Lng : 149.1652298, Q1 : 0.99811565876, Q2 : -0.000511246733367, Q3 : -0.000912930176128, Q4 : -0.0613519512117}
2019-04-03 22:18:30.91: SIM {TimeUS : 63134736, Roll : -0.03, Pitch : -0.07, Yaw : 352.96, Alt : 589.400024414, Lat : -35.3632609, Lng : 149.1652297, Q1 : 0.998114943504, Q2 : -0.000369501794921, Q3 : -0.000648557615932, Q4 : -0.0613675750792}
2019-04-03 22:18:31.01: SIM {TimeUS : 63234696, Roll : -0.03, Pitch : -0.03, Yaw : 352.96, Alt : 589.590026855, Lat : -35.3632609, Lng : 149.1652297, Q1 : 0.998114168644, Q2 : -0.000356926582754, Q3 : -0.000271507509751, Q4 : -0.0613839253783}
2019-04-03 22:18:31.11: SIM {TimeUS : 63334656, Roll : -0.04, Pitch : 0.01, Yaw : 352.95, Alt : 589.760009766, Lat : -35.3632609, Lng : 149.1652297, Q1 : 0.998113274574, Q2 : -0.000410311360611, Q3 : 0.000149884624989, Q4 : -0.061398062855}
2019-04-03 22:18:31.21: SIM {TimeUS : 63434616, Roll : -0.03, Pitch : 0.08, Yaw : 352.95, Alt : 589.91998291, Lat : -35.3632609, Lng : 149.1652297, Q1 : 0.998112261295, Q2 : -0.000303639535559, Q3 : 0.000735714216717, Q4 : -0.0614116378129}
2019-04-03 22:18:31.31: SIM {TimeUS : 63534576, Roll : 0.06, Pitch : 0.35, Yaw : 352.95, Alt : 590.070007324, Lat : -35.3632609, Lng : 149.1652297, Q1 : 0.998106658459, Q2 : 0.00073217053432, Q3 : 0.00305642653257, Q4 : -0.0614263638854}
2019-04-03 22:18:31.41: SIM {TimeUS : 63634536, Roll : 0.3, Pitch : 0.95, Yaw : 352.95, Alt : 590.210021973, Lat : -35.3632609, Lng : 149.1652297, Q1 : 0.998072087765, Q2 : 0.00319634913467, Q3 : 0.00814434606582, Q4 : -0.0614452846348}
2019-04-03 22:18:31.51: SIM {TimeUS : 63734496, Roll : 0.64, Pitch : 1.81, Yaw : 352.96, Alt : 590.340026855, Lat : -35.3632609, Lng : 149.1652297, Q1 : 0.997967541218, Q2 : 0.00662618549541, Q3 : 0.0154217556119, Q4 : -0.0614743940532}
2019-04-03 22:18:31.61: SIM {TimeUS : 63834456, Roll : 1.05, Pitch : 2.81, Yaw : 352.96, Alt : 590.450012207, Lat : -35.3632609, Lng : 149.1652297, Q1 : 0.997760236263, Q2 : 0.0107085248455, Q3 : 0.0239654667675, Q4 : -0.0615263059735}
2019-04-03 22:18:31.71: SIM {TimeUS : 63934416, Roll : 1.48, Pitch : 3.88, Yaw : 352.97, Alt : 590.549987793, Lat : -35.363261, Lng : 149.1652298, Q1 : 0.997438967228, Q2 : 0.015010913834, Q3 : 0.033060412854, Q4 : -0.0616216436028}
2019-04-03 22:18:31.81: SIM {TimeUS : 64034376, Roll : 1.87, Pitch : 4.86, Yaw : 352.98, Alt : 590.640014648, Lat : -35.363261, Lng : 149.1652298, Q1 : 0.997051298618, Q2 : 0.0189263410866, Q3 : 0.0413959883153, Q4 : -0.0617808327079}
2019-04-03 22:18:31.91: SIM {TimeUS : 64134336, Roll : 2.18, Pitch : 5.65, Yaw : 352.98, Alt : 590.719970703, Lat : -35.3632611, Lng : 149.1652298, Q1 : 0.996673882008, Q2 : 0.0220260508358, Q3 : 0.0480799004436, Q4 : -0.0620030723512}
2019-04-03 22:18:32.01: SIM {TimeUS : 64234296, Roll : 2.42, Pitch : 6.25, Yaw : 352.98, Alt : 590.789978027, Lat : -35.3632614, Lng : 149.1652299, Q1 : 0.996343851089, Q2 : 0.0244235787541, Q3 : 0.0531526207924, Q4 : -0.0622669644654}
2019-04-03 22:18:32.11: SIM {TimeUS : 64334256, Roll : 2.61, Pitch : 6.68, Yaw : 352.96, Alt : 590.859985352, Lat : -35.3632616, Lng : 149.1652302, Q1 : 0.996077954769, Q2 : 0.0263274069875, Q3 : 0.0567506700754, Q4 : -0.062569797039}
2019-04-03 22:18:32.21: SIM {TimeUS : 64434216, Roll : 2.76, Pitch : 7.01, Yaw : 352.94, Alt : 590.909973145, Lat : -35.3632621, Lng : 149.1652303, Q1 : 0.995852768421, Q2 : 0.027818646282, Q3 : 0.0595892928541, Q4 : -0.0628686472774}
2019-04-03 22:18:32.31: SIM {TimeUS : 64534176, Roll : 2.89, Pitch : 7.32, Yaw : 352.92, Alt : 590.960021973, Lat : -35.3632625, Lng : 149.1652307, Q1 : 0.995638847351, Q2 : 0.0291082616895, Q3 : 0.0621947459877, Q4 : -0.0631489679217}
2019-04-03 22:18:32.41: SIM {TimeUS : 64634136, Roll : 2.99, Pitch : 7.59, Yaw : 352.91, Alt : 591.010009766, Lat : -35.3632631, Lng : 149.1652311, Q1 : 0.99544686079, Q2 : 0.0301349423826, Q3 : 0.0644851848483, Q4 : -0.0633968636394}
2019-04-03 22:18:32.51: SIM {TimeUS : 64734929, Roll : 3.06, Pitch : 7.8, Yaw : 352.89, Alt : 591.049987793, Lat : -35.3632637, Lng : 149.1652315, Q1 : 0.995297849178, Q2 : 0.0308107994497, Q3 : 0.066234767437, Q4 : -0.0636080056429}
2019-04-03 22:18:32.61: SIM {TimeUS : 64834889, Roll : 3.08, Pitch : 7.93, Yaw : 352.88, Alt : 591.090026855, Lat : -35.3632643, Lng : 149.1652318, Q1 : 0.995201766491, Q2 : 0.0311082489789, Q3 : 0.0673760324717, Q4 : -0.0637669414282}
2019-04-03 22:18:32.71: SIM {TimeUS : 64934849, Roll : 3.09, Pitch : 8.02, Yaw : 352.87, Alt : 591.119995117, Lat : -35.3632651, Lng : 149.1652323, Q1 : 0.995138347149, Q2 : 0.031265232712, Q3 : 0.0681346431375, Q4 : -0.0638738796115}
2019-04-03 22:18:32.81: SIM {TimeUS : 65034809, Roll : 3.12, Pitch : 8.14, Yaw : 352.87, Alt : 591.159973145, Lat : -35.3632659, Lng : 149.1652329, Q1 : 0.995056092739, Q2 : 0.0315297096968, Q3 : 0.0691575631499, Q4 : -0.0639255493879}
2019-04-03 22:18:32.91: SIM {TimeUS : 65134769, Roll : 3.04, Pitch : 8.41, Yaw : 352.97, Alt : 591.190002441, Lat : -35.3632668, Lng : 149.1652335, Q1 : 0.994961261749, Q2 : 0.0309596918523, Q3 : 0.0715551972389, Q4 : -0.0630352124572}
2019-04-03 22:18:33.01: SIM {TimeUS : 65234729, Roll : 2.78, Pitch : 8.88, Yaw : 353.67, Alt : 591.219970703, Lat : -35.3632677, Lng : 149.1652341, Q1 : 0.995078206062, Q2 : 0.0284970514476, Q3 : 0.0759866386652, Q4 : -0.0568625219166}
2019-04-03 22:18:33.11: SIM {TimeUS : 65334689, Roll : 2.55, Pitch : 9.48, Yaw : 355.69, Alt : 591.25, Lat : -35.3632687, Lng : 149.1652348, Q1 : 0.995557546616, Q2 : 0.0252932775766, Q3 : 0.0817377641797, Q4 : -0.0392980463803}
2019-04-03 22:18:33.21: SIM {TimeUS : 65434649, Roll : 2.71, Pitch : 9.95, Yaw : 359.38, Alt : 591.280029297, Lat : -35.3632698, Lng : 149.1652354, Q1 : 0.99592423439, Q2 : 0.0240306090564, Q3 : 0.0866193175316, Q4 : -0.00738824671134}
2019-04-03 22:18:33.31: SIM {TimeUS : 65534609, Roll : 3.44, Pitch : 10.1, Yaw : 4.67, Alt : 591.309997559, Lat : -35.3632708, Lng : 149.165236, Q1 : 0.994942545891, Q2 : 0.0263107959181, Q3 : 0.0891985744238, Q4 : 0.0379555784166}
2019-04-03 22:18:33.41: SIM {TimeUS : 65634569, Roll : 4.77, Pitch : 9.8, Yaw : 11.26, Alt : 591.340026855, Lat : -35.3632722, Lng : 149.1652368, Q1 : 0.991020858288, Q2 : 0.0329333506525, Q3 : 0.0890088379383, Q4 : 0.0941834747791}
2019-04-03 22:18:33.51: SIM {TimeUS : 65734529, Roll : 6.55, Pitch : 8.96, Yaw : 18.81, Alt : 591.369995117, Lat : -35.3632735, Lng : 149.1652375, Q1 : 0.98265427351, Q2 : 0.0434899814427, Q3 : 0.0862642973661, Q4 : 0.15829642117}
2019-04-03 22:18:33.61: SIM {TimeUS : 65834489, Roll : 8.51, Pitch : 7.61, Yaw : 26.97, Alt : 591.409973145, Lat : -35.363275, Lng : 149.1652382, Q1 : 0.968739330769, Q2 : 0.056609980762, Q3 : 0.0816430896521, Q4 : 0.227318704128}
2019-04-03 22:18:33.71: SIM {TimeUS : 65934449, Roll : 10.37, Pitch : 5.82, Yaw : 35.44, Alt : 591.440002441, Lat : -35.3632763, Lng : 149.1652389, Q1 : 0.948801875114, Q2 : 0.070633687079, Q3 : 0.0756845474243, Q4 : 0.29842543602}
2019-04-03 22:18:33.81: SIM {TimeUS : 66034409, Roll : 11.87, Pitch : 3.72, Yaw : 43.96, Alt : 591.479980469, Lat : -35.363278, Lng : 149.1652398, Q1 : 0.923092782497, Q2 : 0.0838140919805, Q3 : 0.0686539411545, Q4 : 0.369000703096}
2019-04-03 22:18:33.91: SIM {TimeUS : 66134369, Roll : 12.87, Pitch : 1.47, Yaw : 52.3, Alt : 591.510009766, Lat : -35.3632797, Lng : 149.1652407, Q1 : 0.892541825771, Q2 : 0.095032453537, Q3 : 0.0609110184014, Q4 : 0.436609536409}
2019-04-03 22:18:34.01: SIM {TimeUS : 66234329, Roll : 13.37, Pitch : -0.73, Yaw : 60.27, Alt : 591.549987793, Lat : -35.3632814, Lng : 149.1652416, Q1 : 0.858539760113, Q2 : 0.103871993721, Q3 : 0.0529873669147, Q4 : 0.499311953783}
2019-04-03 22:18:34.11: SIM {TimeUS : 66334289, Roll : 13.45, Pitch : -2.76, Yaw : 67.77, Alt : 591.590026855, Lat : -35.363283, Lng : 149.1652426, Q1 : 0.822579801083, Q2 : 0.110613368452, Q3 : 0.0453915521502, Q4 : 0.555937767029}
2019-04-03 22:18:34.21: SIM {TimeUS : 66434249, Roll : 13.25, Pitch : -4.57, Yaw : 74.74, Alt : 591.630004883, Lat : -35.363285, Lng : 149.1652437, Q1 : 0.785968601704, Q2 : 0.115732118487, Q3 : 0.03847957775, Q4 : 0.606117784977}
2019-04-03 22:18:34.31: SIM {TimeUS : 66534209, Roll : 12.85, Pitch : -6.1, Yaw : 81.18, Alt : 591.679992676, Lat : -35.3632869, Lng : 149.1652449, Q1 : 0.749647140503, Q2 : 0.119312867522, Q3 : 0.0325035601854, Q4 : 0.650182425976}
2019-04-03 22:18:34.41: SIM {TimeUS : 66634169, Roll : 12.31, Pitch : -7.4, Yaw : 87.13, Alt : 591.719970703, Lat : -35.3632889, Lng : 149.1652461, Q1 : 0.714100956917, Q2 : 0.121786527336, Q3 : 0.0272914264351, Q4 : 0.68882727623}
2019-04-03 22:18:34.52: SIM {TimeUS : 66734962, Roll : 11.72, Pitch : -8.49, Yaw : 92.74, Alt : 591.770019531, Lat : -35.3632908, Lng : 149.1652475, Q1 : 0.679024040699, Q2 : 0.123632095754, Q3 : 0.0228794831783, Q4 : 0.723268926144}
2019-04-03 22:18:34.61: SIM {TimeUS : 66834922, Roll : 11.09, Pitch : -9.41, Yaw : 98.01, Alt : 591.809997559, Lat : -35.3632931, Lng : 149.1652489, Q1 : 0.644665360451, Q2 : 0.12488886714, Q3 : 0.0191687606275, Q4 : 0.753950893879}
2019-04-03 22:18:34.71: SIM {TimeUS : 66934882, Roll : 10.45, Pitch : -10.23, Yaw : 103.13, Alt : 591.859985352, Lat : -35.3632951, Lng : 149.1652504, Q1 : 0.61015433073, Q2 : 0.126027300954, Q3 : 0.0158578585833, Q4 : 0.782034099102}
2019-04-03 22:18:34.81: SIM {TimeUS : 67034842, Roll : 9.78, Pitch : -11.02, Yaw : 108.21, Alt : 591.909973145, Lat : -35.3632975, Lng : 149.1652518, Q1 : 0.574803709984, Q2 : 0.12727984786, Q3 : 0.0126780504361, Q4 : 0.808232545853}
2019-04-03 22:18:34.91: SIM {TimeUS : 67134802, Roll : 9.03, Pitch : -11.8, Yaw : 113.35, Alt : 591.960021973, Lat : -35.3632998, Lng : 149.1652535, Q1 : 0.537974715233, Q2 : 0.128701329231, Q3 : 0.00916150119156, Q4 : 0.833027780056}
2019-04-03 22:18:35.01: SIM {TimeUS : 67234762, Roll : 8.13, Pitch : -12.59, Yaw : 118.64, Alt : 592.010009766, Lat : -35.3633021, Lng : 149.1652551, Q1 : 0.499165594578, Q2 : 0.130091115832, Q3 : 0.00483281072229, Q4 : 0.856671869755}
2019-04-03 22:18:35.11: SIM {TimeUS : 67334722, Roll : 7.04, Pitch : -13.39, Yaw : 124.13, Alt : 592.059997559, Lat : -35.3633045, Lng : 149.1652566, Q1 : 0.45803374052, Q2 : 0.131411612034, Q3 : -0.000604174332693, Q4 : 0.879167616367}
2019-04-03 22:18:35.21: SIM {TimeUS : 67434682, Roll : 5.75, Pitch : -14.13, Yaw : 129.85, Alt : 592.119995117, Lat : -35.363307, Lng : 149.1652584, Q1 : 0.41442656517, Q2 : 0.132439166307, Q3 : -0.00698796426877, Q4 : 0.900367498398}
2019-04-03 22:18:35.31: SIM {TimeUS : 67534642, Roll : 4.27, Pitch : -14.75, Yaw : 135.79, Alt : 592.16998291, Lat : -35.3633096, Lng : 149.16526, Q1 : 0.368440181017, Q2 : 0.132815346122, Q3 : -0.0140134030953, Q4 : 0.920008480549}
2019-04-03 22:18:35.41: SIM {TimeUS : 67634602, Roll : 2.57, Pitch : -15.21, Yaw : 141.91, Alt : 592.219970703, Lat : -35.3633121, Lng : 149.1652618, Q1 : 0.32050973177, Q2 : 0.132361441851, Q3 : -0.0221277642995, Q4 : 0.937690913677}
2019-04-03 22:18:35.51: SIM {TimeUS : 67734562, Roll : 0.38, Pitch : -15.49, Yaw : 147.94, Alt : 592.280029297, Lat : -35.3633148, Lng : 149.1652636, Q1 : 0.273116081953, Q2 : 0.130438238382, Q3 : -0.0340311340988, Q4 : 0.95248901844}
2019-04-03 22:18:35.61: SIM {TimeUS : 67834522, Roll : -2.11, Pitch : -15.51, Yaw : 153.3, Alt : 592.33001709, Lat : -35.3633175, Lng : 149.1652653, Q1 : 0.231131374836, Q2 : 0.127065137029, Q3 : -0.0489322729409, Q4 : 0.963347494602}
2019-04-03 22:18:35.71: SIM {TimeUS : 67934482, Roll : -4.37, Pitch : -15.3, Yaw : 157.43, Alt : 592.380004883, Lat : -35.3633201, Lng : 149.1652672, Q1 : 0.198780477047, Q2 : 0.123124845326, Q3 : -0.063155323267, Q4 : 0.9702257514}
2019-04-03 22:18:35.81: SIM {TimeUS : 68034442, Roll : -5.93, Pitch : -15.02, Yaw : 160.04, Alt : 592.440002441, Lat : -35.3633229, Lng : 149.1652691, Q1 : 0.178171262145, Q2 : 0.119679957628, Q3 : -0.0731272473931, Q4 : 0.973952829838}
2019-04-03 22:18:35.91: SIM {TimeUS : 68134402, Roll : -6.54, Pitch : -14.8, Yaw : 161.17, Alt : 592.489990234, Lat : -35.3633257, Lng : 149.1652713, Q1 : 0.169172212481, Q2 : 0.117661207914, Q3 : -0.0768807828426, Q4 : 0.975513160229}
2019-04-03 22:18:36.01: SIM {TimeUS : 68234362, Roll : -6.26, Pitch : -14.75, Yaw : 161.01, Alt : 592.539978027, Lat : -35.3633284, Lng : 149.1652734, Q1 : 0.170256093144, Q2 : 0.117550507188, Q3 : -0.0745935365558, Q4 : 0.975515544415}
2019-04-03 22:18:36.11: SIM {TimeUS : 68334322, Roll : -5.26, Pitch : -14.89, Yaw : 159.83, Alt : 592.599975586, Lat : -35.3633312, Lng : 149.1652756, Q1 : 0.179228514433, Q2 : 0.119518272579, Q3 : -0.0675126612186, Q4 : 0.974184036255}
2019-04-03 22:18:36.21: SIM {TimeUS : 68434282, Roll : -3.8, Pitch : -15.17, Yaw : 157.95, Alt : 592.650024414, Lat : -35.363334, Lng : 149.1652777, Q1 : 0.193735659122, Q2 : 0.123258784413, Q3 : -0.0575206689537, Q4 : 0.971578717232}
2019-04-03 22:18:36.31: SIM {TimeUS : 68534242, Roll : -2.14, Pitch : -15.52, Yaw : 155.64, Alt : 592.710021973, Lat : -35.3633368, Lng : 149.1652801, Q1 : 0.211437255144, Q2 : 0.128097116947, Q3 : -0.0465731546283, Q4 : 0.967841088772}
2019-04-03 22:18:36.41: SIM {TimeUS : 68634202, Roll : -0.5, Pitch : -15.85, Yaw : 153.21, Alt : 592.760009766, Lat : -35.3633397, Lng : 149.1652824, Q1 : 0.229974895716, Q2 : 0.133179724216, Q3 : -0.0361585132778, Q4 : 0.963362455368}
2019-04-03 22:18:36.51: SIM {TimeUS : 68734162, Roll : 0.92, Pitch : -16.1, Yaw : 150.96, Alt : 592.820007324, Lat : -35.3633425, Lng : 149.1652847, Q1 : 0.247124746442, Q2 : 0.137633249164, Q3 : -0.0274227522314, Q4 : 0.958767175674}
2019-04-03 22:18:36.62: SIM {TimeUS : 68834955, Roll : 2.01, Pitch : -16.24, Yaw : 149.1, Alt : 592.869995117, Lat : -35.3633455, Lng : 149.165287, Q1 : 0.261230409145, Q2 : 0.140792787075, Q3 : -0.0208773966879, Q4 : 0.954725205898}
2019-04-03 22:18:36.71: SIM {TimeUS : 68934915, Roll : 2.66, Pitch : -16.27, Yaw : 147.83, Alt : 592.929992676, Lat : -35.3633485, Lng : 149.1652892, Q1 : 0.270999521017, Q2 : 0.142322421074, Q3 : -0.0170386079699, Q4 : 0.951847374439}
2019-04-03 22:18:36.81: SIM {TimeUS : 69034875, Roll : 2.9, Pitch : -16.24, Yaw : 147.17, Alt : 592.979980469, Lat : -35.3633516, Lng : 149.1652915, Q1 : 0.276163905859, Q2 : 0.142572149634, Q3 : -0.0158747192472, Q4 : 0.950344502926}
2019-04-03 22:18:36.91: SIM {TimeUS : 69134835, Roll : 2.76, Pitch : -16.2, Yaw : 147.11, Alt : 593.039978027, Lat : -35.3633546, Lng : 149.1652938, Q1 : 0.276916205883, Q2 : 0.141907244921, Q3 : -0.0170115195215, Q4 : 0.950205385685}
2019-04-03 22:18:37.01: SIM {TimeUS : 69234795, Roll : 2.34, Pitch : -16.21, Yaw : 147.53, Alt : 593.090026855, Lat : -35.3633577, Lng : 149.1652959, Q1 : 0.273895800114, Q2 : 0.141021102667, Q3 : -0.0199904348701, Q4 : 0.951154351234}
2019-04-03 22:18:37.11: SIM {TimeUS : 69334755, Roll : 1.73, Pitch : -16.26, Yaw : 148.32, Alt : 593.150024414, Lat : -35.363361, Lng : 149.1652982, Q1 : 0.268055021763, Q2 : 0.140202924609, Q3 : -0.0241586063057, Q4 : 0.952841043472}
2019-04-03 22:18:37.21: SIM {TimeUS : 69434715, Roll : 1.05, Pitch : -16.37, Yaw : 149.32, Alt : 593.200012207, Lat : -35.3633642, Lng : 149.1653004, Q1 : 0.260501742363, Q2 : 0.139749005437, Q3 : -0.0289141815156, Q4 : 0.954868078232}
2019-04-03 22:18:37.31: SIM {TimeUS : 69534675, Roll : 0.37, Pitch : -16.48, Yaw : 150.4, Alt : 593.260009766, Lat : -35.3633674, Lng : 149.1653026, Q1 : 0.252352386713, Q2 : 0.139455258846, Q3 : -0.0335104614496, Q4 : 0.956947028637}
2019-04-03 22:18:37.41: SIM {TimeUS : 69634635, Roll : -0.22, Pitch : -16.57, Yaw : 151.4, Alt : 593.309997559, Lat : -35.3633707, Lng : 149.1653049, Q1 : 0.244615137577, Q2 : 0.139214247465, Q3 : -0.0374609865248, Q4 : 0.958842813969}
2019-04-03 22:18:37.51: SIM {TimeUS : 69734595, Roll : -0.67, Pitch : -16.62, Yaw : 152.25, Alt : 593.369995117, Lat : -35.3633739, Lng : 149.1653071, Q1 : 0.238066360354, Q2 : 0.138970151544, Q3 : -0.0403268635273, Q4 : 0.960409045219}
2019-04-03 22:18:37.61: SIM {TimeUS : 69834555, Roll : -0.96, Pitch : -16.64, Yaw : 152.87, Alt : 593.41998291, Lat : -35.3633771, Lng : 149.1653093, Q1 : 0.233221888542, Q2 : 0.138757735491, Q3 : -0.0420387461782, Q4 : 0.961554288864}
2019-04-03 22:18:37.71: SIM {TimeUS : 69934515, Roll : -1.09, Pitch : -16.63, Yaw : 153.23, Alt : 593.479980469, Lat : -35.3633806, Lng : 149.1653116, Q1 : 0.230323448777, Q2 : 0.138494521379, Q3 : -0.0426681786776, Q4 : 0.962262868881}
2019-04-03 22:18:37.81: SIM {TimeUS : 70034475, Roll : -1.09, Pitch : -16.61, Yaw : 153.35, Alt : 593.530029297, Lat : -35.3633838, Lng : 149.1653139, Q1 : 0.229333117604, Q2 : 0.138383850455, Q3 : -0.0425125733018, Q4 : 0.962522149086}
2019-04-03 22:18:37.91: SIM {TimeUS : 70134435, Roll : -0.99, Pitch : -16.61, Yaw : 153.26, Alt : 593.590026855, Lat : -35.3633873, Lng : 149.1653163, Q1 : 0.230001404881, Q2 : 0.138607025146, Q3 : -0.0417652092874, Q4 : 0.962363302708}
2019-04-03 22:18:38.01: SIM {TimeUS : 70234395, Roll : -0.8, Pitch : -16.63, Yaw : 153.0, Alt : 593.650024414, Lat : -35.3633905, Lng : 149.1653186, Q1 : 0.231934592128, Q2 : 0.139056190848, Q3 : -0.0405126810074, Q4 : 0.961887955666}
2019-04-03 22:18:38.11: SIM {TimeUS : 70334355, Roll : -0.55, Pitch : -16.65, Yaw : 152.64, Alt : 593.700012207, Lat : -35.363394, Lng : 149.165321, Q1 : 0.234663650393, Q2 : 0.139609992504, Q3 : -0.0389415211976, Q4 : 0.961210429668}
2019-04-03 22:18:38.21: SIM {TimeUS : 70434315, Roll : -0.31, Pitch : -16.68, Yaw : 152.23, Alt : 593.760009766, Lat : -35.3633973, Lng : 149.1653232, Q1 : 0.237742230296, Q2 : 0.140193626285, Q3 : -0.0374026410282, Q4 : 0.96042984724}
2019-04-03 22:18:38.31: SIM {TimeUS : 70534275, Roll : -0.08, Pitch : -16.72, Yaw : 151.84, Alt : 593.809997559, Lat : -35.3634008, Lng : 149.1653256, Q1 : 0.240742832422, Q2 : 0.140874415636, Q3 : -0.0360628701746, Q4 : 0.959633648396}
2019-04-03 22:18:38.41: SIM {TimeUS : 70634235, Roll : 0.12, Pitch : -16.77, Yaw : 151.5, Alt : 593.869995117, Lat : -35.3634043, Lng : 149.165328, Q1 : 0.243310958147, Q2 : 0.141595959663, Q3 : -0.0348782502115, Q4 : 0.958923280239}
2019-04-03 22:18:38.51: SIM {TimeUS : 70734195, Roll : 0.27, Pitch : -16.8, Yaw : 151.25, Alt : 593.929992676, Lat : -35.3634078, Lng : 149.1653304, Q1 : 0.245234057307, Q2 : 0.1421572119, Q3 : -0.0339369736612, Q4 : 0.958383977413}
