2019-04-03 21:46:41.41: SIM {TimeUS : 43834959, Roll : 0.0, Pitch : 0.0, Yaw : 353.0, Alt : 584.090026855, Lat : -35.363261, Lng : 149.1652299, Q1 : 0.998134791851, Q2 : 0.0, Q3 : 0.0, Q4 : -0.0610485821962}
2019-04-03 21:46:41.51: SIM {TimeUS : 43934919, Roll : 0.0, Pitch : 0.0, Yaw : 353.0, Alt : 584.090026855, Lat : -35.363261, Lng : 149.1652299, Q1 : 0.998134791851, Q2 : 0.0, Q3 : 0.0, Q4 : -0.0610485821962}
2019-04-03 21:46:41.61: SIM {TimeUS : 44034879, Roll : 0.0, Pitch : 0.0, Yaw : 353.0, Alt : 584.090026855, Lat : -35.363261, Lng : 149.1652299, Q1 : 0.998134791851, Q2 : 0.0, Q3 : 0.0, Q4 : -0.0610485821962}
2019-04-03 21:46:41.71: SIM {TimeUS : 44134839, Roll : 0.0, Pitch : 0.0, Yaw : 353.0, Alt : 584.090026855, Lat : -35.363261, Lng : 149.1652299, Q1 : 0.998134791851, Q2 : 0.0, Q3 : 0.0, Q4 : -0.0610485821962}
2019-04-03 21:46:41.81: SIM {TimeUS : 44234799, Roll : 0.0, Pitch : 0.0, Yaw : 353.0, Alt : 584.090026855, Lat : -35.363261, Lng : 149.1652299, Q1 : 0.998134791851, Q2 : 0.0, Q3 : 0.0, Q4 : -0.0610485821962}
2019-04-03 21:46:41.91: SIM {TimeUS : 44334759, Roll : 0.0, Pitch : 0.0, Yaw : 353.0, Alt : 584.090026855, Lat : -35.363261, Lng : 149.1652299, Q1 : 0.998134791851, Q2 : 0.0, Q3 : 0.0, Q4 : -0.0610485821962}
2019-04-03 21:46:42.01: SIM {TimeUS : 44434719, Roll : 0.0, Pitch : 0.0, Yaw : 353.0, Alt : 584.090026855, Lat : -35.363261, Lng : 149.1652299, Q1 : 0.998134791851, Q2 : 0.0, Q3 : 0.0, Q4 : -0.0610485821962}
2019-04-03 21:46:42.11: SIM {TimeUS : 44534679, Roll : 0.0, Pitch : 0.0, Yaw : 353.0, Alt : 584.090026855, Lat : -35.363261, Lng : 149.1652299, Q1 : 0.998134791851, Q2 : 0.0, Q3 : 0.0, Q4 : -0.0610485821962}
2019-04-03 21:46:42.21: SIM {TimeUS : 44634639, Roll : 0.0, Pitch : 0.0, Yaw : 353.0, Alt : 584.090026855, Lat : -35.363261, Lng : 149.1652299, Q1 : 0.998134791851, Q2 : 0.0, Q3 : 0.0, Q4 : -0.0610485821962}
2019-04-03 21:46:42.31: SIM {TimeUS : 44734599, Roll : 0.0, Pitch : 0.0, Yaw : 353.0, Alt : 584.090026855, Lat : -35.363261, Lng : 149.1652299, Q1 : 0.998134791851, Q2 : 0.0, Q3 : 0.0, Q4 : -0.0610485821962}
2019-04-03 21:46:42.41: SIM {TimeUS : 44834559, Roll : 0.0, Pitch : 0.0, Yaw : 353.0, Alt : 584.090026855, Lat : -35.363261, Lng : 149.1652299, Q1 : 0.998134791851, Q2 : 0.0, Q3 : 0.0, Q4 : -0.0610485821962}
2019-04-03 21:46:42.51: SIM {TimeUS : 44934519, Roll : 0.0, Pitch : 0.0, Yaw : 353.0, Alt : 584.090026855, Lat : -35.363261, Lng : 149.1652299, Q1 : 0.998134791851, Q2 : 0.0, Q3 : 0.0, Q4 : -0.0610485821962}
2019-04-03 21:46:42.61: SIM {TimeUS : 45034479, Roll : 0.0, Pitch : 0.0, Yaw : 353.0, Alt : 584.090026855, Lat : -35.363261, Lng : 149.1652299, Q1 : 0.998134791851, Q2 : 0.0, Q3 : 0.0, Q4 : -0.0610485821962}
2019-04-03 21:46:42.71: SIM {TimeUS : 45134439, Roll : 0.0, Pitch : 0.0, Yaw : 353.0, Alt : 584.090026855, Lat : -35.363261, Lng : 149.1652299, Q1 : 0.998134791851, Q2 : 0.0, Q3 : 0.0, Q4 : -0.0610485821962}
2019-04-03 21:46:42.81: SIM {TimeUS : 45234399, Roll : 0.0, Pitch : 0.0, Yaw : 353.0, Alt : 584.090026855, Lat : -35.363261, Lng : 149.1652299, Q1 : 0.998134791851, Q2 : 0.0, Q3 : 0.0, Q4 : -0.0610485821962}
2019-04-03 21:46:42.91: SIM {TimeUS : 45334359, Roll : 0.0, Pitch : 0.0, Yaw : 353.0, Alt : 584.090026855, Lat : -35.363261, Lng : 149.1652299, Q1 : 0.998134791851, Q2 : 0.0, Q3 : 0.0, Q4 : -0.0610485821962}
2019-04-03 21:46:43.01: SIM {TimeUS : 45434319, Roll : 0.0, Pitch : 0.0, Yaw : 353.0, Alt : 584.090026855, Lat : -35.363261, Lng : 149.1652299, Q1 : 0.998134791851, Q2 : 0.0, Q3 : 0.0, Q4 : -0.0610485821962}
2019-04-03 21:46:43.11: SIM {TimeUS : 45534279, Roll : 0.0, Pitch : 0.0, Yaw : 353.0, Alt : 584.090026855, Lat : -35.363261, Lng : 149.1652299, Q1 : 0.998134791851, Q2 : 0.0, Q3 : 0.0, Q4 : -0.0610485821962}
2019-04-03 21:46:43.21: SIM {TimeUS : 45634239, Roll : 0.0, Pitch : 0.0, Yaw : 353.0, Alt : 584.090026855, Lat : -35.363261, Lng : 149.1652299, Q1 : 0.998134791851, Q2 : 0.0, Q3 : 0.0, Q4 : -0.0610485821962}
2019-04-03 21:46:43.31: SIM {TimeUS : 45734199, Roll : 0.0, Pitch : 0.0, Yaw : 353.0, Alt : 584.090026855, Lat : -35.363261, Lng : 149.1652299, Q1 : 0.998134791851, Q2 : 0.0, Q3 : 0.0, Q4 : -0.0610485821962}
2019-04-03 21:46:43.42: SIM {TimeUS : 45834992, Roll : 0.0, Pitch : 0.0, Yaw : 353.0, Alt : 584.090026855, Lat : -35.363261, Lng : 149.1652299, Q1 : 0.998134791851, Q2 : 0.0, Q3 : 0.0, Q4 : -0.0610485821962}
2019-04-03 21:46:43.51: SIM {TimeUS : 45934952, Roll : 0.0, Pitch : 0.0, Yaw : 353.0, Alt : 584.090026855, Lat : -35.363261, Lng : 149.1652299, Q1 : 0.998134791851, Q2 : 0.0, Q3 : 0.0, Q4 : -0.0610485821962}
2019-04-03 21:46:43.61: SIM {TimeUS : 46034912, Roll : 0.0, Pitch : 0.0, Yaw : 353.0, Alt : 584.090026855, Lat : -35.363261, Lng : 149.1652299, Q1 : 0.998134791851, Q2 : 0.0, Q3 : 0.0, Q4 : -0.0610485821962}
2019-04-03 21:46:43.71: SIM {TimeUS : 46134872, Roll : 0.0, Pitch : 0.0, Yaw : 353.0, Alt : 584.090026855, Lat : -35.363261, Lng : 149.1652299, Q1 : 0.998134791851, Q2 : 0.0, Q3 : 0.0, Q4 : -0.0610485821962}
2019-04-03 21:46:43.81: SIM {TimeUS : 46234832, Roll : 0.0, Pitch : 0.0, Yaw : 353.0, Alt : 584.090026855, Lat : -35.363261, Lng : 149.1652299, Q1 : 0.998134791851, Q2 : 0.0, Q3 : 0.0, Q4 : -0.0610485821962}
2019-04-03 21:46:43.91: SIM {TimeUS : 46334792, Roll : 0.0, Pitch : 0.0, Yaw : 353.0, Alt : 584.090026855, Lat : -35.363261, Lng : 149.1652299, Q1 : 0.998134791851, Q2 : 0.0, Q3 : 0.0, Q4 : -0.0610485821962}
2019-04-03 21:46:44.01: SIM {TimeUS : 46434752, Roll : 0.0, Pitch : 0.0, Yaw : 353.0, Alt : 584.090026855, Lat : -35.363261, Lng : 149.1652299, Q1 : 0.998134791851, Q2 : 0.0, Q3 : 0.0, Q4 : -0.0610485821962}
2019-04-03 21:46:44.11: SIM {TimeUS : 46534712, Roll : 0.0, Pitch : 0.0, Yaw : 353.0, Alt : 584.090026855, Lat : -35.363261, Lng : 149.1652299, Q1 : 0.998134791851, Q2 : 0.0, Q3 : 0.0, Q4 : -0.0610485821962}
2019-04-03 21:46:44.21: SIM {TimeUS : 46634672, Roll : 0.0, Pitch : 0.0, Yaw : 353.0, Alt : 584.090026855, Lat : -35.363261, Lng : 149.1652299, Q1 : 0.998134791851, Q2 : 0.0, Q3 : 0.0, Q4 : -0.0610485821962}
2019-04-03 21:46:44.31: SIM {TimeUS : 46734632, Roll : 0.0, Pitch : 0.0, Yaw : 353.0, Alt : 584.090026855, Lat : -35.363261, Lng : 149.1652299, Q1 : 0.998134791851, Q2 : 0.0, Q3 : 0.0, Q4 : -0.0610485821962}
2019-04-03 21:46:44.41: SIM {TimeUS : 46834592, Roll : 0.0, Pitch : 0.0, Yaw : 353.0, Alt : 584.090026855, Lat : -35.363261, Lng : 149.1652299, Q1 : 0.998134791851, Q2 : 0.0, Q3 : 0.0, Q4 : -0.0610485821962}
2019-04-03 21:46:44.51: SIM {TimeUS : 46934552, Roll : 0.0, Pitch : 0.0, Yaw : 353.0, Alt : 584.090026855, Lat : -35.363261, Lng : 149.1652299, Q1 : 0.998134791851, Q2 : 0.0, Q3 : 0.0, Q4 : -0.0610485821962}
2019-04-03 21:46:44.61: SIM {TimeUS : 47034512, Roll : 0.0, Pitch : 0.0, Yaw : 353.0, Alt : 584.090026855, Lat : -35.363261, Lng : 149.1652299, Q1 : 0.998134791851, Q2 : 0.0, Q3 : 0.0, Q4 : -0.0610485821962}
2019-04-03 21:46:44.71: SIM {TimeUS : 47134472, Roll : 0.0, Pitch : 0.0, Yaw : 353.0, Alt : 584.090026855, Lat : -35.363261, Lng : 149.1652299, Q1 : 0.998134791851, Q2 : 0.0, Q3 : 0.0, Q4 : -0.0610485821962}
2019-04-03 21:46:44.81: SIM {TimeUS : 47234432, Roll : 0.0, Pitch : 0.0, Yaw : 353.0, Alt : 584.090026855, Lat : -35.363261, Lng : 149.1652299, Q1 : 0.998134791851, Q2 : 0.0, Q3 : 0.0, Q4 : -0.0610485821962}
2019-04-03 21:46:44.91: SIM {TimeUS : 47334392, Roll : 0.0, Pitch : 0.0, Yaw : 353.0, Alt : 584.090026855, Lat : -35.363261, Lng : 149.1652299, Q1 : 0.998134791851, Q2 : 0.0, Q3 : 0.0, Q4 : -0.0610485821962}
2019-04-03 21:46:45.01: SIM {TimeUS : 47434352, Roll : 0.0, Pitch : 0.0, Yaw : 353.0, Alt : 584.090026855, Lat : -35.363261, Lng : 149.1652299, Q1 : 0.998134791851, Q2 : 0.0, Q3 : 0.0, Q4 : -0.0610485821962}
2019-04-03 21:46:45.11: SIM {TimeUS : 47534312, Roll : 0.0, Pitch : 0.0, Yaw : 353.0, Alt : 584.090026855, Lat : -35.363261, Lng : 149.1652299, Q1 : 0.998134791851, Q2 : 0.0, Q3 : 0.0, Q4 : -0.0610485821962}
2019-04-03 21:46:45.21: SIM {TimeUS : 47634272, Roll : 0.0, Pitch : 0.0, Yaw : 353.0, Alt : 584.090026855, Lat : -35.363261, Lng : 149.1652299, Q1 : 0.998134791851, Q2 : 0.0, Q3 : 0.0, Q4 : -0.0610485821962}
2019-04-03 21:46:45.31: SIM {TimeUS : 47734232, Roll : 0.0, Pitch : 0.0, Yaw : 353.0, Alt : 584.090026855, Lat : -35.363261, Lng : 149.1652299, Q1 : 0.998134791851, Q2 : 0.0, Q3 : 0.0, Q4 : -0.0610485821962}
2019-04-03 21:46:45.41: SIM {TimeUS : 47834192, Roll : 0.0, Pitch : 0.0, Yaw : 353.0, Alt : 584.090026855, Lat : -35.363261, Lng : 149.1652299, Q1 : 0.998134791851, Q2 : 0.0, Q3 : 0.0, Q4 : -0.0610485821962}
2019-04-03 21:46:45.52: SIM {TimeUS : 47934985, Roll : 0.0, Pitch : 0.0, Yaw : 353.0, Alt : 584.090026855, Lat : -35.363261, Lng : 149.1652299, Q1 : 0.998134791851, Q2 : 0.0, Q3 : 0.0, Q4 : -0.0610485821962}
2019-04-03 21:46:45.61: SIM {TimeUS : 48034945, Roll : 0.0, Pitch : 0.0, Yaw : 353.0, Alt : 584.090026855, Lat : -35.363261, Lng : 149.1652299, Q1 : 0.998134791851, Q2 : 0.0, Q3 : 0.0, Q4 : -0.0610485821962}
2019-04-03 21:46:45.71: SIM {TimeUS : 48134905, Roll : 0.0, Pitch : 0.0, Yaw : 353.0, Alt : 584.090026855, Lat : -35.363261, Lng : 149.1652299, Q1 : 0.998134791851, Q2 : 0.0, Q3 : 0.0, Q4 : -0.0610485821962}
2019-04-03 21:46:45.81: SIM {TimeUS : 48234865, Roll : 0.0, Pitch : 0.0, Yaw : 353.0, Alt : 584.090026855, Lat : -35.363261, Lng : 149.1652299, Q1 : 0.998134791851, Q2 : 0.0, Q3 : 0.0, Q4 : -0.0610485821962}
2019-04-03 21:46:45.91: SIM {TimeUS : 48334825, Roll : 0.0, Pitch : 0.0, Yaw : 353.0, Alt : 584.090026855, Lat : -35.363261, Lng : 149.1652299, Q1 : 0.998134791851, Q2 : 0.0, Q3 : 0.0, Q4 : -0.0610485821962}
2019-04-03 21:46:46.01: SIM {TimeUS : 48434785, Roll : 0.0, Pitch : 0.0, Yaw : 353.0, Alt : 584.090026855, Lat : -35.363261, Lng : 149.1652299, Q1 : 0.998134791851, Q2 : 0.0, Q3 : 0.0, Q4 : -0.0610485821962}
2019-04-03 21:46:46.11: SIM {TimeUS : 48534745, Roll : 0.0, Pitch : 0.0, Yaw : 353.0, Alt : 584.090026855, Lat : -35.363261, Lng : 149.1652299, Q1 : 0.998134791851, Q2 : 0.0, Q3 : 0.0, Q4 : -0.0610485821962}
2019-04-03 21:46:46.21: SIM {TimeUS : 48634705, Roll : 0.0, Pitch : 0.0, Yaw : 353.0, Alt : 584.090026855, Lat : -35.363261, Lng : 149.1652299, Q1 : 0.998134791851, Q2 : 0.0, Q3 : 0.0, Q4 : -0.0610485821962}
2019-04-03 21:46:46.31: SIM {TimeUS : 48734665, Roll : 0.0, Pitch : 0.0, Yaw : 353.0, Alt : 584.090026855, Lat : -35.363261, Lng : 149.1652299, Q1 : 0.998134791851, Q2 : 0.0, Q3 : 0.0, Q4 : -0.0610485821962}
2019-04-03 21:46:46.41: SIM {TimeUS : 48834625, Roll : 0.0, Pitch : 0.0, Yaw : 353.0, Alt : 584.090026855, Lat : -35.363261, Lng : 149.1652299, Q1 : 0.998134791851, Q2 : 0.0, Q3 : 0.0, Q4 : -0.0610485821962}
2019-04-03 21:46:46.51: SIM {TimeUS : 48934585, Roll : 0.0, Pitch : 0.0, Yaw : 353.0, Alt : 584.090026855, Lat : -35.363261, Lng : 149.1652299, Q1 : 0.998134791851, Q2 : 0.0, Q3 : 0.0, Q4 : -0.0610485821962}
2019-04-03 21:46:46.61: SIM {TimeUS : 49034545, Roll : 0.0, Pitch : 0.0, Yaw : 353.0, Alt : 584.090026855, Lat : -35.363261, Lng : 149.1652299, Q1 : 0.998134791851, Q2 : 0.0, Q3 : 0.0, Q4 : -0.0610485821962}
2019-04-03 21:46:46.71: SIM {TimeUS : 49134505, Roll : 0.0, Pitch : 0.0, Yaw : 353.0, Alt : 584.090026855, Lat : -35.363261, Lng : 149.1652299, Q1 : 0.998134791851, Q2 : 0.0, Q3 : 0.0, Q4 : -0.0610485821962}
2019-04-03 21:46:46.81: SIM {TimeUS : 49234465, Roll : 0.0, Pitch : 0.0, Yaw : 353.0, Alt : 584.090026855, Lat : -35.363261, Lng : 149.1652299, Q1 : 0.998134791851, Q2 : 0.0, Q3 : 0.0, Q4 : -0.0610485821962}
2019-04-03 21:46:46.91: SIM {TimeUS : 49334425, Roll : 0.0, Pitch : 0.0, Yaw : 353.0, Alt : 584.090026855, Lat : -35.363261, Lng : 149.1652299, Q1 : 0.998134791851, Q2 : 0.0, Q3 : 0.0, Q4 : -0.0610485821962}
2019-04-03 21:46:47.01: SIM {TimeUS : 49434385, Roll : 0.0, Pitch : 0.0, Yaw : 353.0, Alt : 584.090026855, Lat : -35.363261, Lng : 149.1652299, Q1 : 0.998134791851, Q2 : 0.0, Q3 : 0.0, Q4 : -0.0610485821962}
2019-04-03 21:46:47.11: SIM {TimeUS : 49534345, Roll : 0.0, Pitch : 0.0, Yaw : 353.0, Alt : 584.090026855, Lat : -35.363261, Lng : 149.1652299, Q1 : 0.998134791851, Q2 : 0.0, Q3 : 0.0, Q4 : -0.0610485821962}
2019-04-03 21:46:47.21: SIM {TimeUS : 49634305, Roll : 0.0, Pitch : 0.0, Yaw : 353.0, Alt : 584.090026855, Lat : -35.363261, Lng : 149.1652299, Q1 : 0.998134791851, Q2 : 0.0, Q3 : 0.0, Q4 : -0.0610485821962}
2019-04-03 21:46:47.31: SIM {TimeUS : 49734265, Roll : 0.0, Pitch : 0.0, Yaw : 353.0, Alt : 584.090026855, Lat : -35.363261, Lng : 149.1652299, Q1 : 0.998134791851, Q2 : 0.0, Q3 : 0.0, Q4 : -0.0610485821962}
2019-04-03 21:46:47.41: SIM {TimeUS : 49834225, Roll : 0.0, Pitch : 0.0, Yaw : 353.0, Alt : 584.090026855, Lat : -35.363261, Lng : 149.1652299, Q1 : 0.998134791851, Q2 : 0.0, Q3 : 0.0, Q4 : -0.0610485821962}
2019-04-03 21:46:47.51: SIM {TimeUS : 49934185, Roll : 0.0, Pitch : 0.0, Yaw : 353.0, Alt : 584.090026855, Lat : -35.363261, Lng : 149.1652299, Q1 : 0.998134791851, Q2 : 0.0, Q3 : 0.0, Q4 : -0.0610485821962}
2019-04-03 21:46:47.62: SIM {TimeUS : 50034978, Roll : 0.0, Pitch : 0.0, Yaw : 353.0, Alt : 584.090026855, Lat : -35.363261, Lng : 149.1652299, Q1 : 0.998134791851, Q2 : 0.0, Q3 : 0.0, Q4 : -0.0610485821962}
2019-04-03 21:46:47.71: SIM {TimeUS : 50134938, Roll : 0.0, Pitch : 0.0, Yaw : 353.0, Alt : 584.090026855, Lat : -35.363261, Lng : 149.1652299, Q1 : 0.998134791851, Q2 : 0.0, Q3 : 0.0, Q4 : -0.0610485821962}
2019-04-03 21:46:47.81: SIM {TimeUS : 50234898, Roll : 0.0, Pitch : 0.0, Yaw : 353.0, Alt : 584.090026855, Lat : -35.363261, Lng : 149.1652299, Q1 : 0.998134791851, Q2 : 0.0, Q3 : 0.0, Q4 : -0.0610485821962}
2019-04-03 21:46:47.91: SIM {TimeUS : 50334858, Roll : 0.0, Pitch : 0.0, Yaw : 353.0, Alt : 584.090026855, Lat : -35.363261, Lng : 149.1652299, Q1 : 0.998134791851, Q2 : 0.0, Q3 : 0.0, Q4 : -0.0610485821962}
2019-04-03 21:46:48.01: SIM {TimeUS : 50434818, Roll : 0.0, Pitch : 0.0, Yaw : 353.0, Alt : 584.090026855, Lat : -35.363261, Lng : 149.1652299, Q1 : 0.998134791851, Q2 : 0.0, Q3 : 0.0, Q4 : -0.0610485821962}
2019-04-03 21:46:48.11: SIM {TimeUS : 50534778, Roll : 0.0, Pitch : 0.0, Yaw : 353.0, Alt : 584.090026855, Lat : -35.363261, Lng : 149.1652299, Q1 : 0.998134791851, Q2 : 0.0, Q3 : 0.0, Q4 : -0.0610485821962}
2019-04-03 21:46:48.21: SIM {TimeUS : 50634738, Roll : 0.0, Pitch : 0.0, Yaw : 353.0, Alt : 584.090026855, Lat : -35.363261, Lng : 149.1652299, Q1 : 0.998134791851, Q2 : 0.0, Q3 : 0.0, Q4 : -0.0610485821962}
2019-04-03 21:46:48.31: SIM {TimeUS : 50734698, Roll : 0.0, Pitch : 0.0, Yaw : 353.0, Alt : 584.090026855, Lat : -35.363261, Lng : 149.1652299, Q1 : 0.998134791851, Q2 : 0.0, Q3 : 0.0, Q4 : -0.0610485821962}
2019-04-03 21:46:48.41: SIM {TimeUS : 50834658, Roll : 0.0, Pitch : 0.0, Yaw : 353.0, Alt : 584.090026855, Lat : -35.363261, Lng : 149.1652299, Q1 : 0.998134791851, Q2 : 0.0, Q3 : 0.0, Q4 : -0.0610485821962}
2019-04-03 21:46:48.51: SIM {TimeUS : 50934618, Roll : 0.0, Pitch : 0.0, Yaw : 353.0, Alt : 584.090026855, Lat : -35.363261, Lng : 149.1652299, Q1 : 0.998134791851, Q2 : 0.0, Q3 : 0.0, Q4 : -0.0610485821962}
2019-04-03 21:46:48.61: SIM {TimeUS : 51034578, Roll : 0.0, Pitch : 0.0, Yaw : 353.0, Alt : 584.090026855, Lat : -35.363261, Lng : 149.1652299, Q1 : 0.998134791851, Q2 : 0.0, Q3 : 0.0, Q4 : -0.0610485821962}
2019-04-03 21:46:48.71: SIM {TimeUS : 51134538, Roll : 0.0, Pitch : 0.0, Yaw : 353.0, Alt : 584.090026855, Lat : -35.363261, Lng : 149.1652299, Q1 : 0.998134791851, Q2 : 0.0, Q3 : 0.0, Q4 : -0.0610485821962}
2019-04-03 21:46:48.81: SIM {TimeUS : 51234498, Roll : 0.0, Pitch : 0.0, Yaw : 353.0, Alt : 584.090026855, Lat : -35.363261, Lng : 149.1652299, Q1 : 0.998134791851, Q2 : 0.0, Q3 : 0.0, Q4 : -0.0610485821962}
2019-04-03 21:46:48.91: SIM {TimeUS : 51334458, Roll : 0.0, Pitch : 0.0, Yaw : 353.0, Alt : 584.090026855, Lat : -35.363261, Lng : 149.1652299, Q1 : 0.998134791851, Q2 : 0.0, Q3 : 0.0, Q4 : -0.0610485821962}
2019-04-03 21:46:49.01: SIM {TimeUS : 51434418, Roll : 0.0, Pitch : 0.0, Yaw : 353.0, Alt : 584.090026855, Lat : -35.363261, Lng : 149.1652299, Q1 : 0.998134791851, Q2 : 0.0, Q3 : 0.0, Q4 : -0.0610485821962}
2019-04-03 21:46:49.11: SIM {TimeUS : 51534378, Roll : 0.0, Pitch : 0.0, Yaw : 353.0, Alt : 584.090026855, Lat : -35.363261, Lng : 149.1652299, Q1 : 0.998134791851, Q2 : 0.0, Q3 : 0.0, Q4 : -0.0610485821962}
2019-04-03 21:46:49.21: SIM {TimeUS : 51634338, Roll : 0.0, Pitch : 0.0, Yaw : 353.0, Alt : 584.090026855, Lat : -35.363261, Lng : 149.1652299, Q1 : 0.998134791851, Q2 : 0.0, Q3 : 0.0, Q4 : -0.0610485821962}
2019-04-03 21:46:49.31: SIM {TimeUS : 51734298, Roll : 0.0, Pitch : 0.0, Yaw : 353.0, Alt : 584.090026855, Lat : -35.363261, Lng : 149.1652299, Q1 : 0.998134791851, Q2 : 0.0, Q3 : 0.0, Q4 : -0.0610485821962}
2019-04-03 21:46:49.41: SIM {TimeUS : 51834258, Roll : 0.0, Pitch : 0.0, Yaw : 353.0, Alt : 584.090026855, Lat : -35.363261, Lng : 149.1652299, Q1 : 0.998134791851, Q2 : 0.0, Q3 : 0.0, Q4 : -0.0610485821962}
2019-04-03 21:46:49.51: SIM {TimeUS : 51934218, Roll : 0.0, Pitch : 0.0, Yaw : 353.0, Alt : 584.090026855, Lat : -35.363261, Lng : 149.1652299, Q1 : 0.998134791851, Q2 : 0.0, Q3 : 0.0, Q4 : -0.0610485821962}
2019-04-03 21:46:49.61: SIM {TimeUS : 52034178, Roll : 0.0, Pitch : 0.0, Yaw : 353.0, Alt : 584.090026855, Lat : -35.363261, Lng : 149.1652299, Q1 : 0.998134791851, Q2 : 0.0, Q3 : 0.0, Q4 : -0.0610485821962}
2019-04-03 21:46:49.72: SIM {TimeUS : 52134971, Roll : 0.0, Pitch : 0.0, Yaw : 353.0, Alt : 584.090026855, Lat : -35.363261, Lng : 149.1652299, Q1 : 0.998134791851, Q2 : 0.0, Q3 : 0.0, Q4 : -0.0610485821962}
2019-04-03 21:46:49.81: SIM {TimeUS : 52234931, Roll : 0.0, Pitch : 0.0, Yaw : 353.0, Alt : 584.090026855, Lat : -35.363261, Lng : 149.1652299, Q1 : 0.998134791851, Q2 : 0.0, Q3 : 0.0, Q4 : -0.0610485821962}
2019-04-03 21:46:49.91: SIM {TimeUS : 52334891, Roll : 0.0, Pitch : 0.0, Yaw : 353.0, Alt : 584.090026855, Lat : -35.363261, Lng : 149.1652299, Q1 : 0.998134791851, Q2 : 0.0, Q3 : 0.0, Q4 : -0.0610485821962}
2019-04-03 21:46:50.01: SIM {TimeUS : 52434851, Roll : 0.0, Pitch : 0.0, Yaw : 353.0, Alt : 584.090026855, Lat : -35.363261, Lng : 149.1652299, Q1 : 0.998134791851, Q2 : 0.0, Q3 : 0.0, Q4 : -0.0610485821962}
2019-04-03 21:46:50.11: SIM {TimeUS : 52534811, Roll : 0.0, Pitch : 0.0, Yaw : 353.0, Alt : 584.090026855, Lat : -35.363261, Lng : 149.1652299, Q1 : 0.998134791851, Q2 : 0.0, Q3 : 0.0, Q4 : -0.0610485821962}
2019-04-03 21:46:50.21: SIM {TimeUS : 52634771, Roll : 0.0, Pitch : 0.0, Yaw : 353.0, Alt : 584.090026855, Lat : -35.363261, Lng : 149.1652299, Q1 : 0.998134791851, Q2 : 0.0, Q3 : 0.0, Q4 : -0.0610485821962}
2019-04-03 21:46:50.31: SIM {TimeUS : 52734731, Roll : 0.0, Pitch : 0.0, Yaw : 353.0, Alt : 584.090026855, Lat : -35.363261, Lng : 149.1652299, Q1 : 0.998134791851, Q2 : 0.0, Q3 : 0.0, Q4 : -0.0610485821962}
2019-04-03 21:46:50.41: SIM {TimeUS : 52834691, Roll : 0.0, Pitch : 0.0, Yaw : 353.0, Alt : 584.090026855, Lat : -35.363261, Lng : 149.1652299, Q1 : 0.998134791851, Q2 : 0.0, Q3 : 0.0, Q4 : -0.0610485821962}
2019-04-03 21:46:50.51: SIM {TimeUS : 52934651, Roll : 0.0, Pitch : 0.0, Yaw : 353.0, Alt : 584.090026855, Lat : -35.363261, Lng : 149.1652299, Q1 : 0.998134791851, Q2 : 0.0, Q3 : 0.0, Q4 : -0.0610485821962}
2019-04-03 21:46:50.61: SIM {TimeUS : 53034611, Roll : 0.0, Pitch : 0.0, Yaw : 353.0, Alt : 584.090026855, Lat : -35.363261, Lng : 149.1652299, Q1 : 0.998134791851, Q2 : 0.0, Q3 : 0.0, Q4 : -0.0610485821962}
2019-04-03 21:46:50.71: SIM {TimeUS : 53134571, Roll : 0.0, Pitch : 0.0, Yaw : 353.0, Alt : 584.090026855, Lat : -35.363261, Lng : 149.1652299, Q1 : 0.998134791851, Q2 : 0.0, Q3 : 0.0, Q4 : -0.0610485821962}
2019-04-03 21:46:50.81: SIM {TimeUS : 53234531, Roll : 0.0, Pitch : 0.0, Yaw : 353.0, Alt : 584.090026855, Lat : -35.363261, Lng : 149.1652299, Q1 : 0.998134791851, Q2 : 0.0, Q3 : 0.0, Q4 : -0.0610485821962}
2019-04-03 21:46:50.91: SIM {TimeUS : 53334491, Roll : 0.0, Pitch : 0.0, Yaw : 353.0, Alt : 584.090026855, Lat : -35.363261, Lng : 149.1652299, Q1 : 0.998134791851, Q2 : 0.0, Q3 : 0.0, Q4 : -0.0610485821962}
2019-04-03 21:46:51.01: SIM {TimeUS : 53434451, Roll : 0.0, Pitch : 0.0, Yaw : 353.0, Alt : 584.090026855, Lat : -35.363261, Lng : 149.1652299, Q1 : 0.998134791851, Q2 : 0.0, Q3 : 0.0, Q4 : -0.0610485821962}
2019-04-03 21:46:51.11: SIM {TimeUS : 53534411, Roll : 0.0, Pitch : 0.0, Yaw : 353.0, Alt : 584.090026855, Lat : -35.363261, Lng : 149.1652299, Q1 : 0.998134791851, Q2 : 0.0, Q3 : 0.0, Q4 : -0.0610485821962}
2019-04-03 21:46:51.21: SIM {TimeUS : 53634371, Roll : 0.0, Pitch : 0.0, Yaw : 353.0, Alt : 584.090026855, Lat : -35.363261, Lng : 149.1652299, Q1 : 0.998134791851, Q2 : 0.0, Q3 : 0.0, Q4 : -0.0610485821962}
2019-04-03 21:47:03.31: SIM {TimeUS : 65734529, Roll : 0.0, Pitch : 0.0, Yaw : 353.0, Alt : 584.090026855, Lat : -35.363261, Lng : 149.1652299, Q1 : 0.998134791851, Q2 : 0.0, Q3 : 0.0, Q4 : -0.0610485821962}
2019-04-03 21:47:03.41: SIM {TimeUS : 65834489, Roll : 0.0, Pitch : 0.0, Yaw : 353.0, Alt : 584.090026855, Lat : -35.363261, Lng : 149.1652299, Q1 : 0.998134791851, Q2 : 0.0, Q3 : 0.0, Q4 : -0.0610485821962}
2019-04-03 21:47:03.51: SIM {TimeUS : 65934449, Roll : 0.0, Pitch : 0.0, Yaw : 353.0, Alt : 584.090026855, Lat : -35.363261, Lng : 149.1652299, Q1 : 0.998134791851, Q2 : 0.0, Q3 : 0.0, Q4 : -0.0610485821962}
2019-04-03 21:47:03.61: SIM {TimeUS : 66034409, Roll : 0.0, Pitch : 0.0, Yaw : 353.0, Alt : 584.090026855, Lat : -35.363261, Lng : 149.1652299, Q1 : 0.998134791851, Q2 : 0.0, Q3 : 0.0, Q4 : -0.0610485821962}
2019-04-03 21:47:03.71: SIM {TimeUS : 66134369, Roll : 0.0, Pitch : 0.0, Yaw : 353.0, Alt : 584.090026855, Lat : -35.363261, Lng : 149.1652299, Q1 : 0.998134791851, Q2 : 0.0, Q3 : 0.0, Q4 : -0.0610485821962}
2019-04-03 21:47:03.81: SIM {TimeUS : 66234329, Roll : 0.0, Pitch : 0.0, Yaw : 353.0, Alt : 584.090026855, Lat : -35.363261, Lng : 149.1652299, Q1 : 0.998134791851, Q2 : 0.0, Q3 : 0.0, Q4 : -0.0610485821962}
2019-04-03 21:47:03.91: SIM {TimeUS : 66334289, Roll : 0.0, Pitch : 0.0, Yaw : 353.0, Alt : 584.090026855, Lat : -35.363261, Lng : 149.1652299, Q1 : 0.998134791851, Q2 : 0.0, Q3 : 0.0, Q4 : -0.0610485821962}
2019-04-03 21:47:04.01: SIM {TimeUS : 66434249, Roll : 0.0, Pitch : 0.0, Yaw : 353.0, Alt : 584.090026855, Lat : -35.363261, Lng : 149.1652299, Q1 : 0.998134791851, Q2 : 0.0, Q3 : 0.0, Q4 : -0.0610485821962}
2019-04-03 21:47:04.11: SIM {TimeUS : 66534209, Roll : 0.0, Pitch : 0.0, Yaw : 353.0, Alt : 584.090026855, Lat : -35.363261, Lng : 149.1652299, Q1 : 0.998134791851, Q2 : 0.0, Q3 : 0.0, Q4 : -0.0610485821962}
2019-04-03 21:47:04.21: SIM {TimeUS : 66634169, Roll : 0.0, Pitch : 0.0, Yaw : 353.0, Alt : 584.090026855, Lat : -35.363261, Lng : 149.1652299, Q1 : 0.998134791851, Q2 : 0.0, Q3 : 0.0, Q4 : -0.0610485821962}
2019-04-03 21:47:04.31: SIM {TimeUS : 66734962, Roll : 0.0, Pitch : 0.0, Yaw : 353.0, Alt : 584.090026855, Lat : -35.363261, Lng : 149.1652299, Q1 : 0.998134791851, Q2 : 0.0, Q3 : 0.0, Q4 : -0.0610485821962}
2019-04-03 21:47:04.41: SIM {TimeUS : 66834922, Roll : 0.0, Pitch : 0.0, Yaw : 353.0, Alt : 584.090026855, Lat : -35.363261, Lng : 149.1652299, Q1 : 0.998134791851, Q2 : 0.0, Q3 : 0.0, Q4 : -0.0610485821962}
2019-04-03 21:47:04.51: SIM {TimeUS : 66934882, Roll : 0.0, Pitch : 0.0, Yaw : 353.0, Alt : 584.090026855, Lat : -35.363261, Lng : 149.1652299, Q1 : 0.998134791851, Q2 : 0.0, Q3 : 0.0, Q4 : -0.0610485821962}
2019-04-03 21:47:04.61: SIM {TimeUS : 67034842, Roll : 0.0, Pitch : 0.0, Yaw : 353.0, Alt : 584.090026855, Lat : -35.363261, Lng : 149.1652299, Q1 : 0.998134791851, Q2 : 0.0, Q3 : 0.0, Q4 : -0.0610485821962}
2019-04-03 21:47:04.71: SIM {TimeUS : 67134802, Roll : 0.0, Pitch : 0.0, Yaw : 353.0, Alt : 584.090026855, Lat : -35.363261, Lng : 149.1652299, Q1 : 0.998134791851, Q2 : 0.0, Q3 : 0.0, Q4 : -0.0610485821962}
2019-04-03 21:47:04.81: SIM {TimeUS : 67234762, Roll : 0.0, Pitch : 0.0, Yaw : 353.0, Alt : 584.090026855, Lat : -35.363261, Lng : 149.1652299, Q1 : 0.998134791851, Q2 : 0.0, Q3 : 0.0, Q4 : -0.0610485821962}
2019-04-03 21:47:04.91: SIM {TimeUS : 67334722, Roll : 0.0, Pitch : 0.0, Yaw : 353.0, Alt : 584.090026855, Lat : -35.363261, Lng : 149.1652299, Q1 : 0.998134791851, Q2 : 0.0, Q3 : 0.0, Q4 : -0.0610485821962}
2019-04-03 21:47:05.01: SIM {TimeUS : 67434682, Roll : 0.0, Pitch : 0.0, Yaw : 353.0, Alt : 584.090026855, Lat : -35.363261, Lng : 149.1652299, Q1 : 0.998134791851, Q2 : 0.0, Q3 : 0.0, Q4 : -0.0610485821962}
2019-04-03 21:47:05.11: SIM {TimeUS : 67534642, Roll : 0.0, Pitch : 0.0, Yaw : 353.0, Alt : 584.090026855, Lat : -35.363261, Lng : 149.1652299, Q1 : 0.998134791851, Q2 : 0.0, Q3 : 0.0, Q4 : -0.0610485821962}
2019-04-03 21:47:05.21: SIM {TimeUS : 67634602, Roll : 0.0, Pitch : 0.0, Yaw : 353.0, Alt : 584.090026855, Lat : -35.363261, Lng : 149.1652299, Q1 : 0.998134791851, Q2 : 0.0, Q3 : 0.0, Q4 : -0.0610485821962}
2019-04-03 21:47:05.31: SIM {TimeUS : 67734562, Roll : 0.0, Pitch : 0.0, Yaw : 353.0, Alt : 584.090026855, Lat : -35.363261, Lng : 149.1652299, Q1 : 0.998134791851, Q2 : 0.0, Q3 : 0.0, Q4 : -0.0610485821962}
2019-04-03 21:47:05.41: SIM {TimeUS : 67834522, Roll : 0.0, Pitch : 0.0, Yaw : 353.0, Alt : 584.090026855, Lat : -35.363261, Lng : 149.1652299, Q1 : 0.998134791851, Q2 : 0.0, Q3 : 0.0, Q4 : -0.0610485821962}
2019-04-03 21:47:05.51: SIM {TimeUS : 67934482, Roll : 0.0, Pitch : 0.0, Yaw : 353.0, Alt : 584.090026855, Lat : -35.363261, Lng : 149.1652299, Q1 : 0.998134791851, Q2 : 0.0, Q3 : 0.0, Q4 : -0.0610485821962}
2019-04-03 21:47:05.61: SIM {TimeUS : 68034442, Roll : 0.0, Pitch : 0.0, Yaw : 353.0, Alt : 584.090026855, Lat : -35.363261, Lng : 149.1652299, Q1 : 0.998134791851, Q2 : 0.0, Q3 : 0.0, Q4 : -0.0610485821962}
2019-04-03 21:47:05.71: SIM {TimeUS : 68134402, Roll : 0.0, Pitch : 0.0, Yaw : 353.0, Alt : 584.090026855, Lat : -35.363261, Lng : 149.1652299, Q1 : 0.998134791851, Q2 : 0.0, Q3 : 0.0, Q4 : -0.0610485821962}
2019-04-03 21:47:05.81: SIM {TimeUS : 68234362, Roll : 0.0, Pitch : 0.0, Yaw : 353.0, Alt : 584.090026855, Lat : -35.363261, Lng : 149.1652299, Q1 : 0.998134791851, Q2 : 0.0, Q3 : 0.0, Q4 : -0.0610485821962}
2019-04-03 21:47:05.91: SIM {TimeUS : 68334322, Roll : 0.0, Pitch : 0.0, Yaw : 353.0, Alt : 584.090026855, Lat : -35.363261, Lng : 149.1652299, Q1 : 0.998134791851, Q2 : 0.0, Q3 : 0.0, Q4 : -0.0610485821962}
2019-04-03 21:47:06.01: SIM {TimeUS : 68434282, Roll : 0.0, Pitch : 0.0, Yaw : 353.0, Alt : 584.090026855, Lat : -35.363261, Lng : 149.1652299, Q1 : 0.998134791851, Q2 : 0.0, Q3 : 0.0, Q4 : -0.0610485821962}
2019-04-03 21:47:06.11: SIM {TimeUS : 68534242, Roll : 0.0, Pitch : 0.0, Yaw : 353.0, Alt : 584.090026855, Lat : -35.363261, Lng : 149.1652299, Q1 : 0.998134791851, Q2 : 0.0, Q3 : 0.0, Q4 : -0.0610485821962}
2019-04-03 21:47:06.21: SIM {TimeUS : 68634202, Roll : 0.0, Pitch : 0.0, Yaw : 353.0, Alt : 584.090026855, Lat : -35.363261, Lng : 149.1652299, Q1 : 0.998134791851, Q2 : 0.0, Q3 : 0.0, Q4 : -0.0610485821962}
2019-04-03 21:47:06.32: SIM {TimeUS : 68734995, Roll : 0.0, Pitch : 0.0, Yaw : 353.0, Alt : 584.090026855, Lat : -35.363261, Lng : 149.1652299, Q1 : 0.998134791851, Q2 : 0.0, Q3 : 0.0, Q4 : -0.0610485821962}
2019-04-03 21:47:06.41: SIM {TimeUS : 68834955, Roll : 0.0, Pitch : 0.0, Yaw : 353.0, Alt : 584.090026855, Lat : -35.363261, Lng : 149.1652299, Q1 : 0.998134791851, Q2 : 0.0, Q3 : 0.0, Q4 : -0.0610485821962}
2019-04-03 21:47:06.51: SIM {TimeUS : 68934915, Roll : 0.0, Pitch : 0.0, Yaw : 353.0, Alt : 584.090026855, Lat : -35.363261, Lng : 149.1652299, Q1 : 0.998134791851, Q2 : 0.0, Q3 : 0.0, Q4 : -0.0610485821962}
2019-04-03 21:47:06.61: SIM {TimeUS : 69034875, Roll : 0.0, Pitch : 0.0, Yaw : 353.0, Alt : 584.090026855, Lat : -35.363261, Lng : 149.1652299, Q1 : 0.998134791851, Q2 : 0.0, Q3 : 0.0, Q4 : -0.0610485821962}
2019-04-03 21:47:06.71: SIM {TimeUS : 69134835, Roll : 0.0, Pitch : 0.0, Yaw : 353.0, Alt : 584.090026855, Lat : -35.363261, Lng : 149.1652299, Q1 : 0.998134791851, Q2 : 0.0, Q3 : 0.0, Q4 : -0.0610485821962}
2019-04-03 21:47:06.81: SIM {TimeUS : 69234795, Roll : 0.0, Pitch : 0.0, Yaw : 353.0, Alt : 584.090026855, Lat : -35.363261, Lng : 149.1652299, Q1 : 0.998134791851, Q2 : 0.0, Q3 : 0.0, Q4 : -0.0610485821962}
2019-04-03 21:47:06.91: SIM {TimeUS : 69334755, Roll : 0.0, Pitch : 0.0, Yaw : 353.0, Alt : 584.090026855, Lat : -35.363261, Lng : 149.1652299, Q1 : 0.998134791851, Q2 : 0.0, Q3 : 0.0, Q4 : -0.0610485821962}
2019-04-03 21:47:07.01: SIM {TimeUS : 69434715, Roll : 0.0, Pitch : 0.0, Yaw : 353.0, Alt : 584.090026855, Lat : -35.363261, Lng : 149.1652299, Q1 : 0.998134791851, Q2 : 0.0, Q3 : 0.0, Q4 : -0.0610485821962}
2019-04-03 21:47:07.11: SIM {TimeUS : 69534675, Roll : 0.0, Pitch : 0.0, Yaw : 353.0, Alt : 584.090026855, Lat : -35.363261, Lng : 149.1652299, Q1 : 0.998134791851, Q2 : 0.0, Q3 : 0.0, Q4 : -0.0610485821962}
2019-04-03 21:47:07.21: SIM {TimeUS : 69634635, Roll : 0.0, Pitch : 0.0, Yaw : 353.0, Alt : 584.090026855, Lat : -35.363261, Lng : 149.1652299, Q1 : 0.998134791851, Q2 : 0.0, Q3 : 0.0, Q4 : -0.0610485821962}
2019-04-03 21:47:07.31: SIM {TimeUS : 69734595, Roll : 0.0, Pitch : 0.0, Yaw : 353.0, Alt : 584.090026855, Lat : -35.363261, Lng : 149.1652299, Q1 : 0.998134791851, Q2 : 0.0, Q3 : 0.0, Q4 : -0.0610485821962}
2019-04-03 21:47:07.41: SIM {TimeUS : 69834555, Roll : 0.0, Pitch : 0.0, Yaw : 353.0, Alt : 584.090026855, Lat : -35.363261, Lng : 149.1652299, Q1 : 0.998134791851, Q2 : 0.0, Q3 : 0.0, Q4 : -0.0610485821962}
2019-04-03 21:47:07.51: SIM {TimeUS : 69934515, Roll : 0.0, Pitch : 0.0, Yaw : 353.0, Alt : 584.090026855, Lat : -35.363261, Lng : 149.1652299, Q1 : 0.998134791851, Q2 : 0.0, Q3 : 0.0, Q4 : -0.0610486641526}
2019-04-03 21:47:07.61: SIM {TimeUS : 70034475, Roll : 0.0, Pitch : 0.0, Yaw : 353.0, Alt : 584.090026855, Lat : -35.363261, Lng : 149.1652299, Q1 : 0.998134791851, Q2 : 0.0, Q3 : 0.0, Q4 : -0.0610486753285}
2019-04-03 21:47:07.71: SIM {TimeUS : 70134435, Roll : 0.0, Pitch : 0.0, Yaw : 353.0, Alt : 584.090026855, Lat : -35.363261, Lng : 149.1652299, Q1 : 0.998134791851, Q2 : 0.0, Q3 : 0.0, Q4 : -0.0610486753285}
2019-04-03 21:47:07.81: SIM {TimeUS : 70234395, Roll : 0.0, Pitch : 0.0, Yaw : 353.0, Alt : 584.090026855, Lat : -35.363261, Lng : 149.1652299, Q1 : 0.998134791851, Q2 : 0.0, Q3 : 0.0, Q4 : -0.0610486753285}
2019-04-03 21:47:07.91: SIM {TimeUS : 70334355, Roll : 0.0, Pitch : 0.0, Yaw : 353.0, Alt : 584.090026855, Lat : -35.363261, Lng : 149.1652299, Q1 : 0.998134791851, Q2 : 0.0, Q3 : 0.0, Q4 : -0.0610486753285}
2019-04-03 21:47:08.01: SIM {TimeUS : 70434315, Roll : 0.0, Pitch : 0.0, Yaw : 353.0, Alt : 584.090026855, Lat : -35.363261, Lng : 149.1652299, Q1 : 0.998134791851, Q2 : 0.0, Q3 : 0.0, Q4 : -0.0610486753285}
2019-04-03 21:47:08.11: SIM {TimeUS : 70534275, Roll : 0.0, Pitch : 0.0, Yaw : 353.0, Alt : 584.090026855, Lat : -35.363261, Lng : 149.1652299, Q1 : 0.998134791851, Q2 : 0.0, Q3 : 0.0, Q4 : -0.0610486753285}
2019-04-03 21:47:08.21: SIM {TimeUS : 70634235, Roll : 0.0, Pitch : 0.0, Yaw : 353.0, Alt : 584.090026855, Lat : -35.363261, Lng : 149.1652299, Q1 : 0.998134791851, Q2 : 0.0, Q3 : 0.0, Q4 : -0.0610486753285}
2019-04-03 21:47:08.31: SIM {TimeUS : 70734195, Roll : 0.0, Pitch : 0.0, Yaw : 353.0, Alt : 584.099975586, Lat : -35.363261, Lng : 149.1652299, Q1 : 0.998134791851, Q2 : 0.0, Q3 : 0.0, Q4 : -0.0610486753285}
2019-04-03 21:47:08.42: SIM {TimeUS : 70834988, Roll : 0.0, Pitch : 0.0, Yaw : 353.0, Alt : 584.099975586, Lat : -35.363261, Lng : 149.1652299, Q1 : 0.998134791851, Q2 : 0.0, Q3 : 0.0, Q4 : -0.0610486753285}
2019-04-03 21:47:08.51: SIM {TimeUS : 70934948, Roll : 0.0, Pitch : 0.0, Yaw : 353.0, Alt : 584.119995117, Lat : -35.363261, Lng : 149.1652299, Q1 : 0.998134791851, Q2 : 0.0, Q3 : 0.0, Q4 : -0.0610486753285}
2019-04-03 21:47:08.61: SIM {TimeUS : 71034908, Roll : 0.0, Pitch : 0.0, Yaw : 353.0, Alt : 584.140014648, Lat : -35.363261, Lng : 149.1652299, Q1 : 0.998134791851, Q2 : 0.0, Q3 : 0.0, Q4 : -0.0610486753285}
2019-04-03 21:47:08.71: SIM {TimeUS : 71134868, Roll : 0.0, Pitch : 0.0, Yaw : 353.0, Alt : 584.16998291, Lat : -35.363261, Lng : 149.1652299, Q1 : 0.998134791851, Q2 : 0.0, Q3 : 0.0, Q4 : -0.0610486753285}
2019-04-03 21:47:08.81: SIM {TimeUS : 71234828, Roll : 0.0, Pitch : 0.0, Yaw : 353.0, Alt : 584.210021973, Lat : -35.363261, Lng : 149.1652299, Q1 : 0.998134791851, Q2 : 0.0, Q3 : 0.0, Q4 : -0.0610486753285}
2019-04-03 21:47:08.91: SIM {TimeUS : 71334788, Roll : -0.04, Pitch : -0.04, Yaw : 352.99, Alt : 584.260009766, Lat : -35.363261, Lng : 149.1652299, Q1 : 0.998134493828, Q2 : -0.000377368094632, Q3 : -0.000377503805794, Q4 : -0.0610507503152}
2019-04-03 21:47:09.01: SIM {TimeUS : 71434748, Roll : -0.14, Pitch : -0.15, Yaw : 352.99, Alt : 584.369995117, Lat : -35.363261, Lng : 149.1652299, Q1 : 0.998132228851, Q2 : -0.00136685639154, Q3 : -0.00128084607422, Q4 : -0.0610621161759}
2019-04-03 21:47:09.11: SIM {TimeUS : 71534708, Roll : -0.27, Pitch : -0.25, Yaw : 352.99, Alt : 584.520019531, Lat : -35.363261, Lng : 149.1652299, Q1 : 0.99812734127, Q2 : -0.00253174756654, Q3 : -0.00203995988704, Q4 : -0.0610848627985}
2019-04-03 21:47:09.21: SIM {TimeUS : 71634668, Roll : -0.36, Pitch : -0.28, Yaw : 352.99, Alt : 584.66998291, Lat : -35.363261, Lng : 149.1652299, Q1 : 0.99812245369, Q2 : -0.00329249422066, Q3 : -0.00225901091471, Q4 : -0.061119556427}
2019-04-03 21:47:09.31: SIM {TimeUS : 71734628, Roll : -0.36, Pitch : -0.24, Yaw : 352.98, Alt : 584.83001709, Lat : -35.363261, Lng : 149.1652299, Q1 : 0.998120546341, Q2 : -0.00328411138617, Q3 : -0.00194050138816, Q4 : -0.0611623190343}
2019-04-03 21:47:09.41: SIM {TimeUS : 71834588, Roll : -0.28, Pitch : -0.17, Yaw : 352.98, Alt : 584.979980469, Lat : -35.363261, Lng : 149.1652299, Q1 : 0.998120844364, Q2 : -0.00260575930588, Q3 : -0.001348234131, Q4 : -0.0612063482404}
2019-04-03 21:47:09.51: SIM {TimeUS : 71934548, Roll : -0.18, Pitch : -0.07, Yaw : 352.97, Alt : 585.130004883, Lat : -35.363261, Lng : 149.1652299, Q1 : 0.998121321201, Q2 : -0.00168170302641, Q3 : -0.000569020223338, Q4 : -0.0612426064909}
2019-04-03 21:47:09.61: SIM {TimeUS : 72034508, Roll : -0.1, Pitch : 0.01, Yaw : 352.97, Alt : 585.289978027, Lat : -35.363261, Lng : 149.1652299, Q1 : 0.998120725155, Q2 : -0.000885031884536, Q3 : 0.000216958724195, Q4 : -0.0612715594471}
2019-04-03 21:47:09.71: SIM {TimeUS : 72134468, Roll : -0.02, Pitch : 0.07, Yaw : 352.97, Alt : 585.450012207, Lat : -35.363261, Lng : 149.1652298, Q1 : 0.998119771481, Q2 : -0.000186464822036, Q3 : 0.000700315926224, Q4 : -0.0612893588841}
2019-04-03 21:47:09.81: SIM {TimeUS : 72234428, Roll : 0.01, Pitch : 0.09, Yaw : 352.97, Alt : 585.619995117, Lat : -35.363261, Lng : 149.1652298, Q1 : 0.998119413853, Q2 : 0.00019713769143, Q3 : 0.000831772282254, Q4 : -0.0612933337688}
2019-04-03 21:47:09.91: SIM {TimeUS : 72334388, Roll : 0.03, Pitch : 0.07, Yaw : 352.97, Alt : 585.799987793, Lat : -35.363261, Lng : 149.1652298, Q1 : 0.998119652271, Q2 : 0.000351936963852, Q3 : 0.000666311068926, Q4 : -0.0612913742661}
2019-04-03 21:47:10.01: SIM {TimeUS : 72434348, Roll : 0.04, Pitch : 0.05, Yaw : 352.97, Alt : 585.979980469, Lat : -35.3632609, Lng : 149.1652298, Q1 : 0.998120069504, Q2 : 0.000437969341874, Q3 : 0.000415898306528, Q4 : -0.0612862035632}
2019-04-03 21:47:10.11: SIM {TimeUS : 72534308, Roll : 0.04, Pitch : 0.01, Yaw : 352.97, Alt : 586.16998291, Lat : -35.3632609, Lng : 149.1652298, Q1 : 0.998120546341, Q2 : 0.000438728893641, Q3 : 0.000117120107461, Q4 : -0.0612795054913}
2019-04-03 21:47:10.21: SIM {TimeUS : 72634268, Roll : 0.04, Pitch : -0.02, Yaw : 352.97, Alt : 586.349975586, Lat : -35.3632609, Lng : 149.1652298, Q1 : 0.998121201992, Q2 : 0.000409649772337, Q3 : -0.000251912715612, Q4 : -0.0612682886422}
2019-04-03 21:47:10.31: SIM {TimeUS : 72734228, Roll : 0.04, Pitch : -0.04, Yaw : 352.97, Alt : 586.549987793, Lat : -35.3632609, Lng : 149.1652298, Q1 : 0.998121738434, Q2 : 0.000395318522351, Q3 : -0.000456513807876, Q4 : -0.0612581670284}
2019-04-03 21:47:10.41: SIM {TimeUS : 72834188, Roll : 0.04, Pitch : -0.02, Yaw : 352.97, Alt : 586.739990234, Lat : -35.3632609, Lng : 149.1652298, Q1 : 0.998122692108, Q2 : 0.000390937289922, Q3 : -0.000219861598453, Q4 : -0.0612446926534}
2019-04-03 21:47:10.52: SIM {TimeUS : 72934981, Roll : 0.04, Pitch : 0.02, Yaw : 352.97, Alt : 586.940002441, Lat : -35.3632609, Lng : 149.1652298, Q1 : 0.998123764992, Q2 : 0.000415312533733, Q3 : 0.000191102808458, Q4 : -0.0612270534039}
2019-04-03 21:47:10.61: SIM {TimeUS : 73034941, Roll : 0.05, Pitch : 0.06, Yaw : 352.98, Alt : 587.140014648, Lat : -35.3632609, Lng : 149.1652298, Q1 : 0.998124241829, Q2 : 0.000478829577332, Q3 : 0.000575445708819, Q4 : -0.0612157694995}
2019-04-03 21:47:10.71: SIM {TimeUS : 73134901, Roll : 0.06, Pitch : 0.07, Yaw : 352.98, Alt : 587.340026855, Lat : -35.3632609, Lng : 149.1652297, Q1 : 0.998124361038, Q2 : 0.000642774044536, Q3 : 0.00064862758154, Q4 : -0.0612116493285}
2019-04-03 21:47:10.81: SIM {TimeUS : 73234861, Roll : 0.07, Pitch : 0.04, Yaw : 352.98, Alt : 587.539978027, Lat : -35.3632609, Lng : 149.1652297, Q1 : 0.998124063015, Q2 : 0.000722142111044, Q3 : 0.000389681721572, Q4 : -0.0612181276083}
2019-04-03 21:47:10.91: SIM {TimeUS : 73334821, Roll : 0.06, Pitch : 0.03, Yaw : 352.97, Alt : 587.75, Lat : -35.3632609, Lng : 149.1652297, Q1 : 0.998123109341, Q2 : 0.000585963600315, Q3 : 0.000271106167929, Q4 : -0.0612353309989}
2019-04-03 21:47:11.01: SIM {TimeUS : 73434781, Roll : 0.03, Pitch : 0.02, Yaw : 352.97, Alt : 587.960021973, Lat : -35.3632609, Lng : 149.1652297, Q1 : 0.998121976852, Q2 : 0.000297007587506, Q3 : 0.000196151537239, Q4 : -0.0612573847175}
2019-04-03 21:47:11.11: SIM {TimeUS : 73534741, Roll : -0.01, Pitch : 0.02, Yaw : 352.97, Alt : 588.16998291, Lat : -35.3632609, Lng : 149.1652297, Q1 : 0.998120844364, Q2 : -8.5820654931e-05, Q3 : 0.0002553871891, Q4 : -0.0612753368914}
2019-04-03 21:47:11.21: SIM {TimeUS : 73634701, Roll : -0.03, Pitch : 0.04, Yaw : 352.97, Alt : 588.380004883, Lat : -35.3632609, Lng : 149.1652297, Q1 : 0.998119473457, Q2 : -0.000254729995504, Q3 : 0.000419107440393, Q4 : -0.0612968057394}
2019-04-03 21:47:11.31: SIM {TimeUS : 73734661, Roll : -0.02, Pitch : 0.06, Yaw : 352.97, Alt : 588.590026855, Lat : -35.3632608, Lng : 149.1652297, Q1 : 0.998118698597, Q2 : -0.000191377024748, Q3 : 0.000600178726017, Q4 : -0.0613083280623}
2019-04-03 21:47:11.41: SIM {TimeUS : 73834621, Roll : -0.01, Pitch : 0.06, Yaw : 352.96, Alt : 588.789978027, Lat : -35.3632608, Lng : 149.1652297, Q1 : 0.998117625713, Q2 : -0.00012403645087, Q3 : 0.000616711564362, Q4 : -0.0613255128264}
2019-04-03 21:47:11.51: SIM {TimeUS : 73934581, Roll : 0.0, Pitch : 0.05, Yaw : 352.96, Alt : 588.989990234, Lat : -35.3632608, Lng : 149.1652297, Q1 : 0.998116493225, Q2 : -3.43618885381e-05, Q3 : 0.000440130330389, Q4 : -0.0613457709551}
2019-04-03 21:47:11.61: SIM {TimeUS : 74034541, Roll : 0.0, Pitch : 0.02, Yaw : 352.96, Alt : 589.179992676, Lat : -35.3632608, Lng : 149.1652297, Q1 : 0.998115181923, Q2 : 4.98330409755e-05, Q3 : 0.000211397957173, Q4 : -0.0613676197827}
2019-04-03 21:47:11.71: SIM {TimeUS : 74134501, Roll : 0.0, Pitch : 0.01, Yaw : 352.96, Alt : 589.359985352, Lat : -35.3632608, Lng : 149.1652297, Q1 : 0.998113632202, Q2 : 8.70127914823e-05, Q3 : 0.000125211197883, Q4 : -0.0613934993744}
2019-04-03 21:47:11.81: SIM {TimeUS : 74234461, Roll : 0.0, Pitch : 0.0, Yaw : 352.95, Alt : 589.530029297, Lat : -35.3632608, Lng : 149.1652297, Q1 : 0.998112142086, Q2 : 8.01199348643e-05, Q3 : 6.54333707644e-05, Q4 : -0.0614184178412}
2019-04-03 21:47:11.91: SIM {TimeUS : 74334421, Roll : -0.05, Pitch : -0.05, Yaw : 352.95, Alt : 589.679992676, Lat : -35.3632608, Lng : 149.1652296, Q1 : 0.998110175133, Q2 : -0.00053947995184, Q3 : -0.00042752517038, Q4 : -0.0614466667175}
2019-04-03 21:47:12.01: SIM {TimeUS : 74434381, Roll : -0.33, Pitch : -0.25, Yaw : 352.95, Alt : 589.820007324, Lat : -35.3632608, Lng : 149.1652296, Q1 : 0.998101651669, Q2 : -0.00307706836611, Q3 : -0.00201683631167, Q4 : -0.0614783018827}
2019-04-03 21:47:12.11: SIM {TimeUS : 74534341, Roll : -0.87, Pitch : -0.62, Yaw : 352.95, Alt : 589.950012207, Lat : -35.3632608, Lng : 149.1652296, Q1 : 0.998062252998, Q2 : -0.0079734288156, Q3 : -0.00496761407703, Q4 : -0.0615102238953}
2019-04-03 21:47:12.21: SIM {TimeUS : 74634301, Roll : -1.61, Pitch : -1.16, Yaw : 352.95, Alt : 590.070007324, Lat : -35.3632608, Lng : 149.1652296, Q1 : 0.99795293808, Q2 : -0.0146933970973, Q3 : -0.00928734429181, Q4 : -0.0615456476808}
2019-04-03 21:47:12.31: SIM {TimeUS : 74734261, Roll : -2.47, Pitch : -1.81, Yaw : 352.97, Alt : 590.179992676, Lat : -35.3632608, Lng : 149.1652294, Q1 : 0.997741758823, Q2 : -0.0224828794599, Q3 : -0.0144974505529, Q4 : -0.0616098530591}
2019-04-03 21:47:12.41: SIM {TimeUS : 74834221, Roll : -3.34, Pitch : -2.46, Yaw : 352.98, Alt : 590.270019531, Lat : -35.3632608, Lng : 149.1652293, Q1 : 0.997433006763, Q2 : -0.0304805617779, Q3 : -0.0197068378329, Q4 : -0.0617256984115}
2019-04-03 21:47:12.51: SIM {TimeUS : 74934181, Roll : -4.12, Pitch : -3.01, Yaw : 353.0, Alt : 590.349975586, Lat : -35.3632607, Lng : 149.1652292, Q1 : 0.997085630894, Q2 : -0.0375366173685, Q3 : -0.0240370556712, Q4 : -0.0619155466557}
2019-04-03 21:47:12.62: SIM {TimeUS : 75034974, Roll : -4.74, Pitch : -3.41, Yaw : 353.0, Alt : 590.41998291, Lat : -35.3632605, Lng : 149.1652289, Q1 : 0.996763706207, Q2 : -0.0430887266994, Q3 : -0.0271938797086, Q4 : -0.0621772184968}
2019-04-03 21:47:12.71: SIM {TimeUS : 75134934, Roll : -5.16, Pitch : -3.68, Yaw : 352.99, Alt : 590.479980469, Lat : -35.3632604, Lng : 149.1652287, Q1 : 0.996513664722, Q2 : -0.0468785837293, Q3 : -0.0293143540621, Q4 : -0.0624787248671}
2019-04-03 21:47:12.81: SIM {TimeUS : 75234894, Roll : -5.45, Pitch : -3.9, Yaw : 352.97, Alt : 590.539978027, Lat : -35.3632603, Lng : 149.1652283, Q1 : 0.996313095093, Q2 : -0.0495561100543, Q3 : -0.0310243796557, Q4 : -0.0627844780684}
2019-04-03 21:47:12.91: SIM {TimeUS : 75334854, Roll : -5.71, Pitch : -4.11, Yaw : 352.95, Alt : 590.590026855, Lat : -35.3632601, Lng : 149.1652279, Q1 : 0.996121942997, Q2 : -0.0518898740411, Q3 : -0.0327097773552, Q4 : -0.0630763173103}
2019-04-03 21:47:13.01: SIM {TimeUS : 75434814, Roll : -5.97, Pitch : -4.32, Yaw : 352.94, Alt : 590.630004883, Lat : -35.3632598, Lng : 149.1652273, Q1 : 0.995919048786, Q2 : -0.0542852319777, Q3 : -0.0344085842371, Q4 : -0.0633597820997}
2019-04-03 21:47:13.11: SIM {TimeUS : 75534774, Roll : -6.25, Pitch : -4.52, Yaw : 352.93, Alt : 590.66998291, Lat : -35.3632596, Lng : 149.1652267, Q1 : 0.995702505112, Q2 : -0.0568329803646, Q3 : -0.0360159501433, Q4 : -0.0636351779103}
2019-04-03 21:47:13.21: SIM {TimeUS : 75634734, Roll : -6.52, Pitch : -4.72, Yaw : 352.92, Alt : 590.710021973, Lat : -35.3632592, Lng : 149.165226, Q1 : 0.995487451553, Q2 : -0.0592659190297, Q3 : -0.037561878562, Q4 : -0.0638856962323}
2019-04-03 21:47:13.31: SIM {TimeUS : 75734694, Roll : -6.73, Pitch : -4.87, Yaw : 352.91, Alt : 590.739990234, Lat : -35.3632589, Lng : 149.1652251, Q1 : 0.995312571526, Q2 : -0.061161223799, Q3 : -0.0387469157577, Q4 : -0.0641165450215}
2019-04-03 21:47:13.41: SIM {TimeUS : 75834654, Roll : -6.88, Pitch : -4.98, Yaw : 352.9, Alt : 590.770019531, Lat : -35.3632585, Lng : 149.1652243, Q1 : 0.99517506361, Q2 : -0.0626016929746, Q3 : -0.0396479330957, Q4 : -0.064309746027}
2019-04-03 21:47:13.51: SIM {TimeUS : 75934614, Roll : -7.01, Pitch : -5.07, Yaw : 352.89, Alt : 590.799987793, Lat : -35.363258, Lng : 149.1652232, Q1 : 0.995063185692, Q2 : -0.0637743845582, Q3 : -0.0403281748295, Q4 : -0.0644654259086}
2019-04-03 21:47:13.61: SIM {TimeUS : 76034574, Roll : -7.13, Pitch : -5.12, Yaw : 352.89, Alt : 590.820007324, Lat : -35.3632577, Lng : 149.1652222, Q1 : 0.994974732399, Q2 : -0.0647940710187, Q3 : -0.0406904369593, Q4 : -0.0645862147212}
2019-04-03 21:47:13.71: SIM {TimeUS : 76134534, Roll : -7.23, Pitch : -5.18, Yaw : 352.89, Alt : 590.849975586, Lat : -35.3632572, Lng : 149.1652212, Q1 : 0.994891524315, Q2 : -0.065729983151, Q3 : -0.0411095060408, Q4 : -0.064656548202}
2019-04-03 21:47:13.81: SIM {TimeUS : 76234494, Roll : -7.46, Pitch : -5.19, Yaw : 352.83, Alt : 590.869995117, Lat : -35.3632566, Lng : 149.16522, Q1 : 0.994723498821, Q2 : -0.0677204430103, Q3 : -0.0410654693842, Q4 : -0.0652133896947}
2019-04-03 21:47:13.91: SIM {TimeUS : 76334454, Roll : -7.93, Pitch : -5.05, Yaw : 352.3, Alt : 590.900024414, Lat : -35.3632561, Lng : 149.1652187, Q1 : 0.994178175926, Q2 : -0.0719269216061, Q3 : -0.0392958335578, Q4 : -0.0699438005686}
2019-04-03 21:47:14.01: SIM {TimeUS : 76434414, Roll : -8.55, Pitch : -4.92, Yaw : 350.57, Alt : 590.91998291, Lat : -35.3632555, Lng : 149.1652174, Q1 : 0.992660880089, Q2 : -0.077815361321, Q3 : -0.0366122163832, Q4 : -0.0850221440196}
2019-04-03 21:47:14.11: SIM {TimeUS : 76534374, Roll : -9.01, Pitch : -5.14, Yaw : 347.22, Alt : 590.940002441, Lat : -35.3632549, Lng : 149.1652159, Q1 : 0.989329874516, Q2 : -0.0830054655671, Q3 : -0.035715714097, Q4 : -0.114284485579}
2019-04-03 21:47:14.21: SIM {TimeUS : 76634334, Roll : -9.06, Pitch : -5.85, Yaw : 342.28, Alt : 590.960021973, Lat : -35.3632543, Lng : 149.1652144, Q1 : 0.983078122139, Q2 : -0.0858329311013, Q3 : -0.0381088852882, Q4 : -0.157282546163}
2019-04-03 21:47:14.31: SIM {TimeUS : 76734294, Roll : -8.56, Pitch : -7.01, Yaw : 335.98, Alt : 590.989990234, Lat : -35.3632537, Lng : 149.1652128, Q1 : 0.972615778446, Q2 : -0.0856163874269, Q3 : -0.044121298939, Q4 : -0.21152228117}
2019-04-03 21:47:14.41: SIM {TimeUS : 76834254, Roll : -7.45, Pitch : -8.48, Yaw : 328.61, Alt : 591.010009766, Lat : -35.3632531, Lng : 149.1652111, Q1 : 0.956764876842, Q2 : -0.0824078842998, Q3 : -0.0535297691822, Q4 : -0.273759841919}
2019-04-03 21:47:14.51: SIM {TimeUS : 76934214, Roll : -5.76, Pitch : -10.06, Yaw : 320.46, Alt : 591.030029297, Lat : -35.3632525, Lng : 149.1652092, Q1 : 0.934768795967, Q2 : -0.0767513588071, Q3 : -0.0655440539122, Q4 : -0.340617835522}
2019-04-03 21:47:14.61: SIM {TimeUS : 77034174, Roll : -3.53, Pitch : -11.48, Yaw : 311.8, Alt : 591.059997559, Lat : -35.3632518, Lng : 149.1652073, Q1 : 0.906586229801, Q2 : -0.0688791126013, Q3 : -0.0787741169333, Q4 : -0.40884193778}
2019-04-03 21:47:14.72: SIM {TimeUS : 77134967, Roll : -0.69, Pitch : -12.48, Yaw : 303.06, Alt : 591.090026855, Lat : -35.3632511, Lng : 149.1652053, Q1 : 0.873546659946, Q2 : -0.0571161545813, Q3 : -0.0927510038018, Q4 : -0.474395632744}
2019-04-03 21:47:14.81: SIM {TimeUS : 77234927, Roll : 2.39, Pitch : -12.89, Yaw : 295.28, Alt : 591.119995117, Lat : -35.3632504, Lng : 149.1652031, Q1 : 0.840455830097, Q2 : -0.0425307378173, Q3 : -0.10595408082, Q4 : -0.529715836048}
2019-04-03 21:47:14.91: SIM {TimeUS : 77334887, Roll : 5.13, Pitch : -12.81, Yaw : 289.23, Alt : 591.150024414, Lat : -35.3632495, Lng : 149.1652011, Q1 : 0.812270760536, Q2 : -0.028319016099, Q3 : -0.116677649319, Q4 : -0.570789456367}
2019-04-03 21:47:15.01: SIM {TimeUS : 77434847, Roll : 7.01, Pitch : -12.56, Yaw : 285.3, Alt : 591.179992676, Lat : -35.3632487, Lng : 149.1651987, Q1 : 0.792793691158, Q2 : -0.0179129112512, Q3 : -0.123708382249, Q4 : -0.596534669399}
2019-04-03 21:47:15.11: SIM {TimeUS : 77534807, Roll : 7.86, Pitch : -12.41, Yaw : 283.45, Alt : 591.210021973, Lat : -35.3632476, Lng : 149.1651966, Q1 : 0.783207535744, Q2 : -0.0133137749508, Q3 : -0.126893177629, Q4 : -0.60852843523}
2019-04-03 21:47:15.21: SIM {TimeUS : 77634767, Roll : 7.71, Pitch : -12.49, Yaw : 283.35, Alt : 591.239990234, Lat : -35.3632465, Lng : 149.1651943, Q1 : 0.782626152039, Q2 : -0.0149199794978, Q3 : -0.126656025648, Q4 : -0.609288096428}
2019-04-03 21:47:15.31: SIM {TimeUS : 77734727, Roll : 6.73, Pitch : -12.83, Yaw : 284.62, Alt : 591.280029297, Lat : -35.3632453, Lng : 149.1651919, Q1 : 0.789052248001, Q2 : -0.0220405403525, Q3 : -0.123988769948, Q4 : -0.601279914379}
2019-04-03 21:47:15.41: SIM {TimeUS : 77834687, Roll : 5.16, Pitch : -13.35, Yaw : 286.89, Alt : 591.309997559, Lat : -35.363244, Lng : 149.1651895, Q1 : 0.800162553787, Q2 : -0.0332306958735, Q3 : -0.120007894933, Q4 : -0.58671438694}
2019-04-03 21:47:15.51: SIM {TimeUS : 77934647, Roll : 3.27, Pitch : -13.96, Yaw : 289.8, Alt : 591.349975586, Lat : -35.3632428, Lng : 149.165187, Q1 : 0.813758313656, Q2 : -0.0466315895319, Q3 : -0.115712948143, Q4 : -0.567656099796}
2019-04-03 21:47:15.61: SIM {TimeUS : 78034607, Roll : 1.32, Pitch : -14.53, Yaw : 293.01, Alt : 591.390014648, Lat : -35.3632414, Lng : 149.1651843, Q1 : 0.827993392944, Q2 : -0.060215510428, Q3 : -0.111806340516, Q4 : -0.546168863773}
2019-04-03 21:47:15.71: SIM {TimeUS : 78134567, Roll : -0.44, Pitch : -14.96, Yaw : 296.17, Alt : 591.429992676, Lat : -35.36324, Lng : 149.1651817, Q1 : 0.841370046139, Q2 : -0.0721057653427, Q3 : -0.108497872949, Q4 : -0.524523973465}
2019-04-03 21:47:15.81: SIM {TimeUS : 78234527, Roll : -1.88, Pitch : -15.21, Yaw : 298.96, Alt : 591.469970703, Lat : -35.3632385, Lng : 149.165179, Q1 : 0.852662861347, Q2 : -0.0812431648374, Q3 : -0.105774089694, Q4 : -0.505150973797}
2019-04-03 21:47:15.91: SIM {TimeUS : 78334487, Roll : -2.89, Pitch : -15.3, Yaw : 301.1, Alt : 591.510009766, Lat : -35.3632372, Lng : 149.1651761, Q1 : 0.861107647419, Q2 : -0.0872526094317, Q3 : -0.103657208383, Q4 : -0.490036576986}
2019-04-03 21:47:16.01: SIM {TimeUS : 78434447, Roll : -3.43, Pitch : -15.3, Yaw : 302.45, Alt : 591.549987793, Lat : -35.3632358, Lng : 149.1651732, Q1 : 0.866423666477, Q2 : -0.0901290327311, Q3 : -0.102373287082, Q4 : -0.480319201946}
2019-04-03 21:47:16.11: SIM {TimeUS : 78534407, Roll : -3.53, Pitch : -15.26, Yaw : 303.0, Alt : 591.599975586, Lat : -35.3632343, Lng : 149.16517, Q1 : 0.868681788445, Q2 : -0.0902502387762, Q3 : -0.10210788995, Q4 : -0.476257055998}
2019-04-03 21:47:16.21: SIM {TimeUS : 78634367, Roll : -3.24, Pitch : -15.24, Yaw : 302.83, Alt : 591.640014648, Lat : -35.363233, Lng : 149.165167, Q1 : 0.868210375309, Q2 : -0.0881303846836, Q3 : -0.103023134172, Q4 : -0.477315455675}
2019-04-03 21:47:16.31: SIM {TimeUS : 78734327, Roll : -2.68, Pitch : -15.28, Yaw : 302.08, Alt : 591.679992676, Lat : -35.3632316, Lng : 149.1651637, Q1 : 0.865477979183, Q2 : -0.0846685990691, Q3 : -0.105068147182, Q4 : -0.48243111372}
2019-04-03 21:47:16.41: SIM {TimeUS : 78834287, Roll : -1.93, Pitch : -15.38, Yaw : 300.95, Alt : 591.719970703, Lat : -35.3632301, Lng : 149.1651604, Q1 : 0.861105680466, Q2 : -0.0805003345013, Q3 : -0.108243532479, Q4 : -0.490204066038}
2019-04-03 21:47:16.51: SIM {TimeUS : 78934247, Roll : -1.1, Pitch : -15.54, Yaw : 299.63, Alt : 591.770019531, Lat : -35.3632288, Lng : 149.165157, Q1 : 0.855805516243, Q2 : -0.0762514099479, Q3 : -0.112073488533, Q4 : -0.499221622944}
2019-04-03 21:47:16.61: SIM {TimeUS : 79034207, Roll : -0.31, Pitch : -15.69, Yaw : 298.31, Alt : 591.809997559, Lat : -35.3632273, Lng : 149.1651537, Q1 : 0.850332319736, Q2 : -0.0723255351186, Q3 : -0.115816399455, Q4 : -0.508222937584}
2019-04-03 21:47:16.71: SIM {TimeUS : 79134167, Roll : 0.36, Pitch : -15.8, Yaw : 297.13, Alt : 591.849975586, Lat : -35.3632258, Lng : 149.1651502, Q1 : 0.845362305641, Q2 : -0.0689953938127, Q3 : -0.118986196816, Q4 : -0.516182601452}
2019-04-03 21:47:16.81: SIM {TimeUS : 79234960, Roll : 0.89, Pitch : -15.88, Yaw : 296.2, Alt : 591.900024414, Lat : -35.3632244, Lng : 149.1651466, Q1 : 0.841373443604, Q2 : -0.0664522871375, Q3 : -0.121424406767, Q4 : -0.522427976131}
2019-04-03 21:47:16.91: SIM {TimeUS : 79334920, Roll : 1.21, Pitch : -15.92, Yaw : 295.59, Alt : 591.940002441, Lat : -35.3632228, Lng : 149.1651431, Q1 : 0.838753223419, Q2 : -0.0648953169584, Q3 : -0.122794866562, Q4 : -0.526500761509}
2019-04-03 21:47:17.01: SIM {TimeUS : 79434880, Roll : 1.32, Pitch : -15.92, Yaw : 295.31, Alt : 591.979980469, Lat : -35.3632214, Lng : 149.1651394, Q1 : 0.837531208992, Q2 : -0.0644659176469, Q3 : -0.123165331781, Q4 : -0.528408885002}
2019-04-03 21:47:17.11: SIM {TimeUS : 79534840, Roll : 1.21, Pitch : -15.93, Yaw : 295.34, Alt : 592.030029297, Lat : -35.3632197, Lng : 149.1651359, Q1 : 0.837576568127, Q2 : -0.0652128383517, Q3 : -0.122739337385, Q4 : -0.528344452381}
2019-04-03 21:47:17.21: SIM {TimeUS : 79634800, Roll : 0.98, Pitch : -15.97, Yaw : 295.6, Alt : 592.070007324, Lat : -35.3632182, Lng : 149.1651321, Q1 : 0.838631093502, Q2 : -0.0668051466346, Q3 : -0.122112505138, Q4 : -0.526615142822}
2019-04-03 21:47:17.31: SIM {TimeUS : 79734760, Roll : 0.68, Pitch : -16.04, Yaw : 296.04, Alt : 592.109985352, Lat : -35.3632166, Lng : 149.1651284, Q1 : 0.840382099152, Q2 : -0.0688791498542, Q3 : -0.121479295194, Q4 : -0.523694992065}
2019-04-03 21:47:17.41: SIM {TimeUS : 79834720, Roll : 0.34, Pitch : -16.09, Yaw : 296.57, Alt : 592.159973145, Lat : -35.3632149, Lng : 149.1651247, Q1 : 0.842516899109, Q2 : -0.0710423514247, Q3 : -0.120651707053, Q4 : -0.520155191422}
2019-04-03 21:47:17.51: SIM {TimeUS : 79934680, Roll : 0.0, Pitch : -16.13, Yaw : 297.1, Alt : 592.200012207, Lat : -35.3632133, Lng : 149.1651209, Q1 : 0.844704389572, Q2 : -0.0731323882937, Q3 : -0.119758158922, Q4 : -0.516511559486}
2019-04-03 21:47:17.61: SIM {TimeUS : 80034640, Roll : -0.27, Pitch : -16.15, Yaw : 297.59, Alt : 592.25, Lat : -35.3632116, Lng : 149.1651171, Q1 : 0.846693992615, Q2 : -0.0748365670443, Q3 : -0.118933573365, Q4 : -0.513189613819}
2019-04-03 21:47:17.71: SIM {TimeUS : 80134600, Roll : -0.47, Pitch : -16.16, Yaw : 297.99, Alt : 592.289978027, Lat : -35.3632099, Lng : 149.1651131, Q1 : 0.848309159279, Q2 : -0.075936332345, Q3 : -0.118354305625, Q4 : -0.510487496853}
2019-04-03 21:47:17.81: SIM {TimeUS : 80234560, Roll : -0.57, Pitch : -16.16, Yaw : 298.26, Alt : 592.33001709, Lat : -35.3632082, Lng : 149.1651092, Q1 : 0.849432647228, Q2 : -0.076437279582, Q3 : -0.118156932294, Q4 : -0.508586764336}
2019-04-03 21:47:17.91: SIM {TimeUS : 80334520, Roll : -0.59, Pitch : -16.19, Yaw : 298.4, Alt : 592.380004883, Lat : -35.3632066, Lng : 149.1651053, Q1 : 0.850005269051, Q2 : -0.076584815979, Q3 : -0.118358381093, Q4 : -0.507560014725}
2019-04-03 21:47:18.01: SIM {TimeUS : 80434480, Roll : -0.57, Pitch : -16.25, Yaw : 298.41, Alt : 592.41998291, Lat : -35.3632049, Lng : 149.1651014, Q1 : 0.850041568279, Q2 : -0.0766137465835, Q3 : -0.118873506784, Q4 : -0.507374405861}
2019-04-03 21:47:18.11: SIM {TimeUS : 80534440, Roll : -0.48, Pitch : -16.33, Yaw : 298.33, Alt : 592.469970703, Lat : -35.3632032, Lng : 149.1650973, Q1 : 0.84964042902, Q2 : -0.0763958841562, Q3 : -0.11983653903, Q4 : -0.507852315903}
2019-04-03 21:47:18.21: SIM {TimeUS : 80634400, Roll : -0.35, Pitch : -16.39, Yaw : 298.17, Alt : 592.510009766, Lat : -35.3632014, Lng : 149.1650934, Q1 : 0.84896171093, Q2 : -0.0758609324694, Q3 : -0.120778188109, Q4 : -0.50884360075}
2019-04-03 21:47:18.31: SIM {TimeUS : 80734360, Roll : -0.2, Pitch : -16.43, Yaw : 297.97, Alt : 592.559997559, Lat : -35.3631997, Lng : 149.1650893, Q1 : 0.84814029932, Q2 : -0.075157597661, Q3 : -0.121568739414, Q4 : -0.510127842426}
2019-04-03 21:47:18.41: SIM {TimeUS : 80834320, Roll : -0.06, Pitch : -16.47, Yaw : 297.77, Alt : 592.599975586, Lat : -35.3631981, Lng : 149.1650852, Q1 : 0.847268521786, Q2 : -0.0745116025209, Q3 : -0.122330307961, Q4 : -0.511487483978}
2019-04-03 21:47:18.51: SIM {TimeUS : 80934280, Roll : 0.05, Pitch : -16.47, Yaw : 297.58, Alt : 592.650024414, Lat : -35.3631963, Lng : 149.165081, Q1 : 0.846492469311, Q2 : -0.0738520249724, Q3 : -0.122822880745, Q4 : -0.512748420238}
2019-04-03 21:47:18.61: SIM {TimeUS : 81034240, Roll : 0.15, Pitch : -16.48, Yaw : 297.43, Alt : 592.690002441, Lat : -35.3631946, Lng : 149.165077, Q1 : 0.845871984959, Q2 : -0.0732948258519, Q3 : -0.123190514743, Q4 : -0.513763129711}
2019-04-03 21:47:18.71: SIM {TimeUS : 81134200, Roll : 0.22, Pitch : -16.48, Yaw : 297.32, Alt : 592.739990234, Lat : -35.3631928, Lng : 149.1650728, Q1 : 0.845441579819, Q2 : -0.0728974938393, Q3 : -0.123437978327, Q4 : -0.514468252659}
2019-04-03 21:47:18.82: SIM {TimeUS : 81234993, Roll : 0.24, Pitch : -16.48, Yaw : 297.27, Alt : 592.780029297, Lat : -35.3631911, Lng : 149.1650685, Q1 : 0.845208585262, Q2 : -0.0728191509843, Q3 : -0.123537257314, Q4 : -0.514838218689}
2019-04-03 21:47:18.91: SIM {TimeUS : 81334953, Roll : 0.23, Pitch : -16.51, Yaw : 297.26, Alt : 592.83001709, Lat : -35.3631893, Lng : 149.1650645, Q1 : 0.845166862011, Q2 : -0.0730138346553, Q3 : -0.123651012778, Q4 : -0.514851868153}
2019-04-03 21:47:19.01: SIM {TimeUS : 81434913, Roll : 0.22, Pitch : -16.57, Yaw : 297.3, Alt : 592.869995117, Lat : -35.3631874, Lng : 149.1650603, Q1 : 0.845276772976, Q2 : -0.0733354613185, Q3 : -0.124058000743, Q4 : -0.51452767849}
2019-04-03 21:47:19.11: SIM {TimeUS : 81534873, Roll : 0.18, Pitch : -16.62, Yaw : 297.38, Alt : 592.91998291, Lat : -35.3631856, Lng : 149.165056, Q1 : 0.845518171787, Q2 : -0.0737500861287, Q3 : -0.124373786151, Q4 : -0.513995289803}
2019-04-03 21:47:19.21: SIM {TimeUS : 81634833, Roll : 0.14, Pitch : -16.65, Yaw : 297.47, Alt : 592.960021973, Lat : -35.3631838, Lng : 149.1650517, Q1 : 0.845863103867, Q2 : -0.0740930363536, Q3 : -0.124463170767, Q4 : -0.513356328011}
2019-04-03 21:47:19.31: SIM {TimeUS : 81734793, Roll : 0.08, Pitch : -16.67, Yaw : 297.56, Alt : 593.010009766, Lat : -35.363182, Lng : 149.1650474, Q1 : 0.846237957478, Q2 : -0.0745279863477, Q3 : -0.124366745353, Q4 : -0.512698590755}
2019-04-03 21:47:19.41: SIM {TimeUS : 81834753, Roll : 0.02, Pitch : -16.68, Yaw : 297.66, Alt : 593.049987793, Lat : -35.3631801, Lng : 149.1650432, Q1 : 0.846604287624, Q2 : -0.0749037787318, Q3 : -0.124285951257, Q4 : -0.512058198452}
2019-04-03 21:47:19.51: SIM {TimeUS : 81934713, Roll : -0.01, Pitch : -16.7, Yaw : 297.74, Alt : 593.099975586, Lat : -35.3631783, Lng : 149.165039, Q1 : 0.846912443638, Q2 : -0.0751926451921, Q3 : -0.124294146895, Q4 : -0.51150405407}
2019-04-03 21:47:19.61: SIM {TimeUS : 82034673, Roll : -0.05, Pitch : -16.74, Yaw : 297.79, Alt : 593.140014648, Lat : -35.3631765, Lng : 149.1650347, Q1 : 0.847104907036, Q2 : -0.075629375875, Q3 : -0.124409325421, Q4 : -0.511092841625}
2019-04-03 21:47:19.71: SIM {TimeUS : 82134633, Roll : -0.09, Pitch : -16.77, Yaw : 297.83, Alt : 593.179992676, Lat : -35.3631747, Lng : 149.1650304, Q1 : 0.847207307816, Q2 : -0.0759973078966, Q3 : -0.124511264265, Q4 : -0.510843575001}
2019-04-03 21:47:19.81: SIM {TimeUS : 82234593, Roll : -0.1, Pitch : -16.79, Yaw : 297.84, Alt : 593.229980469, Lat : -35.3631728, Lng : 149.1650259, Q1 : 0.847244083881, Q2 : -0.076124317944, Q3 : -0.124589771032, Q4 : -0.510744571686}
2019-04-03 21:47:19.91: SIM {TimeUS : 82334553, Roll : -0.08, Pitch : -16.79, Yaw : 297.84, Alt : 593.270019531, Lat : -35.363171, Lng : 149.1650216, Q1 : 0.847234368324, Q2 : -0.0759968608618, Q3 : -0.124734736979, Q4 : -0.510744214058}
2019-04-03 21:47:20.01: SIM {TimeUS : 82434513, Roll : -0.05, Pitch : -16.79, Yaw : 297.82, Alt : 593.320007324, Lat : -35.3631692, Lng : 149.1650173, Q1 : 0.847177684307, Q2 : -0.075785368681, Q3 : -0.124861210585, Q4 : -0.510838747025}
2019-04-03 21:47:20.11: SIM {TimeUS : 82534473, Roll : -0.01, Pitch : -16.81, Yaw : 297.8, Alt : 593.359985352, Lat : -35.3631673, Lng : 149.1650129, Q1 : 0.847067892551, Q2 : -0.0756075531244, Q3 : -0.125109776855, Q4 : -0.510986328125}
2019-04-03 21:47:20.21: SIM {TimeUS : 82634433, Roll : 0.01, Pitch : -16.83, Yaw : 297.77, Alt : 593.409973145, Lat : -35.3631654, Lng : 149.1650086, Q1 : 0.846921145916, Q2 : -0.0755084976554, Q3 : -0.125428929925, Q4 : -0.51116591692}
2019-04-03 21:47:20.31: SIM {TimeUS : 82734393, Roll : 0.04, Pitch : -16.86, Yaw : 297.73, Alt : 593.450012207, Lat : -35.3631635, Lng : 149.1650042, Q1 : 0.846765398979, Q2 : -0.0754882022738, Q3 : -0.12576572597, Q4 : -0.511344194412}
2019-04-03 21:47:20.41: SIM {TimeUS : 82834353, Roll : 0.05, Pitch : -16.9, Yaw : 297.71, Alt : 593.5, Lat : -35.3631617, Lng : 149.1649998, Q1 : 0.846608281136, Q2 : -0.0756556168199, Q3 : -0.126034408808, Q4 : -0.511513471603}
