2019-04-03 22:42:24.50: SIM {TimeUS : 42116480, Roll : 0.0, Pitch : 0.0, Yaw : 353.0, Alt : 584.090026855, Lat : -35.363261, Lng : 149.1652299, Q1 : 0.998134791851, Q2 : 0.0, Q3 : 0.0, Q4 : -0.0610485821962}
2019-04-03 22:42:24.61: SIM {TimeUS : 42235599, Roll : 0.0, Pitch : 0.0, Yaw : 353.0, Alt : 584.090026855, Lat : -35.363261, Lng : 149.1652299, Q1 : 0.998134791851, Q2 : 0.0, Q3 : 0.0, Q4 : -0.0610485821962}
2019-04-03 22:42:24.71: SIM {TimeUS : 42335559, Roll : 0.0, Pitch : 0.0, Yaw : 353.0, Alt : 584.090026855, Lat : -35.363261, Lng : 149.1652299, Q1 : 0.998134791851, Q2 : 0.0, Q3 : 0.0, Q4 : -0.0610485821962}
2019-04-03 22:42:24.81: SIM {TimeUS : 42435519, Roll : 0.0, Pitch : 0.0, Yaw : 353.0, Alt : 584.090026855, Lat : -35.363261, Lng : 149.1652299, Q1 : 0.998134791851, Q2 : 0.0, Q3 : 0.0, Q4 : -0.0610485821962}
2019-04-03 22:42:24.91: SIM {TimeUS : 42535479, Roll : 0.0, Pitch : 0.0, Yaw : 353.0, Alt : 584.090026855, Lat : -35.363261, Lng : 149.1652299, Q1 : 0.998134791851, Q2 : 0.0, Q3 : 0.0, Q4 : -0.0610485821962}
2019-04-03 22:42:25.01: SIM {TimeUS : 42635439, Roll : 0.0, Pitch : 0.0, Yaw : 353.0, Alt : 584.090026855, Lat : -35.363261, Lng : 149.1652299, Q1 : 0.998134791851, Q2 : 0.0, Q3 : 0.0, Q4 : -0.0610485821962}
2019-04-03 22:42:25.11: SIM {TimeUS : 42735399, Roll : 0.0, Pitch : 0.0, Yaw : 353.0, Alt : 584.090026855, Lat : -35.363261, Lng : 149.1652299, Q1 : 0.998134791851, Q2 : 0.0, Q3 : 0.0, Q4 : -0.0610485821962}
2019-04-03 22:42:25.21: SIM {TimeUS : 42835359, Roll : 0.0, Pitch : 0.0, Yaw : 353.0, Alt : 584.090026855, Lat : -35.363261, Lng : 149.1652299, Q1 : 0.998134791851, Q2 : 0.0, Q3 : 0.0, Q4 : -0.0610485821962}
2019-04-03 22:42:25.31: SIM {TimeUS : 42935319, Roll : 0.0, Pitch : 0.0, Yaw : 353.0, Alt : 584.090026855, Lat : -35.363261, Lng : 149.1652299, Q1 : 0.998134791851, Q2 : 0.0, Q3 : 0.0, Q4 : -0.0610485821962}
2019-04-03 22:42:25.41: SIM {TimeUS : 43035279, Roll : 0.0, Pitch : 0.0, Yaw : 353.0, Alt : 584.090026855, Lat : -35.363261, Lng : 149.1652299, Q1 : 0.998134791851, Q2 : 0.0, Q3 : 0.0, Q4 : -0.0610485821962}
2019-04-03 22:42:25.51: SIM {TimeUS : 43135239, Roll : 0.0, Pitch : 0.0, Yaw : 353.0, Alt : 584.090026855, Lat : -35.363261, Lng : 149.1652299, Q1 : 0.998134791851, Q2 : 0.0, Q3 : 0.0, Q4 : -0.0610485821962}
2019-04-03 22:42:25.61: SIM {TimeUS : 43235199, Roll : 0.0, Pitch : 0.0, Yaw : 353.0, Alt : 584.090026855, Lat : -35.363261, Lng : 149.1652299, Q1 : 0.998134791851, Q2 : 0.0, Q3 : 0.0, Q4 : -0.0610485821962}
2019-04-03 22:42:25.71: SIM {TimeUS : 43335159, Roll : 0.0, Pitch : 0.0, Yaw : 353.0, Alt : 584.090026855, Lat : -35.363261, Lng : 149.1652299, Q1 : 0.998134791851, Q2 : 0.0, Q3 : 0.0, Q4 : -0.0610485821962}
2019-04-03 22:42:25.81: SIM {TimeUS : 43435119, Roll : 0.0, Pitch : 0.0, Yaw : 353.0, Alt : 584.090026855, Lat : -35.363261, Lng : 149.1652299, Q1 : 0.998134791851, Q2 : 0.0, Q3 : 0.0, Q4 : -0.0610485821962}
2019-04-03 22:42:25.91: SIM {TimeUS : 43535079, Roll : 0.0, Pitch : 0.0, Yaw : 353.0, Alt : 584.090026855, Lat : -35.363261, Lng : 149.1652299, Q1 : 0.998134791851, Q2 : 0.0, Q3 : 0.0, Q4 : -0.0610485821962}
2019-04-03 22:42:26.01: SIM {TimeUS : 43635039, Roll : 0.0, Pitch : 0.0, Yaw : 353.0, Alt : 584.090026855, Lat : -35.363261, Lng : 149.1652299, Q1 : 0.998134791851, Q2 : 0.0, Q3 : 0.0, Q4 : -0.0610485821962}
2019-04-03 22:42:26.11: SIM {TimeUS : 43734999, Roll : 0.0, Pitch : 0.0, Yaw : 353.0, Alt : 584.090026855, Lat : -35.363261, Lng : 149.1652299, Q1 : 0.998134791851, Q2 : 0.0, Q3 : 0.0, Q4 : -0.0610485821962}
2019-04-03 22:42:26.21: SIM {TimeUS : 43834959, Roll : 0.0, Pitch : 0.0, Yaw : 353.0, Alt : 584.090026855, Lat : -35.363261, Lng : 149.1652299, Q1 : 0.998134791851, Q2 : 0.0, Q3 : 0.0, Q4 : -0.0610485821962}
2019-04-03 22:42:26.31: SIM {TimeUS : 43934919, Roll : 0.0, Pitch : 0.0, Yaw : 353.0, Alt : 584.090026855, Lat : -35.363261, Lng : 149.1652299, Q1 : 0.998134791851, Q2 : 0.0, Q3 : 0.0, Q4 : -0.0610485821962}
2019-04-03 22:42:26.41: SIM {TimeUS : 44034879, Roll : 0.0, Pitch : 0.0, Yaw : 353.0, Alt : 584.090026855, Lat : -35.363261, Lng : 149.1652299, Q1 : 0.998134791851, Q2 : 0.0, Q3 : 0.0, Q4 : -0.0610485821962}
2019-04-03 22:42:26.51: SIM {TimeUS : 44134839, Roll : 0.0, Pitch : 0.0, Yaw : 353.0, Alt : 584.090026855, Lat : -35.363261, Lng : 149.1652299, Q1 : 0.998134791851, Q2 : 0.0, Q3 : 0.0, Q4 : -0.0610485821962}
2019-04-03 22:42:26.62: SIM {TimeUS : 44235632, Roll : 0.0, Pitch : 0.0, Yaw : 353.0, Alt : 584.090026855, Lat : -35.363261, Lng : 149.1652299, Q1 : 0.998134791851, Q2 : 0.0, Q3 : 0.0, Q4 : -0.0610485821962}
2019-04-03 22:42:26.71: SIM {TimeUS : 44335592, Roll : 0.0, Pitch : 0.0, Yaw : 353.0, Alt : 584.090026855, Lat : -35.363261, Lng : 149.1652299, Q1 : 0.998134791851, Q2 : 0.0, Q3 : 0.0, Q4 : -0.0610485821962}
2019-04-03 22:42:26.81: SIM {TimeUS : 44435552, Roll : 0.0, Pitch : 0.0, Yaw : 353.0, Alt : 584.090026855, Lat : -35.363261, Lng : 149.1652299, Q1 : 0.998134791851, Q2 : 0.0, Q3 : 0.0, Q4 : -0.0610485821962}
2019-04-03 22:42:26.91: SIM {TimeUS : 44535512, Roll : 0.0, Pitch : 0.0, Yaw : 353.0, Alt : 584.090026855, Lat : -35.363261, Lng : 149.1652299, Q1 : 0.998134791851, Q2 : 0.0, Q3 : 0.0, Q4 : -0.0610485821962}
2019-04-03 22:42:27.01: SIM {TimeUS : 44635472, Roll : 0.0, Pitch : 0.0, Yaw : 353.0, Alt : 584.090026855, Lat : -35.363261, Lng : 149.1652299, Q1 : 0.998134791851, Q2 : 0.0, Q3 : 0.0, Q4 : -0.0610485821962}
2019-04-03 22:42:27.11: SIM {TimeUS : 44735432, Roll : 0.0, Pitch : 0.0, Yaw : 353.0, Alt : 584.090026855, Lat : -35.363261, Lng : 149.1652299, Q1 : 0.998134791851, Q2 : 0.0, Q3 : 0.0, Q4 : -0.0610485821962}
2019-04-03 22:42:27.21: SIM {TimeUS : 44835392, Roll : 0.0, Pitch : 0.0, Yaw : 353.0, Alt : 584.090026855, Lat : -35.363261, Lng : 149.1652299, Q1 : 0.998134791851, Q2 : 0.0, Q3 : 0.0, Q4 : -0.0610485821962}
2019-04-03 22:42:27.31: SIM {TimeUS : 44935352, Roll : 0.0, Pitch : 0.0, Yaw : 353.0, Alt : 584.090026855, Lat : -35.363261, Lng : 149.1652299, Q1 : 0.998134791851, Q2 : 0.0, Q3 : 0.0, Q4 : -0.0610485821962}
2019-04-03 22:42:27.41: SIM {TimeUS : 45035312, Roll : 0.0, Pitch : 0.0, Yaw : 353.0, Alt : 584.090026855, Lat : -35.363261, Lng : 149.1652299, Q1 : 0.998134791851, Q2 : 0.0, Q3 : 0.0, Q4 : -0.0610485821962}
2019-04-03 22:42:27.51: SIM {TimeUS : 45135272, Roll : 0.0, Pitch : 0.0, Yaw : 353.0, Alt : 584.090026855, Lat : -35.363261, Lng : 149.1652299, Q1 : 0.998134791851, Q2 : 0.0, Q3 : 0.0, Q4 : -0.0610485821962}
2019-04-03 22:42:27.61: SIM {TimeUS : 45235232, Roll : 0.0, Pitch : 0.0, Yaw : 353.0, Alt : 584.090026855, Lat : -35.363261, Lng : 149.1652299, Q1 : 0.998134791851, Q2 : 0.0, Q3 : 0.0, Q4 : -0.0610485821962}
2019-04-03 22:42:27.71: SIM {TimeUS : 45335192, Roll : 0.0, Pitch : 0.0, Yaw : 353.0, Alt : 584.090026855, Lat : -35.363261, Lng : 149.1652299, Q1 : 0.998134791851, Q2 : 0.0, Q3 : 0.0, Q4 : -0.0610485821962}
2019-04-03 22:42:27.81: SIM {TimeUS : 45435152, Roll : 0.0, Pitch : 0.0, Yaw : 353.0, Alt : 584.090026855, Lat : -35.363261, Lng : 149.1652299, Q1 : 0.998134791851, Q2 : 0.0, Q3 : 0.0, Q4 : -0.0610485821962}
2019-04-03 22:42:27.91: SIM {TimeUS : 45535112, Roll : 0.0, Pitch : 0.0, Yaw : 353.0, Alt : 584.090026855, Lat : -35.363261, Lng : 149.1652299, Q1 : 0.998134791851, Q2 : 0.0, Q3 : 0.0, Q4 : -0.0610485821962}
2019-04-03 22:42:28.01: SIM {TimeUS : 45635072, Roll : 0.0, Pitch : 0.0, Yaw : 353.0, Alt : 584.090026855, Lat : -35.363261, Lng : 149.1652299, Q1 : 0.998134791851, Q2 : 0.0, Q3 : 0.0, Q4 : -0.0610485821962}
2019-04-03 22:42:28.11: SIM {TimeUS : 45735032, Roll : 0.0, Pitch : 0.0, Yaw : 353.0, Alt : 584.090026855, Lat : -35.363261, Lng : 149.1652299, Q1 : 0.998134791851, Q2 : 0.0, Q3 : 0.0, Q4 : -0.0610485821962}
2019-04-03 22:42:28.21: SIM {TimeUS : 45834992, Roll : 0.0, Pitch : 0.0, Yaw : 353.0, Alt : 584.090026855, Lat : -35.363261, Lng : 149.1652299, Q1 : 0.998134791851, Q2 : 0.0, Q3 : 0.0, Q4 : -0.0610485821962}
2019-04-03 22:42:28.31: SIM {TimeUS : 45934952, Roll : 0.0, Pitch : 0.0, Yaw : 353.0, Alt : 584.090026855, Lat : -35.363261, Lng : 149.1652299, Q1 : 0.998134791851, Q2 : 0.0, Q3 : 0.0, Q4 : -0.0610485821962}
2019-04-03 22:42:28.41: SIM {TimeUS : 46034912, Roll : 0.0, Pitch : 0.0, Yaw : 353.0, Alt : 584.090026855, Lat : -35.363261, Lng : 149.1652299, Q1 : 0.998134791851, Q2 : 0.0, Q3 : 0.0, Q4 : -0.0610485821962}
2019-04-03 22:42:28.51: SIM {TimeUS : 46134872, Roll : 0.0, Pitch : 0.0, Yaw : 353.0, Alt : 584.090026855, Lat : -35.363261, Lng : 149.1652299, Q1 : 0.998134791851, Q2 : 0.0, Q3 : 0.0, Q4 : -0.0610485821962}
2019-04-03 22:42:28.61: SIM {TimeUS : 46234832, Roll : 0.0, Pitch : 0.0, Yaw : 353.0, Alt : 584.090026855, Lat : -35.363261, Lng : 149.1652299, Q1 : 0.998134791851, Q2 : 0.0, Q3 : 0.0, Q4 : -0.0610485821962}
2019-04-03 22:42:28.72: SIM {TimeUS : 46335625, Roll : 0.0, Pitch : 0.0, Yaw : 353.0, Alt : 584.090026855, Lat : -35.363261, Lng : 149.1652299, Q1 : 0.998134791851, Q2 : 0.0, Q3 : 0.0, Q4 : -0.0610485821962}
2019-04-03 22:42:28.81: SIM {TimeUS : 46435585, Roll : 0.0, Pitch : 0.0, Yaw : 353.0, Alt : 584.090026855, Lat : -35.363261, Lng : 149.1652299, Q1 : 0.998134791851, Q2 : 0.0, Q3 : 0.0, Q4 : -0.0610485821962}
2019-04-03 22:42:28.91: SIM {TimeUS : 46535545, Roll : 0.0, Pitch : 0.0, Yaw : 353.0, Alt : 584.090026855, Lat : -35.363261, Lng : 149.1652299, Q1 : 0.998134791851, Q2 : 0.0, Q3 : 0.0, Q4 : -0.0610485821962}
2019-04-03 22:42:29.01: SIM {TimeUS : 46635505, Roll : 0.0, Pitch : 0.0, Yaw : 353.0, Alt : 584.090026855, Lat : -35.363261, Lng : 149.1652299, Q1 : 0.998134791851, Q2 : 0.0, Q3 : 0.0, Q4 : -0.0610485821962}
2019-04-03 22:42:29.11: SIM {TimeUS : 46735465, Roll : 0.0, Pitch : 0.0, Yaw : 353.0, Alt : 584.090026855, Lat : -35.363261, Lng : 149.1652299, Q1 : 0.998134791851, Q2 : 0.0, Q3 : 0.0, Q4 : -0.0610485821962}
2019-04-03 22:42:29.21: SIM {TimeUS : 46835425, Roll : 0.0, Pitch : 0.0, Yaw : 353.0, Alt : 584.090026855, Lat : -35.363261, Lng : 149.1652299, Q1 : 0.998134791851, Q2 : 0.0, Q3 : 0.0, Q4 : -0.0610485821962}
2019-04-03 22:42:29.31: SIM {TimeUS : 46935385, Roll : 0.0, Pitch : 0.0, Yaw : 353.0, Alt : 584.090026855, Lat : -35.363261, Lng : 149.1652299, Q1 : 0.998134791851, Q2 : 0.0, Q3 : 0.0, Q4 : -0.0610485821962}
2019-04-03 22:42:29.41: SIM {TimeUS : 47035345, Roll : 0.0, Pitch : 0.0, Yaw : 353.0, Alt : 584.090026855, Lat : -35.363261, Lng : 149.1652299, Q1 : 0.998134791851, Q2 : 0.0, Q3 : 0.0, Q4 : -0.0610485821962}
2019-04-03 22:42:29.51: SIM {TimeUS : 47135305, Roll : 0.0, Pitch : 0.0, Yaw : 353.0, Alt : 584.090026855, Lat : -35.363261, Lng : 149.1652299, Q1 : 0.998134791851, Q2 : 0.0, Q3 : 0.0, Q4 : -0.0610485821962}
2019-04-03 22:42:29.61: SIM {TimeUS : 47235265, Roll : 0.0, Pitch : 0.0, Yaw : 353.0, Alt : 584.090026855, Lat : -35.363261, Lng : 149.1652299, Q1 : 0.998134791851, Q2 : 0.0, Q3 : 0.0, Q4 : -0.0610485821962}
2019-04-03 22:42:29.71: SIM {TimeUS : 47335225, Roll : 0.0, Pitch : 0.0, Yaw : 353.0, Alt : 584.090026855, Lat : -35.363261, Lng : 149.1652299, Q1 : 0.998134791851, Q2 : 0.0, Q3 : 0.0, Q4 : -0.0610485821962}
2019-04-03 22:42:29.81: SIM {TimeUS : 47435185, Roll : 0.0, Pitch : 0.0, Yaw : 353.0, Alt : 584.090026855, Lat : -35.363261, Lng : 149.1652299, Q1 : 0.998134791851, Q2 : 0.0, Q3 : 0.0, Q4 : -0.0610485821962}
2019-04-03 22:42:29.91: SIM {TimeUS : 47535145, Roll : 0.0, Pitch : 0.0, Yaw : 353.0, Alt : 584.090026855, Lat : -35.363261, Lng : 149.1652299, Q1 : 0.998134791851, Q2 : 0.0, Q3 : 0.0, Q4 : -0.0610485821962}
2019-04-03 22:42:30.01: SIM {TimeUS : 47635105, Roll : 0.0, Pitch : 0.0, Yaw : 353.0, Alt : 584.090026855, Lat : -35.363261, Lng : 149.1652299, Q1 : 0.998134791851, Q2 : 0.0, Q3 : 0.0, Q4 : -0.0610485821962}
2019-04-03 22:42:30.11: SIM {TimeUS : 47735065, Roll : 0.0, Pitch : 0.0, Yaw : 353.0, Alt : 584.090026855, Lat : -35.363261, Lng : 149.1652299, Q1 : 0.998134791851, Q2 : 0.0, Q3 : 0.0, Q4 : -0.0610485821962}
2019-04-03 22:42:30.21: SIM {TimeUS : 47835025, Roll : 0.0, Pitch : 0.0, Yaw : 353.0, Alt : 584.090026855, Lat : -35.363261, Lng : 149.1652299, Q1 : 0.998134791851, Q2 : 0.0, Q3 : 0.0, Q4 : -0.0610485821962}
2019-04-03 22:42:30.31: SIM {TimeUS : 47934985, Roll : 0.0, Pitch : 0.0, Yaw : 353.0, Alt : 584.090026855, Lat : -35.363261, Lng : 149.1652299, Q1 : 0.998134791851, Q2 : 0.0, Q3 : 0.0, Q4 : -0.0610485821962}
2019-04-03 22:42:30.41: SIM {TimeUS : 48034945, Roll : 0.0, Pitch : 0.0, Yaw : 353.0, Alt : 584.090026855, Lat : -35.363261, Lng : 149.1652299, Q1 : 0.998134791851, Q2 : 0.0, Q3 : 0.0, Q4 : -0.0610485821962}
2019-04-03 22:42:30.51: SIM {TimeUS : 48134905, Roll : 0.0, Pitch : 0.0, Yaw : 353.0, Alt : 584.090026855, Lat : -35.363261, Lng : 149.1652299, Q1 : 0.998134791851, Q2 : 0.0, Q3 : 0.0, Q4 : -0.0610485821962}
2019-04-03 22:42:30.61: SIM {TimeUS : 48234865, Roll : 0.0, Pitch : 0.0, Yaw : 353.0, Alt : 584.090026855, Lat : -35.363261, Lng : 149.1652299, Q1 : 0.998134791851, Q2 : 0.0, Q3 : 0.0, Q4 : -0.0610485821962}
2019-04-03 22:42:30.71: SIM {TimeUS : 48334825, Roll : 0.0, Pitch : 0.0, Yaw : 353.0, Alt : 584.090026855, Lat : -35.363261, Lng : 149.1652299, Q1 : 0.998134791851, Q2 : 0.0, Q3 : 0.0, Q4 : -0.0610485821962}
2019-04-03 22:42:30.82: SIM {TimeUS : 48435618, Roll : 0.0, Pitch : 0.0, Yaw : 353.0, Alt : 584.090026855, Lat : -35.363261, Lng : 149.1652299, Q1 : 0.998134791851, Q2 : 0.0, Q3 : 0.0, Q4 : -0.0610485821962}
2019-04-03 22:42:30.91: SIM {TimeUS : 48535578, Roll : 0.0, Pitch : 0.0, Yaw : 353.0, Alt : 584.090026855, Lat : -35.363261, Lng : 149.1652299, Q1 : 0.998134791851, Q2 : 0.0, Q3 : 0.0, Q4 : -0.0610485821962}
2019-04-03 22:42:31.01: SIM {TimeUS : 48635538, Roll : 0.0, Pitch : 0.0, Yaw : 353.0, Alt : 584.090026855, Lat : -35.363261, Lng : 149.1652299, Q1 : 0.998134791851, Q2 : 0.0, Q3 : 0.0, Q4 : -0.0610485821962}
2019-04-03 22:42:31.11: SIM {TimeUS : 48735498, Roll : 0.0, Pitch : 0.0, Yaw : 353.0, Alt : 584.090026855, Lat : -35.363261, Lng : 149.1652299, Q1 : 0.998134791851, Q2 : 0.0, Q3 : 0.0, Q4 : -0.0610485821962}
2019-04-03 22:42:31.21: SIM {TimeUS : 48835458, Roll : 0.0, Pitch : 0.0, Yaw : 353.0, Alt : 584.090026855, Lat : -35.363261, Lng : 149.1652299, Q1 : 0.998134791851, Q2 : 0.0, Q3 : 0.0, Q4 : -0.0610485821962}
2019-04-03 22:42:31.31: SIM {TimeUS : 48935418, Roll : 0.0, Pitch : 0.0, Yaw : 353.0, Alt : 584.090026855, Lat : -35.363261, Lng : 149.1652299, Q1 : 0.998134791851, Q2 : 0.0, Q3 : 0.0, Q4 : -0.0610485821962}
2019-04-03 22:42:31.41: SIM {TimeUS : 49035378, Roll : 0.0, Pitch : 0.0, Yaw : 353.0, Alt : 584.090026855, Lat : -35.363261, Lng : 149.1652299, Q1 : 0.998134791851, Q2 : 0.0, Q3 : 0.0, Q4 : -0.0610485821962}
2019-04-03 22:42:31.51: SIM {TimeUS : 49135338, Roll : 0.0, Pitch : 0.0, Yaw : 353.0, Alt : 584.090026855, Lat : -35.363261, Lng : 149.1652299, Q1 : 0.998134791851, Q2 : 0.0, Q3 : 0.0, Q4 : -0.0610485821962}
2019-04-03 22:42:31.61: SIM {TimeUS : 49235298, Roll : 0.0, Pitch : 0.0, Yaw : 353.0, Alt : 584.090026855, Lat : -35.363261, Lng : 149.1652299, Q1 : 0.998134791851, Q2 : 0.0, Q3 : 0.0, Q4 : -0.0610485821962}
2019-04-03 22:42:31.71: SIM {TimeUS : 49335258, Roll : 0.0, Pitch : 0.0, Yaw : 353.0, Alt : 584.090026855, Lat : -35.363261, Lng : 149.1652299, Q1 : 0.998134791851, Q2 : 0.0, Q3 : 0.0, Q4 : -0.0610485821962}
2019-04-03 22:42:31.81: SIM {TimeUS : 49435218, Roll : 0.0, Pitch : 0.0, Yaw : 353.0, Alt : 584.090026855, Lat : -35.363261, Lng : 149.1652299, Q1 : 0.998134791851, Q2 : 0.0, Q3 : 0.0, Q4 : -0.0610485821962}
2019-04-03 22:42:31.91: SIM {TimeUS : 49535178, Roll : 0.0, Pitch : 0.0, Yaw : 353.0, Alt : 584.090026855, Lat : -35.363261, Lng : 149.1652299, Q1 : 0.998134791851, Q2 : 0.0, Q3 : 0.0, Q4 : -0.0610485821962}
2019-04-03 22:42:32.01: SIM {TimeUS : 49635138, Roll : 0.0, Pitch : 0.0, Yaw : 353.0, Alt : 584.090026855, Lat : -35.363261, Lng : 149.1652299, Q1 : 0.998134791851, Q2 : 0.0, Q3 : 0.0, Q4 : -0.0610485821962}
2019-04-03 22:42:32.11: SIM {TimeUS : 49735098, Roll : 0.0, Pitch : 0.0, Yaw : 353.0, Alt : 584.090026855, Lat : -35.363261, Lng : 149.1652299, Q1 : 0.998134791851, Q2 : 0.0, Q3 : 0.0, Q4 : -0.0610485821962}
2019-04-03 22:42:32.21: SIM {TimeUS : 49835058, Roll : 0.0, Pitch : 0.0, Yaw : 353.0, Alt : 584.090026855, Lat : -35.363261, Lng : 149.1652299, Q1 : 0.998134791851, Q2 : 0.0, Q3 : 0.0, Q4 : -0.0610485821962}
2019-04-03 22:42:32.31: SIM {TimeUS : 49935018, Roll : 0.0, Pitch : 0.0, Yaw : 353.0, Alt : 584.090026855, Lat : -35.363261, Lng : 149.1652299, Q1 : 0.998134791851, Q2 : 0.0, Q3 : 0.0, Q4 : -0.0610485821962}
2019-04-03 22:42:32.41: SIM {TimeUS : 50034978, Roll : 0.0, Pitch : 0.0, Yaw : 353.0, Alt : 584.090026855, Lat : -35.363261, Lng : 149.1652299, Q1 : 0.998134791851, Q2 : 0.0, Q3 : 0.0, Q4 : -0.0610485821962}
2019-04-03 22:42:32.51: SIM {TimeUS : 50134938, Roll : 0.0, Pitch : 0.0, Yaw : 353.0, Alt : 584.090026855, Lat : -35.363261, Lng : 149.1652299, Q1 : 0.998134791851, Q2 : 0.0, Q3 : 0.0, Q4 : -0.0610485821962}
2019-04-03 22:42:32.61: SIM {TimeUS : 50234898, Roll : 0.0, Pitch : 0.0, Yaw : 353.0, Alt : 584.090026855, Lat : -35.363261, Lng : 149.1652299, Q1 : 0.998134791851, Q2 : 0.0, Q3 : 0.0, Q4 : -0.0610485821962}
2019-04-03 22:42:32.71: SIM {TimeUS : 50334858, Roll : 0.0, Pitch : 0.0, Yaw : 353.0, Alt : 584.090026855, Lat : -35.363261, Lng : 149.1652299, Q1 : 0.998134791851, Q2 : 0.0, Q3 : 0.0, Q4 : -0.0610485821962}
2019-04-03 22:42:32.81: SIM {TimeUS : 50434818, Roll : 0.0, Pitch : 0.0, Yaw : 353.0, Alt : 584.090026855, Lat : -35.363261, Lng : 149.1652299, Q1 : 0.998134791851, Q2 : 0.0, Q3 : 0.0, Q4 : -0.0610485821962}
2019-04-03 22:42:32.92: SIM {TimeUS : 50535611, Roll : 0.0, Pitch : 0.0, Yaw : 353.0, Alt : 584.090026855, Lat : -35.363261, Lng : 149.1652299, Q1 : 0.998134791851, Q2 : 0.0, Q3 : 0.0, Q4 : -0.0610485821962}
2019-04-03 22:42:33.01: SIM {TimeUS : 50635571, Roll : 0.0, Pitch : 0.0, Yaw : 353.0, Alt : 584.090026855, Lat : -35.363261, Lng : 149.1652299, Q1 : 0.998134791851, Q2 : 0.0, Q3 : 0.0, Q4 : -0.0610485821962}
2019-04-03 22:42:33.11: SIM {TimeUS : 50735531, Roll : 0.0, Pitch : 0.0, Yaw : 353.0, Alt : 584.090026855, Lat : -35.363261, Lng : 149.1652299, Q1 : 0.998134791851, Q2 : 0.0, Q3 : 0.0, Q4 : -0.0610485821962}
2019-04-03 22:42:33.21: SIM {TimeUS : 50835491, Roll : 0.0, Pitch : 0.0, Yaw : 353.0, Alt : 584.090026855, Lat : -35.363261, Lng : 149.1652299, Q1 : 0.998134791851, Q2 : 0.0, Q3 : 0.0, Q4 : -0.0610485821962}
2019-04-03 22:42:33.31: SIM {TimeUS : 50935451, Roll : 0.0, Pitch : 0.0, Yaw : 353.0, Alt : 584.090026855, Lat : -35.363261, Lng : 149.1652299, Q1 : 0.998134791851, Q2 : 0.0, Q3 : 0.0, Q4 : -0.0610485821962}
2019-04-03 22:42:33.41: SIM {TimeUS : 51035411, Roll : 0.0, Pitch : 0.0, Yaw : 353.0, Alt : 584.090026855, Lat : -35.363261, Lng : 149.1652299, Q1 : 0.998134791851, Q2 : 0.0, Q3 : 0.0, Q4 : -0.0610485821962}
2019-04-03 22:42:33.51: SIM {TimeUS : 51135371, Roll : 0.0, Pitch : 0.0, Yaw : 353.0, Alt : 584.090026855, Lat : -35.363261, Lng : 149.1652299, Q1 : 0.998134791851, Q2 : 0.0, Q3 : 0.0, Q4 : -0.0610485821962}
2019-04-03 22:42:33.61: SIM {TimeUS : 51235331, Roll : 0.0, Pitch : 0.0, Yaw : 353.0, Alt : 584.090026855, Lat : -35.363261, Lng : 149.1652299, Q1 : 0.998134791851, Q2 : 0.0, Q3 : 0.0, Q4 : -0.0610485821962}
2019-04-03 22:42:33.71: SIM {TimeUS : 51335291, Roll : 0.0, Pitch : 0.0, Yaw : 353.0, Alt : 584.090026855, Lat : -35.363261, Lng : 149.1652299, Q1 : 0.998134791851, Q2 : 0.0, Q3 : 0.0, Q4 : -0.0610485821962}
2019-04-03 22:42:33.81: SIM {TimeUS : 51435251, Roll : 0.0, Pitch : 0.0, Yaw : 353.0, Alt : 584.090026855, Lat : -35.363261, Lng : 149.1652299, Q1 : 0.998134791851, Q2 : 0.0, Q3 : 0.0, Q4 : -0.0610485821962}
2019-04-03 22:42:33.91: SIM {TimeUS : 51535211, Roll : 0.0, Pitch : 0.0, Yaw : 353.0, Alt : 584.090026855, Lat : -35.363261, Lng : 149.1652299, Q1 : 0.998134791851, Q2 : 0.0, Q3 : 0.0, Q4 : -0.0610485821962}
2019-04-03 22:42:34.01: SIM {TimeUS : 51635171, Roll : 0.0, Pitch : 0.0, Yaw : 353.0, Alt : 584.090026855, Lat : -35.363261, Lng : 149.1652299, Q1 : 0.998134791851, Q2 : 0.0, Q3 : 0.0, Q4 : -0.0610485821962}
2019-04-03 22:42:34.11: SIM {TimeUS : 51735131, Roll : 0.0, Pitch : 0.0, Yaw : 353.0, Alt : 584.090026855, Lat : -35.363261, Lng : 149.1652299, Q1 : 0.998134791851, Q2 : 0.0, Q3 : 0.0, Q4 : -0.0610485821962}
2019-04-03 22:42:34.21: SIM {TimeUS : 51835091, Roll : 0.0, Pitch : 0.0, Yaw : 353.0, Alt : 584.090026855, Lat : -35.363261, Lng : 149.1652299, Q1 : 0.998134791851, Q2 : 0.0, Q3 : 0.0, Q4 : -0.0610485821962}
2019-04-03 22:42:34.31: SIM {TimeUS : 51935051, Roll : 0.0, Pitch : 0.0, Yaw : 353.0, Alt : 584.090026855, Lat : -35.363261, Lng : 149.1652299, Q1 : 0.998134791851, Q2 : 0.0, Q3 : 0.0, Q4 : -0.0610485821962}
2019-04-03 22:42:36.71: SIM {TimeUS : 54334924, Roll : 0.0, Pitch : 0.0, Yaw : 353.0, Alt : 584.090026855, Lat : -35.363261, Lng : 149.1652299, Q1 : 0.998134791851, Q2 : 0.0, Q3 : 0.0, Q4 : -0.0610485821962}
2019-04-03 22:42:36.81: SIM {TimeUS : 54434884, Roll : 0.0, Pitch : 0.0, Yaw : 353.0, Alt : 584.090026855, Lat : -35.363261, Lng : 149.1652299, Q1 : 0.998134791851, Q2 : 0.0, Q3 : 0.0, Q4 : -0.0610485821962}
2019-04-03 22:42:36.91: SIM {TimeUS : 54534844, Roll : 0.0, Pitch : 0.0, Yaw : 353.0, Alt : 584.090026855, Lat : -35.363261, Lng : 149.1652299, Q1 : 0.998134791851, Q2 : 0.0, Q3 : 0.0, Q4 : -0.0610485821962}
2019-04-03 22:42:37.02: SIM {TimeUS : 54635637, Roll : 0.0, Pitch : 0.0, Yaw : 353.0, Alt : 584.090026855, Lat : -35.363261, Lng : 149.1652299, Q1 : 0.998134791851, Q2 : 0.0, Q3 : 0.0, Q4 : -0.0610485821962}
2019-04-03 22:42:37.11: SIM {TimeUS : 54735597, Roll : 0.0, Pitch : 0.0, Yaw : 353.0, Alt : 584.090026855, Lat : -35.363261, Lng : 149.1652299, Q1 : 0.998134791851, Q2 : 0.0, Q3 : 0.0, Q4 : -0.0610485821962}
2019-04-03 22:42:37.21: SIM {TimeUS : 54835557, Roll : 0.0, Pitch : 0.0, Yaw : 353.0, Alt : 584.090026855, Lat : -35.363261, Lng : 149.1652299, Q1 : 0.998134791851, Q2 : 0.0, Q3 : 0.0, Q4 : -0.0610485821962}
2019-04-03 22:42:37.31: SIM {TimeUS : 54935517, Roll : 0.0, Pitch : 0.0, Yaw : 353.0, Alt : 584.090026855, Lat : -35.363261, Lng : 149.1652299, Q1 : 0.998134791851, Q2 : 0.0, Q3 : 0.0, Q4 : -0.0610485821962}
2019-04-03 22:42:37.41: SIM {TimeUS : 55035477, Roll : 0.0, Pitch : 0.0, Yaw : 353.0, Alt : 584.090026855, Lat : -35.363261, Lng : 149.1652299, Q1 : 0.998134791851, Q2 : 0.0, Q3 : 0.0, Q4 : -0.0610485821962}
2019-04-03 22:42:37.51: SIM {TimeUS : 55135437, Roll : 0.0, Pitch : 0.0, Yaw : 353.0, Alt : 584.090026855, Lat : -35.363261, Lng : 149.1652299, Q1 : 0.998134791851, Q2 : 0.0, Q3 : 0.0, Q4 : -0.0610485821962}
2019-04-03 22:42:37.61: SIM {TimeUS : 55235397, Roll : 0.0, Pitch : 0.0, Yaw : 353.0, Alt : 584.090026855, Lat : -35.363261, Lng : 149.1652299, Q1 : 0.998134791851, Q2 : 0.0, Q3 : 0.0, Q4 : -0.0610485821962}
2019-04-03 22:42:37.71: SIM {TimeUS : 55335357, Roll : 0.0, Pitch : 0.0, Yaw : 353.0, Alt : 584.090026855, Lat : -35.363261, Lng : 149.1652299, Q1 : 0.998134791851, Q2 : 0.0, Q3 : 0.0, Q4 : -0.0610485821962}
2019-04-03 22:42:37.81: SIM {TimeUS : 55435317, Roll : 0.0, Pitch : 0.0, Yaw : 353.0, Alt : 584.090026855, Lat : -35.363261, Lng : 149.1652299, Q1 : 0.998134791851, Q2 : 0.0, Q3 : 0.0, Q4 : -0.0610485821962}
2019-04-03 22:42:37.91: SIM {TimeUS : 55535277, Roll : 0.0, Pitch : 0.0, Yaw : 353.0, Alt : 584.090026855, Lat : -35.363261, Lng : 149.1652299, Q1 : 0.998134791851, Q2 : 0.0, Q3 : 0.0, Q4 : -0.0610485821962}
2019-04-03 22:42:38.01: SIM {TimeUS : 55635237, Roll : 0.0, Pitch : 0.0, Yaw : 353.0, Alt : 584.090026855, Lat : -35.363261, Lng : 149.1652299, Q1 : 0.998134791851, Q2 : 0.0, Q3 : 0.0, Q4 : -0.0610485821962}
2019-04-03 22:42:38.11: SIM {TimeUS : 55735197, Roll : 0.0, Pitch : 0.0, Yaw : 353.0, Alt : 584.090026855, Lat : -35.363261, Lng : 149.1652299, Q1 : 0.998134791851, Q2 : 0.0, Q3 : 0.0, Q4 : -0.0610485821962}
2019-04-03 22:42:38.21: SIM {TimeUS : 55835157, Roll : 0.0, Pitch : 0.0, Yaw : 353.0, Alt : 584.090026855, Lat : -35.363261, Lng : 149.1652299, Q1 : 0.998134791851, Q2 : 0.0, Q3 : 0.0, Q4 : -0.0610485821962}
2019-04-03 22:42:38.31: SIM {TimeUS : 55935117, Roll : 0.0, Pitch : 0.0, Yaw : 353.0, Alt : 584.090026855, Lat : -35.363261, Lng : 149.1652299, Q1 : 0.998134791851, Q2 : 0.0, Q3 : 0.0, Q4 : -0.0610485821962}
2019-04-03 22:42:38.41: SIM {TimeUS : 56035077, Roll : 0.0, Pitch : 0.0, Yaw : 353.0, Alt : 584.090026855, Lat : -35.363261, Lng : 149.1652299, Q1 : 0.998134791851, Q2 : 0.0, Q3 : 0.0, Q4 : -0.0610485821962}
2019-04-03 22:42:38.51: SIM {TimeUS : 56135037, Roll : 0.0, Pitch : 0.0, Yaw : 353.0, Alt : 584.090026855, Lat : -35.363261, Lng : 149.1652299, Q1 : 0.998134791851, Q2 : 0.0, Q3 : 0.0, Q4 : -0.0610485821962}
2019-04-03 22:42:38.61: SIM {TimeUS : 56234997, Roll : 0.0, Pitch : 0.0, Yaw : 353.0, Alt : 584.090026855, Lat : -35.363261, Lng : 149.1652299, Q1 : 0.998134791851, Q2 : 0.0, Q3 : 0.0, Q4 : -0.0610485821962}
2019-04-03 22:42:38.71: SIM {TimeUS : 56334957, Roll : 0.0, Pitch : 0.0, Yaw : 353.0, Alt : 584.090026855, Lat : -35.363261, Lng : 149.1652299, Q1 : 0.998134791851, Q2 : 0.0, Q3 : 0.0, Q4 : -0.0610485821962}
2019-04-03 22:42:38.81: SIM {TimeUS : 56434917, Roll : 0.0, Pitch : 0.0, Yaw : 353.0, Alt : 584.090026855, Lat : -35.363261, Lng : 149.1652299, Q1 : 0.998134791851, Q2 : 0.0, Q3 : 0.0, Q4 : -0.0610485821962}
2019-04-03 22:42:38.91: SIM {TimeUS : 56534877, Roll : 0.0, Pitch : 0.0, Yaw : 353.0, Alt : 584.090026855, Lat : -35.363261, Lng : 149.1652299, Q1 : 0.998134791851, Q2 : 0.0, Q3 : 0.0, Q4 : -0.0610485821962}
2019-04-03 22:42:39.01: SIM {TimeUS : 56634837, Roll : 0.0, Pitch : 0.0, Yaw : 353.0, Alt : 584.090026855, Lat : -35.363261, Lng : 149.1652299, Q1 : 0.998134791851, Q2 : 0.0, Q3 : 0.0, Q4 : -0.0610485821962}
2019-04-03 22:42:39.12: SIM {TimeUS : 56735630, Roll : 0.0, Pitch : 0.0, Yaw : 353.0, Alt : 584.090026855, Lat : -35.363261, Lng : 149.1652299, Q1 : 0.998134791851, Q2 : 0.0, Q3 : 0.0, Q4 : -0.0610485821962}
2019-04-03 22:42:39.21: SIM {TimeUS : 56835590, Roll : 0.0, Pitch : 0.0, Yaw : 353.0, Alt : 584.090026855, Lat : -35.363261, Lng : 149.1652299, Q1 : 0.998134791851, Q2 : 0.0, Q3 : 0.0, Q4 : -0.0610485821962}
2019-04-03 22:42:39.31: SIM {TimeUS : 56935550, Roll : 0.0, Pitch : 0.0, Yaw : 353.0, Alt : 584.090026855, Lat : -35.363261, Lng : 149.1652299, Q1 : 0.998134791851, Q2 : 0.0, Q3 : 0.0, Q4 : -0.0610485821962}
2019-04-03 22:42:39.41: SIM {TimeUS : 57035510, Roll : 0.0, Pitch : 0.0, Yaw : 353.0, Alt : 584.090026855, Lat : -35.363261, Lng : 149.1652299, Q1 : 0.998134791851, Q2 : 0.0, Q3 : 0.0, Q4 : -0.0610485821962}
2019-04-03 22:42:39.51: SIM {TimeUS : 57135470, Roll : 0.0, Pitch : 0.0, Yaw : 353.0, Alt : 584.090026855, Lat : -35.363261, Lng : 149.1652299, Q1 : 0.998134791851, Q2 : 0.0, Q3 : 0.0, Q4 : -0.0610485821962}
2019-04-03 22:42:39.61: SIM {TimeUS : 57235430, Roll : 0.0, Pitch : 0.0, Yaw : 353.0, Alt : 584.090026855, Lat : -35.363261, Lng : 149.1652299, Q1 : 0.998134791851, Q2 : 0.0, Q3 : 0.0, Q4 : -0.0610485821962}
2019-04-03 22:42:39.71: SIM {TimeUS : 57335390, Roll : 0.0, Pitch : 0.0, Yaw : 353.0, Alt : 584.090026855, Lat : -35.363261, Lng : 149.1652299, Q1 : 0.998134791851, Q2 : 0.0, Q3 : 0.0, Q4 : -0.0610485821962}
2019-04-03 22:42:39.81: SIM {TimeUS : 57435350, Roll : 0.0, Pitch : 0.0, Yaw : 353.0, Alt : 584.090026855, Lat : -35.363261, Lng : 149.1652299, Q1 : 0.998134791851, Q2 : 0.0, Q3 : 0.0, Q4 : -0.0610485821962}
2019-04-03 22:42:39.91: SIM {TimeUS : 57535310, Roll : 0.0, Pitch : 0.0, Yaw : 353.0, Alt : 584.090026855, Lat : -35.363261, Lng : 149.1652299, Q1 : 0.998134791851, Q2 : 0.0, Q3 : 0.0, Q4 : -0.0610485821962}
2019-04-03 22:42:40.01: SIM {TimeUS : 57635270, Roll : 0.0, Pitch : 0.0, Yaw : 353.0, Alt : 584.090026855, Lat : -35.363261, Lng : 149.1652299, Q1 : 0.998134791851, Q2 : 0.0, Q3 : 0.0, Q4 : -0.0610485821962}
2019-04-03 22:42:40.11: SIM {TimeUS : 57735230, Roll : 0.0, Pitch : 0.0, Yaw : 353.0, Alt : 584.090026855, Lat : -35.363261, Lng : 149.1652299, Q1 : 0.998134791851, Q2 : 0.0, Q3 : 0.0, Q4 : -0.0610485821962}
2019-04-03 22:42:40.21: SIM {TimeUS : 57835190, Roll : 0.0, Pitch : 0.0, Yaw : 353.0, Alt : 584.090026855, Lat : -35.363261, Lng : 149.1652299, Q1 : 0.998134791851, Q2 : 0.0, Q3 : 0.0, Q4 : -0.0610485821962}
2019-04-03 22:42:40.31: SIM {TimeUS : 57935150, Roll : 0.0, Pitch : 0.0, Yaw : 353.0, Alt : 584.090026855, Lat : -35.363261, Lng : 149.1652299, Q1 : 0.998134791851, Q2 : 0.0, Q3 : 0.0, Q4 : -0.0610485821962}
2019-04-03 22:42:40.41: SIM {TimeUS : 58035110, Roll : 0.0, Pitch : 0.0, Yaw : 353.0, Alt : 584.090026855, Lat : -35.363261, Lng : 149.1652299, Q1 : 0.998134791851, Q2 : 0.0, Q3 : 0.0, Q4 : -0.0610485821962}
2019-04-03 22:42:40.51: SIM {TimeUS : 58135070, Roll : 0.0, Pitch : 0.0, Yaw : 353.0, Alt : 584.090026855, Lat : -35.363261, Lng : 149.1652299, Q1 : 0.998134791851, Q2 : 0.0, Q3 : 0.0, Q4 : -0.0610486268997}
2019-04-03 22:42:40.61: SIM {TimeUS : 58235030, Roll : 0.0, Pitch : 0.0, Yaw : 353.0, Alt : 584.090026855, Lat : -35.363261, Lng : 149.1652299, Q1 : 0.998134791851, Q2 : 0.0, Q3 : 0.0, Q4 : -0.0610486753285}
2019-04-03 22:42:40.71: SIM {TimeUS : 58334990, Roll : 0.0, Pitch : 0.0, Yaw : 353.0, Alt : 584.090026855, Lat : -35.363261, Lng : 149.1652299, Q1 : 0.998134791851, Q2 : 0.0, Q3 : 0.0, Q4 : -0.0610486753285}
2019-04-03 22:42:40.81: SIM {TimeUS : 58434950, Roll : 0.0, Pitch : 0.0, Yaw : 353.0, Alt : 584.090026855, Lat : -35.363261, Lng : 149.1652299, Q1 : 0.998134791851, Q2 : 0.0, Q3 : 0.0, Q4 : -0.0610486753285}
2019-04-03 22:42:40.91: SIM {TimeUS : 58534910, Roll : 0.0, Pitch : 0.0, Yaw : 353.0, Alt : 584.090026855, Lat : -35.363261, Lng : 149.1652299, Q1 : 0.998134791851, Q2 : 0.0, Q3 : 0.0, Q4 : -0.0610486753285}
2019-04-03 22:42:41.01: SIM {TimeUS : 58634870, Roll : 0.0, Pitch : 0.0, Yaw : 353.0, Alt : 584.090026855, Lat : -35.363261, Lng : 149.1652299, Q1 : 0.998134791851, Q2 : 0.0, Q3 : 0.0, Q4 : -0.0610486753285}
2019-04-03 22:42:41.11: SIM {TimeUS : 58734830, Roll : 0.0, Pitch : 0.0, Yaw : 353.0, Alt : 584.090026855, Lat : -35.363261, Lng : 149.1652299, Q1 : 0.998134791851, Q2 : 0.0, Q3 : 0.0, Q4 : -0.0610486753285}
2019-04-03 22:42:41.22: SIM {TimeUS : 58835623, Roll : 0.0, Pitch : 0.0, Yaw : 353.0, Alt : 584.090026855, Lat : -35.363261, Lng : 149.1652299, Q1 : 0.998134791851, Q2 : 0.0, Q3 : 0.0, Q4 : -0.0610486753285}
2019-04-03 22:42:41.31: SIM {TimeUS : 58935583, Roll : 0.0, Pitch : 0.0, Yaw : 353.0, Alt : 584.099975586, Lat : -35.363261, Lng : 149.1652299, Q1 : 0.998134791851, Q2 : 0.0, Q3 : 0.0, Q4 : -0.0610486753285}
2019-04-03 22:42:41.41: SIM {TimeUS : 59035543, Roll : 0.0, Pitch : 0.0, Yaw : 353.0, Alt : 584.099975586, Lat : -35.363261, Lng : 149.1652299, Q1 : 0.998134791851, Q2 : 0.0, Q3 : 0.0, Q4 : -0.0610486753285}
2019-04-03 22:42:41.51: SIM {TimeUS : 59135503, Roll : 0.0, Pitch : 0.0, Yaw : 353.0, Alt : 584.109985352, Lat : -35.363261, Lng : 149.1652299, Q1 : 0.998134791851, Q2 : 0.0, Q3 : 0.0, Q4 : -0.0610486753285}
2019-04-03 22:42:41.61: SIM {TimeUS : 59235463, Roll : 0.0, Pitch : 0.0, Yaw : 353.0, Alt : 584.130004883, Lat : -35.363261, Lng : 149.1652299, Q1 : 0.998134791851, Q2 : 0.0, Q3 : 0.0, Q4 : -0.0610486753285}
2019-04-03 22:42:41.71: SIM {TimeUS : 59335423, Roll : 0.0, Pitch : 0.0, Yaw : 353.0, Alt : 584.159973145, Lat : -35.363261, Lng : 149.1652299, Q1 : 0.998134791851, Q2 : 0.0, Q3 : 0.0, Q4 : -0.0610486753285}
2019-04-03 22:42:41.81: SIM {TimeUS : 59435383, Roll : 0.0, Pitch : 0.0, Yaw : 353.0, Alt : 584.190002441, Lat : -35.363261, Lng : 149.1652299, Q1 : 0.998134791851, Q2 : 0.0, Q3 : 0.0, Q4 : -0.0610486753285}
2019-04-03 22:42:41.91: SIM {TimeUS : 59535343, Roll : 0.0, Pitch : 0.0, Yaw : 352.99, Alt : 584.239990234, Lat : -35.363261, Lng : 149.1652299, Q1 : 0.998134732246, Q2 : -8.33997110021e-05, Q3 : -6.11476716585e-05, Q4 : -0.06105004251}
2019-04-03 22:42:42.01: SIM {TimeUS : 59635303, Roll : -0.05, Pitch : -0.03, Yaw : 352.99, Alt : 584.320007324, Lat : -35.363261, Lng : 149.1652299, Q1 : 0.998133778572, Q2 : -0.000476495479234, Q3 : -0.00030273309676, Q4 : -0.0610626898706}
2019-04-03 22:42:42.11: SIM {TimeUS : 59735263, Roll : -0.11, Pitch : -0.06, Yaw : 352.99, Alt : 584.460021973, Lat : -35.363261, Lng : 149.1652299, Q1 : 0.998131990433, Q2 : -0.00101795233786, Q3 : -0.000536864972673, Q4 : -0.0610833354294}
2019-04-03 22:42:42.21: SIM {TimeUS : 59835223, Roll : -0.15, Pitch : -0.08, Yaw : 352.99, Alt : 584.609985352, Lat : -35.363261, Lng : 149.1652299, Q1 : 0.998130023479, Q2 : -0.00137740990613, Q3 : -0.000699744443409, Q4 : -0.0611069463193}
2019-04-03 22:42:42.31: SIM {TimeUS : 59935183, Roll : -0.16, Pitch : -0.1, Yaw : 352.99, Alt : 584.770019531, Lat : -35.363261, Lng : 149.1652299, Q1 : 0.998128473759, Q2 : -0.00147777143866, Q3 : -0.000800412613899, Q4 : -0.0611292533576}
2019-04-03 22:42:42.41: SIM {TimeUS : 60035143, Roll : -0.14, Pitch : -0.1, Yaw : 352.98, Alt : 584.91998291, Lat : -35.363261, Lng : 149.1652299, Q1 : 0.998126924038, Q2 : -0.00134775147308, Q3 : -0.000801180489361, Q4 : -0.0611574500799}
2019-04-03 22:42:42.51: SIM {TimeUS : 60135103, Roll : -0.13, Pitch : -0.08, Yaw : 352.98, Alt : 585.070007324, Lat : -35.363261, Lng : 149.1652299, Q1 : 0.998125612736, Q2 : -0.00124308525119, Q3 : -0.00063907209551, Q4 : -0.0611830428243}
2019-04-03 22:42:42.61: SIM {TimeUS : 60235063, Roll : -0.13, Pitch : -0.03, Yaw : 352.98, Alt : 585.229980469, Lat : -35.363261, Lng : 149.1652299, Q1 : 0.998124599457, Q2 : -0.00120711466298, Q3 : -0.000246629118919, Q4 : -0.0612020157278}
2019-04-03 22:42:42.71: SIM {TimeUS : 60335023, Roll : -0.14, Pitch : 0.0, Yaw : 352.98, Alt : 585.390014648, Lat : -35.363261, Lng : 149.1652299, Q1 : 0.998123884201, Q2 : -0.00122646254022, Q3 : 5.06274845975e-05, Q4 : -0.0612139739096}
2019-04-03 22:42:42.81: SIM {TimeUS : 60434983, Roll : -0.13, Pitch : 0.0, Yaw : 352.98, Alt : 585.559997559, Lat : -35.363261, Lng : 149.1652299, Q1 : 0.998123645782, Q2 : -0.00115734594874, Q3 : 0.000137345836265, Q4 : -0.0612196438015}
2019-04-03 22:42:42.91: SIM {TimeUS : 60534943, Roll : -0.11, Pitch : 0.0, Yaw : 352.98, Alt : 585.739990234, Lat : -35.363261, Lng : 149.1652299, Q1 : 0.998123943806, Q2 : -0.000987107516266, Q3 : 5.1659582823e-05, Q4 : -0.0612181089818}
2019-04-03 22:42:43.01: SIM {TimeUS : 60634903, Roll : -0.07, Pitch : -0.02, Yaw : 352.98, Alt : 585.91998291, Lat : -35.363261, Lng : 149.1652299, Q1 : 0.998125076294, Q2 : -0.000653503928334, Q3 : -0.000201442060643, Q4 : -0.0612042732537}
2019-04-03 22:42:43.11: SIM {TimeUS : 60734863, Roll : -0.03, Pitch : -0.06, Yaw : 352.98, Alt : 586.099975586, Lat : -35.363261, Lng : 149.1652298, Q1 : 0.998126149178, Q2 : -0.000299754028674, Q3 : -0.000532125821337, Q4 : -0.0611869618297}
2019-04-03 22:42:43.21: SIM {TimeUS : 60834823, Roll : 0.0, Pitch : -0.07, Yaw : 352.98, Alt : 586.289978027, Lat : -35.363261, Lng : 149.1652298, Q1 : 0.99812656641, Q2 : -0.000101914243714, Q3 : -0.000667501240969, Q4 : -0.061180125922}
2019-04-03 22:42:43.32: SIM {TimeUS : 60935616, Roll : 0.0, Pitch : -0.06, Yaw : 352.98, Alt : 586.479980469, Lat : -35.363261, Lng : 149.1652298, Q1 : 0.998126327991, Q2 : -6.53861497995e-05, Q3 : -0.000524124014191, Q4 : -0.0611851401627}
2019-04-03 22:42:43.41: SIM {TimeUS : 61035576, Roll : -0.02, Pitch : -0.02, Yaw : 352.98, Alt : 586.679992676, Lat : -35.363261, Lng : 149.1652298, Q1 : 0.99812579155, Q2 : -0.000264414527919, Q3 : -0.000209456353332, Q4 : -0.0611955523491}
2019-04-03 22:42:43.51: SIM {TimeUS : 61135536, Roll : -0.03, Pitch : 0.01, Yaw : 352.98, Alt : 586.880004883, Lat : -35.363261, Lng : 149.1652298, Q1 : 0.998125195503, Q2 : -0.000334472511895, Q3 : 0.000154945897521, Q4 : -0.0612048283219}
2019-04-03 22:42:43.61: SIM {TimeUS : 61235496, Roll : -0.03, Pitch : 0.04, Yaw : 352.98, Alt : 587.08001709, Lat : -35.363261, Lng : 149.1652298, Q1 : 0.998125076294, Q2 : -0.00032386474777, Q3 : 0.000371969479602, Q4 : -0.0612060315907}
2019-04-03 22:42:43.71: SIM {TimeUS : 61335456, Roll : -0.01, Pitch : 0.03, Yaw : 352.98, Alt : 587.280029297, Lat : -35.363261, Lng : 149.1652298, Q1 : 0.998125076294, Q2 : -0.000100298871985, Q3 : 0.000311403797241, Q4 : -0.0612065531313}
2019-04-03 22:42:43.81: SIM {TimeUS : 61435416, Roll : 0.02, Pitch : -0.01, Yaw : 352.98, Alt : 587.479980469, Lat : -35.363261, Lng : 149.1652298, Q1 : 0.99812489748, Q2 : 0.000183209573152, Q3 : -0.000137577240821, Q4 : -0.0612100809813}
2019-04-03 22:42:43.91: SIM {TimeUS : 61535376, Roll : 0.04, Pitch : -0.03, Yaw : 352.98, Alt : 587.690002441, Lat : -35.363261, Lng : 149.1652298, Q1 : 0.99812412262, Q2 : 0.00035878556082, Q3 : -0.000365903484635, Q4 : -0.0612206794322}
2019-04-03 22:42:44.01: SIM {TimeUS : 61635336, Roll : 0.07, Pitch : -0.03, Yaw : 352.97, Alt : 587.890014648, Lat : -35.3632609, Lng : 149.1652298, Q1 : 0.998122632504, Q2 : 0.000623350206297, Q3 : -0.000318954931572, Q4 : -0.0612436160445}
2019-04-03 22:42:44.11: SIM {TimeUS : 61735296, Roll : 0.08, Pitch : -0.03, Yaw : 352.97, Alt : 588.090026855, Lat : -35.3632609, Lng : 149.1652298, Q1 : 0.998121201992, Q2 : 0.000765518227126, Q3 : -0.000334961776389, Q4 : -0.0612649731338}
2019-04-03 22:42:44.21: SIM {TimeUS : 61835256, Roll : 0.07, Pitch : -0.04, Yaw : 352.97, Alt : 588.289978027, Lat : -35.3632609, Lng : 149.1652298, Q1 : 0.998120188713, Q2 : 0.000639592821244, Q3 : -0.000391718611354, Q4 : -0.0612816996872}
2019-04-03 22:42:44.31: SIM {TimeUS : 61935216, Roll : 0.05, Pitch : -0.03, Yaw : 352.97, Alt : 588.469970703, Lat : -35.3632609, Lng : 149.1652298, Q1 : 0.998119592667, Q2 : 0.000496280321386, Q3 : -0.000299349718262, Q4 : -0.0612942166626}
2019-04-03 22:42:44.41: SIM {TimeUS : 62035176, Roll : 0.11, Pitch : 0.09, Yaw : 352.97, Alt : 588.650024414, Lat : -35.3632609, Lng : 149.1652298, Q1 : 0.998118340969, Q2 : 0.00109361449722, Q3 : 0.000732822110876, Q4 : -0.0613027438521}
2019-04-03 22:42:44.51: SIM {TimeUS : 62135136, Roll : 0.52, Pitch : 0.67, Yaw : 352.97, Alt : 588.809997559, Lat : -35.3632609, Lng : 149.1652298, Q1 : 0.998090803623, Q2 : 0.00490060355514, Q3 : 0.00562655879185, Q4 : -0.061311416328}
2019-04-03 22:42:44.61: SIM {TimeUS : 62235096, Roll : 1.25, Pitch : 1.69, Yaw : 352.98, Alt : 588.969970703, Lat : -35.3632609, Lng : 149.1652298, Q1 : 0.997947633266, Q2 : 0.0118109304458, Q3 : 0.0141286021098, Q4 : -0.0613307021558}
2019-04-03 22:42:44.71: SIM {TimeUS : 62335056, Roll : 2.14, Pitch : 2.93, Yaw : 353.01, Alt : 589.109985352, Lat : -35.363261, Lng : 149.1652298, Q1 : 0.997609019279, Q2 : 0.0202022660524, Q3 : 0.024451347068, Q4 : -0.0614022687078}
2019-04-03 22:42:44.81: SIM {TimeUS : 62435016, Roll : 3.04, Pitch : 4.17, Yaw : 353.04, Alt : 589.239990234, Lat : -35.363261, Lng : 149.1652298, Q1 : 0.997085869312, Q2 : 0.0286721624434, Q3 : 0.0347255282104, Q4 : -0.0615777373314}
2019-04-03 22:42:44.91: SIM {TimeUS : 62534976, Roll : 3.83, Pitch : 5.24, Yaw : 353.06, Alt : 589.369995117, Lat : -35.363261, Lng : 149.1652299, Q1 : 0.996477782726, Q2 : 0.0361010618508, Q3 : 0.043585319072, Q4 : -0.0618796497583}
2019-04-03 22:42:45.01: SIM {TimeUS : 62634936, Roll : 4.41, Pitch : 6.02, Yaw : 353.07, Alt : 589.479980469, Lat : -35.3632611, Lng : 149.1652301, Q1 : 0.995929658413, Q2 : 0.0415881797671, Q3 : 0.0501148477197, Q4 : -0.0623147748411}
2019-04-03 22:42:45.11: SIM {TimeUS : 62734896, Roll : 4.79, Pitch : 6.54, Yaw : 353.04, Alt : 589.590026855, Lat : -35.3632615, Lng : 149.1652303, Q1 : 0.995517969131, Q2 : 0.0451123937964, Q3 : 0.054398227483, Q4 : -0.0628460496664}
2019-04-03 22:42:45.21: SIM {TimeUS : 62834856, Roll : 5.02, Pitch : 6.87, Yaw : 353.0, Alt : 589.700012207, Lat : -35.3632617, Lng : 149.1652308, Q1 : 0.995229363441, Q2 : 0.0472964569926, Q3 : 0.0570909418166, Q4 : -0.0634215846658}
2019-04-03 22:42:45.31: SIM {TimeUS : 62934816, Roll : 5.15, Pitch : 7.05, Yaw : 352.95, Alt : 589.789978027, Lat : -35.3632622, Lng : 149.1652312, Q1 : 0.995043814182, Q2 : 0.048579428345, Q3 : 0.0585964396596, Q4 : -0.0639873892069}
2019-04-03 22:42:45.42: SIM {TimeUS : 63035609, Roll : 5.2, Pitch : 7.13, Yaw : 352.9, Alt : 589.890014648, Lat : -35.3632627, Lng : 149.1652317, Q1 : 0.994950652122, Q2 : 0.049070071429, Q3 : 0.0592203699052, Q4 : -0.0644849538803}
2019-04-03 22:42:45.51: SIM {TimeUS : 63135569, Roll : 5.2, Pitch : 7.17, Yaw : 352.86, Alt : 589.979980469, Lat : -35.3632632, Lng : 149.1652323, Q1 : 0.994905948639, Q2 : 0.0491000302136, Q3 : 0.0595460124314, Q4 : -0.0648511126637}
2019-04-03 22:42:45.61: SIM {TimeUS : 63235529, Roll : 5.2, Pitch : 7.24, Yaw : 352.84, Alt : 590.059997559, Lat : -35.3632638, Lng : 149.1652331, Q1 : 0.994852542877, Q2 : 0.0491483584046, Q3 : 0.0601530112326, Q4 : -0.0650734454393}
2019-04-03 22:42:45.71: SIM {TimeUS : 63335489, Roll : 5.21, Pitch : 7.45, Yaw : 352.86, Alt : 590.140014648, Lat : -35.3632645, Lng : 149.1652339, Q1 : 0.994739055634, Q2 : 0.0493697226048, Q3 : 0.0619534254074, Q4 : -0.0649511292577}
2019-04-03 22:42:45.81: SIM {TimeUS : 63435449, Roll : 5.11, Pitch : 7.91, Yaw : 353.24, Alt : 590.229980469, Lat : -35.3632652, Lng : 149.1652346, Q1 : 0.994708180428, Q2 : 0.0484675429761, Q3 : 0.0662344917655, Q4 : -0.0618029274046}
2019-04-03 22:42:45.91: SIM {TimeUS : 63535409, Roll : 4.93, Pitch : 8.57, Yaw : 354.62, Alt : 590.309997559, Lat : -35.3632659, Lng : 149.1652356, Q1 : 0.995035588741, Q2 : 0.0463511571288, Q3 : 0.0725597664714, Q4 : -0.0499077960849}
2019-04-03 22:42:46.01: SIM {TimeUS : 63635369, Roll : 5.01, Pitch : 9.1, Yaw : 357.56, Alt : 590.390014648, Lat : -35.3632669, Lng : 149.1652365, Q1 : 0.995594024658, Q2 : 0.0453110709786, Q3 : 0.0783130005002, Q4 : -0.0246284939349}
2019-04-03 22:42:46.11: SIM {TimeUS : 63735329, Roll : 5.55, Pitch : 9.2, Yaw : 2.11, Alt : 590.479980469, Lat : -35.3632677, Lng : 149.1652375, Q1 : 0.995504558086, Q2 : 0.046813800931, Q3 : 0.0810497924685, Q4 : 0.0144945802167}
2019-04-03 22:42:46.21: SIM {TimeUS : 63835289, Roll : 6.57, Pitch : 8.73, Yaw : 8.05, Alt : 590.570007324, Lat : -35.3632689, Lng : 149.1652385, Q1 : 0.99330663681, Q2 : 0.0516710728407, Q3 : 0.0798260644078, Q4 : 0.0655726492405}
2019-04-03 22:42:46.31: SIM {TimeUS : 63935249, Roll : 7.95, Pitch : 7.66, Yaw : 15.07, Alt : 590.659973145, Lat : -35.36327, Lng : 149.1652397, Q1 : 0.987368941307, Q2 : 0.0598624236882, Q3 : 0.0751700624824, Q4 : 0.12597052753}
2019-04-03 22:42:46.41: SIM {TimeUS : 64035209, Roll : 9.46, Pitch : 6.04, Yaw : 22.85, Alt : 590.75, Lat : -35.3632712, Lng : 149.1652408, Q1 : 0.976344347, Q2 : 0.070361495018, Q3 : 0.0678172931075, Q4 : 0.192877650261}
2019-04-03 22:42:46.51: SIM {TimeUS : 64135169, Roll : 10.86, Pitch : 3.99, Yaw : 31.1, Alt : 590.849975586, Lat : -35.3632725, Lng : 149.165242, Q1 : 0.959368467331, Q2 : 0.0818219184875, Q3 : 0.0588261000812, Q4 : 0.263546705246}
2019-04-03 22:42:46.61: SIM {TimeUS : 64235129, Roll : 11.94, Pitch : 1.69, Yaw : 39.58, Alt : 590.960021973, Lat : -35.3632738, Lng : 149.1652432, Q1 : 0.936225831509, Q2 : 0.0928814411163, Q3 : 0.0491074882448, Q4 : 0.335324734449}
2019-04-03 22:42:46.71: SIM {TimeUS : 64335089, Roll : 12.54, Pitch : -0.71, Yaw : 48.09, Alt : 591.070007324, Lat : -35.3632753, Lng : 149.1652447, Q1 : 0.907452583313, Q2 : 0.102277621627, Q3 : 0.0388335771859, Q4 : 0.405661255121}
2019-04-03 22:42:46.81: SIM {TimeUS : 64435049, Roll : 12.59, Pitch : -3.06, Yaw : 56.41, Alt : 591.179992676, Lat : -35.3632768, Lng : 149.1652461, Q1 : 0.874212503433, Q2 : 0.109219484031, Q3 : 0.0284047573805, Q4 : 0.472246527672}
2019-04-03 22:42:46.91: SIM {TimeUS : 64535009, Roll : 12.19, Pitch : -5.17, Yaw : 64.39, Alt : 591.299987793, Lat : -35.3632784, Lng : 149.1652476, Q1 : 0.83801060915, Q2 : 0.113762490451, Q3 : 0.0185401793569, Q4 : 0.533340930939}
2019-04-03 22:42:47.01: SIM {TimeUS : 64634969, Roll : 11.5, Pitch : -6.96, Yaw : 71.9, Alt : 591.41998291, Lat : -35.3632799, Lng : 149.1652494, Q1 : 0.8003885746, Q2 : 0.116435989738, Q3 : 0.00980450212955, Q4 : 0.587983548641}
2019-04-03 22:42:47.11: SIM {TimeUS : 64734929, Roll : 10.63, Pitch : -8.41, Yaw : 78.86, Alt : 591.549987793, Lat : -35.3632816, Lng : 149.1652511, Q1 : 0.762668609619, Q2 : 0.117786407471, Q3 : 0.00229796417989, Q4 : 0.635969936848}
2019-04-03 22:42:47.21: SIM {TimeUS : 64834889, Roll : 9.69, Pitch : -9.55, Yaw : 85.26, Alt : 591.679992676, Lat : -35.3632833, Lng : 149.165253, Q1 : 0.725756704807, Q2 : 0.118177391589, Q3 : -0.00403758184984, Q4 : 0.677713155746}
2019-04-03 22:42:47.31: SIM {TimeUS : 64934849, Roll : 8.76, Pitch : -10.45, Yaw : 91.15, Alt : 591.820007324, Lat : -35.3632851, Lng : 149.165255, Q1 : 0.690029025078, Q2 : 0.118109822273, Q3 : -0.00924618076533, Q4 : 0.714020013809}
2019-04-03 22:42:47.41: SIM {TimeUS : 65034809, Roll : 7.9, Pitch : -11.12, Yaw : 96.62, Alt : 591.960021973, Lat : -35.3632869, Lng : 149.1652571, Q1 : 0.655386507511, Q2 : 0.117836326361, Q3 : -0.0131178274751, Q4 : 0.745929658413}
2019-04-03 22:42:47.51: SIM {TimeUS : 65135602, Roll : 7.13, Pitch : -11.66, Yaw : 101.82, Alt : 592.099975586, Lat : -35.3632887, Lng : 149.1652591, Q1 : 0.621111750603, Q2 : 0.11772595346, Q3 : -0.0159077271819, Q4 : 0.774666190147}
2019-04-03 22:42:47.61: SIM {TimeUS : 65235562, Roll : 6.42, Pitch : -12.14, Yaw : 106.8, Alt : 592.25, Lat : -35.3632906, Lng : 149.1652614, Q1 : 0.587140440941, Q2 : 0.117996633053, Q3 : -0.018237311393, Q4 : 0.800631225109}
2019-04-03 22:42:47.71: SIM {TimeUS : 65335522, Roll : 5.68, Pitch : -12.63, Yaw : 111.74, Alt : 592.400024414, Lat : -35.3632925, Lng : 149.1652637, Q1 : 0.552457273006, Q2 : 0.118627943099, Q3 : -0.0208735838532, Q4 : 0.824792504311}
2019-04-03 22:42:47.81: SIM {TimeUS : 65435482, Roll : 4.82, Pitch : -13.13, Yaw : 116.74, Alt : 592.549987793, Lat : -35.3632944, Lng : 149.1652661, Q1 : 0.516364216805, Q2 : 0.119243755937, Q3 : -0.0243260990828, Q4 : 0.847677588463}
2019-04-03 22:42:47.91: SIM {TimeUS : 65535442, Roll : 3.79, Pitch : -13.62, Yaw : 121.92, Alt : 592.700012207, Lat : -35.3632965, Lng : 149.1652685, Q1 : 0.478254020214, Q2 : 0.119567513466, Q3 : -0.0287985075265, Q4 : 0.869567334652}
2019-04-03 22:42:48.01: SIM {TimeUS : 65635402, Roll : 2.54, Pitch : -14.03, Yaw : 127.32, Alt : 592.859985352, Lat : -35.3632986, Lng : 149.1652709, Q1 : 0.437776178122, Q2 : 0.119262695312, Q3 : -0.0344437994063, Q4 : 0.890472948551}
2019-04-03 22:42:48.11: SIM {TimeUS : 65735362, Roll : 0.8, Pitch : -14.34, Yaw : 132.78, Alt : 593.010009766, Lat : -35.3633006, Lng : 149.1652734, Q1 : 0.396560013294, Q2 : 0.117177218199, Q3 : -0.0436546243727, Q4 : 0.909452557564}
2019-04-03 22:42:48.21: SIM {TimeUS : 65835322, Roll : -1.33, Pitch : -14.43, Yaw : 137.76, Alt : 593.16998291, Lat : -35.3633029, Lng : 149.1652758, Q1 : 0.358783632517, Q2 : 0.113021478057, Q3 : -0.0560263469815, Q4 : 0.92485755682}
2019-04-03 22:42:48.31: SIM {TimeUS : 65935282, Roll : -3.38, Pitch : -14.3, Yaw : 141.75, Alt : 593.33001709, Lat : -35.3633049, Lng : 149.1652785, Q1 : 0.328383594751, Q2 : 0.107998967171, Q3 : -0.0684916749597, Q4 : 0.935846865177}
2019-04-03 22:42:48.41: SIM {TimeUS : 66035242, Roll : -4.9, Pitch : -14.07, Yaw : 144.44, Alt : 593.479980469, Lat : -35.3633072, Lng : 149.1652811, Q1 : 0.307724654675, Q2 : 0.103618450463, Q3 : -0.0778498575091, Q4 : 0.942607104778}
2019-04-03 22:42:48.51: SIM {TimeUS : 66135202, Roll : -5.61, Pitch : -13.88, Yaw : 145.79, Alt : 593.640014648, Lat : -35.3633095, Lng : 149.1652839, Q1 : 0.29727768898, Q2 : 0.101108841598, Q3 : -0.082009807229, Q4 : 0.945873856544}
2019-04-03 22:42:48.61: SIM {TimeUS : 66235162, Roll : -5.48, Pitch : -13.81, Yaw : 145.92, Alt : 593.799987793, Lat : -35.3633116, Lng : 149.1652868, Q1 : 0.296081006527, Q2 : 0.100946776569, Q3 : -0.0806309208274, Q4 : 0.946384906769}
2019-04-03 22:42:48.71: SIM {TimeUS : 66335122, Roll : -4.65, Pitch : -13.9, Yaw : 145.06, Alt : 593.960021973, Lat : -35.3633139, Lng : 149.1652897, Q1 : 0.30239251256, Q2 : 0.10325139761, Q3 : -0.0747297033668, Q4 : 0.944623410702}
2019-04-03 22:42:48.81: SIM {TimeUS : 66435082, Roll : -3.36, Pitch : -14.13, Yaw : 143.48, Alt : 594.130004883, Lat : -35.3633161, Lng : 149.1652926, Q1 : 0.314193308353, Q2 : 0.10767275095, Q3 : -0.0662398412824, Q4 : 0.94090461731}
2019-04-03 22:42:48.91: SIM {TimeUS : 66535042, Roll : -1.93, Pitch : -14.44, Yaw : 141.44, Alt : 594.289978027, Lat : -35.3633182, Lng : 149.1652957, Q1 : 0.329471826553, Q2 : 0.113091908395, Q3 : -0.0573397912085, Q4 : 0.935612440109}
2019-04-03 22:42:49.01: SIM {TimeUS : 66635002, Roll : -0.56, Pitch : -14.75, Yaw : 139.21, Alt : 594.450012207, Lat : -35.3633206, Lng : 149.1652987, Q1 : 0.346111685038, Q2 : 0.11866530031, Q3 : -0.0492894239724, Q4 : 0.929352343082}
2019-04-03 22:42:49.11: SIM {TimeUS : 66734962, Roll : 0.63, Pitch : -15.0, Yaw : 137.07, Alt : 594.619995117, Lat : -35.3633229, Lng : 149.1653017, Q1 : 0.3620698452, Q2 : 0.123478338122, Q3 : -0.0426848419011, Q4 : 0.922949910164}
2019-04-03 22:42:49.21: SIM {TimeUS : 66834922, Roll : 1.52, Pitch : -15.12, Yaw : 135.24, Alt : 594.780029297, Lat : -35.3633253, Lng : 149.1653049, Q1 : 0.375717639923, Q2 : 0.126701161265, Q3 : -0.0379138365388, Q4 : 0.91724896431}
2019-04-03 22:42:49.31: SIM {TimeUS : 66934882, Roll : 2.09, Pitch : -15.14, Yaw : 133.89, Alt : 594.950012207, Lat : -35.3633277, Lng : 149.1653079, Q1 : 0.385917723179, Q2 : 0.128353491426, Q3 : -0.0349664054811, Q4 : 0.912891149521}
2019-04-03 22:42:49.41: SIM {TimeUS : 67034842, Roll : 2.35, Pitch : -15.11, Yaw : 133.07, Alt : 595.109985352, Lat : -35.3633301, Lng : 149.165311, Q1 : 0.39211589098, Q2 : 0.128695711493, Q3 : -0.0336670354009, Q4 : 0.910246729851}
2019-04-03 22:42:49.52: SIM {TimeUS : 67135635, Roll : 2.33, Pitch : -15.05, Yaw : 132.8, Alt : 595.280029297, Lat : -35.3633327, Lng : 149.1653141, Q1 : 0.394311159849, Q2 : 0.128130242229, Q3 : -0.0339486449957, Q4 : 0.909367322922}
2019-04-03 22:42:49.61: SIM {TimeUS : 67235595, Roll : 2.05, Pitch : -15.03, Yaw : 133.02, Alt : 595.450012207, Lat : -35.3633352, Lng : 149.1653172, Q1 : 0.392921030521, Q2 : 0.127037659287, Q3 : -0.0358367785811, Q4 : 0.91004961729}
2019-04-03 22:42:49.71: SIM {TimeUS : 67335555, Roll : 1.58, Pitch : -15.07, Yaw : 133.61, Alt : 595.609985352, Lat : -35.3633377, Lng : 149.1653203, Q1 : 0.388704448938, Q2 : 0.125945210457, Q3 : -0.0390230827034, Q4 : 0.911879301071}
2019-04-03 22:42:49.81: SIM {TimeUS : 67435515, Roll : 1.03, Pitch : -15.15, Yaw : 134.45, Alt : 595.780029297, Lat : -35.3633404, Lng : 149.1653234, Q1 : 0.382544904947, Q2 : 0.125061675906, Q3 : -0.0427700355649, Q4 : 0.914434075356}
2019-04-03 22:42:49.91: SIM {TimeUS : 67535475, Roll : 0.48, Pitch : -15.23, Yaw : 135.42, Alt : 595.950012207, Lat : -35.3633431, Lng : 149.1653265, Q1 : 0.375409334898, Q2 : 0.124252341688, Q3 : -0.0463595688343, Q4 : 0.917322218418}
2019-04-03 22:42:50.01: SIM {TimeUS : 67635435, Roll : -0.01, Pitch : -15.3, Yaw : 136.38, Alt : 596.119995117, Lat : -35.3633458, Lng : 149.1653296, Q1 : 0.368241101503, Q2 : 0.12353156507, Q3 : -0.0496157482266, Q4 : 0.920150399208}
2019-04-03 22:42:50.11: SIM {TimeUS : 67735395, Roll : -0.43, Pitch : -15.36, Yaw : 137.23, Alt : 596.280029297, Lat : -35.3633485, Lng : 149.1653327, Q1 : 0.361800670624, Q2 : 0.123056098819, Q3 : -0.0522606186569, Q4 : 0.922619283199}
2019-04-03 22:42:50.21: SIM {TimeUS : 67835355, Roll : -0.73, Pitch : -15.37, Yaw : 137.91, Alt : 596.450012207, Lat : -35.3633511, Lng : 149.1653359, Q1 : 0.356670230627, Q2 : 0.12254691124, Q3 : -0.0540065132082, Q4 : 0.924582064152}
2019-04-03 22:42:50.31: SIM {TimeUS : 67935315, Roll : -0.9, Pitch : -15.24, Yaw : 138.36, Alt : 596.619995117, Lat : -35.3633539, Lng : 149.165339, Q1 : 0.353233188391, Q2 : 0.1211733073, Q3 : -0.0544409789145, Q4 : 0.926055908203}
2019-04-03 22:42:50.41: SIM {TimeUS : 68035275, Roll : -0.94, Pitch : -15.01, Yaw : 138.58, Alt : 596.789978027, Lat : -35.3633565, Lng : 149.1653423, Q1 : 0.351557135582, Q2 : 0.11934774369, Q3 : -0.053847219795, Q4 : 0.92696505785}
2019-04-03 22:42:50.51: SIM {TimeUS : 68135235, Roll : -0.88, Pitch : -14.82, Yaw : 138.59, Alt : 596.950012207, Lat : -35.3633593, Lng : 149.1653456, Q1 : 0.351484149694, Q2 : 0.117945797741, Q3 : -0.0527185276151, Q4 : 0.927236974239}
2019-04-03 22:42:50.61: SIM {TimeUS : 68235195, Roll : -0.75, Pitch : -14.69, Yaw : 138.42, Alt : 597.109985352, Lat : -35.363362, Lng : 149.1653488, Q1 : 0.352727383375, Q2 : 0.117261461914, Q3 : -0.0514778234065, Q4 : 0.926921367645}
2019-04-03 22:42:50.71: SIM {TimeUS : 68335155, Roll : -0.58, Pitch : -14.65, Yaw : 138.14, Alt : 597.270019531, Lat : -35.3633648, Lng : 149.1653519, Q1 : 0.354897528887, Q2 : 0.117329113185, Q3 : -0.0502506829798, Q4 : 0.926151454449}
2019-04-03 22:42:50.81: SIM {TimeUS : 68435115, Roll : -0.38, Pitch : -14.66, Yaw : 137.78, Alt : 597.429992676, Lat : -35.3633674, Lng : 149.1653552, Q1 : 0.357582718134, Q2 : 0.117865733802, Q3 : -0.0490491911769, Q4 : 0.92511433363}
2019-04-03 22:42:50.91: SIM {TimeUS : 68535075, Roll : -0.18, Pitch : -14.69, Yaw : 137.4, Alt : 597.590026855, Lat : -35.3633703, Lng : 149.1653585, Q1 : 0.3603977561, Q2 : 0.118551023304, Q3 : -0.0479062832892, Q4 : 0.923993587494}
2019-04-03 22:42:51.01: SIM {TimeUS : 68635035, Roll : 0.0, Pitch : -14.71, Yaw : 137.05, Alt : 597.75, Lat : -35.3633729, Lng : 149.1653618, Q1 : 0.36299726367, Q2 : 0.119212754071, Q3 : -0.0468541420996, Q4 : 0.922944188118}
2019-04-03 22:42:51.11: SIM {TimeUS : 68734995, Roll : 0.15, Pitch : -14.74, Yaw : 136.77, Alt : 597.900024414, Lat : -35.3633758, Lng : 149.1653649, Q1 : 0.365144491196, Q2 : 0.119754567742, Q3 : -0.0460027419031, Q4 : 0.922069489956}
2019-04-03 22:42:51.21: SIM {TimeUS : 68834955, Roll : 0.27, Pitch : -14.74, Yaw : 136.56, Alt : 598.059997559, Lat : -35.3633784, Lng : 149.1653682, Q1 : 0.366664141417, Q2 : 0.120053835213, Q3 : -0.0452781654894, Q4 : 0.921463191509}
2019-04-03 22:42:51.31: SIM {TimeUS : 68934915, Roll : 0.32, Pitch : -14.71, Yaw : 136.45, Alt : 598.210021973, Lat : -35.3633813, Lng : 149.1653715, Q1 : 0.367524087429, Q2 : 0.120000705123, Q3 : -0.0449024625123, Q4 : 0.92114585638}
2019-04-03 22:42:51.41: SIM {TimeUS : 69034875, Roll : 0.3, Pitch : -14.69, Yaw : 136.42, Alt : 598.359985352, Lat : -35.3633839, Lng : 149.1653747, Q1 : 0.367760360241, Q2 : 0.119759514928, Q3 : -0.044999871403, Q4 : 0.921078145504}
2019-04-03 22:42:51.51: SIM {TimeUS : 69134835, Roll : 0.23, Pitch : -14.67, Yaw : 136.47, Alt : 598.510009766, Lat : -35.3633868, Lng : 149.165378, Q1 : 0.3674518466, Q2 : 0.119348943233, Q3 : -0.0454093702137, Q4 : 0.921234488487}
2019-04-03 22:42:51.62: SIM {TimeUS : 69235628, Roll : 0.13, Pitch : -14.66, Yaw : 136.58, Alt : 598.66998291, Lat : -35.3633896, Lng : 149.1653811, Q1 : 0.366716831923, Q2 : 0.118998475373, Q3 : -0.0461041927338, Q4 : 0.921538174152}
2019-04-03 22:42:51.71: SIM {TimeUS : 69335588, Roll : 0.02, Pitch : -14.66, Yaw : 136.72, Alt : 598.820007324, Lat : -35.3633923, Lng : 149.1653844, Q1 : 0.365716993809, Q2 : 0.118691399693, Q3 : -0.0468172989786, Q4 : 0.921939015388}
2019-04-03 22:42:51.81: SIM {TimeUS : 69435548, Roll : -0.07, Pitch : -14.68, Yaw : 136.87, Alt : 598.969970703, Lat : -35.3633951, Lng : 149.1653877, Q1 : 0.364607095718, Q2 : 0.118583805859, Q3 : -0.0476002655923, Q4 : 0.922352313995}
2019-04-03 22:42:51.91: SIM {TimeUS : 69535508, Roll : -0.16, Pitch : -14.7, Yaw : 137.01, Alt : 599.109985352, Lat : -35.3633978, Lng : 149.1653909, Q1 : 0.36354637146, Q2 : 0.118519410491, Q3 : -0.0482456833124, Q4 : 0.922745645046}
2019-04-03 22:42:52.01: SIM {TimeUS : 69635468, Roll : -0.23, Pitch : -14.71, Yaw : 137.13, Alt : 599.260009766, Lat : -35.3634007, Lng : 149.165394, Q1 : 0.362646996975, Q2 : 0.118438959122, Q3 : -0.0486808642745, Q4 : 0.923087000847}
2019-04-03 22:42:52.11: SIM {TimeUS : 69735428, Roll : -0.25, Pitch : -14.7, Yaw : 137.22, Alt : 599.409973145, Lat : -35.3634034, Lng : 149.1653974, Q1 : 0.361974716187, Q2 : 0.118323177099, Q3 : -0.0487463586032, Q4 : 0.923362195492}
2019-04-03 22:42:52.21: SIM {TimeUS : 69835388, Roll : -0.25, Pitch : -14.68, Yaw : 137.27, Alt : 599.559997559, Lat : -35.3634063, Lng : 149.1654006, Q1 : 0.361580133438, Q2 : 0.118211708963, Q3 : -0.0486259572208, Q4 : 0.923537373543}
2019-04-03 22:42:52.31: SIM {TimeUS : 69935348, Roll : -0.24, Pitch : -14.64, Yaw : 137.28, Alt : 599.710021973, Lat : -35.363409, Lng : 149.1654038, Q1 : 0.361478000879, Q2 : 0.117964200675, Q3 : -0.0483846105635, Q4 : 0.923621714115}
2019-04-03 22:42:52.41: SIM {TimeUS : 70035308, Roll : -0.22, Pitch : -14.61, Yaw : 137.26, Alt : 599.849975586, Lat : -35.3634118, Lng : 149.165407, Q1 : 0.361634135246, Q2 : 0.117694690824, Q3 : -0.0481683947146, Q4 : 0.923606276512}
2019-04-03 22:42:52.51: SIM {TimeUS : 70135268, Roll : -0.21, Pitch : -14.58, Yaw : 137.21, Alt : 600.0, Lat : -35.3634146, Lng : 149.1654103, Q1 : 0.361988157034, Q2 : 0.117516152561, Q3 : -0.0480524003506, Q4 : 0.923496365547}
2019-04-03 22:42:52.61: SIM {TimeUS : 70235228, Roll : -0.2, Pitch : -14.57, Yaw : 137.15, Alt : 600.150024414, Lat : -35.3634173, Lng : 149.1654136, Q1 : 0.362464994192, Q2 : 0.117466114461, Q3 : -0.0479741804302, Q4 : 0.923319756985}
2019-04-03 22:42:52.71: SIM {TimeUS : 70335188, Roll : -0.17, Pitch : -14.56, Yaw : 137.09, Alt : 600.299987793, Lat : -35.3634202, Lng : 149.1654168, Q1 : 0.362995535135, Q2 : 0.117444552481, Q3 : -0.0478164367378, Q4 : 0.923122227192}
2019-04-03 22:42:52.81: SIM {TimeUS : 70435148, Roll : -0.15, Pitch : -14.56, Yaw : 137.02, Alt : 600.450012207, Lat : -35.363423, Lng : 149.1654201, Q1 : 0.363531172276, Q2 : 0.117430709302, Q3 : -0.0477081313729, Q4 : 0.922918796539}
2019-04-03 22:42:52.91: SIM {TimeUS : 70535108, Roll : -0.14, Pitch : -14.56, Yaw : 136.96, Alt : 600.599975586, Lat : -35.3634258, Lng : 149.1654232, Q1 : 0.364010512829, Q2 : 0.117502950132, Q3 : -0.0476681925356, Q4 : 0.922722697258}
2019-04-03 22:42:53.01: SIM {TimeUS : 70635068, Roll : -0.12, Pitch : -14.58, Yaw : 136.9, Alt : 600.739990234, Lat : -35.3634285, Lng : 149.1654266, Q1 : 0.364389419556, Q2 : 0.117705054581, Q3 : -0.0476297326386, Q4 : 0.922549366951}
2019-04-03 22:42:53.11: SIM {TimeUS : 70735028, Roll : -0.08, Pitch : -14.6, Yaw : 136.87, Alt : 600.890014648, Lat : -35.3634312, Lng : 149.1654298, Q1 : 0.364635288715, Q2 : 0.117974258959, Q3 : -0.047400392592, Q4 : 0.92242962122}
2019-04-03 22:42:53.21: SIM {TimeUS : 70834988, Roll : -0.04, Pitch : -14.62, Yaw : 136.84, Alt : 601.039978027, Lat : -35.3634341, Lng : 149.1654331, Q1 : 0.364774793386, Q2 : 0.118237346411, Q3 : -0.04717682302, Q4 : 0.922352254391}
2019-04-03 22:42:53.31: SIM {TimeUS : 70934948, Roll : -0.02, Pitch : -14.63, Yaw : 136.84, Alt : 601.190002441, Lat : -35.3634368, Lng : 149.1654362, Q1 : 0.364835292101, Q2 : 0.118309043348, Q3 : -0.0470637083054, Q4 : 0.922324895859}
2019-04-03 22:42:53.41: SIM {TimeUS : 71034908, Roll : -0.04, Pitch : -14.6, Yaw : 136.84, Alt : 601.33001709, Lat : -35.3634397, Lng : 149.1654395, Q1 : 0.364851564169, Q2 : 0.118073828518, Q3 : -0.0471578277647, Q4 : 0.922343790531}
2019-04-03 22:42:53.51: SIM {TimeUS : 71134868, Roll : -0.09, Pitch : -14.58, Yaw : 136.85, Alt : 601.479980469, Lat : -35.3634425, Lng : 149.1654428, Q1 : 0.364809900522, Q2 : 0.117743007839, Q3 : -0.0474186576903, Q4 : 0.92238920927}
2019-04-03 22:42:53.61: SIM {TimeUS : 71234828, Roll : -0.13, Pitch : -14.55, Yaw : 136.87, Alt : 601.630004883, Lat : -35.3634452, Lng : 149.1654461, Q1 : 0.364716947079, Q2 : 0.117420300841, Q3 : -0.0476449690759, Q4 : 0.922455430031}
2019-04-03 22:42:53.72: SIM {TimeUS : 71335621, Roll : -0.15, Pitch : -14.53, Yaw : 136.89, Alt : 601.780029297, Lat : -35.3634481, Lng : 149.1654494, Q1 : 0.364599376917, Q2 : 0.117189995944, Q3 : -0.0477669015527, Q4 : 0.922524869442}
2019-04-03 22:42:53.81: SIM {TimeUS : 71435581, Roll : -0.29, Pitch : -14.17, Yaw : 136.89, Alt : 601.91998291, Lat : -35.3634508, Lng : 149.1654525, Q1 : 0.364829212427, Q2 : 0.113819122314, Q3 : -0.0477173700929, Q4 : 0.922858595848}
2019-04-03 22:42:53.91: SIM {TimeUS : 71535541, Roll : -0.81, Pitch : -13.29, Yaw : 136.83, Alt : 602.059997559, Lat : -35.3634536, Lng : 149.1654558, Q1 : 0.366157233715, Q2 : 0.105025999248, Q3 : -0.0491120368242, Q4 : 0.923301935196}
