2019-04-03 23:53:13.50: SIM {TimeUS : 48315666, Roll : 0.0, Pitch : 0.0, Yaw : 353.0, Alt : 584.090026855, Lat : -35.363261, Lng : 149.1652299, Q1 : 0.998134791851, Q2 : 0.0, Q3 : 0.0, Q4 : -0.0610485821962}
2019-04-03 23:53:13.61: SIM {TimeUS : 48434785, Roll : 0.0, Pitch : 0.0, Yaw : 353.0, Alt : 584.090026855, Lat : -35.363261, Lng : 149.1652299, Q1 : 0.998134791851, Q2 : 0.0, Q3 : 0.0, Q4 : -0.0610485821962}
2019-04-03 23:53:13.71: SIM {TimeUS : 48534745, Roll : 0.0, Pitch : 0.0, Yaw : 353.0, Alt : 584.090026855, Lat : -35.363261, Lng : 149.1652299, Q1 : 0.998134791851, Q2 : 0.0, Q3 : 0.0, Q4 : -0.0610485821962}
2019-04-03 23:53:13.81: SIM {TimeUS : 48634705, Roll : 0.0, Pitch : 0.0, Yaw : 353.0, Alt : 584.090026855, Lat : -35.363261, Lng : 149.1652299, Q1 : 0.998134791851, Q2 : 0.0, Q3 : 0.0, Q4 : -0.0610485821962}
2019-04-03 23:53:13.91: SIM {TimeUS : 48734665, Roll : 0.0, Pitch : 0.0, Yaw : 353.0, Alt : 584.090026855, Lat : -35.363261, Lng : 149.1652299, Q1 : 0.998134791851, Q2 : 0.0, Q3 : 0.0, Q4 : -0.0610485821962}
2019-04-03 23:53:14.01: SIM {TimeUS : 48834625, Roll : 0.0, Pitch : 0.0, Yaw : 353.0, Alt : 584.090026855, Lat : -35.363261, Lng : 149.1652299, Q1 : 0.998134791851, Q2 : 0.0, Q3 : 0.0, Q4 : -0.0610485821962}
2019-04-03 23:53:14.11: SIM {TimeUS : 48934585, Roll : 0.0, Pitch : 0.0, Yaw : 353.0, Alt : 584.090026855, Lat : -35.363261, Lng : 149.1652299, Q1 : 0.998134791851, Q2 : 0.0, Q3 : 0.0, Q4 : -0.0610485821962}
2019-04-03 23:53:14.21: SIM {TimeUS : 49034545, Roll : 0.0, Pitch : 0.0, Yaw : 353.0, Alt : 584.090026855, Lat : -35.363261, Lng : 149.1652299, Q1 : 0.998134791851, Q2 : 0.0, Q3 : 0.0, Q4 : -0.0610485821962}
2019-04-03 23:53:14.31: SIM {TimeUS : 49134505, Roll : 0.0, Pitch : 0.0, Yaw : 353.0, Alt : 584.090026855, Lat : -35.363261, Lng : 149.1652299, Q1 : 0.998134791851, Q2 : 0.0, Q3 : 0.0, Q4 : -0.0610485821962}
2019-04-03 23:53:14.41: SIM {TimeUS : 49234465, Roll : 0.0, Pitch : 0.0, Yaw : 353.0, Alt : 584.090026855, Lat : -35.363261, Lng : 149.1652299, Q1 : 0.998134791851, Q2 : 0.0, Q3 : 0.0, Q4 : -0.0610485821962}
2019-04-03 23:53:14.51: SIM {TimeUS : 49334425, Roll : 0.0, Pitch : 0.0, Yaw : 353.0, Alt : 584.090026855, Lat : -35.363261, Lng : 149.1652299, Q1 : 0.998134791851, Q2 : 0.0, Q3 : 0.0, Q4 : -0.0610485821962}
2019-04-03 23:53:14.61: SIM {TimeUS : 49434385, Roll : 0.0, Pitch : 0.0, Yaw : 353.0, Alt : 584.090026855, Lat : -35.363261, Lng : 149.1652299, Q1 : 0.998134791851, Q2 : 0.0, Q3 : 0.0, Q4 : -0.0610485821962}
2019-04-03 23:53:14.71: SIM {TimeUS : 49534345, Roll : 0.0, Pitch : 0.0, Yaw : 353.0, Alt : 584.090026855, Lat : -35.363261, Lng : 149.1652299, Q1 : 0.998134791851, Q2 : 0.0, Q3 : 0.0, Q4 : -0.0610485821962}
2019-04-03 23:53:14.81: SIM {TimeUS : 49634305, Roll : 0.0, Pitch : 0.0, Yaw : 353.0, Alt : 584.090026855, Lat : -35.363261, Lng : 149.1652299, Q1 : 0.998134791851, Q2 : 0.0, Q3 : 0.0, Q4 : -0.0610485821962}
2019-04-03 23:53:14.91: SIM {TimeUS : 49734265, Roll : 0.0, Pitch : 0.0, Yaw : 353.0, Alt : 584.090026855, Lat : -35.363261, Lng : 149.1652299, Q1 : 0.998134791851, Q2 : 0.0, Q3 : 0.0, Q4 : -0.0610485821962}
2019-04-03 23:53:15.01: SIM {TimeUS : 49834225, Roll : 0.0, Pitch : 0.0, Yaw : 353.0, Alt : 584.090026855, Lat : -35.363261, Lng : 149.1652299, Q1 : 0.998134791851, Q2 : 0.0, Q3 : 0.0, Q4 : -0.0610485821962}
2019-04-03 23:53:15.11: SIM {TimeUS : 49934185, Roll : 0.0, Pitch : 0.0, Yaw : 353.0, Alt : 584.090026855, Lat : -35.363261, Lng : 149.1652299, Q1 : 0.998134791851, Q2 : 0.0, Q3 : 0.0, Q4 : -0.0610485821962}
2019-04-03 23:53:15.21: SIM {TimeUS : 50034145, Roll : 0.0, Pitch : 0.0, Yaw : 353.0, Alt : 584.090026855, Lat : -35.363261, Lng : 149.1652299, Q1 : 0.998134791851, Q2 : 0.0, Q3 : 0.0, Q4 : -0.0610485821962}
2019-04-03 23:53:15.31: SIM {TimeUS : 50134105, Roll : 0.0, Pitch : 0.0, Yaw : 353.0, Alt : 584.090026855, Lat : -35.363261, Lng : 149.1652299, Q1 : 0.998134791851, Q2 : 0.0, Q3 : 0.0, Q4 : -0.0610485821962}
2019-04-03 23:53:15.41: SIM {TimeUS : 50234065, Roll : 0.0, Pitch : 0.0, Yaw : 353.0, Alt : 584.090026855, Lat : -35.363261, Lng : 149.1652299, Q1 : 0.998134791851, Q2 : 0.0, Q3 : 0.0, Q4 : -0.0610485821962}
2019-04-03 23:53:15.51: SIM {TimeUS : 50334025, Roll : 0.0, Pitch : 0.0, Yaw : 353.0, Alt : 584.090026855, Lat : -35.363261, Lng : 149.1652299, Q1 : 0.998134791851, Q2 : 0.0, Q3 : 0.0, Q4 : -0.0610485821962}
2019-04-03 23:53:15.62: SIM {TimeUS : 50434818, Roll : 0.0, Pitch : 0.0, Yaw : 353.0, Alt : 584.090026855, Lat : -35.363261, Lng : 149.1652299, Q1 : 0.998134791851, Q2 : 0.0, Q3 : 0.0, Q4 : -0.0610485821962}
2019-04-03 23:53:15.71: SIM {TimeUS : 50534778, Roll : 0.0, Pitch : 0.0, Yaw : 353.0, Alt : 584.090026855, Lat : -35.363261, Lng : 149.1652299, Q1 : 0.998134791851, Q2 : 0.0, Q3 : 0.0, Q4 : -0.0610485821962}
2019-04-03 23:53:15.81: SIM {TimeUS : 50634738, Roll : 0.0, Pitch : 0.0, Yaw : 353.0, Alt : 584.090026855, Lat : -35.363261, Lng : 149.1652299, Q1 : 0.998134791851, Q2 : 0.0, Q3 : 0.0, Q4 : -0.0610485821962}
2019-04-03 23:53:15.91: SIM {TimeUS : 50734698, Roll : 0.0, Pitch : 0.0, Yaw : 353.0, Alt : 584.090026855, Lat : -35.363261, Lng : 149.1652299, Q1 : 0.998134791851, Q2 : 0.0, Q3 : 0.0, Q4 : -0.0610485821962}
2019-04-03 23:53:16.01: SIM {TimeUS : 50834658, Roll : 0.0, Pitch : 0.0, Yaw : 353.0, Alt : 584.090026855, Lat : -35.363261, Lng : 149.1652299, Q1 : 0.998134791851, Q2 : 0.0, Q3 : 0.0, Q4 : -0.0610485821962}
2019-04-03 23:53:16.11: SIM {TimeUS : 50934618, Roll : 0.0, Pitch : 0.0, Yaw : 353.0, Alt : 584.090026855, Lat : -35.363261, Lng : 149.1652299, Q1 : 0.998134791851, Q2 : 0.0, Q3 : 0.0, Q4 : -0.0610485821962}
2019-04-03 23:53:16.21: SIM {TimeUS : 51034578, Roll : 0.0, Pitch : 0.0, Yaw : 353.0, Alt : 584.090026855, Lat : -35.363261, Lng : 149.1652299, Q1 : 0.998134791851, Q2 : 0.0, Q3 : 0.0, Q4 : -0.0610485821962}
2019-04-03 23:53:16.31: SIM {TimeUS : 51134538, Roll : 0.0, Pitch : 0.0, Yaw : 353.0, Alt : 584.090026855, Lat : -35.363261, Lng : 149.1652299, Q1 : 0.998134791851, Q2 : 0.0, Q3 : 0.0, Q4 : -0.0610485821962}
2019-04-03 23:53:16.41: SIM {TimeUS : 51234498, Roll : 0.0, Pitch : 0.0, Yaw : 353.0, Alt : 584.090026855, Lat : -35.363261, Lng : 149.1652299, Q1 : 0.998134791851, Q2 : 0.0, Q3 : 0.0, Q4 : -0.0610485821962}
2019-04-03 23:53:16.51: SIM {TimeUS : 51334458, Roll : 0.0, Pitch : 0.0, Yaw : 353.0, Alt : 584.090026855, Lat : -35.363261, Lng : 149.1652299, Q1 : 0.998134791851, Q2 : 0.0, Q3 : 0.0, Q4 : -0.0610485821962}
2019-04-03 23:53:16.61: SIM {TimeUS : 51434418, Roll : 0.0, Pitch : 0.0, Yaw : 353.0, Alt : 584.090026855, Lat : -35.363261, Lng : 149.1652299, Q1 : 0.998134791851, Q2 : 0.0, Q3 : 0.0, Q4 : -0.0610485821962}
2019-04-03 23:53:16.71: SIM {TimeUS : 51534378, Roll : 0.0, Pitch : 0.0, Yaw : 353.0, Alt : 584.090026855, Lat : -35.363261, Lng : 149.1652299, Q1 : 0.998134791851, Q2 : 0.0, Q3 : 0.0, Q4 : -0.0610485821962}
2019-04-03 23:53:16.81: SIM {TimeUS : 51634338, Roll : 0.0, Pitch : 0.0, Yaw : 353.0, Alt : 584.090026855, Lat : -35.363261, Lng : 149.1652299, Q1 : 0.998134791851, Q2 : 0.0, Q3 : 0.0, Q4 : -0.0610485821962}
2019-04-03 23:53:16.91: SIM {TimeUS : 51734298, Roll : 0.0, Pitch : 0.0, Yaw : 353.0, Alt : 584.090026855, Lat : -35.363261, Lng : 149.1652299, Q1 : 0.998134791851, Q2 : 0.0, Q3 : 0.0, Q4 : -0.0610485821962}
2019-04-03 23:53:17.01: SIM {TimeUS : 51834258, Roll : 0.0, Pitch : 0.0, Yaw : 353.0, Alt : 584.090026855, Lat : -35.363261, Lng : 149.1652299, Q1 : 0.998134791851, Q2 : 0.0, Q3 : 0.0, Q4 : -0.0610485821962}
2019-04-03 23:53:17.11: SIM {TimeUS : 51934218, Roll : 0.0, Pitch : 0.0, Yaw : 353.0, Alt : 584.090026855, Lat : -35.363261, Lng : 149.1652299, Q1 : 0.998134791851, Q2 : 0.0, Q3 : 0.0, Q4 : -0.0610485821962}
2019-04-03 23:53:17.21: SIM {TimeUS : 52034178, Roll : 0.0, Pitch : 0.0, Yaw : 353.0, Alt : 584.090026855, Lat : -35.363261, Lng : 149.1652299, Q1 : 0.998134791851, Q2 : 0.0, Q3 : 0.0, Q4 : -0.0610485821962}
2019-04-03 23:53:17.31: SIM {TimeUS : 52134138, Roll : 0.0, Pitch : 0.0, Yaw : 353.0, Alt : 584.090026855, Lat : -35.363261, Lng : 149.1652299, Q1 : 0.998134791851, Q2 : 0.0, Q3 : 0.0, Q4 : -0.0610485821962}
2019-04-03 23:53:17.41: SIM {TimeUS : 52234098, Roll : 0.0, Pitch : 0.0, Yaw : 353.0, Alt : 584.090026855, Lat : -35.363261, Lng : 149.1652299, Q1 : 0.998134791851, Q2 : 0.0, Q3 : 0.0, Q4 : -0.0610485821962}
2019-04-03 23:53:17.51: SIM {TimeUS : 52334058, Roll : 0.0, Pitch : 0.0, Yaw : 353.0, Alt : 584.090026855, Lat : -35.363261, Lng : 149.1652299, Q1 : 0.998134791851, Q2 : 0.0, Q3 : 0.0, Q4 : -0.0610485821962}
2019-04-03 23:53:17.61: SIM {TimeUS : 52434018, Roll : 0.0, Pitch : 0.0, Yaw : 353.0, Alt : 584.090026855, Lat : -35.363261, Lng : 149.1652299, Q1 : 0.998134791851, Q2 : 0.0, Q3 : 0.0, Q4 : -0.0610485821962}
2019-04-03 23:53:17.72: SIM {TimeUS : 52534811, Roll : 0.0, Pitch : 0.0, Yaw : 353.0, Alt : 584.090026855, Lat : -35.363261, Lng : 149.1652299, Q1 : 0.998134791851, Q2 : 0.0, Q3 : 0.0, Q4 : -0.0610485821962}
2019-04-03 23:53:17.81: SIM {TimeUS : 52634771, Roll : 0.0, Pitch : 0.0, Yaw : 353.0, Alt : 584.090026855, Lat : -35.363261, Lng : 149.1652299, Q1 : 0.998134791851, Q2 : 0.0, Q3 : 0.0, Q4 : -0.0610485821962}
2019-04-03 23:53:17.91: SIM {TimeUS : 52734731, Roll : 0.0, Pitch : 0.0, Yaw : 353.0, Alt : 584.090026855, Lat : -35.363261, Lng : 149.1652299, Q1 : 0.998134791851, Q2 : 0.0, Q3 : 0.0, Q4 : -0.0610485821962}
2019-04-03 23:53:18.01: SIM {TimeUS : 52834691, Roll : 0.0, Pitch : 0.0, Yaw : 353.0, Alt : 584.090026855, Lat : -35.363261, Lng : 149.1652299, Q1 : 0.998134791851, Q2 : 0.0, Q3 : 0.0, Q4 : -0.0610485821962}
2019-04-03 23:53:18.11: SIM {TimeUS : 52934651, Roll : 0.0, Pitch : 0.0, Yaw : 353.0, Alt : 584.090026855, Lat : -35.363261, Lng : 149.1652299, Q1 : 0.998134791851, Q2 : 0.0, Q3 : 0.0, Q4 : -0.0610485821962}
2019-04-03 23:53:18.21: SIM {TimeUS : 53034611, Roll : 0.0, Pitch : 0.0, Yaw : 353.0, Alt : 584.090026855, Lat : -35.363261, Lng : 149.1652299, Q1 : 0.998134791851, Q2 : 0.0, Q3 : 0.0, Q4 : -0.0610485821962}
2019-04-03 23:53:18.31: SIM {TimeUS : 53134571, Roll : 0.0, Pitch : 0.0, Yaw : 353.0, Alt : 584.090026855, Lat : -35.363261, Lng : 149.1652299, Q1 : 0.998134791851, Q2 : 0.0, Q3 : 0.0, Q4 : -0.0610485821962}
2019-04-03 23:53:18.41: SIM {TimeUS : 53234531, Roll : 0.0, Pitch : 0.0, Yaw : 353.0, Alt : 584.090026855, Lat : -35.363261, Lng : 149.1652299, Q1 : 0.998134791851, Q2 : 0.0, Q3 : 0.0, Q4 : -0.0610485821962}
2019-04-03 23:53:18.51: SIM {TimeUS : 53334491, Roll : 0.0, Pitch : 0.0, Yaw : 353.0, Alt : 584.090026855, Lat : -35.363261, Lng : 149.1652299, Q1 : 0.998134791851, Q2 : 0.0, Q3 : 0.0, Q4 : -0.0610485821962}
2019-04-03 23:53:18.61: SIM {TimeUS : 53434451, Roll : 0.0, Pitch : 0.0, Yaw : 353.0, Alt : 584.090026855, Lat : -35.363261, Lng : 149.1652299, Q1 : 0.998134791851, Q2 : 0.0, Q3 : 0.0, Q4 : -0.0610485821962}
2019-04-03 23:53:18.71: SIM {TimeUS : 53534411, Roll : 0.0, Pitch : 0.0, Yaw : 353.0, Alt : 584.090026855, Lat : -35.363261, Lng : 149.1652299, Q1 : 0.998134791851, Q2 : 0.0, Q3 : 0.0, Q4 : -0.0610485821962}
2019-04-03 23:53:18.81: SIM {TimeUS : 53634371, Roll : 0.0, Pitch : 0.0, Yaw : 353.0, Alt : 584.090026855, Lat : -35.363261, Lng : 149.1652299, Q1 : 0.998134791851, Q2 : 0.0, Q3 : 0.0, Q4 : -0.0610485821962}
2019-04-03 23:53:18.91: SIM {TimeUS : 53734331, Roll : 0.0, Pitch : 0.0, Yaw : 353.0, Alt : 584.090026855, Lat : -35.363261, Lng : 149.1652299, Q1 : 0.998134791851, Q2 : 0.0, Q3 : 0.0, Q4 : -0.0610485821962}
2019-04-03 23:53:19.01: SIM {TimeUS : 53834291, Roll : 0.0, Pitch : 0.0, Yaw : 353.0, Alt : 584.090026855, Lat : -35.363261, Lng : 149.1652299, Q1 : 0.998134791851, Q2 : 0.0, Q3 : 0.0, Q4 : -0.0610485821962}
2019-04-03 23:53:19.11: SIM {TimeUS : 53934251, Roll : 0.0, Pitch : 0.0, Yaw : 353.0, Alt : 584.090026855, Lat : -35.363261, Lng : 149.1652299, Q1 : 0.998134791851, Q2 : 0.0, Q3 : 0.0, Q4 : -0.0610485821962}
2019-04-03 23:53:19.21: SIM {TimeUS : 54034211, Roll : 0.0, Pitch : 0.0, Yaw : 353.0, Alt : 584.090026855, Lat : -35.363261, Lng : 149.1652299, Q1 : 0.998134791851, Q2 : 0.0, Q3 : 0.0, Q4 : -0.0610485821962}
2019-04-03 23:53:19.31: SIM {TimeUS : 54134171, Roll : 0.0, Pitch : 0.0, Yaw : 353.0, Alt : 584.090026855, Lat : -35.363261, Lng : 149.1652299, Q1 : 0.998134791851, Q2 : 0.0, Q3 : 0.0, Q4 : -0.0610485821962}
2019-04-03 23:53:19.41: SIM {TimeUS : 54234131, Roll : 0.0, Pitch : 0.0, Yaw : 353.0, Alt : 584.090026855, Lat : -35.363261, Lng : 149.1652299, Q1 : 0.998134791851, Q2 : 0.0, Q3 : 0.0, Q4 : -0.0610485821962}
2019-04-03 23:53:19.51: SIM {TimeUS : 54334091, Roll : 0.0, Pitch : 0.0, Yaw : 353.0, Alt : 584.090026855, Lat : -35.363261, Lng : 149.1652299, Q1 : 0.998134791851, Q2 : 0.0, Q3 : 0.0, Q4 : -0.0610485821962}
2019-04-03 23:53:19.61: SIM {TimeUS : 54434051, Roll : 0.0, Pitch : 0.0, Yaw : 353.0, Alt : 584.090026855, Lat : -35.363261, Lng : 149.1652299, Q1 : 0.998134791851, Q2 : 0.0, Q3 : 0.0, Q4 : -0.0610485821962}
2019-04-03 23:53:19.71: SIM {TimeUS : 54534011, Roll : 0.0, Pitch : 0.0, Yaw : 353.0, Alt : 584.090026855, Lat : -35.363261, Lng : 149.1652299, Q1 : 0.998134791851, Q2 : 0.0, Q3 : 0.0, Q4 : -0.0610485821962}
2019-04-03 23:53:19.82: SIM {TimeUS : 54634804, Roll : 0.0, Pitch : 0.0, Yaw : 353.0, Alt : 584.090026855, Lat : -35.363261, Lng : 149.1652299, Q1 : 0.998134791851, Q2 : 0.0, Q3 : 0.0, Q4 : -0.0610485821962}
2019-04-03 23:53:19.91: SIM {TimeUS : 54734764, Roll : 0.0, Pitch : 0.0, Yaw : 353.0, Alt : 584.090026855, Lat : -35.363261, Lng : 149.1652299, Q1 : 0.998134791851, Q2 : 0.0, Q3 : 0.0, Q4 : -0.0610485821962}
2019-04-03 23:53:20.01: SIM {TimeUS : 54834724, Roll : 0.0, Pitch : 0.0, Yaw : 353.0, Alt : 584.090026855, Lat : -35.363261, Lng : 149.1652299, Q1 : 0.998134791851, Q2 : 0.0, Q3 : 0.0, Q4 : -0.0610485821962}
2019-04-03 23:53:20.11: SIM {TimeUS : 54934684, Roll : 0.0, Pitch : 0.0, Yaw : 353.0, Alt : 584.090026855, Lat : -35.363261, Lng : 149.1652299, Q1 : 0.998134791851, Q2 : 0.0, Q3 : 0.0, Q4 : -0.0610485821962}
2019-04-03 23:53:20.21: SIM {TimeUS : 55034644, Roll : 0.0, Pitch : 0.0, Yaw : 353.0, Alt : 584.090026855, Lat : -35.363261, Lng : 149.1652299, Q1 : 0.998134791851, Q2 : 0.0, Q3 : 0.0, Q4 : -0.0610485821962}
2019-04-03 23:53:20.31: SIM {TimeUS : 55134604, Roll : 0.0, Pitch : 0.0, Yaw : 353.0, Alt : 584.090026855, Lat : -35.363261, Lng : 149.1652299, Q1 : 0.998134791851, Q2 : 0.0, Q3 : 0.0, Q4 : -0.0610485821962}
2019-04-03 23:53:20.41: SIM {TimeUS : 55234564, Roll : 0.0, Pitch : 0.0, Yaw : 353.0, Alt : 584.090026855, Lat : -35.363261, Lng : 149.1652299, Q1 : 0.998134791851, Q2 : 0.0, Q3 : 0.0, Q4 : -0.0610485821962}
2019-04-03 23:53:20.51: SIM {TimeUS : 55334524, Roll : 0.0, Pitch : 0.0, Yaw : 353.0, Alt : 584.090026855, Lat : -35.363261, Lng : 149.1652299, Q1 : 0.998134791851, Q2 : 0.0, Q3 : 0.0, Q4 : -0.0610485821962}
2019-04-03 23:53:20.61: SIM {TimeUS : 55434484, Roll : 0.0, Pitch : 0.0, Yaw : 353.0, Alt : 584.090026855, Lat : -35.363261, Lng : 149.1652299, Q1 : 0.998134791851, Q2 : 0.0, Q3 : 0.0, Q4 : -0.0610485821962}
2019-04-03 23:53:20.71: SIM {TimeUS : 55534444, Roll : 0.0, Pitch : 0.0, Yaw : 353.0, Alt : 584.090026855, Lat : -35.363261, Lng : 149.1652299, Q1 : 0.998134791851, Q2 : 0.0, Q3 : 0.0, Q4 : -0.0610485821962}
2019-04-03 23:53:20.81: SIM {TimeUS : 55634404, Roll : 0.0, Pitch : 0.0, Yaw : 353.0, Alt : 584.090026855, Lat : -35.363261, Lng : 149.1652299, Q1 : 0.998134791851, Q2 : 0.0, Q3 : 0.0, Q4 : -0.0610485821962}
2019-04-03 23:53:20.91: SIM {TimeUS : 55734364, Roll : 0.0, Pitch : 0.0, Yaw : 353.0, Alt : 584.090026855, Lat : -35.363261, Lng : 149.1652299, Q1 : 0.998134791851, Q2 : 0.0, Q3 : 0.0, Q4 : -0.0610485821962}
2019-04-03 23:53:21.01: SIM {TimeUS : 55834324, Roll : 0.0, Pitch : 0.0, Yaw : 353.0, Alt : 584.090026855, Lat : -35.363261, Lng : 149.1652299, Q1 : 0.998134791851, Q2 : 0.0, Q3 : 0.0, Q4 : -0.0610485821962}
2019-04-03 23:53:21.11: SIM {TimeUS : 55934284, Roll : 0.0, Pitch : 0.0, Yaw : 353.0, Alt : 584.090026855, Lat : -35.363261, Lng : 149.1652299, Q1 : 0.998134791851, Q2 : 0.0, Q3 : 0.0, Q4 : -0.0610485821962}
2019-04-03 23:53:21.21: SIM {TimeUS : 56034244, Roll : 0.0, Pitch : 0.0, Yaw : 353.0, Alt : 584.090026855, Lat : -35.363261, Lng : 149.1652299, Q1 : 0.998134791851, Q2 : 0.0, Q3 : 0.0, Q4 : -0.0610485821962}
2019-04-03 23:53:21.31: SIM {TimeUS : 56134204, Roll : 0.0, Pitch : 0.0, Yaw : 353.0, Alt : 584.090026855, Lat : -35.363261, Lng : 149.1652299, Q1 : 0.998134791851, Q2 : 0.0, Q3 : 0.0, Q4 : -0.0610485821962}
2019-04-03 23:53:21.41: SIM {TimeUS : 56234164, Roll : 0.0, Pitch : 0.0, Yaw : 353.0, Alt : 584.090026855, Lat : -35.363261, Lng : 149.1652299, Q1 : 0.998134791851, Q2 : 0.0, Q3 : 0.0, Q4 : -0.0610485821962}
2019-04-03 23:53:21.51: SIM {TimeUS : 56334124, Roll : 0.0, Pitch : 0.0, Yaw : 353.0, Alt : 584.090026855, Lat : -35.363261, Lng : 149.1652299, Q1 : 0.998134791851, Q2 : 0.0, Q3 : 0.0, Q4 : -0.0610485821962}
2019-04-03 23:53:21.61: SIM {TimeUS : 56434084, Roll : 0.0, Pitch : 0.0, Yaw : 353.0, Alt : 584.090026855, Lat : -35.363261, Lng : 149.1652299, Q1 : 0.998134791851, Q2 : 0.0, Q3 : 0.0, Q4 : -0.0610485821962}
2019-04-03 23:53:21.71: SIM {TimeUS : 56534044, Roll : 0.0, Pitch : 0.0, Yaw : 353.0, Alt : 584.090026855, Lat : -35.363261, Lng : 149.1652299, Q1 : 0.998134791851, Q2 : 0.0, Q3 : 0.0, Q4 : -0.0610485821962}
2019-04-03 23:53:21.81: SIM {TimeUS : 56634004, Roll : 0.0, Pitch : 0.0, Yaw : 353.0, Alt : 584.090026855, Lat : -35.363261, Lng : 149.1652299, Q1 : 0.998134791851, Q2 : 0.0, Q3 : 0.0, Q4 : -0.0610485821962}
2019-04-03 23:53:21.92: SIM {TimeUS : 56734797, Roll : 0.0, Pitch : 0.0, Yaw : 353.0, Alt : 584.090026855, Lat : -35.363261, Lng : 149.1652299, Q1 : 0.998134791851, Q2 : 0.0, Q3 : 0.0, Q4 : -0.0610485821962}
2019-04-03 23:53:22.01: SIM {TimeUS : 56834757, Roll : 0.0, Pitch : 0.0, Yaw : 353.0, Alt : 584.090026855, Lat : -35.363261, Lng : 149.1652299, Q1 : 0.998134791851, Q2 : 0.0, Q3 : 0.0, Q4 : -0.0610485821962}
2019-04-03 23:53:22.11: SIM {TimeUS : 56934717, Roll : 0.0, Pitch : 0.0, Yaw : 353.0, Alt : 584.090026855, Lat : -35.363261, Lng : 149.1652299, Q1 : 0.998134791851, Q2 : 0.0, Q3 : 0.0, Q4 : -0.0610485821962}
2019-04-03 23:53:22.21: SIM {TimeUS : 57034677, Roll : 0.0, Pitch : 0.0, Yaw : 353.0, Alt : 584.090026855, Lat : -35.363261, Lng : 149.1652299, Q1 : 0.998134791851, Q2 : 0.0, Q3 : 0.0, Q4 : -0.0610485821962}
2019-04-03 23:53:22.31: SIM {TimeUS : 57134637, Roll : 0.0, Pitch : 0.0, Yaw : 353.0, Alt : 584.090026855, Lat : -35.363261, Lng : 149.1652299, Q1 : 0.998134791851, Q2 : 0.0, Q3 : 0.0, Q4 : -0.0610485821962}
2019-04-03 23:53:22.41: SIM {TimeUS : 57234597, Roll : 0.0, Pitch : 0.0, Yaw : 353.0, Alt : 584.090026855, Lat : -35.363261, Lng : 149.1652299, Q1 : 0.998134791851, Q2 : 0.0, Q3 : 0.0, Q4 : -0.0610485821962}
2019-04-03 23:53:22.51: SIM {TimeUS : 57334557, Roll : 0.0, Pitch : 0.0, Yaw : 353.0, Alt : 584.090026855, Lat : -35.363261, Lng : 149.1652299, Q1 : 0.998134791851, Q2 : 0.0, Q3 : 0.0, Q4 : -0.0610485821962}
2019-04-03 23:53:22.61: SIM {TimeUS : 57434517, Roll : 0.0, Pitch : 0.0, Yaw : 353.0, Alt : 584.090026855, Lat : -35.363261, Lng : 149.1652299, Q1 : 0.998134791851, Q2 : 0.0, Q3 : 0.0, Q4 : -0.0610485821962}
2019-04-03 23:53:22.71: SIM {TimeUS : 57534477, Roll : 0.0, Pitch : 0.0, Yaw : 353.0, Alt : 584.090026855, Lat : -35.363261, Lng : 149.1652299, Q1 : 0.998134791851, Q2 : 0.0, Q3 : 0.0, Q4 : -0.0610485821962}
2019-04-03 23:53:22.81: SIM {TimeUS : 57634437, Roll : 0.0, Pitch : 0.0, Yaw : 353.0, Alt : 584.090026855, Lat : -35.363261, Lng : 149.1652299, Q1 : 0.998134791851, Q2 : 0.0, Q3 : 0.0, Q4 : -0.0610485821962}
2019-04-03 23:53:22.91: SIM {TimeUS : 57734397, Roll : 0.0, Pitch : 0.0, Yaw : 353.0, Alt : 584.090026855, Lat : -35.363261, Lng : 149.1652299, Q1 : 0.998134791851, Q2 : 0.0, Q3 : 0.0, Q4 : -0.0610485821962}
2019-04-03 23:53:23.01: SIM {TimeUS : 57834357, Roll : 0.0, Pitch : 0.0, Yaw : 353.0, Alt : 584.090026855, Lat : -35.363261, Lng : 149.1652299, Q1 : 0.998134791851, Q2 : 0.0, Q3 : 0.0, Q4 : -0.0610485821962}
2019-04-03 23:53:23.11: SIM {TimeUS : 57934317, Roll : 0.0, Pitch : 0.0, Yaw : 353.0, Alt : 584.090026855, Lat : -35.363261, Lng : 149.1652299, Q1 : 0.998134791851, Q2 : 0.0, Q3 : 0.0, Q4 : -0.0610485821962}
2019-04-03 23:53:23.21: SIM {TimeUS : 58034277, Roll : 0.0, Pitch : 0.0, Yaw : 353.0, Alt : 584.090026855, Lat : -35.363261, Lng : 149.1652299, Q1 : 0.998134791851, Q2 : 0.0, Q3 : 0.0, Q4 : -0.0610485821962}
2019-04-03 23:53:23.31: SIM {TimeUS : 58134237, Roll : 0.0, Pitch : 0.0, Yaw : 353.0, Alt : 584.090026855, Lat : -35.363261, Lng : 149.1652299, Q1 : 0.998134791851, Q2 : 0.0, Q3 : 0.0, Q4 : -0.0610485821962}
2019-04-03 23:53:24.81: SIM {TimeUS : 59634470, Roll : 0.0, Pitch : 0.0, Yaw : 353.0, Alt : 584.090026855, Lat : -35.363261, Lng : 149.1652299, Q1 : 0.998134791851, Q2 : 0.0, Q3 : 0.0, Q4 : -0.0610485821962}
2019-04-03 23:53:24.91: SIM {TimeUS : 59734430, Roll : 0.0, Pitch : 0.0, Yaw : 353.0, Alt : 584.090026855, Lat : -35.363261, Lng : 149.1652299, Q1 : 0.998134791851, Q2 : 0.0, Q3 : 0.0, Q4 : -0.0610485821962}
2019-04-03 23:53:25.01: SIM {TimeUS : 59834390, Roll : 0.0, Pitch : 0.0, Yaw : 353.0, Alt : 584.090026855, Lat : -35.363261, Lng : 149.1652299, Q1 : 0.998134791851, Q2 : 0.0, Q3 : 0.0, Q4 : -0.0610485821962}
2019-04-03 23:53:25.11: SIM {TimeUS : 59934350, Roll : 0.0, Pitch : 0.0, Yaw : 353.0, Alt : 584.090026855, Lat : -35.363261, Lng : 149.1652299, Q1 : 0.998134791851, Q2 : 0.0, Q3 : 0.0, Q4 : -0.0610485821962}
2019-04-03 23:53:25.21: SIM {TimeUS : 60034310, Roll : 0.0, Pitch : 0.0, Yaw : 353.0, Alt : 584.090026855, Lat : -35.363261, Lng : 149.1652299, Q1 : 0.998134791851, Q2 : 0.0, Q3 : 0.0, Q4 : -0.0610485821962}
2019-04-03 23:53:25.31: SIM {TimeUS : 60134270, Roll : 0.0, Pitch : 0.0, Yaw : 353.0, Alt : 584.090026855, Lat : -35.363261, Lng : 149.1652299, Q1 : 0.998134791851, Q2 : 0.0, Q3 : 0.0, Q4 : -0.0610485821962}
2019-04-03 23:53:25.41: SIM {TimeUS : 60234230, Roll : 0.0, Pitch : 0.0, Yaw : 353.0, Alt : 584.090026855, Lat : -35.363261, Lng : 149.1652299, Q1 : 0.998134791851, Q2 : 0.0, Q3 : 0.0, Q4 : -0.0610485821962}
2019-04-03 23:53:25.51: SIM {TimeUS : 60334190, Roll : 0.0, Pitch : 0.0, Yaw : 353.0, Alt : 584.090026855, Lat : -35.363261, Lng : 149.1652299, Q1 : 0.998134791851, Q2 : 0.0, Q3 : 0.0, Q4 : -0.0610485821962}
2019-04-03 23:53:25.61: SIM {TimeUS : 60434150, Roll : 0.0, Pitch : 0.0, Yaw : 353.0, Alt : 584.090026855, Lat : -35.363261, Lng : 149.1652299, Q1 : 0.998134791851, Q2 : 0.0, Q3 : 0.0, Q4 : -0.0610485821962}
2019-04-03 23:53:25.71: SIM {TimeUS : 60534110, Roll : 0.0, Pitch : 0.0, Yaw : 353.0, Alt : 584.090026855, Lat : -35.363261, Lng : 149.1652299, Q1 : 0.998134791851, Q2 : 0.0, Q3 : 0.0, Q4 : -0.0610485821962}
2019-04-03 23:53:25.81: SIM {TimeUS : 60634070, Roll : 0.0, Pitch : 0.0, Yaw : 353.0, Alt : 584.090026855, Lat : -35.363261, Lng : 149.1652299, Q1 : 0.998134791851, Q2 : 0.0, Q3 : 0.0, Q4 : -0.0610485821962}
2019-04-03 23:53:25.91: SIM {TimeUS : 60734030, Roll : 0.0, Pitch : 0.0, Yaw : 353.0, Alt : 584.090026855, Lat : -35.363261, Lng : 149.1652299, Q1 : 0.998134791851, Q2 : 0.0, Q3 : 0.0, Q4 : -0.0610485821962}
2019-04-03 23:53:26.02: SIM {TimeUS : 60834823, Roll : 0.0, Pitch : 0.0, Yaw : 353.0, Alt : 584.090026855, Lat : -35.363261, Lng : 149.1652299, Q1 : 0.998134791851, Q2 : 0.0, Q3 : 0.0, Q4 : -0.0610485821962}
2019-04-03 23:53:26.11: SIM {TimeUS : 60934783, Roll : 0.0, Pitch : 0.0, Yaw : 353.0, Alt : 584.090026855, Lat : -35.363261, Lng : 149.1652299, Q1 : 0.998134791851, Q2 : 0.0, Q3 : 0.0, Q4 : -0.0610485821962}
2019-04-03 23:53:26.21: SIM {TimeUS : 61034743, Roll : 0.0, Pitch : 0.0, Yaw : 353.0, Alt : 584.090026855, Lat : -35.363261, Lng : 149.1652299, Q1 : 0.998134791851, Q2 : 0.0, Q3 : 0.0, Q4 : -0.0610485821962}
2019-04-03 23:53:26.31: SIM {TimeUS : 61134703, Roll : 0.0, Pitch : 0.0, Yaw : 353.0, Alt : 584.090026855, Lat : -35.363261, Lng : 149.1652299, Q1 : 0.998134791851, Q2 : 0.0, Q3 : 0.0, Q4 : -0.0610485821962}
2019-04-03 23:53:26.41: SIM {TimeUS : 61234663, Roll : 0.0, Pitch : 0.0, Yaw : 353.0, Alt : 584.090026855, Lat : -35.363261, Lng : 149.1652299, Q1 : 0.998134791851, Q2 : 0.0, Q3 : 0.0, Q4 : -0.0610485821962}
2019-04-03 23:53:26.51: SIM {TimeUS : 61334623, Roll : 0.0, Pitch : 0.0, Yaw : 353.0, Alt : 584.090026855, Lat : -35.363261, Lng : 149.1652299, Q1 : 0.998134791851, Q2 : 0.0, Q3 : 0.0, Q4 : -0.0610485821962}
2019-04-03 23:53:26.61: SIM {TimeUS : 61434583, Roll : 0.0, Pitch : 0.0, Yaw : 353.0, Alt : 584.090026855, Lat : -35.363261, Lng : 149.1652299, Q1 : 0.998134791851, Q2 : 0.0, Q3 : 0.0, Q4 : -0.0610485821962}
2019-04-03 23:53:26.71: SIM {TimeUS : 61534543, Roll : 0.0, Pitch : 0.0, Yaw : 353.0, Alt : 584.090026855, Lat : -35.363261, Lng : 149.1652299, Q1 : 0.998134791851, Q2 : 0.0, Q3 : 0.0, Q4 : -0.0610485821962}
2019-04-03 23:53:26.81: SIM {TimeUS : 61634503, Roll : 0.0, Pitch : 0.0, Yaw : 353.0, Alt : 584.090026855, Lat : -35.363261, Lng : 149.1652299, Q1 : 0.998134791851, Q2 : 0.0, Q3 : 0.0, Q4 : -0.0610485821962}
2019-04-03 23:53:26.91: SIM {TimeUS : 61734463, Roll : 0.0, Pitch : 0.0, Yaw : 353.0, Alt : 584.090026855, Lat : -35.363261, Lng : 149.1652299, Q1 : 0.998134791851, Q2 : 0.0, Q3 : 0.0, Q4 : -0.0610485821962}
2019-04-03 23:53:27.01: SIM {TimeUS : 61834423, Roll : 0.0, Pitch : 0.0, Yaw : 353.0, Alt : 584.090026855, Lat : -35.363261, Lng : 149.1652299, Q1 : 0.998134791851, Q2 : 0.0, Q3 : 0.0, Q4 : -0.0610485821962}
2019-04-03 23:53:27.11: SIM {TimeUS : 61934383, Roll : 0.0, Pitch : 0.0, Yaw : 353.0, Alt : 584.090026855, Lat : -35.363261, Lng : 149.1652299, Q1 : 0.998134791851, Q2 : 0.0, Q3 : 0.0, Q4 : -0.0610485821962}
2019-04-03 23:53:27.21: SIM {TimeUS : 62034343, Roll : 0.0, Pitch : 0.0, Yaw : 353.0, Alt : 584.090026855, Lat : -35.363261, Lng : 149.1652299, Q1 : 0.998134791851, Q2 : 0.0, Q3 : 0.0, Q4 : -0.0610485821962}
2019-04-03 23:53:27.31: SIM {TimeUS : 62134303, Roll : 0.0, Pitch : 0.0, Yaw : 353.0, Alt : 584.090026855, Lat : -35.363261, Lng : 149.1652299, Q1 : 0.998134791851, Q2 : 0.0, Q3 : 0.0, Q4 : -0.0610485821962}
2019-04-03 23:53:27.41: SIM {TimeUS : 62234263, Roll : 0.0, Pitch : 0.0, Yaw : 353.0, Alt : 584.090026855, Lat : -35.363261, Lng : 149.1652299, Q1 : 0.998134791851, Q2 : 0.0, Q3 : 0.0, Q4 : -0.0610486157238}
2019-04-03 23:53:27.51: SIM {TimeUS : 62334223, Roll : 0.0, Pitch : 0.0, Yaw : 353.0, Alt : 584.090026855, Lat : -35.363261, Lng : 149.1652299, Q1 : 0.998134791851, Q2 : 0.0, Q3 : 0.0, Q4 : -0.0610486753285}
2019-04-03 23:53:27.61: SIM {TimeUS : 62434183, Roll : 0.0, Pitch : 0.0, Yaw : 353.0, Alt : 584.090026855, Lat : -35.363261, Lng : 149.1652299, Q1 : 0.998134791851, Q2 : 0.0, Q3 : 0.0, Q4 : -0.0610486753285}
2019-04-03 23:53:27.71: SIM {TimeUS : 62534143, Roll : 0.0, Pitch : 0.0, Yaw : 353.0, Alt : 584.090026855, Lat : -35.363261, Lng : 149.1652299, Q1 : 0.998134791851, Q2 : 0.0, Q3 : 0.0, Q4 : -0.0610486753285}
2019-04-03 23:53:27.81: SIM {TimeUS : 62634103, Roll : 0.0, Pitch : 0.0, Yaw : 353.0, Alt : 584.090026855, Lat : -35.363261, Lng : 149.1652299, Q1 : 0.998134791851, Q2 : 0.0, Q3 : 0.0, Q4 : -0.0610486753285}
2019-04-03 23:53:27.91: SIM {TimeUS : 62734063, Roll : 0.0, Pitch : 0.0, Yaw : 353.0, Alt : 584.090026855, Lat : -35.363261, Lng : 149.1652299, Q1 : 0.998134791851, Q2 : 0.0, Q3 : 0.0, Q4 : -0.0610486753285}
2019-04-03 23:53:28.01: SIM {TimeUS : 62834023, Roll : 0.0, Pitch : 0.0, Yaw : 353.0, Alt : 584.090026855, Lat : -35.363261, Lng : 149.1652299, Q1 : 0.998134791851, Q2 : 0.0, Q3 : 0.0, Q4 : -0.0610486753285}
2019-04-03 23:53:28.12: SIM {TimeUS : 62934816, Roll : 0.0, Pitch : 0.0, Yaw : 353.0, Alt : 584.090026855, Lat : -35.363261, Lng : 149.1652299, Q1 : 0.998134791851, Q2 : 0.0, Q3 : 0.0, Q4 : -0.0610486753285}
2019-04-03 23:53:28.21: SIM {TimeUS : 63034776, Roll : 0.0, Pitch : 0.0, Yaw : 353.0, Alt : 584.099975586, Lat : -35.363261, Lng : 149.1652299, Q1 : 0.998134791851, Q2 : 0.0, Q3 : 0.0, Q4 : -0.0610486753285}
2019-04-03 23:53:28.31: SIM {TimeUS : 63134736, Roll : 0.0, Pitch : 0.0, Yaw : 353.0, Alt : 584.099975586, Lat : -35.363261, Lng : 149.1652299, Q1 : 0.998134791851, Q2 : 0.0, Q3 : 0.0, Q4 : -0.0610486753285}
2019-04-03 23:53:28.41: SIM {TimeUS : 63234696, Roll : 0.0, Pitch : 0.0, Yaw : 353.0, Alt : 584.109985352, Lat : -35.363261, Lng : 149.1652299, Q1 : 0.998134791851, Q2 : 0.0, Q3 : 0.0, Q4 : -0.0610486753285}
2019-04-03 23:53:28.51: SIM {TimeUS : 63334656, Roll : 0.0, Pitch : 0.0, Yaw : 353.0, Alt : 584.119995117, Lat : -35.363261, Lng : 149.1652299, Q1 : 0.998134791851, Q2 : 0.0, Q3 : 0.0, Q4 : -0.0610486753285}
2019-04-03 23:53:28.61: SIM {TimeUS : 63434616, Roll : 0.0, Pitch : 0.0, Yaw : 353.0, Alt : 584.150024414, Lat : -35.363261, Lng : 149.1652299, Q1 : 0.998134791851, Q2 : 0.0, Q3 : 0.0, Q4 : -0.0610486753285}
2019-04-03 23:53:28.71: SIM {TimeUS : 63534576, Roll : 0.0, Pitch : 0.0, Yaw : 353.0, Alt : 584.179992676, Lat : -35.363261, Lng : 149.1652299, Q1 : 0.998134791851, Q2 : 0.0, Q3 : 0.0, Q4 : -0.0610486641526}
2019-04-03 23:53:28.81: SIM {TimeUS : 63634536, Roll : 0.0, Pitch : 0.0, Yaw : 352.99, Alt : 584.219970703, Lat : -35.363261, Lng : 149.1652299, Q1 : 0.998134791851, Q2 : -1.70967996382e-05, Q3 : -1.63740132848e-05, Q4 : -0.0610489547253}
2019-04-03 23:53:28.91: SIM {TimeUS : 63734496, Roll : -0.03, Pitch : -0.04, Yaw : 352.99, Alt : 584.289978027, Lat : -35.363261, Lng : 149.1652299, Q1 : 0.998134016991, Q2 : -0.000344100088114, Q3 : -0.000342695391737, Q4 : -0.0610593445599}
2019-04-03 23:53:29.01: SIM {TimeUS : 63834456, Roll : -0.08, Pitch : -0.1, Yaw : 352.99, Alt : 584.409973145, Lat : -35.363261, Lng : 149.1652299, Q1 : 0.998132407665, Q2 : -0.000758027774282, Q3 : -0.000875878089573, Q4 : -0.0610771626234}
2019-04-03 23:53:29.11: SIM {TimeUS : 63934416, Roll : -0.11, Pitch : -0.14, Yaw : 352.99, Alt : 584.559997559, Lat : -35.363261, Lng : 149.1652299, Q1 : 0.998130619526, Q2 : -0.00107706349809, Q3 : -0.00116698083002, Q4 : -0.0610965155065}
2019-04-03 23:53:29.21: SIM {TimeUS : 64034376, Roll : -0.14, Pitch : -0.15, Yaw : 352.99, Alt : 584.719970703, Lat : -35.363261, Lng : 149.1652299, Q1 : 0.998128950596, Q2 : -0.0013252615463, Q3 : -0.00123794761021, Q4 : -0.0611182115972}
2019-04-03 23:53:29.31: SIM {TimeUS : 64134336, Roll : -0.17, Pitch : -0.18, Yaw : 352.99, Alt : 584.869995117, Lat : -35.363261, Lng : 149.1652299, Q1 : 0.998127043247, Q2 : -0.00160037144087, Q3 : -0.00148780865129, Q4 : -0.0611367672682}
2019-04-03 23:53:29.41: SIM {TimeUS : 64234296, Roll : -0.12, Pitch : -0.35, Yaw : 352.98, Alt : 585.010009766, Lat : -35.363261, Lng : 149.1652299, Q1 : 0.99812322855, Q2 : -0.00130296871066, Q3 : -0.00304041150957, Q4 : -0.0611476451159}
2019-04-03 23:53:29.51: SIM {TimeUS : 64334256, Roll : 0.03, Pitch : -0.82, Yaw : 352.98, Alt : 585.150024414, Lat : -35.363261, Lng : 149.1652299, Q1 : 0.998102903366, Q2 : -0.0001497061603, Q3 : -0.00717340828851, Q4 : -0.0611492246389}
2019-04-03 23:53:29.61: SIM {TimeUS : 64434216, Roll : 0.27, Pitch : -1.56, Yaw : 352.98, Alt : 585.270019531, Lat : -35.363261, Lng : 149.1652299, Q1 : 0.998032867908, Q2 : 0.00153756560758, Q3 : -0.0138058429584, Q4 : -0.0611347854137}
2019-04-03 23:53:29.71: SIM {TimeUS : 64534176, Roll : 0.56, Pitch : -2.49, Yaw : 352.98, Alt : 585.390014648, Lat : -35.3632609, Lng : 149.1652299, Q1 : 0.997881472111, Q2 : 0.00358956889249, Q3 : -0.0220719464123, Q4 : -0.0610945373774}
2019-04-03 23:53:29.81: SIM {TimeUS : 64634136, Roll : 0.87, Pitch : -3.51, Yaw : 352.97, Alt : 585.5, Lat : -35.3632609, Lng : 149.1652299, Q1 : 0.997635602951, Q2 : 0.0057318797335, Q3 : -0.031097702682, Q4 : -0.0610190145671}
2019-04-03 23:53:29.91: SIM {TimeUS : 64734096, Roll : 1.14, Pitch : -4.52, Yaw : 352.96, Alt : 585.599975586, Lat : -35.3632607, Lng : 149.1652299, Q1 : 0.997313082218, Q2 : 0.00757779832929, Q3 : -0.0399866253138, Q4 : -0.0609113313258}
2019-04-03 23:53:30.01: SIM {TimeUS : 64834056, Roll : 1.36, Pitch : -5.39, Yaw : 352.95, Alt : 585.690002441, Lat : -35.3632604, Lng : 149.1652299, Q1 : 0.99696958065, Q2 : 0.00895566958934, Q3 : -0.0477334521711, Q4 : -0.060769572854}
2019-04-03 23:53:30.11: SIM {TimeUS : 64934016, Roll : 1.5, Pitch : -6.09, Yaw : 352.96, Alt : 585.770019531, Lat : -35.3632603, Lng : 149.1652299, Q1 : 0.996659994125, Q2 : 0.00981829874218, Q3 : -0.0538523606956, Q4 : -0.060600053519}
2019-04-03 23:53:30.22: SIM {TimeUS : 65034809, Roll : 1.6, Pitch : -6.59, Yaw : 352.96, Alt : 585.840026855, Lat : -35.3632598, Lng : 149.1652299, Q1 : 0.996418774128, Q2 : 0.0104518244043, Q3 : -0.0582420900464, Q4 : -0.0604008473456}
2019-04-03 23:53:30.31: SIM {TimeUS : 65134769, Roll : 1.7, Pitch : -6.96, Yaw : 352.98, Alt : 585.900024414, Lat : -35.3632595, Lng : 149.1652299, Q1 : 0.996229231358, Q2 : 0.011138706468, Q3 : -0.0614934079349, Q4 : -0.0601819530129}
2019-04-03 23:53:30.41: SIM {TimeUS : 65234729, Roll : 1.81, Pitch : -7.29, Yaw : 352.99, Alt : 585.960021973, Lat : -35.3632591, Lng : 149.1652299, Q1 : 0.996047496796, Q2 : 0.0119002722204, Q3 : -0.0644363835454, Q4 : -0.0599642135203}
2019-04-03 23:53:30.51: SIM {TimeUS : 65334689, Roll : 1.91, Pitch : -7.62, Yaw : 353.0, Alt : 586.010009766, Lat : -35.3632585, Lng : 149.1652301, Q1 : 0.995857000351, Q2 : 0.0125457830727, Q3 : -0.0673702955246, Q4 : -0.0597725100815}
2019-04-03 23:53:30.61: SIM {TimeUS : 65434649, Roll : 1.96, Pitch : -7.92, Yaw : 353.01, Alt : 586.049987793, Lat : -35.3632578, Lng : 149.1652302, Q1 : 0.995683193207, Q2 : 0.0128576094285, Q3 : -0.0699668824673, Q4 : -0.0596187934279}
2019-04-03 23:53:30.71: SIM {TimeUS : 65534609, Roll : 1.96, Pitch : -8.14, Yaw : 353.01, Alt : 586.099975586, Lat : -35.3632571, Lng : 149.1652303, Q1 : 0.99554848671, Q2 : 0.0127771161497, Q3 : -0.0719581469893, Q4 : -0.059515055269}
2019-04-03 23:53:30.81: SIM {TimeUS : 65634569, Roll : 1.97, Pitch : -8.31, Yaw : 353.02, Alt : 586.130004883, Lat : -35.3632562, Lng : 149.1652303, Q1 : 0.995451331139, Q2 : 0.0127123761922, Q3 : -0.0733629241586, Q4 : -0.0594384744763}
2019-04-03 23:53:30.91: SIM {TimeUS : 65734529, Roll : 1.99, Pitch : -8.42, Yaw : 353.02, Alt : 586.16998291, Lat : -35.3632554, Lng : 149.1652305, Q1 : 0.995378494263, Q2 : 0.0128502110019, Q3 : -0.0743670761585, Q4 : -0.0593803487718}
2019-04-03 23:53:31.01: SIM {TimeUS : 65834489, Roll : 2.02, Pitch : -8.52, Yaw : 353.02, Alt : 586.200012207, Lat : -35.3632544, Lng : 149.1652306, Q1 : 0.995312035084, Q2 : 0.0130986962467, Q3 : -0.0752367377281, Q4 : -0.0593458637595}
2019-04-03 23:53:31.11: SIM {TimeUS : 65934449, Roll : 2.11, Pitch : -8.66, Yaw : 353.02, Alt : 586.239990234, Lat : -35.3632535, Lng : 149.1652308, Q1 : 0.995212614536, Q2 : 0.0138140041381, Q3 : -0.0765030756593, Q4 : -0.0592316612601}
2019-04-03 23:53:31.21: SIM {TimeUS : 66034409, Roll : 2.45, Pitch : -8.84, Yaw : 353.25, Alt : 586.270019531, Lat : -35.3632524, Lng : 149.1652308, Q1 : 0.995163738728, Q2 : 0.0167493131012, Q3 : -0.078221783042, Q4 : -0.0570083931088}
2019-04-03 23:53:31.31: SIM {TimeUS : 66134369, Roll : 2.98, Pitch : -9.09, Yaw : 354.32, Alt : 586.299987793, Lat : -35.3632512, Lng : 149.1652311, Q1 : 0.995394051075, Q2 : 0.0219735167921, Q3 : -0.0804657638073, Q4 : -0.0472559854388}
2019-04-03 23:53:31.41: SIM {TimeUS : 66234329, Roll : 3.14, Pitch : -9.51, Yaw : 356.69, Alt : 586.33001709, Lat : -35.36325, Lng : 149.1652312, Q1 : 0.995834827423, Q2 : 0.0249056126922, Q3 : -0.0836274847388, Q4 : -0.0264409538358}
2019-04-03 23:53:31.51: SIM {TimeUS : 66334289, Roll : 2.62, Pitch : -10.05, Yaw : 0.03, Alt : 586.359985352, Lat : -35.3632487, Lng : 149.1652315, Q1 : 0.995894789696, Q2 : 0.0228319708258, Q3 : -0.0875622183084, Q4 : 0.00228705466725}
2019-04-03 23:53:31.61: SIM {TimeUS : 66434249, Roll : 1.48, Pitch : -10.6, Yaw : 3.74, Alt : 586.390014648, Lat : -35.3632473, Lng : 149.1652317, Q1 : 0.995063483715, Q2 : 0.0158842280507, Q3 : -0.0919739454985, Q4 : 0.0337223447859}
2019-04-03 23:53:31.71: SIM {TimeUS : 66534209, Roll : -0.03, Pitch : -11.07, Yaw : 7.29, Alt : 586.41998291, Lat : -35.3632458, Lng : 149.1652321, Q1 : 0.9933193326, Q2 : 0.00581955444068, Q3 : -0.096346065402, Q4 : 0.0632477551699}
2019-04-03 23:53:31.81: SIM {TimeUS : 66634169, Roll : -1.55, Pitch : -11.45, Yaw : 10.24, Alt : 586.460021973, Lat : -35.3632443, Lng : 149.1652323, Q1 : 0.991064012051, Q2 : -0.00450276490301, Q3 : -0.100589886308, Q4 : 0.0874842554331}
2019-04-03 23:53:31.91: SIM {TimeUS : 66734129, Roll : -2.71, Pitch : -11.75, Yaw : 12.34, Alt : 586.489990234, Lat : -35.3632427, Lng : 149.1652327, Q1 : 0.988959670067, Q2 : -0.0124528836459, Q3 : -0.104348167777, Q4 : 0.104475915432}
2019-04-03 23:53:32.01: SIM {TimeUS : 66834089, Roll : -3.37, Pitch : -12.01, Yaw : 13.47, Alt : 586.530029297, Lat : -35.3632409, Lng : 149.1652329, Q1 : 0.987577676773, Q2 : -0.0167767442763, Q3 : -0.107329942286, Q4 : 0.113530859351}
2019-04-03 23:53:32.11: SIM {TimeUS : 66934049, Roll : -3.46, Pitch : -12.28, Yaw : 13.67, Alt : 586.570007324, Lat : -35.3632391, Lng : 149.1652332, Q1 : 0.987123847008, Q2 : -0.0170969311148, Q3 : -0.109778702259, Q4 : 0.115077458322}
2019-04-03 23:53:32.21: SIM {TimeUS : 67034009, Roll : -3.07, Pitch : -12.6, Yaw : 13.08, Alt : 586.609985352, Lat : -35.3632373, Lng : 149.1652334, Q1 : 0.987462759018, Q2 : -0.014017296955, Q3 : -0.112025491893, Q4 : 0.110322423279}
2019-04-03 23:53:32.32: SIM {TimeUS : 67134802, Roll : -2.32, Pitch : -12.97, Yaw : 11.92, Alt : 586.650024414, Lat : -35.3632354, Lng : 149.1652336, Q1 : 0.988256752491, Q2 : -0.00835125055164, Q3 : -0.114418916404, Q4 : 0.100931383669}
2019-04-03 23:53:32.41: SIM {TimeUS : 67234762, Roll : -1.44, Pitch : -13.38, Yaw : 10.45, Alt : 586.700012207, Lat : -35.3632333, Lng : 149.1652337, Q1 : 0.989110708237, Q2 : -0.00181596761104, Q3 : -0.11716350913, Q4 : 0.0890471935272}
2019-04-03 23:53:32.51: SIM {TimeUS : 67334722, Roll : -0.57, Pitch : -13.82, Yaw : 8.9, Alt : 586.739990234, Lat : -35.3632312, Lng : 149.165234, Q1 : 0.989772796631, Q2 : 0.0043743303977, Q3 : -0.120354942977, Q4 : 0.076455026865}
2019-04-03 23:53:32.61: SIM {TimeUS : 67434682, Roll : 0.18, Pitch : -14.21, Yaw : 7.45, Alt : 586.789978027, Lat : -35.3632289, Lng : 149.1652342, Q1 : 0.99019753933, Q2 : 0.0096093043685, Q3 : -0.123391054571, Q4 : 0.0647388622165}
2019-04-03 23:53:32.71: SIM {TimeUS : 67534642, Roll : 0.76, Pitch : -14.48, Yaw : 6.27, Alt : 586.840026855, Lat : -35.3632267, Lng : 149.1652345, Q1 : 0.990468144417, Q2 : 0.0135235115886, Q3 : -0.125512436032, Q4 : 0.0551057271659}
2019-04-03 23:53:32.81: SIM {TimeUS : 67634602, Roll : 1.13, Pitch : -14.62, Yaw : 5.43, Alt : 586.900024414, Lat : -35.3632243, Lng : 149.1652348, Q1 : 0.990638315678, Q2 : 0.0158190429211, Q3 : -0.126708328724, Q4 : 0.0482756830752}
2019-04-03 23:53:32.91: SIM {TimeUS : 67734562, Roll : 1.27, Pitch : -14.71, Yaw : 4.98, Alt : 586.950012207, Lat : -35.3632218, Lng : 149.1652351, Q1 : 0.990709066391, Q2 : 0.0166047979146, Q3 : -0.1274292171, Q4 : 0.0445154309273}
2019-04-03 23:53:33.01: SIM {TimeUS : 67834522, Roll : 1.22, Pitch : -14.77, Yaw : 4.88, Alt : 587.0, Lat : -35.3632193, Lng : 149.1652355, Q1 : 0.990677595139, Q2 : 0.0161037966609, Q3 : -0.128026500344, Q4 : 0.0436782501638}
2019-04-03 23:53:33.11: SIM {TimeUS : 67934482, Roll : 1.02, Pitch : -14.85, Yaw : 5.1, Alt : 587.059997559, Lat : -35.3632166, Lng : 149.1652358, Q1 : 0.990538060665, Q2 : 0.0146399661899, Q3 : -0.128708645701, Q4 : 0.0453226938844}
2019-04-03 23:53:33.21: SIM {TimeUS : 68034442, Roll : 0.72, Pitch : -14.94, Yaw : 5.54, Alt : 587.119995117, Lat : -35.363214, Lng : 149.1652361, Q1 : 0.99028557539, Q2 : 0.0125256897882, Q3 : -0.129605218768, Q4 : 0.0487857088447}
2019-04-03 23:53:33.31: SIM {TimeUS : 68134402, Roll : 0.36, Pitch : -15.06, Yaw : 6.11, Alt : 587.179992676, Lat : -35.3632112, Lng : 149.1652365, Q1 : 0.98993229866, Q2 : 0.0101276282221, Q3 : -0.130719453096, Q4 : 0.0533288419247}
2019-04-03 23:53:33.41: SIM {TimeUS : 68234362, Roll : -0.01, Pitch : -15.17, Yaw : 6.73, Alt : 587.229980469, Lat : -35.3632085, Lng : 149.165237, Q1 : 0.989529788494, Q2 : 0.00760574406013, Q3 : -0.131858736277, Q4 : 0.0581915080547}
2019-04-03 23:53:33.51: SIM {TimeUS : 68334322, Roll : -0.36, Pitch : -15.27, Yaw : 7.3, Alt : 587.289978027, Lat : -35.3632056, Lng : 149.1652375, Q1 : 0.989130914211, Q2 : 0.00534402765334, Q3 : -0.132866844535, Q4 : 0.0627528876066}
2019-04-03 23:53:33.61: SIM {TimeUS : 68434282, Roll : -0.63, Pitch : -15.35, Yaw : 7.78, Alt : 587.349975586, Lat : -35.3632026, Lng : 149.1652379, Q1 : 0.988785922527, Q2 : 0.00362697965465, Q3 : -0.133649230003, Q4 : 0.0665366202593}
2019-04-03 23:53:33.71: SIM {TimeUS : 68534242, Roll : -0.8, Pitch : -15.4, Yaw : 8.12, Alt : 587.409973145, Lat : -35.3631996, Lng : 149.1652384, Q1 : 0.988527476788, Q2 : 0.00253670755774, Q3 : -0.134219259024, Q4 : 0.0692253708839}
2019-04-03 23:53:33.81: SIM {TimeUS : 68634202, Roll : -0.87, Pitch : -15.46, Yaw : 8.3, Alt : 587.469970703, Lat : -35.3631965, Lng : 149.1652388, Q1 : 0.988351285458, Q2 : 0.00223040697165, Q3 : -0.134744614363, Q4 : 0.0707155540586}
2019-04-03 23:53:33.91: SIM {TimeUS : 68734162, Roll : -0.82, Pitch : -15.52, Yaw : 8.33, Alt : 587.530029297, Lat : -35.3631935, Lng : 149.1652392, Q1 : 0.988256752491, Q2 : 0.00266732391901, Q3 : -0.135252505541, Q4 : 0.071051068604}
2019-04-03 23:53:34.01: SIM {TimeUS : 68834122, Roll : -0.7, Pitch : -15.59, Yaw : 8.24, Alt : 587.590026855, Lat : -35.3631904, Lng : 149.1652396, Q1 : 0.988233149052, Q2 : 0.00366563373245, Q3 : -0.135744541883, Q4 : 0.0703938379884}
2019-04-03 23:53:34.11: SIM {TimeUS : 68934082, Roll : -0.54, Pitch : -15.66, Yaw : 8.05, Alt : 587.659973145, Lat : -35.3631872, Lng : 149.1652401, Q1 : 0.988259553909, Q2 : 0.00484346505255, Q3 : -0.136253759265, Q4 : 0.0689529627562}
2019-04-03 23:53:34.21: SIM {TimeUS : 69034042, Roll : -0.38, Pitch : -15.73, Yaw : 7.81, Alt : 587.719970703, Lat : -35.3631838, Lng : 149.1652404, Q1 : 0.988314151764, Q2 : 0.00596342748031, Q3 : -0.13678060472, Q4 : 0.0670127123594}
2019-04-03 23:53:34.31: SIM {TimeUS : 69134002, Roll : -0.24, Pitch : -15.78, Yaw : 7.54, Alt : 587.780029297, Lat : -35.3631807, Lng : 149.1652409, Q1 : 0.988398134708, Q2 : 0.00694892276078, Q3 : -0.137156039476, Q4 : 0.0648774057627}
2019-04-03 23:53:34.42: SIM {TimeUS : 69234795, Roll : -0.1, Pitch : -15.83, Yaw : 7.28, Alt : 587.840026855, Lat : -35.3631772, Lng : 149.1652413, Q1 : 0.988470137119, Q2 : 0.00784465670586, Q3 : -0.137549340725, Q4 : 0.062812782824}
2019-04-03 23:53:34.51: SIM {TimeUS : 69334755, Roll : 0.0, Pitch : -15.88, Yaw : 7.06, Alt : 587.900024414, Lat : -35.3631739, Lng : 149.1652418, Q1 : 0.988517820835, Q2 : 0.00852569378912, Q3 : -0.137957155704, Q4 : 0.0610552020371}
2019-04-03 23:53:34.61: SIM {TimeUS : 69434715, Roll : 0.07, Pitch : -15.96, Yaw : 6.9, Alt : 587.960021973, Lat : -35.3631705, Lng : 149.1652423, Q1 : 0.988508582115, Q2 : 0.00900014303625, Q3 : -0.138569414616, Q4 : 0.0597358457744}
2019-04-03 23:53:34.71: SIM {TimeUS : 69534675, Roll : 0.11, Pitch : -16.03, Yaw : 6.8, Alt : 588.020019531, Lat : -35.3631671, Lng : 149.1652427, Q1 : 0.988476455212, Q2 : 0.0092345289886, Q3 : -0.139130860567, Q4 : 0.0589205697179}
2019-04-03 23:53:34.81: SIM {TimeUS : 69634635, Roll : 0.11, Pitch : -16.08, Yaw : 6.76, Alt : 588.08001709, Lat : -35.3631636, Lng : 149.1652432, Q1 : 0.988432705402, Q2 : 0.00926153827459, Q3 : -0.139577165246, Q4 : 0.0585937574506}
2019-04-03 23:53:34.91: SIM {TimeUS : 69734595, Roll : 0.1, Pitch : -16.11, Yaw : 6.78, Alt : 588.150024414, Lat : -35.3631601, Lng : 149.1652437, Q1 : 0.988380789757, Q2 : 0.00924140401185, Q3 : -0.139897629619, Q4 : 0.0587078854442}
2019-04-03 23:53:35.01: SIM {TimeUS : 69834555, Roll : 0.08, Pitch : -16.14, Yaw : 6.83, Alt : 588.210021973, Lat : -35.3631565, Lng : 149.1652442, Q1 : 0.98832398653, Q2 : 0.0090842815116, Q3 : -0.14012260735, Q4 : 0.0591509118676}
2019-04-03 23:53:35.11: SIM {TimeUS : 69934515, Roll : 0.03, Pitch : -16.15, Yaw : 6.91, Alt : 588.270019531, Lat : -35.3631529, Lng : 149.1652447, Q1 : 0.988277673721, Q2 : 0.00877731479704, Q3 : -0.140198379755, Q4 : 0.0597882904112}
2019-04-03 23:53:35.21: SIM {TimeUS : 70034475, Roll : -0.02, Pitch : -16.15, Yaw : 7.0, Alt : 588.33001709, Lat : -35.3631494, Lng : 149.1652452, Q1 : 0.988230824471, Q2 : 0.00837095919997, Q3 : -0.140251591802, Q4 : 0.0604928694665}
2019-04-03 23:53:35.31: SIM {TimeUS : 70134435, Roll : -0.08, Pitch : -16.16, Yaw : 7.09, Alt : 588.390014648, Lat : -35.3631458, Lng : 149.1652457, Q1 : 0.988170981407, Q2 : 0.00795683357865, Q3 : -0.140404164791, Q4 : 0.0611676871777}
2019-04-03 23:53:35.41: SIM {TimeUS : 70234395, Roll : -0.13, Pitch : -16.18, Yaw : 7.17, Alt : 588.460021973, Lat : -35.3631422, Lng : 149.1652464, Q1 : 0.988112449646, Q2 : 0.00761505356058, Q3 : -0.140585437417, Q4 : 0.0617381595075}
2019-04-03 23:53:35.51: SIM {TimeUS : 70334355, Roll : -0.17, Pitch : -16.2, Yaw : 7.22, Alt : 588.520019531, Lat : -35.3631385, Lng : 149.1652469, Q1 : 0.988066494465, Q2 : 0.00735550932586, Q3 : -0.140746414661, Q4 : 0.0621369406581}
2019-04-03 23:53:35.61: SIM {TimeUS : 70434315, Roll : -0.19, Pitch : -16.22, Yaw : 7.24, Alt : 588.58001709, Lat : -35.3631348, Lng : 149.1652474, Q1 : 0.98803037405, Q2 : 0.00722819473594, Q3 : -0.140915200114, Q4 : 0.0623431541026}
2019-04-03 23:53:35.71: SIM {TimeUS : 70534275, Roll : -0.2, Pitch : -16.25, Yaw : 7.25, Alt : 588.640014648, Lat : -35.3631309, Lng : 149.165248, Q1 : 0.9879950881, Q2 : 0.00718800118193, Q3 : -0.141164526343, Q4 : 0.0623428076506}
2019-04-03 23:53:35.81: SIM {TimeUS : 70634235, Roll : -0.17, Pitch : -16.29, Yaw : 7.23, Alt : 588.710021973, Lat : -35.3631272, Lng : 149.1652485, Q1 : 0.987952172756, Q2 : 0.00739484233782, Q3 : -0.141518771648, Q4 : 0.0621955953538}
2019-04-03 23:53:35.91: SIM {TimeUS : 70734195, Roll : -0.13, Pitch : -16.33, Yaw : 7.19, Alt : 588.770019531, Lat : -35.3631235, Lng : 149.165249, Q1 : 0.987913429737, Q2 : 0.00778102129698, Q3 : -0.141880691051, Q4 : 0.061938714236}
2019-04-03 23:53:36.01: SIM {TimeUS : 70834155, Roll : -0.07, Pitch : -16.38, Yaw : 7.14, Alt : 588.83001709, Lat : -35.3631197, Lng : 149.1652495, Q1 : 0.98787522316, Q2 : 0.00823405012488, Q3 : -0.142269283533, Q4 : 0.0615974515676}
2019-04-03 23:53:36.11: SIM {TimeUS : 70934115, Roll : -0.03, Pitch : -16.41, Yaw : 7.09, Alt : 588.890014648, Lat : -35.3631158, Lng : 149.16525, Q1 : 0.987864136696, Q2 : 0.00855912640691, Q3 : -0.142498627305, Q4 : 0.0611997544765}
2019-04-03 23:53:36.21: SIM {TimeUS : 71034075, Roll : -0.02, Pitch : -16.42, Yaw : 7.04, Alt : 588.960021973, Lat : -35.363112, Lng : 149.1652507, Q1 : 0.987872481346, Q2 : 0.00854921527207, Q3 : -0.142631098628, Q4 : 0.0607555173337}
2019-04-03 23:53:36.31: SIM {TimeUS : 71134035, Roll : -0.04, Pitch : -16.44, Yaw : 6.99, Alt : 589.020019531, Lat : -35.3631082, Lng : 149.1652512, Q1 : 0.987883925438, Q2 : 0.0083383442834, Q3 : -0.142745584249, Q4 : 0.0603288449347}
2019-04-03 23:53:36.41: SIM {TimeUS : 71233995, Roll : -0.05, Pitch : -16.45, Yaw : 6.95, Alt : 589.08001709, Lat : -35.3631044, Lng : 149.1652518, Q1 : 0.987892448902, Q2 : 0.00822215527296, Q3 : -0.142839163542, Q4 : 0.0599822103977}
2019-04-03 23:53:36.51: SIM {TimeUS : 71334788, Roll : -0.04, Pitch : -16.47, Yaw : 6.92, Alt : 589.150024414, Lat : -35.3631005, Lng : 149.1652523, Q1 : 0.987876474857, Q2 : 0.00824470911175, Q3 : -0.143053352833, Q4 : 0.0597314462066}
2019-04-03 23:53:36.61: SIM {TimeUS : 71434748, Roll : -0.04, Pitch : -16.52, Yaw : 6.9, Alt : 589.210021973, Lat : -35.3630966, Lng : 149.1652528, Q1 : 0.987823426723, Q2 : 0.00828413292766, Q3 : -0.143487215042, Q4 : 0.0595620051026}
2019-04-03 23:53:36.71: SIM {TimeUS : 71534708, Roll : -0.05, Pitch : -16.58, Yaw : 6.89, Alt : 589.270019531, Lat : -35.3630926, Lng : 149.1652535, Q1 : 0.987761735916, Q2 : 0.0082233697176, Q3 : -0.143960177898, Q4 : 0.0594523623586}
2019-04-03 23:53:36.81: SIM {TimeUS : 71634668, Roll : -0.06, Pitch : -16.61, Yaw : 6.89, Alt : 589.340026855, Lat : -35.3630887, Lng : 149.1652541, Q1 : 0.987727105618, Q2 : 0.00810140836984, Q3 : -0.144226253033, Q4 : 0.0593998022377}
2019-04-03 23:53:36.91: SIM {TimeUS : 71734628, Roll : -0.07, Pitch : -16.61, Yaw : 6.89, Alt : 589.400024414, Lat : -35.3630847, Lng : 149.1652546, Q1 : 0.98772251606, Q2 : 0.00807633623481, Q3 : -0.144261315465, Q4 : 0.0593946315348}
2019-04-03 23:53:37.01: SIM {TimeUS : 71834588, Roll : -0.06, Pitch : -16.61, Yaw : 6.89, Alt : 589.460021973, Lat : -35.3630808, Lng : 149.1652552, Q1 : 0.987724065781, Q2 : 0.00815027114004, Q3 : -0.144237309694, Q4 : 0.0594167113304}
2019-04-03 23:53:37.11: SIM {TimeUS : 71934548, Roll : -0.06, Pitch : -16.6, Yaw : 6.89, Alt : 589.520019531, Lat : -35.3630768, Lng : 149.1652557, Q1 : 0.987735927105, Q2 : 0.00815589539707, Q3 : -0.14414998889, Q4 : 0.059431090951}
2019-04-03 23:53:37.21: SIM {TimeUS : 72034508, Roll : -0.06, Pitch : -16.58, Yaw : 6.89, Alt : 589.590026855, Lat : -35.3630729, Lng : 149.1652564, Q1 : 0.987754166126, Q2 : 0.008097268641, Q3 : -0.144028902054, Q4 : 0.0594297647476}
2019-04-03 23:53:37.31: SIM {TimeUS : 72134468, Roll : -0.06, Pitch : -16.59, Yaw : 6.89, Alt : 589.650024414, Lat : -35.3630689, Lng : 149.1652569, Q1 : 0.987751066685, Q2 : 0.00808553118259, Q3 : -0.144059285522, Q4 : 0.0594087801874}
2019-04-03 23:53:37.41: SIM {TimeUS : 72234428, Roll : -0.06, Pitch : -16.62, Yaw : 6.88, Alt : 589.710021973, Lat : -35.3630649, Lng : 149.1652575, Q1 : 0.987710833549, Q2 : 0.00814255140722, Q3 : -0.144352972507, Q4 : 0.0593564808369}
2019-04-03 23:53:37.51: SIM {TimeUS : 72334388, Roll : -0.04, Pitch : -16.66, Yaw : 6.87, Alt : 589.770019531, Lat : -35.3630609, Lng : 149.1652581, Q1 : 0.987662255764, Q2 : 0.00827619899064, Q3 : -0.144703909755, Q4 : 0.0592923276126}
2019-04-03 23:53:37.61: SIM {TimeUS : 72434348, Roll : -0.03, Pitch : -16.7, Yaw : 6.86, Alt : 589.840026855, Lat : -35.3630568, Lng : 149.1652586, Q1 : 0.987617611885, Q2 : 0.00841991323978, Q3 : -0.145031303167, Q4 : 0.0592161305249}
2019-04-03 23:53:37.71: SIM {TimeUS : 72534308, Roll : -0.01, Pitch : -16.73, Yaw : 6.85, Alt : 589.900024414, Lat : -35.3630528, Lng : 149.1652593, Q1 : 0.987583637238, Q2 : 0.0085608586669, Q3 : -0.145294308662, Q4 : 0.0591181591153}
2019-04-03 23:53:37.81: SIM {TimeUS : 72634268, Roll : 0.0, Pitch : -16.78, Yaw : 6.83, Alt : 589.960021973, Lat : -35.3630488, Lng : 149.1652598, Q1 : 0.98752707243, Q2 : 0.00866098329425, Q3 : -0.145722806454, Q4 : 0.0589926987886}
2019-04-03 23:53:37.91: SIM {TimeUS : 72734228, Roll : 0.0, Pitch : -16.83, Yaw : 6.81, Alt : 590.020019531, Lat : -35.3630446, Lng : 149.1652604, Q1 : 0.987480521202, Q2 : 0.00865987874568, Q3 : -0.146104156971, Q4 : 0.0588289164007}
2019-04-03 23:53:38.01: SIM {TimeUS : 72834188, Roll : -0.01, Pitch : -16.84, Yaw : 6.8, Alt : 590.090026855, Lat : -35.3630407, Lng : 149.1652609, Q1 : 0.98748010397, Q2 : 0.00859623495489, Q3 : -0.146179571748, Q4 : 0.0586573369801}
2019-04-03 23:53:38.11: SIM {TimeUS : 72934148, Roll : -0.01, Pitch : -16.83, Yaw : 6.78, Alt : 590.150024414, Lat : -35.3630366, Lng : 149.1652615, Q1 : 0.987496912479, Q2 : 0.00855588074774, Q3 : -0.146131247282, Q4 : 0.0585008971393}
2019-04-03 23:53:38.21: SIM {TimeUS : 73034108, Roll : 0.0, Pitch : -16.83, Yaw : 6.76, Alt : 590.210021973, Lat : -35.3630324, Lng : 149.1652622, Q1 : 0.98750936985, Q2 : 0.00857892166823, Q3 : -0.146100819111, Q4 : 0.0583624616265}
2019-04-03 23:53:38.31: SIM {TimeUS : 73134068, Roll : 0.02, Pitch : -16.84, Yaw : 6.75, Alt : 590.270019531, Lat : -35.3630284, Lng : 149.1652628, Q1 : 0.987501978874, Q2 : 0.0088015133515, Q3 : -0.146173492074, Q4 : 0.0582725740969}
2019-04-03 23:53:38.41: SIM {TimeUS : 73234028, Roll : 0.04, Pitch : -16.87, Yaw : 6.74, Alt : 590.340026855, Lat : -35.3630243, Lng : 149.1652633, Q1 : 0.987457990646, Q2 : 0.00899460911751, Q3 : -0.146486625075, Q4 : 0.0582019761205}
2019-04-03 23:53:38.52: SIM {TimeUS : 73334821, Roll : 0.03, Pitch : -16.9, Yaw : 6.73, Alt : 590.400024414, Lat : -35.3630202, Lng : 149.1652639, Q1 : 0.987424790859, Q2 : 0.0089544961229, Q3 : -0.146746397018, Q4 : 0.0581170059741}
2019-04-03 23:53:38.61: SIM {TimeUS : 73434781, Roll : 0.0, Pitch : -16.93, Yaw : 6.72, Alt : 590.460021973, Lat : -35.363016, Lng : 149.1652646, Q1 : 0.987395226955, Q2 : 0.0086937956512, Q3 : -0.146995514631, Q4 : 0.0580293014646}
2019-04-03 23:53:38.71: SIM {TimeUS : 73534741, Roll : -0.02, Pitch : -16.94, Yaw : 6.72, Alt : 590.520019531, Lat : -35.3630118, Lng : 149.1652652, Q1 : 0.987384796143, Q2 : 0.00840082857758, Q3 : -0.147112548351, Q4 : 0.0579533055425}
2019-04-03 23:53:38.81: SIM {TimeUS : 73634701, Roll : -0.03, Pitch : -16.94, Yaw : 6.71, Alt : 590.58001709, Lat : -35.3630078, Lng : 149.1652657, Q1 : 0.987391114235, Q2 : 0.00833821482956, Q3 : -0.147087737918, Q4 : 0.0579178147018}
2019-04-03 23:53:38.91: SIM {TimeUS : 73734661, Roll : -0.01, Pitch : -16.94, Yaw : 6.71, Alt : 590.650024414, Lat : -35.3630036, Lng : 149.1652664, Q1 : 0.987395942211, Q2 : 0.00853045191616, Q3 : -0.147046029568, Q4 : 0.0579137429595}
2019-04-03 23:53:39.01: SIM {TimeUS : 73834621, Roll : 0.0, Pitch : -16.95, Yaw : 6.7, Alt : 590.710021973, Lat : -35.3629995, Lng : 149.165267, Q1 : 0.987373530865, Q2 : 0.00868576671928, Q3 : -0.147201374173, Q4 : 0.0578777119517}
2019-04-03 23:53:39.11: SIM {TimeUS : 73934581, Roll : 0.01, Pitch : -16.99, Yaw : 6.69, Alt : 590.770019531, Lat : -35.3629953, Lng : 149.1652675, Q1 : 0.98732894659, Q2 : 0.00880090147257, Q3 : -0.147517547011, Q4 : 0.0578165836632}
2019-04-03 23:53:39.21: SIM {TimeUS : 74034541, Roll : 0.02, Pitch : -17.03, Yaw : 6.68, Alt : 590.83001709, Lat : -35.3629911, Lng : 149.1652681, Q1 : 0.987284004688, Q2 : 0.00884657260031, Q3 : -0.147851407528, Q4 : 0.057724326849}
2019-04-03 23:53:39.31: SIM {TimeUS : 74134501, Roll : 0.02, Pitch : -17.05, Yaw : 6.67, Alt : 590.900024414, Lat : -35.3629869, Lng : 149.1652686, Q1 : 0.987269818783, Q2 : 0.00883110798895, Q3 : -0.147986888885, Q4 : 0.0576217807829}
2019-04-03 23:53:39.41: SIM {TimeUS : 74234461, Roll : 0.02, Pitch : -17.06, Yaw : 6.66, Alt : 590.960021973, Lat : -35.3629828, Lng : 149.1652693, Q1 : 0.987256169319, Q2 : 0.00881163869053, Q3 : -0.148118838668, Q4 : 0.057519569993}
2019-04-03 23:53:39.51: SIM {TimeUS : 74334421, Roll : 0.02, Pitch : -17.08, Yaw : 6.65, Alt : 591.020019531, Lat : -35.3629787, Lng : 149.1652699, Q1 : 0.987235248089, Q2 : 0.00886670034379, Q3 : -0.14829222858, Q4 : 0.0574230588973}
2019-04-03 23:53:39.61: SIM {TimeUS : 74434381, Roll : 0.04, Pitch : -17.08, Yaw : 6.64, Alt : 591.08001709, Lat : -35.3629745, Lng : 149.1652705, Q1 : 0.987239420414, Q2 : 0.0089537249878, Q3 : -0.148297563195, Q4 : 0.0573241561651}
2019-04-03 23:53:39.71: SIM {TimeUS : 74534341, Roll : 0.04, Pitch : -17.09, Yaw : 6.62, Alt : 591.150024414, Lat : -35.3629703, Lng : 149.165271, Q1 : 0.987237274647, Q2 : 0.00900851283222, Q3 : -0.148346319795, Q4 : 0.0572264976799}
2019-04-03 23:53:39.81: SIM {TimeUS : 74634301, Roll : 0.05, Pitch : -17.12, Yaw : 6.61, Alt : 591.210021973, Lat : -35.3629661, Lng : 149.1652717, Q1 : 0.987207651138, Q2 : 0.00906682759523, Q3 : -0.148574382067, Q4 : 0.0571360588074}
2019-04-03 23:53:39.91: SIM {TimeUS : 74734261, Roll : 0.06, Pitch : -17.16, Yaw : 6.6, Alt : 591.270019531, Lat : -35.3629619, Lng : 149.1652723, Q1 : 0.987154483795, Q2 : 0.00916172470897, Q3 : -0.148954629898, Q4 : 0.0570496618748}
2019-04-03 23:53:40.01: SIM {TimeUS : 74834221, Roll : 0.06, Pitch : -17.2, Yaw : 6.59, Alt : 591.33001709, Lat : -35.3629576, Lng : 149.1652729, Q1 : 0.987107098103, Q2 : 0.00915136467665, Q3 : -0.149303466082, Q4 : 0.0569591410458}
2019-04-03 23:53:40.11: SIM {TimeUS : 74934181, Roll : 0.04, Pitch : -17.23, Yaw : 6.58, Alt : 591.390014648, Lat : -35.3629534, Lng : 149.1652734, Q1 : 0.987076997757, Q2 : 0.00896521750838, Q3 : -0.149553179741, Q4 : 0.0568550378084}
2019-04-03 23:53:40.21: SIM {TimeUS : 75034141, Roll : 0.0, Pitch : -17.23, Yaw : 6.58, Alt : 591.460021973, Lat : -35.3629491, Lng : 149.1652741, Q1 : 0.987076282501, Q2 : 0.00856079813093, Q3 : -0.149626359344, Q4 : 0.056737434119}
2019-04-03 23:53:40.31: SIM {TimeUS : 75134101, Roll : -0.02, Pitch : -17.23, Yaw : 6.57, Alt : 591.520019531, Lat : -35.3629449, Lng : 149.1652748, Q1 : 0.987083137035, Q2 : 0.00834248960018, Q3 : -0.149625688791, Q4 : 0.0566525347531}
2019-04-03 23:53:40.41: SIM {TimeUS : 75234061, Roll : -0.01, Pitch : -17.24, Yaw : 6.56, Alt : 591.58001709, Lat : -35.3629407, Lng : 149.1652753, Q1 : 0.987072229385, Q2 : 0.00843179412186, Q3 : -0.149706467986, Q4 : 0.0566162839532}
2019-04-03 23:53:40.51: SIM {TimeUS : 75334021, Roll : 0.0, Pitch : -17.27, Yaw : 6.56, Alt : 591.640014648, Lat : -35.3629364, Lng : 149.165276, Q1 : 0.987040102482, Q2 : 0.00861185695976, Q3 : -0.149916142225, Q4 : 0.0565943792462}
2019-04-03 23:53:40.62: SIM {TimeUS : 75434814, Roll : 0.02, Pitch : -17.29, Yaw : 6.55, Alt : 591.710021973, Lat : -35.3629321, Lng : 149.1652766, Q1 : 0.987011134624, Q2 : 0.00881456211209, Q3 : -0.150101006031, Q4 : 0.0565778948367}
2019-04-03 23:53:40.71: SIM {TimeUS : 75534774, Roll : 0.04, Pitch : -17.29, Yaw : 6.55, Alt : 591.770019531, Lat : -35.3629279, Lng : 149.1652772, Q1 : 0.987010717392, Q2 : 0.00895815528929, Q3 : -0.150098964572, Q4 : 0.0565679445863}
2019-04-03 23:53:40.81: SIM {TimeUS : 75634734, Roll : 0.05, Pitch : -17.3, Yaw : 6.54, Alt : 591.83001709, Lat : -35.3629236, Lng : 149.1652777, Q1 : 0.987005650997, Q2 : 0.00902538374066, Q3 : -0.150137588382, Q4 : 0.0565434359014}
2019-04-03 23:53:40.91: SIM {TimeUS : 75734694, Roll : 0.04, Pitch : -17.3, Yaw : 6.54, Alt : 591.890014648, Lat : -35.3629194, Lng : 149.1652784, Q1 : 0.986999630928, Q2 : 0.00899563450366, Q3 : -0.150195881724, Q4 : 0.056498195976}
2019-04-03 23:53:41.01: SIM {TimeUS : 75834654, Roll : 0.02, Pitch : -17.32, Yaw : 6.53, Alt : 591.960021973, Lat : -35.3629151, Lng : 149.165279, Q1 : 0.986977100372, Q2 : 0.00884141679853, Q3 : -0.150384560227, Q4 : 0.0564132332802}
2019-04-03 23:53:41.11: SIM {TimeUS : 75934614, Roll : 0.0, Pitch : -17.35, Yaw : 6.53, Alt : 592.020019531, Lat : -35.3629108, Lng : 149.1652796, Q1 : 0.986946940422, Q2 : 0.0085812266916, Q3 : -0.150638580322, Q4 : 0.0563039779663}
2019-04-03 23:53:41.21: SIM {TimeUS : 76034574, Roll : -0.03, Pitch : -17.37, Yaw : 6.52, Alt : 592.08001709, Lat : -35.3629066, Lng : 149.1652801, Q1 : 0.986935079098, Q2 : 0.0082724345848, Q3 : -0.150778532028, Q4 : 0.0561840236187}
2019-04-03 23:53:41.31: SIM {TimeUS : 76134534, Roll : -0.04, Pitch : -17.38, Yaw : 6.51, Alt : 592.140014648, Lat : -35.3629023, Lng : 149.1652808, Q1 : 0.986919939518, Q2 : 0.00815776456147, Q3 : -0.150920420885, Q4 : 0.0560851506889}
2019-04-03 23:53:41.41: SIM {TimeUS : 76234494, Roll : -0.04, Pitch : -17.4, Yaw : 6.5, Alt : 592.210021973, Lat : -35.362898, Lng : 149.1652814, Q1 : 0.986899614334, Q2 : 0.0081517053768, Q3 : -0.15108564496, Q4 : 0.0559986047447}
2019-04-03 23:53:41.51: SIM {TimeUS : 76334454, Roll : -0.03, Pitch : -17.42, Yaw : 6.49, Alt : 592.270019531, Lat : -35.3628938, Lng : 149.165282, Q1 : 0.986879229546, Q2 : 0.00825081206858, Q3 : -0.151240199804, Q4 : 0.055926349014}
2019-04-03 23:53:41.61: SIM {TimeUS : 76434414, Roll : 0.0, Pitch : -17.43, Yaw : 6.48, Alt : 592.33001709, Lat : -35.3628895, Lng : 149.1652825, Q1 : 0.986872494221, Q2 : 0.00850455090404, Q3 : -0.151286557317, Q4 : 0.055881831795}
2019-04-03 23:53:41.71: SIM {TimeUS : 76534374, Roll : 0.01, Pitch : -17.43, Yaw : 6.47, Alt : 592.390014648, Lat : -35.3628852, Lng : 149.1652833, Q1 : 0.986870467663, Q2 : 0.00867749936879, Q3 : -0.151308298111, Q4 : 0.0558321326971}
2019-04-03 23:53:41.81: SIM {TimeUS : 76634334, Roll : 0.01, Pitch : -17.43, Yaw : 6.46, Alt : 592.450012207, Lat : -35.3628809, Lng : 149.1652839, Q1 : 0.986869752407, Q2 : 0.00865275412798, Q3 : -0.151341304183, Q4 : 0.0557595416903}
