2019-04-03 20:18:44.20: SIM {TimeUS : 165816147, Roll : 0.0, Pitch : 0.0, Yaw : 353.0, Alt : 584.090026855, Lat : -35.363261, Lng : 149.1652299, Q1 : 0.998134791851, Q2 : 0.0, Q3 : 0.0, Q4 : -0.0610485821962}
2019-04-03 20:18:44.31: SIM {TimeUS : 165935266, Roll : 0.0, Pitch : 0.0, Yaw : 353.0, Alt : 584.090026855, Lat : -35.363261, Lng : 149.1652299, Q1 : 0.998134791851, Q2 : 0.0, Q3 : 0.0, Q4 : -0.0610485821962}
2019-04-03 20:18:44.41: SIM {TimeUS : 166035226, Roll : 0.0, Pitch : 0.0, Yaw : 353.0, Alt : 584.090026855, Lat : -35.363261, Lng : 149.1652299, Q1 : 0.998134791851, Q2 : 0.0, Q3 : 0.0, Q4 : -0.0610485821962}
2019-04-03 20:18:44.51: SIM {TimeUS : 166135186, Roll : 0.0, Pitch : 0.0, Yaw : 353.0, Alt : 584.090026855, Lat : -35.363261, Lng : 149.1652299, Q1 : 0.998134791851, Q2 : 0.0, Q3 : 0.0, Q4 : -0.0610485821962}
2019-04-03 20:18:44.61: SIM {TimeUS : 166235146, Roll : 0.0, Pitch : 0.0, Yaw : 353.0, Alt : 584.090026855, Lat : -35.363261, Lng : 149.1652299, Q1 : 0.998134791851, Q2 : 0.0, Q3 : 0.0, Q4 : -0.0610485821962}
2019-04-03 20:18:44.71: SIM {TimeUS : 166335106, Roll : 0.0, Pitch : 0.0, Yaw : 353.0, Alt : 584.090026855, Lat : -35.363261, Lng : 149.1652299, Q1 : 0.998134791851, Q2 : 0.0, Q3 : 0.0, Q4 : -0.0610485821962}
2019-04-03 20:18:44.81: SIM {TimeUS : 166435066, Roll : 0.0, Pitch : 0.0, Yaw : 353.0, Alt : 584.090026855, Lat : -35.363261, Lng : 149.1652299, Q1 : 0.998134791851, Q2 : 0.0, Q3 : 0.0, Q4 : -0.0610485821962}
2019-04-03 20:18:44.91: SIM {TimeUS : 166535026, Roll : 0.0, Pitch : 0.0, Yaw : 353.0, Alt : 584.090026855, Lat : -35.363261, Lng : 149.1652299, Q1 : 0.998134791851, Q2 : 0.0, Q3 : 0.0, Q4 : -0.0610485821962}
2019-04-03 20:18:45.01: SIM {TimeUS : 166634986, Roll : 0.0, Pitch : 0.0, Yaw : 353.0, Alt : 584.090026855, Lat : -35.363261, Lng : 149.1652299, Q1 : 0.998134791851, Q2 : 0.0, Q3 : 0.0, Q4 : -0.0610485821962}
2019-04-03 20:18:45.11: SIM {TimeUS : 166734946, Roll : 0.0, Pitch : 0.0, Yaw : 353.0, Alt : 584.090026855, Lat : -35.363261, Lng : 149.1652299, Q1 : 0.998134791851, Q2 : 0.0, Q3 : 0.0, Q4 : -0.0610485821962}
2019-04-03 20:18:45.21: SIM {TimeUS : 166834906, Roll : 0.0, Pitch : 0.0, Yaw : 353.0, Alt : 584.090026855, Lat : -35.363261, Lng : 149.1652299, Q1 : 0.998134791851, Q2 : 0.0, Q3 : 0.0, Q4 : -0.0610485821962}
2019-04-03 20:18:45.31: SIM {TimeUS : 166934866, Roll : 0.0, Pitch : 0.0, Yaw : 353.0, Alt : 584.090026855, Lat : -35.363261, Lng : 149.1652299, Q1 : 0.998134791851, Q2 : 0.0, Q3 : 0.0, Q4 : -0.0610485821962}
2019-04-03 20:18:45.41: SIM {TimeUS : 167034826, Roll : 0.0, Pitch : 0.0, Yaw : 353.0, Alt : 584.090026855, Lat : -35.363261, Lng : 149.1652299, Q1 : 0.998134791851, Q2 : 0.0, Q3 : 0.0, Q4 : -0.0610485821962}
2019-04-03 20:18:45.51: SIM {TimeUS : 167134786, Roll : 0.0, Pitch : 0.0, Yaw : 353.0, Alt : 584.090026855, Lat : -35.363261, Lng : 149.1652299, Q1 : 0.998134791851, Q2 : 0.0, Q3 : 0.0, Q4 : -0.0610485821962}
2019-04-03 20:18:45.61: SIM {TimeUS : 167234746, Roll : 0.0, Pitch : 0.0, Yaw : 353.0, Alt : 584.090026855, Lat : -35.363261, Lng : 149.1652299, Q1 : 0.998134791851, Q2 : 0.0, Q3 : 0.0, Q4 : -0.0610485821962}
2019-04-03 20:18:45.71: SIM {TimeUS : 167334706, Roll : 0.0, Pitch : 0.0, Yaw : 353.0, Alt : 584.090026855, Lat : -35.363261, Lng : 149.1652299, Q1 : 0.998134791851, Q2 : 0.0, Q3 : 0.0, Q4 : -0.0610485821962}
2019-04-03 20:18:45.81: SIM {TimeUS : 167434666, Roll : 0.0, Pitch : 0.0, Yaw : 353.0, Alt : 584.090026855, Lat : -35.363261, Lng : 149.1652299, Q1 : 0.998134791851, Q2 : 0.0, Q3 : 0.0, Q4 : -0.0610485821962}
2019-04-03 20:18:45.91: SIM {TimeUS : 167534626, Roll : 0.0, Pitch : 0.0, Yaw : 353.0, Alt : 584.090026855, Lat : -35.363261, Lng : 149.1652299, Q1 : 0.998134791851, Q2 : 0.0, Q3 : 0.0, Q4 : -0.0610485821962}
2019-04-03 20:18:46.01: SIM {TimeUS : 167634586, Roll : 0.0, Pitch : 0.0, Yaw : 353.0, Alt : 584.090026855, Lat : -35.363261, Lng : 149.1652299, Q1 : 0.998134791851, Q2 : 0.0, Q3 : 0.0, Q4 : -0.0610485821962}
2019-04-03 20:18:46.11: SIM {TimeUS : 167734546, Roll : 0.0, Pitch : 0.0, Yaw : 353.0, Alt : 584.090026855, Lat : -35.363261, Lng : 149.1652299, Q1 : 0.998134791851, Q2 : 0.0, Q3 : 0.0, Q4 : -0.0610485821962}
2019-04-03 20:18:46.21: SIM {TimeUS : 167834506, Roll : 0.0, Pitch : 0.0, Yaw : 353.0, Alt : 584.090026855, Lat : -35.363261, Lng : 149.1652299, Q1 : 0.998134791851, Q2 : 0.0, Q3 : 0.0, Q4 : -0.0610485821962}
2019-04-03 20:18:46.31: SIM {TimeUS : 167935299, Roll : 0.0, Pitch : 0.0, Yaw : 353.0, Alt : 584.090026855, Lat : -35.363261, Lng : 149.1652299, Q1 : 0.998134791851, Q2 : 0.0, Q3 : 0.0, Q4 : -0.0610485821962}
2019-04-03 20:18:46.41: SIM {TimeUS : 168035259, Roll : 0.0, Pitch : 0.0, Yaw : 353.0, Alt : 584.090026855, Lat : -35.363261, Lng : 149.1652299, Q1 : 0.998134791851, Q2 : 0.0, Q3 : 0.0, Q4 : -0.0610485821962}
2019-04-03 20:18:46.51: SIM {TimeUS : 168135219, Roll : 0.0, Pitch : 0.0, Yaw : 353.0, Alt : 584.090026855, Lat : -35.363261, Lng : 149.1652299, Q1 : 0.998134791851, Q2 : 0.0, Q3 : 0.0, Q4 : -0.0610485821962}
2019-04-03 20:18:46.61: SIM {TimeUS : 168235179, Roll : 0.0, Pitch : 0.0, Yaw : 353.0, Alt : 584.090026855, Lat : -35.363261, Lng : 149.1652299, Q1 : 0.998134791851, Q2 : 0.0, Q3 : 0.0, Q4 : -0.0610485821962}
2019-04-03 20:18:46.71: SIM {TimeUS : 168335139, Roll : 0.0, Pitch : 0.0, Yaw : 353.0, Alt : 584.090026855, Lat : -35.363261, Lng : 149.1652299, Q1 : 0.998134791851, Q2 : 0.0, Q3 : 0.0, Q4 : -0.0610485821962}
2019-04-03 20:18:46.81: SIM {TimeUS : 168435099, Roll : 0.0, Pitch : 0.0, Yaw : 353.0, Alt : 584.090026855, Lat : -35.363261, Lng : 149.1652299, Q1 : 0.998134791851, Q2 : 0.0, Q3 : 0.0, Q4 : -0.0610485821962}
2019-04-03 20:18:46.91: SIM {TimeUS : 168535059, Roll : 0.0, Pitch : 0.0, Yaw : 353.0, Alt : 584.090026855, Lat : -35.363261, Lng : 149.1652299, Q1 : 0.998134791851, Q2 : 0.0, Q3 : 0.0, Q4 : -0.0610485821962}
2019-04-03 20:18:47.01: SIM {TimeUS : 168635019, Roll : 0.0, Pitch : 0.0, Yaw : 353.0, Alt : 584.090026855, Lat : -35.363261, Lng : 149.1652299, Q1 : 0.998134791851, Q2 : 0.0, Q3 : 0.0, Q4 : -0.0610485821962}
2019-04-03 20:18:47.11: SIM {TimeUS : 168734979, Roll : 0.0, Pitch : 0.0, Yaw : 353.0, Alt : 584.090026855, Lat : -35.363261, Lng : 149.1652299, Q1 : 0.998134791851, Q2 : 0.0, Q3 : 0.0, Q4 : -0.0610485821962}
2019-04-03 20:18:47.21: SIM {TimeUS : 168834939, Roll : 0.0, Pitch : 0.0, Yaw : 353.0, Alt : 584.090026855, Lat : -35.363261, Lng : 149.1652299, Q1 : 0.998134791851, Q2 : 0.0, Q3 : 0.0, Q4 : -0.0610485821962}
2019-04-03 20:18:47.31: SIM {TimeUS : 168934899, Roll : 0.0, Pitch : 0.0, Yaw : 353.0, Alt : 584.090026855, Lat : -35.363261, Lng : 149.1652299, Q1 : 0.998134791851, Q2 : 0.0, Q3 : 0.0, Q4 : -0.0610485821962}
2019-04-03 20:18:47.41: SIM {TimeUS : 169034859, Roll : 0.0, Pitch : 0.0, Yaw : 353.0, Alt : 584.090026855, Lat : -35.363261, Lng : 149.1652299, Q1 : 0.998134791851, Q2 : 0.0, Q3 : 0.0, Q4 : -0.0610485821962}
2019-04-03 20:18:47.51: SIM {TimeUS : 169134819, Roll : 0.0, Pitch : 0.0, Yaw : 353.0, Alt : 584.090026855, Lat : -35.363261, Lng : 149.1652299, Q1 : 0.998134791851, Q2 : 0.0, Q3 : 0.0, Q4 : -0.0610485821962}
2019-04-03 20:18:47.61: SIM {TimeUS : 169234779, Roll : 0.0, Pitch : 0.0, Yaw : 353.0, Alt : 584.090026855, Lat : -35.363261, Lng : 149.1652299, Q1 : 0.998134791851, Q2 : 0.0, Q3 : 0.0, Q4 : -0.0610485821962}
2019-04-03 20:18:47.71: SIM {TimeUS : 169334739, Roll : 0.0, Pitch : 0.0, Yaw : 353.0, Alt : 584.090026855, Lat : -35.363261, Lng : 149.1652299, Q1 : 0.998134791851, Q2 : 0.0, Q3 : 0.0, Q4 : -0.0610485821962}
2019-04-03 20:18:47.81: SIM {TimeUS : 169434699, Roll : 0.0, Pitch : 0.0, Yaw : 353.0, Alt : 584.090026855, Lat : -35.363261, Lng : 149.1652299, Q1 : 0.998134791851, Q2 : 0.0, Q3 : 0.0, Q4 : -0.0610485821962}
2019-04-03 20:18:47.91: SIM {TimeUS : 169534659, Roll : 0.0, Pitch : 0.0, Yaw : 353.0, Alt : 584.090026855, Lat : -35.363261, Lng : 149.1652299, Q1 : 0.998134791851, Q2 : 0.0, Q3 : 0.0, Q4 : -0.0610485821962}
2019-04-03 20:18:48.01: SIM {TimeUS : 169634619, Roll : 0.0, Pitch : 0.0, Yaw : 353.0, Alt : 584.090026855, Lat : -35.363261, Lng : 149.1652299, Q1 : 0.998134791851, Q2 : 0.0, Q3 : 0.0, Q4 : -0.0610485821962}
2019-04-03 20:18:48.11: SIM {TimeUS : 169734579, Roll : 0.0, Pitch : 0.0, Yaw : 353.0, Alt : 584.090026855, Lat : -35.363261, Lng : 149.1652299, Q1 : 0.998134791851, Q2 : 0.0, Q3 : 0.0, Q4 : -0.0610485821962}
2019-04-03 20:18:48.21: SIM {TimeUS : 169834539, Roll : 0.0, Pitch : 0.0, Yaw : 353.0, Alt : 584.090026855, Lat : -35.363261, Lng : 149.1652299, Q1 : 0.998134791851, Q2 : 0.0, Q3 : 0.0, Q4 : -0.0610485821962}
2019-04-03 20:18:48.31: SIM {TimeUS : 169934499, Roll : 0.0, Pitch : 0.0, Yaw : 353.0, Alt : 584.090026855, Lat : -35.363261, Lng : 149.1652299, Q1 : 0.998134791851, Q2 : 0.0, Q3 : 0.0, Q4 : -0.0610485821962}
2019-04-03 20:18:48.41: SIM {TimeUS : 170035292, Roll : 0.0, Pitch : 0.0, Yaw : 353.0, Alt : 584.090026855, Lat : -35.363261, Lng : 149.1652299, Q1 : 0.998134791851, Q2 : 0.0, Q3 : 0.0, Q4 : -0.0610485821962}
2019-04-03 20:18:48.51: SIM {TimeUS : 170135252, Roll : 0.0, Pitch : 0.0, Yaw : 353.0, Alt : 584.090026855, Lat : -35.363261, Lng : 149.1652299, Q1 : 0.998134791851, Q2 : 0.0, Q3 : 0.0, Q4 : -0.0610485821962}
2019-04-03 20:18:48.61: SIM {TimeUS : 170235212, Roll : 0.0, Pitch : 0.0, Yaw : 353.0, Alt : 584.090026855, Lat : -35.363261, Lng : 149.1652299, Q1 : 0.998134791851, Q2 : 0.0, Q3 : 0.0, Q4 : -0.0610485821962}
2019-04-03 20:18:48.71: SIM {TimeUS : 170335172, Roll : 0.0, Pitch : 0.0, Yaw : 353.0, Alt : 584.090026855, Lat : -35.363261, Lng : 149.1652299, Q1 : 0.998134791851, Q2 : 0.0, Q3 : 0.0, Q4 : -0.0610485821962}
2019-04-03 20:18:48.81: SIM {TimeUS : 170435132, Roll : 0.0, Pitch : 0.0, Yaw : 353.0, Alt : 584.090026855, Lat : -35.363261, Lng : 149.1652299, Q1 : 0.998134791851, Q2 : 0.0, Q3 : 0.0, Q4 : -0.0610485821962}
2019-04-03 20:18:48.91: SIM {TimeUS : 170535092, Roll : 0.0, Pitch : 0.0, Yaw : 353.0, Alt : 584.090026855, Lat : -35.363261, Lng : 149.1652299, Q1 : 0.998134791851, Q2 : 0.0, Q3 : 0.0, Q4 : -0.0610485821962}
2019-04-03 20:18:49.01: SIM {TimeUS : 170635052, Roll : 0.0, Pitch : 0.0, Yaw : 353.0, Alt : 584.090026855, Lat : -35.363261, Lng : 149.1652299, Q1 : 0.998134791851, Q2 : 0.0, Q3 : 0.0, Q4 : -0.0610485821962}
2019-04-03 20:18:49.11: SIM {TimeUS : 170735012, Roll : 0.0, Pitch : 0.0, Yaw : 353.0, Alt : 584.090026855, Lat : -35.363261, Lng : 149.1652299, Q1 : 0.998134791851, Q2 : 0.0, Q3 : 0.0, Q4 : -0.0610485821962}
2019-04-03 20:18:49.21: SIM {TimeUS : 170834972, Roll : 0.0, Pitch : 0.0, Yaw : 353.0, Alt : 584.090026855, Lat : -35.363261, Lng : 149.1652299, Q1 : 0.998134791851, Q2 : 0.0, Q3 : 0.0, Q4 : -0.0610485821962}
2019-04-03 20:18:49.31: SIM {TimeUS : 170934932, Roll : 0.0, Pitch : 0.0, Yaw : 353.0, Alt : 584.090026855, Lat : -35.363261, Lng : 149.1652299, Q1 : 0.998134791851, Q2 : 0.0, Q3 : 0.0, Q4 : -0.0610485821962}
2019-04-03 20:18:49.41: SIM {TimeUS : 171034892, Roll : 0.0, Pitch : 0.0, Yaw : 353.0, Alt : 584.090026855, Lat : -35.363261, Lng : 149.1652299, Q1 : 0.998134791851, Q2 : 0.0, Q3 : 0.0, Q4 : -0.0610485821962}
2019-04-03 20:18:49.51: SIM {TimeUS : 171134852, Roll : 0.0, Pitch : 0.0, Yaw : 353.0, Alt : 584.090026855, Lat : -35.363261, Lng : 149.1652299, Q1 : 0.998134791851, Q2 : 0.0, Q3 : 0.0, Q4 : -0.0610485821962}
2019-04-03 20:18:49.61: SIM {TimeUS : 171234812, Roll : 0.0, Pitch : 0.0, Yaw : 353.0, Alt : 584.090026855, Lat : -35.363261, Lng : 149.1652299, Q1 : 0.998134791851, Q2 : 0.0, Q3 : 0.0, Q4 : -0.0610485821962}
2019-04-03 20:18:49.71: SIM {TimeUS : 171334772, Roll : 0.0, Pitch : 0.0, Yaw : 353.0, Alt : 584.090026855, Lat : -35.363261, Lng : 149.1652299, Q1 : 0.998134791851, Q2 : 0.0, Q3 : 0.0, Q4 : -0.0610485821962}
2019-04-03 20:18:49.81: SIM {TimeUS : 171434732, Roll : 0.0, Pitch : 0.0, Yaw : 353.0, Alt : 584.090026855, Lat : -35.363261, Lng : 149.1652299, Q1 : 0.998134791851, Q2 : 0.0, Q3 : 0.0, Q4 : -0.0610485821962}
2019-04-03 20:18:49.91: SIM {TimeUS : 171534692, Roll : 0.0, Pitch : 0.0, Yaw : 353.0, Alt : 584.090026855, Lat : -35.363261, Lng : 149.1652299, Q1 : 0.998134791851, Q2 : 0.0, Q3 : 0.0, Q4 : -0.0610485821962}
2019-04-03 20:18:50.01: SIM {TimeUS : 171634652, Roll : 0.0, Pitch : 0.0, Yaw : 353.0, Alt : 584.090026855, Lat : -35.363261, Lng : 149.1652299, Q1 : 0.998134791851, Q2 : 0.0, Q3 : 0.0, Q4 : -0.0610485821962}
2019-04-03 20:18:50.11: SIM {TimeUS : 171734612, Roll : 0.0, Pitch : 0.0, Yaw : 353.0, Alt : 584.090026855, Lat : -35.363261, Lng : 149.1652299, Q1 : 0.998134791851, Q2 : 0.0, Q3 : 0.0, Q4 : -0.0610485821962}
2019-04-03 20:18:50.21: SIM {TimeUS : 171834572, Roll : 0.0, Pitch : 0.0, Yaw : 353.0, Alt : 584.090026855, Lat : -35.363261, Lng : 149.1652299, Q1 : 0.998134791851, Q2 : 0.0, Q3 : 0.0, Q4 : -0.0610485821962}
2019-04-03 20:18:50.31: SIM {TimeUS : 171934532, Roll : 0.0, Pitch : 0.0, Yaw : 353.0, Alt : 584.090026855, Lat : -35.363261, Lng : 149.1652299, Q1 : 0.998134791851, Q2 : 0.0, Q3 : 0.0, Q4 : -0.0610485821962}
2019-04-03 20:18:50.41: SIM {TimeUS : 172034492, Roll : 0.0, Pitch : 0.0, Yaw : 353.0, Alt : 584.090026855, Lat : -35.363261, Lng : 149.1652299, Q1 : 0.998134791851, Q2 : 0.0, Q3 : 0.0, Q4 : -0.0610485821962}
2019-04-03 20:18:50.51: SIM {TimeUS : 172135285, Roll : 0.0, Pitch : 0.0, Yaw : 353.0, Alt : 584.090026855, Lat : -35.363261, Lng : 149.1652299, Q1 : 0.998134791851, Q2 : 0.0, Q3 : 0.0, Q4 : -0.0610485821962}
2019-04-03 20:18:50.61: SIM {TimeUS : 172235245, Roll : 0.0, Pitch : 0.0, Yaw : 353.0, Alt : 584.090026855, Lat : -35.363261, Lng : 149.1652299, Q1 : 0.998134791851, Q2 : 0.0, Q3 : 0.0, Q4 : -0.0610485821962}
2019-04-03 20:18:50.71: SIM {TimeUS : 172335205, Roll : 0.0, Pitch : 0.0, Yaw : 353.0, Alt : 584.090026855, Lat : -35.363261, Lng : 149.1652299, Q1 : 0.998134791851, Q2 : 0.0, Q3 : 0.0, Q4 : -0.0610485821962}
2019-04-03 20:18:50.81: SIM {TimeUS : 172435165, Roll : 0.0, Pitch : 0.0, Yaw : 353.0, Alt : 584.090026855, Lat : -35.363261, Lng : 149.1652299, Q1 : 0.998134791851, Q2 : 0.0, Q3 : 0.0, Q4 : -0.0610485821962}
2019-04-03 20:18:50.91: SIM {TimeUS : 172535125, Roll : 0.0, Pitch : 0.0, Yaw : 353.0, Alt : 584.090026855, Lat : -35.363261, Lng : 149.1652299, Q1 : 0.998134791851, Q2 : 0.0, Q3 : 0.0, Q4 : -0.0610485821962}
2019-04-03 20:18:51.01: SIM {TimeUS : 172635085, Roll : 0.0, Pitch : 0.0, Yaw : 353.0, Alt : 584.090026855, Lat : -35.363261, Lng : 149.1652299, Q1 : 0.998134791851, Q2 : 0.0, Q3 : 0.0, Q4 : -0.0610485821962}
2019-04-03 20:18:51.11: SIM {TimeUS : 172735045, Roll : 0.0, Pitch : 0.0, Yaw : 353.0, Alt : 584.090026855, Lat : -35.363261, Lng : 149.1652299, Q1 : 0.998134791851, Q2 : 0.0, Q3 : 0.0, Q4 : -0.0610485821962}
2019-04-03 20:18:51.21: SIM {TimeUS : 172835005, Roll : 0.0, Pitch : 0.0, Yaw : 353.0, Alt : 584.090026855, Lat : -35.363261, Lng : 149.1652299, Q1 : 0.998134791851, Q2 : 0.0, Q3 : 0.0, Q4 : -0.0610485821962}
2019-04-03 20:18:51.31: SIM {TimeUS : 172934965, Roll : 0.0, Pitch : 0.0, Yaw : 353.0, Alt : 584.090026855, Lat : -35.363261, Lng : 149.1652299, Q1 : 0.998134791851, Q2 : 0.0, Q3 : 0.0, Q4 : -0.0610485821962}
2019-04-03 20:18:51.41: SIM {TimeUS : 173034925, Roll : 0.0, Pitch : 0.0, Yaw : 353.0, Alt : 584.090026855, Lat : -35.363261, Lng : 149.1652299, Q1 : 0.998134791851, Q2 : 0.0, Q3 : 0.0, Q4 : -0.0610485821962}
2019-04-03 20:18:51.51: SIM {TimeUS : 173134885, Roll : 0.0, Pitch : 0.0, Yaw : 353.0, Alt : 584.090026855, Lat : -35.363261, Lng : 149.1652299, Q1 : 0.998134791851, Q2 : 0.0, Q3 : 0.0, Q4 : -0.0610485821962}
2019-04-03 20:18:51.61: SIM {TimeUS : 173234845, Roll : 0.0, Pitch : 0.0, Yaw : 353.0, Alt : 584.090026855, Lat : -35.363261, Lng : 149.1652299, Q1 : 0.998134791851, Q2 : 0.0, Q3 : 0.0, Q4 : -0.0610485821962}
2019-04-03 20:18:51.71: SIM {TimeUS : 173334805, Roll : 0.0, Pitch : 0.0, Yaw : 353.0, Alt : 584.090026855, Lat : -35.363261, Lng : 149.1652299, Q1 : 0.998134791851, Q2 : 0.0, Q3 : 0.0, Q4 : -0.0610485821962}
2019-04-03 20:18:51.81: SIM {TimeUS : 173434765, Roll : 0.0, Pitch : 0.0, Yaw : 353.0, Alt : 584.090026855, Lat : -35.363261, Lng : 149.1652299, Q1 : 0.998134791851, Q2 : 0.0, Q3 : 0.0, Q4 : -0.0610485821962}
2019-04-03 20:18:51.91: SIM {TimeUS : 173534725, Roll : 0.0, Pitch : 0.0, Yaw : 353.0, Alt : 584.090026855, Lat : -35.363261, Lng : 149.1652299, Q1 : 0.998134791851, Q2 : 0.0, Q3 : 0.0, Q4 : -0.0610485821962}
2019-04-03 20:18:52.01: SIM {TimeUS : 173634685, Roll : 0.0, Pitch : 0.0, Yaw : 353.0, Alt : 584.090026855, Lat : -35.363261, Lng : 149.1652299, Q1 : 0.998134791851, Q2 : 0.0, Q3 : 0.0, Q4 : -0.0610485821962}
2019-04-03 20:18:52.11: SIM {TimeUS : 173734645, Roll : 0.0, Pitch : 0.0, Yaw : 353.0, Alt : 584.090026855, Lat : -35.363261, Lng : 149.1652299, Q1 : 0.998134791851, Q2 : 0.0, Q3 : 0.0, Q4 : -0.0610485821962}
2019-04-03 20:18:52.21: SIM {TimeUS : 173834605, Roll : 0.0, Pitch : 0.0, Yaw : 353.0, Alt : 584.090026855, Lat : -35.363261, Lng : 149.1652299, Q1 : 0.998134791851, Q2 : 0.0, Q3 : 0.0, Q4 : -0.0610485821962}
2019-04-03 20:18:52.31: SIM {TimeUS : 173934565, Roll : 0.0, Pitch : 0.0, Yaw : 353.0, Alt : 584.090026855, Lat : -35.363261, Lng : 149.1652299, Q1 : 0.998134791851, Q2 : 0.0, Q3 : 0.0, Q4 : -0.0610485821962}
2019-04-03 20:18:52.41: SIM {TimeUS : 174034525, Roll : 0.0, Pitch : 0.0, Yaw : 353.0, Alt : 584.090026855, Lat : -35.363261, Lng : 149.1652299, Q1 : 0.998134791851, Q2 : 0.0, Q3 : 0.0, Q4 : -0.0610485821962}
2019-04-03 20:18:52.51: SIM {TimeUS : 174134485, Roll : 0.0, Pitch : 0.0, Yaw : 353.0, Alt : 584.090026855, Lat : -35.363261, Lng : 149.1652299, Q1 : 0.998134791851, Q2 : 0.0, Q3 : 0.0, Q4 : -0.0610485821962}
2019-04-03 20:18:52.61: SIM {TimeUS : 174235278, Roll : 0.0, Pitch : 0.0, Yaw : 353.0, Alt : 584.090026855, Lat : -35.363261, Lng : 149.1652299, Q1 : 0.998134791851, Q2 : 0.0, Q3 : 0.0, Q4 : -0.0610485821962}
2019-04-03 20:18:52.71: SIM {TimeUS : 174335238, Roll : 0.0, Pitch : 0.0, Yaw : 353.0, Alt : 584.090026855, Lat : -35.363261, Lng : 149.1652299, Q1 : 0.998134791851, Q2 : 0.0, Q3 : 0.0, Q4 : -0.0610485821962}
2019-04-03 20:18:52.81: SIM {TimeUS : 174435198, Roll : 0.0, Pitch : 0.0, Yaw : 353.0, Alt : 584.090026855, Lat : -35.363261, Lng : 149.1652299, Q1 : 0.998134791851, Q2 : 0.0, Q3 : 0.0, Q4 : -0.0610485821962}
2019-04-03 20:18:52.91: SIM {TimeUS : 174535158, Roll : 0.0, Pitch : 0.0, Yaw : 353.0, Alt : 584.090026855, Lat : -35.363261, Lng : 149.1652299, Q1 : 0.998134791851, Q2 : 0.0, Q3 : 0.0, Q4 : -0.0610485821962}
2019-04-03 20:18:53.01: SIM {TimeUS : 174635118, Roll : 0.0, Pitch : 0.0, Yaw : 353.0, Alt : 584.090026855, Lat : -35.363261, Lng : 149.1652299, Q1 : 0.998134791851, Q2 : 0.0, Q3 : 0.0, Q4 : -0.0610485821962}
2019-04-03 20:18:53.11: SIM {TimeUS : 174735078, Roll : 0.0, Pitch : 0.0, Yaw : 353.0, Alt : 584.090026855, Lat : -35.363261, Lng : 149.1652299, Q1 : 0.998134791851, Q2 : 0.0, Q3 : 0.0, Q4 : -0.0610485821962}
2019-04-03 20:18:53.21: SIM {TimeUS : 174835038, Roll : 0.0, Pitch : 0.0, Yaw : 353.0, Alt : 584.090026855, Lat : -35.363261, Lng : 149.1652299, Q1 : 0.998134791851, Q2 : 0.0, Q3 : 0.0, Q4 : -0.0610485821962}
2019-04-03 20:18:53.31: SIM {TimeUS : 174934998, Roll : 0.0, Pitch : 0.0, Yaw : 353.0, Alt : 584.090026855, Lat : -35.363261, Lng : 149.1652299, Q1 : 0.998134791851, Q2 : 0.0, Q3 : 0.0, Q4 : -0.0610485821962}
2019-04-03 20:18:53.41: SIM {TimeUS : 175034958, Roll : 0.0, Pitch : 0.0, Yaw : 353.0, Alt : 584.090026855, Lat : -35.363261, Lng : 149.1652299, Q1 : 0.998134791851, Q2 : 0.0, Q3 : 0.0, Q4 : -0.0610485821962}
2019-04-03 20:18:53.51: SIM {TimeUS : 175134918, Roll : 0.0, Pitch : 0.0, Yaw : 353.0, Alt : 584.090026855, Lat : -35.363261, Lng : 149.1652299, Q1 : 0.998134791851, Q2 : 0.0, Q3 : 0.0, Q4 : -0.0610485821962}
2019-04-03 20:18:53.61: SIM {TimeUS : 175234878, Roll : 0.0, Pitch : 0.0, Yaw : 353.0, Alt : 584.090026855, Lat : -35.363261, Lng : 149.1652299, Q1 : 0.998134791851, Q2 : 0.0, Q3 : 0.0, Q4 : -0.0610485821962}
2019-04-03 20:18:53.71: SIM {TimeUS : 175334838, Roll : 0.0, Pitch : 0.0, Yaw : 353.0, Alt : 584.090026855, Lat : -35.363261, Lng : 149.1652299, Q1 : 0.998134791851, Q2 : 0.0, Q3 : 0.0, Q4 : -0.0610485821962}
2019-04-03 20:18:53.81: SIM {TimeUS : 175434798, Roll : 0.0, Pitch : 0.0, Yaw : 353.0, Alt : 584.090026855, Lat : -35.363261, Lng : 149.1652299, Q1 : 0.998134791851, Q2 : 0.0, Q3 : 0.0, Q4 : -0.0610485821962}
2019-04-03 20:18:53.91: SIM {TimeUS : 175534758, Roll : 0.0, Pitch : 0.0, Yaw : 353.0, Alt : 584.090026855, Lat : -35.363261, Lng : 149.1652299, Q1 : 0.998134791851, Q2 : 0.0, Q3 : 0.0, Q4 : -0.0610485821962}
2019-04-03 20:18:54.01: SIM {TimeUS : 175634718, Roll : 0.0, Pitch : 0.0, Yaw : 353.0, Alt : 584.090026855, Lat : -35.363261, Lng : 149.1652299, Q1 : 0.998134791851, Q2 : 0.0, Q3 : 0.0, Q4 : -0.0610485821962}
2019-04-03 20:18:56.31: SIM {TimeUS : 177934631, Roll : 0.0, Pitch : 0.0, Yaw : 353.0, Alt : 584.090026855, Lat : -35.363261, Lng : 149.1652299, Q1 : 0.998134791851, Q2 : 0.0, Q3 : 0.0, Q4 : -0.0610485821962}
2019-04-03 20:18:56.41: SIM {TimeUS : 178034591, Roll : 0.0, Pitch : 0.0, Yaw : 353.0, Alt : 584.090026855, Lat : -35.363261, Lng : 149.1652299, Q1 : 0.998134791851, Q2 : 0.0, Q3 : 0.0, Q4 : -0.0610485821962}
2019-04-03 20:18:56.51: SIM {TimeUS : 178134551, Roll : 0.0, Pitch : 0.0, Yaw : 353.0, Alt : 584.090026855, Lat : -35.363261, Lng : 149.1652299, Q1 : 0.998134791851, Q2 : 0.0, Q3 : 0.0, Q4 : -0.0610485821962}
2019-04-03 20:18:56.61: SIM {TimeUS : 178234511, Roll : 0.0, Pitch : 0.0, Yaw : 353.0, Alt : 584.090026855, Lat : -35.363261, Lng : 149.1652299, Q1 : 0.998134791851, Q2 : 0.0, Q3 : 0.0, Q4 : -0.0610485821962}
2019-04-03 20:18:56.71: SIM {TimeUS : 178335304, Roll : 0.0, Pitch : 0.0, Yaw : 353.0, Alt : 584.090026855, Lat : -35.363261, Lng : 149.1652299, Q1 : 0.998134791851, Q2 : 0.0, Q3 : 0.0, Q4 : -0.0610485821962}
2019-04-03 20:18:56.81: SIM {TimeUS : 178435264, Roll : 0.0, Pitch : 0.0, Yaw : 353.0, Alt : 584.090026855, Lat : -35.363261, Lng : 149.1652299, Q1 : 0.998134791851, Q2 : 0.0, Q3 : 0.0, Q4 : -0.0610485821962}
2019-04-03 20:18:56.91: SIM {TimeUS : 178535224, Roll : 0.0, Pitch : 0.0, Yaw : 353.0, Alt : 584.090026855, Lat : -35.363261, Lng : 149.1652299, Q1 : 0.998134791851, Q2 : 0.0, Q3 : 0.0, Q4 : -0.0610485821962}
2019-04-03 20:18:57.01: SIM {TimeUS : 178635184, Roll : 0.0, Pitch : 0.0, Yaw : 353.0, Alt : 584.090026855, Lat : -35.363261, Lng : 149.1652299, Q1 : 0.998134791851, Q2 : 0.0, Q3 : 0.0, Q4 : -0.0610485821962}
2019-04-03 20:18:57.11: SIM {TimeUS : 178735144, Roll : 0.0, Pitch : 0.0, Yaw : 353.0, Alt : 584.090026855, Lat : -35.363261, Lng : 149.1652299, Q1 : 0.998134791851, Q2 : 0.0, Q3 : 0.0, Q4 : -0.0610485821962}
2019-04-03 20:18:57.21: SIM {TimeUS : 178835104, Roll : 0.0, Pitch : 0.0, Yaw : 353.0, Alt : 584.090026855, Lat : -35.363261, Lng : 149.1652299, Q1 : 0.998134791851, Q2 : 0.0, Q3 : 0.0, Q4 : -0.0610485821962}
2019-04-03 20:18:57.31: SIM {TimeUS : 178935064, Roll : 0.0, Pitch : 0.0, Yaw : 353.0, Alt : 584.090026855, Lat : -35.363261, Lng : 149.1652299, Q1 : 0.998134791851, Q2 : 0.0, Q3 : 0.0, Q4 : -0.0610485821962}
2019-04-03 20:18:57.41: SIM {TimeUS : 179035024, Roll : 0.0, Pitch : 0.0, Yaw : 353.0, Alt : 584.090026855, Lat : -35.363261, Lng : 149.1652299, Q1 : 0.998134791851, Q2 : 0.0, Q3 : 0.0, Q4 : -0.0610485821962}
2019-04-03 20:18:57.51: SIM {TimeUS : 179134984, Roll : 0.0, Pitch : 0.0, Yaw : 353.0, Alt : 584.090026855, Lat : -35.363261, Lng : 149.1652299, Q1 : 0.998134791851, Q2 : 0.0, Q3 : 0.0, Q4 : -0.0610485821962}
2019-04-03 20:18:57.61: SIM {TimeUS : 179234944, Roll : 0.0, Pitch : 0.0, Yaw : 353.0, Alt : 584.090026855, Lat : -35.363261, Lng : 149.1652299, Q1 : 0.998134791851, Q2 : 0.0, Q3 : 0.0, Q4 : -0.0610485821962}
2019-04-03 20:18:57.71: SIM {TimeUS : 179334904, Roll : 0.0, Pitch : 0.0, Yaw : 353.0, Alt : 584.090026855, Lat : -35.363261, Lng : 149.1652299, Q1 : 0.998134791851, Q2 : 0.0, Q3 : 0.0, Q4 : -0.0610485821962}
2019-04-03 20:18:57.81: SIM {TimeUS : 179434864, Roll : 0.0, Pitch : 0.0, Yaw : 353.0, Alt : 584.090026855, Lat : -35.363261, Lng : 149.1652299, Q1 : 0.998134791851, Q2 : 0.0, Q3 : 0.0, Q4 : -0.0610485821962}
2019-04-03 20:18:57.91: SIM {TimeUS : 179534824, Roll : 0.0, Pitch : 0.0, Yaw : 353.0, Alt : 584.090026855, Lat : -35.363261, Lng : 149.1652299, Q1 : 0.998134791851, Q2 : 0.0, Q3 : 0.0, Q4 : -0.0610485821962}
2019-04-03 20:18:58.01: SIM {TimeUS : 179634784, Roll : 0.0, Pitch : 0.0, Yaw : 353.0, Alt : 584.090026855, Lat : -35.363261, Lng : 149.1652299, Q1 : 0.998134791851, Q2 : 0.0, Q3 : 0.0, Q4 : -0.0610485821962}
2019-04-03 20:18:58.11: SIM {TimeUS : 179734744, Roll : 0.0, Pitch : 0.0, Yaw : 353.0, Alt : 584.090026855, Lat : -35.363261, Lng : 149.1652299, Q1 : 0.998134791851, Q2 : 0.0, Q3 : 0.0, Q4 : -0.0610485821962}
2019-04-03 20:18:58.21: SIM {TimeUS : 179834704, Roll : 0.0, Pitch : 0.0, Yaw : 353.0, Alt : 584.090026855, Lat : -35.363261, Lng : 149.1652299, Q1 : 0.998134791851, Q2 : 0.0, Q3 : 0.0, Q4 : -0.0610485821962}
2019-04-03 20:18:58.31: SIM {TimeUS : 179934664, Roll : 0.0, Pitch : 0.0, Yaw : 353.0, Alt : 584.090026855, Lat : -35.363261, Lng : 149.1652299, Q1 : 0.998134791851, Q2 : 0.0, Q3 : 0.0, Q4 : -0.0610485821962}
2019-04-03 20:18:58.41: SIM {TimeUS : 180034624, Roll : 0.0, Pitch : 0.0, Yaw : 353.0, Alt : 584.090026855, Lat : -35.363261, Lng : 149.1652299, Q1 : 0.998134791851, Q2 : 0.0, Q3 : 0.0, Q4 : -0.0610485821962}
2019-04-03 20:18:58.51: SIM {TimeUS : 180134584, Roll : 0.0, Pitch : 0.0, Yaw : 353.0, Alt : 584.090026855, Lat : -35.363261, Lng : 149.1652299, Q1 : 0.998134791851, Q2 : 0.0, Q3 : 0.0, Q4 : -0.0610485821962}
2019-04-03 20:18:58.61: SIM {TimeUS : 180234544, Roll : 0.0, Pitch : 0.0, Yaw : 353.0, Alt : 584.090026855, Lat : -35.363261, Lng : 149.1652299, Q1 : 0.998134791851, Q2 : 0.0, Q3 : 0.0, Q4 : -0.0610485821962}
2019-04-03 20:18:58.71: SIM {TimeUS : 180334504, Roll : 0.0, Pitch : 0.0, Yaw : 353.0, Alt : 584.090026855, Lat : -35.363261, Lng : 149.1652299, Q1 : 0.998134791851, Q2 : 0.0, Q3 : 0.0, Q4 : -0.0610485821962}
2019-04-03 20:18:58.81: SIM {TimeUS : 180435297, Roll : 0.0, Pitch : 0.0, Yaw : 353.0, Alt : 584.090026855, Lat : -35.363261, Lng : 149.1652299, Q1 : 0.998134791851, Q2 : 0.0, Q3 : 0.0, Q4 : -0.0610485821962}
2019-04-03 20:18:58.91: SIM {TimeUS : 180535257, Roll : 0.0, Pitch : 0.0, Yaw : 353.0, Alt : 584.090026855, Lat : -35.363261, Lng : 149.1652299, Q1 : 0.998134791851, Q2 : 0.0, Q3 : 0.0, Q4 : -0.0610485821962}
2019-04-03 20:18:59.01: SIM {TimeUS : 180635217, Roll : 0.0, Pitch : 0.0, Yaw : 353.0, Alt : 584.090026855, Lat : -35.363261, Lng : 149.1652299, Q1 : 0.998134791851, Q2 : 0.0, Q3 : 0.0, Q4 : -0.0610485821962}
2019-04-03 20:18:59.11: SIM {TimeUS : 180735177, Roll : 0.0, Pitch : 0.0, Yaw : 353.0, Alt : 584.090026855, Lat : -35.363261, Lng : 149.1652299, Q1 : 0.998134791851, Q2 : 0.0, Q3 : 0.0, Q4 : -0.0610485821962}
2019-04-03 20:18:59.21: SIM {TimeUS : 180835137, Roll : 0.0, Pitch : 0.0, Yaw : 353.0, Alt : 584.090026855, Lat : -35.363261, Lng : 149.1652299, Q1 : 0.998134791851, Q2 : 0.0, Q3 : 0.0, Q4 : -0.0610485821962}
2019-04-03 20:18:59.31: SIM {TimeUS : 180935097, Roll : 0.0, Pitch : 0.0, Yaw : 353.0, Alt : 584.090026855, Lat : -35.363261, Lng : 149.1652299, Q1 : 0.998134791851, Q2 : 0.0, Q3 : 0.0, Q4 : -0.0610485821962}
2019-04-03 20:18:59.41: SIM {TimeUS : 181035057, Roll : 0.0, Pitch : 0.0, Yaw : 353.0, Alt : 584.090026855, Lat : -35.363261, Lng : 149.1652299, Q1 : 0.998134791851, Q2 : 0.0, Q3 : 0.0, Q4 : -0.0610485821962}
2019-04-03 20:18:59.51: SIM {TimeUS : 181135017, Roll : 0.0, Pitch : 0.0, Yaw : 353.0, Alt : 584.090026855, Lat : -35.363261, Lng : 149.1652299, Q1 : 0.998134791851, Q2 : 0.0, Q3 : 0.0, Q4 : -0.0610485821962}
2019-04-03 20:18:59.61: SIM {TimeUS : 181234977, Roll : 0.0, Pitch : 0.0, Yaw : 353.0, Alt : 584.090026855, Lat : -35.363261, Lng : 149.1652299, Q1 : 0.998134791851, Q2 : 0.0, Q3 : 0.0, Q4 : -0.0610485821962}
2019-04-03 20:18:59.71: SIM {TimeUS : 181334937, Roll : 0.0, Pitch : 0.0, Yaw : 353.0, Alt : 584.090026855, Lat : -35.363261, Lng : 149.1652299, Q1 : 0.998134791851, Q2 : 0.0, Q3 : 0.0, Q4 : -0.0610485821962}
2019-04-03 20:18:59.81: SIM {TimeUS : 181434897, Roll : 0.0, Pitch : 0.0, Yaw : 353.0, Alt : 584.090026855, Lat : -35.363261, Lng : 149.1652299, Q1 : 0.998134791851, Q2 : 0.0, Q3 : 0.0, Q4 : -0.0610485821962}
2019-04-03 20:18:59.91: SIM {TimeUS : 181534857, Roll : 0.0, Pitch : 0.0, Yaw : 353.0, Alt : 584.090026855, Lat : -35.363261, Lng : 149.1652299, Q1 : 0.998134791851, Q2 : 0.0, Q3 : 0.0, Q4 : -0.0610485821962}
2019-04-03 20:19:00.01: SIM {TimeUS : 181634817, Roll : 0.0, Pitch : 0.0, Yaw : 353.0, Alt : 584.090026855, Lat : -35.363261, Lng : 149.1652299, Q1 : 0.998134791851, Q2 : 0.0, Q3 : 0.0, Q4 : -0.0610485821962}
2019-04-03 20:19:00.11: SIM {TimeUS : 181734777, Roll : 0.0, Pitch : 0.0, Yaw : 353.0, Alt : 584.090026855, Lat : -35.363261, Lng : 149.1652299, Q1 : 0.998134791851, Q2 : 0.0, Q3 : 0.0, Q4 : -0.0610485821962}
2019-04-03 20:19:00.21: SIM {TimeUS : 181834737, Roll : 0.0, Pitch : 0.0, Yaw : 353.0, Alt : 584.090026855, Lat : -35.363261, Lng : 149.1652299, Q1 : 0.998134791851, Q2 : 0.0, Q3 : 0.0, Q4 : -0.0610485821962}
2019-04-03 20:19:00.31: SIM {TimeUS : 181934697, Roll : 0.0, Pitch : 0.0, Yaw : 353.0, Alt : 584.090026855, Lat : -35.363261, Lng : 149.1652299, Q1 : 0.998134791851, Q2 : 0.0, Q3 : 0.0, Q4 : -0.0610485821962}
2019-04-03 20:19:00.41: SIM {TimeUS : 182034657, Roll : 0.0, Pitch : 0.0, Yaw : 353.0, Alt : 584.090026855, Lat : -35.363261, Lng : 149.1652299, Q1 : 0.998134791851, Q2 : 0.0, Q3 : 0.0, Q4 : -0.0610485821962}
2019-04-03 20:19:00.51: SIM {TimeUS : 182134617, Roll : 0.0, Pitch : 0.0, Yaw : 353.0, Alt : 584.090026855, Lat : -35.363261, Lng : 149.1652299, Q1 : 0.998134791851, Q2 : 0.0, Q3 : 0.0, Q4 : -0.0610485821962}
2019-04-03 20:19:00.61: SIM {TimeUS : 182234577, Roll : 0.0, Pitch : 0.0, Yaw : 353.0, Alt : 584.090026855, Lat : -35.363261, Lng : 149.1652299, Q1 : 0.998134791851, Q2 : 0.0, Q3 : 0.0, Q4 : -0.0610485821962}
2019-04-03 20:19:00.71: SIM {TimeUS : 182334537, Roll : 0.0, Pitch : 0.0, Yaw : 353.0, Alt : 584.090026855, Lat : -35.363261, Lng : 149.1652299, Q1 : 0.998134791851, Q2 : 0.0, Q3 : 0.0, Q4 : -0.0610485821962}
2019-04-03 20:19:00.81: SIM {TimeUS : 182434497, Roll : 0.0, Pitch : 0.0, Yaw : 353.0, Alt : 584.090026855, Lat : -35.363261, Lng : 149.1652299, Q1 : 0.998134791851, Q2 : 0.0, Q3 : 0.0, Q4 : -0.0610485821962}
2019-04-03 20:19:00.91: SIM {TimeUS : 182535290, Roll : 0.0, Pitch : 0.0, Yaw : 353.0, Alt : 584.090026855, Lat : -35.363261, Lng : 149.1652299, Q1 : 0.998134791851, Q2 : 0.0, Q3 : 0.0, Q4 : -0.0610485821962}
2019-04-03 20:19:01.01: SIM {TimeUS : 182635250, Roll : 0.0, Pitch : 0.0, Yaw : 353.0, Alt : 584.090026855, Lat : -35.363261, Lng : 149.1652299, Q1 : 0.998134791851, Q2 : 0.0, Q3 : 0.0, Q4 : -0.0610485821962}
2019-04-03 20:19:01.11: SIM {TimeUS : 182735210, Roll : 0.0, Pitch : 0.0, Yaw : 353.0, Alt : 584.090026855, Lat : -35.363261, Lng : 149.1652299, Q1 : 0.998134791851, Q2 : 0.0, Q3 : 0.0, Q4 : -0.0610486753285}
2019-04-03 20:19:01.21: SIM {TimeUS : 182835170, Roll : 0.0, Pitch : 0.0, Yaw : 353.0, Alt : 584.090026855, Lat : -35.363261, Lng : 149.1652299, Q1 : 0.998134791851, Q2 : 0.0, Q3 : 0.0, Q4 : -0.0610486753285}
2019-04-03 20:19:01.31: SIM {TimeUS : 182935130, Roll : 0.0, Pitch : 0.0, Yaw : 353.0, Alt : 584.090026855, Lat : -35.363261, Lng : 149.1652299, Q1 : 0.998134791851, Q2 : 0.0, Q3 : 0.0, Q4 : -0.0610486753285}
2019-04-03 20:19:01.41: SIM {TimeUS : 183035090, Roll : 0.0, Pitch : 0.0, Yaw : 353.0, Alt : 584.090026855, Lat : -35.363261, Lng : 149.1652299, Q1 : 0.998134791851, Q2 : 0.0, Q3 : 0.0, Q4 : -0.0610486753285}
2019-04-03 20:19:01.51: SIM {TimeUS : 183135050, Roll : 0.0, Pitch : 0.0, Yaw : 353.0, Alt : 584.090026855, Lat : -35.363261, Lng : 149.1652299, Q1 : 0.998134791851, Q2 : 0.0, Q3 : 0.0, Q4 : -0.0610486753285}
2019-04-03 20:19:01.61: SIM {TimeUS : 183235010, Roll : 0.0, Pitch : 0.0, Yaw : 353.0, Alt : 584.090026855, Lat : -35.363261, Lng : 149.1652299, Q1 : 0.998134791851, Q2 : 0.0, Q3 : 0.0, Q4 : -0.0610486827791}
2019-04-03 20:19:01.71: SIM {TimeUS : 183334970, Roll : 0.0, Pitch : 0.0, Yaw : 353.0, Alt : 584.090026855, Lat : -35.363261, Lng : 149.1652299, Q1 : 0.998134791851, Q2 : 0.0, Q3 : 0.0, Q4 : -0.0610486753285}
2019-04-03 20:19:01.81: SIM {TimeUS : 183434930, Roll : 0.0, Pitch : 0.0, Yaw : 353.0, Alt : 584.090026855, Lat : -35.363261, Lng : 149.1652299, Q1 : 0.998134791851, Q2 : 0.0, Q3 : 0.0, Q4 : -0.0610486753285}
2019-04-03 20:19:01.91: SIM {TimeUS : 183534890, Roll : 0.0, Pitch : 0.0, Yaw : 353.0, Alt : 584.099975586, Lat : -35.363261, Lng : 149.1652299, Q1 : 0.998134791851, Q2 : 0.0, Q3 : 0.0, Q4 : -0.0610486865044}
2019-04-03 20:19:02.01: SIM {TimeUS : 183634850, Roll : 0.0, Pitch : 0.0, Yaw : 353.0, Alt : 584.099975586, Lat : -35.363261, Lng : 149.1652299, Q1 : 0.998134791851, Q2 : 0.0, Q3 : 0.0, Q4 : -0.0610486753285}
2019-04-03 20:19:02.11: SIM {TimeUS : 183734810, Roll : 0.0, Pitch : 0.0, Yaw : 353.0, Alt : 584.109985352, Lat : -35.363261, Lng : 149.1652299, Q1 : 0.998134791851, Q2 : 0.0, Q3 : 0.0, Q4 : -0.0610486753285}
2019-04-03 20:19:02.21: SIM {TimeUS : 183834770, Roll : 0.0, Pitch : 0.0, Yaw : 353.0, Alt : 584.130004883, Lat : -35.363261, Lng : 149.1652299, Q1 : 0.998134791851, Q2 : 0.0, Q3 : 0.0, Q4 : -0.0610486865044}
2019-04-03 20:19:02.31: SIM {TimeUS : 183934730, Roll : 0.0, Pitch : 0.0, Yaw : 353.0, Alt : 584.159973145, Lat : -35.363261, Lng : 149.1652299, Q1 : 0.998134791851, Q2 : 0.0, Q3 : 0.0, Q4 : -0.0610486827791}
2019-04-03 20:19:02.41: SIM {TimeUS : 184034690, Roll : 0.0, Pitch : 0.0, Yaw : 353.0, Alt : 584.200012207, Lat : -35.363261, Lng : 149.1652299, Q1 : 0.998134791851, Q2 : 0.0, Q3 : 0.0, Q4 : -0.0610486753285}
2019-04-03 20:19:02.51: SIM {TimeUS : 184134650, Roll : -0.02, Pitch : -0.03, Yaw : 352.99, Alt : 584.239990234, Lat : -35.363261, Lng : 149.1652299, Q1 : 0.998134374619, Q2 : -0.000227880562306, Q3 : -0.000263241148787, Q4 : -0.0610543116927}
2019-04-03 20:19:02.61: SIM {TimeUS : 184234610, Roll : -0.11, Pitch : -0.13, Yaw : 352.99, Alt : 584.340026855, Lat : -35.363261, Lng : 149.1652299, Q1 : 0.998131394386, Q2 : -0.00111148902215, Q3 : -0.0010851258412, Q4 : -0.0610845908523}
2019-04-03 20:19:02.71: SIM {TimeUS : 184334570, Roll : -0.26, Pitch : -0.25, Yaw : 352.99, Alt : 584.479980469, Lat : -35.363261, Lng : 149.1652299, Q1 : 0.998124063015, Q2 : -0.00242812791839, Q3 : -0.00209546135738, Q4 : -0.0611394941807}
2019-04-03 20:19:02.81: SIM {TimeUS : 184434530, Roll : -0.36, Pitch : -0.35, Yaw : 352.98, Alt : 584.630004883, Lat : -35.363261, Lng : 149.1652299, Q1 : 0.99811476469, Q2 : -0.0034049982205, Q3 : -0.00288330717012, Q4 : -0.061213478446}
2019-04-03 20:19:02.91: SIM {TimeUS : 184534490, Roll : -0.38, Pitch : -0.38, Yaw : 352.97, Alt : 584.789978027, Lat : -35.363261, Lng : 149.1652299, Q1 : 0.998107910156, Q2 : -0.0035670879297, Q3 : -0.00318695302121, Q4 : -0.0612997189164}
2019-04-03 20:19:03.01: SIM {TimeUS : 184635283, Roll : -0.32, Pitch : -0.35, Yaw : 352.96, Alt : 584.940002441, Lat : -35.363261, Lng : 149.1652299, Q1 : 0.998105406761, Q2 : -0.00306223146617, Q3 : -0.00287886988372, Q4 : -0.0613837279379}
2019-04-03 20:19:03.11: SIM {TimeUS : 184735243, Roll : -0.22, Pitch : -0.24, Yaw : 352.95, Alt : 585.090026855, Lat : -35.363261, Lng : 149.1652299, Q1 : 0.998105466366, Q2 : -0.00205135648139, Q3 : -0.0020394672174, Q4 : -0.0614587776363}
2019-04-03 20:19:03.21: SIM {TimeUS : 184835203, Roll : -0.1, Pitch : -0.14, Yaw : 352.94, Alt : 585.25, Lat : -35.363261, Lng : 149.1652298, Q1 : 0.998104631901, Q2 : -0.00096482533263, Q3 : -0.00119243422523, Q4 : -0.0615206211805}
2019-04-03 20:19:03.31: SIM {TimeUS : 184935163, Roll : -0.01, Pitch : -0.07, Yaw : 352.94, Alt : 585.409973145, Lat : -35.363261, Lng : 149.1652298, Q1 : 0.998102724552, Q2 : -0.000183575888514, Q3 : -0.00064297177596, Q4 : -0.0615674108267}
2019-04-03 20:19:03.41: SIM {TimeUS : 185035123, Roll : 0.01, Pitch : -0.02, Yaw : 352.93, Alt : 585.58001709, Lat : -35.3632609, Lng : 149.1652298, Q1 : 0.998101174831, Q2 : 0.000156536174472, Q3 : -0.000197104542167, Q4 : -0.0615953505039}
2019-04-03 20:19:03.51: SIM {TimeUS : 185135083, Roll : 0.02, Pitch : 0.02, Yaw : 352.93, Alt : 585.760009766, Lat : -35.3632609, Lng : 149.1652298, Q1 : 0.998100042343, Q2 : 0.000187704077689, Q3 : 0.000193018029677, Q4 : -0.0616140589118}
2019-04-03 20:19:03.61: SIM {TimeUS : 185235043, Roll : 0.0, Pitch : 0.04, Yaw : 352.93, Alt : 585.940002441, Lat : -35.3632609, Lng : 149.1652298, Q1 : 0.998099267483, Q2 : 3.9260747144e-05, Q3 : 0.000375095609343, Q4 : -0.0616256259382}
2019-04-03 20:19:03.71: SIM {TimeUS : 185335003, Roll : 0.0, Pitch : 0.03, Yaw : 352.93, Alt : 586.119995117, Lat : -35.3632609, Lng : 149.1652298, Q1 : 0.998099505901, Q2 : -1.80911174539e-05, Q3 : 0.000271300261375, Q4 : -0.0616224147379}
2019-04-03 20:19:03.81: SIM {TimeUS : 185434963, Roll : 0.0, Pitch : 0.0, Yaw : 352.93, Alt : 586.309997559, Lat : -35.3632609, Lng : 149.1652297, Q1 : 0.99810051918, Q2 : 7.27092410671e-05, Q3 : -8.54756290209e-05, Q4 : -0.0616062730551}
2019-04-03 20:19:03.91: SIM {TimeUS : 185534923, Roll : 0.02, Pitch : -0.04, Yaw : 352.93, Alt : 586.5, Lat : -35.3632608, Lng : 149.1652297, Q1 : 0.998101651669, Q2 : 0.000169473089045, Q3 : -0.000387121195672, Q4 : -0.0615868233144}
2019-04-03 20:19:04.01: SIM {TimeUS : 185634883, Roll : 0.0, Pitch : -0.06, Yaw : 352.94, Alt : 586.690002441, Lat : -35.3632608, Lng : 149.1652297, Q1 : 0.998102605343, Q2 : 1.81380164577e-05, Q3 : -0.000559807405807, Q4 : -0.0615705661476}
2019-04-03 20:19:04.11: SIM {TimeUS : 185734843, Roll : -0.01, Pitch : -0.07, Yaw : 352.94, Alt : 586.890014648, Lat : -35.3632608, Lng : 149.1652297, Q1 : 0.998103380203, Q2 : -0.000207282690099, Q3 : -0.000642157625407, Q4 : -0.0615566521883}
2019-04-03 20:19:04.21: SIM {TimeUS : 185834803, Roll : -0.04, Pitch : -0.07, Yaw : 352.94, Alt : 587.090026855, Lat : -35.3632608, Lng : 149.1652297, Q1 : 0.998103916645, Q2 : -0.00043814786477, Q3 : -0.000633492483757, Q4 : -0.0615470036864}
2019-04-03 20:19:04.31: SIM {TimeUS : 185934763, Roll : -0.06, Pitch : -0.05, Yaw : 352.94, Alt : 587.289978027, Lat : -35.3632608, Lng : 149.1652296, Q1 : 0.998104453087, Q2 : -0.000559532083571, Q3 : -0.000451402622275, Q4 : -0.0615381710231}
2019-04-03 20:19:04.41: SIM {TimeUS : 186034723, Roll : -0.06, Pitch : -0.02, Yaw : 352.94, Alt : 587.489990234, Lat : -35.3632608, Lng : 149.1652296, Q1 : 0.998104810715, Q2 : -0.000587669434026, Q3 : -0.000205409014598, Q4 : -0.0615336745977}
2019-04-03 20:19:04.51: SIM {TimeUS : 186134683, Roll : -0.05, Pitch : 0.0, Yaw : 352.94, Alt : 587.700012207, Lat : -35.3632608, Lng : 149.1652296, Q1 : 0.998104214668, Q2 : -0.000467277131975, Q3 : 3.61376805813e-05, Q4 : -0.0615450963378}
2019-04-03 20:19:04.61: SIM {TimeUS : 186234643, Roll : -0.03, Pitch : 0.0, Yaw : 352.94, Alt : 587.909973145, Lat : -35.3632608, Lng : 149.1652296, Q1 : 0.998103022575, Q2 : -0.000297992315609, Q3 : 9.44499697653e-05, Q4 : -0.0615650191903}
2019-04-03 20:19:04.71: SIM {TimeUS : 186334603, Roll : -0.02, Pitch : 0.0, Yaw : 352.93, Alt : 588.119995117, Lat : -35.3632607, Lng : 149.1652296, Q1 : 0.998101472855, Q2 : -0.000200126407435, Q3 : 4.69989245175e-05, Q4 : -0.06159061566}
2019-04-03 20:19:04.81: SIM {TimeUS : 186434563, Roll : -0.03, Pitch : -0.02, Yaw : 352.93, Alt : 588.33001709, Lat : -35.3632607, Lng : 149.1652294, Q1 : 0.998099446297, Q2 : -0.000358455406968, Q3 : -0.00022596141207, Q4 : -0.0616231486201}
2019-04-03 20:19:04.91: SIM {TimeUS : 186534523, Roll : -0.05, Pitch : -0.06, Yaw : 352.92, Alt : 588.539978027, Lat : -35.3632607, Lng : 149.1652294, Q1 : 0.998096466064, Q2 : -0.000535807106644, Q3 : -0.000576686288696, Q4 : -0.0616678707302}
2019-04-03 20:19:05.01: SIM {TimeUS : 186634483, Roll : -0.08, Pitch : -0.12, Yaw : 352.92, Alt : 588.75, Lat : -35.3632607, Lng : 149.1652294, Q1 : 0.998092710972, Q2 : -0.000776500557549, Q3 : -0.00100390880834, Q4 : -0.0617192350328}
2019-04-03 20:19:05.11: SIM {TimeUS : 186735276, Roll : -0.11, Pitch : -0.16, Yaw : 352.91, Alt : 588.969970703, Lat : -35.3632607, Lng : 149.1652294, Q1 : 0.998088896275, Q2 : -0.00111003872007, Q3 : -0.0013425181387, Q4 : -0.0617704130709}
2019-04-03 20:19:05.21: SIM {TimeUS : 186835236, Roll : -0.16, Pitch : -0.18, Yaw : 352.91, Alt : 589.179992676, Lat : -35.3632607, Lng : 149.1652294, Q1 : 0.998084545135, Q2 : -0.00152308028191, Q3 : -0.00151063723024, Q4 : -0.0618277974427}
2019-04-03 20:19:05.31: SIM {TimeUS : 186935196, Roll : -0.19, Pitch : -0.17, Yaw : 352.9, Alt : 589.400024414, Lat : -35.3632607, Lng : 149.1652293, Q1 : 0.998080193996, Q2 : -0.00182729866356, Q3 : -0.00144759635441, Q4 : -0.0618909075856}
2019-04-03 20:19:05.41: SIM {TimeUS : 187035156, Roll : -0.22, Pitch : -0.16, Yaw : 352.89, Alt : 589.619995117, Lat : -35.3632607, Lng : 149.1652293, Q1 : 0.998075187206, Q2 : -0.00209155422635, Q3 : -0.00130794104189, Q4 : -0.0619667991996}
2019-04-03 20:19:05.51: SIM {TimeUS : 187135116, Roll : -0.25, Pitch : -0.14, Yaw : 352.88, Alt : 589.840026855, Lat : -35.3632607, Lng : 149.1652293, Q1 : 0.99806958437, Q2 : -0.00227993098088, Q3 : -0.0011436882196, Q4 : -0.0620539188385}
2019-04-03 20:19:05.61: SIM {TimeUS : 187235076, Roll : -0.24, Pitch : -0.16, Yaw : 352.87, Alt : 590.059997559, Lat : -35.3632605, Lng : 149.1652293, Q1 : 0.998064100742, Q2 : -0.00224545877427, Q3 : -0.0013377192663, Q4 : -0.0621395632625}
2019-04-03 20:19:05.71: SIM {TimeUS : 187335036, Roll : -0.21, Pitch : -0.2, Yaw : 352.86, Alt : 590.280029297, Lat : -35.3632605, Lng : 149.1652293, Q1 : 0.998058497906, Q2 : -0.00202469644137, Q3 : -0.00168740656227, Q4 : -0.0622277148068}
2019-04-03 20:19:05.81: SIM {TimeUS : 187434996, Roll : -0.17, Pitch : -0.24, Yaw : 352.85, Alt : 590.5, Lat : -35.3632605, Lng : 149.1652293, Q1 : 0.998053014278, Q2 : -0.00169418239966, Q3 : -0.00206403038464, Q4 : -0.0623146146536}
2019-04-03 20:19:05.91: SIM {TimeUS : 187534956, Roll : -0.15, Pitch : -0.28, Yaw : 352.84, Alt : 590.719970703, Lat : -35.3632605, Lng : 149.1652292, Q1 : 0.998047828674, Q2 : -0.00153031817172, Q3 : -0.00235303444788, Q4 : -0.0623919926584}
2019-04-03 20:19:06.01: SIM {TimeUS : 187634916, Roll : -0.17, Pitch : -0.27, Yaw : 352.83, Alt : 590.940002441, Lat : -35.3632604, Lng : 149.1652292, Q1 : 0.998043715954, Q2 : -0.00163834018167, Q3 : -0.00229006819427, Q4 : -0.0624563917518}
2019-04-03 20:19:06.11: SIM {TimeUS : 187734876, Roll : -0.18, Pitch : -0.29, Yaw : 352.83, Alt : 591.159973145, Lat : -35.3632604, Lng : 149.1652291, Q1 : 0.998039841652, Q2 : -0.00181010272354, Q3 : -0.00248921476305, Q4 : -0.062506467104}
2019-04-03 20:19:06.21: SIM {TimeUS : 187834836, Roll : -0.17, Pitch : -0.29, Yaw : 352.82, Alt : 591.380004883, Lat : -35.3632604, Lng : 149.1652291, Q1 : 0.998036623001, Q2 : -0.0017138622934, Q3 : -0.00251105730422, Q4 : -0.0625596567988}
2019-04-03 20:19:06.31: SIM {TimeUS : 187934796, Roll : -0.15, Pitch : -0.25, Yaw : 352.82, Alt : 591.590026855, Lat : -35.3632604, Lng : 149.1652289, Q1 : 0.998034477234, Q2 : -0.00145989865996, Q3 : -0.00210643745959, Q4 : -0.0626156851649}
2019-04-03 20:19:06.41: SIM {TimeUS : 188034756, Roll : -0.14, Pitch : -0.18, Yaw : 352.81, Alt : 591.789978027, Lat : -35.3632604, Lng : 149.1652289, Q1 : 0.998032033443, Q2 : -0.00137692957651, Q3 : -0.00149040401448, Q4 : -0.0626737624407}
2019-04-03 20:19:06.51: SIM {TimeUS : 188134716, Roll : -0.13, Pitch : -0.11, Yaw : 352.8, Alt : 591.979980469, Lat : -35.3632604, Lng : 149.1652289, Q1 : 0.998028874397, Q2 : -0.00127579644322, Q3 : -0.00091738300398, Q4 : -0.0627371668816}
2019-04-03 20:19:06.61: SIM {TimeUS : 188234676, Roll : -0.11, Pitch : -0.05, Yaw : 352.79, Alt : 592.150024414, Lat : -35.3632603, Lng : 149.1652289, Q1 : 0.998025000095, Q2 : -0.00103102496359, Q3 : -0.000417091883719, Q4 : -0.0628080889583}
2019-04-03 20:19:06.71: SIM {TimeUS : 188334636, Roll : -0.07, Pitch : 0.0, Yaw : 352.78, Alt : 592.320007324, Lat : -35.3632603, Lng : 149.1652289, Q1 : 0.998020410538, Q2 : -0.000684235186782, Q3 : -2.27759755944e-05, Q4 : -0.0628874972463}
2019-04-03 20:19:06.81: SIM {TimeUS : 188434596, Roll : 0.05, Pitch : 0.0, Yaw : 352.77, Alt : 592.469970703, Lat : -35.3632603, Lng : 149.1652288, Q1 : 0.998015582561, Q2 : 0.000458997557871, Q3 : 5.57131279493e-05, Q4 : -0.0629664734006}
2019-04-03 20:19:06.91: SIM {TimeUS : 188534556, Roll : 0.45, Pitch : 0.03, Yaw : 352.77, Alt : 592.609985352, Lat : -35.3632602, Lng : 149.1652288, Q1 : 0.998002767563, Q2 : 0.00402075145394, Q3 : 3.906711936e-05, Q4 : -0.0630425959826}
2019-04-03 20:19:07.01: SIM {TimeUS : 188634516, Roll : 1.16, Pitch : 0.09, Yaw : 352.76, Alt : 592.739990234, Lat : -35.3632602, Lng : 149.1652287, Q1 : 0.997954010963, Q2 : 0.0102058006451, Q3 : 0.000143212382682, Q4 : -0.0631162077188}
2019-04-03 20:19:07.11: SIM {TimeUS : 188734476, Roll : 2.09, Pitch : 0.17, Yaw : 352.75, Alt : 592.859985352, Lat : -35.3632602, Lng : 149.1652287, Q1 : 0.997832715511, Q2 : 0.0183591544628, Q3 : 0.000363989005564, Q4 : -0.0631880536675}
2019-04-03 20:19:07.21: SIM {TimeUS : 188835269, Roll : 3.17, Pitch : 0.26, Yaw : 352.75, Alt : 592.960021973, Lat : -35.3632601, Lng : 149.1652288, Q1 : 0.997609436512, Q2 : 0.0278074946254, Q3 : 0.000542865309399, Q4 : -0.0632606595755}
2019-04-03 20:19:07.31: SIM {TimeUS : 188935229, Roll : 4.29, Pitch : 0.36, Yaw : 352.74, Alt : 593.049987793, Lat : -35.3632601, Lng : 149.1652289, Q1 : 0.997284948826, Q2 : 0.0375653579831, Q3 : 0.000773138541263, Q4 : -0.0633326992393}
2019-04-03 20:19:07.41: SIM {TimeUS : 189035189, Roll : 5.31, Pitch : 0.44, Yaw : 352.74, Alt : 593.130004883, Lat : -35.3632601, Lng : 149.1652289, Q1 : 0.996901452541, Q2 : 0.0465257838368, Q3 : 0.000917710713111, Q4 : -0.0634189769626}
2019-04-03 20:19:07.51: SIM {TimeUS : 189135149, Roll : 6.14, Pitch : 0.5, Yaw : 352.73, Alt : 593.200012207, Lat : -35.3632601, Lng : 149.1652293, Q1 : 0.996529102325, Q2 : 0.0537938550115, Q3 : 0.000973863468971, Q4 : -0.063521400094}
2019-04-03 20:19:07.61: SIM {TimeUS : 189235109, Roll : 6.78, Pitch : 0.55, Yaw : 352.72, Alt : 593.260009766, Lat : -35.3632599, Lng : 149.1652296, Q1 : 0.996203899384, Q2 : 0.0593967214227, Q3 : 0.0010542414384, Q4 : -0.0636301636696}
2019-04-03 20:19:07.71: SIM {TimeUS : 189335069, Roll : 7.29, Pitch : 0.61, Yaw : 352.71, Alt : 593.309997559, Lat : -35.3632599, Lng : 149.1652299, Q1 : 0.995923757553, Q2 : 0.0638093799353, Q3 : 0.00131598615553, Q4 : -0.0637379065156}
2019-04-03 20:19:07.81: SIM {TimeUS : 189435029, Roll : 7.7, Pitch : 0.69, Yaw : 352.7, Alt : 593.359985352, Lat : -35.3632599, Lng : 149.1652303, Q1 : 0.995675504208, Q2 : 0.0674590840936, Q3 : 0.00173331261612, Q4 : -0.063847951591}
2019-04-03 20:19:07.91: SIM {TimeUS : 189534989, Roll : 8.03, Pitch : 0.74, Yaw : 352.69, Alt : 593.400024414, Lat : -35.3632598, Lng : 149.1652311, Q1 : 0.995466470718, Q2 : 0.0703567788005, Q3 : 0.00197862437926, Q4 : -0.0639736354351}
2019-04-03 20:19:08.01: SIM {TimeUS : 189634949, Roll : 8.27, Pitch : 0.75, Yaw : 352.68, Alt : 593.429992676, Lat : -35.3632598, Lng : 149.1652317, Q1 : 0.995310842991, Q2 : 0.0723955705762, Q3 : 0.00192244548816, Q4 : -0.0641212463379}
2019-04-03 20:19:08.11: SIM {TimeUS : 189734909, Roll : 8.43, Pitch : 0.73, Yaw : 352.66, Alt : 593.460021973, Lat : -35.3632598, Lng : 149.1652327, Q1 : 0.995199501514, Q2 : 0.0737900808454, Q3 : 0.00172037503216, Q4 : -0.0642656311393}
2019-04-03 20:19:08.21: SIM {TimeUS : 189834869, Roll : 8.57, Pitch : 0.71, Yaw : 352.64, Alt : 593.489990234, Lat : -35.3632598, Lng : 149.1652336, Q1 : 0.995102345943, Q2 : 0.0749818459153, Q3 : 0.00139617710374, Q4 : -0.0643980205059}
2019-04-03 20:19:08.31: SIM {TimeUS : 189934829, Roll : 8.71, Pitch : 0.69, Yaw : 352.63, Alt : 593.510009766, Lat : -35.3632597, Lng : 149.1652346, Q1 : 0.995004713535, Q2 : 0.0761924237013, Q3 : 0.00111307692714, Q4 : -0.0644911676645}
2019-04-03 20:19:08.41: SIM {TimeUS : 190034789, Roll : 8.86, Pitch : 0.84, Yaw : 352.76, Alt : 593.539978027, Lat : -35.3632597, Lng : 149.1652356, Q1 : 0.994956433773, Q2 : 0.0776249691844, Q3 : 0.00247024279088, Q4 : -0.0634822323918}
2019-04-03 20:19:08.51: SIM {TimeUS : 190134749, Roll : 9.09, Pitch : 1.29, Yaw : 353.57, Alt : 593.549987793, Lat : -35.3632596, Lng : 149.165237, Q1 : 0.995174109936, Q2 : 0.0797703713179, Q3 : 0.00684213032946, Q4 : -0.0567312650383}
2019-04-03 20:19:08.61: SIM {TimeUS : 190234709, Roll : 9.44, Pitch : 1.74, Yaw : 355.76, Alt : 593.570007324, Lat : -35.3632596, Lng : 149.1652383, Q1 : 0.995765686035, Q2 : 0.0827860534191, Q3 : 0.0121392887086, Q4 : -0.0380765497684}
2019-04-03 20:19:08.71: SIM {TimeUS : 190334669, Roll : 9.91, Pitch : 1.72, Yaw : 359.59, Alt : 593.590026855, Lat : -35.3632595, Lng : 149.1652397, Q1 : 0.996135413647, Q2 : 0.086461044848, Q3 : 0.0146867632866, Q4 : -0.00480912206694}
2019-04-03 20:19:08.81: SIM {TimeUS : 190434629, Roll : 10.39, Pitch : 0.99, Yaw : 4.93, Alt : 593.599975586, Lat : -35.3632595, Lng : 149.1652412, Q1 : 0.994962275028, Q2 : 0.0901218131185, Q3 : 0.0125678870827, Q4 : 0.0420735180378}
2019-04-03 20:19:08.91: SIM {TimeUS : 190534589, Roll : 10.72, Pitch : -0.42, Yaw : 11.49, Alt : 593.619995117, Lat : -35.3632596, Lng : 149.1652427, Q1 : 0.990575551987, Q2 : 0.0933386906981, Q3 : 0.00564307253808, Q4 : 0.100080527365}
2019-04-03 20:19:09.01: SIM {TimeUS : 190634549, Roll : 10.74, Pitch : -2.41, Yaw : 18.99, Alt : 593.630004883, Lat : -35.3632596, Lng : 149.1652445, Q1 : 0.981417715549, Q2 : 0.0957544445992, Q3 : -0.00528493430465, Q4 : 0.16620002687}
2019-04-03 20:19:09.11: SIM {TimeUS : 190734509, Roll : 10.34, Pitch : -4.73, Yaw : 27.16, Alt : 593.650024414, Lat : -35.3632597, Lng : 149.1652461, Q1 : 0.966381669044, Q2 : 0.0972078368068, Q3 : -0.018817698583, Q4 : 0.237282559276}
2019-04-03 20:19:09.21: SIM {TimeUS : 190835302, Roll : 9.47, Pitch : -7.14, Yaw : 35.82, Alt : 593.659973145, Lat : -35.3632598, Lng : 149.165248, Q1 : 0.944851338863, Q2 : 0.0975511744618, Q3 : -0.0337545350194, Q4 : 0.310806125402}
2019-04-03 20:19:09.31: SIM {TimeUS : 190935262, Roll : 8.17, Pitch : -9.38, Yaw : 44.59, Alt : 593.66998291, Lat : -35.3632598, Lng : 149.16525, Q1 : 0.917586088181, Q2 : 0.096646502614, Q3 : -0.0485376417637, Q4 : 0.382543295622}
2019-04-03 20:19:09.41: SIM {TimeUS : 191035222, Roll : 6.49, Pitch : -11.24, Yaw : 53.25, Alt : 593.690002441, Lat : -35.3632598, Lng : 149.1652522, Q1 : 0.885712146759, Q2 : 0.0942454338074, Q3 : -0.0621304735541, Q4 : 0.450301647186}
2019-04-03 20:19:09.51: SIM {TimeUS : 191135182, Roll : 4.6, Pitch : -12.62, Yaw : 61.54, Alt : 593.700012207, Lat : -35.3632598, Lng : 149.1652543, Q1 : 0.851033687592, Q2 : 0.0905017778277, Q3 : -0.0739387869835, Q4 : 0.511941552162}
2019-04-03 20:19:09.61: SIM {TimeUS : 191235142, Roll : 2.67, Pitch : -13.54, Yaw : 69.24, Alt : 593.719970703, Lat : -35.3632598, Lng : 149.1652566, Q1 : 0.815363705158, Q2 : 0.0860491842031, Q3 : -0.0838436186314, Q4 : 0.566346108913}
2019-04-03 20:19:09.71: SIM {TimeUS : 191335102, Roll : 0.87, Pitch : -14.09, Yaw : 76.24, Alt : 593.729980469, Lat : -35.3632598, Lng : 149.1652591, Q1 : 0.780145347118, Q2 : 0.0816868618131, Q3 : -0.0918096527457, Q4 : 0.613409757614}
2019-04-03 20:19:09.81: SIM {TimeUS : 191435062, Roll : -0.67, Pitch : -14.38, Yaw : 82.52, Alt : 593.75, Lat : -35.3632598, Lng : 149.1652617, Q1 : 0.746228575706, Q2 : 0.0781673043966, Q3 : -0.0979305356741, Q4 : 0.653790771961}
2019-04-03 20:19:09.91: SIM {TimeUS : 191535022, Roll : -2.2, Pitch : -14.51, Yaw : 88.09, Alt : 593.760009766, Lat : -35.3632597, Lng : 149.1652643, Q1 : 0.714567482471, Q2 : 0.0741047263145, Q3 : -0.104028791189, Q4 : 0.687808036804}
2019-04-03 20:19:10.01: SIM {TimeUS : 191634982, Roll : -3.84, Pitch : -14.51, Yaw : 92.62, Alt : 593.780029297, Lat : -35.3632595, Lng : 149.1652671, Q1 : 0.687868893147, Q2 : 0.0683223232627, Q3 : -0.111265420914, Q4 : 0.71399474144}
2019-04-03 20:19:10.11: SIM {TimeUS : 191734942, Roll : -5.28, Pitch : -14.42, Yaw : 95.76, Alt : 593.789978027, Lat : -35.3632592, Lng : 149.1652699, Q1 : 0.668935358524, Q2 : 0.0623623728752, Q3 : -0.118042252958, Q4 : 0.731233537197}
2019-04-03 20:19:10.21: SIM {TimeUS : 191834902, Roll : -6.2, Pitch : -14.31, Yaw : 97.39, Alt : 593.799987793, Lat : -35.3632591, Lng : 149.1652729, Q1 : 0.658966898918, Q2 : 0.0580096878111, Q3 : -0.122427031398, Q4 : 0.739871025085}
2019-04-03 20:19:10.31: SIM {TimeUS : 191934862, Roll : -6.42, Pitch : -14.27, Yaw : 97.65, Alt : 593.820007324, Lat : -35.3632587, Lng : 149.1652758, Q1 : 0.657465100288, Q2 : 0.0568071417511, Q3 : -0.123521193862, Q4 : 0.741117417812}
2019-04-03 20:19:10.41: SIM {TimeUS : 192034822, Roll : -5.91, Pitch : -14.39, Yaw : 96.76, Alt : 593.83001709, Lat : -35.3632585, Lng : 149.165279, Q1 : 0.66287624836, Q2 : 0.0595204085112, Q3 : -0.121364541352, Q4 : 0.736425876617}
2019-04-03 20:19:10.51: SIM {TimeUS : 192134782, Roll : -4.8, Pitch : -14.65, Yaw : 95.03, Alt : 593.849975586, Lat : -35.363258, Lng : 149.1652822, Q1 : 0.673195004463, Q2 : 0.0659032613039, Q3 : -0.116679169238, Q4 : 0.727221608162}
2019-04-03 20:19:10.61: SIM {TimeUS : 192234742, Roll : -3.29, Pitch : -15.02, Yaw : 92.76, Alt : 593.859985352, Lat : -35.3632577, Lng : 149.1652854, Q1 : 0.686350882053, Q2 : 0.0749436020851, Q3 : -0.11080891639, Q4 : 0.714861750603}
2019-04-03 20:19:10.71: SIM {TimeUS : 192334702, Roll : -1.66, Pitch : -15.43, Yaw : 90.25, Alt : 593.880004883, Lat : -35.3632573, Lng : 149.1652889, Q1 : 0.700433015823, Q2 : 0.0850099548697, Q3 : -0.104927904904, Q4 : 0.700825989246}
2019-04-03 20:19:10.81: SIM {TimeUS : 192434662, Roll : -0.12, Pitch : -15.77, Yaw : 87.81, Alt : 593.890014648, Lat : -35.3632567, Lng : 149.1652923, Q1 : 0.713740408421, Q2 : 0.0943803712726, Q3 : -0.0996238738298, Q4 : 0.686834812164}
2019-04-03 20:19:10.91: SIM {TimeUS : 192534622, Roll : 1.14, Pitch : -16.0, Yaw : 85.71, Alt : 593.909973145, Lat : -35.3632564, Lng : 149.1652959, Q1 : 0.724922478199, Q2 : 0.101922467351, Q3 : -0.095356695354, Q4 : 0.674541532993}
2019-04-03 20:19:11.01: SIM {TimeUS : 192634582, Roll : 2.01, Pitch : -16.12, Yaw : 84.14, Alt : 593.929992676, Lat : -35.3632561, Lng : 149.1652995, Q1 : 0.73317861557, Q2 : 0.106863588095, Q3 : -0.0924534872174, Q4 : 0.665192961693}
2019-04-03 20:19:11.11: SIM {TimeUS : 192734542, Roll : 2.45, Pitch : -16.16, Yaw : 83.2, Alt : 593.940002441, Lat : -35.3632556, Lng : 149.1653031, Q1 : 0.738168597221, Q2 : 0.109187804163, Q3 : -0.0910585075617, Q4 : 0.659464657307}
2019-04-03 20:19:11.21: SIM {TimeUS : 192834502, Roll : 2.49, Pitch : -16.17, Yaw : 82.88, Alt : 593.960021973, Lat : -35.3632554, Lng : 149.1653069, Q1 : 0.739960074425, Q2 : 0.109231628478, Q3 : -0.0911861211061, Q4 : 0.657428860664}
2019-04-03 20:19:11.31: SIM {TimeUS : 192935295, Roll : 2.17, Pitch : -16.19, Yaw : 83.11, Alt : 593.969970703, Lat : -35.363255, Lng : 149.1653107, Q1 : 0.73891055584, Q2 : 0.107497796416, Q3 : -0.0928663611412, Q4 : 0.6586586833}
2019-04-03 20:19:11.41: SIM {TimeUS : 193035255, Roll : 1.63, Pitch : -16.22, Yaw : 83.76, Alt : 593.989990234, Lat : -35.3632548, Lng : 149.1653146, Q1 : 0.735616862774, Q2 : 0.104760654271, Q3 : -0.0956063121557, Q4 : 0.662383973598}
2019-04-03 20:19:11.51: SIM {TimeUS : 193135215, Roll : 0.99, Pitch : -16.28, Yaw : 84.68, Alt : 594.0, Lat : -35.3632546, Lng : 149.1653187, Q1 : 0.7307959795, Q2 : 0.101761206985, Q3 : -0.0989200174809, Q4 : 0.66768014431}
2019-04-03 20:19:11.61: SIM {TimeUS : 193235175, Roll : 0.33, Pitch : -16.35, Yaw : 85.72, Alt : 594.020019531, Lat : -35.3632543, Lng : 149.1653227, Q1 : 0.725254118443, Q2 : 0.0988605245948, Q3 : -0.102336481214, Q4 : 0.673617362976}
2019-04-03 20:19:11.71: SIM {TimeUS : 193335135, Roll : -0.26, Pitch : -16.41, Yaw : 86.73, Alt : 594.039978027, Lat : -35.3632541, Lng : 149.1653268, Q1 : 0.719756603241, Q2 : 0.0963410288095, Q3 : -0.105356000364, Q4 : 0.679388642311}
2019-04-03 20:19:11.81: SIM {TimeUS : 193435095, Roll : -0.74, Pitch : -16.47, Yaw : 87.6, Alt : 594.049987793, Lat : -35.3632538, Lng : 149.1653308, Q1 : 0.714924693108, Q2 : 0.0945110172033, Q3 : -0.107898265123, Q4 : 0.684330642223}
2019-04-03 20:19:11.91: SIM {TimeUS : 193535055, Roll : -1.09, Pitch : -16.55, Yaw : 88.25, Alt : 594.070007324, Lat : -35.3632536, Lng : 149.1653351, Q1 : 0.711206316948, Q2 : 0.0934989154339, Q3 : -0.109909459949, Q4 : 0.68801420927}
2019-04-03 20:19:12.01: SIM {TimeUS : 193635015, Roll : -1.27, Pitch : -16.63, Yaw : 88.66, Alt : 594.08001709, Lat : -35.3632532, Lng : 149.1653393, Q1 : 0.708868324757, Q2 : 0.0931945741177, Q3 : -0.111204445362, Q4 : 0.690256536007}
2019-04-03 20:19:12.11: SIM {TimeUS : 193734975, Roll : -1.3, Pitch : -16.71, Yaw : 88.81, Alt : 594.099975586, Lat : -35.3632531, Lng : 149.1653436, Q1 : 0.70792734623, Q2 : 0.093612767756, Q3 : -0.111732691526, Q4 : 0.69107991457}
2019-04-03 20:19:12.21: SIM {TimeUS : 193834935, Roll : -1.21, Pitch : -16.78, Yaw : 88.73, Alt : 594.109985352, Lat : -35.3632528, Lng : 149.1653479, Q1 : 0.708254098892, Q2 : 0.0945507735014, Q3 : -0.111614428461, Q4 : 0.690636277199}
2019-04-03 20:19:12.31: SIM {TimeUS : 193934895, Roll : -1.03, Pitch : -16.82, Yaw : 88.48, Alt : 594.130004883, Lat : -35.3632525, Lng : 149.1653523, Q1 : 0.709603428841, Q2 : 0.095664203167, Q3 : -0.11099153012, Q4 : 0.689196765423}
2019-04-03 20:19:12.41: SIM {TimeUS : 194034855, Roll : -0.8, Pitch : -16.85, Yaw : 88.1, Alt : 594.150024414, Lat : -35.3632522, Lng : 149.1653567, Q1 : 0.711616754532, Q2 : 0.0969239473343, Q3 : -0.110175043344, Q4 : 0.687072694302}
2019-04-03 20:19:12.51: SIM {TimeUS : 194134815, Roll : -0.53, Pitch : -16.91, Yaw : 87.68, Alt : 594.159973145, Lat : -35.3632519, Lng : 149.1653612, Q1 : 0.713893830776, Q2 : 0.0985048934817, Q3 : -0.109254345298, Q4 : 0.684628307819}
2019-04-03 20:19:12.61: SIM {TimeUS : 194234775, Roll : -0.26, Pitch : -16.96, Yaw : 87.25, Alt : 594.179992676, Lat : -35.3632516, Lng : 149.1653657, Q1 : 0.716144621372, Q2 : 0.100100040436, Q3 : -0.108325839043, Q4 : 0.682189464569}
2019-04-03 20:19:12.71: SIM {TimeUS : 194334735, Roll : -0.02, Pitch : -17.01, Yaw : 86.88, Alt : 594.190002441, Lat : -35.3632513, Lng : 149.1653701, Q1 : 0.718116164207, Q2 : 0.101542651653, Q3 : -0.10759845376, Q4 : 0.680015325546}
2019-04-03 20:19:12.81: SIM {TimeUS : 194434695, Roll : 0.14, Pitch : -17.05, Yaw : 86.58, Alt : 594.210021973, Lat : -35.363251, Lng : 149.1653748, Q1 : 0.71967035532, Q2 : 0.10260181874, Q3 : -0.107056632638, Q4 : 0.678296685219}
2019-04-03 20:19:12.91: SIM {TimeUS : 194534655, Roll : 0.25, Pitch : -17.08, Yaw : 86.39, Alt : 594.219970703, Lat : -35.3632507, Lng : 149.1653794, Q1 : 0.720712482929, Q2 : 0.103235788643, Q3 : -0.10678421706, Q4 : 0.677135884762}
2019-04-03 20:19:13.01: SIM {TimeUS : 194634615, Roll : 0.28, Pitch : -17.1, Yaw : 86.29, Alt : 594.239990234, Lat : -35.3632505, Lng : 149.165384, Q1 : 0.721226930618, Q2 : 0.103511497378, Q3 : -0.106797583401, Q4 : 0.676543712616}
2019-04-03 20:19:13.11: SIM {TimeUS : 194734575, Roll : 0.24, Pitch : -17.14, Yaw : 86.28, Alt : 594.25, Lat : -35.3632501, Lng : 149.1653887, Q1 : 0.721268773079, Q2 : 0.103471174836, Q3 : -0.10729663074, Q4 : 0.676426291466}
2019-04-03 20:19:13.21: SIM {TimeUS : 194834535, Roll : 0.15, Pitch : -17.18, Yaw : 86.35, Alt : 594.270019531, Lat : -35.3632499, Lng : 149.1653933, Q1 : 0.720933020115, Q2 : 0.103194601834, Q3 : -0.108033917844, Q4 : 0.676709115505}
2019-04-03 20:19:13.31: SIM {TimeUS : 194934495, Roll : 0.04, Pitch : -17.21, Yaw : 86.46, Alt : 594.289978027, Lat : -35.3632495, Lng : 149.1653981, Q1 : 0.720332145691, Q2 : 0.102841310203, Q3 : -0.108790136874, Q4 : 0.6772813797}
2019-04-03 20:19:13.41: SIM {TimeUS : 195035288, Roll : -0.07, Pitch : -17.25, Yaw : 86.6, Alt : 594.299987793, Lat : -35.3632494, Lng : 149.1654029, Q1 : 0.719593942165, Q2 : 0.102436438203, Q3 : -0.109603211284, Q4 : 0.677995979786}
