2019-04-03 19:35:24.10: SIM {TimeUS : 44716273, Roll : 0.0, Pitch : 0.0, Yaw : 353.0, Alt : 584.090026855, Lat : -35.363261, Lng : 149.1652299, Q1 : 0.998134791851, Q2 : 0.0, Q3 : 0.0, Q4 : -0.0610485821962}
2019-04-03 19:35:24.20: SIM {TimeUS : 44816233, Roll : 0.0, Pitch : 0.0, Yaw : 353.0, Alt : 584.090026855, Lat : -35.363261, Lng : 149.1652299, Q1 : 0.998134791851, Q2 : 0.0, Q3 : 0.0, Q4 : -0.0610485821962}
2019-04-03 19:35:24.29: SIM {TimeUS : 44916193, Roll : 0.0, Pitch : 0.0, Yaw : 353.0, Alt : 584.090026855, Lat : -35.363261, Lng : 149.1652299, Q1 : 0.998134791851, Q2 : 0.0, Q3 : 0.0, Q4 : -0.0610485821962}
2019-04-03 19:35:24.39: SIM {TimeUS : 45016153, Roll : 0.0, Pitch : 0.0, Yaw : 353.0, Alt : 584.090026855, Lat : -35.363261, Lng : 149.1652299, Q1 : 0.998134791851, Q2 : 0.0, Q3 : 0.0, Q4 : -0.0610485821962}
2019-04-03 19:35:24.49: SIM {TimeUS : 45116113, Roll : 0.0, Pitch : 0.0, Yaw : 353.0, Alt : 584.090026855, Lat : -35.363261, Lng : 149.1652299, Q1 : 0.998134791851, Q2 : 0.0, Q3 : 0.0, Q4 : -0.0610485821962}
2019-04-03 19:35:24.59: SIM {TimeUS : 45216073, Roll : 0.0, Pitch : 0.0, Yaw : 353.0, Alt : 584.090026855, Lat : -35.363261, Lng : 149.1652299, Q1 : 0.998134791851, Q2 : 0.0, Q3 : 0.0, Q4 : -0.0610485821962}
2019-04-03 19:35:24.69: SIM {TimeUS : 45316033, Roll : 0.0, Pitch : 0.0, Yaw : 353.0, Alt : 584.090026855, Lat : -35.363261, Lng : 149.1652299, Q1 : 0.998134791851, Q2 : 0.0, Q3 : 0.0, Q4 : -0.0610485821962}
2019-04-03 19:35:24.79: SIM {TimeUS : 45415993, Roll : 0.0, Pitch : 0.0, Yaw : 353.0, Alt : 584.090026855, Lat : -35.363261, Lng : 149.1652299, Q1 : 0.998134791851, Q2 : 0.0, Q3 : 0.0, Q4 : -0.0610485821962}
2019-04-03 19:35:24.89: SIM {TimeUS : 45515953, Roll : 0.0, Pitch : 0.0, Yaw : 353.0, Alt : 584.090026855, Lat : -35.363261, Lng : 149.1652299, Q1 : 0.998134791851, Q2 : 0.0, Q3 : 0.0, Q4 : -0.0610485821962}
2019-04-03 19:35:24.99: SIM {TimeUS : 45615913, Roll : 0.0, Pitch : 0.0, Yaw : 353.0, Alt : 584.090026855, Lat : -35.363261, Lng : 149.1652299, Q1 : 0.998134791851, Q2 : 0.0, Q3 : 0.0, Q4 : -0.0610485821962}
2019-04-03 19:35:25.09: SIM {TimeUS : 45715873, Roll : 0.0, Pitch : 0.0, Yaw : 353.0, Alt : 584.090026855, Lat : -35.363261, Lng : 149.1652299, Q1 : 0.998134791851, Q2 : 0.0, Q3 : 0.0, Q4 : -0.0610485821962}
2019-04-03 19:35:25.19: SIM {TimeUS : 45815833, Roll : 0.0, Pitch : 0.0, Yaw : 353.0, Alt : 584.090026855, Lat : -35.363261, Lng : 149.1652299, Q1 : 0.998134791851, Q2 : 0.0, Q3 : 0.0, Q4 : -0.0610485821962}
2019-04-03 19:35:25.29: SIM {TimeUS : 45915793, Roll : 0.0, Pitch : 0.0, Yaw : 353.0, Alt : 584.090026855, Lat : -35.363261, Lng : 149.1652299, Q1 : 0.998134791851, Q2 : 0.0, Q3 : 0.0, Q4 : -0.0610485821962}
2019-04-03 19:35:25.39: SIM {TimeUS : 46015753, Roll : 0.0, Pitch : 0.0, Yaw : 353.0, Alt : 584.090026855, Lat : -35.363261, Lng : 149.1652299, Q1 : 0.998134791851, Q2 : 0.0, Q3 : 0.0, Q4 : -0.0610485821962}
2019-04-03 19:35:25.49: SIM {TimeUS : 46115713, Roll : 0.0, Pitch : 0.0, Yaw : 353.0, Alt : 584.090026855, Lat : -35.363261, Lng : 149.1652299, Q1 : 0.998134791851, Q2 : 0.0, Q3 : 0.0, Q4 : -0.0610485821962}
2019-04-03 19:35:25.59: SIM {TimeUS : 46215673, Roll : 0.0, Pitch : 0.0, Yaw : 353.0, Alt : 584.090026855, Lat : -35.363261, Lng : 149.1652299, Q1 : 0.998134791851, Q2 : 0.0, Q3 : 0.0, Q4 : -0.0610485821962}
2019-04-03 19:35:25.70: SIM {TimeUS : 46316466, Roll : 0.0, Pitch : 0.0, Yaw : 353.0, Alt : 584.090026855, Lat : -35.363261, Lng : 149.1652299, Q1 : 0.998134791851, Q2 : 0.0, Q3 : 0.0, Q4 : -0.0610485821962}
2019-04-03 19:35:25.80: SIM {TimeUS : 46416426, Roll : 0.0, Pitch : 0.0, Yaw : 353.0, Alt : 584.090026855, Lat : -35.363261, Lng : 149.1652299, Q1 : 0.998134791851, Q2 : 0.0, Q3 : 0.0, Q4 : -0.0610485821962}
2019-04-03 19:35:25.90: SIM {TimeUS : 46516386, Roll : 0.0, Pitch : 0.0, Yaw : 353.0, Alt : 584.090026855, Lat : -35.363261, Lng : 149.1652299, Q1 : 0.998134791851, Q2 : 0.0, Q3 : 0.0, Q4 : -0.0610485821962}
2019-04-03 19:35:26.00: SIM {TimeUS : 46616346, Roll : 0.0, Pitch : 0.0, Yaw : 353.0, Alt : 584.090026855, Lat : -35.363261, Lng : 149.1652299, Q1 : 0.998134791851, Q2 : 0.0, Q3 : 0.0, Q4 : -0.0610485821962}
2019-04-03 19:35:26.10: SIM {TimeUS : 46716306, Roll : 0.0, Pitch : 0.0, Yaw : 353.0, Alt : 584.090026855, Lat : -35.363261, Lng : 149.1652299, Q1 : 0.998134791851, Q2 : 0.0, Q3 : 0.0, Q4 : -0.0610485821962}
2019-04-03 19:35:26.20: SIM {TimeUS : 46816266, Roll : 0.0, Pitch : 0.0, Yaw : 353.0, Alt : 584.090026855, Lat : -35.363261, Lng : 149.1652299, Q1 : 0.998134791851, Q2 : 0.0, Q3 : 0.0, Q4 : -0.0610485821962}
2019-04-03 19:35:26.29: SIM {TimeUS : 46916226, Roll : 0.0, Pitch : 0.0, Yaw : 353.0, Alt : 584.090026855, Lat : -35.363261, Lng : 149.1652299, Q1 : 0.998134791851, Q2 : 0.0, Q3 : 0.0, Q4 : -0.0610485821962}
2019-04-03 19:35:26.39: SIM {TimeUS : 47016186, Roll : 0.0, Pitch : 0.0, Yaw : 353.0, Alt : 584.090026855, Lat : -35.363261, Lng : 149.1652299, Q1 : 0.998134791851, Q2 : 0.0, Q3 : 0.0, Q4 : -0.0610485821962}
2019-04-03 19:35:26.49: SIM {TimeUS : 47116146, Roll : 0.0, Pitch : 0.0, Yaw : 353.0, Alt : 584.090026855, Lat : -35.363261, Lng : 149.1652299, Q1 : 0.998134791851, Q2 : 0.0, Q3 : 0.0, Q4 : -0.0610485821962}
2019-04-03 19:35:26.59: SIM {TimeUS : 47216106, Roll : 0.0, Pitch : 0.0, Yaw : 353.0, Alt : 584.090026855, Lat : -35.363261, Lng : 149.1652299, Q1 : 0.998134791851, Q2 : 0.0, Q3 : 0.0, Q4 : -0.0610485821962}
2019-04-03 19:35:26.69: SIM {TimeUS : 47316066, Roll : 0.0, Pitch : 0.0, Yaw : 353.0, Alt : 584.090026855, Lat : -35.363261, Lng : 149.1652299, Q1 : 0.998134791851, Q2 : 0.0, Q3 : 0.0, Q4 : -0.0610485821962}
2019-04-03 19:35:26.79: SIM {TimeUS : 47416026, Roll : 0.0, Pitch : 0.0, Yaw : 353.0, Alt : 584.090026855, Lat : -35.363261, Lng : 149.1652299, Q1 : 0.998134791851, Q2 : 0.0, Q3 : 0.0, Q4 : -0.0610485821962}
2019-04-03 19:35:26.89: SIM {TimeUS : 47515986, Roll : 0.0, Pitch : 0.0, Yaw : 353.0, Alt : 584.090026855, Lat : -35.363261, Lng : 149.1652299, Q1 : 0.998134791851, Q2 : 0.0, Q3 : 0.0, Q4 : -0.0610485821962}
2019-04-03 19:35:26.99: SIM {TimeUS : 47615946, Roll : 0.0, Pitch : 0.0, Yaw : 353.0, Alt : 584.090026855, Lat : -35.363261, Lng : 149.1652299, Q1 : 0.998134791851, Q2 : 0.0, Q3 : 0.0, Q4 : -0.061048604548}
2019-04-03 19:35:27.09: SIM {TimeUS : 47715906, Roll : 0.0, Pitch : 0.0, Yaw : 353.0, Alt : 584.090026855, Lat : -35.363261, Lng : 149.1652299, Q1 : 0.998134791851, Q2 : 0.0, Q3 : 0.0, Q4 : -0.0610486380756}
2019-04-03 19:35:27.19: SIM {TimeUS : 47815866, Roll : 0.0, Pitch : 0.0, Yaw : 353.0, Alt : 584.090026855, Lat : -35.363261, Lng : 149.1652299, Q1 : 0.998134791851, Q2 : 0.0, Q3 : 0.0, Q4 : -0.0610486753285}
2019-04-03 19:35:27.29: SIM {TimeUS : 47915826, Roll : 0.0, Pitch : 0.0, Yaw : 353.0, Alt : 584.090026855, Lat : -35.363261, Lng : 149.1652299, Q1 : 0.998134791851, Q2 : 0.0, Q3 : 0.0, Q4 : -0.0610486753285}
2019-04-03 19:35:27.39: SIM {TimeUS : 48015786, Roll : 0.0, Pitch : 0.0, Yaw : 353.0, Alt : 584.090026855, Lat : -35.363261, Lng : 149.1652299, Q1 : 0.998134791851, Q2 : 0.0, Q3 : 0.0, Q4 : -0.0610486753285}
2019-04-03 19:35:27.49: SIM {TimeUS : 48115746, Roll : 0.0, Pitch : 0.0, Yaw : 353.0, Alt : 584.090026855, Lat : -35.363261, Lng : 149.1652299, Q1 : 0.998134791851, Q2 : 0.0, Q3 : 0.0, Q4 : -0.0610486753285}
2019-04-03 19:35:27.59: SIM {TimeUS : 48215706, Roll : 0.0, Pitch : 0.0, Yaw : 353.0, Alt : 584.090026855, Lat : -35.363261, Lng : 149.1652299, Q1 : 0.998134791851, Q2 : 0.0, Q3 : 0.0, Q4 : -0.0610486641526}
2019-04-03 19:35:27.69: SIM {TimeUS : 48315666, Roll : 0.0, Pitch : 0.0, Yaw : 353.0, Alt : 584.090026855, Lat : -35.363261, Lng : 149.1652299, Q1 : 0.998134791851, Q2 : 0.0, Q3 : 0.0, Q4 : -0.0610486529768}
2019-04-03 19:35:27.80: SIM {TimeUS : 48416459, Roll : 0.0, Pitch : 0.0, Yaw : 353.0, Alt : 584.099975586, Lat : -35.363261, Lng : 149.1652299, Q1 : 0.998134791851, Q2 : 0.0, Q3 : 0.0, Q4 : -0.0610486641526}
2019-04-03 19:35:27.90: SIM {TimeUS : 48516419, Roll : 0.0, Pitch : 0.0, Yaw : 353.0, Alt : 584.099975586, Lat : -35.363261, Lng : 149.1652299, Q1 : 0.998134791851, Q2 : 0.0, Q3 : 0.0, Q4 : -0.0610486753285}
2019-04-03 19:35:28.00: SIM {TimeUS : 48616379, Roll : 0.0, Pitch : 0.0, Yaw : 353.0, Alt : 584.119995117, Lat : -35.363261, Lng : 149.1652299, Q1 : 0.998134791851, Q2 : 0.0, Q3 : 0.0, Q4 : -0.0610486753285}
2019-04-03 19:35:28.10: SIM {TimeUS : 48716339, Roll : 0.0, Pitch : 0.0, Yaw : 353.0, Alt : 584.140014648, Lat : -35.363261, Lng : 149.1652299, Q1 : 0.998134791851, Q2 : 0.0, Q3 : 0.0, Q4 : -0.0610486641526}
2019-04-03 19:35:28.20: SIM {TimeUS : 48816299, Roll : 0.0, Pitch : 0.0, Yaw : 353.0, Alt : 584.16998291, Lat : -35.363261, Lng : 149.1652299, Q1 : 0.998134791851, Q2 : 0.0, Q3 : 0.0, Q4 : -0.061048541218}
2019-04-03 19:35:28.30: SIM {TimeUS : 48916259, Roll : 0.0, Pitch : 0.0, Yaw : 353.0, Alt : 584.210021973, Lat : -35.363261, Lng : 149.1652299, Q1 : 0.998134791851, Q2 : 0.0, Q3 : 0.0, Q4 : -0.0610486641526}
2019-04-03 19:35:28.39: SIM {TimeUS : 49016219, Roll : 0.0, Pitch : 0.0, Yaw : 352.99, Alt : 584.260009766, Lat : -35.363261, Lng : 149.1652299, Q1 : 0.998134493828, Q2 : -6.14250093349e-05, Q3 : 1.25332198877e-05, Q4 : -0.0610540248454}
2019-04-03 19:35:28.49: SIM {TimeUS : 49116179, Roll : -0.04, Pitch : 0.0, Yaw : 352.99, Alt : 584.369995117, Lat : -35.363261, Lng : 149.1652299, Q1 : 0.998133540154, Q2 : -0.000355895026587, Q3 : 9.43102422752e-05, Q4 : -0.061068136245}
2019-04-03 19:35:28.59: SIM {TimeUS : 49216139, Roll : -0.09, Pitch : 0.02, Yaw : 352.99, Alt : 584.520019531, Lat : -35.363261, Lng : 149.1652299, Q1 : 0.998131930828, Q2 : -0.000839363783598, Q3 : 0.000252328143688, Q4 : -0.0610892474651}
2019-04-03 19:35:28.69: SIM {TimeUS : 49316099, Roll : -0.12, Pitch : 0.04, Yaw : 352.99, Alt : 584.679992676, Lat : -35.363261, Lng : 149.1652299, Q1 : 0.998130261898, Q2 : -0.0010969346622, Q3 : 0.000426046171924, Q4 : -0.0611115768552}
2019-04-03 19:35:28.79: SIM {TimeUS : 49416059, Roll : -0.12, Pitch : 0.05, Yaw : 352.99, Alt : 584.83001709, Lat : -35.363261, Lng : 149.1652299, Q1 : 0.998129248619, Q2 : -0.00108936359175, Q3 : 0.000514170329552, Q4 : -0.0611281879246}
2019-04-03 19:35:28.89: SIM {TimeUS : 49516019, Roll : -0.1, Pitch : 0.05, Yaw : 352.98, Alt : 584.979980469, Lat : -35.363261, Lng : 149.1652299, Q1 : 0.998128771782, Q2 : -0.000877326237969, Q3 : 0.000492567953188, Q4 : -0.0611388646066}
2019-04-03 19:35:28.99: SIM {TimeUS : 49615979, Roll : -0.07, Pitch : 0.06, Yaw : 352.98, Alt : 585.140014648, Lat : -35.363261, Lng : 149.1652299, Q1 : 0.998128175735, Q2 : -0.000585828325711, Q3 : 0.000600033323281, Q4 : -0.0611508302391}
2019-04-03 19:35:29.09: SIM {TimeUS : 49715939, Roll : -0.02, Pitch : 0.08, Yaw : 352.98, Alt : 585.299987793, Lat : -35.363261, Lng : 149.1652299, Q1 : 0.998127579689, Q2 : -0.000154549343279, Q3 : 0.00075926783029, Q4 : -0.0611614659429}
2019-04-03 19:35:29.19: SIM {TimeUS : 49815899, Roll : 0.01, Pitch : 0.1, Yaw : 352.98, Alt : 585.460021973, Lat : -35.363261, Lng : 149.1652299, Q1 : 0.998126804829, Q2 : 0.000208928671782, Q3 : 0.000929296016693, Q4 : -0.0611721538007}
2019-04-03 19:35:29.29: SIM {TimeUS : 49915859, Roll : 0.04, Pitch : 0.1, Yaw : 352.98, Alt : 585.630004883, Lat : -35.363261, Lng : 149.1652299, Q1 : 0.998126327991, Q2 : 0.000436032743892, Q3 : 0.000864880392328, Q4 : -0.0611794069409}
2019-04-03 19:35:29.39: SIM {TimeUS : 50015819, Roll : 0.0, Pitch : 0.08, Yaw : 352.98, Alt : 585.780029297, Lat : -35.363261, Lng : 149.1652299, Q1 : 0.998126327991, Q2 : 0.000118254349218, Q3 : 0.000723591074347, Q4 : -0.0611828677356}
2019-04-03 19:35:29.49: SIM {TimeUS : 50115779, Roll : -0.25, Pitch : 0.13, Yaw : 352.98, Alt : 585.929992676, Lat : -35.363261, Lng : 149.1652299, Q1 : 0.998123288155, Q2 : -0.00216967146844, Q3 : 0.00131230347324, Q4 : -0.0611839704216}
2019-04-03 19:35:29.59: SIM {TimeUS : 50215739, Roll : -0.82, Pitch : 0.27, Yaw : 352.98, Alt : 586.070007324, Lat : -35.363261, Lng : 149.1652299, Q1 : 0.998097538948, Q2 : -0.00705914851278, Q3 : 0.00287001673132, Q4 : -0.0611826665699}
2019-04-03 19:35:29.69: SIM {TimeUS : 50315699, Roll : -1.64, Pitch : 0.51, Yaw : 352.97, Alt : 586.200012207, Lat : -35.363261, Lng : 149.1652299, Q1 : 0.998013973236, Q2 : -0.0140487477183, Q3 : 0.00538022490218, Q4 : -0.061170142144}
2019-04-03 19:35:29.79: SIM {TimeUS : 50415659, Roll : -2.63, Pitch : 0.79, Yaw : 352.96, Alt : 586.320007324, Lat : -35.363261, Lng : 149.1652298, Q1 : 0.997841238976, Q2 : -0.0224917214364, Q3 : 0.00834613759071, Q4 : -0.0611334070563}
2019-04-03 19:35:29.90: SIM {TimeUS : 50516452, Roll : -3.69, Pitch : 1.08, Yaw : 352.95, Alt : 586.429992676, Lat : -35.363261, Lng : 149.1652298, Q1 : 0.997569620609, Q2 : -0.0315591879189, Q3 : 0.0114247873425, Q4 : -0.0610596053302}
2019-04-03 19:35:30.00: SIM {TimeUS : 50616412, Roll : -4.68, Pitch : 1.34, Yaw : 352.95, Alt : 586.520019531, Lat : -35.363261, Lng : 149.1652297, Q1 : 0.997233569622, Q2 : -0.0400962308049, Q3 : 0.0142613835633, Q4 : -0.0609438456595}
2019-04-03 19:35:30.10: SIM {TimeUS : 50716372, Roll : -5.5, Pitch : 1.56, Yaw : 352.94, Alt : 586.599975586, Lat : -35.363261, Lng : 149.1652294, Q1 : 0.99690246582, Q2 : -0.0470536351204, Q3 : 0.0166009608656, Q4 : -0.0607936754823}
2019-04-03 19:35:30.20: SIM {TimeUS : 50816332, Roll : -6.09, Pitch : 1.73, Yaw : 352.94, Alt : 586.66998291, Lat : -35.3632611, Lng : 149.1652292, Q1 : 0.996628582478, Q2 : -0.0521473586559, Q3 : 0.0183784291148, Q4 : -0.0606171749532}
2019-04-03 19:35:30.30: SIM {TimeUS : 50916292, Roll : -6.54, Pitch : 1.87, Yaw : 352.95, Alt : 586.729980469, Lat : -35.3632614, Lng : 149.1652288, Q1 : 0.996405899525, Q2 : -0.0559768714011, Q3 : 0.0197758246213, Q4 : -0.0604223683476}
2019-04-03 19:35:30.40: SIM {TimeUS : 51016252, Roll : -6.91, Pitch : 1.97, Yaw : 352.96, Alt : 586.789978027, Lat : -35.3632615, Lng : 149.1652284, Q1 : 0.99621206522, Q2 : -0.0591572225094, Q3 : 0.0208735708147, Q4 : -0.0602189600468}
2019-04-03 19:35:30.49: SIM {TimeUS : 51116212, Roll : -7.27, Pitch : 2.06, Yaw : 352.97, Alt : 586.840026855, Lat : -35.3632616, Lng : 149.1652278, Q1 : 0.996018886566, Q2 : -0.0622050724924, Q3 : 0.021803015843, Q4 : -0.0600131601095}
2019-04-03 19:35:30.59: SIM {TimeUS : 51216172, Roll : -7.62, Pitch : 2.14, Yaw : 352.98, Alt : 586.880004883, Lat : -35.3632619, Lng : 149.1652272, Q1 : 0.995818734169, Q2 : -0.0651795938611, Q3 : 0.0227509457618, Q4 : -0.059825848788}
2019-04-03 19:35:30.69: SIM {TimeUS : 51316132, Roll : -7.91, Pitch : 2.23, Yaw : 352.98, Alt : 586.91998291, Lat : -35.3632622, Lng : 149.1652264, Q1 : 0.995640099049, Q2 : -0.0676892250776, Q3 : 0.0236407127231, Q4 : -0.0596672594547}
2019-04-03 19:35:30.79: SIM {TimeUS : 51416092, Roll : -8.13, Pitch : 2.29, Yaw : 352.99, Alt : 586.950012207, Lat : -35.3632625, Lng : 149.1652255, Q1 : 0.995503127575, Q2 : -0.0695798993111, Q3 : 0.0242545008659, Q4 : -0.0595307089388}
2019-04-03 19:35:30.89: SIM {TimeUS : 51516052, Roll : -8.3, Pitch : 2.33, Yaw : 352.99, Alt : 586.989990234, Lat : -35.3632628, Lng : 149.1652246, Q1 : 0.995399713516, Q2 : -0.0709918066859, Q3 : 0.0246699601412, Q4 : -0.0594218224287}
2019-04-03 19:35:30.99: SIM {TimeUS : 51616012, Roll : -8.43, Pitch : 2.35, Yaw : 353.0, Alt : 587.020019531, Lat : -35.3632631, Lng : 149.1652236, Q1 : 0.995316207409, Q2 : -0.0721291899681, Q3 : 0.0249275323004, Q4 : -0.0593433827162}
2019-04-03 19:35:31.09: SIM {TimeUS : 51715972, Roll : -8.54, Pitch : 2.37, Yaw : 353.0, Alt : 587.039978027, Lat : -35.3632634, Lng : 149.1652226, Q1 : 0.995242655277, Q2 : -0.0730872303247, Q3 : 0.0251421444118, Q4 : -0.05931494385}
2019-04-03 19:35:31.19: SIM {TimeUS : 51815932, Roll : -8.67, Pitch : 2.45, Yaw : 352.97, Alt : 587.070007324, Lat : -35.3632639, Lng : 149.1652215, Q1 : 0.995132982731, Q2 : -0.0741501301527, Q3 : 0.0259889066219, Q4 : -0.0594704374671}
2019-04-03 19:35:31.29: SIM {TimeUS : 51915892, Roll : -8.81, Pitch : 2.82, Yaw : 352.62, Alt : 587.099975586, Lat : -35.3632643, Lng : 149.1652202, Q1 : 0.994798660278, Q2 : -0.0750811472535, Q3 : 0.0294591933489, Q4 : -0.062214538455}
2019-04-03 19:35:31.39: SIM {TimeUS : 52015852, Roll : -9.01, Pitch : 3.4, Yaw : 351.29, Alt : 587.119995117, Lat : -35.3632647, Lng : 149.1652188, Q1 : 0.993774354458, Q2 : -0.0760592594743, Q3 : 0.0354846715927, Q4 : -0.0732695236802}
2019-04-03 19:35:31.49: SIM {TimeUS : 52115812, Roll : -9.37, Pitch : 3.78, Yaw : 348.42, Alt : 587.140014648, Lat : -35.3632653, Lng : 149.1652174, Q1 : 0.991304755211, Q2 : -0.0779826268554, Q3 : 0.0409912243485, Q4 : -0.0977415293455}
2019-04-03 19:35:31.59: SIM {TimeUS : 52215772, Roll : -9.93, Pitch : 3.61, Yaw : 343.94, Alt : 587.16998291, Lat : -35.3632658, Lng : 149.165216, Q1 : 0.986369729042, Q2 : -0.081314355135, Q3 : 0.0431857928634, Q4 : -0.136373564601}
2019-04-03 19:35:31.69: SIM {TimeUS : 52315732, Roll : -10.55, Pitch : 2.72, Yaw : 338.06, Alt : 587.190002441, Lat : -35.3632665, Lng : 149.1652145, Q1 : 0.977724313736, Q2 : -0.0857344716787, Q3 : 0.0407137349248, Q4 : -0.18720895052}
2019-04-03 19:35:31.79: SIM {TimeUS : 52415692, Roll : -11.06, Pitch : 1.11, Yaw : 331.11, Alt : 587.219970703, Lat : -35.3632671, Lng : 149.1652129, Q1 : 0.964080393314, Q2 : -0.0908977538347, Q3 : 0.0334532782435, Q4 : -0.247320413589}
2019-04-03 19:35:31.90: SIM {TimeUS : 52516485, Roll : -11.32, Pitch : -1.06, Yaw : 323.3, Alt : 587.239990234, Lat : -35.3632678, Lng : 149.1652112, Q1 : 0.944197297096, Q2 : -0.096564784646, Q3 : 0.0222741346806, Q4 : -0.314118653536}
2019-04-03 19:35:32.00: SIM {TimeUS : 52616445, Roll : -11.21, Pitch : -3.57, Yaw : 315.01, Alt : 587.270019531, Lat : -35.3632686, Lng : 149.1652095, Q1 : 0.91789317131, Q2 : -0.102141849697, Q3 : 0.00870302505791, Q4 : -0.383358120918}
2019-04-03 19:35:32.10: SIM {TimeUS : 52716405, Roll : -10.62, Pitch : -6.12, Yaw : 306.41, Alt : 587.299987793, Lat : -35.3632695, Lng : 149.1652077, Q1 : 0.885293006897, Q2 : -0.10652204603, Q3 : -0.00575963361189, Q4 : -0.45263248682}
2019-04-03 19:35:32.20: SIM {TimeUS : 52816365, Roll : -9.56, Pitch : -8.46, Yaw : 297.72, Alt : 587.33001709, Lat : -35.3632702, Lng : 149.1652057, Q1 : 0.847424268723, Q2 : -0.109216287732, Q3 : -0.0199558101594, Q4 : -0.519177854061}
2019-04-03 19:35:32.30: SIM {TimeUS : 52916325, Roll : -8.13, Pitch : -10.43, Yaw : 289.2, Alt : 587.369995117, Lat : -35.3632712, Lng : 149.1652037, Q1 : 0.806008994579, Q2 : -0.11014726758, Q3 : -0.0330225117505, Q4 : -0.580626130104}
2019-04-03 19:35:32.40: SIM {TimeUS : 53016285, Roll : -6.49, Pitch : -11.94, Yaw : 281.11, Alt : 587.400024414, Lat : -35.3632719, Lng : 149.1652015, Q1 : 0.763063728809, Q2 : -0.109534241259, Q3 : -0.0443901717663, Q4 : -0.635425508022}
2019-04-03 19:35:32.50: SIM {TimeUS : 53116245, Roll : -4.82, Pitch : -13.01, Yaw : 273.6, Alt : 587.440002441, Lat : -35.3632729, Lng : 149.1651992, Q1 : 0.720389008522, Q2 : -0.108022406697, Q3 : -0.0539176501334, Q4 : -0.682981550694}
2019-04-03 19:35:32.59: SIM {TimeUS : 53216205, Roll : -3.27, Pitch : -13.74, Yaw : 266.77, Alt : 587.469970703, Lat : -35.3632738, Lng : 149.1651968, Q1 : 0.679244756699, Q2 : -0.106399700046, Q3 : -0.061593528837, Q4 : -0.723541200161}
2019-04-03 19:35:32.69: SIM {TimeUS : 53316165, Roll : -1.92, Pitch : -14.2, Yaw : 260.61, Alt : 587.510009766, Lat : -35.3632747, Lng : 149.1651944, Q1 : 0.640253484249, Q2 : -0.105033844709, Q3 : -0.0672771707177, Q4 : -0.757969141006}
2019-04-03 19:35:32.79: SIM {TimeUS : 53416125, Roll : -0.77, Pitch : -14.44, Yaw : 255.03, Alt : 587.549987793, Lat : -35.3632756, Lng : 149.1651918, Q1 : 0.603457510471, Q2 : -0.103788465261, Q3 : -0.0712542235851, Q4 : -0.787394344807}
2019-04-03 19:35:32.89: SIM {TimeUS : 53516085, Roll : 0.3, Pitch : -14.57, Yaw : 249.9, Alt : 587.590026855, Lat : -35.3632765, Lng : 149.165189, Q1 : 0.568537533283, Q2 : -0.102454908192, Q3 : -0.0747996047139, Q4 : -0.81281799078}
2019-04-03 19:35:32.99: SIM {TimeUS : 53616045, Roll : 1.63, Pitch : -14.62, Yaw : 245.34, Alt : 587.630004883, Lat : -35.3632774, Lng : 149.1651862, Q1 : 0.536926269531, Q2 : -0.0995253771544, Q3 : -0.0806387290359, Q4 : -0.833847880363}
2019-04-03 19:35:33.09: SIM {TimeUS : 53716005, Roll : 3.1, Pitch : -14.57, Yaw : 241.73, Alt : 587.66998291, Lat : -35.3632784, Lng : 149.1651834, Q1 : 0.511699855328, Q2 : -0.0950677394867, Q3 : -0.0881768465042, Q4 : -0.849323451519}
2019-04-03 19:35:33.19: SIM {TimeUS : 53815965, Roll : 4.37, Pitch : -14.47, Yaw : 239.35, Alt : 587.710021973, Lat : -35.3632793, Lng : 149.1651804, Q1 : -0.495027273893, Q2 : 0.0906262844801, Q3 : 0.0952147096395, Q4 : 0.858876645565}
2019-04-03 19:35:33.29: SIM {TimeUS : 53915925, Roll : 5.1, Pitch : -14.41, Yaw : 238.25, Alt : 587.760009766, Lat : -35.3632803, Lng : 149.1651772, Q1 : -0.487346321344, Q2 : 0.0879545286298, Q3 : 0.0996282696724, Q4 : 0.863036394119}
2019-04-03 19:35:33.39: SIM {TimeUS : 54015885, Roll : 5.15, Pitch : -14.44, Yaw : 238.31, Alt : 587.799987793, Lat : -35.3632813, Lng : 149.1651741, Q1 : -0.487763106823, Q2 : 0.0879203304648, Q3 : 0.100114554167, Q4 : 0.862748086452}
2019-04-03 19:35:33.49: SIM {TimeUS : 54115845, Roll : 4.51, Pitch : -14.59, Yaw : 239.28, Alt : 587.849975586, Lat : -35.3632822, Lng : 149.1651709, Q1 : -0.494557529688, Q2 : 0.0910058766603, Q3 : 0.0967325568199, Q4 : 0.858937501907}
2019-04-03 19:35:33.59: SIM {TimeUS : 54215805, Roll : 3.36, Pitch : -14.85, Yaw : 240.92, Alt : 587.890014648, Lat : -35.3632832, Lng : 149.1651675, Q1 : 0.505756318569, Q2 : -0.0966287851334, Q3 : -0.0905805230141, Q4 : -0.852448582649}
2019-04-03 19:35:33.69: SIM {TimeUS : 54315765, Roll : 1.93, Pitch : -15.13, Yaw : 242.94, Alt : 587.940002441, Lat : -35.3632841, Lng : 149.1651641, Q1 : 0.519356966019, Q2 : -0.10356592387, Q3 : -0.0830683037639, Q4 : -0.84418129921}
2019-04-03 19:35:33.79: SIM {TimeUS : 54415725, Roll : 0.48, Pitch : -15.39, Yaw : 245.06, Alt : 587.979980469, Lat : -35.3632851, Lng : 149.1651606, Q1 : 0.533377051353, Q2 : -0.11068880558, Q3 : -0.0755719989538, Q4 : -0.835191965103}
2019-04-03 19:35:33.89: SIM {TimeUS : 54515685, Roll : -0.78, Pitch : -15.59, Yaw : 247.0, Alt : 588.030029297, Lat : -35.3632859, Lng : 149.165157, Q1 : 0.546115279198, Q2 : -0.116851806641, Q3 : -0.069188170135, Q4 : -0.826629757881}
2019-04-03 19:35:34.00: SIM {TimeUS : 54616478, Roll : -1.74, Pitch : -15.69, Yaw : 248.59, Alt : 588.08001709, Lat : -35.3632871, Lng : 149.1651535, Q1 : 0.556407213211, Q2 : -0.121298931539, Q3 : -0.0644589886069, Q4 : -0.819477081299}
2019-04-03 19:35:34.10: SIM {TimeUS : 54716438, Roll : -2.32, Pitch : -15.74, Yaw : 249.65, Alt : 588.119995117, Lat : -35.3632882, Lng : 149.1651499, Q1 : 0.563338577747, Q2 : -0.123902127147, Q3 : -0.0617200508714, Q4 : -0.814548075199}
2019-04-03 19:35:34.20: SIM {TimeUS : 54816398, Roll : -2.51, Pitch : -15.77, Yaw : 250.17, Alt : 588.16998291, Lat : -35.3632893, Lng : 149.1651461, Q1 : 0.566800355911, Q2 : -0.124773144722, Q3 : -0.0610735081136, Q4 : -0.812058568001}
2019-04-03 19:35:34.30: SIM {TimeUS : 54916358, Roll : -2.37, Pitch : -15.8, Yaw : 250.18, Alt : 588.219970703, Lat : -35.3632905, Lng : 149.1651425, Q1 : 0.566983342171, Q2 : -0.124259099364, Q3 : -0.0622267052531, Q4 : -0.811922073364}
2019-04-03 19:35:34.40: SIM {TimeUS : 55016318, Roll : -2.0, Pitch : -15.82, Yaw : 249.76, Alt : 588.260009766, Lat : -35.3632917, Lng : 149.1651388, Q1 : 0.564373850822, Q2 : -0.122821345925, Q3 : -0.0645194724202, Q4 : -0.813777863979}
2019-04-03 19:35:34.50: SIM {TimeUS : 55116278, Roll : -1.49, Pitch : -15.86, Yaw : 249.03, Alt : 588.309997559, Lat : -35.363293, Lng : 149.165135, Q1 : 0.559692978859, Q2 : -0.12102920562, Q3 : -0.0675629675388, Q4 : -0.817025721073}
2019-04-03 19:35:34.60: SIM {TimeUS : 55216238, Roll : -0.93, Pitch : -15.93, Yaw : 248.12, Alt : 588.359985352, Lat : -35.3632943, Lng : 149.1651312, Q1 : 0.553771853447, Q2 : -0.119324311614, Q3 : -0.0709204077721, Q4 : -0.821016848087}
2019-04-03 19:35:34.69: SIM {TimeUS : 55316198, Roll : -0.38, Pitch : -15.99, Yaw : 247.18, Alt : 588.409973145, Lat : -35.3632956, Lng : 149.1651274, Q1 : 0.54747825861, Q2 : -0.117775291204, Q3 : -0.0741769522429, Q4 : -0.825163304806}
2019-04-03 19:35:34.79: SIM {TimeUS : 55416158, Roll : 0.08, Pitch : -16.04, Yaw : 246.3, Alt : 588.450012207, Lat : -35.3632969, Lng : 149.1651235, Q1 : 0.541573822498, Q2 : -0.116463281214, Q3 : -0.0769428685308, Q4 : -0.828983604908}
2019-04-03 19:35:34.89: SIM {TimeUS : 55516118, Roll : 0.45, Pitch : -16.09, Yaw : 245.57, Alt : 588.5, Lat : -35.3632982, Lng : 149.1651195, Q1 : 0.536641955376, Q2 : -0.115551322699, Q3 : -0.0790810659528, Q4 : -0.832111477852}
2019-04-03 19:35:34.99: SIM {TimeUS : 55616078, Roll : 0.7, Pitch : -16.12, Yaw : 245.05, Alt : 588.549987793, Lat : -35.3632997, Lng : 149.1651156, Q1 : 0.533081591129, Q2 : -0.114961951971, Q3 : -0.0805201455951, Q4 : -0.834340631962}
2019-04-03 19:35:35.09: SIM {TimeUS : 55716038, Roll : 0.83, Pitch : -16.14, Yaw : 244.75, Alt : 588.599975586, Lat : -35.3633011, Lng : 149.1651116, Q1 : 0.53104776144, Q2 : -0.114714637399, Q3 : -0.0813187509775, Q4 : -0.835593283176}
2019-04-03 19:35:35.19: SIM {TimeUS : 55815998, Roll : 0.84, Pitch : -16.16, Yaw : 244.67, Alt : 588.650024414, Lat : -35.3633024, Lng : 149.1651075, Q1 : 0.530466616154, Q2 : -0.114885784686, Q3 : -0.0814247727394, Q4 : -0.835928499699}
2019-04-03 19:35:35.29: SIM {TimeUS : 55915958, Roll : 0.73, Pitch : -16.19, Yaw : 244.78, Alt : 588.690002441, Lat : -35.3633039, Lng : 149.1651034, Q1 : 0.531107783318, Q2 : -0.115500696003, Q3 : -0.0808101072907, Q4 : -0.83549618721}
2019-04-03 19:35:35.39: SIM {TimeUS : 56015918, Roll : 0.53, Pitch : -16.2, Yaw : 245.02, Alt : 588.739990234, Lat : -35.3633053, Lng : 149.1650992, Q1 : 0.532667696476, Q2 : -0.116385728121, Q3 : -0.0797020867467, Q4 : -0.834486067295}
2019-04-03 19:35:35.49: SIM {TimeUS : 56115878, Roll : 0.29, Pitch : -16.24, Yaw : 245.35, Alt : 588.789978027, Lat : -35.3633066, Lng : 149.1650952, Q1 : 0.534782290459, Q2 : -0.11754142493, Q3 : -0.078469902277, Q4 : -0.833087205887}
2019-04-03 19:35:35.59: SIM {TimeUS : 56215838, Roll : 0.07, Pitch : -16.3, Yaw : 245.71, Alt : 588.840026855, Lat : -35.3633082, Lng : 149.165091, Q1 : 0.537111997604, Q2 : -0.118793293834, Q3 : -0.0774546340108, Q4 : -0.831504523754}
2019-04-03 19:35:35.69: SIM {TimeUS : 56315798, Roll : -0.13, Pitch : -16.36, Yaw : 246.05, Alt : 588.890014648, Lat : -35.3633096, Lng : 149.1650869, Q1 : 0.539342999458, Q2 : -0.119995243847, Q3 : -0.0766096636653, Q4 : -0.829964637756}
2019-04-03 19:35:35.79: SIM {TimeUS : 56415758, Roll : -0.29, Pitch : -16.41, Yaw : 246.34, Alt : 588.929992676, Lat : -35.3633111, Lng : 149.1650826, Q1 : 0.541251182556, Q2 : -0.120910838246, Q3 : -0.0759557932615, Q4 : -0.8286485672}
2019-04-03 19:35:35.89: SIM {TimeUS : 56515718, Roll : -0.39, Pitch : -16.45, Yaw : 246.56, Alt : 588.979980469, Lat : -35.3633125, Lng : 149.1650784, Q1 : 0.542683780193, Q2 : -0.12152210623, Q3 : -0.0756785497069, Q4 : -0.827646911144}
2019-04-03 19:35:35.99: SIM {TimeUS : 56615678, Roll : -0.42, Pitch : -16.49, Yaw : 246.69, Alt : 589.030029297, Lat : -35.3633139, Lng : 149.1650742, Q1 : 0.543572425842, Q2 : -0.121859401464, Q3 : -0.0757867097855, Q4 : -0.82700407505}
2019-04-03 19:35:36.10: SIM {TimeUS : 56716471, Roll : -0.4, Pitch : -16.52, Yaw : 246.74, Alt : 589.08001709, Lat : -35.3633156, Lng : 149.1650698, Q1 : 0.543912708759, Q2 : -0.121954500675, Q3 : -0.0761579349637, Q4 : -0.826732039452}
2019-04-03 19:35:36.20: SIM {TimeUS : 56816431, Roll : -0.33, Pitch : -16.55, Yaw : 246.71, Alt : 589.130004883, Lat : -35.363317, Lng : 149.1650656, Q1 : 0.543758869171, Q2 : -0.121891960502, Q3 : -0.0767308473587, Q4 : -0.826789617538}
2019-04-03 19:35:36.30: SIM {TimeUS : 56916391, Roll : -0.25, Pitch : -16.57, Yaw : 246.63, Alt : 589.16998291, Lat : -35.3633186, Lng : 149.1650612, Q1 : 0.543235123158, Q2 : -0.121666669846, Q3 : -0.0772900059819, Q4 : -0.827114999294}
2019-04-03 19:35:36.40: SIM {TimeUS : 57016351, Roll : -0.17, Pitch : -16.57, Yaw : 246.51, Alt : 589.219970703, Lat : -35.3633201, Lng : 149.1650569, Q1 : 0.542482376099, Q2 : -0.12133949995, Q3 : -0.0777678862214, Q4 : -0.827612042427}
2019-04-03 19:35:36.50: SIM {TimeUS : 57116311, Roll : -0.09, Pitch : -16.57, Yaw : 246.38, Alt : 589.270019531, Lat : -35.3633217, Lng : 149.1650526, Q1 : 0.541632890701, Q2 : -0.121061652899, Q3 : -0.0781910791993, Q4 : -0.828169107437}
2019-04-03 19:35:36.60: SIM {TimeUS : 57216271, Roll : -0.03, Pitch : -16.58, Yaw : 246.26, Alt : 589.320007324, Lat : -35.3633233, Lng : 149.1650482, Q1 : 0.54079914093, Q2 : -0.120928585529, Q3 : -0.0785368084908, Q4 : -0.828700602055}
2019-04-03 19:35:36.69: SIM {TimeUS : 57316231, Roll : 0.01, Pitch : -16.59, Yaw : 246.15, Alt : 589.369995117, Lat : -35.3633248, Lng : 149.1650438, Q1 : 0.540094912052, Q2 : -0.120844878256, Q3 : -0.0788226053119, Q4 : -0.829144835472}
2019-04-03 19:35:36.79: SIM {TimeUS : 57416191, Roll : 0.04, Pitch : -16.61, Yaw : 246.08, Alt : 589.409973145, Lat : -35.3633264, Lng : 149.1650393, Q1 : 0.539583384991, Q2 : -0.120938949287, Q3 : -0.0791107416153, Q4 : -0.829436659813}
2019-04-03 19:35:36.89: SIM {TimeUS : 57516151, Roll : 0.05, Pitch : -16.66, Yaw : 246.04, Alt : 589.460021973, Lat : -35.3633279, Lng : 149.165035, Q1 : 0.539305269718, Q2 : -0.121218755841, Q3 : -0.0794053524733, Q4 : -0.829548537731}
2019-04-03 19:35:36.99: SIM {TimeUS : 57616111, Roll : 0.05, Pitch : -16.7, Yaw : 246.04, Alt : 589.510009766, Lat : -35.3633296, Lng : 149.1650305, Q1 : 0.539273500443, Q2 : -0.12150733918, Q3 : -0.0795653313398, Q4 : -0.829511642456}
2019-04-03 19:35:37.09: SIM {TimeUS : 57716071, Roll : 0.03, Pitch : -16.73, Yaw : 246.07, Alt : 589.559997559, Lat : -35.3633312, Lng : 149.1650261, Q1 : 0.539444208145, Q2 : -0.121786929667, Q3 : -0.0795758068562, Q4 : -0.829358637333}
2019-04-03 19:35:37.19: SIM {TimeUS : 57816031, Roll : 0.02, Pitch : -16.75, Yaw : 246.12, Alt : 589.609985352, Lat : -35.3633327, Lng : 149.1650216, Q1 : 0.539787948132, Q2 : -0.121958650649, Q3 : -0.0796276554465, Q4 : -0.829104602337}
2019-04-03 19:35:37.29: SIM {TimeUS : 57915991, Roll : 0.0, Pitch : -16.78, Yaw : 246.19, Alt : 589.650024414, Lat : -35.3633344, Lng : 149.1650171, Q1 : 0.540218472481, Q2 : -0.122236259282, Q3 : -0.0797659605742, Q4 : -0.828770041466}
2019-04-03 19:35:37.39: SIM {TimeUS : 58015951, Roll : 0.0, Pitch : -16.83, Yaw : 246.26, Alt : 589.700012207, Lat : -35.3633359, Lng : 149.1650125, Q1 : 0.540677964687, Q2 : -0.12259940058, Q3 : -0.0799411386251, Q4 : -0.828399777412}
2019-04-03 19:35:37.49: SIM {TimeUS : 58115911, Roll : -0.03, Pitch : -16.88, Yaw : 246.33, Alt : 589.75, Lat : -35.3633376, Lng : 149.1650081, Q1 : 0.54111713171, Q2 : -0.123042300344, Q3 : -0.0800705105066, Q4 : -0.828034758568}
2019-04-03 19:35:37.59: SIM {TimeUS : 58215871, Roll : -0.07, Pitch : -16.9, Yaw : 246.39, Alt : 589.799987793, Lat : -35.3633392, Lng : 149.1650034, Q1 : 0.541517317295, Q2 : -0.123314335942, Q3 : -0.0799394920468, Q4 : -0.827745199203}
2019-04-03 19:35:37.69: SIM {TimeUS : 58315831, Roll : -0.08, Pitch : -16.89, Yaw : 246.44, Alt : 589.849975586, Lat : -35.3633407, Lng : 149.164999, Q1 : 0.541883945465, Q2 : -0.123306557536, Q3 : -0.0798499062657, Q4 : -0.827515184879}
2019-04-03 19:35:37.79: SIM {TimeUS : 58415791, Roll : -0.1, Pitch : -16.88, Yaw : 246.48, Alt : 589.890014648, Lat : -35.3633425, Lng : 149.1649943, Q1 : 0.542168617249, Q2 : -0.123264789581, Q3 : -0.0797455906868, Q4 : -0.827344954014}
2019-04-03 19:35:37.89: SIM {TimeUS : 58515751, Roll : -0.1, Pitch : -16.88, Yaw : 246.51, Alt : 589.940002441, Lat : -35.3633441, Lng : 149.1649899, Q1 : 0.542365074158, Q2 : -0.123260989785, Q3 : -0.0797996148467, Q4 : -0.82721143961}
2019-04-03 19:35:37.99: SIM {TimeUS : 58615711, Roll : -0.06, Pitch : -16.89, Yaw : 246.53, Alt : 589.989990234, Lat : -35.3633456, Lng : 149.1649852, Q1 : 0.542510926723, Q2 : -0.123124204576, Q3 : -0.0800739899278, Q4 : -0.827109754086}
2019-04-03 19:35:38.09: SIM {TimeUS : 58715671, Roll : -0.03, Pitch : -16.89, Yaw : 246.53, Alt : 590.039978027, Lat : -35.3633473, Lng : 149.1649807, Q1 : 0.542594015598, Q2 : -0.122995115817, Q3 : -0.0803749635816, Q4 : -0.827045202255}
2019-04-03 19:35:38.20: SIM {TimeUS : 58816464, Roll : -0.01, Pitch : -16.91, Yaw : 246.54, Alt : 590.090026855, Lat : -35.363349, Lng : 149.1649761, Q1 : 0.542602717876, Q2 : -0.123074255884, Q3 : -0.0805983617902, Q4 : -0.827005982399}
2019-04-03 19:35:38.30: SIM {TimeUS : 58916424, Roll : 0.0, Pitch : -16.95, Yaw : 246.53, Alt : 590.130004883, Lat : -35.3633507, Lng : 149.1649715, Q1 : 0.542580664158, Q2 : -0.123280540109, Q3 : -0.0807867497206, Q4 : -0.8269713521}
2019-04-03 19:35:38.40: SIM {TimeUS : 59016384, Roll : -0.01, Pitch : -17.0, Yaw : 246.53, Alt : 590.179992676, Lat : -35.3633522, Lng : 149.1649668, Q1 : 0.542529881001, Q2 : -0.123717717826, Q3 : -0.0809979587793, Q4 : -0.826918721199}
2019-04-03 19:35:38.50: SIM {TimeUS : 59116344, Roll : -0.02, Pitch : -17.05, Yaw : 246.54, Alt : 590.229980469, Lat : -35.363354, Lng : 149.1649622, Q1 : 0.542494773865, Q2 : -0.124090634286, Q3 : -0.0811195001006, Q4 : -0.826874017715}
2019-04-03 19:35:38.60: SIM {TimeUS : 59216304, Roll : -0.04, Pitch : -17.08, Yaw : 246.54, Alt : 590.280029297, Lat : -35.3633557, Lng : 149.1649574, Q1 : 0.542489767075, Q2 : -0.124372906983, Q3 : -0.0811897665262, Q4 : -0.826828062534}
2019-04-03 19:35:38.70: SIM {TimeUS : 59316264, Roll : -0.04, Pitch : -17.1, Yaw : 246.55, Alt : 590.33001709, Lat : -35.3633572, Lng : 149.1649529, Q1 : 0.542538881302, Q2 : -0.124547146261, Q3 : -0.0813049226999, Q4 : -0.826758146286}
2019-04-03 19:35:38.79: SIM {TimeUS : 59416224, Roll : -0.03, Pitch : -17.12, Yaw : 246.56, Alt : 590.380004883, Lat : -35.3633589, Lng : 149.1649482, Q1 : 0.542632818222, Q2 : -0.124628663063, Q3 : -0.0814525410533, Q4 : -0.826669692993}
2019-04-03 19:35:38.89: SIM {TimeUS : 59516184, Roll : -0.02, Pitch : -17.13, Yaw : 246.58, Alt : 590.41998291, Lat : -35.3633606, Lng : 149.1649435, Q1 : 0.542761921883, Q2 : -0.12463901937, Q3 : -0.0815597698092, Q4 : -0.82657289505}
2019-04-03 19:35:38.99: SIM {TimeUS : 59616144, Roll : -0.02, Pitch : -17.14, Yaw : 246.6, Alt : 590.469970703, Lat : -35.3633623, Lng : 149.1649388, Q1 : 0.542908728123, Q2 : -0.124670952559, Q3 : -0.0816733688116, Q4 : -0.826460421085}
2019-04-03 19:35:39.09: SIM {TimeUS : 59716104, Roll : -0.01, Pitch : -17.15, Yaw : 246.62, Alt : 590.520019531, Lat : -35.363364, Lng : 149.1649342, Q1 : 0.543069064617, Q2 : -0.124683849514, Q3 : -0.0818175077438, Q4 : -0.82633882761}
2019-04-03 19:35:39.19: SIM {TimeUS : 59816064, Roll : 0.0, Pitch : -17.16, Yaw : 246.65, Alt : 590.570007324, Lat : -35.3633656, Lng : 149.1649295, Q1 : 0.543227314949, Q2 : -0.124746359885, Q3 : -0.081937238574, Q4 : -0.826213479042}
2019-04-03 19:35:39.29: SIM {TimeUS : 59916024, Roll : 0.0, Pitch : -17.18, Yaw : 246.67, Alt : 590.619995117, Lat : -35.3633673, Lng : 149.1649248, Q1 : 0.543386936188, Q2 : -0.124889858067, Q3 : -0.0820546895266, Q4 : -0.826075196266}
2019-04-03 19:35:39.39: SIM {TimeUS : 60015984, Roll : -0.02, Pitch : -17.22, Yaw : 246.69, Alt : 590.66998291, Lat : -35.363369, Lng : 149.1649201, Q1 : 0.543521881104, Q2 : -0.125170201063, Q3 : -0.0821675211191, Q4 : -0.82593280077}
2019-04-03 19:35:39.49: SIM {TimeUS : 60115944, Roll : -0.04, Pitch : -17.25, Yaw : 246.72, Alt : 590.710021973, Lat : -35.3633707, Lng : 149.1649153, Q1 : 0.543637692928, Q2 : -0.125498339534, Q3 : -0.0821690559387, Q4 : -0.825806558132}
2019-04-03 19:35:39.59: SIM {TimeUS : 60215904, Roll : -0.08, Pitch : -17.26, Yaw : 246.74, Alt : 590.760009766, Lat : -35.3633723, Lng : 149.1649105, Q1 : 0.543740034103, Q2 : -0.125747457147, Q3 : -0.0819844231009, Q4 : -0.825719594955}
2019-04-03 19:35:39.69: SIM {TimeUS : 60315864, Roll : -0.12, Pitch : -17.26, Yaw : 246.75, Alt : 590.809997559, Lat : -35.363374, Lng : 149.1649058, Q1 : 0.543806433678, Q2 : -0.125966355205, Q3 : -0.0816959366202, Q4 : -0.825671195984}
2019-04-03 19:35:39.79: SIM {TimeUS : 60415824, Roll : -0.14, Pitch : -17.28, Yaw : 246.77, Alt : 590.859985352, Lat : -35.3633757, Lng : 149.164901, Q1 : 0.543867945671, Q2 : -0.126132100821, Q3 : -0.0816123187542, Q4 : -0.825613617897}
2019-04-03 19:35:39.89: SIM {TimeUS : 60515784, Roll : -0.14, Pitch : -17.29, Yaw : 246.78, Alt : 590.909973145, Lat : -35.3633774, Lng : 149.1648962, Q1 : 0.543929040432, Q2 : -0.126229703426, Q3 : -0.0817447528243, Q4 : -0.825545370579}
2019-04-03 19:35:39.99: SIM {TimeUS : 60615744, Roll : -0.12, Pitch : -17.31, Yaw : 246.78, Alt : 590.960021973, Lat : -35.363379, Lng : 149.1648916, Q1 : 0.543987333775, Q2 : -0.126277238131, Q3 : -0.0820040777326, Q4 : -0.825473964214}
2019-04-03 19:35:40.09: SIM {TimeUS : 60715704, Roll : -0.07, Pitch : -17.34, Yaw : 246.79, Alt : 591.0, Lat : -35.3633808, Lng : 149.1648868, Q1 : 0.544048249722, Q2 : -0.126223340631, Q3 : -0.0824410691857, Q4 : -0.825398445129}
2019-04-03 19:35:40.19: SIM {TimeUS : 60815664, Roll : -0.04, Pitch : -17.36, Yaw : 246.79, Alt : 591.049987793, Lat : -35.3633825, Lng : 149.164882, Q1 : 0.54408878088, Q2 : -0.12623116374, Q3 : -0.0828014165163, Q4 : -0.82533454895}
2019-04-03 19:35:40.30: SIM {TimeUS : 60916457, Roll : -0.03, Pitch : -17.37, Yaw : 246.79, Alt : 591.099975586, Lat : -35.3633842, Lng : 149.1648772, Q1 : 0.544112920761, Q2 : -0.126285865903, Q3 : -0.0828873738647, Q4 : -0.825301647186}
2019-04-03 19:35:40.40: SIM {TimeUS : 61016417, Roll : -0.05, Pitch : -17.37, Yaw : 246.8, Alt : 591.150024414, Lat : -35.3633859, Lng : 149.1648724, Q1 : 0.544122159481, Q2 : -0.126379743218, Q3 : -0.0827855318785, Q4 : -0.825291335583}
2019-04-03 19:35:40.50: SIM {TimeUS : 61116377, Roll : -0.05, Pitch : -17.36, Yaw : 246.8, Alt : 591.200012207, Lat : -35.3633875, Lng : 149.1648675, Q1 : 0.544166624546, Q2 : -0.126320704818, Q3 : -0.0827287212014, Q4 : -0.825276792049}
2019-04-03 19:35:40.60: SIM {TimeUS : 61216337, Roll : -0.05, Pitch : -17.36, Yaw : 246.81, Alt : 591.25, Lat : -35.3633893, Lng : 149.1648627, Q1 : 0.544215679169, Q2 : -0.126306667924, Q3 : -0.0827203541994, Q4 : -0.82524740696}
2019-04-03 19:35:40.70: SIM {TimeUS : 61316297, Roll : -0.04, Pitch : -17.38, Yaw : 246.82, Alt : 591.289978027, Lat : -35.363391, Lng : 149.1648579, Q1 : 0.544274270535, Q2 : -0.126355007291, Q3 : -0.0829207748175, Q4 : -0.825181245804}
2019-04-03 19:35:40.80: SIM {TimeUS : 61416257, Roll : -0.01, Pitch : -17.43, Yaw : 246.83, Alt : 591.340026855, Lat : -35.3633927, Lng : 149.1648531, Q1 : 0.544334828854, Q2 : -0.126603454351, Q3 : -0.0833620727062, Q4 : -0.825058698654}
2019-04-03 19:35:40.89: SIM {TimeUS : 61516217, Roll : 0.0, Pitch : -17.47, Yaw : 246.84, Alt : 591.390014648, Lat : -35.3633944, Lng : 149.1648483, Q1 : 0.544409990311, Q2 : -0.12677501142, Q3 : -0.0836496204138, Q4 : -0.824953734875}
2019-04-03 19:35:40.99: SIM {TimeUS : 61616177, Roll : 0.0, Pitch : -17.46, Yaw : 246.85, Alt : 591.440002441, Lat : -35.363396, Lng : 149.1648435, Q1 : 0.544501364231, Q2 : -0.126685425639, Q3 : -0.0836815237999, Q4 : -0.824903905392}
2019-04-03 19:35:41.09: SIM {TimeUS : 61716137, Roll : 0.0, Pitch : -17.45, Yaw : 246.86, Alt : 591.489990234, Lat : -35.3633978, Lng : 149.1648387, Q1 : 0.544584691525, Q2 : -0.12660728395, Q3 : -0.0836282595992, Q4 : -0.824866294861}
2019-04-03 19:35:41.19: SIM {TimeUS : 61816097, Roll : -0.02, Pitch : -17.46, Yaw : 246.87, Alt : 591.539978027, Lat : -35.3633996, Lng : 149.1648339, Q1 : 0.544627904892, Q2 : -0.126776695251, Q3 : -0.0835020393133, Q4 : -0.824824571609}
2019-04-03 19:35:41.29: SIM {TimeUS : 61916057, Roll : -0.04, Pitch : -17.47, Yaw : 246.88, Alt : 591.58001709, Lat : -35.3634013, Lng : 149.164829, Q1 : 0.544662773609, Q2 : -0.126989021897, Q3 : -0.0833989083767, Q4 : -0.824779391289}
2019-04-03 19:35:41.39: SIM {TimeUS : 62016017, Roll : -0.05, Pitch : -17.49, Yaw : 246.89, Alt : 591.630004883, Lat : -35.363403, Lng : 149.1648242, Q1 : 0.544703125954, Q2 : -0.127165347338, Q3 : -0.0834185853601, Q4 : -0.824723541737}
2019-04-03 19:35:41.49: SIM {TimeUS : 62115977, Roll : -0.05, Pitch : -17.5, Yaw : 246.9, Alt : 591.679992676, Lat : -35.3634046, Lng : 149.1648193, Q1 : 0.544752418995, Q2 : -0.127246856689, Q3 : -0.0834814980626, Q4 : -0.824672102928}
2019-04-03 19:35:41.59: SIM {TimeUS : 62215937, Roll : -0.03, Pitch : -17.52, Yaw : 246.91, Alt : 591.729980469, Lat : -35.3634063, Lng : 149.1648143, Q1 : 0.544812202454, Q2 : -0.127263262868, Q3 : -0.0836956053972, Q4 : -0.824608266354}
2019-04-03 19:35:41.69: SIM {TimeUS : 62315897, Roll : -0.01, Pitch : -17.52, Yaw : 246.91, Alt : 591.780029297, Lat : -35.3634081, Lng : 149.1648095, Q1 : 0.544881045818, Q2 : -0.127170592546, Q3 : -0.0838481858373, Q4 : -0.824561595917}
2019-04-03 19:35:41.79: SIM {TimeUS : 62415857, Roll : 0.0, Pitch : -17.52, Yaw : 246.92, Alt : 591.820007324, Lat : -35.3634098, Lng : 149.1648047, Q1 : 0.544950246811, Q2 : -0.127064555883, Q3 : -0.084001429379, Q4 : -0.824516534805}
2019-04-03 19:35:41.89: SIM {TimeUS : 62515817, Roll : 0.01, Pitch : -17.52, Yaw : 246.92, Alt : 591.869995117, Lat : -35.3634116, Lng : 149.1647998, Q1 : 0.545005202293, Q2 : -0.127022385597, Q3 : -0.0841623097658, Q4 : -0.82447040081}
2019-04-03 19:35:41.99: SIM {TimeUS : 62615777, Roll : 0.01, Pitch : -17.54, Yaw : 246.93, Alt : 591.91998291, Lat : -35.3634133, Lng : 149.1647949, Q1 : 0.545019209385, Q2 : -0.127206966281, Q3 : -0.0841996520758, Q4 : -0.824428856373}
2019-04-03 19:35:42.09: SIM {TimeUS : 62715737, Roll : -0.01, Pitch : -17.57, Yaw : 246.94, Alt : 591.969970703, Lat : -35.3634149, Lng : 149.1647901, Q1 : 0.545017361641, Q2 : -0.127485558391, Q3 : -0.0841722860932, Q4 : -0.824389874935}
2019-04-03 19:35:42.19: SIM {TimeUS : 62815697, Roll : -0.03, Pitch : -17.6, Yaw : 246.94, Alt : 592.020019531, Lat : -35.3634167, Lng : 149.1647851, Q1 : 0.545008003712, Q2 : -0.127797022462, Q3 : -0.0841543823481, Q4 : -0.824349522591}
2019-04-03 19:35:42.30: SIM {TimeUS : 62916490, Roll : -0.02, Pitch : -17.62, Yaw : 246.94, Alt : 592.059997559, Lat : -35.3634185, Lng : 149.1647802, Q1 : 0.545026659966, Q2 : -0.127902150154, Q3 : -0.0843149572611, Q4 : -0.824304640293}
2019-04-03 19:35:42.40: SIM {TimeUS : 63016450, Roll : 0.0, Pitch : -17.62, Yaw : 246.95, Alt : 592.109985352, Lat : -35.3634202, Lng : 149.1647753, Q1 : 0.545071125031, Q2 : -0.127802178264, Q3 : -0.0844403281808, Q4 : -0.824277818203}
2019-04-03 19:35:42.50: SIM {TimeUS : 63116410, Roll : 0.01, Pitch : -17.59, Yaw : 246.95, Alt : 592.159973145, Lat : -35.3634219, Lng : 149.1647703, Q1 : 0.545142352581, Q2 : -0.127524912357, Q3 : -0.0844743326306, Q4 : -0.824270188808}
2019-04-03 19:35:42.60: SIM {TimeUS : 63216370, Roll : 0.01, Pitch : -17.57, Yaw : 246.96, Alt : 592.210021973, Lat : -35.3634236, Lng : 149.1647654, Q1 : 0.545197248459, Q2 : -0.127357840538, Q3 : -0.084355674684, Q4 : -0.824271857738}
2019-04-03 19:35:42.70: SIM {TimeUS : 63316330, Roll : 0.0, Pitch : -17.55, Yaw : 246.96, Alt : 592.260009766, Lat : -35.3634252, Lng : 149.1647606, Q1 : 0.545240044594, Q2 : -0.127267509699, Q3 : -0.0841775760055, Q4 : -0.824275672436}
2019-04-03 19:35:42.80: SIM {TimeUS : 63416290, Roll : 0.0, Pitch : -17.53, Yaw : 246.97, Alt : 592.299987793, Lat : -35.363427, Lng : 149.1647557, Q1 : 0.545276522636, Q2 : -0.127180024981, Q3 : -0.0840515941381, Q4 : -0.824277997017}
2019-04-03 19:35:42.90: SIM {TimeUS : 63516250, Roll : -0.01, Pitch : -17.54, Yaw : 246.97, Alt : 592.349975586, Lat : -35.3634288, Lng : 149.1647506, Q1 : 0.545286297798, Q2 : -0.1272482723, Q3 : -0.0840022489429, Q4 : -0.824265956879}
2019-04-03 19:35:42.99: SIM {TimeUS : 63616210, Roll : -0.02, Pitch : -17.55, Yaw : 246.97, Alt : 592.400024414, Lat : -35.3634305, Lng : 149.1647458, Q1 : 0.545286595821, Q2 : -0.127380013466, Q3 : -0.084040530026, Q4 : -0.824241578579}
2019-04-03 19:35:43.09: SIM {TimeUS : 63716170, Roll : -0.03, Pitch : -17.58, Yaw : 246.97, Alt : 592.450012207, Lat : -35.3634322, Lng : 149.1647409, Q1 : 0.545253038406, Q2 : -0.127693340182, Q3 : -0.0840890854597, Q4 : -0.82421028614}
2019-04-03 19:35:43.19: SIM {TimeUS : 63816130, Roll : -0.04, Pitch : -17.63, Yaw : 246.97, Alt : 592.5, Lat : -35.363434, Lng : 149.1647358, Q1 : 0.545215070248, Q2 : -0.128057479858, Q3 : -0.0842883214355, Q4 : -0.824158608913}
2019-04-03 19:35:43.29: SIM {TimeUS : 63916090, Roll : -0.03, Pitch : -17.66, Yaw : 246.97, Alt : 592.549987793, Lat : -35.3634356, Lng : 149.164731, Q1 : 0.545200645924, Q2 : -0.12818749249, Q3 : -0.0844589397311, Q4 : -0.824130415916}
2019-04-03 19:35:43.39: SIM {TimeUS : 64016050, Roll : -0.03, Pitch : -17.67, Yaw : 246.97, Alt : 592.590026855, Lat : -35.3634373, Lng : 149.164726, Q1 : 0.545182645321, Q2 : -0.128281027079, Q3 : -0.0845322906971, Q4 : -0.824120342731}
2019-04-03 19:35:43.49: SIM {TimeUS : 64116010, Roll : -0.03, Pitch : -17.68, Yaw : 246.97, Alt : 592.640014648, Lat : -35.3634391, Lng : 149.164721, Q1 : 0.545156002045, Q2 : -0.128400668502, Q3 : -0.0845450311899, Q4 : -0.824117898941}
2019-04-03 19:35:43.59: SIM {TimeUS : 64215970, Roll : -0.03, Pitch : -17.67, Yaw : 246.97, Alt : 592.690002441, Lat : -35.3634409, Lng : 149.1647161, Q1 : 0.545160591602, Q2 : -0.128311738372, Q3 : -0.0845377743244, Q4 : -0.824129521847}
2019-04-03 19:35:43.69: SIM {TimeUS : 64315930, Roll : 0.0, Pitch : -17.67, Yaw : 246.97, Alt : 592.739990234, Lat : -35.3634426, Lng : 149.1647112, Q1 : 0.545190453529, Q2 : -0.128151461482, Q3 : -0.0846821144223, Q4 : -0.824119925499}
2019-04-03 19:35:43.79: SIM {TimeUS : 64415890, Roll : 0.0, Pitch : -17.68, Yaw : 246.97, Alt : 592.789978027, Lat : -35.3634443, Lng : 149.1647061, Q1 : 0.545182824135, Q2 : -0.128190919757, Q3 : -0.084833920002, Q4 : -0.824103116989}
2019-04-03 19:35:43.89: SIM {TimeUS : 64515850, Roll : 0.0, Pitch : -17.69, Yaw : 246.97, Alt : 592.840026855, Lat : -35.3634461, Lng : 149.1647013, Q1 : 0.545169889927, Q2 : -0.128226071596, Q3 : -0.0849257111549, Q4 : -0.824096798897}
2019-04-03 19:35:43.99: SIM {TimeUS : 64615810, Roll : 0.01, Pitch : -17.68, Yaw : 246.96, Alt : 592.880004883, Lat : -35.3634477, Lng : 149.1646963, Q1 : 0.54515838623, Q2 : -0.128163710237, Q3 : -0.0849075689912, Q4 : -0.824116051197}
2019-04-03 19:35:44.09: SIM {TimeUS : 64715770, Roll : 0.01, Pitch : -17.68, Yaw : 246.96, Alt : 592.929992676, Lat : -35.3634495, Lng : 149.1646913, Q1 : 0.545143783092, Q2 : -0.128123536706, Q3 : -0.0848588943481, Q4 : -0.824136912823}
2019-04-03 19:35:44.19: SIM {TimeUS : 64815730, Roll : 0.0, Pitch : -17.68, Yaw : 246.96, Alt : 592.979980469, Lat : -35.3634513, Lng : 149.1646864, Q1 : 0.545108258724, Q2 : -0.128245830536, Q3 : -0.0847781673074, Q4 : -0.824149727821}
2019-04-03 19:35:44.29: SIM {TimeUS : 64915690, Roll : -0.03, Pitch : -17.71, Yaw : 246.96, Alt : 593.030029297, Lat : -35.363453, Lng : 149.1646814, Q1 : 0.545038163662, Q2 : -0.128611057997, Q3 : -0.0847234725952, Q4 : -0.824144721031}
2019-04-03 19:35:44.40: SIM {TimeUS : 65016483, Roll : -0.05, Pitch : -17.72, Yaw : 246.95, Alt : 593.08001709, Lat : -35.3634547, Lng : 149.1646764, Q1 : 0.544992566109, Q2 : -0.128772959113, Q3 : -0.0846296176314, Q4 : -0.82415920496}
2019-04-03 19:35:44.50: SIM {TimeUS : 65116443, Roll : -0.04, Pitch : -17.7, Yaw : 246.95, Alt : 593.130004883, Lat : -35.3634565, Lng : 149.1646714, Q1 : 0.544994950294, Q2 : -0.128601714969, Q3 : -0.0845340192318, Q4 : -0.824194252491}
2019-04-03 19:35:44.60: SIM {TimeUS : 65216403, Roll : -0.02, Pitch : -17.68, Yaw : 246.95, Alt : 593.16998291, Lat : -35.3634581, Lng : 149.1646663, Q1 : 0.54502081871, Q2 : -0.128333106637, Q3 : -0.0846412628889, Q4 : -0.824208021164}
2019-04-03 19:35:44.70: SIM {TimeUS : 65316363, Roll : 0.0, Pitch : -17.67, Yaw : 246.95, Alt : 593.219970703, Lat : -35.3634599, Lng : 149.1646615, Q1 : 0.545034587383, Q2 : -0.128148585558, Q3 : -0.0847576484084, Q4 : -0.824215650558}
2019-04-03 19:35:44.80: SIM {TimeUS : 65416323, Roll : 0.0, Pitch : -17.67, Yaw : 246.94, Alt : 593.270019531, Lat : -35.3634616, Lng : 149.1646565, Q1 : 0.545009851456, Q2 : -0.128195896745, Q3 : -0.0847462937236, Q4 : -0.824225842953}
2019-04-03 19:35:44.90: SIM {TimeUS : 65516283, Roll : -0.04, Pitch : -17.7, Yaw : 246.94, Alt : 593.320007324, Lat : -35.3634634, Lng : 149.1646515, Q1 : 0.544929325581, Q2 : -0.128565728664, Q3 : -0.084562972188, Q4 : -0.824240267277}
2019-04-03 19:35:45.00: SIM {TimeUS : 65616243, Roll : -0.07, Pitch : -17.72, Yaw : 246.94, Alt : 593.369995117, Lat : -35.3634652, Lng : 149.1646465, Q1 : 0.544857800007, Q2 : -0.12889033556, Q3 : -0.0844271183014, Q4 : -0.824250757694}
2019-04-03 19:35:45.09: SIM {TimeUS : 65716203, Roll : -0.07, Pitch : -17.74, Yaw : 246.94, Alt : 593.41998291, Lat : -35.3634669, Lng : 149.1646414, Q1 : 0.544832646847, Q2 : -0.129042446613, Q3 : -0.0845494940877, Q4 : -0.824231088161}
2019-04-03 19:35:45.19: SIM {TimeUS : 65816163, Roll : -0.05, Pitch : -17.76, Yaw : 246.93, Alt : 593.460021973, Lat : -35.3634686, Lng : 149.1646365, Q1 : 0.544826626778, Q2 : -0.129037976265, Q3 : -0.0847666189075, Q4 : -0.824213504791}
2019-04-03 19:35:45.29: SIM {TimeUS : 65916123, Roll : -0.02, Pitch : -17.76, Yaw : 246.93, Alt : 593.510009766, Lat : -35.3634704, Lng : 149.1646314, Q1 : 0.544834852219, Q2 : -0.128931358457, Q3 : -0.0849897041917, Q4 : -0.824201703072}
2019-04-03 19:35:45.39: SIM {TimeUS : 66016083, Roll : 0.0, Pitch : -17.77, Yaw : 246.93, Alt : 593.559997559, Lat : -35.363472, Lng : 149.1646265, Q1 : 0.544836640358, Q2 : -0.128882914782, Q3 : -0.0851532444358, Q4 : -0.824191272259}
2019-04-03 19:35:45.49: SIM {TimeUS : 66116043, Roll : 0.0, Pitch : -17.78, Yaw : 246.93, Alt : 593.609985352, Lat : -35.3634738, Lng : 149.1646214, Q1 : 0.54480779171, Q2 : -0.128987073898, Q3 : -0.0852669551969, Q4 : -0.824182271957}
2019-04-03 19:35:45.59: SIM {TimeUS : 66216003, Roll : 0.0, Pitch : -17.8, Yaw : 246.92, Alt : 593.659973145, Lat : -35.3634756, Lng : 149.1646165, Q1 : 0.544774234295, Q2 : -0.129077419639, Q3 : -0.0853290781379, Q4 : -0.824183940887}
2019-04-03 19:35:45.69: SIM {TimeUS : 66315963, Roll : 0.02, Pitch : -17.8, Yaw : 246.92, Alt : 593.710021973, Lat : -35.3634773, Lng : 149.1646116, Q1 : 0.54476839304, Q2 : -0.128977045417, Q3 : -0.0854966491461, Q4 : -0.824186086655}
2019-04-03 19:35:45.79: SIM {TimeUS : 66415923, Roll : 0.06, Pitch : -17.8, Yaw : 246.91, Alt : 593.760009766, Lat : -35.3634791, Lng : 149.1646065, Q1 : 0.544777095318, Q2 : -0.128813371062, Q3 : -0.0857502743602, Q4 : -0.824179589748}
2019-04-03 19:35:45.89: SIM {TimeUS : 66515883, Roll : 0.07, Pitch : -17.79, Yaw : 246.91, Alt : 593.799987793, Lat : -35.3634808, Lng : 149.1646015, Q1 : 0.544770300388, Q2 : -0.128676846623, Q3 : -0.0857632234693, Q4 : -0.824204027653}
2019-04-03 19:35:45.99: SIM {TimeUS : 66615843, Roll : 0.04, Pitch : -17.78, Yaw : 246.91, Alt : 593.849975586, Lat : -35.3634826, Lng : 149.1645964, Q1 : 0.544724047184, Q2 : -0.12879742682, Q3 : -0.0855463966727, Q4 : -0.824238181114}
2019-04-03 19:35:46.09: SIM {TimeUS : 66715803, Roll : 0.01, Pitch : -17.79, Yaw : 246.91, Alt : 593.900024414, Lat : -35.3634842, Lng : 149.1645915, Q1 : 0.544675707817, Q2 : -0.129005536437, Q3 : -0.0853810757399, Q4 : -0.824254870415}
2019-04-03 19:35:46.19: SIM {TimeUS : 66815763, Roll : -0.02, Pitch : -17.8, Yaw : 246.91, Alt : 593.950012207, Lat : -35.363486, Lng : 149.1645864, Q1 : 0.54463249445, Q2 : -0.129207268357, Q3 : -0.0851460397243, Q4 : -0.824276030064}
2019-04-03 19:35:46.29: SIM {TimeUS : 66915723, Roll : -0.05, Pitch : -17.8, Yaw : 246.91, Alt : 594.0, Lat : -35.3634878, Lng : 149.1645815, Q1 : 0.544602811337, Q2 : -0.129337355494, Q3 : -0.0849211066961, Q4 : -0.824298560619}
2019-04-03 19:35:46.39: SIM {TimeUS : 67015683, Roll : -0.05, Pitch : -17.79, Yaw : 246.91, Alt : 594.049987793, Lat : -35.3634895, Lng : 149.1645764, Q1 : 0.544610381126, Q2 : -0.129339188337, Q3 : -0.0848722606897, Q4 : -0.824298322201}
2019-04-03 19:35:46.50: SIM {TimeUS : 67116476, Roll : -0.03, Pitch : -17.79, Yaw : 246.91, Alt : 594.090026855, Lat : -35.3634913, Lng : 149.1645714, Q1 : 0.544639527798, Q2 : -0.129190132022, Q3 : -0.0849682539701, Q4 : -0.82429254055}
2019-04-03 19:35:46.60: SIM {TimeUS : 67216436, Roll : -0.02, Pitch : -17.78, Yaw : 246.91, Alt : 594.140014648, Lat : -35.363493, Lng : 149.1645663, Q1 : 0.544643640518, Q2 : -0.129103332758, Q3 : -0.0850533246994, Q4 : -0.824294626713}
2019-04-03 19:35:46.70: SIM {TimeUS : 67316396, Roll : -0.02, Pitch : -17.8, Yaw : 246.9, Alt : 594.190002441, Lat : -35.3634948, Lng : 149.1645614, Q1 : 0.54460310936, Q2 : -0.129226341844, Q3 : -0.0851233974099, Q4 : -0.824294924736}
2019-04-03 19:35:46.80: SIM {TimeUS : 67416356, Roll : -0.01, Pitch : -17.83, Yaw : 246.9, Alt : 594.239990234, Lat : -35.3634964, Lng : 149.1645563, Q1 : 0.54455447197, Q2 : -0.129398792982, Q3 : -0.0852850303054, Q4 : -0.82428330183}
2019-04-03 19:35:46.90: SIM {TimeUS : 67516316, Roll : 0.0, Pitch : -17.83, Yaw : 246.89, Alt : 594.289978027, Lat : -35.3634981, Lng : 149.1645514, Q1 : 0.544525742531, Q2 : -0.129395380616, Q3 : -0.0854269713163, Q4 : -0.824288129807}
2019-04-03 19:35:47.00: SIM {TimeUS : 67616276, Roll : 0.01, Pitch : -17.82, Yaw : 246.89, Alt : 594.340026855, Lat : -35.3635, Lng : 149.1645464, Q1 : 0.544516324997, Q2 : -0.129249498248, Q3 : -0.0854906067252, Q4 : -0.824310600758}
2019-04-03 19:35:47.10: SIM {TimeUS : 67716236, Roll : 0.02, Pitch : -17.81, Yaw : 246.88, Alt : 594.380004883, Lat : -35.3635017, Lng : 149.1645413, Q1 : 0.544510126114, Q2 : -0.129089295864, Q3 : -0.0855366662145, Q4 : -0.824335038662}
2019-04-03 19:35:47.19: SIM {TimeUS : 67816196, Roll : 0.04, Pitch : -17.81, Yaw : 246.88, Alt : 594.429992676, Lat : -35.3635035, Lng : 149.1645362, Q1 : 0.544501423836, Q2 : -0.129023104906, Q3 : -0.0856548473239, Q4 : -0.824338853359}
2019-04-03 19:35:47.29: SIM {TimeUS : 67916156, Roll : 0.05, Pitch : -17.83, Yaw : 246.88, Alt : 594.479980469, Lat : -35.3635052, Lng : 149.1645313, Q1 : 0.544477522373, Q2 : -0.129055783153, Q3 : -0.0858083516359, Q4 : -0.824333548546}
2019-04-03 19:35:47.39: SIM {TimeUS : 68016116, Roll : 0.06, Pitch : -17.84, Yaw : 246.87, Alt : 594.530029297, Lat : -35.363507, Lng : 149.1645263, Q1 : 0.544442892075, Q2 : -0.129148378968, Q3 : -0.0859193652868, Q4 : -0.824330329895}
2019-04-03 19:35:47.49: SIM {TimeUS : 68116076, Roll : 0.05, Pitch : -17.87, Yaw : 246.87, Alt : 594.58001709, Lat : -35.3635087, Lng : 149.1645212, Q1 : 0.544395744801, Q2 : -0.129326969385, Q3 : -0.0860137939453, Q4 : -0.824323654175}
2019-04-03 19:35:47.59: SIM {TimeUS : 68216036, Roll : 0.03, Pitch : -17.88, Yaw : 246.86, Alt : 594.630004883, Lat : -35.3635103, Lng : 149.1645161, Q1 : 0.544330954552, Q2 : -0.129554286599, Q3 : -0.0859269872308, Q4 : -0.824339807034}
2019-04-03 19:35:47.69: SIM {TimeUS : 68315996, Roll : 0.01, Pitch : -17.89, Yaw : 246.86, Alt : 594.679992676, Lat : -35.3635121, Lng : 149.1645112, Q1 : 0.544268965721, Q2 : -0.129748046398, Q3 : -0.0857682898641, Q4 : -0.824366748333}
2019-04-03 19:35:47.79: SIM {TimeUS : 68415956, Roll : 0.0, Pitch : -17.88, Yaw : 246.86, Alt : 594.719970703, Lat : -35.3635139, Lng : 149.1645062, Q1 : 0.544225633144, Q2 : -0.129796162248, Q3 : -0.0856056883931, Q4 : -0.824404656887}
2019-04-03 19:35:47.89: SIM {TimeUS : 68515916, Roll : -0.01, Pitch : -17.86, Yaw : 246.85, Alt : 594.770019531, Lat : -35.3635157, Lng : 149.1645011, Q1 : 0.544208288193, Q2 : -0.129643797874, Q3 : -0.0854649245739, Q4 : -0.824454784393}
2019-04-03 19:35:47.99: SIM {TimeUS : 68615876, Roll : 0.0, Pitch : -17.84, Yaw : 246.85, Alt : 594.820007324, Lat : -35.3635174, Lng : 149.164496, Q1 : 0.544189214706, Q2 : -0.129476711154, Q3 : -0.0854560434818, Q4 : -0.824494540691}
2019-04-03 19:35:48.09: SIM {TimeUS : 68715836, Roll : 0.02, Pitch : -17.84, Yaw : 246.84, Alt : 594.869995117, Lat : -35.3635192, Lng : 149.1644911, Q1 : 0.544169664383, Q2 : -0.129361823201, Q3 : -0.0855923816562, Q4 : -0.824511408806}
2019-04-03 19:35:48.19: SIM {TimeUS : 68815796, Roll : 0.05, Pitch : -17.85, Yaw : 246.83, Alt : 594.91998291, Lat : -35.3635209, Lng : 149.1644859, Q1 : 0.544159710407, Q2 : -0.129277050495, Q3 : -0.0858671963215, Q4 : -0.824502587318}
2019-04-03 19:35:48.29: SIM {TimeUS : 68915756, Roll : 0.08, Pitch : -17.85, Yaw : 246.83, Alt : 594.969970703, Lat : -35.3635227, Lng : 149.164481, Q1 : 0.544148266315, Q2 : -0.129168495536, Q3 : -0.086081340909, Q4 : -0.82450479269}
2019-04-03 19:35:48.39: SIM {TimeUS : 69015716, Roll : 0.09, Pitch : -17.86, Yaw : 246.82, Alt : 595.010009766, Lat : -35.3635243, Lng : 149.1644759, Q1 : 0.544118642807, Q2 : -0.129183799028, Q3 : -0.0862054377794, Q4 : -0.82450902462}
2019-04-03 19:35:48.49: SIM {TimeUS : 69115676, Roll : 0.08, Pitch : -17.87, Yaw : 246.82, Alt : 595.059997559, Lat : -35.3635261, Lng : 149.1644709, Q1 : 0.544080495834, Q2 : -0.12925554812, Q3 : -0.0861447677016, Q4 : -0.824529290199}
2019-04-03 19:35:48.60: SIM {TimeUS : 69216469, Roll : 0.06, Pitch : -17.88, Yaw : 246.82, Alt : 595.109985352, Lat : -35.3635279, Lng : 149.1644658, Q1 : 0.54403424263, Q2 : -0.12939940393, Q3 : -0.0860587060452, Q4 : -0.824546277523}
2019-04-03 19:35:48.70: SIM {TimeUS : 69316429, Roll : 0.05, Pitch : -17.88, Yaw : 246.82, Alt : 595.159973145, Lat : -35.3635297, Lng : 149.1644608, Q1 : 0.543995499611, Q2 : -0.129495114088, Q3 : -0.0859585255384, Q4 : -0.824567198753}
2019-04-03 19:35:48.80: SIM {TimeUS : 69416389, Roll : 0.03, Pitch : -17.89, Yaw : 246.81, Alt : 595.210021973, Lat : -35.3635314, Lng : 149.1644557, Q1 : 0.543950915337, Q2 : -0.129693761468, Q3 : -0.0859085172415, Q4 : -0.824570655823}
2019-04-03 19:35:48.90: SIM {TimeUS : 69516349, Roll : 0.02, Pitch : -17.91, Yaw : 246.81, Alt : 595.25, Lat : -35.3635332, Lng : 149.1644508, Q1 : 0.543915808201, Q2 : -0.129847794771, Q3 : -0.0858747810125, Q4 : -0.824573040009}
2019-04-03 19:35:49.00: SIM {TimeUS : 69616309, Roll : 0.01, Pitch : -17.91, Yaw : 246.81, Alt : 595.299987793, Lat : -35.3635349, Lng : 149.1644456, Q1 : 0.543892621994, Q2 : -0.129922434688, Q3 : -0.0858521834016, Q4 : -0.824578940868}
2019-04-03 19:35:49.10: SIM {TimeUS : 69716269, Roll : 0.03, Pitch : -17.91, Yaw : 246.81, Alt : 595.349975586, Lat : -35.3635367, Lng : 149.1644407, Q1 : 0.543903708458, Q2 : -0.129792407155, Q3 : -0.0859573855996, Q4 : -0.824581205845}
2019-04-03 19:35:49.19: SIM {TimeUS : 69816229, Roll : 0.06, Pitch : -17.89, Yaw : 246.81, Alt : 595.400024414, Lat : -35.3635383, Lng : 149.1644356, Q1 : 0.543925106525, Q2 : -0.129565164447, Q3 : -0.0860968083143, Q4 : -0.824588179588}
2019-04-03 19:35:49.29: SIM {TimeUS : 69916189, Roll : 0.08, Pitch : -17.87, Yaw : 246.8, Alt : 595.450012207, Lat : -35.3635401, Lng : 149.1644306, Q1 : 0.543946802616, Q2 : -0.129284158349, Q3 : -0.0861648693681, Q4 : -0.824610888958}
2019-04-03 19:35:49.39: SIM {TimeUS : 70016149, Roll : 0.09, Pitch : -17.85, Yaw : 246.8, Alt : 595.489990234, Lat : -35.3635419, Lng : 149.1644255, Q1 : 0.543943285942, Q2 : -0.129111334682, Q3 : -0.086079210043, Q4 : -0.82464915514}
2019-04-03 19:35:49.49: SIM {TimeUS : 70116109, Roll : 0.07, Pitch : -17.83, Yaw : 246.8, Alt : 595.539978027, Lat : -35.3635437, Lng : 149.1644205, Q1 : 0.54392015934, Q2 : -0.129058748484, Q3 : -0.0859194248915, Q4 : -0.824689388275}
2019-04-03 19:35:49.59: SIM {TimeUS : 70216069, Roll : 0.06, Pitch : -17.82, Yaw : 246.79, Alt : 595.590026855, Lat : -35.3635454, Lng : 149.1644154, Q1 : 0.543891847134, Q2 : -0.129059121013, Q3 : -0.0857521146536, Q4 : -0.824725389481}
2019-04-03 19:35:49.69: SIM {TimeUS : 70316029, Roll : 0.05, Pitch : -17.81, Yaw : 246.79, Alt : 595.640014648, Lat : -35.3635472, Lng : 149.1644103, Q1 : 0.543864130974, Q2 : -0.129042834044, Q3 : -0.0856230258942, Q4 : -0.824759662151}
2019-04-03 19:35:49.79: SIM {TimeUS : 70415989, Roll : 0.04, Pitch : -17.8, Yaw : 246.79, Alt : 595.690002441, Lat : -35.3635489, Lng : 149.1644053, Q1 : 0.543835282326, Q2 : -0.129031270742, Q3 : -0.0854878127575, Q4 : -0.824794530869}
