2019-04-03 20:28:54.90: SIM {TimeUS : 55316198, Roll : 0.0, Pitch : 0.0, Yaw : 353.0, Alt : 584.090026855, Lat : -35.363261, Lng : 149.1652299, Q1 : 0.998134791851, Q2 : 0.0, Q3 : 0.0, Q4 : -0.0610485821962}
2019-04-03 20:28:55.01: SIM {TimeUS : 55435317, Roll : 0.0, Pitch : 0.0, Yaw : 353.0, Alt : 584.090026855, Lat : -35.363261, Lng : 149.1652299, Q1 : 0.998134791851, Q2 : 0.0, Q3 : 0.0, Q4 : -0.0610485821962}
2019-04-03 20:28:55.11: SIM {TimeUS : 55535277, Roll : 0.0, Pitch : 0.0, Yaw : 353.0, Alt : 584.090026855, Lat : -35.363261, Lng : 149.1652299, Q1 : 0.998134791851, Q2 : 0.0, Q3 : 0.0, Q4 : -0.0610485821962}
2019-04-03 20:28:55.21: SIM {TimeUS : 55635237, Roll : 0.0, Pitch : 0.0, Yaw : 353.0, Alt : 584.090026855, Lat : -35.363261, Lng : 149.1652299, Q1 : 0.998134791851, Q2 : 0.0, Q3 : 0.0, Q4 : -0.0610485821962}
2019-04-03 20:28:55.31: SIM {TimeUS : 55735197, Roll : 0.0, Pitch : 0.0, Yaw : 353.0, Alt : 584.090026855, Lat : -35.363261, Lng : 149.1652299, Q1 : 0.998134791851, Q2 : 0.0, Q3 : 0.0, Q4 : -0.0610485821962}
2019-04-03 20:28:55.41: SIM {TimeUS : 55835157, Roll : 0.0, Pitch : 0.0, Yaw : 353.0, Alt : 584.090026855, Lat : -35.363261, Lng : 149.1652299, Q1 : 0.998134791851, Q2 : 0.0, Q3 : 0.0, Q4 : -0.0610485821962}
2019-04-03 20:28:55.51: SIM {TimeUS : 55935117, Roll : 0.0, Pitch : 0.0, Yaw : 353.0, Alt : 584.090026855, Lat : -35.363261, Lng : 149.1652299, Q1 : 0.998134791851, Q2 : 0.0, Q3 : 0.0, Q4 : -0.0610485821962}
2019-04-03 20:28:55.61: SIM {TimeUS : 56035077, Roll : 0.0, Pitch : 0.0, Yaw : 353.0, Alt : 584.090026855, Lat : -35.363261, Lng : 149.1652299, Q1 : 0.998134791851, Q2 : 0.0, Q3 : 0.0, Q4 : -0.0610485821962}
2019-04-03 20:28:55.71: SIM {TimeUS : 56135037, Roll : 0.0, Pitch : 0.0, Yaw : 353.0, Alt : 584.090026855, Lat : -35.363261, Lng : 149.1652299, Q1 : 0.998134791851, Q2 : 0.0, Q3 : 0.0, Q4 : -0.0610485821962}
2019-04-03 20:28:55.81: SIM {TimeUS : 56234997, Roll : 0.0, Pitch : 0.0, Yaw : 353.0, Alt : 584.090026855, Lat : -35.363261, Lng : 149.1652299, Q1 : 0.998134791851, Q2 : 0.0, Q3 : 0.0, Q4 : -0.0610485821962}
2019-04-03 20:28:55.91: SIM {TimeUS : 56334957, Roll : 0.0, Pitch : 0.0, Yaw : 353.0, Alt : 584.090026855, Lat : -35.363261, Lng : 149.1652299, Q1 : 0.998134791851, Q2 : 0.0, Q3 : 0.0, Q4 : -0.0610485821962}
2019-04-03 20:28:56.01: SIM {TimeUS : 56434917, Roll : 0.0, Pitch : 0.0, Yaw : 353.0, Alt : 584.090026855, Lat : -35.363261, Lng : 149.1652299, Q1 : 0.998134791851, Q2 : 0.0, Q3 : 0.0, Q4 : -0.0610485821962}
2019-04-03 20:28:56.11: SIM {TimeUS : 56534877, Roll : 0.0, Pitch : 0.0, Yaw : 353.0, Alt : 584.090026855, Lat : -35.363261, Lng : 149.1652299, Q1 : 0.998134791851, Q2 : 0.0, Q3 : 0.0, Q4 : -0.0610485821962}
2019-04-03 20:28:56.21: SIM {TimeUS : 56634837, Roll : 0.0, Pitch : 0.0, Yaw : 353.0, Alt : 584.090026855, Lat : -35.363261, Lng : 149.1652299, Q1 : 0.998134791851, Q2 : 0.0, Q3 : 0.0, Q4 : -0.0610485821962}
2019-04-03 20:28:56.31: SIM {TimeUS : 56734797, Roll : 0.0, Pitch : 0.0, Yaw : 353.0, Alt : 584.090026855, Lat : -35.363261, Lng : 149.1652299, Q1 : 0.998134791851, Q2 : 0.0, Q3 : 0.0, Q4 : -0.0610485821962}
2019-04-03 20:28:56.41: SIM {TimeUS : 56834757, Roll : 0.0, Pitch : 0.0, Yaw : 353.0, Alt : 584.090026855, Lat : -35.363261, Lng : 149.1652299, Q1 : 0.998134791851, Q2 : 0.0, Q3 : 0.0, Q4 : -0.0610485821962}
2019-04-03 20:28:56.51: SIM {TimeUS : 56934717, Roll : 0.0, Pitch : 0.0, Yaw : 353.0, Alt : 584.090026855, Lat : -35.363261, Lng : 149.1652299, Q1 : 0.998134791851, Q2 : 0.0, Q3 : 0.0, Q4 : -0.0610485821962}
2019-04-03 20:28:56.61: SIM {TimeUS : 57034677, Roll : 0.0, Pitch : 0.0, Yaw : 353.0, Alt : 584.090026855, Lat : -35.363261, Lng : 149.1652299, Q1 : 0.998134791851, Q2 : 0.0, Q3 : 0.0, Q4 : -0.0610485821962}
2019-04-03 20:28:56.71: SIM {TimeUS : 57134637, Roll : 0.0, Pitch : 0.0, Yaw : 353.0, Alt : 584.090026855, Lat : -35.363261, Lng : 149.1652299, Q1 : 0.998134791851, Q2 : 0.0, Q3 : 0.0, Q4 : -0.0610485821962}
2019-04-03 20:28:56.81: SIM {TimeUS : 57234597, Roll : 0.0, Pitch : 0.0, Yaw : 353.0, Alt : 584.090026855, Lat : -35.363261, Lng : 149.1652299, Q1 : 0.998134791851, Q2 : 0.0, Q3 : 0.0, Q4 : -0.0610485821962}
2019-04-03 20:28:56.91: SIM {TimeUS : 57334557, Roll : 0.0, Pitch : 0.0, Yaw : 353.0, Alt : 584.090026855, Lat : -35.363261, Lng : 149.1652299, Q1 : 0.998134791851, Q2 : 0.0, Q3 : 0.0, Q4 : -0.0610485821962}
2019-04-03 20:28:57.02: SIM {TimeUS : 57435350, Roll : 0.0, Pitch : 0.0, Yaw : 353.0, Alt : 584.090026855, Lat : -35.363261, Lng : 149.1652299, Q1 : 0.998134791851, Q2 : 0.0, Q3 : 0.0, Q4 : -0.0610485821962}
2019-04-03 20:28:57.11: SIM {TimeUS : 57535310, Roll : 0.0, Pitch : 0.0, Yaw : 353.0, Alt : 584.090026855, Lat : -35.363261, Lng : 149.1652299, Q1 : 0.998134791851, Q2 : 0.0, Q3 : 0.0, Q4 : -0.0610485821962}
2019-04-03 20:28:57.21: SIM {TimeUS : 57635270, Roll : 0.0, Pitch : 0.0, Yaw : 353.0, Alt : 584.090026855, Lat : -35.363261, Lng : 149.1652299, Q1 : 0.998134791851, Q2 : 0.0, Q3 : 0.0, Q4 : -0.0610485821962}
2019-04-03 20:28:57.31: SIM {TimeUS : 57735230, Roll : 0.0, Pitch : 0.0, Yaw : 353.0, Alt : 584.090026855, Lat : -35.363261, Lng : 149.1652299, Q1 : 0.998134791851, Q2 : 0.0, Q3 : 0.0, Q4 : -0.0610485821962}
2019-04-03 20:28:57.41: SIM {TimeUS : 57835190, Roll : 0.0, Pitch : 0.0, Yaw : 353.0, Alt : 584.090026855, Lat : -35.363261, Lng : 149.1652299, Q1 : 0.998134791851, Q2 : 0.0, Q3 : 0.0, Q4 : -0.0610485821962}
2019-04-03 20:28:57.51: SIM {TimeUS : 57935150, Roll : 0.0, Pitch : 0.0, Yaw : 353.0, Alt : 584.090026855, Lat : -35.363261, Lng : 149.1652299, Q1 : 0.998134791851, Q2 : 0.0, Q3 : 0.0, Q4 : -0.0610485821962}
2019-04-03 20:28:57.61: SIM {TimeUS : 58035110, Roll : 0.0, Pitch : 0.0, Yaw : 353.0, Alt : 584.090026855, Lat : -35.363261, Lng : 149.1652299, Q1 : 0.998134791851, Q2 : 0.0, Q3 : 0.0, Q4 : -0.0610485821962}
2019-04-03 20:28:57.71: SIM {TimeUS : 58135070, Roll : 0.0, Pitch : 0.0, Yaw : 353.0, Alt : 584.090026855, Lat : -35.363261, Lng : 149.1652299, Q1 : 0.998134791851, Q2 : 0.0, Q3 : 0.0, Q4 : -0.0610485821962}
2019-04-03 20:28:57.81: SIM {TimeUS : 58235030, Roll : 0.0, Pitch : 0.0, Yaw : 353.0, Alt : 584.090026855, Lat : -35.363261, Lng : 149.1652299, Q1 : 0.998134791851, Q2 : 0.0, Q3 : 0.0, Q4 : -0.0610485821962}
2019-04-03 20:28:57.91: SIM {TimeUS : 58334990, Roll : 0.0, Pitch : 0.0, Yaw : 353.0, Alt : 584.090026855, Lat : -35.363261, Lng : 149.1652299, Q1 : 0.998134791851, Q2 : 0.0, Q3 : 0.0, Q4 : -0.0610485821962}
2019-04-03 20:28:58.01: SIM {TimeUS : 58434950, Roll : 0.0, Pitch : 0.0, Yaw : 353.0, Alt : 584.090026855, Lat : -35.363261, Lng : 149.1652299, Q1 : 0.998134791851, Q2 : 0.0, Q3 : 0.0, Q4 : -0.0610485821962}
2019-04-03 20:28:58.11: SIM {TimeUS : 58534910, Roll : 0.0, Pitch : 0.0, Yaw : 353.0, Alt : 584.090026855, Lat : -35.363261, Lng : 149.1652299, Q1 : 0.998134791851, Q2 : 0.0, Q3 : 0.0, Q4 : -0.0610485821962}
2019-04-03 20:28:58.21: SIM {TimeUS : 58634870, Roll : 0.0, Pitch : 0.0, Yaw : 353.0, Alt : 584.090026855, Lat : -35.363261, Lng : 149.1652299, Q1 : 0.998134791851, Q2 : 0.0, Q3 : 0.0, Q4 : -0.0610485821962}
2019-04-03 20:28:58.31: SIM {TimeUS : 58734830, Roll : 0.0, Pitch : 0.0, Yaw : 353.0, Alt : 584.090026855, Lat : -35.363261, Lng : 149.1652299, Q1 : 0.998134791851, Q2 : 0.0, Q3 : 0.0, Q4 : -0.0610485821962}
2019-04-03 20:28:58.41: SIM {TimeUS : 58834790, Roll : 0.0, Pitch : 0.0, Yaw : 353.0, Alt : 584.090026855, Lat : -35.363261, Lng : 149.1652299, Q1 : 0.998134791851, Q2 : 0.0, Q3 : 0.0, Q4 : -0.0610485821962}
2019-04-03 20:28:58.51: SIM {TimeUS : 58934750, Roll : 0.0, Pitch : 0.0, Yaw : 353.0, Alt : 584.090026855, Lat : -35.363261, Lng : 149.1652299, Q1 : 0.998134791851, Q2 : 0.0, Q3 : 0.0, Q4 : -0.0610485821962}
2019-04-03 20:28:58.61: SIM {TimeUS : 59034710, Roll : 0.0, Pitch : 0.0, Yaw : 353.0, Alt : 584.090026855, Lat : -35.363261, Lng : 149.1652299, Q1 : 0.998134791851, Q2 : 0.0, Q3 : 0.0, Q4 : -0.0610485821962}
2019-04-03 20:28:58.71: SIM {TimeUS : 59134670, Roll : 0.0, Pitch : 0.0, Yaw : 353.0, Alt : 584.090026855, Lat : -35.363261, Lng : 149.1652299, Q1 : 0.998134791851, Q2 : 0.0, Q3 : 0.0, Q4 : -0.0610485821962}
2019-04-03 20:28:58.81: SIM {TimeUS : 59234630, Roll : 0.0, Pitch : 0.0, Yaw : 353.0, Alt : 584.090026855, Lat : -35.363261, Lng : 149.1652299, Q1 : 0.998134791851, Q2 : 0.0, Q3 : 0.0, Q4 : -0.0610485821962}
2019-04-03 20:28:58.91: SIM {TimeUS : 59334590, Roll : 0.0, Pitch : 0.0, Yaw : 353.0, Alt : 584.090026855, Lat : -35.363261, Lng : 149.1652299, Q1 : 0.998134791851, Q2 : 0.0, Q3 : 0.0, Q4 : -0.0610485821962}
2019-04-03 20:28:59.01: SIM {TimeUS : 59434550, Roll : 0.0, Pitch : 0.0, Yaw : 353.0, Alt : 584.090026855, Lat : -35.363261, Lng : 149.1652299, Q1 : 0.998134791851, Q2 : 0.0, Q3 : 0.0, Q4 : -0.0610485821962}
2019-04-03 20:28:59.12: SIM {TimeUS : 59535343, Roll : 0.0, Pitch : 0.0, Yaw : 353.0, Alt : 584.090026855, Lat : -35.363261, Lng : 149.1652299, Q1 : 0.998134791851, Q2 : 0.0, Q3 : 0.0, Q4 : -0.0610485821962}
2019-04-03 20:28:59.21: SIM {TimeUS : 59635303, Roll : 0.0, Pitch : 0.0, Yaw : 353.0, Alt : 584.090026855, Lat : -35.363261, Lng : 149.1652299, Q1 : 0.998134791851, Q2 : 0.0, Q3 : 0.0, Q4 : -0.0610485821962}
2019-04-03 20:28:59.31: SIM {TimeUS : 59735263, Roll : 0.0, Pitch : 0.0, Yaw : 353.0, Alt : 584.090026855, Lat : -35.363261, Lng : 149.1652299, Q1 : 0.998134791851, Q2 : 0.0, Q3 : 0.0, Q4 : -0.0610485821962}
2019-04-03 20:28:59.41: SIM {TimeUS : 59835223, Roll : 0.0, Pitch : 0.0, Yaw : 353.0, Alt : 584.090026855, Lat : -35.363261, Lng : 149.1652299, Q1 : 0.998134791851, Q2 : 0.0, Q3 : 0.0, Q4 : -0.0610485821962}
2019-04-03 20:28:59.51: SIM {TimeUS : 59935183, Roll : 0.0, Pitch : 0.0, Yaw : 353.0, Alt : 584.090026855, Lat : -35.363261, Lng : 149.1652299, Q1 : 0.998134791851, Q2 : 0.0, Q3 : 0.0, Q4 : -0.0610485821962}
2019-04-03 20:28:59.61: SIM {TimeUS : 60035143, Roll : 0.0, Pitch : 0.0, Yaw : 353.0, Alt : 584.090026855, Lat : -35.363261, Lng : 149.1652299, Q1 : 0.998134791851, Q2 : 0.0, Q3 : 0.0, Q4 : -0.0610485821962}
2019-04-03 20:28:59.71: SIM {TimeUS : 60135103, Roll : 0.0, Pitch : 0.0, Yaw : 353.0, Alt : 584.090026855, Lat : -35.363261, Lng : 149.1652299, Q1 : 0.998134791851, Q2 : 0.0, Q3 : 0.0, Q4 : -0.0610485821962}
2019-04-03 20:28:59.81: SIM {TimeUS : 60235063, Roll : 0.0, Pitch : 0.0, Yaw : 353.0, Alt : 584.090026855, Lat : -35.363261, Lng : 149.1652299, Q1 : 0.998134791851, Q2 : 0.0, Q3 : 0.0, Q4 : -0.0610485821962}
2019-04-03 20:28:59.91: SIM {TimeUS : 60335023, Roll : 0.0, Pitch : 0.0, Yaw : 353.0, Alt : 584.090026855, Lat : -35.363261, Lng : 149.1652299, Q1 : 0.998134791851, Q2 : 0.0, Q3 : 0.0, Q4 : -0.0610485821962}
2019-04-03 20:29:00.01: SIM {TimeUS : 60434983, Roll : 0.0, Pitch : 0.0, Yaw : 353.0, Alt : 584.090026855, Lat : -35.363261, Lng : 149.1652299, Q1 : 0.998134791851, Q2 : 0.0, Q3 : 0.0, Q4 : -0.0610485821962}
2019-04-03 20:29:00.11: SIM {TimeUS : 60534943, Roll : 0.0, Pitch : 0.0, Yaw : 353.0, Alt : 584.090026855, Lat : -35.363261, Lng : 149.1652299, Q1 : 0.998134791851, Q2 : 0.0, Q3 : 0.0, Q4 : -0.0610485821962}
2019-04-03 20:29:00.21: SIM {TimeUS : 60634903, Roll : 0.0, Pitch : 0.0, Yaw : 353.0, Alt : 584.090026855, Lat : -35.363261, Lng : 149.1652299, Q1 : 0.998134791851, Q2 : 0.0, Q3 : 0.0, Q4 : -0.0610485821962}
2019-04-03 20:29:00.31: SIM {TimeUS : 60734863, Roll : 0.0, Pitch : 0.0, Yaw : 353.0, Alt : 584.090026855, Lat : -35.363261, Lng : 149.1652299, Q1 : 0.998134791851, Q2 : 0.0, Q3 : 0.0, Q4 : -0.0610485821962}
2019-04-03 20:29:00.41: SIM {TimeUS : 60834823, Roll : 0.0, Pitch : 0.0, Yaw : 353.0, Alt : 584.090026855, Lat : -35.363261, Lng : 149.1652299, Q1 : 0.998134791851, Q2 : 0.0, Q3 : 0.0, Q4 : -0.0610485821962}
2019-04-03 20:29:00.51: SIM {TimeUS : 60934783, Roll : 0.0, Pitch : 0.0, Yaw : 353.0, Alt : 584.090026855, Lat : -35.363261, Lng : 149.1652299, Q1 : 0.998134791851, Q2 : 0.0, Q3 : 0.0, Q4 : -0.0610485821962}
2019-04-03 20:29:00.61: SIM {TimeUS : 61034743, Roll : 0.0, Pitch : 0.0, Yaw : 353.0, Alt : 584.090026855, Lat : -35.363261, Lng : 149.1652299, Q1 : 0.998134791851, Q2 : 0.0, Q3 : 0.0, Q4 : -0.0610485821962}
2019-04-03 20:29:00.71: SIM {TimeUS : 61134703, Roll : 0.0, Pitch : 0.0, Yaw : 353.0, Alt : 584.090026855, Lat : -35.363261, Lng : 149.1652299, Q1 : 0.998134791851, Q2 : 0.0, Q3 : 0.0, Q4 : -0.0610485821962}
2019-04-03 20:29:00.81: SIM {TimeUS : 61234663, Roll : 0.0, Pitch : 0.0, Yaw : 353.0, Alt : 584.090026855, Lat : -35.363261, Lng : 149.1652299, Q1 : 0.998134791851, Q2 : 0.0, Q3 : 0.0, Q4 : -0.0610485821962}
2019-04-03 20:29:00.91: SIM {TimeUS : 61334623, Roll : 0.0, Pitch : 0.0, Yaw : 353.0, Alt : 584.090026855, Lat : -35.363261, Lng : 149.1652299, Q1 : 0.998134791851, Q2 : 0.0, Q3 : 0.0, Q4 : -0.0610485821962}
2019-04-03 20:29:01.01: SIM {TimeUS : 61434583, Roll : 0.0, Pitch : 0.0, Yaw : 353.0, Alt : 584.090026855, Lat : -35.363261, Lng : 149.1652299, Q1 : 0.998134791851, Q2 : 0.0, Q3 : 0.0, Q4 : -0.0610485821962}
2019-04-03 20:29:01.11: SIM {TimeUS : 61534543, Roll : 0.0, Pitch : 0.0, Yaw : 353.0, Alt : 584.090026855, Lat : -35.363261, Lng : 149.1652299, Q1 : 0.998134791851, Q2 : 0.0, Q3 : 0.0, Q4 : -0.0610485821962}
2019-04-03 20:29:01.22: SIM {TimeUS : 61635336, Roll : 0.0, Pitch : 0.0, Yaw : 353.0, Alt : 584.090026855, Lat : -35.363261, Lng : 149.1652299, Q1 : 0.998134791851, Q2 : 0.0, Q3 : 0.0, Q4 : -0.0610485821962}
2019-04-03 20:29:01.31: SIM {TimeUS : 61735296, Roll : 0.0, Pitch : 0.0, Yaw : 353.0, Alt : 584.090026855, Lat : -35.363261, Lng : 149.1652299, Q1 : 0.998134791851, Q2 : 0.0, Q3 : 0.0, Q4 : -0.0610485821962}
2019-04-03 20:29:01.41: SIM {TimeUS : 61835256, Roll : 0.0, Pitch : 0.0, Yaw : 353.0, Alt : 584.090026855, Lat : -35.363261, Lng : 149.1652299, Q1 : 0.998134791851, Q2 : 0.0, Q3 : 0.0, Q4 : -0.0610485821962}
2019-04-03 20:29:01.51: SIM {TimeUS : 61935216, Roll : 0.0, Pitch : 0.0, Yaw : 353.0, Alt : 584.090026855, Lat : -35.363261, Lng : 149.1652299, Q1 : 0.998134791851, Q2 : 0.0, Q3 : 0.0, Q4 : -0.0610485821962}
2019-04-03 20:29:01.61: SIM {TimeUS : 62035176, Roll : 0.0, Pitch : 0.0, Yaw : 353.0, Alt : 584.090026855, Lat : -35.363261, Lng : 149.1652299, Q1 : 0.998134791851, Q2 : 0.0, Q3 : 0.0, Q4 : -0.0610485821962}
2019-04-03 20:29:01.71: SIM {TimeUS : 62135136, Roll : 0.0, Pitch : 0.0, Yaw : 353.0, Alt : 584.090026855, Lat : -35.363261, Lng : 149.1652299, Q1 : 0.998134791851, Q2 : 0.0, Q3 : 0.0, Q4 : -0.0610485821962}
2019-04-03 20:29:01.81: SIM {TimeUS : 62235096, Roll : 0.0, Pitch : 0.0, Yaw : 353.0, Alt : 584.090026855, Lat : -35.363261, Lng : 149.1652299, Q1 : 0.998134791851, Q2 : 0.0, Q3 : 0.0, Q4 : -0.0610485821962}
2019-04-03 20:29:01.91: SIM {TimeUS : 62335056, Roll : 0.0, Pitch : 0.0, Yaw : 353.0, Alt : 584.090026855, Lat : -35.363261, Lng : 149.1652299, Q1 : 0.998134791851, Q2 : 0.0, Q3 : 0.0, Q4 : -0.0610485821962}
2019-04-03 20:29:02.01: SIM {TimeUS : 62435016, Roll : 0.0, Pitch : 0.0, Yaw : 353.0, Alt : 584.090026855, Lat : -35.363261, Lng : 149.1652299, Q1 : 0.998134791851, Q2 : 0.0, Q3 : 0.0, Q4 : -0.0610485821962}
2019-04-03 20:29:02.11: SIM {TimeUS : 62534976, Roll : 0.0, Pitch : 0.0, Yaw : 353.0, Alt : 584.090026855, Lat : -35.363261, Lng : 149.1652299, Q1 : 0.998134791851, Q2 : 0.0, Q3 : 0.0, Q4 : -0.0610485821962}
2019-04-03 20:29:02.21: SIM {TimeUS : 62634936, Roll : 0.0, Pitch : 0.0, Yaw : 353.0, Alt : 584.090026855, Lat : -35.363261, Lng : 149.1652299, Q1 : 0.998134791851, Q2 : 0.0, Q3 : 0.0, Q4 : -0.0610485821962}
2019-04-03 20:29:02.31: SIM {TimeUS : 62734896, Roll : 0.0, Pitch : 0.0, Yaw : 353.0, Alt : 584.090026855, Lat : -35.363261, Lng : 149.1652299, Q1 : 0.998134791851, Q2 : 0.0, Q3 : 0.0, Q4 : -0.0610485821962}
2019-04-03 20:29:02.41: SIM {TimeUS : 62834856, Roll : 0.0, Pitch : 0.0, Yaw : 353.0, Alt : 584.090026855, Lat : -35.363261, Lng : 149.1652299, Q1 : 0.998134791851, Q2 : 0.0, Q3 : 0.0, Q4 : -0.0610485821962}
2019-04-03 20:29:02.51: SIM {TimeUS : 62934816, Roll : 0.0, Pitch : 0.0, Yaw : 353.0, Alt : 584.090026855, Lat : -35.363261, Lng : 149.1652299, Q1 : 0.998134791851, Q2 : 0.0, Q3 : 0.0, Q4 : -0.0610485821962}
2019-04-03 20:29:02.61: SIM {TimeUS : 63034776, Roll : 0.0, Pitch : 0.0, Yaw : 353.0, Alt : 584.090026855, Lat : -35.363261, Lng : 149.1652299, Q1 : 0.998134791851, Q2 : 0.0, Q3 : 0.0, Q4 : -0.0610485821962}
2019-04-03 20:29:02.71: SIM {TimeUS : 63134736, Roll : 0.0, Pitch : 0.0, Yaw : 353.0, Alt : 584.090026855, Lat : -35.363261, Lng : 149.1652299, Q1 : 0.998134791851, Q2 : 0.0, Q3 : 0.0, Q4 : -0.0610485821962}
2019-04-03 20:29:02.81: SIM {TimeUS : 63234696, Roll : 0.0, Pitch : 0.0, Yaw : 353.0, Alt : 584.090026855, Lat : -35.363261, Lng : 149.1652299, Q1 : 0.998134791851, Q2 : 0.0, Q3 : 0.0, Q4 : -0.0610485821962}
2019-04-03 20:29:02.91: SIM {TimeUS : 63334656, Roll : 0.0, Pitch : 0.0, Yaw : 353.0, Alt : 584.090026855, Lat : -35.363261, Lng : 149.1652299, Q1 : 0.998134791851, Q2 : 0.0, Q3 : 0.0, Q4 : -0.0610485821962}
2019-04-03 20:29:03.01: SIM {TimeUS : 63434616, Roll : 0.0, Pitch : 0.0, Yaw : 353.0, Alt : 584.090026855, Lat : -35.363261, Lng : 149.1652299, Q1 : 0.998134791851, Q2 : 0.0, Q3 : 0.0, Q4 : -0.0610485821962}
2019-04-03 20:29:03.11: SIM {TimeUS : 63534576, Roll : 0.0, Pitch : 0.0, Yaw : 353.0, Alt : 584.090026855, Lat : -35.363261, Lng : 149.1652299, Q1 : 0.998134791851, Q2 : 0.0, Q3 : 0.0, Q4 : -0.0610485821962}
2019-04-03 20:29:03.21: SIM {TimeUS : 63634536, Roll : 0.0, Pitch : 0.0, Yaw : 353.0, Alt : 584.090026855, Lat : -35.363261, Lng : 149.1652299, Q1 : 0.998134791851, Q2 : 0.0, Q3 : 0.0, Q4 : -0.0610485821962}
2019-04-03 20:29:03.32: SIM {TimeUS : 63735329, Roll : 0.0, Pitch : 0.0, Yaw : 353.0, Alt : 584.090026855, Lat : -35.363261, Lng : 149.1652299, Q1 : 0.998134791851, Q2 : 0.0, Q3 : 0.0, Q4 : -0.0610485821962}
2019-04-03 20:29:03.41: SIM {TimeUS : 63835289, Roll : 0.0, Pitch : 0.0, Yaw : 353.0, Alt : 584.090026855, Lat : -35.363261, Lng : 149.1652299, Q1 : 0.998134791851, Q2 : 0.0, Q3 : 0.0, Q4 : -0.0610485821962}
2019-04-03 20:29:03.51: SIM {TimeUS : 63935249, Roll : 0.0, Pitch : 0.0, Yaw : 353.0, Alt : 584.090026855, Lat : -35.363261, Lng : 149.1652299, Q1 : 0.998134791851, Q2 : 0.0, Q3 : 0.0, Q4 : -0.0610485821962}
2019-04-03 20:29:03.61: SIM {TimeUS : 64035209, Roll : 0.0, Pitch : 0.0, Yaw : 353.0, Alt : 584.090026855, Lat : -35.363261, Lng : 149.1652299, Q1 : 0.998134791851, Q2 : 0.0, Q3 : 0.0, Q4 : -0.0610485821962}
2019-04-03 20:29:03.71: SIM {TimeUS : 64135169, Roll : 0.0, Pitch : 0.0, Yaw : 353.0, Alt : 584.090026855, Lat : -35.363261, Lng : 149.1652299, Q1 : 0.998134791851, Q2 : 0.0, Q3 : 0.0, Q4 : -0.0610485821962}
2019-04-03 20:29:03.81: SIM {TimeUS : 64235129, Roll : 0.0, Pitch : 0.0, Yaw : 353.0, Alt : 584.090026855, Lat : -35.363261, Lng : 149.1652299, Q1 : 0.998134791851, Q2 : 0.0, Q3 : 0.0, Q4 : -0.0610485821962}
2019-04-03 20:29:03.91: SIM {TimeUS : 64335089, Roll : 0.0, Pitch : 0.0, Yaw : 353.0, Alt : 584.090026855, Lat : -35.363261, Lng : 149.1652299, Q1 : 0.998134791851, Q2 : 0.0, Q3 : 0.0, Q4 : -0.0610485821962}
2019-04-03 20:29:04.01: SIM {TimeUS : 64435049, Roll : 0.0, Pitch : 0.0, Yaw : 353.0, Alt : 584.090026855, Lat : -35.363261, Lng : 149.1652299, Q1 : 0.998134791851, Q2 : 0.0, Q3 : 0.0, Q4 : -0.0610485821962}
2019-04-03 20:29:04.11: SIM {TimeUS : 64535009, Roll : 0.0, Pitch : 0.0, Yaw : 353.0, Alt : 584.090026855, Lat : -35.363261, Lng : 149.1652299, Q1 : 0.998134791851, Q2 : 0.0, Q3 : 0.0, Q4 : -0.0610485821962}
2019-04-03 20:29:04.21: SIM {TimeUS : 64634969, Roll : 0.0, Pitch : 0.0, Yaw : 353.0, Alt : 584.090026855, Lat : -35.363261, Lng : 149.1652299, Q1 : 0.998134791851, Q2 : 0.0, Q3 : 0.0, Q4 : -0.0610485821962}
2019-04-03 20:29:04.31: SIM {TimeUS : 64734929, Roll : 0.0, Pitch : 0.0, Yaw : 353.0, Alt : 584.090026855, Lat : -35.363261, Lng : 149.1652299, Q1 : 0.998134791851, Q2 : 0.0, Q3 : 0.0, Q4 : -0.0610485821962}
2019-04-03 20:29:04.41: SIM {TimeUS : 64834889, Roll : 0.0, Pitch : 0.0, Yaw : 353.0, Alt : 584.090026855, Lat : -35.363261, Lng : 149.1652299, Q1 : 0.998134791851, Q2 : 0.0, Q3 : 0.0, Q4 : -0.0610485821962}
2019-04-03 20:29:04.51: SIM {TimeUS : 64934849, Roll : 0.0, Pitch : 0.0, Yaw : 353.0, Alt : 584.090026855, Lat : -35.363261, Lng : 149.1652299, Q1 : 0.998134791851, Q2 : 0.0, Q3 : 0.0, Q4 : -0.0610485821962}
2019-04-03 20:29:04.61: SIM {TimeUS : 65034809, Roll : 0.0, Pitch : 0.0, Yaw : 353.0, Alt : 584.090026855, Lat : -35.363261, Lng : 149.1652299, Q1 : 0.998134791851, Q2 : 0.0, Q3 : 0.0, Q4 : -0.0610485821962}
2019-04-03 20:29:04.71: SIM {TimeUS : 65134769, Roll : 0.0, Pitch : 0.0, Yaw : 353.0, Alt : 584.090026855, Lat : -35.363261, Lng : 149.1652299, Q1 : 0.998134791851, Q2 : 0.0, Q3 : 0.0, Q4 : -0.0610485821962}
2019-04-03 20:29:06.41: SIM {TimeUS : 66834922, Roll : 0.0, Pitch : 0.0, Yaw : 353.0, Alt : 584.090026855, Lat : -35.363261, Lng : 149.1652299, Q1 : 0.998134791851, Q2 : 0.0, Q3 : 0.0, Q4 : -0.0610485821962}
2019-04-03 20:29:06.51: SIM {TimeUS : 66934882, Roll : 0.0, Pitch : 0.0, Yaw : 353.0, Alt : 584.090026855, Lat : -35.363261, Lng : 149.1652299, Q1 : 0.998134791851, Q2 : 0.0, Q3 : 0.0, Q4 : -0.0610485821962}
2019-04-03 20:29:06.61: SIM {TimeUS : 67034842, Roll : 0.0, Pitch : 0.0, Yaw : 353.0, Alt : 584.090026855, Lat : -35.363261, Lng : 149.1652299, Q1 : 0.998134791851, Q2 : 0.0, Q3 : 0.0, Q4 : -0.0610485821962}
2019-04-03 20:29:06.71: SIM {TimeUS : 67134802, Roll : 0.0, Pitch : 0.0, Yaw : 353.0, Alt : 584.090026855, Lat : -35.363261, Lng : 149.1652299, Q1 : 0.998134791851, Q2 : 0.0, Q3 : 0.0, Q4 : -0.0610485821962}
2019-04-03 20:29:06.81: SIM {TimeUS : 67234762, Roll : 0.0, Pitch : 0.0, Yaw : 353.0, Alt : 584.090026855, Lat : -35.363261, Lng : 149.1652299, Q1 : 0.998134791851, Q2 : 0.0, Q3 : 0.0, Q4 : -0.0610485821962}
2019-04-03 20:29:06.91: SIM {TimeUS : 67334722, Roll : 0.0, Pitch : 0.0, Yaw : 353.0, Alt : 584.090026855, Lat : -35.363261, Lng : 149.1652299, Q1 : 0.998134791851, Q2 : 0.0, Q3 : 0.0, Q4 : -0.0610485821962}
2019-04-03 20:29:07.01: SIM {TimeUS : 67434682, Roll : 0.0, Pitch : 0.0, Yaw : 353.0, Alt : 584.090026855, Lat : -35.363261, Lng : 149.1652299, Q1 : 0.998134791851, Q2 : 0.0, Q3 : 0.0, Q4 : -0.0610485821962}
2019-04-03 20:29:07.11: SIM {TimeUS : 67534642, Roll : 0.0, Pitch : 0.0, Yaw : 353.0, Alt : 584.090026855, Lat : -35.363261, Lng : 149.1652299, Q1 : 0.998134791851, Q2 : 0.0, Q3 : 0.0, Q4 : -0.0610485821962}
2019-04-03 20:29:07.21: SIM {TimeUS : 67634602, Roll : 0.0, Pitch : 0.0, Yaw : 353.0, Alt : 584.090026855, Lat : -35.363261, Lng : 149.1652299, Q1 : 0.998134791851, Q2 : 0.0, Q3 : 0.0, Q4 : -0.0610485821962}
2019-04-03 20:29:07.31: SIM {TimeUS : 67734562, Roll : 0.0, Pitch : 0.0, Yaw : 353.0, Alt : 584.090026855, Lat : -35.363261, Lng : 149.1652299, Q1 : 0.998134791851, Q2 : 0.0, Q3 : 0.0, Q4 : -0.0610485821962}
2019-04-03 20:29:07.42: SIM {TimeUS : 67835355, Roll : 0.0, Pitch : 0.0, Yaw : 353.0, Alt : 584.090026855, Lat : -35.363261, Lng : 149.1652299, Q1 : 0.998134791851, Q2 : 0.0, Q3 : 0.0, Q4 : -0.0610485821962}
2019-04-03 20:29:07.51: SIM {TimeUS : 67935315, Roll : 0.0, Pitch : 0.0, Yaw : 353.0, Alt : 584.090026855, Lat : -35.363261, Lng : 149.1652299, Q1 : 0.998134791851, Q2 : 0.0, Q3 : 0.0, Q4 : -0.0610485821962}
2019-04-03 20:29:07.61: SIM {TimeUS : 68035275, Roll : 0.0, Pitch : 0.0, Yaw : 353.0, Alt : 584.090026855, Lat : -35.363261, Lng : 149.1652299, Q1 : 0.998134791851, Q2 : 0.0, Q3 : 0.0, Q4 : -0.0610485821962}
2019-04-03 20:29:07.71: SIM {TimeUS : 68135235, Roll : 0.0, Pitch : 0.0, Yaw : 353.0, Alt : 584.090026855, Lat : -35.363261, Lng : 149.1652299, Q1 : 0.998134791851, Q2 : 0.0, Q3 : 0.0, Q4 : -0.0610485821962}
2019-04-03 20:29:07.81: SIM {TimeUS : 68235195, Roll : 0.0, Pitch : 0.0, Yaw : 353.0, Alt : 584.090026855, Lat : -35.363261, Lng : 149.1652299, Q1 : 0.998134791851, Q2 : 0.0, Q3 : 0.0, Q4 : -0.0610485821962}
2019-04-03 20:29:07.91: SIM {TimeUS : 68335155, Roll : 0.0, Pitch : 0.0, Yaw : 353.0, Alt : 584.090026855, Lat : -35.363261, Lng : 149.1652299, Q1 : 0.998134791851, Q2 : 0.0, Q3 : 0.0, Q4 : -0.0610485821962}
2019-04-03 20:29:08.01: SIM {TimeUS : 68435115, Roll : 0.0, Pitch : 0.0, Yaw : 353.0, Alt : 584.090026855, Lat : -35.363261, Lng : 149.1652299, Q1 : 0.998134791851, Q2 : 0.0, Q3 : 0.0, Q4 : -0.0610485821962}
2019-04-03 20:29:08.11: SIM {TimeUS : 68535075, Roll : 0.0, Pitch : 0.0, Yaw : 353.0, Alt : 584.090026855, Lat : -35.363261, Lng : 149.1652299, Q1 : 0.998134791851, Q2 : 0.0, Q3 : 0.0, Q4 : -0.0610485821962}
2019-04-03 20:29:08.21: SIM {TimeUS : 68635035, Roll : 0.0, Pitch : 0.0, Yaw : 353.0, Alt : 584.090026855, Lat : -35.363261, Lng : 149.1652299, Q1 : 0.998134791851, Q2 : 0.0, Q3 : 0.0, Q4 : -0.0610485821962}
2019-04-03 20:29:08.31: SIM {TimeUS : 68734995, Roll : 0.0, Pitch : 0.0, Yaw : 353.0, Alt : 584.090026855, Lat : -35.363261, Lng : 149.1652299, Q1 : 0.998134791851, Q2 : 0.0, Q3 : 0.0, Q4 : -0.0610485821962}
2019-04-03 20:29:08.41: SIM {TimeUS : 68834955, Roll : 0.0, Pitch : 0.0, Yaw : 353.0, Alt : 584.090026855, Lat : -35.363261, Lng : 149.1652299, Q1 : 0.998134791851, Q2 : 0.0, Q3 : 0.0, Q4 : -0.0610485821962}
2019-04-03 20:29:08.51: SIM {TimeUS : 68934915, Roll : 0.0, Pitch : 0.0, Yaw : 353.0, Alt : 584.090026855, Lat : -35.363261, Lng : 149.1652299, Q1 : 0.998134791851, Q2 : 0.0, Q3 : 0.0, Q4 : -0.0610485821962}
2019-04-03 20:29:08.61: SIM {TimeUS : 69034875, Roll : 0.0, Pitch : 0.0, Yaw : 353.0, Alt : 584.090026855, Lat : -35.363261, Lng : 149.1652299, Q1 : 0.998134791851, Q2 : 0.0, Q3 : 0.0, Q4 : -0.0610485821962}
2019-04-03 20:29:08.71: SIM {TimeUS : 69134835, Roll : 0.0, Pitch : 0.0, Yaw : 353.0, Alt : 584.090026855, Lat : -35.363261, Lng : 149.1652299, Q1 : 0.998134791851, Q2 : 0.0, Q3 : 0.0, Q4 : -0.0610485821962}
2019-04-03 20:29:08.81: SIM {TimeUS : 69234795, Roll : 0.0, Pitch : 0.0, Yaw : 353.0, Alt : 584.090026855, Lat : -35.363261, Lng : 149.1652299, Q1 : 0.998134791851, Q2 : 0.0, Q3 : 0.0, Q4 : -0.0610485821962}
2019-04-03 20:29:08.91: SIM {TimeUS : 69334755, Roll : 0.0, Pitch : 0.0, Yaw : 353.0, Alt : 584.090026855, Lat : -35.363261, Lng : 149.1652299, Q1 : 0.998134791851, Q2 : 0.0, Q3 : 0.0, Q4 : -0.0610485821962}
2019-04-03 20:29:09.01: SIM {TimeUS : 69434715, Roll : 0.0, Pitch : 0.0, Yaw : 353.0, Alt : 584.090026855, Lat : -35.363261, Lng : 149.1652299, Q1 : 0.998134791851, Q2 : 0.0, Q3 : 0.0, Q4 : -0.0610485821962}
2019-04-03 20:29:09.11: SIM {TimeUS : 69534675, Roll : 0.0, Pitch : 0.0, Yaw : 353.0, Alt : 584.090026855, Lat : -35.363261, Lng : 149.1652299, Q1 : 0.998134791851, Q2 : 0.0, Q3 : 0.0, Q4 : -0.0610485821962}
2019-04-03 20:29:09.21: SIM {TimeUS : 69634635, Roll : 0.0, Pitch : 0.0, Yaw : 353.0, Alt : 584.090026855, Lat : -35.363261, Lng : 149.1652299, Q1 : 0.998134791851, Q2 : 0.0, Q3 : 0.0, Q4 : -0.0610485821962}
2019-04-03 20:29:09.31: SIM {TimeUS : 69734595, Roll : 0.0, Pitch : 0.0, Yaw : 353.0, Alt : 584.090026855, Lat : -35.363261, Lng : 149.1652299, Q1 : 0.998134791851, Q2 : 0.0, Q3 : 0.0, Q4 : -0.0610485821962}
2019-04-03 20:29:09.41: SIM {TimeUS : 69834555, Roll : 0.0, Pitch : 0.0, Yaw : 353.0, Alt : 584.090026855, Lat : -35.363261, Lng : 149.1652299, Q1 : 0.998134791851, Q2 : 0.0, Q3 : 0.0, Q4 : -0.0610485821962}
2019-04-03 20:29:09.52: SIM {TimeUS : 69935348, Roll : 0.0, Pitch : 0.0, Yaw : 353.0, Alt : 584.090026855, Lat : -35.363261, Lng : 149.1652299, Q1 : 0.998134791851, Q2 : 0.0, Q3 : 0.0, Q4 : -0.0610485821962}
2019-04-03 20:29:09.61: SIM {TimeUS : 70035308, Roll : 0.0, Pitch : 0.0, Yaw : 353.0, Alt : 584.090026855, Lat : -35.363261, Lng : 149.1652299, Q1 : 0.998134791851, Q2 : 0.0, Q3 : 0.0, Q4 : -0.0610485821962}
2019-04-03 20:29:09.71: SIM {TimeUS : 70135268, Roll : 0.0, Pitch : 0.0, Yaw : 353.0, Alt : 584.090026855, Lat : -35.363261, Lng : 149.1652299, Q1 : 0.998134791851, Q2 : 0.0, Q3 : 0.0, Q4 : -0.0610485821962}
2019-04-03 20:29:09.81: SIM {TimeUS : 70235228, Roll : 0.0, Pitch : 0.0, Yaw : 353.0, Alt : 584.090026855, Lat : -35.363261, Lng : 149.1652299, Q1 : 0.998134791851, Q2 : 0.0, Q3 : 0.0, Q4 : -0.0610485821962}
2019-04-03 20:29:09.91: SIM {TimeUS : 70335188, Roll : 0.0, Pitch : 0.0, Yaw : 353.0, Alt : 584.090026855, Lat : -35.363261, Lng : 149.1652299, Q1 : 0.998134791851, Q2 : 0.0, Q3 : 0.0, Q4 : -0.0610485821962}
2019-04-03 20:29:10.01: SIM {TimeUS : 70435148, Roll : 0.0, Pitch : 0.0, Yaw : 353.0, Alt : 584.090026855, Lat : -35.363261, Lng : 149.1652299, Q1 : 0.998134791851, Q2 : 0.0, Q3 : 0.0, Q4 : -0.0610485821962}
2019-04-03 20:29:10.11: SIM {TimeUS : 70535108, Roll : 0.0, Pitch : 0.0, Yaw : 353.0, Alt : 584.090026855, Lat : -35.363261, Lng : 149.1652299, Q1 : 0.998134791851, Q2 : 0.0, Q3 : 0.0, Q4 : -0.0610485821962}
2019-04-03 20:29:10.21: SIM {TimeUS : 70635068, Roll : 0.0, Pitch : 0.0, Yaw : 353.0, Alt : 584.090026855, Lat : -35.363261, Lng : 149.1652299, Q1 : 0.998134791851, Q2 : 0.0, Q3 : 0.0, Q4 : -0.0610485821962}
2019-04-03 20:29:10.31: SIM {TimeUS : 70735028, Roll : 0.0, Pitch : 0.0, Yaw : 353.0, Alt : 584.090026855, Lat : -35.363261, Lng : 149.1652299, Q1 : 0.998134791851, Q2 : 0.0, Q3 : 0.0, Q4 : -0.0610485821962}
2019-04-03 20:29:10.41: SIM {TimeUS : 70834988, Roll : 0.0, Pitch : 0.0, Yaw : 353.0, Alt : 584.090026855, Lat : -35.363261, Lng : 149.1652299, Q1 : 0.998134791851, Q2 : 0.0, Q3 : 0.0, Q4 : -0.0610485821962}
2019-04-03 20:29:10.51: SIM {TimeUS : 70934948, Roll : 0.0, Pitch : 0.0, Yaw : 353.0, Alt : 584.090026855, Lat : -35.363261, Lng : 149.1652299, Q1 : 0.998134791851, Q2 : 0.0, Q3 : 0.0, Q4 : -0.0610485821962}
2019-04-03 20:29:10.61: SIM {TimeUS : 71034908, Roll : 0.0, Pitch : 0.0, Yaw : 353.0, Alt : 584.090026855, Lat : -35.363261, Lng : 149.1652299, Q1 : 0.998134791851, Q2 : 0.0, Q3 : 0.0, Q4 : -0.0610485821962}
2019-04-03 20:29:10.71: SIM {TimeUS : 71134868, Roll : 0.0, Pitch : 0.0, Yaw : 353.0, Alt : 584.090026855, Lat : -35.363261, Lng : 149.1652299, Q1 : 0.998134791851, Q2 : 0.0, Q3 : 0.0, Q4 : -0.0610485821962}
2019-04-03 20:29:10.81: SIM {TimeUS : 71234828, Roll : 0.0, Pitch : 0.0, Yaw : 353.0, Alt : 584.090026855, Lat : -35.363261, Lng : 149.1652299, Q1 : 0.998134791851, Q2 : 0.0, Q3 : 0.0, Q4 : -0.0610485821962}
2019-04-03 20:29:10.91: SIM {TimeUS : 71334788, Roll : 0.0, Pitch : 0.0, Yaw : 353.0, Alt : 584.090026855, Lat : -35.363261, Lng : 149.1652299, Q1 : 0.998134791851, Q2 : 0.0, Q3 : 0.0, Q4 : -0.0610485821962}
2019-04-03 20:29:11.01: SIM {TimeUS : 71434748, Roll : 0.0, Pitch : 0.0, Yaw : 353.0, Alt : 584.090026855, Lat : -35.363261, Lng : 149.1652299, Q1 : 0.998134791851, Q2 : 0.0, Q3 : 0.0, Q4 : -0.0610485821962}
2019-04-03 20:29:11.11: SIM {TimeUS : 71534708, Roll : 0.0, Pitch : 0.0, Yaw : 353.0, Alt : 584.090026855, Lat : -35.363261, Lng : 149.1652299, Q1 : 0.998134791851, Q2 : 0.0, Q3 : 0.0, Q4 : -0.0610485821962}
2019-04-03 20:29:11.21: SIM {TimeUS : 71634668, Roll : 0.0, Pitch : 0.0, Yaw : 353.0, Alt : 584.090026855, Lat : -35.363261, Lng : 149.1652299, Q1 : 0.998134791851, Q2 : 0.0, Q3 : 0.0, Q4 : -0.0610485821962}
2019-04-03 20:29:11.31: SIM {TimeUS : 71734628, Roll : 0.0, Pitch : 0.0, Yaw : 353.0, Alt : 584.090026855, Lat : -35.363261, Lng : 149.1652299, Q1 : 0.998134791851, Q2 : 0.0, Q3 : 0.0, Q4 : -0.0610485821962}
2019-04-03 20:29:11.41: SIM {TimeUS : 71834588, Roll : 0.0, Pitch : 0.0, Yaw : 353.0, Alt : 584.090026855, Lat : -35.363261, Lng : 149.1652299, Q1 : 0.998134791851, Q2 : 0.0, Q3 : 0.0, Q4 : -0.0610485821962}
2019-04-03 20:29:11.51: SIM {TimeUS : 71934548, Roll : 0.0, Pitch : 0.0, Yaw : 353.0, Alt : 584.090026855, Lat : -35.363261, Lng : 149.1652299, Q1 : 0.998134791851, Q2 : 0.0, Q3 : 0.0, Q4 : -0.0610485821962}
2019-04-03 20:29:11.62: SIM {TimeUS : 72035341, Roll : 0.0, Pitch : 0.0, Yaw : 353.0, Alt : 584.090026855, Lat : -35.363261, Lng : 149.1652299, Q1 : 0.998134791851, Q2 : 0.0, Q3 : 0.0, Q4 : -0.0610485821962}
2019-04-03 20:29:11.71: SIM {TimeUS : 72135301, Roll : 0.0, Pitch : 0.0, Yaw : 353.0, Alt : 584.090026855, Lat : -35.363261, Lng : 149.1652299, Q1 : 0.998134791851, Q2 : 0.0, Q3 : 0.0, Q4 : -0.0610485821962}
2019-04-03 20:29:11.81: SIM {TimeUS : 72235261, Roll : 0.0, Pitch : 0.0, Yaw : 353.0, Alt : 584.090026855, Lat : -35.363261, Lng : 149.1652299, Q1 : 0.998134791851, Q2 : 0.0, Q3 : 0.0, Q4 : -0.0610485821962}
2019-04-03 20:29:11.91: SIM {TimeUS : 72335221, Roll : 0.0, Pitch : 0.0, Yaw : 353.0, Alt : 584.090026855, Lat : -35.363261, Lng : 149.1652299, Q1 : 0.998134791851, Q2 : 0.0, Q3 : 0.0, Q4 : -0.0610485821962}
2019-04-03 20:29:12.01: SIM {TimeUS : 72435181, Roll : 0.0, Pitch : 0.0, Yaw : 353.0, Alt : 584.090026855, Lat : -35.363261, Lng : 149.1652299, Q1 : 0.998134791851, Q2 : 0.0, Q3 : 0.0, Q4 : -0.0610485821962}
2019-04-03 20:29:12.11: SIM {TimeUS : 72535141, Roll : 0.0, Pitch : 0.0, Yaw : 353.0, Alt : 584.090026855, Lat : -35.363261, Lng : 149.1652299, Q1 : 0.998134791851, Q2 : 0.0, Q3 : 0.0, Q4 : -0.0610485821962}
2019-04-03 20:29:12.21: SIM {TimeUS : 72635101, Roll : 0.0, Pitch : 0.0, Yaw : 353.0, Alt : 584.090026855, Lat : -35.363261, Lng : 149.1652299, Q1 : 0.998134791851, Q2 : 0.0, Q3 : 0.0, Q4 : -0.0610485821962}
2019-04-03 20:29:12.31: SIM {TimeUS : 72735061, Roll : 0.0, Pitch : 0.0, Yaw : 353.0, Alt : 584.090026855, Lat : -35.363261, Lng : 149.1652299, Q1 : 0.998134791851, Q2 : 0.0, Q3 : 0.0, Q4 : -0.0610485821962}
2019-04-03 20:29:12.41: SIM {TimeUS : 72835021, Roll : 0.0, Pitch : 0.0, Yaw : 353.0, Alt : 584.090026855, Lat : -35.363261, Lng : 149.1652299, Q1 : 0.998134791851, Q2 : 0.0, Q3 : 0.0, Q4 : -0.0610486268997}
2019-04-03 20:29:12.51: SIM {TimeUS : 72934981, Roll : 0.0, Pitch : 0.0, Yaw : 353.0, Alt : 584.090026855, Lat : -35.363261, Lng : 149.1652299, Q1 : 0.998134791851, Q2 : 0.0, Q3 : 0.0, Q4 : -0.0610486753285}
2019-04-03 20:29:12.61: SIM {TimeUS : 73034941, Roll : 0.0, Pitch : 0.0, Yaw : 353.0, Alt : 584.090026855, Lat : -35.363261, Lng : 149.1652299, Q1 : 0.998134791851, Q2 : 0.0, Q3 : 0.0, Q4 : -0.0610486641526}
2019-04-03 20:29:12.71: SIM {TimeUS : 73134901, Roll : 0.0, Pitch : 0.0, Yaw : 353.0, Alt : 584.090026855, Lat : -35.363261, Lng : 149.1652299, Q1 : 0.998134791851, Q2 : 0.0, Q3 : 0.0, Q4 : -0.0610486753285}
2019-04-03 20:29:12.81: SIM {TimeUS : 73234861, Roll : 0.0, Pitch : 0.0, Yaw : 353.0, Alt : 584.090026855, Lat : -35.363261, Lng : 149.1652299, Q1 : 0.998134791851, Q2 : 0.0, Q3 : 0.0, Q4 : -0.0610486753285}
2019-04-03 20:29:12.91: SIM {TimeUS : 73334821, Roll : 0.0, Pitch : 0.0, Yaw : 353.0, Alt : 584.090026855, Lat : -35.363261, Lng : 149.1652299, Q1 : 0.998134791851, Q2 : 0.0, Q3 : 0.0, Q4 : -0.0610486753285}
2019-04-03 20:29:13.01: SIM {TimeUS : 73434781, Roll : 0.0, Pitch : 0.0, Yaw : 353.0, Alt : 584.090026855, Lat : -35.363261, Lng : 149.1652299, Q1 : 0.998134791851, Q2 : 0.0, Q3 : 0.0, Q4 : -0.0610486753285}
2019-04-03 20:29:13.11: SIM {TimeUS : 73534741, Roll : 0.0, Pitch : 0.0, Yaw : 353.0, Alt : 584.090026855, Lat : -35.363261, Lng : 149.1652299, Q1 : 0.998134791851, Q2 : 0.0, Q3 : 0.0, Q4 : -0.0610486753285}
2019-04-03 20:29:13.21: SIM {TimeUS : 73634701, Roll : 0.0, Pitch : 0.0, Yaw : 353.0, Alt : 584.099975586, Lat : -35.363261, Lng : 149.1652299, Q1 : 0.998134791851, Q2 : 0.0, Q3 : 0.0, Q4 : -0.0610486641526}
2019-04-03 20:29:13.31: SIM {TimeUS : 73734661, Roll : 0.0, Pitch : 0.0, Yaw : 353.0, Alt : 584.099975586, Lat : -35.363261, Lng : 149.1652299, Q1 : 0.998134791851, Q2 : 0.0, Q3 : 0.0, Q4 : -0.0610486753285}
2019-04-03 20:29:13.41: SIM {TimeUS : 73834621, Roll : 0.0, Pitch : 0.0, Yaw : 353.0, Alt : 584.109985352, Lat : -35.363261, Lng : 149.1652299, Q1 : 0.998134791851, Q2 : 0.0, Q3 : 0.0, Q4 : -0.0610486753285}
2019-04-03 20:29:13.51: SIM {TimeUS : 73934581, Roll : 0.0, Pitch : 0.0, Yaw : 353.0, Alt : 584.130004883, Lat : -35.363261, Lng : 149.1652299, Q1 : 0.998134791851, Q2 : 0.0, Q3 : 0.0, Q4 : -0.0610486753285}
2019-04-03 20:29:13.61: SIM {TimeUS : 74034541, Roll : 0.0, Pitch : 0.0, Yaw : 353.0, Alt : 584.150024414, Lat : -35.363261, Lng : 149.1652299, Q1 : 0.998134791851, Q2 : 0.0, Q3 : 0.0, Q4 : -0.0610486194491}
2019-04-03 20:29:13.72: SIM {TimeUS : 74135334, Roll : 0.0, Pitch : 0.0, Yaw : 353.0, Alt : 584.179992676, Lat : -35.363261, Lng : 149.1652299, Q1 : 0.998134791851, Q2 : 0.0, Q3 : 0.0, Q4 : -0.0610486753285}
2019-04-03 20:29:13.81: SIM {TimeUS : 74235294, Roll : 0.0, Pitch : 0.0, Yaw : 352.99, Alt : 584.219970703, Lat : -35.363261, Lng : 149.1652299, Q1 : 0.998134791851, Q2 : -3.16210680467e-05, Q3 : -3.03569613607e-05, Q4 : -0.0610487684608}
2019-04-03 20:29:13.91: SIM {TimeUS : 74335254, Roll : -0.05, Pitch : -0.04, Yaw : 352.99, Alt : 584.289978027, Lat : -35.363261, Lng : 149.1652299, Q1 : 0.998134195805, Q2 : -0.000477030494949, Q3 : -0.000352121685864, Q4 : -0.0610551871359}
2019-04-03 20:29:14.01: SIM {TimeUS : 74435214, Roll : -0.13, Pitch : -0.08, Yaw : 352.99, Alt : 584.41998291, Lat : -35.363261, Lng : 149.1652299, Q1 : 0.998132228851, Q2 : -0.00117920932826, Q3 : -0.000653329538181, Q4 : -0.0610758513212}
2019-04-03 20:29:14.11: SIM {TimeUS : 74535174, Roll : -0.19, Pitch : -0.1, Yaw : 352.99, Alt : 584.570007324, Lat : -35.363261, Lng : 149.1652299, Q1 : 0.998129427433, Q2 : -0.0017655286938, Q3 : -0.000845321163069, Q4 : -0.0611054413021}
2019-04-03 20:29:14.21: SIM {TimeUS : 74635134, Roll : -0.2, Pitch : -0.13, Yaw : 352.98, Alt : 584.729980469, Lat : -35.363261, Lng : 149.1652299, Q1 : 0.998126685619, Q2 : -0.00187621254008, Q3 : -0.00109378935304, Q4 : -0.0611428208649}
2019-04-03 20:29:14.31: SIM {TimeUS : 74735094, Roll : -0.15, Pitch : -0.16, Yaw : 352.98, Alt : 584.880004883, Lat : -35.363261, Lng : 149.1652299, Q1 : 0.998125016689, Q2 : -0.00145017169416, Q3 : -0.00132366793696, Q4 : -0.0611775666475}
2019-04-03 20:29:14.41: SIM {TimeUS : 74835054, Roll : -0.08, Pitch : -0.15, Yaw : 352.98, Alt : 585.030029297, Lat : -35.363261, Lng : 149.1652299, Q1 : 0.998123705387, Q2 : -0.000859819469042, Q3 : -0.00132258760277, Q4 : -0.0612095482647}
2019-04-03 20:29:14.51: SIM {TimeUS : 74935014, Roll : -0.04, Pitch : -0.12, Yaw : 352.97, Alt : 585.179992676, Lat : -35.363261, Lng : 149.1652299, Q1 : 0.998122692108, Q2 : -0.000428947067121, Q3 : -0.00108052568976, Q4 : -0.0612356998026}
2019-04-03 20:29:14.61: SIM {TimeUS : 75034974, Roll : -0.03, Pitch : -0.08, Yaw : 352.97, Alt : 585.340026855, Lat : -35.363261, Lng : 149.1652299, Q1 : 0.998122096062, Q2 : -0.000324979919242, Q3 : -0.000684738100972, Q4 : -0.0612509027123}
2019-04-03 20:29:14.71: SIM {TimeUS : 75134934, Roll : -0.02, Pitch : -0.03, Yaw : 352.97, Alt : 585.510009766, Lat : -35.363261, Lng : 149.1652298, Q1 : 0.998121857643, Q2 : -0.000244335242314, Q3 : -0.000253772072028, Q4 : -0.0612588562071}
2019-04-03 20:29:14.81: SIM {TimeUS : 75234894, Roll : -0.01, Pitch : -0.01, Yaw : 352.97, Alt : 585.679992676, Lat : -35.363261, Lng : 149.1652298, Q1 : 0.998122036457, Q2 : -0.000106626619527, Q3 : -0.000153452347149, Q4 : -0.0612561330199}
2019-04-03 20:29:14.91: SIM {TimeUS : 75334854, Roll : 0.0, Pitch : -0.03, Yaw : 352.97, Alt : 585.859985352, Lat : -35.363261, Lng : 149.1652298, Q1 : 0.998122692108, Q2 : -5.52718593099e-05, Q3 : -0.000307539448841, Q4 : -0.0612450763583}
2019-04-03 20:29:15.01: SIM {TimeUS : 75434814, Roll : 0.0, Pitch : -0.04, Yaw : 352.97, Alt : 586.049987793, Lat : -35.363261, Lng : 149.1652298, Q1 : 0.998123586178, Q2 : 5.56279046577e-05, Q3 : -0.000404213176807, Q4 : -0.0612304955721}
2019-04-03 20:29:15.11: SIM {TimeUS : 75534774, Roll : 0.02, Pitch : -0.03, Yaw : 352.98, Alt : 586.229980469, Lat : -35.363261, Lng : 149.1652298, Q1 : 0.998125135899, Q2 : 0.000242515438003, Q3 : -0.000286841939669, Q4 : -0.0612057819963}
2019-04-03 20:29:15.21: SIM {TimeUS : 75634734, Roll : 0.04, Pitch : -0.02, Yaw : 352.98, Alt : 586.41998291, Lat : -35.363261, Lng : 149.1652298, Q1 : 0.99812656641, Q2 : 0.000376686773961, Q3 : -0.000268368254183, Q4 : -0.0611813813448}
2019-04-03 20:29:15.31: SIM {TimeUS : 75734694, Roll : 0.06, Pitch : -0.02, Yaw : 352.98, Alt : 586.609985352, Lat : -35.363261, Lng : 149.1652298, Q1 : 0.998127996922, Q2 : 0.000509581528604, Q3 : -0.000276407314232, Q4 : -0.0611573532224}
2019-04-03 20:29:15.41: SIM {TimeUS : 75834654, Roll : 0.05, Pitch : -0.03, Yaw : 352.98, Alt : 586.809997559, Lat : -35.363261, Lng : 149.1652298, Q1 : 0.998129069805, Q2 : 0.000461365649244, Q3 : -0.000311098905513, Q4 : -0.0611396953464}
2019-04-03 20:29:15.51: SIM {TimeUS : 75934614, Roll : 0.01, Pitch : -0.04, Yaw : 352.98, Alt : 587.010009766, Lat : -35.363261, Lng : 149.1652298, Q1 : 0.998128950596, Q2 : 0.000138754883665, Q3 : -0.000359778292477, Q4 : -0.0611439235508}
2019-04-03 20:29:15.61: SIM {TimeUS : 76034574, Roll : -0.03, Pitch : -0.03, Yaw : 352.98, Alt : 587.210021973, Lat : -35.363261, Lng : 149.1652298, Q1 : 0.998127162457, Q2 : -0.000356156757334, Q3 : -0.000313506694511, Q4 : -0.0611716359854}
2019-04-03 20:29:15.71: SIM {TimeUS : 76134534, Roll : -0.06, Pitch : -0.05, Yaw : 352.98, Alt : 587.409973145, Lat : -35.3632609, Lng : 149.1652298, Q1 : 0.998125016689, Q2 : -0.00058076082496, Q3 : -0.000429102568887, Q4 : -0.0612047053874}
2019-04-03 20:29:15.82: SIM {TimeUS : 76235327, Roll : -0.06, Pitch : -0.07, Yaw : 352.97, Alt : 587.619995117, Lat : -35.3632609, Lng : 149.1652298, Q1 : 0.998122692108, Q2 : -0.000633359828498, Q3 : -0.000595093995798, Q4 : -0.0612403340638}
2019-04-03 20:29:15.91: SIM {TimeUS : 76335287, Roll : -0.05, Pitch : -0.07, Yaw : 352.97, Alt : 587.83001709, Lat : -35.3632609, Lng : 149.1652298, Q1 : 0.998120844364, Q2 : -0.000535296974704, Q3 : -0.000657693657558, Q4 : -0.061270583421}
2019-04-03 20:29:16.01: SIM {TimeUS : 76435247, Roll : -0.03, Pitch : -0.06, Yaw : 352.97, Alt : 588.030029297, Lat : -35.3632609, Lng : 149.1652298, Q1 : 0.998120129108, Q2 : -0.000348035566276, Q3 : -0.000573942263145, Q4 : -0.0612835176289}
2019-04-03 20:29:16.11: SIM {TimeUS : 76535207, Roll : -0.02, Pitch : -0.06, Yaw : 352.97, Alt : 588.239990234, Lat : -35.3632609, Lng : 149.1652298, Q1 : 0.998119413853, Q2 : -0.000288992130663, Q3 : -0.00055794720538, Q4 : -0.0612963996828}
2019-04-03 20:29:16.21: SIM {TimeUS : 76635167, Roll : -0.04, Pitch : -0.06, Yaw : 352.97, Alt : 588.460021973, Lat : -35.3632609, Lng : 149.1652298, Q1 : 0.998118698597, Q2 : -0.000426031736424, Q3 : -0.000534359191079, Q4 : -0.0613070167601}
2019-04-03 20:29:16.31: SIM {TimeUS : 76735127, Roll : -0.07, Pitch : -0.05, Yaw : 352.96, Alt : 588.66998291, Lat : -35.3632609, Lng : 149.1652297, Q1 : 0.998117864132, Q2 : -0.000715933565516, Q3 : -0.000405041035265, Q4 : -0.0613189712167}
2019-04-03 20:29:16.41: SIM {TimeUS : 76835087, Roll : -0.09, Pitch : -0.04, Yaw : 352.96, Alt : 588.880004883, Lat : -35.3632609, Lng : 149.1652297, Q1 : 0.998116731644, Q2 : -0.000854521407746, Q3 : -0.000340812723152, Q4 : -0.0613368302584}
2019-04-03 20:29:16.51: SIM {TimeUS : 76935047, Roll : -0.08, Pitch : -0.07, Yaw : 352.96, Alt : 589.099975586, Lat : -35.3632609, Lng : 149.1652297, Q1 : 0.998115479946, Q2 : -0.000802035967354, Q3 : -0.000570528849494, Q4 : -0.0613561086357}
2019-04-03 20:29:16.61: SIM {TimeUS : 77035007, Roll : -0.04, Pitch : -0.1, Yaw : 352.96, Alt : 589.309997559, Lat : -35.3632609, Lng : 149.1652297, Q1 : 0.998114049435, Q2 : -0.000476633606013, Q3 : -0.000907036359422, Q4 : -0.0613780356944}
2019-04-03 20:29:16.71: SIM {TimeUS : 77134967, Roll : 0.0, Pitch : -0.11, Yaw : 352.95, Alt : 589.530029297, Lat : -35.3632609, Lng : 149.1652297, Q1 : 0.998112618923, Q2 : -3.62301288988e-05, Q3 : -0.00100009527523, Q4 : -0.0614020042121}
2019-04-03 20:29:16.81: SIM {TimeUS : 77234927, Roll : 0.03, Pitch : -0.08, Yaw : 352.95, Alt : 589.75, Lat : -35.3632608, Lng : 149.1652296, Q1 : 0.998111486435, Q2 : 0.000228977325605, Q3 : -0.000787580327597, Q4 : -0.0614234097302}
2019-04-03 20:29:16.91: SIM {TimeUS : 77334887, Roll : 0.01, Pitch : -0.06, Yaw : 352.95, Alt : 589.969970703, Lat : -35.3632608, Lng : 149.1652296, Q1 : 0.998110532761, Q2 : 0.000138662435347, Q3 : -0.00058605032973, Q4 : -0.0614412240684}
2019-04-03 20:29:17.01: SIM {TimeUS : 77434847, Roll : -0.02, Pitch : -0.07, Yaw : 352.95, Alt : 590.190002441, Lat : -35.3632608, Lng : 149.1652296, Q1 : 0.998109400272, Q2 : -0.000282849476207, Q3 : -0.000680370663758, Q4 : -0.0614591278136}
2019-04-03 20:29:17.11: SIM {TimeUS : 77534807, Roll : -0.06, Pitch : -0.12, Yaw : 352.95, Alt : 590.409973145, Lat : -35.3632608, Lng : 149.1652296, Q1 : 0.998108327389, Q2 : -0.000672499940265, Q3 : -0.00102284515742, Q4 : -0.0614676438272}
2019-04-03 20:29:17.21: SIM {TimeUS : 77634767, Roll : -0.09, Pitch : -0.15, Yaw : 352.95, Alt : 590.630004883, Lat : -35.3632608, Lng : 149.1652296, Q1 : 0.998106956482, Q2 : -0.000874250661582, Q3 : -0.00130840181373, Q4 : -0.0614818558097}
2019-04-03 20:29:17.31: SIM {TimeUS : 77734727, Roll : -0.08, Pitch : -0.17, Yaw : 352.94, Alt : 590.840026855, Lat : -35.3632608, Lng : 149.1652296, Q1 : 0.99810564518, Q2 : -0.000874605844729, Q3 : -0.00143854564521, Q4 : -0.0615005902946}
2019-04-03 20:29:17.41: SIM {TimeUS : 77834687, Roll : -0.08, Pitch : -0.15, Yaw : 352.94, Alt : 591.039978027, Lat : -35.3632608, Lng : 149.1652294, Q1 : 0.998104155064, Q2 : -0.000850247044582, Q3 : -0.00132277794182, Q4 : -0.0615273751318}
2019-04-03 20:29:17.51: SIM {TimeUS : 77934647, Roll : -0.09, Pitch : -0.11, Yaw : 352.94, Alt : 591.239990234, Lat : -35.3632608, Lng : 149.1652294, Q1 : 0.998102426529, Q2 : -0.000869684910867, Q3 : -0.000983492122032, Q4 : -0.0615620426834}
2019-04-03 20:29:17.61: SIM {TimeUS : 78034607, Roll : -0.09, Pitch : -0.07, Yaw : 352.93, Alt : 591.41998291, Lat : -35.3632607, Lng : 149.1652294, Q1 : 0.998100280762, Q2 : -0.000857090810314, Q3 : -0.000619468279183, Q4 : -0.061601318419}
2019-04-03 20:29:17.71: SIM {TimeUS : 78134567, Roll : -0.07, Pitch : -0.02, Yaw : 352.93, Alt : 591.590026855, Lat : -35.3632607, Lng : 149.1652294, Q1 : 0.99809807539, Q2 : -0.000677769130562, Q3 : -0.000202656927286, Q4 : -0.0616418942809}
2019-04-03 20:29:17.81: SIM {TimeUS : 78234527, Roll : -0.04, Pitch : 0.01, Yaw : 352.92, Alt : 591.760009766, Lat : -35.3632607, Lng : 149.1652294, Q1 : 0.998095989227, Q2 : -0.000357556797098, Q3 : 0.000116295290354, Q4 : -0.06167896837}
2019-04-03 20:29:17.91: SIM {TimeUS : 78335320, Roll : 0.12, Pitch : 0.03, Yaw : 352.92, Alt : 591.900024414, Lat : -35.3632607, Lng : 149.1652293, Q1 : 0.998093426228, Q2 : 0.00112226465717, Q3 : 0.000265608367044, Q4 : -0.0617110319436}
2019-04-03 20:29:18.01: SIM {TimeUS : 78435280, Roll : 0.56, Pitch : 0.06, Yaw : 352.92, Alt : 592.039978027, Lat : -35.3632607, Lng : 149.1652293, Q1 : 0.998079895973, Q2 : 0.00492278439924, Q3 : 0.000222745104111, Q4 : -0.0617434829473}
2019-04-03 20:29:18.11: SIM {TimeUS : 78535240, Roll : 1.27, Pitch : 0.09, Yaw : 352.91, Alt : 592.159973145, Lat : -35.3632607, Lng : 149.1652293, Q1 : 0.998027861118, Q2 : 0.0111609511077, Q3 : 0.000167063306435, Q4 : -0.0617720857263}
2019-04-03 20:29:18.21: SIM {TimeUS : 78635200, Roll : 2.2, Pitch : 0.15, Yaw : 352.91, Alt : 592.270019531, Lat : -35.3632607, Lng : 149.1652293, Q1 : 0.99790173769, Q2 : 0.0193246547133, Q3 : 0.00016766571207, Q4 : -0.0617961101234}
2019-04-03 20:29:18.31: SIM {TimeUS : 78735160, Roll : 3.25, Pitch : 0.22, Yaw : 352.91, Alt : 592.369995117, Lat : -35.3632605, Lng : 149.1652294, Q1 : 0.997680068016, Q2 : 0.0285041555762, Q3 : 0.000219305147766, Q4 : -0.0618220679462}
2019-04-03 20:29:18.41: SIM {TimeUS : 78835120, Roll : 4.32, Pitch : 0.28, Yaw : 352.91, Alt : 592.450012207, Lat : -35.3632605, Lng : 149.1652296, Q1 : 0.997369110584, Q2 : 0.0377941243351, Q3 : 0.000157029222464, Q4 : -0.0618583001196}
2019-04-03 20:29:18.51: SIM {TimeUS : 78935080, Roll : 5.25, Pitch : 0.32, Yaw : 352.9, Alt : 592.530029297, Lat : -35.3632605, Lng : 149.1652298, Q1 : 0.997025489807, Q2 : 0.0459164232016, Q3 : 2.62318935711e-05, Q4 : -0.0619021728635}
2019-04-03 20:29:18.61: SIM {TimeUS : 79035040, Roll : 5.97, Pitch : 0.36, Yaw : 352.9, Alt : 592.590026855, Lat : -35.3632605, Lng : 149.1652299, Q1 : 0.996710896492, Q2 : 0.0522465445101, Q3 : -3.84722334275e-05, Q4 : -0.0619488395751}
2019-04-03 20:29:18.71: SIM {TimeUS : 79135000, Roll : 6.53, Pitch : 0.4, Yaw : 352.9, Alt : 592.650024414, Lat : -35.3632605, Lng : 149.1652303, Q1 : 0.996442139149, Q2 : 0.0570919662714, Q3 : -4.15133217757e-05, Q4 : -0.0619973503053}
2019-04-03 20:29:18.81: SIM {TimeUS : 79234960, Roll : 6.99, Pitch : 0.41, Yaw : 352.89, Alt : 592.700012207, Lat : -35.3632604, Lng : 149.1652308, Q1 : 0.996202945709, Q2 : 0.0610704086721, Q3 : -0.000141165379318, Q4 : -0.0620493628085}
2019-04-03 20:29:18.91: SIM {TimeUS : 79334920, Roll : 7.4, Pitch : 0.44, Yaw : 352.89, Alt : 592.739990234, Lat : -35.3632604, Lng : 149.1652312, Q1 : 0.995970010757, Q2 : 0.0647134110332, Q3 : -0.000175484543433, Q4 : -0.0620964057744}
2019-04-03 20:29:19.01: SIM {TimeUS : 79434880, Roll : 7.77, Pitch : 0.46, Yaw : 352.89, Alt : 592.780029297, Lat : -35.3632604, Lng : 149.1652318, Q1 : 0.995751738548, Q2 : 0.0679515972733, Q3 : -0.000129147534608, Q4 : -0.0621374510229}
2019-04-03 20:29:19.11: SIM {TimeUS : 79534840, Roll : 8.06, Pitch : 0.5, Yaw : 352.88, Alt : 592.809997559, Lat : -35.3632604, Lng : 149.1652327, Q1 : 0.995572507381, Q2 : 0.0704968348145, Q3 : 2.28325789067e-05, Q4 : -0.0621734596789}
2019-04-03 20:29:19.21: SIM {TimeUS : 79634800, Roll : 8.28, Pitch : 0.51, Yaw : 352.88, Alt : 592.840026855, Lat : -35.3632604, Lng : 149.1652335, Q1 : 0.995434582233, Q2 : 0.0723751708865, Q3 : -1.10760292955e-05, Q4 : -0.0622246526182}
2019-04-03 20:29:19.31: SIM {TimeUS : 79734760, Roll : 8.44, Pitch : 0.49, Yaw : 352.87, Alt : 592.859985352, Lat : -35.3632603, Lng : 149.1652344, Q1 : 0.995327115059, Q2 : 0.0737921223044, Q3 : -0.000243377304287, Q4 : -0.0622787922621}
2019-04-03 20:29:19.41: SIM {TimeUS : 79834720, Roll : 8.57, Pitch : 0.49, Yaw : 352.87, Alt : 592.880004883, Lat : -35.3632602, Lng : 149.1652354, Q1 : 0.995242893696, Q2 : 0.0748939588666, Q3 : -0.000360930192983, Q4 : -0.062308948487}
2019-04-03 20:29:19.51: SIM {TimeUS : 79934680, Roll : 8.68, Pitch : 0.49, Yaw : 352.86, Alt : 592.900024414, Lat : -35.3632602, Lng : 149.1652365, Q1 : 0.995171129704, Q2 : 0.075822904706, Q3 : -0.000401234137826, Q4 : -0.0623303800821}
2019-04-03 20:29:19.61: SIM {TimeUS : 80034640, Roll : 8.83, Pitch : 0.64, Yaw : 352.94, Alt : 592.91998291, Lat : -35.3632601, Lng : 149.1652378, Q1 : 0.995100021362, Q2 : 0.0772300586104, Q3 : 0.000829927157611, Q4 : -0.0617314837873}
2019-04-03 20:29:19.71: SIM {TimeUS : 80134600, Roll : 9.09, Pitch : 1.07, Yaw : 353.57, Alt : 592.940002441, Lat : -35.3632599, Lng : 149.165239, Q1 : 0.995198071003, Q2 : 0.0796914845705, Q3 : 0.00488895690069, Q4 : -0.0566235296428}
2019-04-03 20:29:19.81: SIM {TimeUS : 80234560, Roll : 9.49, Pitch : 1.58, Yaw : 355.44, Alt : 592.960021973, Lat : -35.3632599, Lng : 149.1652403, Q1 : 0.995642542839, Q2 : 0.0832126513124, Q3 : 0.0104726422578, Q4 : -0.0407666154206}
2019-04-03 20:29:19.92: SIM {TimeUS : 80335353, Roll : 10.0, Pitch : 1.65, Yaw : 358.97, Alt : 592.969970703, Lat : -35.3632598, Lng : 149.1652418, Q1 : 0.996034860611, Q2 : 0.0873172879219, Q3 : 0.0136396633461, Q4 : -0.0102067692205}
2019-04-03 20:29:20.01: SIM {TimeUS : 80435313, Roll : 10.5, Pitch : 1.03, Yaw : 4.02, Alt : 592.989990234, Lat : -35.3632598, Lng : 149.1652435, Q1 : 0.995178222656, Q2 : 0.0911393612623, Q3 : 0.012243530713, Q4 : 0.0341172479093}
2019-04-03 20:29:20.11: SIM {TimeUS : 80535273, Roll : 10.86, Pitch : -0.3, Yaw : 10.35, Alt : 593.0, Lat : -35.3632598, Lng : 149.1652451, Q1 : 0.991422533989, Q2 : 0.0944949761033, Q3 : 0.00593448989093, Q4 : 0.0900934934616}
2019-04-03 20:29:20.21: SIM {TimeUS : 80635233, Roll : 10.95, Pitch : -2.2, Yaw : 17.68, Alt : 593.010009766, Lat : -35.3632598, Lng : 149.1652469, Q1 : 0.983144342899, Q2 : 0.0972202122211, Q3 : -0.00425627687946, Q4 : 0.154781579971}
2019-04-03 20:29:20.31: SIM {TimeUS : 80735193, Roll : 10.64, Pitch : -4.47, Yaw : 25.72, Alt : 593.030029297, Lat : -35.3632599, Lng : 149.1652487, Q1 : 0.969155848026, Q2 : 0.0989914536476, Q3 : -0.0172313936055, Q4 : 0.225034862757}
2019-04-03 20:29:20.41: SIM {TimeUS : 80835153, Roll : 9.85, Pitch : -6.86, Yaw : 34.24, Alt : 593.039978027, Lat : -35.3632599, Lng : 149.1652507, Q1 : 0.948924601078, Q2 : 0.0995247215033, Q3 : -0.0317406579852, Q4 : 0.297707021236}
2019-04-03 20:29:20.51: SIM {TimeUS : 80935113, Roll : 8.59, Pitch : -9.1, Yaw : 42.99, Alt : 593.059997559, Lat : -35.3632601, Lng : 149.1652527, Q1 : 0.922718703747, Q2 : 0.0984952673316, Q3 : -0.0463167689741, Q4 : 0.3697886765}
2019-04-03 20:29:20.61: SIM {TimeUS : 81035073, Roll : 6.93, Pitch : -11.01, Yaw : 51.69, Alt : 593.070007324, Lat : -35.3632601, Lng : 149.1652548, Q1 : 0.891617834568, Q2 : 0.0959736704826, Q3 : -0.0599877871573, Q4 : 0.438415586948}
2019-04-03 20:29:20.71: SIM {TimeUS : 81135033, Roll : 5.04, Pitch : -12.48, Yaw : 60.08, Alt : 593.08001709, Lat : -35.3632601, Lng : 149.1652571, Q1 : 0.857313096523, Q2 : 0.0922634601593, Q3 : -0.072124786675, Q4 : 0.501298129559}
2019-04-03 20:29:20.81: SIM {TimeUS : 81234993, Roll : 3.09, Pitch : -13.48, Yaw : 67.91, Alt : 593.099975586, Lat : -35.3632601, Lng : 149.1652595, Q1 : 0.821655631065, Q2 : 0.0877591967583, Q3 : -0.0823642387986, Q4 : 0.557132422924}
2019-04-03 20:29:20.91: SIM {TimeUS : 81334953, Roll : 1.26, Pitch : -14.09, Yaw : 75.06, Alt : 593.109985352, Lat : -35.3632599, Lng : 149.1652619, Q1 : 0.786154508591, Q2 : 0.0834266841412, Q3 : -0.0905843824148, Q4 : 0.60563647747}
2019-04-03 20:29:21.01: SIM {TimeUS : 81434913, Roll : -0.31, Pitch : -14.44, Yaw : 81.5, Alt : 593.130004883, Lat : -35.3632598, Lng : 149.1652646, Q1 : 0.751775443554, Q2 : 0.0800043940544, Q3 : -0.0969770625234, Q4 : 0.647324085236}
2019-04-03 20:29:21.11: SIM {TimeUS : 81534873, Roll : -1.91, Pitch : -14.6, Yaw : 87.19, Alt : 593.140014648, Lat : -35.3632598, Lng : 149.1652672, Q1 : 0.719692289829, Q2 : 0.0756469890475, Q3 : -0.103482499719, Q4 : 0.682357609272}
2019-04-03 20:29:21.21: SIM {TimeUS : 81634833, Roll : -3.61, Pitch : -14.58, Yaw : 91.81, Alt : 593.159973145, Lat : -35.3632597, Lng : 149.16527, Q1 : 0.692739188671, Q2 : 0.0693229809403, Q3 : -0.110750168562, Q4 : 0.709253966808}
2019-04-03 20:29:21.31: SIM {TimeUS : 81734793, Roll : -5.11, Pitch : -14.42, Yaw : 94.99, Alt : 593.16998291, Lat : -35.3632595, Lng : 149.1652729, Q1 : 0.673722267151, Q2 : 0.0626200735569, Q3 : -0.117372721434, Q4 : 0.726911723614}
2019-04-03 20:29:21.41: SIM {TimeUS : 81834753, Roll : -6.04, Pitch : -14.26, Yaw : 96.64, Alt : 593.190002441, Lat : -35.3632592, Lng : 149.1652758, Q1 : 0.663735747337, Q2 : 0.0578497387469, Q3 : -0.121548354626, Q4 : 0.73575425148}
2019-04-03 20:29:21.51: SIM {TimeUS : 81934713, Roll : -6.22, Pitch : -14.2, Yaw : 96.9, Alt : 593.200012207, Lat : -35.3632589, Lng : 149.165279, Q1 : 0.662230610847, Q2 : 0.0567032881081, Q3 : -0.12222622335, Q4 : 0.737086296082}
2019-04-03 20:29:21.61: SIM {TimeUS : 82034673, Roll : -5.67, Pitch : -14.32, Yaw : 96.0, Alt : 593.219970703, Lat : -35.3632586, Lng : 149.1652822, Q1 : 0.667629897594, Q2 : 0.0596826709807, Q3 : -0.119802795351, Q4 : 0.732363045216}
2019-04-03 20:29:21.71: SIM {TimeUS : 82134633, Roll : -4.54, Pitch : -14.59, Yaw : 94.26, Alt : 593.229980469, Lat : -35.3632582, Lng : 149.1652853, Q1 : 0.677929759026, Q2 : 0.0662877708673, Q3 : -0.115152366459, Q4 : 0.723019480705}
2019-04-03 20:29:21.81: SIM {TimeUS : 82234593, Roll : -3.03, Pitch : -14.95, Yaw : 91.98, Alt : 593.25, Lat : -35.3632578, Lng : 149.1652887, Q1 : 0.691080868244, Q2 : 0.0753327310085, Q3 : -0.109296910465, Q4 : 0.710483253002}
2019-04-03 20:29:21.91: SIM {TimeUS : 82334553, Roll : -1.38, Pitch : -15.33, Yaw : 89.46, Alt : 593.270019531, Lat : -35.3632574, Lng : 149.165292, Q1 : 0.70515024662, Q2 : 0.0853719487786, Q3 : -0.103208750486, Q4 : 0.696292161942}
2019-04-03 20:29:22.02: SIM {TimeUS : 82435346, Roll : 0.18, Pitch : -15.63, Yaw : 86.99, Alt : 593.280029297, Lat : -35.3632568, Lng : 149.1652957, Q1 : 0.718520104885, Q2 : 0.0948179587722, Q3 : -0.0975841358304, Q4 : 0.682067275047}
2019-04-03 20:29:22.11: SIM {TimeUS : 82535306, Roll : 1.47, Pitch : -15.83, Yaw : 84.89, Alt : 593.299987793, Lat : -35.3632565, Lng : 149.1652992, Q1 : 0.729616641998, Q2 : 0.102371022105, Q3 : -0.0930722430348, Q4 : 0.669714331627}
2019-04-03 20:29:22.21: SIM {TimeUS : 82635266, Roll : 2.35, Pitch : -15.94, Yaw : 83.33, Alt : 593.320007324, Lat : -35.3632561, Lng : 149.1653028, Q1 : 0.737749934196, Q2 : 0.107385016978, Q3 : -0.0900132954121, Q4 : 0.660371959209}
2019-04-03 20:29:22.31: SIM {TimeUS : 82735226, Roll : 2.79, Pitch : -15.98, Yaw : 82.41, Alt : 593.33001709, Lat : -35.3632558, Lng : 149.1653064, Q1 : 0.742591738701, Q2 : 0.109736576676, Q3 : -0.0886206626892, Q4 : 0.654722690582}
2019-04-03 20:29:22.41: SIM {TimeUS : 82835186, Roll : 2.8, Pitch : -15.99, Yaw : 82.11, Alt : 593.349975586, Lat : -35.3632555, Lng : 149.1653102, Q1 : 0.744228720665, Q2 : 0.109641507268, Q3 : -0.0889784917235, Q4 : 0.652828574181}
2019-04-03 20:29:22.51: SIM {TimeUS : 82935146, Roll : 2.48, Pitch : -16.01, Yaw : 82.38, Alt : 593.369995117, Lat : -35.3632552, Lng : 149.1653141, Q1 : 0.743023514748, Q2 : 0.107822008431, Q3 : -0.0906546041369, Q4 : 0.654272317886}
2019-04-03 20:29:22.61: SIM {TimeUS : 83035106, Roll : 1.94, Pitch : -16.04, Yaw : 83.06, Alt : 593.380004883, Lat : -35.3632549, Lng : 149.165318, Q1 : 0.73955899477, Q2 : 0.105055071414, Q3 : -0.0933032557368, Q4 : 0.658263206482}
2019-04-03 20:29:22.71: SIM {TimeUS : 83135066, Roll : 1.27, Pitch : -16.11, Yaw : 84.02, Alt : 593.400024414, Lat : -35.3632547, Lng : 149.1653221, Q1 : 0.734570920467, Q2 : 0.101984217763, Q3 : -0.0967609956861, Q4 : 0.663808763027}
2019-04-03 20:29:22.81: SIM {TimeUS : 83235026, Roll : 0.56, Pitch : -16.23, Yaw : 85.09, Alt : 593.41998291, Lat : -35.3632543, Lng : 149.165326, Q1 : 0.728861033916, Q2 : 0.0990485474467, Q3 : -0.100722953677, Q4 : 0.669929742813}
2019-04-03 20:29:22.91: SIM {TimeUS : 83334986, Roll : -0.09, Pitch : -16.35, Yaw : 86.13, Alt : 593.429992676, Lat : -35.3632542, Lng : 149.1653301, Q1 : 0.723204433918, Q2 : 0.0965098291636, Q3 : -0.104454129934, Q4 : 0.67583322525}
2019-04-03 20:29:23.01: SIM {TimeUS : 83434946, Roll : -0.6, Pitch : -16.45, Yaw : 87.03, Alt : 593.450012207, Lat : -35.363254, Lng : 149.1653342, Q1 : 0.718229413033, Q2 : 0.0947126299143, Q3 : -0.107351668179, Q4 : 0.680919766426}
2019-04-03 20:29:23.11: SIM {TimeUS : 83534906, Roll : -0.94, Pitch : -16.51, Yaw : 87.7, Alt : 593.469970703, Lat : -35.3632537, Lng : 149.1653385, Q1 : 0.714420199394, Q2 : 0.0936333984137, Q3 : -0.10918841511, Q4 : 0.684773266315}
2019-04-03 20:29:23.21: SIM {TimeUS : 83634866, Roll : -1.1, Pitch : -16.54, Yaw : 88.12, Alt : 593.479980469, Lat : -35.3632534, Lng : 149.1653427, Q1 : 0.712030172348, Q2 : 0.0932201221585, Q3 : -0.110007673502, Q4 : 0.687183618546}
2019-04-03 20:29:23.31: SIM {TimeUS : 83734826, Roll : -1.11, Pitch : -16.57, Yaw : 88.28, Alt : 593.5, Lat : -35.3632531, Lng : 149.165347, Q1 : 0.711073994637, Q2 : 0.0934596508741, Q3 : -0.110114231706, Q4 : 0.688123464584}
2019-04-03 20:29:23.41: SIM {TimeUS : 83834786, Roll : -1.01, Pitch : -16.6, Yaw : 88.21, Alt : 593.520019531, Lat : -35.3632529, Lng : 149.1653513, Q1 : 0.711396038532, Q2 : 0.0942158475518, Q3 : -0.109756603837, Q4 : 0.687744557858}
2019-04-03 20:29:23.51: SIM {TimeUS : 83934746, Roll : -0.81, Pitch : -16.63, Yaw : 87.96, Alt : 593.530029297, Lat : -35.3632525, Lng : 149.1653556, Q1 : 0.712704837322, Q2 : 0.0954034030437, Q3 : -0.108995474875, Q4 : 0.686345458031}
2019-04-03 20:29:23.61: SIM {TimeUS : 84034706, Roll : -0.56, Pitch : -16.66, Yaw : 87.59, Alt : 593.549987793, Lat : -35.3632523, Lng : 149.16536, Q1 : 0.714666724205, Q2 : 0.0967899486423, Q3 : -0.107991576195, Q4 : 0.684266805649}
2019-04-03 20:29:23.71: SIM {TimeUS : 84134666, Roll : -0.3, Pitch : -16.7, Yaw : 87.17, Alt : 593.570007324, Lat : -35.3632519, Lng : 149.1653644, Q1 : 0.716932415962, Q2 : 0.0982043147087, Q3 : -0.107036918402, Q4 : 0.681840837002}
