2019-04-03 22:22:10.90: SIM {TimeUS : 40916127, Roll : 0.0, Pitch : 0.0, Yaw : 353.0, Alt : 584.090026855, Lat : -35.363261, Lng : 149.1652299, Q1 : 0.998134791851, Q2 : 0.0, Q3 : 0.0, Q4 : -0.0610485821962}
2019-04-03 22:22:11.01: SIM {TimeUS : 41035246, Roll : 0.0, Pitch : 0.0, Yaw : 353.0, Alt : 584.090026855, Lat : -35.363261, Lng : 149.1652299, Q1 : 0.998134791851, Q2 : 0.0, Q3 : 0.0, Q4 : -0.0610485821962}
2019-04-03 22:22:11.11: SIM {TimeUS : 41135206, Roll : 0.0, Pitch : 0.0, Yaw : 353.0, Alt : 584.090026855, Lat : -35.363261, Lng : 149.1652299, Q1 : 0.998134791851, Q2 : 0.0, Q3 : 0.0, Q4 : -0.0610485821962}
2019-04-03 22:22:11.21: SIM {TimeUS : 41235166, Roll : 0.0, Pitch : 0.0, Yaw : 353.0, Alt : 584.090026855, Lat : -35.363261, Lng : 149.1652299, Q1 : 0.998134791851, Q2 : 0.0, Q3 : 0.0, Q4 : -0.0610485821962}
2019-04-03 22:22:11.31: SIM {TimeUS : 41335126, Roll : 0.0, Pitch : 0.0, Yaw : 353.0, Alt : 584.090026855, Lat : -35.363261, Lng : 149.1652299, Q1 : 0.998134791851, Q2 : 0.0, Q3 : 0.0, Q4 : -0.0610485821962}
2019-04-03 22:22:11.41: SIM {TimeUS : 41435086, Roll : 0.0, Pitch : 0.0, Yaw : 353.0, Alt : 584.090026855, Lat : -35.363261, Lng : 149.1652299, Q1 : 0.998134791851, Q2 : 0.0, Q3 : 0.0, Q4 : -0.0610485821962}
2019-04-03 22:22:11.51: SIM {TimeUS : 41535046, Roll : 0.0, Pitch : 0.0, Yaw : 353.0, Alt : 584.090026855, Lat : -35.363261, Lng : 149.1652299, Q1 : 0.998134791851, Q2 : 0.0, Q3 : 0.0, Q4 : -0.0610485821962}
2019-04-03 22:22:11.61: SIM {TimeUS : 41635006, Roll : 0.0, Pitch : 0.0, Yaw : 353.0, Alt : 584.090026855, Lat : -35.363261, Lng : 149.1652299, Q1 : 0.998134791851, Q2 : 0.0, Q3 : 0.0, Q4 : -0.0610485821962}
2019-04-03 22:22:11.71: SIM {TimeUS : 41734966, Roll : 0.0, Pitch : 0.0, Yaw : 353.0, Alt : 584.090026855, Lat : -35.363261, Lng : 149.1652299, Q1 : 0.998134791851, Q2 : 0.0, Q3 : 0.0, Q4 : -0.0610485821962}
2019-04-03 22:22:11.81: SIM {TimeUS : 41834926, Roll : 0.0, Pitch : 0.0, Yaw : 353.0, Alt : 584.090026855, Lat : -35.363261, Lng : 149.1652299, Q1 : 0.998134791851, Q2 : 0.0, Q3 : 0.0, Q4 : -0.0610485821962}
2019-04-03 22:22:11.91: SIM {TimeUS : 41934886, Roll : 0.0, Pitch : 0.0, Yaw : 353.0, Alt : 584.090026855, Lat : -35.363261, Lng : 149.1652299, Q1 : 0.998134791851, Q2 : 0.0, Q3 : 0.0, Q4 : -0.0610485821962}
2019-04-03 22:22:12.01: SIM {TimeUS : 42034846, Roll : 0.0, Pitch : 0.0, Yaw : 353.0, Alt : 584.090026855, Lat : -35.363261, Lng : 149.1652299, Q1 : 0.998134791851, Q2 : 0.0, Q3 : 0.0, Q4 : -0.0610485821962}
2019-04-03 22:22:12.11: SIM {TimeUS : 42134806, Roll : 0.0, Pitch : 0.0, Yaw : 353.0, Alt : 584.090026855, Lat : -35.363261, Lng : 149.1652299, Q1 : 0.998134791851, Q2 : 0.0, Q3 : 0.0, Q4 : -0.0610485821962}
2019-04-03 22:22:12.21: SIM {TimeUS : 42234766, Roll : 0.0, Pitch : 0.0, Yaw : 353.0, Alt : 584.090026855, Lat : -35.363261, Lng : 149.1652299, Q1 : 0.998134791851, Q2 : 0.0, Q3 : 0.0, Q4 : -0.0610485821962}
2019-04-03 22:22:12.31: SIM {TimeUS : 42334726, Roll : 0.0, Pitch : 0.0, Yaw : 353.0, Alt : 584.090026855, Lat : -35.363261, Lng : 149.1652299, Q1 : 0.998134791851, Q2 : 0.0, Q3 : 0.0, Q4 : -0.0610485821962}
2019-04-03 22:22:12.41: SIM {TimeUS : 42434686, Roll : 0.0, Pitch : 0.0, Yaw : 353.0, Alt : 584.090026855, Lat : -35.363261, Lng : 149.1652299, Q1 : 0.998134791851, Q2 : 0.0, Q3 : 0.0, Q4 : -0.0610485821962}
2019-04-03 22:22:12.51: SIM {TimeUS : 42534646, Roll : 0.0, Pitch : 0.0, Yaw : 353.0, Alt : 584.090026855, Lat : -35.363261, Lng : 149.1652299, Q1 : 0.998134791851, Q2 : 0.0, Q3 : 0.0, Q4 : -0.0610485821962}
2019-04-03 22:22:12.61: SIM {TimeUS : 42634606, Roll : 0.0, Pitch : 0.0, Yaw : 353.0, Alt : 584.090026855, Lat : -35.363261, Lng : 149.1652299, Q1 : 0.998134791851, Q2 : 0.0, Q3 : 0.0, Q4 : -0.0610485821962}
2019-04-03 22:22:12.71: SIM {TimeUS : 42734566, Roll : 0.0, Pitch : 0.0, Yaw : 353.0, Alt : 584.090026855, Lat : -35.363261, Lng : 149.1652299, Q1 : 0.998134791851, Q2 : 0.0, Q3 : 0.0, Q4 : -0.0610485821962}
2019-04-03 22:22:12.81: SIM {TimeUS : 42834526, Roll : 0.0, Pitch : 0.0, Yaw : 353.0, Alt : 584.090026855, Lat : -35.363261, Lng : 149.1652299, Q1 : 0.998134791851, Q2 : 0.0, Q3 : 0.0, Q4 : -0.0610485821962}
2019-04-03 22:22:12.91: SIM {TimeUS : 42934486, Roll : 0.0, Pitch : 0.0, Yaw : 353.0, Alt : 584.090026855, Lat : -35.363261, Lng : 149.1652299, Q1 : 0.998134791851, Q2 : 0.0, Q3 : 0.0, Q4 : -0.0610485821962}
2019-04-03 22:22:13.02: SIM {TimeUS : 43035279, Roll : 0.0, Pitch : 0.0, Yaw : 353.0, Alt : 584.090026855, Lat : -35.363261, Lng : 149.1652299, Q1 : 0.998134791851, Q2 : 0.0, Q3 : 0.0, Q4 : -0.0610485821962}
2019-04-03 22:22:13.11: SIM {TimeUS : 43135239, Roll : 0.0, Pitch : 0.0, Yaw : 353.0, Alt : 584.090026855, Lat : -35.363261, Lng : 149.1652299, Q1 : 0.998134791851, Q2 : 0.0, Q3 : 0.0, Q4 : -0.0610485821962}
2019-04-03 22:22:13.21: SIM {TimeUS : 43235199, Roll : 0.0, Pitch : 0.0, Yaw : 353.0, Alt : 584.090026855, Lat : -35.363261, Lng : 149.1652299, Q1 : 0.998134791851, Q2 : 0.0, Q3 : 0.0, Q4 : -0.0610485821962}
2019-04-03 22:22:13.31: SIM {TimeUS : 43335159, Roll : 0.0, Pitch : 0.0, Yaw : 353.0, Alt : 584.090026855, Lat : -35.363261, Lng : 149.1652299, Q1 : 0.998134791851, Q2 : 0.0, Q3 : 0.0, Q4 : -0.0610485821962}
2019-04-03 22:22:13.41: SIM {TimeUS : 43435119, Roll : 0.0, Pitch : 0.0, Yaw : 353.0, Alt : 584.090026855, Lat : -35.363261, Lng : 149.1652299, Q1 : 0.998134791851, Q2 : 0.0, Q3 : 0.0, Q4 : -0.0610485821962}
2019-04-03 22:22:13.51: SIM {TimeUS : 43535079, Roll : 0.0, Pitch : 0.0, Yaw : 353.0, Alt : 584.090026855, Lat : -35.363261, Lng : 149.1652299, Q1 : 0.998134791851, Q2 : 0.0, Q3 : 0.0, Q4 : -0.0610485821962}
2019-04-03 22:22:13.61: SIM {TimeUS : 43635039, Roll : 0.0, Pitch : 0.0, Yaw : 353.0, Alt : 584.090026855, Lat : -35.363261, Lng : 149.1652299, Q1 : 0.998134791851, Q2 : 0.0, Q3 : 0.0, Q4 : -0.0610485821962}
2019-04-03 22:22:13.71: SIM {TimeUS : 43734999, Roll : 0.0, Pitch : 0.0, Yaw : 353.0, Alt : 584.090026855, Lat : -35.363261, Lng : 149.1652299, Q1 : 0.998134791851, Q2 : 0.0, Q3 : 0.0, Q4 : -0.0610485821962}
2019-04-03 22:22:13.81: SIM {TimeUS : 43834959, Roll : 0.0, Pitch : 0.0, Yaw : 353.0, Alt : 584.090026855, Lat : -35.363261, Lng : 149.1652299, Q1 : 0.998134791851, Q2 : 0.0, Q3 : 0.0, Q4 : -0.0610485821962}
2019-04-03 22:22:13.91: SIM {TimeUS : 43934919, Roll : 0.0, Pitch : 0.0, Yaw : 353.0, Alt : 584.090026855, Lat : -35.363261, Lng : 149.1652299, Q1 : 0.998134791851, Q2 : 0.0, Q3 : 0.0, Q4 : -0.0610485821962}
2019-04-03 22:22:14.01: SIM {TimeUS : 44034879, Roll : 0.0, Pitch : 0.0, Yaw : 353.0, Alt : 584.090026855, Lat : -35.363261, Lng : 149.1652299, Q1 : 0.998134791851, Q2 : 0.0, Q3 : 0.0, Q4 : -0.0610485821962}
2019-04-03 22:22:14.11: SIM {TimeUS : 44134839, Roll : 0.0, Pitch : 0.0, Yaw : 353.0, Alt : 584.090026855, Lat : -35.363261, Lng : 149.1652299, Q1 : 0.998134791851, Q2 : 0.0, Q3 : 0.0, Q4 : -0.0610485821962}
2019-04-03 22:22:14.21: SIM {TimeUS : 44234799, Roll : 0.0, Pitch : 0.0, Yaw : 353.0, Alt : 584.090026855, Lat : -35.363261, Lng : 149.1652299, Q1 : 0.998134791851, Q2 : 0.0, Q3 : 0.0, Q4 : -0.0610485821962}
2019-04-03 22:22:14.31: SIM {TimeUS : 44334759, Roll : 0.0, Pitch : 0.0, Yaw : 353.0, Alt : 584.090026855, Lat : -35.363261, Lng : 149.1652299, Q1 : 0.998134791851, Q2 : 0.0, Q3 : 0.0, Q4 : -0.0610485821962}
2019-04-03 22:22:14.41: SIM {TimeUS : 44434719, Roll : 0.0, Pitch : 0.0, Yaw : 353.0, Alt : 584.090026855, Lat : -35.363261, Lng : 149.1652299, Q1 : 0.998134791851, Q2 : 0.0, Q3 : 0.0, Q4 : -0.0610485821962}
2019-04-03 22:22:14.51: SIM {TimeUS : 44534679, Roll : 0.0, Pitch : 0.0, Yaw : 353.0, Alt : 584.090026855, Lat : -35.363261, Lng : 149.1652299, Q1 : 0.998134791851, Q2 : 0.0, Q3 : 0.0, Q4 : -0.0610485821962}
2019-04-03 22:22:14.61: SIM {TimeUS : 44634639, Roll : 0.0, Pitch : 0.0, Yaw : 353.0, Alt : 584.090026855, Lat : -35.363261, Lng : 149.1652299, Q1 : 0.998134791851, Q2 : 0.0, Q3 : 0.0, Q4 : -0.0610485821962}
2019-04-03 22:22:14.71: SIM {TimeUS : 44734599, Roll : 0.0, Pitch : 0.0, Yaw : 353.0, Alt : 584.090026855, Lat : -35.363261, Lng : 149.1652299, Q1 : 0.998134791851, Q2 : 0.0, Q3 : 0.0, Q4 : -0.0610485821962}
2019-04-03 22:22:14.81: SIM {TimeUS : 44834559, Roll : 0.0, Pitch : 0.0, Yaw : 353.0, Alt : 584.090026855, Lat : -35.363261, Lng : 149.1652299, Q1 : 0.998134791851, Q2 : 0.0, Q3 : 0.0, Q4 : -0.0610485821962}
2019-04-03 22:22:14.91: SIM {TimeUS : 44934519, Roll : 0.0, Pitch : 0.0, Yaw : 353.0, Alt : 584.090026855, Lat : -35.363261, Lng : 149.1652299, Q1 : 0.998134791851, Q2 : 0.0, Q3 : 0.0, Q4 : -0.0610485821962}
2019-04-03 22:22:15.01: SIM {TimeUS : 45034479, Roll : 0.0, Pitch : 0.0, Yaw : 353.0, Alt : 584.090026855, Lat : -35.363261, Lng : 149.1652299, Q1 : 0.998134791851, Q2 : 0.0, Q3 : 0.0, Q4 : -0.0610485821962}
2019-04-03 22:22:15.12: SIM {TimeUS : 45135272, Roll : 0.0, Pitch : 0.0, Yaw : 353.0, Alt : 584.090026855, Lat : -35.363261, Lng : 149.1652299, Q1 : 0.998134791851, Q2 : 0.0, Q3 : 0.0, Q4 : -0.0610485821962}
2019-04-03 22:22:15.21: SIM {TimeUS : 45235232, Roll : 0.0, Pitch : 0.0, Yaw : 353.0, Alt : 584.090026855, Lat : -35.363261, Lng : 149.1652299, Q1 : 0.998134791851, Q2 : 0.0, Q3 : 0.0, Q4 : -0.0610485821962}
2019-04-03 22:22:15.31: SIM {TimeUS : 45335192, Roll : 0.0, Pitch : 0.0, Yaw : 353.0, Alt : 584.090026855, Lat : -35.363261, Lng : 149.1652299, Q1 : 0.998134791851, Q2 : 0.0, Q3 : 0.0, Q4 : -0.0610485821962}
2019-04-03 22:22:15.41: SIM {TimeUS : 45435152, Roll : 0.0, Pitch : 0.0, Yaw : 353.0, Alt : 584.090026855, Lat : -35.363261, Lng : 149.1652299, Q1 : 0.998134791851, Q2 : 0.0, Q3 : 0.0, Q4 : -0.0610485821962}
2019-04-03 22:22:15.51: SIM {TimeUS : 45535112, Roll : 0.0, Pitch : 0.0, Yaw : 353.0, Alt : 584.090026855, Lat : -35.363261, Lng : 149.1652299, Q1 : 0.998134791851, Q2 : 0.0, Q3 : 0.0, Q4 : -0.0610485821962}
2019-04-03 22:22:15.61: SIM {TimeUS : 45635072, Roll : 0.0, Pitch : 0.0, Yaw : 353.0, Alt : 584.090026855, Lat : -35.363261, Lng : 149.1652299, Q1 : 0.998134791851, Q2 : 0.0, Q3 : 0.0, Q4 : -0.0610485821962}
2019-04-03 22:22:15.71: SIM {TimeUS : 45735032, Roll : 0.0, Pitch : 0.0, Yaw : 353.0, Alt : 584.090026855, Lat : -35.363261, Lng : 149.1652299, Q1 : 0.998134791851, Q2 : 0.0, Q3 : 0.0, Q4 : -0.0610485821962}
2019-04-03 22:22:15.81: SIM {TimeUS : 45834992, Roll : 0.0, Pitch : 0.0, Yaw : 353.0, Alt : 584.090026855, Lat : -35.363261, Lng : 149.1652299, Q1 : 0.998134791851, Q2 : 0.0, Q3 : 0.0, Q4 : -0.0610485821962}
2019-04-03 22:22:15.91: SIM {TimeUS : 45934952, Roll : 0.0, Pitch : 0.0, Yaw : 353.0, Alt : 584.090026855, Lat : -35.363261, Lng : 149.1652299, Q1 : 0.998134791851, Q2 : 0.0, Q3 : 0.0, Q4 : -0.0610485821962}
2019-04-03 22:22:16.01: SIM {TimeUS : 46034912, Roll : 0.0, Pitch : 0.0, Yaw : 353.0, Alt : 584.090026855, Lat : -35.363261, Lng : 149.1652299, Q1 : 0.998134791851, Q2 : 0.0, Q3 : 0.0, Q4 : -0.0610485821962}
2019-04-03 22:22:16.11: SIM {TimeUS : 46134872, Roll : 0.0, Pitch : 0.0, Yaw : 353.0, Alt : 584.090026855, Lat : -35.363261, Lng : 149.1652299, Q1 : 0.998134791851, Q2 : 0.0, Q3 : 0.0, Q4 : -0.0610485821962}
2019-04-03 22:22:16.21: SIM {TimeUS : 46234832, Roll : 0.0, Pitch : 0.0, Yaw : 353.0, Alt : 584.090026855, Lat : -35.363261, Lng : 149.1652299, Q1 : 0.998134791851, Q2 : 0.0, Q3 : 0.0, Q4 : -0.0610485821962}
2019-04-03 22:22:16.31: SIM {TimeUS : 46334792, Roll : 0.0, Pitch : 0.0, Yaw : 353.0, Alt : 584.090026855, Lat : -35.363261, Lng : 149.1652299, Q1 : 0.998134791851, Q2 : 0.0, Q3 : 0.0, Q4 : -0.0610485821962}
2019-04-03 22:22:16.41: SIM {TimeUS : 46434752, Roll : 0.0, Pitch : 0.0, Yaw : 353.0, Alt : 584.090026855, Lat : -35.363261, Lng : 149.1652299, Q1 : 0.998134791851, Q2 : 0.0, Q3 : 0.0, Q4 : -0.0610485821962}
2019-04-03 22:22:16.51: SIM {TimeUS : 46534712, Roll : 0.0, Pitch : 0.0, Yaw : 353.0, Alt : 584.090026855, Lat : -35.363261, Lng : 149.1652299, Q1 : 0.998134791851, Q2 : 0.0, Q3 : 0.0, Q4 : -0.0610485821962}
2019-04-03 22:22:16.61: SIM {TimeUS : 46634672, Roll : 0.0, Pitch : 0.0, Yaw : 353.0, Alt : 584.090026855, Lat : -35.363261, Lng : 149.1652299, Q1 : 0.998134791851, Q2 : 0.0, Q3 : 0.0, Q4 : -0.0610485821962}
2019-04-03 22:22:16.71: SIM {TimeUS : 46734632, Roll : 0.0, Pitch : 0.0, Yaw : 353.0, Alt : 584.090026855, Lat : -35.363261, Lng : 149.1652299, Q1 : 0.998134791851, Q2 : 0.0, Q3 : 0.0, Q4 : -0.0610485821962}
2019-04-03 22:22:16.81: SIM {TimeUS : 46834592, Roll : 0.0, Pitch : 0.0, Yaw : 353.0, Alt : 584.090026855, Lat : -35.363261, Lng : 149.1652299, Q1 : 0.998134791851, Q2 : 0.0, Q3 : 0.0, Q4 : -0.0610485821962}
2019-04-03 22:22:16.91: SIM {TimeUS : 46934552, Roll : 0.0, Pitch : 0.0, Yaw : 353.0, Alt : 584.090026855, Lat : -35.363261, Lng : 149.1652299, Q1 : 0.998134791851, Q2 : 0.0, Q3 : 0.0, Q4 : -0.0610485821962}
2019-04-03 22:22:17.01: SIM {TimeUS : 47034512, Roll : 0.0, Pitch : 0.0, Yaw : 353.0, Alt : 584.090026855, Lat : -35.363261, Lng : 149.1652299, Q1 : 0.998134791851, Q2 : 0.0, Q3 : 0.0, Q4 : -0.0610485821962}
2019-04-03 22:22:17.11: SIM {TimeUS : 47134472, Roll : 0.0, Pitch : 0.0, Yaw : 353.0, Alt : 584.090026855, Lat : -35.363261, Lng : 149.1652299, Q1 : 0.998134791851, Q2 : 0.0, Q3 : 0.0, Q4 : -0.0610485821962}
2019-04-03 22:22:17.22: SIM {TimeUS : 47235265, Roll : 0.0, Pitch : 0.0, Yaw : 353.0, Alt : 584.090026855, Lat : -35.363261, Lng : 149.1652299, Q1 : 0.998134791851, Q2 : 0.0, Q3 : 0.0, Q4 : -0.0610485821962}
2019-04-03 22:22:17.31: SIM {TimeUS : 47335225, Roll : 0.0, Pitch : 0.0, Yaw : 353.0, Alt : 584.090026855, Lat : -35.363261, Lng : 149.1652299, Q1 : 0.998134791851, Q2 : 0.0, Q3 : 0.0, Q4 : -0.0610485821962}
2019-04-03 22:22:17.41: SIM {TimeUS : 47435185, Roll : 0.0, Pitch : 0.0, Yaw : 353.0, Alt : 584.090026855, Lat : -35.363261, Lng : 149.1652299, Q1 : 0.998134791851, Q2 : 0.0, Q3 : 0.0, Q4 : -0.0610485821962}
2019-04-03 22:22:17.51: SIM {TimeUS : 47535145, Roll : 0.0, Pitch : 0.0, Yaw : 353.0, Alt : 584.090026855, Lat : -35.363261, Lng : 149.1652299, Q1 : 0.998134791851, Q2 : 0.0, Q3 : 0.0, Q4 : -0.0610485821962}
2019-04-03 22:22:17.61: SIM {TimeUS : 47635105, Roll : 0.0, Pitch : 0.0, Yaw : 353.0, Alt : 584.090026855, Lat : -35.363261, Lng : 149.1652299, Q1 : 0.998134791851, Q2 : 0.0, Q3 : 0.0, Q4 : -0.0610485821962}
2019-04-03 22:22:17.71: SIM {TimeUS : 47735065, Roll : 0.0, Pitch : 0.0, Yaw : 353.0, Alt : 584.090026855, Lat : -35.363261, Lng : 149.1652299, Q1 : 0.998134791851, Q2 : 0.0, Q3 : 0.0, Q4 : -0.0610485821962}
2019-04-03 22:22:17.81: SIM {TimeUS : 47835025, Roll : 0.0, Pitch : 0.0, Yaw : 353.0, Alt : 584.090026855, Lat : -35.363261, Lng : 149.1652299, Q1 : 0.998134791851, Q2 : 0.0, Q3 : 0.0, Q4 : -0.0610485821962}
2019-04-03 22:22:17.91: SIM {TimeUS : 47934985, Roll : 0.0, Pitch : 0.0, Yaw : 353.0, Alt : 584.090026855, Lat : -35.363261, Lng : 149.1652299, Q1 : 0.998134791851, Q2 : 0.0, Q3 : 0.0, Q4 : -0.0610485821962}
2019-04-03 22:22:18.01: SIM {TimeUS : 48034945, Roll : 0.0, Pitch : 0.0, Yaw : 353.0, Alt : 584.090026855, Lat : -35.363261, Lng : 149.1652299, Q1 : 0.998134791851, Q2 : 0.0, Q3 : 0.0, Q4 : -0.0610485821962}
2019-04-03 22:22:18.11: SIM {TimeUS : 48134905, Roll : 0.0, Pitch : 0.0, Yaw : 353.0, Alt : 584.090026855, Lat : -35.363261, Lng : 149.1652299, Q1 : 0.998134791851, Q2 : 0.0, Q3 : 0.0, Q4 : -0.0610485821962}
2019-04-03 22:22:18.21: SIM {TimeUS : 48234865, Roll : 0.0, Pitch : 0.0, Yaw : 353.0, Alt : 584.090026855, Lat : -35.363261, Lng : 149.1652299, Q1 : 0.998134791851, Q2 : 0.0, Q3 : 0.0, Q4 : -0.0610485821962}
2019-04-03 22:22:18.31: SIM {TimeUS : 48334825, Roll : 0.0, Pitch : 0.0, Yaw : 353.0, Alt : 584.090026855, Lat : -35.363261, Lng : 149.1652299, Q1 : 0.998134791851, Q2 : 0.0, Q3 : 0.0, Q4 : -0.0610485821962}
2019-04-03 22:22:18.41: SIM {TimeUS : 48434785, Roll : 0.0, Pitch : 0.0, Yaw : 353.0, Alt : 584.090026855, Lat : -35.363261, Lng : 149.1652299, Q1 : 0.998134791851, Q2 : 0.0, Q3 : 0.0, Q4 : -0.0610485821962}
2019-04-03 22:22:18.51: SIM {TimeUS : 48534745, Roll : 0.0, Pitch : 0.0, Yaw : 353.0, Alt : 584.090026855, Lat : -35.363261, Lng : 149.1652299, Q1 : 0.998134791851, Q2 : 0.0, Q3 : 0.0, Q4 : -0.0610485821962}
2019-04-03 22:22:18.61: SIM {TimeUS : 48634705, Roll : 0.0, Pitch : 0.0, Yaw : 353.0, Alt : 584.090026855, Lat : -35.363261, Lng : 149.1652299, Q1 : 0.998134791851, Q2 : 0.0, Q3 : 0.0, Q4 : -0.0610485821962}
2019-04-03 22:22:18.71: SIM {TimeUS : 48734665, Roll : 0.0, Pitch : 0.0, Yaw : 353.0, Alt : 584.090026855, Lat : -35.363261, Lng : 149.1652299, Q1 : 0.998134791851, Q2 : 0.0, Q3 : 0.0, Q4 : -0.0610485821962}
2019-04-03 22:22:18.81: SIM {TimeUS : 48834625, Roll : 0.0, Pitch : 0.0, Yaw : 353.0, Alt : 584.090026855, Lat : -35.363261, Lng : 149.1652299, Q1 : 0.998134791851, Q2 : 0.0, Q3 : 0.0, Q4 : -0.0610485821962}
2019-04-03 22:22:18.91: SIM {TimeUS : 48934585, Roll : 0.0, Pitch : 0.0, Yaw : 353.0, Alt : 584.090026855, Lat : -35.363261, Lng : 149.1652299, Q1 : 0.998134791851, Q2 : 0.0, Q3 : 0.0, Q4 : -0.0610485821962}
2019-04-03 22:22:19.01: SIM {TimeUS : 49034545, Roll : 0.0, Pitch : 0.0, Yaw : 353.0, Alt : 584.090026855, Lat : -35.363261, Lng : 149.1652299, Q1 : 0.998134791851, Q2 : 0.0, Q3 : 0.0, Q4 : -0.0610485821962}
2019-04-03 22:22:19.11: SIM {TimeUS : 49134505, Roll : 0.0, Pitch : 0.0, Yaw : 353.0, Alt : 584.090026855, Lat : -35.363261, Lng : 149.1652299, Q1 : 0.998134791851, Q2 : 0.0, Q3 : 0.0, Q4 : -0.0610485821962}
2019-04-03 22:22:19.21: SIM {TimeUS : 49234465, Roll : 0.0, Pitch : 0.0, Yaw : 353.0, Alt : 584.090026855, Lat : -35.363261, Lng : 149.1652299, Q1 : 0.998134791851, Q2 : 0.0, Q3 : 0.0, Q4 : -0.0610485821962}
2019-04-03 22:22:19.32: SIM {TimeUS : 49335258, Roll : 0.0, Pitch : 0.0, Yaw : 353.0, Alt : 584.090026855, Lat : -35.363261, Lng : 149.1652299, Q1 : 0.998134791851, Q2 : 0.0, Q3 : 0.0, Q4 : -0.0610485821962}
2019-04-03 22:22:19.41: SIM {TimeUS : 49435218, Roll : 0.0, Pitch : 0.0, Yaw : 353.0, Alt : 584.090026855, Lat : -35.363261, Lng : 149.1652299, Q1 : 0.998134791851, Q2 : 0.0, Q3 : 0.0, Q4 : -0.0610485821962}
2019-04-03 22:22:19.51: SIM {TimeUS : 49535178, Roll : 0.0, Pitch : 0.0, Yaw : 353.0, Alt : 584.090026855, Lat : -35.363261, Lng : 149.1652299, Q1 : 0.998134791851, Q2 : 0.0, Q3 : 0.0, Q4 : -0.0610485821962}
2019-04-03 22:22:19.61: SIM {TimeUS : 49635138, Roll : 0.0, Pitch : 0.0, Yaw : 353.0, Alt : 584.090026855, Lat : -35.363261, Lng : 149.1652299, Q1 : 0.998134791851, Q2 : 0.0, Q3 : 0.0, Q4 : -0.0610485821962}
2019-04-03 22:22:19.71: SIM {TimeUS : 49735098, Roll : 0.0, Pitch : 0.0, Yaw : 353.0, Alt : 584.090026855, Lat : -35.363261, Lng : 149.1652299, Q1 : 0.998134791851, Q2 : 0.0, Q3 : 0.0, Q4 : -0.0610485821962}
2019-04-03 22:22:19.81: SIM {TimeUS : 49835058, Roll : 0.0, Pitch : 0.0, Yaw : 353.0, Alt : 584.090026855, Lat : -35.363261, Lng : 149.1652299, Q1 : 0.998134791851, Q2 : 0.0, Q3 : 0.0, Q4 : -0.0610485821962}
2019-04-03 22:22:19.91: SIM {TimeUS : 49935018, Roll : 0.0, Pitch : 0.0, Yaw : 353.0, Alt : 584.090026855, Lat : -35.363261, Lng : 149.1652299, Q1 : 0.998134791851, Q2 : 0.0, Q3 : 0.0, Q4 : -0.0610485821962}
2019-04-03 22:22:20.01: SIM {TimeUS : 50034978, Roll : 0.0, Pitch : 0.0, Yaw : 353.0, Alt : 584.090026855, Lat : -35.363261, Lng : 149.1652299, Q1 : 0.998134791851, Q2 : 0.0, Q3 : 0.0, Q4 : -0.0610485821962}
2019-04-03 22:22:20.11: SIM {TimeUS : 50134938, Roll : 0.0, Pitch : 0.0, Yaw : 353.0, Alt : 584.090026855, Lat : -35.363261, Lng : 149.1652299, Q1 : 0.998134791851, Q2 : 0.0, Q3 : 0.0, Q4 : -0.0610485821962}
2019-04-03 22:22:20.21: SIM {TimeUS : 50234898, Roll : 0.0, Pitch : 0.0, Yaw : 353.0, Alt : 584.090026855, Lat : -35.363261, Lng : 149.1652299, Q1 : 0.998134791851, Q2 : 0.0, Q3 : 0.0, Q4 : -0.0610485821962}
2019-04-03 22:22:20.31: SIM {TimeUS : 50334858, Roll : 0.0, Pitch : 0.0, Yaw : 353.0, Alt : 584.090026855, Lat : -35.363261, Lng : 149.1652299, Q1 : 0.998134791851, Q2 : 0.0, Q3 : 0.0, Q4 : -0.0610485821962}
2019-04-03 22:22:20.41: SIM {TimeUS : 50434818, Roll : 0.0, Pitch : 0.0, Yaw : 353.0, Alt : 584.090026855, Lat : -35.363261, Lng : 149.1652299, Q1 : 0.998134791851, Q2 : 0.0, Q3 : 0.0, Q4 : -0.0610485821962}
2019-04-03 22:22:20.51: SIM {TimeUS : 50534778, Roll : 0.0, Pitch : 0.0, Yaw : 353.0, Alt : 584.090026855, Lat : -35.363261, Lng : 149.1652299, Q1 : 0.998134791851, Q2 : 0.0, Q3 : 0.0, Q4 : -0.0610485821962}
2019-04-03 22:22:20.61: SIM {TimeUS : 50634738, Roll : 0.0, Pitch : 0.0, Yaw : 353.0, Alt : 584.090026855, Lat : -35.363261, Lng : 149.1652299, Q1 : 0.998134791851, Q2 : 0.0, Q3 : 0.0, Q4 : -0.0610485821962}
2019-04-03 22:22:20.71: SIM {TimeUS : 50734698, Roll : 0.0, Pitch : 0.0, Yaw : 353.0, Alt : 584.090026855, Lat : -35.363261, Lng : 149.1652299, Q1 : 0.998134791851, Q2 : 0.0, Q3 : 0.0, Q4 : -0.0610485821962}
2019-04-03 22:22:22.71: SIM {TimeUS : 52734731, Roll : 0.0, Pitch : 0.0, Yaw : 353.0, Alt : 584.090026855, Lat : -35.363261, Lng : 149.1652299, Q1 : 0.998134791851, Q2 : 0.0, Q3 : 0.0, Q4 : -0.0610485821962}
2019-04-03 22:22:22.81: SIM {TimeUS : 52834691, Roll : 0.0, Pitch : 0.0, Yaw : 353.0, Alt : 584.090026855, Lat : -35.363261, Lng : 149.1652299, Q1 : 0.998134791851, Q2 : 0.0, Q3 : 0.0, Q4 : -0.0610485821962}
2019-04-03 22:22:22.91: SIM {TimeUS : 52934651, Roll : 0.0, Pitch : 0.0, Yaw : 353.0, Alt : 584.090026855, Lat : -35.363261, Lng : 149.1652299, Q1 : 0.998134791851, Q2 : 0.0, Q3 : 0.0, Q4 : -0.0610485821962}
2019-04-03 22:22:23.01: SIM {TimeUS : 53034611, Roll : 0.0, Pitch : 0.0, Yaw : 353.0, Alt : 584.090026855, Lat : -35.363261, Lng : 149.1652299, Q1 : 0.998134791851, Q2 : 0.0, Q3 : 0.0, Q4 : -0.0610485821962}
2019-04-03 22:22:23.11: SIM {TimeUS : 53134571, Roll : 0.0, Pitch : 0.0, Yaw : 353.0, Alt : 584.090026855, Lat : -35.363261, Lng : 149.1652299, Q1 : 0.998134791851, Q2 : 0.0, Q3 : 0.0, Q4 : -0.0610485821962}
2019-04-03 22:22:23.21: SIM {TimeUS : 53234531, Roll : 0.0, Pitch : 0.0, Yaw : 353.0, Alt : 584.090026855, Lat : -35.363261, Lng : 149.1652299, Q1 : 0.998134791851, Q2 : 0.0, Q3 : 0.0, Q4 : -0.0610485821962}
2019-04-03 22:22:23.31: SIM {TimeUS : 53334491, Roll : 0.0, Pitch : 0.0, Yaw : 353.0, Alt : 584.090026855, Lat : -35.363261, Lng : 149.1652299, Q1 : 0.998134791851, Q2 : 0.0, Q3 : 0.0, Q4 : -0.0610485821962}
2019-04-03 22:22:23.42: SIM {TimeUS : 53435284, Roll : 0.0, Pitch : 0.0, Yaw : 353.0, Alt : 584.090026855, Lat : -35.363261, Lng : 149.1652299, Q1 : 0.998134791851, Q2 : 0.0, Q3 : 0.0, Q4 : -0.0610485821962}
2019-04-03 22:22:23.51: SIM {TimeUS : 53535244, Roll : 0.0, Pitch : 0.0, Yaw : 353.0, Alt : 584.090026855, Lat : -35.363261, Lng : 149.1652299, Q1 : 0.998134791851, Q2 : 0.0, Q3 : 0.0, Q4 : -0.0610485821962}
2019-04-03 22:22:23.61: SIM {TimeUS : 53635204, Roll : 0.0, Pitch : 0.0, Yaw : 353.0, Alt : 584.090026855, Lat : -35.363261, Lng : 149.1652299, Q1 : 0.998134791851, Q2 : 0.0, Q3 : 0.0, Q4 : -0.0610485821962}
2019-04-03 22:22:23.71: SIM {TimeUS : 53735164, Roll : 0.0, Pitch : 0.0, Yaw : 353.0, Alt : 584.090026855, Lat : -35.363261, Lng : 149.1652299, Q1 : 0.998134791851, Q2 : 0.0, Q3 : 0.0, Q4 : -0.0610485821962}
2019-04-03 22:22:23.81: SIM {TimeUS : 53835124, Roll : 0.0, Pitch : 0.0, Yaw : 353.0, Alt : 584.090026855, Lat : -35.363261, Lng : 149.1652299, Q1 : 0.998134791851, Q2 : 0.0, Q3 : 0.0, Q4 : -0.0610485821962}
2019-04-03 22:22:23.91: SIM {TimeUS : 53935084, Roll : 0.0, Pitch : 0.0, Yaw : 353.0, Alt : 584.090026855, Lat : -35.363261, Lng : 149.1652299, Q1 : 0.998134791851, Q2 : 0.0, Q3 : 0.0, Q4 : -0.0610485821962}
2019-04-03 22:22:24.01: SIM {TimeUS : 54035044, Roll : 0.0, Pitch : 0.0, Yaw : 353.0, Alt : 584.090026855, Lat : -35.363261, Lng : 149.1652299, Q1 : 0.998134791851, Q2 : 0.0, Q3 : 0.0, Q4 : -0.0610485821962}
2019-04-03 22:22:24.11: SIM {TimeUS : 54135004, Roll : 0.0, Pitch : 0.0, Yaw : 353.0, Alt : 584.090026855, Lat : -35.363261, Lng : 149.1652299, Q1 : 0.998134791851, Q2 : 0.0, Q3 : 0.0, Q4 : -0.0610485821962}
2019-04-03 22:22:24.21: SIM {TimeUS : 54234964, Roll : 0.0, Pitch : 0.0, Yaw : 353.0, Alt : 584.090026855, Lat : -35.363261, Lng : 149.1652299, Q1 : 0.998134791851, Q2 : 0.0, Q3 : 0.0, Q4 : -0.0610485821962}
2019-04-03 22:22:24.31: SIM {TimeUS : 54334924, Roll : 0.0, Pitch : 0.0, Yaw : 353.0, Alt : 584.090026855, Lat : -35.363261, Lng : 149.1652299, Q1 : 0.998134791851, Q2 : 0.0, Q3 : 0.0, Q4 : -0.0610485821962}
2019-04-03 22:22:24.41: SIM {TimeUS : 54434884, Roll : 0.0, Pitch : 0.0, Yaw : 353.0, Alt : 584.090026855, Lat : -35.363261, Lng : 149.1652299, Q1 : 0.998134791851, Q2 : 0.0, Q3 : 0.0, Q4 : -0.0610485821962}
2019-04-03 22:22:24.51: SIM {TimeUS : 54534844, Roll : 0.0, Pitch : 0.0, Yaw : 353.0, Alt : 584.090026855, Lat : -35.363261, Lng : 149.1652299, Q1 : 0.998134791851, Q2 : 0.0, Q3 : 0.0, Q4 : -0.0610485821962}
2019-04-03 22:22:24.61: SIM {TimeUS : 54634804, Roll : 0.0, Pitch : 0.0, Yaw : 353.0, Alt : 584.090026855, Lat : -35.363261, Lng : 149.1652299, Q1 : 0.998134791851, Q2 : 0.0, Q3 : 0.0, Q4 : -0.0610485821962}
2019-04-03 22:22:24.71: SIM {TimeUS : 54734764, Roll : 0.0, Pitch : 0.0, Yaw : 353.0, Alt : 584.090026855, Lat : -35.363261, Lng : 149.1652299, Q1 : 0.998134791851, Q2 : 0.0, Q3 : 0.0, Q4 : -0.0610485821962}
2019-04-03 22:22:24.81: SIM {TimeUS : 54834724, Roll : 0.0, Pitch : 0.0, Yaw : 353.0, Alt : 584.090026855, Lat : -35.363261, Lng : 149.1652299, Q1 : 0.998134791851, Q2 : 0.0, Q3 : 0.0, Q4 : -0.0610485821962}
2019-04-03 22:22:24.91: SIM {TimeUS : 54934684, Roll : 0.0, Pitch : 0.0, Yaw : 353.0, Alt : 584.090026855, Lat : -35.363261, Lng : 149.1652299, Q1 : 0.998134791851, Q2 : 0.0, Q3 : 0.0, Q4 : -0.0610485821962}
2019-04-03 22:22:25.01: SIM {TimeUS : 55034644, Roll : 0.0, Pitch : 0.0, Yaw : 353.0, Alt : 584.090026855, Lat : -35.363261, Lng : 149.1652299, Q1 : 0.998134791851, Q2 : 0.0, Q3 : 0.0, Q4 : -0.0610485821962}
2019-04-03 22:22:25.11: SIM {TimeUS : 55134604, Roll : 0.0, Pitch : 0.0, Yaw : 353.0, Alt : 584.090026855, Lat : -35.363261, Lng : 149.1652299, Q1 : 0.998134791851, Q2 : 0.0, Q3 : 0.0, Q4 : -0.0610485821962}
2019-04-03 22:22:25.21: SIM {TimeUS : 55234564, Roll : 0.0, Pitch : 0.0, Yaw : 353.0, Alt : 584.090026855, Lat : -35.363261, Lng : 149.1652299, Q1 : 0.998134791851, Q2 : 0.0, Q3 : 0.0, Q4 : -0.0610485821962}
2019-04-03 22:22:25.31: SIM {TimeUS : 55334524, Roll : 0.0, Pitch : 0.0, Yaw : 353.0, Alt : 584.090026855, Lat : -35.363261, Lng : 149.1652299, Q1 : 0.998134791851, Q2 : 0.0, Q3 : 0.0, Q4 : -0.0610485821962}
2019-04-03 22:22:25.41: SIM {TimeUS : 55434484, Roll : 0.0, Pitch : 0.0, Yaw : 353.0, Alt : 584.090026855, Lat : -35.363261, Lng : 149.1652299, Q1 : 0.998134791851, Q2 : 0.0, Q3 : 0.0, Q4 : -0.0610485821962}
2019-04-03 22:22:25.52: SIM {TimeUS : 55535277, Roll : 0.0, Pitch : 0.0, Yaw : 353.0, Alt : 584.090026855, Lat : -35.363261, Lng : 149.1652299, Q1 : 0.998134791851, Q2 : 0.0, Q3 : 0.0, Q4 : -0.0610485821962}
2019-04-03 22:22:25.61: SIM {TimeUS : 55635237, Roll : 0.0, Pitch : 0.0, Yaw : 353.0, Alt : 584.090026855, Lat : -35.363261, Lng : 149.1652299, Q1 : 0.998134791851, Q2 : 0.0, Q3 : 0.0, Q4 : -0.0610485821962}
2019-04-03 22:22:25.71: SIM {TimeUS : 55735197, Roll : 0.0, Pitch : 0.0, Yaw : 353.0, Alt : 584.090026855, Lat : -35.363261, Lng : 149.1652299, Q1 : 0.998134791851, Q2 : 0.0, Q3 : 0.0, Q4 : -0.0610485821962}
2019-04-03 22:22:25.81: SIM {TimeUS : 55835157, Roll : 0.0, Pitch : 0.0, Yaw : 353.0, Alt : 584.090026855, Lat : -35.363261, Lng : 149.1652299, Q1 : 0.998134791851, Q2 : 0.0, Q3 : 0.0, Q4 : -0.0610485821962}
2019-04-03 22:22:25.91: SIM {TimeUS : 55935117, Roll : 0.0, Pitch : 0.0, Yaw : 353.0, Alt : 584.090026855, Lat : -35.363261, Lng : 149.1652299, Q1 : 0.998134791851, Q2 : 0.0, Q3 : 0.0, Q4 : -0.0610485821962}
2019-04-03 22:22:26.01: SIM {TimeUS : 56035077, Roll : 0.0, Pitch : 0.0, Yaw : 353.0, Alt : 584.090026855, Lat : -35.363261, Lng : 149.1652299, Q1 : 0.998134791851, Q2 : 0.0, Q3 : 0.0, Q4 : -0.0610485821962}
2019-04-03 22:22:26.11: SIM {TimeUS : 56135037, Roll : 0.0, Pitch : 0.0, Yaw : 353.0, Alt : 584.090026855, Lat : -35.363261, Lng : 149.1652299, Q1 : 0.998134791851, Q2 : 0.0, Q3 : 0.0, Q4 : -0.0610485821962}
2019-04-03 22:22:26.21: SIM {TimeUS : 56234997, Roll : 0.0, Pitch : 0.0, Yaw : 353.0, Alt : 584.090026855, Lat : -35.363261, Lng : 149.1652299, Q1 : 0.998134791851, Q2 : 0.0, Q3 : 0.0, Q4 : -0.0610485821962}
2019-04-03 22:22:26.31: SIM {TimeUS : 56334957, Roll : 0.0, Pitch : 0.0, Yaw : 353.0, Alt : 584.090026855, Lat : -35.363261, Lng : 149.1652299, Q1 : 0.998134791851, Q2 : 0.0, Q3 : 0.0, Q4 : -0.0610485821962}
2019-04-03 22:22:26.41: SIM {TimeUS : 56434917, Roll : 0.0, Pitch : 0.0, Yaw : 353.0, Alt : 584.090026855, Lat : -35.363261, Lng : 149.1652299, Q1 : 0.998134791851, Q2 : 0.0, Q3 : 0.0, Q4 : -0.0610485821962}
2019-04-03 22:22:26.51: SIM {TimeUS : 56534877, Roll : 0.0, Pitch : 0.0, Yaw : 353.0, Alt : 584.090026855, Lat : -35.363261, Lng : 149.1652299, Q1 : 0.998134791851, Q2 : 0.0, Q3 : 0.0, Q4 : -0.0610485821962}
2019-04-03 22:22:26.61: SIM {TimeUS : 56634837, Roll : 0.0, Pitch : 0.0, Yaw : 353.0, Alt : 584.090026855, Lat : -35.363261, Lng : 149.1652299, Q1 : 0.998134791851, Q2 : 0.0, Q3 : 0.0, Q4 : -0.0610486268997}
2019-04-03 22:22:26.71: SIM {TimeUS : 56734797, Roll : 0.0, Pitch : 0.0, Yaw : 353.0, Alt : 584.090026855, Lat : -35.363261, Lng : 149.1652299, Q1 : 0.998134791851, Q2 : 0.0, Q3 : 0.0, Q4 : -0.0610486418009}
2019-04-03 22:22:26.81: SIM {TimeUS : 56834757, Roll : 0.0, Pitch : 0.0, Yaw : 353.0, Alt : 584.090026855, Lat : -35.363261, Lng : 149.1652299, Q1 : 0.998134791851, Q2 : 0.0, Q3 : 0.0, Q4 : -0.0610486753285}
2019-04-03 22:22:26.91: SIM {TimeUS : 56934717, Roll : 0.0, Pitch : 0.0, Yaw : 353.0, Alt : 584.090026855, Lat : -35.363261, Lng : 149.1652299, Q1 : 0.998134791851, Q2 : 0.0, Q3 : 0.0, Q4 : -0.0610486753285}
2019-04-03 22:22:27.01: SIM {TimeUS : 57034677, Roll : 0.0, Pitch : 0.0, Yaw : 353.0, Alt : 584.090026855, Lat : -35.363261, Lng : 149.1652299, Q1 : 0.998134791851, Q2 : 0.0, Q3 : 0.0, Q4 : -0.0610486641526}
2019-04-03 22:22:27.11: SIM {TimeUS : 57134637, Roll : 0.0, Pitch : 0.0, Yaw : 353.0, Alt : 584.090026855, Lat : -35.363261, Lng : 149.1652299, Q1 : 0.998134791851, Q2 : 0.0, Q3 : 0.0, Q4 : -0.0610486753285}
2019-04-03 22:22:27.21: SIM {TimeUS : 57234597, Roll : 0.0, Pitch : 0.0, Yaw : 353.0, Alt : 584.090026855, Lat : -35.363261, Lng : 149.1652299, Q1 : 0.998134791851, Q2 : 0.0, Q3 : 0.0, Q4 : -0.0610486753285}
2019-04-03 22:22:27.31: SIM {TimeUS : 57334557, Roll : 0.0, Pitch : 0.0, Yaw : 353.0, Alt : 584.090026855, Lat : -35.363261, Lng : 149.1652299, Q1 : 0.998134791851, Q2 : 0.0, Q3 : 0.0, Q4 : -0.0610486753285}
2019-04-03 22:22:27.41: SIM {TimeUS : 57434517, Roll : 0.0, Pitch : 0.0, Yaw : 353.0, Alt : 584.099975586, Lat : -35.363261, Lng : 149.1652299, Q1 : 0.998134791851, Q2 : 0.0, Q3 : 0.0, Q4 : -0.0610486753285}
2019-04-03 22:22:27.51: SIM {TimeUS : 57534477, Roll : 0.0, Pitch : 0.0, Yaw : 353.0, Alt : 584.099975586, Lat : -35.363261, Lng : 149.1652299, Q1 : 0.998134791851, Q2 : 0.0, Q3 : 0.0, Q4 : -0.0610486753285}
2019-04-03 22:22:27.62: SIM {TimeUS : 57635270, Roll : 0.0, Pitch : 0.0, Yaw : 353.0, Alt : 584.119995117, Lat : -35.363261, Lng : 149.1652299, Q1 : 0.998134791851, Q2 : 0.0, Q3 : 0.0, Q4 : -0.0610486753285}
2019-04-03 22:22:27.71: SIM {TimeUS : 57735230, Roll : 0.0, Pitch : 0.0, Yaw : 353.0, Alt : 584.140014648, Lat : -35.363261, Lng : 149.1652299, Q1 : 0.998134791851, Q2 : 0.0, Q3 : 0.0, Q4 : -0.0610486753285}
2019-04-03 22:22:27.81: SIM {TimeUS : 57835190, Roll : 0.0, Pitch : 0.0, Yaw : 353.0, Alt : 584.16998291, Lat : -35.363261, Lng : 149.1652299, Q1 : 0.998134791851, Q2 : 0.0, Q3 : 0.0, Q4 : -0.0610486753285}
2019-04-03 22:22:27.91: SIM {TimeUS : 57935150, Roll : 0.0, Pitch : 0.0, Yaw : 353.0, Alt : 584.200012207, Lat : -35.363261, Lng : 149.1652299, Q1 : 0.998134791851, Q2 : 0.0, Q3 : 0.0, Q4 : -0.0610486753285}
2019-04-03 22:22:28.01: SIM {TimeUS : 58035110, Roll : -0.02, Pitch : -0.03, Yaw : 352.99, Alt : 584.260009766, Lat : -35.363261, Lng : 149.1652299, Q1 : 0.998134553432, Q2 : -0.000260358676314, Q3 : -0.000283679022687, Q4 : -0.0610509030521}
2019-04-03 22:22:28.11: SIM {TimeUS : 58135070, Roll : -0.11, Pitch : -0.11, Yaw : 352.99, Alt : 584.359985352, Lat : -35.363261, Lng : 149.1652299, Q1 : 0.998133063316, Q2 : -0.00103712908458, Q3 : -0.000969574321061, Q4 : -0.0610607154667}
2019-04-03 22:22:28.21: SIM {TimeUS : 58235030, Roll : -0.18, Pitch : -0.18, Yaw : 352.99, Alt : 584.510009766, Lat : -35.363261, Lng : 149.1652299, Q1 : 0.998130679131, Q2 : -0.0017434587935, Q3 : -0.00148922449443, Q4 : -0.0610735304654}
2019-04-03 22:22:28.31: SIM {TimeUS : 58334990, Roll : -0.2, Pitch : -0.19, Yaw : 352.99, Alt : 584.659973145, Lat : -35.363261, Lng : 149.1652299, Q1 : 0.99812912941, Q2 : -0.00192645878997, Q3 : -0.00158983585425, Q4 : -0.0610904991627}
2019-04-03 22:22:28.41: SIM {TimeUS : 58434950, Roll : -0.2, Pitch : -0.16, Yaw : 352.99, Alt : 584.820007324, Lat : -35.363261, Lng : 149.1652299, Q1 : 0.998128056526, Q2 : -0.001853424008, Q3 : -0.00136923138052, Q4 : -0.061115462333}
2019-04-03 22:22:28.51: SIM {TimeUS : 58534910, Roll : -0.15, Pitch : -0.12, Yaw : 352.98, Alt : 584.969970703, Lat : -35.363261, Lng : 149.1652299, Q1 : 0.998127520084, Q2 : -0.00142793147825, Q3 : -0.000993169727735, Q4 : -0.0611430667341}
2019-04-03 22:22:28.61: SIM {TimeUS : 58634870, Roll : -0.07, Pitch : -0.05, Yaw : 352.98, Alt : 585.119995117, Lat : -35.363261, Lng : 149.1652299, Q1 : 0.998127162457, Q2 : -0.000660312420223, Q3 : -0.000407547166105, Q4 : -0.0611687898636}
2019-04-03 22:22:28.71: SIM {TimeUS : 58734830, Roll : 0.0, Pitch : 0.02, Yaw : 352.98, Alt : 585.280029297, Lat : -35.363261, Lng : 149.1652299, Q1 : 0.998125970364, Q2 : 7.34788545742e-06, Q3 : 0.000198159264983, Q4 : -0.061192676425}
2019-04-03 22:22:28.81: SIM {TimeUS : 58834790, Roll : 0.02, Pitch : 0.06, Yaw : 352.98, Alt : 585.450012207, Lat : -35.363261, Lng : 149.1652299, Q1 : 0.99812489748, Q2 : 0.000278884079307, Q3 : 0.000559542328119, Q4 : -0.0612078048289}
2019-04-03 22:22:28.91: SIM {TimeUS : 58934750, Roll : 0.01, Pitch : 0.06, Yaw : 352.98, Alt : 585.619995117, Lat : -35.363261, Lng : 149.1652298, Q1 : 0.998124301434, Q2 : 0.000206593176699, Q3 : 0.000565189926419, Q4 : -0.0612171776593}
2019-04-03 22:22:29.01: SIM {TimeUS : 59034710, Roll : 0.0, Pitch : 0.02, Yaw : 352.98, Alt : 585.789978027, Lat : -35.3632609, Lng : 149.1652298, Q1 : 0.998124241829, Q2 : -5.69970470679e-05, Q3 : 0.000209997946513, Q4 : -0.0612210184336}
2019-04-03 22:22:29.11: SIM {TimeUS : 59134670, Roll : -0.03, Pitch : -0.01, Yaw : 352.97, Alt : 585.979980469, Lat : -35.3632609, Lng : 149.1652298, Q1 : 0.99812400341, Q2 : -0.000348696863512, Q3 : -9.30574824451e-05, Q4 : -0.0612237714231}
2019-04-03 22:22:29.21: SIM {TimeUS : 59234630, Roll : -0.06, Pitch : -0.03, Yaw : 352.98, Alt : 586.159973145, Lat : -35.3632609, Lng : 149.1652298, Q1 : 0.998124063015, Q2 : -0.000564858026337, Q3 : -0.00029032828752, Q4 : -0.0612205341458}
2019-04-03 22:22:29.31: SIM {TimeUS : 59334590, Roll : -0.06, Pitch : -0.04, Yaw : 352.98, Alt : 586.349975586, Lat : -35.3632609, Lng : 149.1652298, Q1 : 0.998124718666, Q2 : -0.000625222164672, Q3 : -0.000312991964165, Q4 : -0.061209410429}
2019-04-03 22:22:29.41: SIM {TimeUS : 59434550, Roll : -0.06, Pitch : -0.03, Yaw : 352.98, Alt : 586.539978027, Lat : -35.3632609, Lng : 149.1652298, Q1 : 0.99812579155, Q2 : -0.000598165090196, Q3 : -0.000228759352467, Q4 : -0.0611926987767}
2019-04-03 22:22:29.51: SIM {TimeUS : 59534510, Roll : -0.04, Pitch : 0.0, Yaw : 352.98, Alt : 586.739990234, Lat : -35.3632609, Lng : 149.1652298, Q1 : 0.998126745224, Q2 : -0.000375692587113, Q3 : 1.7927418412e-06, Q4 : -0.0611796453595}
2019-04-03 22:22:29.61: SIM {TimeUS : 59634470, Roll : 0.0, Pitch : 0.03, Yaw : 352.98, Alt : 586.940002441, Lat : -35.3632609, Lng : 149.1652298, Q1 : 0.998126506805, Q2 : 2.67953128059e-05, Q3 : 0.000280251377262, Q4 : -0.0611829608679}
2019-04-03 22:22:29.72: SIM {TimeUS : 59735263, Roll : 0.03, Pitch : 0.06, Yaw : 352.98, Alt : 587.140014648, Lat : -35.3632609, Lng : 149.1652298, Q1 : 0.998125910759, Q2 : 0.000362936145393, Q3 : 0.000587198475841, Q4 : -0.0611903779209}
2019-04-03 22:22:29.81: SIM {TimeUS : 59835223, Roll : 0.05, Pitch : 0.08, Yaw : 352.98, Alt : 587.340026855, Lat : -35.3632609, Lng : 149.1652298, Q1 : 0.998125493526, Q2 : 0.000530723889824, Q3 : 0.0007340045413, Q4 : -0.0611941441894}
2019-04-03 22:22:29.91: SIM {TimeUS : 59935183, Roll : 0.05, Pitch : 0.08, Yaw : 352.98, Alt : 587.549987793, Lat : -35.3632609, Lng : 149.1652298, Q1 : 0.998125314713, Q2 : 0.000537592568435, Q3 : 0.000722440367099, Q4 : -0.0611969232559}
2019-04-03 22:22:30.01: SIM {TimeUS : 60035143, Roll : 0.02, Pitch : 0.06, Yaw : 352.98, Alt : 587.75, Lat : -35.3632609, Lng : 149.1652298, Q1 : 0.998125493526, Q2 : 0.000281917542452, Q3 : 0.000521503039636, Q4 : -0.061198014766}
2019-04-03 22:22:30.11: SIM {TimeUS : 60135103, Roll : -0.02, Pitch : 0.04, Yaw : 352.98, Alt : 587.960021973, Lat : -35.3632609, Lng : 149.1652298, Q1 : 0.998125255108, Q2 : -0.000155103814905, Q3 : 0.000366087420844, Q4 : -0.0612035579979}
2019-04-03 22:22:30.21: SIM {TimeUS : 60235063, Roll : -0.07, Pitch : 0.03, Yaw : 352.98, Alt : 588.16998291, Lat : -35.3632609, Lng : 149.1652298, Q1 : 0.998124957085, Q2 : -0.000630323309451, Q3 : 0.000305611465592, Q4 : -0.0612055510283}
2019-04-03 22:22:30.31: SIM {TimeUS : 60335023, Roll : -0.12, Pitch : 0.02, Yaw : 352.98, Alt : 588.380004883, Lat : -35.3632609, Lng : 149.1652298, Q1 : 0.998124480247, Q2 : -0.00109020387754, Q3 : 0.000273969577393, Q4 : -0.0612068399787}
2019-04-03 22:22:30.41: SIM {TimeUS : 60434983, Roll : -0.15, Pitch : 0.02, Yaw : 352.98, Alt : 588.590026855, Lat : -35.3632609, Lng : 149.1652298, Q1 : 0.998124063015, Q2 : -0.00132272415794, Q3 : 0.000284099427518, Q4 : -0.0612086392939}
2019-04-03 22:22:30.51: SIM {TimeUS : 60534943, Roll : -0.15, Pitch : 0.01, Yaw : 352.98, Alt : 588.789978027, Lat : -35.3632609, Lng : 149.1652298, Q1 : 0.998123407364, Q2 : -0.00135637517087, Q3 : 0.000219278997974, Q4 : -0.061218906194}
2019-04-03 22:22:30.61: SIM {TimeUS : 60634903, Roll : -0.14, Pitch : 0.0, Yaw : 352.97, Alt : 588.979980469, Lat : -35.3632609, Lng : 149.1652298, Q1 : 0.998122692108, Q2 : -0.00123354292009, Q3 : 9.16733824852e-06, Q4 : -0.0612340159714}
2019-04-03 22:22:30.71: SIM {TimeUS : 60734863, Roll : -0.1, Pitch : -0.04, Yaw : 352.97, Alt : 589.16998291, Lat : -35.3632609, Lng : 149.1652298, Q1 : 0.998121857643, Q2 : -0.000958866614383, Q3 : -0.00032509418088, Q4 : -0.0612507462502}
2019-04-03 22:22:30.81: SIM {TimeUS : 60834823, Roll : -0.08, Pitch : -0.06, Yaw : 352.97, Alt : 589.340026855, Lat : -35.3632609, Lng : 149.1652298, Q1 : 0.99812078476, Q2 : -0.000779514433816, Q3 : -0.000541714020073, Q4 : -0.0612701624632}
2019-04-03 22:22:30.91: SIM {TimeUS : 60934783, Roll : -0.04, Pitch : -0.03, Yaw : 352.97, Alt : 589.5, Lat : -35.3632609, Lng : 149.1652298, Q1 : 0.99811989069, Q2 : -0.000450692867162, Q3 : -0.000286235328531, Q4 : -0.0612899884582}
2019-04-03 22:22:31.01: SIM {TimeUS : 61034743, Roll : 0.13, Pitch : 0.14, Yaw : 352.96, Alt : 589.640014648, Lat : -35.3632609, Lng : 149.1652298, Q1 : 0.998117148876, Q2 : 0.00121589552145, Q3 : 0.00116339256056, Q4 : -0.0613134838641}
2019-04-03 22:22:31.11: SIM {TimeUS : 61134703, Roll : 0.55, Pitch : 0.51, Yaw : 352.96, Alt : 589.780029297, Lat : -35.3632609, Lng : 149.1652298, Q1 : 0.998094916344, Q2 : 0.00510642537847, Q3 : 0.004152698908, Q4 : -0.0613454468548}
2019-04-03 22:22:31.21: SIM {TimeUS : 61234663, Roll : 1.19, Pitch : 1.04, Yaw : 352.97, Alt : 589.900024414, Lat : -35.3632609, Lng : 149.1652298, Q1 : 0.998018026352, Q2 : 0.010960098356, Q3 : 0.00843486841768, Q4 : -0.0613905750215}
2019-04-03 22:22:31.31: SIM {TimeUS : 61334623, Roll : 1.99, Pitch : 1.66, Yaw : 352.97, Alt : 590.010009766, Lat : -35.3632609, Lng : 149.1652298, Q1 : 0.997851073742, Q2 : 0.018285792321, Q3 : 0.0134478062391, Q4 : -0.0614655837417}
2019-04-03 22:22:31.41: SIM {TimeUS : 61434583, Roll : 2.86, Pitch : 2.32, Yaw : 352.99, Alt : 590.099975586, Lat : -35.363261, Lng : 149.1652298, Q1 : 0.997583031654, Q2 : 0.0262029971927, Q3 : 0.0186855457723, Q4 : -0.0615820512176}
2019-04-03 22:22:31.51: SIM {TimeUS : 61534543, Roll : 3.67, Pitch : 2.96, Yaw : 353.0, Alt : 590.179992676, Lat : -35.363261, Lng : 149.1652299, Q1 : 0.997241199017, Q2 : 0.0336037576199, Q3 : 0.0238227434456, Q4 : -0.0617518387735}
2019-04-03 22:22:31.61: SIM {TimeUS : 61634503, Roll : 4.33, Pitch : 3.51, Yaw : 353.01, Alt : 590.260009766, Lat : -35.363261, Lng : 149.1652299, Q1 : 0.996888816357, Q2 : 0.0396247692406, Q3 : 0.0282801911235, Q4 : -0.0619900934398}
2019-04-03 22:22:31.71: SIM {TimeUS : 61734463, Roll : 4.82, Pitch : 3.93, Yaw : 353.01, Alt : 590.320007324, Lat : -35.363261, Lng : 149.1652303, Q1 : 0.99658292532, Q2 : 0.0440536364913, Q3 : 0.0316412039101, Q4 : -0.0622946433723}
2019-04-03 22:22:31.82: SIM {TimeUS : 61835256, Roll : 5.17, Pitch : 4.23, Yaw : 352.99, Alt : 590.369995117, Lat : -35.3632613, Lng : 149.1652306, Q1 : 0.996332585812, Q2 : 0.0472676120698, Q3 : 0.0340914390981, Q4 : -0.0626498237252}
2019-04-03 22:22:31.91: SIM {TimeUS : 61935216, Roll : 5.46, Pitch : 4.48, Yaw : 352.97, Alt : 590.41998291, Lat : -35.3632615, Lng : 149.165231, Q1 : 0.996106505394, Q2 : 0.049954123795, Q3 : 0.036124471575, Q4 : -0.0630193203688}
2019-04-03 22:22:32.01: SIM {TimeUS : 62035176, Roll : 5.74, Pitch : 4.73, Yaw : 352.95, Alt : 590.460021973, Lat : -35.3632617, Lng : 149.1652315, Q1 : 0.995877444744, Q2 : 0.0525509826839, Q3 : 0.0380608737469, Q4 : -0.0633867681026}
2019-04-03 22:22:32.11: SIM {TimeUS : 62135136, Roll : 6.02, Pitch : 4.96, Yaw : 352.93, Alt : 590.5, Lat : -35.3632621, Lng : 149.165232, Q1 : 0.995646953583, Q2 : 0.0550458580256, Q3 : 0.0399284772575, Q4 : -0.0637406557798}
2019-04-03 22:22:32.21: SIM {TimeUS : 62235096, Roll : 6.25, Pitch : 5.14, Yaw : 352.91, Alt : 590.530029297, Lat : -35.3632623, Lng : 149.1652327, Q1 : 0.995446503162, Q2 : 0.0571708865464, Q3 : 0.0413935482502, Q4 : -0.0640655606985}
2019-04-03 22:22:32.31: SIM {TimeUS : 62335056, Roll : 6.43, Pitch : 5.29, Yaw : 352.9, Alt : 590.559997559, Lat : -35.3632628, Lng : 149.1652334, Q1 : 0.995286285877, Q2 : 0.0587900467217, Q3 : 0.0425404421985, Q4 : -0.0643377155066}
2019-04-03 22:22:32.41: SIM {TimeUS : 62435016, Roll : 6.56, Pitch : 5.39, Yaw : 352.88, Alt : 590.58001709, Lat : -35.3632632, Lng : 149.1652341, Q1 : 0.995163619518, Q2 : 0.0599976927042, Q3 : 0.0433899387717, Q4 : -0.064552180469}
2019-04-03 22:22:32.51: SIM {TimeUS : 62534976, Roll : 6.67, Pitch : 5.48, Yaw : 352.87, Alt : 590.609985352, Lat : -35.3632637, Lng : 149.1652351, Q1 : 0.995065629482, Q2 : 0.0609729737043, Q3 : 0.044032227248, Q4 : -0.0647137835622}
2019-04-03 22:22:32.61: SIM {TimeUS : 62634936, Roll : 6.76, Pitch : 5.56, Yaw : 352.87, Alt : 590.630004883, Lat : -35.3632641, Lng : 149.165236, Q1 : 0.994974672794, Q2 : 0.06184932217, Q3 : 0.0447394400835, Q4 : -0.06479626894}
2019-04-03 22:22:32.71: SIM {TimeUS : 62734896, Roll : 6.78, Pitch : 5.84, Yaw : 353.03, Alt : 590.650024414, Lat : -35.3632646, Lng : 149.165237, Q1 : 0.994928717613, Q2 : 0.0620370805264, Q3 : 0.0472061932087, Q4 : -0.0635602548718}
2019-04-03 22:22:32.81: SIM {TimeUS : 62834856, Roll : 6.72, Pitch : 6.4, Yaw : 353.91, Alt : 590.659973145, Lat : -35.3632653, Lng : 149.1652382, Q1 : 0.995141208172, Q2 : 0.061442874372, Q3 : 0.0525503456593, Q4 : -0.056189391762}
2019-04-03 22:22:32.91: SIM {TimeUS : 62934816, Roll : 6.82, Pitch : 7.0, Yaw : 356.2, Alt : 590.679992676, Lat : -35.3632659, Lng : 149.1652394, Q1 : 0.995694458485, Q2 : 0.0614280514419, Q3 : 0.0589454583824, Q4 : -0.036667779088}
2019-04-03 22:22:33.01: SIM {TimeUS : 63034776, Roll : 7.28, Pitch : 7.25, Yaw : 0.16, Alt : 590.690002441, Lat : -35.3632665, Lng : 149.1652406, Q1 : 0.995980739594, Q2 : 0.0633528530598, Q3 : 0.0632605105639, Q4 : -0.0026245105546}
2019-04-03 22:22:33.11: SIM {TimeUS : 63134736, Roll : 8.12, Pitch : 6.94, Yaw : 5.64, Alt : 590.710021973, Lat : -35.3632674, Lng : 149.1652418, Q1 : 0.994655609131, Q2 : 0.067695133388, Q3 : 0.0638322085142, Q4 : 0.0447557047009}
2019-04-03 22:22:33.21: SIM {TimeUS : 63234696, Roll : 9.21, Pitch : 5.96, Yaw : 12.34, Alt : 590.719970703, Lat : -35.3632682, Lng : 149.1652432, Q1 : 0.990095853806, Q2 : 0.0741852074862, Q3 : 0.0601694919169, Q4 : 0.102890186012}
2019-04-03 22:22:33.31: SIM {TimeUS : 63334656, Roll : 10.36, Pitch : 4.35, Yaw : 19.92, Alt : 590.739990234, Lat : -35.3632689, Lng : 149.1652447, Q1 : 0.980778932571, Q2 : 0.0823912471533, Q3 : 0.0528653673828, Q4 : 0.168788775802}
2019-04-03 22:22:33.41: SIM {TimeUS : 63434616, Roll : 11.37, Pitch : 2.23, Yaw : 28.07, Alt : 590.75, Lat : -35.36327, Lng : 149.1652461, Q1 : 0.96564412117, Q2 : 0.0914454311132, Q3 : 0.0428856834769, Q4 : 0.239437013865}
2019-04-03 22:22:33.51: SIM {TimeUS : 63534576, Roll : 12.04, Pitch : -0.21, Yaw : 36.53, Alt : 590.770019531, Lat : -35.363271, Lng : 149.1652476, Q1 : 0.944296419621, Q2 : 0.100240908563, Q3 : 0.0311025884002, Q4 : 0.311911344528}
2019-04-03 22:22:33.61: SIM {TimeUS : 63634536, Roll : 12.26, Pitch : -2.78, Yaw : 45.08, Alt : 590.789978027, Lat : -35.3632719, Lng : 149.1652493, Q1 : 0.917053461075, Q2 : 0.107896983624, Q3 : 0.018605556339, Q4 : 0.383438378572}
2019-04-03 22:22:33.71: SIM {TimeUS : 63734496, Roll : 11.97, Pitch : -5.27, Yaw : 53.49, Alt : 590.799987793, Lat : -35.3632731, Lng : 149.1652511, Q1 : 0.885025978088, Q2 : 0.11366019398, Q3 : 0.0060428683646, Q4 : 0.4514131248}
2019-04-03 22:22:33.81: SIM {TimeUS : 63834456, Roll : 11.26, Pitch : -7.51, Yaw : 61.57, Alt : 590.820007324, Lat : -35.3632742, Lng : 149.1652528, Q1 : 0.849784016609, Q2 : 0.117532491684, Q3 : -0.00583927426487, Q4 : 0.51382791996}
2019-04-03 22:22:33.91: SIM {TimeUS : 63935249, Roll : 10.26, Pitch : -9.38, Yaw : 69.24, Alt : 590.840026855, Lat : -35.3632753, Lng : 149.1652548, Q1 : 0.812696158886, Q2 : 0.119713015854, Q3 : -0.0164117738605, Q4 : 0.570021510124}
2019-04-03 22:22:34.01: SIM {TimeUS : 64035209, Roll : 9.13, Pitch : -10.87, Yaw : 76.27, Alt : 590.849975586, Lat : -35.3632765, Lng : 149.1652569, Q1 : 0.775853037834, Q2 : 0.120665132999, Q3 : -0.0253568384796, Q4 : 0.6187479496}
2019-04-03 22:22:34.11: SIM {TimeUS : 64135169, Roll : 8.0, Pitch : -12.01, Yaw : 82.7, Alt : 590.869995117, Lat : -35.3632777, Lng : 149.165259, Q1 : 0.739896416664, Q2 : 0.121073395014, Q3 : -0.032550830394, Q4 : 0.660934925079}
2019-04-03 22:22:34.21: SIM {TimeUS : 64235129, Roll : 6.96, Pitch : -12.85, Yaw : 88.58, Alt : 590.890014648, Lat : -35.3632789, Lng : 149.1652614, Q1 : 0.705242931843, Q2 : 0.121202178299, Q3 : -0.0378519780934, Q4 : 0.697502434254}
2019-04-03 22:22:34.31: SIM {TimeUS : 64335089, Roll : 6.01, Pitch : -13.49, Yaw : 94.0, Alt : 590.909973145, Lat : -35.3632801, Lng : 149.1652638, Q1 : 0.671811580658, Q2 : 0.121308155358, Q3 : -0.0418886691332, Q4 : 0.729519605637}
2019-04-03 22:22:34.41: SIM {TimeUS : 64435049, Roll : 5.12, Pitch : -13.99, Yaw : 99.1, Alt : 590.929992676, Lat : -35.3632814, Lng : 149.1652662, Q1 : 0.639126956463, Q2 : 0.121366724372, Q3 : -0.0452031418681, Q4 : 0.758118391037}
2019-04-03 22:22:34.51: SIM {TimeUS : 64535009, Roll : 4.24, Pitch : -14.4, Yaw : 104.04, Alt : 590.950012207, Lat : -35.3632827, Lng : 149.1652688, Q1 : 0.606448471546, Q2 : 0.121346667409, Q3 : -0.0481244027615, Q4 : 0.784333646297}
2019-04-03 22:22:34.61: SIM {TimeUS : 64634969, Roll : 3.34, Pitch : -14.74, Yaw : 108.95, Alt : 590.969970703, Lat : -35.363284, Lng : 149.1652714, Q1 : 0.572950303555, Q2 : 0.121198952198, Q3 : -0.0510033294559, Q4 : 0.808973073959}
2019-04-03 22:22:34.71: SIM {TimeUS : 64734929, Roll : 2.28, Pitch : -15.06, Yaw : 113.95, Alt : 590.979980469, Lat : -35.3632853, Lng : 149.1652742, Q1 : 0.537954330444, Q2 : 0.120651304722, Q3 : -0.0548704080284, Q4 : 0.832488834858}
2019-04-03 22:22:34.81: SIM {TimeUS : 64834889, Roll : 0.68, Pitch : -15.35, Yaw : 118.95, Alt : 591.0, Lat : -35.3632868, Lng : 149.165277, Q1 : 0.502607703209, Q2 : 0.118090257049, Q3 : -0.062750518322, Q4 : 0.854109227657}
2019-04-03 22:22:34.91: SIM {TimeUS : 64934849, Roll : -1.36, Pitch : -15.5, Yaw : 123.47, Alt : 591.020019531, Lat : -35.3632883, Lng : 149.1652797, Q1 : 0.470540106297, Q2 : 0.113224081695, Q3 : -0.0742719247937, Q4 : 0.871926605701}
2019-04-03 22:22:35.01: SIM {TimeUS : 65034809, Roll : -3.37, Pitch : -15.44, Yaw : 127.02, Alt : 591.039978027, Lat : -35.3632896, Lng : 149.1652828, Q1 : 0.445272684097, Q2 : 0.107222303748, Q3 : -0.0860441029072, Q4 : 0.884777963161}
2019-04-03 22:22:35.11: SIM {TimeUS : 65134769, Roll : -4.84, Pitch : -15.26, Yaw : 129.32, Alt : 591.059997559, Lat : -35.3632912, Lng : 149.1652858, Q1 : 0.428839802742, Q2 : 0.102031491697, Q3 : -0.0946547314525, Q4 : 0.892595410347}
2019-04-03 22:22:35.21: SIM {TimeUS : 65234729, Roll : -5.49, Pitch : -15.1, Yaw : 130.33, Alt : 591.08001709, Lat : -35.3632926, Lng : 149.1652889, Q1 : 0.421544969082, Q2 : 0.0992307439446, Q3 : -0.0982509031892, Q4 : 0.895991027355}
2019-04-03 22:22:35.31: SIM {TimeUS : 65334689, Roll : -5.32, Pitch : -15.07, Yaw : 130.21, Alt : 591.099975586, Lat : -35.3632942, Lng : 149.165292, Q1 : 0.422365307808, Q2 : 0.0994691625237, Q3 : -0.0969296097755, Q4 : 0.895722091198}
2019-04-03 22:22:35.41: SIM {TimeUS : 65434649, Roll : -4.5, Pitch : -15.19, Yaw : 129.19, Alt : 591.119995117, Lat : -35.3632956, Lng : 149.1652954, Q1 : 0.429558962584, Q2 : 0.102640070021, Q3 : -0.0918270349503, Q4 : 0.892475128174}
2019-04-03 22:22:35.51: SIM {TimeUS : 65534609, Roll : -3.25, Pitch : -15.43, Yaw : 127.55, Alt : 591.140014648, Lat : -35.363297, Lng : 149.1652987, Q1 : 0.441120952368, Q2 : 0.107998117805, Q3 : -0.0845760703087, Q4 : 0.886902213097}
2019-04-03 22:22:35.61: SIM {TimeUS : 65634569, Roll : -1.8, Pitch : -15.72, Yaw : 125.56, Alt : 591.159973145, Lat : -35.3632986, Lng : 149.1653021, Q1 : 0.454966545105, Q2 : 0.114512324333, Q3 : -0.0764710530639, Q4 : 0.879798054695}
2019-04-03 22:22:35.71: SIM {TimeUS : 65734529, Roll : -0.37, Pitch : -15.99, Yaw : 123.5, Alt : 591.190002441, Lat : -35.3633, Lng : 149.1653057, Q1 : 0.469070702791, Q2 : 0.121074184775, Q3 : -0.0686907544732, Q4 : 0.872121155262}
2019-04-03 22:22:35.81: SIM {TimeUS : 65834489, Roll : 0.86, Pitch : -16.19, Yaw : 121.64, Alt : 591.210021973, Lat : -35.3633016, Lng : 149.1653092, Q1 : 0.481735944748, Q2 : 0.12659715116, Q3 : -0.0621629245579, Q4 : 0.864892721176}
2019-04-03 22:22:35.92: SIM {TimeUS : 65935282, Roll : 1.77, Pitch : -16.3, Yaw : 120.15, Alt : 591.229980469, Lat : -35.3633032, Lng : 149.1653127, Q1 : 0.491802573204, Q2 : 0.130572512746, Q3 : -0.0574115775526, Q4 : 0.858944118023}
2019-04-03 22:22:36.01: SIM {TimeUS : 66035242, Roll : 2.3, Pitch : -16.34, Yaw : 119.18, Alt : 591.25, Lat : -35.3633048, Lng : 149.1653163, Q1 : 0.498425781727, Q2 : 0.132679194212, Q3 : -0.0547901466489, Q4 : 0.854965507984}
2019-04-03 22:22:36.11: SIM {TimeUS : 66135202, Roll : 2.45, Pitch : -16.35, Yaw : 118.74, Alt : 591.270019531, Lat : -35.3633066, Lng : 149.1653198, Q1 : 0.501524448395, Q2 : 0.133166149259, Q3 : -0.0542211383581, Q4 : 0.853111982346}
2019-04-03 22:22:36.21: SIM {TimeUS : 66235162, Roll : 2.29, Pitch : -16.36, Yaw : 118.79, Alt : 591.289978027, Lat : -35.3633083, Lng : 149.1653235, Q1 : 0.501325845718, Q2 : 0.132528930902, Q3 : -0.0553783141077, Q4 : 0.853253722191}
2019-04-03 22:22:36.31: SIM {TimeUS : 66335122, Roll : 1.92, Pitch : -16.38, Yaw : 119.25, Alt : 591.309997559, Lat : -35.3633101, Lng : 149.1653272, Q1 : 0.498357176781, Q2 : 0.131347551942, Q3 : -0.057711109519, Q4 : 0.855018973351}
2019-04-03 22:22:36.41: SIM {TimeUS : 66435082, Roll : 1.42, Pitch : -16.44, Yaw : 119.98, Alt : 591.33001709, Lat : -35.3633119, Lng : 149.1653308, Q1 : 0.493402272463, Q2 : 0.130009457469, Q3 : -0.0608885139227, Q4 : 0.857871949673}
2019-04-03 22:22:36.51: SIM {TimeUS : 66535042, Roll : 0.83, Pitch : -16.51, Yaw : 120.86, Alt : 591.349975586, Lat : -35.3633137, Lng : 149.1653345, Q1 : 0.487387657166, Q2 : 0.128447279334, Q3 : -0.0645849704742, Q4 : 0.861268460751}
2019-04-03 22:22:36.61: SIM {TimeUS : 66635002, Roll : 0.23, Pitch : -16.59, Yaw : 121.77, Alt : 591.380004883, Lat : -35.3633156, Lng : 149.1653381, Q1 : 0.481139779091, Q2 : 0.127056375146, Q3 : -0.0683891996741, Q4 : 0.86468732357}
2019-04-03 22:22:36.71: SIM {TimeUS : 66734962, Roll : -0.28, Pitch : -16.67, Yaw : 122.61, Alt : 591.400024414, Lat : -35.3633175, Lng : 149.1653418, Q1 : 0.475379526615, Q2 : 0.126035243273, Q3 : -0.0717474669218, Q4 : 0.867745220661}
2019-04-03 22:22:36.81: SIM {TimeUS : 66834922, Roll : -0.68, Pitch : -16.72, Yaw : 123.28, Alt : 591.41998291, Lat : -35.3633194, Lng : 149.1653457, Q1 : 0.470698088408, Q2 : 0.125181257725, Q3 : -0.07433116436, Q4 : 0.870199918747}
2019-04-03 22:22:36.91: SIM {TimeUS : 66934882, Roll : -0.94, Pitch : -16.76, Yaw : 123.74, Alt : 591.440002441, Lat : -35.3633213, Lng : 149.1653495, Q1 : 0.467421531677, Q2 : 0.124681159854, Q3 : -0.0759354531765, Q4 : 0.871897637844}
2019-04-03 22:22:37.01: SIM {TimeUS : 67034842, Roll : -1.04, Pitch : -16.77, Yaw : 123.99, Alt : 591.460021973, Lat : -35.3633233, Lng : 149.1653533, Q1 : 0.465661436319, Q2 : 0.124575674534, Q3 : -0.0764559656382, Q4 : 0.87280857563}
2019-04-03 22:22:37.11: SIM {TimeUS : 67134802, Roll : -0.99, Pitch : -16.79, Yaw : 124.02, Alt : 591.479980469, Lat : -35.3633252, Lng : 149.1653572, Q1 : 0.465327084064, Q2 : 0.12487962842, Q3 : -0.0761341452599, Q4 : 0.872971594334}
2019-04-03 22:22:37.21: SIM {TimeUS : 67234762, Roll : -0.86, Pitch : -16.8, Yaw : 123.89, Alt : 591.5, Lat : -35.3633272, Lng : 149.165361, Q1 : 0.466194778681, Q2 : 0.125460654497, Q3 : -0.075311280787, Q4 : 0.872496604919}
2019-04-03 22:22:37.31: SIM {TimeUS : 67334722, Roll : -0.67, Pitch : -16.84, Yaw : 123.63, Alt : 591.520019531, Lat : -35.3633291, Lng : 149.1653651, Q1 : 0.467929393053, Q2 : 0.12638220191, Q3 : -0.0743147581816, Q4 : 0.87151992321}
2019-04-03 22:22:37.41: SIM {TimeUS : 67434682, Roll : -0.44, Pitch : -16.89, Yaw : 123.3, Alt : 591.539978027, Lat : -35.3633312, Lng : 149.165369, Q1 : 0.470154464245, Q2 : 0.127505794168, Q3 : -0.0731377527118, Q4 : 0.870257377625}
2019-04-03 22:22:37.51: SIM {TimeUS : 67534642, Roll : -0.19, Pitch : -16.93, Yaw : 122.95, Alt : 591.559997559, Lat : -35.3633332, Lng : 149.165373, Q1 : 0.472523182631, Q2 : 0.128525525331, Q3 : -0.0718020051718, Q4 : 0.868934750557}
2019-04-03 22:22:37.61: SIM {TimeUS : 67634602, Roll : 0.01, Pitch : -16.94, Yaw : 122.62, Alt : 591.590026855, Lat : -35.3633352, Lng : 149.165377, Q1 : 0.474741101265, Q2 : 0.129328906536, Q3 : -0.0706297233701, Q4 : 0.867701768875}
2019-04-03 22:22:37.71: SIM {TimeUS : 67734562, Roll : 0.17, Pitch : -16.97, Yaw : 122.36, Alt : 591.609985352, Lat : -35.3633371, Lng : 149.165381, Q1 : 0.4765612185, Q2 : 0.130061835051, Q3 : -0.0698131844401, Q4 : 0.866659939289}
2019-04-03 22:22:37.81: SIM {TimeUS : 67834522, Roll : 0.28, Pitch : -17.01, Yaw : 122.17, Alt : 591.630004883, Lat : -35.3633392, Lng : 149.165385, Q1 : 0.477842926979, Q2 : 0.130708619952, Q3 : -0.0693578720093, Q4 : 0.865893125534}
2019-04-03 22:22:37.91: SIM {TimeUS : 67934482, Roll : 0.34, Pitch : -17.05, Yaw : 122.06, Alt : 591.650024414, Lat : -35.3633413, Lng : 149.1653891, Q1 : 0.478532373905, Q2 : 0.131170913577, Q3 : -0.0692180544138, Q4 : 0.865453541279}
2019-04-03 22:22:38.02: SIM {TimeUS : 68035275, Roll : 0.33, Pitch : -17.09, Yaw : 122.04, Alt : 591.66998291, Lat : -35.3633434, Lng : 149.1653931, Q1 : 0.47867205739, Q2 : 0.131395608187, Q3 : -0.069444462657, Q4 : 0.86532407999}
2019-04-03 22:22:38.11: SIM {TimeUS : 68135235, Roll : 0.26, Pitch : -17.12, Yaw : 122.09, Alt : 591.690002441, Lat : -35.3633454, Lng : 149.1653973, Q1 : 0.478358149529, Q2 : 0.131420508027, Q3 : -0.0700595080853, Q4 : 0.865444302559}
2019-04-03 22:22:38.21: SIM {TimeUS : 68235195, Roll : 0.15, Pitch : -17.16, Yaw : 122.19, Alt : 591.710021973, Lat : -35.3633474, Lng : 149.1654013, Q1 : 0.477719038725, Q2 : 0.131248220801, Q3 : -0.0709542781115, Q4 : 0.865750551224}
2019-04-03 22:22:38.31: SIM {TimeUS : 68335155, Roll : 0.02, Pitch : -17.18, Yaw : 122.32, Alt : 591.739990234, Lat : -35.3633496, Lng : 149.1654055, Q1 : 0.476889163256, Q2 : 0.131024956703, Q3 : -0.0718682855368, Q4 : 0.866166353226}
2019-04-03 22:22:38.41: SIM {TimeUS : 68435115, Roll : -0.07, Pitch : -17.2, Yaw : 122.45, Alt : 591.760009766, Lat : -35.3633517, Lng : 149.1654096, Q1 : 0.475994199514, Q2 : 0.130777195096, Q3 : -0.0725765004754, Q4 : 0.866636931896}
2019-04-03 22:22:38.51: SIM {TimeUS : 68535075, Roll : -0.16, Pitch : -17.2, Yaw : 122.58, Alt : 591.780029297, Lat : -35.3633539, Lng : 149.1654137, Q1 : 0.475161463022, Q2 : 0.130516514182, Q3 : -0.0731308162212, Q4 : 0.867086470127}
2019-04-03 22:22:38.61: SIM {TimeUS : 68635035, Roll : -0.22, Pitch : -17.22, Yaw : 122.67, Alt : 591.799987793, Lat : -35.3633559, Lng : 149.1654179, Q1 : 0.474462658167, Q2 : 0.130444139242, Q3 : -0.0734916254878, Q4 : 0.867449402809}
2019-04-03 22:22:38.71: SIM {TimeUS : 68734995, Roll : -0.23, Pitch : -17.25, Yaw : 122.74, Alt : 591.820007324, Lat : -35.3633582, Lng : 149.1654221, Q1 : 0.473941683769, Q2 : 0.130664333701, Q3 : -0.0736714601517, Q4 : 0.86768579483}
2019-04-03 22:22:38.81: SIM {TimeUS : 68834955, Roll : -0.22, Pitch : -17.29, Yaw : 122.78, Alt : 591.840026855, Lat : -35.3633602, Lng : 149.1654263, Q1 : 0.473641246557, Q2 : 0.131028324366, Q3 : -0.073690623045, Q4 : 0.867793321609}
2019-04-03 22:22:38.91: SIM {TimeUS : 68934915, Roll : -0.2, Pitch : -17.32, Yaw : 122.78, Alt : 591.859985352, Lat : -35.3633624, Lng : 149.1654304, Q1 : 0.473564654589, Q2 : 0.131368920207, Q3 : -0.0736777558923, Q4 : 0.867784738541}
2019-04-03 22:22:39.01: SIM {TimeUS : 69034875, Roll : -0.19, Pitch : -17.35, Yaw : 122.76, Alt : 591.890014648, Lat : -35.3633646, Lng : 149.1654347, Q1 : 0.473715513945, Q2 : 0.131635650992, Q3 : -0.0737077593803, Q4 : 0.867659449577}
2019-04-03 22:22:39.11: SIM {TimeUS : 69134835, Roll : -0.17, Pitch : -17.36, Yaw : 122.71, Alt : 591.909973145, Lat : -35.3633668, Lng : 149.165439, Q1 : 0.474039971828, Q2 : 0.131749302149, Q3 : -0.0736815780401, Q4 : 0.867467164993}
2019-04-03 22:22:39.21: SIM {TimeUS : 69234795, Roll : -0.15, Pitch : -17.38, Yaw : 122.65, Alt : 591.929992676, Lat : -35.3633689, Lng : 149.1654432, Q1 : 0.474448889494, Q2 : 0.131953284144, Q3 : -0.0736831054091, Q4 : 0.867212474346}
2019-04-03 22:22:39.31: SIM {TimeUS : 69334755, Roll : -0.12, Pitch : -17.41, Yaw : 122.59, Alt : 591.950012207, Lat : -35.3633711, Lng : 149.1654475, Q1 : 0.474879652262, Q2 : 0.132217273116, Q3 : -0.0736669227481, Q4 : 0.866937816143}
2019-04-03 22:22:39.41: SIM {TimeUS : 69434715, Roll : -0.11, Pitch : -17.45, Yaw : 122.53, Alt : 591.969970703, Lat : -35.3633733, Lng : 149.1654517, Q1 : 0.475291252136, Q2 : 0.132592797279, Q3 : -0.0737829878926, Q4 : 0.866644978523}
2019-04-03 22:22:39.51: SIM {TimeUS : 69534675, Roll : -0.09, Pitch : -17.49, Yaw : 122.48, Alt : 591.989990234, Lat : -35.3633754, Lng : 149.165456, Q1 : 0.475646078587, Q2 : 0.132932126522, Q3 : -0.0738783404231, Q4 : 0.866390109062}
2019-04-03 22:22:39.61: SIM {TimeUS : 69634635, Roll : -0.07, Pitch : -17.52, Yaw : 122.43, Alt : 592.010009766, Lat : -35.3633777, Lng : 149.1654603, Q1 : 0.47592023015, Q2 : 0.133200258017, Q3 : -0.0739445835352, Q4 : 0.866192758083}
2019-04-03 22:22:39.71: SIM {TimeUS : 69734595, Roll : -0.05, Pitch : -17.54, Yaw : 122.41, Alt : 592.030029297, Lat : -35.3633799, Lng : 149.1654646, Q1 : 0.476101189852, Q2 : 0.133412733674, Q3 : -0.0738945752382, Q4 : 0.866064846516}
2019-04-03 22:22:39.81: SIM {TimeUS : 69834555, Roll : -0.03, Pitch : -17.55, Yaw : 122.39, Alt : 592.049987793, Lat : -35.363382, Lng : 149.1654688, Q1 : 0.47619369626, Q2 : 0.133524790406, Q3 : -0.0738040059805, Q4 : 0.86600446701}
2019-04-03 22:22:39.91: SIM {TimeUS : 69934515, Roll : -0.03, Pitch : -17.54, Yaw : 122.39, Alt : 592.08001709, Lat : -35.3633843, Lng : 149.1654731, Q1 : 0.476220786572, Q2 : 0.133494585752, Q3 : -0.0737099349499, Q4 : 0.866002202034}
