2019-04-03 18:44:06.50: SIM {TimeUS : 734516076, Roll : 0.0, Pitch : 0.0, Yaw : 353.0, Alt : 584.090026855, Lat : -35.363261, Lng : 149.1652299, Q1 : 0.998134791851, Q2 : 0.0, Q3 : 0.0, Q4 : -0.0610485821962}
2019-04-03 18:44:06.60: SIM {TimeUS : 734616036, Roll : 0.0, Pitch : 0.0, Yaw : 353.0, Alt : 584.090026855, Lat : -35.363261, Lng : 149.1652299, Q1 : 0.998134791851, Q2 : 0.0, Q3 : 0.0, Q4 : -0.0610485821962}
2019-04-03 18:44:06.69: SIM {TimeUS : 734715996, Roll : 0.0, Pitch : 0.0, Yaw : 353.0, Alt : 584.090026855, Lat : -35.363261, Lng : 149.1652299, Q1 : 0.998134791851, Q2 : 0.0, Q3 : 0.0, Q4 : -0.0610485821962}
2019-04-03 18:44:06.79: SIM {TimeUS : 734815956, Roll : 0.0, Pitch : 0.0, Yaw : 353.0, Alt : 584.090026855, Lat : -35.363261, Lng : 149.1652299, Q1 : 0.998134791851, Q2 : 0.0, Q3 : 0.0, Q4 : -0.0610485821962}
2019-04-03 18:44:06.89: SIM {TimeUS : 734915916, Roll : 0.0, Pitch : 0.0, Yaw : 353.0, Alt : 584.090026855, Lat : -35.363261, Lng : 149.1652299, Q1 : 0.998134791851, Q2 : 0.0, Q3 : 0.0, Q4 : -0.0610485821962}
2019-04-03 18:44:06.99: SIM {TimeUS : 735015876, Roll : 0.0, Pitch : 0.0, Yaw : 353.0, Alt : 584.090026855, Lat : -35.363261, Lng : 149.1652299, Q1 : 0.998134791851, Q2 : 0.0, Q3 : 0.0, Q4 : -0.0610485821962}
2019-04-03 18:44:07.09: SIM {TimeUS : 735115836, Roll : 0.0, Pitch : 0.0, Yaw : 353.0, Alt : 584.090026855, Lat : -35.363261, Lng : 149.1652299, Q1 : 0.998134791851, Q2 : 0.0, Q3 : 0.0, Q4 : -0.0610485821962}
2019-04-03 18:44:07.19: SIM {TimeUS : 735215796, Roll : 0.0, Pitch : 0.0, Yaw : 353.0, Alt : 584.090026855, Lat : -35.363261, Lng : 149.1652299, Q1 : 0.998134791851, Q2 : 0.0, Q3 : 0.0, Q4 : -0.0610485821962}
2019-04-03 18:44:07.29: SIM {TimeUS : 735315756, Roll : 0.0, Pitch : 0.0, Yaw : 353.0, Alt : 584.090026855, Lat : -35.363261, Lng : 149.1652299, Q1 : 0.998134791851, Q2 : 0.0, Q3 : 0.0, Q4 : -0.0610485821962}
2019-04-03 18:44:07.39: SIM {TimeUS : 735415716, Roll : 0.0, Pitch : 0.0, Yaw : 353.0, Alt : 584.090026855, Lat : -35.363261, Lng : 149.1652299, Q1 : 0.998134791851, Q2 : 0.0, Q3 : 0.0, Q4 : -0.0610485821962}
2019-04-03 18:44:07.49: SIM {TimeUS : 735515676, Roll : 0.0, Pitch : 0.0, Yaw : 353.0, Alt : 584.090026855, Lat : -35.363261, Lng : 149.1652299, Q1 : 0.998134791851, Q2 : 0.0, Q3 : 0.0, Q4 : -0.0610485821962}
2019-04-03 18:44:07.60: SIM {TimeUS : 735616469, Roll : 0.0, Pitch : 0.0, Yaw : 353.0, Alt : 584.090026855, Lat : -35.363261, Lng : 149.1652299, Q1 : 0.998134791851, Q2 : 0.0, Q3 : 0.0, Q4 : -0.0610485821962}
2019-04-03 18:44:07.70: SIM {TimeUS : 735716429, Roll : 0.0, Pitch : 0.0, Yaw : 353.0, Alt : 584.090026855, Lat : -35.363261, Lng : 149.1652299, Q1 : 0.998134791851, Q2 : 0.0, Q3 : 0.0, Q4 : -0.0610485821962}
2019-04-03 18:44:07.80: SIM {TimeUS : 735816389, Roll : 0.0, Pitch : 0.0, Yaw : 353.0, Alt : 584.090026855, Lat : -35.363261, Lng : 149.1652299, Q1 : 0.998134791851, Q2 : 0.0, Q3 : 0.0, Q4 : -0.0610485821962}
2019-04-03 18:44:07.90: SIM {TimeUS : 735916349, Roll : 0.0, Pitch : 0.0, Yaw : 353.0, Alt : 584.090026855, Lat : -35.363261, Lng : 149.1652299, Q1 : 0.998134791851, Q2 : 0.0, Q3 : 0.0, Q4 : -0.0610485821962}
2019-04-03 18:44:08.00: SIM {TimeUS : 736016309, Roll : 0.0, Pitch : 0.0, Yaw : 353.0, Alt : 584.090026855, Lat : -35.363261, Lng : 149.1652299, Q1 : 0.998134791851, Q2 : 0.0, Q3 : 0.0, Q4 : -0.0610485821962}
2019-04-03 18:44:08.10: SIM {TimeUS : 736116269, Roll : 0.0, Pitch : 0.0, Yaw : 353.0, Alt : 584.090026855, Lat : -35.363261, Lng : 149.1652299, Q1 : 0.998134791851, Q2 : 0.0, Q3 : 0.0, Q4 : -0.0610485821962}
2019-04-03 18:44:08.20: SIM {TimeUS : 736216229, Roll : 0.0, Pitch : 0.0, Yaw : 353.0, Alt : 584.090026855, Lat : -35.363261, Lng : 149.1652299, Q1 : 0.998134791851, Q2 : 0.0, Q3 : 0.0, Q4 : -0.0610485821962}
2019-04-03 18:44:08.30: SIM {TimeUS : 736316189, Roll : 0.0, Pitch : 0.0, Yaw : 353.0, Alt : 584.090026855, Lat : -35.363261, Lng : 149.1652299, Q1 : 0.998134791851, Q2 : 0.0, Q3 : 0.0, Q4 : -0.0610485821962}
2019-04-03 18:44:08.40: SIM {TimeUS : 736416149, Roll : 0.0, Pitch : 0.0, Yaw : 353.0, Alt : 584.090026855, Lat : -35.363261, Lng : 149.1652299, Q1 : 0.998134791851, Q2 : 0.0, Q3 : 0.0, Q4 : -0.0610485821962}
2019-04-03 18:44:08.50: SIM {TimeUS : 736516109, Roll : 0.0, Pitch : 0.0, Yaw : 353.0, Alt : 584.090026855, Lat : -35.363261, Lng : 149.1652299, Q1 : 0.998134791851, Q2 : 0.0, Q3 : 0.0, Q4 : -0.0610485821962}
2019-04-03 18:44:08.60: SIM {TimeUS : 736616069, Roll : 0.0, Pitch : 0.0, Yaw : 353.0, Alt : 584.090026855, Lat : -35.363261, Lng : 149.1652299, Q1 : 0.998134791851, Q2 : 0.0, Q3 : 0.0, Q4 : -0.0610485821962}
2019-04-03 18:44:08.69: SIM {TimeUS : 736716029, Roll : 0.0, Pitch : 0.0, Yaw : 353.0, Alt : 584.090026855, Lat : -35.363261, Lng : 149.1652299, Q1 : 0.998134791851, Q2 : 0.0, Q3 : 0.0, Q4 : -0.0610485821962}
2019-04-03 18:44:08.79: SIM {TimeUS : 736815989, Roll : 0.0, Pitch : 0.0, Yaw : 353.0, Alt : 584.090026855, Lat : -35.363261, Lng : 149.1652299, Q1 : 0.998134791851, Q2 : 0.0, Q3 : 0.0, Q4 : -0.0610485821962}
2019-04-03 18:44:08.89: SIM {TimeUS : 736915949, Roll : 0.0, Pitch : 0.0, Yaw : 353.0, Alt : 584.090026855, Lat : -35.363261, Lng : 149.1652299, Q1 : 0.998134791851, Q2 : 0.0, Q3 : 0.0, Q4 : -0.0610485821962}
2019-04-03 18:44:08.99: SIM {TimeUS : 737015909, Roll : 0.0, Pitch : 0.0, Yaw : 353.0, Alt : 584.090026855, Lat : -35.363261, Lng : 149.1652299, Q1 : 0.998134791851, Q2 : 0.0, Q3 : 0.0, Q4 : -0.0610485821962}
2019-04-03 18:44:09.09: SIM {TimeUS : 737115869, Roll : 0.0, Pitch : 0.0, Yaw : 353.0, Alt : 584.090026855, Lat : -35.363261, Lng : 149.1652299, Q1 : 0.998134791851, Q2 : 0.0, Q3 : 0.0, Q4 : -0.0610485821962}
2019-04-03 18:44:09.19: SIM {TimeUS : 737215829, Roll : 0.0, Pitch : 0.0, Yaw : 353.0, Alt : 584.090026855, Lat : -35.363261, Lng : 149.1652299, Q1 : 0.998134791851, Q2 : 0.0, Q3 : 0.0, Q4 : -0.0610485821962}
2019-04-03 18:44:09.29: SIM {TimeUS : 737315789, Roll : 0.0, Pitch : 0.0, Yaw : 353.0, Alt : 584.090026855, Lat : -35.363261, Lng : 149.1652299, Q1 : 0.998134791851, Q2 : 0.0, Q3 : 0.0, Q4 : -0.0610485821962}
2019-04-03 18:44:09.39: SIM {TimeUS : 737415749, Roll : 0.0, Pitch : 0.0, Yaw : 353.0, Alt : 584.090026855, Lat : -35.363261, Lng : 149.1652299, Q1 : 0.998134791851, Q2 : 0.0, Q3 : 0.0, Q4 : -0.0610485821962}
2019-04-03 18:44:09.49: SIM {TimeUS : 737515709, Roll : 0.0, Pitch : 0.0, Yaw : 353.0, Alt : 584.090026855, Lat : -35.363261, Lng : 149.1652299, Q1 : 0.998134791851, Q2 : 0.0, Q3 : 0.0, Q4 : -0.0610485821962}
2019-04-03 18:44:09.59: SIM {TimeUS : 737615669, Roll : 0.0, Pitch : 0.0, Yaw : 353.0, Alt : 584.090026855, Lat : -35.363261, Lng : 149.1652299, Q1 : 0.998134791851, Q2 : 0.0, Q3 : 0.0, Q4 : -0.0610485821962}
2019-04-03 18:44:09.70: SIM {TimeUS : 737716462, Roll : 0.0, Pitch : 0.0, Yaw : 353.0, Alt : 584.090026855, Lat : -35.363261, Lng : 149.1652299, Q1 : 0.998134791851, Q2 : 0.0, Q3 : 0.0, Q4 : -0.0610485821962}
2019-04-03 18:44:09.80: SIM {TimeUS : 737816422, Roll : 0.0, Pitch : 0.0, Yaw : 353.0, Alt : 584.090026855, Lat : -35.363261, Lng : 149.1652299, Q1 : 0.998134791851, Q2 : 0.0, Q3 : 0.0, Q4 : -0.0610485821962}
2019-04-03 18:44:09.90: SIM {TimeUS : 737916382, Roll : 0.0, Pitch : 0.0, Yaw : 353.0, Alt : 584.090026855, Lat : -35.363261, Lng : 149.1652299, Q1 : 0.998134791851, Q2 : 0.0, Q3 : 0.0, Q4 : -0.0610485821962}
2019-04-03 18:44:10.00: SIM {TimeUS : 738016342, Roll : 0.0, Pitch : 0.0, Yaw : 353.0, Alt : 584.090026855, Lat : -35.363261, Lng : 149.1652299, Q1 : 0.998134791851, Q2 : 0.0, Q3 : 0.0, Q4 : -0.0610485821962}
2019-04-03 18:44:10.10: SIM {TimeUS : 738116302, Roll : 0.0, Pitch : 0.0, Yaw : 353.0, Alt : 584.090026855, Lat : -35.363261, Lng : 149.1652299, Q1 : 0.998134791851, Q2 : 0.0, Q3 : 0.0, Q4 : -0.0610485821962}
2019-04-03 18:44:10.20: SIM {TimeUS : 738216262, Roll : 0.0, Pitch : 0.0, Yaw : 353.0, Alt : 584.090026855, Lat : -35.363261, Lng : 149.1652299, Q1 : 0.998134791851, Q2 : 0.0, Q3 : 0.0, Q4 : -0.0610485821962}
2019-04-03 18:44:10.30: SIM {TimeUS : 738316222, Roll : 0.0, Pitch : 0.0, Yaw : 353.0, Alt : 584.090026855, Lat : -35.363261, Lng : 149.1652299, Q1 : 0.998134791851, Q2 : 0.0, Q3 : 0.0, Q4 : -0.0610485821962}
2019-04-03 18:44:10.40: SIM {TimeUS : 738416182, Roll : 0.0, Pitch : 0.0, Yaw : 353.0, Alt : 584.090026855, Lat : -35.363261, Lng : 149.1652299, Q1 : 0.998134791851, Q2 : 0.0, Q3 : 0.0, Q4 : -0.0610485821962}
2019-04-03 18:44:10.50: SIM {TimeUS : 738516142, Roll : 0.0, Pitch : 0.0, Yaw : 353.0, Alt : 584.090026855, Lat : -35.363261, Lng : 149.1652299, Q1 : 0.998134791851, Q2 : 0.0, Q3 : 0.0, Q4 : -0.0610485821962}
2019-04-03 18:44:10.60: SIM {TimeUS : 738616102, Roll : 0.0, Pitch : 0.0, Yaw : 353.0, Alt : 584.090026855, Lat : -35.363261, Lng : 149.1652299, Q1 : 0.998134791851, Q2 : 0.0, Q3 : 0.0, Q4 : -0.0610485821962}
2019-04-03 18:44:10.70: SIM {TimeUS : 738716062, Roll : 0.0, Pitch : 0.0, Yaw : 353.0, Alt : 584.090026855, Lat : -35.363261, Lng : 149.1652299, Q1 : 0.998134791851, Q2 : 0.0, Q3 : 0.0, Q4 : -0.0610485821962}
2019-04-03 18:44:10.79: SIM {TimeUS : 738816022, Roll : 0.0, Pitch : 0.0, Yaw : 353.0, Alt : 584.090026855, Lat : -35.363261, Lng : 149.1652299, Q1 : 0.998134791851, Q2 : 0.0, Q3 : 0.0, Q4 : -0.0610485821962}
2019-04-03 18:44:10.89: SIM {TimeUS : 738915982, Roll : 0.0, Pitch : 0.0, Yaw : 353.0, Alt : 584.090026855, Lat : -35.363261, Lng : 149.1652299, Q1 : 0.998134791851, Q2 : 0.0, Q3 : 0.0, Q4 : -0.0610485821962}
2019-04-03 18:44:10.99: SIM {TimeUS : 739015942, Roll : 0.0, Pitch : 0.0, Yaw : 353.0, Alt : 584.090026855, Lat : -35.363261, Lng : 149.1652299, Q1 : 0.998134791851, Q2 : 0.0, Q3 : 0.0, Q4 : -0.0610485821962}
2019-04-03 18:44:11.09: SIM {TimeUS : 739115902, Roll : 0.0, Pitch : 0.0, Yaw : 353.0, Alt : 584.090026855, Lat : -35.363261, Lng : 149.1652299, Q1 : 0.998134791851, Q2 : 0.0, Q3 : 0.0, Q4 : -0.0610485821962}
2019-04-03 18:44:11.19: SIM {TimeUS : 739215862, Roll : 0.0, Pitch : 0.0, Yaw : 353.0, Alt : 584.090026855, Lat : -35.363261, Lng : 149.1652299, Q1 : 0.998134791851, Q2 : 0.0, Q3 : 0.0, Q4 : -0.0610485821962}
2019-04-03 18:44:11.29: SIM {TimeUS : 739315822, Roll : 0.0, Pitch : 0.0, Yaw : 353.0, Alt : 584.090026855, Lat : -35.363261, Lng : 149.1652299, Q1 : 0.998134791851, Q2 : 0.0, Q3 : 0.0, Q4 : -0.0610485821962}
2019-04-03 18:44:11.39: SIM {TimeUS : 739415782, Roll : 0.0, Pitch : 0.0, Yaw : 353.0, Alt : 584.090026855, Lat : -35.363261, Lng : 149.1652299, Q1 : 0.998134791851, Q2 : 0.0, Q3 : 0.0, Q4 : -0.0610485821962}
2019-04-03 18:44:11.49: SIM {TimeUS : 739515742, Roll : 0.0, Pitch : 0.0, Yaw : 353.0, Alt : 584.090026855, Lat : -35.363261, Lng : 149.1652299, Q1 : 0.998134791851, Q2 : 0.0, Q3 : 0.0, Q4 : -0.0610485821962}
2019-04-03 18:44:11.59: SIM {TimeUS : 739615702, Roll : 0.0, Pitch : 0.0, Yaw : 353.0, Alt : 584.090026855, Lat : -35.363261, Lng : 149.1652299, Q1 : 0.998134791851, Q2 : 0.0, Q3 : 0.0, Q4 : -0.0610485821962}
2019-04-03 18:44:11.69: SIM {TimeUS : 739715662, Roll : 0.0, Pitch : 0.0, Yaw : 353.0, Alt : 584.090026855, Lat : -35.363261, Lng : 149.1652299, Q1 : 0.998134791851, Q2 : 0.0, Q3 : 0.0, Q4 : -0.0610485821962}
2019-04-03 18:44:11.80: SIM {TimeUS : 739816455, Roll : 0.0, Pitch : 0.0, Yaw : 353.0, Alt : 584.090026855, Lat : -35.363261, Lng : 149.1652299, Q1 : 0.998134791851, Q2 : 0.0, Q3 : 0.0, Q4 : -0.0610485821962}
2019-04-03 18:44:11.90: SIM {TimeUS : 739916415, Roll : 0.0, Pitch : 0.0, Yaw : 353.0, Alt : 584.090026855, Lat : -35.363261, Lng : 149.1652299, Q1 : 0.998134791851, Q2 : 0.0, Q3 : 0.0, Q4 : -0.0610485821962}
2019-04-03 18:44:12.00: SIM {TimeUS : 740016375, Roll : 0.0, Pitch : 0.0, Yaw : 353.0, Alt : 584.090026855, Lat : -35.363261, Lng : 149.1652299, Q1 : 0.998134791851, Q2 : 0.0, Q3 : 0.0, Q4 : -0.0610485821962}
2019-04-03 18:44:12.10: SIM {TimeUS : 740116335, Roll : 0.0, Pitch : 0.0, Yaw : 353.0, Alt : 584.090026855, Lat : -35.363261, Lng : 149.1652299, Q1 : 0.998134791851, Q2 : 0.0, Q3 : 0.0, Q4 : -0.0610485821962}
2019-04-03 18:44:12.20: SIM {TimeUS : 740216295, Roll : 0.0, Pitch : 0.0, Yaw : 353.0, Alt : 584.090026855, Lat : -35.363261, Lng : 149.1652299, Q1 : 0.998134791851, Q2 : 0.0, Q3 : 0.0, Q4 : -0.0610485821962}
2019-04-03 18:44:12.30: SIM {TimeUS : 740316255, Roll : 0.0, Pitch : 0.0, Yaw : 353.0, Alt : 584.090026855, Lat : -35.363261, Lng : 149.1652299, Q1 : 0.998134791851, Q2 : 0.0, Q3 : 0.0, Q4 : -0.0610485821962}
2019-04-03 18:44:12.40: SIM {TimeUS : 740416215, Roll : 0.0, Pitch : 0.0, Yaw : 353.0, Alt : 584.090026855, Lat : -35.363261, Lng : 149.1652299, Q1 : 0.998134791851, Q2 : 0.0, Q3 : 0.0, Q4 : -0.0610485821962}
2019-04-03 18:44:12.50: SIM {TimeUS : 740516175, Roll : 0.0, Pitch : 0.0, Yaw : 353.0, Alt : 584.090026855, Lat : -35.363261, Lng : 149.1652299, Q1 : 0.998134791851, Q2 : 0.0, Q3 : 0.0, Q4 : -0.0610485821962}
2019-04-03 18:44:12.60: SIM {TimeUS : 740616135, Roll : 0.0, Pitch : 0.0, Yaw : 353.0, Alt : 584.090026855, Lat : -35.363261, Lng : 149.1652299, Q1 : 0.998134791851, Q2 : 0.0, Q3 : 0.0, Q4 : -0.0610485821962}
2019-04-03 18:44:12.70: SIM {TimeUS : 740716095, Roll : 0.0, Pitch : 0.0, Yaw : 353.0, Alt : 584.090026855, Lat : -35.363261, Lng : 149.1652299, Q1 : 0.998134791851, Q2 : 0.0, Q3 : 0.0, Q4 : -0.0610485821962}
2019-04-03 18:44:12.80: SIM {TimeUS : 740816055, Roll : 0.0, Pitch : 0.0, Yaw : 353.0, Alt : 584.090026855, Lat : -35.363261, Lng : 149.1652299, Q1 : 0.998134791851, Q2 : 0.0, Q3 : 0.0, Q4 : -0.0610485821962}
2019-04-03 18:44:12.89: SIM {TimeUS : 740916015, Roll : 0.0, Pitch : 0.0, Yaw : 353.0, Alt : 584.090026855, Lat : -35.363261, Lng : 149.1652299, Q1 : 0.998134791851, Q2 : 0.0, Q3 : 0.0, Q4 : -0.0610485821962}
2019-04-03 18:44:12.99: SIM {TimeUS : 741015975, Roll : 0.0, Pitch : 0.0, Yaw : 353.0, Alt : 584.090026855, Lat : -35.363261, Lng : 149.1652299, Q1 : 0.998134791851, Q2 : 0.0, Q3 : 0.0, Q4 : -0.0610485821962}
2019-04-03 18:44:13.09: SIM {TimeUS : 741115935, Roll : 0.0, Pitch : 0.0, Yaw : 353.0, Alt : 584.090026855, Lat : -35.363261, Lng : 149.1652299, Q1 : 0.998134791851, Q2 : 0.0, Q3 : 0.0, Q4 : -0.0610485933721}
2019-04-03 18:44:13.19: SIM {TimeUS : 741215895, Roll : 0.0, Pitch : 0.0, Yaw : 353.0, Alt : 584.090026855, Lat : -35.363261, Lng : 149.1652299, Q1 : 0.998134791851, Q2 : 0.0, Q3 : 0.0, Q4 : -0.0610486753285}
2019-04-03 18:44:13.29: SIM {TimeUS : 741315855, Roll : 0.0, Pitch : 0.0, Yaw : 353.0, Alt : 584.090026855, Lat : -35.363261, Lng : 149.1652299, Q1 : 0.998134791851, Q2 : 0.0, Q3 : 0.0, Q4 : -0.0610486753285}
2019-04-03 18:44:13.39: SIM {TimeUS : 741415815, Roll : 0.0, Pitch : 0.0, Yaw : 353.0, Alt : 584.090026855, Lat : -35.363261, Lng : 149.1652299, Q1 : 0.998134791851, Q2 : 0.0, Q3 : 0.0, Q4 : -0.0610486753285}
2019-04-03 18:44:13.49: SIM {TimeUS : 741515775, Roll : 0.0, Pitch : 0.0, Yaw : 353.0, Alt : 584.090026855, Lat : -35.363261, Lng : 149.1652299, Q1 : 0.998134791851, Q2 : 0.0, Q3 : 0.0, Q4 : -0.0610486753285}
2019-04-03 18:44:13.59: SIM {TimeUS : 741615735, Roll : 0.0, Pitch : 0.0, Yaw : 353.0, Alt : 584.090026855, Lat : -35.363261, Lng : 149.1652299, Q1 : 0.998134791851, Q2 : 0.0, Q3 : 0.0, Q4 : -0.0610486753285}
2019-04-03 18:44:13.69: SIM {TimeUS : 741715695, Roll : 0.0, Pitch : 0.0, Yaw : 353.0, Alt : 584.090026855, Lat : -35.363261, Lng : 149.1652299, Q1 : 0.998134791851, Q2 : 0.0, Q3 : 0.0, Q4 : -0.0610486753285}
2019-04-03 18:44:13.80: SIM {TimeUS : 741816488, Roll : 0.0, Pitch : 0.0, Yaw : 353.0, Alt : 584.090026855, Lat : -35.363261, Lng : 149.1652299, Q1 : 0.998134791851, Q2 : 0.0, Q3 : 0.0, Q4 : -0.0610486753285}
2019-04-03 18:44:13.90: SIM {TimeUS : 741916448, Roll : 0.0, Pitch : 0.0, Yaw : 353.0, Alt : 584.090026855, Lat : -35.363261, Lng : 149.1652299, Q1 : 0.998134791851, Q2 : 0.0, Q3 : 0.0, Q4 : -0.0610486753285}
2019-04-03 18:44:14.00: SIM {TimeUS : 742016408, Roll : 0.0, Pitch : 0.0, Yaw : 353.0, Alt : 584.099975586, Lat : -35.363261, Lng : 149.1652299, Q1 : 0.998134791851, Q2 : 0.0, Q3 : 0.0, Q4 : -0.0610486753285}
2019-04-03 18:44:14.10: SIM {TimeUS : 742116368, Roll : 0.0, Pitch : 0.0, Yaw : 353.0, Alt : 584.099975586, Lat : -35.363261, Lng : 149.1652299, Q1 : 0.998134791851, Q2 : 0.0, Q3 : 0.0, Q4 : -0.0610486753285}
2019-04-03 18:44:14.20: SIM {TimeUS : 742216328, Roll : 0.0, Pitch : 0.0, Yaw : 353.0, Alt : 584.119995117, Lat : -35.363261, Lng : 149.1652299, Q1 : 0.998134791851, Q2 : 0.0, Q3 : 0.0, Q4 : -0.0610486865044}
2019-04-03 18:44:14.30: SIM {TimeUS : 742316288, Roll : 0.0, Pitch : 0.0, Yaw : 353.0, Alt : 584.140014648, Lat : -35.363261, Lng : 149.1652299, Q1 : 0.998134791851, Q2 : 0.0, Q3 : 0.0, Q4 : -0.0610486865044}
2019-04-03 18:44:14.40: SIM {TimeUS : 742416248, Roll : 0.0, Pitch : 0.0, Yaw : 353.0, Alt : 584.16998291, Lat : -35.363261, Lng : 149.1652299, Q1 : 0.998134791851, Q2 : 0.0, Q3 : 0.0, Q4 : -0.0610486753285}
2019-04-03 18:44:14.50: SIM {TimeUS : 742516208, Roll : 0.0, Pitch : 0.0, Yaw : 352.99, Alt : 584.210021973, Lat : -35.363261, Lng : 149.1652299, Q1 : 0.998134791851, Q2 : -7.11960069566e-07, Q3 : -6.32380420029e-07, Q4 : -0.0610487237573}
2019-04-03 18:44:14.60: SIM {TimeUS : 742616168, Roll : -0.04, Pitch : -0.02, Yaw : 352.99, Alt : 584.270019531, Lat : -35.363261, Lng : 149.1652299, Q1 : 0.998133063316, Q2 : -0.000366677792044, Q3 : -0.000224258692469, Q4 : -0.0610757917166}
2019-04-03 18:44:14.70: SIM {TimeUS : 742716128, Roll : -0.1, Pitch : -0.09, Yaw : 352.98, Alt : 584.380004883, Lat : -35.363261, Lng : 149.1652299, Q1 : 0.998128175735, Q2 : -0.000992245506495, Q3 : -0.000787001568824, Q4 : -0.0611438639462}
2019-04-03 18:44:14.80: SIM {TimeUS : 742816088, Roll : -0.19, Pitch : -0.16, Yaw : 352.97, Alt : 584.530029297, Lat : -35.363261, Lng : 149.1652299, Q1 : 0.998120427132, Q2 : -0.00178294419311, Q3 : -0.0013647431042, Q4 : -0.0612419322133}
2019-04-03 18:44:14.90: SIM {TimeUS : 742916048, Roll : -0.25, Pitch : -0.2, Yaw : 352.96, Alt : 584.690002441, Lat : -35.363261, Lng : 149.1652299, Q1 : 0.998111486435, Q2 : -0.0022983897943, Q3 : -0.00165507325437, Q4 : -0.061363786459}
2019-04-03 18:44:14.99: SIM {TimeUS : 743016008, Roll : -0.24, Pitch : -0.2, Yaw : 352.94, Alt : 584.840026855, Lat : -35.363261, Lng : 149.1652299, Q1 : 0.998103618622, Q2 : -0.00225188932382, Q3 : -0.00168126414064, Q4 : -0.0614919364452}
2019-04-03 18:44:15.09: SIM {TimeUS : 743115968, Roll : -0.17, Pitch : -0.18, Yaw : 352.93, Alt : 585.0, Lat : -35.363261, Lng : 149.1652299, Q1 : 0.998097419739, Q2 : -0.00166125549003, Q3 : -0.00149511836935, Q4 : -0.0616163536906}
2019-04-03 18:44:15.19: SIM {TimeUS : 743215928, Roll : -0.1, Pitch : -0.14, Yaw : 352.92, Alt : 585.150024414, Lat : -35.363261, Lng : 149.1652299, Q1 : 0.998091995716, Q2 : -0.000955273397267, Q3 : -0.00118301727343, Q4 : -0.0617256239057}
2019-04-03 18:44:15.29: SIM {TimeUS : 743315888, Roll : -0.04, Pitch : -0.1, Yaw : 352.91, Alt : 585.309997559, Lat : -35.363261, Lng : 149.1652299, Q1 : 0.998087108135, Q2 : -0.000427198741818, Q3 : -0.000921754864976, Q4 : -0.0618151910603}
2019-04-03 18:44:15.39: SIM {TimeUS : 743415848, Roll : 0.0, Pitch : -0.08, Yaw : 352.9, Alt : 585.479980469, Lat : -35.363261, Lng : 149.1652298, Q1 : 0.998083591461, Q2 : -6.82007384967e-06, Q3 : -0.000715460802894, Q4 : -0.0618759505451}
2019-04-03 18:44:15.49: SIM {TimeUS : 743515808, Roll : 0.04, Pitch : -0.04, Yaw : 352.9, Alt : 585.650024414, Lat : -35.363261, Lng : 149.1652298, Q1 : 0.998081684113, Q2 : 0.000361562269973, Q3 : -0.000442216056399, Q4 : -0.061908017844}
2019-04-03 18:44:15.59: SIM {TimeUS : 743615768, Roll : 0.06, Pitch : -0.01, Yaw : 352.89, Alt : 585.83001709, Lat : -35.363261, Lng : 149.1652298, Q1 : 0.998080730438, Q2 : 0.000528492790181, Q3 : -0.000144042394822, Q4 : -0.0619245991111}
2019-04-03 18:44:15.69: SIM {TimeUS : 743715728, Roll : 0.06, Pitch : 0.01, Yaw : 352.89, Alt : 586.010009766, Lat : -35.363261, Lng : 149.1652298, Q1 : 0.998080968857, Q2 : 0.000545567192603, Q3 : 5.44824906683e-05, Q4 : -0.0619199983776}
2019-04-03 18:44:15.79: SIM {TimeUS : 743815688, Roll : 0.06, Pitch : 0.0, Yaw : 352.9, Alt : 586.200012207, Lat : -35.363261, Lng : 149.1652298, Q1 : 0.998082339764, Q2 : 0.000561071617994, Q3 : -1.42978524309e-05, Q4 : -0.0618974156678}
2019-04-03 18:44:15.90: SIM {TimeUS : 743916481, Roll : 0.06, Pitch : 0.0, Yaw : 352.9, Alt : 586.390014648, Lat : -35.363261, Lng : 149.1652298, Q1 : 0.99808371067, Q2 : 0.000529607175849, Q3 : -0.000114377078717, Q4 : -0.0618760734797}
2019-04-03 18:44:16.00: SIM {TimeUS : 744016441, Roll : 0.03, Pitch : -0.03, Yaw : 352.9, Alt : 586.58001709, Lat : -35.363261, Lng : 149.1652298, Q1 : 0.998085379601, Q2 : 0.000292690325296, Q3 : -0.000286403665086, Q4 : -0.0618505105376}
2019-04-03 18:44:16.10: SIM {TimeUS : 744116401, Roll : 0.0, Pitch : -0.06, Yaw : 352.91, Alt : 586.780029297, Lat : -35.363261, Lng : 149.1652298, Q1 : 0.998086810112, Q2 : -4.63702099296e-06, Q3 : -0.000547401607037, Q4 : -0.0618253313005}
2019-04-03 18:44:16.20: SIM {TimeUS : 744216361, Roll : 0.0, Pitch : -0.07, Yaw : 352.91, Alt : 586.969970703, Lat : -35.3632609, Lng : 149.1652298, Q1 : 0.99808806181, Q2 : -9.82948477031e-05, Q3 : -0.000651811482385, Q4 : -0.0618047863245}
2019-04-03 18:44:16.30: SIM {TimeUS : 744316321, Roll : 0.0, Pitch : -0.06, Yaw : 352.91, Alt : 587.16998291, Lat : -35.3632609, Lng : 149.1652298, Q1 : 0.998087882996, Q2 : 4.51095183962e-05, Q3 : -0.000533501908649, Q4 : -0.0618084259331}
2019-04-03 18:44:16.40: SIM {TimeUS : 744416281, Roll : 0.03, Pitch : -0.03, Yaw : 352.9, Alt : 587.369995117, Lat : -35.3632609, Lng : 149.1652298, Q1 : 0.998086214066, Q2 : 0.000320940744132, Q3 : -0.000298635743093, Q4 : -0.0618362873793}
2019-04-03 18:44:16.50: SIM {TimeUS : 744516241, Roll : 0.07, Pitch : 0.0, Yaw : 352.9, Alt : 587.570007324, Lat : -35.3632609, Lng : 149.1652298, Q1 : 0.998083412647, Q2 : 0.000656262389384, Q3 : -0.000127429884742, Q4 : -0.0618792772293}
2019-04-03 18:44:16.60: SIM {TimeUS : 744616201, Roll : 0.1, Pitch : 0.0, Yaw : 352.89, Alt : 587.75, Lat : -35.3632609, Lng : 149.1652298, Q1 : 0.998080015182, Q2 : 0.000944240251556, Q3 : -0.000103511782072, Q4 : -0.0619304440916}
2019-04-03 18:44:16.70: SIM {TimeUS : 744716161, Roll : 0.1, Pitch : 0.0, Yaw : 352.89, Alt : 587.91998291, Lat : -35.3632609, Lng : 149.1652298, Q1 : 0.998076617718, Q2 : 0.000934778770898, Q3 : -6.7950139055e-05, Q4 : -0.0619852133095}
2019-04-03 18:44:16.80: SIM {TimeUS : 744816121, Roll : 0.09, Pitch : -0.02, Yaw : 352.88, Alt : 588.090026855, Lat : -35.3632609, Lng : 149.1652298, Q1 : 0.99807292223, Q2 : 0.00079070054926, Q3 : -0.000229780955124, Q4 : -0.0620466060936}
2019-04-03 18:44:16.90: SIM {TimeUS : 744916081, Roll : 0.17, Pitch : -0.16, Yaw : 352.87, Alt : 588.239990234, Lat : -35.3632609, Lng : 149.1652298, Q1 : 0.998067259789, Q2 : 0.0014412276214, Q3 : -0.00154310965445, Q4 : -0.0621069818735}
2019-04-03 18:44:17.00: SIM {TimeUS : 745016041, Roll : 0.44, Pitch : -0.54, Yaw : 352.87, Alt : 588.380004883, Lat : -35.3632609, Lng : 149.1652298, Q1 : 0.998047471046, Q2 : 0.00360962375998, Q3 : -0.00499028619379, Q4 : -0.0621559806168}
2019-04-03 18:44:17.09: SIM {TimeUS : 745116001, Roll : 0.89, Pitch : -1.15, Yaw : 352.86, Alt : 588.5, Lat : -35.3632608, Lng : 149.1652298, Q1 : 0.99798387289, Q2 : 0.00714486744255, Q3 : -0.0105342101306, Q4 : -0.0621787644923}
2019-04-03 18:44:17.19: SIM {TimeUS : 745215961, Roll : 1.44, Pitch : -1.96, Yaw : 352.84, Alt : 588.609985352, Lat : -35.3632608, Lng : 149.1652298, Q1 : 0.997839927673, Q2 : 0.0114828227088, Q3 : -0.0178716424853, Q4 : -0.0621626675129}
2019-04-03 18:44:17.29: SIM {TimeUS : 745315921, Roll : 2.04, Pitch : -2.87, Yaw : 352.82, Alt : 588.710021973, Lat : -35.3632608, Lng : 149.1652298, Q1 : 0.997595667839, Q2 : 0.0162705667317, Q3 : -0.0261562559754, Q4 : -0.0620816983283}
2019-04-03 18:44:17.39: SIM {TimeUS : 745415881, Roll : 2.64, Pitch : -3.74, Yaw : 352.8, Alt : 588.799987793, Lat : -35.3632607, Lng : 149.1652298, Q1 : 0.99728000164, Q2 : 0.0210178736597, Q3 : -0.0340353474021, Q4 : -0.0619069598615}
2019-04-03 18:44:17.49: SIM {TimeUS : 745515841, Roll : 3.18, Pitch : -4.42, Yaw : 352.8, Alt : 588.880004883, Lat : -35.3632604, Lng : 149.1652299, Q1 : 0.996967494488, Q2 : 0.0252807755023, Q3 : -0.0402337014675, Q4 : -0.0616276748478}
2019-04-03 18:44:17.59: SIM {TimeUS : 745615801, Roll : 3.59, Pitch : -4.91, Yaw : 352.8, Alt : 588.940002441, Lat : -35.3632603, Lng : 149.1652299, Q1 : 0.996708452702, Q2 : 0.0285830553621, Q3 : -0.0447159186006, Q4 : -0.0612837970257}
2019-04-03 18:44:17.69: SIM {TimeUS : 745715761, Roll : 3.88, Pitch : -5.27, Yaw : 352.82, Alt : 589.0, Lat : -35.3632599, Lng : 149.1652302, Q1 : 0.996507227421, Q2 : 0.0309588443488, Q3 : -0.0480023548007, Q4 : -0.0609155073762}
2019-04-03 18:44:17.79: SIM {TimeUS : 745815721, Roll : 4.11, Pitch : -5.57, Yaw : 352.84, Alt : 589.049987793, Lat : -35.3632597, Lng : 149.1652303, Q1 : 0.9963337183, Q2 : 0.0327587686479, Q3 : -0.0507847331464, Q4 : -0.0605550222099}
2019-04-03 18:44:17.89: SIM {TimeUS : 745915681, Roll : 4.3, Pitch : -5.89, Yaw : 352.85, Alt : 589.090026855, Lat : -35.3632592, Lng : 149.1652307, Q1 : 0.996157288551, Q2 : 0.0342403538525, Q3 : -0.0535827875137, Q4 : -0.0602259859443}
2019-04-03 18:44:18.00: SIM {TimeUS : 746016474, Roll : 4.49, Pitch : -6.21, Yaw : 352.87, Alt : 589.130004883, Lat : -35.3632587, Lng : 149.165231, Q1 : 0.995964288712, Q2 : 0.0357235856354, Q3 : -0.056468307972, Q4 : -0.0599184371531}
2019-04-03 18:44:18.10: SIM {TimeUS : 746116434, Roll : 4.67, Pitch : -6.48, Yaw : 352.87, Alt : 589.16998291, Lat : -35.3632583, Lng : 149.1652313, Q1 : 0.995784699917, Q2 : 0.0371543131769, Q3 : -0.058954063803, Q4 : -0.0596389845014}
2019-04-03 18:44:18.20: SIM {TimeUS : 746216394, Roll : 4.82, Pitch : -6.7, Yaw : 352.88, Alt : 589.200012207, Lat : -35.3632576, Lng : 149.1652317, Q1 : 0.995637476444, Q2 : 0.0383255816996, Q3 : -0.0608991757035, Q4 : -0.0594006627798}
2019-04-03 18:44:18.30: SIM {TimeUS : 746316354, Roll : 4.93, Pitch : -6.85, Yaw : 352.89, Alt : 589.219970703, Lat : -35.363257, Lng : 149.1652322, Q1 : 0.995528519154, Q2 : 0.0391822978854, Q3 : -0.0622964166105, Q4 : -0.0592185258865}
2019-04-03 18:44:18.40: SIM {TimeUS : 746416314, Roll : 5.0, Pitch : -6.95, Yaw : 352.89, Alt : 589.25, Lat : -35.3632561, Lng : 149.1652327, Q1 : 0.995456397533, Q2 : 0.0397045649588, Q3 : -0.0632188990712, Q4 : -0.0591059438884}
2019-04-03 18:44:18.50: SIM {TimeUS : 746516274, Roll : 5.06, Pitch : -7.05, Yaw : 352.89, Alt : 589.270019531, Lat : -35.3632554, Lng : 149.1652332, Q1 : 0.995385110378, Q2 : 0.040169544518, Q3 : -0.0640832558274, Q4 : -0.0590617805719}
2019-04-03 18:44:18.60: SIM {TimeUS : 746616234, Roll : 5.13, Pitch : -7.18, Yaw : 352.88, Alt : 589.289978027, Lat : -35.3632544, Lng : 149.1652339, Q1 : 0.995285451412, Q2 : 0.0407127737999, Q3 : -0.0652737244964, Q4 : -0.0590655133128}
2019-04-03 18:44:18.70: SIM {TimeUS : 746716194, Roll : 5.36, Pitch : -7.27, Yaw : 352.95, Alt : 589.309997559, Lat : -35.3632536, Lng : 149.1652345, Q1 : 0.995191931725, Q2 : 0.0427514053881, Q3 : -0.0661057010293, Q4 : -0.058269944042}
2019-04-03 18:44:18.80: SIM {TimeUS : 746816154, Roll : 5.86, Pitch : -7.25, Yaw : 353.59, Alt : 589.33001709, Lat : -35.3632525, Lng : 149.1652351, Q1 : 0.995313763618, Q2 : 0.0474810265005, Q3 : -0.0659442916512, Q4 : -0.0524160452187}
2019-04-03 18:44:18.90: SIM {TimeUS : 746916114, Roll : 6.47, Pitch : -7.32, Yaw : 355.52, Alt : 589.349975586, Lat : -35.3632516, Lng : 149.1652359, Q1 : 0.995748221874, Q2 : 0.0538289397955, Q3 : -0.0658911094069, Q4 : -0.0353034585714}
2019-04-03 18:44:19.00: SIM {TimeUS : 747016074, Roll : 6.78, Pitch : -7.72, Yaw : 359.11, Alt : 589.369995117, Lat : -35.3632505, Lng : 149.1652366, Q1 : 0.995978295803, Q2 : 0.0585377328098, Q3 : -0.0677237212658, Q4 : -0.00374301336706}
2019-04-03 18:44:19.09: SIM {TimeUS : 747116034, Roll : 6.55, Pitch : -8.49, Yaw : 4.29, Alt : 589.380004883, Lat : -35.3632493, Lng : 149.1652375, Q1 : 0.994766175747, Q2 : 0.0597105026245, Q3 : -0.071777112782, Q4 : 0.0415083877742}
2019-04-03 18:44:19.19: SIM {TimeUS : 747215994, Roll : 5.59, Pitch : -9.5, Yaw : 10.81, Alt : 589.400024414, Lat : -35.3632481, Lng : 149.1652384, Q1 : 0.990560591221, Q2 : 0.0562266819179, Q3 : -0.0778331756592, Q4 : 0.0978278890252}
2019-04-03 18:44:19.29: SIM {TimeUS : 747315954, Roll : 3.7, Pitch : -10.58, Yaw : 18.2, Alt : 589.41998291, Lat : -35.3632469, Lng : 149.1652394, Q1 : 0.98220962286, Q2 : 0.046367418021, Q3 : -0.08592312783, Q4 : 0.16041059792}
2019-04-03 18:44:19.39: SIM {TimeUS : 747415914, Roll : 1.0, Pitch : -11.46, Yaw : 25.65, Alt : 589.440002441, Lat : -35.3632456, Lng : 149.1652406, Q1 : 0.969936907291, Q2 : 0.0307056140155, Q3 : -0.0954891294241, Q4 : 0.221723631024}
2019-04-03 18:44:19.49: SIM {TimeUS : 747515874, Roll : -1.95, Pitch : -11.98, Yaw : 32.28, Alt : 589.460021973, Lat : -35.3632441, Lng : 149.1652417, Q1 : 0.955679535866, Q2 : 0.0127581963316, Q3 : -0.105014301836, Q4 : 0.274746835232}
2019-04-03 18:44:19.59: SIM {TimeUS : 747615834, Roll : -4.48, Pitch : -12.16, Yaw : 37.41, Alt : 589.479980469, Lat : -35.3632427, Lng : 149.1652428, Q1 : 0.942448794842, Q2 : -0.00291846017353, Q3 : -0.112794160843, Q4 : 0.314736843109}
2019-04-03 18:44:19.69: SIM {TimeUS : 747715794, Roll : -6.12, Pitch : -12.18, Yaw : 40.68, Alt : 589.5, Lat : -35.3632412, Lng : 149.165244, Q1 : 0.932981729507, Q2 : -0.0129847833887, Q3 : -0.117824301124, Q4 : 0.339843988419}
2019-04-03 18:44:19.79: SIM {TimeUS : 747815754, Roll : -6.74, Pitch : -12.21, Yaw : 42.12, Alt : 589.520019531, Lat : -35.3632395, Lng : 149.1652451, Q1 : 0.928537547588, Q2 : -0.0164058580995, Q3 : -0.120176717639, Q4 : 0.350865215063}
2019-04-03 18:44:19.89: SIM {TimeUS : 747915714, Roll : -6.46, Pitch : -12.42, Yaw : 42.0, Alt : 589.539978027, Lat : -35.3632377, Lng : 149.1652461, Q1 : 0.928791463375, Q2 : -0.0136101292446, Q3 : -0.120944552124, Q4 : 0.350047945976}
2019-04-03 18:44:19.99: SIM {TimeUS : 748015674, Roll : -5.52, Pitch : -12.84, Yaw : 40.68, Alt : 589.559997559, Lat : -35.3632358, Lng : 149.1652473, Q1 : 0.932534396648, Q2 : -0.00602559745312, Q3 : -0.121424436569, Q4 : 0.339999139309}
2019-04-03 18:44:20.10: SIM {TimeUS : 748116467, Roll : -4.15, Pitch : -13.45, Yaw : 38.49, Alt : 589.58001709, Lat : -35.3632339, Lng : 149.1652485, Q1 : 0.93838685751, Q2 : 0.00462571298704, Q3 : -0.122382335365, Q4 : 0.323158323765}
2019-04-03 18:44:20.20: SIM {TimeUS : 748216427, Roll : -2.58, Pitch : -14.1, Yaw : 35.8, Alt : 589.609985352, Lat : -35.3632318, Lng : 149.1652495, Q1 : 0.944990515709, Q2 : 0.0164009612054, Q3 : -0.123695731163, Q4 : 0.302362889051}
2019-04-03 18:44:20.30: SIM {TimeUS : 748316387, Roll : -1.0, Pitch : -14.67, Yaw : 32.93, Alt : 589.630004883, Lat : -35.3632297, Lng : 149.1652508, Q1 : 0.951407968998, Q2 : 0.027895975858, Q3 : -0.124912574887, Q4 : 0.280074268579}
2019-04-03 18:44:20.40: SIM {TimeUS : 748416347, Roll : 0.44, Pitch : -15.07, Yaw : 30.22, Alt : 589.659973145, Lat : -35.3632275, Lng : 149.1652519, Q1 : 0.95694643259, Q2 : 0.0378703996539, Q3 : -0.125624150038, Q4 : 0.258916974068}
2019-04-03 18:44:20.50: SIM {TimeUS : 748516307, Roll : 1.57, Pitch : -15.28, Yaw : 27.95, Alt : 589.690002441, Lat : -35.3632252, Lng : 149.1652533, Q1 : 0.961233556271, Q2 : 0.0453469119966, Q3 : -0.125788718462, Q4 : 0.24114510417}
2019-04-03 18:44:20.60: SIM {TimeUS : 748616267, Roll : 2.33, Pitch : -15.36, Yaw : 26.32, Alt : 589.710021973, Lat : -35.363223, Lng : 149.1652547, Q1 : 0.964157700539, Q2 : 0.0501300878823, Q3 : -0.125565692782, Q4 : 0.228298470378}
2019-04-03 18:44:20.70: SIM {TimeUS : 748716227, Roll : 2.7, Pitch : -15.35, Yaw : 25.41, Alt : 589.739990234, Lat : -35.3632207, Lng : 149.1652562, Q1 : 0.965793967247, Q2 : 0.0521744601429, Q3 : -0.12517079711, Q4 : 0.221025288105}
2019-04-03 18:44:20.80: SIM {TimeUS : 748816187, Roll : 2.67, Pitch : -15.31, Yaw : 25.19, Alt : 589.770019531, Lat : -35.3632183, Lng : 149.1652578, Q1 : 0.966271996498, Q2 : 0.051614087075, Q3 : -0.125002294779, Q4 : 0.21915486455}
2019-04-03 18:44:20.90: SIM {TimeUS : 748916147, Roll : 2.3, Pitch : -15.32, Yaw : 25.56, Alt : 589.789978027, Lat : -35.3632158, Lng : 149.1652595, Q1 : 0.965717017651, Q2 : 0.0489153526723, Q3 : -0.12556758523, Q4 : 0.221879974008}
2019-04-03 18:44:21.00: SIM {TimeUS : 749016107, Roll : 1.7, Pitch : -15.39, Yaw : 26.37, Alt : 589.820007324, Lat : -35.3632133, Lng : 149.1652612, Q1 : 0.964291930199, Q2 : 0.0448805578053, Q3 : -0.12700919807, Q4 : 0.228025242686}
2019-04-03 18:44:21.10: SIM {TimeUS : 749116067, Roll : 1.0, Pitch : -15.52, Yaw : 27.45, Alt : 589.849975586, Lat : -35.3632108, Lng : 149.1652628, Q1 : 0.962222695351, Q2 : 0.0404715128243, Q3 : -0.129108056426, Q4 : 0.236263841391}
2019-04-03 18:44:21.19: SIM {TimeUS : 749216027, Roll : 0.29, Pitch : -15.67, Yaw : 28.62, Alt : 589.880004883, Lat : -35.3632081, Lng : 149.1652647, Q1 : 0.959821045399, Q2 : 0.036187466234, Q3 : -0.131506025791, Q4 : 0.245235145092}
2019-04-03 18:44:21.29: SIM {TimeUS : 749315987, Roll : -0.35, Pitch : -15.81, Yaw : 29.73, Alt : 589.909973145, Lat : -35.3632056, Lng : 149.1652666, Q1 : 0.957436442375, Q2 : 0.0323025435209, Q3 : -0.133730813861, Q4 : 0.253748118877}
2019-04-03 18:44:21.39: SIM {TimeUS : 749415947, Roll : -0.87, Pitch : -15.91, Yaw : 30.67, Alt : 589.929992676, Lat : -35.3632029, Lng : 149.1652684, Q1 : 0.955350756645, Q2 : 0.0293358322233, Q3 : -0.135521575809, Q4 : 0.260918080807}
2019-04-03 18:44:21.49: SIM {TimeUS : 749515907, Roll : -1.2, Pitch : -15.98, Yaw : 31.35, Alt : 589.960021973, Lat : -35.3632002, Lng : 149.1652703, Q1 : 0.953786253929, Q2 : 0.0275550726801, Q3 : -0.136664286256, Q4 : 0.26618668437}
2019-04-03 18:44:21.59: SIM {TimeUS : 749615867, Roll : -1.37, Pitch : -16.04, Yaw : 31.75, Alt : 589.989990234, Lat : -35.3631974, Lng : 149.1652722, Q1 : 0.952834963799, Q2 : 0.0267752315849, Q3 : -0.137453347445, Q4 : 0.269249379635}
2019-04-03 18:44:21.69: SIM {TimeUS : 749715827, Roll : -1.36, Pitch : -16.08, Yaw : 31.86, Alt : 590.020019531, Lat : -35.3631946, Lng : 149.1652741, Q1 : 0.952514529228, Q2 : 0.0271035339683, Q3 : -0.137750893831, Q4 : 0.27019661665}
2019-04-03 18:44:21.79: SIM {TimeUS : 749815787, Roll : -1.22, Pitch : -16.1, Yaw : 31.73, Alt : 590.049987793, Lat : -35.3631917, Lng : 149.1652761, Q1 : 0.95276170969, Q2 : 0.0281562246382, Q3 : -0.137609913945, Q4 : 0.269287824631}
2019-04-03 18:44:21.89: SIM {TimeUS : 749915747, Roll : -0.98, Pitch : -16.1, Yaw : 31.42, Alt : 590.08001709, Lat : -35.3631887, Lng : 149.165278, Q1 : 0.953430831432, Q2 : 0.029706152156, Q3 : -0.137179747224, Q4 : 0.266962409019}
2019-04-03 18:44:21.99: SIM {TimeUS : 750015707, Roll : -0.71, Pitch : -16.12, Yaw : 30.99, Alt : 590.099975586, Lat : -35.3631859, Lng : 149.16528, Q1 : 0.954331159592, Q2 : 0.0315008796751, Q3 : -0.136780872941, Q4 : 0.263724595308}
2019-04-03 18:44:22.09: SIM {TimeUS : 750115667, Roll : -0.42, Pitch : -16.15, Yaw : 30.52, Alt : 590.130004883, Lat : -35.3631829, Lng : 149.165282, Q1 : 0.955291926861, Q2 : 0.0334191918373, Q3 : -0.136532723904, Q4 : 0.260114014149}
2019-04-03 18:44:22.20: SIM {TimeUS : 750216460, Roll : -0.16, Pitch : -16.2, Yaw : 30.06, Alt : 590.159973145, Lat : -35.3631798, Lng : 149.165284, Q1 : 0.956196904182, Q2 : 0.0351636074483, Q3 : -0.136462643743, Q4 : 0.256571650505}
2019-04-03 18:44:22.30: SIM {TimeUS : 750316420, Roll : 0.04, Pitch : -16.24, Yaw : 29.67, Alt : 590.190002441, Lat : -35.3631768, Lng : 149.1652861, Q1 : 0.956946969032, Q2 : 0.0365580618382, Q3 : -0.136502787471, Q4 : 0.253540933132}
2019-04-03 18:44:22.40: SIM {TimeUS : 750416380, Roll : 0.2, Pitch : -16.3, Yaw : 29.37, Alt : 590.219970703, Lat : -35.3631737, Lng : 149.1652882, Q1 : 0.957471728325, Q2 : 0.0376558788121, Q3 : -0.136766090989, Q4 : 0.251246780157}
2019-04-03 18:44:22.50: SIM {TimeUS : 750516340, Roll : 0.3, Pitch : -16.36, Yaw : 29.19, Alt : 590.25, Lat : -35.3631705, Lng : 149.1652902, Q1 : 0.957767307758, Q2 : 0.0384052656591, Q3 : -0.137101426721, Q4 : 0.249820038676}
2019-04-03 18:44:22.60: SIM {TimeUS : 750616300, Roll : 0.33, Pitch : -16.42, Yaw : 29.12, Alt : 590.280029297, Lat : -35.3631674, Lng : 149.1652925, Q1 : 0.957839787006, Q2 : 0.0387326441705, Q3 : -0.137563899159, Q4 : 0.24923671782}
2019-04-03 18:44:22.70: SIM {TimeUS : 750716260, Roll : 0.3, Pitch : -16.46, Yaw : 29.14, Alt : 590.309997559, Lat : -35.3631643, Lng : 149.1652945, Q1 : 0.957748353481, Q2 : 0.0385741516948, Q3 : -0.137965559959, Q4 : 0.249390438199}
2019-04-03 18:44:22.80: SIM {TimeUS : 750816220, Roll : 0.21, Pitch : -16.49, Yaw : 29.24, Alt : 590.340026855, Lat : -35.3631612, Lng : 149.1652968, Q1 : 0.95752954483, Q2 : 0.0379825644195, Q3 : -0.138356104493, Q4 : 0.250104278326}
2019-04-03 18:44:22.90: SIM {TimeUS : 750916180, Roll : 0.08, Pitch : -16.52, Yaw : 29.39, Alt : 590.359985352, Lat : -35.363158, Lng : 149.165299, Q1 : 0.957213044167, Q2 : 0.0371477454901, Q3 : -0.1388155967, Q4 : 0.251184046268}
2019-04-03 18:44:23.00: SIM {TimeUS : 751016140, Roll : -0.04, Pitch : -16.54, Yaw : 29.56, Alt : 590.390014648, Lat : -35.3631547, Lng : 149.1653011, Q1 : 0.956851482391, Q2 : 0.036314599216, Q3 : -0.139238134027, Q4 : 0.252446681261}
2019-04-03 18:44:23.10: SIM {TimeUS : 751116100, Roll : -0.17, Pitch : -16.56, Yaw : 29.73, Alt : 590.41998291, Lat : -35.3631516, Lng : 149.1653034, Q1 : 0.956496179104, Q2 : 0.0355265028775, Q3 : -0.139634177089, Q4 : 0.253683388233}
2019-04-03 18:44:23.20: SIM {TimeUS : 751216060, Roll : -0.29, Pitch : -16.61, Yaw : 29.87, Alt : 590.450012207, Lat : -35.3631483, Lng : 149.1653057, Q1 : 0.956165671349, Q2 : 0.0347490906715, Q3 : -0.140241593122, Q4 : 0.25469994545}
2019-04-03 18:44:23.29: SIM {TimeUS : 751316020, Roll : -0.37, Pitch : -16.65, Yaw : 29.98, Alt : 590.479980469, Lat : -35.3631449, Lng : 149.1653078, Q1 : 0.955896139145, Q2 : 0.0343385599554, Q3 : -0.14077450335, Q4 : 0.255472093821}
2019-04-03 18:44:23.39: SIM {TimeUS : 751415980, Roll : -0.39, Pitch : -16.68, Yaw : 30.04, Alt : 590.510009766, Lat : -35.3631417, Lng : 149.1653102, Q1 : 0.95573246479, Q2 : 0.0342952050269, Q3 : -0.141025334597, Q4 : 0.255951553583}
2019-04-03 18:44:23.49: SIM {TimeUS : 751515940, Roll : -0.38, Pitch : -16.69, Yaw : 30.05, Alt : 590.539978027, Lat : -35.3631383, Lng : 149.1653125, Q1 : 0.955678284168, Q2 : 0.0344467386603, Q3 : -0.141088694334, Q4 : 0.256098359823}
2019-04-03 18:44:23.59: SIM {TimeUS : 751615900, Roll : -0.34, Pitch : -16.71, Yaw : 30.03, Alt : 590.570007324, Lat : -35.3631351, Lng : 149.1653148, Q1 : 0.955694079399, Q2 : 0.0348341874778, Q3 : -0.141185626388, Q4 : 0.255933701992}
2019-04-03 18:44:23.69: SIM {TimeUS : 751715860, Roll : -0.27, Pitch : -16.74, Yaw : 29.97, Alt : 590.599975586, Lat : -35.3631316, Lng : 149.165317, Q1 : 0.955764770508, Q2 : 0.0353806577623, Q3 : -0.141278207302, Q4 : 0.25554344058}
2019-04-03 18:44:23.79: SIM {TimeUS : 751815820, Roll : -0.21, Pitch : -16.77, Yaw : 29.9, Alt : 590.630004883, Lat : -35.3631284, Lng : 149.1653193, Q1 : 0.955880641937, Q2 : 0.0358097180724, Q3 : -0.141441494226, Q4 : 0.254959106445}
2019-04-03 18:44:23.89: SIM {TimeUS : 751915780, Roll : -0.16, Pitch : -16.81, Yaw : 29.81, Alt : 590.659973145, Lat : -35.3631249, Lng : 149.1653217, Q1 : 0.956015169621, Q2 : 0.0362163074315, Q3 : -0.141658902168, Q4 : 0.254275679588}
2019-04-03 18:44:23.99: SIM {TimeUS : 752015740, Roll : -0.13, Pitch : -16.86, Yaw : 29.72, Alt : 590.690002441, Lat : -35.3631216, Lng : 149.165324, Q1 : 0.956133842468, Q2 : 0.0365063622594, Q3 : -0.14205776155, Q4 : 0.253564566374}
2019-04-03 18:44:24.09: SIM {TimeUS : 752115700, Roll : -0.1, Pitch : -16.92, Yaw : 29.64, Alt : 590.719970703, Lat : -35.3631181, Lng : 149.1653263, Q1 : 0.956225633621, Q2 : 0.0367569439113, Q3 : -0.142505690455, Q4 : 0.252930045128}
2019-04-03 18:44:24.19: SIM {TimeUS : 752215660, Roll : -0.08, Pitch : -16.95, Yaw : 29.58, Alt : 590.739990234, Lat : -35.3631146, Lng : 149.1653287, Q1 : 0.956314146519, Q2 : 0.0369284413755, Q3 : -0.142763912678, Q4 : 0.252424359322}
2019-04-03 18:44:24.30: SIM {TimeUS : 752316453, Roll : -0.07, Pitch : -16.97, Yaw : 29.54, Alt : 590.770019531, Lat : -35.3631113, Lng : 149.1653311, Q1 : 0.956385612488, Q2 : 0.0370293334126, Q3 : -0.14289727807, Q4 : 0.25206297636}
2019-04-03 18:44:24.40: SIM {TimeUS : 752416413, Roll : -0.06, Pitch : -16.99, Yaw : 29.51, Alt : 590.799987793, Lat : -35.3631078, Lng : 149.1653333, Q1 : 0.95641887188, Q2 : 0.037080373615, Q3 : -0.14306204021, Q4 : 0.251835882664}
2019-04-03 18:44:24.50: SIM {TimeUS : 752516373, Roll : -0.06, Pitch : -17.01, Yaw : 29.5, Alt : 590.83001709, Lat : -35.3631042, Lng : 149.1653357, Q1 : 0.956417024136, Q2 : 0.0371513254941, Q3 : -0.143242076039, Q4 : 0.251730084419}
2019-04-03 18:44:24.60: SIM {TimeUS : 752616333, Roll : -0.04, Pitch : -17.04, Yaw : 29.5, Alt : 590.859985352, Lat : -35.3631009, Lng : 149.1653381, Q1 : 0.956381380558, Q2 : 0.0373205579817, Q3 : -0.143406555057, Q4 : 0.25174677372}
2019-04-03 18:44:24.70: SIM {TimeUS : 752716293, Roll : -0.04, Pitch : -17.06, Yaw : 29.51, Alt : 590.890014648, Lat : -35.3630974, Lng : 149.1653405, Q1 : 0.956333458424, Q2 : 0.037421874702, Q3 : -0.143544003367, Q4 : 0.251835435629}
2019-04-03 18:44:24.80: SIM {TimeUS : 752816253, Roll : -0.05, Pitch : -17.07, Yaw : 29.52, Alt : 590.91998291, Lat : -35.3630938, Lng : 149.165343, Q1 : 0.956285953522, Q2 : 0.0373890921474, Q3 : -0.143653899431, Q4 : 0.251958072186}
2019-04-03 18:44:24.90: SIM {TimeUS : 752916213, Roll : -0.07, Pitch : -17.09, Yaw : 29.54, Alt : 590.950012207, Lat : -35.3630902, Lng : 149.1653454, Q1 : 0.956222057343, Q2 : 0.0373179316521, Q3 : -0.143910512328, Q4 : 0.252064615488}
2019-04-03 18:44:25.00: SIM {TimeUS : 753016173, Roll : -0.1, Pitch : -17.13, Yaw : 29.55, Alt : 590.979980469, Lat : -35.3630868, Lng : 149.1653478, Q1 : 0.95615363121, Q2 : 0.0371655784547, Q3 : -0.144289016724, Q4 : 0.2521302104}
2019-04-03 18:44:25.10: SIM {TimeUS : 753116133, Roll : -0.12, Pitch : -17.16, Yaw : 29.56, Alt : 591.010009766, Lat : -35.3630833, Lng : 149.1653503, Q1 : 0.956104099751, Q2 : 0.0370176248252, Q3 : -0.144615769386, Q4 : 0.252152532339}
2019-04-03 18:44:25.20: SIM {TimeUS : 753216093, Roll : -0.14, Pitch : -17.18, Yaw : 29.56, Alt : 591.039978027, Lat : -35.3630797, Lng : 149.1653527, Q1 : 0.956081390381, Q2 : 0.0369197279215, Q3 : -0.144815653563, Q4 : 0.252138495445}
2019-04-03 18:44:25.30: SIM {TimeUS : 753316053, Roll : -0.16, Pitch : -17.2, Yaw : 29.56, Alt : 591.070007324, Lat : -35.3630762, Lng : 149.1653551, Q1 : 0.95607984066, Q2 : 0.0368159152567, Q3 : -0.144969806075, Q4 : 0.252070814371}
2019-04-03 18:44:25.39: SIM {TimeUS : 753416013, Roll : -0.15, Pitch : -17.21, Yaw : 29.55, Alt : 591.099975586, Lat : -35.3630725, Lng : 149.1653576, Q1 : 0.956094145775, Q2 : 0.0368355736136, Q3 : -0.145060271025, Q4 : 0.251961678267}
2019-04-03 18:44:25.49: SIM {TimeUS : 753515973, Roll : -0.15, Pitch : -17.24, Yaw : 29.53, Alt : 591.130004883, Lat : -35.3630689, Lng : 149.16536, Q1 : 0.956096291542, Q2 : 0.0369201377034, Q3 : -0.145286276937, Q4 : 0.251810789108}
2019-04-03 18:44:25.59: SIM {TimeUS : 753615933, Roll : -0.15, Pitch : -17.27, Yaw : 29.51, Alt : 591.159973145, Lat : -35.3630653, Lng : 149.1653624, Q1 : 0.956100225449, Q2 : 0.0369388870895, Q3 : -0.145584464073, Q4 : 0.251620918512}
2019-04-03 18:44:25.69: SIM {TimeUS : 753715893, Roll : -0.17, Pitch : -17.3, Yaw : 29.49, Alt : 591.190002441, Lat : -35.3630617, Lng : 149.1653648, Q1 : 0.956124067307, Q2 : 0.036823939532, Q3 : -0.145833790302, Q4 : 0.251402765512}
2019-04-03 18:44:25.79: SIM {TimeUS : 753815853, Roll : -0.17, Pitch : -17.31, Yaw : 29.46, Alt : 591.219970703, Lat : -35.3630582, Lng : 149.1653673, Q1 : 0.956165194511, Q2 : 0.0368020348251, Q3 : -0.145932123065, Q4 : 0.251192241907}
2019-04-03 18:44:25.89: SIM {TimeUS : 753915813, Roll : -0.16, Pitch : -17.32, Yaw : 29.44, Alt : 591.25, Lat : -35.3630546, Lng : 149.1653699, Q1 : 0.956197202206, Q2 : 0.0369251258671, Q3 : -0.145998388529, Q4 : 0.251013725996}
2019-04-03 18:44:25.99: SIM {TimeUS : 754015773, Roll : -0.12, Pitch : -17.33, Yaw : 29.42, Alt : 591.280029297, Lat : -35.363051, Lng : 149.1653723, Q1 : 0.956224620342, Q2 : 0.0371783040464, Q3 : -0.146001845598, Q4 : 0.250869989395}
2019-04-03 18:44:26.09: SIM {TimeUS : 754115733, Roll : -0.1, Pitch : -17.33, Yaw : 29.4, Alt : 591.309997559, Lat : -35.3630473, Lng : 149.1653748, Q1 : 0.956244766712, Q2 : 0.0374009050429, Q3 : -0.146028712392, Q4 : 0.250744223595}
2019-04-03 18:44:26.19: SIM {TimeUS : 754215693, Roll : -0.08, Pitch : -17.36, Yaw : 29.38, Alt : 591.340026855, Lat : -35.3630437, Lng : 149.1653773, Q1 : 0.956236124039, Q2 : 0.0375711582601, Q3 : -0.146236330271, Q4 : 0.25063097477}
2019-04-03 18:44:26.30: SIM {TimeUS : 754316486, Roll : -0.09, Pitch : -17.4, Yaw : 29.37, Alt : 591.369995117, Lat : -35.36304, Lng : 149.1653797, Q1 : 0.956216037273, Q2 : 0.0375778563321, Q3 : -0.146544396877, Q4 : 0.250526577234}
2019-04-03 18:44:26.40: SIM {TimeUS : 754416446, Roll : -0.12, Pitch : -17.43, Yaw : 29.36, Alt : 591.400024414, Lat : -35.3630364, Lng : 149.1653823, Q1 : 0.956202864647, Q2 : 0.0374108180404, Q3 : -0.146856591105, Q4 : 0.250418871641}
2019-04-03 18:44:26.50: SIM {TimeUS : 754516406, Roll : -0.11, Pitch : -17.44, Yaw : 29.36, Alt : 591.429992676, Lat : -35.3630327, Lng : 149.1653848, Q1 : 0.956194758415, Q2 : 0.0374493524432, Q3 : -0.146980315447, Q4 : 0.250371694565}
2019-04-03 18:44:26.60: SIM {TimeUS : 754616366, Roll : -0.1, Pitch : -17.46, Yaw : 29.36, Alt : 591.460021973, Lat : -35.363029, Lng : 149.1653873, Q1 : 0.956170678139, Q2 : 0.03760112077, Q3 : -0.14713473618, Q4 : 0.25035020709}
2019-04-03 18:44:26.70: SIM {TimeUS : 754716326, Roll : -0.08, Pitch : -17.49, Yaw : 29.35, Alt : 591.489990234, Lat : -35.3630254, Lng : 149.1653897, Q1 : 0.956138014793, Q2 : 0.0378565564752, Q3 : -0.147292643785, Q4 : 0.25034353137}
2019-04-03 18:44:26.80: SIM {TimeUS : 754816286, Roll : -0.07, Pitch : -17.52, Yaw : 29.35, Alt : 591.520019531, Lat : -35.3630217, Lng : 149.1653922, Q1 : 0.956107616425, Q2 : 0.0379781574011, Q3 : -0.147514134645, Q4 : 0.250310838223}
2019-04-03 18:44:26.90: SIM {TimeUS : 754916246, Roll : -0.08, Pitch : -17.55, Yaw : 29.34, Alt : 591.549987793, Lat : -35.3630179, Lng : 149.1653948, Q1 : 0.956084907055, Q2 : 0.0379708483815, Q3 : -0.147756397724, Q4 : 0.250255703926}
2019-04-03 18:44:27.00: SIM {TimeUS : 755016206, Roll : -0.08, Pitch : -17.58, Yaw : 29.34, Alt : 591.58001709, Lat : -35.3630142, Lng : 149.1653973, Q1 : 0.956051945686, Q2 : 0.0380361229181, Q3 : -0.148052960634, Q4 : 0.250196456909}
2019-04-03 18:44:27.10: SIM {TimeUS : 755116166, Roll : -0.07, Pitch : -17.62, Yaw : 29.33, Alt : 591.609985352, Lat : -35.3630105, Lng : 149.1653998, Q1 : 0.95600771904, Q2 : 0.038202110678, Q3 : -0.148381114006, Q4 : 0.250145792961}
2019-04-03 18:44:27.20: SIM {TimeUS : 755216126, Roll : -0.06, Pitch : -17.66, Yaw : 29.33, Alt : 591.640014648, Lat : -35.3630068, Lng : 149.1654024, Q1 : 0.955971419811, Q2 : 0.0382990241051, Q3 : -0.148685917258, Q4 : 0.250088781118}
2019-04-03 18:44:27.30: SIM {TimeUS : 755316086, Roll : -0.07, Pitch : -17.69, Yaw : 29.32, Alt : 591.66998291, Lat : -35.3630032, Lng : 149.1654049, Q1 : 0.955949366093, Q2 : 0.0382726714015, Q3 : -0.148949414492, Q4 : 0.250020205975}
2019-04-03 18:44:27.40: SIM {TimeUS : 755416046, Roll : -0.08, Pitch : -17.71, Yaw : 29.32, Alt : 591.700012207, Lat : -35.3629995, Lng : 149.1654074, Q1 : 0.955942571163, Q2 : 0.0382165946066, Q3 : -0.149122044444, Q4 : 0.249951854348}
2019-04-03 18:44:27.49: SIM {TimeUS : 755516006, Roll : -0.09, Pitch : -17.7, Yaw : 29.31, Alt : 591.729980469, Lat : -35.3629957, Lng : 149.1654099, Q1 : 0.955970466137, Q2 : 0.0381063632667, Q3 : -0.149074479938, Q4 : 0.249890327454}
2019-04-03 18:44:27.59: SIM {TimeUS : 755615966, Roll : -0.11, Pitch : -17.67, Yaw : 29.3, Alt : 591.760009766, Lat : -35.362992, Lng : 149.1654125, Q1 : 0.956019341946, Q2 : 0.0379298813641, Q3 : -0.148924142122, Q4 : 0.249819859862}
2019-04-03 18:44:27.69: SIM {TimeUS : 755715926, Roll : -0.13, Pitch : -17.65, Yaw : 29.29, Alt : 591.789978027, Lat : -35.3629883, Lng : 149.165415, Q1 : 0.956075072289, Q2 : 0.0376602560282, Q3 : -0.14880426228, Q4 : 0.249718770385}
2019-04-03 18:44:27.79: SIM {TimeUS : 755815886, Roll : -0.13, Pitch : -17.64, Yaw : 29.28, Alt : 591.820007324, Lat : -35.3629844, Lng : 149.1654175, Q1 : 0.956118285656, Q2 : 0.0376049615443, Q3 : -0.14867170155, Q4 : 0.2496406883}
2019-04-03 18:44:27.89: SIM {TimeUS : 755915846, Roll : -0.14, Pitch : -17.63, Yaw : 29.27, Alt : 591.849975586, Lat : -35.3629807, Lng : 149.1654202, Q1 : 0.95615208149, Q2 : 0.037561211735, Q3 : -0.148601323366, Q4 : 0.249559596181}
2019-04-03 18:44:27.99: SIM {TimeUS : 756015806, Roll : -0.14, Pitch : -17.62, Yaw : 29.26, Alt : 591.880004883, Lat : -35.362977, Lng : 149.1654227, Q1 : 0.956179320812, Q2 : 0.0375031605363, Q3 : -0.148581340909, Q4 : 0.249475985765}
2019-04-03 18:44:28.09: SIM {TimeUS : 756115766, Roll : -0.13, Pitch : -17.64, Yaw : 29.25, Alt : 591.909973145, Lat : -35.3629733, Lng : 149.1654252, Q1 : 0.956175088882, Q2 : 0.037591021508, Q3 : -0.148715093732, Q4 : 0.249399214983}
2019-04-03 18:44:28.19: SIM {TimeUS : 756215726, Roll : -0.12, Pitch : -17.67, Yaw : 29.24, Alt : 591.940002441, Lat : -35.3629695, Lng : 149.1654278, Q1 : 0.956160187721, Q2 : 0.0377151034772, Q3 : -0.148912057281, Q4 : 0.249320119619}
2019-04-03 18:44:28.29: SIM {TimeUS : 756315686, Roll : -0.11, Pitch : -17.7, Yaw : 29.23, Alt : 591.969970703, Lat : -35.3629656, Lng : 149.1654304, Q1 : 0.95613604784, Q2 : 0.0379011780024, Q3 : -0.149137333035, Q4 : 0.249249696732}
2019-04-03 18:44:28.40: SIM {TimeUS : 756416479, Roll : -0.08, Pitch : -17.72, Yaw : 29.23, Alt : 592.0, Lat : -35.3629619, Lng : 149.165433, Q1 : 0.956116497517, Q2 : 0.0381312891841, Q3 : -0.149291500449, Q4 : 0.249197483063}
2019-04-03 18:44:28.50: SIM {TimeUS : 756516439, Roll : -0.05, Pitch : -17.73, Yaw : 29.22, Alt : 592.030029297, Lat : -35.3629582, Lng : 149.1654356, Q1 : 0.956111371517, Q2 : 0.0383901000023, Q3 : -0.14930742979, Q4 : 0.249167740345}
2019-04-03 18:44:28.60: SIM {TimeUS : 756616399, Roll : -0.04, Pitch : -17.73, Yaw : 29.21, Alt : 592.059997559, Lat : -35.3629544, Lng : 149.1654381, Q1 : 0.956121265888, Q2 : 0.0384691692889, Q3 : -0.149300426245, Q4 : 0.249121546745}
2019-04-03 18:44:28.70: SIM {TimeUS : 756716359, Roll : -0.05, Pitch : -17.74, Yaw : 29.21, Alt : 592.090026855, Lat : -35.3629506, Lng : 149.1654407, Q1 : 0.956129908562, Q2 : 0.038441888988, Q3 : -0.149338722229, Q4 : 0.249069675803}
2019-04-03 18:44:28.80: SIM {TimeUS : 756816319, Roll : -0.05, Pitch : -17.73, Yaw : 29.2, Alt : 592.119995117, Lat : -35.3629467, Lng : 149.1654433, Q1 : 0.956140398979, Q2 : 0.038443159312, Q3 : -0.14932025969, Q4 : 0.249040424824}
2019-04-03 18:44:28.90: SIM {TimeUS : 756916279, Roll : -0.04, Pitch : -17.73, Yaw : 29.2, Alt : 592.150024414, Lat : -35.362943, Lng : 149.1654458, Q1 : 0.956152319908, Q2 : 0.0384717769921, Q3 : -0.149252936244, Q4 : 0.24903061986}
2019-04-03 18:44:29.00: SIM {TimeUS : 757016239, Roll : -0.04, Pitch : -17.72, Yaw : 29.2, Alt : 592.179992676, Lat : -35.3629392, Lng : 149.1654484, Q1 : 0.956166446209, Q2 : 0.0385000519454, Q3 : -0.149164646864, Q4 : 0.249024808407}
2019-04-03 18:44:29.10: SIM {TimeUS : 757116199, Roll : -0.03, Pitch : -17.71, Yaw : 29.19, Alt : 592.210021973, Lat : -35.3629354, Lng : 149.165451, Q1 : 0.956176757812, Q2 : 0.0385077372193, Q3 : -0.149118959904, Q4 : 0.249011516571}
2019-04-03 18:44:29.20: SIM {TimeUS : 757216159, Roll : -0.05, Pitch : -17.72, Yaw : 29.19, Alt : 592.239990234, Lat : -35.3629315, Lng : 149.1654536, Q1 : 0.956175029278, Q2 : 0.0384154394269, Q3 : -0.149218469858, Q4 : 0.248972713947}
2019-04-03 18:44:29.30: SIM {TimeUS : 757316119, Roll : -0.05, Pitch : -17.73, Yaw : 29.19, Alt : 592.270019531, Lat : -35.3629278, Lng : 149.1654562, Q1 : 0.95616966486, Q2 : 0.0384005047381, Q3 : -0.149294883013, Q4 : 0.248950004578}
2019-04-03 18:44:29.40: SIM {TimeUS : 757416079, Roll : -0.05, Pitch : -17.75, Yaw : 29.19, Alt : 592.299987793, Lat : -35.362924, Lng : 149.1654587, Q1 : 0.956139445305, Q2 : 0.0384718514979, Q3 : -0.149489745498, Q4 : 0.24893784523}
2019-04-03 18:44:29.50: SIM {TimeUS : 757516039, Roll : -0.04, Pitch : -17.78, Yaw : 29.19, Alt : 592.320007324, Lat : -35.3629202, Lng : 149.1654614, Q1 : 0.956100046635, Q2 : 0.038615655154, Q3 : -0.149698197842, Q4 : 0.248941645026}
2019-04-03 18:44:29.59: SIM {TimeUS : 757615999, Roll : -0.02, Pitch : -17.79, Yaw : 29.19, Alt : 592.349975586, Lat : -35.3629163, Lng : 149.1654639, Q1 : 0.956076860428, Q2 : 0.0387987233698, Q3 : -0.149753764272, Q4 : 0.248968914151}
2019-04-03 18:44:29.69: SIM {TimeUS : 757715959, Roll : 0.0, Pitch : -17.79, Yaw : 29.19, Alt : 592.380004883, Lat : -35.3629126, Lng : 149.1654664, Q1 : 0.956080019474, Q2 : 0.038956489414, Q3 : -0.149641647935, Q4 : 0.248999625444}
2019-04-03 18:44:29.79: SIM {TimeUS : 757815919, Roll : 0.01, Pitch : -17.81, Yaw : 29.19, Alt : 592.409973145, Lat : -35.3629087, Lng : 149.1654691, Q1 : 0.956051707268, Q2 : 0.0391324497759, Q3 : -0.149782076478, Q4 : 0.24899622798}
2019-04-03 18:44:29.89: SIM {TimeUS : 757915879, Roll : 0.0, Pitch : -17.84, Yaw : 29.19, Alt : 592.440002441, Lat : -35.3629048, Lng : 149.1654716, Q1 : 0.956018447876, Q2 : 0.0391327850521, Q3 : -0.150071069598, Q4 : 0.248950019479}
2019-04-03 18:44:29.99: SIM {TimeUS : 758015839, Roll : 0.0, Pitch : -17.88, Yaw : 29.18, Alt : 592.469970703, Lat : -35.362901, Lng : 149.1654743, Q1 : 0.955973744392, Q2 : 0.0391292013228, Q3 : -0.150440365076, Q4 : 0.248899251223}
2019-04-03 18:44:30.09: SIM {TimeUS : 758115799, Roll : -0.01, Pitch : -17.91, Yaw : 29.18, Alt : 592.5, Lat : -35.3628973, Lng : 149.1654768, Q1 : 0.955939114094, Q2 : 0.039112970233, Q3 : -0.150748878717, Q4 : 0.248848214746}
2019-04-03 18:44:30.19: SIM {TimeUS : 758215759, Roll : -0.01, Pitch : -17.92, Yaw : 29.18, Alt : 592.530029297, Lat : -35.3628935, Lng : 149.1654795, Q1 : 0.955942094326, Q2 : 0.0390980392694, Q3 : -0.15078766644, Q4 : 0.248815521598}
2019-04-03 18:44:30.29: SIM {TimeUS : 758315719, Roll : -0.01, Pitch : -17.89, Yaw : 29.17, Alt : 592.559997559, Lat : -35.3628895, Lng : 149.1654821, Q1 : 0.955982625484, Q2 : 0.0390536561608, Q3 : -0.150585591793, Q4 : 0.248789131641}
2019-04-03 18:44:30.39: SIM {TimeUS : 758415679, Roll : -0.01, Pitch : -17.87, Yaw : 29.17, Alt : 592.590026855, Lat : -35.3628858, Lng : 149.1654848, Q1 : 0.956022441387, Q2 : 0.0390216261148, Q3 : -0.150403246284, Q4 : 0.248751536012}
2019-04-03 18:44:30.50: SIM {TimeUS : 758516472, Roll : -0.01, Pitch : -17.86, Yaw : 29.16, Alt : 592.619995117, Lat : -35.3628819, Lng : 149.1654874, Q1 : 0.956051051617, Q2 : 0.0390012934804, Q3 : -0.150303170085, Q4 : 0.248705178499}
2019-04-03 18:44:30.60: SIM {TimeUS : 758616432, Roll : 0.0, Pitch : -17.86, Yaw : 29.15, Alt : 592.650024414, Lat : -35.362878, Lng : 149.16549, Q1 : 0.956063747406, Q2 : 0.0390071496367, Q3 : -0.150308564305, Q4 : 0.248652264476}
2019-04-03 18:44:30.70: SIM {TimeUS : 758716392, Roll : 0.0, Pitch : -17.87, Yaw : 29.15, Alt : 592.679992676, Lat : -35.3628743, Lng : 149.1654926, Q1 : 0.956063687801, Q2 : 0.0390618033707, Q3 : -0.150380253792, Q4 : 0.248600408435}
2019-04-03 18:44:30.80: SIM {TimeUS : 758816352, Roll : 0.0, Pitch : -17.9, Yaw : 29.14, Alt : 592.710021973, Lat : -35.3628704, Lng : 149.1654951, Q1 : 0.956033706665, Q2 : 0.0392251759768, Q3 : -0.150593787432, Q4 : 0.248560845852}
2019-04-03 18:44:30.90: SIM {TimeUS : 758916312, Roll : 0.01, Pitch : -17.9, Yaw : 29.14, Alt : 592.739990234, Lat : -35.3628665, Lng : 149.1654979, Q1 : 0.956046760082, Q2 : 0.0392979793251, Q3 : -0.150543034077, Q4 : 0.248529955745}
2019-04-03 18:44:31.00: SIM {TimeUS : 759016272, Roll : 0.01, Pitch : -17.86, Yaw : 29.13, Alt : 592.770019531, Lat : -35.3628627, Lng : 149.1655005, Q1 : 0.95610833168, Q2 : 0.0391483455896, Q3 : -0.150263890624, Q4 : 0.248485580087}
2019-04-03 18:44:31.10: SIM {TimeUS : 759116232, Roll : 0.0, Pitch : -17.84, Yaw : 29.12, Alt : 592.799987793, Lat : -35.3628589, Lng : 149.1655031, Q1 : 0.956159412861, Q2 : 0.0389268919826, Q3 : -0.150100365281, Q4 : 0.248422667384}
2019-04-03 18:44:31.20: SIM {TimeUS : 759216192, Roll : -0.01, Pitch : -17.84, Yaw : 29.12, Alt : 592.83001709, Lat : -35.3628549, Lng : 149.1655056, Q1 : 0.956165850163, Q2 : 0.0388786792755, Q3 : -0.150147691369, Q4 : 0.248376742005}
2019-04-03 18:44:31.30: SIM {TimeUS : 759316152, Roll : 0.0, Pitch : -17.85, Yaw : 29.11, Alt : 592.859985352, Lat : -35.3628512, Lng : 149.1655084, Q1 : 0.956169962883, Q2 : 0.0389323309064, Q3 : -0.150179117918, Q4 : 0.24833342433}
2019-04-03 18:44:31.40: SIM {TimeUS : 759416112, Roll : 0.01, Pitch : -17.87, Yaw : 29.11, Alt : 592.890014648, Lat : -35.3628473, Lng : 149.1655109, Q1 : 0.956150710583, Q2 : 0.0391302742064, Q3 : -0.150308385491, Q4 : 0.248298257589}
2019-04-03 18:44:31.50: SIM {TimeUS : 759516072, Roll : 0.03, Pitch : -17.9, Yaw : 29.1, Alt : 592.91998291, Lat : -35.3628434, Lng : 149.1655136, Q1 : 0.956118285656, Q2 : 0.0393581241369, Q3 : -0.150523468852, Q4 : 0.248256921768}
2019-04-03 18:44:31.59: SIM {TimeUS : 759616032, Roll : 0.02, Pitch : -17.92, Yaw : 29.09, Alt : 592.950012207, Lat : -35.3628396, Lng : 149.1655161, Q1 : 0.956111252308, Q2 : 0.0393200218678, Q3 : -0.150706082582, Q4 : 0.248179331422}
2019-04-03 18:44:31.69: SIM {TimeUS : 759715992, Roll : 0.0, Pitch : -17.92, Yaw : 29.09, Alt : 592.979980469, Lat : -35.3628358, Lng : 149.1655189, Q1 : 0.95613026619, Q2 : 0.0391893573105, Q3 : -0.150752797723, Q4 : 0.2480982095}
2019-04-03 18:44:31.79: SIM {TimeUS : 759815952, Roll : -0.01, Pitch : -17.92, Yaw : 29.08, Alt : 593.010009766, Lat : -35.3628318, Lng : 149.1655214, Q1 : 0.956153512001, Q2 : 0.0390157923102, Q3 : -0.150790840387, Q4 : 0.248012885451}
2019-04-03 18:44:31.89: SIM {TimeUS : 759915912, Roll : -0.02, Pitch : -17.93, Yaw : 29.07, Alt : 593.039978027, Lat : -35.3628281, Lng : 149.1655241, Q1 : 0.956152021885, Q2 : 0.038902271539, Q3 : -0.150969296694, Q4 : 0.247927725315}
2019-04-03 18:44:31.99: SIM {TimeUS : 760015872, Roll : -0.02, Pitch : -17.97, Yaw : 29.06, Alt : 593.070007324, Lat : -35.3628242, Lng : 149.1655267, Q1 : 0.956124544144, Q2 : 0.0389511585236, Q3 : -0.151256993413, Q4 : 0.247850671411}
2019-04-03 18:44:32.09: SIM {TimeUS : 760115832, Roll : 0.0, Pitch : -17.98, Yaw : 29.06, Alt : 593.099975586, Lat : -35.3628202, Lng : 149.1655294, Q1 : 0.956118524075, Q2 : 0.0391377583146, Q3 : -0.151319369674, Q4 : 0.247806668282}
2019-04-03 18:44:32.19: SIM {TimeUS : 760215792, Roll : 0.02, Pitch : -17.96, Yaw : 29.05, Alt : 593.130004883, Lat : -35.3628165, Lng : 149.1655321, Q1 : 0.956145942211, Q2 : 0.0393426455557, Q3 : -0.151125907898, Q4 : 0.247786343098}
2019-04-03 18:44:32.29: SIM {TimeUS : 760315752, Roll : 0.04, Pitch : -17.94, Yaw : 29.04, Alt : 593.159973145, Lat : -35.3628126, Lng : 149.1655347, Q1 : 0.956181406975, Q2 : 0.0394667796791, Q3 : -0.150909975171, Q4 : 0.247761249542}
2019-04-03 18:44:32.39: SIM {TimeUS : 760415712, Roll : 0.04, Pitch : -17.94, Yaw : 29.04, Alt : 593.190002441, Lat : -35.3628086, Lng : 149.1655372, Q1 : 0.956202924252, Q2 : 0.0394907221198, Q3 : -0.150836974382, Q4 : 0.247718900442}
2019-04-03 18:44:32.49: SIM {TimeUS : 760515672, Roll : 0.05, Pitch : -17.93, Yaw : 29.03, Alt : 593.219970703, Lat : -35.3628048, Lng : 149.16554, Q1 : 0.956220328808, Q2 : 0.0394979789853, Q3 : -0.150791734457, Q4 : 0.247678145766}
2019-04-03 18:44:32.60: SIM {TimeUS : 760616465, Roll : 0.04, Pitch : -17.93, Yaw : 29.03, Alt : 593.25, Lat : -35.3628008, Lng : 149.1655425, Q1 : 0.956229925156, Q2 : 0.0394225493073, Q3 : -0.150834172964, Q4 : 0.247627258301}
2019-04-03 18:44:32.70: SIM {TimeUS : 760716425, Roll : 0.04, Pitch : -17.94, Yaw : 29.02, Alt : 593.280029297, Lat : -35.3627971, Lng : 149.1655453, Q1 : 0.956224858761, Q2 : 0.0394442155957, Q3 : -0.150921553373, Q4 : 0.247590273619}
