2019-09-29 18:44:00.90: SIM {TimeUS : 40928622, Roll : 0.0, Pitch : 0.0, Yaw : 169.99, Alt : 87.0999984741, Lat : 69.7758389, Lng : 19.5489289, Q1 : 0.087155804038, Q2 : 0.0, Q3 : 0.0, Q4 : 0.996194720268}
2019-09-29 18:44:01.00: SIM {TimeUS : 41028582, Roll : 0.0, Pitch : 0.0, Yaw : 169.99, Alt : 87.0999984741, Lat : 69.7758389, Lng : 19.5489289, Q1 : 0.087155804038, Q2 : 0.0, Q3 : 0.0, Q4 : 0.996194720268}
2019-09-29 18:44:01.09: SIM {TimeUS : 41128542, Roll : 0.0, Pitch : 0.0, Yaw : 169.99, Alt : 87.0999984741, Lat : 69.7758389, Lng : 19.5489289, Q1 : 0.087155804038, Q2 : 0.0, Q3 : 0.0, Q4 : 0.996194720268}
2019-09-29 18:44:01.19: SIM {TimeUS : 41228502, Roll : 0.0, Pitch : 0.0, Yaw : 169.99, Alt : 87.0999984741, Lat : 69.7758389, Lng : 19.5489289, Q1 : 0.087155804038, Q2 : 0.0, Q3 : 0.0, Q4 : 0.996194720268}
2019-09-29 18:44:01.29: SIM {TimeUS : 41328462, Roll : 0.0, Pitch : 0.0, Yaw : 169.99, Alt : 87.0999984741, Lat : 69.7758389, Lng : 19.5489289, Q1 : 0.087155804038, Q2 : 0.0, Q3 : 0.0, Q4 : 0.996194720268}
2019-09-29 18:44:01.39: SIM {TimeUS : 41428422, Roll : 0.0, Pitch : 0.0, Yaw : 169.99, Alt : 87.0999984741, Lat : 69.7758389, Lng : 19.5489289, Q1 : 0.087155804038, Q2 : 0.0, Q3 : 0.0, Q4 : 0.996194720268}
2019-09-29 18:44:01.49: SIM {TimeUS : 41528382, Roll : 0.0, Pitch : 0.0, Yaw : 169.99, Alt : 87.0999984741, Lat : 69.7758389, Lng : 19.5489289, Q1 : 0.087155804038, Q2 : 0.0, Q3 : 0.0, Q4 : 0.996194720268}
2019-09-29 18:44:01.59: SIM {TimeUS : 41628342, Roll : 0.0, Pitch : 0.0, Yaw : 169.99, Alt : 87.0999984741, Lat : 69.7758389, Lng : 19.5489289, Q1 : 0.087155804038, Q2 : 0.0, Q3 : 0.0, Q4 : 0.996194720268}
2019-09-29 18:44:01.69: SIM {TimeUS : 41728302, Roll : 0.0, Pitch : 0.0, Yaw : 169.99, Alt : 87.0999984741, Lat : 69.7758389, Lng : 19.5489289, Q1 : 0.087155804038, Q2 : 0.0, Q3 : 0.0, Q4 : 0.996194720268}
2019-09-29 18:44:01.79: SIM {TimeUS : 41828262, Roll : 0.0, Pitch : 0.0, Yaw : 169.99, Alt : 87.0999984741, Lat : 69.7758389, Lng : 19.5489289, Q1 : 0.087155804038, Q2 : 0.0, Q3 : 0.0, Q4 : 0.996194720268}
2019-09-29 18:44:01.89: SIM {TimeUS : 41928222, Roll : 0.0, Pitch : 0.0, Yaw : 169.99, Alt : 87.0999984741, Lat : 69.7758389, Lng : 19.5489289, Q1 : 0.087155804038, Q2 : 0.0, Q3 : 0.0, Q4 : 0.996194720268}
2019-09-29 18:44:01.99: SIM {TimeUS : 42028182, Roll : 0.0, Pitch : 0.0, Yaw : 169.99, Alt : 87.0999984741, Lat : 69.7758389, Lng : 19.5489289, Q1 : 0.087155804038, Q2 : 0.0, Q3 : 0.0, Q4 : 0.996194720268}
2019-09-29 18:44:02.10: SIM {TimeUS : 42128975, Roll : 0.0, Pitch : 0.0, Yaw : 169.99, Alt : 87.0999984741, Lat : 69.7758389, Lng : 19.5489289, Q1 : 0.087155804038, Q2 : 0.0, Q3 : 0.0, Q4 : 0.996194720268}
2019-09-29 18:44:02.20: SIM {TimeUS : 42228935, Roll : 0.0, Pitch : 0.0, Yaw : 169.99, Alt : 87.0999984741, Lat : 69.7758389, Lng : 19.5489289, Q1 : 0.087155804038, Q2 : 0.0, Q3 : 0.0, Q4 : 0.996194720268}
2019-09-29 18:44:02.30: SIM {TimeUS : 42328895, Roll : 0.0, Pitch : 0.0, Yaw : 169.99, Alt : 87.0999984741, Lat : 69.7758389, Lng : 19.5489289, Q1 : 0.087155804038, Q2 : 0.0, Q3 : 0.0, Q4 : 0.996194720268}
2019-09-29 18:44:02.40: SIM {TimeUS : 42428855, Roll : 0.0, Pitch : 0.0, Yaw : 169.99, Alt : 87.0999984741, Lat : 69.7758389, Lng : 19.5489289, Q1 : 0.087155804038, Q2 : 0.0, Q3 : 0.0, Q4 : 0.996194720268}
2019-09-29 18:44:02.50: SIM {TimeUS : 42528815, Roll : 0.0, Pitch : 0.0, Yaw : 169.99, Alt : 87.0999984741, Lat : 69.7758389, Lng : 19.5489289, Q1 : 0.087155804038, Q2 : 0.0, Q3 : 0.0, Q4 : 0.996194720268}
2019-09-29 18:44:02.60: SIM {TimeUS : 42628775, Roll : 0.0, Pitch : 0.0, Yaw : 169.99, Alt : 87.0999984741, Lat : 69.7758389, Lng : 19.5489289, Q1 : 0.087155804038, Q2 : 0.0, Q3 : 0.0, Q4 : 0.996194720268}
2019-09-29 18:44:02.70: SIM {TimeUS : 42728735, Roll : 0.0, Pitch : 0.0, Yaw : 169.99, Alt : 87.0999984741, Lat : 69.7758389, Lng : 19.5489289, Q1 : 0.087155804038, Q2 : 0.0, Q3 : 0.0, Q4 : 0.996194720268}
2019-09-29 18:44:02.80: SIM {TimeUS : 42828695, Roll : 0.0, Pitch : 0.0, Yaw : 169.99, Alt : 87.0999984741, Lat : 69.7758389, Lng : 19.5489289, Q1 : 0.087155804038, Q2 : 0.0, Q3 : 0.0, Q4 : 0.996194720268}
2019-09-29 18:44:02.90: SIM {TimeUS : 42928655, Roll : 0.0, Pitch : 0.0, Yaw : 169.99, Alt : 87.0999984741, Lat : 69.7758389, Lng : 19.5489289, Q1 : 0.087155804038, Q2 : 0.0, Q3 : 0.0, Q4 : 0.996194720268}
2019-09-29 18:44:03.00: SIM {TimeUS : 43028615, Roll : 0.0, Pitch : 0.0, Yaw : 169.99, Alt : 87.0999984741, Lat : 69.7758389, Lng : 19.5489289, Q1 : 0.087155804038, Q2 : 0.0, Q3 : 0.0, Q4 : 0.996194720268}
2019-09-29 18:44:03.09: SIM {TimeUS : 43128575, Roll : 0.0, Pitch : 0.0, Yaw : 169.99, Alt : 87.0999984741, Lat : 69.7758389, Lng : 19.5489289, Q1 : 0.087155804038, Q2 : 0.0, Q3 : 0.0, Q4 : 0.996194720268}
2019-09-29 18:44:03.19: SIM {TimeUS : 43228535, Roll : 0.0, Pitch : 0.0, Yaw : 169.99, Alt : 87.0999984741, Lat : 69.7758389, Lng : 19.5489289, Q1 : 0.087155804038, Q2 : 0.0, Q3 : 0.0, Q4 : 0.996194720268}
2019-09-29 18:44:03.29: SIM {TimeUS : 43328495, Roll : 0.0, Pitch : 0.0, Yaw : 169.99, Alt : 87.0999984741, Lat : 69.7758389, Lng : 19.5489289, Q1 : 0.087155804038, Q2 : 0.0, Q3 : 0.0, Q4 : 0.996194720268}
2019-09-29 18:44:03.39: SIM {TimeUS : 43428455, Roll : 0.0, Pitch : 0.0, Yaw : 169.99, Alt : 87.0999984741, Lat : 69.7758389, Lng : 19.5489289, Q1 : 0.087155804038, Q2 : 0.0, Q3 : 0.0, Q4 : 0.996194720268}
2019-09-29 18:44:03.49: SIM {TimeUS : 43528415, Roll : 0.0, Pitch : 0.0, Yaw : 169.99, Alt : 87.0999984741, Lat : 69.7758389, Lng : 19.5489289, Q1 : 0.087155804038, Q2 : 0.0, Q3 : 0.0, Q4 : 0.996194720268}
2019-09-29 18:44:03.59: SIM {TimeUS : 43628375, Roll : 0.0, Pitch : 0.0, Yaw : 169.99, Alt : 87.0999984741, Lat : 69.7758389, Lng : 19.5489289, Q1 : 0.087155804038, Q2 : 0.0, Q3 : 0.0, Q4 : 0.996194720268}
2019-09-29 18:44:03.69: SIM {TimeUS : 43728335, Roll : 0.0, Pitch : 0.0, Yaw : 169.99, Alt : 87.1200027466, Lat : 69.7758389, Lng : 19.5489289, Q1 : 0.087155804038, Q2 : 0.0, Q3 : 0.0, Q4 : 0.996194720268}
2019-09-29 18:44:03.79: SIM {TimeUS : 43828295, Roll : 0.0, Pitch : 0.0, Yaw : 169.99, Alt : 87.1600036621, Lat : 69.7758389, Lng : 19.5489289, Q1 : 0.087155804038, Q2 : 0.0, Q3 : 0.0, Q4 : 0.996194720268}
2019-09-29 18:44:03.89: SIM {TimeUS : 43928255, Roll : 0.0, Pitch : 0.0, Yaw : 170.0, Alt : 87.2200012207, Lat : 69.7758389, Lng : 19.5489289, Q1 : 0.0871555879712, Q2 : 2.99225430354e-05, Q3 : -3.61099446309e-05, Q4 : 0.996194779873}
2019-09-29 18:44:03.99: SIM {TimeUS : 44028215, Roll : -0.16, Pitch : -0.14, Yaw : 170.0, Alt : 87.2900009155, Lat : 69.7758389, Lng : 19.5489289, Q1 : 0.0871345624328, Q2 : 0.00111741910223, Q3 : -0.0015089813387, Q4 : 0.996194839478}
2019-09-29 18:44:04.09: SIM {TimeUS : 44128175, Roll : -0.41, Pitch : -0.34, Yaw : 170.0, Alt : 87.4300003052, Lat : 69.7758389, Lng : 19.5489289, Q1 : 0.0870879292488, Q2 : 0.00266549526714, Q3 : -0.0038825981319, Q4 : 0.996189534664}
2019-09-29 18:44:04.20: SIM {TimeUS : 44228968, Roll : -0.62, Pitch : -0.5, Yaw : 170.01, Alt : 87.5999984741, Lat : 69.7758389, Lng : 19.5489289, Q1 : 0.0870171263814, Q2 : 0.0038949130103, Q3 : -0.00577809521928, Q4 : 0.996182501316}
2019-09-29 18:44:04.30: SIM {TimeUS : 44328928, Roll : -0.68, Pitch : -0.55, Yaw : 170.02, Alt : 87.7900009155, Lat : 69.7758389, Lng : 19.5489291, Q1 : 0.0869321897626, Q2 : 0.00429831491783, Q3 : -0.00635430729017, Q4 : 0.996184706688}
2019-09-29 18:44:04.40: SIM {TimeUS : 44428888, Roll : -0.61, Pitch : -0.51, Yaw : 170.03, Alt : 87.9700012207, Lat : 69.7758389, Lng : 19.5489291, Q1 : 0.0868385732174, Q2 : 0.00399059057236, Q3 : -0.00569406663999, Q4 : 0.996198117733}
2019-09-29 18:44:04.50: SIM {TimeUS : 44528848, Roll : -0.44, Pitch : -0.39, Yaw : 170.04, Alt : 88.1600036621, Lat : 69.7758389, Lng : 19.5489292, Q1 : 0.08674826473, Q2 : 0.00306983082555, Q3 : -0.00420043803751, Q4 : 0.996216714382}
2019-09-29 18:44:04.60: SIM {TimeUS : 44628808, Roll : -0.26, Pitch : -0.22, Yaw : 170.05, Alt : 88.3399963379, Lat : 69.7758389, Lng : 19.5489294, Q1 : 0.0866749957204, Q2 : 0.00177217973396, Q3 : -0.00249191839248, Q4 : 0.996231973171}
2019-09-29 18:44:04.70: SIM {TimeUS : 44728768, Roll : -0.11, Pitch : -0.07, Yaw : 170.06, Alt : 88.5299987793, Lat : 69.7758389, Lng : 19.5489295, Q1 : 0.086617782712, Q2 : 0.000589362229221, Q3 : -0.00109816191252, Q4 : 0.996240854263}
2019-09-29 18:44:04.80: SIM {TimeUS : 44828728, Roll : -0.03, Pitch : 0.0, Yaw : 170.06, Alt : 88.7300033569, Lat : 69.7758389, Lng : 19.5489297, Q1 : 0.0865774601698, Q2 : -7.81771959737e-05, Q3 : -0.000282740307739, Q4 : 0.996245086193}
2019-09-29 18:44:04.90: SIM {TimeUS : 44928688, Roll : 0.0, Pitch : 0.03, Yaw : 170.06, Alt : 88.9199981689, Lat : 69.7758389, Lng : 19.5489298, Q1 : 0.0865573659539, Q2 : -0.000279026280623, Q3 : 5.3333795222e-05, Q4 : 0.996246874332}
2019-09-29 18:44:05.00: SIM {TimeUS : 45028648, Roll : 0.0, Pitch : 0.02, Yaw : 170.06, Alt : 89.1299972534, Lat : 69.7758388, Lng : 19.5489298, Q1 : 0.0865525603294, Q2 : -0.000236170148128, Q3 : 7.44922945159e-05, Q4 : 0.996247291565}
2019-09-29 18:44:05.10: SIM {TimeUS : 45128608, Roll : 0.02, Pitch : 0.0, Yaw : 170.06, Alt : 89.3300018311, Lat : 69.7758388, Lng : 19.54893, Q1 : 0.0865577682853, Q2 : -2.25377280003e-05, Q3 : 0.000183283962542, Q4 : 0.996246814728}
2019-09-29 18:44:05.19: SIM {TimeUS : 45228568, Roll : 0.04, Pitch : -0.02, Yaw : 170.06, Alt : 89.5299987793, Lat : 69.7758388, Lng : 19.5489301, Q1 : 0.0865768641233, Q2 : 0.000246477953624, Q3 : 0.000347290246282, Q4 : 0.996245086193}
2019-09-29 18:44:05.29: SIM {TimeUS : 45328528, Roll : 0.07, Pitch : -0.01, Yaw : 170.06, Alt : 89.7399978638, Lat : 69.7758388, Lng : 19.5489301, Q1 : 0.0866088792682, Q2 : 0.000198159134015, Q3 : 0.000678268494084, Q4 : 0.996242165565}
2019-09-29 18:44:05.39: SIM {TimeUS : 45428488, Roll : 0.13, Pitch : 0.03, Yaw : 170.06, Alt : 89.9499969482, Lat : 69.7758387, Lng : 19.5489303, Q1 : 0.0866331085563, Q2 : -0.000170543396962, Q3 : 0.00123993994202, Q4 : 0.996239483356}
2019-09-29 18:44:05.49: SIM {TimeUS : 45528448, Roll : 0.18, Pitch : 0.09, Yaw : 170.05, Alt : 90.1500015259, Lat : 69.7758387, Lng : 19.5489304, Q1 : 0.086663544178, Q2 : -0.000728604849428, Q3 : 0.00164304627106, Q4 : 0.996236026287}
2019-09-29 18:44:05.59: SIM {TimeUS : 45628408, Roll : 0.19, Pitch : 0.15, Yaw : 170.05, Alt : 90.3600006104, Lat : 69.7758387, Lng : 19.5489304, Q1 : 0.0866931825876, Q2 : -0.00123986997642, Q3 : 0.00181858730502, Q4 : 0.996232628822}
2019-09-29 18:44:05.69: SIM {TimeUS : 45728368, Roll : 0.19, Pitch : 0.18, Yaw : 170.05, Alt : 90.5800018311, Lat : 69.7758387, Lng : 19.5489305, Q1 : 0.0867188572884, Q2 : -0.00145075609908, Q3 : 0.00185908656567, Q4 : 0.996230065823}
2019-09-29 18:44:05.79: SIM {TimeUS : 45828328, Roll : 0.17, Pitch : 0.16, Yaw : 170.04, Alt : 90.7900009155, Lat : 69.7758387, Lng : 19.5489305, Q1 : 0.0867327302694, Q2 : -0.0013120053336, Q3 : 0.00167095707729, Q4 : 0.996229350567}
2019-09-29 18:44:05.89: SIM {TimeUS : 45928288, Roll : 0.15, Pitch : 0.11, Yaw : 170.04, Alt : 91.0, Lat : 69.7758387, Lng : 19.5489305, Q1 : 0.0867308303714, Q2 : -0.000875180878211, Q3 : 0.00140178157017, Q4 : 0.99623042345}
2019-09-29 18:44:05.99: SIM {TimeUS : 46028248, Roll : 0.11, Pitch : 0.04, Yaw : 170.05, Alt : 91.2200012207, Lat : 69.7758387, Lng : 19.5489305, Q1 : 0.0867135897279, Q2 : -0.00028794343234, Q3 : 0.00103906949516, Q4 : 0.996232688427}
2019-09-29 18:44:06.09: SIM {TimeUS : 46128208, Roll : 0.09, Pitch : 0.0, Yaw : 170.05, Alt : 91.4300003052, Lat : 69.7758387, Lng : 19.5489305, Q1 : 0.0866853892803, Q2 : 5.28739947185e-05, Q3 : 0.000854732119478, Q4 : 0.996235370636}
2019-09-29 18:44:06.19: SIM {TimeUS : 46228168, Roll : 0.1, Pitch : 0.0, Yaw : 170.05, Alt : 91.6500015259, Lat : 69.7758387, Lng : 19.5489305, Q1 : 0.0866609141231, Q2 : 4.27877712355e-05, Q3 : 0.000887303962372, Q4 : 0.996237456799}
2019-09-29 18:44:06.30: SIM {TimeUS : 46328961, Roll : 0.08, Pitch : 0.01, Yaw : 170.05, Alt : 91.8700027466, Lat : 69.7758387, Lng : 19.5489305, Q1 : 0.0866451710463, Q2 : -0.000103902042611, Q3 : 0.000786917167716, Q4 : 0.996238946915}
2019-09-29 18:44:06.40: SIM {TimeUS : 46428921, Roll : 0.05, Pitch : 0.01, Yaw : 170.05, Alt : 92.0899963379, Lat : 69.7758387, Lng : 19.5489305, Q1 : 0.0866358205676, Q2 : -6.08937698416e-05, Q3 : 0.000492052116897, Q4 : 0.996239900589}
2019-09-29 18:44:06.50: SIM {TimeUS : 46528881, Roll : 0.02, Pitch : -0.01, Yaw : 170.05, Alt : 92.3099975586, Lat : 69.7758386, Lng : 19.5489305, Q1 : 0.0866370424628, Q2 : 0.000171819934621, Q3 : 0.00022653886117, Q4 : 0.996239900589}
2019-09-29 18:44:06.60: SIM {TimeUS : 46628841, Roll : 0.03, Pitch : -0.05, Yaw : 170.05, Alt : 92.5299987793, Lat : 69.7758386, Lng : 19.5489305, Q1 : 0.08663636446, Q2 : 0.000494617619552, Q3 : 0.000221469454118, Q4 : 0.996239840984}
2019-09-29 18:44:06.70: SIM {TimeUS : 46728801, Roll : 0.06, Pitch : -0.09, Yaw : 170.05, Alt : 92.75, Lat : 69.7758386, Lng : 19.5489305, Q1 : 0.0866469815373, Q2 : 0.000851644843351, Q3 : 0.000466889468953, Q4 : 0.996238648891}
2019-09-29 18:44:06.80: SIM {TimeUS : 46828761, Roll : 0.07, Pitch : -0.12, Yaw : 170.05, Alt : 92.9700012207, Lat : 69.7758386, Lng : 19.5489305, Q1 : 0.0866505280137, Q2 : 0.00112397829071, Q3 : 0.000529702811036, Q4 : 0.99623799324}
2019-09-29 18:44:06.90: SIM {TimeUS : 46928721, Roll : 0.04, Pitch : -0.14, Yaw : 170.05, Alt : 93.1900024414, Lat : 69.7758386, Lng : 19.5489305, Q1 : 0.0866584777832, Q2 : 0.00130535743665, Q3 : 0.000304885965306, Q4 : 0.996237158775}
2019-09-29 18:44:07.00: SIM {TimeUS : 47028681, Roll : 0.01, Pitch : -0.12, Yaw : 170.05, Alt : 93.4100036621, Lat : 69.7758386, Lng : 19.5489305, Q1 : 0.0866713672876, Q2 : 0.00111342000309, Q3 : 2.13639577851e-05, Q4 : 0.99623632431}
2019-09-29 18:44:07.10: SIM {TimeUS : 47128641, Roll : -0.02, Pitch : -0.08, Yaw : 170.05, Alt : 93.6399993896, Lat : 69.7758386, Lng : 19.5489305, Q1 : 0.0867009684443, Q2 : 0.000700061616953, Q3 : -0.000236613515881, Q4 : 0.996234118938}
2019-09-29 18:44:07.20: SIM {TimeUS : 47228601, Roll : -0.03, Pitch : -0.04, Yaw : 170.04, Alt : 93.8600006104, Lat : 69.7758386, Lng : 19.5489305, Q1 : 0.0867272987962, Q2 : 0.000353061099304, Q3 : -0.000329251517542, Q4 : 0.996231973171}
2019-09-29 18:44:07.29: SIM {TimeUS : 47328561, Roll : -0.03, Pitch : 0.0, Yaw : 170.04, Alt : 94.0899963379, Lat : 69.7758386, Lng : 19.5489305, Q1 : 0.0867498219013, Q2 : 1.44777723108e-05, Q3 : -0.000266432209173, Q4 : 0.996230125427}
2019-09-29 18:44:07.39: SIM {TimeUS : 47428521, Roll : 0.0, Pitch : 0.01, Yaw : 170.04, Alt : 94.3099975586, Lat : 69.7758386, Lng : 19.5489305, Q1 : 0.0867713168263, Q2 : -0.00013380528253, Q3 : -1.83173306141e-05, Q4 : 0.996228277683}
2019-09-29 18:44:07.49: SIM {TimeUS : 47528481, Roll : 0.05, Pitch : 0.0, Yaw : 170.04, Alt : 94.5400009155, Lat : 69.7758386, Lng : 19.5489305, Q1 : 0.0867830961943, Q2 : 0.000122854442452, Q3 : 0.000436832837295, Q4 : 0.996227145195}
2019-09-29 18:44:07.59: SIM {TimeUS : 47628441, Roll : 0.08, Pitch : -0.03, Yaw : 170.04, Alt : 94.7699966431, Lat : 69.7758386, Lng : 19.5489305, Q1 : 0.0867934525013, Q2 : 0.000407833023928, Q3 : 0.000694098009262, Q4 : 0.996226012707}
2019-09-29 18:44:07.69: SIM {TimeUS : 47728401, Roll : 0.07, Pitch : -0.06, Yaw : 170.03, Alt : 94.9899978638, Lat : 69.7758386, Lng : 19.5489305, Q1 : 0.0868089199066, Q2 : 0.000581669795793, Q3 : 0.000602892134339, Q4 : 0.9962246418}
2019-09-29 18:44:07.79: SIM {TimeUS : 47828361, Roll : 0.03, Pitch : -0.05, Yaw : 170.03, Alt : 95.2200012207, Lat : 69.7758386, Lng : 19.5489305, Q1 : 0.0868232399225, Q2 : 0.000510281126481, Q3 : 0.000218431072426, Q4 : 0.996223568916}
2019-09-29 18:44:07.89: SIM {TimeUS : 47928321, Roll : 0.0, Pitch : -0.04, Yaw : 170.03, Alt : 95.4499969482, Lat : 69.7758386, Lng : 19.5489305, Q1 : 0.0868302509189, Q2 : 0.000424884608947, Q3 : -5.74732330278e-05, Q4 : 0.996223032475}
2019-09-29 18:44:07.99: SIM {TimeUS : 48028281, Roll : 0.0, Pitch : -0.05, Yaw : 170.03, Alt : 95.6800003052, Lat : 69.7758386, Lng : 19.5489305, Q1 : 0.0868307352066, Q2 : 0.000511668389663, Q3 : -7.23915436538e-05, Q4 : 0.99622297287}
2019-09-29 18:44:08.09: SIM {TimeUS : 48128241, Roll : 0.0, Pitch : -0.06, Yaw : 170.03, Alt : 95.9100036621, Lat : 69.7758386, Lng : 19.5489305, Q1 : 0.0868186801672, Q2 : 0.000557990046218, Q3 : -0.000103518024844, Q4 : 0.996223986149}
2019-09-29 18:44:08.19: SIM {TimeUS : 48228201, Roll : 0.0, Pitch : -0.07, Yaw : 170.04, Alt : 96.1399993896, Lat : 69.7758386, Lng : 19.5489305, Q1 : 0.0868043974042, Q2 : 0.000645275169518, Q3 : -0.000140320000355, Q4 : 0.996225178242}
2019-09-29 18:44:08.29: SIM {TimeUS : 48328161, Roll : -0.01, Pitch : -0.07, Yaw : 170.04, Alt : 96.3700027466, Lat : 69.7758386, Lng : 19.5489305, Q1 : 0.086791433394, Q2 : 0.000655301904771, Q3 : -0.000230799327255, Q4 : 0.996226251125}
2019-09-29 18:44:08.40: SIM {TimeUS : 48428954, Roll : -0.03, Pitch : -0.06, Yaw : 170.04, Alt : 96.5999984741, Lat : 69.7758386, Lng : 19.5489305, Q1 : 0.0867785215378, Q2 : 0.00057955289958, Q3 : -0.000371621106751, Q4 : 0.996227383614}
2019-09-29 18:44:08.50: SIM {TimeUS : 48528914, Roll : -0.05, Pitch : -0.04, Yaw : 170.04, Alt : 96.8399963379, Lat : 69.7758384, Lng : 19.5489305, Q1 : 0.086771838367, Q2 : 0.000330051174387, Q3 : -0.000530630873982, Q4 : 0.996228039265}
2019-09-29 18:44:08.60: SIM {TimeUS : 48628874, Roll : -0.07, Pitch : -0.02, Yaw : 170.04, Alt : 97.0699996948, Lat : 69.7758384, Lng : 19.5489305, Q1 : 0.0867676734924, Q2 : 0.000147021055454, Q3 : -0.000671490095556, Q4 : 0.996228337288}
2019-09-29 18:44:08.70: SIM {TimeUS : 48728834, Roll : -0.09, Pitch : -0.01, Yaw : 170.04, Alt : 97.3000030518, Lat : 69.7758384, Lng : 19.5489305, Q1 : 0.0867666080594, Q2 : 3.68037508451e-05, Q3 : -0.000798142631538, Q4 : 0.996228396893}
2019-09-29 18:44:08.80: SIM {TimeUS : 48828794, Roll : -0.09, Pitch : -0.01, Yaw : 170.04, Alt : 97.5299987793, Lat : 69.7758384, Lng : 19.5489305, Q1 : 0.0867717713118, Q2 : 5.15936590091e-05, Q3 : -0.000866332207806, Q4 : 0.996227860451}
2019-09-29 18:44:08.90: SIM {TimeUS : 48928754, Roll : -0.07, Pitch : -0.04, Yaw : 170.04, Alt : 97.7699966431, Lat : 69.7758384, Lng : 19.5489305, Q1 : 0.0867857187986, Q2 : 0.000374641094822, Q3 : -0.000647367734928, Q4 : 0.996226727962}
2019-09-29 18:44:09.00: SIM {TimeUS : 49028714, Roll : -0.02, Pitch : -0.08, Yaw : 170.04, Alt : 98.0, Lat : 69.7758384, Lng : 19.5489305, Q1 : 0.0868073925376, Q2 : 0.000737199734431, Q3 : -0.000241222645855, Q4 : 0.996224820614}
2019-09-29 18:44:09.10: SIM {TimeUS : 49128674, Roll : 0.03, Pitch : -0.1, Yaw : 170.03, Alt : 98.2300033569, Lat : 69.7758384, Lng : 19.5489305, Q1 : 0.0868200734258, Q2 : 0.000948836328462, Q3 : 0.000231355661526, Q4 : 0.996223568916}
2019-09-29 18:44:09.20: SIM {TimeUS : 49228634, Roll : 0.07, Pitch : -0.09, Yaw : 170.03, Alt : 98.4700012207, Lat : 69.7758384, Lng : 19.5489305, Q1 : 0.0868201032281, Q2 : 0.000856123049743, Q3 : 0.000583794724662, Q4 : 0.996223449707}
2019-09-29 18:44:09.30: SIM {TimeUS : 49328594, Roll : 0.09, Pitch : -0.06, Yaw : 170.03, Alt : 98.6999969482, Lat : 69.7758384, Lng : 19.5489305, Q1 : 0.0868189558387, Q2 : 0.000624336593319, Q3 : 0.000761771923862, Q4 : 0.996223628521}
2019-09-29 18:44:09.39: SIM {TimeUS : 49428554, Roll : 0.06, Pitch : -0.04, Yaw : 170.03, Alt : 98.9300003052, Lat : 69.7758384, Lng : 19.5489305, Q1 : 0.0868369564414, Q2 : 0.000405729311751, Q3 : 0.000572068442125, Q4 : 0.996222317219}
2019-09-29 18:44:09.49: SIM {TimeUS : 49528514, Roll : 0.02, Pitch : -0.03, Yaw : 170.03, Alt : 99.1699981689, Lat : 69.7758384, Lng : 19.5489305, Q1 : 0.0868595913053, Q2 : 0.000289784220513, Q3 : 0.000213952822378, Q4 : 0.996220529079}
2019-09-29 18:44:09.59: SIM {TimeUS : 49628474, Roll : 0.0, Pitch : -0.04, Yaw : 170.03, Alt : 99.4000015259, Lat : 69.7758384, Lng : 19.5489305, Q1 : 0.0868792459369, Q2 : 0.0004072865122, Q3 : -0.000102421436168, Q4 : 0.996218800545}
2019-09-29 18:44:09.69: SIM {TimeUS : 49728434, Roll : -0.03, Pitch : -0.06, Yaw : 170.02, Alt : 99.6399993896, Lat : 69.7758384, Lng : 19.5489305, Q1 : 0.0869016572833, Q2 : 0.000513622188009, Q3 : -0.000341660663253, Q4 : 0.996216714382}
2019-09-29 18:44:09.79: SIM {TimeUS : 49828394, Roll : -0.05, Pitch : -0.02, Yaw : 170.02, Alt : 99.8700027466, Lat : 69.7758384, Lng : 19.5489305, Q1 : 0.0869325846434, Q2 : 0.000201443195692, Q3 : -0.000538005435374, Q4 : 0.996214032173}
2019-09-29 18:44:09.89: SIM {TimeUS : 49928354, Roll : -0.07, Pitch : 0.04, Yaw : 170.02, Alt : 100.11000061, Lat : 69.7758384, Lng : 19.5489305, Q1 : 0.0869470313191, Q2 : -0.000446742807981, Q3 : -0.000651929003652, Q4 : 0.996212661266}
2019-09-29 18:44:09.99: SIM {TimeUS : 50028314, Roll : -0.06, Pitch : 0.1, Yaw : 170.02, Alt : 100.339996338, Lat : 69.7758384, Lng : 19.5489305, Q1 : 0.0869562104344, Q2 : -0.00095478259027, Q3 : -0.000518594693858, Q4 : 0.996211528778}
2019-09-29 18:44:10.09: SIM {TimeUS : 50128274, Roll : -0.03, Pitch : 0.11, Yaw : 170.02, Alt : 100.580001831, Lat : 69.7758384, Lng : 19.5489305, Q1 : 0.0869702547789, Q2 : -0.00103418703657, Q3 : -0.000240316599957, Q4 : 0.99621039629}
2019-09-29 18:44:10.19: SIM {TimeUS : 50228234, Roll : -0.01, Pitch : 0.09, Yaw : 170.01, Alt : 100.819999695, Lat : 69.7758384, Lng : 19.5489305, Q1 : 0.0869823694229, Q2 : -0.000810855301097, Q3 : -5.15489482495e-05, Q4 : 0.99620950222}
2019-09-29 18:44:10.29: SIM {TimeUS : 50328194, Roll : 0.0, Pitch : 0.04, Yaw : 170.01, Alt : 101.050003052, Lat : 69.7758384, Lng : 19.5489305, Q1 : 0.0869932621717, Q2 : -0.00042785477126, Q3 : 4.59840775875e-05, Q4 : 0.996208846569}
2019-09-29 18:44:10.39: SIM {TimeUS : 50428154, Roll : 0.0, Pitch : -0.02, Yaw : 170.01, Alt : 101.290000916, Lat : 69.7758384, Lng : 19.5489305, Q1 : 0.0869954153895, Q2 : 0.000201445014682, Q3 : -1.18713678603e-05, Q4 : 0.996208667755}
2019-09-29 18:44:10.50: SIM {TimeUS : 50528947, Roll : 0.0, Pitch : -0.09, Yaw : 170.01, Alt : 101.529998779, Lat : 69.7758384, Lng : 19.5489305, Q1 : 0.0869994461536, Q2 : 0.000788718753029, Q3 : -6.67900167173e-05, Q4 : 0.996208071709}
2019-09-29 18:44:10.60: SIM {TimeUS : 50628907, Roll : -0.01, Pitch : -0.11, Yaw : 170.01, Alt : 101.760002136, Lat : 69.7758384, Lng : 19.5489305, Q1 : 0.087005905807, Q2 : 0.00102322711609, Q3 : -0.000201186267077, Q4 : 0.996207237244}
2019-09-29 18:44:10.70: SIM {TimeUS : 50728867, Roll : -0.01, Pitch : -0.09, Yaw : 170.01, Alt : 102.0, Lat : 69.7758384, Lng : 19.5489305, Q1 : 0.0870169103146, Q2 : 0.000833185215015, Q3 : -0.000236553474679, Q4 : 0.996206462383}
2019-09-29 18:44:10.80: SIM {TimeUS : 50828827, Roll : -0.02, Pitch : -0.02, Yaw : 170.01, Alt : 102.239997864, Lat : 69.7758384, Lng : 19.5489305, Q1 : 0.0870439633727, Q2 : 0.000211511258385, Q3 : -0.000221715163207, Q4 : 0.996204435825}
2019-09-29 18:44:10.90: SIM {TimeUS : 50928787, Roll : 0.0, Pitch : 0.06, Yaw : 170.01, Alt : 102.470001221, Lat : 69.7758384, Lng : 19.5489305, Q1 : 0.087063498795, Q2 : -0.000582151464187, Q3 : 6.28124398645e-05, Q4 : 0.996202647686}
2019-09-29 18:44:11.00: SIM {TimeUS : 51028747, Roll : 0.04, Pitch : 0.12, Yaw : 170.0, Alt : 102.709999084, Lat : 69.7758384, Lng : 19.5489305, Q1 : 0.0870772153139, Q2 : -0.00102464924566, Q3 : 0.000478206231492, Q4 : 0.996200919151}
2019-09-29 18:44:11.10: SIM {TimeUS : 51128707, Roll : 0.07, Pitch : 0.11, Yaw : 170.0, Alt : 102.949996948, Lat : 69.7758384, Lng : 19.5489305, Q1 : 0.0871009975672, Q2 : -0.000950379646383, Q3 : 0.000740902149118, Q4 : 0.996198773384}
2019-09-29 18:44:11.20: SIM {TimeUS : 51228667, Roll : 0.09, Pitch : 0.06, Yaw : 170.0, Alt : 103.180000305, Lat : 69.7758384, Lng : 19.5489305, Q1 : 0.087114803493, Q2 : -0.000479914102471, Q3 : 0.000864476314746, Q4 : 0.99619781971}
2019-09-29 18:44:11.30: SIM {TimeUS : 51328627, Roll : 0.12, Pitch : 0.01, Yaw : 170.0, Alt : 103.419998169, Lat : 69.7758384, Lng : 19.5489305, Q1 : 0.0871229469776, Q2 : -1.85098397196e-05, Q3 : 0.00105375156272, Q4 : 0.996197044849}
2019-09-29 18:44:11.40: SIM {TimeUS : 51428587, Roll : 0.12, Pitch : -0.01, Yaw : 170.0, Alt : 103.650001526, Lat : 69.7758384, Lng : 19.5489305, Q1 : 0.0871260985732, Q2 : 0.000219950394239, Q3 : 0.00108729302883, Q4 : 0.996196687222}
2019-09-29 18:44:11.49: SIM {TimeUS : 51528547, Roll : 0.09, Pitch : 0.0, Yaw : 170.0, Alt : 103.88999939, Lat : 69.7758384, Lng : 19.5489305, Q1 : 0.0871253609657, Q2 : 8.32646182971e-05, Q3 : 0.000824401970021, Q4 : 0.996197044849}
2019-09-29 18:44:11.59: SIM {TimeUS : 51628507, Roll : 0.04, Pitch : 0.02, Yaw : 170.0, Alt : 104.120002747, Lat : 69.7758384, Lng : 19.5489305, Q1 : 0.087120115757, Q2 : -0.000170146362507, Q3 : 0.000386008236092, Q4 : 0.996197760105}
2019-09-29 18:44:11.69: SIM {TimeUS : 51728467, Roll : -0.01, Pitch : 0.03, Yaw : 170.0, Alt : 104.339996338, Lat : 69.7758384, Lng : 19.5489305, Q1 : 0.0871138349175, Q2 : -0.000309203605866, Q3 : -6.47081978968e-05, Q4 : 0.996198296547}
2019-09-29 18:44:11.79: SIM {TimeUS : 51828427, Roll : -0.05, Pitch : 0.03, Yaw : 170.0, Alt : 104.569999695, Lat : 69.7758384, Lng : 19.5489305, Q1 : 0.0871091485023, Q2 : -0.000303972774418, Q3 : -0.000420453667175, Q4 : 0.996198654175}
2019-09-29 18:44:11.89: SIM {TimeUS : 51928387, Roll : -0.07, Pitch : 0.03, Yaw : 170.0, Alt : 104.779998779, Lat : 69.7758384, Lng : 19.5489305, Q1 : 0.0871069356799, Q2 : -0.000315176934237, Q3 : -0.000594363489654, Q4 : 0.996198773384}
2019-09-29 18:44:11.99: SIM {TimeUS : 52028347, Roll : -0.07, Pitch : 0.03, Yaw : 170.0, Alt : 105.0, Lat : 69.7758384, Lng : 19.5489305, Q1 : 0.0871042832732, Q2 : -0.000389065884519, Q3 : -0.000611324911006, Q4 : 0.996199011803}
2019-09-29 18:44:12.09: SIM {TimeUS : 52128307, Roll : -0.06, Pitch : 0.04, Yaw : 170.0, Alt : 105.199996948, Lat : 69.7758384, Lng : 19.5489305, Q1 : 0.0871037319303, Q2 : -0.000401052064262, Q3 : -0.000556968268938, Q4 : 0.996199011803}
2019-09-29 18:44:12.19: SIM {TimeUS : 52228267, Roll : -0.06, Pitch : 0.02, Yaw : 170.0, Alt : 105.400001526, Lat : 69.7758384, Lng : 19.5489305, Q1 : 0.0871068015695, Q2 : -0.000258570566075, Q3 : -0.0005736402818, Q4 : 0.996198773384}
2019-09-29 18:44:12.29: SIM {TimeUS : 52328227, Roll : -0.05, Pitch : 0.0, Yaw : 170.0, Alt : 105.580001831, Lat : 69.7758384, Lng : 19.5489305, Q1 : 0.0871134921908, Q2 : -6.7955290433e-05, Q3 : -0.000466503755888, Q4 : 0.996198296547}
2019-09-29 18:44:12.39: SIM {TimeUS : 52428187, Roll : -0.05, Pitch : 0.0, Yaw : 170.0, Alt : 105.760002136, Lat : 69.7758384, Lng : 19.5489305, Q1 : 0.0871216878295, Q2 : 9.93608500721e-06, Q3 : -0.000468663492939, Q4 : 0.996197581291}
2019-09-29 18:44:12.50: SIM {TimeUS : 52528980, Roll : -0.05, Pitch : -0.01, Yaw : 170.0, Alt : 105.930000305, Lat : 69.7758384, Lng : 19.5489305, Q1 : 0.0871325209737, Q2 : 7.44703647797e-05, Q3 : -0.000468434212962, Q4 : 0.996196627617}
2019-09-29 18:44:12.60: SIM {TimeUS : 52628940, Roll : -0.05, Pitch : -0.02, Yaw : 170.0, Alt : 106.080001831, Lat : 69.7758384, Lng : 19.5489305, Q1 : 0.0871415957808, Q2 : 0.000184420568985, Q3 : -0.000482507573906, Q4 : 0.996195852757}
2019-09-29 18:44:12.70: SIM {TimeUS : 52728900, Roll : -0.05, Pitch : -0.02, Yaw : 170.0, Alt : 106.220001221, Lat : 69.7758384, Lng : 19.5489305, Q1 : 0.0871540829539, Q2 : 0.000189741709619, Q3 : -0.000539612898137, Q4 : 0.996194720268}
2019-09-29 18:44:12.80: SIM {TimeUS : 52828860, Roll : -0.04, Pitch : -0.01, Yaw : 169.99, Alt : 106.349998474, Lat : 69.7758384, Lng : 19.5489305, Q1 : 0.0871658399701, Q2 : 0.000113088724902, Q3 : -0.000441232754383, Q4 : 0.996193706989}
2019-09-29 18:44:12.90: SIM {TimeUS : 52928820, Roll : -0.03, Pitch : 0.01, Yaw : 169.99, Alt : 106.459999084, Lat : 69.7758384, Lng : 19.5489305, Q1 : 0.0871762037277, Q2 : -0.000178981659701, Q3 : -0.000247321062488, Q4 : 0.996192872524}
2019-09-29 18:44:13.00: SIM {TimeUS : 53028780, Roll : -0.02, Pitch : 0.05, Yaw : 169.99, Alt : 106.569999695, Lat : 69.7758384, Lng : 19.5489305, Q1 : 0.0871884822845, Q2 : -0.000518297078088, Q3 : -0.000165199715411, Q4 : 0.996191680431}
2019-09-29 18:44:13.10: SIM {TimeUS : 53128740, Roll : -0.01, Pitch : 0.07, Yaw : 169.99, Alt : 106.660003662, Lat : 69.7758384, Lng : 19.5489305, Q1 : 0.0872011259198, Q2 : -0.000620498496573, Q3 : -8.32669393276e-05, Q4 : 0.996190547943}
2019-09-29 18:44:13.20: SIM {TimeUS : 53228700, Roll : -0.01, Pitch : 0.05, Yaw : 169.99, Alt : 106.739997864, Lat : 69.7758384, Lng : 19.5489305, Q1 : 0.0872063413262, Q2 : -0.000515756139066, Q3 : -5.76254824409e-05, Q4 : 0.996190130711}
2019-09-29 18:44:13.30: SIM {TimeUS : 53328660, Roll : -0.02, Pitch : 0.03, Yaw : 169.99, Alt : 106.809997559, Lat : 69.7758384, Lng : 19.5489305, Q1 : 0.0872134268284, Q2 : -0.000297804072034, Q3 : -0.000211988357478, Q4 : 0.996189594269}
