2019-09-29 18:00:48.30: SIM {TimeUS : 40728702, Roll : 0.0, Pitch : 0.0, Yaw : 169.99, Alt : 87.0999984741, Lat : 69.7758389, Lng : 19.5489289, Q1 : 0.087155804038, Q2 : 0.0, Q3 : 0.0, Q4 : 0.996194720268}
2019-09-29 18:00:48.40: SIM {TimeUS : 40828662, Roll : 0.0, Pitch : 0.0, Yaw : 169.99, Alt : 87.0999984741, Lat : 69.7758389, Lng : 19.5489289, Q1 : 0.087155804038, Q2 : 0.0, Q3 : 0.0, Q4 : 0.996194720268}
2019-09-29 18:00:48.49: SIM {TimeUS : 40928622, Roll : 0.0, Pitch : 0.0, Yaw : 169.99, Alt : 87.0999984741, Lat : 69.7758389, Lng : 19.5489289, Q1 : 0.087155804038, Q2 : 0.0, Q3 : 0.0, Q4 : 0.996194720268}
2019-09-29 18:00:48.59: SIM {TimeUS : 41028582, Roll : 0.0, Pitch : 0.0, Yaw : 169.99, Alt : 87.0999984741, Lat : 69.7758389, Lng : 19.5489289, Q1 : 0.087155804038, Q2 : 0.0, Q3 : 0.0, Q4 : 0.996194720268}
2019-09-29 18:00:48.69: SIM {TimeUS : 41128542, Roll : 0.0, Pitch : 0.0, Yaw : 169.99, Alt : 87.0999984741, Lat : 69.7758389, Lng : 19.5489289, Q1 : 0.087155804038, Q2 : 0.0, Q3 : 0.0, Q4 : 0.996194720268}
2019-09-29 18:00:48.79: SIM {TimeUS : 41228502, Roll : 0.0, Pitch : 0.0, Yaw : 169.99, Alt : 87.0999984741, Lat : 69.7758389, Lng : 19.5489289, Q1 : 0.087155804038, Q2 : 0.0, Q3 : 0.0, Q4 : 0.996194720268}
2019-09-29 18:00:48.89: SIM {TimeUS : 41328462, Roll : 0.0, Pitch : 0.0, Yaw : 169.99, Alt : 87.0999984741, Lat : 69.7758389, Lng : 19.5489289, Q1 : 0.087155804038, Q2 : 0.0, Q3 : 0.0, Q4 : 0.996194720268}
2019-09-29 18:00:48.99: SIM {TimeUS : 41428422, Roll : 0.0, Pitch : 0.0, Yaw : 169.99, Alt : 87.0999984741, Lat : 69.7758389, Lng : 19.5489289, Q1 : 0.087155804038, Q2 : 0.0, Q3 : 0.0, Q4 : 0.996194720268}
2019-09-29 18:00:49.09: SIM {TimeUS : 41528382, Roll : 0.0, Pitch : 0.0, Yaw : 169.99, Alt : 87.0999984741, Lat : 69.7758389, Lng : 19.5489289, Q1 : 0.087155804038, Q2 : 0.0, Q3 : 0.0, Q4 : 0.996194720268}
2019-09-29 18:00:49.19: SIM {TimeUS : 41628342, Roll : 0.0, Pitch : 0.0, Yaw : 169.99, Alt : 87.0999984741, Lat : 69.7758389, Lng : 19.5489289, Q1 : 0.087155804038, Q2 : 0.0, Q3 : 0.0, Q4 : 0.996194720268}
2019-09-29 18:00:49.29: SIM {TimeUS : 41728302, Roll : 0.0, Pitch : 0.0, Yaw : 169.99, Alt : 87.0999984741, Lat : 69.7758389, Lng : 19.5489289, Q1 : 0.087155804038, Q2 : 0.0, Q3 : 0.0, Q4 : 0.996194720268}
2019-09-29 18:00:49.39: SIM {TimeUS : 41828262, Roll : 0.0, Pitch : 0.0, Yaw : 169.99, Alt : 87.0999984741, Lat : 69.7758389, Lng : 19.5489289, Q1 : 0.087155804038, Q2 : 0.0, Q3 : 0.0, Q4 : 0.996194720268}
2019-09-29 18:00:49.49: SIM {TimeUS : 41928222, Roll : 0.0, Pitch : 0.0, Yaw : 169.99, Alt : 87.0999984741, Lat : 69.7758389, Lng : 19.5489289, Q1 : 0.087155804038, Q2 : 0.0, Q3 : 0.0, Q4 : 0.996194720268}
2019-09-29 18:00:49.59: SIM {TimeUS : 42028182, Roll : 0.0, Pitch : 0.0, Yaw : 169.99, Alt : 87.0999984741, Lat : 69.7758389, Lng : 19.5489289, Q1 : 0.087155804038, Q2 : 0.0, Q3 : 0.0, Q4 : 0.996194720268}
2019-09-29 18:00:49.70: SIM {TimeUS : 42128975, Roll : 0.0, Pitch : 0.0, Yaw : 169.99, Alt : 87.0999984741, Lat : 69.7758389, Lng : 19.5489289, Q1 : 0.087155804038, Q2 : 0.0, Q3 : 0.0, Q4 : 0.996194720268}
2019-09-29 18:00:49.80: SIM {TimeUS : 42228935, Roll : 0.0, Pitch : 0.0, Yaw : 169.99, Alt : 87.0999984741, Lat : 69.7758389, Lng : 19.5489289, Q1 : 0.087155804038, Q2 : 0.0, Q3 : 0.0, Q4 : 0.996194720268}
2019-09-29 18:00:49.90: SIM {TimeUS : 42328895, Roll : 0.0, Pitch : 0.0, Yaw : 169.99, Alt : 87.0999984741, Lat : 69.7758389, Lng : 19.5489289, Q1 : 0.087155804038, Q2 : 0.0, Q3 : 0.0, Q4 : 0.996194720268}
2019-09-29 18:00:50.00: SIM {TimeUS : 42428855, Roll : 0.0, Pitch : 0.0, Yaw : 169.99, Alt : 87.0999984741, Lat : 69.7758389, Lng : 19.5489289, Q1 : 0.087155804038, Q2 : 0.0, Q3 : 0.0, Q4 : 0.996194720268}
2019-09-29 18:00:50.10: SIM {TimeUS : 42528815, Roll : 0.0, Pitch : 0.0, Yaw : 169.99, Alt : 87.0999984741, Lat : 69.7758389, Lng : 19.5489289, Q1 : 0.087155804038, Q2 : 0.0, Q3 : 0.0, Q4 : 0.996194720268}
2019-09-29 18:00:50.20: SIM {TimeUS : 42628775, Roll : 0.0, Pitch : 0.0, Yaw : 169.99, Alt : 87.0999984741, Lat : 69.7758389, Lng : 19.5489289, Q1 : 0.087155804038, Q2 : 0.0, Q3 : 0.0, Q4 : 0.996194720268}
2019-09-29 18:00:50.30: SIM {TimeUS : 42728735, Roll : 0.0, Pitch : 0.0, Yaw : 169.99, Alt : 87.0999984741, Lat : 69.7758389, Lng : 19.5489289, Q1 : 0.087155804038, Q2 : 0.0, Q3 : 0.0, Q4 : 0.996194720268}
2019-09-29 18:00:50.40: SIM {TimeUS : 42828695, Roll : 0.0, Pitch : 0.0, Yaw : 169.99, Alt : 87.0999984741, Lat : 69.7758389, Lng : 19.5489289, Q1 : 0.087155804038, Q2 : 0.0, Q3 : 0.0, Q4 : 0.996194720268}
2019-09-29 18:00:50.49: SIM {TimeUS : 42928655, Roll : 0.0, Pitch : 0.0, Yaw : 169.99, Alt : 87.0999984741, Lat : 69.7758389, Lng : 19.5489289, Q1 : 0.087155804038, Q2 : 0.0, Q3 : 0.0, Q4 : 0.996194720268}
2019-09-29 18:00:50.59: SIM {TimeUS : 43028615, Roll : 0.0, Pitch : 0.0, Yaw : 169.99, Alt : 87.0999984741, Lat : 69.7758389, Lng : 19.5489289, Q1 : 0.087155804038, Q2 : 0.0, Q3 : 0.0, Q4 : 0.996194720268}
2019-09-29 18:00:50.69: SIM {TimeUS : 43128575, Roll : 0.0, Pitch : 0.0, Yaw : 169.99, Alt : 87.0999984741, Lat : 69.7758389, Lng : 19.5489289, Q1 : 0.087155804038, Q2 : 0.0, Q3 : 0.0, Q4 : 0.996194720268}
2019-09-29 18:00:50.79: SIM {TimeUS : 43228535, Roll : 0.0, Pitch : 0.0, Yaw : 169.99, Alt : 87.0999984741, Lat : 69.7758389, Lng : 19.5489289, Q1 : 0.087155804038, Q2 : 0.0, Q3 : 0.0, Q4 : 0.996194720268}
2019-09-29 18:00:50.89: SIM {TimeUS : 43328495, Roll : 0.0, Pitch : 0.0, Yaw : 169.99, Alt : 87.0999984741, Lat : 69.7758389, Lng : 19.5489289, Q1 : 0.087155804038, Q2 : 0.0, Q3 : 0.0, Q4 : 0.996194720268}
2019-09-29 18:00:50.99: SIM {TimeUS : 43428455, Roll : 0.0, Pitch : 0.0, Yaw : 169.99, Alt : 87.0999984741, Lat : 69.7758389, Lng : 19.5489289, Q1 : 0.087155804038, Q2 : 0.0, Q3 : 0.0, Q4 : 0.996194720268}
2019-09-29 18:00:51.09: SIM {TimeUS : 43528415, Roll : 0.0, Pitch : 0.0, Yaw : 169.99, Alt : 87.1100006104, Lat : 69.7758389, Lng : 19.5489289, Q1 : 0.087155804038, Q2 : 0.0, Q3 : 0.0, Q4 : 0.996194720268}
2019-09-29 18:00:51.19: SIM {TimeUS : 43628375, Roll : 0.0, Pitch : 0.0, Yaw : 169.99, Alt : 87.1500015259, Lat : 69.7758389, Lng : 19.5489289, Q1 : 0.087155804038, Q2 : 0.0, Q3 : 0.0, Q4 : 0.996194720268}
2019-09-29 18:00:51.29: SIM {TimeUS : 43728335, Roll : 0.0, Pitch : 0.0, Yaw : 169.99, Alt : 87.1999969482, Lat : 69.7758389, Lng : 19.5489289, Q1 : 0.087155804038, Q2 : 0.0, Q3 : 0.0, Q4 : 0.996194720268}
2019-09-29 18:00:51.39: SIM {TimeUS : 43828295, Roll : -0.1, Pitch : -0.1, Yaw : 170.0, Alt : 87.2699966431, Lat : 69.7758389, Lng : 19.5489289, Q1 : 0.0871441662312, Q2 : 0.000860889500473, Q3 : -0.000980474404059, Q4 : 0.996194899082}
2019-09-29 18:00:51.49: SIM {TimeUS : 43928255, Roll : -0.33, Pitch : -0.34, Yaw : 170.0, Alt : 87.3899993896, Lat : 69.7758389, Lng : 19.5489289, Q1 : 0.0871038064361, Q2 : 0.00277419807389, Q3 : -0.00319904484786, Q4 : 0.99619024992}
2019-09-29 18:00:51.59: SIM {TimeUS : 44028215, Roll : -0.55, Pitch : -0.55, Yaw : 170.01, Alt : 87.5500030518, Lat : 69.7758389, Lng : 19.5489289, Q1 : 0.0870410725474, Q2 : 0.00441105896607, Q3 : -0.00521211046726, Q4 : 0.996181309223}
2019-09-29 18:00:51.69: SIM {TimeUS : 44128175, Roll : -0.65, Pitch : -0.62, Yaw : 170.02, Alt : 87.7399978638, Lat : 69.7758389, Lng : 19.5489291, Q1 : 0.0869596526027, Q2 : 0.00495272828266, Q3 : -0.00615265406668, Q4 : 0.996180534363}
2019-09-29 18:00:51.80: SIM {TimeUS : 44228968, Roll : -0.62, Pitch : -0.57, Yaw : 170.03, Alt : 87.9300003052, Lat : 69.7758389, Lng : 19.5489291, Q1 : 0.0868681669235, Q2 : 0.00448565417901, Q3 : -0.00588846905157, Q4 : 0.996192276478}
2019-09-29 18:00:51.90: SIM {TimeUS : 44328928, Roll : -0.49, Pitch : -0.42, Yaw : 170.04, Alt : 88.1200027466, Lat : 69.7758389, Lng : 19.5489292, Q1 : 0.0867784321308, Q2 : 0.00328234676272, Q3 : -0.00459994142875, Q4 : 0.996211588383}
2019-09-29 18:00:52.00: SIM {TimeUS : 44428888, Roll : -0.3, Pitch : -0.24, Yaw : 170.05, Alt : 88.3000030518, Lat : 69.7758389, Lng : 19.5489294, Q1 : 0.0866970196366, Q2 : 0.00193298654631, Q3 : -0.00284940586425, Q4 : 0.996228814125}
2019-09-29 18:00:52.10: SIM {TimeUS : 44528848, Roll : -0.12, Pitch : -0.09, Yaw : 170.06, Alt : 88.4899978638, Lat : 69.7758389, Lng : 19.5489295, Q1 : 0.0866291224957, Q2 : 0.000733027991373, Q3 : -0.00119436124805, Q4 : 0.99623966217}
2019-09-29 18:00:52.20: SIM {TimeUS : 44628808, Roll : -0.01, Pitch : 0.01, Yaw : 170.06, Alt : 88.6900024414, Lat : 69.7758389, Lng : 19.5489297, Q1 : 0.0865765139461, Q2 : -0.000178684334969, Q3 : -8.16347455839e-05, Q4 : 0.996245205402}
2019-09-29 18:00:52.30: SIM {TimeUS : 44728768, Roll : 0.03, Pitch : 0.07, Yaw : 170.07, Alt : 88.8899993896, Lat : 69.7758388, Lng : 19.5489298, Q1 : 0.0865407958627, Q2 : -0.000593409698922, Q3 : 0.000319363345625, Q4 : 0.996248066425}
2019-09-29 18:00:52.40: SIM {TimeUS : 44828728, Roll : 0.01, Pitch : 0.05, Yaw : 170.07, Alt : 89.0899963379, Lat : 69.7758388, Lng : 19.5489298, Q1 : 0.0865257233381, Q2 : -0.00048592305393, Q3 : 0.000143151162774, Q4 : 0.996249496937}
2019-09-29 18:00:52.50: SIM {TimeUS : 44928688, Roll : -0.02, Pitch : 0.01, Yaw : 170.07, Alt : 89.3000030518, Lat : 69.7758388, Lng : 19.54893, Q1 : 0.0865223109722, Q2 : -0.000150517196744, Q3 : -0.000167686623172, Q4 : 0.996249914169}
2019-09-29 18:00:52.59: SIM {TimeUS : 45028648, Roll : -0.03, Pitch : -0.01, Yaw : 170.07, Alt : 89.5, Lat : 69.7758388, Lng : 19.5489301, Q1 : 0.0865293443203, Q2 : 0.000131791763124, Q3 : -0.00028892440605, Q4 : 0.996249258518}
2019-09-29 18:00:52.69: SIM {TimeUS : 45128608, Roll : 0.0, Pitch : -0.03, Yaw : 170.06, Alt : 89.7099990845, Lat : 69.7758388, Lng : 19.5489301, Q1 : 0.0865541249514, Q2 : 0.000327216344886, Q3 : 2.87758757622e-05, Q4 : 0.996247112751}
2019-09-29 18:00:52.79: SIM {TimeUS : 45228568, Roll : 0.06, Pitch : -0.04, Yaw : 170.06, Alt : 89.9199981689, Lat : 69.7758387, Lng : 19.5489303, Q1 : 0.0865885987878, Q2 : 0.000458805356175, Q3 : 0.000500117777847, Q4 : 0.996243953705}
2019-09-29 18:00:52.89: SIM {TimeUS : 45328528, Roll : 0.13, Pitch : 0.0, Yaw : 170.06, Alt : 90.1299972534, Lat : 69.7758387, Lng : 19.5489304, Q1 : 0.0866276174784, Q2 : 0.000169296064996, Q3 : 0.00114543444943, Q4 : 0.996240079403}
2019-09-29 18:00:52.99: SIM {TimeUS : 45428488, Roll : 0.2, Pitch : 0.07, Yaw : 170.05, Alt : 90.3399963379, Lat : 69.7758387, Lng : 19.5489305, Q1 : 0.086668908596, Q2 : -0.000520855362993, Q3 : 0.00182442669757, Q4 : 0.996235370636}
2019-09-29 18:00:53.09: SIM {TimeUS : 45528448, Roll : 0.24, Pitch : 0.16, Yaw : 170.05, Alt : 90.5500030518, Lat : 69.7758387, Lng : 19.5489305, Q1 : 0.0866904035211, Q2 : -0.0012568985112, Q3 : 0.00222359015606, Q4 : 0.996232032776}
2019-09-29 18:00:53.19: SIM {TimeUS : 45628408, Roll : 0.23, Pitch : 0.22, Yaw : 170.05, Alt : 90.7699966431, Lat : 69.7758387, Lng : 19.5489305, Q1 : 0.0867018550634, Q2 : -0.00174141686875, Q3 : 0.0022246434819, Q4 : 0.996230304241}
2019-09-29 18:00:53.29: SIM {TimeUS : 45728368, Roll : 0.2, Pitch : 0.22, Yaw : 170.05, Alt : 90.9800033569, Lat : 69.7758386, Lng : 19.5489305, Q1 : 0.0867199376225, Q2 : -0.0017822860973, Q3 : 0.00196471810341, Q4 : 0.996229231358}
2019-09-29 18:00:53.39: SIM {TimeUS : 45828328, Roll : 0.15, Pitch : 0.17, Yaw : 170.04, Alt : 91.1999969482, Lat : 69.7758386, Lng : 19.5489305, Q1 : 0.086728297174, Q2 : -0.00143752759323, Q3 : 0.00150664488319, Q4 : 0.996229887009}
2019-09-29 18:00:53.49: SIM {TimeUS : 45928288, Roll : 0.11, Pitch : 0.1, Yaw : 170.04, Alt : 91.4100036621, Lat : 69.7758386, Lng : 19.5489305, Q1 : 0.086733803153, Q2 : -0.000847228628118, Q3 : 0.00111679465044, Q4 : 0.99623054266}
2019-09-29 18:00:53.59: SIM {TimeUS : 46028248, Roll : 0.08, Pitch : 0.02, Yaw : 170.04, Alt : 91.6299972534, Lat : 69.7758386, Lng : 19.5489305, Q1 : 0.0867237746716, Q2 : -0.00012954750855, Q3 : 0.000723125238437, Q4 : 0.996232092381}
2019-09-29 18:00:53.69: SIM {TimeUS : 46128208, Roll : 0.06, Pitch : -0.03, Yaw : 170.05, Alt : 91.8499984741, Lat : 69.7758386, Lng : 19.5489305, Q1 : 0.0867045596242, Q2 : 0.000351991475327, Q3 : 0.00053512660088, Q4 : 0.99623388052}
2019-09-29 18:00:53.79: SIM {TimeUS : 46228168, Roll : 0.07, Pitch : -0.03, Yaw : 170.05, Alt : 92.0699996948, Lat : 69.7758386, Lng : 19.5489305, Q1 : 0.0866735875607, Q2 : 0.000396319344873, Q3 : 0.000633610354271, Q4 : 0.996236503124}
2019-09-29 18:00:53.90: SIM {TimeUS : 46328961, Roll : 0.08, Pitch : -0.03, Yaw : 170.06, Alt : 92.2900009155, Lat : 69.7758386, Lng : 19.5489305, Q1 : 0.0866316109896, Q2 : 0.000338970916346, Q3 : 0.000688231782988, Q4 : 0.996240139008}
2019-09-29 18:00:54.00: SIM {TimeUS : 46428921, Roll : 0.06, Pitch : -0.02, Yaw : 170.06, Alt : 92.5100021362, Lat : 69.7758386, Lng : 19.5489305, Q1 : 0.0865874737501, Q2 : 0.000299425737467, Q3 : 0.000503134389874, Q4 : 0.996244072914}
2019-09-29 18:00:54.10: SIM {TimeUS : 46528881, Roll : 0.02, Pitch : -0.03, Yaw : 170.06, Alt : 92.7300033569, Lat : 69.7758386, Lng : 19.5489305, Q1 : 0.0865589752793, Q2 : 0.000331221759552, Q3 : 0.000217397915549, Q4 : 0.996246695518}
2019-09-29 18:00:54.20: SIM {TimeUS : 46628841, Roll : 0.02, Pitch : -0.04, Yaw : 170.06, Alt : 92.9499969482, Lat : 69.7758386, Lng : 19.5489305, Q1 : 0.0865528583527, Q2 : 0.000440321455244, Q3 : 0.000166725963936, Q4 : 0.996247172356}
2019-09-29 18:00:54.30: SIM {TimeUS : 46728801, Roll : 0.03, Pitch : -0.06, Yaw : 170.06, Alt : 93.1699981689, Lat : 69.7758386, Lng : 19.5489305, Q1 : 0.0865570604801, Q2 : 0.000575833488256, Q3 : 0.000263510853983, Q4 : 0.996246695518}
2019-09-29 18:00:54.40: SIM {TimeUS : 46828761, Roll : 0.02, Pitch : -0.07, Yaw : 170.06, Alt : 93.4000015259, Lat : 69.7758386, Lng : 19.5489305, Q1 : 0.0865487754345, Q2 : 0.000685207138304, Q3 : 0.000176084897248, Q4 : 0.99624735117}
2019-09-29 18:00:54.50: SIM {TimeUS : 46928721, Roll : 0.0, Pitch : -0.08, Yaw : 170.07, Alt : 93.6200027466, Lat : 69.7758386, Lng : 19.5489305, Q1 : 0.0865361317992, Q2 : 0.000776480592322, Q3 : -1.05792296381e-05, Q4 : 0.996248424053}
2019-09-29 18:00:54.60: SIM {TimeUS : 47028681, Roll : 0.0, Pitch : -0.07, Yaw : 170.07, Alt : 93.8499984741, Lat : 69.7758386, Lng : 19.5489305, Q1 : 0.0865417867899, Q2 : 0.00061652821023, Q3 : -0.000108126674604, Q4 : 0.996248066425}
2019-09-29 18:00:54.69: SIM {TimeUS : 47128641, Roll : -0.01, Pitch : -0.04, Yaw : 170.06, Alt : 94.0699996948, Lat : 69.7758386, Lng : 19.5489305, Q1 : 0.0865720286965, Q2 : 0.000367818254745, Q3 : -0.000173899126821, Q4 : 0.99624556303}
2019-09-29 18:00:54.79: SIM {TimeUS : 47228601, Roll : -0.02, Pitch : -0.02, Yaw : 170.06, Alt : 94.3000030518, Lat : 69.7758386, Lng : 19.5489305, Q1 : 0.0866034626961, Q2 : 0.000226232528803, Q3 : -0.000267384835752, Q4 : 0.996242821217}
2019-09-29 18:00:54.89: SIM {TimeUS : 47328561, Roll : -0.02, Pitch : 0.0, Yaw : 170.05, Alt : 94.5299987793, Lat : 69.7758386, Lng : 19.5489305, Q1 : 0.0866379886866, Q2 : 3.70793459297e-05, Q3 : -0.000248728116276, Q4 : 0.996239840984}
2019-09-29 18:00:54.99: SIM {TimeUS : 47428521, Roll : 0.0, Pitch : 0.0, Yaw : 170.05, Alt : 94.75, Lat : 69.7758386, Lng : 19.5489305, Q1 : 0.0866758525372, Q2 : 1.25816563923e-06, Q3 : -7.52515843487e-05, Q4 : 0.996236562729}
2019-09-29 18:00:55.09: SIM {TimeUS : 47528481, Roll : 0.04, Pitch : -0.02, Yaw : 170.05, Alt : 94.9800033569, Lat : 69.7758386, Lng : 19.5489305, Q1 : 0.0867155939341, Q2 : 0.000265704031335, Q3 : 0.000343354739016, Q4 : 0.996233046055}
2019-09-29 18:00:55.19: SIM {TimeUS : 47628441, Roll : 0.07, Pitch : -0.05, Yaw : 170.04, Alt : 95.2099990845, Lat : 69.7758386, Lng : 19.5489305, Q1 : 0.0867507830262, Q2 : 0.000535123690497, Q3 : 0.000591900723521, Q4 : 0.996229767799}
2019-09-29 18:00:55.29: SIM {TimeUS : 47728401, Roll : 0.07, Pitch : -0.06, Yaw : 170.04, Alt : 95.4400024414, Lat : 69.7758386, Lng : 19.5489305, Q1 : 0.0867799594998, Q2 : 0.000649336841889, Q3 : 0.000579627580009, Q4 : 0.996227145195}
2019-09-29 18:00:55.39: SIM {TimeUS : 47828361, Roll : 0.03, Pitch : -0.06, Yaw : 170.04, Alt : 95.6699981689, Lat : 69.7758386, Lng : 19.5489305, Q1 : 0.0867979153991, Q2 : 0.000561616034247, Q3 : 0.000287609524094, Q4 : 0.996225774288}
2019-09-29 18:00:55.49: SIM {TimeUS : 47928321, Roll : 0.01, Pitch : -0.05, Yaw : 170.03, Alt : 95.9000015259, Lat : 69.7758386, Lng : 19.5489305, Q1 : 0.0868119448423, Q2 : 0.000504023162648, Q3 : 7.82540882938e-05, Q4 : 0.996224582195}
2019-09-29 18:00:55.59: SIM {TimeUS : 48028281, Roll : 0.01, Pitch : -0.07, Yaw : 170.03, Alt : 96.1299972534, Lat : 69.7758386, Lng : 19.5489305, Q1 : 0.0868169665337, Q2 : 0.000620088365395, Q3 : 7.40661707823e-05, Q4 : 0.996224105358}
2019-09-29 18:00:55.69: SIM {TimeUS : 48128241, Roll : 0.01, Pitch : -0.07, Yaw : 170.03, Alt : 96.3600006104, Lat : 69.7758386, Lng : 19.5489305, Q1 : 0.086812376976, Q2 : 0.000659013050608, Q3 : 4.31793232565e-05, Q4 : 0.996224462986}
2019-09-29 18:00:55.79: SIM {TimeUS : 48228201, Roll : 0.0, Pitch : -0.07, Yaw : 170.04, Alt : 96.5899963379, Lat : 69.7758386, Lng : 19.5489305, Q1 : 0.0868044421077, Q2 : 0.000683692225721, Q3 : 1.28760866573e-05, Q4 : 0.996225118637}
2019-09-29 18:00:55.89: SIM {TimeUS : 48328161, Roll : -0.01, Pitch : -0.07, Yaw : 170.04, Alt : 96.8199996948, Lat : 69.7758386, Lng : 19.5489305, Q1 : 0.0867908298969, Q2 : 0.00060166278854, Q3 : -0.00015307290596, Q4 : 0.996226370335}
2019-09-29 18:00:56.00: SIM {TimeUS : 48428954, Roll : -0.03, Pitch : -0.05, Yaw : 170.04, Alt : 97.0599975586, Lat : 69.7758386, Lng : 19.5489305, Q1 : 0.0867771357298, Q2 : 0.000466918572783, Q3 : -0.000362826947821, Q4 : 0.996227562428}
2019-09-29 18:00:56.10: SIM {TimeUS : 48528914, Roll : -0.06, Pitch : -0.02, Yaw : 170.04, Alt : 97.2900009155, Lat : 69.7758386, Lng : 19.5489305, Q1 : 0.086764395237, Q2 : 0.000213922030525, Q3 : -0.00055788422469, Q4 : 0.996228694916}
2019-09-29 18:00:56.20: SIM {TimeUS : 48628874, Roll : -0.07, Pitch : -0.01, Yaw : 170.04, Alt : 97.5199966431, Lat : 69.7758384, Lng : 19.5489305, Q1 : 0.0867504775524, Q2 : 4.15226713812e-05, Q3 : -0.000702840508893, Q4 : 0.996229827404}
2019-09-29 18:00:56.30: SIM {TimeUS : 48728834, Roll : -0.09, Pitch : 0.0, Yaw : 170.04, Alt : 97.75, Lat : 69.7758384, Lng : 19.5489305, Q1 : 0.0867383480072, Q2 : -4.51723935839e-05, Q3 : -0.000812329177279, Q4 : 0.996230840683}
2019-09-29 18:00:56.40: SIM {TimeUS : 48828794, Roll : -0.09, Pitch : -0.01, Yaw : 170.04, Alt : 97.9899978638, Lat : 69.7758384, Lng : 19.5489305, Q1 : 0.0867352634668, Q2 : 5.27695156052e-05, Q3 : -0.000841002853122, Q4 : 0.996231079102}
2019-09-29 18:00:56.50: SIM {TimeUS : 48928754, Roll : -0.06, Pitch : -0.04, Yaw : 170.04, Alt : 98.2200012207, Lat : 69.7758384, Lng : 19.5489305, Q1 : 0.0867436677217, Q2 : 0.000385773950256, Q3 : -0.000588094058912, Q4 : 0.99623042345}
2019-09-29 18:00:56.60: SIM {TimeUS : 49028714, Roll : -0.01, Pitch : -0.08, Yaw : 170.04, Alt : 98.4499969482, Lat : 69.7758384, Lng : 19.5489305, Q1 : 0.0867643877864, Q2 : 0.000721094664186, Q3 : -0.000158603972523, Q4 : 0.996228575706}
2019-09-29 18:00:56.70: SIM {TimeUS : 49128674, Roll : 0.04, Pitch : -0.1, Yaw : 170.04, Alt : 98.6900024414, Lat : 69.7758384, Lng : 19.5489305, Q1 : 0.0867809131742, Q2 : 0.000947351567447, Q3 : 0.000334941112669, Q4 : 0.996226906776}
2019-09-29 18:00:56.79: SIM {TimeUS : 49228634, Roll : 0.08, Pitch : -0.09, Yaw : 170.04, Alt : 98.9199981689, Lat : 69.7758384, Lng : 19.5489305, Q1 : 0.0867868810892, Q2 : 0.000893339107279, Q3 : 0.000709665415343, Q4 : 0.996226251125}
2019-09-29 18:00:56.89: SIM {TimeUS : 49328594, Roll : 0.1, Pitch : -0.06, Yaw : 170.04, Alt : 99.1600036621, Lat : 69.7758384, Lng : 19.5489305, Q1 : 0.0867918431759, Q2 : 0.000654221046716, Q3 : 0.000872280681506, Q4 : 0.996225893497}
2019-09-29 18:00:56.99: SIM {TimeUS : 49428554, Roll : 0.07, Pitch : -0.03, Yaw : 170.03, Alt : 99.3899993896, Lat : 69.7758384, Lng : 19.5489305, Q1 : 0.0868093594909, Q2 : 0.000374588998966, Q3 : 0.000650392612442, Q4 : 0.9962246418}
2019-09-29 18:00:57.09: SIM {TimeUS : 49528514, Roll : 0.03, Pitch : -0.01, Yaw : 170.03, Alt : 99.6299972534, Lat : 69.7758384, Lng : 19.5489305, Q1 : 0.0868293344975, Q2 : 0.000191800238099, Q3 : 0.000284312525764, Q4 : 0.996223151684}
2019-09-29 18:00:57.19: SIM {TimeUS : 49628474, Roll : 0.0, Pitch : -0.03, Yaw : 170.03, Alt : 99.8600006104, Lat : 69.7758384, Lng : 19.5489305, Q1 : 0.0868519470096, Q2 : 0.00030928949127, Q3 : -5.57565290364e-05, Q4 : 0.996221184731}
2019-09-29 18:00:57.29: SIM {TimeUS : 49728434, Roll : -0.03, Pitch : -0.05, Yaw : 170.03, Alt : 100.099998474, Lat : 69.7758384, Lng : 19.5489305, Q1 : 0.0868803858757, Q2 : 0.000437563809101, Q3 : -0.000321451778291, Q4 : 0.996218621731}
2019-09-29 18:00:57.39: SIM {TimeUS : 49828394, Roll : -0.06, Pitch : -0.02, Yaw : 170.02, Alt : 100.330001831, Lat : 69.7758384, Lng : 19.5489305, Q1 : 0.0869231447577, Q2 : 0.000182079253136, Q3 : -0.00054661714239, Q4 : 0.996214866638}
2019-09-29 18:00:57.49: SIM {TimeUS : 49928354, Roll : -0.08, Pitch : 0.04, Yaw : 170.02, Alt : 100.569999695, Lat : 69.7758384, Lng : 19.5489305, Q1 : 0.0869518667459, Q2 : -0.000442289834609, Q3 : -0.000692241184879, Q4 : 0.996212184429}
2019-09-29 18:00:57.59: SIM {TimeUS : 50028314, Roll : -0.07, Pitch : 0.1, Yaw : 170.02, Alt : 100.809997559, Lat : 69.7758384, Lng : 19.5489305, Q1 : 0.0869716852903, Q2 : -0.000942302809563, Q3 : -0.000554474361707, Q4 : 0.996210217476}
2019-09-29 18:00:57.69: SIM {TimeUS : 50128274, Roll : -0.03, Pitch : 0.11, Yaw : 170.01, Alt : 101.040000916, Lat : 69.7758384, Lng : 19.5489305, Q1 : 0.086981728673, Q2 : -0.00103198271245, Q3 : -0.000234219551203, Q4 : 0.996209323406}
2019-09-29 18:00:57.79: SIM {TimeUS : 50228234, Roll : 0.0, Pitch : 0.09, Yaw : 170.01, Alt : 101.279998779, Lat : 69.7758384, Lng : 19.5489305, Q1 : 0.086984500289, Q2 : -0.000838014762849, Q3 : -5.79392190048e-06, Q4 : 0.996209323406}
2019-09-29 18:00:57.89: SIM {TimeUS : 50328194, Roll : 0.0, Pitch : 0.05, Yaw : 170.01, Alt : 101.510002136, Lat : 69.7758384, Lng : 19.5489305, Q1 : 0.0869853422046, Q2 : -0.000479519949295, Q3 : 0.000117155468615, Q4 : 0.996209442616}
2019-09-29 18:00:57.99: SIM {TimeUS : 50428154, Roll : 0.01, Pitch : -0.01, Yaw : 170.02, Alt : 101.75, Lat : 69.7758384, Lng : 19.5489305, Q1 : 0.0869783982635, Q2 : 0.000132617598865, Q3 : 8.03048460511e-05, Q4 : 0.996210217476}
2019-09-29 18:00:58.10: SIM {TimeUS : 50528947, Roll : 0.01, Pitch : -0.07, Yaw : 170.02, Alt : 101.989997864, Lat : 69.7758384, Lng : 19.5489305, Q1 : 0.0869712606072, Q2 : 0.000698941177689, Q3 : 3.02112075588e-05, Q4 : 0.996210575104}
2019-09-29 18:00:58.20: SIM {TimeUS : 50628907, Roll : 0.0, Pitch : -0.11, Yaw : 170.02, Alt : 102.230003357, Lat : 69.7758384, Lng : 19.5489305, Q1 : 0.0869643911719, Q2 : 0.000970282359049, Q3 : -0.000127011895529, Q4 : 0.996210992336}
2019-09-29 18:00:58.30: SIM {TimeUS : 50728867, Roll : -0.01, Pitch : -0.09, Yaw : 170.02, Alt : 102.459999084, Lat : 69.7758384, Lng : 19.5489305, Q1 : 0.0869640037417, Q2 : 0.000804345065262, Q3 : -0.000189912942005, Q4 : 0.996211111546}
2019-09-29 18:00:58.40: SIM {TimeUS : 50828827, Roll : -0.02, Pitch : -0.02, Yaw : 170.01, Alt : 102.699996948, Lat : 69.7758384, Lng : 19.5489305, Q1 : 0.08698348701, Q2 : 0.000171497056726, Q3 : -0.000196743363631, Q4 : 0.996209681034}
2019-09-29 18:00:58.50: SIM {TimeUS : 50928787, Roll : 0.0, Pitch : 0.06, Yaw : 170.01, Alt : 102.940002441, Lat : 69.7758384, Lng : 19.5489305, Q1 : 0.0869983285666, Q2 : -0.000601905572694, Q3 : 9.06917630346e-05, Q4 : 0.996208250523}
2019-09-29 18:00:58.60: SIM {TimeUS : 51028747, Roll : 0.04, Pitch : 0.11, Yaw : 170.01, Alt : 103.169998169, Lat : 69.7758384, Lng : 19.5489305, Q1 : 0.0870085060596, Q2 : -0.000965056184214, Q3 : 0.000514942454174, Q4 : 0.99620693922}
2019-09-29 18:00:58.70: SIM {TimeUS : 51128707, Roll : 0.07, Pitch : 0.1, Yaw : 170.01, Alt : 103.410003662, Lat : 69.7758384, Lng : 19.5489305, Q1 : 0.087009690702, Q2 : -0.000872302392963, Q3 : 0.000755537475925, Q4 : 0.996206820011}
2019-09-29 18:00:58.80: SIM {TimeUS : 51228667, Roll : 0.09, Pitch : 0.05, Yaw : 170.01, Alt : 103.650001526, Lat : 69.7758384, Lng : 19.5489305, Q1 : 0.0870136767626, Q2 : -0.000431340304203, Q3 : 0.000866583257448, Q4 : 0.996206641197}
2019-09-29 18:00:58.89: SIM {TimeUS : 51328627, Roll : 0.12, Pitch : 0.01, Yaw : 170.01, Alt : 103.879997253, Lat : 69.7758384, Lng : 19.5489305, Q1 : 0.0870200917125, Q2 : -1.71403644345e-05, Q3 : 0.00105554005131, Q4 : 0.996205985546}
2019-09-29 18:00:58.99: SIM {TimeUS : 51428587, Roll : 0.12, Pitch : -0.01, Yaw : 170.01, Alt : 104.11000061, Lat : 69.7758384, Lng : 19.5489305, Q1 : 0.0870283544064, Q2 : 0.000188110847375, Q3 : 0.00110633333679, Q4 : 0.996205210686}
2019-09-29 18:00:59.09: SIM {TimeUS : 51528547, Roll : 0.09, Pitch : 0.0, Yaw : 170.01, Alt : 104.339996338, Lat : 69.7758384, Lng : 19.5489305, Q1 : 0.0870383381844, Q2 : 2.72827855952e-05, Q3 : 0.000870067626238, Q4 : 0.996204614639}
2019-09-29 18:00:59.19: SIM {TimeUS : 51628507, Roll : 0.05, Pitch : 0.03, Yaw : 170.01, Alt : 104.559997559, Lat : 69.7758384, Lng : 19.5489305, Q1 : 0.0870492458344, Q2 : -0.000232598933508, Q3 : 0.000462867028546, Q4 : 0.996203899384}
2019-09-29 18:00:59.29: SIM {TimeUS : 51728467, Roll : 0.0, Pitch : 0.04, Yaw : 170.01, Alt : 104.779998779, Lat : 69.7758384, Lng : 19.5489305, Q1 : 0.0870626196265, Q2 : -0.000371413712855, Q3 : 3.90464410884e-05, Q4 : 0.996202766895}
2019-09-29 18:00:59.39: SIM {TimeUS : 51828427, Roll : -0.03, Pitch : 0.03, Yaw : 170.0, Alt : 104.989997864, Lat : 69.7758384, Lng : 19.5489305, Q1 : 0.0870757475495, Q2 : -0.000373094750103, Q3 : -0.000311221461743, Q4 : 0.996201574802}
2019-09-29 18:00:59.49: SIM {TimeUS : 51928387, Roll : -0.06, Pitch : 0.03, Yaw : 170.0, Alt : 105.190002441, Lat : 69.7758384, Lng : 19.5489305, Q1 : 0.0870875716209, Q2 : -0.000381845660741, Q3 : -0.000493981875479, Q4 : 0.996200501919}
2019-09-29 18:00:59.59: SIM {TimeUS : 52028347, Roll : -0.06, Pitch : 0.04, Yaw : 170.0, Alt : 105.38999939, Lat : 69.7758384, Lng : 19.5489305, Q1 : 0.0870979577303, Q2 : -0.000456575391581, Q3 : -0.00053296983242, Q4 : 0.996199548244}
2019-09-29 18:00:59.69: SIM {TimeUS : 52128307, Roll : -0.06, Pitch : 0.04, Yaw : 170.0, Alt : 105.580001831, Lat : 69.7758384, Lng : 19.5489304, Q1 : 0.0871067866683, Q2 : -0.000464857235784, Q3 : -0.000494738167617, Q4 : 0.996198773384}
2019-09-29 18:00:59.79: SIM {TimeUS : 52228267, Roll : -0.08, Pitch : 0.04, Yaw : 170.0, Alt : 105.75, Lat : 69.7758384, Lng : 19.5489304, Q1 : 0.0871170312166, Q2 : -0.000465204066131, Q3 : -0.000672913098242, Q4 : 0.996197760105}
2019-09-29 18:00:59.89: SIM {TimeUS : 52328227, Roll : -0.09, Pitch : 0.04, Yaw : 170.0, Alt : 105.919998169, Lat : 69.7758386, Lng : 19.5489304, Q1 : 0.0871272459626, Q2 : -0.000435348338215, Q3 : -0.000759876042139, Q4 : 0.996196806431}
2019-09-29 18:00:59.99: SIM {TimeUS : 52428187, Roll : -0.07, Pitch : 0.03, Yaw : 170.0, Alt : 106.069999695, Lat : 69.7758386, Lng : 19.5489304, Q1 : 0.087135873735, Q2 : -0.000394930393668, Q3 : -0.000665708445013, Q4 : 0.99619615078}
2019-09-29 18:01:00.10: SIM {TimeUS : 52528980, Roll : -0.05, Pitch : 0.02, Yaw : 170.0, Alt : 106.220001221, Lat : 69.7758386, Lng : 19.5489304, Q1 : 0.0871409997344, Q2 : -0.000253501755651, Q3 : -0.000470761850011, Q4 : 0.996195852757}
2019-09-29 18:01:00.20: SIM {TimeUS : 52628940, Roll : -0.04, Pitch : 0.0, Yaw : 170.0, Alt : 106.339996338, Lat : 69.7758386, Lng : 19.5489304, Q1 : 0.0871431902051, Q2 : -3.27099114656e-05, Q3 : -0.000347940367647, Q4 : 0.996195793152}
2019-09-29 18:01:00.30: SIM {TimeUS : 52728900, Roll : -0.04, Pitch : -0.01, Yaw : 170.0, Alt : 106.459999084, Lat : 69.7758386, Lng : 19.5489304, Q1 : 0.0871477052569, Q2 : 7.65055374359e-05, Q3 : -0.000368451990653, Q4 : 0.996195375919}
2019-09-29 18:01:00.40: SIM {TimeUS : 52828860, Roll : -0.03, Pitch : -0.01, Yaw : 170.0, Alt : 106.569999695, Lat : 69.7758386, Lng : 19.5489304, Q1 : 0.0871529728174, Q2 : 9.76147784968e-05, Q3 : -0.000316620396916, Q4 : 0.996194899082}
2019-09-29 18:01:00.50: SIM {TimeUS : 52928820, Roll : -0.02, Pitch : 0.0, Yaw : 169.99, Alt : 106.660003662, Lat : 69.7758386, Lng : 19.5489304, Q1 : 0.0871596038342, Q2 : -3.40751030308e-05, Q3 : -0.000193701896933, Q4 : 0.99619436264}
2019-09-29 18:01:00.60: SIM {TimeUS : 53028780, Roll : -0.02, Pitch : 0.02, Yaw : 169.99, Alt : 106.739997864, Lat : 69.7758386, Lng : 19.5489304, Q1 : 0.0871713757515, Q2 : -0.000208049561479, Q3 : -0.000178462229087, Q4 : 0.996193289757}
2019-09-29 18:01:00.70: SIM {TimeUS : 53128740, Roll : -0.02, Pitch : 0.01, Yaw : 169.99, Alt : 106.809997559, Lat : 69.7758386, Lng : 19.5489304, Q1 : 0.0871918350458, Q2 : -0.000173221807927, Q3 : -0.000167829770362, Q4 : 0.996191501617}
