2019-09-29 17:50:24.60: SIM {TimeUS : 40028982, Roll : 0.0, Pitch : 0.0, Yaw : 169.99, Alt : 87.0999984741, Lat : 69.7758389, Lng : 19.5489289, Q1 : 0.087155804038, Q2 : 0.0, Q3 : 0.0, Q4 : 0.996194720268}
2019-09-29 17:50:24.69: SIM {TimeUS : 40128942, Roll : 0.0, Pitch : 0.0, Yaw : 169.99, Alt : 87.0999984741, Lat : 69.7758389, Lng : 19.5489289, Q1 : 0.087155804038, Q2 : 0.0, Q3 : 0.0, Q4 : 0.996194720268}
2019-09-29 17:50:24.79: SIM {TimeUS : 40228902, Roll : 0.0, Pitch : 0.0, Yaw : 169.99, Alt : 87.0999984741, Lat : 69.7758389, Lng : 19.5489289, Q1 : 0.087155804038, Q2 : 0.0, Q3 : 0.0, Q4 : 0.996194720268}
2019-09-29 17:50:24.89: SIM {TimeUS : 40328862, Roll : 0.0, Pitch : 0.0, Yaw : 169.99, Alt : 87.0999984741, Lat : 69.7758389, Lng : 19.5489289, Q1 : 0.087155804038, Q2 : 0.0, Q3 : 0.0, Q4 : 0.996194720268}
2019-09-29 17:50:24.99: SIM {TimeUS : 40428822, Roll : 0.0, Pitch : 0.0, Yaw : 169.99, Alt : 87.0999984741, Lat : 69.7758389, Lng : 19.5489289, Q1 : 0.087155804038, Q2 : 0.0, Q3 : 0.0, Q4 : 0.996194720268}
2019-09-29 17:50:25.09: SIM {TimeUS : 40528782, Roll : 0.0, Pitch : 0.0, Yaw : 169.99, Alt : 87.0999984741, Lat : 69.7758389, Lng : 19.5489289, Q1 : 0.087155804038, Q2 : 0.0, Q3 : 0.0, Q4 : 0.996194720268}
2019-09-29 17:50:25.19: SIM {TimeUS : 40628742, Roll : 0.0, Pitch : 0.0, Yaw : 169.99, Alt : 87.0999984741, Lat : 69.7758389, Lng : 19.5489289, Q1 : 0.087155804038, Q2 : 0.0, Q3 : 0.0, Q4 : 0.996194720268}
2019-09-29 17:50:25.29: SIM {TimeUS : 40728702, Roll : 0.0, Pitch : 0.0, Yaw : 169.99, Alt : 87.0999984741, Lat : 69.7758389, Lng : 19.5489289, Q1 : 0.087155804038, Q2 : 0.0, Q3 : 0.0, Q4 : 0.996194720268}
2019-09-29 17:50:25.39: SIM {TimeUS : 40828662, Roll : 0.0, Pitch : 0.0, Yaw : 169.99, Alt : 87.0999984741, Lat : 69.7758389, Lng : 19.5489289, Q1 : 0.087155804038, Q2 : 0.0, Q3 : 0.0, Q4 : 0.996194720268}
2019-09-29 17:50:25.49: SIM {TimeUS : 40928622, Roll : 0.0, Pitch : 0.0, Yaw : 169.99, Alt : 87.0999984741, Lat : 69.7758389, Lng : 19.5489289, Q1 : 0.087155804038, Q2 : 0.0, Q3 : 0.0, Q4 : 0.996194720268}
2019-09-29 17:50:25.59: SIM {TimeUS : 41028582, Roll : 0.0, Pitch : 0.0, Yaw : 169.99, Alt : 87.0999984741, Lat : 69.7758389, Lng : 19.5489289, Q1 : 0.087155804038, Q2 : 0.0, Q3 : 0.0, Q4 : 0.996194720268}
2019-09-29 17:50:25.69: SIM {TimeUS : 41128542, Roll : 0.0, Pitch : 0.0, Yaw : 169.99, Alt : 87.0999984741, Lat : 69.7758389, Lng : 19.5489289, Q1 : 0.087155804038, Q2 : 0.0, Q3 : 0.0, Q4 : 0.996194720268}
2019-09-29 17:50:25.79: SIM {TimeUS : 41228502, Roll : 0.0, Pitch : 0.0, Yaw : 169.99, Alt : 87.0999984741, Lat : 69.7758389, Lng : 19.5489289, Q1 : 0.087155804038, Q2 : 0.0, Q3 : 0.0, Q4 : 0.996194720268}
2019-09-29 17:50:25.89: SIM {TimeUS : 41328462, Roll : 0.0, Pitch : 0.0, Yaw : 169.99, Alt : 87.0999984741, Lat : 69.7758389, Lng : 19.5489289, Q1 : 0.087155804038, Q2 : 0.0, Q3 : 0.0, Q4 : 0.996194720268}
2019-09-29 17:50:25.99: SIM {TimeUS : 41428422, Roll : 0.0, Pitch : 0.0, Yaw : 169.99, Alt : 87.0999984741, Lat : 69.7758389, Lng : 19.5489289, Q1 : 0.087155804038, Q2 : 0.0, Q3 : 0.0, Q4 : 0.996194720268}
2019-09-29 17:50:26.09: SIM {TimeUS : 41528382, Roll : 0.0, Pitch : 0.0, Yaw : 169.99, Alt : 87.0999984741, Lat : 69.7758389, Lng : 19.5489289, Q1 : 0.087155804038, Q2 : 0.0, Q3 : 0.0, Q4 : 0.996194720268}
2019-09-29 17:50:26.19: SIM {TimeUS : 41628342, Roll : 0.0, Pitch : 0.0, Yaw : 169.99, Alt : 87.0999984741, Lat : 69.7758389, Lng : 19.5489289, Q1 : 0.087155804038, Q2 : 0.0, Q3 : 0.0, Q4 : 0.996194720268}
2019-09-29 17:50:26.29: SIM {TimeUS : 41728302, Roll : 0.0, Pitch : 0.0, Yaw : 169.99, Alt : 87.0999984741, Lat : 69.7758389, Lng : 19.5489289, Q1 : 0.087155804038, Q2 : 0.0, Q3 : 0.0, Q4 : 0.996194720268}
2019-09-29 17:50:26.39: SIM {TimeUS : 41828262, Roll : 0.0, Pitch : 0.0, Yaw : 169.99, Alt : 87.0999984741, Lat : 69.7758389, Lng : 19.5489289, Q1 : 0.087155804038, Q2 : 0.0, Q3 : 0.0, Q4 : 0.996194720268}
2019-09-29 17:50:26.49: SIM {TimeUS : 41928222, Roll : 0.0, Pitch : 0.0, Yaw : 169.99, Alt : 87.0999984741, Lat : 69.7758389, Lng : 19.5489289, Q1 : 0.087155804038, Q2 : 0.0, Q3 : 0.0, Q4 : 0.996194720268}
2019-09-29 17:50:26.59: SIM {TimeUS : 42028182, Roll : 0.0, Pitch : 0.0, Yaw : 169.99, Alt : 87.0999984741, Lat : 69.7758389, Lng : 19.5489289, Q1 : 0.087155804038, Q2 : 0.0, Q3 : 0.0, Q4 : 0.996194720268}
2019-09-29 17:50:26.69: SIM {TimeUS : 42128975, Roll : 0.0, Pitch : 0.0, Yaw : 169.99, Alt : 87.0999984741, Lat : 69.7758389, Lng : 19.5489289, Q1 : 0.087155804038, Q2 : 0.0, Q3 : 0.0, Q4 : 0.996194720268}
2019-09-29 17:50:26.79: SIM {TimeUS : 42228935, Roll : 0.0, Pitch : 0.0, Yaw : 169.99, Alt : 87.0999984741, Lat : 69.7758389, Lng : 19.5489289, Q1 : 0.087155804038, Q2 : 0.0, Q3 : 0.0, Q4 : 0.996194720268}
2019-09-29 17:50:26.89: SIM {TimeUS : 42328895, Roll : 0.0, Pitch : 0.0, Yaw : 169.99, Alt : 87.0999984741, Lat : 69.7758389, Lng : 19.5489289, Q1 : 0.087155804038, Q2 : 0.0, Q3 : 0.0, Q4 : 0.996194720268}
2019-09-29 17:50:26.99: SIM {TimeUS : 42428855, Roll : 0.0, Pitch : 0.0, Yaw : 169.99, Alt : 87.0999984741, Lat : 69.7758389, Lng : 19.5489289, Q1 : 0.087155804038, Q2 : 0.0, Q3 : 0.0, Q4 : 0.996194720268}
2019-09-29 17:50:27.09: SIM {TimeUS : 42528815, Roll : 0.0, Pitch : 0.0, Yaw : 169.99, Alt : 87.0999984741, Lat : 69.7758389, Lng : 19.5489289, Q1 : 0.087155804038, Q2 : 0.0, Q3 : 0.0, Q4 : 0.996194720268}
2019-09-29 17:50:27.19: SIM {TimeUS : 42628775, Roll : 0.0, Pitch : 0.0, Yaw : 169.99, Alt : 87.0999984741, Lat : 69.7758389, Lng : 19.5489289, Q1 : 0.087155804038, Q2 : 0.0, Q3 : 0.0, Q4 : 0.996194720268}
2019-09-29 17:50:27.29: SIM {TimeUS : 42728735, Roll : 0.0, Pitch : 0.0, Yaw : 169.99, Alt : 87.0999984741, Lat : 69.7758389, Lng : 19.5489289, Q1 : 0.087155804038, Q2 : 0.0, Q3 : 0.0, Q4 : 0.996194720268}
2019-09-29 17:50:27.39: SIM {TimeUS : 42828695, Roll : 0.0, Pitch : 0.0, Yaw : 169.99, Alt : 87.0999984741, Lat : 69.7758389, Lng : 19.5489289, Q1 : 0.087155804038, Q2 : 0.0, Q3 : 0.0, Q4 : 0.996194720268}
2019-09-29 17:50:27.49: SIM {TimeUS : 42928655, Roll : 0.0, Pitch : 0.0, Yaw : 169.99, Alt : 87.1299972534, Lat : 69.7758389, Lng : 19.5489289, Q1 : 0.087155804038, Q2 : 0.0, Q3 : 0.0, Q4 : 0.996194720268}
2019-09-29 17:50:27.59: SIM {TimeUS : 43028615, Roll : 0.0, Pitch : 0.0, Yaw : 169.99, Alt : 87.1800003052, Lat : 69.7758389, Lng : 19.5489289, Q1 : 0.087155804038, Q2 : 0.0, Q3 : 0.0, Q4 : 0.996194720268}
2019-09-29 17:50:27.69: SIM {TimeUS : 43128575, Roll : -0.02, Pitch : -0.02, Yaw : 170.0, Alt : 87.2300033569, Lat : 69.7758389, Lng : 19.5489289, Q1 : 0.0871540680528, Q2 : 0.000197961519007, Q3 : -0.000237724132603, Q4 : 0.996194839478}
2019-09-29 17:50:27.79: SIM {TimeUS : 43228535, Roll : -0.22, Pitch : -0.21, Yaw : 170.0, Alt : 87.3199996948, Lat : 69.7758389, Lng : 19.5489289, Q1 : 0.0871308371425, Q2 : 0.00169358041603, Q3 : -0.00211866665632, Q4 : 0.996193170547}
2019-09-29 17:50:27.89: SIM {TimeUS : 43328495, Roll : -0.49, Pitch : -0.44, Yaw : 170.01, Alt : 87.4599990845, Lat : 69.7758389, Lng : 19.5489289, Q1 : 0.0870778635144, Q2 : 0.0034622696694, Q3 : -0.00460698641837, Q4 : 0.996184825897}
2019-09-29 17:50:27.99: SIM {TimeUS : 43428455, Roll : -0.71, Pitch : -0.59, Yaw : 170.02, Alt : 87.6399993896, Lat : 69.7758389, Lng : 19.5489289, Q1 : 0.0870024189353, Q2 : 0.00463467743248, Q3 : -0.00666362093762, Q4 : 0.996175050735}
2019-09-29 17:50:28.09: SIM {TimeUS : 43528415, Roll : -0.79, Pitch : -0.63, Yaw : 170.03, Alt : 87.8199996948, Lat : 69.7758389, Lng : 19.5489291, Q1 : 0.0869104266167, Q2 : 0.00488952826709, Q3 : -0.0073864790611, Q4 : 0.99617677927}
2019-09-29 17:50:28.19: SIM {TimeUS : 43628375, Roll : -0.7, Pitch : -0.54, Yaw : 170.04, Alt : 88.0, Lat : 69.7758389, Lng : 19.5489292, Q1 : 0.086811542511, Q2 : 0.0042363894172, Q3 : -0.0065757795237, Q4 : 0.996194064617}
2019-09-29 17:50:28.29: SIM {TimeUS : 43728335, Roll : -0.49, Pitch : -0.38, Yaw : 170.05, Alt : 88.1800003052, Lat : 69.7758389, Lng : 19.5489292, Q1 : 0.0867160856724, Q2 : 0.00293752946891, Q3 : -0.0045822202228, Q4 : 0.996218204498}
2019-09-29 17:50:28.39: SIM {TimeUS : 43828295, Roll : -0.23, Pitch : -0.2, Yaw : 170.06, Alt : 88.3600006104, Lat : 69.7758389, Lng : 19.5489295, Q1 : 0.0866244360805, Q2 : 0.00164474966004, Q3 : -0.00221515004523, Q4 : 0.996237277985}
2019-09-29 17:50:28.49: SIM {TimeUS : 43928255, Roll : -0.01, Pitch : -0.06, Yaw : 170.06, Alt : 88.5500030518, Lat : 69.7758389, Lng : 19.5489295, Q1 : 0.0865493938327, Q2 : 0.000534815422725, Q3 : -0.000165452715009, Q4 : 0.996247410774}
2019-09-29 17:50:28.59: SIM {TimeUS : 44028215, Roll : 0.12, Pitch : 0.04, Yaw : 170.07, Alt : 88.7399978638, Lat : 69.7758389, Lng : 19.5489298, Q1 : 0.0864956527948, Q2 : -0.000260654254816, Q3 : 0.00110487430356, Q4 : 0.996251583099}
2019-09-29 17:50:28.69: SIM {TimeUS : 44128175, Roll : 0.15, Pitch : 0.1, Yaw : 170.07, Alt : 88.9300003052, Lat : 69.7758388, Lng : 19.5489298, Q1 : 0.0864664390683, Q2 : -0.000773055886384, Q3 : 0.00145660224371, Q4 : 0.996253371239}
2019-09-29 17:50:28.79: SIM {TimeUS : 44228968, Roll : 0.11, Pitch : 0.11, Yaw : 170.08, Alt : 89.1299972534, Lat : 69.7758388, Lng : 19.5489301, Q1 : 0.0864590108395, Q2 : -0.000934723939281, Q3 : 0.0011011546012, Q4 : 0.996254384518}
2019-09-29 17:50:28.89: SIM {TimeUS : 44328928, Roll : 0.05, Pitch : 0.1, Yaw : 170.07, Alt : 89.3300018311, Lat : 69.7758388, Lng : 19.5489301, Q1 : 0.0864727348089, Q2 : -0.000854360230733, Q3 : 0.000581874279305, Q4 : 0.996253669262}
2019-09-29 17:50:28.99: SIM {TimeUS : 44428888, Roll : 0.01, Pitch : 0.05, Yaw : 170.07, Alt : 89.5400009155, Lat : 69.7758387, Lng : 19.5489303, Q1 : 0.0865016803145, Q2 : -0.000492992752697, Q3 : 0.000189582482562, Q4 : 0.996251583099}
2019-09-29 17:50:29.09: SIM {TimeUS : 44528848, Roll : 0.0, Pitch : 0.01, Yaw : 170.07, Alt : 89.7399978638, Lat : 69.7758387, Lng : 19.5489304, Q1 : 0.0865377560258, Q2 : -0.000157323200256, Q3 : 5.1219449233e-06, Q4 : 0.996248543262}
2019-09-29 17:50:29.19: SIM {TimeUS : 44628808, Roll : 0.0, Pitch : 0.01, Yaw : 170.06, Alt : 89.9400024414, Lat : 69.7758387, Lng : 19.5489304, Q1 : 0.086566388607, Q2 : -0.000106806510303, Q3 : 3.9832895709e-05, Q4 : 0.996246099472}
2019-09-29 17:50:29.29: SIM {TimeUS : 44728768, Roll : 0.01, Pitch : 0.02, Yaw : 170.06, Alt : 90.1500015259, Lat : 69.7758387, Lng : 19.5489305, Q1 : 0.0865816548467, Q2 : -0.000190758320969, Q3 : 0.000190424048924, Q4 : 0.996244728565}
2019-09-29 17:50:29.39: SIM {TimeUS : 44828728, Roll : 0.03, Pitch : 0.02, Yaw : 170.06, Alt : 90.3600006104, Lat : 69.7758387, Lng : 19.5489305, Q1 : 0.0865894779563, Q2 : -0.000173316904693, Q3 : 0.00035219732672, Q4 : 0.996244013309}
2019-09-29 17:50:29.49: SIM {TimeUS : 44928688, Roll : 0.06, Pitch : 0.02, Yaw : 170.06, Alt : 90.5699996948, Lat : 69.7758387, Lng : 19.5489305, Q1 : 0.0865928307176, Q2 : -0.000156629350386, Q3 : 0.000556800863706, Q4 : 0.996243655682}
2019-09-29 17:50:29.59: SIM {TimeUS : 45028648, Roll : 0.08, Pitch : 0.02, Yaw : 170.06, Alt : 90.7799987793, Lat : 69.7758387, Lng : 19.5489307, Q1 : 0.0865936949849, Q2 : -0.000171646490344, Q3 : 0.000761156145018, Q4 : 0.996243417263}
2019-09-29 17:50:29.69: SIM {TimeUS : 45128608, Roll : 0.12, Pitch : 0.02, Yaw : 170.06, Alt : 90.9899978638, Lat : 69.7758386, Lng : 19.5489307, Q1 : 0.0865866690874, Q2 : -0.000137091017677, Q3 : 0.00108085002284, Q4 : 0.996243715286}
2019-09-29 17:50:29.79: SIM {TimeUS : 45228568, Roll : 0.15, Pitch : 0.01, Yaw : 170.06, Alt : 91.1999969482, Lat : 69.7758386, Lng : 19.5489307, Q1 : 0.0865712761879, Q2 : -4.45900404884e-05, Q3 : 0.00136518687941, Q4 : 0.996244728565}
2019-09-29 17:50:29.89: SIM {TimeUS : 45328528, Roll : 0.18, Pitch : 0.02, Yaw : 170.07, Alt : 91.4199981689, Lat : 69.7758386, Lng : 19.5489308, Q1 : 0.0865420326591, Q2 : -0.000117525691167, Q3 : 0.00159895303659, Q4 : 0.996246933937}
2019-09-29 17:50:29.99: SIM {TimeUS : 45428488, Roll : 0.19, Pitch : 0.07, Yaw : 170.07, Alt : 91.6299972534, Lat : 69.7758386, Lng : 19.5489308, Q1 : 0.0865174382925, Q2 : -0.000484837597469, Q3 : 0.00179369514808, Q4 : 0.996248602867}
2019-09-29 17:50:30.09: SIM {TimeUS : 45528448, Roll : 0.18, Pitch : 0.12, Yaw : 170.07, Alt : 91.8499984741, Lat : 69.7758386, Lng : 19.5489308, Q1 : 0.0865112617612, Q2 : -0.000915734970476, Q3 : 0.00169352465309, Q4 : 0.9962490201}
2019-09-29 17:50:30.19: SIM {TimeUS : 45628408, Roll : 0.14, Pitch : 0.15, Yaw : 170.07, Alt : 92.0599975586, Lat : 69.7758386, Lng : 19.5489308, Q1 : 0.0865192115307, Q2 : -0.00120700406842, Q3 : 0.00137692457065, Q4 : 0.996248483658}
2019-09-29 17:50:30.29: SIM {TimeUS : 45728368, Roll : 0.1, Pitch : 0.13, Yaw : 170.07, Alt : 92.2799987793, Lat : 69.7758386, Lng : 19.5489308, Q1 : 0.0865446329117, Q2 : -0.0011127149919, Q3 : 0.000974226219114, Q4 : 0.996246874332}
2019-09-29 17:50:30.39: SIM {TimeUS : 45828328, Roll : 0.04, Pitch : 0.09, Yaw : 170.06, Alt : 92.5, Lat : 69.7758386, Lng : 19.5489308, Q1 : 0.0865791141987, Q2 : -0.000762070936617, Q3 : 0.000498026900459, Q4 : 0.996244609356}
2019-09-29 17:50:30.49: SIM {TimeUS : 45928288, Roll : 0.01, Pitch : 0.02, Yaw : 170.06, Alt : 92.7200012207, Lat : 69.7758386, Lng : 19.5489308, Q1 : 0.0866164639592, Q2 : -0.000245983304922, Q3 : 0.000189459620742, Q4 : 0.996241688728}
2019-09-29 17:50:30.59: SIM {TimeUS : 46028248, Roll : 0.0, Pitch : -0.03, Yaw : 170.05, Alt : 92.9400024414, Lat : 69.7758386, Lng : 19.5489307, Q1 : 0.0866474807262, Q2 : 0.000311930780299, Q3 : -2.6601661375e-05, Q4 : 0.996238946915}
2019-09-29 17:50:30.69: SIM {TimeUS : 46128208, Roll : 0.0, Pitch : -0.06, Yaw : 170.05, Alt : 93.1600036621, Lat : 69.7758386, Lng : 19.5489307, Q1 : 0.0866674855351, Q2 : 0.000602990563493, Q3 : -3.90685236198e-05, Q4 : 0.996237099171}
2019-09-29 17:50:30.79: SIM {TimeUS : 46228168, Roll : 0.02, Pitch : -0.05, Yaw : 170.05, Alt : 93.3899993896, Lat : 69.7758386, Lng : 19.5489307, Q1 : 0.0866765230894, Q2 : 0.000503561925143, Q3 : 0.000178636590135, Q4 : 0.996236383915}
2019-09-29 17:50:30.89: SIM {TimeUS : 46328961, Roll : 0.03, Pitch : -0.03, Yaw : 170.05, Alt : 93.6100006104, Lat : 69.7758386, Lng : 19.5489307, Q1 : 0.0866841003299, Q2 : 0.00029673622339, Q3 : 0.000276439473964, Q4 : 0.996235787868}
2019-09-29 17:50:30.99: SIM {TimeUS : 46428921, Roll : 0.01, Pitch : -0.03, Yaw : 170.05, Alt : 93.8399963379, Lat : 69.7758386, Lng : 19.5489307, Q1 : 0.0866946429014, Q2 : 0.000293467455776, Q3 : 8.02917638794e-05, Q4 : 0.996234953403}
2019-09-29 17:50:31.09: SIM {TimeUS : 46528881, Roll : -0.01, Pitch : -0.05, Yaw : 170.05, Alt : 94.0599975586, Lat : 69.7758386, Lng : 19.5489307, Q1 : 0.0867018997669, Q2 : 0.000452338310424, Q3 : -0.000165150457178, Q4 : 0.996234238148}
2019-09-29 17:50:31.19: SIM {TimeUS : 46628841, Roll : -0.01, Pitch : -0.07, Yaw : 170.05, Alt : 94.2900009155, Lat : 69.7758386, Lng : 19.5489307, Q1 : 0.0866927057505, Q2 : 0.000627303612418, Q3 : -0.000222879243665, Q4 : 0.996234893799}
2019-09-29 17:50:31.29: SIM {TimeUS : 46728801, Roll : 0.01, Pitch : -0.09, Yaw : 170.05, Alt : 94.5100021362, Lat : 69.7758386, Lng : 19.5489307, Q1 : 0.0866628661752, Q2 : 0.000872624863405, Q3 : 1.599461757e-05, Q4 : 0.996237337589}
2019-09-29 17:50:31.39: SIM {TimeUS : 46828761, Roll : 0.01, Pitch : -0.12, Yaw : 170.05, Alt : 94.7399978638, Lat : 69.7758386, Lng : 19.5489307, Q1 : 0.0866461545229, Q2 : 0.00108631141484, Q3 : 6.17658442934e-05, Q4 : 0.996238529682}
2019-09-29 17:50:31.49: SIM {TimeUS : 46928721, Roll : 0.0, Pitch : -0.12, Yaw : 170.05, Alt : 94.9700012207, Lat : 69.7758386, Lng : 19.5489307, Q1 : 0.0866402089596, Q2 : 0.00106668111403, Q3 : -0.000155726098455, Q4 : 0.996239125729}
2019-09-29 17:50:31.59: SIM {TimeUS : 47028681, Roll : -0.01, Pitch : -0.09, Yaw : 170.05, Alt : 95.1900024414, Lat : 69.7758386, Lng : 19.5489307, Q1 : 0.0866416990757, Q2 : 0.000823459646199, Q3 : -0.000226143529289, Q4 : 0.996239185333}
2019-09-29 17:50:31.69: SIM {TimeUS : 47128641, Roll : -0.01, Pitch : -0.06, Yaw : 170.05, Alt : 95.4199981689, Lat : 69.7758386, Lng : 19.5489307, Q1 : 0.0866440311074, Q2 : 0.000539562257472, Q3 : -0.000199504283955, Q4 : 0.996239185333}
2019-09-29 17:50:31.79: SIM {TimeUS : 47228601, Roll : -0.01, Pitch : -0.03, Yaw : 170.05, Alt : 95.6500015259, Lat : 69.7758386, Lng : 19.5489307, Q1 : 0.0866462290287, Q2 : 0.000321023486322, Q3 : -0.000180251168786, Q4 : 0.996239066124}
2019-09-29 17:50:31.89: SIM {TimeUS : 47328561, Roll : 0.0, Pitch : 0.0, Yaw : 170.05, Alt : 95.8799972534, Lat : 69.7758386, Lng : 19.5489307, Q1 : 0.0866594389081, Q2 : 6.77220741636e-05, Q3 : -1.75440854946e-05, Q4 : 0.99623799324}
2019-09-29 17:50:31.99: SIM {TimeUS : 47428521, Roll : 0.02, Pitch : 0.0, Yaw : 170.05, Alt : 96.1100006104, Lat : 69.7758384, Lng : 19.5489307, Q1 : 0.086673527956, Q2 : -2.84663274215e-05, Q3 : 0.000210523765418, Q4 : 0.996236741543}
2019-09-29 17:50:32.09: SIM {TimeUS : 47528481, Roll : 0.07, Pitch : -0.01, Yaw : 170.05, Alt : 96.3399963379, Lat : 69.7758384, Lng : 19.5489307, Q1 : 0.0866872295737, Q2 : 0.000196916094865, Q3 : 0.00062971143052, Q4 : 0.996235370636}
2019-09-29 17:50:32.19: SIM {TimeUS : 47628441, Roll : 0.1, Pitch : -0.04, Yaw : 170.05, Alt : 96.5699996948, Lat : 69.7758384, Lng : 19.5489307, Q1 : 0.0866933241487, Q2 : 0.000477528868942, Q3 : 0.000862287532073, Q4 : 0.996234595776}
2019-09-29 17:50:32.29: SIM {TimeUS : 47728401, Roll : 0.1, Pitch : -0.05, Yaw : 170.05, Alt : 96.8000030518, Lat : 69.7758384, Lng : 19.5489307, Q1 : 0.0866945311427, Q2 : 0.000557597202715, Q3 : 0.000841054425109, Q4 : 0.996234476566}
2019-09-29 17:50:32.39: SIM {TimeUS : 47828361, Roll : 0.06, Pitch : -0.05, Yaw : 170.05, Alt : 97.0299987793, Lat : 69.7758384, Lng : 19.5489307, Q1 : 0.086690209806, Q2 : 0.000486077158712, Q3 : 0.000550868397113, Q4 : 0.996235072613}
2019-09-29 17:50:32.49: SIM {TimeUS : 47928321, Roll : 0.04, Pitch : -0.04, Yaw : 170.05, Alt : 97.2600021362, Lat : 69.7758384, Lng : 19.5489307, Q1 : 0.086682267487, Q2 : 0.000403881887905, Q3 : 0.000357869750587, Q4 : 0.996235907078}
2019-09-29 17:50:32.59: SIM {TimeUS : 48028281, Roll : 0.04, Pitch : -0.04, Yaw : 170.05, Alt : 97.5, Lat : 69.7758384, Lng : 19.5489307, Q1 : 0.0866785272956, Q2 : 0.000383772043278, Q3 : 0.000341230101185, Q4 : 0.996236205101}
2019-09-29 17:50:32.69: SIM {TimeUS : 48128241, Roll : 0.03, Pitch : -0.02, Yaw : 170.05, Alt : 97.7300033569, Lat : 69.7758384, Lng : 19.5489307, Q1 : 0.0866774171591, Q2 : 0.000242359208642, Q3 : 0.000278000137769, Q4 : 0.996236383915}
2019-09-29 17:50:32.79: SIM {TimeUS : 48228201, Roll : 0.02, Pitch : 0.0, Yaw : 170.05, Alt : 97.9599990845, Lat : 69.7758384, Lng : 19.5489307, Q1 : 0.0866833999753, Q2 : 6.20735736447e-05, Q3 : 0.00017254796694, Q4 : 0.996235907078}
2019-09-29 17:50:32.89: SIM {TimeUS : 48328161, Roll : 0.0, Pitch : 0.01, Yaw : 170.05, Alt : 98.1999969482, Lat : 69.7758384, Lng : 19.5489305, Q1 : 0.0866984426975, Q2 : -0.000171201740159, Q3 : -4.88721198053e-05, Q4 : 0.996234595776}
2019-09-29 17:50:32.99: SIM {TimeUS : 48428954, Roll : -0.03, Pitch : 0.03, Yaw : 170.05, Alt : 98.4300003052, Lat : 69.7758384, Lng : 19.5489305, Q1 : 0.0867162793875, Q2 : -0.000366066989955, Q3 : -0.00031120100175, Q4 : 0.996232926846}
2019-09-29 17:50:33.09: SIM {TimeUS : 48528914, Roll : -0.06, Pitch : 0.05, Yaw : 170.04, Alt : 98.6600036621, Lat : 69.7758384, Lng : 19.5489305, Q1 : 0.0867343991995, Q2 : -0.00055775459623, Q3 : -0.000529350480065, Q4 : 0.996231198311}
2019-09-29 17:50:33.19: SIM {TimeUS : 48628874, Roll : -0.08, Pitch : 0.06, Yaw : 170.04, Alt : 98.9000015259, Lat : 69.7758384, Lng : 19.5489305, Q1 : 0.0867525413632, Q2 : -0.000644070853014, Q3 : -0.00066410691943, Q4 : 0.996229469776}
2019-09-29 17:50:33.29: SIM {TimeUS : 48728834, Roll : -0.08, Pitch : 0.06, Yaw : 170.04, Alt : 99.1299972534, Lat : 69.7758384, Lng : 19.5489305, Q1 : 0.0867711082101, Q2 : -0.000617948942818, Q3 : -0.000721221149433, Q4 : 0.996227860451}
2019-09-29 17:50:33.39: SIM {TimeUS : 48828794, Roll : -0.07, Pitch : 0.04, Yaw : 170.04, Alt : 99.3700027466, Lat : 69.7758384, Lng : 19.5489305, Q1 : 0.0867894217372, Q2 : -0.000419979158323, Q3 : -0.000618613499682, Q4 : 0.996226429939}
2019-09-29 17:50:33.49: SIM {TimeUS : 48928754, Roll : -0.04, Pitch : 0.0, Yaw : 170.04, Alt : 99.5999984741, Lat : 69.7758384, Lng : 19.5489305, Q1 : 0.0868064537644, Q2 : -5.91555799474e-05, Q3 : -0.000418004143285, Q4 : 0.996225118637}
2019-09-29 17:50:33.59: SIM {TimeUS : 49028714, Roll : 0.0, Pitch : -0.03, Yaw : 170.03, Alt : 99.8399963379, Lat : 69.7758384, Lng : 19.5489305, Q1 : 0.0868178904057, Q2 : 0.000293886987492, Q3 : -9.00629820535e-05, Q4 : 0.996224164963}
2019-09-29 17:50:33.69: SIM {TimeUS : 49128674, Roll : 0.03, Pitch : -0.06, Yaw : 170.03, Alt : 100.069999695, Lat : 69.7758384, Lng : 19.5489305, Q1 : 0.0868201255798, Q2 : 0.00055524968775, Q3 : 0.00028395789559, Q4 : 0.996223807335}
2019-09-29 17:50:33.79: SIM {TimeUS : 49228634, Roll : 0.07, Pitch : -0.06, Yaw : 170.03, Alt : 100.309997559, Lat : 69.7758384, Lng : 19.5489305, Q1 : 0.0868102833629, Q2 : 0.000590331270359, Q3 : 0.000603759544902, Q4 : 0.996224462986}
2019-09-29 17:50:33.89: SIM {TimeUS : 49328594, Roll : 0.08, Pitch : -0.04, Yaw : 170.04, Alt : 100.540000916, Lat : 69.7758384, Lng : 19.5489305, Q1 : 0.0867986232042, Q2 : 0.000451196916401, Q3 : 0.000715142465197, Q4 : 0.99622553587}
2019-09-29 17:50:33.99: SIM {TimeUS : 49428554, Roll : 0.05, Pitch : -0.02, Yaw : 170.04, Alt : 100.779998779, Lat : 69.7758384, Lng : 19.5489305, Q1 : 0.0867895781994, Q2 : 0.000267276336672, Q3 : 0.000495209998917, Q4 : 0.996226549149}
2019-09-29 17:50:34.09: SIM {TimeUS : 49528514, Roll : 0.01, Pitch : -0.01, Yaw : 170.04, Alt : 101.010002136, Lat : 69.7758386, Lng : 19.5489305, Q1 : 0.086785055697, Q2 : 0.00018077986897, Q3 : 0.000117069350381, Q4 : 0.99622708559}
2019-09-29 17:50:34.19: SIM {TimeUS : 49628474, Roll : -0.02, Pitch : -0.04, Yaw : 170.04, Alt : 101.25, Lat : 69.7758386, Lng : 19.5489305, Q1 : 0.0867899656296, Q2 : 0.000402081088396, Q3 : -0.00021494361863, Q4 : 0.996226549149}
2019-09-29 17:50:34.29: SIM {TimeUS : 49728434, Roll : -0.04, Pitch : -0.07, Yaw : 170.04, Alt : 101.489997864, Lat : 69.7758386, Lng : 19.5489305, Q1 : 0.0868076309562, Q2 : 0.000615061842836, Q3 : -0.000456273293821, Q4 : 0.996224820614}
2019-09-29 17:50:34.39: SIM {TimeUS : 49828394, Roll : -0.07, Pitch : -0.05, Yaw : 170.03, Alt : 101.720001221, Lat : 69.7758386, Lng : 19.5489305, Q1 : 0.0868477672338, Q2 : 0.000387974636396, Q3 : -0.000653056777082, Q4 : 0.99622130394}
2019-09-29 17:50:34.49: SIM {TimeUS : 49928354, Roll : -0.08, Pitch : 0.02, Yaw : 170.03, Alt : 101.959999084, Lat : 69.7758386, Lng : 19.5489305, Q1 : 0.0868885070086, Q2 : -0.000266985618509, Q3 : -0.000764440221246, Q4 : 0.996217727661}
2019-09-29 17:50:34.59: SIM {TimeUS : 50028314, Roll : -0.07, Pitch : 0.08, Yaw : 170.02, Alt : 102.199996948, Lat : 69.7758386, Lng : 19.5489305, Q1 : 0.0869226753712, Q2 : -0.000791409169324, Q3 : -0.000615653116256, Q4 : 0.996214568615}
2019-09-29 17:50:34.69: SIM {TimeUS : 50128274, Roll : -0.04, Pitch : 0.09, Yaw : 170.02, Alt : 102.430000305, Lat : 69.7758386, Lng : 19.5489305, Q1 : 0.0869469046593, Q2 : -0.000854026293382, Q3 : -0.000304831715766, Q4 : 0.996212542057}
2019-09-29 17:50:34.79: SIM {TimeUS : 50228234, Roll : -0.01, Pitch : 0.06, Yaw : 170.02, Alt : 102.669998169, Lat : 69.7758386, Lng : 19.5489305, Q1 : 0.086965367198, Q2 : -0.000551801815163, Q3 : -8.1084559497e-05, Q4 : 0.99621117115}
2019-09-29 17:50:34.89: SIM {TimeUS : 50328194, Roll : 0.0, Pitch : 0.0, Yaw : 170.02, Alt : 102.910003662, Lat : 69.7758386, Lng : 19.5489305, Q1 : 0.0869810134172, Q2 : -2.92383083433e-05, Q3 : 1.30584248836e-05, Q4 : 0.996210038662}
2019-09-29 17:50:34.99: SIM {TimeUS : 50428154, Roll : 0.0, Pitch : -0.08, Yaw : 170.01, Alt : 103.13999939, Lat : 69.7758386, Lng : 19.5489305, Q1 : 0.0869896188378, Q2 : 0.000716693990398, Q3 : -3.63567451132e-05, Q4 : 0.996208965778}
2019-09-29 17:50:35.09: SIM {TimeUS : 50528947, Roll : 0.0, Pitch : -0.15, Yaw : 170.01, Alt : 103.379997253, Lat : 69.7758386, Lng : 19.5489305, Q1 : 0.0869940146804, Q2 : 0.00139324052725, Q3 : -6.86598141328e-05, Q4 : 0.99620783329}
2019-09-29 17:50:35.19: SIM {TimeUS : 50628907, Roll : 0.0, Pitch : -0.19, Yaw : 170.01, Alt : 103.620002747, Lat : 69.7758386, Lng : 19.5489305, Q1 : 0.0869956314564, Q2 : 0.00172748882324, Q3 : -0.000142963603139, Q4 : 0.996207177639}
2019-09-29 17:50:35.29: SIM {TimeUS : 50728867, Roll : 0.0, Pitch : -0.17, Yaw : 170.01, Alt : 103.849998474, Lat : 69.7758386, Lng : 19.5489305, Q1 : 0.0869883149862, Q2 : 0.00154021009803, Q3 : -0.000169961276697, Q4 : 0.996208131313}
2019-09-29 17:50:35.39: SIM {TimeUS : 50828827, Roll : -0.01, Pitch : -0.1, Yaw : 170.02, Alt : 104.080001831, Lat : 69.7758386, Lng : 19.5489305, Q1 : 0.0869780108333, Q2 : 0.000910070200916, Q3 : -0.000170602288563, Q4 : 0.996209800243}
2019-09-29 17:50:35.49: SIM {TimeUS : 50928787, Roll : 0.01, Pitch : 0.0, Yaw : 170.02, Alt : 104.309997559, Lat : 69.7758386, Lng : 19.5489305, Q1 : 0.0869681239128, Q2 : 7.28248633095e-05, Q3 : 8.21170469862e-05, Q4 : 0.996211111546}
2019-09-29 17:50:35.59: SIM {TimeUS : 51028747, Roll : 0.04, Pitch : 0.05, Yaw : 170.02, Alt : 104.529998779, Lat : 69.7758386, Lng : 19.5489305, Q1 : 0.086960926652, Q2 : -0.000453191285487, Q3 : 0.000447468803031, Q4 : 0.996211528778}
2019-09-29 17:50:35.69: SIM {TimeUS : 51128707, Roll : 0.07, Pitch : 0.06, Yaw : 170.02, Alt : 104.75, Lat : 69.7758386, Lng : 19.5489305, Q1 : 0.0869569554925, Q2 : -0.000487640005304, Q3 : 0.000669112952892, Q4 : 0.996211767197}
2019-09-29 17:50:35.79: SIM {TimeUS : 51228667, Roll : 0.09, Pitch : 0.02, Yaw : 170.02, Alt : 104.959999084, Lat : 69.7758386, Lng : 19.5489305, Q1 : 0.0869577229023, Q2 : -0.000136486210977, Q3 : 0.000800956622697, Q4 : 0.996211707592}
2019-09-29 17:50:35.89: SIM {TimeUS : 51328627, Roll : 0.11, Pitch : -0.01, Yaw : 170.02, Alt : 105.169998169, Lat : 69.7758386, Lng : 19.5489305, Q1 : 0.0869637131691, Q2 : 0.00022898131283, Q3 : 0.00102050218266, Q4 : 0.996210932732}
2019-09-29 17:50:35.99: SIM {TimeUS : 51428587, Roll : 0.12, Pitch : -0.03, Yaw : 170.02, Alt : 105.36000061, Lat : 69.7758386, Lng : 19.5489305, Q1 : 0.0869741216302, Q2 : 0.000427868770203, Q3 : 0.00109250564128, Q4 : 0.996209919453}
2019-09-29 17:50:36.09: SIM {TimeUS : 51528547, Roll : 0.1, Pitch : -0.02, Yaw : 170.01, Alt : 105.550003052, Lat : 69.7758386, Lng : 19.5489305, Q1 : 0.0869904980063, Q2 : 0.000305930123432, Q3 : 0.000879150989931, Q4 : 0.99620872736}
2019-09-29 17:50:36.19: SIM {TimeUS : 51628507, Roll : 0.08, Pitch : -0.01, Yaw : 170.01, Alt : 105.730003357, Lat : 69.7758384, Lng : 19.5489305, Q1 : 0.0870084390044, Q2 : 0.000182449963177, Q3 : 0.000760768190958, Q4 : 0.996207296848}
2019-09-29 17:50:36.29: SIM {TimeUS : 51728467, Roll : 0.07, Pitch : -0.01, Yaw : 170.01, Alt : 105.900001526, Lat : 69.7758384, Lng : 19.5489305, Q1 : 0.0870267376304, Q2 : 0.000179370865226, Q3 : 0.000653017486911, Q4 : 0.996205747128}
2019-09-29 17:50:36.39: SIM {TimeUS : 51828427, Roll : 0.05, Pitch : -0.02, Yaw : 170.01, Alt : 106.050003052, Lat : 69.7758384, Lng : 19.5489305, Q1 : 0.087046995759, Q2 : 0.000218438333832, Q3 : 0.000449246290373, Q4 : 0.996204078197}
2019-09-29 17:50:36.49: SIM {TimeUS : 51928387, Roll : 0.02, Pitch : -0.01, Yaw : 170.01, Alt : 106.199996948, Lat : 69.7758384, Lng : 19.5489305, Q1 : 0.0870655477047, Q2 : 0.000169835286215, Q3 : 0.000221738097025, Q4 : 0.996202588081}
2019-09-29 17:50:36.59: SIM {TimeUS : 52028347, Roll : 0.0, Pitch : 0.0, Yaw : 170.0, Alt : 106.330001831, Lat : 69.7758384, Lng : 19.5489305, Q1 : 0.0870804637671, Q2 : 4.53365231579e-07, Q3 : -2.24694467761e-05, Q4 : 0.996201276779}
2019-09-29 17:50:36.69: SIM {TimeUS : 52128307, Roll : -0.02, Pitch : 0.01, Yaw : 170.0, Alt : 106.449996948, Lat : 69.7758384, Lng : 19.5489305, Q1 : 0.0870925486088, Q2 : -0.000140263771755, Q3 : -0.000247375195613, Q4 : 0.996200203896}
2019-09-29 17:50:36.79: SIM {TimeUS : 52228267, Roll : -0.05, Pitch : 0.01, Yaw : 170.0, Alt : 106.559997559, Lat : 69.7758384, Lng : 19.5489304, Q1 : 0.0871012434363, Q2 : -0.000162718875799, Q3 : -0.000499313289765, Q4 : 0.996199369431}
2019-09-29 17:50:36.89: SIM {TimeUS : 52328227, Roll : -0.07, Pitch : 0.0, Yaw : 170.0, Alt : 106.650001526, Lat : 69.7758384, Lng : 19.5489304, Q1 : 0.0871036350727, Q2 : -0.000115127666504, Q3 : -0.000628617824987, Q4 : 0.996199071407}
2019-09-29 17:50:36.99: SIM {TimeUS : 52428187, Roll : -0.05, Pitch : 0.0, Yaw : 170.0, Alt : 106.730003357, Lat : 69.7758384, Lng : 19.5489304, Q1 : 0.0871090739965, Q2 : -0.000125594160636, Q3 : -0.000501465809066, Q4 : 0.996198654175}
2019-09-29 17:50:37.09: SIM {TimeUS : 52528980, Roll : -0.03, Pitch : 0.01, Yaw : 170.0, Alt : 106.809997559, Lat : 69.7758384, Lng : 19.5489304, Q1 : 0.0871152952313, Q2 : -0.00014304445358, Q3 : -0.00027020755806, Q4 : 0.996198236942}
2019-09-29 17:50:37.19: SIM {TimeUS : 52628940, Roll : -0.01, Pitch : 0.01, Yaw : 170.0, Alt : 106.870002747, Lat : 69.7758384, Lng : 19.5489304, Q1 : 0.0871194750071, Q2 : -0.000104905724584, Q3 : -0.000139868221595, Q4 : 0.996197879314}
2019-09-29 17:50:37.29: SIM {TimeUS : 52728900, Roll : -0.02, Pitch : 0.01, Yaw : 170.0, Alt : 106.919998169, Lat : 69.7758384, Lng : 19.5489304, Q1 : 0.0871208459139, Q2 : -0.000134998277645, Q3 : -0.000217330045416, Q4 : 0.996197760105}
