2019-09-29 18:28:28.10: SIM {TimeUS : 40728702, Roll : 0.0, Pitch : 0.0, Yaw : 169.99, Alt : 87.0999984741, Lat : 69.7758389, Lng : 19.5489289, Q1 : 0.087155804038, Q2 : 0.0, Q3 : 0.0, Q4 : 0.996194720268}
2019-09-29 18:28:28.20: SIM {TimeUS : 40828662, Roll : 0.0, Pitch : 0.0, Yaw : 169.99, Alt : 87.0999984741, Lat : 69.7758389, Lng : 19.5489289, Q1 : 0.087155804038, Q2 : 0.0, Q3 : 0.0, Q4 : 0.996194720268}
2019-09-29 18:28:28.29: SIM {TimeUS : 40928622, Roll : 0.0, Pitch : 0.0, Yaw : 169.99, Alt : 87.0999984741, Lat : 69.7758389, Lng : 19.5489289, Q1 : 0.087155804038, Q2 : 0.0, Q3 : 0.0, Q4 : 0.996194720268}
2019-09-29 18:28:28.39: SIM {TimeUS : 41028582, Roll : 0.0, Pitch : 0.0, Yaw : 169.99, Alt : 87.0999984741, Lat : 69.7758389, Lng : 19.5489289, Q1 : 0.087155804038, Q2 : 0.0, Q3 : 0.0, Q4 : 0.996194720268}
2019-09-29 18:28:28.49: SIM {TimeUS : 41128542, Roll : 0.0, Pitch : 0.0, Yaw : 169.99, Alt : 87.0999984741, Lat : 69.7758389, Lng : 19.5489289, Q1 : 0.087155804038, Q2 : 0.0, Q3 : 0.0, Q4 : 0.996194720268}
2019-09-29 18:28:28.59: SIM {TimeUS : 41228502, Roll : 0.0, Pitch : 0.0, Yaw : 169.99, Alt : 87.0999984741, Lat : 69.7758389, Lng : 19.5489289, Q1 : 0.087155804038, Q2 : 0.0, Q3 : 0.0, Q4 : 0.996194720268}
2019-09-29 18:28:28.69: SIM {TimeUS : 41328462, Roll : 0.0, Pitch : 0.0, Yaw : 169.99, Alt : 87.0999984741, Lat : 69.7758389, Lng : 19.5489289, Q1 : 0.087155804038, Q2 : 0.0, Q3 : 0.0, Q4 : 0.996194720268}
2019-09-29 18:28:28.79: SIM {TimeUS : 41428422, Roll : 0.0, Pitch : 0.0, Yaw : 169.99, Alt : 87.0999984741, Lat : 69.7758389, Lng : 19.5489289, Q1 : 0.087155804038, Q2 : 0.0, Q3 : 0.0, Q4 : 0.996194720268}
2019-09-29 18:28:28.89: SIM {TimeUS : 41528382, Roll : 0.0, Pitch : 0.0, Yaw : 169.99, Alt : 87.0999984741, Lat : 69.7758389, Lng : 19.5489289, Q1 : 0.087155804038, Q2 : 0.0, Q3 : 0.0, Q4 : 0.996194720268}
2019-09-29 18:28:28.99: SIM {TimeUS : 41628342, Roll : 0.0, Pitch : 0.0, Yaw : 169.99, Alt : 87.0999984741, Lat : 69.7758389, Lng : 19.5489289, Q1 : 0.087155804038, Q2 : 0.0, Q3 : 0.0, Q4 : 0.996194720268}
2019-09-29 18:28:29.09: SIM {TimeUS : 41728302, Roll : 0.0, Pitch : 0.0, Yaw : 169.99, Alt : 87.0999984741, Lat : 69.7758389, Lng : 19.5489289, Q1 : 0.087155804038, Q2 : 0.0, Q3 : 0.0, Q4 : 0.996194720268}
2019-09-29 18:28:29.19: SIM {TimeUS : 41828262, Roll : 0.0, Pitch : 0.0, Yaw : 169.99, Alt : 87.0999984741, Lat : 69.7758389, Lng : 19.5489289, Q1 : 0.087155804038, Q2 : 0.0, Q3 : 0.0, Q4 : 0.996194720268}
2019-09-29 18:28:29.29: SIM {TimeUS : 41928222, Roll : 0.0, Pitch : 0.0, Yaw : 169.99, Alt : 87.0999984741, Lat : 69.7758389, Lng : 19.5489289, Q1 : 0.087155804038, Q2 : 0.0, Q3 : 0.0, Q4 : 0.996194720268}
2019-09-29 18:28:29.39: SIM {TimeUS : 42028182, Roll : 0.0, Pitch : 0.0, Yaw : 169.99, Alt : 87.0999984741, Lat : 69.7758389, Lng : 19.5489289, Q1 : 0.087155804038, Q2 : 0.0, Q3 : 0.0, Q4 : 0.996194720268}
2019-09-29 18:28:29.50: SIM {TimeUS : 42128975, Roll : 0.0, Pitch : 0.0, Yaw : 169.99, Alt : 87.0999984741, Lat : 69.7758389, Lng : 19.5489289, Q1 : 0.087155804038, Q2 : 0.0, Q3 : 0.0, Q4 : 0.996194720268}
2019-09-29 18:28:29.60: SIM {TimeUS : 42228935, Roll : 0.0, Pitch : 0.0, Yaw : 169.99, Alt : 87.0999984741, Lat : 69.7758389, Lng : 19.5489289, Q1 : 0.087155804038, Q2 : 0.0, Q3 : 0.0, Q4 : 0.996194720268}
2019-09-29 18:28:29.70: SIM {TimeUS : 42328895, Roll : 0.0, Pitch : 0.0, Yaw : 169.99, Alt : 87.0999984741, Lat : 69.7758389, Lng : 19.5489289, Q1 : 0.087155804038, Q2 : 0.0, Q3 : 0.0, Q4 : 0.996194720268}
2019-09-29 18:28:29.80: SIM {TimeUS : 42428855, Roll : 0.0, Pitch : 0.0, Yaw : 169.99, Alt : 87.0999984741, Lat : 69.7758389, Lng : 19.5489289, Q1 : 0.087155804038, Q2 : 0.0, Q3 : 0.0, Q4 : 0.996194720268}
2019-09-29 18:28:29.90: SIM {TimeUS : 42528815, Roll : 0.0, Pitch : 0.0, Yaw : 169.99, Alt : 87.0999984741, Lat : 69.7758389, Lng : 19.5489289, Q1 : 0.087155804038, Q2 : 0.0, Q3 : 0.0, Q4 : 0.996194720268}
2019-09-29 18:28:30.00: SIM {TimeUS : 42628775, Roll : 0.0, Pitch : 0.0, Yaw : 169.99, Alt : 87.0999984741, Lat : 69.7758389, Lng : 19.5489289, Q1 : 0.087155804038, Q2 : 0.0, Q3 : 0.0, Q4 : 0.996194720268}
2019-09-29 18:28:30.10: SIM {TimeUS : 42728735, Roll : 0.0, Pitch : 0.0, Yaw : 169.99, Alt : 87.0999984741, Lat : 69.7758389, Lng : 19.5489289, Q1 : 0.087155804038, Q2 : 0.0, Q3 : 0.0, Q4 : 0.996194720268}
2019-09-29 18:28:30.20: SIM {TimeUS : 42828695, Roll : 0.0, Pitch : 0.0, Yaw : 169.99, Alt : 87.0999984741, Lat : 69.7758389, Lng : 19.5489289, Q1 : 0.087155804038, Q2 : 0.0, Q3 : 0.0, Q4 : 0.996194720268}
2019-09-29 18:28:30.29: SIM {TimeUS : 42928655, Roll : 0.0, Pitch : 0.0, Yaw : 169.99, Alt : 87.0999984741, Lat : 69.7758389, Lng : 19.5489289, Q1 : 0.087155804038, Q2 : 0.0, Q3 : 0.0, Q4 : 0.996194720268}
2019-09-29 18:28:30.39: SIM {TimeUS : 43028615, Roll : 0.0, Pitch : 0.0, Yaw : 169.99, Alt : 87.0999984741, Lat : 69.7758389, Lng : 19.5489289, Q1 : 0.087155804038, Q2 : 0.0, Q3 : 0.0, Q4 : 0.996194720268}
2019-09-29 18:28:30.49: SIM {TimeUS : 43128575, Roll : 0.0, Pitch : 0.0, Yaw : 169.99, Alt : 87.0999984741, Lat : 69.7758389, Lng : 19.5489289, Q1 : 0.087155804038, Q2 : 0.0, Q3 : 0.0, Q4 : 0.996194720268}
2019-09-29 18:28:30.59: SIM {TimeUS : 43228535, Roll : 0.0, Pitch : 0.0, Yaw : 169.99, Alt : 87.0999984741, Lat : 69.7758389, Lng : 19.5489289, Q1 : 0.087155804038, Q2 : 0.0, Q3 : 0.0, Q4 : 0.996194720268}
2019-09-29 18:28:30.69: SIM {TimeUS : 43328495, Roll : 0.0, Pitch : 0.0, Yaw : 169.99, Alt : 87.0999984741, Lat : 69.7758389, Lng : 19.5489289, Q1 : 0.087155804038, Q2 : 0.0, Q3 : 0.0, Q4 : 0.996194720268}
2019-09-29 18:28:30.79: SIM {TimeUS : 43428455, Roll : 0.0, Pitch : 0.0, Yaw : 169.99, Alt : 87.0999984741, Lat : 69.7758389, Lng : 19.5489289, Q1 : 0.087155804038, Q2 : 0.0, Q3 : 0.0, Q4 : 0.996194720268}
2019-09-29 18:28:30.89: SIM {TimeUS : 43528415, Roll : 0.0, Pitch : 0.0, Yaw : 169.99, Alt : 87.1100006104, Lat : 69.7758389, Lng : 19.5489289, Q1 : 0.087155804038, Q2 : 0.0, Q3 : 0.0, Q4 : 0.996194720268}
2019-09-29 18:28:30.99: SIM {TimeUS : 43628375, Roll : 0.0, Pitch : 0.0, Yaw : 169.99, Alt : 87.1500015259, Lat : 69.7758389, Lng : 19.5489289, Q1 : 0.087155804038, Q2 : 0.0, Q3 : 0.0, Q4 : 0.996194720268}
2019-09-29 18:28:31.09: SIM {TimeUS : 43728335, Roll : 0.0, Pitch : 0.0, Yaw : 169.99, Alt : 87.1999969482, Lat : 69.7758389, Lng : 19.5489289, Q1 : 0.087155804038, Q2 : 0.0, Q3 : 0.0, Q4 : 0.996194720268}
2019-09-29 18:28:31.19: SIM {TimeUS : 43828295, Roll : -0.09, Pitch : -0.09, Yaw : 170.0, Alt : 87.2600021362, Lat : 69.7758389, Lng : 19.5489289, Q1 : 0.0871454030275, Q2 : 0.000782539020292, Q3 : -0.000891552655958, Q4 : 0.996194899082}
2019-09-29 18:28:31.29: SIM {TimeUS : 43928255, Roll : -0.32, Pitch : -0.33, Yaw : 170.0, Alt : 87.3799972534, Lat : 69.7758389, Lng : 19.5489289, Q1 : 0.0871064886451, Q2 : 0.00268031726591, Q3 : -0.00310294004157, Q4 : 0.996190607548}
2019-09-29 18:28:31.39: SIM {TimeUS : 44028215, Roll : -0.54, Pitch : -0.55, Yaw : 170.01, Alt : 87.5400009155, Lat : 69.7758389, Lng : 19.5489289, Q1 : 0.0870462432504, Q2 : 0.00439133495092, Q3 : -0.0051558855921, Q4 : 0.996181249619}
2019-09-29 18:28:31.49: SIM {TimeUS : 44128175, Roll : -0.65, Pitch : -0.63, Yaw : 170.02, Alt : 87.7300033569, Lat : 69.7758389, Lng : 19.5489291, Q1 : 0.0869688689709, Q2 : 0.00500856759027, Q3 : -0.00615245616063, Q4 : 0.996179461479}
2019-09-29 18:28:31.60: SIM {TimeUS : 44228968, Roll : -0.62, Pitch : -0.58, Yaw : 170.03, Alt : 87.9100036621, Lat : 69.7758389, Lng : 19.5489291, Q1 : 0.0868835225701, Q2 : 0.00457866350189, Q3 : -0.00591739732772, Q4 : 0.996190369129}
2019-09-29 18:28:31.70: SIM {TimeUS : 44328928, Roll : -0.49, Pitch : -0.43, Yaw : 170.04, Alt : 88.0999984741, Lat : 69.7758389, Lng : 19.5489292, Q1 : 0.0867981091142, Q2 : 0.00337247527204, Q3 : -0.00462380843237, Q4 : 0.996209442616}
2019-09-29 18:28:31.80: SIM {TimeUS : 44428888, Roll : -0.3, Pitch : -0.25, Yaw : 170.05, Alt : 88.2799987793, Lat : 69.7758389, Lng : 19.5489294, Q1 : 0.0867159739137, Q2 : 0.00198476179503, Q3 : -0.00284721679054, Q4 : 0.996227025986}
2019-09-29 18:28:31.90: SIM {TimeUS : 44528848, Roll : -0.12, Pitch : -0.09, Yaw : 170.05, Alt : 88.4700012207, Lat : 69.7758389, Lng : 19.5489295, Q1 : 0.0866409242153, Q2 : 0.000747214537114, Q3 : -0.00117011088878, Q4 : 0.996238648891}
2019-09-29 18:28:32.00: SIM {TimeUS : 44628808, Roll : 0.0, Pitch : 0.01, Yaw : 170.06, Alt : 88.6600036621, Lat : 69.7758389, Lng : 19.5489297, Q1 : 0.0865819230676, Q2 : -0.000165219811606, Q3 : -6.89144653734e-05, Q4 : 0.996244728565}
2019-09-29 18:28:32.10: SIM {TimeUS : 44728768, Roll : 0.02, Pitch : 0.06, Yaw : 170.07, Alt : 88.8600006104, Lat : 69.7758389, Lng : 19.5489298, Q1 : 0.0865422487259, Q2 : -0.000580148305744, Q3 : 0.00031215918716, Q4 : 0.996247947216}
2019-09-29 18:28:32.20: SIM {TimeUS : 44828728, Roll : 0.01, Pitch : 0.05, Yaw : 170.07, Alt : 89.0599975586, Lat : 69.7758388, Lng : 19.5489298, Q1 : 0.0865233018994, Q2 : -0.000455377652543, Q3 : 0.000134821049869, Q4 : 0.996249735355}
2019-09-29 18:28:32.30: SIM {TimeUS : 44928688, Roll : -0.01, Pitch : 0.0, Yaw : 170.07, Alt : 89.2600021362, Lat : 69.7758388, Lng : 19.54893, Q1 : 0.0865187346935, Q2 : -0.000100618075521, Q3 : -0.000157697009854, Q4 : 0.996250271797}
2019-09-29 18:28:32.39: SIM {TimeUS : 45028648, Roll : -0.03, Pitch : -0.02, Yaw : 170.07, Alt : 89.4599990845, Lat : 69.7758388, Lng : 19.5489301, Q1 : 0.0865206792951, Q2 : 0.000204842290259, Q3 : -0.000297072896501, Q4 : 0.996250033379}
2019-09-29 18:28:32.49: SIM {TimeUS : 45128608, Roll : 0.0, Pitch : -0.04, Yaw : 170.07, Alt : 89.6699981689, Lat : 69.7758388, Lng : 19.5489301, Q1 : 0.0865390449762, Q2 : 0.000395708048018, Q3 : -3.2560161344e-05, Q4 : 0.996248364449}
2019-09-29 18:28:32.59: SIM {TimeUS : 45228568, Roll : 0.04, Pitch : -0.05, Yaw : 170.06, Alt : 89.8799972534, Lat : 69.7758387, Lng : 19.5489303, Q1 : 0.0865676254034, Q2 : 0.000496905646287, Q3 : 0.000379686272936, Q4 : 0.996245801449}
2019-09-29 18:28:32.69: SIM {TimeUS : 45328528, Roll : 0.12, Pitch : 0.0, Yaw : 170.06, Alt : 90.0800018311, Lat : 69.7758387, Lng : 19.5489304, Q1 : 0.0866036489606, Q2 : 0.000174393455382, Q3 : 0.00107552623376, Q4 : 0.996242284775}
2019-09-29 18:28:32.79: SIM {TimeUS : 45428488, Roll : 0.2, Pitch : 0.08, Yaw : 170.05, Alt : 90.2900009155, Lat : 69.7758387, Lng : 19.5489305, Q1 : 0.0866598784924, Q2 : -0.000553157005925, Q3 : 0.00186125352047, Q4 : 0.996236085892}
2019-09-29 18:28:32.89: SIM {TimeUS : 45528448, Roll : 0.25, Pitch : 0.16, Yaw : 170.05, Alt : 90.5, Lat : 69.7758387, Lng : 19.5489305, Q1 : 0.086707919836, Q2 : -0.00126137619372, Q3 : 0.00235886801966, Q4 : 0.996230185032}
2019-09-29 18:28:32.99: SIM {TimeUS : 45628408, Roll : 0.25, Pitch : 0.21, Yaw : 170.04, Alt : 90.7200012207, Lat : 69.7758387, Lng : 19.5489305, Q1 : 0.0867426916957, Q2 : -0.00170813989826, Q3 : 0.00235913670622, Q4 : 0.996226489544}
2019-09-29 18:28:33.09: SIM {TimeUS : 45728368, Roll : 0.21, Pitch : 0.21, Yaw : 170.04, Alt : 90.9300003052, Lat : 69.7758386, Lng : 19.5489305, Q1 : 0.0867780745029, Q2 : -0.00174532772508, Q3 : 0.00200035702437, Q4 : 0.996224105358}
2019-09-29 18:28:33.19: SIM {TimeUS : 45828328, Roll : 0.15, Pitch : 0.17, Yaw : 170.04, Alt : 91.1399993896, Lat : 69.7758386, Lng : 19.5489305, Q1 : 0.0867990329862, Q2 : -0.0014203164028, Q3 : 0.00144114845898, Q4 : 0.996223807335}
2019-09-29 18:28:33.29: SIM {TimeUS : 45928288, Roll : 0.1, Pitch : 0.1, Yaw : 170.04, Alt : 91.3600006104, Lat : 69.7758386, Lng : 19.5489305, Q1 : 0.0868073180318, Q2 : -0.000843097281177, Q3 : 0.000999683747068, Q4 : 0.996224284172}
2019-09-29 18:28:33.39: SIM {TimeUS : 46028248, Roll : 0.07, Pitch : 0.02, Yaw : 170.04, Alt : 91.5800018311, Lat : 69.7758386, Lng : 19.5489305, Q1 : 0.0868001356721, Q2 : -0.000153855478857, Q3 : 0.000640916870907, Q4 : 0.99622553587}
2019-09-29 18:28:33.49: SIM {TimeUS : 46128208, Roll : 0.06, Pitch : -0.02, Yaw : 170.04, Alt : 91.7900009155, Lat : 69.7758386, Lng : 19.5489305, Q1 : 0.0867826789618, Q2 : 0.000291284552077, Q3 : 0.000508022960275, Q4 : 0.99622708559}
2019-09-29 18:28:33.59: SIM {TimeUS : 46228168, Roll : 0.07, Pitch : -0.03, Yaw : 170.04, Alt : 92.0100021362, Lat : 69.7758386, Lng : 19.5489305, Q1 : 0.0867474153638, Q2 : 0.000331796851242, Q3 : 0.000644285755698, Q4 : 0.996230125427}
2019-09-29 18:28:33.70: SIM {TimeUS : 46328961, Roll : 0.08, Pitch : -0.02, Yaw : 170.05, Alt : 92.2300033569, Lat : 69.7758386, Lng : 19.5489305, Q1 : 0.0867000818253, Q2 : 0.000262730900431, Q3 : 0.000731876119971, Q4 : 0.996234178543}
2019-09-29 18:28:33.80: SIM {TimeUS : 46428921, Roll : 0.06, Pitch : -0.02, Yaw : 170.05, Alt : 92.4499969482, Lat : 69.7758386, Lng : 19.5489305, Q1 : 0.0866474509239, Q2 : 0.000236586056417, Q3 : 0.000558873056434, Q4 : 0.99623888731}
2019-09-29 18:28:33.90: SIM {TimeUS : 46528881, Roll : 0.03, Pitch : -0.03, Yaw : 170.06, Alt : 92.6699981689, Lat : 69.7758386, Lng : 19.5489305, Q1 : 0.0866026878357, Q2 : 0.00030517578125, Q3 : 0.00027144694468, Q4 : 0.996242880821}
2019-09-29 18:28:34.00: SIM {TimeUS : 46628841, Roll : 0.02, Pitch : -0.04, Yaw : 170.06, Alt : 92.8899993896, Lat : 69.7758386, Lng : 19.5489305, Q1 : 0.0865749046206, Q2 : 0.000446127320174, Q3 : 0.000200437440071, Q4 : 0.996245265007}
2019-09-29 18:28:34.10: SIM {TimeUS : 46728801, Roll : 0.03, Pitch : -0.06, Yaw : 170.06, Alt : 93.1100006104, Lat : 69.7758386, Lng : 19.5489305, Q1 : 0.0865579172969, Q2 : 0.000623962143436, Q3 : 0.000282392080408, Q4 : 0.996246576309}
2019-09-29 18:28:34.20: SIM {TimeUS : 46828761, Roll : 0.02, Pitch : -0.08, Yaw : 170.07, Alt : 93.3399963379, Lat : 69.7758386, Lng : 19.5489305, Q1 : 0.0865334048867, Q2 : 0.000757816829719, Q3 : 0.000191318351426, Q4 : 0.996248662472}
2019-09-29 18:28:34.30: SIM {TimeUS : 46928721, Roll : 0.0, Pitch : -0.09, Yaw : 170.07, Alt : 93.5599975586, Lat : 69.7758386, Lng : 19.5489305, Q1 : 0.0865093767643, Q2 : 0.000869999930728, Q3 : 1.00808620118e-05, Q4 : 0.99625068903}
2019-09-29 18:28:34.40: SIM {TimeUS : 47028681, Roll : 0.0, Pitch : -0.08, Yaw : 170.07, Alt : 93.7900009155, Lat : 69.7758386, Lng : 19.5489305, Q1 : 0.0865098834038, Q2 : 0.000695683294907, Q3 : -0.000131626176881, Q4 : 0.996250748634}
2019-09-29 18:28:34.49: SIM {TimeUS : 47128641, Roll : -0.02, Pitch : -0.04, Yaw : 170.07, Alt : 94.0100021362, Lat : 69.7758386, Lng : 19.5489305, Q1 : 0.0865390598774, Q2 : 0.000413300615037, Q3 : -0.000221348003834, Q4 : 0.996248364449}
2019-09-29 18:28:34.59: SIM {TimeUS : 47228601, Roll : -0.03, Pitch : -0.03, Yaw : 170.06, Alt : 94.2399978638, Lat : 69.7758386, Lng : 19.5489305, Q1 : 0.0865807980299, Q2 : 0.000240640671109, Q3 : -0.000299214298138, Q4 : 0.99624478817}
2019-09-29 18:28:34.69: SIM {TimeUS : 47328561, Roll : -0.03, Pitch : 0.0, Yaw : 170.06, Alt : 94.4599990845, Lat : 69.7758386, Lng : 19.5489305, Q1 : 0.0866256505251, Q2 : 4.22947887273e-05, Q3 : -0.000282721099211, Q4 : 0.996240913868}
2019-09-29 18:28:34.79: SIM {TimeUS : 47428521, Roll : -0.01, Pitch : 0.0, Yaw : 170.05, Alt : 94.6900024414, Lat : 69.7758386, Lng : 19.5489305, Q1 : 0.0866732001305, Q2 : 1.40613010444e-05, Q3 : -0.000108099404315, Q4 : 0.996236801147}
2019-09-29 18:28:34.89: SIM {TimeUS : 47528481, Roll : 0.03, Pitch : -0.03, Yaw : 170.05, Alt : 94.9199981689, Lat : 69.7758386, Lng : 19.5489305, Q1 : 0.0867191031575, Q2 : 0.000294801371638, Q3 : 0.000304667715682, Q4 : 0.996232688427}
2019-09-29 18:28:34.99: SIM {TimeUS : 47628441, Roll : 0.06, Pitch : -0.05, Yaw : 170.04, Alt : 95.1500015259, Lat : 69.7758386, Lng : 19.5489305, Q1 : 0.0867606848478, Q2 : 0.0005690191756, Q3 : 0.000553425343242, Q4 : 0.99622887373}
2019-09-29 18:28:35.09: SIM {TimeUS : 47728401, Roll : 0.06, Pitch : -0.07, Yaw : 170.04, Alt : 95.3700027466, Lat : 69.7758386, Lng : 19.5489305, Q1 : 0.0867948532104, Q2 : 0.000686982704792, Q3 : 0.000546012015548, Q4 : 0.996225833893}
2019-09-29 18:28:35.19: SIM {TimeUS : 47828361, Roll : 0.03, Pitch : -0.06, Yaw : 170.03, Alt : 95.5999984741, Lat : 69.7758386, Lng : 19.5489305, Q1 : 0.0868177935481, Q2 : 0.000565591617487, Q3 : 0.000252214202192, Q4 : 0.996224045753}
2019-09-29 18:28:35.29: SIM {TimeUS : 47928321, Roll : 0.0, Pitch : -0.05, Yaw : 170.03, Alt : 95.8300018311, Lat : 69.7758386, Lng : 19.5489305, Q1 : 0.0868339240551, Q2 : 0.000467524136184, Q3 : 3.91596622649e-05, Q4 : 0.996222674847}
2019-09-29 18:28:35.39: SIM {TimeUS : 48028281, Roll : 0.0, Pitch : -0.06, Yaw : 170.03, Alt : 96.0599975586, Lat : 69.7758386, Lng : 19.5489305, Q1 : 0.0868402719498, Q2 : 0.000570107367821, Q3 : 2.79117939499e-05, Q4 : 0.9962220788}
2019-09-29 18:28:35.49: SIM {TimeUS : 48128241, Roll : 0.0, Pitch : -0.07, Yaw : 170.03, Alt : 96.2900009155, Lat : 69.7758386, Lng : 19.5489305, Q1 : 0.0868316292763, Q2 : 0.000617991143372, Q3 : 1.99245532713e-05, Q4 : 0.996222794056}
2019-09-29 18:28:35.59: SIM {TimeUS : 48228201, Roll : 0.0, Pitch : -0.07, Yaw : 170.03, Alt : 96.5199966431, Lat : 69.7758386, Lng : 19.5489305, Q1 : 0.0868173018098, Q2 : 0.000695214665029, Q3 : 2.99975567941e-06, Q4 : 0.996223986149}
2019-09-29 18:28:35.69: SIM {TimeUS : 48328161, Roll : -0.01, Pitch : -0.07, Yaw : 170.04, Alt : 96.7600021362, Lat : 69.7758386, Lng : 19.5489305, Q1 : 0.0867963209748, Q2 : 0.000676980766002, Q3 : -0.000156187074026, Q4 : 0.996225893497}
2019-09-29 18:28:35.80: SIM {TimeUS : 48428954, Roll : -0.03, Pitch : -0.07, Yaw : 170.04, Alt : 96.9899978638, Lat : 69.7758386, Lng : 19.5489305, Q1 : 0.086776830256, Q2 : 0.000592558644712, Q3 : -0.000374611146981, Q4 : 0.996227562428}
2019-09-29 18:28:35.90: SIM {TimeUS : 48528914, Roll : -0.06, Pitch : -0.04, Yaw : 170.04, Alt : 97.2200012207, Lat : 69.7758386, Lng : 19.5489305, Q1 : 0.0867659077048, Q2 : 0.000322678388329, Q3 : -0.000577966857236, Q4 : 0.996228516102}
2019-09-29 18:28:36.00: SIM {TimeUS : 48628874, Roll : -0.08, Pitch : -0.02, Yaw : 170.04, Alt : 97.4499969482, Lat : 69.7758384, Lng : 19.5489305, Q1 : 0.0867586135864, Q2 : 0.000113964168122, Q3 : -0.000716864422429, Q4 : 0.996229112148}
2019-09-29 18:28:36.10: SIM {TimeUS : 48728834, Roll : -0.09, Pitch : 0.0, Yaw : 170.04, Alt : 97.6900024414, Lat : 69.7758384, Lng : 19.5489305, Q1 : 0.0867547094822, Q2 : -1.39790154208e-05, Q3 : -0.000814709288534, Q4 : 0.996229410172}
2019-09-29 18:28:36.20: SIM {TimeUS : 48828794, Roll : -0.09, Pitch : -0.01, Yaw : 170.04, Alt : 97.9199981689, Lat : 69.7758384, Lng : 19.5489305, Q1 : 0.0867601335049, Q2 : 4.12554545619e-05, Q3 : -0.00084639841225, Q4 : 0.99622887373}
2019-09-29 18:28:36.30: SIM {TimeUS : 48928754, Roll : -0.06, Pitch : -0.05, Yaw : 170.04, Alt : 98.1500015259, Lat : 69.7758384, Lng : 19.5489305, Q1 : 0.0867749601603, Q2 : 0.000389627675759, Q3 : -0.000595036952291, Q4 : 0.996227741241}
2019-09-29 18:28:36.40: SIM {TimeUS : 49028714, Roll : -0.01, Pitch : -0.08, Yaw : 170.04, Alt : 98.3899993896, Lat : 69.7758384, Lng : 19.5489305, Q1 : 0.0867988467216, Q2 : 0.000763768795878, Q3 : -0.000173686261405, Q4 : 0.99622553587}
2019-09-29 18:28:36.50: SIM {TimeUS : 49128674, Roll : 0.04, Pitch : -0.1, Yaw : 170.03, Alt : 98.6200027466, Lat : 69.7758384, Lng : 19.5489305, Q1 : 0.0868140086532, Q2 : 0.000981741701253, Q3 : 0.000304744695313, Q4 : 0.996224045753}
2019-09-29 18:28:36.59: SIM {TimeUS : 49228634, Roll : 0.08, Pitch : -0.09, Yaw : 170.03, Alt : 98.8600006104, Lat : 69.7758384, Lng : 19.5489305, Q1 : 0.0868148505688, Q2 : 0.000882326974533, Q3 : 0.000668028777, Q4 : 0.99622386694}
2019-09-29 18:28:36.69: SIM {TimeUS : 49328594, Roll : 0.1, Pitch : -0.06, Yaw : 170.03, Alt : 99.0899963379, Lat : 69.7758384, Lng : 19.5489305, Q1 : 0.0868112370372, Q2 : 0.000627901637927, Q3 : 0.000842739245854, Q4 : 0.996224224567}
2019-09-29 18:28:36.79: SIM {TimeUS : 49428554, Roll : 0.07, Pitch : -0.03, Yaw : 170.03, Alt : 99.3199996948, Lat : 69.7758384, Lng : 19.5489305, Q1 : 0.086824528873, Q2 : 0.000361815938959, Q3 : 0.000662729027681, Q4 : 0.996223330498}
2019-09-29 18:28:36.89: SIM {TimeUS : 49528514, Roll : 0.03, Pitch : -0.02, Yaw : 170.03, Alt : 99.5599975586, Lat : 69.7758384, Lng : 19.5489305, Q1 : 0.0868415683508, Q2 : 0.000219114852371, Q3 : 0.000300887681078, Q4 : 0.9962220788}
2019-09-29 18:28:36.99: SIM {TimeUS : 49628474, Roll : 0.0, Pitch : -0.03, Yaw : 170.03, Alt : 99.7900009155, Lat : 69.7758384, Lng : 19.5489305, Q1 : 0.0868597254157, Q2 : 0.00034160685027, Q3 : -2.18091427087e-05, Q4 : 0.996220529079}
2019-09-29 18:28:37.09: SIM {TimeUS : 49728434, Roll : -0.02, Pitch : -0.05, Yaw : 170.03, Alt : 100.029998779, Lat : 69.7758384, Lng : 19.5489305, Q1 : 0.0868831723928, Q2 : 0.000469265680294, Q3 : -0.000268633797532, Q4 : 0.996218383312}
2019-09-29 18:28:37.19: SIM {TimeUS : 49828394, Roll : -0.05, Pitch : -0.02, Yaw : 170.02, Alt : 100.260002136, Lat : 69.7758384, Lng : 19.5489305, Q1 : 0.0869182869792, Q2 : 0.000176339613972, Q3 : -0.000472233339678, Q4 : 0.996215343475}
2019-09-29 18:28:37.29: SIM {TimeUS : 49928354, Roll : -0.07, Pitch : 0.04, Yaw : 170.02, Alt : 100.5, Lat : 69.7758384, Lng : 19.5489305, Q1 : 0.0869380384684, Q2 : -0.000478592381114, Q3 : -0.000612717529293, Q4 : 0.996213436127}
2019-09-29 18:28:37.39: SIM {TimeUS : 50028314, Roll : -0.06, Pitch : 0.1, Yaw : 170.02, Alt : 100.739997864, Lat : 69.7758384, Lng : 19.5489305, Q1 : 0.0869481638074, Q2 : -0.000986492726952, Q3 : -0.000506514101289, Q4 : 0.996212244034}
2019-09-29 18:28:37.49: SIM {TimeUS : 50128274, Roll : -0.03, Pitch : 0.11, Yaw : 170.02, Alt : 100.970001221, Lat : 69.7758384, Lng : 19.5489305, Q1 : 0.086953997612, Q2 : -0.00106407306157, Q3 : -0.000235192099353, Q4 : 0.996211767197}
2019-09-29 18:28:37.59: SIM {TimeUS : 50228234, Roll : -0.01, Pitch : 0.09, Yaw : 170.02, Alt : 101.209999084, Lat : 69.7758384, Lng : 19.5489305, Q1 : 0.0869578644633, Q2 : -0.000851200544275, Q3 : -5.73295437789e-05, Q4 : 0.996211647987}
2019-09-29 18:28:37.69: SIM {TimeUS : 50328194, Roll : 0.0, Pitch : 0.05, Yaw : 170.02, Alt : 101.440002441, Lat : 69.7758384, Lng : 19.5489305, Q1 : 0.0869648456573, Q2 : -0.000463910517283, Q3 : 3.64163206541e-05, Q4 : 0.996211290359}
2019-09-29 18:28:37.79: SIM {TimeUS : 50428154, Roll : 0.0, Pitch : -0.01, Yaw : 170.02, Alt : 101.680000305, Lat : 69.7758384, Lng : 19.5489305, Q1 : 0.0869649723172, Q2 : 0.000159321411047, Q3 : -1.44563182403e-05, Q4 : 0.996211409569}
2019-09-29 18:28:37.90: SIM {TimeUS : 50528947, Roll : 0.0, Pitch : -0.08, Yaw : 170.02, Alt : 101.919998169, Lat : 69.7758384, Lng : 19.5489305, Q1 : 0.0869686305523, Q2 : 0.000720826734323, Q3 : -3.95578317693e-05, Q4 : 0.996210813522}
2019-09-29 18:28:38.00: SIM {TimeUS : 50628907, Roll : 0.0, Pitch : -0.11, Yaw : 170.02, Alt : 102.160003662, Lat : 69.7758384, Lng : 19.5489305, Q1 : 0.0869727805257, Q2 : 0.000968053122051, Q3 : -0.000160991665325, Q4 : 0.996210217476}
2019-09-29 18:28:38.10: SIM {TimeUS : 50728867, Roll : -0.01, Pitch : -0.09, Yaw : 170.01, Alt : 102.38999939, Lat : 69.7758384, Lng : 19.5489305, Q1 : 0.0869821384549, Q2 : 0.000788613338955, Q3 : -0.00019197135407, Q4 : 0.99620950222}
2019-09-29 18:28:38.20: SIM {TimeUS : 50828827, Roll : -0.01, Pitch : -0.02, Yaw : 170.01, Alt : 102.629997253, Lat : 69.7758384, Lng : 19.5489305, Q1 : 0.0870054066181, Q2 : 0.000187479483429, Q3 : -0.000189381578821, Q4 : 0.996207773685}
2019-09-29 18:28:38.30: SIM {TimeUS : 50928787, Roll : 0.0, Pitch : 0.06, Yaw : 170.01, Alt : 102.870002747, Lat : 69.7758384, Lng : 19.5489305, Q1 : 0.0870183706284, Q2 : -0.000581055996008, Q3 : 0.00010191025649, Q4 : 0.996206521988}
2019-09-29 18:28:38.40: SIM {TimeUS : 51028747, Roll : 0.04, Pitch : 0.11, Yaw : 170.01, Alt : 103.099998474, Lat : 69.7758384, Lng : 19.5489305, Q1 : 0.0870242342353, Q2 : -0.000984918209724, Q3 : 0.000445901765488, Q4 : 0.996205627918}
2019-09-29 18:28:38.50: SIM {TimeUS : 51128707, Roll : 0.06, Pitch : 0.1, Yaw : 170.01, Alt : 103.339996338, Lat : 69.7758384, Lng : 19.5489305, Q1 : 0.0870229899883, Q2 : -0.000877130310982, Q3 : 0.000663759012241, Q4 : 0.996205687523}
2019-09-29 18:28:38.60: SIM {TimeUS : 51228667, Roll : 0.08, Pitch : 0.05, Yaw : 170.01, Alt : 103.580001831, Lat : 69.7758384, Lng : 19.5489305, Q1 : 0.0870266780257, Q2 : -0.000406293285778, Q3 : 0.000813982915133, Q4 : 0.996205568314}
2019-09-29 18:28:38.69: SIM {TimeUS : 51328627, Roll : 0.11, Pitch : 0.0, Yaw : 170.01, Alt : 103.809997559, Lat : 69.7758384, Lng : 19.5489305, Q1 : 0.0870321318507, Q2 : 3.4363452869e-05, Q3 : 0.0010418840684, Q4 : 0.996204972267}
2019-09-29 18:28:38.79: SIM {TimeUS : 51428587, Roll : 0.13, Pitch : -0.01, Yaw : 170.01, Alt : 104.040000916, Lat : 69.7758384, Lng : 19.5489305, Q1 : 0.0870411843061, Q2 : 0.000247223739279, Q3 : 0.0011226516217, Q4 : 0.996204078197}
2019-09-29 18:28:38.89: SIM {TimeUS : 51528547, Roll : 0.1, Pitch : 0.0, Yaw : 170.01, Alt : 104.269996643, Lat : 69.7758384, Lng : 19.5489305, Q1 : 0.0870532393456, Q2 : 7.35224748496e-05, Q3 : 0.000906627567019, Q4 : 0.996203243732}
2019-09-29 18:28:38.99: SIM {TimeUS : 51628507, Roll : 0.05, Pitch : 0.02, Yaw : 170.01, Alt : 104.489997864, Lat : 69.7758384, Lng : 19.5489305, Q1 : 0.087064370513, Q2 : -0.000199855145183, Q3 : 0.000504461757373, Q4 : 0.996202528477}
2019-09-29 18:28:39.09: SIM {TimeUS : 51728467, Roll : 0.0, Pitch : 0.04, Yaw : 170.0, Alt : 104.709999084, Lat : 69.7758384, Lng : 19.5489305, Q1 : 0.0870737507939, Q2 : -0.000357183162123, Q3 : 6.46758417133e-05, Q4 : 0.996201813221}
2019-09-29 18:28:39.19: SIM {TimeUS : 51828427, Roll : -0.03, Pitch : 0.03, Yaw : 170.0, Alt : 104.930000305, Lat : 69.7758384, Lng : 19.5489305, Q1 : 0.0870844274759, Q2 : -0.000370016205125, Q3 : -0.000290210242383, Q4 : 0.996200799942}
2019-09-29 18:28:39.29: SIM {TimeUS : 51928387, Roll : -0.05, Pitch : 0.03, Yaw : 170.0, Alt : 105.129997253, Lat : 69.7758384, Lng : 19.5489305, Q1 : 0.0870975926518, Q2 : -0.000379670760594, Q3 : -0.000474084430607, Q4 : 0.996199607849}
2019-09-29 18:28:39.39: SIM {TimeUS : 52028347, Roll : -0.06, Pitch : 0.04, Yaw : 170.0, Alt : 105.330001831, Lat : 69.7758384, Lng : 19.5489305, Q1 : 0.0871114954352, Q2 : -0.000442131771706, Q3 : -0.000523000140674, Q4 : 0.996198356152}
2019-09-29 18:28:39.49: SIM {TimeUS : 52128307, Roll : -0.06, Pitch : 0.04, Yaw : 170.0, Alt : 105.519996643, Lat : 69.7758384, Lng : 19.5489305, Q1 : 0.0871253088117, Q2 : -0.000449864601251, Q3 : -0.00050312600797, Q4 : 0.996197164059}
2019-09-29 18:28:39.59: SIM {TimeUS : 52228267, Roll : -0.07, Pitch : 0.03, Yaw : 170.0, Alt : 105.699996948, Lat : 69.7758384, Lng : 19.5489304, Q1 : 0.0871388018131, Q2 : -0.000394182337914, Q3 : -0.000617422047071, Q4 : 0.996195971966}
2019-09-29 18:28:39.69: SIM {TimeUS : 52328227, Roll : -0.08, Pitch : 0.04, Yaw : 170.0, Alt : 105.870002747, Lat : 69.7758384, Lng : 19.5489304, Q1 : 0.0871511027217, Q2 : -0.000414832378738, Q3 : -0.000707944855094, Q4 : 0.996194779873}
2019-09-29 18:28:39.79: SIM {TimeUS : 52428187, Roll : -0.08, Pitch : 0.04, Yaw : 169.99, Alt : 106.029998779, Lat : 69.7758384, Lng : 19.5489304, Q1 : 0.0871597826481, Q2 : -0.0004244010197, Q3 : -0.000675922783557, Q4 : 0.996194005013}
2019-09-29 18:28:39.90: SIM {TimeUS : 52528980, Roll : -0.06, Pitch : 0.02, Yaw : 169.99, Alt : 106.169998169, Lat : 69.7758384, Lng : 19.5489304, Q1 : 0.0871648564935, Q2 : -0.000302437052596, Q3 : -0.000544300011825, Q4 : 0.996193706989}
2019-09-29 18:28:40.00: SIM {TimeUS : 52628940, Roll : -0.05, Pitch : 0.0, Yaw : 169.99, Alt : 106.309997559, Lat : 69.7758384, Lng : 19.5489304, Q1 : 0.0871685370803, Q2 : -5.55379592697e-05, Q3 : -0.000452262058388, Q4 : 0.996193468571}
2019-09-29 18:28:40.10: SIM {TimeUS : 52728900, Roll : -0.05, Pitch : -0.01, Yaw : 169.99, Alt : 106.430000305, Lat : 69.7758386, Lng : 19.5489304, Q1 : 0.08717058599, Q2 : 9.65823201113e-05, Q3 : -0.000468172831461, Q4 : 0.996193289757}
2019-09-29 18:28:40.20: SIM {TimeUS : 52828860, Roll : -0.04, Pitch : -0.01, Yaw : 169.99, Alt : 106.540000916, Lat : 69.7758386, Lng : 19.5489304, Q1 : 0.0871704518795, Q2 : 0.000136539587402, Q3 : -0.000392193440348, Q4 : 0.996193289757}
2019-09-29 18:28:40.30: SIM {TimeUS : 52928820, Roll : -0.03, Pitch : 0.0, Yaw : 169.99, Alt : 106.629997253, Lat : 69.7758386, Lng : 19.5489304, Q1 : 0.0871716365218, Q2 : -9.23632032936e-05, Q3 : -0.000264947564574, Q4 : 0.996193230152}
2019-09-29 18:28:40.40: SIM {TimeUS : 53028780, Roll : -0.03, Pitch : 0.04, Yaw : 169.99, Alt : 106.720001221, Lat : 69.7758386, Lng : 19.5489304, Q1 : 0.0871732532978, Q2 : -0.000419519725256, Q3 : -0.000236983643845, Q4 : 0.996193051338}
2019-09-29 18:28:40.50: SIM {TimeUS : 53128740, Roll : -0.03, Pitch : 0.06, Yaw : 169.99, Alt : 106.790000916, Lat : 69.7758386, Lng : 19.5489304, Q1 : 0.0871625468135, Q2 : -0.000600773026235, Q3 : -0.000255987717537, Q4 : 0.996193885803}
2019-09-29 18:28:40.60: SIM {TimeUS : 53228700, Roll : -0.04, Pitch : 0.05, Yaw : 170.0, Alt : 106.86000061, Lat : 69.7758386, Lng : 19.5489304, Q1 : 0.0871426612139, Q2 : -0.00053306913469, Q3 : -0.000316902791383, Q4 : 0.996195673943}
2019-09-29 18:28:40.69: SIM {TimeUS : 53328660, Roll : -0.04, Pitch : 0.02, Yaw : 170.0, Alt : 106.910003662, Lat : 69.7758386, Lng : 19.5489304, Q1 : 0.0871297046542, Q2 : -0.000269983429462, Q3 : -0.000397375406465, Q4 : 0.996196866035}
2019-09-29 18:28:40.79: SIM {TimeUS : 53428620, Roll : -0.04, Pitch : -0.01, Yaw : 170.0, Alt : 106.959999084, Lat : 69.7758386, Lng : 19.5489305, Q1 : 0.0871322825551, Q2 : 0.000109863409307, Q3 : -0.000414710637415, Q4 : 0.996196687222}
