2019-09-29 17:20:29.80: SIM {TimeUS : 40828662, Roll : 0.0, Pitch : 0.0, Yaw : 169.99, Alt : 87.0999984741, Lat : 69.7758389, Lng : 19.5489289, Q1 : 0.087155804038, Q2 : 0.0, Q3 : 0.0, Q4 : 0.996194720268}
2019-09-29 17:20:29.89: SIM {TimeUS : 40928622, Roll : 0.0, Pitch : 0.0, Yaw : 169.99, Alt : 87.0999984741, Lat : 69.7758389, Lng : 19.5489289, Q1 : 0.087155804038, Q2 : 0.0, Q3 : 0.0, Q4 : 0.996194720268}
2019-09-29 17:20:29.99: SIM {TimeUS : 41028582, Roll : 0.0, Pitch : 0.0, Yaw : 169.99, Alt : 87.0999984741, Lat : 69.7758389, Lng : 19.5489289, Q1 : 0.087155804038, Q2 : 0.0, Q3 : 0.0, Q4 : 0.996194720268}
2019-09-29 17:20:30.09: SIM {TimeUS : 41128542, Roll : 0.0, Pitch : 0.0, Yaw : 169.99, Alt : 87.0999984741, Lat : 69.7758389, Lng : 19.5489289, Q1 : 0.087155804038, Q2 : 0.0, Q3 : 0.0, Q4 : 0.996194720268}
2019-09-29 17:20:30.19: SIM {TimeUS : 41228502, Roll : 0.0, Pitch : 0.0, Yaw : 169.99, Alt : 87.0999984741, Lat : 69.7758389, Lng : 19.5489289, Q1 : 0.087155804038, Q2 : 0.0, Q3 : 0.0, Q4 : 0.996194720268}
2019-09-29 17:20:30.29: SIM {TimeUS : 41328462, Roll : 0.0, Pitch : 0.0, Yaw : 169.99, Alt : 87.0999984741, Lat : 69.7758389, Lng : 19.5489289, Q1 : 0.087155804038, Q2 : 0.0, Q3 : 0.0, Q4 : 0.996194720268}
2019-09-29 17:20:30.39: SIM {TimeUS : 41428422, Roll : 0.0, Pitch : 0.0, Yaw : 169.99, Alt : 87.0999984741, Lat : 69.7758389, Lng : 19.5489289, Q1 : 0.087155804038, Q2 : 0.0, Q3 : 0.0, Q4 : 0.996194720268}
2019-09-29 17:20:30.49: SIM {TimeUS : 41528382, Roll : 0.0, Pitch : 0.0, Yaw : 169.99, Alt : 87.0999984741, Lat : 69.7758389, Lng : 19.5489289, Q1 : 0.087155804038, Q2 : 0.0, Q3 : 0.0, Q4 : 0.996194720268}
2019-09-29 17:20:30.59: SIM {TimeUS : 41628342, Roll : 0.0, Pitch : 0.0, Yaw : 169.99, Alt : 87.0999984741, Lat : 69.7758389, Lng : 19.5489289, Q1 : 0.087155804038, Q2 : 0.0, Q3 : 0.0, Q4 : 0.996194720268}
2019-09-29 17:20:30.69: SIM {TimeUS : 41728302, Roll : 0.0, Pitch : 0.0, Yaw : 169.99, Alt : 87.0999984741, Lat : 69.7758389, Lng : 19.5489289, Q1 : 0.087155804038, Q2 : 0.0, Q3 : 0.0, Q4 : 0.996194720268}
2019-09-29 17:20:30.79: SIM {TimeUS : 41828262, Roll : 0.0, Pitch : 0.0, Yaw : 169.99, Alt : 87.0999984741, Lat : 69.7758389, Lng : 19.5489289, Q1 : 0.087155804038, Q2 : 0.0, Q3 : 0.0, Q4 : 0.996194720268}
2019-09-29 17:20:30.89: SIM {TimeUS : 41928222, Roll : 0.0, Pitch : 0.0, Yaw : 169.99, Alt : 87.0999984741, Lat : 69.7758389, Lng : 19.5489289, Q1 : 0.087155804038, Q2 : 0.0, Q3 : 0.0, Q4 : 0.996194720268}
2019-09-29 17:20:30.99: SIM {TimeUS : 42028182, Roll : 0.0, Pitch : 0.0, Yaw : 169.99, Alt : 87.0999984741, Lat : 69.7758389, Lng : 19.5489289, Q1 : 0.087155804038, Q2 : 0.0, Q3 : 0.0, Q4 : 0.996194720268}
2019-09-29 17:20:31.10: SIM {TimeUS : 42128975, Roll : 0.0, Pitch : 0.0, Yaw : 169.99, Alt : 87.0999984741, Lat : 69.7758389, Lng : 19.5489289, Q1 : 0.087155804038, Q2 : 0.0, Q3 : 0.0, Q4 : 0.996194720268}
2019-09-29 17:20:31.20: SIM {TimeUS : 42228935, Roll : 0.0, Pitch : 0.0, Yaw : 169.99, Alt : 87.0999984741, Lat : 69.7758389, Lng : 19.5489289, Q1 : 0.087155804038, Q2 : 0.0, Q3 : 0.0, Q4 : 0.996194720268}
2019-09-29 17:20:31.30: SIM {TimeUS : 42328895, Roll : 0.0, Pitch : 0.0, Yaw : 169.99, Alt : 87.0999984741, Lat : 69.7758389, Lng : 19.5489289, Q1 : 0.087155804038, Q2 : 0.0, Q3 : 0.0, Q4 : 0.996194720268}
2019-09-29 17:20:31.40: SIM {TimeUS : 42428855, Roll : 0.0, Pitch : 0.0, Yaw : 169.99, Alt : 87.0999984741, Lat : 69.7758389, Lng : 19.5489289, Q1 : 0.087155804038, Q2 : 0.0, Q3 : 0.0, Q4 : 0.996194720268}
2019-09-29 17:20:31.50: SIM {TimeUS : 42528815, Roll : 0.0, Pitch : 0.0, Yaw : 169.99, Alt : 87.0999984741, Lat : 69.7758389, Lng : 19.5489289, Q1 : 0.087155804038, Q2 : 0.0, Q3 : 0.0, Q4 : 0.996194720268}
2019-09-29 17:20:31.60: SIM {TimeUS : 42628775, Roll : 0.0, Pitch : 0.0, Yaw : 169.99, Alt : 87.0999984741, Lat : 69.7758389, Lng : 19.5489289, Q1 : 0.087155804038, Q2 : 0.0, Q3 : 0.0, Q4 : 0.996194720268}
2019-09-29 17:20:31.70: SIM {TimeUS : 42728735, Roll : 0.0, Pitch : 0.0, Yaw : 169.99, Alt : 87.0999984741, Lat : 69.7758389, Lng : 19.5489289, Q1 : 0.087155804038, Q2 : 0.0, Q3 : 0.0, Q4 : 0.996194720268}
2019-09-29 17:20:31.80: SIM {TimeUS : 42828695, Roll : 0.0, Pitch : 0.0, Yaw : 169.99, Alt : 87.0999984741, Lat : 69.7758389, Lng : 19.5489289, Q1 : 0.087155804038, Q2 : 0.0, Q3 : 0.0, Q4 : 0.996194720268}
2019-09-29 17:20:31.89: SIM {TimeUS : 42928655, Roll : 0.0, Pitch : 0.0, Yaw : 169.99, Alt : 87.0999984741, Lat : 69.7758389, Lng : 19.5489289, Q1 : 0.087155804038, Q2 : 0.0, Q3 : 0.0, Q4 : 0.996194720268}
2019-09-29 17:20:31.99: SIM {TimeUS : 43028615, Roll : 0.0, Pitch : 0.0, Yaw : 169.99, Alt : 87.0999984741, Lat : 69.7758389, Lng : 19.5489289, Q1 : 0.087155804038, Q2 : 0.0, Q3 : 0.0, Q4 : 0.996194720268}
2019-09-29 17:20:32.09: SIM {TimeUS : 43128575, Roll : 0.0, Pitch : 0.0, Yaw : 169.99, Alt : 87.0999984741, Lat : 69.7758389, Lng : 19.5489289, Q1 : 0.087155804038, Q2 : 0.0, Q3 : 0.0, Q4 : 0.996194720268}
2019-09-29 17:20:32.19: SIM {TimeUS : 43228535, Roll : 0.0, Pitch : 0.0, Yaw : 169.99, Alt : 87.0999984741, Lat : 69.7758389, Lng : 19.5489289, Q1 : 0.087155804038, Q2 : 0.0, Q3 : 0.0, Q4 : 0.996194720268}
2019-09-29 17:20:32.29: SIM {TimeUS : 43328495, Roll : 0.0, Pitch : 0.0, Yaw : 169.99, Alt : 87.0999984741, Lat : 69.7758389, Lng : 19.5489289, Q1 : 0.087155804038, Q2 : 0.0, Q3 : 0.0, Q4 : 0.996194720268}
2019-09-29 17:20:32.39: SIM {TimeUS : 43428455, Roll : 0.0, Pitch : 0.0, Yaw : 169.99, Alt : 87.0999984741, Lat : 69.7758389, Lng : 19.5489289, Q1 : 0.087155804038, Q2 : 0.0, Q3 : 0.0, Q4 : 0.996194720268}
2019-09-29 17:20:32.49: SIM {TimeUS : 43528415, Roll : 0.0, Pitch : 0.0, Yaw : 169.99, Alt : 87.0999984741, Lat : 69.7758389, Lng : 19.5489289, Q1 : 0.087155804038, Q2 : 0.0, Q3 : 0.0, Q4 : 0.996194720268}
2019-09-29 17:20:32.59: SIM {TimeUS : 43628375, Roll : 0.0, Pitch : 0.0, Yaw : 169.99, Alt : 87.1200027466, Lat : 69.7758389, Lng : 19.5489289, Q1 : 0.087155804038, Q2 : 0.0, Q3 : 0.0, Q4 : 0.996194720268}
2019-09-29 17:20:32.69: SIM {TimeUS : 43728335, Roll : 0.0, Pitch : 0.0, Yaw : 169.99, Alt : 87.1600036621, Lat : 69.7758389, Lng : 19.5489289, Q1 : 0.087155804038, Q2 : 0.0, Q3 : 0.0, Q4 : 0.996194720268}
2019-09-29 17:20:32.79: SIM {TimeUS : 43828295, Roll : 0.0, Pitch : 0.0, Yaw : 170.0, Alt : 87.2099990845, Lat : 69.7758389, Lng : 19.5489289, Q1 : 0.08715557307, Q2 : 1.90840346477e-05, Q3 : -2.48434789683e-05, Q4 : 0.996194779873}
2019-09-29 17:20:32.89: SIM {TimeUS : 43928255, Roll : -0.15, Pitch : -0.15, Yaw : 170.0, Alt : 87.2900009155, Lat : 69.7758389, Lng : 19.5489289, Q1 : 0.0871400907636, Q2 : 0.00119788269512, Q3 : -0.00144007639028, Q4 : 0.99619436264}
2019-09-29 17:20:32.99: SIM {TimeUS : 44028215, Roll : -0.39, Pitch : -0.38, Yaw : 170.0, Alt : 87.4199981689, Lat : 69.7758389, Lng : 19.5489289, Q1 : 0.0870996117592, Q2 : 0.00302110449411, Q3 : -0.00374140474014, Q4 : 0.996187984943}
2019-09-29 17:20:33.09: SIM {TimeUS : 44128175, Roll : -0.6, Pitch : -0.54, Yaw : 170.01, Alt : 87.5899963379, Lat : 69.7758389, Lng : 19.5489289, Q1 : 0.0870362147689, Q2 : 0.00425161421299, Q3 : -0.0056462706998, Q4 : 0.99618011713}
2019-09-29 17:20:33.20: SIM {TimeUS : 44228968, Roll : -0.67, Pitch : -0.58, Yaw : 170.02, Alt : 87.7799987793, Lat : 69.7758389, Lng : 19.5489291, Q1 : 0.0869533717632, Q2 : 0.00457655219361, Q3 : -0.00634725857526, Q4 : 0.996181666851}
2019-09-29 17:20:33.30: SIM {TimeUS : 44328928, Roll : -0.61, Pitch : -0.51, Yaw : 170.03, Alt : 87.9599990845, Lat : 69.7758389, Lng : 19.5489292, Q1 : 0.0868640467525, Q2 : 0.0040098130703, Q3 : -0.00571814086288, Q4 : 0.996195733547}
2019-09-29 17:20:33.40: SIM {TimeUS : 44428888, Roll : -0.45, Pitch : -0.38, Yaw : 170.04, Alt : 88.1399993896, Lat : 69.7758389, Lng : 19.5489292, Q1 : 0.0867774188519, Q2 : 0.00300556910224, Q3 : -0.0042085419409, Q4 : 0.996214330196}
2019-09-29 17:20:33.50: SIM {TimeUS : 44528848, Roll : -0.25, Pitch : -0.22, Yaw : 170.05, Alt : 88.3300018311, Lat : 69.7758389, Lng : 19.5489294, Q1 : 0.0866987630725, Q2 : 0.00179445603862, Q3 : -0.00238522794098, Q4 : 0.996230125427}
2019-09-29 17:20:33.60: SIM {TimeUS : 44628808, Roll : -0.09, Pitch : -0.07, Yaw : 170.06, Alt : 88.5100021362, Lat : 69.7758389, Lng : 19.5489295, Q1 : 0.0866340771317, Q2 : 0.000604474858847, Q3 : -0.000860513711814, Q4 : 0.99623966217}
2019-09-29 17:20:33.70: SIM {TimeUS : 44728768, Roll : 0.0, Pitch : 0.02, Yaw : 170.06, Alt : 88.7099990845, Lat : 69.7758389, Lng : 19.5489297, Q1 : 0.0865856483579, Q2 : -0.000199045913178, Q3 : -6.49723233437e-06, Q4 : 0.996244430542}
2019-09-29 17:20:33.80: SIM {TimeUS : 44828728, Roll : 0.01, Pitch : 0.04, Yaw : 170.06, Alt : 88.9000015259, Lat : 69.7758389, Lng : 19.5489298, Q1 : 0.0865582004189, Q2 : -0.000397612544475, Q3 : 0.000187961210031, Q4 : 0.996246695518}
2019-09-29 17:20:33.90: SIM {TimeUS : 44928688, Roll : 0.0, Pitch : 0.02, Yaw : 170.06, Alt : 89.0999984741, Lat : 69.7758388, Lng : 19.5489298, Q1 : 0.0865509435534, Q2 : -0.000236148145632, Q3 : 1.20891545521e-05, Q4 : 0.996247410774}
2019-09-29 17:20:33.99: SIM {TimeUS : 45028648, Roll : -0.02, Pitch : 0.0, Yaw : 170.06, Alt : 89.3000030518, Lat : 69.7758388, Lng : 19.54893, Q1 : 0.0865627750754, Q2 : -2.51095643762e-05, Q3 : -0.000195135027752, Q4 : 0.996246397495}
2019-09-29 17:20:34.09: SIM {TimeUS : 45128608, Roll : -0.01, Pitch : -0.02, Yaw : 170.06, Alt : 89.5100021362, Lat : 69.7758388, Lng : 19.5489301, Q1 : 0.0865840986371, Q2 : 0.000201544331503, Q3 : -0.000118678246508, Q4 : 0.996244549751}
2019-09-29 17:20:34.19: SIM {TimeUS : 45228568, Roll : 0.02, Pitch : -0.03, Yaw : 170.06, Alt : 89.7099990845, Lat : 69.7758388, Lng : 19.5489301, Q1 : 0.086603179574, Q2 : 0.000324126827763, Q3 : 0.00021892163204, Q4 : 0.996242821217}
2019-09-29 17:20:34.29: SIM {TimeUS : 45328528, Roll : 0.09, Pitch : 0.0, Yaw : 170.06, Alt : 89.9199981689, Lat : 69.7758387, Lng : 19.5489303, Q1 : 0.0866182148457, Q2 : 0.000108234991785, Q3 : 0.000820826680865, Q4 : 0.996241211891}
2019-09-29 17:20:34.39: SIM {TimeUS : 45428488, Roll : 0.18, Pitch : 0.06, Yaw : 170.06, Alt : 90.1200027466, Lat : 69.7758387, Lng : 19.5489304, Q1 : 0.086624905467, Q2 : -0.000426133658038, Q3 : 0.00169129658025, Q4 : 0.996239483356}
2019-09-29 17:20:34.49: SIM {TimeUS : 45528448, Roll : 0.25, Pitch : 0.13, Yaw : 170.05, Alt : 90.3300018311, Lat : 69.7758387, Lng : 19.5489304, Q1 : 0.0866398736835, Q2 : -0.000997794209979, Q3 : 0.00227738707326, Q4 : 0.996236622334}
2019-09-29 17:20:34.59: SIM {TimeUS : 45628408, Roll : 0.25, Pitch : 0.18, Yaw : 170.05, Alt : 90.5400009155, Lat : 69.7758387, Lng : 19.5489305, Q1 : 0.086666405201, Q2 : -0.00142271060031, Q3 : 0.00232626311481, Q4 : 0.996233701706}
2019-09-29 17:20:34.69: SIM {TimeUS : 45728368, Roll : 0.2, Pitch : 0.18, Yaw : 170.05, Alt : 90.75, Lat : 69.7758387, Lng : 19.5489305, Q1 : 0.0866971388459, Q2 : -0.00145885185339, Q3 : 0.00194815942086, Q4 : 0.996231734753}
2019-09-29 17:20:34.79: SIM {TimeUS : 45828328, Roll : 0.14, Pitch : 0.15, Yaw : 170.04, Alt : 90.9700012207, Lat : 69.7758387, Lng : 19.5489305, Q1 : 0.0867292284966, Q2 : -0.00120494398288, Q3 : 0.00136377732269, Q4 : 0.996230304241}
2019-09-29 17:20:34.89: SIM {TimeUS : 45928288, Roll : 0.1, Pitch : 0.09, Yaw : 170.04, Alt : 91.1800003052, Lat : 69.7758387, Lng : 19.5489305, Q1 : 0.0867557227612, Q2 : -0.000726814556401, Q3 : 0.000947625958361, Q4 : 0.99622887373}
2019-09-29 17:20:34.99: SIM {TimeUS : 46028248, Roll : 0.06, Pitch : 0.02, Yaw : 170.04, Alt : 91.3899993896, Lat : 69.7758386, Lng : 19.5489305, Q1 : 0.0867633521557, Q2 : -0.000131485139718, Q3 : 0.000603306631092, Q4 : 0.996228814125}
2019-09-29 17:20:35.09: SIM {TimeUS : 46128208, Roll : 0.06, Pitch : -0.02, Yaw : 170.04, Alt : 91.6100006104, Lat : 69.7758386, Lng : 19.5489305, Q1 : 0.0867574214935, Q2 : 0.000270571239525, Q3 : 0.000538869178854, Q4 : 0.996229290962}
2019-09-29 17:20:35.19: SIM {TimeUS : 46228168, Roll : 0.08, Pitch : -0.02, Yaw : 170.04, Alt : 91.8300018311, Lat : 69.7758386, Lng : 19.5489305, Q1 : 0.0867334827781, Q2 : 0.000257189793047, Q3 : 0.000709624728188, Q4 : 0.996231257915}
2019-09-29 17:20:35.30: SIM {TimeUS : 46328961, Roll : 0.09, Pitch : -0.01, Yaw : 170.05, Alt : 92.0500030518, Lat : 69.7758386, Lng : 19.5489305, Q1 : 0.0866999775171, Q2 : 0.000167488033185, Q3 : 0.000826493953355, Q4 : 0.996234118938}
2019-09-29 17:20:35.40: SIM {TimeUS : 46428921, Roll : 0.07, Pitch : 0.0, Yaw : 170.05, Alt : 92.2600021362, Lat : 69.7758386, Lng : 19.5489305, Q1 : 0.0866588130593, Q2 : 0.000137793424074, Q3 : 0.000676138792187, Q4 : 0.996237814426}
2019-09-29 17:20:35.50: SIM {TimeUS : 46528881, Roll : 0.04, Pitch : -0.02, Yaw : 170.06, Alt : 92.4800033569, Lat : 69.7758386, Lng : 19.5489305, Q1 : 0.0866267085075, Q2 : 0.000243437971221, Q3 : 0.000406289414968, Q4 : 0.996240735054}
2019-09-29 17:20:35.60: SIM {TimeUS : 46628841, Roll : 0.04, Pitch : -0.04, Yaw : 170.06, Alt : 92.6999969482, Lat : 69.7758386, Lng : 19.5489305, Q1 : 0.0866077914834, Q2 : 0.000459249102278, Q3 : 0.000334748678142, Q4 : 0.996242344379}
2019-09-29 17:20:35.70: SIM {TimeUS : 46728801, Roll : 0.05, Pitch : -0.07, Yaw : 170.06, Alt : 92.9300003052, Lat : 69.7758386, Lng : 19.5489305, Q1 : 0.086596518755, Q2 : 0.000730280880816, Q3 : 0.000399620330427, Q4 : 0.99624311924}
2019-09-29 17:20:35.80: SIM {TimeUS : 46828761, Roll : 0.04, Pitch : -0.09, Yaw : 170.06, Alt : 93.1500015259, Lat : 69.7758386, Lng : 19.5489305, Q1 : 0.0865788310766, Q2 : 0.000886451860424, Q3 : 0.000301508203847, Q4 : 0.996244609356}
2019-09-29 17:20:35.90: SIM {TimeUS : 46928721, Roll : 0.02, Pitch : -0.1, Yaw : 170.06, Alt : 93.3700027466, Lat : 69.7758386, Lng : 19.5489305, Q1 : 0.0865585058928, Q2 : 0.000958515505772, Q3 : 0.000108227708552, Q4 : 0.996246337891}
2019-09-29 17:20:36.00: SIM {TimeUS : 47028681, Roll : 0.0, Pitch : -0.08, Yaw : 170.06, Alt : 93.5899963379, Lat : 69.7758386, Lng : 19.5489305, Q1 : 0.0865596830845, Q2 : 0.000721767777577, Q3 : -7.17667135177e-05, Q4 : 0.996246397495}
2019-09-29 17:20:36.09: SIM {TimeUS : 47128641, Roll : -0.02, Pitch : -0.04, Yaw : 170.06, Alt : 93.8199996948, Lat : 69.7758386, Lng : 19.5489305, Q1 : 0.0865866616368, Q2 : 0.000339079851983, Q3 : -0.00022657471709, Q4 : 0.996244251728}
2019-09-29 17:20:36.19: SIM {TimeUS : 47228601, Roll : -0.03, Pitch : -0.01, Yaw : 170.06, Alt : 94.0400009155, Lat : 69.7758386, Lng : 19.5489305, Q1 : 0.0866264104843, Q2 : 0.000145588579471, Q3 : -0.000320449209539, Q4 : 0.996240794659}
2019-09-29 17:20:36.29: SIM {TimeUS : 47328561, Roll : -0.03, Pitch : 0.0, Yaw : 170.05, Alt : 94.2699966431, Lat : 69.7758386, Lng : 19.5489305, Q1 : 0.0866690129042, Q2 : -6.74559923937e-05, Q3 : -0.000284880166873, Q4 : 0.996237099171}
2019-09-29 17:20:36.39: SIM {TimeUS : 47428521, Roll : -0.01, Pitch : 0.01, Yaw : 170.05, Alt : 94.5, Lat : 69.7758386, Lng : 19.5489305, Q1 : 0.0867136791348, Q2 : -9.85951628536e-05, Q3 : -8.33974190755e-05, Q4 : 0.996233284473}
2019-09-29 17:20:36.49: SIM {TimeUS : 47528481, Roll : 0.04, Pitch : -0.01, Yaw : 170.04, Alt : 94.7200012207, Lat : 69.7758386, Lng : 19.5489305, Q1 : 0.0867540463805, Q2 : 0.000196779830731, Q3 : 0.000337336328812, Q4 : 0.996229708195}
2019-09-29 17:20:36.59: SIM {TimeUS : 47628441, Roll : 0.07, Pitch : -0.05, Yaw : 170.04, Alt : 94.9499969482, Lat : 69.7758386, Lng : 19.5489305, Q1 : 0.086792036891, Q2 : 0.000500606023706, Q3 : 0.000579168030526, Q4 : 0.996226191521}
2019-09-29 17:20:36.69: SIM {TimeUS : 47728401, Roll : 0.07, Pitch : -0.06, Yaw : 170.03, Alt : 95.1800003052, Lat : 69.7758386, Lng : 19.5489305, Q1 : 0.086824670434, Q2 : 0.000657729106024, Q3 : 0.000556004233658, Q4 : 0.996223270893}
2019-09-29 17:20:36.79: SIM {TimeUS : 47828361, Roll : 0.03, Pitch : -0.06, Yaw : 170.03, Alt : 95.4100036621, Lat : 69.7758386, Lng : 19.5489305, Q1 : 0.0868443548679, Q2 : 0.000579036597628, Q3 : 0.000246815558057, Q4 : 0.996221721172}
2019-09-29 17:20:36.89: SIM {TimeUS : 47928321, Roll : 0.0, Pitch : -0.05, Yaw : 170.03, Alt : 95.6399993896, Lat : 69.7758386, Lng : 19.5489305, Q1 : 0.0868544355035, Q2 : 0.000501824193634, Q3 : 3.18499478453e-05, Q4 : 0.996220886707}
2019-09-29 17:20:36.99: SIM {TimeUS : 48028281, Roll : 0.0, Pitch : -0.06, Yaw : 170.03, Alt : 95.8700027466, Lat : 69.7758386, Lng : 19.5489305, Q1 : 0.0868550986052, Q2 : 0.000574212754145, Q3 : 1.39177600431e-05, Q4 : 0.996220767498}
2019-09-29 17:20:37.09: SIM {TimeUS : 48128241, Roll : 0.0, Pitch : -0.06, Yaw : 170.03, Alt : 96.0999984741, Lat : 69.7758386, Lng : 19.5489305, Q1 : 0.0868443399668, Q2 : 0.000610772636719, Q3 : -2.3173615773e-05, Q4 : 0.996221721172}
2019-09-29 17:20:37.19: SIM {TimeUS : 48228201, Roll : 0.0, Pitch : -0.08, Yaw : 170.03, Alt : 96.3300018311, Lat : 69.7758386, Lng : 19.5489305, Q1 : 0.0868341997266, Q2 : 0.000700919190422, Q3 : -7.91392521933e-05, Q4 : 0.996222555637}
2019-09-29 17:20:37.29: SIM {TimeUS : 48328161, Roll : -0.01, Pitch : -0.08, Yaw : 170.03, Alt : 96.5599975586, Lat : 69.7758386, Lng : 19.5489305, Q1 : 0.0868204757571, Q2 : 0.000697656418197, Q3 : -0.000220181100303, Q4 : 0.996223688126}
2019-09-29 17:20:37.40: SIM {TimeUS : 48428954, Roll : -0.04, Pitch : -0.07, Yaw : 170.04, Alt : 96.7900009155, Lat : 69.7758386, Lng : 19.5489305, Q1 : 0.0868060216308, Q2 : 0.000623191182967, Q3 : -0.000413786387071, Q4 : 0.996224939823}
2019-09-29 17:20:37.50: SIM {TimeUS : 48528914, Roll : -0.06, Pitch : -0.04, Yaw : 170.04, Alt : 97.0199966431, Lat : 69.7758384, Lng : 19.5489305, Q1 : 0.0867963880301, Q2 : 0.000364416831871, Q3 : -0.00059214909561, Q4 : 0.996225833893}
2019-09-29 17:20:37.60: SIM {TimeUS : 48628874, Roll : -0.07, Pitch : -0.02, Yaw : 170.04, Alt : 97.2600021362, Lat : 69.7758384, Lng : 19.5489305, Q1 : 0.0867892205715, Q2 : 0.000160878218594, Q3 : -0.000712777604349, Q4 : 0.996226489544}
2019-09-29 17:20:37.70: SIM {TimeUS : 48728834, Roll : -0.09, Pitch : -0.01, Yaw : 170.04, Alt : 97.4899978638, Lat : 69.7758384, Lng : 19.5489305, Q1 : 0.0867848172784, Q2 : 2.52302943409e-05, Q3 : -0.000803431263193, Q4 : 0.996226787567}
2019-09-29 17:20:37.80: SIM {TimeUS : 48828794, Roll : -0.09, Pitch : -0.01, Yaw : 170.04, Alt : 97.7200012207, Lat : 69.7758384, Lng : 19.5489305, Q1 : 0.0867871195078, Q2 : 2.5996901968e-05, Q3 : -0.000837829662487, Q4 : 0.996226549149}
2019-09-29 17:20:37.90: SIM {TimeUS : 48928754, Roll : -0.06, Pitch : -0.04, Yaw : 170.04, Alt : 97.9499969482, Lat : 69.7758384, Lng : 19.5489305, Q1 : 0.0867954418063, Q2 : 0.000352053932147, Q3 : -0.00059693417279, Q4 : 0.996225953102}
2019-09-29 17:20:38.00: SIM {TimeUS : 49028714, Roll : -0.01, Pitch : -0.08, Yaw : 170.03, Alt : 98.1900024414, Lat : 69.7758384, Lng : 19.5489305, Q1 : 0.0868112891912, Q2 : 0.000720206240658, Q3 : -0.000187135126907, Q4 : 0.996224522591}
2019-09-29 17:20:38.10: SIM {TimeUS : 49128674, Roll : 0.04, Pitch : -0.1, Yaw : 170.03, Alt : 98.4199981689, Lat : 69.7758384, Lng : 19.5489305, Q1 : 0.0868193432689, Q2 : 0.000942633196246, Q3 : 0.00027916720137, Q4 : 0.996223568916}
2019-09-29 17:20:38.19: SIM {TimeUS : 49228634, Roll : 0.08, Pitch : -0.09, Yaw : 170.03, Alt : 98.6600036621, Lat : 69.7758384, Lng : 19.5489305, Q1 : 0.086815930903, Q2 : 0.000879180675838, Q3 : 0.0006281073438, Q4 : 0.996223807335}
2019-09-29 17:20:38.29: SIM {TimeUS : 49328594, Roll : 0.09, Pitch : -0.06, Yaw : 170.03, Alt : 98.8899993896, Lat : 69.7758384, Lng : 19.5489305, Q1 : 0.0868106484413, Q2 : 0.000637271965388, Q3 : 0.000803120085038, Q4 : 0.996224284172}
2019-09-29 17:20:38.39: SIM {TimeUS : 49428554, Roll : 0.07, Pitch : -0.03, Yaw : 170.03, Alt : 99.1200027466, Lat : 69.7758384, Lng : 19.5489305, Q1 : 0.0868220329285, Q2 : 0.000358586083166, Q3 : 0.000611038762145, Q4 : 0.996223628521}
2019-09-29 17:20:38.49: SIM {TimeUS : 49528514, Roll : 0.03, Pitch : -0.01, Yaw : 170.03, Alt : 99.3600006104, Lat : 69.7758384, Lng : 19.5489305, Q1 : 0.0868374109268, Q2 : 0.000190450213267, Q3 : 0.000252625555731, Q4 : 0.996222436428}
2019-09-29 17:20:38.59: SIM {TimeUS : 49628474, Roll : 0.0, Pitch : -0.03, Yaw : 170.03, Alt : 99.5899963379, Lat : 69.7758384, Lng : 19.5489305, Q1 : 0.0868582874537, Q2 : 0.000328426103806, Q3 : -6.67096173856e-05, Q4 : 0.996220588684}
2019-09-29 17:20:38.69: SIM {TimeUS : 49728434, Roll : -0.02, Pitch : -0.05, Yaw : 170.03, Alt : 99.8300018311, Lat : 69.7758384, Lng : 19.5489305, Q1 : 0.0868888273835, Q2 : 0.000485363416374, Q3 : -0.000303043983877, Q4 : 0.996217906475}
2019-09-29 17:20:38.79: SIM {TimeUS : 49828394, Roll : -0.05, Pitch : -0.03, Yaw : 170.02, Alt : 100.059997559, Lat : 69.7758384, Lng : 19.5489305, Q1 : 0.0869360640645, Q2 : 0.000233389248024, Q3 : -0.000497522123624, Q4 : 0.996213793755}
2019-09-29 17:20:38.89: SIM {TimeUS : 49928354, Roll : -0.07, Pitch : 0.04, Yaw : 170.02, Alt : 100.300003052, Lat : 69.7758384, Lng : 19.5489305, Q1 : 0.0869737714529, Q2 : -0.000413122266764, Q3 : -0.000639249628875, Q4 : 0.996210336685}
2019-09-29 17:20:38.99: SIM {TimeUS : 50028314, Roll : -0.07, Pitch : 0.1, Yaw : 170.01, Alt : 100.529998779, Lat : 69.7758384, Lng : 19.5489305, Q1 : 0.0869976952672, Q2 : -0.00093588931486, Q3 : -0.000536789826583, Q4 : 0.996207892895}
2019-09-29 17:20:39.09: SIM {TimeUS : 50128274, Roll : -0.03, Pitch : 0.11, Yaw : 170.01, Alt : 100.769996643, Lat : 69.7758384, Lng : 19.5489305, Q1 : 0.0870118290186, Q2 : -0.00103416445199, Q3 : -0.000256625120528, Q4 : 0.996206700802}
2019-09-29 17:20:39.19: SIM {TimeUS : 50228234, Roll : -0.01, Pitch : 0.09, Yaw : 170.01, Alt : 101.010002136, Lat : 69.7758384, Lng : 19.5489305, Q1 : 0.0870184153318, Q2 : -0.000843984540552, Q3 : -6.70556983096e-05, Q4 : 0.996206343174}
2019-09-29 17:20:39.29: SIM {TimeUS : 50328194, Roll : 0.0, Pitch : 0.05, Yaw : 170.01, Alt : 101.239997864, Lat : 69.7758384, Lng : 19.5489305, Q1 : 0.0870251059532, Q2 : -0.0004679147969, Q3 : 2.76836617559e-05, Q4 : 0.996205985546}
2019-09-29 17:20:39.39: SIM {TimeUS : 50428154, Roll : 0.0, Pitch : -0.01, Yaw : 170.01, Alt : 101.480003357, Lat : 69.7758384, Lng : 19.5489305, Q1 : 0.0870218873024, Q2 : 0.000150998748722, Q3 : -3.08735046417e-08, Q4 : 0.996206402779}
2019-09-29 17:20:39.50: SIM {TimeUS : 50528947, Roll : 0.0, Pitch : -0.08, Yaw : 170.01, Alt : 101.720001221, Lat : 69.7758384, Lng : 19.5489305, Q1 : 0.0870154201984, Q2 : 0.000734488072339, Q3 : -2.97002079606e-05, Q4 : 0.996206700802}
2019-09-29 17:20:39.60: SIM {TimeUS : 50628907, Roll : 0.0, Pitch : -0.12, Yaw : 170.01, Alt : 101.949996948, Lat : 69.7758384, Lng : 19.5489305, Q1 : 0.0870091542602, Q2 : 0.0010409031529, Q3 : -0.0001459345076, Q4 : 0.996206998825}
2019-09-29 17:20:39.70: SIM {TimeUS : 50728867, Roll : -0.01, Pitch : -0.1, Yaw : 170.01, Alt : 102.190002441, Lat : 69.7758384, Lng : 19.5489305, Q1 : 0.0870062038302, Q2 : 0.000882007356267, Q3 : -0.000180019269465, Q4 : 0.996207356453}
2019-09-29 17:20:39.80: SIM {TimeUS : 50828827, Roll : -0.01, Pitch : -0.03, Yaw : 170.01, Alt : 102.430000305, Lat : 69.7758384, Lng : 19.5489305, Q1 : 0.0870208591223, Q2 : 0.000250720826443, Q3 : -0.000175470529939, Q4 : 0.996206462383}
2019-09-29 17:20:39.90: SIM {TimeUS : 50928787, Roll : 0.0, Pitch : 0.06, Yaw : 170.01, Alt : 102.669998169, Lat : 69.7758384, Lng : 19.5489305, Q1 : 0.0870300456882, Q2 : -0.000571503071114, Q3 : 8.46453840495e-05, Q4 : 0.996205508709}
2019-09-29 17:20:40.00: SIM {TimeUS : 51028747, Roll : 0.04, Pitch : 0.12, Yaw : 170.01, Alt : 102.900001526, Lat : 69.7758384, Lng : 19.5489305, Q1 : 0.0870350822806, Q2 : -0.00102819304448, Q3 : 0.000502658193, Q4 : 0.996204614639}
2019-09-29 17:20:40.10: SIM {TimeUS : 51128707, Roll : 0.07, Pitch : 0.11, Yaw : 170.01, Alt : 103.13999939, Lat : 69.7758384, Lng : 19.5489305, Q1 : 0.0870382785797, Q2 : -0.000946152955294, Q3 : 0.000723497360013, Q4 : 0.996204257011}
2019-09-29 17:20:40.20: SIM {TimeUS : 51228667, Roll : 0.09, Pitch : 0.06, Yaw : 170.01, Alt : 103.379997253, Lat : 69.7758384, Lng : 19.5489305, Q1 : 0.0870448127389, Q2 : -0.0004728572967, Q3 : 0.000833756756037, Q4 : 0.996203958988}
2019-09-29 17:20:40.29: SIM {TimeUS : 51328627, Roll : 0.11, Pitch : 0.01, Yaw : 170.01, Alt : 103.61000061, Lat : 69.7758384, Lng : 19.5489305, Q1 : 0.0870518311858, Q2 : -1.89465081348e-05, Q3 : 0.00102078984492, Q4 : 0.996203243732}
2019-09-29 17:20:40.39: SIM {TimeUS : 51428587, Roll : 0.12, Pitch : -0.01, Yaw : 170.01, Alt : 103.839996338, Lat : 69.7758384, Lng : 19.5489305, Q1 : 0.0870608910918, Q2 : 0.000223819632083, Q3 : 0.00105844682548, Q4 : 0.996202409267}
2019-09-29 17:20:40.49: SIM {TimeUS : 51528547, Roll : 0.09, Pitch : 0.0, Yaw : 170.0, Alt : 104.080001831, Lat : 69.7758384, Lng : 19.5489305, Q1 : 0.0870707854629, Q2 : 7.56486260798e-05, Q3 : 0.00081950169988, Q4 : 0.996201813221}
2019-09-29 17:20:40.59: SIM {TimeUS : 51628507, Roll : 0.04, Pitch : 0.02, Yaw : 170.0, Alt : 104.300003052, Lat : 69.7758384, Lng : 19.5489305, Q1 : 0.0870785266161, Q2 : -0.000182200892596, Q3 : 0.000423316669185, Q4 : 0.996201336384}
2019-09-29 17:20:40.69: SIM {TimeUS : 51728467, Roll : 0.0, Pitch : 0.03, Yaw : 170.0, Alt : 104.529998779, Lat : 69.7758384, Lng : 19.5489305, Q1 : 0.087087854743, Q2 : -0.000328874448314, Q3 : 1.42968992805e-05, Q4 : 0.996200561523}
2019-09-29 17:20:40.79: SIM {TimeUS : 51828427, Roll : -0.04, Pitch : 0.03, Yaw : 170.0, Alt : 104.75, Lat : 69.7758384, Lng : 19.5489305, Q1 : 0.0870990604162, Q2 : -0.00032872063457, Q3 : -0.000331853225362, Q4 : 0.996199548244}
2019-09-29 17:20:40.89: SIM {TimeUS : 51928387, Roll : -0.06, Pitch : 0.03, Yaw : 170.0, Alt : 104.959999084, Lat : 69.7758384, Lng : 19.5489305, Q1 : 0.0871103927493, Q2 : -0.000335182005074, Q3 : -0.000511005928274, Q4 : 0.996198534966}
2019-09-29 17:20:40.99: SIM {TimeUS : 52028347, Roll : -0.06, Pitch : 0.04, Yaw : 170.0, Alt : 105.160003662, Lat : 69.7758384, Lng : 19.5489305, Q1 : 0.087121553719, Q2 : -0.000408011488616, Q3 : -0.000562333967537, Q4 : 0.996197462082}
2019-09-29 17:20:41.09: SIM {TimeUS : 52128307, Roll : -0.06, Pitch : 0.04, Yaw : 170.0, Alt : 105.36000061, Lat : 69.7758384, Lng : 19.5489305, Q1 : 0.0871292203665, Q2 : -0.000427532853791, Q3 : -0.000549875665456, Q4 : 0.996196746826}
2019-09-29 17:20:41.19: SIM {TimeUS : 52228267, Roll : -0.06, Pitch : 0.02, Yaw : 170.0, Alt : 105.550003052, Lat : 69.7758384, Lng : 19.5489305, Q1 : 0.08713439852, Q2 : -0.000283882458461, Q3 : -0.000583623477723, Q4 : 0.996196389198}
2019-09-29 17:20:41.29: SIM {TimeUS : 52328227, Roll : -0.08, Pitch : 0.01, Yaw : 170.0, Alt : 105.730003357, Lat : 69.7758384, Lng : 19.5489305, Q1 : 0.0871396288276, Q2 : -0.000191751358216, Q3 : -0.000688838190399, Q4 : 0.996195912361}
2019-09-29 17:20:41.39: SIM {TimeUS : 52428187, Roll : -0.09, Pitch : 0.01, Yaw : 170.0, Alt : 105.88999939, Lat : 69.7758384, Lng : 19.5489305, Q1 : 0.0871434658766, Q2 : -0.000189943937585, Q3 : -0.000772153143771, Q4 : 0.996195495129}
2019-09-29 17:20:41.50: SIM {TimeUS : 52528980, Roll : -0.08, Pitch : 0.0, Yaw : 170.0, Alt : 106.050003052, Lat : 69.7758384, Lng : 19.5489305, Q1 : 0.0871446281672, Q2 : -0.000127217106638, Q3 : -0.000700553006027, Q4 : 0.996195435524}
2019-09-29 17:20:41.60: SIM {TimeUS : 52628940, Roll : -0.06, Pitch : 0.0, Yaw : 170.0, Alt : 106.190002441, Lat : 69.7758384, Lng : 19.5489305, Q1 : 0.0871463641524, Q2 : 1.49251891344e-05, Q3 : -0.000590866722632, Q4 : 0.996195375919}
2019-09-29 17:20:41.70: SIM {TimeUS : 52728900, Roll : -0.06, Pitch : -0.01, Yaw : 170.0, Alt : 106.319999695, Lat : 69.7758384, Lng : 19.5489305, Q1 : 0.0871532410383, Q2 : 7.21095784684e-05, Q3 : -0.000545961607713, Q4 : 0.996194779873}
2019-09-29 17:20:41.80: SIM {TimeUS : 52828860, Roll : -0.04, Pitch : -0.01, Yaw : 169.99, Alt : 106.440002441, Lat : 69.7758384, Lng : 19.5489305, Q1 : 0.0871619209647, Q2 : 6.41447404632e-05, Q3 : -0.000395355280489, Q4 : 0.996194064617}
2019-09-29 17:20:41.90: SIM {TimeUS : 52928820, Roll : -0.02, Pitch : 0.01, Yaw : 169.99, Alt : 106.550003052, Lat : 69.7758384, Lng : 19.5489305, Q1 : 0.0871741846204, Q2 : -0.000176839079359, Q3 : -0.000190463164472, Q4 : 0.996193051338}
2019-09-29 17:20:42.00: SIM {TimeUS : 53028780, Roll : -0.02, Pitch : 0.05, Yaw : 169.99, Alt : 106.63999939, Lat : 69.7758384, Lng : 19.5489305, Q1 : 0.0871872007847, Q2 : -0.000497954490129, Q3 : -0.000140871925396, Q4 : 0.996191799641}
2019-09-29 17:20:42.10: SIM {TimeUS : 53128740, Roll : -0.02, Pitch : 0.07, Yaw : 169.99, Alt : 106.730003357, Lat : 69.7758384, Lng : 19.5489305, Q1 : 0.0872042253613, Q2 : -0.000640470942017, Q3 : -0.000151489017298, Q4 : 0.99619024992}
2019-09-29 17:20:42.20: SIM {TimeUS : 53228700, Roll : -0.02, Pitch : 0.05, Yaw : 169.99, Alt : 106.800003052, Lat : 69.7758386, Lng : 19.5489305, Q1 : 0.0872115120292, Q2 : -0.00050246034516, Q3 : -0.000167745791259, Q4 : 0.996189713478}
2019-09-29 17:20:42.29: SIM {TimeUS : 53328660, Roll : -0.02, Pitch : 0.03, Yaw : 169.99, Alt : 106.86000061, Lat : 69.7758386, Lng : 19.5489305, Q1 : 0.0872206836939, Q2 : -0.000292455137242, Q3 : -0.000231906524277, Q4 : 0.996188938618}
2019-09-29 17:20:42.39: SIM {TimeUS : 53428620, Roll : -0.03, Pitch : 0.0, Yaw : 169.99, Alt : 106.919998169, Lat : 69.7758386, Lng : 19.5489305, Q1 : 0.0872306451201, Q2 : -2.16887001443e-05, Q3 : -0.000287483882857, Q4 : 0.996188104153}
2019-09-29 17:20:42.49: SIM {TimeUS : 53528580, Roll : -0.02, Pitch : 0.0, Yaw : 169.98, Alt : 106.959999084, Lat : 69.7758386, Lng : 19.5489305, Q1 : 0.087244361639, Q2 : 3.28621244989e-05, Q3 : -0.000229683428188, Q4 : 0.99618691206}
