2019-09-29 18:29:30.30: SIM {TimeUS : 40728702, Roll : 0.0, Pitch : 0.0, Yaw : 169.99, Alt : 87.0999984741, Lat : 69.7758389, Lng : 19.5489289, Q1 : 0.087155804038, Q2 : 0.0, Q3 : 0.0, Q4 : 0.996194720268}
2019-09-29 18:29:30.40: SIM {TimeUS : 40828662, Roll : 0.0, Pitch : 0.0, Yaw : 169.99, Alt : 87.0999984741, Lat : 69.7758389, Lng : 19.5489289, Q1 : 0.087155804038, Q2 : 0.0, Q3 : 0.0, Q4 : 0.996194720268}
2019-09-29 18:29:30.49: SIM {TimeUS : 40928622, Roll : 0.0, Pitch : 0.0, Yaw : 169.99, Alt : 87.0999984741, Lat : 69.7758389, Lng : 19.5489289, Q1 : 0.087155804038, Q2 : 0.0, Q3 : 0.0, Q4 : 0.996194720268}
2019-09-29 18:29:30.59: SIM {TimeUS : 41028582, Roll : 0.0, Pitch : 0.0, Yaw : 169.99, Alt : 87.0999984741, Lat : 69.7758389, Lng : 19.5489289, Q1 : 0.087155804038, Q2 : 0.0, Q3 : 0.0, Q4 : 0.996194720268}
2019-09-29 18:29:30.69: SIM {TimeUS : 41128542, Roll : 0.0, Pitch : 0.0, Yaw : 169.99, Alt : 87.0999984741, Lat : 69.7758389, Lng : 19.5489289, Q1 : 0.087155804038, Q2 : 0.0, Q3 : 0.0, Q4 : 0.996194720268}
2019-09-29 18:29:30.79: SIM {TimeUS : 41228502, Roll : 0.0, Pitch : 0.0, Yaw : 169.99, Alt : 87.0999984741, Lat : 69.7758389, Lng : 19.5489289, Q1 : 0.087155804038, Q2 : 0.0, Q3 : 0.0, Q4 : 0.996194720268}
2019-09-29 18:29:30.89: SIM {TimeUS : 41328462, Roll : 0.0, Pitch : 0.0, Yaw : 169.99, Alt : 87.0999984741, Lat : 69.7758389, Lng : 19.5489289, Q1 : 0.087155804038, Q2 : 0.0, Q3 : 0.0, Q4 : 0.996194720268}
2019-09-29 18:29:30.99: SIM {TimeUS : 41428422, Roll : 0.0, Pitch : 0.0, Yaw : 169.99, Alt : 87.0999984741, Lat : 69.7758389, Lng : 19.5489289, Q1 : 0.087155804038, Q2 : 0.0, Q3 : 0.0, Q4 : 0.996194720268}
2019-09-29 18:29:31.09: SIM {TimeUS : 41528382, Roll : 0.0, Pitch : 0.0, Yaw : 169.99, Alt : 87.0999984741, Lat : 69.7758389, Lng : 19.5489289, Q1 : 0.087155804038, Q2 : 0.0, Q3 : 0.0, Q4 : 0.996194720268}
2019-09-29 18:29:31.19: SIM {TimeUS : 41628342, Roll : 0.0, Pitch : 0.0, Yaw : 169.99, Alt : 87.0999984741, Lat : 69.7758389, Lng : 19.5489289, Q1 : 0.087155804038, Q2 : 0.0, Q3 : 0.0, Q4 : 0.996194720268}
2019-09-29 18:29:31.29: SIM {TimeUS : 41728302, Roll : 0.0, Pitch : 0.0, Yaw : 169.99, Alt : 87.0999984741, Lat : 69.7758389, Lng : 19.5489289, Q1 : 0.087155804038, Q2 : 0.0, Q3 : 0.0, Q4 : 0.996194720268}
2019-09-29 18:29:31.39: SIM {TimeUS : 41828262, Roll : 0.0, Pitch : 0.0, Yaw : 169.99, Alt : 87.0999984741, Lat : 69.7758389, Lng : 19.5489289, Q1 : 0.087155804038, Q2 : 0.0, Q3 : 0.0, Q4 : 0.996194720268}
2019-09-29 18:29:31.49: SIM {TimeUS : 41928222, Roll : 0.0, Pitch : 0.0, Yaw : 169.99, Alt : 87.0999984741, Lat : 69.7758389, Lng : 19.5489289, Q1 : 0.087155804038, Q2 : 0.0, Q3 : 0.0, Q4 : 0.996194720268}
2019-09-29 18:29:31.59: SIM {TimeUS : 42028182, Roll : 0.0, Pitch : 0.0, Yaw : 169.99, Alt : 87.0999984741, Lat : 69.7758389, Lng : 19.5489289, Q1 : 0.087155804038, Q2 : 0.0, Q3 : 0.0, Q4 : 0.996194720268}
2019-09-29 18:29:31.70: SIM {TimeUS : 42128975, Roll : 0.0, Pitch : 0.0, Yaw : 169.99, Alt : 87.0999984741, Lat : 69.7758389, Lng : 19.5489289, Q1 : 0.087155804038, Q2 : 0.0, Q3 : 0.0, Q4 : 0.996194720268}
2019-09-29 18:29:31.80: SIM {TimeUS : 42228935, Roll : 0.0, Pitch : 0.0, Yaw : 169.99, Alt : 87.0999984741, Lat : 69.7758389, Lng : 19.5489289, Q1 : 0.087155804038, Q2 : 0.0, Q3 : 0.0, Q4 : 0.996194720268}
2019-09-29 18:29:31.90: SIM {TimeUS : 42328895, Roll : 0.0, Pitch : 0.0, Yaw : 169.99, Alt : 87.0999984741, Lat : 69.7758389, Lng : 19.5489289, Q1 : 0.087155804038, Q2 : 0.0, Q3 : 0.0, Q4 : 0.996194720268}
2019-09-29 18:29:32.00: SIM {TimeUS : 42428855, Roll : 0.0, Pitch : 0.0, Yaw : 169.99, Alt : 87.0999984741, Lat : 69.7758389, Lng : 19.5489289, Q1 : 0.087155804038, Q2 : 0.0, Q3 : 0.0, Q4 : 0.996194720268}
2019-09-29 18:29:32.10: SIM {TimeUS : 42528815, Roll : 0.0, Pitch : 0.0, Yaw : 169.99, Alt : 87.0999984741, Lat : 69.7758389, Lng : 19.5489289, Q1 : 0.087155804038, Q2 : 0.0, Q3 : 0.0, Q4 : 0.996194720268}
2019-09-29 18:29:32.20: SIM {TimeUS : 42628775, Roll : 0.0, Pitch : 0.0, Yaw : 169.99, Alt : 87.0999984741, Lat : 69.7758389, Lng : 19.5489289, Q1 : 0.087155804038, Q2 : 0.0, Q3 : 0.0, Q4 : 0.996194720268}
2019-09-29 18:29:32.30: SIM {TimeUS : 42728735, Roll : 0.0, Pitch : 0.0, Yaw : 169.99, Alt : 87.0999984741, Lat : 69.7758389, Lng : 19.5489289, Q1 : 0.087155804038, Q2 : 0.0, Q3 : 0.0, Q4 : 0.996194720268}
2019-09-29 18:29:32.40: SIM {TimeUS : 42828695, Roll : 0.0, Pitch : 0.0, Yaw : 169.99, Alt : 87.0999984741, Lat : 69.7758389, Lng : 19.5489289, Q1 : 0.087155804038, Q2 : 0.0, Q3 : 0.0, Q4 : 0.996194720268}
2019-09-29 18:29:32.49: SIM {TimeUS : 42928655, Roll : 0.0, Pitch : 0.0, Yaw : 169.99, Alt : 87.0999984741, Lat : 69.7758389, Lng : 19.5489289, Q1 : 0.087155804038, Q2 : 0.0, Q3 : 0.0, Q4 : 0.996194720268}
2019-09-29 18:29:32.59: SIM {TimeUS : 43028615, Roll : 0.0, Pitch : 0.0, Yaw : 169.99, Alt : 87.0999984741, Lat : 69.7758389, Lng : 19.5489289, Q1 : 0.087155804038, Q2 : 0.0, Q3 : 0.0, Q4 : 0.996194720268}
2019-09-29 18:29:32.69: SIM {TimeUS : 43128575, Roll : 0.0, Pitch : 0.0, Yaw : 169.99, Alt : 87.0999984741, Lat : 69.7758389, Lng : 19.5489289, Q1 : 0.087155804038, Q2 : 0.0, Q3 : 0.0, Q4 : 0.996194720268}
2019-09-29 18:29:32.79: SIM {TimeUS : 43228535, Roll : 0.0, Pitch : 0.0, Yaw : 169.99, Alt : 87.0999984741, Lat : 69.7758389, Lng : 19.5489289, Q1 : 0.087155804038, Q2 : 0.0, Q3 : 0.0, Q4 : 0.996194720268}
2019-09-29 18:29:32.89: SIM {TimeUS : 43328495, Roll : 0.0, Pitch : 0.0, Yaw : 169.99, Alt : 87.0999984741, Lat : 69.7758389, Lng : 19.5489289, Q1 : 0.087155804038, Q2 : 0.0, Q3 : 0.0, Q4 : 0.996194720268}
2019-09-29 18:29:32.99: SIM {TimeUS : 43428455, Roll : 0.0, Pitch : 0.0, Yaw : 169.99, Alt : 87.0999984741, Lat : 69.7758389, Lng : 19.5489289, Q1 : 0.087155804038, Q2 : 0.0, Q3 : 0.0, Q4 : 0.996194720268}
2019-09-29 18:29:33.09: SIM {TimeUS : 43528415, Roll : 0.0, Pitch : 0.0, Yaw : 169.99, Alt : 87.1200027466, Lat : 69.7758389, Lng : 19.5489289, Q1 : 0.087155804038, Q2 : 0.0, Q3 : 0.0, Q4 : 0.996194720268}
2019-09-29 18:29:33.19: SIM {TimeUS : 43628375, Roll : 0.0, Pitch : 0.0, Yaw : 169.99, Alt : 87.1600036621, Lat : 69.7758389, Lng : 19.5489289, Q1 : 0.087155804038, Q2 : 0.0, Q3 : 0.0, Q4 : 0.996194720268}
2019-09-29 18:29:33.29: SIM {TimeUS : 43728335, Roll : 0.0, Pitch : 0.0, Yaw : 170.0, Alt : 87.2099990845, Lat : 69.7758389, Lng : 19.5489289, Q1 : 0.0871554538608, Q2 : 3.11567746394e-05, Q3 : -3.26845220116e-05, Q4 : 0.996194779873}
2019-09-29 18:29:33.39: SIM {TimeUS : 43828295, Roll : -0.16, Pitch : -0.17, Yaw : 170.0, Alt : 87.2900009155, Lat : 69.7758389, Lng : 19.5489289, Q1 : 0.0871387049556, Q2 : 0.00139307428617, Q3 : -0.00155534385704, Q4 : 0.996194005013}
2019-09-29 18:29:33.49: SIM {TimeUS : 43928255, Roll : -0.41, Pitch : -0.41, Yaw : 170.0, Alt : 87.4199981689, Lat : 69.7758389, Lng : 19.5489289, Q1 : 0.0870930254459, Q2 : 0.00329606537707, Q3 : -0.00388290314004, Q4 : 0.996187150478}
2019-09-29 18:29:33.59: SIM {TimeUS : 44028215, Roll : -0.59, Pitch : -0.57, Yaw : 170.01, Alt : 87.5899963379, Lat : 69.7758389, Lng : 19.5489289, Q1 : 0.0870215073228, Q2 : 0.00456215720624, Q3 : -0.00559274433181, Q4 : 0.996180295944}
2019-09-29 18:29:33.69: SIM {TimeUS : 44128175, Roll : -0.65, Pitch : -0.59, Yaw : 170.02, Alt : 87.7799987793, Lat : 69.7758389, Lng : 19.5489291, Q1 : 0.086934581399, Q2 : 0.00468319794163, Q3 : -0.00614686030895, Q4 : 0.996184051037}
2019-09-29 18:29:33.80: SIM {TimeUS : 44228968, Roll : -0.59, Pitch : -0.5, Yaw : 170.03, Alt : 87.9599990845, Lat : 69.7758389, Lng : 19.5489292, Q1 : 0.0868380963802, Q2 : 0.00396330840886, Q3 : -0.00554686458781, Q4 : 0.996199131012}
2019-09-29 18:29:33.90: SIM {TimeUS : 44328928, Roll : -0.43, Pitch : -0.34, Yaw : 170.04, Alt : 88.1500015259, Lat : 69.7758389, Lng : 19.5489292, Q1 : 0.0867425277829, Q2 : 0.00270324666053, Q3 : -0.00405965419486, Q4 : 0.996218860149}
2019-09-29 18:29:34.00: SIM {TimeUS : 44428888, Roll : -0.24, Pitch : -0.18, Yaw : 170.05, Alt : 88.3300018311, Lat : 69.7758389, Lng : 19.5489294, Q1 : 0.0866570025682, Q2 : 0.00143431487959, Q3 : -0.00230622850358, Q4 : 0.996234536171}
2019-09-29 18:29:34.10: SIM {TimeUS : 44528848, Roll : -0.08, Pitch : -0.05, Yaw : 170.06, Alt : 88.5199966431, Lat : 69.7758389, Lng : 19.5489295, Q1 : 0.0865885913372, Q2 : 0.000411615561461, Q3 : -0.000785268901382, Q4 : 0.996243774891}
2019-09-29 18:29:34.20: SIM {TimeUS : 44628808, Roll : 0.01, Pitch : 0.03, Yaw : 170.07, Alt : 88.7099990845, Lat : 69.7758389, Lng : 19.5489297, Q1 : 0.0865421444178, Q2 : -0.000288457667921, Q3 : 0.000125521939481, Q4 : 0.99624812603}
2019-09-29 18:29:34.30: SIM {TimeUS : 44728768, Roll : 0.03, Pitch : 0.06, Yaw : 170.07, Alt : 88.9100036621, Lat : 69.7758388, Lng : 19.5489298, Q1 : 0.086514621973, Q2 : -0.000550373224542, Q3 : 0.000371848436771, Q4 : 0.996250391006}
2019-09-29 18:29:34.40: SIM {TimeUS : 44828728, Roll : 0.0, Pitch : 0.04, Yaw : 170.07, Alt : 89.1100006104, Lat : 69.7758388, Lng : 19.54893, Q1 : 0.086502879858, Q2 : -0.000352510076482, Q3 : 9.85999286058e-05, Q4 : 0.996251523495}
2019-09-29 18:29:34.50: SIM {TimeUS : 44928688, Roll : -0.02, Pitch : 0.0, Yaw : 170.07, Alt : 89.3099975586, Lat : 69.7758388, Lng : 19.5489301, Q1 : 0.0865099132061, Q2 : -4.9526206567e-06, Q3 : -0.000215373554965, Q4 : 0.996250987053}
2019-09-29 18:29:34.59: SIM {TimeUS : 45028648, Roll : -0.03, Pitch : -0.03, Yaw : 170.07, Alt : 89.5100021362, Lat : 69.7758388, Lng : 19.5489301, Q1 : 0.0865256115794, Q2 : 0.000269137264695, Q3 : -0.000338443031069, Q4 : 0.996249556541}
2019-09-29 18:29:34.69: SIM {TimeUS : 45128608, Roll : 0.0, Pitch : -0.04, Yaw : 170.06, Alt : 89.7200012207, Lat : 69.7758388, Lng : 19.5489301, Q1 : 0.0865596905351, Q2 : 0.000386987056118, Q3 : -1.87301538972e-05, Q4 : 0.996246576309}
2019-09-29 18:29:34.79: SIM {TimeUS : 45228568, Roll : 0.05, Pitch : -0.04, Yaw : 170.06, Alt : 89.9199981689, Lat : 69.7758387, Lng : 19.5489303, Q1 : 0.0866023674607, Q2 : 0.000434001878602, Q3 : 0.000436073285528, Q4 : 0.996242761612}
2019-09-29 18:29:34.89: SIM {TimeUS : 45328528, Roll : 0.13, Pitch : 0.0, Yaw : 170.05, Alt : 90.1299972534, Lat : 69.7758387, Lng : 19.5489304, Q1 : 0.0866473540664, Q2 : 0.000101215977338, Q3 : 0.00114353292156, Q4 : 0.996238350868}
2019-09-29 18:29:34.99: SIM {TimeUS : 45428488, Roll : 0.21, Pitch : 0.08, Yaw : 170.05, Alt : 90.3399963379, Lat : 69.7758387, Lng : 19.5489305, Q1 : 0.0867038294673, Q2 : -0.000578005914576, Q3 : 0.00195442629047, Q4 : 0.996232032776}
2019-09-29 18:29:35.09: SIM {TimeUS : 45528448, Roll : 0.26, Pitch : 0.16, Yaw : 170.04, Alt : 90.5500030518, Lat : 69.7758387, Lng : 19.5489305, Q1 : 0.0867526978254, Q2 : -0.00123306864407, Q3 : 0.0024453564547, Q4 : 0.996226131916}
2019-09-29 18:29:35.19: SIM {TimeUS : 45628408, Roll : 0.26, Pitch : 0.21, Yaw : 170.04, Alt : 90.7600021362, Lat : 69.7758387, Lng : 19.5489305, Q1 : 0.0867851376534, Q2 : -0.00164385454264, Q3 : 0.00242459611036, Q4 : 0.996222734451}
2019-09-29 18:29:35.29: SIM {TimeUS : 45728368, Roll : 0.2, Pitch : 0.21, Yaw : 170.04, Alt : 90.9700012207, Lat : 69.7758386, Lng : 19.5489305, Q1 : 0.0868062525988, Q2 : -0.00168210710399, Q3 : 0.00196533976123, Q4 : 0.996221899986}
2019-09-29 18:29:35.39: SIM {TimeUS : 45828328, Roll : 0.13, Pitch : 0.17, Yaw : 170.03, Alt : 91.1900024414, Lat : 69.7758386, Lng : 19.5489305, Q1 : 0.0868213474751, Q2 : -0.00137914868537, Q3 : 0.00132558587939, Q4 : 0.9962220788}
2019-09-29 18:29:35.49: SIM {TimeUS : 45928288, Roll : 0.09, Pitch : 0.1, Yaw : 170.03, Alt : 91.4000015259, Lat : 69.7758386, Lng : 19.5489305, Q1 : 0.08682513237, Q2 : -0.000826986972243, Q3 : 0.000912118586712, Q4 : 0.996222794056}
2019-09-29 18:29:35.59: SIM {TimeUS : 46028248, Roll : 0.06, Pitch : 0.01, Yaw : 170.03, Alt : 91.6200027466, Lat : 69.7758386, Lng : 19.5489305, Q1 : 0.0868109464645, Q2 : -0.000122809389723, Q3 : 0.000583609158639, Q4 : 0.9962246418}
2019-09-29 18:29:35.69: SIM {TimeUS : 46128208, Roll : 0.06, Pitch : -0.03, Yaw : 170.04, Alt : 91.8399963379, Lat : 69.7758386, Lng : 19.5489305, Q1 : 0.0867821648717, Q2 : 0.000371787697077, Q3 : 0.00050918769557, Q4 : 0.996227145195}
2019-09-29 18:29:35.79: SIM {TimeUS : 46228168, Roll : 0.08, Pitch : -0.04, Yaw : 170.04, Alt : 92.0500030518, Lat : 69.7758386, Lng : 19.5489305, Q1 : 0.0867335572839, Q2 : 0.000420957687311, Q3 : 0.000664768100251, Q4 : 0.996231198311}
2019-09-29 18:29:35.90: SIM {TimeUS : 46328961, Roll : 0.08, Pitch : -0.03, Yaw : 170.05, Alt : 92.2799987793, Lat : 69.7758386, Lng : 19.5489305, Q1 : 0.0866739526391, Q2 : 0.00035640373244, Q3 : 0.000739515991881, Q4 : 0.996236383915}
2019-09-29 18:29:36.00: SIM {TimeUS : 46428921, Roll : 0.06, Pitch : -0.02, Yaw : 170.06, Alt : 92.5, Lat : 69.7758386, Lng : 19.5489305, Q1 : 0.0866108909249, Q2 : 0.000307368929498, Q3 : 0.000544717418961, Q4 : 0.996242046356}
2019-09-29 18:29:36.10: SIM {TimeUS : 46528881, Roll : 0.02, Pitch : -0.03, Yaw : 170.06, Alt : 92.7200012207, Lat : 69.7758386, Lng : 19.5489305, Q1 : 0.086567915976, Q2 : 0.000324686465319, Q3 : 0.000232372534811, Q4 : 0.996245861053}
2019-09-29 18:29:36.20: SIM {TimeUS : 46628841, Roll : 0.02, Pitch : -0.04, Yaw : 170.06, Alt : 92.9400024414, Lat : 69.7758386, Lng : 19.5489305, Q1 : 0.086550436914, Q2 : 0.000412651308579, Q3 : 0.000157048634719, Q4 : 0.99624735117}
2019-09-29 18:29:36.30: SIM {TimeUS : 46728801, Roll : 0.03, Pitch : -0.05, Yaw : 170.07, Alt : 93.1600036621, Lat : 69.7758386, Lng : 19.5489305, Q1 : 0.086546741426, Q2 : 0.000542429857887, Q3 : 0.000274889200227, Q4 : 0.996247649193}
2019-09-29 18:29:36.40: SIM {TimeUS : 46828761, Roll : 0.03, Pitch : -0.07, Yaw : 170.07, Alt : 93.3799972534, Lat : 69.7758386, Lng : 19.5489305, Q1 : 0.0865307301283, Q2 : 0.000669018656481, Q3 : 0.00020767863316, Q4 : 0.996248960495}
2019-09-29 18:29:36.50: SIM {TimeUS : 46928721, Roll : 0.01, Pitch : -0.09, Yaw : 170.07, Alt : 93.6100006104, Lat : 69.7758386, Lng : 19.5489305, Q1 : 0.0865119025111, Q2 : 0.000805314979516, Q3 : 3.60214762622e-05, Q4 : 0.996250510216}
2019-09-29 18:29:36.60: SIM {TimeUS : 47028681, Roll : 0.0, Pitch : -0.07, Yaw : 170.07, Alt : 93.8300018311, Lat : 69.7758386, Lng : 19.5489305, Q1 : 0.086516097188, Q2 : 0.00067358079832, Q3 : -0.000126651444589, Q4 : 0.996250271797}
2019-09-29 18:29:36.69: SIM {TimeUS : 47128641, Roll : -0.02, Pitch : -0.04, Yaw : 170.07, Alt : 94.0500030518, Lat : 69.7758386, Lng : 19.5489305, Q1 : 0.0865471959114, Q2 : 0.00040268356679, Q3 : -0.00026485172566, Q4 : 0.996247589588}
2019-09-29 18:29:36.79: SIM {TimeUS : 47228601, Roll : -0.03, Pitch : -0.03, Yaw : 170.06, Alt : 94.2799987793, Lat : 69.7758386, Lng : 19.5489305, Q1 : 0.0865957662463, Q2 : 0.000259728491073, Q3 : -0.000339299265761, Q4 : 0.996243476868}
2019-09-29 18:29:36.89: SIM {TimeUS : 47328561, Roll : -0.03, Pitch : 0.0, Yaw : 170.05, Alt : 94.5100021362, Lat : 69.7758386, Lng : 19.5489305, Q1 : 0.0866466835141, Q2 : 5.22683440067e-05, Q3 : -0.000285418849671, Q4 : 0.996239066124}
2019-09-29 18:29:36.99: SIM {TimeUS : 47428521, Roll : 0.0, Pitch : 0.0, Yaw : 170.05, Alt : 94.7300033569, Lat : 69.7758386, Lng : 19.5489305, Q1 : 0.0866989716887, Q2 : 1.38955351758e-06, Q3 : -7.79255569796e-05, Q4 : 0.996234536171}
2019-09-29 18:29:37.09: SIM {TimeUS : 47528481, Roll : 0.04, Pitch : -0.02, Yaw : 170.04, Alt : 94.9599990845, Lat : 69.7758386, Lng : 19.5489305, Q1 : 0.0867474600673, Q2 : 0.000257417064859, Q3 : 0.000367662723875, Q4 : 0.996230244637}
2019-09-29 18:29:37.19: SIM {TimeUS : 47628441, Roll : 0.07, Pitch : -0.05, Yaw : 170.04, Alt : 95.1900024414, Lat : 69.7758386, Lng : 19.5489305, Q1 : 0.0867884159088, Q2 : 0.000522054790054, Q3 : 0.000609984912444, Q4 : 0.996226429939}
2019-09-29 18:29:37.29: SIM {TimeUS : 47728401, Roll : 0.07, Pitch : -0.06, Yaw : 170.03, Alt : 95.4199981689, Lat : 69.7758386, Lng : 19.5489305, Q1 : 0.0868219062686, Q2 : 0.000645337393507, Q3 : 0.000593688804656, Q4 : 0.996223449707}
2019-09-29 18:29:37.39: SIM {TimeUS : 47828361, Roll : 0.03, Pitch : -0.05, Yaw : 170.03, Alt : 95.6500015259, Lat : 69.7758386, Lng : 19.5489305, Q1 : 0.0868447497487, Q2 : 0.0005363302771, Q3 : 0.000288761541015, Q4 : 0.996221661568}
2019-09-29 18:29:37.49: SIM {TimeUS : 47928321, Roll : 0.01, Pitch : -0.05, Yaw : 170.03, Alt : 95.8799972534, Lat : 69.7758386, Lng : 19.5489305, Q1 : 0.0868602097034, Q2 : 0.000455392699223, Q3 : 7.70329497755e-05, Q4 : 0.99622040987}
2019-09-29 18:29:37.59: SIM {TimeUS : 48028281, Roll : 0.01, Pitch : -0.06, Yaw : 170.03, Alt : 96.1100006104, Lat : 69.7758386, Lng : 19.5489305, Q1 : 0.0868645310402, Q2 : 0.000535271770786, Q3 : 7.26893849787e-05, Q4 : 0.996219992638}
2019-09-29 18:29:37.69: SIM {TimeUS : 48128241, Roll : 0.0, Pitch : -0.06, Yaw : 170.03, Alt : 96.3399963379, Lat : 69.7758386, Lng : 19.5489305, Q1 : 0.086856983602, Q2 : 0.000596735393628, Q3 : 3.06909423671e-05, Q4 : 0.996220588684}
2019-09-29 18:29:37.79: SIM {TimeUS : 48228201, Roll : 0.0, Pitch : -0.07, Yaw : 170.03, Alt : 96.5699996948, Lat : 69.7758386, Lng : 19.5489305, Q1 : 0.0868465602398, Q2 : 0.000694893707987, Q3 : -3.87896325265e-05, Q4 : 0.996221423149}
2019-09-29 18:29:37.89: SIM {TimeUS : 48328161, Roll : -0.01, Pitch : -0.08, Yaw : 170.03, Alt : 96.8000030518, Lat : 69.7758386, Lng : 19.5489305, Q1 : 0.0868346765637, Q2 : 0.000686372630298, Q3 : -0.000194689797354, Q4 : 0.996222496033}
2019-09-29 18:29:38.00: SIM {TimeUS : 48428954, Roll : -0.03, Pitch : -0.07, Yaw : 170.03, Alt : 97.0299987793, Lat : 69.7758386, Lng : 19.5489305, Q1 : 0.0868194326758, Q2 : 0.000588264723774, Q3 : -0.000386783183785, Q4 : 0.996223807335}
2019-09-29 18:29:38.10: SIM {TimeUS : 48528914, Roll : -0.06, Pitch : -0.04, Yaw : 170.04, Alt : 97.2600021362, Lat : 69.7758384, Lng : 19.5489305, Q1 : 0.0868038982153, Q2 : 0.000316440331517, Q3 : -0.000565721187741, Q4 : 0.996225237846}
2019-09-29 18:29:38.20: SIM {TimeUS : 48628874, Roll : -0.07, Pitch : -0.01, Yaw : 170.04, Alt : 97.5, Lat : 69.7758384, Lng : 19.5489305, Q1 : 0.0867889672518, Q2 : 0.000110687396955, Q3 : -0.00069526565494, Q4 : 0.996226489544}
2019-09-29 18:29:38.30: SIM {TimeUS : 48728834, Roll : -0.09, Pitch : 0.0, Yaw : 170.04, Alt : 97.7300033569, Lat : 69.7758384, Lng : 19.5489305, Q1 : 0.0867770314217, Q2 : -1.66150184668e-05, Q3 : -0.000789698911831, Q4 : 0.996227502823}
2019-09-29 18:29:38.40: SIM {TimeUS : 48828794, Roll : -0.09, Pitch : 0.0, Yaw : 170.04, Alt : 97.9599990845, Lat : 69.7758384, Lng : 19.5489305, Q1 : 0.0867731198668, Q2 : 9.18766727409e-06, Q3 : -0.000820974586532, Q4 : 0.996227800846}
2019-09-29 18:29:38.50: SIM {TimeUS : 48928754, Roll : -0.06, Pitch : -0.04, Yaw : 170.04, Alt : 98.1999969482, Lat : 69.7758384, Lng : 19.5489305, Q1 : 0.0867791846395, Q2 : 0.000340407888871, Q3 : -0.000574882316869, Q4 : 0.996227383614}
2019-09-29 18:29:38.60: SIM {TimeUS : 49028714, Roll : -0.01, Pitch : -0.08, Yaw : 170.04, Alt : 98.4300003052, Lat : 69.7758384, Lng : 19.5489305, Q1 : 0.0867938399315, Q2 : 0.000707130297087, Q3 : -0.000153411412612, Q4 : 0.996226072311}
2019-09-29 18:29:38.70: SIM {TimeUS : 49128674, Roll : 0.04, Pitch : -0.1, Yaw : 170.04, Alt : 98.6600036621, Lat : 69.7758384, Lng : 19.5489305, Q1 : 0.0868006870151, Q2 : 0.000928165623918, Q3 : 0.000324240681948, Q4 : 0.996225178242}
2019-09-29 18:29:38.79: SIM {TimeUS : 49228634, Roll : 0.08, Pitch : -0.09, Yaw : 170.04, Alt : 98.9000015259, Lat : 69.7758384, Lng : 19.5489305, Q1 : 0.0867963060737, Q2 : 0.000863117864355, Q3 : 0.000681407458615, Q4 : 0.996225476265}
2019-09-29 18:29:38.89: SIM {TimeUS : 49328594, Roll : 0.1, Pitch : -0.06, Yaw : 170.04, Alt : 99.1299972534, Lat : 69.7758384, Lng : 19.5489305, Q1 : 0.0867903083563, Q2 : 0.000612490111962, Q3 : 0.000843383662868, Q4 : 0.996226072311}
2019-09-29 18:29:38.99: SIM {TimeUS : 49428554, Roll : 0.07, Pitch : -0.03, Yaw : 170.04, Alt : 99.3700027466, Lat : 69.7758384, Lng : 19.5489305, Q1 : 0.0868029817939, Q2 : 0.000321761937812, Q3 : 0.000636967888568, Q4 : 0.996225237846}
2019-09-29 18:29:39.09: SIM {TimeUS : 49528514, Roll : 0.03, Pitch : -0.01, Yaw : 170.03, Alt : 99.5999984741, Lat : 69.7758384, Lng : 19.5489305, Q1 : 0.086819820106, Q2 : 0.00014635027037, Q3 : 0.000266698683845, Q4 : 0.996223986149}
2019-09-29 18:29:39.19: SIM {TimeUS : 49628474, Roll : 0.0, Pitch : -0.03, Yaw : 170.03, Alt : 99.8399963379, Lat : 69.7758384, Lng : 19.5489305, Q1 : 0.0868423357606, Q2 : 0.000281502609141, Q3 : -6.45334366709e-05, Q4 : 0.996222019196}
2019-09-29 18:29:39.29: SIM {TimeUS : 49728434, Roll : -0.03, Pitch : -0.05, Yaw : 170.03, Alt : 100.069999695, Lat : 69.7758384, Lng : 19.5489305, Q1 : 0.0868723392487, Q2 : 0.000427817023592, Q3 : -0.00031175307231, Q4 : 0.996219336987}
2019-09-29 18:29:39.39: SIM {TimeUS : 49828394, Roll : -0.05, Pitch : -0.02, Yaw : 170.02, Alt : 100.309997559, Lat : 69.7758384, Lng : 19.5489305, Q1 : 0.0869189575315, Q2 : 0.000185088530998, Q3 : -0.000518532702699, Q4 : 0.996215224266}
2019-09-29 18:29:39.49: SIM {TimeUS : 49928354, Roll : -0.07, Pitch : 0.04, Yaw : 170.02, Alt : 100.540000916, Lat : 69.7758384, Lng : 19.5489305, Q1 : 0.0869540944695, Q2 : -0.000440779520432, Q3 : -0.000653027207591, Q4 : 0.996212005615}
2019-09-29 18:29:39.59: SIM {TimeUS : 50028314, Roll : -0.06, Pitch : 0.1, Yaw : 170.02, Alt : 100.779998779, Lat : 69.7758384, Lng : 19.5489305, Q1 : 0.0869807451963, Q2 : -0.000949426903389, Q3 : -0.000519826426171, Q4 : 0.996209442616}
2019-09-29 18:29:39.69: SIM {TimeUS : 50128274, Roll : -0.03, Pitch : 0.11, Yaw : 170.01, Alt : 101.010002136, Lat : 69.7758384, Lng : 19.5489305, Q1 : 0.0869985148311, Q2 : -0.00104376708623, Q3 : -0.000221299793338, Q4 : 0.996207892895}
2019-09-29 18:29:39.79: SIM {TimeUS : 50228234, Roll : 0.0, Pitch : 0.09, Yaw : 170.01, Alt : 101.25, Lat : 69.7758384, Lng : 19.5489305, Q1 : 0.08700876683, Q2 : -0.000832912686747, Q3 : -1.33877474582e-05, Q4 : 0.996207177639}
2019-09-29 18:29:39.89: SIM {TimeUS : 50328194, Roll : 0.0, Pitch : 0.05, Yaw : 170.01, Alt : 101.489997864, Lat : 69.7758384, Lng : 19.5489305, Q1 : 0.0870150104165, Q2 : -0.000451653817436, Q3 : 9.1523899755e-05, Q4 : 0.99620693922}
2019-09-29 18:29:39.99: SIM {TimeUS : 50428154, Roll : 0.0, Pitch : -0.02, Yaw : 170.01, Alt : 101.720001221, Lat : 69.7758384, Lng : 19.5489305, Q1 : 0.0870094522834, Q2 : 0.000200266105821, Q3 : 4.90767451993e-05, Q4 : 0.996207475662}
2019-09-29 18:29:40.10: SIM {TimeUS : 50528947, Roll : 0.0, Pitch : -0.08, Yaw : 170.01, Alt : 101.959999084, Lat : 69.7758384, Lng : 19.5489305, Q1 : 0.0870048552752, Q2 : 0.000784914125688, Q3 : -1.62787309819e-05, Q4 : 0.996207594872}
2019-09-29 18:29:40.20: SIM {TimeUS : 50628907, Roll : 0.0, Pitch : -0.12, Yaw : 170.01, Alt : 102.199996948, Lat : 69.7758384, Lng : 19.5489305, Q1 : 0.0870019346476, Q2 : 0.00103909184691, Q3 : -0.000158526163432, Q4 : 0.996207594872}
2019-09-29 18:29:40.30: SIM {TimeUS : 50728867, Roll : -0.01, Pitch : -0.09, Yaw : 170.01, Alt : 102.440002441, Lat : 69.7758384, Lng : 19.5489305, Q1 : 0.0870047137141, Q2 : 0.000852852885146, Q3 : -0.000199206624529, Q4 : 0.996207535267}
2019-09-29 18:29:40.40: SIM {TimeUS : 50828827, Roll : -0.01, Pitch : -0.02, Yaw : 170.01, Alt : 102.669998169, Lat : 69.7758384, Lng : 19.5489305, Q1 : 0.0870249569416, Q2 : 0.000215733467485, Q3 : -0.000190493839909, Q4 : 0.996206104755}
2019-09-29 18:29:40.50: SIM {TimeUS : 50928787, Roll : 0.0, Pitch : 0.06, Yaw : 170.01, Alt : 102.910003662, Lat : 69.7758384, Lng : 19.5489305, Q1 : 0.087036319077, Q2 : -0.00056080124341, Q3 : 9.2306319857e-05, Q4 : 0.996204972267}
2019-09-29 18:29:40.60: SIM {TimeUS : 51028747, Roll : 0.04, Pitch : 0.11, Yaw : 170.01, Alt : 103.150001526, Lat : 69.7758384, Lng : 19.5489305, Q1 : 0.0870431065559, Q2 : -0.000934414623771, Q3 : 0.000484996999148, Q4 : 0.996204018593}
2019-09-29 18:29:40.70: SIM {TimeUS : 51128707, Roll : 0.07, Pitch : 0.1, Yaw : 170.01, Alt : 103.379997253, Lat : 69.7758384, Lng : 19.5489305, Q1 : 0.0870556682348, Q2 : -0.000867902184837, Q3 : 0.000731813546736, Q4 : 0.9962028265}
2019-09-29 18:29:40.80: SIM {TimeUS : 51228667, Roll : 0.09, Pitch : 0.06, Yaw : 170.01, Alt : 103.620002747, Lat : 69.7758384, Lng : 19.5489305, Q1 : 0.0870628878474, Q2 : -0.000452454667538, Q3 : 0.000861794746015, Q4 : 0.996202409267}
2019-09-29 18:29:40.89: SIM {TimeUS : 51328627, Roll : 0.11, Pitch : 0.01, Yaw : 170.01, Alt : 103.849998474, Lat : 69.7758384, Lng : 19.5489305, Q1 : 0.0870683193207, Q2 : -5.95543133386e-05, Q3 : 0.00105609069578, Q4 : 0.996201813221}
2019-09-29 18:29:40.99: SIM {TimeUS : 51428587, Roll : 0.12, Pitch : 0.0, Yaw : 170.0, Alt : 104.080001831, Lat : 69.7758384, Lng : 19.5489305, Q1 : 0.087073802948, Q2 : 0.000144054341945, Q3 : 0.00110822869465, Q4 : 0.996201276779}
2019-09-29 18:29:41.09: SIM {TimeUS : 51528547, Roll : 0.09, Pitch : 0.0, Yaw : 170.0, Alt : 104.309997559, Lat : 69.7758384, Lng : 19.5489305, Q1 : 0.0870791375637, Q2 : -1.14634594865e-05, Q3 : 0.000866891699843, Q4 : 0.996201038361}
2019-09-29 18:29:41.19: SIM {TimeUS : 51628507, Roll : 0.04, Pitch : 0.03, Yaw : 170.0, Alt : 104.529998779, Lat : 69.7758384, Lng : 19.5489305, Q1 : 0.0870844125748, Q2 : -0.000248688040301, Q3 : 0.000454555585748, Q4 : 0.996200799942}
2019-09-29 18:29:41.29: SIM {TimeUS : 51728467, Roll : 0.0, Pitch : 0.04, Yaw : 170.0, Alt : 104.75, Lat : 69.7758384, Lng : 19.5489305, Q1 : 0.0870891883969, Q2 : -0.000363896106137, Q3 : 2.73956138699e-05, Q4 : 0.996200442314}
2019-09-29 18:29:41.39: SIM {TimeUS : 51828427, Roll : -0.03, Pitch : 0.03, Yaw : 170.0, Alt : 104.959999084, Lat : 69.7758384, Lng : 19.5489305, Q1 : 0.0870972722769, Q2 : -0.000338157668011, Q3 : -0.000308902439428, Q4 : 0.996199727058}
2019-09-29 18:29:41.49: SIM {TimeUS : 51928387, Roll : -0.05, Pitch : 0.03, Yaw : 170.0, Alt : 105.169998169, Lat : 69.7758384, Lng : 19.5489305, Q1 : 0.087106347084, Q2 : -0.000329615606461, Q3 : -0.000487083190819, Q4 : 0.996198832989}
2019-09-29 18:29:41.59: SIM {TimeUS : 52028347, Roll : -0.06, Pitch : 0.04, Yaw : 170.0, Alt : 105.370002747, Lat : 69.7758384, Lng : 19.5489305, Q1 : 0.0871134251356, Q2 : -0.0004100103979, Q3 : -0.000533304351848, Q4 : 0.996198177338}
2019-09-29 18:29:41.69: SIM {TimeUS : 52128307, Roll : -0.06, Pitch : 0.04, Yaw : 170.0, Alt : 105.550003052, Lat : 69.7758384, Lng : 19.5489304, Q1 : 0.0871195718646, Q2 : -0.000435003370512, Q3 : -0.000500567082781, Q4 : 0.996197640896}
2019-09-29 18:29:41.79: SIM {TimeUS : 52228267, Roll : -0.07, Pitch : 0.04, Yaw : 170.0, Alt : 105.730003357, Lat : 69.7758384, Lng : 19.5489304, Q1 : 0.0871240794659, Q2 : -0.000416089547798, Q3 : -0.00065585860284, Q4 : 0.996197164059}
2019-09-29 18:29:41.89: SIM {TimeUS : 52328227, Roll : -0.08, Pitch : 0.03, Yaw : 170.0, Alt : 105.900001526, Lat : 69.7758384, Lng : 19.5489304, Q1 : 0.0871279984713, Q2 : -0.000403656857088, Q3 : -0.000750685285311, Q4 : 0.996196746826}
2019-09-29 18:29:41.99: SIM {TimeUS : 52428187, Roll : -0.08, Pitch : 0.03, Yaw : 170.0, Alt : 106.050003052, Lat : 69.7758384, Lng : 19.5489304, Q1 : 0.0871299207211, Q2 : -0.000382936268579, Q3 : -0.000697440176737, Q4 : 0.996196687222}
2019-09-29 18:29:42.10: SIM {TimeUS : 52528980, Roll : -0.06, Pitch : 0.02, Yaw : 170.0, Alt : 106.199996948, Lat : 69.7758384, Lng : 19.5489304, Q1 : 0.0871325656772, Q2 : -0.000264195783529, Q3 : -0.000540402252227, Q4 : 0.996196568012}
2019-09-29 18:29:42.20: SIM {TimeUS : 52628940, Roll : -0.05, Pitch : 0.0, Yaw : 170.0, Alt : 106.330001831, Lat : 69.7758386, Lng : 19.5489304, Q1 : 0.0871349349618, Q2 : -5.71607088204e-05, Q3 : -0.000433635636, Q4 : 0.996196448803}
2019-09-29 18:29:42.30: SIM {TimeUS : 52728900, Roll : -0.04, Pitch : -0.01, Yaw : 170.0, Alt : 106.449996948, Lat : 69.7758386, Lng : 19.5489304, Q1 : 0.0871370285749, Q2 : 6.94997797837e-05, Q3 : -0.000431620137533, Q4 : 0.996196269989}
2019-09-29 18:29:42.40: SIM {TimeUS : 52828860, Roll : -0.03, Pitch : -0.01, Yaw : 170.0, Alt : 106.550003052, Lat : 69.7758386, Lng : 19.5489304, Q1 : 0.0871410742402, Q2 : 8.62834931468e-05, Q3 : -0.000351395632606, Q4 : 0.996195971966}
2019-09-29 18:29:42.50: SIM {TimeUS : 52928820, Roll : -0.02, Pitch : 0.01, Yaw : 170.0, Alt : 106.650001526, Lat : 69.7758386, Lng : 19.5489304, Q1 : 0.0871482342482, Q2 : -0.000135333015351, Q3 : -0.000223873794312, Q4 : 0.996195375919}
2019-09-29 18:29:42.60: SIM {TimeUS : 53028780, Roll : -0.02, Pitch : 0.04, Yaw : 169.99, Alt : 106.730003357, Lat : 69.7758386, Lng : 19.5489304, Q1 : 0.0871589258313, Q2 : -0.000414255453506, Q3 : -0.00022351538064, Q4 : 0.99619436264}
2019-09-29 18:29:42.70: SIM {TimeUS : 53128740, Roll : -0.03, Pitch : 0.05, Yaw : 169.99, Alt : 106.800003052, Lat : 69.7758386, Lng : 19.5489304, Q1 : 0.0871786773205, Q2 : -0.000513546227012, Q3 : -0.000274144607829, Q4 : 0.996192514896}
