2019-09-29 18:20:11.20: SIM {TimeUS : 40828662, Roll : 0.0, Pitch : 0.0, Yaw : 169.99, Alt : 87.0999984741, Lat : 69.7758389, Lng : 19.5489289, Q1 : 0.087155804038, Q2 : 0.0, Q3 : 0.0, Q4 : 0.996194720268}
2019-09-29 18:20:11.29: SIM {TimeUS : 40928622, Roll : 0.0, Pitch : 0.0, Yaw : 169.99, Alt : 87.0999984741, Lat : 69.7758389, Lng : 19.5489289, Q1 : 0.087155804038, Q2 : 0.0, Q3 : 0.0, Q4 : 0.996194720268}
2019-09-29 18:20:11.39: SIM {TimeUS : 41028582, Roll : 0.0, Pitch : 0.0, Yaw : 169.99, Alt : 87.0999984741, Lat : 69.7758389, Lng : 19.5489289, Q1 : 0.087155804038, Q2 : 0.0, Q3 : 0.0, Q4 : 0.996194720268}
2019-09-29 18:20:11.49: SIM {TimeUS : 41128542, Roll : 0.0, Pitch : 0.0, Yaw : 169.99, Alt : 87.0999984741, Lat : 69.7758389, Lng : 19.5489289, Q1 : 0.087155804038, Q2 : 0.0, Q3 : 0.0, Q4 : 0.996194720268}
2019-09-29 18:20:11.59: SIM {TimeUS : 41228502, Roll : 0.0, Pitch : 0.0, Yaw : 169.99, Alt : 87.0999984741, Lat : 69.7758389, Lng : 19.5489289, Q1 : 0.087155804038, Q2 : 0.0, Q3 : 0.0, Q4 : 0.996194720268}
2019-09-29 18:20:11.69: SIM {TimeUS : 41328462, Roll : 0.0, Pitch : 0.0, Yaw : 169.99, Alt : 87.0999984741, Lat : 69.7758389, Lng : 19.5489289, Q1 : 0.087155804038, Q2 : 0.0, Q3 : 0.0, Q4 : 0.996194720268}
2019-09-29 18:20:11.79: SIM {TimeUS : 41428422, Roll : 0.0, Pitch : 0.0, Yaw : 169.99, Alt : 87.0999984741, Lat : 69.7758389, Lng : 19.5489289, Q1 : 0.087155804038, Q2 : 0.0, Q3 : 0.0, Q4 : 0.996194720268}
2019-09-29 18:20:11.89: SIM {TimeUS : 41528382, Roll : 0.0, Pitch : 0.0, Yaw : 169.99, Alt : 87.0999984741, Lat : 69.7758389, Lng : 19.5489289, Q1 : 0.087155804038, Q2 : 0.0, Q3 : 0.0, Q4 : 0.996194720268}
2019-09-29 18:20:11.99: SIM {TimeUS : 41628342, Roll : 0.0, Pitch : 0.0, Yaw : 169.99, Alt : 87.0999984741, Lat : 69.7758389, Lng : 19.5489289, Q1 : 0.087155804038, Q2 : 0.0, Q3 : 0.0, Q4 : 0.996194720268}
2019-09-29 18:20:12.09: SIM {TimeUS : 41728302, Roll : 0.0, Pitch : 0.0, Yaw : 169.99, Alt : 87.0999984741, Lat : 69.7758389, Lng : 19.5489289, Q1 : 0.087155804038, Q2 : 0.0, Q3 : 0.0, Q4 : 0.996194720268}
2019-09-29 18:20:12.19: SIM {TimeUS : 41828262, Roll : 0.0, Pitch : 0.0, Yaw : 169.99, Alt : 87.0999984741, Lat : 69.7758389, Lng : 19.5489289, Q1 : 0.087155804038, Q2 : 0.0, Q3 : 0.0, Q4 : 0.996194720268}
2019-09-29 18:20:12.29: SIM {TimeUS : 41928222, Roll : 0.0, Pitch : 0.0, Yaw : 169.99, Alt : 87.0999984741, Lat : 69.7758389, Lng : 19.5489289, Q1 : 0.087155804038, Q2 : 0.0, Q3 : 0.0, Q4 : 0.996194720268}
2019-09-29 18:20:12.39: SIM {TimeUS : 42028182, Roll : 0.0, Pitch : 0.0, Yaw : 169.99, Alt : 87.0999984741, Lat : 69.7758389, Lng : 19.5489289, Q1 : 0.087155804038, Q2 : 0.0, Q3 : 0.0, Q4 : 0.996194720268}
2019-09-29 18:20:12.50: SIM {TimeUS : 42128975, Roll : 0.0, Pitch : 0.0, Yaw : 169.99, Alt : 87.0999984741, Lat : 69.7758389, Lng : 19.5489289, Q1 : 0.087155804038, Q2 : 0.0, Q3 : 0.0, Q4 : 0.996194720268}
2019-09-29 18:20:12.60: SIM {TimeUS : 42228935, Roll : 0.0, Pitch : 0.0, Yaw : 169.99, Alt : 87.0999984741, Lat : 69.7758389, Lng : 19.5489289, Q1 : 0.087155804038, Q2 : 0.0, Q3 : 0.0, Q4 : 0.996194720268}
2019-09-29 18:20:12.70: SIM {TimeUS : 42328895, Roll : 0.0, Pitch : 0.0, Yaw : 169.99, Alt : 87.0999984741, Lat : 69.7758389, Lng : 19.5489289, Q1 : 0.087155804038, Q2 : 0.0, Q3 : 0.0, Q4 : 0.996194720268}
2019-09-29 18:20:12.80: SIM {TimeUS : 42428855, Roll : 0.0, Pitch : 0.0, Yaw : 169.99, Alt : 87.0999984741, Lat : 69.7758389, Lng : 19.5489289, Q1 : 0.087155804038, Q2 : 0.0, Q3 : 0.0, Q4 : 0.996194720268}
2019-09-29 18:20:12.90: SIM {TimeUS : 42528815, Roll : 0.0, Pitch : 0.0, Yaw : 169.99, Alt : 87.0999984741, Lat : 69.7758389, Lng : 19.5489289, Q1 : 0.087155804038, Q2 : 0.0, Q3 : 0.0, Q4 : 0.996194720268}
2019-09-29 18:20:13.00: SIM {TimeUS : 42628775, Roll : 0.0, Pitch : 0.0, Yaw : 169.99, Alt : 87.0999984741, Lat : 69.7758389, Lng : 19.5489289, Q1 : 0.087155804038, Q2 : 0.0, Q3 : 0.0, Q4 : 0.996194720268}
2019-09-29 18:20:13.10: SIM {TimeUS : 42728735, Roll : 0.0, Pitch : 0.0, Yaw : 169.99, Alt : 87.0999984741, Lat : 69.7758389, Lng : 19.5489289, Q1 : 0.087155804038, Q2 : 0.0, Q3 : 0.0, Q4 : 0.996194720268}
2019-09-29 18:20:13.20: SIM {TimeUS : 42828695, Roll : 0.0, Pitch : 0.0, Yaw : 169.99, Alt : 87.0999984741, Lat : 69.7758389, Lng : 19.5489289, Q1 : 0.087155804038, Q2 : 0.0, Q3 : 0.0, Q4 : 0.996194720268}
2019-09-29 18:20:13.29: SIM {TimeUS : 42928655, Roll : 0.0, Pitch : 0.0, Yaw : 169.99, Alt : 87.0999984741, Lat : 69.7758389, Lng : 19.5489289, Q1 : 0.087155804038, Q2 : 0.0, Q3 : 0.0, Q4 : 0.996194720268}
2019-09-29 18:20:13.39: SIM {TimeUS : 43028615, Roll : 0.0, Pitch : 0.0, Yaw : 169.99, Alt : 87.0999984741, Lat : 69.7758389, Lng : 19.5489289, Q1 : 0.087155804038, Q2 : 0.0, Q3 : 0.0, Q4 : 0.996194720268}
2019-09-29 18:20:13.49: SIM {TimeUS : 43128575, Roll : 0.0, Pitch : 0.0, Yaw : 169.99, Alt : 87.0999984741, Lat : 69.7758389, Lng : 19.5489289, Q1 : 0.087155804038, Q2 : 0.0, Q3 : 0.0, Q4 : 0.996194720268}
2019-09-29 18:20:13.59: SIM {TimeUS : 43228535, Roll : 0.0, Pitch : 0.0, Yaw : 169.99, Alt : 87.0999984741, Lat : 69.7758389, Lng : 19.5489289, Q1 : 0.087155804038, Q2 : 0.0, Q3 : 0.0, Q4 : 0.996194720268}
2019-09-29 18:20:13.69: SIM {TimeUS : 43328495, Roll : 0.0, Pitch : 0.0, Yaw : 169.99, Alt : 87.0999984741, Lat : 69.7758389, Lng : 19.5489289, Q1 : 0.087155804038, Q2 : 0.0, Q3 : 0.0, Q4 : 0.996194720268}
2019-09-29 18:20:13.79: SIM {TimeUS : 43428455, Roll : 0.0, Pitch : 0.0, Yaw : 169.99, Alt : 87.0999984741, Lat : 69.7758389, Lng : 19.5489289, Q1 : 0.087155804038, Q2 : 0.0, Q3 : 0.0, Q4 : 0.996194720268}
2019-09-29 18:20:13.89: SIM {TimeUS : 43528415, Roll : 0.0, Pitch : 0.0, Yaw : 169.99, Alt : 87.0999984741, Lat : 69.7758389, Lng : 19.5489289, Q1 : 0.087155804038, Q2 : 0.0, Q3 : 0.0, Q4 : 0.996194720268}
2019-09-29 18:20:13.99: SIM {TimeUS : 43628375, Roll : 0.0, Pitch : 0.0, Yaw : 169.99, Alt : 87.1100006104, Lat : 69.7758389, Lng : 19.5489289, Q1 : 0.087155804038, Q2 : 0.0, Q3 : 0.0, Q4 : 0.996194720268}
2019-09-29 18:20:14.09: SIM {TimeUS : 43728335, Roll : 0.0, Pitch : 0.0, Yaw : 169.99, Alt : 87.1500015259, Lat : 69.7758389, Lng : 19.5489289, Q1 : 0.087155804038, Q2 : 0.0, Q3 : 0.0, Q4 : 0.996194720268}
2019-09-29 18:20:14.19: SIM {TimeUS : 43828295, Roll : 0.0, Pitch : 0.0, Yaw : 169.99, Alt : 87.1999969482, Lat : 69.7758389, Lng : 19.5489289, Q1 : 0.087155804038, Q2 : 0.0, Q3 : 0.0, Q4 : 0.996194720268}
2019-09-29 18:20:14.29: SIM {TimeUS : 43928255, Roll : -0.09, Pitch : -0.09, Yaw : 170.0, Alt : 87.2600021362, Lat : 69.7758389, Lng : 19.5489289, Q1 : 0.0871467068791, Q2 : 0.000762152601965, Q3 : -0.000872337666806, Q4 : 0.996194839478}
2019-09-29 18:20:14.39: SIM {TimeUS : 44028215, Roll : -0.32, Pitch : -0.3, Yaw : 170.0, Alt : 87.3799972534, Lat : 69.7758389, Lng : 19.5489289, Q1 : 0.0871126800776, Q2 : 0.00242795282975, Q3 : -0.00303426990286, Q4 : 0.996190905571}
2019-09-29 18:20:14.49: SIM {TimeUS : 44128175, Roll : -0.55, Pitch : -0.47, Yaw : 170.01, Alt : 87.5500030518, Lat : 69.7758389, Lng : 19.5489289, Q1 : 0.0870548263192, Q2 : 0.00373242632486, Q3 : -0.00514493044466, Q4 : 0.996183276176}
2019-09-29 18:20:14.60: SIM {TimeUS : 44228968, Roll : -0.67, Pitch : -0.55, Yaw : 170.02, Alt : 87.7399978638, Lat : 69.7758389, Lng : 19.5489289, Q1 : 0.0869773104787, Q2 : 0.00428670085967, Q3 : -0.00625146878883, Q4 : 0.996181488037}
2019-09-29 18:20:14.70: SIM {TimeUS : 44328928, Roll : -0.64, Pitch : -0.51, Yaw : 170.03, Alt : 87.9199981689, Lat : 69.7758389, Lng : 19.5489291, Q1 : 0.0868872627616, Q2 : 0.00401394255459, Q3 : -0.00598608609289, Q4 : 0.996192097664}
2019-09-29 18:20:14.80: SIM {TimeUS : 44428888, Roll : -0.5, Pitch : -0.41, Yaw : 170.04, Alt : 88.1100006104, Lat : 69.7758389, Lng : 19.5489292, Q1 : 0.0867945477366, Q2 : 0.00325452093966, Q3 : -0.00469485251233, Q4 : 0.996209859848}
2019-09-29 18:20:14.90: SIM {TimeUS : 44528848, Roll : -0.31, Pitch : -0.27, Yaw : 170.05, Alt : 88.2900009155, Lat : 69.7758389, Lng : 19.5489294, Q1 : 0.0867095440626, Q2 : 0.00215928256512, Q3 : -0.00291411578655, Q4 : 0.99622708559}
2019-09-29 18:20:15.00: SIM {TimeUS : 44628808, Roll : -0.13, Pitch : -0.11, Yaw : 170.05, Alt : 88.4800033569, Lat : 69.7758389, Lng : 19.5489295, Q1 : 0.0866387337446, Q2 : 0.000935392279644, Q3 : -0.00130590272602, Q4 : 0.996238529682}
2019-09-29 18:20:15.10: SIM {TimeUS : 44728768, Roll : -0.03, Pitch : 0.0, Yaw : 170.06, Alt : 88.6699981689, Lat : 69.7758389, Lng : 19.5489295, Q1 : 0.0865873247385, Q2 : 2.85820406134e-05, Q3 : -0.000302740954794, Q4 : 0.996244251728}
2019-09-29 18:20:15.20: SIM {TimeUS : 44828728, Roll : 0.0, Pitch : 0.03, Yaw : 170.06, Alt : 88.8700027466, Lat : 69.7758389, Lng : 19.5489298, Q1 : 0.086554504931, Q2 : -0.000320920924423, Q3 : 3.85878665838e-05, Q4 : 0.996247053146}
2019-09-29 18:20:15.30: SIM {TimeUS : 44928688, Roll : 0.0, Pitch : 0.03, Yaw : 170.07, Alt : 89.0699996948, Lat : 69.7758388, Lng : 19.5489298, Q1 : 0.0865409821272, Q2 : -0.000285105081275, Q3 : -5.93295590079e-06, Q4 : 0.996248245239}
2019-09-29 18:20:15.39: SIM {TimeUS : 45028648, Roll : -0.01, Pitch : 0.01, Yaw : 170.07, Alt : 89.2799987793, Lat : 69.7758388, Lng : 19.54893, Q1 : 0.0865423604846, Q2 : -0.000119003845612, Q3 : -0.000147211176227, Q4 : 0.996248185635}
2019-09-29 18:20:15.49: SIM {TimeUS : 45128608, Roll : 0.0, Pitch : -0.01, Yaw : 170.06, Alt : 89.4800033569, Lat : 69.7758388, Lng : 19.5489301, Q1 : 0.0865551903844, Q2 : 0.000143525903695, Q3 : -3.81201680284e-05, Q4 : 0.996247053146}
2019-09-29 18:20:15.59: SIM {TimeUS : 45228568, Roll : 0.02, Pitch : -0.03, Yaw : 170.06, Alt : 89.6900024414, Lat : 69.7758388, Lng : 19.5489301, Q1 : 0.0865727961063, Q2 : 0.000335983699188, Q3 : 0.000219388035475, Q4 : 0.996245443821}
2019-09-29 18:20:15.69: SIM {TimeUS : 45328528, Roll : 0.09, Pitch : -0.01, Yaw : 170.06, Alt : 89.8899993896, Lat : 69.7758387, Lng : 19.5489303, Q1 : 0.0865887030959, Q2 : 0.000185503697139, Q3 : 0.00079117884161, Q4 : 0.996243834496}
2019-09-29 18:20:15.79: SIM {TimeUS : 45428488, Roll : 0.18, Pitch : 0.05, Yaw : 170.06, Alt : 90.0999984741, Lat : 69.7758387, Lng : 19.5489304, Q1 : 0.0866056680679, Q2 : -0.000327093759552, Q3 : 0.00161871314049, Q4 : 0.996241271496}
2019-09-29 18:20:15.89: SIM {TimeUS : 45528448, Roll : 0.23, Pitch : 0.12, Yaw : 170.06, Alt : 90.3099975586, Lat : 69.7758387, Lng : 19.5489304, Q1 : 0.0866246670485, Q2 : -0.00092483748449, Q3 : 0.00215988536365, Q4 : 0.996238231659}
2019-09-29 18:20:15.99: SIM {TimeUS : 45628408, Roll : 0.24, Pitch : 0.17, Yaw : 170.05, Alt : 90.5199966431, Lat : 69.7758387, Lng : 19.5489305, Q1 : 0.0866470783949, Q2 : -0.0013732459629, Q3 : 0.00222915131599, Q4 : 0.996235668659}
2019-09-29 18:20:16.09: SIM {TimeUS : 45728368, Roll : 0.21, Pitch : 0.18, Yaw : 170.05, Alt : 90.7399978638, Lat : 69.7758387, Lng : 19.5489305, Q1 : 0.0866743698716, Q2 : -0.00147067627404, Q3 : 0.0020044890698, Q4 : 0.996233582497}
2019-09-29 18:20:16.19: SIM {TimeUS : 45828328, Roll : 0.16, Pitch : 0.15, Yaw : 170.05, Alt : 90.9499969482, Lat : 69.7758387, Lng : 19.5489305, Q1 : 0.0866866409779, Q2 : -0.00123632699251, Q3 : 0.00155514467042, Q4 : 0.996233701706}
2019-09-29 18:20:16.29: SIM {TimeUS : 45928288, Roll : 0.11, Pitch : 0.09, Yaw : 170.05, Alt : 91.1600036621, Lat : 69.7758387, Lng : 19.5489305, Q1 : 0.086695715785, Q2 : -0.000755769491661, Q3 : 0.00108538835775, Q4 : 0.996233940125}
2019-09-29 18:20:16.39: SIM {TimeUS : 46028248, Roll : 0.07, Pitch : 0.02, Yaw : 170.05, Alt : 91.3799972534, Lat : 69.7758387, Lng : 19.5489305, Q1 : 0.0866959691048, Q2 : -0.000134676156449, Q3 : 0.000681967590936, Q4 : 0.996234595776}
2019-09-29 18:20:16.49: SIM {TimeUS : 46128208, Roll : 0.06, Pitch : -0.02, Yaw : 170.05, Alt : 91.5999984741, Lat : 69.7758386, Lng : 19.5489305, Q1 : 0.0866920277476, Q2 : 0.000261061824858, Q3 : 0.000506879761815, Q4 : 0.996235013008}
2019-09-29 18:20:16.59: SIM {TimeUS : 46228168, Roll : 0.07, Pitch : -0.02, Yaw : 170.05, Alt : 91.8099975586, Lat : 69.7758386, Lng : 19.5489305, Q1 : 0.0866787210107, Q2 : 0.000277489685686, Q3 : 0.000635996460915, Q4 : 0.996236085892}
2019-09-29 18:20:16.70: SIM {TimeUS : 46328961, Roll : 0.08, Pitch : -0.01, Yaw : 170.05, Alt : 92.0299987793, Lat : 69.7758386, Lng : 19.5489305, Q1 : 0.0866577774286, Q2 : 0.000200220150873, Q3 : 0.00076402456034, Q4 : 0.996237814426}
2019-09-29 18:20:16.80: SIM {TimeUS : 46428921, Roll : 0.07, Pitch : -0.01, Yaw : 170.05, Alt : 92.25, Lat : 69.7758386, Lng : 19.5489305, Q1 : 0.0866381675005, Q2 : 0.000204136886168, Q3 : 0.000610815768596, Q4 : 0.99623966217}
2019-09-29 18:20:16.90: SIM {TimeUS : 46528881, Roll : 0.03, Pitch : -0.03, Yaw : 170.06, Alt : 92.4700012207, Lat : 69.7758386, Lng : 19.5489305, Q1 : 0.0866268947721, Q2 : 0.000347538414644, Q3 : 0.000319076731103, Q4 : 0.996240735054}
2019-09-29 18:20:17.00: SIM {TimeUS : 46628841, Roll : 0.03, Pitch : -0.06, Yaw : 170.06, Alt : 92.6900024414, Lat : 69.7758386, Lng : 19.5489305, Q1 : 0.0866259485483, Q2 : 0.000577369472012, Q3 : 0.000241963847657, Q4 : 0.996240735054}
2019-09-29 18:20:17.10: SIM {TimeUS : 46728801, Roll : 0.04, Pitch : -0.09, Yaw : 170.06, Alt : 92.9100036621, Lat : 69.7758386, Lng : 19.5489305, Q1 : 0.0866312757134, Q2 : 0.000856272468809, Q3 : 0.000300164450891, Q4 : 0.996240019798}
2019-09-29 18:20:17.20: SIM {TimeUS : 46828761, Roll : 0.03, Pitch : -0.11, Yaw : 170.06, Alt : 93.1399993896, Lat : 69.7758386, Lng : 19.5489305, Q1 : 0.0866327062249, Q2 : 0.000993204885162, Q3 : 0.000205640608328, Q4 : 0.99623978138}
2019-09-29 18:20:17.30: SIM {TimeUS : 46928721, Roll : 0.01, Pitch : -0.11, Yaw : 170.06, Alt : 93.3600006104, Lat : 69.7758386, Lng : 19.5489305, Q1 : 0.0866327136755, Q2 : 0.00102983764373, Q3 : 2.15684776776e-05, Q4 : 0.99623978138}
2019-09-29 18:20:17.40: SIM {TimeUS : 47028681, Roll : 0.0, Pitch : -0.08, Yaw : 170.05, Alt : 93.5800018311, Lat : 69.7758386, Lng : 19.5489305, Q1 : 0.0866465345025, Q2 : 0.000751248386223, Q3 : -6.44161264063e-05, Q4 : 0.996238827705}
2019-09-29 18:20:17.49: SIM {TimeUS : 47128641, Roll : -0.01, Pitch : -0.03, Yaw : 170.05, Alt : 93.8099975586, Lat : 69.7758386, Lng : 19.5489305, Q1 : 0.0866722762585, Q2 : 0.000322255829815, Q3 : -0.000124067213619, Q4 : 0.996236801147}
2019-09-29 18:20:17.59: SIM {TimeUS : 47228601, Roll : -0.02, Pitch : -0.01, Yaw : 170.05, Alt : 94.0299987793, Lat : 69.7758386, Lng : 19.5489305, Q1 : 0.0866859778762, Q2 : 0.000107363113784, Q3 : -0.000225114024943, Q4 : 0.996235668659}
2019-09-29 18:20:17.69: SIM {TimeUS : 47328561, Roll : -0.02, Pitch : 0.01, Yaw : 170.05, Alt : 94.2600021362, Lat : 69.7758386, Lng : 19.5489305, Q1 : 0.0866980701685, Q2 : -0.00011392984743, Q3 : -0.000218596498598, Q4 : 0.996234595776}
2019-09-29 18:20:17.79: SIM {TimeUS : 47428521, Roll : 0.0, Pitch : 0.01, Yaw : 170.05, Alt : 94.4899978638, Lat : 69.7758386, Lng : 19.5489305, Q1 : 0.0867119282484, Q2 : -0.000138824965688, Q3 : -5.91407952015e-05, Q4 : 0.996233403683}
2019-09-29 18:20:17.89: SIM {TimeUS : 47528481, Roll : 0.04, Pitch : -0.01, Yaw : 170.04, Alt : 94.7200012207, Lat : 69.7758386, Lng : 19.5489305, Q1 : 0.086725667119, Q2 : 0.000168201993802, Q3 : 0.000343037303537, Q4 : 0.99623221159}
2019-09-29 18:20:17.99: SIM {TimeUS : 47628441, Roll : 0.07, Pitch : -0.04, Yaw : 170.04, Alt : 94.9400024414, Lat : 69.7758386, Lng : 19.5489305, Q1 : 0.0867372602224, Q2 : 0.000476816436276, Q3 : 0.000579586136155, Q4 : 0.996230959892}
2019-09-29 18:20:18.09: SIM {TimeUS : 47728401, Roll : 0.07, Pitch : -0.06, Yaw : 170.04, Alt : 95.1699981689, Lat : 69.7758386, Lng : 19.5489305, Q1 : 0.086747199297, Q2 : 0.000624404696282, Q3 : 0.000561028835364, Q4 : 0.996230006218}
2019-09-29 18:20:18.19: SIM {TimeUS : 47828361, Roll : 0.03, Pitch : -0.06, Yaw : 170.04, Alt : 95.4000015259, Lat : 69.7758386, Lng : 19.5489305, Q1 : 0.0867546722293, Q2 : 0.000589178409427, Q3 : 0.000243137677899, Q4 : 0.996229529381}
2019-09-29 18:20:18.29: SIM {TimeUS : 47928321, Roll : 0.0, Pitch : -0.06, Yaw : 170.04, Alt : 95.6299972534, Lat : 69.7758386, Lng : 19.5489305, Q1 : 0.0867615789175, Q2 : 0.000564539455809, Q3 : 2.8768025004e-05, Q4 : 0.996228933334}
2019-09-29 18:20:18.39: SIM {TimeUS : 48028281, Roll : 0.0, Pitch : -0.07, Yaw : 170.04, Alt : 95.8600006104, Lat : 69.7758386, Lng : 19.5489305, Q1 : 0.086765922606, Q2 : 0.000665940111503, Q3 : 2.13015264308e-05, Q4 : 0.996228516102}
2019-09-29 18:20:18.49: SIM {TimeUS : 48128241, Roll : 0.0, Pitch : -0.07, Yaw : 170.04, Alt : 96.0899963379, Lat : 69.7758386, Lng : 19.5489305, Q1 : 0.086766898632, Q2 : 0.000648959015962, Q3 : -1.01279683804e-05, Q4 : 0.996228456497}
2019-09-29 18:20:18.59: SIM {TimeUS : 48228201, Roll : 0.0, Pitch : -0.07, Yaw : 170.04, Alt : 96.3199996948, Lat : 69.7758386, Lng : 19.5489305, Q1 : 0.0867727026343, Q2 : 0.00064910860965, Q3 : -5.4943615396e-05, Q4 : 0.996227920055}
2019-09-29 18:20:18.69: SIM {TimeUS : 48328161, Roll : -0.01, Pitch : -0.06, Yaw : 170.04, Alt : 96.5500030518, Lat : 69.7758384, Lng : 19.5489305, Q1 : 0.086777344346, Q2 : 0.000557663384825, Q3 : -0.000171174280695, Q4 : 0.996227562428}
2019-09-29 18:20:18.80: SIM {TimeUS : 48428954, Roll : -0.03, Pitch : -0.05, Yaw : 170.04, Alt : 96.7900009155, Lat : 69.7758384, Lng : 19.5489305, Q1 : 0.0867816060781, Q2 : 0.000446893449407, Q3 : -0.000334670592565, Q4 : 0.9962272048}
2019-09-29 18:20:18.90: SIM {TimeUS : 48528914, Roll : -0.05, Pitch : -0.02, Yaw : 170.04, Alt : 97.0199966431, Lat : 69.7758384, Lng : 19.5489305, Q1 : 0.0867877826095, Q2 : 0.000215142586967, Q3 : -0.000506659620441, Q4 : 0.996226727962}
2019-09-29 18:20:19.00: SIM {TimeUS : 48628874, Roll : -0.07, Pitch : -0.01, Yaw : 170.04, Alt : 97.25, Lat : 69.7758384, Lng : 19.5489305, Q1 : 0.0867899134755, Q2 : 6.91173627274e-05, Q3 : -0.000645920459647, Q4 : 0.996226429939}
2019-09-29 18:20:19.10: SIM {TimeUS : 48728834, Roll : -0.08, Pitch : 0.0, Yaw : 170.04, Alt : 97.4800033569, Lat : 69.7758384, Lng : 19.5489305, Q1 : 0.0867912992835, Q2 : -6.08608843322e-06, Q3 : -0.000763084797654, Q4 : 0.996226251125}
2019-09-29 18:20:19.20: SIM {TimeUS : 48828794, Roll : -0.09, Pitch : 0.0, Yaw : 170.04, Alt : 97.7200012207, Lat : 69.7758384, Lng : 19.5489305, Q1 : 0.0867947340012, Q2 : 1.60261042765e-05, Q3 : -0.00081377470633, Q4 : 0.996225953102}
2019-09-29 18:20:19.30: SIM {TimeUS : 48928754, Roll : -0.06, Pitch : -0.03, Yaw : 170.04, Alt : 97.9499969482, Lat : 69.7758384, Lng : 19.5489305, Q1 : 0.086805716157, Q2 : 0.000274381221971, Q3 : -0.000597266538534, Q4 : 0.996225059032}
2019-09-29 18:20:19.40: SIM {TimeUS : 49028714, Roll : -0.01, Pitch : -0.06, Yaw : 170.03, Alt : 98.1800003052, Lat : 69.7758384, Lng : 19.5489305, Q1 : 0.0868248641491, Q2 : 0.000536369218025, Q3 : -0.00021571094112, Q4 : 0.996223390102}
2019-09-29 18:20:19.50: SIM {TimeUS : 49128674, Roll : 0.03, Pitch : -0.07, Yaw : 170.03, Alt : 98.4199981689, Lat : 69.7758384, Lng : 19.5489305, Q1 : 0.0868356525898, Q2 : 0.000691205787007, Q3 : 0.000226181058679, Q4 : 0.996222376823}
2019-09-29 18:20:19.59: SIM {TimeUS : 49228634, Roll : 0.07, Pitch : -0.06, Yaw : 170.03, Alt : 98.6500015259, Lat : 69.7758384, Lng : 19.5489305, Q1 : 0.0868347063661, Q2 : 0.000584214751143, Q3 : 0.000573230208829, Q4 : 0.996222376823}
2019-09-29 18:20:19.69: SIM {TimeUS : 49328594, Roll : 0.09, Pitch : -0.03, Yaw : 170.03, Alt : 98.8899993896, Lat : 69.7758384, Lng : 19.5489305, Q1 : 0.0868330746889, Q2 : 0.000383770355256, Q3 : 0.000756857625674, Q4 : 0.996222496033}
2019-09-29 18:20:19.79: SIM {TimeUS : 49428554, Roll : 0.07, Pitch : -0.02, Yaw : 170.03, Alt : 99.1200027466, Lat : 69.7758384, Lng : 19.5489305, Q1 : 0.0868402719498, Q2 : 0.000230864650803, Q3 : 0.000593707314692, Q4 : 0.9962220788}
2019-09-29 18:20:19.89: SIM {TimeUS : 49528514, Roll : 0.03, Pitch : -0.02, Yaw : 170.03, Alt : 99.3499984741, Lat : 69.7758384, Lng : 19.5489305, Q1 : 0.0868485197425, Q2 : 0.000206319295103, Q3 : 0.000263276131591, Q4 : 0.996221482754}
2019-09-29 18:20:19.99: SIM {TimeUS : 49628474, Roll : 0.0, Pitch : -0.04, Yaw : 170.03, Alt : 99.5899963379, Lat : 69.7758384, Lng : 19.5489305, Q1 : 0.086859472096, Q2 : 0.000410859502153, Q3 : -3.13455639116e-05, Q4 : 0.996220529079}
2019-09-29 18:20:20.09: SIM {TimeUS : 49728434, Roll : -0.02, Pitch : -0.06, Yaw : 170.03, Alt : 99.8199996948, Lat : 69.7758384, Lng : 19.5489305, Q1 : 0.086878746748, Q2 : 0.000569835479837, Q3 : -0.00025328702759, Q4 : 0.99621874094}
2019-09-29 18:20:20.19: SIM {TimeUS : 49828394, Roll : -0.04, Pitch : -0.03, Yaw : 170.02, Alt : 100.059997559, Lat : 69.7758384, Lng : 19.5489305, Q1 : 0.0869165584445, Q2 : 0.000285021931631, Q3 : -0.000430732150562, Q4 : 0.996215462685}
2019-09-29 18:20:20.29: SIM {TimeUS : 49928354, Roll : -0.06, Pitch : 0.04, Yaw : 170.02, Alt : 100.300003052, Lat : 69.7758384, Lng : 19.5489305, Q1 : 0.0869462788105, Q2 : -0.000412258174038, Q3 : -0.000556883460376, Q4 : 0.996212780476}
2019-09-29 18:20:20.39: SIM {TimeUS : 50028314, Roll : -0.06, Pitch : 0.1, Yaw : 170.02, Alt : 100.529998779, Lat : 69.7758384, Lng : 19.5489305, Q1 : 0.0869661122561, Q2 : -0.00096096622292, Q3 : -0.000465480756247, Q4 : 0.996210753918}
2019-09-29 18:20:20.49: SIM {TimeUS : 50128274, Roll : -0.03, Pitch : 0.11, Yaw : 170.02, Alt : 100.769996643, Lat : 69.7758384, Lng : 19.5489305, Q1 : 0.086977891624, Q2 : -0.00106333603617, Q3 : -0.000215414969716, Q4 : 0.996209621429}
2019-09-29 18:20:20.59: SIM {TimeUS : 50228234, Roll : -0.01, Pitch : 0.09, Yaw : 170.01, Alt : 101.0, Lat : 69.7758384, Lng : 19.5489305, Q1 : 0.0869856923819, Q2 : -0.000831473094877, Q3 : -5.14625935466e-05, Q4 : 0.996209204197}
2019-09-29 18:20:20.69: SIM {TimeUS : 50328194, Roll : 0.0, Pitch : 0.04, Yaw : 170.01, Alt : 101.239997864, Lat : 69.7758384, Lng : 19.5489305, Q1 : 0.0869924500585, Q2 : -0.000421668140916, Q3 : 1.96535056602e-05, Q4 : 0.996208906174}
2019-09-29 18:20:20.79: SIM {TimeUS : 50428154, Roll : 0.0, Pitch : -0.02, Yaw : 170.01, Alt : 101.480003357, Lat : 69.7758384, Lng : 19.5489305, Q1 : 0.0869913473725, Q2 : 0.000211537029827, Q3 : -2.18362911255e-05, Q4 : 0.996209025383}
2019-09-29 18:20:20.90: SIM {TimeUS : 50528947, Roll : 0.0, Pitch : -0.09, Yaw : 170.01, Alt : 101.709999084, Lat : 69.7758384, Lng : 19.5489305, Q1 : 0.0869903340936, Q2 : 0.000794588762801, Q3 : -3.51237249561e-05, Q4 : 0.996208846569}
2019-09-29 18:20:21.00: SIM {TimeUS : 50628907, Roll : 0.0, Pitch : -0.12, Yaw : 170.01, Alt : 101.949996948, Lat : 69.7758384, Lng : 19.5489305, Q1 : 0.0869928225875, Q2 : 0.00106883305125, Q3 : -0.000155684843776, Q4 : 0.996208369732}
2019-09-29 18:20:21.10: SIM {TimeUS : 50728867, Roll : -0.01, Pitch : -0.1, Yaw : 170.01, Alt : 102.190002441, Lat : 69.7758384, Lng : 19.5489305, Q1 : 0.0869997888803, Q2 : 0.000885696848854, Q3 : -0.000185273573152, Q4 : 0.996207892895}
2019-09-29 18:20:21.20: SIM {TimeUS : 50828827, Roll : -0.01, Pitch : -0.03, Yaw : 170.01, Alt : 102.430000305, Lat : 69.7758384, Lng : 19.5489305, Q1 : 0.0870220810175, Q2 : 0.000258428830421, Q3 : -0.000177186506335, Q4 : 0.996206343174}
2019-09-29 18:20:21.30: SIM {TimeUS : 50928787, Roll : 0.0, Pitch : 0.06, Yaw : 170.01, Alt : 102.660003662, Lat : 69.7758384, Lng : 19.5489305, Q1 : 0.08703687042, Q2 : -0.000548892596271, Q3 : 9.64127102634e-05, Q4 : 0.996204972267}
2019-09-29 18:20:21.40: SIM {TimeUS : 51028747, Roll : 0.04, Pitch : 0.11, Yaw : 170.01, Alt : 102.900001526, Lat : 69.7758384, Lng : 19.5489305, Q1 : 0.0870439112186, Q2 : -0.000994482543319, Q3 : 0.000509410339873, Q4 : 0.996203839779}
2019-09-29 18:20:21.50: SIM {TimeUS : 51128707, Roll : 0.07, Pitch : 0.11, Yaw : 170.01, Alt : 103.13999939, Lat : 69.7758384, Lng : 19.5489305, Q1 : 0.0870454907417, Q2 : -0.000908751680981, Q3 : 0.000729136227164, Q4 : 0.996203660965}
2019-09-29 18:20:21.60: SIM {TimeUS : 51228667, Roll : 0.09, Pitch : 0.05, Yaw : 170.01, Alt : 103.370002747, Lat : 69.7758384, Lng : 19.5489305, Q1 : 0.0870474502444, Q2 : -0.00044628258911, Q3 : 0.000848024152219, Q4 : 0.99620372057}
2019-09-29 18:20:21.69: SIM {TimeUS : 51328627, Roll : 0.11, Pitch : 0.01, Yaw : 170.01, Alt : 103.61000061, Lat : 69.7758384, Lng : 19.5489305, Q1 : 0.0870482325554, Q2 : -3.64598531633e-06, Q3 : 0.00104263774119, Q4 : 0.996203541756}
2019-09-29 18:20:21.79: SIM {TimeUS : 51428587, Roll : 0.12, Pitch : -0.01, Yaw : 170.01, Alt : 103.839996338, Lat : 69.7758384, Lng : 19.5489305, Q1 : 0.0870513394475, Q2 : 0.000228578210226, Q3 : 0.00109760113992, Q4 : 0.996203243732}
2019-09-29 18:20:21.89: SIM {TimeUS : 51528547, Roll : 0.09, Pitch : 0.0, Yaw : 170.01, Alt : 104.069999695, Lat : 69.7758384, Lng : 19.5489305, Q1 : 0.0870563685894, Q2 : 7.73544961703e-05, Q3 : 0.000852724711876, Q4 : 0.996203005314}
2019-09-29 18:20:21.99: SIM {TimeUS : 51628507, Roll : 0.04, Pitch : 0.02, Yaw : 170.01, Alt : 104.300003052, Lat : 69.7758384, Lng : 19.5489305, Q1 : 0.0870617851615, Q2 : -0.00017164266319, Q3 : 0.000436727423221, Q4 : 0.9962028265}
2019-09-29 18:20:22.09: SIM {TimeUS : 51728467, Roll : 0.0, Pitch : 0.03, Yaw : 170.0, Alt : 104.519996643, Lat : 69.7758384, Lng : 19.5489305, Q1 : 0.0870688334107, Q2 : -0.000307941489154, Q3 : 1.6536892872e-05, Q4 : 0.996202230453}
2019-09-29 18:20:22.19: SIM {TimeUS : 51828427, Roll : -0.04, Pitch : 0.03, Yaw : 170.0, Alt : 104.739997864, Lat : 69.7758384, Lng : 19.5489305, Q1 : 0.0870771184564, Q2 : -0.000306118978187, Q3 : -0.000328987458488, Q4 : 0.996201455593}
2019-09-29 18:20:22.29: SIM {TimeUS : 51928387, Roll : -0.06, Pitch : 0.03, Yaw : 170.0, Alt : 104.959999084, Lat : 69.7758384, Lng : 19.5489305, Q1 : 0.0870893597603, Q2 : -0.000321967090713, Q3 : -0.000518462911714, Q4 : 0.996200323105}
2019-09-29 18:20:22.39: SIM {TimeUS : 52028347, Roll : -0.06, Pitch : 0.04, Yaw : 170.0, Alt : 105.160003662, Lat : 69.7758384, Lng : 19.5489305, Q1 : 0.0871049538255, Q2 : -0.000421129196184, Q3 : -0.000571449694689, Q4 : 0.996198892593}
2019-09-29 18:20:22.49: SIM {TimeUS : 52128307, Roll : -0.06, Pitch : 0.04, Yaw : 170.0, Alt : 105.36000061, Lat : 69.7758384, Lng : 19.5489305, Q1 : 0.0871201306581, Q2 : -0.000473719934234, Q3 : -0.000545466667973, Q4 : 0.996197581291}
2019-09-29 18:20:22.59: SIM {TimeUS : 52228267, Roll : -0.06, Pitch : 0.03, Yaw : 170.0, Alt : 105.550003052, Lat : 69.7758384, Lng : 19.5489305, Q1 : 0.0871332511306, Q2 : -0.000348327885149, Q3 : -0.000572081422433, Q4 : 0.996196448803}
2019-09-29 18:20:22.69: SIM {TimeUS : 52328227, Roll : -0.07, Pitch : 0.02, Yaw : 170.0, Alt : 105.730003357, Lat : 69.7758384, Lng : 19.5489305, Q1 : 0.0871448367834, Q2 : -0.000239468325162, Q3 : -0.000647196080536, Q4 : 0.996195435524}
2019-09-29 18:20:22.79: SIM {TimeUS : 52428187, Roll : -0.08, Pitch : 0.01, Yaw : 170.0, Alt : 105.88999939, Lat : 69.7758384, Lng : 19.5489305, Q1 : 0.0871537923813, Q2 : -0.000236877167481, Q3 : -0.000710134394467, Q4 : 0.996194601059}
2019-09-29 18:20:22.90: SIM {TimeUS : 52528980, Roll : -0.07, Pitch : 0.01, Yaw : 169.99, Alt : 106.050003052, Lat : 69.7758384, Lng : 19.5489305, Q1 : 0.087157420814, Q2 : -0.000185031065485, Q3 : -0.000642818165943, Q4 : 0.99619436264}
2019-09-29 18:20:23.00: SIM {TimeUS : 52628940, Roll : -0.06, Pitch : 0.0, Yaw : 169.99, Alt : 106.190002441, Lat : 69.7758386, Lng : 19.5489304, Q1 : 0.0871566534042, Q2 : -3.3434425859e-05, Q3 : -0.000543791800737, Q4 : 0.996194541454}
2019-09-29 18:20:23.10: SIM {TimeUS : 52728900, Roll : -0.05, Pitch : -0.01, Yaw : 169.99, Alt : 106.319999695, Lat : 69.7758386, Lng : 19.5489304, Q1 : 0.0871575474739, Q2 : 4.51956875622e-05, Q3 : -0.000506344134919, Q4 : 0.996194422245}
2019-09-29 18:20:23.20: SIM {TimeUS : 52828860, Roll : -0.04, Pitch : 0.0, Yaw : 169.99, Alt : 106.440002441, Lat : 69.7758386, Lng : 19.5489304, Q1 : 0.0871620774269, Q2 : 4.62369716843e-05, Q3 : -0.000365502113709, Q4 : 0.996194064617}
2019-09-29 18:20:23.30: SIM {TimeUS : 52928820, Roll : -0.02, Pitch : 0.02, Yaw : 169.99, Alt : 106.550003052, Lat : 69.7758386, Lng : 19.5489305, Q1 : 0.0871672853827, Q2 : -0.000198148045456, Q3 : -0.000169936407474, Q4 : 0.996193647385}
2019-09-29 18:20:23.40: SIM {TimeUS : 53028780, Roll : -0.01, Pitch : 0.05, Yaw : 169.99, Alt : 106.63999939, Lat : 69.7758386, Lng : 19.5489305, Q1 : 0.0871739834547, Q2 : -0.000504484865814, Q3 : -0.000116193950817, Q4 : 0.996192932129}
2019-09-29 18:20:23.50: SIM {TimeUS : 53128740, Roll : -0.01, Pitch : 0.06, Yaw : 169.99, Alt : 106.730003357, Lat : 69.7758386, Lng : 19.5489305, Q1 : 0.0871820226312, Q2 : -0.000570534612052, Q3 : -0.000115995455417, Q4 : 0.996192276478}
2019-09-29 18:20:23.60: SIM {TimeUS : 53228700, Roll : -0.02, Pitch : 0.03, Yaw : 169.99, Alt : 106.800003052, Lat : 69.7758386, Lng : 19.5489305, Q1 : 0.0871850699186, Q2 : -0.000330411683535, Q3 : -0.000183717798791, Q4 : 0.996192038059}
2019-09-29 18:20:23.69: SIM {TimeUS : 53328660, Roll : -0.03, Pitch : 0.0, Yaw : 169.99, Alt : 106.86000061, Lat : 69.7758386, Lng : 19.5489305, Q1 : 0.0871891155839, Q2 : 4.06369110806e-07, Q3 : -0.000287303875666, Q4 : 0.996191740036}
2019-09-29 18:20:23.79: SIM {TimeUS : 53428620, Roll : -0.03, Pitch : -0.04, Yaw : 169.99, Alt : 106.919998169, Lat : 69.7758386, Lng : 19.5489305, Q1 : 0.0871984213591, Q2 : 0.000385002233088, Q3 : -0.000335264980095, Q4 : 0.996190845966}
2019-09-29 18:20:23.89: SIM {TimeUS : 53528580, Roll : -0.02, Pitch : -0.06, Yaw : 169.99, Alt : 106.959999084, Lat : 69.7758386, Lng : 19.5489305, Q1 : 0.087218567729, Q2 : 0.000532860693056, Q3 : -0.000287719274638, Q4 : 0.996189057827}
