2019-04-14 18:58:40.00: SIM {TimeUS : 40016487, Roll : 0.0, Pitch : 0.0, Yaw : 0.0, Alt : 30.1000003815, Lat : 49.28357, Lng : -123.11502, Q1 : 1.0, Q2 : 0.0, Q3 : 0.0, Q4 : 0.0}
2019-04-14 18:58:40.11: SIM {TimeUS : 40135606, Roll : 0.0, Pitch : 0.0, Yaw : 0.0, Alt : 30.1000003815, Lat : 49.28357, Lng : -123.11502, Q1 : 1.0, Q2 : 0.0, Q3 : 0.0, Q4 : 0.0}
2019-04-14 18:58:40.21: SIM {TimeUS : 40235566, Roll : 0.0, Pitch : 0.0, Yaw : 0.0, Alt : 30.1000003815, Lat : 49.28357, Lng : -123.11502, Q1 : 1.0, Q2 : 0.0, Q3 : 0.0, Q4 : 0.0}
2019-04-14 18:58:40.31: SIM {TimeUS : 40335526, Roll : 0.0, Pitch : 0.0, Yaw : 0.0, Alt : 30.1000003815, Lat : 49.28357, Lng : -123.11502, Q1 : 1.0, Q2 : 0.0, Q3 : 0.0, Q4 : 0.0}
2019-04-14 18:58:40.41: SIM {TimeUS : 40435486, Roll : 0.0, Pitch : 0.0, Yaw : 0.0, Alt : 30.1000003815, Lat : 49.28357, Lng : -123.11502, Q1 : 1.0, Q2 : 0.0, Q3 : 0.0, Q4 : 0.0}
2019-04-14 18:58:40.51: SIM {TimeUS : 40535446, Roll : 0.0, Pitch : 0.0, Yaw : 0.0, Alt : 30.1000003815, Lat : 49.28357, Lng : -123.11502, Q1 : 1.0, Q2 : 0.0, Q3 : 0.0, Q4 : 0.0}
2019-04-14 18:58:40.61: SIM {TimeUS : 40635406, Roll : 0.0, Pitch : 0.0, Yaw : 0.0, Alt : 30.1000003815, Lat : 49.28357, Lng : -123.11502, Q1 : 1.0, Q2 : 0.0, Q3 : 0.0, Q4 : 0.0}
2019-04-14 18:58:40.71: SIM {TimeUS : 40735366, Roll : 0.0, Pitch : 0.0, Yaw : 0.0, Alt : 30.1000003815, Lat : 49.28357, Lng : -123.11502, Q1 : 1.0, Q2 : 0.0, Q3 : 0.0, Q4 : 0.0}
2019-04-14 18:58:40.81: SIM {TimeUS : 40835326, Roll : 0.0, Pitch : 0.0, Yaw : 0.0, Alt : 30.1000003815, Lat : 49.28357, Lng : -123.11502, Q1 : 1.0, Q2 : 0.0, Q3 : 0.0, Q4 : 0.0}
2019-04-14 18:58:40.91: SIM {TimeUS : 40935286, Roll : 0.0, Pitch : 0.0, Yaw : 0.0, Alt : 30.1000003815, Lat : 49.28357, Lng : -123.11502, Q1 : 1.0, Q2 : 0.0, Q3 : 0.0, Q4 : 0.0}
2019-04-14 18:58:41.01: SIM {TimeUS : 41035246, Roll : 0.0, Pitch : 0.0, Yaw : 0.0, Alt : 30.1000003815, Lat : 49.28357, Lng : -123.11502, Q1 : 1.0, Q2 : 0.0, Q3 : 0.0, Q4 : 0.0}
2019-04-14 18:58:41.11: SIM {TimeUS : 41135206, Roll : 0.0, Pitch : 0.0, Yaw : 0.0, Alt : 30.1000003815, Lat : 49.28357, Lng : -123.11502, Q1 : 1.0, Q2 : 0.0, Q3 : 0.0, Q4 : 0.0}
2019-04-14 18:58:41.21: SIM {TimeUS : 41235166, Roll : 0.0, Pitch : 0.0, Yaw : 0.0, Alt : 30.1000003815, Lat : 49.28357, Lng : -123.11502, Q1 : 1.0, Q2 : 0.0, Q3 : 0.0, Q4 : 0.0}
2019-04-14 18:58:41.31: SIM {TimeUS : 41335126, Roll : 0.0, Pitch : 0.0, Yaw : 0.0, Alt : 30.1000003815, Lat : 49.28357, Lng : -123.11502, Q1 : 1.0, Q2 : 0.0, Q3 : 0.0, Q4 : 0.0}
2019-04-14 18:58:41.41: SIM {TimeUS : 41435086, Roll : 0.0, Pitch : 0.0, Yaw : 0.0, Alt : 30.1000003815, Lat : 49.28357, Lng : -123.11502, Q1 : 1.0, Q2 : 0.0, Q3 : 0.0, Q4 : 0.0}
2019-04-14 18:58:41.51: SIM {TimeUS : 41535046, Roll : 0.0, Pitch : 0.0, Yaw : 0.0, Alt : 30.1000003815, Lat : 49.28357, Lng : -123.11502, Q1 : 1.0, Q2 : 0.0, Q3 : 0.0, Q4 : 0.0}
2019-04-14 18:58:41.61: SIM {TimeUS : 41635006, Roll : 0.0, Pitch : 0.0, Yaw : 0.0, Alt : 30.1000003815, Lat : 49.28357, Lng : -123.11502, Q1 : 1.0, Q2 : 0.0, Q3 : 0.0, Q4 : 0.0}
2019-04-14 18:58:41.71: SIM {TimeUS : 41734966, Roll : 0.0, Pitch : 0.0, Yaw : 0.0, Alt : 30.1000003815, Lat : 49.28357, Lng : -123.11502, Q1 : 1.0, Q2 : 0.0, Q3 : 0.0, Q4 : 0.0}
2019-04-14 18:58:41.81: SIM {TimeUS : 41834926, Roll : 0.0, Pitch : 0.0, Yaw : 0.0, Alt : 30.1000003815, Lat : 49.28357, Lng : -123.11502, Q1 : 1.0, Q2 : 0.0, Q3 : 0.0, Q4 : 0.0}
2019-04-14 18:58:41.91: SIM {TimeUS : 41934886, Roll : 0.0, Pitch : 0.0, Yaw : 0.0, Alt : 30.1000003815, Lat : 49.28357, Lng : -123.11502, Q1 : 1.0, Q2 : 0.0, Q3 : 0.0, Q4 : 0.0}
2019-04-14 18:58:42.01: SIM {TimeUS : 42034846, Roll : 0.0, Pitch : 0.0, Yaw : 0.0, Alt : 30.1000003815, Lat : 49.28357, Lng : -123.11502, Q1 : 1.0, Q2 : 0.0, Q3 : 0.0, Q4 : 0.0}
2019-04-14 18:58:42.11: SIM {TimeUS : 42135639, Roll : 0.0, Pitch : 0.0, Yaw : 0.0, Alt : 30.1000003815, Lat : 49.28357, Lng : -123.11502, Q1 : 1.0, Q2 : 0.0, Q3 : 0.0, Q4 : 0.0}
2019-04-14 18:58:42.21: SIM {TimeUS : 42235599, Roll : 0.0, Pitch : 0.0, Yaw : 0.0, Alt : 30.1000003815, Lat : 49.28357, Lng : -123.11502, Q1 : 1.0, Q2 : 0.0, Q3 : 0.0, Q4 : 0.0}
2019-04-14 18:58:42.31: SIM {TimeUS : 42335559, Roll : 0.0, Pitch : 0.0, Yaw : 360.0, Alt : 30.1000003815, Lat : 49.28357, Lng : -123.11502, Q1 : 1.0, Q2 : 0.0, Q3 : 0.0, Q4 : -2.01208320838e-11}
2019-04-14 18:58:42.41: SIM {TimeUS : 42435519, Roll : 0.0, Pitch : 0.0, Yaw : 360.0, Alt : 30.1000003815, Lat : 49.28357, Lng : -123.11502, Q1 : 1.0, Q2 : 0.0, Q3 : 0.0, Q4 : -2.4061257875e-08}
2019-04-14 18:58:42.51: SIM {TimeUS : 42535479, Roll : 0.0, Pitch : 0.0, Yaw : 359.99, Alt : 30.1000003815, Lat : 49.28357, Lng : -123.11502, Q1 : 1.0, Q2 : 0.0, Q3 : 0.0, Q4 : -1.76403858632e-07}
2019-04-14 18:58:42.61: SIM {TimeUS : 42635439, Roll : 0.0, Pitch : 0.0, Yaw : 359.99, Alt : 30.1000003815, Lat : 49.28357, Lng : -123.11502, Q1 : 1.0, Q2 : 0.0, Q3 : 0.0, Q4 : -3.94444271024e-07}
2019-04-14 18:58:42.71: SIM {TimeUS : 42735399, Roll : 0.0, Pitch : 0.0, Yaw : 359.99, Alt : 30.1000003815, Lat : 49.28357, Lng : -123.11502, Q1 : 1.0, Q2 : 0.0, Q3 : 0.0, Q4 : -6.18527053575e-07}
2019-04-14 18:58:42.81: SIM {TimeUS : 42835359, Roll : 0.0, Pitch : 0.0, Yaw : 359.99, Alt : 30.1000003815, Lat : 49.28357, Lng : -123.11502, Q1 : 1.0, Q2 : 0.0, Q3 : 0.0, Q4 : -8.17618115434e-07}
2019-04-14 18:58:42.91: SIM {TimeUS : 42935319, Roll : 0.0, Pitch : 0.0, Yaw : 359.99, Alt : 30.1000003815, Lat : 49.28357, Lng : -123.11502, Q1 : 1.0, Q2 : 0.0, Q3 : 0.0, Q4 : -1.05309788978e-06}
2019-04-14 18:58:43.01: SIM {TimeUS : 43035279, Roll : 0.0, Pitch : 0.0, Yaw : 359.99, Alt : 30.1000003815, Lat : 49.28357, Lng : -123.11502, Q1 : 1.0, Q2 : 0.0, Q3 : 0.0, Q4 : -1.22660696888e-06}
2019-04-14 18:58:43.11: SIM {TimeUS : 43135239, Roll : 0.0, Pitch : 0.0, Yaw : 359.99, Alt : 30.1000003815, Lat : 49.28357, Lng : -123.11502, Q1 : 1.0, Q2 : 0.0, Q3 : 0.0, Q4 : -1.43558997934e-06}
2019-04-14 18:58:43.21: SIM {TimeUS : 43235199, Roll : 0.0, Pitch : 0.0, Yaw : 359.99, Alt : 30.1200008392, Lat : 49.28357, Lng : -123.11502, Q1 : 1.0, Q2 : 0.0, Q3 : 0.0, Q4 : -1.64446976214e-06}
2019-04-14 18:58:43.31: SIM {TimeUS : 43335159, Roll : 0.0, Pitch : 0.0, Yaw : 359.99, Alt : 30.1399993896, Lat : 49.28357, Lng : -123.11502, Q1 : 1.0, Q2 : 0.0, Q3 : 0.0, Q4 : -1.86859642781e-06}
2019-04-14 18:58:43.41: SIM {TimeUS : 43435119, Roll : 0.0, Pitch : 0.0, Yaw : 359.99, Alt : 30.1800003052, Lat : 49.28357, Lng : -123.11502, Q1 : 1.0, Q2 : 0.0, Q3 : 0.0, Q4 : -2.08771189136e-06}
2019-04-14 18:58:43.51: SIM {TimeUS : 43535079, Roll : 0.0, Pitch : 0.0, Yaw : 359.99, Alt : 30.2099990845, Lat : 49.28357, Lng : -123.11502, Q1 : 1.0, Q2 : -5.64689798921e-06, Q3 : -4.94103096571e-06, Q4 : -2.36270534515e-06}
2019-04-14 18:58:43.61: SIM {TimeUS : 43635039, Roll : -0.16, Pitch : -0.17, Yaw : 359.99, Alt : 30.2700004578, Lat : 49.28357, Lng : -123.11502, Q1 : 0.999997794628, Q2 : -0.0014752629213, Q3 : -0.00150514720008, Q4 : -2.13170787902e-05}
2019-04-14 18:58:43.71: SIM {TimeUS : 43734999, Roll : -0.47, Pitch : -0.49, Yaw : 359.99, Alt : 30.3899993896, Lat : 49.28357, Lng : -123.11502, Q1 : 0.999982357025, Q2 : -0.00411294400692, Q3 : -0.00428460072726, Q4 : -7.1269030741e-05}
2019-04-14 18:58:43.81: SIM {TimeUS : 43834959, Roll : -0.72, Pitch : -0.73, Yaw : 359.98, Alt : 30.5400009155, Lat : 49.28357, Lng : -123.11502, Q1 : 0.999959111214, Q2 : -0.00635996414348, Q3 : -0.00642535788938, Q4 : -0.000142925870023}
2019-04-14 18:58:43.91: SIM {TimeUS : 43934919, Roll : -0.84, Pitch : -0.79, Yaw : 359.97, Alt : 30.7000007629, Lat : 49.28357, Lng : -123.11502, Q1 : 0.999948978424, Q2 : -0.00733858719468, Q3 : -0.00693781208247, Q4 : -0.000232782986131}
2019-04-14 18:58:44.01: SIM {TimeUS : 44034879, Roll : -0.79, Pitch : -0.69, Yaw : 359.96, Alt : 30.8500003815, Lat : 49.28357, Lng : -123.1150201, Q1 : 0.999957382679, Q2 : -0.00691807037219, Q3 : -0.00610474217683, Q4 : -0.000326328969095}
2019-04-14 18:58:44.11: SIM {TimeUS : 44134839, Roll : -0.63, Pitch : -0.51, Yaw : 359.95, Alt : 31.0100002289, Lat : 49.2835701, Lng : -123.1150201, Q1 : 0.999974370003, Q2 : -0.00553259020671, Q3 : -0.00452136946842, Q4 : -0.000408515916206}
2019-04-14 18:58:44.21: SIM {TimeUS : 44235632, Roll : -0.43, Pitch : -0.31, Yaw : 359.94, Alt : 31.1599998474, Lat : 49.2835701, Lng : -123.1150202, Q1 : 0.999989151955, Q2 : -0.00375436991453, Q3 : -0.00271042436361, Q4 : -0.000479143549455}
2019-04-14 18:58:44.31: SIM {TimeUS : 44335592, Roll : -0.23, Pitch : -0.13, Yaw : 359.93, Alt : 31.3299999237, Lat : 49.2835702, Lng : -123.1150203, Q1 : 0.999997079372, Q2 : -0.00203763134778, Q3 : -0.00119691318832, Q4 : -0.000534452090506}
2019-04-14 18:58:44.41: SIM {TimeUS : 44435552, Roll : -0.05, Pitch : -0.03, Yaw : 359.93, Alt : 31.5, Lat : 49.2835702, Lng : -123.1150204, Q1 : 0.999999642372, Q2 : -0.000498446286656, Q3 : -0.000329166883603, Q4 : -0.000572367978748}
2019-04-14 18:58:44.51: SIM {TimeUS : 44535512, Roll : 0.04, Pitch : 0.0, Yaw : 359.93, Alt : 31.6700000763, Lat : 49.2835702, Lng : -123.1150205, Q1 : 0.999999701977, Q2 : 0.000425027974416, Q3 : 5.45494112885e-05, Q4 : -0.000589751871303}
2019-04-14 18:58:44.61: SIM {TimeUS : 44635472, Roll : 0.07, Pitch : 0.02, Yaw : 359.93, Alt : 31.8500003815, Lat : 49.2835703, Lng : -123.1150205, Q1 : 0.999999582767, Q2 : 0.000686029961798, Q3 : 0.00020328037499, Q4 : -0.000591874239035}
2019-04-14 18:58:44.71: SIM {TimeUS : 44735432, Roll : 0.07, Pitch : 0.02, Yaw : 359.93, Alt : 32.0299987793, Lat : 49.2835703, Lng : -123.1150206, Q1 : 0.999999642372, Q2 : 0.000618775084149, Q3 : 0.000204564901651, Q4 : -0.000576477730647}
2019-04-14 18:58:44.81: SIM {TimeUS : 44835392, Roll : 0.06, Pitch : 0.02, Yaw : 359.93, Alt : 32.2200012207, Lat : 49.2835703, Lng : -123.1150207, Q1 : 0.999999642372, Q2 : 0.000577558006626, Q3 : 0.000238829408772, Q4 : -0.000552512938157}
2019-04-14 18:58:44.91: SIM {TimeUS : 44935352, Roll : 0.07, Pitch : 0.04, Yaw : 359.93, Alt : 32.4099998474, Lat : 49.2835703, Lng : -123.1150207, Q1 : 0.999999582767, Q2 : 0.000637127261143, Q3 : 0.00038107438013, Q4 : -0.000525790965185}
2019-04-14 18:58:45.01: SIM {TimeUS : 45035312, Roll : 0.09, Pitch : 0.06, Yaw : 359.94, Alt : 32.6100006104, Lat : 49.2835703, Lng : -123.1150208, Q1 : 0.999999403954, Q2 : 0.000799545261543, Q3 : 0.000537062820513, Q4 : -0.000503765593749}
2019-04-14 18:58:45.11: SIM {TimeUS : 45135272, Roll : 0.12, Pitch : 0.07, Yaw : 359.94, Alt : 32.8100013733, Lat : 49.2835703, Lng : -123.1150208, Q1 : 0.999999046326, Q2 : 0.00109540403355, Q3 : 0.000658116885461, Q4 : -0.000487680314109}
2019-04-14 18:58:45.21: SIM {TimeUS : 45235232, Roll : 0.15, Pitch : 0.1, Yaw : 359.94, Alt : 33.0099983215, Lat : 49.2835704, Lng : -123.1150208, Q1 : 0.999998629093, Q2 : 0.00131731666625, Q3 : 0.000900491082575, Q4 : -0.000478190020658}
2019-04-14 18:58:45.31: SIM {TimeUS : 45335192, Roll : 0.15, Pitch : 0.13, Yaw : 359.94, Alt : 33.2099990845, Lat : 49.2835704, Lng : -123.1150209, Q1 : 0.999998271465, Q2 : 0.00136513868347, Q3 : 0.0011775639141, Q4 : -0.000491888669785}
2019-04-14 18:58:45.41: SIM {TimeUS : 45435152, Roll : 0.15, Pitch : 0.16, Yaw : 359.94, Alt : 33.4099998474, Lat : 49.2835704, Lng : -123.1150209, Q1 : 0.999997973442, Q2 : 0.00133405032102, Q3 : 0.00139908632264, Q4 : -0.00050844612997}
2019-04-14 18:58:45.51: SIM {TimeUS : 45535112, Roll : 0.15, Pitch : 0.18, Yaw : 359.94, Alt : 33.6199989319, Lat : 49.2835704, Lng : -123.1150209, Q1 : 0.999997615814, Q2 : 0.00137388217263, Q3 : 0.00161580310669, Q4 : -0.000520520901773}
2019-04-14 18:58:45.61: SIM {TimeUS : 45635072, Roll : 0.17, Pitch : 0.18, Yaw : 359.93, Alt : 33.8300018311, Lat : 49.2835704, Lng : -123.1150209, Q1 : 0.999997437, Q2 : 0.00148526055273, Q3 : 0.00162373646162, Q4 : -0.000529252865817}
2019-04-14 18:58:45.71: SIM {TimeUS : 45735032, Roll : 0.17, Pitch : 0.17, Yaw : 359.93, Alt : 34.0400009155, Lat : 49.2835704, Lng : -123.1150209, Q1 : 0.999997437, Q2 : 0.00152600370347, Q3 : 0.00156439561397, Q4 : -0.000548123789486}
2019-04-14 18:58:45.81: SIM {TimeUS : 45834992, Roll : 0.15, Pitch : 0.17, Yaw : 359.93, Alt : 34.25, Lat : 49.2835706, Lng : -123.1150209, Q1 : 0.999997794628, Q2 : 0.00134611001704, Q3 : 0.00150277535431, Q4 : -0.000575147103518}
2019-04-14 18:58:45.91: SIM {TimeUS : 45934952, Roll : 0.13, Pitch : 0.13, Yaw : 359.93, Alt : 34.4599990845, Lat : 49.2835706, Lng : -123.1150209, Q1 : 0.999998450279, Q2 : 0.00113951682579, Q3 : 0.00119727628771, Q4 : -0.000591260381043}
2019-04-14 18:58:46.01: SIM {TimeUS : 46034912, Roll : 0.1, Pitch : 0.08, Yaw : 359.93, Alt : 34.6699981689, Lat : 49.2835706, Lng : -123.1150209, Q1 : 0.99999910593, Q2 : 0.000951327907387, Q3 : 0.000704006408341, Q4 : -0.000597331149038}
2019-04-14 18:58:46.11: SIM {TimeUS : 46134872, Roll : 0.08, Pitch : 0.03, Yaw : 359.92, Alt : 34.8899993896, Lat : 49.2835704, Lng : -123.1150209, Q1 : 0.999999463558, Q2 : 0.000768154568505, Q3 : 0.000335726304911, Q4 : -0.000612126314081}
2019-04-14 18:58:46.21: SIM {TimeUS : 46234832, Roll : 0.06, Pitch : 0.01, Yaw : 359.92, Alt : 35.0999984741, Lat : 49.2835704, Lng : -123.1150209, Q1 : 0.999999582767, Q2 : 0.000603170599788, Q3 : 0.000162333875778, Q4 : -0.000640702026431}
2019-04-14 18:58:46.31: SIM {TimeUS : 46335625, Roll : 0.06, Pitch : 0.02, Yaw : 359.92, Alt : 35.3199996948, Lat : 49.2835704, Lng : -123.1150209, Q1 : 0.999999582767, Q2 : 0.000583946937695, Q3 : 0.000231711077504, Q4 : -0.000678138050716}
2019-04-14 18:58:46.41: SIM {TimeUS : 46435585, Roll : 0.06, Pitch : 0.02, Yaw : 359.91, Alt : 35.5400009155, Lat : 49.2835704, Lng : -123.1150208, Q1 : 0.999999582767, Q2 : 0.000566407223232, Q3 : 0.00019836667343, Q4 : -0.000709748535883}
2019-04-14 18:58:46.51: SIM {TimeUS : 46535545, Roll : 0.05, Pitch : 0.02, Yaw : 359.91, Alt : 35.7599983215, Lat : 49.2835704, Lng : -123.1150208, Q1 : 0.999999642372, Q2 : 0.000447671773145, Q3 : 0.000192972642253, Q4 : -0.000733158609364}
2019-04-14 18:58:46.61: SIM {TimeUS : 46635505, Roll : 0.03, Pitch : 0.03, Yaw : 359.91, Alt : 35.9799995422, Lat : 49.2835704, Lng : -123.1150208, Q1 : 0.999999642372, Q2 : 0.00028413545806, Q3 : 0.000262995628873, Q4 : -0.000751818937715}
2019-04-14 18:58:46.71: SIM {TimeUS : 46735465, Roll : 0.01, Pitch : 0.04, Yaw : 359.91, Alt : 36.2000007629, Lat : 49.2835704, Lng : -123.1150208, Q1 : 0.999999642372, Q2 : 0.000142794888234, Q3 : 0.000391047185985, Q4 : -0.000771467632148}
2019-04-14 18:58:46.81: SIM {TimeUS : 46835425, Roll : 0.0, Pitch : 0.03, Yaw : 359.9, Alt : 36.4199981689, Lat : 49.2835704, Lng : -123.1150208, Q1 : 0.999999642372, Q2 : 5.76516094952e-06, Q3 : 0.000312327640131, Q4 : -0.000787684170064}
2019-04-14 18:58:46.91: SIM {TimeUS : 46935385, Roll : 0.0, Pitch : 0.01, Yaw : 359.9, Alt : 36.6399993896, Lat : 49.2835704, Lng : -123.1150207, Q1 : 0.999999642372, Q2 : -7.29839812266e-05, Q3 : 0.000126693703351, Q4 : -0.000808098062407}
2019-04-14 18:58:47.01: SIM {TimeUS : 47035345, Roll : -0.01, Pitch : 0.0, Yaw : 359.9, Alt : 36.8600006104, Lat : 49.2835704, Lng : -123.1150207, Q1 : 0.999999642372, Q2 : -0.000143383571412, Q3 : -7.37360460334e-05, Q4 : -0.000832006917335}
2019-04-14 18:58:47.11: SIM {TimeUS : 47135305, Roll : -0.02, Pitch : -0.02, Yaw : 359.9, Alt : 37.0900001526, Lat : 49.2835704, Lng : -123.1150207, Q1 : 0.999999582767, Q2 : -0.000186907505849, Q3 : -0.000242793073994, Q4 : -0.000861936016008}
2019-04-14 18:58:47.21: SIM {TimeUS : 47235265, Roll : 0.0, Pitch : -0.04, Yaw : 359.89, Alt : 37.3100013733, Lat : 49.2835704, Lng : -123.1150207, Q1 : 0.999999523163, Q2 : -8.24872622616e-05, Q3 : -0.000375717645511, Q4 : -0.000886435562279}
2019-04-14 18:58:47.31: SIM {TimeUS : 47335225, Roll : -0.01, Pitch : -0.06, Yaw : 359.89, Alt : 37.5400009155, Lat : 49.2835704, Lng : -123.1150207, Q1 : 0.999999463558, Q2 : -0.000102036327007, Q3 : -0.00052764301654, Q4 : -0.000905200489797}
2019-04-14 18:58:47.41: SIM {TimeUS : 47435185, Roll : -0.03, Pitch : -0.08, Yaw : 359.89, Alt : 37.7599983215, Lat : 49.2835704, Lng : -123.1150207, Q1 : 0.999999284744, Q2 : -0.000293455406791, Q3 : -0.000742964853998, Q4 : -0.000921116734389}
2019-04-14 18:58:47.51: SIM {TimeUS : 47535145, Roll : -0.06, Pitch : -0.09, Yaw : 359.89, Alt : 37.9900016785, Lat : 49.2835704, Lng : -123.1150207, Q1 : 0.999998986721, Q2 : -0.000593720120378, Q3 : -0.000863592082169, Q4 : -0.000943397346418}
2019-04-14 18:58:47.61: SIM {TimeUS : 47635105, Roll : -0.1, Pitch : -0.09, Yaw : 359.88, Alt : 38.2200012207, Lat : 49.2835704, Lng : -123.1150206, Q1 : 0.999998748302, Q2 : -0.000910594419111, Q3 : -0.000828543794341, Q4 : -0.000973603280727}
2019-04-14 18:58:47.71: SIM {TimeUS : 47735065, Roll : -0.13, Pitch : -0.08, Yaw : 359.88, Alt : 38.4500007629, Lat : 49.2835704, Lng : -123.1150206, Q1 : 0.999998569489, Q2 : -0.00113625242375, Q3 : -0.000740388757549, Q4 : -0.00100214523263}
2019-04-14 18:58:47.81: SIM {TimeUS : 47835025, Roll : -0.13, Pitch : -0.07, Yaw : 359.88, Alt : 38.6699981689, Lat : 49.2835704, Lng : -123.1150206, Q1 : 0.999998569489, Q2 : -0.00118644407485, Q3 : -0.000613415089902, Q4 : -0.00102406565566}
2019-04-14 18:58:47.91: SIM {TimeUS : 47934985, Roll : -0.12, Pitch : -0.04, Yaw : 359.88, Alt : 38.9000015259, Lat : 49.2835704, Lng : -123.1150206, Q1 : 0.999998807907, Q2 : -0.00104975129943, Q3 : -0.00038664494059, Q4 : -0.00104703044053}
2019-04-14 18:58:48.01: SIM {TimeUS : 48034945, Roll : -0.08, Pitch : -0.03, Yaw : 359.87, Alt : 39.1300010681, Lat : 49.2835704, Lng : -123.1150206, Q1 : 0.999999046326, Q2 : -0.000784346542787, Q3 : -0.000345976877725, Q4 : -0.00107485696208}
2019-04-14 18:58:48.11: SIM {TimeUS : 48134905, Roll : -0.06, Pitch : -0.04, Yaw : 359.87, Alt : 39.3600006104, Lat : 49.2835704, Lng : -123.1150206, Q1 : 0.999999165535, Q2 : -0.000599286169745, Q3 : -0.000363571802154, Q4 : -0.00110759318341}
2019-04-14 18:58:48.21: SIM {TimeUS : 48234865, Roll : -0.05, Pitch : -0.02, Yaw : 359.87, Alt : 39.5900001526, Lat : 49.2835706, Lng : -123.1150206, Q1 : 0.99999922514, Q2 : -0.000509971461724, Q3 : -0.000236645457335, Q4 : -0.00113009149209}
2019-04-14 18:58:48.31: SIM {TimeUS : 48334825, Roll : -0.07, Pitch : 0.0, Yaw : 359.86, Alt : 39.8199996948, Lat : 49.2835706, Lng : -123.1150206, Q1 : 0.999999165535, Q2 : -0.000616994977463, Q3 : 2.53786424764e-06, Q4 : -0.00114880944602}
2019-04-14 18:58:48.41: SIM {TimeUS : 48435618, Roll : -0.06, Pitch : 0.03, Yaw : 359.86, Alt : 40.0600013733, Lat : 49.2835706, Lng : -123.1150206, Q1 : 0.99999910593, Q2 : -0.000573672179598, Q3 : 0.000276833365206, Q4 : -0.00116957339924}
2019-04-14 18:58:48.51: SIM {TimeUS : 48535578, Roll : -0.04, Pitch : 0.06, Yaw : 359.86, Alt : 40.2900009155, Lat : 49.2835706, Lng : -123.1150206, Q1 : 0.999999046326, Q2 : -0.000419783347752, Q3 : 0.000589001458138, Q4 : -0.00119192269631}
2019-04-14 18:58:48.61: SIM {TimeUS : 48635538, Roll : -0.03, Pitch : 0.06, Yaw : 359.86, Alt : 40.5200004578, Lat : 49.2835706, Lng : -123.1150206, Q1 : 0.999999046326, Q2 : -0.000299859559163, Q3 : 0.000598666723818, Q4 : -0.00120520801283}
2019-04-14 18:58:48.71: SIM {TimeUS : 48735498, Roll : -0.01, Pitch : 0.06, Yaw : 359.86, Alt : 40.75, Lat : 49.2835706, Lng : -123.1150207, Q1 : 0.99999910593, Q2 : -9.90936605376e-05, Q3 : 0.000542530789971, Q4 : -0.00121247011703}
2019-04-14 18:58:48.81: SIM {TimeUS : 48835458, Roll : 0.02, Pitch : 0.07, Yaw : 359.86, Alt : 40.9799995422, Lat : 49.2835706, Lng : -123.1150207, Q1 : 0.999999046326, Q2 : 0.000190343693248, Q3 : 0.000653299735859, Q4 : -0.00122031290084}
2019-04-14 18:58:48.91: SIM {TimeUS : 48935418, Roll : 0.06, Pitch : 0.11, Yaw : 359.85, Alt : 41.2200012207, Lat : 49.2835706, Lng : -123.1150207, Q1 : 0.999998569489, Q2 : 0.0005906704464, Q3 : 0.000965678249486, Q4 : -0.00123754516244}
2019-04-14 18:58:49.01: SIM {TimeUS : 49035378, Roll : 0.09, Pitch : 0.15, Yaw : 359.85, Alt : 41.4500007629, Lat : 49.2835706, Lng : -123.1150207, Q1 : 0.999997973442, Q2 : 0.000835742976051, Q3 : 0.00131478731055, Q4 : -0.00126351928338}
2019-04-14 18:58:49.11: SIM {TimeUS : 49135338, Roll : 0.08, Pitch : 0.18, Yaw : 359.85, Alt : 41.6800003052, Lat : 49.2835706, Lng : -123.1150207, Q1 : 0.999997675419, Q2 : 0.000728724524379, Q3 : 0.00159625569358, Q4 : -0.00127751147375}
2019-04-14 18:58:49.21: SIM {TimeUS : 49235298, Roll : 0.03, Pitch : 0.2, Yaw : 359.85, Alt : 41.9199981689, Lat : 49.2835706, Lng : -123.1150207, Q1 : 0.99999755621, Q2 : 0.000346468121279, Q3 : 0.00177642458584, Q4 : -0.00128925545141}
2019-04-14 18:58:49.31: SIM {TimeUS : 49335258, Roll : 0.0, Pitch : 0.21, Yaw : 359.85, Alt : 42.1500015259, Lat : 49.2835706, Lng : -123.1150207, Q1 : 0.999997437, Q2 : -2.09403642657e-05, Q3 : 0.00185170781333, Q4 : -0.00130523543339}
2019-04-14 18:58:49.41: SIM {TimeUS : 49435218, Roll : -0.01, Pitch : 0.18, Yaw : 359.84, Alt : 42.3800010681, Lat : 49.2835706, Lng : -123.1150207, Q1 : 0.999997794628, Q2 : -0.000153397733811, Q3 : 0.00161585549358, Q4 : -0.00132317270618}
2019-04-14 18:58:49.51: SIM {TimeUS : 49535178, Roll : -0.01, Pitch : 0.14, Yaw : 359.84, Alt : 42.6199989319, Lat : 49.2835706, Lng : -123.1150207, Q1 : 0.99999833107, Q2 : -0.000144863020978, Q3 : 0.00123529159464, Q4 : -0.00134533923119}
2019-04-14 18:58:49.61: SIM {TimeUS : 49635138, Roll : 0.0, Pitch : 0.12, Yaw : 359.84, Alt : 42.8499984741, Lat : 49.2835706, Lng : -123.1150207, Q1 : 0.999998450279, Q2 : -3.33466814482e-05, Q3 : 0.00113179441541, Q4 : -0.0013728023041}
2019-04-14 18:58:49.71: SIM {TimeUS : 49735098, Roll : 0.03, Pitch : 0.13, Yaw : 359.83, Alt : 43.0900001526, Lat : 49.2835706, Lng : -123.1150207, Q1 : 0.999998211861, Q2 : 0.000265264796326, Q3 : 0.00121010967996, Q4 : -0.00140886264853}
2019-04-14 18:58:49.81: SIM {TimeUS : 49835058, Roll : 0.08, Pitch : 0.14, Yaw : 359.83, Alt : 43.3199996948, Lat : 49.2835706, Lng : -123.1150207, Q1 : 0.999997854233, Q2 : 0.000700152129866, Q3 : 0.0013008081587, Q4 : -0.00144373101648}
2019-04-14 18:58:49.91: SIM {TimeUS : 49935018, Roll : 0.11, Pitch : 0.13, Yaw : 359.83, Alt : 43.5600013733, Lat : 49.2835706, Lng : -123.1150207, Q1 : 0.999997675419, Q2 : 0.00103780522477, Q3 : 0.00116729934234, Q4 : -0.00148109684233}
2019-04-14 18:58:50.01: SIM {TimeUS : 50034978, Roll : 0.12, Pitch : 0.1, Yaw : 359.82, Alt : 43.7900009155, Lat : 49.2835706, Lng : -123.1150207, Q1 : 0.999997854233, Q2 : 0.00105885637458, Q3 : 0.000948969915044, Q4 : -0.00151364225894}
2019-04-14 18:58:50.11: SIM {TimeUS : 50134938, Roll : 0.07, Pitch : 0.08, Yaw : 359.82, Alt : 44.0299987793, Lat : 49.2835704, Lng : -123.1150207, Q1 : 0.999998271465, Q2 : 0.000690854969434, Q3 : 0.000778500514571, Q4 : -0.00152793352026}
2019-04-14 18:58:50.21: SIM {TimeUS : 50234898, Roll : 0.02, Pitch : 0.07, Yaw : 359.82, Alt : 44.2700004578, Lat : 49.2835704, Lng : -123.1150207, Q1 : 0.999998569489, Q2 : 0.000188210091437, Q3 : 0.000688778294716, Q4 : -0.00153876747936}
2019-04-14 18:58:50.31: SIM {TimeUS : 50334858, Roll : -0.02, Pitch : 0.08, Yaw : 359.82, Alt : 44.5, Lat : 49.2835704, Lng : -123.1150207, Q1 : 0.999998569489, Q2 : -0.000173576161615, Q3 : 0.000699510739651, Q4 : -0.00155481265392}
2019-04-14 18:58:50.41: SIM {TimeUS : 50434818, Roll : -0.04, Pitch : 0.07, Yaw : 359.81, Alt : 44.7400016785, Lat : 49.2835704, Lng : -123.1150206, Q1 : 0.999998509884, Q2 : -0.000349045847543, Q3 : 0.000665122584905, Q4 : -0.00157238636166}
2019-04-14 18:58:50.51: SIM {TimeUS : 50535611, Roll : -0.03, Pitch : 0.06, Yaw : 359.81, Alt : 44.9799995422, Lat : 49.2835704, Lng : -123.1150206, Q1 : 0.999998569489, Q2 : -0.0003083855554, Q3 : 0.000551079399884, Q4 : -0.00159134995192}
2019-04-14 18:58:50.61: SIM {TimeUS : 50635571, Roll : -0.04, Pitch : 0.04, Yaw : 359.81, Alt : 45.2099990845, Lat : 49.2835704, Lng : -123.1150206, Q1 : 0.999998509884, Q2 : -0.000350558926584, Q3 : 0.000421555305365, Q4 : -0.00161766691599}
2019-04-14 18:58:50.71: SIM {TimeUS : 50735531, Roll : -0.03, Pitch : 0.02, Yaw : 359.81, Alt : 45.4500007629, Lat : 49.2835704, Lng : -123.1150206, Q1 : 0.999998569489, Q2 : -0.000310774747049, Q3 : 0.000261117849732, Q4 : -0.00164910801686}
2019-04-14 18:58:50.81: SIM {TimeUS : 50835491, Roll : -0.02, Pitch : 0.01, Yaw : 359.8, Alt : 45.6800003052, Lat : 49.2835703, Lng : -123.1150206, Q1 : 0.999998569489, Q2 : -0.0001912953594, Q3 : 0.000155210160301, Q4 : -0.00168370094616}
2019-04-14 18:58:50.91: SIM {TimeUS : 50935451, Roll : -0.01, Pitch : 0.01, Yaw : 359.8, Alt : 45.9099998474, Lat : 49.2835703, Lng : -123.1150206, Q1 : 0.999998509884, Q2 : -0.000149080035044, Q3 : 0.0001144842754, Q4 : -0.00171626242809}
2019-04-14 18:58:51.01: SIM {TimeUS : 51035411, Roll : -0.02, Pitch : 0.0, Yaw : 359.79, Alt : 46.1399993896, Lat : 49.2835703, Lng : -123.1150206, Q1 : 0.999998450279, Q2 : -0.000179915485205, Q3 : -6.31231250736e-06, Q4 : -0.00174935988616}
2019-04-14 18:58:51.11: SIM {TimeUS : 51135371, Roll : -0.02, Pitch : -0.02, Yaw : 359.79, Alt : 46.3699989319, Lat : 49.2835703, Lng : -123.1150206, Q1 : 0.99999833107, Q2 : -0.000198094247025, Q3 : -0.000223456838285, Q4 : -0.00178337271791}
2019-04-14 18:58:51.21: SIM {TimeUS : 51235331, Roll : -0.01, Pitch : -0.04, Yaw : 359.79, Alt : 46.5900001526, Lat : 49.2835703, Lng : -123.1150206, Q1 : 0.999998271465, Q2 : -0.000171143969055, Q3 : -0.000362622842658, Q4 : -0.00182073190808}
2019-04-14 18:58:51.31: SIM {TimeUS : 51335291, Roll : -0.01, Pitch : -0.05, Yaw : 359.78, Alt : 46.8100013733, Lat : 49.2835703, Lng : -123.1150205, Q1 : 0.999998152256, Q2 : -0.000120987635455, Q3 : -0.00043964915676, Q4 : -0.00185991148464}
2019-04-14 18:58:51.41: SIM {TimeUS : 51435251, Roll : -0.02, Pitch : -0.05, Yaw : 359.78, Alt : 47.0200004578, Lat : 49.2835703, Lng : -123.1150205, Q1 : 0.999998092651, Q2 : -0.000182864678209, Q3 : -0.000485290831421, Q4 : -0.00189905951265}
2019-04-14 18:58:51.51: SIM {TimeUS : 51535211, Roll : -0.04, Pitch : -0.05, Yaw : 359.77, Alt : 47.2200012207, Lat : 49.2835703, Lng : -123.1150205, Q1 : 0.999997913837, Q2 : -0.000400822929805, Q3 : -0.000485964003019, Q4 : -0.00193443207536}
2019-04-14 18:58:51.61: SIM {TimeUS : 51635171, Roll : -0.08, Pitch : -0.05, Yaw : 359.77, Alt : 47.4199981689, Lat : 49.2835703, Lng : -123.1150205, Q1 : 0.999997735023, Q2 : -0.000715169939213, Q3 : -0.0004647699825, Q4 : -0.00196487572975}
2019-04-14 18:58:51.71: SIM {TimeUS : 51735131, Roll : -0.11, Pitch : -0.05, Yaw : 359.77, Alt : 47.5999984741, Lat : 49.2835703, Lng : -123.1150205, Q1 : 0.999997437, Q2 : -0.000968521868344, Q3 : -0.000440000643721, Q4 : -0.00199158350006}
2019-04-14 18:58:51.81: SIM {TimeUS : 51835091, Roll : -0.15, Pitch : -0.07, Yaw : 359.76, Alt : 47.7799987793, Lat : 49.2835703, Lng : -123.1150205, Q1 : 0.999996900558, Q2 : -0.00133133179042, Q3 : -0.000627576722763, Q4 : -0.00201630941592}
2019-04-14 18:58:51.91: SIM {TimeUS : 51935051, Roll : -0.17, Pitch : -0.07, Yaw : 359.76, Alt : 47.9399986267, Lat : 49.2835703, Lng : -123.1150205, Q1 : 0.999996542931, Q2 : -0.0014969157055, Q3 : -0.000685913313646, Q4 : -0.00204298901372}
2019-04-14 18:58:52.01: SIM {TimeUS : 52035011, Roll : -0.16, Pitch : -0.07, Yaw : 359.76, Alt : 48.0900001526, Lat : 49.2835703, Lng : -123.1150205, Q1 : 0.99999666214, Q2 : -0.00142218673136, Q3 : -0.000644633197226, Q4 : -0.00206623435952}
2019-04-14 18:58:52.11: SIM {TimeUS : 52134971, Roll : -0.13, Pitch : -0.06, Yaw : 359.76, Alt : 48.2299995422, Lat : 49.2835703, Lng : -123.1150205, Q1 : 0.999996960163, Q2 : -0.00120156642515, Q3 : -0.000558767933398, Q4 : -0.00208682590164}
2019-04-14 18:58:52.21: SIM {TimeUS : 52234931, Roll : -0.11, Pitch : -0.05, Yaw : 359.75, Alt : 48.3600006104, Lat : 49.2835703, Lng : -123.1150205, Q1 : 0.999997198582, Q2 : -0.000975609291345, Q3 : -0.000476089306176, Q4 : -0.00210527540185}
2019-04-14 18:58:52.31: SIM {TimeUS : 52334891, Roll : -0.08, Pitch : -0.05, Yaw : 359.75, Alt : 48.4799995422, Lat : 49.2835703, Lng : -123.1150205, Q1 : 0.999997377396, Q2 : -0.000741080904845, Q3 : -0.000485654571094, Q4 : -0.00212421827018}
2019-04-14 18:58:52.41: SIM {TimeUS : 52434851, Roll : -0.05, Pitch : -0.06, Yaw : 359.75, Alt : 48.5800018311, Lat : 49.2835703, Lng : -123.1150205, Q1 : 0.999997437, Q2 : -0.000461683230242, Q3 : -0.000538100139238, Q4 : -0.00214040256105}
2019-04-14 18:58:52.51: SIM {TimeUS : 52535644, Roll : -0.03, Pitch : -0.07, Yaw : 359.75, Alt : 48.6800003052, Lat : 49.2835703, Lng : -123.1150205, Q1 : 0.999997437, Q2 : -0.00030340932426, Q3 : -0.000617064128164, Q4 : -0.00216594571248}
2019-04-14 18:58:52.61: SIM {TimeUS : 52635604, Roll : -0.03, Pitch : -0.07, Yaw : 359.74, Alt : 48.7599983215, Lat : 49.2835703, Lng : -123.1150206, Q1 : 0.999997317791, Q2 : -0.000268483505351, Q3 : -0.000675814517308, Q4 : -0.00219523743726}
2019-04-14 18:58:52.71: SIM {TimeUS : 52735564, Roll : 0.0, Pitch : -0.06, Yaw : 359.74, Alt : 48.8300018311, Lat : 49.2835703, Lng : -123.1150206, Q1 : 0.999997317791, Q2 : -6.88038926455e-05, Q3 : -0.000589915260207, Q4 : -0.00223043560982}
2019-04-14 18:58:52.81: SIM {TimeUS : 52835524, Roll : 0.01, Pitch : -0.05, Yaw : 359.74, Alt : 48.8899993896, Lat : 49.2835703, Lng : -123.1150206, Q1 : 0.999997317791, Q2 : 0.000143383076647, Q3 : -0.000454238150269, Q4 : -0.00226270826533}
2019-04-14 18:58:52.91: SIM {TimeUS : 52935484, Roll : 0.03, Pitch : -0.03, Yaw : 359.73, Alt : 48.9399986267, Lat : 49.2835703, Lng : -123.1150206, Q1 : 0.999997317791, Q2 : 0.000290780648356, Q3 : -0.000267868774245, Q4 : -0.00228993594646}
2019-04-14 18:58:53.01: SIM {TimeUS : 53035444, Roll : 0.04, Pitch : -0.01, Yaw : 359.73, Alt : 48.9799995422, Lat : 49.2835703, Lng : -123.1150206, Q1 : 0.999997198582, Q2 : 0.000426674698247, Q3 : -0.000143294164445, Q4 : -0.00231478083879}
2019-04-14 18:58:53.11: SIM {TimeUS : 53135404, Roll : 0.15, Pitch : -0.07, Yaw : 359.73, Alt : 49.0200004578, Lat : 49.2835703, Lng : -123.1150206, Q1 : 0.999996066093, Q2 : 0.00139375205617, Q3 : -0.000661037454847, Q4 : -0.00234308023937}
2019-04-14 18:58:53.21: SIM {TimeUS : 53235364, Roll : 0.45, Pitch : -0.29, Yaw : 359.72, Alt : 49.0600013733, Lat : 49.2835703, Lng : -123.1150206, Q1 : 0.999986171722, Q2 : 0.00395272159949, Q3 : -0.00254867435433, Q4 : -0.00236578681506}
2019-04-14 18:58:53.31: SIM {TimeUS : 53335324, Roll : 0.95, Pitch : -0.66, Yaw : 359.72, Alt : 49.0800018311, Lat : 49.2835703, Lng : -123.1150206, Q1 : 0.999945640564, Q2 : 0.00834242533892, Q3 : -0.00578642031178, Q4 : -0.00237779738382}
2019-04-14 18:58:53.41: SIM {TimeUS : 53435284, Roll : 1.65, Pitch : -1.15, Yaw : 359.71, Alt : 49.1100006104, Lat : 49.2835703, Lng : -123.1150206, Q1 : 0.999842047691, Q2 : 0.0144485849887, Q3 : -0.0100725367665, Q4 : -0.0023685421329}
2019-04-14 18:58:53.51: SIM {TimeUS : 53535244, Roll : 2.48, Pitch : -1.72, Yaw : 359.69, Alt : 49.1300010681, Lat : 49.2835704, Lng : -123.1150205, Q1 : 0.999649763107, Q2 : 0.0216298345476, Q3 : -0.01506758295, Q4 : -0.00232711504214}
2019-04-14 18:58:53.61: SIM {TimeUS : 53635204, Roll : 3.32, Pitch : -2.28, Yaw : 359.67, Alt : 49.1500015259, Lat : 49.2835704, Lng : -123.1150204, Q1 : 0.999377608299, Q2 : 0.0289365537465, Q3 : -0.0200512334704, Q4 : -0.00223865336739}
2019-04-14 18:58:53.71: SIM {TimeUS : 53735164, Roll : 4.06, Pitch : -2.76, Yaw : 359.66, Alt : 49.1599998474, Lat : 49.2835706, Lng : -123.1150202, Q1 : 0.999078452587, Q2 : 0.03539269045, Q3 : -0.0241930130869, Q4 : -0.00208360538818}
2019-04-14 18:58:53.81: SIM {TimeUS : 53835124, Roll : 4.63, Pitch : -3.12, Yaw : 359.65, Alt : 49.1800003052, Lat : 49.2835708, Lng : -123.11502, Q1 : 0.998808979988, Q2 : 0.0403719618917, Q3 : -0.0273350272328, Q4 : -0.00187696446665}
2019-04-14 18:58:53.91: SIM {TimeUS : 53935084, Roll : 5.04, Pitch : -3.41, Yaw : 359.66, Alt : 49.1899986267, Lat : 49.2835709, Lng : -123.1150197, Q1 : 0.998587310314, Q2 : 0.0439123362303, Q3 : -0.0298732481897, Q4 : -0.00163501768839}
2019-04-14 18:58:54.01: SIM {TimeUS : 54035044, Roll : 5.34, Pitch : -3.65, Yaw : 359.67, Alt : 49.2000007629, Lat : 49.283571, Lng : -123.1150193, Q1 : 0.998404145241, Q2 : 0.0465426519513, Q3 : -0.0319547466934, Q4 : -0.00138250750024}
2019-04-14 18:58:54.11: SIM {TimeUS : 54135004, Roll : 5.61, Pitch : -3.89, Yaw : 359.67, Alt : 49.2099990845, Lat : 49.2835714, Lng : -123.1150188, Q1 : 0.998223364353, Q2 : 0.048872359097, Q3 : -0.034063924104, Q4 : -0.00113389967009}
2019-04-14 18:58:54.21: SIM {TimeUS : 54234964, Roll : 5.9, Pitch : -4.14, Yaw : 359.68, Alt : 49.2099990845, Lat : 49.2835716, Lng : -123.1150182, Q1 : 0.998019099236, Q2 : 0.0513982586563, Q3 : -0.0362675972283, Q4 : -0.000892944168299}
2019-04-14 18:58:54.31: SIM {TimeUS : 54334924, Roll : 6.21, Pitch : -4.38, Yaw : 359.68, Alt : 49.2200012207, Lat : 49.283572, Lng : -123.1150174, Q1 : 0.997800648212, Q2 : 0.0540869757533, Q3 : -0.0383153893054, Q4 : -0.000649263267405}
2019-04-14 18:58:54.41: SIM {TimeUS : 54434884, Roll : 6.49, Pitch : -4.58, Yaw : 359.69, Alt : 49.2299995422, Lat : 49.2835724, Lng : -123.1150166, Q1 : 0.997600495815, Q2 : 0.0564578846097, Q3 : -0.040069732815, Q4 : -0.00041080309893}
2019-04-14 18:58:54.51: SIM {TimeUS : 54534844, Roll : 6.7, Pitch : -4.73, Yaw : 359.7, Alt : 49.2299995422, Lat : 49.2835727, Lng : -123.1150157, Q1 : 0.997442305088, Q2 : 0.0582909919322, Q3 : -0.0413646437228, Q4 : -0.00018471214571}
2019-04-14 18:58:54.61: SIM {TimeUS : 54635637, Roll : 6.84, Pitch : -4.83, Yaw : 359.71, Alt : 49.2400016785, Lat : 49.2835733, Lng : -123.1150147, Q1 : 0.997331321239, Q2 : 0.0595660619438, Q3 : -0.042214486748, Q4 : 2.64644240815e-05}
2019-04-14 18:58:54.71: SIM {TimeUS : 54735597, Roll : 6.94, Pitch : -4.9, Yaw : 359.72, Alt : 49.2400016785, Lat : 49.2835738, Lng : -123.1150136, Q1 : 0.997253239155, Q2 : 0.0604085735977, Q3 : -0.0428585074842, Q4 : 0.000186901525012}
2019-04-14 18:58:54.81: SIM {TimeUS : 54835557, Roll : 7.04, Pitch : -4.98, Yaw : 359.72, Alt : 49.25, Lat : 49.2835743, Lng : -123.1150124, Q1 : 0.997173666954, Q2 : 0.0612372308969, Q3 : -0.0435267575085, Q4 : 0.000290457130177}
2019-04-14 18:58:54.91: SIM {TimeUS : 54935517, Roll : 7.22, Pitch : -5.03, Yaw : 359.74, Alt : 49.25, Lat : 49.2835749, Lng : -123.1150111, Q1 : 0.997052788734, Q2 : 0.0628853440285, Q3 : -0.0439423769712, Q4 : 0.000555227685254}
2019-04-14 18:58:55.01: SIM {TimeUS : 55035477, Roll : 7.63, Pitch : -4.91, Yaw : 0.08, Alt : 49.25, Lat : 49.2835755, Lng : -123.1150096, Q1 : 0.996859848499, Q2 : 0.0665757283568, Q3 : -0.0427257008851, Q4 : 0.00355617864989}
2019-04-14 18:58:55.11: SIM {TimeUS : 55135437, Roll : 8.24, Pitch : -4.7, Yaw : 1.37, Alt : 49.2599983215, Lat : 49.2835762, Lng : -123.1150083, Q1 : 0.996460199356, Q2 : 0.0723577514291, Q3 : -0.0401086844504, Q4 : 0.014924697578}
2019-04-14 18:58:55.21: SIM {TimeUS : 55235397, Roll : 8.81, Pitch : -4.77, Yaw : 4.16, Alt : 49.2599983215, Lat : 49.2835768, Lng : -123.1150067, Q1 : 0.995406329632, Q2 : 0.0782061964273, Q3 : -0.0386786945164, Q4 : 0.0394207239151}
2019-04-14 18:58:55.31: SIM {TimeUS : 55335357, Roll : 9.08, Pitch : -5.31, Yaw : 8.52, Alt : 49.2599983215, Lat : 49.2835775, Lng : -123.1150051, Q1 : 0.992754042149, Q2 : 0.0823685526848, Q3 : -0.0401886627078, Q4 : 0.0777157768607}
2019-04-14 18:58:55.41: SIM {TimeUS : 55435317, Roll : 8.88, Pitch : -6.35, Yaw : 14.28, Alt : 49.2599983215, Lat : 49.2835782, Lng : -123.1150033, Q1 : 0.987204015255, Q2 : 0.0835938006639, Q3 : -0.0452300272882, Q4 : 0.128040909767}
2019-04-14 18:58:55.51: SIM {TimeUS : 55535277, Roll : 8.07, Pitch : -7.78, Yaw : 21.18, Alt : 49.2599983215, Lat : 49.2835789, Lng : -123.1150014, Q1 : 0.977374315262, Q2 : 0.0814939141273, Q3 : -0.0536143556237, Q4 : 0.187679797411}
2019-04-14 18:58:55.61: SIM {TimeUS : 55635237, Roll : 6.66, Pitch : -9.37, Yaw : 28.98, Alt : 49.2599983215, Lat : 49.2835797, Lng : -123.1149993, Q1 : 0.962110102177, Q2 : 0.0765335038304, Q3 : -0.0644997209311, Q4 : 0.253626853228}
2019-04-14 18:58:55.71: SIM {TimeUS : 55735197, Roll : 4.73, Pitch : -10.9, Yaw : 37.42, Alt : 49.2700004578, Lat : 49.2835805, Lng : -123.1149972, Q1 : 0.940778374672, Q2 : 0.0694404989481, Q3 : -0.0767464712262, Q4 : 0.322837471962}
2019-04-14 18:58:55.81: SIM {TimeUS : 55835157, Roll : 2.22, Pitch : -12.15, Yaw : 46.17, Alt : 49.2700004578, Lat : 49.2835812, Lng : -123.1149949, Q1 : 0.913743555546, Q2 : 0.0592695511878, Q3 : -0.0897772014141, Q4 : 0.391790568829}
2019-04-14 18:58:55.91: SIM {TimeUS : 55935117, Roll : -0.86, Pitch : -12.89, Yaw : 54.54, Alt : 49.2700004578, Lat : 49.2835822, Lng : -123.1149926, Q1 : 0.883572995663, Q2 : 0.0447840318084, Q3 : -0.103242449462, Q4 : 0.454570353031}
2019-04-14 18:58:56.01: SIM {TimeUS : 56035077, Roll : -3.98, Pitch : -13.06, Yaw : 61.62, Alt : 49.2700004578, Lat : 49.2835831, Lng : -123.1149901, Q1 : 0.854767858982, Q2 : 0.0285764820874, Q3 : -0.115370221436, Q4 : 0.505217790604}
2019-04-14 18:58:56.11: SIM {TimeUS : 56135037, Roll : -6.48, Pitch : -12.88, Yaw : 66.78, Alt : 49.2700004578, Lat : 49.2835842, Lng : -123.1149877, Q1 : 0.83180809021, Q2 : 0.0147147001699, Q3 : -0.124425671995, Q4 : 0.540737509727}
2019-04-14 18:58:56.21: SIM {TimeUS : 56234997, Roll : -7.96, Pitch : -12.62, Yaw : 69.84, Alt : 49.2700004578, Lat : 49.2835853, Lng : -123.1149851, Q1 : 0.817347466946, Q2 : 0.00619281595573, Q3 : -0.12943276763, Q4 : 0.561383903027}
2019-04-14 18:58:56.31: SIM {TimeUS : 56334957, Roll : -8.38, Pitch : -12.52, Yaw : 70.99, Alt : 49.2700004578, Lat : 49.2835865, Lng : -123.1149825, Q1 : 0.811737537384, Q2 : 0.00399453612044, Q3 : -0.130763635039, Q4 : 0.569181144238}
2019-04-14 18:58:56.41: SIM {TimeUS : 56434917, Roll : -7.89, Pitch : -12.68, Yaw : 70.56, Alt : 49.2700004578, Lat : 49.2835879, Lng : -123.1149799, Q1 : 0.813763380051, Q2 : 0.00780617585406, Q3 : -0.129436254501, Q4 : 0.566546082497}
2019-04-14 18:58:56.51: SIM {TimeUS : 56534877, Roll : -6.68, Pitch : -13.11, Yaw : 68.93, Alt : 49.2700004578, Lat : 49.2835892, Lng : -123.1149772, Q1 : 0.821431398392, Q2 : 0.0167337153107, Q3 : -0.126791596413, Q4 : 0.555782675743}
2019-04-14 18:58:56.61: SIM {TimeUS : 56634837, Roll : -5.02, Pitch : -13.75, Yaw : 66.43, Alt : 49.2799987793, Lat : 49.2835908, Lng : -123.1149744, Q1 : 0.832644402981, Q2 : 0.0291294679046, Q3 : -0.123915292323, Q4 : 0.538980364799}
2019-04-14 18:58:56.71: SIM {TimeUS : 56735630, Roll : -3.1, Pitch : -14.48, Yaw : 63.37, Alt : 49.2799987793, Lat : 49.2835923, Lng : -123.1149716, Q1 : 0.845637977123, Q2 : 0.0433322638273, Q3 : -0.121364809573, Q4 : 0.51796656847}
2019-04-14 18:58:56.81: SIM {TimeUS : 56835590, Roll : -1.16, Pitch : -15.14, Yaw : 60.09, Alt : 49.2799987793, Lat : 49.283594, Lng : -123.1149686, Q1 : 0.858665645123, Q2 : 0.0572784096003, Q3 : -0.11913625896, Q4 : 0.495195955038}
2019-04-14 18:58:56.91: SIM {TimeUS : 56935550, Roll : 0.61, Pitch : -15.61, Yaw : 56.93, Alt : 49.2799987793, Lat : 49.2835956, Lng : -123.1149656, Q1 : 0.870603621006, Q2 : 0.0693833231926, Q3 : -0.116872489452, Q4 : 0.472838431597}
2019-04-14 18:58:57.01: SIM {TimeUS : 57035510, Roll : 2.07, Pitch : -15.84, Yaw : 54.18, Alt : 49.2799987793, Lat : 49.2835972, Lng : -123.1149625, Q1 : 0.880486130714, Q2 : 0.0787230357528, Q3 : -0.114504382014, Q4 : 0.453250020742}
2019-04-14 18:58:57.11: SIM {TimeUS : 57135470, Roll : 3.1, Pitch : -15.88, Yaw : 52.11, Alt : 49.2799987793, Lat : 49.2835989, Lng : -123.1149592, Q1 : 0.887775301933, Q2 : 0.0847625210881, Q3 : -0.112324029207, Q4 : 0.438239336014}
2019-04-14 18:58:57.21: SIM {TimeUS : 57235430, Roll : 3.63, Pitch : -15.82, Yaw : 50.82, Alt : 49.2799987793, Lat : 49.2836006, Lng : -123.1149558, Q1 : 0.892312824726, Q2 : 0.0874360948801, Q3 : -0.110790647566, Q4 : 0.42878690362}
2019-04-14 18:58:57.31: SIM {TimeUS : 57335390, Roll : 3.7, Pitch : -15.75, Yaw : 50.33, Alt : 49.2799987793, Lat : 49.2836023, Lng : -123.1149522, Q1 : 0.894182562828, Q2 : 0.0871921852231, Q3 : -0.110366545618, Q4 : 0.425034493208}
2019-04-14 18:58:57.41: SIM {TimeUS : 57435350, Roll : 3.34, Pitch : -15.74, Yaw : 50.55, Alt : 49.2799987793, Lat : 49.2836039, Lng : -123.1149486, Q1 : 0.893660902977, Q2 : 0.0845791548491, Q3 : -0.111434459686, Q4 : 0.426378935575}
2019-04-14 18:58:57.51: SIM {TimeUS : 57535310, Roll : 2.68, Pitch : -15.8, Yaw : 51.32, Alt : 49.2900009155, Lat : 49.2836056, Lng : -123.1149448, Q1 : 0.891147911549, Q2 : 0.0804456919432, Q3 : -0.113873265684, Q4 : 0.431760162115}
2019-04-14 18:58:57.61: SIM {TimeUS : 57635270, Roll : 1.83, Pitch : -15.93, Yaw : 52.48, Alt : 49.2900009155, Lat : 49.2836074, Lng : -123.1149409, Q1 : 0.887177407742, Q2 : 0.0755093097687, Q3 : -0.117271266878, Q4 : 0.4398432374}
2019-04-14 18:58:57.71: SIM {TimeUS : 57735230, Roll : 0.93, Pitch : -16.07, Yaw : 53.83, Alt : 49.2900009155, Lat : 49.2836091, Lng : -123.114937, Q1 : 0.882356643677, Q2 : 0.0704892203212, Q3 : -0.121047794819, Q4 : 0.449249893427}
2019-04-14 18:58:57.81: SIM {TimeUS : 57835190, Roll : 0.09, Pitch : -16.21, Yaw : 55.19, Alt : 49.2900009155, Lat : 49.2836108, Lng : -123.114933, Q1 : 0.877317249775, Q2 : 0.0660443231463, Q3 : -0.124635025859, Q4 : 0.458714187145}
2019-04-14 18:58:57.91: SIM {TimeUS : 57935150, Roll : -0.6, Pitch : -16.34, Yaw : 56.41, Alt : 49.2900009155, Lat : 49.2836126, Lng : -123.114929, Q1 : 0.872645676136, Q2 : 0.0625716596842, Q3 : -0.127727419138, Q4 : 0.467183053493}
2019-04-14 18:58:58.01: SIM {TimeUS : 58035110, Roll : -1.11, Pitch : -16.43, Yaw : 57.38, Alt : 49.2900009155, Lat : 49.2836144, Lng : -123.1149248, Q1 : 0.86883699894, Q2 : 0.0601750612259, Q3 : -0.130036085844, Q4 : 0.473911315203}
2019-04-14 18:58:58.11: SIM {TimeUS : 58135070, Roll : -1.43, Pitch : -16.5, Yaw : 58.03, Alt : 49.2900009155, Lat : 49.2836162, Lng : -123.1149207, Q1 : 0.866209030151, Q2 : 0.0587746649981, Q3 : -0.131542131305, Q4 : 0.478460252285}
2019-04-14 18:58:58.21: SIM {TimeUS : 58235030, Roll : -1.55, Pitch : -16.52, Yaw : 58.35, Alt : 49.2900009155, Lat : 49.2836181, Lng : -123.1149165, Q1 : 0.864904344082, Q2 : 0.0583717636764, Q3 : -0.132000342011, Q4 : 0.480738133192}
2019-04-14 18:58:58.31: SIM {TimeUS : 58334990, Roll : -1.45, Pitch : -16.51, Yaw : 58.36, Alt : 49.2900009155, Lat : 49.28362, Lng : -123.1149122, Q1 : 0.864825069904, Q2 : 0.0590533390641, Q3 : -0.131542757154, Q4 : 0.480922907591}
2019-04-14 18:58:58.41: SIM {TimeUS : 58434950, Roll : -1.22, Pitch : -16.51, Yaw : 58.11, Alt : 49.2900009155, Lat : 49.283622, Lng : -123.1149079, Q1 : 0.865747153759, Q2 : 0.0604903027415, Q3 : -0.130700483918, Q4 : 0.479312211275}
2019-04-14 18:58:58.51: SIM {TimeUS : 58534910, Roll : -0.89, Pitch : -16.54, Yaw : 57.68, Alt : 49.2900009155, Lat : 49.2836238, Lng : -123.1149036, Q1 : 0.867358624935, Q2 : 0.0626012980938, Q3 : -0.129738971591, Q4 : 0.476379960775}
2019-04-14 18:58:58.61: SIM {TimeUS : 58634870, Roll : -0.5, Pitch : -16.56, Yaw : 57.14, Alt : 49.2900009155, Lat : 49.2836258, Lng : -123.1148992, Q1 : 0.869359970093, Q2 : 0.0651016458869, Q3 : -0.12861174345, Q4 : 0.47268807888}
2019-04-14 18:58:58.71: SIM {TimeUS : 58734830, Roll : -0.11, Pitch : -16.6, Yaw : 56.56, Alt : 49.2900009155, Lat : 49.2836279, Lng : -123.1148947, Q1 : 0.871467411518, Q2 : 0.0674911886454, Q3 : -0.127614930272, Q4 : 0.468725860119}
2019-04-14 18:58:58.81: SIM {TimeUS : 58835623, Roll : 0.19, Pitch : -16.64, Yaw : 56.02, Alt : 49.2900009155, Lat : 49.2836299, Lng : -123.1148902, Q1 : 0.873445510864, Q2 : 0.0694856494665, Q3 : -0.127011492848, Q4 : 0.464900821447}
2019-04-14 18:58:58.91: SIM {TimeUS : 58935583, Roll : 0.43, Pitch : -16.69, Yaw : 55.56, Alt : 49.2900009155, Lat : 49.283632, Lng : -123.1148856, Q1 : 0.875075757504, Q2 : 0.0709910616279, Q3 : -0.126734256744, Q4 : 0.461672127247}
2019-04-14 18:58:59.01: SIM {TimeUS : 59035543, Roll : 0.57, Pitch : -16.75, Yaw : 55.23, Alt : 49.2900009155, Lat : 49.2836341, Lng : -123.1148811, Q1 : 0.876257240772, Q2 : 0.0719688609242, Q3 : -0.126817315817, Q4 : 0.459250509739}
2019-04-14 18:58:59.11: SIM {TimeUS : 59135503, Roll : 0.62, Pitch : -16.81, Yaw : 55.03, Alt : 49.2900009155, Lat : 49.283636, Lng : -123.1148765, Q1 : 0.876965582371, Q2 : 0.0723641365767, Q3 : -0.127151235938, Q4 : 0.457741558552}
2019-04-14 18:58:59.21: SIM {TimeUS : 59235463, Roll : 0.61, Pitch : -16.86, Yaw : 54.96, Alt : 49.2900009155, Lat : 49.2836382, Lng : -123.1148719, Q1 : 0.877201020718, Q2 : 0.0723827704787, Q3 : -0.127603203058, Q4 : 0.457161456347}
2019-04-14 18:58:59.31: SIM {TimeUS : 59335423, Roll : 0.55, Pitch : -16.9, Yaw : 55.0, Alt : 49.2900009155, Lat : 49.2836402, Lng : -123.1148672, Q1 : 0.877030491829, Q2 : 0.0720828399062, Q3 : -0.12817710638, Q4 : 0.457375407219}
2019-04-14 18:58:59.41: SIM {TimeUS : 59435383, Roll : 0.44, Pitch : -16.93, Yaw : 55.13, Alt : 49.2900009155, Lat : 49.2836424, Lng : -123.1148625, Q1 : 0.876549303532, Q2 : 0.0715466961265, Q3 : -0.128736168146, Q4 : 0.458224177361}
2019-04-14 18:58:59.51: SIM {TimeUS : 59535343, Roll : 0.31, Pitch : -16.95, Yaw : 55.31, Alt : 49.2900009155, Lat : 49.2836445, Lng : -123.1148576, Q1 : 0.875870943069, Q2 : 0.0708393231034, Q3 : -0.129273250699, Q4 : 0.459478318691}
2019-04-14 18:58:59.61: SIM {TimeUS : 59635303, Roll : 0.18, Pitch : -16.97, Yaw : 55.52, Alt : 49.2999992371, Lat : 49.2836466, Lng : -123.1148529, Q1 : 0.875085234642, Q2 : 0.0701551213861, Q3 : -0.129886418581, Q4 : 0.460905283689}
2019-04-14 18:58:59.71: SIM {TimeUS : 59735263, Roll : 0.05, Pitch : -17.0, Yaw : 55.72, Alt : 49.2999992371, Lat : 49.2836487, Lng : -123.1148481, Q1 : 0.874319493771, Q2 : 0.0694898068905, Q3 : -0.130475670099, Q4 : 0.46229070425}
2019-04-14 18:58:59.81: SIM {TimeUS : 59835223, Roll : -0.06, Pitch : -17.02, Yaw : 55.9, Alt : 49.2999992371, Lat : 49.2836507, Lng : -123.1148433, Q1 : 0.873660266399, Q2 : 0.0688738748431, Q3 : -0.131012141705, Q4 : 0.463475942612}
2019-04-14 18:58:59.91: SIM {TimeUS : 59935183, Roll : -0.15, Pitch : -17.05, Yaw : 56.03, Alt : 49.2999992371, Lat : 49.283653, Lng : -123.1148384, Q1 : 0.873148202896, Q2 : 0.0684450939298, Q3 : -0.13157325983, Q4 : 0.464344769716}
2019-04-14 18:59:00.01: SIM {TimeUS : 60035143, Roll : -0.21, Pitch : -17.1, Yaw : 56.11, Alt : 49.2999992371, Lat : 49.2836551, Lng : -123.1148335, Q1 : 0.872811853886, Q2 : 0.0682938173413, Q3 : -0.132130399346, Q4 : 0.464840859175}
2019-04-14 18:59:00.11: SIM {TimeUS : 60135103, Roll : -0.25, Pitch : -17.14, Yaw : 56.13, Alt : 49.2999992371, Lat : 49.2836572, Lng : -123.1148286, Q1 : 0.872685015202, Q2 : 0.0682168900967, Q3 : -0.132599130273, Q4 : 0.464956790209}
2019-04-14 18:59:00.21: SIM {TimeUS : 60235063, Roll : -0.26, Pitch : -17.17, Yaw : 56.1, Alt : 49.2999992371, Lat : 49.2836595, Lng : -123.1148237, Q1 : 0.872765541077, Q2 : 0.0682343542576, Q3 : -0.132820442319, Q4 : 0.464739888906}
2019-04-14 18:59:00.31: SIM {TimeUS : 60335023, Roll : -0.24, Pitch : -17.18, Yaw : 56.04, Alt : 49.2999992371, Lat : 49.2836616, Lng : -123.1148187, Q1 : 0.873004436493, Q2 : 0.0683666318655, Q3 : -0.132895171642, Q4 : 0.464250087738}
2019-04-14 18:59:00.41: SIM {TimeUS : 60434983, Roll : -0.18, Pitch : -17.21, Yaw : 55.94, Alt : 49.2999992371, Lat : 49.2836639, Lng : -123.1148137, Q1 : 0.873329520226, Q2 : 0.0687595978379, Q3 : -0.132953926921, Q4 : 0.463563293219}
2019-04-14 18:59:00.51: SIM {TimeUS : 60534943, Roll : -0.12, Pitch : -17.25, Yaw : 55.83, Alt : 49.2999992371, Lat : 49.2836661, Lng : -123.1148087, Q1 : 0.873700678349, Q2 : 0.0692975744605, Q3 : -0.133032396436, Q4 : 0.462760567665}
2019-04-14 18:59:00.61: SIM {TimeUS : 60634903, Roll : -0.03, Pitch : -17.29, Yaw : 55.71, Alt : 49.3100013733, Lat : 49.2836682, Lng : -123.1148037, Q1 : 0.87407207489, Q2 : 0.0700045078993, Q3 : -0.133081719279, Q4 : 0.461937874556}
2019-04-14 18:59:00.71: SIM {TimeUS : 60734863, Roll : 0.05, Pitch : -17.34, Yaw : 55.6, Alt : 49.3100013733, Lat : 49.2836705, Lng : -123.1147987, Q1 : 0.874397456646, Q2 : 0.0707910582423, Q3 : -0.133157432079, Q4 : 0.461179882288}
2019-04-14 18:59:00.81: SIM {TimeUS : 60834823, Roll : 0.13, Pitch : -17.38, Yaw : 55.51, Alt : 49.3100013733, Lat : 49.2836728, Lng : -123.1147936, Q1 : 0.874685943127, Q2 : 0.0713795945048, Q3 : -0.133208066225, Q4 : 0.460526973009}
2019-04-14 18:59:00.91: SIM {TimeUS : 60935616, Roll : 0.16, Pitch : -17.39, Yaw : 55.44, Alt : 49.3100013733, Lat : 49.2836749, Lng : -123.1147885, Q1 : 0.874945819378, Q2 : 0.0715708956122, Q3 : -0.133230417967, Q4 : 0.459996849298}
2019-04-14 18:59:01.01: SIM {TimeUS : 61035576, Roll : 0.15, Pitch : -17.39, Yaw : 55.39, Alt : 49.3100013733, Lat : 49.2836773, Lng : -123.1147834, Q1 : 0.875148892403, Q2 : 0.0714665800333, Q3 : -0.13326600194, Q4 : 0.459616273642}
2019-04-14 18:59:01.11: SIM {TimeUS : 61135536, Roll : 0.15, Pitch : -17.38, Yaw : 55.36, Alt : 49.3100013733, Lat : 49.2836795, Lng : -123.1147783, Q1 : 0.875261187553, Q2 : 0.0714427381754, Q3 : -0.133216679096, Q4 : 0.459420382977}
2019-04-14 18:59:01.21: SIM {TimeUS : 61235496, Roll : 0.15, Pitch : -17.39, Yaw : 55.35, Alt : 49.3100013733, Lat : 49.2836817, Lng : -123.1147731, Q1 : 0.875281631947, Q2 : 0.0714574456215, Q3 : -0.133279070258, Q4 : 0.459361106157}
2019-04-14 18:59:01.31: SIM {TimeUS : 61335456, Roll : 0.16, Pitch : -17.42, Yaw : 55.36, Alt : 49.3100013733, Lat : 49.283684, Lng : -123.1147681, Q1 : 0.875205993652, Q2 : 0.0716649740934, Q3 : -0.13350123167, Q4 : 0.459408372641}
2019-04-14 18:59:01.41: SIM {TimeUS : 61435416, Roll : 0.17, Pitch : -17.48, Yaw : 55.38, Alt : 49.3100013733, Lat : 49.2836864, Lng : -123.1147629, Q1 : 0.87507045269, Q2 : 0.0719488337636, Q3 : -0.13389955461, Q4 : 0.459506303072}
2019-04-14 18:59:01.51: SIM {TimeUS : 61535376, Roll : 0.16, Pitch : -17.52, Yaw : 55.4, Alt : 49.3199996948, Lat : 49.2836887, Lng : -123.1147578, Q1 : 0.87494468689, Q2 : 0.0720550566912, Q3 : -0.13420727849, Q4 : 0.459639310837}
2019-04-14 18:59:01.61: SIM {TimeUS : 61635336, Roll : 0.14, Pitch : -17.53, Yaw : 55.42, Alt : 49.3199996948, Lat : 49.283691, Lng : -123.1147526, Q1 : 0.874853253365, Q2 : 0.0720035731792, Q3 : -0.134385377169, Q4 : 0.459769368172}
2019-04-14 18:59:01.71: SIM {TimeUS : 61735296, Roll : 0.1, Pitch : -17.55, Yaw : 55.44, Alt : 49.3199996948, Lat : 49.2836932, Lng : -123.1147474, Q1 : 0.87479275465, Q2 : 0.0718142613769, Q3 : -0.134631603956, Q4 : 0.459841996431}
2019-04-14 18:59:01.81: SIM {TimeUS : 61835256, Roll : 0.07, Pitch : -17.57, Yaw : 55.44, Alt : 49.3199996948, Lat : 49.2836955, Lng : -123.1147422, Q1 : 0.874754667282, Q2 : 0.0716242939234, Q3 : -0.134972974658, Q4 : 0.459844082594}
2019-04-14 18:59:01.91: SIM {TimeUS : 61935216, Roll : 0.05, Pitch : -17.59, Yaw : 55.45, Alt : 49.3199996948, Lat : 49.2836979, Lng : -123.114737, Q1 : 0.874736428261, Q2 : 0.0716135129333, Q3 : -0.135158717632, Q4 : 0.459825843573}
2019-04-14 18:59:02.01: SIM {TimeUS : 62035176, Roll : 0.05, Pitch : -17.61, Yaw : 55.44, Alt : 49.3199996948, Lat : 49.2837002, Lng : -123.1147317, Q1 : 0.874753534794, Q2 : 0.0716202184558, Q3 : -0.135291934013, Q4 : 0.459753066301}
2019-04-14 18:59:02.11: SIM {TimeUS : 62135136, Roll : 0.05, Pitch : -17.62, Yaw : 55.42, Alt : 49.3199996948, Lat : 49.2837024, Lng : -123.1147265, Q1 : 0.874798059464, Q2 : 0.0716883540154, Q3 : -0.135357841849, Q4 : 0.45963832736}
2019-04-14 18:59:02.21: SIM {TimeUS : 62235096, Roll : 0.07, Pitch : -17.63, Yaw : 55.4, Alt : 49.3199996948, Lat : 49.2837048, Lng : -123.1147212, Q1 : 0.874862611294, Q2 : 0.0718215554953, Q3 : -0.135446891189, Q4 : 0.459468483925}
2019-04-14 18:59:02.31: SIM {TimeUS : 62335056, Roll : 0.08, Pitch : -17.64, Yaw : 55.37, Alt : 49.3199996948, Lat : 49.2837071, Lng : -123.114716, Q1 : 0.87495046854, Q2 : 0.0719600319862, Q3 : -0.135485976934, Q4 : 0.459267884493}
2019-04-14 18:59:02.41: SIM {TimeUS : 62435016, Roll : 0.11, Pitch : -17.66, Yaw : 55.34, Alt : 49.3199996948, Lat : 49.2837095, Lng : -123.1147107, Q1 : 0.875033140182, Q2 : 0.0721401497722, Q3 : -0.13550837338, Q4 : 0.459075421095}
2019-04-14 18:59:02.51: SIM {TimeUS : 62534976, Roll : 0.13, Pitch : -17.68, Yaw : 55.32, Alt : 49.3199996948, Lat : 49.2837119, Lng : -123.1147054, Q1 : 0.87509316206, Q2 : 0.0724381133914, Q3 : -0.135608077049, Q4 : 0.458884656429}
2019-04-14 18:59:02.61: SIM {TimeUS : 62634936, Roll : 0.15, Pitch : -17.72, Yaw : 55.29, Alt : 49.3199996948, Lat : 49.2837143, Lng : -123.1147001, Q1 : 0.875143527985, Q2 : 0.0726836919785, Q3 : -0.135875940323, Q4 : 0.458670467138}
2019-04-14 18:59:02.71: SIM {TimeUS : 62734896, Roll : 0.15, Pitch : -17.77, Yaw : 55.26, Alt : 49.3199996948, Lat : 49.2837166, Lng : -123.1146948, Q1 : 0.875193357468, Q2 : 0.0727931931615, Q3 : -0.136244386435, Q4 : 0.458448708057}
2019-04-14 18:59:02.81: SIM {TimeUS : 62834856, Roll : 0.14, Pitch : -17.81, Yaw : 55.24, Alt : 49.3199996948, Lat : 49.283719, Lng : -123.1146895, Q1 : 0.875231385231, Q2 : 0.0729027315974, Q3 : -0.136643782258, Q4 : 0.458239793777}
2019-04-14 18:59:02.91: SIM {TimeUS : 62934816, Roll : 0.15, Pitch : -17.84, Yaw : 55.22, Alt : 49.3199996948, Lat : 49.2837212, Lng : -123.1146842, Q1 : 0.875264048576, Q2 : 0.0730830952525, Q3 : -0.136852070689, Q4 : 0.458086460829}
2019-04-14 18:59:03.01: SIM {TimeUS : 63035609, Roll : 0.17, Pitch : -17.84, Yaw : 55.21, Alt : 49.3199996948, Lat : 49.2837236, Lng : -123.1146788, Q1 : 0.875320792198, Q2 : 0.0732270851731, Q3 : -0.136710211635, Q4 : 0.457997351885}
2019-04-14 18:59:03.11: SIM {TimeUS : 63135569, Roll : 0.19, Pitch : -17.79, Yaw : 55.19, Alt : 49.3300018311, Lat : 49.283726, Lng : -123.1146734, Q1 : 0.875413656235, Q2 : 0.0731395483017, Q3 : -0.136333972216, Q4 : 0.457946151495}
2019-04-14 18:59:03.21: SIM {TimeUS : 63235529, Roll : 0.18, Pitch : -17.77, Yaw : 55.19, Alt : 49.3300018311, Lat : 49.2837284, Lng : -123.1146681, Q1 : 0.875486195087, Q2 : 0.0729582980275, Q3 : -0.136161610484, Q4 : 0.457887619734}
2019-04-14 18:59:03.31: SIM {TimeUS : 63335489, Roll : 0.16, Pitch : -17.75, Yaw : 55.18, Alt : 49.3300018311, Lat : 49.2837308, Lng : -123.1146627, Q1 : 0.875542521477, Q2 : 0.0727693662047, Q3 : -0.136116266251, Q4 : 0.457823395729}
2019-04-14 18:59:03.41: SIM {TimeUS : 63435449, Roll : 0.15, Pitch : -17.75, Yaw : 55.17, Alt : 49.3300018311, Lat : 49.2837332, Lng : -123.1146573, Q1 : 0.875574350357, Q2 : 0.0726820006967, Q3 : -0.136181399226, Q4 : 0.457757145166}
2019-04-14 18:59:03.51: SIM {TimeUS : 63535409, Roll : 0.14, Pitch : -17.77, Yaw : 55.16, Alt : 49.3300018311, Lat : 49.2837357, Lng : -123.114652, Q1 : 0.87558811903, Q2 : 0.0726776272058, Q3 : -0.13636828959, Q4 : 0.457675725222}
2019-04-14 18:59:03.61: SIM {TimeUS : 63635369, Roll : 0.14, Pitch : -17.8, Yaw : 55.16, Alt : 49.3300018311, Lat : 49.2837381, Lng : -123.1146466, Q1 : 0.875591278076, Q2 : 0.0727769061923, Q3 : -0.136561244726, Q4 : 0.457596451044}
2019-04-14 18:59:03.71: SIM {TimeUS : 63735329, Roll : 0.14, Pitch : -17.84, Yaw : 55.15, Alt : 49.3300018311, Lat : 49.2837405, Lng : -123.1146412, Q1 : 0.875582993031, Q2 : 0.0728914961219, Q3 : -0.136882901192, Q4 : 0.457497954369}
2019-04-14 18:59:03.81: SIM {TimeUS : 63835289, Roll : 0.14, Pitch : -17.88, Yaw : 55.14, Alt : 49.3300018311, Lat : 49.2837429, Lng : -123.1146357, Q1 : 0.875568330288, Q2 : 0.0730468034744, Q3 : -0.137244775891, Q4 : 0.457392811775}
2019-04-14 18:59:03.91: SIM {TimeUS : 63935249, Roll : 0.15, Pitch : -17.92, Yaw : 55.13, Alt : 49.3300018311, Lat : 49.2837453, Lng : -123.1146304, Q1 : 0.875560224056, Q2 : 0.0732568949461, Q3 : -0.137483716011, Q4 : 0.457302927971}
2019-04-14 18:59:04.01: SIM {TimeUS : 64035209, Roll : 0.15, Pitch : -17.95, Yaw : 55.12, Alt : 49.3300018311, Lat : 49.2837477, Lng : -123.1146249, Q1 : 0.875561892986, Q2 : 0.07339707762, Q3 : -0.137742370367, Q4 : 0.457199424505}
2019-04-14 18:59:04.11: SIM {TimeUS : 64135169, Roll : 0.14, Pitch : -17.97, Yaw : 55.1, Alt : 49.3300018311, Lat : 49.2837501, Lng : -123.1146195, Q1 : 0.875584661961, Q2 : 0.0734257474542, Q3 : -0.137938007712, Q4 : 0.457092165947}
2019-04-14 18:59:04.21: SIM {TimeUS : 64235129, Roll : 0.15, Pitch : -17.97, Yaw : 55.09, Alt : 49.3300018311, Lat : 49.2837525, Lng : -123.1146141, Q1 : 0.875632345676, Q2 : 0.073468990624, Q3 : -0.137880221009, Q4 : 0.457011401653}
2019-04-14 18:59:04.31: SIM {TimeUS : 64335089, Roll : 0.17, Pitch : -17.97, Yaw : 55.08, Alt : 49.3300018311, Lat : 49.2837549, Lng : -123.1146087, Q1 : 0.875672101974, Q2 : 0.0735981911421, Q3 : -0.137842848897, Q4 : 0.456925719976}
2019-04-14 18:59:04.41: SIM {TimeUS : 64435049, Roll : 0.18, Pitch : -17.99, Yaw : 55.06, Alt : 49.3300018311, Lat : 49.2837573, Lng : -123.1146032, Q1 : 0.875708580017, Q2 : 0.0736663341522, Q3 : -0.137944892049, Q4 : 0.456813961267}
2019-04-14 18:59:04.51: SIM {TimeUS : 64535009, Roll : 0.18, Pitch : -17.99, Yaw : 55.05, Alt : 49.3300018311, Lat : 49.2837598, Lng : -123.1145978, Q1 : 0.875754892826, Q2 : 0.0736884772778, Q3 : -0.137999460101, Q4 : 0.456705003977}
2019-04-14 18:59:04.61: SIM {TimeUS : 64634969, Roll : 0.18, Pitch : -17.99, Yaw : 55.04, Alt : 49.3400001526, Lat : 49.2837622, Lng : -123.1145923, Q1 : 0.875814437866, Q2 : 0.0736705064774, Q3 : -0.137940391898, Q4 : 0.456611543894}
2019-04-14 18:59:04.71: SIM {TimeUS : 64734929, Roll : 0.18, Pitch : -17.99, Yaw : 55.02, Alt : 49.3400001526, Lat : 49.2837646, Lng : -123.1145868, Q1 : 0.875868201256, Q2 : 0.0736537277699, Q3 : -0.137922912836, Q4 : 0.456516474485}
2019-04-14 18:59:04.81: SIM {TimeUS : 64834889, Roll : 0.17, Pitch : -18.0, Yaw : 55.01, Alt : 49.3400001526, Lat : 49.2837671, Lng : -123.1145814, Q1 : 0.875903606415, Q2 : 0.0736001655459, Q3 : -0.138123393059, Q4 : 0.45639654994}
2019-04-14 18:59:04.91: SIM {TimeUS : 64934849, Roll : 0.14, Pitch : -18.04, Yaw : 55.0, Alt : 49.3400001526, Lat : 49.2837695, Lng : -123.1145759, Q1 : 0.875918924809, Q2 : 0.0735495239496, Q3 : -0.138492256403, Q4 : 0.456263542175}
2019-04-14 18:59:05.01: SIM {TimeUS : 65035642, Roll : 0.13, Pitch : -18.05, Yaw : 54.99, Alt : 49.3400001526, Lat : 49.283772, Lng : -123.1145704, Q1 : 0.87595385313, Q2 : 0.07349178195, Q3 : -0.138605058193, Q4 : 0.456171572208}
2019-04-14 18:59:05.11: SIM {TimeUS : 65135602, Roll : 0.15, Pitch : -18.02, Yaw : 54.98, Alt : 49.3400001526, Lat : 49.2837744, Lng : -123.1145649, Q1 : 0.876016020775, Q2 : 0.0734777823091, Q3 : -0.138357356191, Q4 : 0.456129670143}
2019-04-14 18:59:05.21: SIM {TimeUS : 65235562, Roll : 0.17, Pitch : -18.0, Yaw : 54.97, Alt : 49.3400001526, Lat : 49.2837769, Lng : -123.1145594, Q1 : 0.876071155071, Q2 : 0.0735228583217, Q3 : -0.138104885817, Q4 : 0.456092953682}
2019-04-14 18:59:05.31: SIM {TimeUS : 65335522, Roll : 0.17, Pitch : -18.0, Yaw : 54.96, Alt : 49.3400001526, Lat : 49.2837793, Lng : -123.1145539, Q1 : 0.876101374626, Q2 : 0.0735681056976, Q3 : -0.138148367405, Q4 : 0.456014484167}
2019-04-14 18:59:05.41: SIM {TimeUS : 65435482, Roll : 0.16, Pitch : -18.03, Yaw : 54.95, Alt : 49.3400001526, Lat : 49.2837818, Lng : -123.1145484, Q1 : 0.87611413002, Q2 : 0.0735611543059, Q3 : -0.138404712081, Q4 : 0.45591327548}
2019-04-14 18:59:05.51: SIM {TimeUS : 65535442, Roll : 0.13, Pitch : -18.06, Yaw : 54.94, Alt : 49.3400001526, Lat : 49.2837842, Lng : -123.1145429, Q1 : 0.876129329205, Q2 : 0.0734487101436, Q3 : -0.138780295849, Q4 : 0.455788075924}
2019-04-14 18:59:05.61: SIM {TimeUS : 65635402, Roll : 0.11, Pitch : -18.09, Yaw : 54.93, Alt : 49.3400001526, Lat : 49.2837867, Lng : -123.1145374, Q1 : 0.876147389412, Q2 : 0.0734077766538, Q3 : -0.139072567225, Q4 : 0.45567086339}
2019-04-14 18:59:05.71: SIM {TimeUS : 65735362, Roll : 0.11, Pitch : -18.12, Yaw : 54.92, Alt : 49.3400001526, Lat : 49.2837891, Lng : -123.1145319, Q1 : 0.876159727573, Q2 : 0.0734996721148, Q3 : -0.139287650585, Q4 : 0.455566555262}
2019-04-14 18:59:05.81: SIM {TimeUS : 65835322, Roll : 0.12, Pitch : -18.13, Yaw : 54.91, Alt : 49.3400001526, Lat : 49.2837916, Lng : -123.1145264, Q1 : 0.876175761223, Q2 : 0.0736522078514, Q3 : -0.13935340941, Q4 : 0.455490916967}
2019-04-14 18:59:05.91: SIM {TimeUS : 65935282, Roll : 0.15, Pitch : -18.13, Yaw : 54.9, Alt : 49.3400001526, Lat : 49.283794, Lng : -123.1145208, Q1 : 0.876198172569, Q2 : 0.0738741010427, Q3 : -0.1392647475, Q4 : 0.455439060926}
