2019-04-14 17:59:38.30: SIM {TimeUS : 40916127, Roll : 0.0, Pitch : 0.0, Yaw : 0.0, Alt : 30.1000003815, Lat : 49.28357, Lng : -123.11502, Q1 : 1.0, Q2 : 0.0, Q3 : 0.0, Q4 : 0.0}
2019-04-14 17:59:38.41: SIM {TimeUS : 41035246, Roll : 0.0, Pitch : 0.0, Yaw : 0.0, Alt : 30.1000003815, Lat : 49.28357, Lng : -123.11502, Q1 : 1.0, Q2 : 0.0, Q3 : 0.0, Q4 : 0.0}
2019-04-14 17:59:38.51: SIM {TimeUS : 41135206, Roll : 0.0, Pitch : 0.0, Yaw : 0.0, Alt : 30.1000003815, Lat : 49.28357, Lng : -123.11502, Q1 : 1.0, Q2 : 0.0, Q3 : 0.0, Q4 : 0.0}
2019-04-14 17:59:38.61: SIM {TimeUS : 41235166, Roll : 0.0, Pitch : 0.0, Yaw : 0.0, Alt : 30.1000003815, Lat : 49.28357, Lng : -123.11502, Q1 : 1.0, Q2 : 0.0, Q3 : 0.0, Q4 : 0.0}
2019-04-14 17:59:38.71: SIM {TimeUS : 41335126, Roll : 0.0, Pitch : 0.0, Yaw : 0.0, Alt : 30.1000003815, Lat : 49.28357, Lng : -123.11502, Q1 : 1.0, Q2 : 0.0, Q3 : 0.0, Q4 : 0.0}
2019-04-14 17:59:38.81: SIM {TimeUS : 41435086, Roll : 0.0, Pitch : 0.0, Yaw : 0.0, Alt : 30.1000003815, Lat : 49.28357, Lng : -123.11502, Q1 : 1.0, Q2 : 0.0, Q3 : 0.0, Q4 : 0.0}
2019-04-14 17:59:38.91: SIM {TimeUS : 41535046, Roll : 0.0, Pitch : 0.0, Yaw : 0.0, Alt : 30.1000003815, Lat : 49.28357, Lng : -123.11502, Q1 : 1.0, Q2 : 0.0, Q3 : 0.0, Q4 : 0.0}
2019-04-14 17:59:39.01: SIM {TimeUS : 41635006, Roll : 0.0, Pitch : 0.0, Yaw : 0.0, Alt : 30.1000003815, Lat : 49.28357, Lng : -123.11502, Q1 : 1.0, Q2 : 0.0, Q3 : 0.0, Q4 : 0.0}
2019-04-14 17:59:39.11: SIM {TimeUS : 41734966, Roll : 0.0, Pitch : 0.0, Yaw : 0.0, Alt : 30.1000003815, Lat : 49.28357, Lng : -123.11502, Q1 : 1.0, Q2 : 0.0, Q3 : 0.0, Q4 : 0.0}
2019-04-14 17:59:39.21: SIM {TimeUS : 41834926, Roll : 0.0, Pitch : 0.0, Yaw : 0.0, Alt : 30.1000003815, Lat : 49.28357, Lng : -123.11502, Q1 : 1.0, Q2 : 0.0, Q3 : 0.0, Q4 : 0.0}
2019-04-14 17:59:39.31: SIM {TimeUS : 41934886, Roll : 0.0, Pitch : 0.0, Yaw : 0.0, Alt : 30.1000003815, Lat : 49.28357, Lng : -123.11502, Q1 : 1.0, Q2 : 0.0, Q3 : 0.0, Q4 : 0.0}
2019-04-14 17:59:39.41: SIM {TimeUS : 42034846, Roll : 0.0, Pitch : 0.0, Yaw : 0.0, Alt : 30.1000003815, Lat : 49.28357, Lng : -123.11502, Q1 : 1.0, Q2 : 0.0, Q3 : 0.0, Q4 : 0.0}
2019-04-14 17:59:39.51: SIM {TimeUS : 42134806, Roll : 0.0, Pitch : 0.0, Yaw : 0.0, Alt : 30.1000003815, Lat : 49.28357, Lng : -123.11502, Q1 : 1.0, Q2 : 0.0, Q3 : 0.0, Q4 : 0.0}
2019-04-14 17:59:39.61: SIM {TimeUS : 42234766, Roll : 0.0, Pitch : 0.0, Yaw : 0.0, Alt : 30.1000003815, Lat : 49.28357, Lng : -123.11502, Q1 : 1.0, Q2 : 0.0, Q3 : 0.0, Q4 : 0.0}
2019-04-14 17:59:39.71: SIM {TimeUS : 42334726, Roll : 0.0, Pitch : 0.0, Yaw : 0.0, Alt : 30.1000003815, Lat : 49.28357, Lng : -123.11502, Q1 : 1.0, Q2 : 0.0, Q3 : 0.0, Q4 : 0.0}
2019-04-14 17:59:39.81: SIM {TimeUS : 42434686, Roll : 0.0, Pitch : 0.0, Yaw : 0.0, Alt : 30.1000003815, Lat : 49.28357, Lng : -123.11502, Q1 : 1.0, Q2 : 0.0, Q3 : 0.0, Q4 : 0.0}
2019-04-14 17:59:39.91: SIM {TimeUS : 42534646, Roll : 0.0, Pitch : 0.0, Yaw : 0.0, Alt : 30.1000003815, Lat : 49.28357, Lng : -123.11502, Q1 : 1.0, Q2 : 0.0, Q3 : 0.0, Q4 : 0.0}
2019-04-14 17:59:40.01: SIM {TimeUS : 42634606, Roll : 0.0, Pitch : 0.0, Yaw : 0.0, Alt : 30.1000003815, Lat : 49.28357, Lng : -123.11502, Q1 : 1.0, Q2 : 0.0, Q3 : 0.0, Q4 : 0.0}
2019-04-14 17:59:40.11: SIM {TimeUS : 42734566, Roll : 0.0, Pitch : 0.0, Yaw : 0.0, Alt : 30.1000003815, Lat : 49.28357, Lng : -123.11502, Q1 : 1.0, Q2 : 0.0, Q3 : 0.0, Q4 : 0.0}
2019-04-14 17:59:40.21: SIM {TimeUS : 42834526, Roll : 0.0, Pitch : 0.0, Yaw : 0.0, Alt : 30.1000003815, Lat : 49.28357, Lng : -123.11502, Q1 : 1.0, Q2 : 0.0, Q3 : 0.0, Q4 : 0.0}
2019-04-14 17:59:40.31: SIM {TimeUS : 42934486, Roll : 0.0, Pitch : 0.0, Yaw : 0.0, Alt : 30.1000003815, Lat : 49.28357, Lng : -123.11502, Q1 : 1.0, Q2 : 0.0, Q3 : 0.0, Q4 : 0.0}
2019-04-14 17:59:40.42: SIM {TimeUS : 43035279, Roll : 0.0, Pitch : 0.0, Yaw : 0.0, Alt : 30.1000003815, Lat : 49.28357, Lng : -123.11502, Q1 : 1.0, Q2 : 0.0, Q3 : 0.0, Q4 : 0.0}
2019-04-14 17:59:40.51: SIM {TimeUS : 43135239, Roll : 0.0, Pitch : 0.0, Yaw : 0.0, Alt : 30.1000003815, Lat : 49.28357, Lng : -123.11502, Q1 : 1.0, Q2 : 0.0, Q3 : 0.0, Q4 : 0.0}
2019-04-14 17:59:40.61: SIM {TimeUS : 43235199, Roll : 0.0, Pitch : 0.0, Yaw : 360.0, Alt : 30.1000003815, Lat : 49.28357, Lng : -123.11502, Q1 : 1.0, Q2 : 0.0, Q3 : 0.0, Q4 : -1.3288053817e-11}
2019-04-14 17:59:40.71: SIM {TimeUS : 43335159, Roll : 0.0, Pitch : 0.0, Yaw : 0.0, Alt : 30.1000003815, Lat : 49.28357, Lng : -123.11502, Q1 : 1.0, Q2 : 0.0, Q3 : 0.0, Q4 : 5.66979900529e-11}
2019-04-14 17:59:40.81: SIM {TimeUS : 43435119, Roll : 0.0, Pitch : 0.0, Yaw : 360.0, Alt : 30.1000003815, Lat : 49.28357, Lng : -123.11502, Q1 : 1.0, Q2 : 0.0, Q3 : 0.0, Q4 : -1.43866955682e-07}
2019-04-14 17:59:40.91: SIM {TimeUS : 43535079, Roll : 0.0, Pitch : 0.0, Yaw : 359.99, Alt : 30.1000003815, Lat : 49.28357, Lng : -123.11502, Q1 : 1.0, Q2 : 0.0, Q3 : 0.0, Q4 : -3.23557344473e-07}
2019-04-14 17:59:41.01: SIM {TimeUS : 43635039, Roll : 0.0, Pitch : 0.0, Yaw : 359.99, Alt : 30.1000003815, Lat : 49.28357, Lng : -123.11502, Q1 : 1.0, Q2 : 0.0, Q3 : 0.0, Q4 : -5.09439928464e-07}
2019-04-14 17:59:41.11: SIM {TimeUS : 43734999, Roll : 0.0, Pitch : 0.0, Yaw : 359.99, Alt : 30.1000003815, Lat : 49.28357, Lng : -123.11502, Q1 : 1.0, Q2 : 0.0, Q3 : 0.0, Q4 : -6.50577987926e-07}
2019-04-14 17:59:41.21: SIM {TimeUS : 43834959, Roll : 0.0, Pitch : 0.0, Yaw : 359.99, Alt : 30.1000003815, Lat : 49.28357, Lng : -123.11502, Q1 : 1.0, Q2 : 0.0, Q3 : 0.0, Q4 : -8.18843716388e-07}
2019-04-14 17:59:41.31: SIM {TimeUS : 43934919, Roll : 0.0, Pitch : 0.0, Yaw : 359.99, Alt : 30.1000003815, Lat : 49.28357, Lng : -123.11502, Q1 : 1.0, Q2 : 0.0, Q3 : 0.0, Q4 : -1.01247997009e-06}
2019-04-14 17:59:41.41: SIM {TimeUS : 44034879, Roll : 0.0, Pitch : 0.0, Yaw : 359.99, Alt : 30.1000003815, Lat : 49.28357, Lng : -123.11502, Q1 : 1.0, Q2 : 0.0, Q3 : 0.0, Q4 : -1.21179186863e-06}
2019-04-14 17:59:41.51: SIM {TimeUS : 44134839, Roll : 0.0, Pitch : 0.0, Yaw : 359.99, Alt : 30.1100006104, Lat : 49.28357, Lng : -123.11502, Q1 : 1.0, Q2 : 0.0, Q3 : 0.0, Q4 : -1.40212830502e-06}
2019-04-14 17:59:41.61: SIM {TimeUS : 44234799, Roll : 0.0, Pitch : 0.0, Yaw : 359.99, Alt : 30.1399993896, Lat : 49.28357, Lng : -123.11502, Q1 : 1.0, Q2 : 0.0, Q3 : 0.0, Q4 : -1.59666399213e-06}
2019-04-14 17:59:41.71: SIM {TimeUS : 44334759, Roll : 0.0, Pitch : 0.0, Yaw : 359.99, Alt : 30.1599998474, Lat : 49.28357, Lng : -123.11502, Q1 : 1.0, Q2 : 0.0, Q3 : 0.0, Q4 : -1.84909254131e-06}
2019-04-14 17:59:41.81: SIM {TimeUS : 44434719, Roll : 0.0, Pitch : 0.0, Yaw : 359.99, Alt : 30.2000007629, Lat : 49.28357, Lng : -123.11502, Q1 : 1.0, Q2 : 0.0, Q3 : 0.0, Q4 : -2.11455608223e-06}
2019-04-14 17:59:41.91: SIM {TimeUS : 44534679, Roll : -0.09, Pitch : -0.07, Yaw : 359.99, Alt : 30.25, Lat : 49.28357, Lng : -123.11502, Q1 : 0.999999403954, Q2 : -0.000867281167302, Q3 : -0.000653826049529, Q4 : -7.77744662628e-06}
2019-04-14 17:59:42.01: SIM {TimeUS : 44634639, Roll : -0.38, Pitch : -0.31, Yaw : 359.99, Alt : 30.3400001526, Lat : 49.28357, Lng : -123.11502, Q1 : 0.999990701675, Q2 : -0.00336529780179, Q3 : -0.00270525878295, Q4 : -3.38294594258e-05}
2019-04-14 17:59:42.11: SIM {TimeUS : 44734599, Roll : -0.65, Pitch : -0.55, Yaw : 359.99, Alt : 30.4899997711, Lat : 49.28357, Lng : -123.11502, Q1 : 0.999972045422, Q2 : -0.00569122470915, Q3 : -0.00484581338242, Q4 : -8.02725699032e-05}
2019-04-14 17:59:42.21: SIM {TimeUS : 44834559, Roll : -0.78, Pitch : -0.7, Yaw : 359.98, Alt : 30.6499996185, Lat : 49.28357, Lng : -123.11502, Q1 : 0.999957978725, Q2 : -0.00682304147631, Q3 : -0.00612633256242, Q4 : -0.000149503961438}
2019-04-14 17:59:42.31: SIM {TimeUS : 44934519, Roll : -0.76, Pitch : -0.71, Yaw : 359.97, Alt : 30.7999992371, Lat : 49.28357, Lng : -123.11502, Q1 : 0.999958395958, Q2 : -0.00666763726622, Q3 : -0.00622267369181, Q4 : -0.000228118224186}
2019-04-14 17:59:42.41: SIM {TimeUS : 45034479, Roll : -0.62, Pitch : -0.6, Yaw : 359.96, Alt : 30.9599990845, Lat : 49.28357, Lng : -123.1150201, Q1 : 0.999970853329, Q2 : -0.00547693995759, Q3 : -0.00530827837065, Q4 : -0.00030263492954}
2019-04-14 17:59:42.52: SIM {TimeUS : 45135272, Roll : -0.41, Pitch : -0.43, Yaw : 359.95, Alt : 31.1100006104, Lat : 49.2835701, Lng : -123.1150202, Q1 : 0.999986231327, Q2 : -0.00364701589569, Q3 : -0.00375744560733, Q4 : -0.000370173976989}
2019-04-14 17:59:42.61: SIM {TimeUS : 45235232, Roll : -0.2, Pitch : -0.22, Yaw : 359.95, Alt : 31.2700004578, Lat : 49.2835701, Lng : -123.1150202, Q1 : 0.999996423721, Q2 : -0.00182188092731, Q3 : -0.00193010736257, Q4 : -0.000418238982093}
2019-04-14 17:59:42.71: SIM {TimeUS : 45335192, Roll : -0.05, Pitch : -0.04, Yaw : 359.94, Alt : 31.4400005341, Lat : 49.2835702, Lng : -123.1150203, Q1 : 0.999999701977, Q2 : -0.000478956761071, Q3 : -0.000350223097485, Q4 : -0.000452244858025}
2019-04-14 17:59:42.81: SIM {TimeUS : 45435152, Roll : 0.02, Pitch : 0.07, Yaw : 359.94, Alt : 31.6100006104, Lat : 49.2835702, Lng : -123.1150204, Q1 : 0.999999642372, Q2 : 0.000227384312893, Q3 : 0.000648855580948, Q4 : -0.000476145360153}
2019-04-14 17:59:42.91: SIM {TimeUS : 45535112, Roll : 0.06, Pitch : 0.13, Yaw : 359.94, Alt : 31.7900009155, Lat : 49.2835703, Lng : -123.1150204, Q1 : 0.999999046326, Q2 : 0.000565770256799, Q3 : 0.0011705129873, Q4 : -0.000495917629451}
2019-04-14 17:59:43.01: SIM {TimeUS : 45635072, Roll : 0.07, Pitch : 0.13, Yaw : 359.94, Alt : 31.9699993134, Lat : 49.2835703, Lng : -123.1150205, Q1 : 0.999998927116, Q2 : 0.000673990231007, Q3 : 0.00121582241263, Q4 : -0.000499065674376}
2019-04-14 17:59:43.11: SIM {TimeUS : 45735032, Roll : 0.07, Pitch : 0.12, Yaw : 359.94, Alt : 32.1599998474, Lat : 49.2835703, Lng : -123.1150205, Q1 : 0.999999046326, Q2 : 0.000668438849971, Q3 : 0.00108487019315, Q4 : -0.000490667298436}
2019-04-14 17:59:43.21: SIM {TimeUS : 45834992, Roll : 0.06, Pitch : 0.1, Yaw : 359.94, Alt : 32.3499984741, Lat : 49.2835703, Lng : -123.1150206, Q1 : 0.999999284744, Q2 : 0.000585586007219, Q3 : 0.0009551832336, Q4 : -0.000483010371681}
2019-04-14 17:59:43.31: SIM {TimeUS : 45934952, Roll : 0.06, Pitch : 0.08, Yaw : 359.94, Alt : 32.5400009155, Lat : 49.2835703, Lng : -123.1150206, Q1 : 0.999999463558, Q2 : 0.000575855548959, Q3 : 0.00074993330054, Q4 : -0.000476229906781}
2019-04-14 17:59:43.41: SIM {TimeUS : 46034912, Roll : 0.08, Pitch : 0.06, Yaw : 359.94, Alt : 32.7299995422, Lat : 49.2835703, Lng : -123.1150207, Q1 : 0.999999463558, Q2 : 0.000711317814421, Q3 : 0.000596131489147, Q4 : -0.000461091345642}
2019-04-14 17:59:43.51: SIM {TimeUS : 46134872, Roll : 0.1, Pitch : 0.07, Yaw : 359.94, Alt : 32.9300003052, Lat : 49.2835703, Lng : -123.1150207, Q1 : 0.999999284744, Q2 : 0.000882005842868, Q3 : 0.00064399279654, Q4 : -0.000442044547526}
2019-04-14 17:59:43.61: SIM {TimeUS : 46234832, Roll : 0.13, Pitch : 0.1, Yaw : 359.95, Alt : 33.1300010681, Lat : 49.2835704, Lng : -123.1150207, Q1 : 0.999998807907, Q2 : 0.0011529608164, Q3 : 0.000930474256165, Q4 : -0.000426559825428}
2019-04-14 17:59:43.71: SIM {TimeUS : 46334792, Roll : 0.16, Pitch : 0.14, Yaw : 359.95, Alt : 33.3400001526, Lat : 49.2835704, Lng : -123.1150207, Q1 : 0.999998092651, Q2 : 0.00141962908674, Q3 : 0.0012735374039, Q4 : -0.00042220816249}
2019-04-14 17:59:43.81: SIM {TimeUS : 46434752, Roll : 0.17, Pitch : 0.16, Yaw : 359.95, Alt : 33.5400009155, Lat : 49.2835704, Lng : -123.1150208, Q1 : 0.999997615814, Q2 : 0.00157112139277, Q3 : 0.001437085215, Q4 : -0.000427448743721}
2019-04-14 17:59:43.91: SIM {TimeUS : 46534712, Roll : 0.16, Pitch : 0.15, Yaw : 359.95, Alt : 33.75, Lat : 49.2835704, Lng : -123.1150208, Q1 : 0.999997913837, Q2 : 0.00145889539272, Q3 : 0.00135481799953, Q4 : -0.000437992246589}
2019-04-14 17:59:44.01: SIM {TimeUS : 46634672, Roll : 0.13, Pitch : 0.14, Yaw : 359.94, Alt : 33.9599990845, Lat : 49.2835704, Lng : -123.1150208, Q1 : 0.999998390675, Q2 : 0.00120331218932, Q3 : 0.00122323527467, Q4 : -0.000451673404314}
2019-04-14 17:59:44.11: SIM {TimeUS : 46734632, Roll : 0.11, Pitch : 0.12, Yaw : 359.94, Alt : 34.1699981689, Lat : 49.2835704, Lng : -123.1150208, Q1 : 0.999998807907, Q2 : 0.000965622835793, Q3 : 0.00112758995965, Q4 : -0.00047414956498}
2019-04-14 17:59:44.21: SIM {TimeUS : 46834592, Roll : 0.09, Pitch : 0.09, Yaw : 359.94, Alt : 34.3800010681, Lat : 49.2835704, Lng : -123.1150208, Q1 : 0.99999922514, Q2 : 0.000835586281028, Q3 : 0.000824039103463, Q4 : -0.00050186808221}
2019-04-14 17:59:44.31: SIM {TimeUS : 46934552, Roll : 0.08, Pitch : 0.06, Yaw : 359.93, Alt : 34.5900001526, Lat : 49.2835704, Lng : -123.1150207, Q1 : 0.999999403954, Q2 : 0.000761348172091, Q3 : 0.000543948437553, Q4 : -0.00052844156744}
2019-04-14 17:59:44.41: SIM {TimeUS : 47034512, Roll : 0.06, Pitch : 0.04, Yaw : 359.93, Alt : 34.8100013733, Lat : 49.2835704, Lng : -123.1150207, Q1 : 0.999999582767, Q2 : 0.000587733869907, Q3 : 0.00041884573875, Q4 : -0.000557570601813}
2019-04-14 17:59:44.51: SIM {TimeUS : 47134472, Roll : 0.05, Pitch : 0.04, Yaw : 359.93, Alt : 35.0200004578, Lat : 49.2835704, Lng : -123.1150207, Q1 : 0.999999642372, Q2 : 0.000485208176542, Q3 : 0.00040024810005, Q4 : -0.000583759509027}
2019-04-14 17:59:44.62: SIM {TimeUS : 47235265, Roll : 0.05, Pitch : 0.04, Yaw : 359.92, Alt : 35.2400016785, Lat : 49.2835704, Lng : -123.1150207, Q1 : 0.999999642372, Q2 : 0.000477682100609, Q3 : 0.000386096042348, Q4 : -0.000611261813901}
2019-04-14 17:59:44.71: SIM {TimeUS : 47335225, Roll : 0.03, Pitch : 0.01, Yaw : 359.92, Alt : 35.4599990845, Lat : 49.2835704, Lng : -123.1150207, Q1 : 0.999999701977, Q2 : 0.000327327055857, Q3 : 0.000168663667864, Q4 : -0.00063869857695}
2019-04-14 17:59:44.81: SIM {TimeUS : 47435185, Roll : 0.0, Pitch : -0.02, Yaw : 359.92, Alt : 35.6800003052, Lat : 49.2835704, Lng : -123.1150207, Q1 : 0.999999761581, Q2 : 2.62020093942e-05, Q3 : -0.000179965456482, Q4 : -0.000660710735247}
2019-04-14 17:59:44.91: SIM {TimeUS : 47535145, Roll : -0.03, Pitch : -0.05, Yaw : 359.92, Alt : 35.9000015259, Lat : 49.2835704, Lng : -123.1150207, Q1 : 0.999999642372, Q2 : -0.000322644540574, Q3 : -0.000468268583063, Q4 : -0.000680909026414}
2019-04-14 17:59:45.01: SIM {TimeUS : 47635105, Roll : -0.06, Pitch : -0.06, Yaw : 359.92, Alt : 36.1199989319, Lat : 49.2835704, Lng : -123.1150207, Q1 : 0.999999403954, Q2 : -0.000604943197686, Q3 : -0.000609058886766, Q4 : -0.000697324692737}
2019-04-14 17:59:45.11: SIM {TimeUS : 47735065, Roll : -0.08, Pitch : -0.07, Yaw : 359.91, Alt : 36.3400001526, Lat : 49.2835704, Lng : -123.1150207, Q1 : 0.999999284744, Q2 : -0.000724195910152, Q3 : -0.000636269105598, Q4 : -0.000712241686415}
2019-04-14 17:59:45.21: SIM {TimeUS : 47835025, Roll : -0.08, Pitch : -0.07, Yaw : 359.91, Alt : 36.5600013733, Lat : 49.2835704, Lng : -123.1150206, Q1 : 0.99999922514, Q2 : -0.00075021001976, Q3 : -0.000628789654002, Q4 : -0.000728834536858}
2019-04-14 17:59:45.31: SIM {TimeUS : 47934985, Roll : -0.07, Pitch : -0.05, Yaw : 359.91, Alt : 36.7799987793, Lat : 49.2835704, Lng : -123.1150206, Q1 : 0.999999403954, Q2 : -0.000666871608701, Q3 : -0.000499384768773, Q4 : -0.000745374476537}
2019-04-14 17:59:45.41: SIM {TimeUS : 48034945, Roll : -0.06, Pitch : -0.04, Yaw : 359.91, Alt : 37.0099983215, Lat : 49.2835704, Lng : -123.1150206, Q1 : 0.999999523163, Q2 : -0.000524267903529, Q3 : -0.000421390053816, Q4 : -0.000761987816077}
2019-04-14 17:59:45.51: SIM {TimeUS : 48134905, Roll : -0.06, Pitch : -0.05, Yaw : 359.91, Alt : 37.2299995422, Lat : 49.2835704, Lng : -123.1150206, Q1 : 0.999999463558, Q2 : -0.000531378900632, Q3 : -0.000442992255557, Q4 : -0.000778226996772}
2019-04-14 17:59:45.61: SIM {TimeUS : 48234865, Roll : -0.07, Pitch : -0.03, Yaw : 359.9, Alt : 37.4599990845, Lat : 49.2835704, Lng : -123.1150206, Q1 : 0.999999403954, Q2 : -0.000633439107332, Q3 : -0.000304155924823, Q4 : -0.000804518989753}
2019-04-14 17:59:45.71: SIM {TimeUS : 48334825, Roll : -0.09, Pitch : -0.01, Yaw : 359.9, Alt : 37.6800003052, Lat : 49.2835704, Lng : -123.1150206, Q1 : 0.999999284744, Q2 : -0.000870048941579, Q3 : -0.000121472025057, Q4 : -0.000832364952657}
2019-04-14 17:59:45.81: SIM {TimeUS : 48434785, Roll : -0.1, Pitch : 0.0, Yaw : 359.9, Alt : 37.9099998474, Lat : 49.2835704, Lng : -123.1150206, Q1 : 0.99999922514, Q2 : -0.000920247694012, Q3 : 2.2920234187e-05, Q4 : -0.000853171863127}
2019-04-14 17:59:45.91: SIM {TimeUS : 48534745, Roll : -0.08, Pitch : 0.03, Yaw : 359.9, Alt : 38.1300010681, Lat : 49.2835704, Lng : -123.1150206, Q1 : 0.999999284744, Q2 : -0.000728997925762, Q3 : 0.000314742472256, Q4 : -0.000871205527801}
2019-04-14 17:59:46.01: SIM {TimeUS : 48634705, Roll : -0.05, Pitch : 0.03, Yaw : 359.89, Alt : 38.3600006104, Lat : 49.2835704, Lng : -123.1150206, Q1 : 0.999999403954, Q2 : -0.00050031603314, Q3 : 0.000288386247121, Q4 : -0.000894753204193}
2019-04-14 17:59:46.11: SIM {TimeUS : 48734665, Roll : -0.02, Pitch : 0.01, Yaw : 359.89, Alt : 38.5900001526, Lat : 49.2835704, Lng : -123.1150206, Q1 : 0.999999523163, Q2 : -0.000224786243052, Q3 : 0.000141256634379, Q4 : -0.000914588163141}
2019-04-14 17:59:46.21: SIM {TimeUS : 48834625, Roll : 0.0, Pitch : 0.02, Yaw : 359.89, Alt : 38.8199996948, Lat : 49.2835704, Lng : -123.1150206, Q1 : 0.999999523163, Q2 : 6.78043070366e-05, Q3 : 0.000202739363885, Q4 : -0.000934321782552}
2019-04-14 17:59:46.31: SIM {TimeUS : 48934585, Roll : 0.04, Pitch : 0.04, Yaw : 359.89, Alt : 39.0499992371, Lat : 49.2835704, Lng : -123.1150207, Q1 : 0.999999403954, Q2 : 0.000364844396245, Q3 : 0.000407449813792, Q4 : -0.000959523604251}
2019-04-14 17:59:46.41: SIM {TimeUS : 49034545, Roll : 0.07, Pitch : 0.07, Yaw : 359.88, Alt : 39.2799987793, Lat : 49.2835706, Lng : -123.1150207, Q1 : 0.99999910593, Q2 : 0.000616804347374, Q3 : 0.000651471025776, Q4 : -0.000983813777566}
2019-04-14 17:59:46.51: SIM {TimeUS : 49134505, Roll : 0.06, Pitch : 0.1, Yaw : 359.88, Alt : 39.5099983215, Lat : 49.2835706, Lng : -123.1150207, Q1 : 0.999998986721, Q2 : 0.000559148727916, Q3 : 0.000873689947184, Q4 : -0.00100299087353}
2019-04-14 17:59:46.61: SIM {TimeUS : 49234465, Roll : 0.01, Pitch : 0.12, Yaw : 359.88, Alt : 39.7400016785, Lat : 49.2835706, Lng : -123.1150207, Q1 : 0.999998867512, Q2 : 0.000128123123432, Q3 : 0.00107552157715, Q4 : -0.0010363337351}
2019-04-14 17:59:46.72: SIM {TimeUS : 49335258, Roll : -0.02, Pitch : 0.13, Yaw : 359.87, Alt : 39.9700012207, Lat : 49.2835706, Lng : -123.1150207, Q1 : 0.999998748302, Q2 : -0.000249924312811, Q3 : 0.00113563425839, Q4 : -0.00106628076173}
2019-04-14 17:59:46.81: SIM {TimeUS : 49435218, Roll : -0.04, Pitch : 0.1, Yaw : 359.87, Alt : 40.2000007629, Lat : 49.2835706, Lng : -123.1150207, Q1 : 0.999998867512, Q2 : -0.000433736626292, Q3 : 0.000938438577577, Q4 : -0.00109797576442}
2019-04-14 17:59:46.91: SIM {TimeUS : 49535178, Roll : -0.05, Pitch : 0.08, Yaw : 359.87, Alt : 40.4399986267, Lat : 49.2835706, Lng : -123.1150207, Q1 : 0.999998986721, Q2 : -0.00044109945884, Q3 : 0.000756989698857, Q4 : -0.00113294401672}
2019-04-14 17:59:47.01: SIM {TimeUS : 49635138, Roll : -0.02, Pitch : 0.08, Yaw : 359.86, Alt : 40.6699981689, Lat : 49.2835706, Lng : -123.1150207, Q1 : 0.999998986721, Q2 : -0.000243915405008, Q3 : 0.000766200420912, Q4 : -0.00116580352187}
2019-04-14 17:59:47.11: SIM {TimeUS : 49735098, Roll : 0.02, Pitch : 0.1, Yaw : 359.86, Alt : 40.9000015259, Lat : 49.2835706, Lng : -123.1150207, Q1 : 0.999998867512, Q2 : 0.000212660277612, Q3 : 0.000927588785999, Q4 : -0.00119365542196}
2019-04-14 17:59:47.21: SIM {TimeUS : 49835058, Roll : 0.08, Pitch : 0.11, Yaw : 359.86, Alt : 41.1300010681, Lat : 49.2835706, Lng : -123.1150207, Q1 : 0.999998450279, Q2 : 0.000717868795618, Q3 : 0.00100822409149, Q4 : -0.0012200109195}
2019-04-14 17:59:47.31: SIM {TimeUS : 49935018, Roll : 0.11, Pitch : 0.09, Yaw : 359.85, Alt : 41.3699989319, Lat : 49.2835706, Lng : -123.1150207, Q1 : 0.999998390675, Q2 : 0.00101123843342, Q3 : 0.000790692516603, Q4 : -0.00124405464157}
2019-04-14 17:59:47.41: SIM {TimeUS : 50034978, Roll : 0.11, Pitch : 0.05, Yaw : 359.85, Alt : 41.5999984741, Lat : 49.2835706, Lng : -123.1150207, Q1 : 0.999998629093, Q2 : 0.000973880465608, Q3 : 0.000469107704703, Q4 : -0.00126965239178}
2019-04-14 17:59:47.51: SIM {TimeUS : 50134938, Roll : 0.07, Pitch : 0.03, Yaw : 359.85, Alt : 41.8300018311, Lat : 49.2835706, Lng : -123.1150207, Q1 : 0.999998927116, Q2 : 0.000611967290752, Q3 : 0.000285515910946, Q4 : -0.00128138519358}
2019-04-14 17:59:47.61: SIM {TimeUS : 50234898, Roll : 0.01, Pitch : 0.03, Yaw : 359.85, Alt : 42.0699996948, Lat : 49.2835706, Lng : -123.1150207, Q1 : 0.99999910593, Q2 : 9.27841829252e-05, Q3 : 0.000308065587888, Q4 : -0.00128609314561}
2019-04-14 17:59:47.71: SIM {TimeUS : 50334858, Roll : -0.02, Pitch : 0.06, Yaw : 359.85, Alt : 42.2999992371, Lat : 49.2835706, Lng : -123.1150207, Q1 : 0.999998986721, Q2 : -0.000250458455412, Q3 : 0.000578942359425, Q4 : -0.00128825020511}
2019-04-14 17:59:47.81: SIM {TimeUS : 50434818, Roll : -0.04, Pitch : 0.08, Yaw : 359.85, Alt : 42.5299987793, Lat : 49.2835706, Lng : -123.1150207, Q1 : 0.999998807907, Q2 : -0.000429284380516, Q3 : 0.000767619465478, Q4 : -0.00128837802913}
2019-04-14 17:59:47.91: SIM {TimeUS : 50534778, Roll : -0.04, Pitch : 0.08, Yaw : 359.85, Alt : 42.7700004578, Lat : 49.2835704, Lng : -123.1150207, Q1 : 0.999998807907, Q2 : -0.000423040211899, Q3 : 0.000735623121727, Q4 : -0.00129394815303}
2019-04-14 17:59:48.01: SIM {TimeUS : 50634738, Roll : -0.04, Pitch : 0.07, Yaw : 359.84, Alt : 43.0, Lat : 49.2835704, Lng : -123.1150206, Q1 : 0.999998867512, Q2 : -0.000430913205491, Q3 : 0.000626712862868, Q4 : -0.00131232046988}
2019-04-14 17:59:48.11: SIM {TimeUS : 50734698, Roll : -0.04, Pitch : 0.05, Yaw : 359.84, Alt : 43.2400016785, Lat : 49.2835704, Lng : -123.1150206, Q1 : 0.999998927116, Q2 : -0.000350065762177, Q3 : 0.000499043904711, Q4 : -0.0013377352152}
2019-04-14 17:59:48.21: SIM {TimeUS : 50834658, Roll : -0.01, Pitch : 0.05, Yaw : 359.84, Alt : 43.4700012207, Lat : 49.2835704, Lng : -123.1150206, Q1 : 0.999998927116, Q2 : -0.000173725638888, Q3 : 0.000462268624688, Q4 : -0.00136923918035}
2019-04-14 17:59:48.31: SIM {TimeUS : 50934618, Roll : 0.0, Pitch : 0.05, Yaw : 359.83, Alt : 43.7099990845, Lat : 49.2835704, Lng : -123.1150206, Q1 : 0.999998927116, Q2 : -5.79382067372e-05, Q3 : 0.000481781637063, Q4 : -0.00139925407711}
2019-04-14 17:59:48.41: SIM {TimeUS : 51034578, Roll : -0.01, Pitch : 0.04, Yaw : 359.83, Alt : 43.9500007629, Lat : 49.2835704, Lng : -123.1150206, Q1 : 0.999998927116, Q2 : -9.60394609137e-05, Q3 : 0.000396971910959, Q4 : -0.00142487348057}
2019-04-14 17:59:48.51: SIM {TimeUS : 51134538, Roll : -0.02, Pitch : 0.01, Yaw : 359.83, Alt : 44.1800003052, Lat : 49.2835704, Lng : -123.1150206, Q1 : 0.999998927116, Q2 : -0.000196262801182, Q3 : 0.000151766711497, Q4 : -0.00144520006143}
2019-04-14 17:59:48.61: SIM {TimeUS : 51234498, Roll : -0.02, Pitch : 0.0, Yaw : 359.83, Alt : 44.4199981689, Lat : 49.2835704, Lng : -123.1150206, Q1 : 0.999998867512, Q2 : -0.000261291366769, Q3 : -3.1169198337e-05, Q4 : -0.00146939174738}
2019-04-14 17:59:48.71: SIM {TimeUS : 51334458, Roll : -0.02, Pitch : -0.01, Yaw : 359.82, Alt : 44.6500015259, Lat : 49.2835704, Lng : -123.1150206, Q1 : 0.999998867512, Q2 : -0.000190418577404, Q3 : -0.000153071523528, Q4 : -0.00149604200851}
2019-04-14 17:59:48.81: SIM {TimeUS : 51435251, Roll : -0.02, Pitch : -0.02, Yaw : 359.82, Alt : 44.8899993896, Lat : 49.2835704, Lng : -123.1150206, Q1 : 0.999998748302, Q2 : -0.000242721973336, Q3 : -0.000247272429988, Q4 : -0.00152623746544}
2019-04-14 17:59:48.91: SIM {TimeUS : 51535211, Roll : -0.05, Pitch : -0.03, Yaw : 359.82, Alt : 45.1300010681, Lat : 49.2835704, Lng : -123.1150206, Q1 : 0.999998629093, Q2 : -0.000452096952358, Q3 : -0.000302566506434, Q4 : -0.0015575804282}
2019-04-14 17:59:49.01: SIM {TimeUS : 51635171, Roll : -0.09, Pitch : -0.03, Yaw : 359.81, Alt : 45.3600006104, Lat : 49.2835704, Lng : -123.1150206, Q1 : 0.999998390675, Q2 : -0.000788692152128, Q3 : -0.000336070574122, Q4 : -0.00159078312572}
2019-04-14 17:59:49.11: SIM {TimeUS : 51735131, Roll : -0.11, Pitch : -0.03, Yaw : 359.81, Alt : 45.5999984741, Lat : 49.2835704, Lng : -123.1150206, Q1 : 0.999998092651, Q2 : -0.00102022255305, Q3 : -0.000345739565091, Q4 : -0.00162356521469}
2019-04-14 17:59:49.21: SIM {TimeUS : 51835091, Roll : -0.12, Pitch : -0.02, Yaw : 359.81, Alt : 45.8300018311, Lat : 49.2835703, Lng : -123.1150206, Q1 : 0.999998033047, Q2 : -0.00107934745029, Q3 : -0.000236812906223, Q4 : -0.00165695312899}
2019-04-14 17:59:49.31: SIM {TimeUS : 51935051, Roll : -0.1, Pitch : 0.0, Yaw : 359.8, Alt : 46.0600013733, Lat : 49.2835704, Lng : -123.1150206, Q1 : 0.999998092651, Q2 : -0.000951126159634, Q3 : 8.31724446471e-06, Q4 : -0.00169517926406}
2019-04-14 17:59:49.41: SIM {TimeUS : 52035011, Roll : -0.08, Pitch : 0.02, Yaw : 359.8, Alt : 46.2900009155, Lat : 49.2835704, Lng : -123.1150206, Q1 : 0.999998211861, Q2 : -0.000706960738171, Q3 : 0.000182192161446, Q4 : -0.00173061911482}
2019-04-14 17:59:49.51: SIM {TimeUS : 52134971, Roll : -0.05, Pitch : 0.02, Yaw : 359.79, Alt : 46.5099983215, Lat : 49.2835704, Lng : -123.1150206, Q1 : 0.99999833107, Q2 : -0.000468679965707, Q3 : 0.000232228660025, Q4 : -0.00176148850005}
2019-04-14 17:59:49.61: SIM {TimeUS : 52234931, Roll : -0.04, Pitch : 0.01, Yaw : 359.79, Alt : 46.7299995422, Lat : 49.2835704, Lng : -123.1150206, Q1 : 0.99999833107, Q2 : -0.000371672475012, Q3 : 0.000140719639603, Q4 : -0.00179441913497}
2019-04-14 17:59:49.71: SIM {TimeUS : 52334891, Roll : -0.02, Pitch : -0.01, Yaw : 359.79, Alt : 46.9500007629, Lat : 49.2835703, Lng : -123.1150206, Q1 : 0.99999833107, Q2 : -0.000235479397816, Q3 : -0.0001281916484, Q4 : -0.00182406394742}
2019-04-14 17:59:49.81: SIM {TimeUS : 52434851, Roll : 0.0, Pitch : -0.04, Yaw : 359.78, Alt : 47.1500015259, Lat : 49.2835703, Lng : -123.1150206, Q1 : 0.999998211861, Q2 : -1.97686586034e-05, Q3 : -0.000416042166762, Q4 : -0.00184567505494}
2019-04-14 17:59:49.91: SIM {TimeUS : 52534811, Roll : 0.0, Pitch : -0.07, Yaw : 359.78, Alt : 47.3499984741, Lat : 49.2835703, Lng : -123.1150206, Q1 : 0.999998033047, Q2 : 5.18715605722e-05, Q3 : -0.000666543783154, Q4 : -0.00186596112326}
2019-04-14 17:59:50.01: SIM {TimeUS : 52634771, Roll : 0.0, Pitch : -0.09, Yaw : 359.78, Alt : 47.5400009155, Lat : 49.2835703, Lng : -123.1150206, Q1 : 0.999997913837, Q2 : -1.84483924386e-05, Q3 : -0.000820356654003, Q4 : -0.00188304716721}
2019-04-14 17:59:50.11: SIM {TimeUS : 52734731, Roll : 0.0, Pitch : -0.11, Yaw : 359.78, Alt : 47.7200012207, Lat : 49.2835703, Lng : -123.1150206, Q1 : 0.999997675419, Q2 : 7.90045814938e-05, Q3 : -0.00103496189695, Q4 : -0.00189585983753}
2019-04-14 17:59:50.21: SIM {TimeUS : 52834691, Roll : 0.02, Pitch : -0.13, Yaw : 359.78, Alt : 47.8800010681, Lat : 49.2835703, Lng : -123.1150206, Q1 : 0.999997437, Q2 : 0.000253670237726, Q3 : -0.00117725180462, Q4 : -0.00190581311472}
2019-04-14 17:59:50.31: SIM {TimeUS : 52934651, Roll : 0.05, Pitch : -0.12, Yaw : 359.78, Alt : 48.0400009155, Lat : 49.2835704, Lng : -123.1150206, Q1 : 0.999997437, Q2 : 0.000493083207402, Q3 : -0.00109883397818, Q4 : -0.0019170595333}
2019-04-14 17:59:50.41: SIM {TimeUS : 53034611, Roll : 0.07, Pitch : -0.1, Yaw : 359.77, Alt : 48.1899986267, Lat : 49.2835704, Lng : -123.1150206, Q1 : 0.999997496605, Q2 : 0.000653364579193, Q3 : -0.000896264740732, Q4 : -0.00193269737065}
2019-04-14 17:59:50.51: SIM {TimeUS : 53134571, Roll : 0.08, Pitch : -0.08, Yaw : 359.77, Alt : 48.3199996948, Lat : 49.2835704, Lng : -123.1150206, Q1 : 0.99999755621, Q2 : 0.000776587578002, Q3 : -0.000704980222508, Q4 : -0.00195539020933}
2019-04-14 17:59:50.61: SIM {TimeUS : 53234531, Roll : 0.08, Pitch : -0.07, Yaw : 359.77, Alt : 48.4399986267, Lat : 49.2835704, Lng : -123.1150206, Q1 : 0.99999755621, Q2 : 0.000772650993895, Q3 : -0.000653571565636, Q4 : -0.00198761280626}
2019-04-14 17:59:50.71: SIM {TimeUS : 53334491, Roll : 0.06, Pitch : -0.06, Yaw : 359.76, Alt : 48.5499992371, Lat : 49.2835704, Lng : -123.1150206, Q1 : 0.999997615814, Q2 : 0.000569609168451, Q3 : -0.000558804429602, Q4 : -0.00202505732886}
2019-04-14 17:59:50.82: SIM {TimeUS : 53435284, Roll : 0.03, Pitch : -0.04, Yaw : 359.76, Alt : 48.6399993896, Lat : 49.2835704, Lng : -123.1150206, Q1 : 0.999997735023, Q2 : 0.000344077619957, Q3 : -0.000377419899451, Q4 : -0.00206866627559}
2019-04-14 17:59:50.91: SIM {TimeUS : 53535244, Roll : 0.01, Pitch : -0.02, Yaw : 359.75, Alt : 48.7299995422, Lat : 49.2835704, Lng : -123.1150206, Q1 : 0.999997735023, Q2 : 0.000117099843919, Q3 : -0.000224511881243, Q4 : -0.00210802117363}
2019-04-14 17:59:51.01: SIM {TimeUS : 53635204, Roll : 0.0, Pitch : 0.0, Yaw : 359.75, Alt : 48.7999992371, Lat : 49.2835704, Lng : -123.1150206, Q1 : 0.999997675419, Q2 : -4.08461783081e-05, Q3 : -2.88745995931e-05, Q4 : -0.00214622332714}
2019-04-14 17:59:51.11: SIM {TimeUS : 53735164, Roll : 0.0, Pitch : 0.02, Yaw : 359.75, Alt : 48.8699989319, Lat : 49.2835704, Lng : -123.1150206, Q1 : 0.999997615814, Q2 : 7.36248766771e-05, Q3 : 0.000231115613133, Q4 : -0.00217518862337}
2019-04-14 17:59:51.21: SIM {TimeUS : 53835124, Roll : 0.03, Pitch : 0.04, Yaw : 359.74, Alt : 48.9199981689, Lat : 49.2835704, Lng : -123.1150206, Q1 : 0.999997437, Q2 : 0.000269764335826, Q3 : 0.000408295309171, Q4 : -0.00219911010936}
2019-04-14 17:59:51.31: SIM {TimeUS : 53935084, Roll : 0.06, Pitch : 0.02, Yaw : 359.74, Alt : 48.9700012207, Lat : 49.2835704, Lng : -123.1150206, Q1 : 0.999997377396, Q2 : 0.000535967992619, Q3 : 0.00024415543885, Q4 : -0.00221236958168}
2019-04-14 17:59:51.41: SIM {TimeUS : 54035044, Roll : 0.16, Pitch : -0.06, Yaw : 359.74, Alt : 49.0099983215, Lat : 49.2835704, Lng : -123.1150206, Q1 : 0.999996304512, Q2 : 0.00144918111619, Q3 : -0.000552649842575, Q4 : -0.00222587655298}
2019-04-14 17:59:51.51: SIM {TimeUS : 54135004, Roll : 0.44, Pitch : -0.3, Yaw : 359.74, Alt : 49.0400009155, Lat : 49.2835704, Lng : -123.1150206, Q1 : 0.999986469746, Q2 : 0.00387979927473, Q3 : -0.00265247374773, Q4 : -0.00223978981376}
2019-04-14 17:59:51.61: SIM {TimeUS : 54234964, Roll : 0.95, Pitch : -0.69, Yaw : 359.73, Alt : 49.0699996948, Lat : 49.2835704, Lng : -123.1150206, Q1 : 0.999944627285, Q2 : 0.00827622786164, Q3 : -0.00609642500058, Q4 : -0.00225037382916}
2019-04-14 17:59:51.71: SIM {TimeUS : 54334924, Roll : 1.65, Pitch : -1.2, Yaw : 359.72, Alt : 49.0999984741, Lat : 49.2835706, Lng : -123.1150206, Q1 : 0.999837815762, Q2 : 0.0144501002505, Q3 : -0.0105121107772, Q4 : -0.00224570068531}
2019-04-14 17:59:51.81: SIM {TimeUS : 54434884, Roll : 2.49, Pitch : -1.78, Yaw : 359.7, Alt : 49.1199989319, Lat : 49.2835706, Lng : -123.1150205, Q1 : 0.99963927269, Q2 : 0.0217229370028, Q3 : -0.0156392622739, Q4 : -0.00220462423749}
2019-04-14 17:59:51.91: SIM {TimeUS : 54534844, Roll : 3.34, Pitch : -2.37, Yaw : 359.68, Alt : 49.1399993896, Lat : 49.2835707, Lng : -123.1150204, Q1 : 0.999358594418, Q2 : 0.0290813967586, Q3 : -0.0207920074463, Q4 : -0.00211186520755}
2019-04-14 17:59:52.01: SIM {TimeUS : 54634804, Roll : 4.05, Pitch : -2.87, Yaw : 359.67, Alt : 49.1500015259, Lat : 49.2835708, Lng : -123.1150202, Q1 : 0.999060153961, Q2 : 0.0352592542768, Q3 : -0.0251352209598, Q4 : -0.00196141842753}
2019-04-14 17:59:52.11: SIM {TimeUS : 54734764, Roll : 4.57, Pitch : -3.25, Yaw : 359.66, Alt : 49.1699981689, Lat : 49.2835709, Lng : -123.11502, Q1 : 0.998797357082, Q2 : 0.0398368798196, Q3 : -0.0285256393254, Q4 : -0.00176382460631}
2019-04-14 17:59:52.21: SIM {TimeUS : 54834724, Roll : 4.96, Pitch : -3.54, Yaw : 359.67, Alt : 49.1800003052, Lat : 49.2835709, Lng : -123.1150197, Q1 : 0.998582422733, Q2 : 0.043227981776, Q3 : -0.0310188736767, Q4 : -0.00152449728921}
2019-04-14 17:59:52.31: SIM {TimeUS : 54934684, Roll : 5.29, Pitch : -3.75, Yaw : 359.68, Alt : 49.1899986267, Lat : 49.2835713, Lng : -123.1150192, Q1 : 0.998396277428, Q2 : 0.0460560806096, Q3 : -0.0328954197466, Q4 : -0.00124935503118}
2019-04-14 17:59:52.41: SIM {TimeUS : 55034644, Roll : 5.58, Pitch : -3.94, Yaw : 359.69, Alt : 49.2000007629, Lat : 49.2835715, Lng : -123.1150187, Q1 : 0.998223662376, Q2 : 0.0485676303506, Q3 : -0.034494522959, Q4 : -0.00097235920839}
2019-04-14 17:59:52.51: SIM {TimeUS : 55134604, Roll : 5.87, Pitch : -4.13, Yaw : 359.7, Alt : 49.2099990845, Lat : 49.2835718, Lng : -123.1150181, Q1 : 0.998035669327, Q2 : 0.0511440522969, Q3 : -0.0361745022237, Q4 : -0.000704681442585}
2019-04-14 17:59:52.61: SIM {TimeUS : 55234564, Roll : 6.17, Pitch : -4.35, Yaw : 359.71, Alt : 49.2200012207, Lat : 49.2835721, Lng : -123.1150173, Q1 : 0.997829735279, Q2 : 0.0537464357913, Q3 : -0.0380381904542, Q4 : -0.000458650902146}
2019-04-14 17:59:52.71: SIM {TimeUS : 55334524, Roll : 6.45, Pitch : -4.54, Yaw : 359.71, Alt : 49.2200012207, Lat : 49.2835725, Lng : -123.1150165, Q1 : 0.997633993626, Q2 : 0.0561390630901, Q3 : -0.0396842509508, Q4 : -0.000226205374929}
2019-04-14 17:59:52.81: SIM {TimeUS : 55434484, Roll : 6.65, Pitch : -4.67, Yaw : 359.72, Alt : 49.2299995422, Lat : 49.2835728, Lng : -123.1150156, Q1 : 0.997485935688, Q2 : 0.0579217784107, Q3 : -0.0408282950521, Q4 : -2.098819823e-05}
2019-04-14 17:59:52.92: SIM {TimeUS : 55535277, Roll : 6.8, Pitch : -4.77, Yaw : 359.73, Alt : 49.2400016785, Lat : 49.2835733, Lng : -123.1150146, Q1 : 0.997375786304, Q2 : 0.0591886565089, Q3 : -0.0416922308505, Q4 : 0.000137019625981}
2019-04-14 17:59:53.01: SIM {TimeUS : 55635237, Roll : 6.9, Pitch : -4.85, Yaw : 359.73, Alt : 49.2400016785, Lat : 49.2835739, Lng : -123.1150135, Q1 : 0.997292459011, Q2 : 0.0600907839835, Q3 : -0.0423888042569, Q4 : 0.000247805757681}
2019-04-14 17:59:53.11: SIM {TimeUS : 55735197, Roll : 7.01, Pitch : -4.91, Yaw : 359.73, Alt : 49.25, Lat : 49.2835745, Lng : -123.1150123, Q1 : 0.99721121788, Q2 : 0.0610235445201, Q3 : -0.0429641269147, Q4 : 0.000309676222969}
2019-04-14 17:59:53.21: SIM {TimeUS : 55835157, Roll : 7.2, Pitch : -4.96, Yaw : 359.74, Alt : 49.25, Lat : 49.2835751, Lng : -123.115011, Q1 : 0.997090041637, Q2 : 0.0627174302936, Q3 : -0.0433327592909, Q4 : 0.000514329585712}
2019-04-14 17:59:53.31: SIM {TimeUS : 55935117, Roll : 7.61, Pitch : -4.84, Yaw : 0.06, Alt : 49.25, Lat : 49.2835757, Lng : -123.1150096, Q1 : 0.996897697449, Q2 : 0.0663812607527, Q3 : -0.0421581715345, Q4 : 0.00334969558753}
2019-04-14 17:59:53.41: SIM {TimeUS : 56035077, Roll : 8.22, Pitch : -4.63, Yaw : 1.32, Alt : 49.2599983215, Lat : 49.2835764, Lng : -123.1150082, Q1 : 0.996509492397, Q2 : 0.0721120387316, Q3 : -0.0395081974566, Q4 : 0.0144170438871}
2019-04-14 17:59:53.51: SIM {TimeUS : 56135037, Roll : 8.8, Pitch : -4.69, Yaw : 4.07, Alt : 49.2599983215, Lat : 49.283577, Lng : -123.1150066, Q1 : 0.995469093323, Q2 : 0.0781208723783, Q3 : -0.0381027311087, Q4 : 0.0385561063886}
2019-04-14 17:59:53.61: SIM {TimeUS : 56234997, Roll : 9.1, Pitch : -5.26, Yaw : 8.39, Alt : 49.2599983215, Lat : 49.2835776, Lng : -123.1150049, Q1 : 0.992852210999, Q2 : 0.0824682936072, Q3 : -0.0398352630436, Q4 : 0.0765279829502}
2019-04-14 17:59:53.71: SIM {TimeUS : 56334957, Roll : 8.92, Pitch : -6.33, Yaw : 14.12, Alt : 49.2599983215, Lat : 49.2835783, Lng : -123.1150031, Q1 : 0.987364709377, Q2 : 0.0839072912931, Q3 : -0.0451452434063, Q4 : 0.126619264483}
2019-04-14 17:59:53.81: SIM {TimeUS : 56434917, Roll : 8.15, Pitch : -7.78, Yaw : 21.0, Alt : 49.2599983215, Lat : 49.2835792, Lng : -123.1150012, Q1 : 0.977615892887, Q2 : 0.0820950120687, Q3 : -0.0536500699818, Q4 : 0.186143025756}
2019-04-14 17:59:53.91: SIM {TimeUS : 56534877, Roll : 6.77, Pitch : -9.4, Yaw : 28.79, Alt : 49.2700004578, Lat : 49.2835799, Lng : -123.1149992, Q1 : 0.962439775467, Q2 : 0.0774380266666, Q3 : -0.0646570250392, Q4 : 0.252056539059}
2019-04-14 17:59:54.01: SIM {TimeUS : 56634837, Roll : 4.86, Pitch : -10.95, Yaw : 37.22, Alt : 49.2700004578, Lat : 49.2835806, Lng : -123.1149971, Q1 : 0.941210150719, Q2 : 0.0705044046044, Q3 : -0.0769291371107, Q4 : 0.321301281452}
2019-04-14 17:59:54.11: SIM {TimeUS : 56734797, Roll : 2.36, Pitch : -12.22, Yaw : 45.99, Alt : 49.2700004578, Lat : 49.2835814, Lng : -123.1149948, Q1 : 0.914242506027, Q2 : 0.060458753258, Q3 : -0.0899468138814, Q4 : 0.390403568745}
2019-04-14 17:59:54.21: SIM {TimeUS : 56834757, Roll : -0.73, Pitch : -12.99, Yaw : 54.4, Alt : 49.2700004578, Lat : 49.2835824, Lng : -123.1149925, Q1 : 0.884013712406, Q2 : 0.0460777208209, Q3 : -0.103524327278, Q4 : 0.45351883769}
2019-04-14 17:59:54.31: SIM {TimeUS : 56934717, Roll : -3.89, Pitch : -13.18, Yaw : 61.54, Alt : 49.2700004578, Lat : 49.2835832, Lng : -123.11499, Q1 : 0.855017960072, Q2 : 0.0297300852835, Q3 : -0.115857228637, Q4 : 0.504616200924}
2019-04-14 17:59:54.41: SIM {TimeUS : 57034677, Roll : -6.44, Pitch : -12.98, Yaw : 66.77, Alt : 49.2700004578, Lat : 49.2835843, Lng : -123.1149875, Q1 : 0.831792235374, Q2 : 0.0154645079747, Q3 : -0.12498382479, Q4 : 0.540612220764}
2019-04-14 17:59:54.51: SIM {TimeUS : 57134637, Roll : -7.98, Pitch : -12.67, Yaw : 69.9, Alt : 49.2700004578, Lat : 49.2835854, Lng : -123.114985, Q1 : 0.817067623138, Q2 : 0.00635050144047, Q3 : -0.129926919937, Q4 : 0.56167536974}
2019-04-14 17:59:54.61: SIM {TimeUS : 57234597, Roll : -8.45, Pitch : -12.51, Yaw : 71.09, Alt : 49.2700004578, Lat : 49.2835867, Lng : -123.1149824, Q1 : 0.811254739761, Q2 : 0.00358229177073, Q3 : -0.13099385798, Q4 : 0.569818913937}
2019-04-14 17:59:54.71: SIM {TimeUS : 57334557, Roll : -7.97, Pitch : -12.61, Yaw : 70.7, Alt : 49.2700004578, Lat : 49.2835879, Lng : -123.1149797, Q1 : 0.813142716885, Q2 : 0.00701799383387, Q3 : -0.129344835877, Q4 : 0.567467689514}
2019-04-14 17:59:54.81: SIM {TimeUS : 57434517, Roll : -6.8, Pitch : -13.01, Yaw : 69.09, Alt : 49.2700004578, Lat : 49.2835893, Lng : -123.114977, Q1 : 0.820736587048, Q2 : 0.0156020252034, Q3 : -0.126584395766, Q4 : 0.55688816309}
2019-04-14 17:59:54.91: SIM {TimeUS : 57534477, Roll : -5.16, Pitch : -13.64, Yaw : 66.61, Alt : 49.2700004578, Lat : 49.2835909, Lng : -123.1149742, Q1 : 0.831935584545, Q2 : 0.0277847256511, Q3 : -0.123754456639, Q4 : 0.540181517601}
2019-04-14 17:59:55.02: SIM {TimeUS : 57635270, Roll : -3.27, Pitch : -14.39, Yaw : 63.54, Alt : 49.2700004578, Lat : 49.2835925, Lng : -123.1149713, Q1 : 0.844977915287, Q2 : 0.0418212898076, Q3 : -0.121378861368, Q4 : 0.519163191319}
2019-04-14 17:59:55.11: SIM {TimeUS : 57735230, Roll : -1.36, Pitch : -15.07, Yaw : 60.26, Alt : 49.2799987793, Lat : 49.283594, Lng : -123.1149684, Q1 : 0.858117878437, Q2 : 0.0556421913207, Q3 : -0.119321525097, Q4 : 0.496286183596}
2019-04-14 17:59:55.21: SIM {TimeUS : 57835190, Roll : 0.43, Pitch : -15.56, Yaw : 57.06, Alt : 49.2799987793, Lat : 49.2835958, Lng : -123.1149654, Q1 : 0.870186209679, Q2 : 0.0679995045066, Q3 : -0.117166779935, Q4 : 0.473734080791}
2019-04-14 17:59:55.31: SIM {TimeUS : 57935150, Roll : 1.94, Pitch : -15.84, Yaw : 54.28, Alt : 49.2799987793, Lat : 49.2835974, Lng : -123.1149622, Q1 : 0.880188882351, Q2 : 0.0778521075845, Q3 : -0.114957921207, Q4 : 0.453862607479}
2019-04-14 17:59:55.41: SIM {TimeUS : 58035110, Roll : 3.04, Pitch : -15.93, Yaw : 52.15, Alt : 49.2799987793, Lat : 49.283599, Lng : -123.114959, Q1 : 0.887590050697, Q2 : 0.0845136120915, Q3 : -0.112891681492, Q4 : 0.438516676426}
2019-04-14 17:59:55.51: SIM {TimeUS : 58135070, Roll : 3.63, Pitch : -15.91, Yaw : 50.81, Alt : 49.2799987793, Lat : 49.2836007, Lng : -123.1149555, Q1 : 0.892237484455, Q2 : 0.0877257436514, Q3 : -0.111484512687, Q4 : 0.428704738617}
2019-04-14 17:59:55.61: SIM {TimeUS : 58235030, Roll : 3.74, Pitch : -15.83, Yaw : 50.28, Alt : 49.2799987793, Lat : 49.2836025, Lng : -123.114952, Q1 : 0.894245445728, Q2 : 0.0877870470285, Q3 : -0.110926069319, Q4 : 0.424633920193}
2019-04-14 17:59:55.71: SIM {TimeUS : 58334990, Roll : 3.44, Pitch : -15.79, Yaw : 50.46, Alt : 49.2799987793, Lat : 49.2836042, Lng : -123.1149484, Q1 : 0.893853485584, Q2 : 0.0855003073812, Q3 : -0.11149623245, Q4 : 0.425774872303}
2019-04-14 17:59:55.81: SIM {TimeUS : 58434950, Roll : 2.81, Pitch : -15.81, Yaw : 51.21, Alt : 49.2799987793, Lat : 49.2836057, Lng : -123.1149446, Q1 : 0.891467392445, Q2 : 0.0814115256071, Q3 : -0.113476194441, Q4 : 0.431023389101}
2019-04-14 17:59:55.91: SIM {TimeUS : 58534910, Roll : 1.99, Pitch : -15.91, Yaw : 52.36, Alt : 49.2799987793, Lat : 49.2836074, Lng : -123.1149408, Q1 : 0.887561202049, Q2 : 0.0765621885657, Q3 : -0.116599366069, Q4 : 0.439064890146}
2019-04-14 17:59:56.01: SIM {TimeUS : 58634870, Roll : 1.11, Pitch : -16.04, Yaw : 53.71, Alt : 49.2799987793, Lat : 49.2836092, Lng : -123.1149368, Q1 : 0.882752120495, Q2 : 0.0716468244791, Q3 : -0.120134443045, Q4 : 0.448534429073}
2019-04-14 17:59:56.11: SIM {TimeUS : 58734830, Roll : 0.26, Pitch : -16.16, Yaw : 55.08, Alt : 49.2799987793, Lat : 49.283611, Lng : -123.1149328, Q1 : 0.877692520618, Q2 : 0.0670787021518, Q3 : -0.12360496819, Q4 : 0.458124577999}
2019-04-14 17:59:56.21: SIM {TimeUS : 58834790, Roll : -0.47, Pitch : -16.28, Yaw : 56.33, Alt : 49.2799987793, Lat : 49.2836128, Lng : -123.1149287, Q1 : 0.872975409031, Q2 : 0.063211902976, Q3 : -0.126770019531, Q4 : 0.466741412878}
2019-04-14 17:59:56.31: SIM {TimeUS : 58934750, Roll : -1.04, Pitch : -16.37, Yaw : 57.32, Alt : 49.2799987793, Lat : 49.2836146, Lng : -123.1149246, Q1 : 0.869089066982, Q2 : 0.0603561885655, Q3 : -0.129286617041, Q4 : 0.473631083965}
2019-04-14 17:59:56.41: SIM {TimeUS : 59034710, Roll : -1.41, Pitch : -16.45, Yaw : 58.01, Alt : 49.2900009155, Lat : 49.2836164, Lng : -123.1149204, Q1 : 0.866347253323, Q2 : 0.0587170869112, Q3 : -0.131022363901, Q4 : 0.478359550238}
2019-04-14 17:59:56.51: SIM {TimeUS : 59134670, Roll : -1.56, Pitch : -16.49, Yaw : 58.36, Alt : 49.2900009155, Lat : 49.2836183, Lng : -123.1149162, Q1 : 0.864909589291, Q2 : 0.0581587813795, Q3 : -0.131839647889, Q4 : 0.480798572302}
2019-04-14 17:59:56.61: SIM {TimeUS : 59234630, Roll : -1.51, Pitch : -16.53, Yaw : 58.39, Alt : 49.2900009155, Lat : 49.2836201, Lng : -123.114912, Q1 : 0.864706456661, Q2 : 0.0587365143001, Q3 : -0.131839245558, Q4 : 0.4810937047}
2019-04-14 17:59:56.71: SIM {TimeUS : 59334590, Roll : -1.28, Pitch : -16.55, Yaw : 58.16, Alt : 49.2900009155, Lat : 49.283622, Lng : -123.1149077, Q1 : 0.865539550781, Q2 : 0.0602409057319, Q3 : -0.131203517318, Q4 : 0.479581058025}
2019-04-14 17:59:56.81: SIM {TimeUS : 59434550, Roll : -0.95, Pitch : -16.57, Yaw : 57.74, Alt : 49.2900009155, Lat : 49.2836241, Lng : -123.1149033, Q1 : 0.867121219635, Q2 : 0.0623549558222, Q3 : -0.130222022533, Q4 : 0.476712614298}
2019-04-14 17:59:56.91: SIM {TimeUS : 59534510, Roll : -0.56, Pitch : -16.6, Yaw : 57.19, Alt : 49.2900009155, Lat : 49.2836261, Lng : -123.1148989, Q1 : 0.869131147861, Q2 : 0.0647822096944, Q3 : -0.129107668996, Q4 : 0.47301748395}
2019-04-14 17:59:57.01: SIM {TimeUS : 59634470, Roll : -0.18, Pitch : -16.64, Yaw : 56.61, Alt : 49.2900009155, Lat : 49.283628, Lng : -123.1148945, Q1 : 0.871255815029, Q2 : 0.0672398805618, Q3 : -0.128141522408, Q4 : 0.469011574984}
2019-04-14 17:59:57.12: SIM {TimeUS : 59735263, Roll : 0.15, Pitch : -16.68, Yaw : 56.05, Alt : 49.2900009155, Lat : 49.2836302, Lng : -123.11489, Q1 : 0.873270511627, Q2 : 0.0693945810199, Q3 : -0.127410545945, Q4 : 0.465133965015}
2019-04-14 17:59:57.21: SIM {TimeUS : 59835223, Roll : 0.42, Pitch : -16.72, Yaw : 55.59, Alt : 49.2900009155, Lat : 49.2836322, Lng : -123.1148855, Q1 : 0.874956965446, Q2 : 0.0710596144199, Q3 : -0.126920238137, Q4 : 0.461835622787}
2019-04-14 17:59:57.31: SIM {TimeUS : 59935183, Roll : 0.59, Pitch : -16.76, Yaw : 55.24, Alt : 49.2900009155, Lat : 49.2836341, Lng : -123.1148809, Q1 : 0.876205384731, Q2 : 0.0721527859569, Q3 : -0.126768857241, Q4 : 0.459334105253}
2019-04-14 17:59:57.41: SIM {TimeUS : 60035143, Roll : 0.67, Pitch : -16.8, Yaw : 55.02, Alt : 49.2900009155, Lat : 49.2836363, Lng : -123.1148763, Q1 : 0.876966238022, Q2 : 0.0726548954844, Q3 : -0.126955881715, Q4 : 0.457748532295}
2019-04-14 17:59:57.51: SIM {TimeUS : 60135103, Roll : 0.63, Pitch : -16.84, Yaw : 54.94, Alt : 49.2900009155, Lat : 49.2836384, Lng : -123.1148717, Q1 : 0.877276718616, Q2 : 0.0724652782083, Q3 : -0.127436831594, Q4 : 0.457049518824}
2019-04-14 17:59:57.61: SIM {TimeUS : 60235063, Roll : 0.53, Pitch : -16.87, Yaw : 54.97, Alt : 49.2900009155, Lat : 49.2836403, Lng : -123.114867, Q1 : 0.877187728882, Q2 : 0.0718005895615, Q3 : -0.128018319607, Q4 : 0.457162678242}
2019-04-14 17:59:57.71: SIM {TimeUS : 60335023, Roll : 0.38, Pitch : -16.9, Yaw : 55.09, Alt : 49.2900009155, Lat : 49.2836425, Lng : -123.1148622, Q1 : 0.876761674881, Q2 : 0.0709138512611, Q3 : -0.128757357597, Q4 : 0.457910239697}
2019-04-14 17:59:57.81: SIM {TimeUS : 60434983, Roll : 0.23, Pitch : -16.94, Yaw : 55.27, Alt : 49.2999992371, Lat : 49.2836445, Lng : -123.1148575, Q1 : 0.876085162163, Q2 : 0.0701448470354, Q3 : -0.12958112359, Q4 : 0.459089636803}
2019-04-14 17:59:57.91: SIM {TimeUS : 60534943, Roll : 0.09, Pitch : -16.99, Yaw : 55.48, Alt : 49.2999992371, Lat : 49.2836467, Lng : -123.1148527, Q1 : 0.875286459923, Q2 : 0.0695056021214, Q3 : -0.130396097898, Q4 : 0.460477441549}
2019-04-14 17:59:58.01: SIM {TimeUS : 60634903, Roll : -0.01, Pitch : -17.04, Yaw : 55.68, Alt : 49.2999992371, Lat : 49.2836487, Lng : -123.1148479, Q1 : 0.874481022358, Q2 : 0.0690712034702, Q3 : -0.131112456322, Q4 : 0.461867570877}
2019-04-14 17:59:58.11: SIM {TimeUS : 60734863, Roll : -0.09, Pitch : -17.09, Yaw : 55.86, Alt : 49.2999992371, Lat : 49.283651, Lng : -123.114843, Q1 : 0.873757600784, Q2 : 0.0688798427582, Q3 : -0.131685301661, Q4 : 0.463100671768}
2019-04-14 17:59:58.21: SIM {TimeUS : 60834823, Roll : -0.15, Pitch : -17.13, Yaw : 55.99, Alt : 49.2999992371, Lat : 49.283653, Lng : -123.1148382, Q1 : 0.873207509518, Q2 : 0.0687494426966, Q3 : -0.132157221437, Q4 : 0.464022278786}
2019-04-14 17:59:58.31: SIM {TimeUS : 60934783, Roll : -0.19, Pitch : -17.15, Yaw : 56.07, Alt : 49.2999992371, Lat : 49.2836553, Lng : -123.1148333, Q1 : 0.87288415432, Q2 : 0.0686013996601, Q3 : -0.132445797324, Q4 : 0.46456989646}
2019-04-14 17:59:58.41: SIM {TimeUS : 61034743, Roll : -0.22, Pitch : -17.16, Yaw : 56.1, Alt : 49.2999992371, Lat : 49.2836573, Lng : -123.1148284, Q1 : 0.872789025307, Q2 : 0.0684559866786, Q3 : -0.132600322366, Q4 : 0.46472594142}
2019-04-14 17:59:58.51: SIM {TimeUS : 61134703, Roll : -0.21, Pitch : -17.16, Yaw : 56.07, Alt : 49.2999992371, Lat : 49.2836596, Lng : -123.1148234, Q1 : 0.872881054878, Q2 : 0.068510055542, Q3 : -0.132589697838, Q4 : 0.464548230171}
2019-04-14 17:59:58.61: SIM {TimeUS : 61234663, Roll : -0.17, Pitch : -17.17, Yaw : 56.01, Alt : 49.2999992371, Lat : 49.2836618, Lng : -123.1148185, Q1 : 0.873111784458, Q2 : 0.068771071732, Q3 : -0.132550358772, Q4 : 0.464087069035}
2019-04-14 17:59:58.71: SIM {TimeUS : 61334623, Roll : -0.1, Pitch : -17.2, Yaw : 55.91, Alt : 49.2999992371, Lat : 49.2836639, Lng : -123.1148135, Q1 : 0.873405992985, Q2 : 0.0693764686584, Q3 : -0.132562220097, Q4 : 0.463439494371}
2019-04-14 17:59:58.81: SIM {TimeUS : 61434583, Roll : -0.01, Pitch : -17.26, Yaw : 55.8, Alt : 49.3100013733, Lat : 49.2836663, Lng : -123.1148085, Q1 : 0.873726963997, Q2 : 0.0701578110456, Q3 : -0.132724180818, Q4 : 0.462669819593}
2019-04-14 17:59:58.91: SIM {TimeUS : 61534543, Roll : 0.06, Pitch : -17.3, Yaw : 55.69, Alt : 49.3100013733, Lat : 49.2836685, Lng : -123.1148035, Q1 : 0.874090254307, Q2 : 0.0707558840513, Q3 : -0.132753774524, Q4 : 0.46188339591}
2019-04-14 17:59:59.01: SIM {TimeUS : 61634503, Roll : 0.12, Pitch : -17.3, Yaw : 55.59, Alt : 49.3100013733, Lat : 49.2836706, Lng : -123.1147985, Q1 : 0.874459326267, Q2 : 0.0711506903172, Q3 : -0.132593467832, Q4 : 0.461169749498}
2019-04-14 17:59:59.11: SIM {TimeUS : 61734463, Roll : 0.17, Pitch : -17.32, Yaw : 55.5, Alt : 49.3100013733, Lat : 49.283673, Lng : -123.1147934, Q1 : 0.874759197235, Q2 : 0.0714889839292, Q3 : -0.132593750954, Q4 : 0.460548132658}
2019-04-14 17:59:59.22: SIM {TimeUS : 61835256, Roll : 0.19, Pitch : -17.35, Yaw : 55.43, Alt : 49.3100013733, Lat : 49.2836752, Lng : -123.1147883, Q1 : 0.874981760979, Q2 : 0.0716726630926, Q3 : -0.132815524936, Q4 : 0.460032641888}
2019-04-14 17:59:59.31: SIM {TimeUS : 61935216, Roll : 0.2, Pitch : -17.38, Yaw : 55.39, Alt : 49.3100013733, Lat : 49.2836774, Lng : -123.1147832, Q1 : 0.875124692917, Q2 : 0.0717679187655, Q3 : -0.132980629802, Q4 : 0.459698021412}
2019-04-14 17:59:59.41: SIM {TimeUS : 62035176, Roll : 0.19, Pitch : -17.4, Yaw : 55.37, Alt : 49.3100013733, Lat : 49.2836797, Lng : -123.1147781, Q1 : 0.875188648701, Q2 : 0.0717774108052, Q3 : -0.133197888732, Q4 : 0.459511876106}
2019-04-14 17:59:59.51: SIM {TimeUS : 62135136, Roll : 0.17, Pitch : -17.42, Yaw : 55.36, Alt : 49.3100013733, Lat : 49.283682, Lng : -123.114773, Q1 : 0.87518954277, Q2 : 0.071742720902, Q3 : -0.133409842849, Q4 : 0.459454119205}
2019-04-14 17:59:59.61: SIM {TimeUS : 62235096, Roll : 0.16, Pitch : -17.44, Yaw : 55.38, Alt : 49.3100013733, Lat : 49.2836843, Lng : -123.1147679, Q1 : 0.875124633312, Q2 : 0.071759685874, Q3 : -0.133634001017, Q4 : 0.459509938955}
2019-04-14 17:59:59.71: SIM {TimeUS : 62335056, Roll : 0.14, Pitch : -17.46, Yaw : 55.39, Alt : 49.3100013733, Lat : 49.2836865, Lng : -123.1147627, Q1 : 0.875043690205, Q2 : 0.0716900601983, Q3 : -0.133816733956, Q4 : 0.459621846676}
2019-04-14 17:59:59.81: SIM {TimeUS : 62435016, Roll : 0.13, Pitch : -17.49, Yaw : 55.42, Alt : 49.3100013733, Lat : 49.2836888, Lng : -123.1147575, Q1 : 0.874927103519, Q2 : 0.0717613697052, Q3 : -0.134056940675, Q4 : 0.459762573242}
2019-04-14 17:59:59.91: SIM {TimeUS : 62534976, Roll : 0.13, Pitch : -17.51, Yaw : 55.44, Alt : 49.3100013733, Lat : 49.2836912, Lng : -123.1147524, Q1 : 0.874817609787, Q2 : 0.0718907266855, Q3 : -0.134248837829, Q4 : 0.459894746542}
2019-04-14 18:00:00.01: SIM {TimeUS : 62634936, Roll : 0.12, Pitch : -17.55, Yaw : 55.45, Alt : 49.3100013733, Lat : 49.2836935, Lng : -123.1147472, Q1 : 0.874727904797, Q2 : 0.0719776824117, Q3 : -0.134586125612, Q4 : 0.459953218699}
2019-04-14 18:00:00.11: SIM {TimeUS : 62734896, Roll : 0.09, Pitch : -17.6, Yaw : 55.45, Alt : 49.3199996948, Lat : 49.2836957, Lng : -123.114742, Q1 : 0.874672889709, Q2 : 0.0719094648957, Q3 : -0.135057494044, Q4 : 0.459930300713}
2019-04-14 18:00:00.21: SIM {TimeUS : 62834856, Roll : 0.06, Pitch : -17.64, Yaw : 55.45, Alt : 49.3199996948, Lat : 49.283698, Lng : -123.1147367, Q1 : 0.87464672327, Q2 : 0.0718449130654, Q3 : -0.135526716709, Q4 : 0.459852129221}
2019-04-14 18:00:00.31: SIM {TimeUS : 62934816, Roll : 0.06, Pitch : -17.67, Yaw : 55.44, Alt : 49.3199996948, Lat : 49.2837004, Lng : -123.1147315, Q1 : 0.874652981758, Q2 : 0.0719451010227, Q3 : -0.135758459568, Q4 : 0.459756135941}
2019-04-14 18:00:00.41: SIM {TimeUS : 63034776, Roll : 0.08, Pitch : -17.67, Yaw : 55.42, Alt : 49.3199996948, Lat : 49.2837027, Lng : -123.1147263, Q1 : 0.874719500542, Q2 : 0.0720829293132, Q3 : -0.135630443692, Q4 : 0.459645807743}
2019-04-14 18:00:00.51: SIM {TimeUS : 63134736, Roll : 0.11, Pitch : -17.63, Yaw : 55.4, Alt : 49.3199996948, Lat : 49.2837051, Lng : -123.114721, Q1 : 0.874835729599, Q2 : 0.0721401497722, Q3 : -0.135283559561, Q4 : 0.459517806768}
2019-04-14 18:00:00.61: SIM {TimeUS : 63234696, Roll : 0.12, Pitch : -17.62, Yaw : 55.37, Alt : 49.3199996948, Lat : 49.2837074, Lng : -123.1147157, Q1 : 0.874948859215, Q2 : 0.0721754133701, Q3 : -0.135155692697, Q4 : 0.459334462881}
2019-04-14 18:00:00.71: SIM {TimeUS : 63334656, Roll : 0.13, Pitch : -17.62, Yaw : 55.34, Alt : 49.3199996948, Lat : 49.2837096, Lng : -123.1147104, Q1 : 0.875070929527, Q2 : 0.0721467509866, Q3 : -0.135135650635, Q4 : 0.459112346172}
2019-04-14 18:00:00.81: SIM {TimeUS : 63434616, Roll : 0.13, Pitch : -17.62, Yaw : 55.31, Alt : 49.3199996948, Lat : 49.283712, Lng : -123.1147051, Q1 : 0.875192701817, Q2 : 0.072132691741, Q3 : -0.135126248002, Q4 : 0.458885073662}
2019-04-14 18:00:00.91: SIM {TimeUS : 63534576, Roll : 0.13, Pitch : -17.64, Yaw : 55.28, Alt : 49.3199996948, Lat : 49.2837144, Lng : -123.1146998, Q1 : 0.875287473202, Q2 : 0.07218015939, Q3 : -0.135300382972, Q4 : 0.45864546299}
2019-04-14 18:00:01.01: SIM {TimeUS : 63634536, Roll : 0.13, Pitch : -17.67, Yaw : 55.26, Alt : 49.3199996948, Lat : 49.2837168, Lng : -123.1146945, Q1 : 0.875360667706, Q2 : 0.0722818300128, Q3 : -0.135540649295, Q4 : 0.458418726921}
2019-04-14 18:00:01.11: SIM {TimeUS : 63734496, Roll : 0.12, Pitch : -17.72, Yaw : 55.23, Alt : 49.3199996948, Lat : 49.2837192, Lng : -123.1146892, Q1 : 0.875405132771, Q2 : 0.0723759606481, Q3 : -0.135964110494, Q4 : 0.45819362998}
2019-04-14 18:00:01.21: SIM {TimeUS : 63834456, Roll : 0.12, Pitch : -17.78, Yaw : 55.21, Alt : 49.3199996948, Lat : 49.2837215, Lng : -123.1146839, Q1 : 0.87541115284, Q2 : 0.0725951045752, Q3 : -0.136463418603, Q4 : 0.457998871803}
2019-04-14 18:00:01.31: SIM {TimeUS : 63935249, Roll : 0.13, Pitch : -17.81, Yaw : 55.19, Alt : 49.3199996948, Lat : 49.2837239, Lng : -123.1146785, Q1 : 0.875430703163, Q2 : 0.0727941244841, Q3 : -0.13666883111, Q4 : 0.457868695259}
2019-04-14 18:00:01.41: SIM {TimeUS : 64035209, Roll : 0.13, Pitch : -17.83, Yaw : 55.18, Alt : 49.3199996948, Lat : 49.2837263, Lng : -123.1146731, Q1 : 0.875463485718, Q2 : 0.0728555843234, Q3 : -0.13680242002, Q4 : 0.457756340504}
2019-04-14 18:00:01.51: SIM {TimeUS : 64135169, Roll : 0.13, Pitch : -17.83, Yaw : 55.17, Alt : 49.3300018311, Lat : 49.2837287, Lng : -123.1146678, Q1 : 0.87550419569, Q2 : 0.0728460401297, Q3 : -0.136871084571, Q4 : 0.457659482956}
2019-04-14 18:00:01.61: SIM {TimeUS : 64235129, Roll : 0.15, Pitch : -17.82, Yaw : 55.16, Alt : 49.3300018311, Lat : 49.2837309, Lng : -123.1146624, Q1 : 0.875544905663, Q2 : 0.0728942751884, Q3 : -0.136732056737, Q4 : 0.457615405321}
2019-04-14 18:00:01.71: SIM {TimeUS : 64335089, Roll : 0.17, Pitch : -17.83, Yaw : 55.15, Alt : 49.3300018311, Lat : 49.2837333, Lng : -123.114657, Q1 : 0.875554800034, Q2 : 0.0730903074145, Q3 : -0.136670634151, Q4 : 0.457583546638}
2019-04-14 18:00:01.81: SIM {TimeUS : 64435049, Roll : 0.18, Pitch : -17.85, Yaw : 55.15, Alt : 49.3300018311, Lat : 49.2837357, Lng : -123.1146517, Q1 : 0.87554949522, Q2 : 0.0732461586595, Q3 : -0.136813521385, Q4 : 0.457526147366}
2019-04-14 18:00:01.91: SIM {TimeUS : 64535009, Roll : 0.18, Pitch : -17.87, Yaw : 55.14, Alt : 49.3300018311, Lat : 49.2837381, Lng : -123.1146463, Q1 : 0.875551223755, Q2 : 0.0733354091644, Q3 : -0.136978849769, Q4 : 0.457459002733}
2019-04-14 18:00:02.01: SIM {TimeUS : 64634969, Roll : 0.18, Pitch : -17.87, Yaw : 55.13, Alt : 49.3300018311, Lat : 49.2837405, Lng : -123.1146409, Q1 : 0.875585496426, Q2 : 0.0733204111457, Q3 : -0.137017324567, Q4 : 0.457384377718}
2019-04-14 18:00:02.11: SIM {TimeUS : 64734929, Roll : 0.17, Pitch : -17.88, Yaw : 55.12, Alt : 49.3300018311, Lat : 49.283743, Lng : -123.1146355, Q1 : 0.875628173351, Q2 : 0.0732449069619, Q3 : -0.137105360627, Q4 : 0.457288354635}
2019-04-14 18:00:02.21: SIM {TimeUS : 64834889, Roll : 0.14, Pitch : -17.9, Yaw : 55.11, Alt : 49.3300018311, Lat : 49.2837454, Lng : -123.1146301, Q1 : 0.875666975975, Q2 : 0.0731226876378, Q3 : -0.137384176254, Q4 : 0.457149922848}
2019-04-14 18:00:02.31: SIM {TimeUS : 64934849, Roll : 0.12, Pitch : -17.94, Yaw : 55.09, Alt : 49.3300018311, Lat : 49.2837478, Lng : -123.1146246, Q1 : 0.875693202019, Q2 : 0.0730497762561, Q3 : -0.137796148658, Q4 : 0.456987291574}
2019-04-14 18:00:02.41: SIM {TimeUS : 65034809, Roll : 0.11, Pitch : -17.95, Yaw : 55.08, Alt : 49.3300018311, Lat : 49.2837503, Lng : -123.1146192, Q1 : 0.875749647617, Q2 : 0.073005206883, Q3 : -0.137879088521, Q4 : 0.456861227751}
2019-04-14 18:00:02.51: SIM {TimeUS : 65134769, Roll : 0.12, Pitch : -17.93, Yaw : 55.06, Alt : 49.3300018311, Lat : 49.2837527, Lng : -123.1146138, Q1 : 0.875820159912, Q2 : 0.0730189532042, Q3 : -0.137738630176, Q4 : 0.456766277552}
2019-04-14 18:00:02.61: SIM {TimeUS : 65234729, Roll : 0.15, Pitch : -17.92, Yaw : 55.05, Alt : 49.3300018311, Lat : 49.2837551, Lng : -123.1146083, Q1 : 0.87588173151, Q2 : 0.0731566995382, Q3 : -0.137534603477, Q4 : 0.456687539816}
2019-04-14 18:00:02.71: SIM {TimeUS : 65334689, Roll : 0.16, Pitch : -17.93, Yaw : 55.03, Alt : 49.3300018311, Lat : 49.2837575, Lng : -123.1146029, Q1 : 0.87592446804, Q2 : 0.0732926353812, Q3 : -0.137546181679, Q4 : 0.456580340862}
2019-04-14 18:00:02.81: SIM {TimeUS : 65434649, Roll : 0.16, Pitch : -17.95, Yaw : 55.02, Alt : 49.3300018311, Lat : 49.2837599, Lng : -123.1145974, Q1 : 0.875955104828, Q2 : 0.0733277946711, Q3 : -0.137765154243, Q4 : 0.456449836493}
2019-04-14 18:00:02.91: SIM {TimeUS : 65534609, Roll : 0.14, Pitch : -17.98, Yaw : 55.0, Alt : 49.3300018311, Lat : 49.2837624, Lng : -123.1145919, Q1 : 0.875987768173, Q2 : 0.0732538923621, Q3 : -0.138063579798, Q4 : 0.456308841705}
2019-04-14 18:00:03.01: SIM {TimeUS : 65634569, Roll : 0.12, Pitch : -18.0, Yaw : 54.99, Alt : 49.3400001526, Lat : 49.2837648, Lng : -123.1145865, Q1 : 0.876015841961, Q2 : 0.0732306689024, Q3 : -0.138308107853, Q4 : 0.456184655428}
2019-04-14 18:00:03.11: SIM {TimeUS : 65734529, Roll : 0.13, Pitch : -18.02, Yaw : 54.98, Alt : 49.3400001526, Lat : 49.2837672, Lng : -123.1145811, Q1 : 0.876039505005, Q2 : 0.0733346194029, Q3 : -0.138440176845, Q4 : 0.456082373857}
2019-04-14 18:00:03.21: SIM {TimeUS : 65834489, Roll : 0.14, Pitch : -18.03, Yaw : 54.97, Alt : 49.3400001526, Lat : 49.2837697, Lng : -123.1145756, Q1 : 0.876061975956, Q2 : 0.0734622478485, Q3 : -0.138493552804, Q4 : 0.456002533436}
2019-04-14 18:00:03.32: SIM {TimeUS : 65935282, Roll : 0.16, Pitch : -18.05, Yaw : 54.96, Alt : 49.3400001526, Lat : 49.2837721, Lng : -123.1145701, Q1 : 0.87606137991, Q2 : 0.0736884623766, Q3 : -0.138492032886, Q4 : 0.455967605114}
2019-04-14 18:00:03.41: SIM {TimeUS : 66035242, Roll : 0.18, Pitch : -18.06, Yaw : 54.96, Alt : 49.3400001526, Lat : 49.2837746, Lng : -123.1145646, Q1 : 0.876052856445, Q2 : 0.0738350749016, Q3 : -0.138558164239, Q4 : 0.455940127373}
2019-04-14 18:00:03.51: SIM {TimeUS : 66135202, Roll : 0.19, Pitch : -18.08, Yaw : 54.95, Alt : 49.3400001526, Lat : 49.283777, Lng : -123.1145591, Q1 : 0.876042127609, Q2 : 0.0739690884948, Q3 : -0.138644605875, Q4 : 0.455912768841}
2019-04-14 18:00:03.61: SIM {TimeUS : 66235162, Roll : 0.2, Pitch : -18.09, Yaw : 54.95, Alt : 49.3400001526, Lat : 49.2837794, Lng : -123.1145536, Q1 : 0.876034855843, Q2 : 0.0741114094853, Q3 : -0.138681307435, Q4 : 0.455892473459}
2019-04-14 18:00:03.71: SIM {TimeUS : 66335122, Roll : 0.22, Pitch : -18.09, Yaw : 54.94, Alt : 49.3400001526, Lat : 49.2837819, Lng : -123.1145481, Q1 : 0.876023709774, Q2 : 0.0743214190006, Q3 : -0.138632744551, Q4 : 0.455894470215}
2019-04-14 18:00:03.81: SIM {TimeUS : 66435082, Roll : 0.26, Pitch : -18.1, Yaw : 54.94, Alt : 49.3400001526, Lat : 49.2837843, Lng : -123.1145427, Q1 : 0.876004874706, Q2 : 0.074594758451, Q3 : -0.13855676353, Q4 : 0.45590916276}
2019-04-14 18:00:03.91: SIM {TimeUS : 66535042, Roll : 0.25, Pitch : -18.1, Yaw : 54.94, Alt : 49.3400001526, Lat : 49.2837867, Lng : -123.1145372, Q1 : 0.876020133495, Q2 : 0.0745407864451, Q3 : -0.138557225466, Q4 : 0.455888450146}
2019-04-14 18:00:04.01: SIM {TimeUS : 66635002, Roll : 0.22, Pitch : -18.11, Yaw : 54.94, Alt : 49.3400001526, Lat : 49.2837892, Lng : -123.1145317, Q1 : 0.876045763493, Q2 : 0.074330933392, Q3 : -0.138750806451, Q4 : 0.455814629793}
2019-04-14 18:00:04.11: SIM {TimeUS : 66734962, Roll : 0.19, Pitch : -18.13, Yaw : 54.93, Alt : 49.3400001526, Lat : 49.2837917, Lng : -123.1145261, Q1 : 0.876058876514, Q2 : 0.0741727724671, Q3 : -0.139069423079, Q4 : 0.455718040466}
2019-04-14 18:00:04.21: SIM {TimeUS : 66834922, Roll : 0.15, Pitch : -18.15, Yaw : 54.92, Alt : 49.3499984741, Lat : 49.2837941, Lng : -123.1145206, Q1 : 0.876082360744, Q2 : 0.0739746019244, Q3 : -0.139366060495, Q4 : 0.455614537001}
