2019-04-14 16:49:23.90: SIM {TimeUS : 39915694, Roll : 0.0, Pitch : 0.0, Yaw : 0.0, Alt : 30.1000003815, Lat : 49.28357, Lng : -123.11502, Q1 : 1.0, Q2 : 0.0, Q3 : 0.0, Q4 : 0.0}
2019-04-14 16:49:24.01: SIM {TimeUS : 40034813, Roll : 0.0, Pitch : 0.0, Yaw : 0.0, Alt : 30.1000003815, Lat : 49.28357, Lng : -123.11502, Q1 : 1.0, Q2 : 0.0, Q3 : 0.0, Q4 : 0.0}
2019-04-14 16:49:24.11: SIM {TimeUS : 40134773, Roll : 0.0, Pitch : 0.0, Yaw : 0.0, Alt : 30.1000003815, Lat : 49.28357, Lng : -123.11502, Q1 : 1.0, Q2 : 0.0, Q3 : 0.0, Q4 : 0.0}
2019-04-14 16:49:24.21: SIM {TimeUS : 40234733, Roll : 0.0, Pitch : 0.0, Yaw : 0.0, Alt : 30.1000003815, Lat : 49.28357, Lng : -123.11502, Q1 : 1.0, Q2 : 0.0, Q3 : 0.0, Q4 : 0.0}
2019-04-14 16:49:24.31: SIM {TimeUS : 40334693, Roll : 0.0, Pitch : 0.0, Yaw : 0.0, Alt : 30.1000003815, Lat : 49.28357, Lng : -123.11502, Q1 : 1.0, Q2 : 0.0, Q3 : 0.0, Q4 : 0.0}
2019-04-14 16:49:24.41: SIM {TimeUS : 40434653, Roll : 0.0, Pitch : 0.0, Yaw : 0.0, Alt : 30.1000003815, Lat : 49.28357, Lng : -123.11502, Q1 : 1.0, Q2 : 0.0, Q3 : 0.0, Q4 : 0.0}
2019-04-14 16:49:24.51: SIM {TimeUS : 40534613, Roll : 0.0, Pitch : 0.0, Yaw : 0.0, Alt : 30.1000003815, Lat : 49.28357, Lng : -123.11502, Q1 : 1.0, Q2 : 0.0, Q3 : 0.0, Q4 : 0.0}
2019-04-14 16:49:24.61: SIM {TimeUS : 40634573, Roll : 0.0, Pitch : 0.0, Yaw : 0.0, Alt : 30.1000003815, Lat : 49.28357, Lng : -123.11502, Q1 : 1.0, Q2 : 0.0, Q3 : 0.0, Q4 : 0.0}
2019-04-14 16:49:24.71: SIM {TimeUS : 40734533, Roll : 0.0, Pitch : 0.0, Yaw : 0.0, Alt : 30.1000003815, Lat : 49.28357, Lng : -123.11502, Q1 : 1.0, Q2 : 0.0, Q3 : 0.0, Q4 : 0.0}
2019-04-14 16:49:24.81: SIM {TimeUS : 40834493, Roll : 0.0, Pitch : 0.0, Yaw : 0.0, Alt : 30.1000003815, Lat : 49.28357, Lng : -123.11502, Q1 : 1.0, Q2 : 0.0, Q3 : 0.0, Q4 : 0.0}
2019-04-14 16:49:24.91: SIM {TimeUS : 40934453, Roll : 0.0, Pitch : 0.0, Yaw : 0.0, Alt : 30.1000003815, Lat : 49.28357, Lng : -123.11502, Q1 : 1.0, Q2 : 0.0, Q3 : 0.0, Q4 : 0.0}
2019-04-14 16:49:25.01: SIM {TimeUS : 41034413, Roll : 0.0, Pitch : 0.0, Yaw : 0.0, Alt : 30.1000003815, Lat : 49.28357, Lng : -123.11502, Q1 : 1.0, Q2 : 0.0, Q3 : 0.0, Q4 : 0.0}
2019-04-14 16:49:25.11: SIM {TimeUS : 41134373, Roll : 0.0, Pitch : 0.0, Yaw : 0.0, Alt : 30.1000003815, Lat : 49.28357, Lng : -123.11502, Q1 : 1.0, Q2 : 0.0, Q3 : 0.0, Q4 : 0.0}
2019-04-14 16:49:25.21: SIM {TimeUS : 41234333, Roll : 0.0, Pitch : 0.0, Yaw : 0.0, Alt : 30.1000003815, Lat : 49.28357, Lng : -123.11502, Q1 : 1.0, Q2 : 0.0, Q3 : 0.0, Q4 : 0.0}
2019-04-14 16:49:25.31: SIM {TimeUS : 41334293, Roll : 0.0, Pitch : 0.0, Yaw : 0.0, Alt : 30.1000003815, Lat : 49.28357, Lng : -123.11502, Q1 : 1.0, Q2 : 0.0, Q3 : 0.0, Q4 : 0.0}
2019-04-14 16:49:25.41: SIM {TimeUS : 41434253, Roll : 0.0, Pitch : 0.0, Yaw : 0.0, Alt : 30.1000003815, Lat : 49.28357, Lng : -123.11502, Q1 : 1.0, Q2 : 0.0, Q3 : 0.0, Q4 : 0.0}
2019-04-14 16:49:25.51: SIM {TimeUS : 41534213, Roll : 0.0, Pitch : 0.0, Yaw : 0.0, Alt : 30.1000003815, Lat : 49.28357, Lng : -123.11502, Q1 : 1.0, Q2 : 0.0, Q3 : 0.0, Q4 : 0.0}
2019-04-14 16:49:25.61: SIM {TimeUS : 41634173, Roll : 0.0, Pitch : 0.0, Yaw : 0.0, Alt : 30.1000003815, Lat : 49.28357, Lng : -123.11502, Q1 : 1.0, Q2 : 0.0, Q3 : 0.0, Q4 : 0.0}
2019-04-14 16:49:25.71: SIM {TimeUS : 41734133, Roll : 0.0, Pitch : 0.0, Yaw : 0.0, Alt : 30.1000003815, Lat : 49.28357, Lng : -123.11502, Q1 : 1.0, Q2 : 0.0, Q3 : 0.0, Q4 : 0.0}
2019-04-14 16:49:25.81: SIM {TimeUS : 41834093, Roll : 0.0, Pitch : 0.0, Yaw : 0.0, Alt : 30.1000003815, Lat : 49.28357, Lng : -123.11502, Q1 : 1.0, Q2 : 0.0, Q3 : 0.0, Q4 : 0.0}
2019-04-14 16:49:25.91: SIM {TimeUS : 41934053, Roll : 0.0, Pitch : 0.0, Yaw : 0.0, Alt : 30.1000003815, Lat : 49.28357, Lng : -123.11502, Q1 : 1.0, Q2 : 0.0, Q3 : 0.0, Q4 : 0.0}
2019-04-14 16:49:26.02: SIM {TimeUS : 42034846, Roll : 0.0, Pitch : 0.0, Yaw : 0.0, Alt : 30.1000003815, Lat : 49.28357, Lng : -123.11502, Q1 : 1.0, Q2 : 0.0, Q3 : 0.0, Q4 : 0.0}
2019-04-14 16:49:26.11: SIM {TimeUS : 42134806, Roll : 0.0, Pitch : 0.0, Yaw : 0.0, Alt : 30.1000003815, Lat : 49.28357, Lng : -123.11502, Q1 : 1.0, Q2 : 0.0, Q3 : 0.0, Q4 : 0.0}
2019-04-14 16:49:26.21: SIM {TimeUS : 42234766, Roll : 0.0, Pitch : 0.0, Yaw : 0.0, Alt : 30.1000003815, Lat : 49.28357, Lng : -123.11502, Q1 : 1.0, Q2 : 0.0, Q3 : 0.0, Q4 : 2.32067349278e-13}
2019-04-14 16:49:26.31: SIM {TimeUS : 42334726, Roll : 0.0, Pitch : 0.0, Yaw : 0.0, Alt : 30.1000003815, Lat : 49.28357, Lng : -123.11502, Q1 : 1.0, Q2 : 0.0, Q3 : 0.0, Q4 : 2.44555417583e-12}
2019-04-14 16:49:26.41: SIM {TimeUS : 42434686, Roll : 0.0, Pitch : 0.0, Yaw : 360.0, Alt : 30.1000003815, Lat : 49.28357, Lng : -123.11502, Q1 : 1.0, Q2 : 0.0, Q3 : 0.0, Q4 : -8.00653268129e-08}
2019-04-14 16:49:26.51: SIM {TimeUS : 42534646, Roll : 0.0, Pitch : 0.0, Yaw : 359.99, Alt : 30.1000003815, Lat : 49.28357, Lng : -123.11502, Q1 : 1.0, Q2 : 0.0, Q3 : 0.0, Q4 : -2.48108904088e-07}
2019-04-14 16:49:26.61: SIM {TimeUS : 42634606, Roll : 0.0, Pitch : 0.0, Yaw : 359.99, Alt : 30.1000003815, Lat : 49.28357, Lng : -123.11502, Q1 : 1.0, Q2 : 0.0, Q3 : 0.0, Q4 : -4.41624223413e-07}
2019-04-14 16:49:26.71: SIM {TimeUS : 42734566, Roll : 0.0, Pitch : 0.0, Yaw : 359.99, Alt : 30.1000003815, Lat : 49.28357, Lng : -123.11502, Q1 : 1.0, Q2 : 0.0, Q3 : 0.0, Q4 : -6.41614803953e-07}
2019-04-14 16:49:26.81: SIM {TimeUS : 42834526, Roll : 0.0, Pitch : 0.0, Yaw : 359.99, Alt : 30.1000003815, Lat : 49.28357, Lng : -123.11502, Q1 : 1.0, Q2 : 0.0, Q3 : 0.0, Q4 : -8.32204023027e-07}
2019-04-14 16:49:26.91: SIM {TimeUS : 42934486, Roll : 0.0, Pitch : 0.0, Yaw : 359.99, Alt : 30.1000003815, Lat : 49.28357, Lng : -123.11502, Q1 : 1.0, Q2 : 0.0, Q3 : 0.0, Q4 : -1.02767853605e-06}
2019-04-14 16:49:27.01: SIM {TimeUS : 43034446, Roll : 0.0, Pitch : 0.0, Yaw : 359.99, Alt : 30.1000003815, Lat : 49.28357, Lng : -123.11502, Q1 : 1.0, Q2 : 0.0, Q3 : 0.0, Q4 : -1.16932403671e-06}
2019-04-14 16:49:27.11: SIM {TimeUS : 43134406, Roll : 0.0, Pitch : 0.0, Yaw : 359.99, Alt : 30.1100006104, Lat : 49.28357, Lng : -123.11502, Q1 : 1.0, Q2 : 0.0, Q3 : 0.0, Q4 : -1.39379130815e-06}
2019-04-14 16:49:27.21: SIM {TimeUS : 43234366, Roll : 0.0, Pitch : 0.0, Yaw : 359.99, Alt : 30.1299991608, Lat : 49.28357, Lng : -123.11502, Q1 : 1.0, Q2 : 0.0, Q3 : 0.0, Q4 : -1.62676121818e-06}
2019-04-14 16:49:27.31: SIM {TimeUS : 43334326, Roll : 0.0, Pitch : 0.0, Yaw : 359.99, Alt : 30.1499996185, Lat : 49.28357, Lng : -123.11502, Q1 : 1.0, Q2 : 0.0, Q3 : 0.0, Q4 : -1.86011925507e-06}
2019-04-14 16:49:27.41: SIM {TimeUS : 43434286, Roll : 0.0, Pitch : 0.0, Yaw : 359.99, Alt : 30.1900005341, Lat : 49.28357, Lng : -123.11502, Q1 : 1.0, Q2 : 0.0, Q3 : 0.0, Q4 : -2.10303005588e-06}
2019-04-14 16:49:27.51: SIM {TimeUS : 43534246, Roll : -0.02, Pitch : -0.02, Yaw : 359.99, Alt : 30.2299995422, Lat : 49.28357, Lng : -123.11502, Q1 : 0.999999940395, Q2 : -0.000241282876232, Q3 : -0.000243227987085, Q4 : -3.72698627871e-06}
2019-04-14 16:49:27.61: SIM {TimeUS : 43634206, Roll : -0.25, Pitch : -0.25, Yaw : 359.99, Alt : 30.2999992371, Lat : 49.28357, Lng : -123.11502, Q1 : 0.999995052814, Q2 : -0.00221560732462, Q3 : -0.00225342623889, Q4 : -2.5868335797e-05}
2019-04-14 16:49:27.71: SIM {TimeUS : 43734166, Roll : -0.55, Pitch : -0.56, Yaw : 359.99, Alt : 30.4300003052, Lat : 49.28357, Lng : -123.11502, Q1 : 0.999976277351, Q2 : -0.00480595696718, Q3 : -0.00494208466262, Q4 : -7.67473538872e-05}
2019-04-14 16:49:27.81: SIM {TimeUS : 43834126, Roll : -0.76, Pitch : -0.76, Yaw : 359.98, Alt : 30.5900001526, Lat : 49.28357, Lng : -123.11502, Q1 : 0.999955415726, Q2 : -0.00669461209327, Q3 : -0.0066647157073, Q4 : -0.000152196793351}
2019-04-14 16:49:27.91: SIM {TimeUS : 43934086, Roll : -0.83, Pitch : -0.77, Yaw : 359.97, Alt : 30.75, Lat : 49.28357, Lng : -123.11502, Q1 : 0.999951004982, Q2 : -0.00725997705013, Q3 : -0.00672725308686, Q4 : -0.000241073576035}
2019-04-14 16:49:28.01: SIM {TimeUS : 44034046, Roll : -0.74, Pitch : -0.63, Yaw : 359.96, Alt : 30.8999996185, Lat : 49.28357, Lng : -123.1150201, Q1 : 0.999963343143, Q2 : -0.00649673352018, Q3 : -0.00556811038405, Q4 : -0.000327970687067}
2019-04-14 16:49:28.12: SIM {TimeUS : 44134839, Roll : -0.55, Pitch : -0.43, Yaw : 359.95, Alt : 31.0599994659, Lat : 49.2835701, Lng : -123.1150202, Q1 : 0.9999807477, Q2 : -0.00487953750417, Q3 : -0.00380333280191, Q4 : -0.000408774183597}
2019-04-14 16:49:28.21: SIM {TimeUS : 44234799, Roll : -0.35, Pitch : -0.23, Yaw : 359.94, Alt : 31.2199993134, Lat : 49.2835701, Lng : -123.1150202, Q1 : 0.999993145466, Q2 : -0.00306388456374, Q3 : -0.00203043618239, Q4 : -0.000475703214761}
2019-04-14 16:49:28.31: SIM {TimeUS : 44334759, Roll : -0.16, Pitch : -0.07, Yaw : 359.93, Alt : 31.3799991608, Lat : 49.2835702, Lng : -123.1150203, Q1 : 0.999998629093, Q2 : -0.00141312042251, Q3 : -0.000675402057823, Q4 : -0.000525892770384}
2019-04-14 16:49:28.41: SIM {TimeUS : 44434719, Roll : -0.01, Pitch : 0.0, Yaw : 359.93, Alt : 31.5499992371, Lat : 49.2835702, Lng : -123.1150204, Q1 : 0.999999821186, Q2 : -8.82807071321e-05, Q3 : -5.01708163938e-05, Q4 : -0.000559298903681}
2019-04-14 16:49:28.51: SIM {TimeUS : 44534679, Roll : 0.06, Pitch : 0.02, Yaw : 359.93, Alt : 31.7299995422, Lat : 49.2835703, Lng : -123.1150205, Q1 : 0.999999642372, Q2 : 0.000605141860433, Q3 : 0.000209049991099, Q4 : -0.000575404497795}
2019-04-14 16:49:28.61: SIM {TimeUS : 44634639, Roll : 0.07, Pitch : 0.02, Yaw : 359.93, Alt : 31.9099998474, Lat : 49.2835703, Lng : -123.1150206, Q1 : 0.999999582767, Q2 : 0.000693144218531, Q3 : 0.000230176985497, Q4 : -0.00057611532975}
2019-04-14 16:49:28.71: SIM {TimeUS : 44734599, Roll : 0.06, Pitch : 0.01, Yaw : 359.93, Alt : 32.0900001526, Lat : 49.2835703, Lng : -123.1150206, Q1 : 0.999999701977, Q2 : 0.000535844999831, Q3 : 0.000110540633614, Q4 : -0.000557932129595}
2019-04-14 16:49:28.81: SIM {TimeUS : 44834559, Roll : 0.05, Pitch : 0.01, Yaw : 359.93, Alt : 32.2799987793, Lat : 49.2835703, Lng : -123.1150207, Q1 : 0.999999761581, Q2 : 0.000498273759149, Q3 : 9.00999366422e-05, Q4 : -0.000536480161827}
2019-04-14 16:49:28.91: SIM {TimeUS : 44934519, Roll : 0.06, Pitch : 0.02, Yaw : 359.94, Alt : 32.4700012207, Lat : 49.2835703, Lng : -123.1150207, Q1 : 0.999999701977, Q2 : 0.000589632894844, Q3 : 0.000194905500393, Q4 : -0.000514539133292}
2019-04-14 16:49:29.01: SIM {TimeUS : 45034479, Roll : 0.09, Pitch : 0.03, Yaw : 359.94, Alt : 32.6699981689, Lat : 49.2835703, Lng : -123.1150208, Q1 : 0.999999463558, Q2 : 0.000859095598571, Q3 : 0.000310535018798, Q4 : -0.000503382121678}
2019-04-14 16:49:29.11: SIM {TimeUS : 45134439, Roll : 0.13, Pitch : 0.05, Yaw : 359.94, Alt : 32.8699989319, Lat : 49.2835703, Lng : -123.1150208, Q1 : 0.999999046326, Q2 : 0.00118167768233, Q3 : 0.000470938131912, Q4 : -0.000495630083606}
2019-04-14 16:49:29.21: SIM {TimeUS : 45234399, Roll : 0.16, Pitch : 0.08, Yaw : 359.94, Alt : 33.0699996948, Lat : 49.2835704, Lng : -123.1150208, Q1 : 0.999998569489, Q2 : 0.00142474065069, Q3 : 0.000766728713643, Q4 : -0.000497197266668}
2019-04-14 16:49:29.31: SIM {TimeUS : 45334359, Roll : 0.16, Pitch : 0.12, Yaw : 359.94, Alt : 33.2700004578, Lat : 49.2835704, Lng : -123.1150209, Q1 : 0.999998152256, Q2 : 0.00147112819832, Q3 : 0.00112860067748, Q4 : -0.000504180672579}
2019-04-14 16:49:29.41: SIM {TimeUS : 45434319, Roll : 0.15, Pitch : 0.16, Yaw : 359.94, Alt : 33.4799995422, Lat : 49.2835704, Lng : -123.1150209, Q1 : 0.999997913837, Q2 : 0.00138196558692, Q3 : 0.00140829896554, Q4 : -0.000509138451889}
2019-04-14 16:49:29.51: SIM {TimeUS : 45534279, Roll : 0.14, Pitch : 0.18, Yaw : 359.94, Alt : 33.6800003052, Lat : 49.2835704, Lng : -123.1150209, Q1 : 0.999997675419, Q2 : 0.0013053487055, Q3 : 0.00162434228696, Q4 : -0.000512651517056}
2019-04-14 16:49:29.61: SIM {TimeUS : 45634239, Roll : 0.15, Pitch : 0.18, Yaw : 359.94, Alt : 33.8899993896, Lat : 49.2835704, Lng : -123.1150209, Q1 : 0.999997675419, Q2 : 0.00134939525742, Q3 : 0.00158694852144, Q4 : -0.000516384199727}
2019-04-14 16:49:29.71: SIM {TimeUS : 45734199, Roll : 0.15, Pitch : 0.16, Yaw : 359.93, Alt : 34.0999984741, Lat : 49.2835704, Lng : -123.1150209, Q1 : 0.999997913837, Q2 : 0.00132345594466, Q3 : 0.00148020172492, Q4 : -0.000530217133928}
2019-04-14 16:49:29.81: SIM {TimeUS : 45834159, Roll : 0.12, Pitch : 0.15, Yaw : 359.93, Alt : 34.3100013733, Lat : 49.2835706, Lng : -123.1150209, Q1 : 0.999998271465, Q2 : 0.00112365721725, Q3 : 0.00136788072996, Q4 : -0.000547989387996}
2019-04-14 16:49:29.91: SIM {TimeUS : 45934119, Roll : 0.1, Pitch : 0.11, Yaw : 359.93, Alt : 34.5200004578, Lat : 49.2835706, Lng : -123.1150209, Q1 : 0.999998927116, Q2 : 0.000955425552092, Q3 : 0.000965497107245, Q4 : -0.000559312175028}
2019-04-14 16:49:30.01: SIM {TimeUS : 46034079, Roll : 0.09, Pitch : 0.04, Yaw : 359.93, Alt : 34.7400016785, Lat : 49.2835706, Lng : -123.1150209, Q1 : 0.999999403954, Q2 : 0.000823412789032, Q3 : 0.000435833440861, Q4 : -0.000578320235945}
2019-04-14 16:49:30.11: SIM {TimeUS : 46134039, Roll : 0.07, Pitch : 0.01, Yaw : 359.92, Alt : 34.9500007629, Lat : 49.2835706, Lng : -123.1150209, Q1 : 0.999999523163, Q2 : 0.0006920597516, Q3 : 0.000126321334392, Q4 : -0.000613137090113}
2019-04-14 16:49:30.22: SIM {TimeUS : 46234832, Roll : 0.06, Pitch : 0.0, Yaw : 359.92, Alt : 35.1699981689, Lat : 49.2835706, Lng : -123.1150209, Q1 : 0.999999642372, Q2 : 0.000569830124732, Q3 : 5.89021728956e-05, Q4 : -0.000666080974042}
2019-04-14 16:49:30.31: SIM {TimeUS : 46334792, Roll : 0.06, Pitch : 0.02, Yaw : 359.91, Alt : 35.3899993896, Lat : 49.2835706, Lng : -123.1150208, Q1 : 0.999999582767, Q2 : 0.00052940135356, Q3 : 0.000218081026105, Q4 : -0.000729740655515}
2019-04-14 16:49:30.41: SIM {TimeUS : 46434752, Roll : 0.05, Pitch : 0.03, Yaw : 359.91, Alt : 35.5999984741, Lat : 49.2835706, Lng : -123.1150208, Q1 : 0.999999523163, Q2 : 0.000443840719527, Q3 : 0.000338355574058, Q4 : -0.000782490824349}
2019-04-14 16:49:30.51: SIM {TimeUS : 46534712, Roll : 0.02, Pitch : 0.05, Yaw : 359.9, Alt : 35.8199996948, Lat : 49.2835706, Lng : -123.1150208, Q1 : 0.999999523163, Q2 : 0.000246364215855, Q3 : 0.000438404182205, Q4 : -0.000827445881441}
2019-04-14 16:49:30.61: SIM {TimeUS : 46634672, Roll : 0.0, Pitch : 0.06, Yaw : 359.9, Alt : 36.0400009155, Lat : 49.2835706, Lng : -123.1150208, Q1 : 0.999999463558, Q2 : 5.17305015819e-05, Q3 : 0.000558032479603, Q4 : -0.000866387912538}
2019-04-14 16:49:30.71: SIM {TimeUS : 46734632, Roll : 0.0, Pitch : 0.07, Yaw : 359.89, Alt : 36.2599983215, Lat : 49.2835706, Lng : -123.1150208, Q1 : 0.999999344349, Q2 : -4.64821387141e-05, Q3 : 0.000694930611644, Q4 : -0.000892161973752}
2019-04-14 16:49:30.81: SIM {TimeUS : 46834592, Roll : -0.01, Pitch : 0.07, Yaw : 359.89, Alt : 36.4900016785, Lat : 49.2835704, Lng : -123.1150208, Q1 : 0.999999344349, Q2 : -0.000140543968882, Q3 : 0.000655136886053, Q4 : -0.000906938919798}
2019-04-14 16:49:30.91: SIM {TimeUS : 46934552, Roll : -0.02, Pitch : 0.06, Yaw : 359.89, Alt : 36.7099990845, Lat : 49.2835704, Lng : -123.1150207, Q1 : 0.999999403954, Q2 : -0.000204870419111, Q3 : 0.000559567357413, Q4 : -0.000918445934076}
2019-04-14 16:49:31.01: SIM {TimeUS : 47034512, Roll : -0.02, Pitch : 0.04, Yaw : 359.89, Alt : 36.9300003052, Lat : 49.2835704, Lng : -123.1150207, Q1 : 0.999999463558, Q2 : -0.000236107051023, Q3 : 0.000422515789978, Q4 : -0.000927392800804}
2019-04-14 16:49:31.11: SIM {TimeUS : 47134472, Roll : -0.02, Pitch : 0.02, Yaw : 359.89, Alt : 37.1599998474, Lat : 49.2835704, Lng : -123.1150207, Q1 : 0.999999523163, Q2 : -0.000192274092115, Q3 : 0.000243890928687, Q4 : -0.000927609915379}
2019-04-14 16:49:31.21: SIM {TimeUS : 47234432, Roll : 0.0, Pitch : 0.0, Yaw : 359.89, Alt : 37.3800010681, Lat : 49.2835704, Lng : -123.1150207, Q1 : 0.999999582767, Q2 : -5.79626657782e-06, Q3 : 7.51716288505e-05, Q4 : -0.00092066952493}
2019-04-14 16:49:31.31: SIM {TimeUS : 47334392, Roll : 0.0, Pitch : -0.02, Yaw : 359.89, Alt : 37.6100006104, Lat : 49.2835704, Lng : -123.1150207, Q1 : 0.999999582767, Q2 : 3.20343206113e-05, Q3 : -0.000180907474714, Q4 : -0.000910980335902}
2019-04-14 16:49:31.41: SIM {TimeUS : 47434352, Roll : -0.01, Pitch : -0.06, Yaw : 359.89, Alt : 37.8300018311, Lat : 49.2835704, Lng : -123.1150207, Q1 : 0.999999463558, Q2 : -0.000123421137687, Q3 : -0.000541776360478, Q4 : -0.000897692982107}
2019-04-14 16:49:31.51: SIM {TimeUS : 47534312, Roll : -0.04, Pitch : -0.09, Yaw : 359.89, Alt : 38.0600013733, Lat : 49.2835704, Lng : -123.1150207, Q1 : 0.999999165535, Q2 : -0.000430323241744, Q3 : -0.000801847141702, Q4 : -0.00089740275871}
2019-04-14 16:49:31.61: SIM {TimeUS : 47634272, Roll : -0.09, Pitch : -0.09, Yaw : 359.89, Alt : 38.2900009155, Lat : 49.2835704, Lng : -123.1150207, Q1 : 0.999998927116, Q2 : -0.000802344467957, Q3 : -0.000831936893519, Q4 : -0.000926012929995}
2019-04-14 16:49:31.71: SIM {TimeUS : 47734232, Roll : -0.12, Pitch : -0.09, Yaw : 359.88, Alt : 38.5200004578, Lat : 49.2835704, Lng : -123.1150207, Q1 : 0.999998688698, Q2 : -0.00105659011751, Q3 : -0.000787567114457, Q4 : -0.000962785212323}
2019-04-14 16:49:31.81: SIM {TimeUS : 47834192, Roll : -0.12, Pitch : -0.07, Yaw : 359.88, Alt : 38.7400016785, Lat : 49.2835704, Lng : -123.1150206, Q1 : 0.999998629093, Q2 : -0.00112040806562, Q3 : -0.000676461611874, Q4 : -0.00100026302971}
2019-04-14 16:49:31.91: SIM {TimeUS : 47934152, Roll : -0.11, Pitch : -0.05, Yaw : 359.88, Alt : 38.9700012207, Lat : 49.2835704, Lng : -123.1150206, Q1 : 0.999998867512, Q2 : -0.000974808761384, Q3 : -0.0004378152953, Q4 : -0.00104174541775}
2019-04-14 16:49:32.01: SIM {TimeUS : 48034112, Roll : -0.08, Pitch : -0.03, Yaw : 359.87, Alt : 39.2000007629, Lat : 49.2835704, Lng : -123.1150206, Q1 : 0.999999046326, Q2 : -0.000750505598262, Q3 : -0.000332790747052, Q4 : -0.00108565331902}
2019-04-14 16:49:32.11: SIM {TimeUS : 48134072, Roll : -0.06, Pitch : -0.04, Yaw : 359.86, Alt : 39.4300003052, Lat : 49.2835704, Lng : -123.1150206, Q1 : 0.99999910593, Q2 : -0.000561129767448, Q3 : -0.000359117373591, Q4 : -0.00113701843657}
2019-04-14 16:49:32.21: SIM {TimeUS : 48234032, Roll : -0.05, Pitch : -0.02, Yaw : 359.86, Alt : 39.6599998474, Lat : 49.2835704, Lng : -123.1150206, Q1 : 0.999999165535, Q2 : -0.000461984513095, Q3 : -0.000231945610722, Q4 : -0.00117758940905}
2019-04-14 16:49:32.32: SIM {TimeUS : 48334825, Roll : -0.06, Pitch : 0.0, Yaw : 359.86, Alt : 39.8899993896, Lat : 49.2835704, Lng : -123.1150206, Q1 : 0.99999910593, Q2 : -0.000565371708944, Q3 : -3.45219596056e-05, Q4 : -0.00121396803297}
2019-04-14 16:49:32.41: SIM {TimeUS : 48434785, Roll : -0.06, Pitch : 0.01, Yaw : 359.85, Alt : 40.1300010681, Lat : 49.2835704, Lng : -123.1150206, Q1 : 0.999999046326, Q2 : -0.000579732935876, Q3 : 0.000142140372191, Q4 : -0.00124315568246}
2019-04-14 16:49:32.51: SIM {TimeUS : 48534745, Roll : -0.05, Pitch : 0.04, Yaw : 359.85, Alt : 40.3600006104, Lat : 49.2835704, Lng : -123.1150207, Q1 : 0.999998986721, Q2 : -0.000492360268254, Q3 : 0.000389209075365, Q4 : -0.00126366573386}
2019-04-14 16:49:32.61: SIM {TimeUS : 48634705, Roll : -0.04, Pitch : 0.05, Yaw : 359.85, Alt : 40.5900001526, Lat : 49.2835704, Lng : -123.1150207, Q1 : 0.999998986721, Q2 : -0.000381164922146, Q3 : 0.000454169057775, Q4 : -0.00127161724959}
2019-04-14 16:49:32.71: SIM {TimeUS : 48734665, Roll : -0.01, Pitch : 0.05, Yaw : 359.85, Alt : 40.8199996948, Lat : 49.2835704, Lng : -123.1150207, Q1 : 0.999999046326, Q2 : -9.45086212596e-05, Q3 : 0.000471216684673, Q4 : -0.00127154006623}
2019-04-14 16:49:32.81: SIM {TimeUS : 48834625, Roll : 0.03, Pitch : 0.07, Yaw : 359.85, Alt : 41.0499992371, Lat : 49.2835704, Lng : -123.1150207, Q1 : 0.999998927116, Q2 : 0.000297246646369, Q3 : 0.000634127354715, Q4 : -0.00126760615967}
2019-04-14 16:49:32.91: SIM {TimeUS : 48934585, Roll : 0.08, Pitch : 0.1, Yaw : 359.85, Alt : 41.2900009155, Lat : 49.2835706, Lng : -123.1150207, Q1 : 0.999998450279, Q2 : 0.000778177927714, Q3 : 0.000892064650543, Q4 : -0.00127227872144}
2019-04-14 16:49:33.01: SIM {TimeUS : 49034545, Roll : 0.12, Pitch : 0.13, Yaw : 359.85, Alt : 41.5200004578, Lat : 49.2835706, Lng : -123.1150207, Q1 : 0.999997973442, Q2 : 0.00104896188714, Q3 : 0.00114719918929, Q4 : -0.00128331175074}
2019-04-14 16:49:33.11: SIM {TimeUS : 49134505, Roll : 0.1, Pitch : 0.15, Yaw : 359.85, Alt : 41.75, Lat : 49.2835706, Lng : -123.1150207, Q1 : 0.999997854233, Q2 : 0.000923460174818, Q3 : 0.00132602406666, Q4 : -0.00128405261785}
2019-04-14 16:49:33.21: SIM {TimeUS : 49234465, Roll : 0.05, Pitch : 0.16, Yaw : 359.85, Alt : 41.9900016785, Lat : 49.2835706, Lng : -123.1150207, Q1 : 0.999998033047, Q2 : 0.000474655244034, Q3 : 0.00141157838516, Q4 : -0.0012906367192}
2019-04-14 16:49:33.31: SIM {TimeUS : 49334425, Roll : 0.0, Pitch : 0.15, Yaw : 359.85, Alt : 42.2200012207, Lat : 49.2835706, Lng : -123.1150207, Q1 : 0.999998152256, Q2 : 2.70025793725e-05, Q3 : 0.00138824328315, Q4 : -0.00130830181297}
2019-04-14 16:49:33.41: SIM {TimeUS : 49434385, Roll : -0.01, Pitch : 0.12, Yaw : 359.84, Alt : 42.4599990845, Lat : 49.2835706, Lng : -123.1150207, Q1 : 0.999998509884, Q2 : -0.000147726139403, Q3 : 0.0011320131598, Q4 : -0.00132798473351}
2019-04-14 16:49:33.51: SIM {TimeUS : 49534345, Roll : -0.01, Pitch : 0.09, Yaw : 359.84, Alt : 42.6899986267, Lat : 49.2835706, Lng : -123.1150207, Q1 : 0.999998748302, Q2 : -0.000148551145685, Q3 : 0.000797026616056, Q4 : -0.00134773994796}
2019-04-14 16:49:33.61: SIM {TimeUS : 49634305, Roll : 0.0, Pitch : 0.09, Yaw : 359.84, Alt : 42.9300003052, Lat : 49.2835706, Lng : -123.1150207, Q1 : 0.999998748302, Q2 : -5.73554716539e-05, Q3 : 0.00079621450277, Q4 : -0.00137641525362}
2019-04-14 16:49:33.71: SIM {TimeUS : 49734265, Roll : 0.02, Pitch : 0.11, Yaw : 359.83, Alt : 43.1599998474, Lat : 49.2835706, Lng : -123.1150207, Q1 : 0.999998450279, Q2 : 0.000248228752753, Q3 : 0.000987543840893, Q4 : -0.00142202118877}
2019-04-14 16:49:33.81: SIM {TimeUS : 49834225, Roll : 0.08, Pitch : 0.14, Yaw : 359.83, Alt : 43.4000015259, Lat : 49.2835706, Lng : -123.1150207, Q1 : 0.999997913837, Q2 : 0.000715361791663, Q3 : 0.00122679909691, Q4 : -0.00146524119191}
2019-04-14 16:49:33.91: SIM {TimeUS : 49934185, Roll : 0.12, Pitch : 0.13, Yaw : 359.82, Alt : 43.6300010681, Lat : 49.2835704, Lng : -123.1150207, Q1 : 0.99999755621, Q2 : 0.00106398784555, Q3 : 0.00120375130791, Q4 : -0.00150877656415}
2019-04-14 16:49:34.01: SIM {TimeUS : 50034145, Roll : 0.12, Pitch : 0.12, Yaw : 359.82, Alt : 43.8699989319, Lat : 49.2835704, Lng : -123.1150207, Q1 : 0.999997675419, Q2 : 0.00107014237437, Q3 : 0.00104640994687, Q4 : -0.00154853914864}
2019-04-14 16:49:34.11: SIM {TimeUS : 50134105, Roll : 0.08, Pitch : 0.1, Yaw : 359.81, Alt : 44.0999984741, Lat : 49.2835704, Lng : -123.1150207, Q1 : 0.999998092651, Q2 : 0.00071911921259, Q3 : 0.000888398906682, Q4 : -0.00157356914133}
2019-04-14 16:49:34.21: SIM {TimeUS : 50234065, Roll : 0.02, Pitch : 0.08, Yaw : 359.81, Alt : 44.3400001526, Lat : 49.2835704, Lng : -123.1150207, Q1 : 0.999998450279, Q2 : 0.000212824204937, Q3 : 0.00076127925422, Q4 : -0.00158793793526}
2019-04-14 16:49:34.31: SIM {TimeUS : 50334025, Roll : -0.01, Pitch : 0.08, Yaw : 359.81, Alt : 44.5699996948, Lat : 49.2835704, Lng : -123.1150207, Q1 : 0.999998390675, Q2 : -0.000162988406373, Q3 : 0.00078373926226, Q4 : -0.00160111708101}
2019-04-14 16:49:34.41: SIM {TimeUS : 50434818, Roll : -0.04, Pitch : 0.08, Yaw : 359.81, Alt : 44.8100013733, Lat : 49.2835704, Lng : -123.1150206, Q1 : 0.99999833107, Q2 : -0.000386219122447, Q3 : 0.0007540716324, Q4 : -0.00161248329096}
2019-04-14 16:49:34.51: SIM {TimeUS : 50534778, Roll : -0.04, Pitch : 0.06, Yaw : 359.81, Alt : 45.0499992371, Lat : 49.2835704, Lng : -123.1150206, Q1 : 0.999998450279, Q2 : -0.000360207719496, Q3 : 0.000536173582077, Q4 : -0.00162609806284}
2019-04-14 16:49:34.61: SIM {TimeUS : 50634738, Roll : -0.04, Pitch : 0.03, Yaw : 359.81, Alt : 45.2799987793, Lat : 49.2835704, Lng : -123.1150206, Q1 : 0.999998509884, Q2 : -0.000384656450478, Q3 : 0.000303783686832, Q4 : -0.0016460622428}
2019-04-14 16:49:34.71: SIM {TimeUS : 50734698, Roll : -0.03, Pitch : 0.01, Yaw : 359.8, Alt : 45.5200004578, Lat : 49.2835703, Lng : -123.1150206, Q1 : 0.999998509884, Q2 : -0.00033578692819, Q3 : 0.000123910154798, Q4 : -0.00167061819229}
2019-04-14 16:49:34.81: SIM {TimeUS : 50834658, Roll : -0.02, Pitch : 0.0, Yaw : 359.8, Alt : 45.75, Lat : 49.2835703, Lng : -123.1150206, Q1 : 0.999998569489, Q2 : -0.000221085356316, Q3 : 3.486109199e-05, Q4 : -0.00170126499142}
2019-04-14 16:49:34.91: SIM {TimeUS : 50934618, Roll : -0.02, Pitch : 0.0, Yaw : 359.8, Alt : 45.9799995422, Lat : 49.2835703, Lng : -123.1150206, Q1 : 0.999998509884, Q2 : -0.000197792222025, Q3 : 1.77976580744e-05, Q4 : -0.00173298653681}
2019-04-14 16:49:35.01: SIM {TimeUS : 51034578, Roll : -0.03, Pitch : 0.0, Yaw : 359.79, Alt : 46.2099990845, Lat : 49.2835703, Lng : -123.1150206, Q1 : 0.999998390675, Q2 : -0.000265269103693, Q3 : -6.2756909756e-05, Q4 : -0.00176907714922}
2019-04-14 16:49:35.11: SIM {TimeUS : 51134538, Roll : -0.03, Pitch : -0.02, Yaw : 359.79, Alt : 46.4399986267, Lat : 49.2835703, Lng : -123.1150205, Q1 : 0.999998271465, Q2 : -0.000316162331728, Q3 : -0.000258359563304, Q4 : -0.00180938548874}
2019-04-14 16:49:35.21: SIM {TimeUS : 51234498, Roll : -0.03, Pitch : -0.04, Yaw : 359.78, Alt : 46.6599998474, Lat : 49.2835703, Lng : -123.1150205, Q1 : 0.999998152256, Q2 : -0.00031772244256, Q3 : -0.000376671727281, Q4 : -0.00185390561819}
2019-04-14 16:49:35.31: SIM {TimeUS : 51334458, Roll : -0.02, Pitch : -0.04, Yaw : 359.78, Alt : 46.8699989319, Lat : 49.2835703, Lng : -123.1150205, Q1 : 0.999998092651, Q2 : -0.000243373142439, Q3 : -0.000422063458245, Q4 : -0.00189644144848}
2019-04-14 16:49:35.41: SIM {TimeUS : 51434418, Roll : -0.03, Pitch : -0.04, Yaw : 359.77, Alt : 47.0800018311, Lat : 49.2835703, Lng : -123.1150205, Q1 : 0.999998033047, Q2 : -0.00026832454023, Q3 : -0.000421183649451, Q4 : -0.00193275709171}
2019-04-14 16:49:35.51: SIM {TimeUS : 51534378, Roll : -0.04, Pitch : -0.03, Yaw : 359.77, Alt : 47.2799987793, Lat : 49.2835703, Lng : -123.1150205, Q1 : 0.999997913837, Q2 : -0.00043638565694, Q3 : -0.000335889402777, Q4 : -0.00196018768474}
2019-04-14 16:49:35.61: SIM {TimeUS : 51634338, Roll : -0.08, Pitch : -0.03, Yaw : 359.77, Alt : 47.4700012207, Lat : 49.2835703, Lng : -123.1150205, Q1 : 0.999997735023, Q2 : -0.000741092429962, Q3 : -0.000275913364021, Q4 : -0.00198463560082}
2019-04-14 16:49:35.71: SIM {TimeUS : 51734298, Roll : -0.11, Pitch : -0.03, Yaw : 359.77, Alt : 47.6599998474, Lat : 49.2835703, Lng : -123.1150205, Q1 : 0.999997437, Q2 : -0.00102046632674, Q3 : -0.000331121205818, Q4 : -0.00200712820515}
2019-04-14 16:49:35.81: SIM {TimeUS : 51834258, Roll : -0.15, Pitch : -0.05, Yaw : 359.76, Alt : 47.8300018311, Lat : 49.2835703, Lng : -123.1150205, Q1 : 0.999996960163, Q2 : -0.00133374251891, Q3 : -0.00049556279555, Q4 : -0.00202638376504}
2019-04-14 16:49:35.91: SIM {TimeUS : 51934218, Roll : -0.16, Pitch : -0.05, Yaw : 359.76, Alt : 47.9900016785, Lat : 49.2835703, Lng : -123.1150205, Q1 : 0.99999666214, Q2 : -0.00148069066927, Q3 : -0.000515269464813, Q4 : -0.0020441270899}
2019-04-14 16:49:36.01: SIM {TimeUS : 52034178, Roll : -0.15, Pitch : -0.05, Yaw : 359.76, Alt : 48.1399993896, Lat : 49.2835703, Lng : -123.1150205, Q1 : 0.999996781349, Q2 : -0.00138479284942, Q3 : -0.000450761988759, Q4 : -0.00206023594365}
2019-04-14 16:49:36.11: SIM {TimeUS : 52134138, Roll : -0.13, Pitch : -0.04, Yaw : 359.76, Alt : 48.2700004578, Lat : 49.2835703, Lng : -123.1150205, Q1 : 0.999997079372, Q2 : -0.00117405049969, Q3 : -0.000377469463274, Q4 : -0.00207539973781}
2019-04-14 16:49:36.21: SIM {TimeUS : 52234098, Roll : -0.11, Pitch : -0.03, Yaw : 359.76, Alt : 48.4000015259, Lat : 49.2835703, Lng : -123.1150205, Q1 : 0.999997317791, Q2 : -0.00096775079146, Q3 : -0.000324621825712, Q4 : -0.00209356937557}
2019-04-14 16:49:36.31: SIM {TimeUS : 52334058, Roll : -0.07, Pitch : -0.04, Yaw : 359.75, Alt : 48.5099983215, Lat : 49.2835703, Lng : -123.1150205, Q1 : 0.999997437, Q2 : -0.00069797487231, Q3 : -0.00038567816955, Q4 : -0.00211359350942}
2019-04-14 16:49:36.42: SIM {TimeUS : 52434851, Roll : -0.04, Pitch : -0.05, Yaw : 359.75, Alt : 48.6100006104, Lat : 49.2835703, Lng : -123.1150205, Q1 : 0.999997496605, Q2 : -0.000395690847654, Q3 : -0.000474660540931, Q4 : -0.00213757506572}
2019-04-14 16:49:36.51: SIM {TimeUS : 52534811, Roll : -0.02, Pitch : -0.06, Yaw : 359.75, Alt : 48.7000007629, Lat : 49.2835703, Lng : -123.1150205, Q1 : 0.999997437, Q2 : -0.000239906774368, Q3 : -0.000561216264032, Q4 : -0.00217093038373}
2019-04-14 16:49:36.61: SIM {TimeUS : 52634771, Roll : -0.02, Pitch : -0.07, Yaw : 359.74, Alt : 48.7799987793, Lat : 49.2835703, Lng : -123.1150206, Q1 : 0.999997317791, Q2 : -0.000261045643128, Q3 : -0.000666113279294, Q4 : -0.00220585451461}
2019-04-14 16:49:36.71: SIM {TimeUS : 52734731, Roll : 0.0, Pitch : -0.07, Yaw : 359.74, Alt : 48.8400001526, Lat : 49.2835703, Lng : -123.1150206, Q1 : 0.999997317791, Q2 : -8.26827454148e-05, Q3 : -0.000616498175077, Q4 : -0.00223553855903}
2019-04-14 16:49:36.81: SIM {TimeUS : 52834691, Roll : 0.01, Pitch : -0.05, Yaw : 359.74, Alt : 48.9000015259, Lat : 49.2835703, Lng : -123.1150206, Q1 : 0.999997317791, Q2 : 0.000156157664605, Q3 : -0.000471769715659, Q4 : -0.0022633606568}
2019-04-14 16:49:36.91: SIM {TimeUS : 52934651, Roll : 0.04, Pitch : -0.03, Yaw : 359.73, Alt : 48.9500007629, Lat : 49.2835703, Lng : -123.1150206, Q1 : 0.999997258186, Q2 : 0.000354400399374, Q3 : -0.000297561055049, Q4 : -0.00229160999879}
2019-04-14 16:49:37.01: SIM {TimeUS : 53034611, Roll : 0.08, Pitch : -0.03, Yaw : 359.73, Alt : 48.9900016785, Lat : 49.2835703, Lng : -123.1150206, Q1 : 0.999997019768, Q2 : 0.000717577931937, Q3 : -0.000310165050905, Q4 : -0.00232075806707}
2019-04-14 16:49:37.11: SIM {TimeUS : 53134571, Roll : 0.24, Pitch : -0.12, Yaw : 359.73, Alt : 49.0299987793, Lat : 49.2835703, Lng : -123.1150206, Q1 : 0.999994337559, Q2 : 0.0021240231581, Q3 : -0.00112366385292, Q4 : -0.00235269730911}
2019-04-14 16:49:37.21: SIM {TimeUS : 53234531, Roll : 0.6, Pitch : -0.38, Yaw : 359.72, Alt : 49.0600013733, Lat : 49.2835703, Lng : -123.1150206, Q1 : 0.999977707863, Q2 : 0.00522922817618, Q3 : -0.00340356398374, Q4 : -0.00238293106668}
2019-04-14 16:49:37.31: SIM {TimeUS : 53334491, Roll : 1.16, Pitch : -0.79, Yaw : 359.71, Alt : 49.0900001526, Lat : 49.2835703, Lng : -123.1150206, Q1 : 0.999921381474, Q2 : 0.0101334229112, Q3 : -0.00698091508821, Q4 : -0.00240723718889}
2019-04-14 16:49:37.41: SIM {TimeUS : 53434451, Roll : 1.9, Pitch : -1.31, Yaw : 359.7, Alt : 49.1100006104, Lat : 49.2835704, Lng : -123.1150206, Q1 : 0.999792337418, Q2 : 0.0166212897748, Q3 : -0.0115442294627, Q4 : -0.00241683004424}
2019-04-14 16:49:37.51: SIM {TimeUS : 53534411, Roll : 2.75, Pitch : -1.9, Yaw : 359.68, Alt : 49.1300010681, Lat : 49.2835704, Lng : -123.1150205, Q1 : 0.99957048893, Q2 : 0.0239691194147, Q3 : -0.0166923422366, Q4 : -0.0023796162568}
2019-04-14 16:49:37.61: SIM {TimeUS : 53634371, Roll : 3.57, Pitch : -2.46, Yaw : 359.66, Alt : 49.1500015259, Lat : 49.2835706, Lng : -123.1150204, Q1 : 0.999280810356, Q2 : 0.0310806948692, Q3 : -0.0216037221253, Q4 : -0.00227313535288}
2019-04-14 16:49:37.71: SIM {TimeUS : 53734331, Roll : 4.25, Pitch : -2.9, Yaw : 359.65, Alt : 49.1699981689, Lat : 49.2835707, Lng : -123.1150202, Q1 : 0.998986303806, Q2 : 0.0370474532247, Q3 : -0.0254849791527, Q4 : -0.00209180172533}
2019-04-14 16:49:37.81: SIM {TimeUS : 53834291, Roll : 4.77, Pitch : -3.24, Yaw : 359.65, Alt : 49.1800003052, Lat : 49.2835708, Lng : -123.11502, Q1 : 0.998729705811, Q2 : 0.0415855310857, Q3 : -0.0283946190029, Q4 : -0.00185491982847}
2019-04-14 16:49:37.91: SIM {TimeUS : 53934251, Roll : 5.15, Pitch : -3.5, Yaw : 359.65, Alt : 49.1899986267, Lat : 49.2835709, Lng : -123.1150196, Q1 : 0.998520076275, Q2 : 0.0448598079383, Q3 : -0.0307055916637, Q4 : -0.00159861764405}
2019-04-14 16:49:38.01: SIM {TimeUS : 54034211, Roll : 5.44, Pitch : -3.72, Yaw : 359.66, Alt : 49.2000007629, Lat : 49.2835712, Lng : -123.1150191, Q1 : 0.998344480991, Q2 : 0.0473395511508, Q3 : -0.0326413698494, Q4 : -0.00133754813578}
2019-04-14 16:49:38.11: SIM {TimeUS : 54134171, Roll : 5.7, Pitch : -3.95, Yaw : 359.67, Alt : 49.2099990845, Lat : 49.2835715, Lng : -123.1150186, Q1 : 0.998165786266, Q2 : 0.049640417099, Q3 : -0.0346381329, Q4 : -0.00108337157872}
2019-04-14 16:49:38.21: SIM {TimeUS : 54234131, Roll : 5.99, Pitch : -4.2, Yaw : 359.68, Alt : 49.2200012207, Lat : 49.2835718, Lng : -123.1150179, Q1 : 0.997959852219, Q2 : 0.0521820448339, Q3 : -0.0367768295109, Q4 : -0.00083283171989}
2019-04-14 16:49:38.31: SIM {TimeUS : 54334091, Roll : 6.29, Pitch : -4.41, Yaw : 359.69, Alt : 49.2200012207, Lat : 49.2835721, Lng : -123.1150172, Q1 : 0.997753620148, Q2 : 0.0547286495566, Q3 : -0.0386283062398, Q4 : -0.00057072378695}
2019-04-14 16:49:38.41: SIM {TimeUS : 54434051, Roll : 6.53, Pitch : -4.59, Yaw : 359.7, Alt : 49.2299995422, Lat : 49.2835725, Lng : -123.1150163, Q1 : 0.997572183609, Q2 : 0.0568700246513, Q3 : -0.040193259716, Q4 : -0.000314395263558}
2019-04-14 16:49:38.52: SIM {TimeUS : 54534844, Roll : 6.73, Pitch : -4.73, Yaw : 359.71, Alt : 49.2400016785, Lat : 49.2835728, Lng : -123.1150154, Q1 : 0.997424483299, Q2 : 0.0585791580379, Q3 : -0.0413871146739, Q4 : -6.86971252435e-05}
2019-04-14 16:49:38.61: SIM {TimeUS : 54634804, Roll : 6.86, Pitch : -4.83, Yaw : 359.72, Alt : 49.2400016785, Lat : 49.2835733, Lng : -123.1150143, Q1 : 0.997317194939, Q2 : 0.0597534999251, Q3 : -0.0422844216228, Q4 : 0.000138061426696}
2019-04-14 16:49:38.71: SIM {TimeUS : 54734764, Roll : 6.97, Pitch : -4.93, Yaw : 359.73, Alt : 49.2400016785, Lat : 49.2835739, Lng : -123.1150132, Q1 : 0.997228860855, Q2 : 0.0606579892337, Q3 : -0.0430723950267, Q4 : 0.000278946827166}
2019-04-14 16:49:38.81: SIM {TimeUS : 54834724, Roll : 7.08, Pitch : -5.02, Yaw : 359.73, Alt : 49.25, Lat : 49.2835745, Lng : -123.115012, Q1 : 0.997134268284, Q2 : 0.0616166107357, Q3 : -0.0438923984766, Q4 : 0.000361717102351}
2019-04-14 16:49:38.91: SIM {TimeUS : 54934684, Roll : 7.32, Pitch : -5.03, Yaw : 359.79, Alt : 49.25, Lat : 49.2835751, Lng : -123.1150107, Q1 : 0.996995568275, Q2 : 0.0637750327587, Q3 : -0.0439494661987, Q4 : 0.000991754815914}
2019-04-14 16:49:39.01: SIM {TimeUS : 55034644, Roll : 7.8, Pitch : -4.86, Yaw : 0.33, Alt : 49.2599983215, Lat : 49.2835757, Lng : -123.1150093, Q1 : 0.996771454811, Q2 : 0.0681191161275, Q3 : -0.0420998856425, Q4 : 0.00583838159218}
2019-04-14 16:49:39.11: SIM {TimeUS : 55134604, Roll : 8.42, Pitch : -4.68, Yaw : 2.04, Alt : 49.2599983215, Lat : 49.2835764, Lng : -123.1150078, Q1 : 0.996253311634, Q2 : 0.074114523828, Q3 : -0.0394126214087, Q4 : 0.0208095945418}
2019-04-14 16:49:39.21: SIM {TimeUS : 55234564, Roll : 8.92, Pitch : -4.86, Yaw : 5.31, Alt : 49.2599983215, Lat : 49.283577, Lng : -123.1150062, Q1 : 0.994845271111, Q2 : 0.079602457583, Q3 : -0.0386839546263, Q4 : 0.0494965165854}
2019-04-14 16:49:39.31: SIM {TimeUS : 55334524, Roll : 9.07, Pitch : -5.56, Yaw : 10.11, Alt : 49.2599983215, Lat : 49.2835777, Lng : -123.1150045, Q1 : 0.991475760937, Q2 : 0.0829768776894, Q3 : -0.0412062741816, Q4 : 0.0916116908193}
2019-04-14 16:49:39.41: SIM {TimeUS : 55434484, Roll : 8.7, Pitch : -6.73, Yaw : 16.23, Alt : 49.2599983215, Lat : 49.2835785, Lng : -123.1150027, Q1 : 0.984789311886, Q2 : 0.0832596570253, Q3 : -0.0472447425127, Q4 : 0.145002618432}
2019-04-14 16:49:39.51: SIM {TimeUS : 55534444, Roll : 7.72, Pitch : -8.23, Yaw : 23.43, Alt : 49.2599983215, Lat : 49.2835792, Lng : -123.1150007, Q1 : 0.973439216614, Q2 : 0.0803227648139, Q3 : -0.0564669631422, Q4 : 0.206823214889}
2019-04-14 16:49:39.61: SIM {TimeUS : 55634404, Roll : 6.15, Pitch : -9.83, Yaw : 31.44, Alt : 49.2700004578, Lat : 49.28358, Lng : -123.1149987, Q1 : 0.956404209137, Q2 : 0.0746858939528, Q3 : -0.0678692013025, Q4 : 0.274056255817}
2019-04-14 16:49:39.71: SIM {TimeUS : 55734364, Roll : 4.07, Pitch : -11.3, Yaw : 40.02, Alt : 49.2700004578, Lat : 49.2835807, Lng : -123.1149965, Q1 : 0.933252990246, Q2 : 0.0669621676207, Q3 : -0.0803393796086, Q4 : 0.343657523394}
2019-04-14 16:49:39.81: SIM {TimeUS : 55834324, Roll : 1.37, Pitch : -12.42, Yaw : 48.76, Alt : 49.2700004578, Lat : 49.2835816, Lng : -123.1149942, Q1 : 0.90487742424, Q2 : 0.055513266474, Q3 : -0.0936055108905, Q4 : 0.411525309086}
2019-04-14 16:49:39.91: SIM {TimeUS : 55934284, Roll : -1.79, Pitch : -12.99, Yaw : 56.84, Alt : 49.2700004578, Lat : 49.2835824, Lng : -123.1149918, Q1 : 0.874565124512, Q2 : 0.0401596613228, Q3 : -0.106914676726, Q4 : 0.471266657114}
2019-04-14 16:49:40.01: SIM {TimeUS : 56034244, Roll : -4.79, Pitch : -13.03, Yaw : 63.4, Alt : 49.2700004578, Lat : 49.2835834, Lng : -123.1149894, Q1 : 0.847033441067, Q2 : 0.0242345500737, Q3 : -0.118366837502, Q4 : 0.517625689507}
2019-04-14 16:49:40.11: SIM {TimeUS : 56134204, Roll : -7.02, Pitch : -12.79, Yaw : 67.94, Alt : 49.2700004578, Lat : 49.2835844, Lng : -123.1149869, Q1 : 0.826393485069, Q2 : 0.0116627430543, Q3 : -0.126270249486, Q4 : 0.548628866673}
2019-04-14 16:49:40.21: SIM {TimeUS : 56234164, Roll : -8.18, Pitch : -12.55, Yaw : 70.41, Alt : 49.2700004578, Lat : 49.2835855, Lng : -123.1149843, Q1 : 0.814593136311, Q2 : 0.00489216251299, Q3 : -0.130045458674, Q4 : 0.565245330334}
2019-04-14 16:49:40.31: SIM {TimeUS : 56334124, Roll : -8.32, Pitch : -12.51, Yaw : 71.06, Alt : 49.2700004578, Lat : 49.2835868, Lng : -123.1149817, Q1 : 0.811418831348, Q2 : 0.0044811302796, Q3 : -0.130425617099, Q4 : 0.56970924139}
2019-04-14 16:49:40.41: SIM {TimeUS : 56434084, Roll : -7.6, Pitch : -12.75, Yaw : 70.23, Alt : 49.2700004578, Lat : 49.2835883, Lng : -123.114979, Q1 : 0.815347373486, Q2 : 0.00983406230807, Q3 : -0.128580987453, Q4 : 0.564427912235}
2019-04-14 16:49:40.51: SIM {TimeUS : 56534044, Roll : -6.25, Pitch : -13.25, Yaw : 68.31, Alt : 49.2700004578, Lat : 49.2835897, Lng : -123.1149763, Q1 : 0.824296236038, Q2 : 0.0199014209211, Q3 : -0.125811547041, Q4 : 0.551644027233}
2019-04-14 16:49:40.62: SIM {TimeUS : 56634837, Roll : -4.48, Pitch : -13.95, Yaw : 65.59, Alt : 49.2799987793, Lat : 49.2835913, Lng : -123.1149735, Q1 : 0.836315095425, Q2 : 0.0330828502774, Q3 : -0.123038694263, Q4 : 0.533239245415}
2019-04-14 16:49:40.71: SIM {TimeUS : 56734797, Roll : -2.54, Pitch : -14.67, Yaw : 62.44, Alt : 49.2799987793, Lat : 49.2835928, Lng : -123.1149707, Q1 : 0.849426269531, Q2 : 0.0473233796656, Q3 : -0.120640218258, Q4 : 0.511548161507}
2019-04-14 16:49:40.81: SIM {TimeUS : 56834757, Roll : -0.63, Pitch : -15.3, Yaw : 59.15, Alt : 49.2799987793, Lat : 49.2835945, Lng : -123.1149677, Q1 : 0.86227697134, Q2 : 0.0609869733453, Q3 : -0.118494644761, Q4 : 0.48858782649}
2019-04-14 16:49:40.91: SIM {TimeUS : 56934717, Roll : 1.07, Pitch : -15.71, Yaw : 56.07, Alt : 49.2799987793, Lat : 49.283596, Lng : -123.1149646, Q1 : 0.873719573021, Q2 : 0.0724625065923, Q3 : -0.116278864443, Q4 : 0.466736078262}
2019-04-14 16:49:41.01: SIM {TimeUS : 57034677, Roll : 2.42, Pitch : -15.88, Yaw : 53.49, Alt : 49.2799987793, Lat : 49.2835977, Lng : -123.1149615, Q1 : 0.882913351059, Q2 : 0.0809251442552, Q3 : -0.11393943429, Q4 : 0.448255449533}
2019-04-14 16:49:41.11: SIM {TimeUS : 57134637, Roll : 3.32, Pitch : -15.88, Yaw : 51.63, Alt : 49.2799987793, Lat : 49.2835994, Lng : -123.1149582, Q1 : 0.889440059662, Q2 : 0.0859933868051, Q3 : -0.111837334931, Q4 : 0.434734374285}
2019-04-14 16:49:41.21: SIM {TimeUS : 57234597, Roll : 3.72, Pitch : -15.8, Yaw : 50.57, Alt : 49.2799987793, Lat : 49.2836011, Lng : -123.1149547, Q1 : 0.893221616745, Q2 : 0.0877597332001, Q3 : -0.110475517809, Q4 : 0.426905781031}
2019-04-14 16:49:41.31: SIM {TimeUS : 57334557, Roll : 3.65, Pitch : -15.72, Yaw : 50.29, Alt : 49.2799987793, Lat : 49.2836028, Lng : -123.1149511, Q1 : 0.894402801991, Q2 : 0.0867154076695, Q3 : -0.110340721905, Q4 : 0.424675166607}
2019-04-14 16:49:41.41: SIM {TimeUS : 57434517, Roll : 3.19, Pitch : -15.73, Yaw : 50.68, Alt : 49.2900009155, Lat : 49.2836044, Lng : -123.1149475, Q1 : 0.893283009529, Q2 : 0.0835253745317, Q3 : -0.111794516444, Q4 : 0.427283257246}
2019-04-14 16:49:41.51: SIM {TimeUS : 57534477, Roll : 2.46, Pitch : -15.81, Yaw : 51.58, Alt : 49.2900009155, Lat : 49.2836061, Lng : -123.1149437, Q1 : 0.890300929546, Q2 : 0.0790374949574, Q3 : -0.114592373371, Q4 : 0.433573454618}
2019-04-14 16:49:41.61: SIM {TimeUS : 57634437, Roll : 1.58, Pitch : -15.96, Yaw : 52.82, Alt : 49.2900009155, Lat : 49.2836078, Lng : -123.1149397, Q1 : 0.886010527611, Q2 : 0.0739967375994, Q3 : -0.11826017499, Q4 : 0.442181438208}
2019-04-14 16:49:41.71: SIM {TimeUS : 57734397, Roll : 0.67, Pitch : -16.11, Yaw : 54.19, Alt : 49.2900009155, Lat : 49.2836096, Lng : -123.1149358, Q1 : 0.881044268608, Q2 : 0.0690717920661, Q3 : -0.122136726975, Q4 : 0.45174407959}
2019-04-14 16:49:41.81: SIM {TimeUS : 57834357, Roll : -0.13, Pitch : -16.25, Yaw : 55.53, Alt : 49.2900009155, Lat : 49.2836112, Lng : -123.1149318, Q1 : 0.876037240028, Q2 : 0.0648451969028, Q3 : -0.125645637512, Q4 : 0.46104991436}
2019-04-14 16:49:41.91: SIM {TimeUS : 57934317, Roll : -0.78, Pitch : -16.37, Yaw : 56.69, Alt : 49.2900009155, Lat : 49.283613, Lng : -123.1149277, Q1 : 0.871556460857, Q2 : 0.0616465471685, Q3 : -0.128535866737, Q4 : 0.469113618135}
2019-04-14 16:49:42.01: SIM {TimeUS : 58034277, Roll : -1.23, Pitch : -16.45, Yaw : 57.58, Alt : 49.2900009155, Lat : 49.2836148, Lng : -123.1149236, Q1 : 0.868053972721, Q2 : 0.0595433190465, Q3 : -0.130565166473, Q4 : 0.475278526545}
2019-04-14 16:49:42.11: SIM {TimeUS : 58134237, Roll : -1.49, Pitch : -16.51, Yaw : 58.14, Alt : 49.2900009155, Lat : 49.2836166, Lng : -123.1149194, Q1 : 0.86578309536, Q2 : 0.0585072599351, Q3 : -0.13178190589, Q4 : 0.479197263718}
2019-04-14 16:49:42.21: SIM {TimeUS : 58234197, Roll : -1.55, Pitch : -16.53, Yaw : 58.37, Alt : 49.2900009155, Lat : 49.2836185, Lng : -123.1149152, Q1 : 0.864833831787, Q2 : 0.0584116317332, Q3 : -0.132045894861, Q4 : 0.480847597122}
2019-04-14 16:49:42.31: SIM {TimeUS : 58334157, Roll : -1.41, Pitch : -16.53, Yaw : 58.3, Alt : 49.2900009155, Lat : 49.2836206, Lng : -123.1149109, Q1 : 0.865065097809, Q2 : 0.0593439862132, Q3 : -0.131526499987, Q4 : 0.480459690094}
2019-04-14 16:49:42.41: SIM {TimeUS : 58434117, Roll : -1.15, Pitch : -16.53, Yaw : 57.99, Alt : 49.2900009155, Lat : 49.2836225, Lng : -123.1149066, Q1 : 0.866234958172, Q2 : 0.0609359778464, Q3 : -0.130592793226, Q4 : 0.478402882814}
2019-04-14 16:49:42.51: SIM {TimeUS : 58534077, Roll : -0.8, Pitch : -16.54, Yaw : 57.51, Alt : 49.2900009155, Lat : 49.2836244, Lng : -123.1149023, Q1 : 0.868013322353, Q2 : 0.063104338944, Q3 : -0.129527211189, Q4 : 0.475177198648}
2019-04-14 16:49:42.61: SIM {TimeUS : 58634037, Roll : -0.4, Pitch : -16.57, Yaw : 56.94, Alt : 49.2900009155, Lat : 49.2836264, Lng : -123.1148979, Q1 : 0.87009114027, Q2 : 0.0656145736575, Q3 : -0.128352031112, Q4 : 0.471340596676}
2019-04-14 16:49:42.72: SIM {TimeUS : 58734830, Roll : -0.02, Pitch : -16.6, Yaw : 56.36, Alt : 49.2900009155, Lat : 49.2836285, Lng : -123.1148934, Q1 : 0.87220877409, Q2 : 0.0680134668946, Q3 : -0.127340584993, Q4 : 0.467343956232}
2019-04-14 16:49:42.81: SIM {TimeUS : 58834790, Roll : 0.28, Pitch : -16.64, Yaw : 55.84, Alt : 49.2900009155, Lat : 49.2836305, Lng : -123.1148889, Q1 : 0.874096632004, Q2 : 0.0699384436011, Q3 : -0.126776486635, Q4 : 0.463671654463}
2019-04-14 16:49:42.91: SIM {TimeUS : 58934750, Roll : 0.49, Pitch : -16.71, Yaw : 55.42, Alt : 49.2900009155, Lat : 49.2836326, Lng : -123.1148844, Q1 : 0.875601887703, Q2 : 0.0713647082448, Q3 : -0.126669853926, Q4 : 0.460633456707}
2019-04-14 16:49:43.01: SIM {TimeUS : 59034710, Roll : 0.61, Pitch : -16.78, Yaw : 55.12, Alt : 49.2900009155, Lat : 49.2836346, Lng : -123.1148798, Q1 : 0.876634836197, Q2 : 0.0722741857171, Q3 : -0.126952692866, Q4 : 0.458443880081}
2019-04-14 16:49:43.11: SIM {TimeUS : 59134670, Roll : 0.64, Pitch : -16.84, Yaw : 54.96, Alt : 49.2900009155, Lat : 49.2836366, Lng : -123.1148752, Q1 : 0.877199888229, Q2 : 0.072520673275, Q3 : -0.127394706011, Q4 : 0.45719987154}
2019-04-14 16:49:43.21: SIM {TimeUS : 59234630, Roll : 0.61, Pitch : -16.88, Yaw : 54.92, Alt : 49.2900009155, Lat : 49.2836388, Lng : -123.1148705, Q1 : 0.877313733101, Q2 : 0.0723911523819, Q3 : -0.127845883369, Q4 : 0.456875860691}
2019-04-14 16:49:43.31: SIM {TimeUS : 59334590, Roll : 0.52, Pitch : -16.91, Yaw : 55.0, Alt : 49.2900009155, Lat : 49.2836408, Lng : -123.1148658, Q1 : 0.877037763596, Q2 : 0.0719496533275, Q3 : -0.128394037485, Q4 : 0.457321584225}
2019-04-14 16:49:43.41: SIM {TimeUS : 59434550, Roll : 0.4, Pitch : -16.93, Yaw : 55.15, Alt : 49.2900009155, Lat : 49.2836428, Lng : -123.1148611, Q1 : 0.876485228539, Q2 : 0.0712483897805, Q3 : -0.128944560885, Q4 : 0.45833465457}
2019-04-14 16:49:43.51: SIM {TimeUS : 59534510, Roll : 0.27, Pitch : -16.95, Yaw : 55.35, Alt : 49.2999992371, Lat : 49.283645, Lng : -123.1148563, Q1 : 0.875752747059, Q2 : 0.0705356001854, Q3 : -0.129446208477, Q4 : 0.459701627493}
2019-04-14 16:49:43.61: SIM {TimeUS : 59634470, Roll : 0.14, Pitch : -16.97, Yaw : 55.56, Alt : 49.2999992371, Lat : 49.2836472, Lng : -123.1148515, Q1 : 0.874942958355, Q2 : 0.0698962882161, Q3 : -0.130024686456, Q4 : 0.461175560951}
2019-04-14 16:49:43.71: SIM {TimeUS : 59734430, Roll : 0.01, Pitch : -17.0, Yaw : 55.76, Alt : 49.2999992371, Lat : 49.2836493, Lng : -123.1148467, Q1 : 0.874171435833, Q2 : 0.0692986547947, Q3 : -0.130606785417, Q4 : 0.462562352419}
2019-04-14 16:49:43.81: SIM {TimeUS : 59834390, Roll : -0.08, Pitch : -17.03, Yaw : 55.93, Alt : 49.2999992371, Lat : 49.2836513, Lng : -123.1148418, Q1 : 0.873519182205, Q2 : 0.0688126534224, Q3 : -0.131203576922, Q4 : 0.463696837425}
2019-04-14 16:49:43.91: SIM {TimeUS : 59934350, Roll : -0.16, Pitch : -17.08, Yaw : 56.05, Alt : 49.2999992371, Lat : 49.2836536, Lng : -123.114837, Q1 : 0.873038589954, Q2 : 0.0684919506311, Q3 : -0.131772950292, Q4 : 0.464487195015}
2019-04-14 16:49:44.01: SIM {TimeUS : 60034310, Roll : -0.22, Pitch : -17.12, Yaw : 56.11, Alt : 49.2999992371, Lat : 49.2836557, Lng : -123.1148321, Q1 : 0.872767984867, Q2 : 0.068325445056, Q3 : -0.132272198796, Q4 : 0.464878171682}
2019-04-14 16:49:44.11: SIM {TimeUS : 60134270, Roll : -0.24, Pitch : -17.16, Yaw : 56.12, Alt : 49.2999992371, Lat : 49.2836578, Lng : -123.1148272, Q1 : 0.872707784176, Q2 : 0.0682912543416, Q3 : -0.132659450173, Q4 : 0.464885979891}
2019-04-14 16:49:44.21: SIM {TimeUS : 60234230, Roll : -0.24, Pitch : -17.18, Yaw : 56.08, Alt : 49.2999992371, Lat : 49.2836601, Lng : -123.1148222, Q1 : 0.872847080231, Q2 : 0.0683443173766, Q3 : -0.132843136787, Q4 : 0.464564085007}
2019-04-14 16:49:44.31: SIM {TimeUS : 60334190, Roll : -0.22, Pitch : -17.2, Yaw : 56.0, Alt : 49.2999992371, Lat : 49.2836622, Lng : -123.1148173, Q1 : 0.873125433922, Q2 : 0.0685092061758, Q3 : -0.1329639256, Q4 : 0.46398177743}
2019-04-14 16:49:44.41: SIM {TimeUS : 60434150, Roll : -0.16, Pitch : -17.23, Yaw : 55.9, Alt : 49.2999992371, Lat : 49.2836645, Lng : -123.1148123, Q1 : 0.873479485512, Q2 : 0.0689445063472, Q3 : -0.133009955287, Q4 : 0.463237047195}
2019-04-14 16:49:44.51: SIM {TimeUS : 60534110, Roll : -0.08, Pitch : -17.26, Yaw : 55.78, Alt : 49.2999992371, Lat : 49.2836667, Lng : -123.1148073, Q1 : 0.873866319656, Q2 : 0.0695624649525, Q3 : -0.13303232193, Q4 : 0.462408006191}
2019-04-14 16:49:44.61: SIM {TimeUS : 60634070, Roll : 0.0, Pitch : -17.3, Yaw : 55.66, Alt : 49.3100013733, Lat : 49.2836688, Lng : -123.1148023, Q1 : 0.874242722988, Q2 : 0.0702692195773, Q3 : -0.133070349693, Q4 : 0.46157798171}
2019-04-14 16:49:44.71: SIM {TimeUS : 60734030, Roll : 0.08, Pitch : -17.35, Yaw : 55.55, Alt : 49.3100013733, Lat : 49.2836712, Lng : -123.1147972, Q1 : 0.874572217464, Q2 : 0.070965602994, Q3 : -0.133140325546, Q4 : 0.46082636714}
2019-04-14 16:49:44.82: SIM {TimeUS : 60834823, Roll : 0.14, Pitch : -17.39, Yaw : 55.46, Alt : 49.3100013733, Lat : 49.2836734, Lng : -123.1147921, Q1 : 0.874847590923, Q2 : 0.0714937373996, Q3 : -0.133230954409, Q4 : 0.460195451975}
2019-04-14 16:49:44.91: SIM {TimeUS : 60934783, Roll : 0.17, Pitch : -17.4, Yaw : 55.4, Alt : 49.3100013733, Lat : 49.2836756, Lng : -123.114787, Q1 : 0.875081121922, Q2 : 0.0716543123126, Q3 : -0.133238583803, Q4 : 0.459724038839}
2019-04-14 16:49:45.01: SIM {TimeUS : 61034743, Roll : 0.16, Pitch : -17.4, Yaw : 55.36, Alt : 49.3100013733, Lat : 49.2836779, Lng : -123.1147819, Q1 : 0.875243961811, Q2 : 0.0715710893273, Q3 : -0.133297622204, Q4 : 0.459409803152}
2019-04-14 16:49:45.11: SIM {TimeUS : 61134703, Roll : 0.16, Pitch : -17.39, Yaw : 55.34, Alt : 49.3100013733, Lat : 49.2836802, Lng : -123.1147768, Q1 : 0.875324487686, Q2 : 0.0715040490031, Q3 : -0.133258059621, Q4 : 0.459278225899}
2019-04-14 16:49:45.21: SIM {TimeUS : 61234663, Roll : 0.16, Pitch : -17.39, Yaw : 55.34, Alt : 49.3100013733, Lat : 49.2836825, Lng : -123.1147717, Q1 : 0.875325739384, Q2 : 0.0714925304055, Q3 : -0.133288174868, Q4 : 0.459268957376}
2019-04-14 16:49:45.31: SIM {TimeUS : 61334623, Roll : 0.17, Pitch : -17.42, Yaw : 55.35, Alt : 49.3100013733, Lat : 49.2836847, Lng : -123.1147666, Q1 : 0.875241875648, Q2 : 0.071685962379, Q3 : -0.133479893208, Q4 : 0.459343016148}
2019-04-14 16:49:45.41: SIM {TimeUS : 61434583, Roll : 0.17, Pitch : -17.48, Yaw : 55.37, Alt : 49.3100013733, Lat : 49.283687, Lng : -123.1147614, Q1 : 0.8751039505, Q2 : 0.0719115361571, Q3 : -0.13388620317, Q4 : 0.459452211857}
2019-04-14 16:49:45.51: SIM {TimeUS : 61534543, Roll : 0.15, Pitch : -17.51, Yaw : 55.39, Alt : 49.3199996948, Lat : 49.2836893, Lng : -123.1147561, Q1 : 0.874980926514, Q2 : 0.0719594657421, Q3 : -0.13421882689, Q4 : 0.459582000971}
2019-04-14 16:49:45.61: SIM {TimeUS : 61634503, Roll : 0.13, Pitch : -17.53, Yaw : 55.41, Alt : 49.3199996948, Lat : 49.2836916, Lng : -123.1147511, Q1 : 0.874888122082, Q2 : 0.0719235986471, Q3 : -0.134395807981, Q4 : 0.459712475538}
2019-04-14 16:49:45.71: SIM {TimeUS : 61734463, Roll : 0.1, Pitch : -17.55, Yaw : 55.43, Alt : 49.3199996948, Lat : 49.2836938, Lng : -123.1147459, Q1 : 0.874827802181, Q2 : 0.0717878863215, Q3 : -0.134633660316, Q4 : 0.459778934717}
2019-04-14 16:49:45.81: SIM {TimeUS : 61834423, Roll : 0.07, Pitch : -17.58, Yaw : 55.43, Alt : 49.3199996948, Lat : 49.2836961, Lng : -123.1147407, Q1 : 0.874783277512, Q2 : 0.0716862529516, Q3 : -0.134987160563, Q4 : 0.459775775671}
2019-04-14 16:49:45.91: SIM {TimeUS : 61934383, Roll : 0.06, Pitch : -17.6, Yaw : 55.43, Alt : 49.3199996948, Lat : 49.2836986, Lng : -123.1147354, Q1 : 0.874771356583, Q2 : 0.0716937929392, Q3 : -0.135173782706, Q4 : 0.459742486477}
2019-04-14 16:49:46.01: SIM {TimeUS : 62034343, Roll : 0.06, Pitch : -17.62, Yaw : 55.42, Alt : 49.3199996948, Lat : 49.2837009, Lng : -123.1147302, Q1 : 0.874792993069, Q2 : 0.0717119351029, Q3 : -0.135348647833, Q4 : 0.459646999836}
2019-04-14 16:49:46.11: SIM {TimeUS : 62134303, Roll : 0.06, Pitch : -17.63, Yaw : 55.41, Alt : 49.3199996948, Lat : 49.2837032, Lng : -123.114725, Q1 : 0.874846160412, Q2 : 0.0717593431473, Q3 : -0.135452955961, Q4 : 0.459507733583}
2019-04-14 16:49:46.21: SIM {TimeUS : 62234263, Roll : 0.07, Pitch : -17.64, Yaw : 55.38, Alt : 49.3199996948, Lat : 49.2837054, Lng : -123.1147197, Q1 : 0.874924778938, Q2 : 0.0718849599361, Q3 : -0.135504245758, Q4 : 0.459323257208}
2019-04-14 16:49:46.31: SIM {TimeUS : 62334223, Roll : 0.09, Pitch : -17.65, Yaw : 55.35, Alt : 49.3199996948, Lat : 49.2837078, Lng : -123.1147144, Q1 : 0.875022828579, Q2 : 0.0720412060618, Q3 : -0.135493084788, Q4 : 0.459115177393}
2019-04-14 16:49:46.41: SIM {TimeUS : 62434183, Roll : 0.12, Pitch : -17.66, Yaw : 55.32, Alt : 49.3199996948, Lat : 49.2837101, Lng : -123.1147092, Q1 : 0.875115036964, Q2 : 0.0722248628736, Q3 : -0.135485678911, Q4 : 0.458912760019}
2019-04-14 16:49:46.51: SIM {TimeUS : 62534143, Roll : 0.15, Pitch : -17.68, Yaw : 55.29, Alt : 49.3199996948, Lat : 49.2837126, Lng : -123.1147039, Q1 : 0.875184357166, Q2 : 0.0725032761693, Q3 : -0.1355471313, Q4 : 0.458718419075}
2019-04-14 16:49:46.61: SIM {TimeUS : 62634103, Roll : 0.16, Pitch : -17.71, Yaw : 55.27, Alt : 49.3199996948, Lat : 49.2837149, Lng : -123.1146986, Q1 : 0.875242173672, Q2 : 0.0726992860436, Q3 : -0.135770231485, Q4 : 0.458511084318}
2019-04-14 16:49:46.71: SIM {TimeUS : 62734063, Roll : 0.15, Pitch : -17.75, Yaw : 55.24, Alt : 49.3199996948, Lat : 49.2837173, Lng : -123.1146933, Q1 : 0.875293433666, Q2 : 0.0727660357952, Q3 : -0.136120572686, Q4 : 0.458298802376}
2019-04-14 16:49:46.81: SIM {TimeUS : 62834023, Roll : 0.14, Pitch : -17.79, Yaw : 55.22, Alt : 49.3199996948, Lat : 49.2837197, Lng : -123.114688, Q1 : 0.875334143639, Q2 : 0.0728224888444, Q3 : -0.13648173213, Q4 : 0.458104610443}
2019-04-14 16:49:46.91: SIM {TimeUS : 62934816, Roll : 0.15, Pitch : -17.82, Yaw : 55.21, Alt : 49.3199996948, Lat : 49.283722, Lng : -123.1146826, Q1 : 0.875357866287, Q2 : 0.0730238035321, Q3 : -0.1366751194, Q4 : 0.457969456911}
2019-04-14 16:49:47.01: SIM {TimeUS : 63034776, Roll : 0.18, Pitch : -17.83, Yaw : 55.19, Alt : 49.3300018311, Lat : 49.2837243, Lng : -123.1146772, Q1 : 0.875394284725, Q2 : 0.0732332319021, Q3 : -0.136608913541, Q4 : 0.457886189222}
2019-04-14 16:49:47.11: SIM {TimeUS : 63134736, Roll : 0.2, Pitch : -17.8, Yaw : 55.18, Alt : 49.3300018311, Lat : 49.2837267, Lng : -123.1146719, Q1 : 0.875460326672, Q2 : 0.0732368975878, Q3 : -0.136365711689, Q4 : 0.457831799984}
2019-04-14 16:49:47.21: SIM {TimeUS : 63234696, Roll : 0.19, Pitch : -17.78, Yaw : 55.17, Alt : 49.3300018311, Lat : 49.2837291, Lng : -123.1146665, Q1 : 0.875516831875, Q2 : 0.0730968490243, Q3 : -0.136259227991, Q4 : 0.457777947187}
2019-04-14 16:49:47.31: SIM {TimeUS : 63334656, Roll : 0.17, Pitch : -17.77, Yaw : 55.17, Alt : 49.3300018311, Lat : 49.2837315, Lng : -123.1146612, Q1 : 0.875562906265, Q2 : 0.0729092136025, Q3 : -0.136241778731, Q4 : 0.457724869251}
2019-04-14 16:49:47.41: SIM {TimeUS : 63434616, Roll : 0.16, Pitch : -17.77, Yaw : 55.16, Alt : 49.3300018311, Lat : 49.2837338, Lng : -123.1146558, Q1 : 0.875597953796, Q2 : 0.0727779790759, Q3 : -0.136264696717, Q4 : 0.457671880722}
2019-04-14 16:49:47.51: SIM {TimeUS : 63534576, Roll : 0.15, Pitch : -17.78, Yaw : 55.16, Alt : 49.3300018311, Lat : 49.2837363, Lng : -123.1146503, Q1 : 0.875611007214, Q2 : 0.0727468058467, Q3 : -0.136422052979, Q4 : 0.457604944706}
2019-04-14 16:49:47.61: SIM {TimeUS : 63634536, Roll : 0.15, Pitch : -17.8, Yaw : 55.15, Alt : 49.3300018311, Lat : 49.2837387, Lng : -123.114645, Q1 : 0.875613927841, Q2 : 0.0728048980236, Q3 : -0.136593192816, Q4 : 0.457539111376}
2019-04-14 16:49:47.71: SIM {TimeUS : 63734496, Roll : 0.14, Pitch : -17.84, Yaw : 55.14, Alt : 49.3300018311, Lat : 49.2837411, Lng : -123.1146396, Q1 : 0.875603377819, Q2 : 0.0728898122907, Q3 : -0.136895179749, Q4 : 0.457455486059}
2019-04-14 16:49:47.81: SIM {TimeUS : 63834456, Roll : 0.14, Pitch : -17.88, Yaw : 55.13, Alt : 49.3300018311, Lat : 49.2837435, Lng : -123.1146342, Q1 : 0.875582814217, Q2 : 0.0730357095599, Q3 : -0.137269705534, Q4 : 0.457359313965}
2019-04-14 16:49:47.91: SIM {TimeUS : 63934416, Roll : 0.14, Pitch : -17.92, Yaw : 55.12, Alt : 49.3300018311, Lat : 49.2837459, Lng : -123.1146288, Q1 : 0.875576794147, Q2 : 0.0732045397162, Q3 : -0.137530758977, Q4 : 0.457265436649}
2019-04-14 16:49:48.01: SIM {TimeUS : 64034376, Roll : 0.14, Pitch : -17.95, Yaw : 55.11, Alt : 49.3300018311, Lat : 49.2837483, Lng : -123.1146234, Q1 : 0.875589311123, Q2 : 0.073290348053, Q3 : -0.137810260057, Q4 : 0.457143604755}
2019-04-14 16:49:48.11: SIM {TimeUS : 64134336, Roll : 0.13, Pitch : -17.98, Yaw : 55.1, Alt : 49.3300018311, Lat : 49.2837508, Lng : -123.1146179, Q1 : 0.875621378422, Q2 : 0.0733260512352, Q3 : -0.138004377484, Q4 : 0.457017868757}
2019-04-14 16:49:48.21: SIM {TimeUS : 64234296, Roll : 0.15, Pitch : -17.97, Yaw : 55.08, Alt : 49.3300018311, Lat : 49.2837532, Lng : -123.1146125, Q1 : 0.875676572323, Q2 : 0.0734241753817, Q3 : -0.137926220894, Q4 : 0.456919908524}
2019-04-14 16:49:48.31: SIM {TimeUS : 64334256, Roll : 0.17, Pitch : -17.98, Yaw : 55.06, Alt : 49.3300018311, Lat : 49.2837556, Lng : -123.1146071, Q1 : 0.875726401806, Q2 : 0.073604427278, Q3 : -0.137853905559, Q4 : 0.456817209721}
2019-04-14 16:49:48.41: SIM {TimeUS : 64434216, Roll : 0.18, Pitch : -17.99, Yaw : 55.05, Alt : 49.3300018311, Lat : 49.283758, Lng : -123.1146016, Q1 : 0.875773251057, Q2 : 0.0737126842141, Q3 : -0.137918964028, Q4 : 0.456690311432}
2019-04-14 16:49:48.51: SIM {TimeUS : 64534176, Roll : 0.19, Pitch : -17.99, Yaw : 55.03, Alt : 49.3400001526, Lat : 49.2837605, Lng : -123.1145962, Q1 : 0.875827491283, Q2 : 0.0737481564283, Q3 : -0.137943446636, Q4 : 0.45657324791}
2019-04-14 16:49:48.61: SIM {TimeUS : 64634136, Roll : 0.19, Pitch : -17.99, Yaw : 55.02, Alt : 49.3400001526, Lat : 49.2837629, Lng : -123.1145907, Q1 : 0.875886917114, Q2 : 0.0737529620528, Q3 : -0.137882649899, Q4 : 0.456476688385}
2019-04-14 16:49:48.71: SIM {TimeUS : 64734096, Roll : 0.2, Pitch : -17.98, Yaw : 55.0, Alt : 49.3400001526, Lat : 49.2837653, Lng : -123.1145852, Q1 : 0.875940918922, Q2 : 0.0737298280001, Q3 : -0.137831106782, Q4 : 0.45639243722}
2019-04-14 16:49:48.81: SIM {TimeUS : 64834056, Roll : 0.18, Pitch : -17.99, Yaw : 54.99, Alt : 49.3400001526, Lat : 49.2837678, Lng : -123.1145798, Q1 : 0.875973284245, Q2 : 0.0736735910177, Q3 : -0.138008862734, Q4 : 0.456285625696}
2019-04-14 16:49:48.92: SIM {TimeUS : 64934849, Roll : 0.16, Pitch : -18.03, Yaw : 54.99, Alt : 49.3400001526, Lat : 49.2837702, Lng : -123.1145743, Q1 : 0.875980615616, Q2 : 0.0736040845513, Q3 : -0.138400301337, Q4 : 0.456164091825}
2019-04-14 16:49:49.01: SIM {TimeUS : 65034809, Roll : 0.14, Pitch : -18.04, Yaw : 54.98, Alt : 49.3400001526, Lat : 49.2837727, Lng : -123.1145688, Q1 : 0.876010894775, Q2 : 0.0734980255365, Q3 : -0.138498649001, Q4 : 0.456093281507}
2019-04-14 16:49:49.11: SIM {TimeUS : 65134769, Roll : 0.15, Pitch : -18.02, Yaw : 54.97, Alt : 49.3400001526, Lat : 49.2837751, Lng : -123.1145633, Q1 : 0.876046538353, Q2 : 0.0735088288784, Q3 : -0.138340905309, Q4 : 0.456070959568}
2019-04-14 16:49:49.21: SIM {TimeUS : 65234729, Roll : 0.17, Pitch : -18.01, Yaw : 54.97, Alt : 49.3400001526, Lat : 49.2837776, Lng : -123.1145578, Q1 : 0.876074552536, Q2 : 0.0735908076167, Q3 : -0.138169750571, Q4 : 0.456055819988}
2019-04-14 16:49:49.31: SIM {TimeUS : 65334689, Roll : 0.18, Pitch : -18.02, Yaw : 54.96, Alt : 49.3400001526, Lat : 49.28378, Lng : -123.1145523, Q1 : 0.876092135906, Q2 : 0.0736673995852, Q3 : -0.138220280409, Q4 : 0.455994367599}
2019-04-14 16:49:49.41: SIM {TimeUS : 65434649, Roll : 0.16, Pitch : -18.04, Yaw : 54.95, Alt : 49.3400001526, Lat : 49.2837825, Lng : -123.1145468, Q1 : 0.876108825207, Q2 : 0.0736352130771, Q3 : -0.13846860826, Q4 : 0.455892205238}
2019-04-14 16:49:49.51: SIM {TimeUS : 65534609, Roll : 0.13, Pitch : -18.07, Yaw : 54.94, Alt : 49.3400001526, Lat : 49.2837849, Lng : -123.1145413, Q1 : 0.876127958298, Q2 : 0.0735008493066, Q3 : -0.13883112371, Q4 : 0.455766826868}
2019-04-14 16:49:49.61: SIM {TimeUS : 65634569, Roll : 0.11, Pitch : -18.1, Yaw : 54.93, Alt : 49.3400001526, Lat : 49.2837873, Lng : -123.1145358, Q1 : 0.876151680946, Q2 : 0.0734157562256, Q3 : -0.139127269387, Q4 : 0.455644547939}
2019-04-14 16:49:49.71: SIM {TimeUS : 65734529, Roll : 0.11, Pitch : -18.12, Yaw : 54.92, Alt : 49.3400001526, Lat : 49.2837898, Lng : -123.1145303, Q1 : 0.876167833805, Q2 : 0.0734885707498, Q3 : -0.139333069324, Q4 : 0.455538928509}
2019-04-14 16:49:49.81: SIM {TimeUS : 65834489, Roll : 0.12, Pitch : -18.13, Yaw : 54.91, Alt : 49.3400001526, Lat : 49.2837922, Lng : -123.1145248, Q1 : 0.87618970871, Q2 : 0.0736392363906, Q3 : -0.139355421066, Q4 : 0.455465584993}
