2019-04-14 17:04:10.30: SIM {TimeUS : 39915694, Roll : 0.0, Pitch : 0.0, Yaw : 0.0, Alt : 30.1000003815, Lat : 49.28357, Lng : -123.11502, Q1 : 1.0, Q2 : 0.0, Q3 : 0.0, Q4 : 0.0}
2019-04-14 17:04:10.41: SIM {TimeUS : 40034813, Roll : 0.0, Pitch : 0.0, Yaw : 0.0, Alt : 30.1000003815, Lat : 49.28357, Lng : -123.11502, Q1 : 1.0, Q2 : 0.0, Q3 : 0.0, Q4 : 0.0}
2019-04-14 17:04:10.51: SIM {TimeUS : 40134773, Roll : 0.0, Pitch : 0.0, Yaw : 0.0, Alt : 30.1000003815, Lat : 49.28357, Lng : -123.11502, Q1 : 1.0, Q2 : 0.0, Q3 : 0.0, Q4 : 0.0}
2019-04-14 17:04:10.61: SIM {TimeUS : 40234733, Roll : 0.0, Pitch : 0.0, Yaw : 0.0, Alt : 30.1000003815, Lat : 49.28357, Lng : -123.11502, Q1 : 1.0, Q2 : 0.0, Q3 : 0.0, Q4 : 0.0}
2019-04-14 17:04:10.71: SIM {TimeUS : 40334693, Roll : 0.0, Pitch : 0.0, Yaw : 0.0, Alt : 30.1000003815, Lat : 49.28357, Lng : -123.11502, Q1 : 1.0, Q2 : 0.0, Q3 : 0.0, Q4 : 0.0}
2019-04-14 17:04:10.81: SIM {TimeUS : 40434653, Roll : 0.0, Pitch : 0.0, Yaw : 0.0, Alt : 30.1000003815, Lat : 49.28357, Lng : -123.11502, Q1 : 1.0, Q2 : 0.0, Q3 : 0.0, Q4 : 0.0}
2019-04-14 17:04:10.91: SIM {TimeUS : 40534613, Roll : 0.0, Pitch : 0.0, Yaw : 0.0, Alt : 30.1000003815, Lat : 49.28357, Lng : -123.11502, Q1 : 1.0, Q2 : 0.0, Q3 : 0.0, Q4 : 0.0}
2019-04-14 17:04:11.01: SIM {TimeUS : 40634573, Roll : 0.0, Pitch : 0.0, Yaw : 0.0, Alt : 30.1000003815, Lat : 49.28357, Lng : -123.11502, Q1 : 1.0, Q2 : 0.0, Q3 : 0.0, Q4 : 0.0}
2019-04-14 17:04:11.11: SIM {TimeUS : 40734533, Roll : 0.0, Pitch : 0.0, Yaw : 0.0, Alt : 30.1000003815, Lat : 49.28357, Lng : -123.11502, Q1 : 1.0, Q2 : 0.0, Q3 : 0.0, Q4 : 0.0}
2019-04-14 17:04:11.21: SIM {TimeUS : 40834493, Roll : 0.0, Pitch : 0.0, Yaw : 0.0, Alt : 30.1000003815, Lat : 49.28357, Lng : -123.11502, Q1 : 1.0, Q2 : 0.0, Q3 : 0.0, Q4 : 0.0}
2019-04-14 17:04:11.31: SIM {TimeUS : 40934453, Roll : 0.0, Pitch : 0.0, Yaw : 0.0, Alt : 30.1000003815, Lat : 49.28357, Lng : -123.11502, Q1 : 1.0, Q2 : 0.0, Q3 : 0.0, Q4 : 0.0}
2019-04-14 17:04:11.41: SIM {TimeUS : 41034413, Roll : 0.0, Pitch : 0.0, Yaw : 0.0, Alt : 30.1000003815, Lat : 49.28357, Lng : -123.11502, Q1 : 1.0, Q2 : 0.0, Q3 : 0.0, Q4 : 0.0}
2019-04-14 17:04:11.51: SIM {TimeUS : 41134373, Roll : 0.0, Pitch : 0.0, Yaw : 0.0, Alt : 30.1000003815, Lat : 49.28357, Lng : -123.11502, Q1 : 1.0, Q2 : 0.0, Q3 : 0.0, Q4 : 0.0}
2019-04-14 17:04:11.61: SIM {TimeUS : 41234333, Roll : 0.0, Pitch : 0.0, Yaw : 0.0, Alt : 30.1000003815, Lat : 49.28357, Lng : -123.11502, Q1 : 1.0, Q2 : 0.0, Q3 : 0.0, Q4 : 0.0}
2019-04-14 17:04:11.71: SIM {TimeUS : 41334293, Roll : 0.0, Pitch : 0.0, Yaw : 0.0, Alt : 30.1000003815, Lat : 49.28357, Lng : -123.11502, Q1 : 1.0, Q2 : 0.0, Q3 : 0.0, Q4 : 0.0}
2019-04-14 17:04:11.81: SIM {TimeUS : 41434253, Roll : 0.0, Pitch : 0.0, Yaw : 0.0, Alt : 30.1000003815, Lat : 49.28357, Lng : -123.11502, Q1 : 1.0, Q2 : 0.0, Q3 : 0.0, Q4 : 0.0}
2019-04-14 17:04:11.91: SIM {TimeUS : 41534213, Roll : 0.0, Pitch : 0.0, Yaw : 0.0, Alt : 30.1000003815, Lat : 49.28357, Lng : -123.11502, Q1 : 1.0, Q2 : 0.0, Q3 : 0.0, Q4 : 0.0}
2019-04-14 17:04:12.01: SIM {TimeUS : 41634173, Roll : 0.0, Pitch : 0.0, Yaw : 0.0, Alt : 30.1000003815, Lat : 49.28357, Lng : -123.11502, Q1 : 1.0, Q2 : 0.0, Q3 : 0.0, Q4 : 0.0}
2019-04-14 17:04:12.11: SIM {TimeUS : 41734133, Roll : 0.0, Pitch : 0.0, Yaw : 0.0, Alt : 30.1000003815, Lat : 49.28357, Lng : -123.11502, Q1 : 1.0, Q2 : 0.0, Q3 : 0.0, Q4 : 0.0}
2019-04-14 17:04:12.21: SIM {TimeUS : 41834093, Roll : 0.0, Pitch : 0.0, Yaw : 0.0, Alt : 30.1000003815, Lat : 49.28357, Lng : -123.11502, Q1 : 1.0, Q2 : 0.0, Q3 : 0.0, Q4 : 0.0}
2019-04-14 17:04:12.31: SIM {TimeUS : 41934053, Roll : 0.0, Pitch : 0.0, Yaw : 0.0, Alt : 30.1000003815, Lat : 49.28357, Lng : -123.11502, Q1 : 1.0, Q2 : 0.0, Q3 : 0.0, Q4 : 0.0}
2019-04-14 17:04:12.42: SIM {TimeUS : 42034846, Roll : 0.0, Pitch : 0.0, Yaw : 0.0, Alt : 30.1000003815, Lat : 49.28357, Lng : -123.11502, Q1 : 1.0, Q2 : 0.0, Q3 : 0.0, Q4 : 0.0}
2019-04-14 17:04:12.51: SIM {TimeUS : 42134806, Roll : 0.0, Pitch : 0.0, Yaw : 0.0, Alt : 30.1000003815, Lat : 49.28357, Lng : -123.11502, Q1 : 1.0, Q2 : 0.0, Q3 : 0.0, Q4 : 0.0}
2019-04-14 17:04:12.61: SIM {TimeUS : 42234766, Roll : 0.0, Pitch : 0.0, Yaw : 360.0, Alt : 30.1000003815, Lat : 49.28357, Lng : -123.11502, Q1 : 1.0, Q2 : 0.0, Q3 : 0.0, Q4 : -2.28186089815e-12}
2019-04-14 17:04:12.71: SIM {TimeUS : 42334726, Roll : 0.0, Pitch : 0.0, Yaw : 0.0, Alt : 30.1000003815, Lat : 49.28357, Lng : -123.11502, Q1 : 1.0, Q2 : 0.0, Q3 : 0.0, Q4 : 3.4573906238e-14}
2019-04-14 17:04:12.81: SIM {TimeUS : 42434686, Roll : 0.0, Pitch : 0.0, Yaw : 360.0, Alt : 30.1000003815, Lat : 49.28357, Lng : -123.11502, Q1 : 1.0, Q2 : 0.0, Q3 : 0.0, Q4 : -1.52330386527e-07}
2019-04-14 17:04:12.91: SIM {TimeUS : 42534646, Roll : 0.0, Pitch : 0.0, Yaw : 359.99, Alt : 30.1000003815, Lat : 49.28357, Lng : -123.11502, Q1 : 1.0, Q2 : 0.0, Q3 : 0.0, Q4 : -3.36351007491e-07}
2019-04-14 17:04:13.01: SIM {TimeUS : 42634606, Roll : 0.0, Pitch : 0.0, Yaw : 359.99, Alt : 30.1000003815, Lat : 49.28357, Lng : -123.11502, Q1 : 1.0, Q2 : 0.0, Q3 : 0.0, Q4 : -5.46001786006e-07}
2019-04-14 17:04:13.11: SIM {TimeUS : 42734566, Roll : 0.0, Pitch : 0.0, Yaw : 359.99, Alt : 30.1000003815, Lat : 49.28357, Lng : -123.11502, Q1 : 1.0, Q2 : 0.0, Q3 : 0.0, Q4 : -7.53971562517e-07}
2019-04-14 17:04:13.21: SIM {TimeUS : 42834526, Roll : 0.0, Pitch : 0.0, Yaw : 359.99, Alt : 30.1000003815, Lat : 49.28357, Lng : -123.11502, Q1 : 1.0, Q2 : 0.0, Q3 : 0.0, Q4 : -9.36331161938e-07}
2019-04-14 17:04:13.31: SIM {TimeUS : 42934486, Roll : 0.0, Pitch : 0.0, Yaw : 359.99, Alt : 30.1000003815, Lat : 49.28357, Lng : -123.11502, Q1 : 1.0, Q2 : 0.0, Q3 : 0.0, Q4 : -1.13188548312e-06}
2019-04-14 17:04:13.41: SIM {TimeUS : 43034446, Roll : 0.0, Pitch : 0.0, Yaw : 359.99, Alt : 30.1000003815, Lat : 49.28357, Lng : -123.11502, Q1 : 1.0, Q2 : 0.0, Q3 : 0.0, Q4 : -1.35436971505e-06}
2019-04-14 17:04:13.51: SIM {TimeUS : 43134406, Roll : 0.0, Pitch : 0.0, Yaw : 359.99, Alt : 30.1100006104, Lat : 49.28357, Lng : -123.11502, Q1 : 1.0, Q2 : 0.0, Q3 : 0.0, Q4 : -1.57073304763e-06}
2019-04-14 17:04:13.61: SIM {TimeUS : 43234366, Roll : 0.0, Pitch : 0.0, Yaw : 359.99, Alt : 30.1399993896, Lat : 49.28357, Lng : -123.11502, Q1 : 1.0, Q2 : 0.0, Q3 : 0.0, Q4 : -1.77945059932e-06}
2019-04-14 17:04:13.71: SIM {TimeUS : 43334326, Roll : 0.0, Pitch : 0.0, Yaw : 359.99, Alt : 30.1599998474, Lat : 49.28357, Lng : -123.11502, Q1 : 1.0, Q2 : 0.0, Q3 : 0.0, Q4 : -2.01279613066e-06}
2019-04-14 17:04:13.81: SIM {TimeUS : 43434286, Roll : 0.0, Pitch : 0.0, Yaw : 359.99, Alt : 30.2000007629, Lat : 49.28357, Lng : -123.11502, Q1 : 1.0, Q2 : 0.0, Q3 : 0.0, Q4 : -2.23940901378e-06}
2019-04-14 17:04:13.91: SIM {TimeUS : 43534246, Roll : -0.08, Pitch : -0.08, Yaw : 359.99, Alt : 30.25, Lat : 49.28357, Lng : -123.11502, Q1 : 0.999999403954, Q2 : -0.000784071511589, Q3 : -0.000753729487769, Q4 : -8.2054602899e-06}
2019-04-14 17:04:14.01: SIM {TimeUS : 43634206, Roll : -0.35, Pitch : -0.36, Yaw : 359.99, Alt : 30.3400001526, Lat : 49.28357, Lng : -123.11502, Q1 : 0.999990224838, Q2 : -0.00310838874429, Q3 : -0.00315416743979, Q4 : -4.18864183303e-05}
2019-04-14 17:04:14.11: SIM {TimeUS : 43734166, Roll : -0.62, Pitch : -0.66, Yaw : 359.99, Alt : 30.4899997711, Lat : 49.28357, Lng : -123.11502, Q1 : 0.999968230724, Q2 : -0.00546221109107, Q3 : -0.00581050803885, Q4 : -9.99204057734e-05}
2019-04-14 17:04:14.21: SIM {TimeUS : 43834126, Roll : -0.78, Pitch : -0.82, Yaw : 359.98, Alt : 30.6499996185, Lat : 49.28357, Lng : -123.11502, Q1 : 0.999950349331, Q2 : -0.0068670893088, Q3 : -0.00722070317715, Q4 : -0.000179250579095}
2019-04-14 17:04:14.31: SIM {TimeUS : 43934086, Roll : -0.79, Pitch : -0.78, Yaw : 359.97, Alt : 30.7999992371, Lat : 49.28357, Lng : -123.11502, Q1 : 0.999952316284, Q2 : -0.00694492040202, Q3 : -0.00686371559277, Q4 : -0.000269509968348}
2019-04-14 17:04:14.41: SIM {TimeUS : 44034046, Roll : -0.67, Pitch : -0.6, Yaw : 359.96, Alt : 30.9599990845, Lat : 49.28357, Lng : -123.1150201, Q1 : 0.999968469143, Q2 : -0.00589072937146, Q3 : -0.00531167117879, Q4 : -0.000362177699571}
2019-04-14 17:04:14.52: SIM {TimeUS : 44134839, Roll : -0.47, Pitch : -0.37, Yaw : 359.95, Alt : 31.1100006104, Lat : 49.2835701, Lng : -123.1150202, Q1 : 0.999985814095, Q2 : -0.00418276851997, Q3 : -0.00327078369446, Q4 : -0.000448731560027}
2019-04-14 17:04:14.61: SIM {TimeUS : 44234799, Roll : -0.27, Pitch : -0.16, Yaw : 359.94, Alt : 31.2700004578, Lat : 49.2835701, Lng : -123.1150203, Q1 : 0.99999588728, Q2 : -0.002438664902, Q3 : -0.0014195634285, Q4 : -0.000525476119947}
2019-04-14 17:04:14.71: SIM {TimeUS : 44334759, Roll : -0.11, Pitch : -0.01, Yaw : 359.93, Alt : 31.4400005341, Lat : 49.2835702, Lng : -123.1150204, Q1 : 0.999999284744, Q2 : -0.00101740495302, Q3 : -0.000151301370352, Q4 : -0.000583438901231}
2019-04-14 17:04:14.81: SIM {TimeUS : 44434719, Roll : 0.0, Pitch : 0.03, Yaw : 359.92, Alt : 31.6100006104, Lat : 49.2835702, Lng : -123.1150204, Q1 : 0.999999761581, Q2 : 7.10867316229e-05, Q3 : 0.00028502731584, Q4 : -0.000622586463578}
2019-04-14 17:04:14.91: SIM {TimeUS : 44534679, Roll : 0.07, Pitch : 0.02, Yaw : 359.92, Alt : 31.7900009155, Lat : 49.2835703, Lng : -123.1150205, Q1 : 0.999999523163, Q2 : 0.000657466647681, Q3 : 0.000248418335104, Q4 : -0.000635940290522}
2019-04-14 17:04:15.01: SIM {TimeUS : 44634639, Roll : 0.07, Pitch : 0.0, Yaw : 359.92, Alt : 31.9699993134, Lat : 49.2835703, Lng : -123.1150206, Q1 : 0.999999582767, Q2 : 0.000680595869198, Q3 : 6.50605652481e-05, Q4 : -0.000629995891359}
2019-04-14 17:04:15.11: SIM {TimeUS : 44734599, Roll : 0.06, Pitch : 0.0, Yaw : 359.93, Alt : 32.1599998474, Lat : 49.2835703, Lng : -123.1150206, Q1 : 0.999999701977, Q2 : 0.000540187815204, Q3 : -5.09233868797e-05, Q4 : -0.000596882018726}
2019-04-14 17:04:15.21: SIM {TimeUS : 44834559, Roll : 0.05, Pitch : 0.0, Yaw : 359.93, Alt : 32.3499984741, Lat : 49.2835703, Lng : -123.1150207, Q1 : 0.999999761581, Q2 : 0.000470665283501, Q3 : -2.31685990002e-05, Q4 : -0.000554023194127}
2019-04-14 17:04:15.31: SIM {TimeUS : 44934519, Roll : 0.06, Pitch : 0.01, Yaw : 359.94, Alt : 32.5400009155, Lat : 49.2835703, Lng : -123.1150207, Q1 : 0.999999701977, Q2 : 0.000534871651325, Q3 : 0.000168032929651, Q4 : -0.000514314568136}
2019-04-14 17:04:15.41: SIM {TimeUS : 45034479, Roll : 0.09, Pitch : 0.04, Yaw : 359.94, Alt : 32.7299995422, Lat : 49.2835703, Lng : -123.1150208, Q1 : 0.999999463558, Q2 : 0.000827342621051, Q3 : 0.000396269519115, Q4 : -0.000484048650833}
2019-04-14 17:04:15.51: SIM {TimeUS : 45134439, Roll : 0.13, Pitch : 0.07, Yaw : 359.94, Alt : 32.9300003052, Lat : 49.2835704, Lng : -123.1150208, Q1 : 0.999998986721, Q2 : 0.00120281078853, Q3 : 0.000611993367784, Q4 : -0.000466617464554}
2019-04-14 17:04:15.61: SIM {TimeUS : 45234399, Roll : 0.16, Pitch : 0.1, Yaw : 359.94, Alt : 33.1300010681, Lat : 49.2835704, Lng : -123.1150209, Q1 : 0.999998390675, Q2 : 0.00147017487325, Q3 : 0.000921512197237, Q4 : -0.000462001247797}
2019-04-14 17:04:15.71: SIM {TimeUS : 45334359, Roll : 0.17, Pitch : 0.13, Yaw : 359.94, Alt : 33.3400001526, Lat : 49.2835704, Lng : -123.1150209, Q1 : 0.999998033047, Q2 : 0.00151639082469, Q3 : 0.00119487172924, Q4 : -0.000465647754027}
2019-04-14 17:04:15.81: SIM {TimeUS : 45434319, Roll : 0.16, Pitch : 0.15, Yaw : 359.94, Alt : 33.5400009155, Lat : 49.2835704, Lng : -123.1150209, Q1 : 0.999997973442, Q2 : 0.0014155296376, Q3 : 0.00136818387546, Q4 : -0.000473951426102}
2019-04-14 17:04:15.91: SIM {TimeUS : 45534279, Roll : 0.15, Pitch : 0.17, Yaw : 359.94, Alt : 33.75, Lat : 49.2835704, Lng : -123.1150209, Q1 : 0.999997854233, Q2 : 0.00130992394406, Q3 : 0.00152320042253, Q4 : -0.000491001817863}
2019-04-14 17:04:16.01: SIM {TimeUS : 45634239, Roll : 0.15, Pitch : 0.17, Yaw : 359.94, Alt : 33.9599990845, Lat : 49.2835704, Lng : -123.1150209, Q1 : 0.999997854233, Q2 : 0.00131667067762, Q3 : 0.00151986302808, Q4 : -0.000512031198014}
2019-04-14 17:04:16.11: SIM {TimeUS : 45734199, Roll : 0.14, Pitch : 0.16, Yaw : 359.93, Alt : 34.1699981689, Lat : 49.2835706, Lng : -123.1150209, Q1 : 0.999997913837, Q2 : 0.00130768504459, Q3 : 0.00145839503966, Q4 : -0.000537892163265}
2019-04-14 17:04:16.21: SIM {TimeUS : 45834159, Roll : 0.13, Pitch : 0.15, Yaw : 359.93, Alt : 34.3800010681, Lat : 49.2835706, Lng : -123.1150209, Q1 : 0.999998211861, Q2 : 0.00115816807374, Q3 : 0.00137251650449, Q4 : -0.000565964670386}
2019-04-14 17:04:16.31: SIM {TimeUS : 45934119, Roll : 0.11, Pitch : 0.11, Yaw : 359.93, Alt : 34.5900001526, Lat : 49.2835706, Lng : -123.1150209, Q1 : 0.999998807907, Q2 : 0.000993606750853, Q3 : 0.00103475234937, Q4 : -0.000580797553994}
2019-04-14 17:04:16.41: SIM {TimeUS : 46034079, Roll : 0.09, Pitch : 0.06, Yaw : 359.93, Alt : 34.8100013733, Lat : 49.2835706, Lng : -123.1150209, Q1 : 0.999999344349, Q2 : 0.00082834175555, Q3 : 0.000559346750379, Q4 : -0.000584868714213}
2019-04-14 17:04:16.51: SIM {TimeUS : 46134039, Roll : 0.07, Pitch : 0.03, Yaw : 359.93, Alt : 35.0200004578, Lat : 49.2835706, Lng : -123.1150209, Q1 : 0.999999582767, Q2 : 0.00063617475098, Q3 : 0.000266024610028, Q4 : -0.000599850958679}
2019-04-14 17:04:16.62: SIM {TimeUS : 46234832, Roll : 0.05, Pitch : 0.02, Yaw : 359.92, Alt : 35.2400016785, Lat : 49.2835706, Lng : -123.1150209, Q1 : 0.999999642372, Q2 : 0.00048037286615, Q3 : 0.000214184532524, Q4 : -0.000636133830994}
2019-04-14 17:04:16.71: SIM {TimeUS : 46334792, Roll : 0.05, Pitch : 0.03, Yaw : 359.92, Alt : 35.4599990845, Lat : 49.2835706, Lng : -123.1150208, Q1 : 0.999999582767, Q2 : 0.000469326419989, Q3 : 0.000305893132463, Q4 : -0.000683367776219}
2019-04-14 17:04:16.81: SIM {TimeUS : 46434752, Roll : 0.04, Pitch : 0.03, Yaw : 359.91, Alt : 35.6800003052, Lat : 49.2835706, Lng : -123.1150208, Q1 : 0.999999582767, Q2 : 0.000396774848923, Q3 : 0.000302118656691, Q4 : -0.000729566731025}
2019-04-14 17:04:16.91: SIM {TimeUS : 46534712, Roll : 0.02, Pitch : 0.02, Yaw : 359.91, Alt : 35.8899993896, Lat : 49.2835706, Lng : -123.1150208, Q1 : 0.999999642372, Q2 : 0.000175294931978, Q3 : 0.000244482362177, Q4 : -0.000772413506638}
2019-04-14 17:04:17.01: SIM {TimeUS : 46634672, Roll : 0.0, Pitch : 0.02, Yaw : 359.9, Alt : 36.1100006104, Lat : 49.2835706, Lng : -123.1150208, Q1 : 0.999999642372, Q2 : -1.26992063088e-05, Q3 : 0.000235491228523, Q4 : -0.000808890908957}
2019-04-14 17:04:17.11: SIM {TimeUS : 46734632, Roll : -0.01, Pitch : 0.04, Yaw : 359.9, Alt : 36.3400001526, Lat : 49.2835706, Lng : -123.1150208, Q1 : 0.999999523163, Q2 : -0.00011679821182, Q3 : 0.000410578417359, Q4 : -0.000847290561069}
2019-04-14 17:04:17.21: SIM {TimeUS : 46834592, Roll : -0.02, Pitch : 0.05, Yaw : 359.89, Alt : 36.5600013733, Lat : 49.2835704, Lng : -123.1150208, Q1 : 0.999999463558, Q2 : -0.000215546722757, Q3 : 0.000442706164904, Q4 : -0.000888156471774}
2019-04-14 17:04:17.31: SIM {TimeUS : 46934552, Roll : -0.03, Pitch : 0.04, Yaw : 359.89, Alt : 36.7799987793, Lat : 49.2835704, Lng : -123.1150207, Q1 : 0.999999463558, Q2 : -0.000290202122414, Q3 : 0.000403276906582, Q4 : -0.000930953363422}
2019-04-14 17:04:17.41: SIM {TimeUS : 47034512, Roll : -0.03, Pitch : 0.03, Yaw : 359.88, Alt : 37.0099983215, Lat : 49.2835704, Lng : -123.1150207, Q1 : 0.999999403954, Q2 : -0.000330969516654, Q3 : 0.000342119688867, Q4 : -0.000965522136539}
2019-04-14 17:04:17.51: SIM {TimeUS : 47134472, Roll : -0.02, Pitch : 0.02, Yaw : 359.88, Alt : 37.2299995422, Lat : 49.2835704, Lng : -123.1150207, Q1 : 0.999999463558, Q2 : -0.000252994796028, Q3 : 0.000248125492362, Q4 : -0.000983670819551}
2019-04-14 17:04:17.61: SIM {TimeUS : 47234432, Roll : 0.0, Pitch : 0.01, Yaw : 359.88, Alt : 37.4500007629, Lat : 49.2835704, Lng : -123.1150207, Q1 : 0.999999523163, Q2 : -5.04008858115e-05, Q3 : 0.000158414652105, Q4 : -0.000988925108686}
2019-04-14 17:04:17.71: SIM {TimeUS : 47334392, Roll : 0.0, Pitch : 0.0, Yaw : 359.88, Alt : 37.6800003052, Lat : 49.2835704, Lng : -123.1150207, Q1 : 0.999999523163, Q2 : -2.45586634264e-05, Q3 : -8.26156156108e-06, Q4 : -0.000987079227343}
2019-04-14 17:04:17.81: SIM {TimeUS : 47434352, Roll : -0.01, Pitch : -0.03, Yaw : 359.88, Alt : 37.9099998474, Lat : 49.2835704, Lng : -123.1150207, Q1 : 0.999999463558, Q2 : -0.000170353741851, Q3 : -0.0002666884684, Q4 : -0.000979131204076}
2019-04-14 17:04:17.91: SIM {TimeUS : 47534312, Roll : -0.04, Pitch : -0.05, Yaw : 359.88, Alt : 38.1300010681, Lat : 49.2835704, Lng : -123.1150207, Q1 : 0.999999344349, Q2 : -0.000423377845436, Q3 : -0.000477487425087, Q4 : -0.000976954237558}
2019-04-14 17:04:18.01: SIM {TimeUS : 47634272, Roll : -0.08, Pitch : -0.06, Yaw : 359.88, Alt : 38.3600006104, Lat : 49.2835704, Lng : -123.1150207, Q1 : 0.999999046326, Q2 : -0.000747651560232, Q3 : -0.000589044939261, Q4 : -0.000989006366581}
2019-04-14 17:04:18.11: SIM {TimeUS : 47734232, Roll : -0.11, Pitch : -0.07, Yaw : 359.88, Alt : 38.5900001526, Lat : 49.2835704, Lng : -123.1150207, Q1 : 0.999998807907, Q2 : -0.00097367860144, Q3 : -0.000647130596917, Q4 : -0.00100049795583}
2019-04-14 17:04:18.21: SIM {TimeUS : 47834192, Roll : -0.12, Pitch : -0.07, Yaw : 359.88, Alt : 38.8199996948, Lat : 49.2835704, Lng : -123.1150207, Q1 : 0.999998688698, Q2 : -0.00108019402251, Q3 : -0.000627022236586, Q4 : -0.00101093482226}
2019-04-14 17:04:18.31: SIM {TimeUS : 47934152, Roll : -0.11, Pitch : -0.05, Yaw : 359.88, Alt : 39.0499992371, Lat : 49.2835704, Lng : -123.1150207, Q1 : 0.999998867512, Q2 : -0.000998983392492, Q3 : -0.000460714305518, Q4 : -0.0010246806778}
2019-04-14 17:04:18.41: SIM {TimeUS : 48034112, Roll : -0.09, Pitch : -0.04, Yaw : 359.88, Alt : 39.2799987793, Lat : 49.2835704, Lng : -123.1150207, Q1 : 0.999999046326, Q2 : -0.000791298632976, Q3 : -0.000430233834777, Q4 : -0.00104193901643}
2019-04-14 17:04:18.51: SIM {TimeUS : 48134072, Roll : -0.06, Pitch : -0.05, Yaw : 359.87, Alt : 39.5099983215, Lat : 49.2835704, Lng : -123.1150207, Q1 : 0.999999165535, Q2 : -0.000600248749834, Q3 : -0.000473578227684, Q4 : -0.00106896157376}
2019-04-14 17:04:18.61: SIM {TimeUS : 48234032, Roll : -0.05, Pitch : -0.04, Yaw : 359.87, Alt : 39.7400016785, Lat : 49.2835704, Lng : -123.1150207, Q1 : 0.99999922514, Q2 : -0.000478452566313, Q3 : -0.000375777162844, Q4 : -0.00109137629624}
2019-04-14 17:04:18.72: SIM {TimeUS : 48334825, Roll : -0.05, Pitch : -0.01, Yaw : 359.87, Alt : 39.9700012207, Lat : 49.2835704, Lng : -123.1150207, Q1 : 0.99999922514, Q2 : -0.000522713293321, Q3 : -0.000163239543326, Q4 : -0.00111715320963}
2019-04-14 17:04:18.81: SIM {TimeUS : 48434785, Roll : -0.05, Pitch : 0.0, Yaw : 359.86, Alt : 40.2000007629, Lat : 49.2835704, Lng : -123.1150207, Q1 : 0.99999922514, Q2 : -0.000474343687529, Q3 : 8.51099612191e-05, Q4 : -0.00115032843314}
2019-04-14 17:04:18.91: SIM {TimeUS : 48534745, Roll : -0.03, Pitch : 0.04, Yaw : 359.86, Alt : 40.4300003052, Lat : 49.2835704, Lng : -123.1150207, Q1 : 0.999999165535, Q2 : -0.000325982487993, Q3 : 0.000410573557019, Q4 : -0.00119329907466}
2019-04-14 17:04:19.01: SIM {TimeUS : 48634705, Roll : -0.01, Pitch : 0.06, Yaw : 359.85, Alt : 40.6699981689, Lat : 49.2835704, Lng : -123.1150207, Q1 : 0.999999046326, Q2 : -0.000149041443365, Q3 : 0.000541024783161, Q4 : -0.0012294226326}
2019-04-14 17:04:19.11: SIM {TimeUS : 48734665, Roll : 0.01, Pitch : 0.06, Yaw : 359.85, Alt : 40.9000015259, Lat : 49.2835704, Lng : -123.1150207, Q1 : 0.999999046326, Q2 : 0.000127016886836, Q3 : 0.000577157712542, Q4 : -0.00125854322687}
2019-04-14 17:04:19.21: SIM {TimeUS : 48834625, Roll : 0.05, Pitch : 0.08, Yaw : 359.85, Alt : 41.1300010681, Lat : 49.2835704, Lng : -123.1150207, Q1 : 0.999998807907, Q2 : 0.000457702990388, Q3 : 0.00071135367034, Q4 : -0.00128078984562}
2019-04-14 17:04:19.31: SIM {TimeUS : 48934585, Roll : 0.09, Pitch : 0.1, Yaw : 359.85, Alt : 41.3600006104, Lat : 49.2835706, Lng : -123.1150207, Q1 : 0.999998390675, Q2 : 0.00085638568271, Q3 : 0.000913605967071, Q4 : -0.00130296987481}
2019-04-14 17:04:19.41: SIM {TimeUS : 49034545, Roll : 0.12, Pitch : 0.12, Yaw : 359.84, Alt : 41.5999984741, Lat : 49.2835706, Lng : -123.1150207, Q1 : 0.999997913837, Q2 : 0.00107340305112, Q3 : 0.00112338992767, Q4 : -0.00132758799009}
2019-04-14 17:04:19.51: SIM {TimeUS : 49134505, Roll : 0.1, Pitch : 0.14, Yaw : 359.84, Alt : 41.8300018311, Lat : 49.2835706, Lng : -123.1150207, Q1 : 0.999997854233, Q2 : 0.00091372517636, Q3 : 0.00127313518897, Q4 : -0.0013393019326}
2019-04-14 17:04:19.61: SIM {TimeUS : 49234465, Roll : 0.05, Pitch : 0.15, Yaw : 359.84, Alt : 42.0600013733, Lat : 49.2835706, Lng : -123.1150207, Q1 : 0.999998033047, Q2 : 0.000479679380078, Q3 : 0.0013544295216, Q4 : -0.00134508369956}
2019-04-14 17:04:19.71: SIM {TimeUS : 49334425, Roll : 0.0, Pitch : 0.15, Yaw : 359.84, Alt : 42.2999992371, Lat : 49.2835706, Lng : -123.1150207, Q1 : 0.999998152256, Q2 : 4.57993446616e-05, Q3 : 0.0013472182909, Q4 : -0.0013578995131}
2019-04-14 17:04:19.81: SIM {TimeUS : 49434385, Roll : -0.01, Pitch : 0.12, Yaw : 359.84, Alt : 42.5299987793, Lat : 49.2835706, Lng : -123.1150207, Q1 : 0.999998450279, Q2 : -0.000149851402966, Q3 : 0.00110908818897, Q4 : -0.00137040228583}
2019-04-14 17:04:19.91: SIM {TimeUS : 49534345, Roll : -0.01, Pitch : 0.09, Yaw : 359.84, Alt : 42.7700004578, Lat : 49.2835706, Lng : -123.1150207, Q1 : 0.999998688698, Q2 : -0.000160626557772, Q3 : 0.000795898027718, Q4 : -0.00138012180105}
2019-04-14 17:04:20.01: SIM {TimeUS : 49634305, Roll : -0.01, Pitch : 0.09, Yaw : 359.83, Alt : 43.0, Lat : 49.2835706, Lng : -123.1150207, Q1 : 0.999998688698, Q2 : -8.8388012955e-05, Q3 : 0.000798161607236, Q4 : -0.00140056549571}
2019-04-14 17:04:20.11: SIM {TimeUS : 49734265, Roll : 0.02, Pitch : 0.11, Yaw : 359.83, Alt : 43.2400016785, Lat : 49.2835706, Lng : -123.1150207, Q1 : 0.999998450279, Q2 : 0.000189190584933, Q3 : 0.00101408862974, Q4 : -0.00143605226185}
2019-04-14 17:04:20.21: SIM {TimeUS : 49834225, Roll : 0.07, Pitch : 0.14, Yaw : 359.83, Alt : 43.4700012207, Lat : 49.2835706, Lng : -123.1150207, Q1 : 0.999997913837, Q2 : 0.000642025552224, Q3 : 0.00124995550141, Q4 : -0.0014656195417}
2019-04-14 17:04:20.31: SIM {TimeUS : 49934185, Roll : 0.11, Pitch : 0.13, Yaw : 359.82, Alt : 43.7099990845, Lat : 49.2835704, Lng : -123.1150207, Q1 : 0.999997675419, Q2 : 0.000990282278508, Q3 : 0.00121580692939, Q4 : -0.00149597530253}
2019-04-14 17:04:20.41: SIM {TimeUS : 50034145, Roll : 0.11, Pitch : 0.11, Yaw : 359.82, Alt : 43.9500007629, Lat : 49.2835704, Lng : -123.1150207, Q1 : 0.999997794628, Q2 : 0.00100341334473, Q3 : 0.00102888944093, Q4 : -0.00152807286941}
2019-04-14 17:04:20.51: SIM {TimeUS : 50134105, Roll : 0.07, Pitch : 0.09, Yaw : 359.82, Alt : 44.1800003052, Lat : 49.2835704, Lng : -123.1150207, Q1 : 0.999998271465, Q2 : 0.000642769795377, Q3 : 0.00084666517796, Q4 : -0.00154328776989}
2019-04-14 17:04:20.61: SIM {TimeUS : 50234065, Roll : 0.01, Pitch : 0.08, Yaw : 359.82, Alt : 44.4199981689, Lat : 49.2835704, Lng : -123.1150207, Q1 : 0.999998509884, Q2 : 0.00012687301205, Q3 : 0.000723381002899, Q4 : -0.00155594223179}
2019-04-14 17:04:20.71: SIM {TimeUS : 50334025, Roll : -0.02, Pitch : 0.08, Yaw : 359.81, Alt : 44.6500015259, Lat : 49.2835704, Lng : -123.1150206, Q1 : 0.999998509884, Q2 : -0.000250685989158, Q3 : 0.000701347133145, Q4 : -0.00157424679492}
2019-04-14 17:04:20.81: SIM {TimeUS : 50434818, Roll : -0.05, Pitch : 0.07, Yaw : 359.81, Alt : 44.8899993896, Lat : 49.2835704, Lng : -123.1150206, Q1 : 0.999998450279, Q2 : -0.000473140680697, Q3 : 0.000637447868939, Q4 : -0.00159206439275}
2019-04-14 17:04:20.91: SIM {TimeUS : 50534778, Roll : -0.06, Pitch : 0.05, Yaw : 359.81, Alt : 45.1300010681, Lat : 49.2835704, Lng : -123.1150206, Q1 : 0.999998390675, Q2 : -0.000557502906304, Q3 : 0.000518484273925, Q4 : -0.00160579709336}
2019-04-14 17:04:21.01: SIM {TimeUS : 50634738, Roll : -0.06, Pitch : 0.03, Yaw : 359.81, Alt : 45.3600006104, Lat : 49.2835704, Lng : -123.1150206, Q1 : 0.999998450279, Q2 : -0.000565240217838, Q3 : 0.00032836329774, Q4 : -0.00162859738339}
2019-04-14 17:04:21.11: SIM {TimeUS : 50734698, Roll : -0.04, Pitch : 0.01, Yaw : 359.8, Alt : 45.5999984741, Lat : 49.2835703, Lng : -123.1150206, Q1 : 0.999998509884, Q2 : -0.000414216337958, Q3 : 0.000134770976729, Q4 : -0.00166173290927}
2019-04-14 17:04:21.21: SIM {TimeUS : 50834658, Roll : -0.02, Pitch : 0.0, Yaw : 359.8, Alt : 45.8300018311, Lat : 49.2835703, Lng : -123.1150206, Q1 : 0.999998569489, Q2 : -0.000174680215423, Q3 : -5.21809943166e-06, Q4 : -0.00170135404915}
2019-04-14 17:04:21.31: SIM {TimeUS : 50934618, Roll : 0.0, Pitch : 0.0, Yaw : 359.8, Alt : 46.0600013733, Lat : 49.2835703, Lng : -123.1150206, Q1 : 0.999998509884, Q2 : -8.64241010277e-05, Q3 : -5.14093007951e-05, Q4 : -0.00174313317984}
2019-04-14 17:04:21.41: SIM {TimeUS : 51034578, Roll : -0.01, Pitch : -0.01, Yaw : 359.79, Alt : 46.2900009155, Lat : 49.2835703, Lng : -123.1150206, Q1 : 0.999998390675, Q2 : -0.000132269371534, Q3 : -0.000126739178086, Q4 : -0.00178585655522}
2019-04-14 17:04:21.51: SIM {TimeUS : 51134538, Roll : -0.02, Pitch : -0.03, Yaw : 359.79, Alt : 46.5099983215, Lat : 49.2835703, Lng : -123.1150206, Q1 : 0.999998271465, Q2 : -0.000196534339921, Q3 : -0.000308398157358, Q4 : -0.00183116481639}
2019-04-14 17:04:21.61: SIM {TimeUS : 51234498, Roll : -0.02, Pitch : -0.04, Yaw : 359.78, Alt : 46.7299995422, Lat : 49.2835703, Lng : -123.1150205, Q1 : 0.999998152256, Q2 : -0.000237150379689, Q3 : -0.000426431390224, Q4 : -0.00187131669372}
2019-04-14 17:04:21.71: SIM {TimeUS : 51334458, Roll : -0.02, Pitch : -0.05, Yaw : 359.78, Alt : 46.9399986267, Lat : 49.2835703, Lng : -123.1150205, Q1 : 0.999998092651, Q2 : -0.000223173352424, Q3 : -0.000459140224848, Q4 : -0.0019027099479}
2019-04-14 17:04:21.81: SIM {TimeUS : 51434418, Roll : -0.03, Pitch : -0.05, Yaw : 359.77, Alt : 47.1500015259, Lat : 49.2835703, Lng : -123.1150205, Q1 : 0.999998033047, Q2 : -0.000276532693533, Q3 : -0.000444986799266, Q4 : -0.001929796068}
2019-04-14 17:04:21.91: SIM {TimeUS : 51534378, Roll : -0.05, Pitch : -0.04, Yaw : 359.77, Alt : 47.3499984741, Lat : 49.2835703, Lng : -123.1150205, Q1 : 0.999997913837, Q2 : -0.000459449569462, Q3 : -0.000395844661398, Q4 : -0.00195571174845}
2019-04-14 17:04:22.01: SIM {TimeUS : 51634338, Roll : -0.08, Pitch : -0.04, Yaw : 359.77, Alt : 47.5400009155, Lat : 49.2835703, Lng : -123.1150205, Q1 : 0.999997675419, Q2 : -0.000764568394516, Q3 : -0.000349504931364, Q4 : -0.00198165187612}
2019-04-14 17:04:22.11: SIM {TimeUS : 51734298, Roll : -0.13, Pitch : -0.05, Yaw : 359.76, Alt : 47.7200012207, Lat : 49.2835703, Lng : -123.1150205, Q1 : 0.999997198582, Q2 : -0.00114991236478, Q3 : -0.000493687577546, Q4 : -0.00200958573259}
2019-04-14 17:04:22.21: SIM {TimeUS : 51834258, Roll : -0.16, Pitch : -0.06, Yaw : 359.76, Alt : 47.8800010681, Lat : 49.2835703, Lng : -123.1150205, Q1 : 0.999996721745, Q2 : -0.00145162083209, Q3 : -0.000583560788073, Q4 : -0.00203660852276}
2019-04-14 17:04:22.31: SIM {TimeUS : 51934218, Roll : -0.17, Pitch : -0.06, Yaw : 359.76, Alt : 48.0400009155, Lat : 49.2835703, Lng : -123.1150205, Q1 : 0.999996542931, Q2 : -0.00154063897207, Q3 : -0.000523374881595, Q4 : -0.00206348835491}
2019-04-14 17:04:22.41: SIM {TimeUS : 52034178, Roll : -0.15, Pitch : -0.05, Yaw : 359.76, Alt : 48.1800003052, Lat : 49.2835703, Lng : -123.1150205, Q1 : 0.999996721745, Q2 : -0.00139595742803, Q3 : -0.000440131989308, Q4 : -0.00209014141001}
2019-04-14 17:04:22.51: SIM {TimeUS : 52134138, Roll : -0.13, Pitch : -0.04, Yaw : 359.75, Alt : 48.3199996948, Lat : 49.2835703, Lng : -123.1150205, Q1 : 0.999997019768, Q2 : -0.0011435673805, Q3 : -0.000361158745363, Q4 : -0.00211606663652}
2019-04-14 17:04:22.61: SIM {TimeUS : 52234098, Roll : -0.1, Pitch : -0.03, Yaw : 359.75, Alt : 48.4399986267, Lat : 49.2835703, Lng : -123.1150205, Q1 : 0.999997258186, Q2 : -0.000915347714908, Q3 : -0.000341305974871, Q4 : -0.00214214040898}
2019-04-14 17:04:22.71: SIM {TimeUS : 52334058, Roll : -0.07, Pitch : -0.04, Yaw : 359.75, Alt : 48.5499992371, Lat : 49.2835703, Lng : -123.1150205, Q1 : 0.999997317791, Q2 : -0.000662321515847, Q3 : -0.000408307998441, Q4 : -0.00216870033182}
2019-04-14 17:04:22.82: SIM {TimeUS : 52434851, Roll : -0.04, Pitch : -0.06, Yaw : 359.74, Alt : 48.6399993896, Lat : 49.2835703, Lng : -123.1150205, Q1 : 0.999997377396, Q2 : -0.00038616915117, Q3 : -0.0005360445939, Q4 : -0.00218901713379}
2019-04-14 17:04:22.91: SIM {TimeUS : 52534811, Roll : -0.02, Pitch : -0.07, Yaw : 359.74, Alt : 48.7299995422, Lat : 49.2835703, Lng : -123.1150206, Q1 : 0.999997317791, Q2 : -0.000240428751567, Q3 : -0.000648982066195, Q4 : -0.00221094791777}
2019-04-14 17:04:23.01: SIM {TimeUS : 52634771, Roll : -0.03, Pitch : -0.08, Yaw : 359.74, Alt : 48.7999992371, Lat : 49.2835703, Lng : -123.1150206, Q1 : 0.999997198582, Q2 : -0.000299645675113, Q3 : -0.000732416054234, Q4 : -0.00223156413995}
2019-04-14 17:04:23.11: SIM {TimeUS : 52734731, Roll : -0.02, Pitch : -0.08, Yaw : 359.74, Alt : 48.8600006104, Lat : 49.2835703, Lng : -123.1150206, Q1 : 0.999997198582, Q2 : -0.000199982139748, Q3 : -0.000699676573277, Q4 : -0.00224931444973}
2019-04-14 17:04:23.21: SIM {TimeUS : 52834691, Roll : 0.0, Pitch : -0.06, Yaw : 359.73, Alt : 48.9199981689, Lat : 49.2835703, Lng : -123.1150206, Q1 : 0.999997317791, Q2 : 2.37595904764e-05, Q3 : -0.000531310797669, Q4 : -0.00226973555982}
2019-04-14 17:04:23.31: SIM {TimeUS : 52934651, Roll : 0.03, Pitch : -0.04, Yaw : 359.73, Alt : 48.9700012207, Lat : 49.2835703, Lng : -123.1150206, Q1 : 0.999997258186, Q2 : 0.000315478595439, Q3 : -0.000389041699236, Q4 : -0.00229060067795}
2019-04-14 17:04:23.41: SIM {TimeUS : 53034611, Roll : 0.14, Pitch : -0.08, Yaw : 359.73, Alt : 49.0099983215, Lat : 49.2835703, Lng : -123.1150206, Q1 : 0.999996185303, Q2 : 0.00130104424898, Q3 : -0.000753915112, Q4 : -0.00232235435396}
2019-04-14 17:04:23.51: SIM {TimeUS : 53134571, Roll : 0.45, Pitch : -0.27, Yaw : 359.72, Alt : 49.0400009155, Lat : 49.2835703, Lng : -123.1150206, Q1 : 0.99998664856, Q2 : 0.00393873779103, Q3 : -0.00238000554964, Q4 : -0.00235358811915}
2019-04-14 17:04:23.61: SIM {TimeUS : 53234531, Roll : 0.96, Pitch : -0.64, Yaw : 359.72, Alt : 49.0699996948, Lat : 49.2835703, Lng : -123.1150206, Q1 : 0.999945998192, Q2 : 0.00841376371682, Q3 : -0.00561837945133, Q4 : -0.00238080136478}
2019-04-14 17:04:23.71: SIM {TimeUS : 53334491, Roll : 1.65, Pitch : -1.14, Yaw : 359.7, Alt : 49.0999984741, Lat : 49.2835704, Lng : -123.1150206, Q1 : 0.999842822552, Q2 : 0.0144310509786, Q3 : -0.0100225871429, Q4 : -0.00239177211188}
2019-04-14 17:04:23.81: SIM {TimeUS : 53434451, Roll : 2.48, Pitch : -1.72, Yaw : 359.69, Alt : 49.1199989319, Lat : 49.2835704, Lng : -123.1150205, Q1 : 0.999649882317, Q2 : 0.0216083303094, Q3 : -0.0150869525969, Q4 : -0.00236752256751}
2019-04-14 17:04:23.91: SIM {TimeUS : 53534411, Roll : 3.31, Pitch : -2.3, Yaw : 359.67, Alt : 49.1399993896, Lat : 49.2835706, Lng : -123.1150204, Q1 : 0.99937748909, Q2 : 0.0288662482053, Q3 : -0.0201546736062, Q4 : -0.00228716782294}
2019-04-14 17:04:24.01: SIM {TimeUS : 53634371, Roll : 4.03, Pitch : -2.78, Yaw : 359.65, Alt : 49.1500015259, Lat : 49.2835706, Lng : -123.1150203, Q1 : 0.999083220959, Q2 : 0.035115160048, Q3 : -0.0243944302201, Q4 : -0.00213130936027}
2019-04-14 17:04:24.11: SIM {TimeUS : 53734331, Roll : 4.6, Pitch : -3.14, Yaw : 359.65, Alt : 49.1699981689, Lat : 49.2835708, Lng : -123.11502, Q1 : 0.998816013336, Q2 : 0.0400694198906, Q3 : -0.0275206584483, Q4 : -0.00190342147835}
2019-04-14 17:04:24.21: SIM {TimeUS : 53834291, Roll : 5.02, Pitch : -3.4, Yaw : 359.66, Alt : 49.1800003052, Lat : 49.2835709, Lng : -123.1150198, Q1 : 0.998597145081, Q2 : 0.0437514185905, Q3 : -0.0297802109271, Q4 : -0.00163831189275}
2019-04-14 17:04:24.31: SIM {TimeUS : 53934251, Roll : 5.34, Pitch : -3.63, Yaw : 359.67, Alt : 49.1899986267, Lat : 49.283571, Lng : -123.1150193, Q1 : 0.998408198357, Q2 : 0.0465558730066, Q3 : -0.0318079218268, Q4 : -0.00137616833672}
2019-04-14 17:04:24.41: SIM {TimeUS : 54034211, Roll : 5.63, Pitch : -3.85, Yaw : 359.68, Alt : 49.2000007629, Lat : 49.2835714, Lng : -123.1150188, Q1 : 0.998226642609, Q2 : 0.0490161888301, Q3 : -0.0337600521743, Q4 : -0.00111951399595}
2019-04-14 17:04:24.51: SIM {TimeUS : 54134171, Roll : 5.91, Pitch : -4.1, Yaw : 359.68, Alt : 49.2099990845, Lat : 49.2835716, Lng : -123.1150182, Q1 : 0.998026549816, Q2 : 0.0515032857656, Q3 : -0.0359119325876, Q4 : -0.000881021143869}
2019-04-14 17:04:24.61: SIM {TimeUS : 54234131, Roll : 6.21, Pitch : -4.35, Yaw : 359.69, Alt : 49.2200012207, Lat : 49.283572, Lng : -123.1150175, Q1 : 0.99781024456, Q2 : 0.0540961623192, Q3 : -0.0380516238511, Q4 : -0.000636180047877}
2019-04-14 17:04:24.71: SIM {TimeUS : 54334091, Roll : 6.49, Pitch : -4.54, Yaw : 359.69, Alt : 49.2200012207, Lat : 49.2835724, Lng : -123.1150167, Q1 : 0.99761390686, Q2 : 0.0564608946443, Q3 : -0.0397307500243, Q4 : -0.000378298718715}
2019-04-14 17:04:24.81: SIM {TimeUS : 54434051, Roll : 6.69, Pitch : -4.69, Yaw : 359.7, Alt : 49.2299995422, Lat : 49.2835727, Lng : -123.1150157, Q1 : 0.997457742691, Q2 : 0.0582807995379, Q3 : -0.0410050787032, Q4 : -0.000156574329594}
2019-04-14 17:04:24.92: SIM {TimeUS : 54534844, Roll : 6.84, Pitch : -4.79, Yaw : 359.71, Alt : 49.2400016785, Lat : 49.2835733, Lng : -123.1150147, Q1 : 0.997342765331, Q2 : 0.0595845915377, Q3 : -0.0419177301228, Q4 : 2.47509397013e-05}
2019-04-14 17:04:25.01: SIM {TimeUS : 54634804, Roll : 6.95, Pitch : -4.86, Yaw : 359.72, Alt : 49.2400016785, Lat : 49.2835738, Lng : -123.1150136, Q1 : 0.997266054153, Q2 : 0.0604633353651, Q3 : -0.0424800366163, Q4 : 0.000152530861669}
2019-04-14 17:04:25.11: SIM {TimeUS : 54734764, Roll : 7.03, Pitch : -4.93, Yaw : 359.72, Alt : 49.25, Lat : 49.2835743, Lng : -123.1150124, Q1 : 0.997193217278, Q2 : 0.0612351261079, Q3 : -0.0430806577206, Q4 : 0.000225271724048}
2019-04-14 17:04:25.21: SIM {TimeUS : 54834724, Roll : 7.21, Pitch : -4.99, Yaw : 359.73, Alt : 49.25, Lat : 49.2835749, Lng : -123.1150112, Q1 : 0.997074782848, Q2 : 0.0627673268318, Q3 : -0.043611869216, Q4 : 0.000446095626103}
2019-04-14 17:04:25.31: SIM {TimeUS : 54934684, Roll : 7.62, Pitch : -4.9, Yaw : 0.05, Alt : 49.25, Lat : 49.2835755, Lng : -123.1150098, Q1 : 0.996871471405, Q2 : 0.066476225853, Q3 : -0.0426298901439, Q4 : 0.00330633181147}
2019-04-14 17:04:25.41: SIM {TimeUS : 55034644, Roll : 8.23, Pitch : -4.69, Yaw : 1.31, Alt : 49.2599983215, Lat : 49.2835762, Lng : -123.1150083, Q1 : 0.996479272842, Q2 : 0.0722349882126, Q3 : -0.0400473698974, Q4 : 0.0144029129297}
2019-04-14 17:04:25.51: SIM {TimeUS : 55134604, Roll : 8.81, Pitch : -4.74, Yaw : 4.07, Alt : 49.2599983215, Lat : 49.2835768, Lng : -123.1150068, Q1 : 0.995447874069, Q2 : 0.0781844928861, Q3 : -0.0385180003941, Q4 : 0.0385632328689}
2019-04-14 17:04:25.61: SIM {TimeUS : 55234564, Roll : 9.09, Pitch : -5.28, Yaw : 8.39, Alt : 49.2599983215, Lat : 49.2835775, Lng : -123.1150051, Q1 : 0.992853701115, Q2 : 0.0823576152325, Q3 : -0.0400307998061, Q4 : 0.0765266492963}
2019-04-14 17:04:25.71: SIM {TimeUS : 55334524, Roll : 8.89, Pitch : -6.32, Yaw : 14.11, Alt : 49.2599983215, Lat : 49.2835782, Lng : -123.1150033, Q1 : 0.987398803234, Q2 : 0.0836244672537, Q3 : -0.0450698435307, Q4 : 0.126566976309}
2019-04-14 17:04:25.81: SIM {TimeUS : 55434484, Roll : 8.1, Pitch : -7.74, Yaw : 20.99, Alt : 49.2599983215, Lat : 49.2835789, Lng : -123.1150014, Q1 : 0.97769844532, Q2 : 0.0816342458129, Q3 : -0.0533581152558, Q4 : 0.185996115208}
2019-04-14 17:04:25.91: SIM {TimeUS : 55534444, Roll : 6.71, Pitch : -9.33, Yaw : 28.76, Alt : 49.2599983215, Lat : 49.2835797, Lng : -123.1149993, Q1 : 0.962595820427, Q2 : 0.0766891613603, Q3 : -0.0642254203558, Q4 : 0.251799851656}
2019-04-14 17:04:26.01: SIM {TimeUS : 55634404, Roll : 4.77, Pitch : -10.87, Yaw : 37.19, Alt : 49.2700004578, Lat : 49.2835805, Lng : -123.1149972, Q1 : 0.941437065601, Q2 : 0.0695116743445, Q3 : -0.0764741674066, Q4 : 0.320961117744}
2019-04-14 17:04:26.11: SIM {TimeUS : 55734364, Roll : 2.28, Pitch : -12.12, Yaw : 45.95, Alt : 49.2700004578, Lat : 49.2835812, Lng : -123.114995, Q1 : 0.914522349834, Q2 : 0.0594563223422, Q3 : -0.089486040175, Q4 : 0.390007793903}
2019-04-14 17:04:26.21: SIM {TimeUS : 55834324, Roll : -0.78, Pitch : -12.88, Yaw : 54.34, Alt : 49.2700004578, Lat : 49.2835822, Lng : -123.1149926, Q1 : 0.884351432323, Q2 : 0.0451978631318, Q3 : -0.102900512516, Q4 : 0.453090667725}
2019-04-14 17:04:26.31: SIM {TimeUS : 55934284, Roll : -3.9, Pitch : -13.07, Yaw : 61.47, Alt : 49.2700004578, Lat : 49.2835831, Lng : -123.1149902, Q1 : 0.855402886868, Q2 : 0.0290974974632, Q3 : -0.115124583244, Q4 : 0.504168212414}
2019-04-14 17:04:26.41: SIM {TimeUS : 56034244, Roll : -6.43, Pitch : -12.88, Yaw : 66.69, Alt : 49.2700004578, Lat : 49.2835841, Lng : -123.1149877, Q1 : 0.832226097584, Q2 : 0.0150191746652, Q3 : -0.124236322939, Q4 : 0.540129184723}
2019-04-14 17:04:26.51: SIM {TimeUS : 56134204, Roll : -7.95, Pitch : -12.61, Yaw : 69.81, Alt : 49.2700004578, Lat : 49.2835852, Lng : -123.1149852, Q1 : 0.817520320415, Q2 : 0.00614678114653, Q3 : -0.129303231835, Q4 : 0.561162590981}
2019-04-14 17:04:26.61: SIM {TimeUS : 56234164, Roll : -8.39, Pitch : -12.49, Yaw : 71.01, Alt : 49.2700004578, Lat : 49.2835865, Lng : -123.1149826, Q1 : 0.811686813831, Q2 : 0.00377500080504, Q3 : -0.130590692163, Q4 : 0.569294631481}
2019-04-14 17:04:26.71: SIM {TimeUS : 56334124, Roll : -7.91, Pitch : -12.64, Yaw : 70.62, Alt : 49.2700004578, Lat : 49.2835878, Lng : -123.1149799, Q1 : 0.813523769379, Q2 : 0.00751490658149, Q3 : -0.129328101873, Q4 : 0.566918730736}
2019-04-14 17:04:26.81: SIM {TimeUS : 56434084, Roll : -6.74, Pitch : -13.07, Yaw : 69.01, Alt : 49.2700004578, Lat : 49.2835891, Lng : -123.1149772, Q1 : 0.821083605289, Q2 : 0.0162015203387, Q3 : -0.126768007874, Q4 : 0.556317508221}
2019-04-14 17:04:26.91: SIM {TimeUS : 56534044, Roll : -5.1, Pitch : -13.71, Yaw : 66.53, Alt : 49.2700004578, Lat : 49.2835907, Lng : -123.1149745, Q1 : 0.832244217396, Q2 : 0.0284835882485, Q3 : -0.124012932181, Q4 : 0.539610147476}
2019-04-14 17:04:27.02: SIM {TimeUS : 56634837, Roll : -3.19, Pitch : -14.45, Yaw : 63.47, Alt : 49.2799987793, Lat : 49.2835922, Lng : -123.1149716, Q1 : 0.845240175724, Q2 : 0.0426242649555, Q3 : -0.121531657875, Q4 : 0.518635034561}
2019-04-14 17:04:27.11: SIM {TimeUS : 56734797, Roll : -1.25, Pitch : -15.12, Yaw : 60.19, Alt : 49.2799987793, Lat : 49.2835939, Lng : -123.1149687, Q1 : 0.858310699463, Q2 : 0.0566251650453, Q3 : -0.119328461587, Q4 : 0.495839744806}
2019-04-14 17:04:27.21: SIM {TimeUS : 56834757, Roll : 0.54, Pitch : -15.62, Yaw : 57.0, Alt : 49.2799987793, Lat : 49.2835956, Lng : -123.1149657, Q1 : 0.870301485062, Q2 : 0.0690264478326, Q3 : -0.117168419063, Q4 : 0.473373293877}
2019-04-14 17:04:27.31: SIM {TimeUS : 56934717, Roll : 2.03, Pitch : -15.87, Yaw : 54.23, Alt : 49.2799987793, Lat : 49.2835971, Lng : -123.1149626, Q1 : 0.8802754879, Q2 : 0.0785587653518, Q3 : -0.114865504205, Q4 : 0.453596204519}
2019-04-14 17:04:27.41: SIM {TimeUS : 57034677, Roll : 3.08, Pitch : -15.91, Yaw : 52.13, Alt : 49.2799987793, Lat : 49.2835989, Lng : -123.1149593, Q1 : 0.887682437897, Q2 : 0.0847673118114, Q3 : -0.11259944737, Q4 : 0.438355714083}
2019-04-14 17:04:27.51: SIM {TimeUS : 57134637, Roll : 3.64, Pitch : -15.84, Yaw : 50.8, Alt : 49.2799987793, Lat : 49.2836006, Lng : -123.1149559, Q1 : 0.892341315746, Q2 : 0.0876016095281, Q3 : -0.110944665968, Q4 : 0.428654015064}
2019-04-14 17:04:27.61: SIM {TimeUS : 57234597, Roll : 3.72, Pitch : -15.76, Yaw : 50.28, Alt : 49.2799987793, Lat : 49.2836022, Lng : -123.1149524, Q1 : 0.894344031811, Q2 : 0.0873725190759, Q3 : -0.110411867499, Q4 : 0.424645781517}
2019-04-14 17:04:27.71: SIM {TimeUS : 57334557, Roll : 3.38, Pitch : -15.72, Yaw : 50.47, Alt : 49.2799987793, Lat : 49.2836038, Lng : -123.1149487, Q1 : 0.893941879272, Q2 : 0.0847915410995, Q3 : -0.11122213304, Q4 : 0.425802737474}
2019-04-14 17:04:27.81: SIM {TimeUS : 57434517, Roll : 2.73, Pitch : -15.77, Yaw : 51.22, Alt : 49.2900009155, Lat : 49.2836055, Lng : -123.1149449, Q1 : 0.891521275043, Q2 : 0.0806198790669, Q3 : -0.113524407148, Q4 : 0.431048125029}
2019-04-14 17:04:27.91: SIM {TimeUS : 57534477, Roll : 1.89, Pitch : -15.9, Yaw : 52.37, Alt : 49.2900009155, Lat : 49.2836073, Lng : -123.1149411, Q1 : 0.887595057487, Q2 : 0.075699813664, Q3 : -0.116892836988, Q4 : 0.439067870378}
2019-04-14 17:04:28.01: SIM {TimeUS : 57634437, Roll : 0.98, Pitch : -16.05, Yaw : 53.72, Alt : 49.2900009155, Lat : 49.283609, Lng : -123.1149372, Q1 : 0.882774531841, Q2 : 0.0706921592355, Q3 : -0.120762296021, Q4 : 0.448473185301}
2019-04-14 17:04:28.11: SIM {TimeUS : 57734397, Roll : 0.12, Pitch : -16.2, Yaw : 55.09, Alt : 49.2900009155, Lat : 49.2836108, Lng : -123.1149332, Q1 : 0.877710223198, Q2 : 0.066125638783, Q3 : -0.12449541688, Q4 : 0.457988083363}
2019-04-14 17:04:28.21: SIM {TimeUS : 57834357, Roll : -0.59, Pitch : -16.32, Yaw : 56.32, Alt : 49.2900009155, Lat : 49.2836124, Lng : -123.1149291, Q1 : 0.873003125191, Q2 : 0.062485948205, Q3 : -0.127566441894, Q4 : 0.46657037735}
2019-04-14 17:04:28.31: SIM {TimeUS : 57934317, Roll : -1.11, Pitch : -16.41, Yaw : 57.31, Alt : 49.2900009155, Lat : 49.2836142, Lng : -123.114925, Q1 : 0.86912882328, Q2 : 0.0600293837488, Q3 : -0.129851922393, Q4 : 0.473444849253}
2019-04-14 17:04:28.41: SIM {TimeUS : 58034277, Roll : -1.42, Pitch : -16.47, Yaw : 57.99, Alt : 49.2900009155, Lat : 49.2836162, Lng : -123.1149208, Q1 : 0.866419970989, Q2 : 0.0587280839682, Q3 : -0.131273567677, Q4 : 0.478157609701}
2019-04-14 17:04:28.51: SIM {TimeUS : 58134237, Roll : -1.54, Pitch : -16.52, Yaw : 58.33, Alt : 49.2900009155, Lat : 49.283618, Lng : -123.1149166, Q1 : 0.865010797977, Q2 : 0.0584055967629, Q3 : -0.131940096617, Q4 : 0.480559021235}
2019-04-14 17:04:28.61: SIM {TimeUS : 58234197, Roll : -1.47, Pitch : -16.54, Yaw : 58.35, Alt : 49.2900009155, Lat : 49.2836199, Lng : -123.1149124, Q1 : 0.864850759506, Q2 : 0.0589956976473, Q3 : -0.131811350584, Q4 : 0.48081022501}
2019-04-14 17:04:28.71: SIM {TimeUS : 58334157, Roll : -1.24, Pitch : -16.54, Yaw : 58.12, Alt : 49.2900009155, Lat : 49.2836219, Lng : -123.1149081, Q1 : 0.865722358227, Q2 : 0.060462154448, Q3 : -0.131026938558, Q4 : 0.479271411896}
2019-04-14 17:04:28.81: SIM {TimeUS : 58434117, Roll : -0.93, Pitch : -16.55, Yaw : 57.69, Alt : 49.2900009155, Lat : 49.2836238, Lng : -123.1149037, Q1 : 0.867336273193, Q2 : 0.0623974166811, Q3 : -0.1300303936, Q4 : 0.476367950439}
2019-04-14 17:04:28.91: SIM {TimeUS : 58534077, Roll : -0.56, Pitch : -16.59, Yaw : 57.14, Alt : 49.2900009155, Lat : 49.2836258, Lng : -123.1148993, Q1 : 0.869347631931, Q2 : 0.0647322461009, Q3 : -0.129021942616, Q4 : 0.472649782896}
2019-04-14 17:04:29.01: SIM {TimeUS : 58634037, Roll : -0.16, Pitch : -16.61, Yaw : 56.56, Alt : 49.2900009155, Lat : 49.2836279, Lng : -123.1148949, Q1 : 0.871469259262, Q2 : 0.0671974942088, Q3 : -0.127949938178, Q4 : 0.468673318624}
2019-04-14 17:04:29.12: SIM {TimeUS : 58734830, Roll : 0.18, Pitch : -16.64, Yaw : 56.01, Alt : 49.2900009155, Lat : 49.2836299, Lng : -123.1148904, Q1 : 0.873473763466, Q2 : 0.0693899989128, Q3 : -0.127026468515, Q4 : 0.46485799551}
2019-04-14 17:04:29.21: SIM {TimeUS : 58834790, Roll : 0.44, Pitch : -16.68, Yaw : 55.55, Alt : 49.2900009155, Lat : 49.283632, Lng : -123.1148859, Q1 : 0.875128149986, Q2 : 0.0710498914123, Q3 : -0.12654979527, Q4 : 0.461614370346}
2019-04-14 17:04:29.31: SIM {TimeUS : 58934750, Roll : 0.6, Pitch : -16.73, Yaw : 55.21, Alt : 49.2900009155, Lat : 49.283634, Lng : -123.1148813, Q1 : 0.876342475414, Q2 : 0.0720935091376, Q3 : -0.126502260566, Q4 : 0.459155261517}
2019-04-14 17:04:29.41: SIM {TimeUS : 59034710, Roll : 0.67, Pitch : -16.79, Yaw : 55.0, Alt : 49.2900009155, Lat : 49.283636, Lng : -123.1148767, Q1 : 0.87705039978, Q2 : 0.0726106539369, Q3 : -0.126874759793, Q4 : 0.45761680603}
2019-04-14 17:04:29.51: SIM {TimeUS : 59134670, Roll : 0.64, Pitch : -16.85, Yaw : 54.93, Alt : 49.2900009155, Lat : 49.2836381, Lng : -123.1148721, Q1 : 0.877287864685, Q2 : 0.0725376084447, Q3 : -0.127468883991, Q4 : 0.457007646561}
2019-04-14 17:04:29.61: SIM {TimeUS : 59234630, Roll : 0.55, Pitch : -16.9, Yaw : 54.98, Alt : 49.2900009155, Lat : 49.2836402, Lng : -123.1148674, Q1 : 0.877116262913, Q2 : 0.072097659111, Q3 : -0.128172844648, Q4 : 0.457209676504}
2019-04-14 17:04:29.71: SIM {TimeUS : 59334590, Roll : 0.42, Pitch : -16.94, Yaw : 55.11, Alt : 49.2900009155, Lat : 49.2836422, Lng : -123.1148627, Q1 : 0.876627504826, Q2 : 0.0714314952493, Q3 : -0.128875777125, Q4 : 0.458053320646}
2019-04-14 17:04:29.81: SIM {TimeUS : 59434550, Roll : 0.28, Pitch : -16.96, Yaw : 55.3, Alt : 49.2900009155, Lat : 49.2836444, Lng : -123.1148579, Q1 : 0.875931739807, Q2 : 0.0706596747041, Q3 : -0.129517778754, Q4 : 0.459321141243}
2019-04-14 17:04:29.91: SIM {TimeUS : 59534510, Roll : 0.15, Pitch : -16.98, Yaw : 55.51, Alt : 49.2999992371, Lat : 49.2836464, Lng : -123.1148531, Q1 : 0.875134348869, Q2 : 0.0699801519513, Q3 : -0.130060017109, Q4 : 0.460789650679}
2019-04-14 17:04:30.01: SIM {TimeUS : 59634470, Roll : 0.04, Pitch : -17.01, Yaw : 55.72, Alt : 49.2999992371, Lat : 49.2836486, Lng : -123.1148483, Q1 : 0.874340474606, Q2 : 0.0694324225187, Q3 : -0.13060221076, Q4 : 0.462223857641}
2019-04-14 17:04:30.11: SIM {TimeUS : 59734430, Roll : -0.06, Pitch : -17.03, Yaw : 55.89, Alt : 49.2999992371, Lat : 49.2836507, Lng : -123.1148435, Q1 : 0.87364679575, Q2 : 0.0689660906792, Q3 : -0.131119087338, Q4 : 0.463457375765}
2019-04-14 17:04:30.21: SIM {TimeUS : 59834390, Roll : -0.13, Pitch : -17.06, Yaw : 56.03, Alt : 49.2999992371, Lat : 49.2836529, Lng : -123.1148386, Q1 : 0.873119115829, Q2 : 0.0686713680625, Q3 : -0.131520614028, Q4 : 0.464380919933}
2019-04-14 17:04:30.31: SIM {TimeUS : 59934350, Roll : -0.17, Pitch : -17.09, Yaw : 56.11, Alt : 49.2999992371, Lat : 49.2836551, Lng : -123.1148337, Q1 : 0.872790396214, Q2 : 0.0685469433665, Q3 : -0.131884634495, Q4 : 0.464913696051}
2019-04-14 17:04:30.41: SIM {TimeUS : 60034310, Roll : -0.2, Pitch : -17.13, Yaw : 56.13, Alt : 49.2999992371, Lat : 49.2836572, Lng : -123.1148288, Q1 : 0.872661888599, Q2 : 0.0685631334782, Q3 : -0.132257640362, Q4 : 0.465046554804}
2019-04-14 17:04:30.51: SIM {TimeUS : 60134270, Roll : -0.2, Pitch : -17.16, Yaw : 56.11, Alt : 49.2999992371, Lat : 49.2836594, Lng : -123.1148239, Q1 : 0.87273144722, Q2 : 0.0686346516013, Q3 : -0.132556408644, Q4 : 0.46482026577}
2019-04-14 17:04:30.61: SIM {TimeUS : 60234230, Roll : -0.19, Pitch : -17.19, Yaw : 56.04, Alt : 49.2999992371, Lat : 49.2836615, Lng : -123.1148189, Q1 : 0.872971355915, Q2 : 0.0687346979976, Q3 : -0.132737755775, Q4 : 0.46430298686}
2019-04-14 17:04:30.71: SIM {TimeUS : 60334190, Roll : -0.16, Pitch : -17.21, Yaw : 55.94, Alt : 49.2999992371, Lat : 49.2836638, Lng : -123.1148139, Q1 : 0.873318612576, Q2 : 0.0689416825771, Q3 : -0.132862389088, Q4 : 0.463582992554}
2019-04-14 17:04:30.81: SIM {TimeUS : 60434150, Roll : -0.11, Pitch : -17.25, Yaw : 55.83, Alt : 49.2999992371, Lat : 49.2836659, Lng : -123.1148089, Q1 : 0.873699605465, Q2 : 0.0693735554814, Q3 : -0.132963508368, Q4 : 0.462771087885}
2019-04-14 17:04:30.91: SIM {TimeUS : 60534110, Roll : -0.03, Pitch : -17.28, Yaw : 55.72, Alt : 49.3100013733, Lat : 49.2836682, Lng : -123.1148039, Q1 : 0.874078571796, Q2 : 0.0699111372232, Q3 : -0.132992312312, Q4 : 0.461965531111}
2019-04-14 17:04:31.01: SIM {TimeUS : 60634070, Roll : 0.04, Pitch : -17.31, Yaw : 55.61, Alt : 49.3100013733, Lat : 49.2836705, Lng : -123.1147989, Q1 : 0.87441599369, Q2 : 0.0705581903458, Q3 : -0.132975324988, Q4 : 0.461232870817}
2019-04-14 17:04:31.11: SIM {TimeUS : 60734030, Roll : 0.13, Pitch : -17.34, Yaw : 55.52, Alt : 49.3100013733, Lat : 49.2836726, Lng : -123.1147938, Q1 : 0.874693751335, Q2 : 0.071258969605, Q3 : -0.132911100984, Q4 : 0.460616618395}
2019-04-14 17:04:31.22: SIM {TimeUS : 60834823, Roll : 0.19, Pitch : -17.37, Yaw : 55.45, Alt : 49.3100013733, Lat : 49.2836749, Lng : -123.1147887, Q1 : 0.874905526638, Q2 : 0.0717622861266, Q3 : -0.132965520024, Q4 : 0.460120290518}
2019-04-14 17:04:31.31: SIM {TimeUS : 60934783, Roll : 0.2, Pitch : -17.39, Yaw : 55.4, Alt : 49.3100013733, Lat : 49.2836772, Lng : -123.1147836, Q1 : 0.875069260597, Q2 : 0.0718560218811, Q3 : -0.133103787899, Q4 : 0.459754139185}
2019-04-14 17:04:31.41: SIM {TimeUS : 61034743, Roll : 0.17, Pitch : -17.4, Yaw : 55.37, Alt : 49.3100013733, Lat : 49.2836795, Lng : -123.1147785, Q1 : 0.87517696619, Q2 : 0.071660540998, Q3 : -0.133301660419, Q4 : 0.459522306919}
2019-04-14 17:04:31.51: SIM {TimeUS : 61134703, Roll : 0.15, Pitch : -17.4, Yaw : 55.37, Alt : 49.3100013733, Lat : 49.2836816, Lng : -123.1147734, Q1 : 0.875218272209, Q2 : 0.0715137273073, Q3 : -0.133371502161, Q4 : 0.45944622159}
2019-04-14 17:04:31.61: SIM {TimeUS : 61234663, Roll : 0.13, Pitch : -17.41, Yaw : 55.37, Alt : 49.3100013733, Lat : 49.283684, Lng : -123.1147683, Q1 : 0.8751989007, Q2 : 0.0713983029127, Q3 : -0.133466660976, Q4 : 0.459473460913}
2019-04-14 17:04:31.71: SIM {TimeUS : 61334623, Roll : 0.13, Pitch : -17.44, Yaw : 55.39, Alt : 49.3100013733, Lat : 49.2836863, Lng : -123.1147631, Q1 : 0.875103056431, Q2 : 0.071518830955, Q3 : -0.133731603622, Q4 : 0.459560185671}
2019-04-14 17:04:31.81: SIM {TimeUS : 61434583, Roll : 0.13, Pitch : -17.5, Yaw : 55.41, Alt : 49.3199996948, Lat : 49.2836886, Lng : -123.1147579, Q1 : 0.87495136261, Q2 : 0.0717831924558, Q3 : -0.134214118123, Q4 : 0.459667146206}
2019-04-14 17:04:31.91: SIM {TimeUS : 61534543, Roll : 0.12, Pitch : -17.54, Yaw : 55.42, Alt : 49.3199996948, Lat : 49.2836908, Lng : -123.1147528, Q1 : 0.874832391739, Q2 : 0.0719103440642, Q3 : -0.134543597698, Q4 : 0.459777355194}
2019-04-14 17:04:32.01: SIM {TimeUS : 61634503, Roll : 0.11, Pitch : -17.55, Yaw : 55.44, Alt : 49.3199996948, Lat : 49.2836931, Lng : -123.1147476, Q1 : 0.874775469303, Q2 : 0.0718630850315, Q3 : -0.134614259005, Q4 : 0.459872335196}
2019-04-14 17:04:32.11: SIM {TimeUS : 61734463, Roll : 0.09, Pitch : -17.56, Yaw : 55.45, Alt : 49.3199996948, Lat : 49.2836955, Lng : -123.1147424, Q1 : 0.874746620655, Q2 : 0.0717356204987, Q3 : -0.134777337313, Q4 : 0.459899365902}
2019-04-14 17:04:32.21: SIM {TimeUS : 61834423, Roll : 0.06, Pitch : -17.58, Yaw : 55.45, Alt : 49.3199996948, Lat : 49.2836978, Lng : -123.1147371, Q1 : 0.874739825726, Q2 : 0.0716109871864, Q3 : -0.135089576244, Q4 : 0.459840148687}
2019-04-14 17:04:32.31: SIM {TimeUS : 61934383, Roll : 0.05, Pitch : -17.61, Yaw : 55.44, Alt : 49.3199996948, Lat : 49.2837001, Lng : -123.1147319, Q1 : 0.874760091305, Q2 : 0.0716254711151, Q3 : -0.135287418962, Q4 : 0.45974111557}
2019-04-14 17:04:32.41: SIM {TimeUS : 62034343, Roll : 0.05, Pitch : -17.62, Yaw : 55.42, Alt : 49.3199996948, Lat : 49.2837023, Lng : -123.1147267, Q1 : 0.874811291695, Q2 : 0.0716572105885, Q3 : -0.135456159711, Q4 : 0.459589004517}
2019-04-14 17:04:32.51: SIM {TimeUS : 62134303, Roll : 0.05, Pitch : -17.64, Yaw : 55.39, Alt : 49.3199996948, Lat : 49.2837047, Lng : -123.1147214, Q1 : 0.87488591671, Q2 : 0.0717378929257, Q3 : -0.135535672307, Q4 : 0.459410965443}
2019-04-14 17:04:32.61: SIM {TimeUS : 62234263, Roll : 0.07, Pitch : -17.66, Yaw : 55.36, Alt : 49.3199996948, Lat : 49.2837071, Lng : -123.1147162, Q1 : 0.874972760677, Q2 : 0.0719265192747, Q3 : -0.13561193645, Q4 : 0.459193497896}
2019-04-14 17:04:32.71: SIM {TimeUS : 62334223, Roll : 0.1, Pitch : -17.67, Yaw : 55.33, Alt : 49.3199996948, Lat : 49.2837094, Lng : -123.1147109, Q1 : 0.875076949596, Q2 : 0.0721284747124, Q3 : -0.135622799397, Q4 : 0.4589599967}
2019-04-14 17:04:32.81: SIM {TimeUS : 62434183, Roll : 0.13, Pitch : -17.68, Yaw : 55.3, Alt : 49.3199996948, Lat : 49.2837118, Lng : -123.1147056, Q1 : 0.875173807144, Q2 : 0.0723615512252, Q3 : -0.135630697012, Q4 : 0.458736300468}
2019-04-14 17:04:32.91: SIM {TimeUS : 62534143, Roll : 0.16, Pitch : -17.7, Yaw : 55.27, Alt : 49.3199996948, Lat : 49.2837142, Lng : -123.1147003, Q1 : 0.87524664402, Q2 : 0.0726573765278, Q3 : -0.135695338249, Q4 : 0.458531349897}
2019-04-14 17:04:33.01: SIM {TimeUS : 62634103, Roll : 0.17, Pitch : -17.73, Yaw : 55.24, Alt : 49.3199996948, Lat : 49.2837165, Lng : -123.114695, Q1 : 0.875311255455, Q2 : 0.0728364735842, Q3 : -0.135910183191, Q4 : 0.458315968513}
2019-04-14 17:04:33.11: SIM {TimeUS : 62734063, Roll : 0.15, Pitch : -17.77, Yaw : 55.22, Alt : 49.3199996948, Lat : 49.2837188, Lng : -123.1146897, Q1 : 0.875370264053, Q2 : 0.0728216096759, Q3 : -0.13624958694, Q4 : 0.458104759455}
2019-04-14 17:04:33.21: SIM {TimeUS : 62834023, Roll : 0.14, Pitch : -17.81, Yaw : 55.2, Alt : 49.3199996948, Lat : 49.2837211, Lng : -123.1146843, Q1 : 0.875405967236, Q2 : 0.0728426724672, Q3 : -0.136622264981, Q4 : 0.45792222023}
2019-04-14 17:04:33.31: SIM {TimeUS : 62934816, Roll : 0.15, Pitch : -17.84, Yaw : 55.19, Alt : 49.3199996948, Lat : 49.2837235, Lng : -123.114679, Q1 : 0.87542361021, Q2 : 0.0729924589396, Q3 : -0.136850684881, Q4 : 0.457796394825}
2019-04-14 17:04:33.41: SIM {TimeUS : 63034776, Roll : 0.17, Pitch : -17.84, Yaw : 55.17, Alt : 49.3300018311, Lat : 49.2837259, Lng : -123.1146737, Q1 : 0.875450730324, Q2 : 0.0731554254889, Q3 : -0.136801153421, Q4 : 0.457733303308}
2019-04-14 17:04:33.51: SIM {TimeUS : 63134736, Roll : 0.18, Pitch : -17.82, Yaw : 55.17, Alt : 49.3300018311, Lat : 49.2837284, Lng : -123.1146683, Q1 : 0.87550675869, Q2 : 0.0731245651841, Q3 : -0.136549070477, Q4 : 0.457706272602}
2019-04-14 17:04:33.61: SIM {TimeUS : 63234696, Roll : 0.17, Pitch : -17.8, Yaw : 55.16, Alt : 49.3300018311, Lat : 49.2837308, Lng : -123.1146629, Q1 : 0.87555128336, Q2 : 0.0729822590947, Q3 : -0.136429041624, Q4 : 0.457679688931}
2019-04-14 17:04:33.71: SIM {TimeUS : 63334656, Roll : 0.15, Pitch : -17.79, Yaw : 55.16, Alt : 49.3300018311, Lat : 49.2837332, Lng : -123.1146576, Q1 : 0.875587642193, Q2 : 0.0728093907237, Q3 : -0.136419162154, Q4 : 0.457640618086}
2019-04-14 17:04:33.81: SIM {TimeUS : 63434616, Roll : 0.15, Pitch : -17.78, Yaw : 55.15, Alt : 49.3300018311, Lat : 49.2837356, Lng : -123.1146522, Q1 : 0.875618100166, Q2 : 0.0727171525359, Q3 : -0.136419028044, Q4 : 0.457597106695}
2019-04-14 17:04:33.91: SIM {TimeUS : 63534576, Roll : 0.14, Pitch : -17.79, Yaw : 55.15, Alt : 49.3300018311, Lat : 49.283738, Lng : -123.1146468, Q1 : 0.875633358955, Q2 : 0.0727122277021, Q3 : -0.136551842093, Q4 : 0.457528948784}
2019-04-14 17:04:34.01: SIM {TimeUS : 63634536, Roll : 0.14, Pitch : -17.81, Yaw : 55.14, Alt : 49.3300018311, Lat : 49.2837404, Lng : -123.1146414, Q1 : 0.875641465187, Q2 : 0.0727888271213, Q3 : -0.136710807681, Q4 : 0.457453787327}
2019-04-14 17:04:34.11: SIM {TimeUS : 63734496, Roll : 0.14, Pitch : -17.85, Yaw : 55.13, Alt : 49.3300018311, Lat : 49.2837428, Lng : -123.114636, Q1 : 0.875635445118, Q2 : 0.0729013606906, Q3 : -0.13702391088, Q4 : 0.457353770733}
2019-04-14 17:04:34.21: SIM {TimeUS : 63834456, Roll : 0.13, Pitch : -17.9, Yaw : 55.12, Alt : 49.3300018311, Lat : 49.2837452, Lng : -123.1146306, Q1 : 0.875616431236, Q2 : 0.0730844512582, Q3 : -0.137418344617, Q4 : 0.45724260807}
2019-04-14 17:04:34.31: SIM {TimeUS : 63934416, Roll : 0.14, Pitch : -17.94, Yaw : 55.11, Alt : 49.3300018311, Lat : 49.2837476, Lng : -123.1146252, Q1 : 0.875612318516, Q2 : 0.0732771828771, Q3 : -0.137680023909, Q4 : 0.457140833139}
2019-04-14 17:04:34.41: SIM {TimeUS : 64034376, Roll : 0.13, Pitch : -17.97, Yaw : 55.09, Alt : 49.3300018311, Lat : 49.28375, Lng : -123.1146197, Q1 : 0.875634491444, Q2 : 0.0733198449016, Q3 : -0.137943401933, Q4 : 0.457012116909}
2019-04-14 17:04:34.51: SIM {TimeUS : 64134336, Roll : 0.13, Pitch : -17.99, Yaw : 55.08, Alt : 49.3300018311, Lat : 49.2837524, Lng : -123.1146143, Q1 : 0.875671446323, Q2 : 0.0733244046569, Q3 : -0.138138279319, Q4 : 0.456881701946}
2019-04-14 17:04:34.61: SIM {TimeUS : 64234296, Roll : 0.14, Pitch : -17.98, Yaw : 55.07, Alt : 49.3300018311, Lat : 49.2837547, Lng : -123.1146089, Q1 : 0.87573570013, Q2 : 0.0733498781919, Q3 : -0.138052627444, Q4 : 0.456780314445}
2019-04-14 17:04:34.71: SIM {TimeUS : 64334256, Roll : 0.16, Pitch : -17.98, Yaw : 55.05, Alt : 49.3300018311, Lat : 49.2837571, Lng : -123.1146034, Q1 : 0.875786721706, Q2 : 0.0734898298979, Q3 : -0.137996554375, Q4 : 0.456676989794}
2019-04-14 17:04:34.81: SIM {TimeUS : 64434216, Roll : 0.17, Pitch : -18.0, Yaw : 55.03, Alt : 49.3300018311, Lat : 49.2837597, Lng : -123.114598, Q1 : 0.875827789307, Q2 : 0.0736097916961, Q3 : -0.138074889779, Q4 : 0.456555187702}
2019-04-14 17:04:34.91: SIM {TimeUS : 64534176, Roll : 0.18, Pitch : -18.01, Yaw : 55.02, Alt : 49.3400001526, Lat : 49.283762, Lng : -123.1145925, Q1 : 0.875871658325, Q2 : 0.0737010613084, Q3 : -0.138099431992, Q4 : 0.456448882818}
2019-04-14 17:04:35.01: SIM {TimeUS : 64634136, Roll : 0.19, Pitch : -18.0, Yaw : 55.0, Alt : 49.3400001526, Lat : 49.2837644, Lng : -123.1145871, Q1 : 0.875923871994, Q2 : 0.0737394317985, Q3 : -0.1380186975, Q4 : 0.456366837025}
2019-04-14 17:04:35.11: SIM {TimeUS : 64734096, Roll : 0.19, Pitch : -17.99, Yaw : 54.99, Alt : 49.3400001526, Lat : 49.283767, Lng : -123.1145816, Q1 : 0.875969707966, Q2 : 0.0737368986011, Q3 : -0.137971878052, Q4 : 0.456293493509}
2019-04-14 17:04:35.21: SIM {TimeUS : 64834056, Roll : 0.18, Pitch : -18.01, Yaw : 54.99, Alt : 49.3400001526, Lat : 49.2837694, Lng : -123.1145761, Q1 : 0.875996649265, Q2 : 0.0736719146371, Q3 : -0.138148382306, Q4 : 0.456198811531}
2019-04-14 17:04:35.32: SIM {TimeUS : 64934849, Roll : 0.15, Pitch : -18.04, Yaw : 54.98, Alt : 49.3400001526, Lat : 49.2837719, Lng : -123.1145706, Q1 : 0.876005828381, Q2 : 0.0736087188125, Q3 : -0.138468176126, Q4 : 0.456094384193}
2019-04-14 17:04:35.41: SIM {TimeUS : 65034809, Roll : 0.14, Pitch : -18.04, Yaw : 54.97, Alt : 49.3400001526, Lat : 49.2837743, Lng : -123.1145651, Q1 : 0.876037240028, Q2 : 0.073501303792, Q3 : -0.138545557857, Q4 : 0.45602786541}
2019-04-14 17:04:35.51: SIM {TimeUS : 65134769, Roll : 0.15, Pitch : -18.02, Yaw : 54.97, Alt : 49.3400001526, Lat : 49.2837768, Lng : -123.1145597, Q1 : 0.876074552536, Q2 : 0.0735058709979, Q3 : -0.138371169567, Q4 : 0.456008404493}
2019-04-14 17:04:35.61: SIM {TimeUS : 65234729, Roll : 0.17, Pitch : -18.01, Yaw : 54.96, Alt : 49.3400001526, Lat : 49.2837792, Lng : -123.1145542, Q1 : 0.876101851463, Q2 : 0.0735815018415, Q3 : -0.138218834996, Q4 : 0.45599001646}
2019-04-14 17:04:35.71: SIM {TimeUS : 65334689, Roll : 0.17, Pitch : -18.03, Yaw : 54.95, Alt : 49.3400001526, Lat : 49.2837817, Lng : -123.1145487, Q1 : 0.876108407974, Q2 : 0.0736755356193, Q3 : -0.138302475214, Q4 : 0.45593687892}
2019-04-14 17:04:35.81: SIM {TimeUS : 65434649, Roll : 0.16, Pitch : -18.05, Yaw : 54.95, Alt : 49.3400001526, Lat : 49.2837841, Lng : -123.1145432, Q1 : 0.876118063927, Q2 : 0.0736509859562, Q3 : -0.138548478484, Q4 : 0.455847620964}
2019-04-14 17:04:35.91: SIM {TimeUS : 65534609, Roll : 0.13, Pitch : -18.08, Yaw : 54.94, Alt : 49.3400001526, Lat : 49.2837866, Lng : -123.1145377, Q1 : 0.876131892204, Q2 : 0.0735345035791, Q3 : -0.138872250915, Q4 : 0.455741256475}
2019-04-14 17:04:36.01: SIM {TimeUS : 65634569, Roll : 0.12, Pitch : -18.1, Yaw : 54.93, Alt : 49.3400001526, Lat : 49.283789, Lng : -123.1145322, Q1 : 0.876155614853, Q2 : 0.0734899565578, Q3 : -0.139082729816, Q4 : 0.455638587475}
2019-04-14 17:04:36.11: SIM {TimeUS : 65734529, Roll : 0.12, Pitch : -18.11, Yaw : 54.92, Alt : 49.3400001526, Lat : 49.2837915, Lng : -123.1145267, Q1 : 0.876173853874, Q2 : 0.0735751390457, Q3 : -0.139216914773, Q4 : 0.455548763275}
2019-04-14 17:04:36.21: SIM {TimeUS : 65834489, Roll : 0.14, Pitch : -18.12, Yaw : 54.91, Alt : 49.3400001526, Lat : 49.283794, Lng : -123.1145211, Q1 : 0.87619048357, Q2 : 0.073727838695, Q3 : -0.139243975282, Q4 : 0.455483883619}
