2019-04-14 17:00:29.70: SIM {TimeUS : 40516287, Roll : 0.0, Pitch : 0.0, Yaw : 0.0, Alt : 30.1000003815, Lat : 49.28357, Lng : -123.11502, Q1 : 1.0, Q2 : 0.0, Q3 : 0.0, Q4 : 0.0}
2019-04-14 17:00:29.81: SIM {TimeUS : 40635406, Roll : 0.0, Pitch : 0.0, Yaw : 0.0, Alt : 30.1000003815, Lat : 49.28357, Lng : -123.11502, Q1 : 1.0, Q2 : 0.0, Q3 : 0.0, Q4 : 0.0}
2019-04-14 17:00:29.91: SIM {TimeUS : 40735366, Roll : 0.0, Pitch : 0.0, Yaw : 0.0, Alt : 30.1000003815, Lat : 49.28357, Lng : -123.11502, Q1 : 1.0, Q2 : 0.0, Q3 : 0.0, Q4 : 0.0}
2019-04-14 17:00:30.01: SIM {TimeUS : 40835326, Roll : 0.0, Pitch : 0.0, Yaw : 0.0, Alt : 30.1000003815, Lat : 49.28357, Lng : -123.11502, Q1 : 1.0, Q2 : 0.0, Q3 : 0.0, Q4 : 0.0}
2019-04-14 17:00:30.11: SIM {TimeUS : 40935286, Roll : 0.0, Pitch : 0.0, Yaw : 0.0, Alt : 30.1000003815, Lat : 49.28357, Lng : -123.11502, Q1 : 1.0, Q2 : 0.0, Q3 : 0.0, Q4 : 0.0}
2019-04-14 17:00:30.21: SIM {TimeUS : 41035246, Roll : 0.0, Pitch : 0.0, Yaw : 0.0, Alt : 30.1000003815, Lat : 49.28357, Lng : -123.11502, Q1 : 1.0, Q2 : 0.0, Q3 : 0.0, Q4 : 0.0}
2019-04-14 17:00:30.31: SIM {TimeUS : 41135206, Roll : 0.0, Pitch : 0.0, Yaw : 0.0, Alt : 30.1000003815, Lat : 49.28357, Lng : -123.11502, Q1 : 1.0, Q2 : 0.0, Q3 : 0.0, Q4 : 0.0}
2019-04-14 17:00:30.41: SIM {TimeUS : 41235166, Roll : 0.0, Pitch : 0.0, Yaw : 0.0, Alt : 30.1000003815, Lat : 49.28357, Lng : -123.11502, Q1 : 1.0, Q2 : 0.0, Q3 : 0.0, Q4 : 0.0}
2019-04-14 17:00:30.51: SIM {TimeUS : 41335126, Roll : 0.0, Pitch : 0.0, Yaw : 0.0, Alt : 30.1000003815, Lat : 49.28357, Lng : -123.11502, Q1 : 1.0, Q2 : 0.0, Q3 : 0.0, Q4 : 0.0}
2019-04-14 17:00:30.61: SIM {TimeUS : 41435086, Roll : 0.0, Pitch : 0.0, Yaw : 0.0, Alt : 30.1000003815, Lat : 49.28357, Lng : -123.11502, Q1 : 1.0, Q2 : 0.0, Q3 : 0.0, Q4 : 0.0}
2019-04-14 17:00:30.71: SIM {TimeUS : 41535046, Roll : 0.0, Pitch : 0.0, Yaw : 0.0, Alt : 30.1000003815, Lat : 49.28357, Lng : -123.11502, Q1 : 1.0, Q2 : 0.0, Q3 : 0.0, Q4 : 0.0}
2019-04-14 17:00:30.81: SIM {TimeUS : 41635006, Roll : 0.0, Pitch : 0.0, Yaw : 0.0, Alt : 30.1000003815, Lat : 49.28357, Lng : -123.11502, Q1 : 1.0, Q2 : 0.0, Q3 : 0.0, Q4 : 0.0}
2019-04-14 17:00:30.91: SIM {TimeUS : 41734966, Roll : 0.0, Pitch : 0.0, Yaw : 0.0, Alt : 30.1000003815, Lat : 49.28357, Lng : -123.11502, Q1 : 1.0, Q2 : 0.0, Q3 : 0.0, Q4 : 0.0}
2019-04-14 17:00:31.01: SIM {TimeUS : 41834926, Roll : 0.0, Pitch : 0.0, Yaw : 0.0, Alt : 30.1000003815, Lat : 49.28357, Lng : -123.11502, Q1 : 1.0, Q2 : 0.0, Q3 : 0.0, Q4 : 0.0}
2019-04-14 17:00:31.11: SIM {TimeUS : 41934886, Roll : 0.0, Pitch : 0.0, Yaw : 0.0, Alt : 30.1000003815, Lat : 49.28357, Lng : -123.11502, Q1 : 1.0, Q2 : 0.0, Q3 : 0.0, Q4 : 0.0}
2019-04-14 17:00:31.21: SIM {TimeUS : 42034846, Roll : 0.0, Pitch : 0.0, Yaw : 0.0, Alt : 30.1000003815, Lat : 49.28357, Lng : -123.11502, Q1 : 1.0, Q2 : 0.0, Q3 : 0.0, Q4 : 0.0}
2019-04-14 17:00:31.31: SIM {TimeUS : 42134806, Roll : 0.0, Pitch : 0.0, Yaw : 0.0, Alt : 30.1000003815, Lat : 49.28357, Lng : -123.11502, Q1 : 1.0, Q2 : 0.0, Q3 : 0.0, Q4 : 0.0}
2019-04-14 17:00:31.41: SIM {TimeUS : 42234766, Roll : 0.0, Pitch : 0.0, Yaw : 0.0, Alt : 30.1000003815, Lat : 49.28357, Lng : -123.11502, Q1 : 1.0, Q2 : 0.0, Q3 : 0.0, Q4 : 0.0}
2019-04-14 17:00:31.51: SIM {TimeUS : 42334726, Roll : 0.0, Pitch : 0.0, Yaw : 0.0, Alt : 30.1000003815, Lat : 49.28357, Lng : -123.11502, Q1 : 1.0, Q2 : 0.0, Q3 : 0.0, Q4 : 0.0}
2019-04-14 17:00:31.61: SIM {TimeUS : 42434686, Roll : 0.0, Pitch : 0.0, Yaw : 0.0, Alt : 30.1000003815, Lat : 49.28357, Lng : -123.11502, Q1 : 1.0, Q2 : 0.0, Q3 : 0.0, Q4 : 0.0}
2019-04-14 17:00:31.71: SIM {TimeUS : 42534646, Roll : 0.0, Pitch : 0.0, Yaw : 0.0, Alt : 30.1000003815, Lat : 49.28357, Lng : -123.11502, Q1 : 1.0, Q2 : 0.0, Q3 : 0.0, Q4 : 0.0}
2019-04-14 17:00:31.82: SIM {TimeUS : 42635439, Roll : 0.0, Pitch : 0.0, Yaw : 0.0, Alt : 30.1000003815, Lat : 49.28357, Lng : -123.11502, Q1 : 1.0, Q2 : 0.0, Q3 : 0.0, Q4 : 0.0}
2019-04-14 17:00:31.91: SIM {TimeUS : 42735399, Roll : 0.0, Pitch : 0.0, Yaw : 0.0, Alt : 30.1000003815, Lat : 49.28357, Lng : -123.11502, Q1 : 1.0, Q2 : 0.0, Q3 : 0.0, Q4 : 0.0}
2019-04-14 17:00:32.01: SIM {TimeUS : 42835359, Roll : 0.0, Pitch : 0.0, Yaw : 0.0, Alt : 30.1000003815, Lat : 49.28357, Lng : -123.11502, Q1 : 1.0, Q2 : 0.0, Q3 : 0.0, Q4 : 3.50114867653e-11}
2019-04-14 17:00:32.11: SIM {TimeUS : 42935319, Roll : 0.0, Pitch : 0.0, Yaw : 360.0, Alt : 30.1000003815, Lat : 49.28357, Lng : -123.11502, Q1 : 1.0, Q2 : 0.0, Q3 : 0.0, Q4 : -1.62090429967e-08}
2019-04-14 17:00:32.21: SIM {TimeUS : 43035279, Roll : 0.0, Pitch : 0.0, Yaw : 359.99, Alt : 30.1000003815, Lat : 49.28357, Lng : -123.11502, Q1 : 1.0, Q2 : 0.0, Q3 : 0.0, Q4 : -2.03575766022e-07}
2019-04-14 17:00:32.31: SIM {TimeUS : 43135239, Roll : 0.0, Pitch : 0.0, Yaw : 359.99, Alt : 30.1000003815, Lat : 49.28357, Lng : -123.11502, Q1 : 1.0, Q2 : 0.0, Q3 : 0.0, Q4 : -3.7268139863e-07}
2019-04-14 17:00:32.41: SIM {TimeUS : 43235199, Roll : 0.0, Pitch : 0.0, Yaw : 359.99, Alt : 30.1000003815, Lat : 49.28357, Lng : -123.11502, Q1 : 1.0, Q2 : 0.0, Q3 : 0.0, Q4 : -5.57786393074e-07}
2019-04-14 17:00:32.51: SIM {TimeUS : 43335159, Roll : 0.0, Pitch : 0.0, Yaw : 359.99, Alt : 30.1000003815, Lat : 49.28357, Lng : -123.11502, Q1 : 1.0, Q2 : 0.0, Q3 : 0.0, Q4 : -7.42264376186e-07}
2019-04-14 17:00:32.61: SIM {TimeUS : 43435119, Roll : 0.0, Pitch : 0.0, Yaw : 359.99, Alt : 30.1000003815, Lat : 49.28357, Lng : -123.11502, Q1 : 1.0, Q2 : 0.0, Q3 : 0.0, Q4 : -9.31252600367e-07}
2019-04-14 17:00:32.71: SIM {TimeUS : 43535079, Roll : 0.0, Pitch : 0.0, Yaw : 359.99, Alt : 30.1000003815, Lat : 49.28357, Lng : -123.11502, Q1 : 1.0, Q2 : 0.0, Q3 : 0.0, Q4 : -1.17745025818e-06}
2019-04-14 17:00:32.81: SIM {TimeUS : 43635039, Roll : 0.0, Pitch : 0.0, Yaw : 359.99, Alt : 30.1000003815, Lat : 49.28357, Lng : -123.11502, Q1 : 1.0, Q2 : 0.0, Q3 : 0.0, Q4 : -1.36348319302e-06}
2019-04-14 17:00:32.91: SIM {TimeUS : 43734999, Roll : 0.0, Pitch : 0.0, Yaw : 359.99, Alt : 30.1200008392, Lat : 49.28357, Lng : -123.11502, Q1 : 1.0, Q2 : 0.0, Q3 : 0.0, Q4 : -1.55095165155e-06}
2019-04-14 17:00:33.01: SIM {TimeUS : 43834959, Roll : 0.0, Pitch : 0.0, Yaw : 359.99, Alt : 30.1399993896, Lat : 49.28357, Lng : -123.11502, Q1 : 1.0, Q2 : 0.0, Q3 : 0.0, Q4 : -1.77526783318e-06}
2019-04-14 17:00:33.11: SIM {TimeUS : 43934919, Roll : 0.0, Pitch : 0.0, Yaw : 359.99, Alt : 30.1800003052, Lat : 49.28357, Lng : -123.11502, Q1 : 1.0, Q2 : 0.0, Q3 : 0.0, Q4 : -1.99844885174e-06}
2019-04-14 17:00:33.21: SIM {TimeUS : 44034879, Roll : 0.0, Pitch : 0.0, Yaw : 359.99, Alt : 30.2099990845, Lat : 49.28357, Lng : -123.11502, Q1 : 1.0, Q2 : -8.27413714433e-06, Q3 : -7.33499473426e-06, Q4 : -2.26201973419e-06}
2019-04-14 17:00:33.31: SIM {TimeUS : 44134839, Roll : -0.19, Pitch : -0.17, Yaw : 359.99, Alt : 30.2700004578, Lat : 49.28357, Lng : -123.11502, Q1 : 0.999997437, Q2 : -0.00168417987879, Q3 : -0.00150889286306, Q4 : -1.52977409016e-05}
2019-04-14 17:00:33.41: SIM {TimeUS : 44234799, Roll : -0.52, Pitch : -0.45, Yaw : 359.99, Alt : 30.3899993896, Lat : 49.28357, Lng : -123.11502, Q1 : 0.999981462955, Q2 : -0.00461591873318, Q3 : -0.00397511292249, Q4 : -5.77086830162e-05}
2019-04-14 17:00:33.51: SIM {TimeUS : 44334759, Roll : -0.79, Pitch : -0.67, Yaw : 359.98, Alt : 30.5400009155, Lat : 49.28357, Lng : -123.11502, Q1 : 0.999958217144, Q2 : -0.00696885259822, Q3 : -0.00591655494645, Q4 : -0.00012972264085}
2019-04-14 17:00:33.61: SIM {TimeUS : 44434719, Roll : -0.88, Pitch : -0.77, Yaw : 359.98, Alt : 30.7000007629, Lat : 49.28357, Lng : -123.11502, Q1 : 0.999947309494, Q2 : -0.00772262178361, Q3 : -0.00676009245217, Q4 : -0.000216860309592}
2019-04-14 17:00:33.71: SIM {TimeUS : 44534679, Roll : -0.8, Pitch : -0.72, Yaw : 359.96, Alt : 30.8500003815, Lat : 49.28357, Lng : -123.1150201, Q1 : 0.999955296516, Q2 : -0.00701380474493, Q3 : -0.00633227545768, Q4 : -0.000311302603222}
2019-04-14 17:00:33.81: SIM {TimeUS : 44634639, Roll : -0.62, Pitch : -0.56, Yaw : 359.95, Alt : 31.0100002289, Lat : 49.28357, Lng : -123.1150201, Q1 : 0.999972641468, Q2 : -0.0054899030365, Q3 : -0.00494263786823, Q4 : -0.00039836418}
2019-04-14 17:00:33.92: SIM {TimeUS : 44735432, Roll : -0.4, Pitch : -0.35, Yaw : 359.94, Alt : 31.1599998474, Lat : 49.2835701, Lng : -123.1150202, Q1 : 0.999988734722, Q2 : -0.00353387510404, Q3 : -0.00313169369474, Q4 : -0.000471405946882}
2019-04-14 17:00:34.01: SIM {TimeUS : 44835392, Roll : -0.19, Pitch : -0.16, Yaw : 359.93, Alt : 31.3199996948, Lat : 49.2835701, Lng : -123.1150203, Q1 : 0.999997377396, Q2 : -0.00166972191073, Q3 : -0.00147817726247, Q4 : -0.000526573741809}
2019-04-14 17:00:34.11: SIM {TimeUS : 44935352, Roll : -0.03, Pitch : -0.03, Yaw : 359.93, Alt : 31.4899997711, Lat : 49.2835702, Lng : -123.1150204, Q1 : 0.999999761581, Q2 : -0.000276860257145, Q3 : -0.000275243801298, Q4 : -0.0005616605049}
2019-04-14 17:00:34.21: SIM {TimeUS : 45035312, Roll : 0.06, Pitch : 0.03, Yaw : 359.93, Alt : 31.6700000763, Lat : 49.2835702, Lng : -123.1150204, Q1 : 0.999999642372, Q2 : 0.000551035627723, Q3 : 0.00030526611954, Q4 : -0.000571232987568}
2019-04-14 17:00:34.31: SIM {TimeUS : 45135272, Roll : 0.1, Pitch : 0.05, Yaw : 359.93, Alt : 31.8500003815, Lat : 49.2835703, Lng : -123.1150205, Q1 : 0.999999344349, Q2 : 0.000891432631761, Q3 : 0.000454199442174, Q4 : -0.000558008207008}
2019-04-14 17:00:34.41: SIM {TimeUS : 45235232, Roll : 0.09, Pitch : 0.05, Yaw : 359.93, Alt : 32.0299987793, Lat : 49.2835703, Lng : -123.1150206, Q1 : 0.999999403954, Q2 : 0.000827084761113, Q3 : 0.000461255403934, Q4 : -0.000540874549188}
2019-04-14 17:00:34.51: SIM {TimeUS : 45335192, Roll : 0.07, Pitch : 0.05, Yaw : 359.94, Alt : 32.2200012207, Lat : 49.2835703, Lng : -123.1150206, Q1 : 0.999999523163, Q2 : 0.000691587803885, Q3 : 0.000510381709319, Q4 : -0.000522718706634}
2019-04-14 17:00:34.61: SIM {TimeUS : 45435152, Roll : 0.05, Pitch : 0.07, Yaw : 359.94, Alt : 32.4099998474, Lat : 49.2835703, Lng : -123.1150207, Q1 : 0.999999523163, Q2 : 0.000514973537065, Q3 : 0.000665529572871, Q4 : -0.000503145100083}
2019-04-14 17:00:34.71: SIM {TimeUS : 45535112, Roll : 0.07, Pitch : 0.1, Yaw : 359.94, Alt : 32.5999984741, Lat : 49.2835703, Lng : -123.1150207, Q1 : 0.99999922514, Q2 : 0.000614493677858, Q3 : 0.000950058689341, Q4 : -0.000482782750623}
2019-04-14 17:00:34.81: SIM {TimeUS : 45635072, Roll : 0.1, Pitch : 0.13, Yaw : 359.94, Alt : 32.7999992371, Lat : 49.2835703, Lng : -123.1150208, Q1 : 0.999998807907, Q2 : 0.000917789002415, Q3 : 0.00116890203208, Q4 : -0.000465773948235}
2019-04-14 17:00:34.91: SIM {TimeUS : 45735032, Roll : 0.13, Pitch : 0.15, Yaw : 359.94, Alt : 33.0, Lat : 49.2835704, Lng : -123.1150208, Q1 : 0.999998271465, Q2 : 0.00118295475841, Q3 : 0.0013711504871, Q4 : -0.000450741092209}
2019-04-14 17:00:35.01: SIM {TimeUS : 45834992, Roll : 0.15, Pitch : 0.17, Yaw : 359.95, Alt : 33.2000007629, Lat : 49.2835704, Lng : -123.1150208, Q1 : 0.999997735023, Q2 : 0.00134659442119, Q3 : 0.00156802730635, Q4 : -0.00043826532783}
2019-04-14 17:00:35.11: SIM {TimeUS : 45934952, Roll : 0.16, Pitch : 0.17, Yaw : 359.95, Alt : 33.4000015259, Lat : 49.2835704, Lng : -123.1150208, Q1 : 0.999997675419, Q2 : 0.00144569098484, Q3 : 0.00152165687177, Q4 : -0.00042627681978}
2019-04-14 17:00:35.21: SIM {TimeUS : 46034912, Roll : 0.16, Pitch : 0.13, Yaw : 359.95, Alt : 33.6100006104, Lat : 49.2835704, Lng : -123.1150209, Q1 : 0.999998152256, Q2 : 0.00146762107033, Q3 : 0.00116878945846, Q4 : -0.000436668749899}
2019-04-14 17:00:35.31: SIM {TimeUS : 46134872, Roll : 0.16, Pitch : 0.11, Yaw : 359.94, Alt : 33.8199996948, Lat : 49.2835704, Lng : -123.1150209, Q1 : 0.999998390675, Q2 : 0.00143825425766, Q3 : 0.000970978289843, Q4 : -0.000444420176791}
2019-04-14 17:00:35.41: SIM {TimeUS : 46234832, Roll : 0.15, Pitch : 0.1, Yaw : 359.94, Alt : 34.0200004578, Lat : 49.2835704, Lng : -123.1150209, Q1 : 0.999998509884, Q2 : 0.00138468388468, Q3 : 0.00095888733631, Q4 : -0.000469713355415}
2019-04-14 17:00:35.51: SIM {TimeUS : 46334792, Roll : 0.15, Pitch : 0.11, Yaw : 359.94, Alt : 34.2299995422, Lat : 49.2835704, Lng : -123.1150209, Q1 : 0.999998390675, Q2 : 0.00137681001797, Q3 : 0.00101922475733, Q4 : -0.000506952404976}
2019-04-14 17:00:35.61: SIM {TimeUS : 46434752, Roll : 0.14, Pitch : 0.1, Yaw : 359.93, Alt : 34.4500007629, Lat : 49.2835704, Lng : -123.1150209, Q1 : 0.999998629093, Q2 : 0.00127118825912, Q3 : 0.000902255589608, Q4 : -0.000537715037353}
2019-04-14 17:00:35.71: SIM {TimeUS : 46534712, Roll : 0.12, Pitch : 0.08, Yaw : 359.93, Alt : 34.6599998474, Lat : 49.2835704, Lng : -123.1150208, Q1 : 0.999998986721, Q2 : 0.00107386719901, Q3 : 0.000764279393479, Q4 : -0.000564697547816}
2019-04-14 17:00:35.81: SIM {TimeUS : 46634672, Roll : 0.09, Pitch : 0.07, Yaw : 359.93, Alt : 34.8800010681, Lat : 49.2835704, Lng : -123.1150208, Q1 : 0.999999284744, Q2 : 0.000847085146233, Q3 : 0.000664096791297, Q4 : -0.000590711890254}
2019-04-14 17:00:35.91: SIM {TimeUS : 46734632, Roll : 0.07, Pitch : 0.06, Yaw : 359.92, Alt : 35.0900001526, Lat : 49.2835704, Lng : -123.1150208, Q1 : 0.999999463558, Q2 : 0.000622157531325, Q3 : 0.000578359526116, Q4 : -0.000617054465692}
2019-04-14 17:00:36.02: SIM {TimeUS : 46835425, Roll : 0.05, Pitch : 0.03, Yaw : 359.92, Alt : 35.3100013733, Lat : 49.2835704, Lng : -123.1150208, Q1 : 0.999999642372, Q2 : 0.000509215111379, Q3 : 0.000284243724309, Q4 : -0.000643922248855}
2019-04-14 17:00:36.11: SIM {TimeUS : 46935385, Roll : 0.05, Pitch : 0.0, Yaw : 359.92, Alt : 35.5299987793, Lat : 49.2835704, Lng : -123.1150208, Q1 : 0.999999642372, Q2 : 0.000446818652563, Q3 : 5.083819633e-05, Q4 : -0.000667980872095}
2019-04-14 17:00:36.21: SIM {TimeUS : 47035345, Roll : 0.02, Pitch : 0.0, Yaw : 359.91, Alt : 35.75, Lat : 49.2835704, Lng : -123.1150208, Q1 : 0.999999761581, Q2 : 0.000245410657953, Q3 : -4.70909217256e-05, Q4 : -0.000698318646755}
2019-04-14 17:00:36.31: SIM {TimeUS : 47135305, Roll : 0.01, Pitch : 0.0, Yaw : 359.91, Alt : 35.9700012207, Lat : 49.2835704, Lng : -123.1150207, Q1 : 0.999999701977, Q2 : 0.000173616659595, Q3 : -4.26060323662e-05, Q4 : -0.00072169903433}
2019-04-14 17:00:36.41: SIM {TimeUS : 47235265, Roll : 0.02, Pitch : 0.0, Yaw : 359.91, Alt : 36.1899986267, Lat : 49.2835704, Lng : -123.1150207, Q1 : 0.999999701977, Q2 : 0.000199840767891, Q3 : -2.69680003839e-05, Q4 : -0.000742835807614}
2019-04-14 17:00:36.51: SIM {TimeUS : 47335225, Roll : 0.0, Pitch : -0.01, Yaw : 359.91, Alt : 36.4099998474, Lat : 49.2835704, Lng : -123.1150207, Q1 : 0.999999701977, Q2 : 6.63413738948e-05, Q3 : -0.000161002404639, Q4 : -0.000760635477491}
2019-04-14 17:00:36.61: SIM {TimeUS : 47435185, Roll : -0.02, Pitch : -0.05, Yaw : 359.91, Alt : 36.6300010681, Lat : 49.2835704, Lng : -123.1150207, Q1 : 0.999999582767, Q2 : -0.000247901829425, Q3 : -0.000466970523121, Q4 : -0.000782154325861}
2019-04-14 17:00:36.71: SIM {TimeUS : 47535145, Roll : -0.07, Pitch : -0.08, Yaw : 359.9, Alt : 36.8499984741, Lat : 49.2835704, Lng : -123.1150207, Q1 : 0.99999922514, Q2 : -0.00062874017749, Q3 : -0.000721507589333, Q4 : -0.000805818242952}
2019-04-14 17:00:36.81: SIM {TimeUS : 47635105, Roll : -0.11, Pitch : -0.1, Yaw : 359.9, Alt : 37.0800018311, Lat : 49.2835704, Lng : -123.1150207, Q1 : 0.999998748302, Q2 : -0.00100298807956, Q3 : -0.000924917345401, Q4 : -0.000832812278531}
2019-04-14 17:00:36.91: SIM {TimeUS : 47735065, Roll : -0.13, Pitch : -0.11, Yaw : 359.9, Alt : 37.2999992371, Lat : 49.2835704, Lng : -123.1150207, Q1 : 0.999998509884, Q2 : -0.00114525516983, Q3 : -0.000972304318566, Q4 : -0.000866469810717}
2019-04-14 17:00:37.01: SIM {TimeUS : 47835025, Roll : -0.12, Pitch : -0.09, Yaw : 359.89, Alt : 37.5299987793, Lat : 49.2835704, Lng : -123.1150206, Q1 : 0.999998629093, Q2 : -0.00110787269659, Q3 : -0.000848783412948, Q4 : -0.000899599457625}
2019-04-14 17:00:37.11: SIM {TimeUS : 47934985, Roll : -0.1, Pitch : -0.06, Yaw : 359.89, Alt : 37.75, Lat : 49.2835704, Lng : -123.1150206, Q1 : 0.999998986721, Q2 : -0.000947716704104, Q3 : -0.000540360982995, Q4 : -0.000926694599912}
2019-04-14 17:00:37.21: SIM {TimeUS : 48034945, Roll : -0.08, Pitch : -0.03, Yaw : 359.89, Alt : 37.9799995422, Lat : 49.2835704, Lng : -123.1150206, Q1 : 0.99999922514, Q2 : -0.000750528066419, Q3 : -0.000293198274449, Q4 : -0.000955098832492}
2019-04-14 17:00:37.31: SIM {TimeUS : 48134905, Roll : -0.07, Pitch : -0.03, Yaw : 359.88, Alt : 38.2099990845, Lat : 49.2835704, Lng : -123.1150206, Q1 : 0.99999922514, Q2 : -0.000681583129335, Q3 : -0.00026476624771, Q4 : -0.000983765465207}
2019-04-14 17:00:37.41: SIM {TimeUS : 48234865, Roll : -0.07, Pitch : -0.01, Yaw : 359.88, Alt : 38.4399986267, Lat : 49.2835706, Lng : -123.1150206, Q1 : 0.99999922514, Q2 : -0.000692538626026, Q3 : -0.000162310359883, Q4 : -0.001002459554}
2019-04-14 17:00:37.51: SIM {TimeUS : 48334825, Roll : -0.09, Pitch : 0.0, Yaw : 359.88, Alt : 38.6699981689, Lat : 49.2835706, Lng : -123.1150206, Q1 : 0.999999165535, Q2 : -0.0008199349395, Q3 : -2.40487097471e-05, Q4 : -0.00101379340049}
2019-04-14 17:00:37.61: SIM {TimeUS : 48434785, Roll : -0.09, Pitch : 0.0, Yaw : 359.88, Alt : 38.8899993896, Lat : 49.2835706, Lng : -123.1150206, Q1 : 0.999999165535, Q2 : -0.000806903932244, Q3 : 8.12086800579e-05, Q4 : -0.00101564556826}
2019-04-14 17:00:37.71: SIM {TimeUS : 48534745, Roll : -0.07, Pitch : 0.03, Yaw : 359.88, Alt : 39.1199989319, Lat : 49.2835706, Lng : -123.1150206, Q1 : 0.99999922514, Q2 : -0.000654860341456, Q3 : 0.0002952425275, Q4 : -0.00101083109621}
2019-04-14 17:00:37.81: SIM {TimeUS : 48634705, Roll : -0.05, Pitch : 0.03, Yaw : 359.88, Alt : 39.3499984741, Lat : 49.2835706, Lng : -123.1150206, Q1 : 0.999999344349, Q2 : -0.000474213185953, Q3 : 0.000318749051075, Q4 : -0.000996744493023}
2019-04-14 17:00:37.91: SIM {TimeUS : 48734665, Roll : -0.03, Pitch : 0.03, Yaw : 359.88, Alt : 39.5800018311, Lat : 49.2835706, Lng : -123.1150207, Q1 : 0.999999463558, Q2 : -0.000270092481514, Q3 : 0.000301581225358, Q4 : -0.000982846715488}
2019-04-14 17:00:38.01: SIM {TimeUS : 48834625, Roll : 0.0, Pitch : 0.05, Yaw : 359.88, Alt : 39.8100013733, Lat : 49.2835706, Lng : -123.1150207, Q1 : 0.999999403954, Q2 : 4.01934194088e-05, Q3 : 0.000493726402055, Q4 : -0.000976636074483}
2019-04-14 17:00:38.12: SIM {TimeUS : 48935418, Roll : 0.04, Pitch : 0.09, Yaw : 359.88, Alt : 40.0499992371, Lat : 49.2835706, Lng : -123.1150207, Q1 : 0.999999046326, Q2 : 0.000432989065303, Q3 : 0.000859577499796, Q4 : -0.000981811899692}
2019-04-14 17:00:38.21: SIM {TimeUS : 49035378, Roll : 0.08, Pitch : 0.14, Yaw : 359.88, Alt : 40.2799987793, Lat : 49.2835706, Lng : -123.1150207, Q1 : 0.999998509884, Q2 : 0.000733546970878, Q3 : 0.00122597673908, Q4 : -0.000999906216748}
2019-04-14 17:00:38.31: SIM {TimeUS : 49135338, Roll : 0.07, Pitch : 0.17, Yaw : 359.88, Alt : 40.5099983215, Lat : 49.2835706, Lng : -123.1150207, Q1 : 0.999998092651, Q2 : 0.00068815832492, Q3 : 0.0014995491365, Q4 : -0.00101663859095}
2019-04-14 17:00:38.41: SIM {TimeUS : 49235298, Roll : 0.03, Pitch : 0.19, Yaw : 359.87, Alt : 40.7400016785, Lat : 49.2835706, Lng : -123.1150207, Q1 : 0.999998033047, Q2 : 0.000291921605822, Q3 : 0.0016610682942, Q4 : -0.00105104944669}
2019-04-14 17:00:38.51: SIM {TimeUS : 49335258, Roll : -0.01, Pitch : 0.19, Yaw : 359.87, Alt : 40.9799995422, Lat : 49.2835706, Lng : -123.1150207, Q1 : 0.999997973442, Q2 : -8.88428839971e-05, Q3 : 0.00171472062357, Q4 : -0.00108565832488}
2019-04-14 17:00:38.61: SIM {TimeUS : 49435218, Roll : -0.03, Pitch : 0.17, Yaw : 359.87, Alt : 41.2099990845, Lat : 49.2835706, Lng : -123.1150207, Q1 : 0.999998211861, Q2 : -0.000300049461657, Q3 : 0.00150855409447, Q4 : -0.00111900072079}
2019-04-14 17:00:38.71: SIM {TimeUS : 49535178, Roll : -0.03, Pitch : 0.13, Yaw : 359.86, Alt : 41.4399986267, Lat : 49.2835706, Lng : -123.1150207, Q1 : 0.999998569489, Q2 : -0.000331077404553, Q3 : 0.00119962205645, Q4 : -0.00115698040463}
2019-04-14 17:00:38.81: SIM {TimeUS : 49635138, Roll : -0.02, Pitch : 0.12, Yaw : 359.86, Alt : 41.6800003052, Lat : 49.2835706, Lng : -123.1150207, Q1 : 0.999998629093, Q2 : -0.000213687540963, Q3 : 0.00112118688412, Q4 : -0.00120367878117}
2019-04-14 17:00:38.91: SIM {TimeUS : 49735098, Roll : 0.01, Pitch : 0.13, Yaw : 359.85, Alt : 41.9099998474, Lat : 49.2835706, Lng : -123.1150207, Q1 : 0.999998509884, Q2 : 0.000111115637992, Q3 : 0.00118891184684, Q4 : -0.00125495297834}
2019-04-14 17:00:39.01: SIM {TimeUS : 49835058, Roll : 0.06, Pitch : 0.14, Yaw : 359.85, Alt : 42.1399993896, Lat : 49.2835706, Lng : -123.1150207, Q1 : 0.999998271465, Q2 : 0.00056414824212, Q3 : 0.00122373411432, Q4 : -0.00130263750907}
2019-04-14 17:00:39.11: SIM {TimeUS : 49935018, Roll : 0.1, Pitch : 0.11, Yaw : 359.84, Alt : 42.3800010681, Lat : 49.2835706, Lng : -123.1150207, Q1 : 0.999998152256, Q2 : 0.00091176450951, Q3 : 0.00103113334626, Q4 : -0.00134876242373}
2019-04-14 17:00:39.21: SIM {TimeUS : 50034978, Roll : 0.1, Pitch : 0.08, Yaw : 359.84, Alt : 42.6100006104, Lat : 49.2835706, Lng : -123.1150207, Q1 : 0.99999833107, Q2 : 0.00096049811691, Q3 : 0.000739896844607, Q4 : -0.00138649775181}
2019-04-14 17:00:39.31: SIM {TimeUS : 50134938, Roll : 0.07, Pitch : 0.06, Yaw : 359.83, Alt : 42.8499984741, Lat : 49.2835706, Lng : -123.1150207, Q1 : 0.999998629093, Q2 : 0.000635418924503, Q3 : 0.000566828472074, Q4 : -0.00140495260712}
2019-04-14 17:00:39.41: SIM {TimeUS : 50234898, Roll : 0.01, Pitch : 0.06, Yaw : 359.83, Alt : 43.0800018311, Lat : 49.2835706, Lng : -123.1150207, Q1 : 0.999998867512, Q2 : 0.000165538076544, Q3 : 0.000527505821083, Q4 : -0.00141807610635}
2019-04-14 17:00:39.51: SIM {TimeUS : 50334858, Roll : -0.01, Pitch : 0.07, Yaw : 359.83, Alt : 43.3199996948, Lat : 49.2835706, Lng : -123.1150207, Q1 : 0.999998748302, Q2 : -0.000171383770066, Q3 : 0.000666728825308, Q4 : -0.00142934022006}
2019-04-14 17:00:39.61: SIM {TimeUS : 50434818, Roll : -0.04, Pitch : 0.08, Yaw : 359.83, Alt : 43.5499992371, Lat : 49.2835704, Lng : -123.1150207, Q1 : 0.999998629093, Q2 : -0.000351220747689, Q3 : 0.000724448764231, Q4 : -0.00143796193879}
2019-04-14 17:00:39.71: SIM {TimeUS : 50534778, Roll : -0.04, Pitch : 0.07, Yaw : 359.83, Alt : 43.7900009155, Lat : 49.2835704, Lng : -123.1150207, Q1 : 0.999998688698, Q2 : -0.000365690677427, Q3 : 0.000633620307781, Q4 : -0.00144895468839}
2019-04-14 17:00:39.81: SIM {TimeUS : 50634738, Roll : -0.04, Pitch : 0.05, Yaw : 359.83, Alt : 44.0200004578, Lat : 49.2835704, Lng : -123.1150207, Q1 : 0.999998688698, Q2 : -0.000423472782131, Q3 : 0.000492430583108, Q4 : -0.00146898534149}
2019-04-14 17:00:39.91: SIM {TimeUS : 50734698, Roll : -0.04, Pitch : 0.03, Yaw : 359.82, Alt : 44.2599983215, Lat : 49.2835704, Lng : -123.1150207, Q1 : 0.999998748302, Q2 : -0.000410193402786, Q3 : 0.000348494533682, Q4 : -0.00148966372944}
2019-04-14 17:00:40.01: SIM {TimeUS : 50834658, Roll : -0.03, Pitch : 0.03, Yaw : 359.82, Alt : 44.5, Lat : 49.2835704, Lng : -123.1150207, Q1 : 0.999998807907, Q2 : -0.00027860456612, Q3 : 0.000281995657133, Q4 : -0.00150815688539}
2019-04-14 17:00:40.11: SIM {TimeUS : 50934618, Roll : -0.02, Pitch : 0.03, Yaw : 359.82, Alt : 44.7299995422, Lat : 49.2835704, Lng : -123.1150206, Q1 : 0.999998748302, Q2 : -0.000195177097339, Q3 : 0.000274531077594, Q4 : -0.00152627448551}
2019-04-14 17:00:40.21: SIM {TimeUS : 51035411, Roll : -0.02, Pitch : 0.01, Yaw : 359.82, Alt : 44.9700012207, Lat : 49.2835704, Lng : -123.1150206, Q1 : 0.999998748302, Q2 : -0.000223330207518, Q3 : 0.000122258468764, Q4 : -0.00154816918075}
2019-04-14 17:00:40.31: SIM {TimeUS : 51135371, Roll : -0.02, Pitch : -0.01, Yaw : 359.81, Alt : 45.2099990845, Lat : 49.2835704, Lng : -123.1150206, Q1 : 0.999998688698, Q2 : -0.000251950026723, Q3 : -0.000156857422553, Q4 : -0.00157408905216}
2019-04-14 17:00:40.41: SIM {TimeUS : 51235331, Roll : -0.02, Pitch : -0.04, Yaw : 359.81, Alt : 45.4399986267, Lat : 49.2835703, Lng : -123.1150206, Q1 : 0.999998629093, Q2 : -0.000218096596655, Q3 : -0.000357224984327, Q4 : -0.00160405097995}
2019-04-14 17:00:40.51: SIM {TimeUS : 51335291, Roll : -0.01, Pitch : -0.04, Yaw : 359.81, Alt : 45.6800003052, Lat : 49.2835703, Lng : -123.1150206, Q1 : 0.999998569489, Q2 : -0.000127858991618, Q3 : -0.000434916233644, Q4 : -0.00163498381153}
2019-04-14 17:00:40.61: SIM {TimeUS : 51435251, Roll : -0.02, Pitch : -0.05, Yaw : 359.8, Alt : 45.9099998474, Lat : 49.2835703, Lng : -123.1150206, Q1 : 0.999998509884, Q2 : -0.000179959606612, Q3 : -0.000441499520093, Q4 : -0.00167229596991}
2019-04-14 17:00:40.71: SIM {TimeUS : 51535211, Roll : -0.04, Pitch : -0.04, Yaw : 359.8, Alt : 46.1399993896, Lat : 49.2835703, Lng : -123.1150206, Q1 : 0.999998390675, Q2 : -0.000395698240027, Q3 : -0.000371294561774, Q4 : -0.00171650957782}
2019-04-14 17:00:40.81: SIM {TimeUS : 51635171, Roll : -0.08, Pitch : -0.03, Yaw : 359.79, Alt : 46.3699989319, Lat : 49.2835703, Lng : -123.1150206, Q1 : 0.999998152256, Q2 : -0.000733251858037, Q3 : -0.000307843205519, Q4 : -0.00175668369047}
2019-04-14 17:00:40.91: SIM {TimeUS : 51735131, Roll : -0.11, Pitch : -0.03, Yaw : 359.79, Alt : 46.5900001526, Lat : 49.2835703, Lng : -123.1150206, Q1 : 0.999997913837, Q2 : -0.000962619029451, Q3 : -0.000303998647723, Q4 : -0.00179064681288}
2019-04-14 17:00:41.01: SIM {TimeUS : 51835091, Roll : -0.11, Pitch : -0.02, Yaw : 359.79, Alt : 46.8100013733, Lat : 49.2835703, Lng : -123.1150206, Q1 : 0.999997794628, Q2 : -0.00101346487645, Q3 : -0.000214057421545, Q4 : -0.00181893934496}
2019-04-14 17:00:41.11: SIM {TimeUS : 51935051, Roll : -0.1, Pitch : 0.0, Yaw : 359.78, Alt : 47.0200004578, Lat : 49.2835703, Lng : -123.1150206, Q1 : 0.999997913837, Q2 : -0.000902188243344, Q3 : -1.87569075933e-05, Q4 : -0.00184254406486}
2019-04-14 17:00:41.21: SIM {TimeUS : 52035011, Roll : -0.07, Pitch : 0.0, Yaw : 359.78, Alt : 47.2200012207, Lat : 49.2835703, Lng : -123.1150206, Q1 : 0.999998033047, Q2 : -0.000685416802298, Q3 : 8.65243928274e-05, Q4 : -0.00186837464571}
2019-04-14 17:00:41.31: SIM {TimeUS : 52134971, Roll : -0.05, Pitch : 0.0, Yaw : 359.78, Alt : 47.4099998474, Lat : 49.2835703, Lng : -123.1150206, Q1 : 0.999998092651, Q2 : -0.000500652357005, Q3 : 6.14318123553e-05, Q4 : -0.00189235957805}
2019-04-14 17:00:41.41: SIM {TimeUS : 52234931, Roll : -0.04, Pitch : 0.0, Yaw : 359.78, Alt : 47.5999984741, Lat : 49.2835703, Lng : -123.1150206, Q1 : 0.999998092651, Q2 : -0.000431519263657, Q3 : -7.64444557717e-05, Q4 : -0.0019134770846}
2019-04-14 17:00:41.51: SIM {TimeUS : 52334891, Roll : -0.05, Pitch : -0.04, Yaw : 359.77, Alt : 47.7700004578, Lat : 49.2835703, Lng : -123.1150206, Q1 : 0.999997973442, Q2 : -0.000495132699143, Q3 : -0.000394712609705, Q4 : -0.00193021818995}
2019-04-14 17:00:41.61: SIM {TimeUS : 52434851, Roll : -0.05, Pitch : -0.07, Yaw : 359.77, Alt : 47.9399986267, Lat : 49.2835703, Lng : -123.1150206, Q1 : 0.999997794628, Q2 : -0.000438800750999, Q3 : -0.000684650382027, Q4 : -0.00194998562802}
2019-04-14 17:00:41.71: SIM {TimeUS : 52534811, Roll : -0.04, Pitch : -0.1, Yaw : 359.77, Alt : 48.0900001526, Lat : 49.2835703, Lng : -123.1150206, Q1 : 0.99999755621, Q2 : -0.000383100647014, Q3 : -0.000918204430491, Q4 : -0.00196847994812}
2019-04-14 17:00:41.81: SIM {TimeUS : 52634771, Roll : -0.04, Pitch : -0.12, Yaw : 359.77, Alt : 48.2299995422, Lat : 49.2835703, Lng : -123.1150206, Q1 : 0.999997377396, Q2 : -0.000378966273274, Q3 : -0.00107528013177, Q4 : -0.00198703026399}
2019-04-14 17:00:41.91: SIM {TimeUS : 52734731, Roll : 0.0, Pitch : -0.11, Yaw : 359.76, Alt : 48.3600006104, Lat : 49.2835703, Lng : -123.1150206, Q1 : 0.999997496605, Q2 : -8.8846332801e-05, Q3 : -0.00101074716076, Q4 : -0.00201066257432}
2019-04-14 17:00:42.01: SIM {TimeUS : 52834691, Roll : 0.03, Pitch : -0.09, Yaw : 359.76, Alt : 48.4799995422, Lat : 49.2835703, Lng : -123.1150207, Q1 : 0.99999755621, Q2 : 0.000286008755211, Q3 : -0.000810451514553, Q4 : -0.00203903601505}
2019-04-14 17:00:42.11: SIM {TimeUS : 52934651, Roll : 0.06, Pitch : -0.06, Yaw : 359.76, Alt : 48.5800018311, Lat : 49.2835703, Lng : -123.1150207, Q1 : 0.99999755621, Q2 : 0.000583184417337, Q3 : -0.000551632663701, Q4 : -0.00207144021988}
2019-04-14 17:00:42.22: SIM {TimeUS : 53035444, Roll : 0.07, Pitch : -0.03, Yaw : 359.75, Alt : 48.6699981689, Lat : 49.2835703, Lng : -123.1150207, Q1 : 0.99999755621, Q2 : 0.00066572567448, Q3 : -0.000313100928906, Q4 : -0.00210168212652}
2019-04-14 17:00:42.31: SIM {TimeUS : 53135404, Roll : 0.07, Pitch : -0.02, Yaw : 359.75, Alt : 48.75, Lat : 49.2835703, Lng : -123.1150207, Q1 : 0.999997496605, Q2 : 0.000667305139359, Q3 : -0.000212826838833, Q4 : -0.00212143710814}
2019-04-14 17:00:42.41: SIM {TimeUS : 53235364, Roll : 0.06, Pitch : -0.03, Yaw : 359.75, Alt : 48.8199996948, Lat : 49.2835703, Lng : -123.1150207, Q1 : 0.999997496605, Q2 : 0.000571189157199, Q3 : -0.000277154147625, Q4 : -0.00213760416955}
2019-04-14 17:00:42.51: SIM {TimeUS : 53335324, Roll : 0.03, Pitch : -0.03, Yaw : 359.75, Alt : 48.8800010681, Lat : 49.2835703, Lng : -123.1150207, Q1 : 0.999997615814, Q2 : 0.000303066277411, Q3 : -0.000295114208711, Q4 : -0.00215443782508}
2019-04-14 17:00:42.61: SIM {TimeUS : 53435284, Roll : 0.01, Pitch : -0.02, Yaw : 359.75, Alt : 48.9399986267, Lat : 49.2835703, Lng : -123.1150207, Q1 : 0.999997615814, Q2 : 9.0361747425e-05, Q3 : -0.000261750741629, Q4 : -0.00217256089672}
2019-04-14 17:00:42.71: SIM {TimeUS : 53535244, Roll : 0.0, Pitch : -0.03, Yaw : 359.74, Alt : 48.9799995422, Lat : 49.2835704, Lng : -123.1150207, Q1 : 0.99999755621, Q2 : 6.37338816887e-05, Q3 : -0.000264562288066, Q4 : -0.00219828751869}
2019-04-14 17:00:42.81: SIM {TimeUS : 53635204, Roll : 0.11, Pitch : -0.08, Yaw : 359.74, Alt : 49.0200004578, Lat : 49.2835704, Lng : -123.1150207, Q1 : 0.999996781349, Q2 : 0.000967931991909, Q3 : -0.000703225086909, Q4 : -0.00223053828813}
2019-04-14 17:00:42.91: SIM {TimeUS : 53735164, Roll : 0.43, Pitch : -0.25, Yaw : 359.73, Alt : 49.0499992371, Lat : 49.2835704, Lng : -123.1150207, Q1 : 0.999987721443, Q2 : 0.00378860533237, Q3 : -0.00226678745821, Q4 : -0.00226179044694}
2019-04-14 17:00:43.01: SIM {TimeUS : 53835124, Roll : 0.99, Pitch : -0.61, Yaw : 359.73, Alt : 49.0800018311, Lat : 49.2835704, Lng : -123.1150207, Q1 : 0.999945640564, Q2 : 0.00865033920854, Q3 : -0.00535152712837, Q4 : -0.00228538317606}
2019-04-14 17:00:43.11: SIM {TimeUS : 53935084, Roll : 1.72, Pitch : -1.12, Yaw : 359.71, Alt : 49.0999984741, Lat : 49.2835704, Lng : -123.1150207, Q1 : 0.999835789204, Q2 : 0.0150266960263, Q3 : -0.00986647326499, Q4 : -0.00230227457359}
2019-04-14 17:00:43.21: SIM {TimeUS : 54035044, Roll : 2.55, Pitch : -1.73, Yaw : 359.69, Alt : 49.1300010681, Lat : 49.2835704, Lng : -123.1150206, Q1 : 0.999633908272, Q2 : 0.022291701287, Q3 : -0.0151641396806, Q4 : -0.00228518177755}
2019-04-14 17:00:43.31: SIM {TimeUS : 54135004, Roll : 3.37, Pitch : -2.34, Yaw : 359.67, Alt : 49.1399993896, Lat : 49.2835706, Lng : -123.1150205, Q1 : 0.999352812767, Q2 : 0.0294240117073, Q3 : -0.0205717682838, Q4 : -0.00221643736586}
2019-04-14 17:00:43.41: SIM {TimeUS : 54234964, Roll : 4.08, Pitch : -2.87, Yaw : 359.65, Alt : 49.1599998474, Lat : 49.2835707, Lng : -123.1150203, Q1 : 0.999049603939, Q2 : 0.0355122387409, Q3 : -0.0251898169518, Q4 : -0.00207198457792}
2019-04-14 17:00:43.51: SIM {TimeUS : 54334924, Roll : 4.61, Pitch : -3.25, Yaw : 359.65, Alt : 49.1699981689, Lat : 49.2835708, Lng : -123.11502, Q1 : 0.99878436327, Q2 : 0.0401767045259, Q3 : -0.0284998826683, Q4 : -0.00185025657993}
2019-04-14 17:00:43.61: SIM {TimeUS : 54434884, Roll : 5.0, Pitch : -3.52, Yaw : 359.66, Alt : 49.1800003052, Lat : 49.2835709, Lng : -123.1150198, Q1 : 0.998573899269, Q2 : 0.043543253094, Q3 : -0.0308490525931, Q4 : -0.0015861922875}
2019-04-14 17:00:43.71: SIM {TimeUS : 54534844, Roll : 5.31, Pitch : -3.73, Yaw : 359.67, Alt : 49.1899986267, Lat : 49.2835712, Lng : -123.1150193, Q1 : 0.998395800591, Q2 : 0.046215839684, Q3 : -0.0326850637794, Q4 : -0.00128658639733}
2019-04-14 17:00:43.81: SIM {TimeUS : 54634804, Roll : 5.58, Pitch : -3.92, Yaw : 359.69, Alt : 49.2000007629, Lat : 49.2835714, Lng : -123.1150188, Q1 : 0.998225569725, Q2 : 0.0486181005836, Q3 : -0.0343674011528, Q4 : -0.00098345882725}
2019-04-14 17:00:43.91: SIM {TimeUS : 54734764, Roll : 5.88, Pitch : -4.15, Yaw : 359.7, Alt : 49.2099990845, Lat : 49.2835716, Lng : -123.1150181, Q1 : 0.998026132584, Q2 : 0.0512223243713, Q3 : -0.0363269113004, Q4 : -0.000699691066984}
2019-04-14 17:00:44.01: SIM {TimeUS : 54834724, Roll : 6.19, Pitch : -4.38, Yaw : 359.71, Alt : 49.2200012207, Lat : 49.2835721, Lng : -123.1150174, Q1 : 0.997806727886, Q2 : 0.0539350360632, Q3 : -0.0383737422526, Q4 : -0.000430063519161}
2019-04-14 17:00:44.11: SIM {TimeUS : 54934684, Roll : 6.49, Pitch : -4.59, Yaw : 359.71, Alt : 49.2299995422, Lat : 49.2835724, Lng : -123.1150166, Q1 : 0.997594475746, Q2 : 0.0565043464303, Q3 : -0.0401552580297, Q4 : -0.000178306989255}
2019-04-14 17:00:44.21: SIM {TimeUS : 55034644, Roll : 6.71, Pitch : -4.73, Yaw : 359.72, Alt : 49.2299995422, Lat : 49.2835728, Lng : -123.1150157, Q1 : 0.997437179089, Q2 : 0.0583940409124, Q3 : -0.0413423478603, Q4 : 4.99206325912e-05}
2019-04-14 17:00:44.32: SIM {TimeUS : 55135437, Roll : 6.84, Pitch : -4.81, Yaw : 359.73, Alt : 49.2400016785, Lat : 49.2835733, Lng : -123.1150146, Q1 : 0.997336924076, Q2 : 0.0595470517874, Q3 : -0.0421101264656, Q4 : 0.000230833946262}
2019-04-14 17:00:44.41: SIM {TimeUS : 55235397, Roll : 6.92, Pitch : -4.89, Yaw : 359.74, Alt : 49.2400016785, Lat : 49.2835738, Lng : -123.1150135, Q1 : 0.997268795967, Q2 : 0.0602256655693, Q3 : -0.042752198875, Q4 : 0.000334659300279}
2019-04-14 17:00:44.51: SIM {TimeUS : 55335357, Roll : 7.01, Pitch : -4.95, Yaw : 359.74, Alt : 49.25, Lat : 49.2835744, Lng : -123.1150123, Q1 : 0.997198164463, Q2 : 0.0610179230571, Q3 : -0.0432723686099, Q4 : 0.000397486204747}
2019-04-14 17:00:44.61: SIM {TimeUS : 55435317, Roll : 7.19, Pitch : -4.97, Yaw : 359.76, Alt : 49.25, Lat : 49.283575, Lng : -123.115011, Q1 : 0.997093915939, Q2 : 0.062555000186, Q3 : -0.0434760525823, Q4 : 0.000642022117972}
2019-04-14 17:00:44.71: SIM {TimeUS : 55535277, Roll : 7.59, Pitch : -4.85, Yaw : 0.1, Alt : 49.25, Lat : 49.2835756, Lng : -123.1150096, Q1 : 0.99690747261, Q2 : 0.0661762058735, Q3 : -0.0422190278769, Q4 : 0.00372243253514}
2019-04-14 17:00:44.81: SIM {TimeUS : 55635237, Roll : 8.2, Pitch : -4.65, Yaw : 1.42, Alt : 49.2599983215, Lat : 49.2835763, Lng : -123.1150082, Q1 : 0.996497511864, Q2 : 0.0720175504684, Q3 : -0.0396345034242, Q4 : 0.0153380269185}
2019-04-14 17:00:44.91: SIM {TimeUS : 55735197, Roll : 8.81, Pitch : -4.73, Yaw : 4.25, Alt : 49.2599983215, Lat : 49.2835769, Lng : -123.1150067, Q1 : 0.995389282703, Q2 : 0.0782300680876, Q3 : -0.0382843352854, Q4 : 0.0401815399528}
2019-04-14 17:00:45.01: SIM {TimeUS : 55835157, Roll : 9.12, Pitch : -5.29, Yaw : 8.65, Alt : 49.2599983215, Lat : 49.2835776, Lng : -123.115005, Q1 : 0.992649197578, Q2 : 0.0827273055911, Q3 : -0.0398983545601, Q4 : 0.0788154900074}
2019-04-14 17:00:45.11: SIM {TimeUS : 55935117, Roll : 8.93, Pitch : -6.35, Yaw : 14.44, Alt : 49.2599983215, Lat : 49.2835783, Lng : -123.1150032, Q1 : 0.986990869045, Q2 : 0.0840861275792, Q3 : -0.0450219362974, Q4 : 0.129427790642}
2019-04-14 17:00:45.21: SIM {TimeUS : 56035077, Roll : 8.12, Pitch : -7.78, Yaw : 21.37, Alt : 49.2599983215, Lat : 49.2835791, Lng : -123.1150013, Q1 : 0.977031707764, Q2 : 0.0820086374879, Q3 : -0.0534162521362, Q4 : 0.189288973808}
2019-04-14 17:00:45.31: SIM {TimeUS : 56135037, Roll : 6.69, Pitch : -9.39, Yaw : 29.19, Alt : 49.2700004578, Lat : 49.2835798, Lng : -123.1149993, Q1 : 0.961623072624, Q2 : 0.0769508704543, Q3 : -0.0644532442093, Q4 : 0.255353569984}
2019-04-14 17:00:45.41: SIM {TimeUS : 56234997, Roll : 4.73, Pitch : -10.95, Yaw : 37.64, Alt : 49.2700004578, Lat : 49.2835806, Lng : -123.1149971, Q1 : 0.940139651299, Q2 : 0.0696593225002, Q3 : -0.0770065560937, Q4 : 0.324584335089}
2019-04-14 17:00:45.51: SIM {TimeUS : 56334957, Roll : 2.16, Pitch : -12.22, Yaw : 46.39, Alt : 49.2700004578, Lat : 49.2835813, Lng : -123.1149948, Q1 : 0.912973761559, Q2 : 0.0591891147196, Q3 : -0.0904393643141, Q4 : 0.393441617489}
2019-04-14 17:00:45.61: SIM {TimeUS : 56434917, Roll : -0.96, Pitch : -12.97, Yaw : 54.75, Alt : 49.2700004578, Lat : 49.2835823, Lng : -123.1149925, Q1 : 0.882731437683, Q2 : 0.0445424988866, Q3 : -0.104189895093, Q4 : 0.456010609865}
2019-04-14 17:00:45.71: SIM {TimeUS : 56534877, Roll : -4.08, Pitch : -13.17, Yaw : 61.8, Alt : 49.2700004578, Lat : 49.2835831, Lng : -123.1149901, Q1 : 0.853927493095, Q2 : 0.0285020824522, Q3 : -0.116569027305, Q4 : 0.506366610527}
2019-04-14 17:00:45.81: SIM {TimeUS : 56634837, Roll : -6.56, Pitch : -12.99, Yaw : 66.93, Alt : 49.2700004578, Lat : 49.2835843, Lng : -123.1149876, Q1 : 0.831074714661, Q2 : 0.0148575985804, Q3 : -0.125629991293, Q4 : 0.541582107544}
2019-04-14 17:00:45.91: SIM {TimeUS : 56734797, Roll : -8.01, Pitch : -12.72, Yaw : 69.95, Alt : 49.2700004578, Lat : 49.2835854, Lng : -123.114985, Q1 : 0.816800177097, Q2 : 0.00646526087075, Q3 : -0.130416467786, Q4 : 0.561949491501}
2019-04-14 17:00:46.01: SIM {TimeUS : 56834757, Roll : -8.39, Pitch : -12.6, Yaw : 71.05, Alt : 49.2700004578, Lat : 49.2835866, Lng : -123.1149824, Q1 : 0.81139755249, Q2 : 0.00439303228632, Q3 : -0.131374597549, Q4 : 0.56952214241}
2019-04-14 17:00:46.11: SIM {TimeUS : 56934717, Roll : -7.87, Pitch : -12.72, Yaw : 70.59, Alt : 49.2700004578, Lat : 49.2835879, Lng : -123.1149797, Q1 : 0.813607990742, Q2 : 0.00818124506623, Q3 : -0.129663482308, Q4 : 0.566712021828}
2019-04-14 17:00:46.21: SIM {TimeUS : 57034677, Roll : -6.66, Pitch : -13.11, Yaw : 68.93, Alt : 49.2700004578, Lat : 49.2835893, Lng : -123.114977, Q1 : 0.821429789066, Q2 : 0.0168740544468, Q3 : -0.126667097211, Q4 : 0.55580919981}
2019-04-14 17:00:46.31: SIM {TimeUS : 57134637, Roll : -5.0, Pitch : -13.71, Yaw : 66.41, Alt : 49.2700004578, Lat : 49.2835909, Lng : -123.1149743, Q1 : 0.832750976086, Q2 : 0.0290476791561, Q3 : -0.123589836061, Q4 : 0.53889477253}
2019-04-14 17:00:46.42: SIM {TimeUS : 57235430, Roll : -3.11, Pitch : -14.42, Yaw : 63.34, Alt : 49.2799987793, Lat : 49.2835925, Lng : -123.1149713, Q1 : 0.845821499825, Q2 : 0.0429405383766, Q3 : -0.121002621949, Q4 : 0.517784237862}
2019-04-14 17:00:46.51: SIM {TimeUS : 57335390, Roll : -1.2, Pitch : -15.07, Yaw : 60.06, Alt : 49.2799987793, Lat : 49.283594, Lng : -123.1149685, Q1 : 0.85890597105, Q2 : 0.0565841682255, Q3 : -0.118789933622, Q4 : 0.494942128658}
2019-04-14 17:00:46.61: SIM {TimeUS : 57435350, Roll : 0.54, Pitch : -15.56, Yaw : 56.89, Alt : 49.2799987793, Lat : 49.2835958, Lng : -123.1149654, Q1 : 0.870848834515, Q2 : 0.068633787334, Q3 : -0.11677981168, Q4 : 0.472518950701}
2019-04-14 17:00:46.71: SIM {TimeUS : 57535310, Roll : 1.99, Pitch : -15.83, Yaw : 54.14, Alt : 49.2799987793, Lat : 49.2835974, Lng : -123.1149622, Q1 : 0.880708754063, Q2 : 0.078030705452, Q3 : -0.114743195474, Q4 : 0.452876716852}
2019-04-14 17:00:46.81: SIM {TimeUS : 57635270, Roll : 3.02, Pitch : -15.89, Yaw : 52.07, Alt : 49.2799987793, Lat : 49.283599, Lng : -123.114959, Q1 : 0.88797801733, Q2 : 0.0841593518853, Q3 : -0.112758465111, Q4 : 0.437833070755}
2019-04-14 17:00:46.91: SIM {TimeUS : 57735230, Roll : 3.57, Pitch : -15.84, Yaw : 50.78, Alt : 49.2799987793, Lat : 49.2836007, Lng : -123.1149555, Q1 : 0.892494857311, Q2 : 0.0869999155402, Q3 : -0.111247904599, Q4 : 0.428378224373}
2019-04-14 17:00:47.01: SIM {TimeUS : 57835190, Roll : 3.67, Pitch : -15.77, Yaw : 50.28, Alt : 49.2799987793, Lat : 49.2836024, Lng : -123.114952, Q1 : 0.89434504509, Q2 : 0.0869973599911, Q3 : -0.110690295696, Q4 : 0.4246481359}
2019-04-14 17:00:47.11: SIM {TimeUS : 57935150, Roll : 3.36, Pitch : -15.76, Yaw : 50.5, Alt : 49.2799987793, Lat : 49.2836041, Lng : -123.1149484, Q1 : 0.893781304359, Q2 : 0.0848020911217, Q3 : -0.111603409052, Q4 : 0.426037877798}
2019-04-14 17:00:47.21: SIM {TimeUS : 58035110, Roll : 2.75, Pitch : -15.84, Yaw : 51.28, Alt : 49.2799987793, Lat : 49.2836057, Lng : -123.1149446, Q1 : 0.891228020191, Q2 : 0.0810568481684, Q3 : -0.113928183913, Q4 : 0.431465864182}
2019-04-14 17:00:47.31: SIM {TimeUS : 58135070, Roll : 1.92, Pitch : -15.98, Yaw : 52.44, Alt : 49.2799987793, Lat : 49.2836074, Lng : -123.1149408, Q1 : 0.88722795248, Q2 : 0.0763209685683, Q3 : -0.11739204824, Q4 : 0.439568907022}
2019-04-14 17:00:47.41: SIM {TimeUS : 58235030, Roll : 1.01, Pitch : -16.13, Yaw : 53.79, Alt : 49.2900009155, Lat : 49.2836092, Lng : -123.1149368, Q1 : 0.882407128811, Q2 : 0.0712921693921, Q3 : -0.121169902384, Q4 : 0.448991119862}
2019-04-14 17:00:47.51: SIM {TimeUS : 58334990, Roll : 0.16, Pitch : -16.25, Yaw : 55.15, Alt : 49.2900009155, Lat : 49.283611, Lng : -123.1149328, Q1 : 0.87738609314, Q2 : 0.0667114555836, Q3 : -0.124641463161, Q4 : 0.458484202623}
2019-04-14 17:00:47.61: SIM {TimeUS : 58434950, Roll : -0.56, Pitch : -16.34, Yaw : 56.37, Alt : 49.2900009155, Lat : 49.2836127, Lng : -123.1149287, Q1 : 0.872761011124, Q2 : 0.0628375262022, Q3 : -0.127590045333, Q4 : 0.466969460249}
2019-04-14 17:00:47.71: SIM {TimeUS : 58534910, Roll : -1.09, Pitch : -16.4, Yaw : 57.35, Alt : 49.2900009155, Lat : 49.2836146, Lng : -123.1149246, Q1 : 0.868986010551, Q2 : 0.0601418502629, Q3 : -0.129712536931, Q4 : 0.473730862141}
2019-04-14 17:00:47.81: SIM {TimeUS : 58634870, Roll : -1.39, Pitch : -16.42, Yaw : 58.01, Alt : 49.2900009155, Lat : 49.2836164, Lng : -123.1149204, Q1 : 0.86637955904, Q2 : 0.0587377175689, Q3 : -0.130782514811, Q4 : 0.478364229202}
2019-04-14 17:00:47.91: SIM {TimeUS : 58734830, Roll : -1.48, Pitch : -16.42, Yaw : 58.33, Alt : 49.2900009155, Lat : 49.2836183, Lng : -123.1149162, Q1 : 0.865065395832, Q2 : 0.0584079027176, Q3 : -0.131011009216, Q4 : 0.480714678764}
2019-04-14 17:00:48.01: SIM {TimeUS : 58834790, Roll : -1.41, Pitch : -16.44, Yaw : 58.35, Alt : 49.2900009155, Lat : 49.2836201, Lng : -123.114912, Q1 : 0.86494666338, Q2 : 0.0590537376702, Q3 : -0.130813583732, Q4 : 0.480903089046}
2019-04-14 17:00:48.11: SIM {TimeUS : 58934750, Roll : -1.2, Pitch : -16.48, Yaw : 58.1, Alt : 49.2900009155, Lat : 49.283622, Lng : -123.1149077, Q1 : 0.865815937519, Q2 : 0.0605213455856, Q3 : -0.130378141999, Q4 : 0.479271858931}
2019-04-14 17:00:48.21: SIM {TimeUS : 59034710, Roll : -0.9, Pitch : -16.55, Yaw : 57.67, Alt : 49.2900009155, Lat : 49.2836241, Lng : -123.1149033, Q1 : 0.867384254932, Q2 : 0.0625750347972, Q3 : -0.129884839058, Q4 : 0.47629699111}
2019-04-14 17:00:48.31: SIM {TimeUS : 59134670, Roll : -0.56, Pitch : -16.61, Yaw : 57.13, Alt : 49.2900009155, Lat : 49.2836261, Lng : -123.1148989, Q1 : 0.869370937347, Q2 : 0.0648162737489, Q3 : -0.129250481725, Q4 : 0.472532898188}
2019-04-14 17:00:48.41: SIM {TimeUS : 59234630, Roll : -0.21, Pitch : -16.67, Yaw : 56.55, Alt : 49.2900009155, Lat : 49.283628, Lng : -123.1148945, Q1 : 0.871469140053, Q2 : 0.0670899301767, Q3 : -0.128555014729, Q4 : 0.468523323536}
2019-04-14 17:00:48.52: SIM {TimeUS : 59335423, Roll : 0.11, Pitch : -16.72, Yaw : 56.01, Alt : 49.2900009155, Lat : 49.28363, Lng : -123.11489, Q1 : 0.873444795609, Q2 : 0.0691831558943, Q3 : -0.12789323926, Q4 : 0.464705616236}
2019-04-14 17:00:48.61: SIM {TimeUS : 59435383, Roll : 0.38, Pitch : -16.75, Yaw : 55.55, Alt : 49.2900009155, Lat : 49.2836322, Lng : -123.1148854, Q1 : 0.875085830688, Q2 : 0.0708348304033, Q3 : -0.127329602838, Q4 : 0.461513131857}
2019-04-14 17:00:48.71: SIM {TimeUS : 59535343, Roll : 0.57, Pitch : -16.77, Yaw : 55.22, Alt : 49.2900009155, Lat : 49.2836341, Lng : -123.1148809, Q1 : 0.876289367676, Q2 : 0.0719952136278, Q3 : -0.126933395863, Q4 : 0.459153085947}
2019-04-14 17:00:48.81: SIM {TimeUS : 59635303, Roll : 0.67, Pitch : -16.79, Yaw : 55.01, Alt : 49.2900009155, Lat : 49.2836363, Lng : -123.1148763, Q1 : 0.877015352249, Q2 : 0.0726016610861, Q3 : -0.126823291183, Q4 : 0.457699656487}
2019-04-14 17:00:48.91: SIM {TimeUS : 59735263, Roll : 0.67, Pitch : -16.81, Yaw : 54.94, Alt : 49.2900009155, Lat : 49.2836384, Lng : -123.1148716, Q1 : 0.877275764942, Q2 : 0.0726517289877, Q3 : -0.127060160041, Q4 : 0.457126647234}
2019-04-14 17:00:49.01: SIM {TimeUS : 59835223, Roll : 0.6, Pitch : -16.85, Yaw : 54.98, Alt : 49.2900009155, Lat : 49.2836403, Lng : -123.1148669, Q1 : 0.877123117447, Q2 : 0.0722638368607, Q3 : -0.127567097545, Q4 : 0.457339733839}
2019-04-14 17:00:49.11: SIM {TimeUS : 59935183, Roll : 0.47, Pitch : -16.89, Yaw : 55.11, Alt : 49.2900009155, Lat : 49.2836425, Lng : -123.1148622, Q1 : 0.876638174057, Q2 : 0.0716148838401, Q3 : -0.128339082003, Q4 : 0.458154886961}
2019-04-14 17:00:49.21: SIM {TimeUS : 60035143, Roll : 0.32, Pitch : -16.94, Yaw : 55.29, Alt : 49.2999992371, Lat : 49.2836445, Lng : -123.1148575, Q1 : 0.87593215704, Q2 : 0.0708637833595, Q3 : -0.129244938493, Q4 : 0.459365844727}
2019-04-14 17:00:49.31: SIM {TimeUS : 60135103, Roll : 0.15, Pitch : -16.99, Yaw : 55.5, Alt : 49.2999992371, Lat : 49.2836467, Lng : -123.1148527, Q1 : 0.875148415565, Q2 : 0.0699530094862, Q3 : -0.130137443542, Q4 : 0.460745245218}
2019-04-14 17:00:49.41: SIM {TimeUS : 60235063, Roll : -0.01, Pitch : -17.02, Yaw : 55.71, Alt : 49.2999992371, Lat : 49.2836487, Lng : -123.1148479, Q1 : 0.87439095974, Q2 : 0.0690273195505, Q3 : -0.130912363529, Q4 : 0.462101340294}
2019-04-14 17:00:49.51: SIM {TimeUS : 60335023, Roll : -0.16, Pitch : -17.04, Yaw : 55.88, Alt : 49.2999992371, Lat : 49.283651, Lng : -123.114843, Q1 : 0.873737633228, Q2 : 0.0682104378939, Q3 : -0.131613299251, Q4 : 0.463257819414}
2019-04-14 17:00:49.61: SIM {TimeUS : 60434983, Roll : -0.25, Pitch : -17.08, Yaw : 56.02, Alt : 49.2999992371, Lat : 49.283653, Lng : -123.1148381, Q1 : 0.873219907284, Q2 : 0.0678224638104, Q3 : -0.132169678807, Q4 : 0.464131772518}
2019-04-14 17:00:49.71: SIM {TimeUS : 60534943, Roll : -0.28, Pitch : -17.12, Yaw : 56.09, Alt : 49.2999992371, Lat : 49.2836553, Lng : -123.1148333, Q1 : 0.872879683971, Q2 : 0.0678293928504, Q3 : -0.132570654154, Q4 : 0.464656084776}
2019-04-14 17:00:49.81: SIM {TimeUS : 60634903, Roll : -0.26, Pitch : -17.16, Yaw : 56.12, Alt : 49.2999992371, Lat : 49.2836574, Lng : -123.1148283, Q1 : 0.872728288174, Q2 : 0.0681861191988, Q3 : -0.132786169648, Q4 : 0.464826762676}
2019-04-14 17:00:49.91: SIM {TimeUS : 60734863, Roll : -0.2, Pitch : -17.2, Yaw : 56.09, Alt : 49.2999992371, Lat : 49.2836596, Lng : -123.1148234, Q1 : 0.872758507729, Q2 : 0.0688192695379, Q3 : -0.132864132524, Q4 : 0.464654356241}
2019-04-14 17:00:50.01: SIM {TimeUS : 60834823, Roll : -0.13, Pitch : -17.24, Yaw : 56.02, Alt : 49.2999992371, Lat : 49.2836618, Lng : -123.1148185, Q1 : 0.87296205759, Q2 : 0.0693822354078, Q3 : -0.132905945182, Q4 : 0.464176088572}
2019-04-14 17:00:50.11: SIM {TimeUS : 60934783, Roll : -0.07, Pitch : -17.25, Yaw : 55.92, Alt : 49.3100013733, Lat : 49.2836639, Lng : -123.1148135, Q1 : 0.873309493065, Q2 : 0.0697387829423, Q3 : -0.132832333446, Q4 : 0.463489621878}
2019-04-14 17:00:50.21: SIM {TimeUS : 61034743, Roll : -0.02, Pitch : -17.26, Yaw : 55.81, Alt : 49.3100013733, Lat : 49.2836663, Lng : -123.1148085, Q1 : 0.87372392416, Q2 : 0.0700276345015, Q3 : -0.132740825415, Q4 : 0.462690472603}
2019-04-14 17:00:50.31: SIM {TimeUS : 61134703, Roll : 0.02, Pitch : -17.27, Yaw : 55.69, Alt : 49.3100013733, Lat : 49.2836685, Lng : -123.1148035, Q1 : 0.87414264679, Q2 : 0.0703560486436, Q3 : -0.132639676332, Q4 : 0.461878150702}
2019-04-14 17:00:50.41: SIM {TimeUS : 61234663, Roll : 0.07, Pitch : -17.28, Yaw : 55.59, Alt : 49.3100013733, Lat : 49.2836706, Lng : -123.1147984, Q1 : 0.874517023563, Q2 : 0.07067681849, Q3 : -0.132651284337, Q4 : 0.461116522551}
2019-04-14 17:00:50.51: SIM {TimeUS : 61334623, Roll : 0.13, Pitch : -17.32, Yaw : 55.5, Alt : 49.3100013733, Lat : 49.283673, Lng : -123.1147934, Q1 : 0.874798417091, Q2 : 0.0711709111929, Q3 : -0.132769912481, Q4 : 0.460472047329}
2019-04-14 17:00:50.62: SIM {TimeUS : 61435416, Roll : 0.18, Pitch : -17.38, Yaw : 55.43, Alt : 49.3100013733, Lat : 49.2836752, Lng : -123.1147883, Q1 : 0.874976813793, Q2 : 0.0717390999198, Q3 : -0.133055582643, Q4 : 0.459962219}
2019-04-14 17:00:50.71: SIM {TimeUS : 61535376, Roll : 0.21, Pitch : -17.41, Yaw : 55.38, Alt : 49.3100013733, Lat : 49.2836774, Lng : -123.1147832, Q1 : 0.875109374523, Q2 : 0.0720414444804, Q3 : -0.133182272315, Q4 : 0.459626078606}
2019-04-14 17:00:50.81: SIM {TimeUS : 61635336, Roll : 0.23, Pitch : -17.4, Yaw : 55.36, Alt : 49.3100013733, Lat : 49.2836797, Lng : -123.1147781, Q1 : 0.875204324722, Q2 : 0.0720852017403, Q3 : -0.133091107011, Q4 : 0.459464818239}
2019-04-14 17:00:50.91: SIM {TimeUS : 61735296, Roll : 0.2, Pitch : -17.41, Yaw : 55.35, Alt : 49.3100013733, Lat : 49.283682, Lng : -123.114773, Q1 : 0.875228703022, Q2 : 0.0719279050827, Q3 : -0.133240327239, Q4 : 0.459399759769}
2019-04-14 17:00:51.01: SIM {TimeUS : 61835256, Roll : 0.16, Pitch : -17.44, Yaw : 55.36, Alt : 49.3100013733, Lat : 49.2836843, Lng : -123.1147678, Q1 : 0.875182807446, Q2 : 0.0717203468084, Q3 : -0.133615881205, Q4 : 0.459410578012}
2019-04-14 17:00:51.11: SIM {TimeUS : 61935216, Roll : 0.12, Pitch : -17.47, Yaw : 55.38, Alt : 49.3100013733, Lat : 49.2836865, Lng : -123.1147627, Q1 : 0.875087857246, Q2 : 0.0715859979391, Q3 : -0.133999213576, Q4 : 0.45950075984}
2019-04-14 17:00:51.21: SIM {TimeUS : 62035176, Roll : 0.09, Pitch : -17.5, Yaw : 55.41, Alt : 49.3100013733, Lat : 49.2836888, Lng : -123.1147575, Q1 : 0.874972999096, Q2 : 0.0714578703046, Q3 : -0.134347140789, Q4 : 0.459637790918}
2019-04-14 17:00:51.31: SIM {TimeUS : 62135136, Roll : 0.07, Pitch : -17.52, Yaw : 55.43, Alt : 49.3199996948, Lat : 49.2836912, Lng : -123.1147523, Q1 : 0.874866604805, Q2 : 0.0714248046279, Q3 : -0.134553983808, Q4 : 0.459784984589}
2019-04-14 17:00:51.41: SIM {TimeUS : 62235096, Roll : 0.06, Pitch : -17.54, Yaw : 55.45, Alt : 49.3199996948, Lat : 49.2836935, Lng : -123.1147471, Q1 : 0.874776244164, Q2 : 0.071466781199, Q3 : -0.134731829166, Q4 : 0.459898233414}
2019-04-14 17:00:51.51: SIM {TimeUS : 62335056, Roll : 0.07, Pitch : -17.55, Yaw : 55.46, Alt : 49.3199996948, Lat : 49.2836957, Lng : -123.1147419, Q1 : 0.874726057053, Q2 : 0.0715622082353, Q3 : -0.134765803814, Q4 : 0.45996889472}
2019-04-14 17:00:51.61: SIM {TimeUS : 62435016, Roll : 0.09, Pitch : -17.57, Yaw : 55.46, Alt : 49.3199996948, Lat : 49.283698, Lng : -123.1147367, Q1 : 0.87469625473, Q2 : 0.0717901065946, Q3 : -0.134832724929, Q4 : 0.459970444441}
2019-04-14 17:00:51.71: SIM {TimeUS : 62534976, Roll : 0.11, Pitch : -17.59, Yaw : 55.45, Alt : 49.3199996948, Lat : 49.2837004, Lng : -123.1147315, Q1 : 0.874700963497, Q2 : 0.0720329657197, Q3 : -0.134929910302, Q4 : 0.459894955158}
2019-04-14 17:00:51.81: SIM {TimeUS : 62634936, Roll : 0.12, Pitch : -17.62, Yaw : 55.43, Alt : 49.3199996948, Lat : 49.2837027, Lng : -123.1147262, Q1 : 0.874738633633, Q2 : 0.07220993191, Q3 : -0.135137185454, Q4 : 0.459734767675}
2019-04-14 17:00:51.91: SIM {TimeUS : 62734896, Roll : 0.1, Pitch : -17.67, Yaw : 55.4, Alt : 49.3199996948, Lat : 49.2837051, Lng : -123.114721, Q1 : 0.874799370766, Q2 : 0.0722117498517, Q3 : -0.135601818562, Q4 : 0.459481984377}
2019-04-14 17:00:52.01: SIM {TimeUS : 62834856, Roll : 0.08, Pitch : -17.72, Yaw : 55.37, Alt : 49.3199996948, Lat : 49.2837074, Lng : -123.1147157, Q1 : 0.874871134758, Q2 : 0.0722583532333, Q3 : -0.136048778892, Q4 : 0.459205776453}
2019-04-14 17:00:52.11: SIM {TimeUS : 62934816, Roll : 0.1, Pitch : -17.75, Yaw : 55.34, Alt : 49.3199996948, Lat : 49.2837096, Lng : -123.1147104, Q1 : 0.874948382378, Q2 : 0.0724749714136, Q3 : -0.136256381869, Q4 : 0.458962917328}
2019-04-14 17:00:52.21: SIM {TimeUS : 63034776, Roll : 0.12, Pitch : -17.75, Yaw : 55.31, Alt : 49.3199996948, Lat : 49.283712, Lng : -123.1147051, Q1 : 0.875057756901, Q2 : 0.0726110339165, Q3 : -0.13621404767, Q4 : 0.458745390177}
2019-04-14 17:00:52.31: SIM {TimeUS : 63134736, Roll : 0.14, Pitch : -17.73, Yaw : 55.28, Alt : 49.3199996948, Lat : 49.2837144, Lng : -123.1146998, Q1 : 0.875195682049, Q2 : 0.0726300925016, Q3 : -0.135983869433, Q4 : 0.458547502756}
2019-04-14 17:00:52.41: SIM {TimeUS : 63234696, Roll : 0.14, Pitch : -17.71, Yaw : 55.25, Alt : 49.3199996948, Lat : 49.2837168, Lng : -123.1146945, Q1 : 0.875323057175, Q2 : 0.0725394412875, Q3 : -0.135831549764, Q4 : 0.458363890648}
2019-04-14 17:00:52.51: SIM {TimeUS : 63334656, Roll : 0.15, Pitch : -17.69, Yaw : 55.23, Alt : 49.3199996948, Lat : 49.2837192, Lng : -123.1146892, Q1 : 0.875434935093, Q2 : 0.0724694877863, Q3 : -0.135693386197, Q4 : 0.458202123642}
2019-04-14 17:00:52.61: SIM {TimeUS : 63434616, Roll : 0.15, Pitch : -17.68, Yaw : 55.21, Alt : 49.3199996948, Lat : 49.2837215, Lng : -123.1146839, Q1 : 0.875517964363, Q2 : 0.0724376961589, Q3 : -0.135583281517, Q4 : 0.458081126213}
2019-04-14 17:00:52.71: SIM {TimeUS : 63535409, Roll : 0.16, Pitch : -17.69, Yaw : 55.19, Alt : 49.3199996948, Lat : 49.2837239, Lng : -123.1146785, Q1 : 0.875555932522, Q2 : 0.0724973231554, Q3 : -0.135683894157, Q4 : 0.457969248295}
2019-04-14 17:00:52.81: SIM {TimeUS : 63635369, Roll : 0.17, Pitch : -17.72, Yaw : 55.18, Alt : 49.3300018311, Lat : 49.2837263, Lng : -123.1146731, Q1 : 0.875569581985, Q2 : 0.0726496875286, Q3 : -0.135833874345, Q4 : 0.457874596119}
2019-04-14 17:00:52.91: SIM {TimeUS : 63735329, Roll : 0.16, Pitch : -17.77, Yaw : 55.17, Alt : 49.3300018311, Lat : 49.2837287, Lng : -123.1146678, Q1 : 0.875550329685, Q2 : 0.0727863386273, Q3 : -0.136264711618, Q4 : 0.457761675119}
2019-04-14 17:00:53.01: SIM {TimeUS : 63835289, Roll : 0.15, Pitch : -17.82, Yaw : 55.17, Alt : 49.3300018311, Lat : 49.2837311, Lng : -123.1146624, Q1 : 0.87552022934, Q2 : 0.0729281902313, Q3 : -0.13673107326, Q4 : 0.457657635212}
2019-04-14 17:00:53.11: SIM {TimeUS : 63935249, Roll : 0.15, Pitch : -17.86, Yaw : 55.16, Alt : 49.3300018311, Lat : 49.2837333, Lng : -123.114657, Q1 : 0.875500380993, Q2 : 0.0730464681983, Q3 : -0.136999085546, Q4 : 0.457596480846}
2019-04-14 17:00:53.21: SIM {TimeUS : 64035209, Roll : 0.13, Pitch : -17.88, Yaw : 55.16, Alt : 49.3300018311, Lat : 49.2837357, Lng : -123.1146515, Q1 : 0.875498354435, Q2 : 0.0730260759592, Q3 : -0.13726092875, Q4 : 0.457525223494}
2019-04-14 17:00:53.31: SIM {TimeUS : 64135169, Roll : 0.12, Pitch : -17.9, Yaw : 55.15, Alt : 49.3300018311, Lat : 49.2837381, Lng : -123.1146463, Q1 : 0.875506937504, Q2 : 0.0729864090681, Q3 : -0.137456968427, Q4 : 0.457456171513}
2019-04-14 17:00:53.41: SIM {TimeUS : 64235129, Roll : 0.13, Pitch : -17.9, Yaw : 55.14, Alt : 49.3300018311, Lat : 49.2837405, Lng : -123.1146409, Q1 : 0.875533938408, Q2 : 0.0730217844248, Q3 : -0.137377530336, Q4 : 0.457422703505}
2019-04-14 17:00:53.51: SIM {TimeUS : 64335089, Roll : 0.15, Pitch : -17.9, Yaw : 55.13, Alt : 49.3300018311, Lat : 49.283743, Lng : -123.1146355, Q1 : 0.875550448895, Q2 : 0.0732012316585, Q3 : -0.137337431312, Q4 : 0.457374542952}
2019-04-14 17:00:53.61: SIM {TimeUS : 64435049, Roll : 0.16, Pitch : -17.91, Yaw : 55.12, Alt : 49.3300018311, Lat : 49.2837454, Lng : -123.1146301, Q1 : 0.875565886497, Q2 : 0.073364071548, Q3 : -0.137390345335, Q4 : 0.457303017378}
2019-04-14 17:00:53.71: SIM {TimeUS : 64535009, Roll : 0.18, Pitch : -17.92, Yaw : 55.11, Alt : 49.3300018311, Lat : 49.2837478, Lng : -123.1146246, Q1 : 0.875589311123, Q2 : 0.0735049620271, Q3 : -0.137393385172, Q4 : 0.457234621048}
2019-04-14 17:00:53.81: SIM {TimeUS : 64634969, Roll : 0.2, Pitch : -17.92, Yaw : 55.1, Alt : 49.3300018311, Lat : 49.2837503, Lng : -123.1146192, Q1 : 0.875632107258, Q2 : 0.0736033990979, Q3 : -0.137312427163, Q4 : 0.457161128521}
2019-04-14 17:00:53.91: SIM {TimeUS : 64734929, Roll : 0.2, Pitch : -17.92, Yaw : 55.09, Alt : 49.3300018311, Lat : 49.2837527, Lng : -123.1146138, Q1 : 0.875683665276, Q2 : 0.0736059248447, Q3 : -0.137322306633, Q4 : 0.457059025764}
2019-04-14 17:00:54.01: SIM {TimeUS : 64834889, Roll : 0.18, Pitch : -17.94, Yaw : 55.07, Alt : 49.3300018311, Lat : 49.2837551, Lng : -123.1146083, Q1 : 0.875730991364, Q2 : 0.0734933912754, Q3 : -0.137576118112, Q4 : 0.456910014153}
2019-04-14 17:00:54.11: SIM {TimeUS : 64934849, Roll : 0.14, Pitch : -17.98, Yaw : 55.06, Alt : 49.3300018311, Lat : 49.2837575, Lng : -123.1146029, Q1 : 0.87576174736, Q2 : 0.073363147676, Q3 : -0.138035967946, Q4 : 0.456733345985}
2019-04-14 17:00:54.21: SIM {TimeUS : 65034809, Roll : 0.12, Pitch : -17.99, Yaw : 55.05, Alt : 49.3300018311, Lat : 49.28376, Lng : -123.1145974, Q1 : 0.87581628561, Q2 : 0.0732327178121, Q3 : -0.13819719851, Q4 : 0.456600785255}
2019-04-14 17:00:54.31: SIM {TimeUS : 65134769, Roll : 0.13, Pitch : -17.98, Yaw : 55.03, Alt : 49.3400001526, Lat : 49.2837624, Lng : -123.1145919, Q1 : 0.875877261162, Q2 : 0.073219679296, Q3 : -0.13808208704, Q4 : 0.456520795822}
2019-04-14 17:00:54.41: SIM {TimeUS : 65234729, Roll : 0.15, Pitch : -17.96, Yaw : 55.02, Alt : 49.3400001526, Lat : 49.2837648, Lng : -123.1145865, Q1 : 0.875930428505, Q2 : 0.0733024030924, Q3 : -0.137906253338, Q4 : 0.456458687782}
2019-04-14 17:00:54.51: SIM {TimeUS : 65334689, Roll : 0.16, Pitch : -17.97, Yaw : 55.01, Alt : 49.3400001526, Lat : 49.2837673, Lng : -123.1145811, Q1 : 0.875963687897, Q2 : 0.0734416916966, Q3 : -0.137876152992, Q4 : 0.45638152957}
2019-04-14 17:00:54.61: SIM {TimeUS : 65434649, Roll : 0.16, Pitch : -17.98, Yaw : 55.0, Alt : 49.3400001526, Lat : 49.2837697, Lng : -123.1145756, Q1 : 0.875993967056, Q2 : 0.0734584480524, Q3 : -0.138019055128, Q4 : 0.456277519464}
2019-04-14 17:00:54.72: SIM {TimeUS : 65535442, Roll : 0.14, Pitch : -18.01, Yaw : 54.99, Alt : 49.3400001526, Lat : 49.2837721, Lng : -123.1145701, Q1 : 0.876022815704, Q2 : 0.0733803361654, Q3 : -0.138268873096, Q4 : 0.456159025431}
2019-04-14 17:00:54.81: SIM {TimeUS : 65635402, Roll : 0.13, Pitch : -18.03, Yaw : 54.97, Alt : 49.3400001526, Lat : 49.2837746, Lng : -123.1145646, Q1 : 0.87604957819, Q2 : 0.0733328983188, Q3 : -0.138493612409, Q4 : 0.456047087908}
2019-04-14 17:00:54.91: SIM {TimeUS : 65735362, Roll : 0.13, Pitch : -18.05, Yaw : 54.96, Alt : 49.3400001526, Lat : 49.283777, Lng : -123.1145591, Q1 : 0.876066327095, Q2 : 0.0734302699566, Q3 : -0.138636127114, Q4 : 0.455956012011}
2019-04-14 17:00:55.01: SIM {TimeUS : 65835322, Roll : 0.14, Pitch : -18.06, Yaw : 54.95, Alt : 49.3400001526, Lat : 49.2837794, Lng : -123.1145536, Q1 : 0.876081228256, Q2 : 0.0735591426492, Q3 : -0.1387257725, Q4 : 0.45587927103}
2019-04-14 17:00:55.11: SIM {TimeUS : 65935282, Roll : 0.17, Pitch : -18.07, Yaw : 54.95, Alt : 49.3400001526, Lat : 49.2837819, Lng : -123.1145481, Q1 : 0.876080989838, Q2 : 0.0738071650267, Q3 : -0.138716384768, Q4 : 0.455842494965}
2019-04-14 17:00:55.21: SIM {TimeUS : 66035242, Roll : 0.18, Pitch : -18.09, Yaw : 54.94, Alt : 49.3400001526, Lat : 49.2837843, Lng : -123.1145426, Q1 : 0.876074254513, Q2 : 0.0740018188953, Q3 : -0.138798832893, Q4 : 0.455798715353}
2019-04-14 17:00:55.31: SIM {TimeUS : 66135202, Roll : 0.2, Pitch : -18.11, Yaw : 54.93, Alt : 49.3400001526, Lat : 49.2837867, Lng : -123.1145371, Q1 : 0.876067280769, Q2 : 0.0741835385561, Q3 : -0.138893991709, Q4 : 0.455753684044}
2019-04-14 17:00:55.41: SIM {TimeUS : 66235162, Roll : 0.21, Pitch : -18.13, Yaw : 54.93, Alt : 49.3400001526, Lat : 49.2837892, Lng : -123.1145316, Q1 : 0.876060843468, Q2 : 0.0743662714958, Q3 : -0.13895830512, Q4 : 0.455716609955}
2019-04-14 17:00:55.51: SIM {TimeUS : 66335122, Roll : 0.24, Pitch : -18.14, Yaw : 54.92, Alt : 49.3400001526, Lat : 49.2837917, Lng : -123.1145261, Q1 : 0.876055300236, Q2 : 0.0746007636189, Q3 : -0.138922229409, Q4 : 0.455700099468}
2019-04-14 17:00:55.61: SIM {TimeUS : 66435082, Roll : 0.27, Pitch : -18.15, Yaw : 54.91, Alt : 49.3499984741, Lat : 49.2837941, Lng : -123.1145206, Q1 : 0.876045703888, Q2 : 0.0748384892941, Q3 : -0.138938754797, Q4 : 0.455674350262}
