2019-04-14 18:40:13.00: SIM {TimeUS : 40816167, Roll : 0.0, Pitch : 0.0, Yaw : 0.0, Alt : 30.1000003815, Lat : 49.28357, Lng : -123.11502, Q1 : 1.0, Q2 : 0.0, Q3 : 0.0, Q4 : 0.0}
2019-04-14 18:40:13.11: SIM {TimeUS : 40935286, Roll : 0.0, Pitch : 0.0, Yaw : 0.0, Alt : 30.1000003815, Lat : 49.28357, Lng : -123.11502, Q1 : 1.0, Q2 : 0.0, Q3 : 0.0, Q4 : 0.0}
2019-04-14 18:40:13.21: SIM {TimeUS : 41035246, Roll : 0.0, Pitch : 0.0, Yaw : 0.0, Alt : 30.1000003815, Lat : 49.28357, Lng : -123.11502, Q1 : 1.0, Q2 : 0.0, Q3 : 0.0, Q4 : 0.0}
2019-04-14 18:40:13.31: SIM {TimeUS : 41135206, Roll : 0.0, Pitch : 0.0, Yaw : 0.0, Alt : 30.1000003815, Lat : 49.28357, Lng : -123.11502, Q1 : 1.0, Q2 : 0.0, Q3 : 0.0, Q4 : 0.0}
2019-04-14 18:40:13.41: SIM {TimeUS : 41235166, Roll : 0.0, Pitch : 0.0, Yaw : 0.0, Alt : 30.1000003815, Lat : 49.28357, Lng : -123.11502, Q1 : 1.0, Q2 : 0.0, Q3 : 0.0, Q4 : 0.0}
2019-04-14 18:40:13.51: SIM {TimeUS : 41335126, Roll : 0.0, Pitch : 0.0, Yaw : 0.0, Alt : 30.1000003815, Lat : 49.28357, Lng : -123.11502, Q1 : 1.0, Q2 : 0.0, Q3 : 0.0, Q4 : 0.0}
2019-04-14 18:40:13.61: SIM {TimeUS : 41435086, Roll : 0.0, Pitch : 0.0, Yaw : 0.0, Alt : 30.1000003815, Lat : 49.28357, Lng : -123.11502, Q1 : 1.0, Q2 : 0.0, Q3 : 0.0, Q4 : 0.0}
2019-04-14 18:40:13.71: SIM {TimeUS : 41535046, Roll : 0.0, Pitch : 0.0, Yaw : 0.0, Alt : 30.1000003815, Lat : 49.28357, Lng : -123.11502, Q1 : 1.0, Q2 : 0.0, Q3 : 0.0, Q4 : 0.0}
2019-04-14 18:40:13.81: SIM {TimeUS : 41635006, Roll : 0.0, Pitch : 0.0, Yaw : 0.0, Alt : 30.1000003815, Lat : 49.28357, Lng : -123.11502, Q1 : 1.0, Q2 : 0.0, Q3 : 0.0, Q4 : 0.0}
2019-04-14 18:40:13.91: SIM {TimeUS : 41734966, Roll : 0.0, Pitch : 0.0, Yaw : 0.0, Alt : 30.1000003815, Lat : 49.28357, Lng : -123.11502, Q1 : 1.0, Q2 : 0.0, Q3 : 0.0, Q4 : 0.0}
2019-04-14 18:40:14.01: SIM {TimeUS : 41834926, Roll : 0.0, Pitch : 0.0, Yaw : 0.0, Alt : 30.1000003815, Lat : 49.28357, Lng : -123.11502, Q1 : 1.0, Q2 : 0.0, Q3 : 0.0, Q4 : 0.0}
2019-04-14 18:40:14.11: SIM {TimeUS : 41934886, Roll : 0.0, Pitch : 0.0, Yaw : 0.0, Alt : 30.1000003815, Lat : 49.28357, Lng : -123.11502, Q1 : 1.0, Q2 : 0.0, Q3 : 0.0, Q4 : 0.0}
2019-04-14 18:40:14.21: SIM {TimeUS : 42034846, Roll : 0.0, Pitch : 0.0, Yaw : 0.0, Alt : 30.1000003815, Lat : 49.28357, Lng : -123.11502, Q1 : 1.0, Q2 : 0.0, Q3 : 0.0, Q4 : 0.0}
2019-04-14 18:40:14.31: SIM {TimeUS : 42134806, Roll : 0.0, Pitch : 0.0, Yaw : 0.0, Alt : 30.1000003815, Lat : 49.28357, Lng : -123.11502, Q1 : 1.0, Q2 : 0.0, Q3 : 0.0, Q4 : 0.0}
2019-04-14 18:40:14.41: SIM {TimeUS : 42234766, Roll : 0.0, Pitch : 0.0, Yaw : 0.0, Alt : 30.1000003815, Lat : 49.28357, Lng : -123.11502, Q1 : 1.0, Q2 : 0.0, Q3 : 0.0, Q4 : 0.0}
2019-04-14 18:40:14.51: SIM {TimeUS : 42334726, Roll : 0.0, Pitch : 0.0, Yaw : 0.0, Alt : 30.1000003815, Lat : 49.28357, Lng : -123.11502, Q1 : 1.0, Q2 : 0.0, Q3 : 0.0, Q4 : 0.0}
2019-04-14 18:40:14.61: SIM {TimeUS : 42434686, Roll : 0.0, Pitch : 0.0, Yaw : 0.0, Alt : 30.1000003815, Lat : 49.28357, Lng : -123.11502, Q1 : 1.0, Q2 : 0.0, Q3 : 0.0, Q4 : 0.0}
2019-04-14 18:40:14.71: SIM {TimeUS : 42534646, Roll : 0.0, Pitch : 0.0, Yaw : 0.0, Alt : 30.1000003815, Lat : 49.28357, Lng : -123.11502, Q1 : 1.0, Q2 : 0.0, Q3 : 0.0, Q4 : 0.0}
2019-04-14 18:40:14.81: SIM {TimeUS : 42634606, Roll : 0.0, Pitch : 0.0, Yaw : 0.0, Alt : 30.1000003815, Lat : 49.28357, Lng : -123.11502, Q1 : 1.0, Q2 : 0.0, Q3 : 0.0, Q4 : 0.0}
2019-04-14 18:40:14.91: SIM {TimeUS : 42734566, Roll : 0.0, Pitch : 0.0, Yaw : 0.0, Alt : 30.1000003815, Lat : 49.28357, Lng : -123.11502, Q1 : 1.0, Q2 : 0.0, Q3 : 0.0, Q4 : 0.0}
2019-04-14 18:40:15.01: SIM {TimeUS : 42834526, Roll : 0.0, Pitch : 0.0, Yaw : 0.0, Alt : 30.1000003815, Lat : 49.28357, Lng : -123.11502, Q1 : 1.0, Q2 : 0.0, Q3 : 0.0, Q4 : 0.0}
2019-04-14 18:40:15.11: SIM {TimeUS : 42935319, Roll : 0.0, Pitch : 0.0, Yaw : 0.0, Alt : 30.1000003815, Lat : 49.28357, Lng : -123.11502, Q1 : 1.0, Q2 : 0.0, Q3 : 0.0, Q4 : 0.0}
2019-04-14 18:40:15.21: SIM {TimeUS : 43035279, Roll : 0.0, Pitch : 0.0, Yaw : 0.0, Alt : 30.1000003815, Lat : 49.28357, Lng : -123.11502, Q1 : 1.0, Q2 : 0.0, Q3 : 0.0, Q4 : 0.0}
2019-04-14 18:40:15.31: SIM {TimeUS : 43135239, Roll : 0.0, Pitch : 0.0, Yaw : 360.0, Alt : 30.1000003815, Lat : 49.28357, Lng : -123.11502, Q1 : 1.0, Q2 : 0.0, Q3 : 0.0, Q4 : -1.30378364355e-11}
2019-04-14 18:40:15.41: SIM {TimeUS : 43235199, Roll : 0.0, Pitch : 0.0, Yaw : 360.0, Alt : 30.1000003815, Lat : 49.28357, Lng : -123.11502, Q1 : 1.0, Q2 : 0.0, Q3 : 0.0, Q4 : -1.61347042393e-08}
2019-04-14 18:40:15.51: SIM {TimeUS : 43335159, Roll : 0.0, Pitch : 0.0, Yaw : 359.99, Alt : 30.1000003815, Lat : 49.28357, Lng : -123.11502, Q1 : 1.0, Q2 : 0.0, Q3 : 0.0, Q4 : -2.17456857854e-07}
2019-04-14 18:40:15.61: SIM {TimeUS : 43435119, Roll : 0.0, Pitch : 0.0, Yaw : 359.99, Alt : 30.1000003815, Lat : 49.28357, Lng : -123.11502, Q1 : 1.0, Q2 : 0.0, Q3 : 0.0, Q4 : -4.00171472847e-07}
2019-04-14 18:40:15.71: SIM {TimeUS : 43535079, Roll : 0.0, Pitch : 0.0, Yaw : 359.99, Alt : 30.1000003815, Lat : 49.28357, Lng : -123.11502, Q1 : 1.0, Q2 : 0.0, Q3 : 0.0, Q4 : -6.04655326697e-07}
2019-04-14 18:40:15.81: SIM {TimeUS : 43635039, Roll : 0.0, Pitch : 0.0, Yaw : 359.99, Alt : 30.1000003815, Lat : 49.28357, Lng : -123.11502, Q1 : 1.0, Q2 : 0.0, Q3 : 0.0, Q4 : -7.90581736965e-07}
2019-04-14 18:40:15.91: SIM {TimeUS : 43734999, Roll : 0.0, Pitch : 0.0, Yaw : 359.99, Alt : 30.1000003815, Lat : 49.28357, Lng : -123.11502, Q1 : 1.0, Q2 : 0.0, Q3 : 0.0, Q4 : -9.71279291662e-07}
2019-04-14 18:40:16.01: SIM {TimeUS : 43834959, Roll : 0.0, Pitch : 0.0, Yaw : 359.99, Alt : 30.1000003815, Lat : 49.28357, Lng : -123.11502, Q1 : 1.0, Q2 : 0.0, Q3 : 0.0, Q4 : -1.15550903956e-06}
2019-04-14 18:40:16.11: SIM {TimeUS : 43934919, Roll : 0.0, Pitch : 0.0, Yaw : 359.99, Alt : 30.1000003815, Lat : 49.28357, Lng : -123.11502, Q1 : 1.0, Q2 : 0.0, Q3 : 0.0, Q4 : -1.36439552989e-06}
2019-04-14 18:40:16.21: SIM {TimeUS : 44034879, Roll : 0.0, Pitch : 0.0, Yaw : 359.99, Alt : 30.1200008392, Lat : 49.28357, Lng : -123.11502, Q1 : 1.0, Q2 : 0.0, Q3 : 0.0, Q4 : -1.53995665642e-06}
2019-04-14 18:40:16.31: SIM {TimeUS : 44134839, Roll : 0.0, Pitch : 0.0, Yaw : 359.99, Alt : 30.1499996185, Lat : 49.28357, Lng : -123.11502, Q1 : 1.0, Q2 : 0.0, Q3 : 0.0, Q4 : -1.81072880423e-06}
2019-04-14 18:40:16.41: SIM {TimeUS : 44234799, Roll : 0.0, Pitch : 0.0, Yaw : 359.99, Alt : 30.1800003052, Lat : 49.28357, Lng : -123.11502, Q1 : 1.0, Q2 : 0.0, Q3 : 0.0, Q4 : -2.05376818485e-06}
2019-04-14 18:40:16.51: SIM {TimeUS : 44334759, Roll : 0.0, Pitch : 0.0, Yaw : 359.99, Alt : 30.2099990845, Lat : 49.28357, Lng : -123.11502, Q1 : 1.0, Q2 : -7.32536864234e-06, Q3 : -7.5440798355e-06, Q4 : -2.17028082261e-06}
2019-04-14 18:40:16.61: SIM {TimeUS : 44434719, Roll : -0.16, Pitch : -0.16, Yaw : 359.99, Alt : 30.2700004578, Lat : 49.28357, Lng : -123.11502, Q1 : 0.999998033047, Q2 : -0.00141816423275, Q3 : -0.00140862644184, Q4 : -1.6905954908e-05}
2019-04-14 18:40:16.71: SIM {TimeUS : 44534679, Roll : -0.47, Pitch : -0.41, Yaw : 359.99, Alt : 30.3899993896, Lat : 49.28357, Lng : -123.11502, Q1 : 0.999984920025, Q2 : -0.00414405949414, Q3 : -0.00360071915202, Q4 : -6.05789246038e-05}
2019-04-14 18:40:16.81: SIM {TimeUS : 44634639, Roll : -0.76, Pitch : -0.6, Yaw : 359.98, Alt : 30.5400009155, Lat : 49.28357, Lng : -123.11502, Q1 : 0.999963998795, Q2 : -0.00665355660021, Q3 : -0.00526977516711, Q4 : -0.000125125297927}
2019-04-14 18:40:16.91: SIM {TimeUS : 44734599, Roll : -0.88, Pitch : -0.68, Yaw : 359.98, Alt : 30.7000007629, Lat : 49.28357, Lng : -123.11502, Q1 : 0.999952018261, Q2 : -0.00776490755379, Q3 : -0.00596901914105, Q4 : -0.000199801288545}
2019-04-14 18:40:17.01: SIM {TimeUS : 44834559, Roll : -0.83, Pitch : -0.65, Yaw : 359.97, Alt : 30.8500003815, Lat : 49.28357, Lng : -123.11502, Q1 : 0.999957382679, Q2 : -0.00726206460968, Q3 : -0.00569486850873, Q4 : -0.000279838801362}
2019-04-14 18:40:17.11: SIM {TimeUS : 44934519, Roll : -0.64, Pitch : -0.53, Yaw : 359.96, Alt : 31.0100002289, Lat : 49.28357, Lng : -123.1150201, Q1 : 0.999973416328, Q2 : -0.0056023504585, Q3 : -0.004653041251, Q4 : -0.000353245355655}
2019-04-14 18:40:17.21: SIM {TimeUS : 45035312, Roll : -0.38, Pitch : -0.36, Yaw : 359.95, Alt : 31.1599998474, Lat : 49.2835701, Lng : -123.1150202, Q1 : 0.999989151955, Q2 : -0.00337988277897, Q3 : -0.00317393965088, Q4 : -0.000413644535001}
2019-04-14 18:40:17.31: SIM {TimeUS : 45135272, Roll : -0.14, Pitch : -0.19, Yaw : 359.94, Alt : 31.3299999237, Lat : 49.2835701, Lng : -123.1150203, Q1 : 0.999997675419, Q2 : -0.00129335466772, Q3 : -0.00167827773839, Q4 : -0.000461438961793}
2019-04-14 18:40:17.41: SIM {TimeUS : 45235232, Roll : 0.01, Pitch : -0.04, Yaw : 359.94, Alt : 31.5, Lat : 49.2835702, Lng : -123.1150203, Q1 : 0.999999821186, Q2 : 0.000126193190226, Q3 : -0.000384208018659, Q4 : -0.000495753833093}
2019-04-14 18:40:17.51: SIM {TimeUS : 45335192, Roll : 0.08, Pitch : 0.05, Yaw : 359.94, Alt : 31.6700000763, Lat : 49.2835702, Lng : -123.1150204, Q1 : 0.999999463558, Q2 : 0.000748870312236, Q3 : 0.000523211725522, Q4 : -0.000514902465511}
2019-04-14 18:40:17.61: SIM {TimeUS : 45435152, Roll : 0.07, Pitch : 0.11, Yaw : 359.94, Alt : 31.8500003815, Lat : 49.2835703, Lng : -123.1150205, Q1 : 0.999999165535, Q2 : 0.000678450800478, Q3 : 0.00098507956136, Q4 : -0.000522005895618}
2019-04-14 18:40:17.71: SIM {TimeUS : 45535112, Roll : 0.05, Pitch : 0.13, Yaw : 359.93, Alt : 32.0400009155, Lat : 49.2835703, Lng : -123.1150205, Q1 : 0.999999046326, Q2 : 0.000489808386192, Q3 : 0.00118544255383, Q4 : -0.000532107020263}
2019-04-14 18:40:17.81: SIM {TimeUS : 45635072, Roll : 0.04, Pitch : 0.13, Yaw : 359.93, Alt : 32.2200012207, Lat : 49.2835703, Lng : -123.1150206, Q1 : 0.999999046326, Q2 : 0.000387275737012, Q3 : 0.00121738819871, Q4 : -0.000541936198715}
2019-04-14 18:40:17.91: SIM {TimeUS : 45735032, Roll : 0.03, Pitch : 0.14, Yaw : 359.93, Alt : 32.4199981689, Lat : 49.2835703, Lng : -123.1150206, Q1 : 0.999999046326, Q2 : 0.000330065755406, Q3 : 0.00123526295647, Q4 : -0.000550258089788}
2019-04-14 18:40:18.01: SIM {TimeUS : 45834992, Roll : 0.05, Pitch : 0.15, Yaw : 359.93, Alt : 32.6100006104, Lat : 49.2835703, Lng : -123.1150207, Q1 : 0.999998807907, Q2 : 0.00047475003521, Q3 : 0.00136260082945, Q4 : -0.000539435073733}
2019-04-14 18:40:18.11: SIM {TimeUS : 45934952, Roll : 0.08, Pitch : 0.14, Yaw : 359.94, Alt : 32.8100013733, Lat : 49.2835703, Lng : -123.1150207, Q1 : 0.999998748302, Q2 : 0.000759345595725, Q3 : 0.00127304811031, Q4 : -0.000523066788446}
2019-04-14 18:40:18.21: SIM {TimeUS : 46034912, Roll : 0.12, Pitch : 0.11, Yaw : 359.94, Alt : 33.0099983215, Lat : 49.2835704, Lng : -123.1150207, Q1 : 0.999998748302, Q2 : 0.00108485238161, Q3 : 0.0010270443745, Q4 : -0.000503210758325}
2019-04-14 18:40:18.31: SIM {TimeUS : 46134872, Roll : 0.15, Pitch : 0.09, Yaw : 359.94, Alt : 33.2099990845, Lat : 49.2835704, Lng : -123.1150208, Q1 : 0.999998569489, Q2 : 0.00137960270513, Q3 : 0.000856109429151, Q4 : -0.000482791510876}
2019-04-14 18:40:18.41: SIM {TimeUS : 46234832, Roll : 0.18, Pitch : 0.09, Yaw : 359.94, Alt : 33.4099998474, Lat : 49.2835704, Lng : -123.1150208, Q1 : 0.99999833107, Q2 : 0.00157252920326, Q3 : 0.000853628851473, Q4 : -0.000458398892079}
2019-04-14 18:40:18.51: SIM {TimeUS : 46334792, Roll : 0.19, Pitch : 0.11, Yaw : 359.95, Alt : 33.6199989319, Lat : 49.2835704, Lng : -123.1150208, Q1 : 0.999997973442, Q2 : 0.00168887979817, Q3 : 0.000989055261016, Q4 : -0.000433840497863}
2019-04-14 18:40:18.61: SIM {TimeUS : 46434752, Roll : 0.18, Pitch : 0.12, Yaw : 359.95, Alt : 33.8300018311, Lat : 49.2835704, Lng : -123.1150208, Q1 : 0.999998033047, Q2 : 0.0016367174685, Q3 : 0.00107161572669, Q4 : -0.000417386181653}
2019-04-14 18:40:18.71: SIM {TimeUS : 46534712, Roll : 0.16, Pitch : 0.12, Yaw : 359.95, Alt : 34.0400009155, Lat : 49.2835704, Lng : -123.1150208, Q1 : 0.999998271465, Q2 : 0.00142283958849, Q3 : 0.00111917743925, Q4 : -0.000404490507208}
2019-04-14 18:40:18.81: SIM {TimeUS : 46634672, Roll : 0.12, Pitch : 0.13, Yaw : 359.95, Alt : 34.25, Lat : 49.2835704, Lng : -123.1150208, Q1 : 0.999998569489, Q2 : 0.00113457068801, Q3 : 0.00117543991655, Q4 : -0.000401582976338}
2019-04-14 18:40:18.91: SIM {TimeUS : 46734632, Roll : 0.09, Pitch : 0.13, Yaw : 359.95, Alt : 34.4599990845, Lat : 49.2835704, Lng : -123.1150208, Q1 : 0.999998867512, Q2 : 0.000866087910254, Q3 : 0.00114507274702, Q4 : -0.000407435116358}
2019-04-14 18:40:19.01: SIM {TimeUS : 46834592, Roll : 0.08, Pitch : 0.09, Yaw : 359.94, Alt : 34.6699981689, Lat : 49.2835704, Lng : -123.1150208, Q1 : 0.999999284744, Q2 : 0.000750346167479, Q3 : 0.000808819779195, Q4 : -0.000437734241132}
2019-04-14 18:40:19.11: SIM {TimeUS : 46934552, Roll : 0.08, Pitch : 0.05, Yaw : 359.94, Alt : 34.8899993896, Lat : 49.2835704, Lng : -123.1150208, Q1 : 0.999999523163, Q2 : 0.00073084665928, Q3 : 0.00048215786228, Q4 : -0.000486570963403}
2019-04-14 18:40:19.21: SIM {TimeUS : 47034512, Roll : 0.07, Pitch : 0.03, Yaw : 359.93, Alt : 35.0999984741, Lat : 49.2835704, Lng : -123.1150208, Q1 : 0.999999582767, Q2 : 0.000622120744083, Q3 : 0.000320385792293, Q4 : -0.000540378910955}
2019-04-14 18:40:19.31: SIM {TimeUS : 47135305, Roll : 0.05, Pitch : 0.03, Yaw : 359.93, Alt : 35.3199996948, Lat : 49.2835704, Lng : -123.1150207, Q1 : 0.999999642372, Q2 : 0.00052359822439, Q3 : 0.00027192584821, Q4 : -0.000589878181927}
2019-04-14 18:40:19.41: SIM {TimeUS : 47235265, Roll : 0.05, Pitch : 0.02, Yaw : 359.92, Alt : 35.5400009155, Lat : 49.2835704, Lng : -123.1150207, Q1 : 0.999999642372, Q2 : 0.000497812696267, Q3 : 0.00022742713918, Q4 : -0.000630372262094}
2019-04-14 18:40:19.51: SIM {TimeUS : 47335225, Roll : 0.03, Pitch : 0.0, Yaw : 359.92, Alt : 35.7599983215, Lat : 49.2835704, Lng : -123.1150207, Q1 : 0.999999761581, Q2 : 0.000273109297268, Q3 : 1.72071777342e-05, Q4 : -0.000666217296384}
2019-04-14 18:40:19.61: SIM {TimeUS : 47435185, Roll : 0.0, Pitch : -0.03, Yaw : 359.92, Alt : 35.9799995422, Lat : 49.2835704, Lng : -123.1150207, Q1 : 0.999999701977, Q2 : -4.79804875795e-05, Q3 : -0.000340167578543, Q4 : -0.000694780028425}
2019-04-14 18:40:19.71: SIM {TimeUS : 47535145, Roll : -0.04, Pitch : -0.06, Yaw : 359.91, Alt : 36.2000007629, Lat : 49.2835704, Lng : -123.1150207, Q1 : 0.999999523163, Q2 : -0.000379879376851, Q3 : -0.000557937833946, Q4 : -0.00072735408321}
2019-04-14 18:40:19.81: SIM {TimeUS : 47635105, Roll : -0.07, Pitch : -0.07, Yaw : 359.91, Alt : 36.4199981689, Lat : 49.2835704, Lng : -123.1150207, Q1 : 0.999999284744, Q2 : -0.000648191547953, Q3 : -0.000658150413074, Q4 : -0.00075762817869}
2019-04-14 18:40:19.91: SIM {TimeUS : 47735065, Roll : -0.07, Pitch : -0.07, Yaw : 359.91, Alt : 36.6399993896, Lat : 49.2835704, Lng : -123.1150206, Q1 : 0.999999284744, Q2 : -0.000694340968039, Q3 : -0.000633803079836, Q4 : -0.000779103836976}
2019-04-14 18:40:20.01: SIM {TimeUS : 47835025, Roll : -0.08, Pitch : -0.06, Yaw : 359.9, Alt : 36.8699989319, Lat : 49.2835704, Lng : -123.1150206, Q1 : 0.999999284744, Q2 : -0.000703359837644, Q3 : -0.000590474926867, Q4 : -0.000797994376626}
2019-04-14 18:40:20.11: SIM {TimeUS : 47934985, Roll : -0.07, Pitch : -0.05, Yaw : 359.9, Alt : 37.0900001526, Lat : 49.2835704, Lng : -123.1150206, Q1 : 0.999999344349, Q2 : -0.0006513838307, Q3 : -0.000461824121885, Q4 : -0.000814905331936}
2019-04-14 18:40:20.21: SIM {TimeUS : 48034945, Roll : -0.06, Pitch : -0.04, Yaw : 359.9, Alt : 37.3199996948, Lat : 49.2835704, Lng : -123.1150206, Q1 : 0.999999403954, Q2 : -0.000556435086764, Q3 : -0.000396960182115, Q4 : -0.00082581746392}
2019-04-14 18:40:20.31: SIM {TimeUS : 48134905, Roll : -0.06, Pitch : -0.05, Yaw : 359.9, Alt : 37.5400009155, Lat : 49.2835704, Lng : -123.1150206, Q1 : 0.999999344349, Q2 : -0.000607840542216, Q3 : -0.000460270850454, Q4 : -0.00083351455396}
2019-04-14 18:40:20.41: SIM {TimeUS : 48234865, Roll : -0.07, Pitch : -0.03, Yaw : 359.9, Alt : 37.7700004578, Lat : 49.2835704, Lng : -123.1150206, Q1 : 0.999999344349, Q2 : -0.000693545327522, Q3 : -0.000342863902915, Q4 : -0.000847698363941}
2019-04-14 18:40:20.51: SIM {TimeUS : 48334825, Roll : -0.1, Pitch : -0.01, Yaw : 359.9, Alt : 37.9900016785, Lat : 49.2835704, Lng : -123.1150206, Q1 : 0.99999922514, Q2 : -0.000882347812876, Q3 : -0.000142400851473, Q4 : -0.000862876244355}
2019-04-14 18:40:20.61: SIM {TimeUS : 48434785, Roll : -0.1, Pitch : 0.0, Yaw : 359.9, Alt : 38.2200012207, Lat : 49.2835704, Lng : -123.1150206, Q1 : 0.99999922514, Q2 : -0.000887507805601, Q3 : 2.90968491754e-05, Q4 : -0.000871007097885}
2019-04-14 18:40:20.71: SIM {TimeUS : 48534745, Roll : -0.07, Pitch : 0.03, Yaw : 359.89, Alt : 38.4500007629, Lat : 49.2835704, Lng : -123.1150206, Q1 : 0.999999344349, Q2 : -0.000683081452735, Q3 : 0.00032323441701, Q4 : -0.00087881705258}
2019-04-14 18:40:20.81: SIM {TimeUS : 48634705, Roll : -0.05, Pitch : 0.03, Yaw : 359.89, Alt : 38.6800003052, Lat : 49.2835704, Lng : -123.1150206, Q1 : 0.999999463558, Q2 : -0.000474524480524, Q3 : 0.000294801458949, Q4 : -0.000893121876288}
2019-04-14 18:40:20.91: SIM {TimeUS : 48734665, Roll : -0.02, Pitch : 0.02, Yaw : 359.89, Alt : 38.9099998474, Lat : 49.2835704, Lng : -123.1150206, Q1 : 0.999999582767, Q2 : -0.000221140653593, Q3 : 0.000175776731339, Q4 : -0.000906247296371}
2019-04-14 18:40:21.01: SIM {TimeUS : 48834625, Roll : 0.01, Pitch : 0.03, Yaw : 359.89, Alt : 39.1399993896, Lat : 49.2835704, Lng : -123.1150206, Q1 : 0.999999523163, Q2 : 9.45106294239e-05, Q3 : 0.000270997988991, Q4 : -0.000918323290534}
2019-04-14 18:40:21.11: SIM {TimeUS : 48934585, Roll : 0.04, Pitch : 0.05, Yaw : 359.89, Alt : 39.3600006104, Lat : 49.2835704, Lng : -123.1150206, Q1 : 0.999999344349, Q2 : 0.00041850990965, Q3 : 0.000488556397613, Q4 : -0.000937228498515}
2019-04-14 18:40:21.21: SIM {TimeUS : 49034545, Roll : 0.07, Pitch : 0.08, Yaw : 359.88, Alt : 39.5999984741, Lat : 49.2835704, Lng : -123.1150206, Q1 : 0.999999046326, Q2 : 0.000681784178596, Q3 : 0.000715357309673, Q4 : -0.000962503720075}
2019-04-14 18:40:21.31: SIM {TimeUS : 49134505, Roll : 0.07, Pitch : 0.1, Yaw : 359.88, Alt : 39.8300018311, Lat : 49.2835706, Lng : -123.1150206, Q1 : 0.999998867512, Q2 : 0.000620902690571, Q3 : 0.000924285384826, Q4 : -0.000986895873211}
2019-04-14 18:40:21.41: SIM {TimeUS : 49235298, Roll : 0.02, Pitch : 0.12, Yaw : 359.88, Alt : 40.0600013733, Lat : 49.2835706, Lng : -123.1150206, Q1 : 0.999998807907, Q2 : 0.000223662267672, Q3 : 0.00110867817421, Q4 : -0.00103030307218}
2019-04-14 18:40:21.51: SIM {TimeUS : 49335258, Roll : -0.01, Pitch : 0.11, Yaw : 359.87, Alt : 40.2900009155, Lat : 49.2835706, Lng : -123.1150206, Q1 : 0.999998927116, Q2 : -9.3719601864e-05, Q3 : 0.0010470362613, Q4 : -0.00106287875678}
2019-04-14 18:40:21.61: SIM {TimeUS : 49435218, Roll : -0.03, Pitch : 0.09, Yaw : 359.87, Alt : 40.5200004578, Lat : 49.2835706, Lng : -123.1150206, Q1 : 0.999999046326, Q2 : -0.000323369895341, Q3 : 0.000813316029962, Q4 : -0.00109473138582}
2019-04-14 18:40:21.71: SIM {TimeUS : 49535178, Roll : -0.05, Pitch : 0.07, Yaw : 359.87, Alt : 40.75, Lat : 49.2835706, Lng : -123.1150206, Q1 : 0.999999046326, Q2 : -0.00045048337779, Q3 : 0.000654663483147, Q4 : -0.00112876354251}
2019-04-14 18:40:21.81: SIM {TimeUS : 49635138, Roll : -0.04, Pitch : 0.08, Yaw : 359.86, Alt : 40.9900016785, Lat : 49.2835706, Lng : -123.1150206, Q1 : 0.999998986721, Q2 : -0.000380449433578, Q3 : 0.000754315056838, Q4 : -0.00116328219883}
2019-04-14 18:40:21.91: SIM {TimeUS : 49735098, Roll : 0.0, Pitch : 0.11, Yaw : 359.86, Alt : 41.2200012207, Lat : 49.2835706, Lng : -123.1150206, Q1 : 0.999998748302, Q2 : -2.25417443289e-05, Q3 : 0.00104347721208, Q4 : -0.00119190162513}
2019-04-14 18:40:22.01: SIM {TimeUS : 49835058, Roll : 0.04, Pitch : 0.14, Yaw : 359.86, Alt : 41.4500007629, Lat : 49.2835706, Lng : -123.1150207, Q1 : 0.999998390675, Q2 : 0.000407265819376, Q3 : 0.00124619924463, Q4 : -0.00122155831195}
2019-04-14 18:40:22.11: SIM {TimeUS : 49935018, Roll : 0.08, Pitch : 0.12, Yaw : 359.85, Alt : 41.6899986267, Lat : 49.2835706, Lng : -123.1150207, Q1 : 0.999998390675, Q2 : 0.000710068037733, Q3 : 0.00104645534884, Q4 : -0.00125273771118}
2019-04-14 18:40:22.21: SIM {TimeUS : 50034978, Roll : 0.08, Pitch : 0.07, Yaw : 359.85, Alt : 41.9199981689, Lat : 49.2835706, Lng : -123.1150207, Q1 : 0.999998688698, Q2 : 0.000737360387575, Q3 : 0.000647606968414, Q4 : -0.00128265412059}
2019-04-14 18:40:22.31: SIM {TimeUS : 50134938, Roll : 0.05, Pitch : 0.04, Yaw : 359.85, Alt : 42.1500015259, Lat : 49.2835706, Lng : -123.1150207, Q1 : 0.999998986721, Q2 : 0.000455251778476, Q3 : 0.000350553134922, Q4 : -0.00130743649788}
2019-04-14 18:40:22.41: SIM {TimeUS : 50234898, Roll : 0.0, Pitch : 0.03, Yaw : 359.84, Alt : 42.3899993896, Lat : 49.2835706, Lng : -123.1150207, Q1 : 0.99999910593, Q2 : 1.02982594399e-05, Q3 : 0.000265234790277, Q4 : -0.00132243777625}
2019-04-14 18:40:22.51: SIM {TimeUS : 50334858, Roll : -0.03, Pitch : 0.05, Yaw : 359.84, Alt : 42.6199989319, Lat : 49.2835706, Lng : -123.1150206, Q1 : 0.999998927116, Q2 : -0.000320557795931, Q3 : 0.000498420267832, Q4 : -0.00132414931431}
2019-04-14 18:40:22.61: SIM {TimeUS : 50434818, Roll : -0.05, Pitch : 0.07, Yaw : 359.84, Alt : 42.8600006104, Lat : 49.2835704, Lng : -123.1150206, Q1 : 0.999998748302, Q2 : -0.000499851477798, Q3 : 0.000696792907547, Q4 : -0.00132116943132}
2019-04-14 18:40:22.71: SIM {TimeUS : 50534778, Roll : -0.05, Pitch : 0.08, Yaw : 359.84, Alt : 43.0900001526, Lat : 49.2835704, Lng : -123.1150206, Q1 : 0.999998748302, Q2 : -0.000490736041684, Q3 : 0.000712364446372, Q4 : -0.00132202147506}
2019-04-14 18:40:22.81: SIM {TimeUS : 50634738, Roll : -0.06, Pitch : 0.07, Yaw : 359.84, Alt : 43.3300018311, Lat : 49.2835704, Lng : -123.1150206, Q1 : 0.999998748302, Q2 : -0.000531654513907, Q3 : 0.000628471141681, Q4 : -0.00133261154406}
2019-04-14 18:40:22.91: SIM {TimeUS : 50734698, Roll : -0.05, Pitch : 0.05, Yaw : 359.84, Alt : 43.5600013733, Lat : 49.2835704, Lng : -123.1150206, Q1 : 0.999998867512, Q2 : -0.000451356347185, Q3 : 0.000500594906043, Q4 : -0.00134755671024}
2019-04-14 18:40:23.01: SIM {TimeUS : 50834658, Roll : -0.02, Pitch : 0.04, Yaw : 359.84, Alt : 43.7999992371, Lat : 49.2835704, Lng : -123.1150206, Q1 : 0.999998986721, Q2 : -0.000225898373174, Q3 : 0.000410231004935, Q4 : -0.00136794568971}
2019-04-14 18:40:23.11: SIM {TimeUS : 50934618, Roll : 0.0, Pitch : 0.04, Yaw : 359.84, Alt : 44.0299987793, Lat : 49.2835704, Lng : -123.1150206, Q1 : 0.999998986721, Q2 : -4.3694046326e-05, Q3 : 0.000369395274902, Q4 : -0.00138712464832}
2019-04-14 18:40:23.21: SIM {TimeUS : 51034578, Roll : 0.0, Pitch : 0.02, Yaw : 359.83, Alt : 44.2700004578, Lat : 49.2835704, Lng : -123.1150206, Q1 : 0.999998986721, Q2 : -3.76796961064e-05, Q3 : 0.000223057228141, Q4 : -0.00140717008617}
2019-04-14 18:40:23.31: SIM {TimeUS : 51134538, Roll : -0.01, Pitch : 0.0, Yaw : 359.83, Alt : 44.5, Lat : 49.2835704, Lng : -123.1150206, Q1 : 0.999998986721, Q2 : -0.000129200983793, Q3 : -6.74019902362e-05, Q4 : -0.00143391336314}
2019-04-14 18:40:23.41: SIM {TimeUS : 51234498, Roll : -0.02, Pitch : -0.02, Yaw : 359.83, Alt : 44.7400016785, Lat : 49.2835704, Lng : -123.1150206, Q1 : 0.999998867512, Q2 : -0.000217858163523, Q3 : -0.000257610809058, Q4 : -0.00147425604519}
2019-04-14 18:40:23.51: SIM {TimeUS : 51335291, Roll : -0.02, Pitch : -0.03, Yaw : 359.82, Alt : 44.9799995422, Lat : 49.2835704, Lng : -123.1150206, Q1 : 0.999998748302, Q2 : -0.000200627357117, Q3 : -0.000308363756631, Q4 : -0.00152319611516}
2019-04-14 18:40:23.61: SIM {TimeUS : 51435251, Roll : -0.02, Pitch : -0.03, Yaw : 359.82, Alt : 45.2099990845, Lat : 49.2835704, Lng : -123.1150206, Q1 : 0.999998688698, Q2 : -0.00022078838083, Q3 : -0.000321476225508, Q4 : -0.0015706558479}
2019-04-14 18:40:23.71: SIM {TimeUS : 51535211, Roll : -0.04, Pitch : -0.03, Yaw : 359.81, Alt : 45.4500007629, Lat : 49.2835704, Lng : -123.1150206, Q1 : 0.999998569489, Q2 : -0.000389256485505, Q3 : -0.000297924183542, Q4 : -0.00162104028277}
2019-04-14 18:40:23.81: SIM {TimeUS : 51635171, Roll : -0.07, Pitch : -0.03, Yaw : 359.8, Alt : 45.6800003052, Lat : 49.2835703, Lng : -123.1150206, Q1 : 0.99999833107, Q2 : -0.000689868582413, Q3 : -0.000292164389975, Q4 : -0.00166849128436}
2019-04-14 18:40:23.91: SIM {TimeUS : 51735131, Roll : -0.1, Pitch : -0.03, Yaw : 359.8, Alt : 45.9199981689, Lat : 49.2835703, Lng : -123.1150206, Q1 : 0.999998092651, Q2 : -0.000928786874283, Q3 : -0.000283977511572, Q4 : -0.0017044802662}
2019-04-14 18:40:24.01: SIM {TimeUS : 51835091, Roll : -0.11, Pitch : -0.02, Yaw : 359.8, Alt : 46.1500015259, Lat : 49.2835703, Lng : -123.1150206, Q1 : 0.999997973442, Q2 : -0.000991469598375, Q3 : -0.000179555485374, Q4 : -0.00173250457738}
2019-04-14 18:40:24.11: SIM {TimeUS : 51935051, Roll : -0.09, Pitch : 0.0, Yaw : 359.79, Alt : 46.3699989319, Lat : 49.2835703, Lng : -123.1150206, Q1 : 0.999998092651, Q2 : -0.000851775286719, Q3 : 5.51967314095e-05, Q4 : -0.00175404653419}
2019-04-14 18:40:24.21: SIM {TimeUS : 52035011, Roll : -0.06, Pitch : 0.02, Yaw : 359.79, Alt : 46.5900001526, Lat : 49.2835703, Lng : -123.1150206, Q1 : 0.999998211861, Q2 : -0.000589172821492, Q3 : 0.000208394892979, Q4 : -0.00177217938472}
2019-04-14 18:40:24.31: SIM {TimeUS : 52134971, Roll : -0.04, Pitch : 0.02, Yaw : 359.79, Alt : 46.8100013733, Lat : 49.2835703, Lng : -123.1150206, Q1 : 0.99999833107, Q2 : -0.000369980669348, Q3 : 0.000189098383998, Q4 : -0.00178849231452}
2019-04-14 18:40:24.41: SIM {TimeUS : 52234931, Roll : -0.03, Pitch : 0.0, Yaw : 359.79, Alt : 47.0200004578, Lat : 49.2835703, Lng : -123.1150206, Q1 : 0.99999833107, Q2 : -0.000278032122878, Q3 : 2.00350259547e-05, Q4 : -0.00180454761721}
2019-04-14 18:40:24.51: SIM {TimeUS : 52334891, Roll : -0.01, Pitch : -0.03, Yaw : 359.79, Alt : 47.2200012207, Lat : 49.2835703, Lng : -123.1150206, Q1 : 0.999998271465, Q2 : -0.000151675965753, Q3 : -0.000271053053439, Q4 : -0.00182314997073}
2019-04-14 18:40:24.61: SIM {TimeUS : 52434851, Roll : 0.0, Pitch : -0.05, Yaw : 359.78, Alt : 47.4199981689, Lat : 49.2835703, Lng : -123.1150206, Q1 : 0.999998152256, Q2 : -2.44121929427e-06, Q3 : -0.000510088750161, Q4 : -0.00184139795601}
2019-04-14 18:40:24.71: SIM {TimeUS : 52534811, Roll : 0.0, Pitch : -0.08, Yaw : 359.78, Alt : 47.5999984741, Lat : 49.2835703, Lng : -123.1150206, Q1 : 0.999997973442, Q2 : 8.13981969259e-05, Q3 : -0.00074944953667, Q4 : -0.00186184304766}
2019-04-14 18:40:24.81: SIM {TimeUS : 52634771, Roll : 0.01, Pitch : -0.12, Yaw : 359.78, Alt : 47.7799987793, Lat : 49.2835703, Lng : -123.1150206, Q1 : 0.99999755621, Q2 : 0.000139906362165, Q3 : -0.00113023095764, Q4 : -0.00188685941976}
2019-04-14 18:40:24.91: SIM {TimeUS : 52734731, Roll : 0.04, Pitch : -0.15, Yaw : 359.78, Alt : 47.9399986267, Lat : 49.2835703, Lng : -123.1150206, Q1 : 0.999997198582, Q2 : 0.000360179372365, Q3 : -0.00134440313559, Q4 : -0.0019118222408}
2019-04-14 18:40:25.01: SIM {TimeUS : 52834691, Roll : 0.06, Pitch : -0.15, Yaw : 359.77, Alt : 48.0999984741, Lat : 49.2835704, Lng : -123.1150206, Q1 : 0.999997079372, Q2 : 0.000590037670918, Q3 : -0.00131981039885, Q4 : -0.00193268316798}
2019-04-14 18:40:25.11: SIM {TimeUS : 52934651, Roll : 0.08, Pitch : -0.12, Yaw : 359.77, Alt : 48.2400016785, Lat : 49.2835704, Lng : -123.1150206, Q1 : 0.999997198582, Q2 : 0.000755764718633, Q3 : -0.00111155130435, Q4 : -0.00195207912475}
2019-04-14 18:40:25.21: SIM {TimeUS : 53034611, Roll : 0.08, Pitch : -0.09, Yaw : 359.77, Alt : 48.3600006104, Lat : 49.2835704, Lng : -123.1150206, Q1 : 0.999997437, Q2 : 0.000761998235248, Q3 : -0.00079921586439, Q4 : -0.0019695602823}
2019-04-14 18:40:25.31: SIM {TimeUS : 53134571, Roll : 0.08, Pitch : -0.06, Yaw : 359.77, Alt : 48.4799995422, Lat : 49.2835704, Lng : -123.1150206, Q1 : 0.999997615814, Q2 : 0.000732485961635, Q3 : -0.000548476469703, Q4 : -0.00198818044737}
2019-04-14 18:40:25.41: SIM {TimeUS : 53234531, Roll : 0.07, Pitch : -0.05, Yaw : 359.76, Alt : 48.5800018311, Lat : 49.2835704, Lng : -123.1150206, Q1 : 0.999997675419, Q2 : 0.000618040561676, Q3 : -0.000502771465108, Q4 : -0.00201054057106}
2019-04-14 18:40:25.51: SIM {TimeUS : 53335324, Roll : 0.04, Pitch : -0.05, Yaw : 359.76, Alt : 48.6800003052, Lat : 49.2835704, Lng : -123.1150206, Q1 : 0.999997735023, Q2 : 0.000401063851314, Q3 : -0.000460588897113, Q4 : -0.00203982787207}
2019-04-14 18:40:25.61: SIM {TimeUS : 53435284, Roll : 0.02, Pitch : -0.03, Yaw : 359.76, Alt : 48.7599983215, Lat : 49.2835704, Lng : -123.1150206, Q1 : 0.999997794628, Q2 : 0.00020973449864, Q3 : -0.000340125639923, Q4 : -0.00206677010283}
2019-04-14 18:40:25.71: SIM {TimeUS : 53535244, Roll : 0.0, Pitch : -0.02, Yaw : 359.75, Alt : 48.8300018311, Lat : 49.2835704, Lng : -123.1150206, Q1 : 0.999997794628, Q2 : 7.13638364687e-05, Q3 : -0.00018055671535, Q4 : -0.00209644064307}
2019-04-14 18:40:25.81: SIM {TimeUS : 53635204, Roll : 0.0, Pitch : 0.0, Yaw : 359.75, Alt : 48.8899993896, Lat : 49.2835704, Lng : -123.1150206, Q1 : 0.999997735023, Q2 : 1.50508913066e-05, Q3 : 5.30374563823e-05, Q4 : -0.00213523441926}
2019-04-14 18:40:25.91: SIM {TimeUS : 53735164, Roll : 0.01, Pitch : 0.03, Yaw : 359.75, Alt : 48.9399986267, Lat : 49.2835704, Lng : -123.1150206, Q1 : 0.99999755621, Q2 : 0.000131567270728, Q3 : 0.000319949787809, Q4 : -0.00217612902634}
2019-04-14 18:40:26.01: SIM {TimeUS : 53835124, Roll : 0.06, Pitch : 0.03, Yaw : 359.74, Alt : 48.9799995422, Lat : 49.2835704, Lng : -123.1150206, Q1 : 0.999997317791, Q2 : 0.00059327337658, Q3 : 0.000321623199852, Q4 : -0.00221586786211}
2019-04-14 18:40:26.11: SIM {TimeUS : 53935084, Roll : 0.24, Pitch : -0.08, Yaw : 359.74, Alt : 49.0200004578, Lat : 49.2835704, Lng : -123.1150206, Q1 : 0.999994933605, Q2 : 0.00214207684621, Q3 : -0.00072476756759, Q4 : -0.0022476373706}
2019-04-14 18:40:26.21: SIM {TimeUS : 54035044, Roll : 0.61, Pitch : -0.35, Yaw : 359.73, Alt : 49.0499992371, Lat : 49.2835704, Lng : -123.1150206, Q1 : 0.999978065491, Q2 : 0.00536874076352, Q3 : -0.00314378063194, Q4 : -0.00227377749979}
2019-04-14 18:40:26.31: SIM {TimeUS : 54135004, Roll : 1.18, Pitch : -0.81, Yaw : 359.72, Alt : 49.0800018311, Lat : 49.2835706, Lng : -123.1150206, Q1 : 0.999918520451, Q2 : 0.0103583373129, Q3 : -0.00709957815707, Q4 : -0.00229284609668}
2019-04-14 18:40:26.41: SIM {TimeUS : 54234964, Roll : 1.94, Pitch : -1.38, Yaw : 359.71, Alt : 49.1100006104, Lat : 49.2835706, Lng : -123.1150205, Q1 : 0.999781429768, Q2 : 0.0168989617378, Q3 : -0.0120994374156, Q4 : -0.00228385953233}
2019-04-14 18:40:26.51: SIM {TimeUS : 54334924, Roll : 2.79, Pitch : -1.98, Yaw : 359.69, Alt : 49.1300010681, Lat : 49.2835706, Lng : -123.1150205, Q1 : 0.999550402164, Q2 : 0.0243031531572, Q3 : -0.0174184925854, Q4 : -0.00222374452278}
2019-04-14 18:40:26.61: SIM {TimeUS : 54434884, Roll : 3.59, Pitch : -2.56, Yaw : 359.67, Alt : 49.1399993896, Lat : 49.2835707, Lng : -123.1150203, Q1 : 0.999254703522, Q2 : 0.0313390940428, Q3 : -0.0224367845803, Q4 : -0.00210759835318}
2019-04-14 18:40:26.71: SIM {TimeUS : 54534844, Roll : 4.25, Pitch : -3.01, Yaw : 359.66, Alt : 49.1599998474, Lat : 49.2835708, Lng : -123.1150201, Q1 : 0.998961865902, Q2 : 0.0370689593256, Q3 : -0.0264077428728, Q4 : -0.00191274774261}
2019-04-14 18:40:26.81: SIM {TimeUS : 54634804, Roll : 4.74, Pitch : -3.34, Yaw : 359.67, Alt : 49.1699981689, Lat : 49.2835709, Lng : -123.1150199, Q1 : 0.998718619347, Q2 : 0.0412721559405, Q3 : -0.0292411074042, Q4 : -0.00166193151381}
2019-04-14 18:40:26.91: SIM {TimeUS : 54734764, Roll : 5.09, Pitch : -3.59, Yaw : 359.68, Alt : 49.1899986267, Lat : 49.283571, Lng : -123.1150195, Q1 : 0.998521924019, Q2 : 0.0443090870976, Q3 : -0.031445402652, Q4 : -0.00138619181234}
2019-04-14 18:40:27.01: SIM {TimeUS : 54834724, Roll : 5.39, Pitch : -3.81, Yaw : 359.69, Alt : 49.2000007629, Lat : 49.2835713, Lng : -123.115019, Q1 : 0.998341679573, Q2 : 0.0469205789268, Q3 : -0.0333342589438, Q4 : -0.00109925516881}
2019-04-14 18:40:27.11: SIM {TimeUS : 54934684, Roll : 5.69, Pitch : -4.01, Yaw : 359.7, Alt : 49.2099990845, Lat : 49.2835715, Lng : -123.1150185, Q1 : 0.998153746128, Q2 : 0.0495688393712, Q3 : -0.0350916869938, Q4 : -0.000809642078821}
2019-04-14 18:40:27.21: SIM {TimeUS : 55034644, Roll : 6.0, Pitch : -4.2, Yaw : 359.71, Alt : 49.2099990845, Lat : 49.2835719, Lng : -123.1150178, Q1 : 0.997954905033, Q2 : 0.0522576905787, Q3 : -0.0368085391819, Q4 : -0.000528772070538}
2019-04-14 18:40:27.31: SIM {TimeUS : 55134604, Roll : 6.29, Pitch : -4.4, Yaw : 359.72, Alt : 49.2200012207, Lat : 49.2835722, Lng : -123.115017, Q1 : 0.997756361961, Q2 : 0.0547835864127, Q3 : -0.0384832583368, Q4 : -0.00028362046578}
2019-04-14 18:40:27.41: SIM {TimeUS : 55234564, Roll : 6.52, Pitch : -4.57, Yaw : 359.73, Alt : 49.2299995422, Lat : 49.2835726, Lng : -123.1150162, Q1 : 0.997588336468, Q2 : 0.0567612498999, Q3 : -0.0399465411901, Q4 : -7.41295152693e-05}
2019-04-14 18:40:27.51: SIM {TimeUS : 55334524, Roll : 6.69, Pitch : -4.69, Yaw : 359.73, Alt : 49.2299995422, Lat : 49.2835731, Lng : -123.1150151, Q1 : 0.997457623482, Q2 : 0.0582642666996, Q3 : -0.0410313755274, Q4 : 9.64007704169e-05}
2019-04-14 18:40:27.61: SIM {TimeUS : 55435317, Roll : 6.82, Pitch : -4.78, Yaw : 359.73, Alt : 49.2400016785, Lat : 49.2835735, Lng : -123.1150142, Q1 : 0.997358798981, Q2 : 0.0593893527985, Q3 : -0.0418125353754, Q4 : 0.000215983382077}
2019-04-14 18:40:27.71: SIM {TimeUS : 55535277, Roll : 6.93, Pitch : -4.86, Yaw : 359.73, Alt : 49.2400016785, Lat : 49.283574, Lng : -123.115013, Q1 : 0.997276961803, Q2 : 0.0602976679802, Q3 : -0.0424594245851, Q4 : 0.000294878671411}
2019-04-14 18:40:27.81: SIM {TimeUS : 55635237, Roll : 7.05, Pitch : -4.93, Yaw : 359.73, Alt : 49.25, Lat : 49.2835746, Lng : -123.1150118, Q1 : 0.99718362093, Q2 : 0.0613547861576, Q3 : -0.0431311950088, Q4 : 0.00034987568506}
2019-04-14 18:40:27.91: SIM {TimeUS : 55735197, Roll : 7.32, Pitch : -4.94, Yaw : 359.79, Alt : 49.25, Lat : 49.2835752, Lng : -123.1150105, Q1 : 0.997029304504, Q2 : 0.0637809559703, Q3 : -0.0431695058942, Q4 : 0.000999880838208}
2019-04-14 18:40:28.01: SIM {TimeUS : 55835157, Roll : 7.84, Pitch : -4.78, Yaw : 0.36, Alt : 49.2599983215, Lat : 49.2835758, Lng : -123.1150091, Q1 : 0.996776103973, Q2 : 0.068448074162, Q3 : -0.0414258092642, Q4 : 0.0060114194639}
2019-04-14 18:40:28.11: SIM {TimeUS : 55935117, Roll : 8.48, Pitch : -4.62, Yaw : 2.1, Alt : 49.2599983215, Lat : 49.2835765, Lng : -123.1150076, Q1 : 0.996223688126, Q2 : 0.0746533349156, Q3 : -0.0388666316867, Q4 : 0.0213211029768}
2019-04-14 18:40:28.21: SIM {TimeUS : 56035077, Roll : 8.99, Pitch : -4.82, Yaw : 5.42, Alt : 49.2599983215, Lat : 49.2835771, Lng : -123.115006, Q1 : 0.994770586491, Q2 : 0.080199919641, Q3 : -0.0381904020905, Q4 : 0.0504080913961}
2019-04-14 18:40:28.31: SIM {TimeUS : 56135037, Roll : 9.12, Pitch : -5.55, Yaw : 10.26, Alt : 49.2599983215, Lat : 49.283578, Lng : -123.1150043, Q1 : 0.991324186325, Q2 : 0.0834865123034, Q3 : -0.0409790202975, Q4 : 0.0928825959563}
2019-04-14 18:40:28.41: SIM {TimeUS : 56234997, Roll : 8.74, Pitch : -6.78, Yaw : 16.41, Alt : 49.2599983215, Lat : 49.2835787, Lng : -123.1150025, Q1 : 0.984508275986, Q2 : 0.0837035477161, Q3 : -0.0475024469197, Q4 : 0.146563008428}
2019-04-14 18:40:28.51: SIM {TimeUS : 56334957, Roll : 7.73, Pitch : -8.32, Yaw : 23.63, Alt : 49.2700004578, Lat : 49.2835794, Lng : -123.1150005, Q1 : 0.972984373569, Q2 : 0.0807262137532, Q3 : -0.0571369193494, Q4 : 0.208614826202}
2019-04-14 18:40:28.61: SIM {TimeUS : 56434917, Roll : 6.14, Pitch : -9.95, Yaw : 31.67, Alt : 49.2700004578, Lat : 49.28358, Lng : -123.1149984, Q1 : 0.955751121044, Q2 : 0.0750389322639, Q3 : -0.0688046664, Q4 : 0.275997936726}
2019-04-14 18:40:28.71: SIM {TimeUS : 56534877, Roll : 4.03, Pitch : -11.44, Yaw : 40.27, Alt : 49.2700004578, Lat : 49.2835808, Lng : -123.1149962, Q1 : 0.932400226593, Q2 : 0.0672063305974, Q3 : -0.0814807415009, Q4 : 0.345650017262}
2019-04-14 18:40:28.81: SIM {TimeUS : 56634837, Roll : 1.29, Pitch : -12.56, Yaw : 49.01, Alt : 49.2700004578, Lat : 49.2835818, Lng : -123.114994, Q1 : 0.903873562813, Q2 : 0.0556265376508, Q3 : -0.0948821306229, Q4 : 0.41341945529}
2019-04-14 18:40:28.91: SIM {TimeUS : 56734797, Roll : -1.88, Pitch : -13.13, Yaw : 57.07, Alt : 49.2700004578, Lat : 49.2835825, Lng : -123.1149916, Q1 : 0.873510122299, Q2 : 0.0402969233692, Q3 : -0.108297981322, Q4 : 0.472892999649}
2019-04-14 18:40:29.01: SIM {TimeUS : 56834757, Roll : -4.88, Pitch : -13.18, Yaw : 63.6, Alt : 49.2700004578, Lat : 49.2835836, Lng : -123.1149891, Q1 : 0.846062541008, Q2 : 0.0244550164789, Q3 : -0.119834080338, Q4 : 0.518864095211}
2019-04-14 18:40:29.11: SIM {TimeUS : 56934717, Roll : -7.11, Pitch : -12.92, Yaw : 68.09, Alt : 49.2700004578, Lat : 49.2835847, Lng : -123.1149866, Q1 : 0.825635015965, Q2 : 0.0117994062603, Q3 : -0.127624809742, Q4 : 0.549453854561}
2019-04-14 18:40:29.21: SIM {TimeUS : 57034677, Roll : -8.27, Pitch : -12.63, Yaw : 70.5, Alt : 49.2700004578, Lat : 49.2835858, Lng : -123.114984, Q1 : 0.814107596874, Q2 : 0.00482629006729, Q3 : -0.131035357714, Q4 : 0.56571662426}
2019-04-14 18:40:29.31: SIM {TimeUS : 57134637, Roll : -8.37, Pitch : -12.54, Yaw : 71.1, Alt : 49.2700004578, Lat : 49.2835871, Lng : -123.1149814, Q1 : 0.811193525791, Q2 : 0.00430770451203, Q3 : -0.13087901473, Q4 : 0.56992739439}
2019-04-14 18:40:29.41: SIM {TimeUS : 57234597, Roll : -7.62, Pitch : -12.73, Yaw : 70.24, Alt : 49.2700004578, Lat : 49.2835885, Lng : -123.1149787, Q1 : 0.815331757069, Q2 : 0.00962388236076, Q3 : -0.128547340631, Q4 : 0.564461767673}
2019-04-14 18:40:29.51: SIM {TimeUS : 57334557, Roll : -6.25, Pitch : -13.2, Yaw : 68.28, Alt : 49.2700004578, Lat : 49.2835898, Lng : -123.114976, Q1 : 0.824440896511, Q2 : 0.0195975657552, Q3 : -0.125431597233, Q4 : 0.551525175571}
2019-04-14 18:40:29.61: SIM {TimeUS : 57434517, Roll : -4.5, Pitch : -13.88, Yaw : 65.57, Alt : 49.2799987793, Lat : 49.2835915, Lng : -123.1149732, Q1 : 0.836443305016, Q2 : 0.0325631126761, Q3 : -0.12267228961, Q4 : 0.533154606819}
2019-04-14 18:40:29.71: SIM {TimeUS : 57535310, Roll : -2.58, Pitch : -14.62, Yaw : 62.39, Alt : 49.2799987793, Lat : 49.2835931, Lng : -123.1149703, Q1 : 0.849696338177, Q2 : 0.0467710867524, Q3 : -0.120464108884, Q4 : 0.511191725731}
2019-04-14 18:40:29.81: SIM {TimeUS : 57635270, Roll : -0.7, Pitch : -15.26, Yaw : 59.1, Alt : 49.2799987793, Lat : 49.2835946, Lng : -123.1149673, Q1 : 0.862567603588, Q2 : 0.0602147653699, Q3 : -0.118525929749, Q4 : 0.488162815571}
2019-04-14 18:40:29.91: SIM {TimeUS : 57735230, Roll : 0.98, Pitch : -15.68, Yaw : 56.02, Alt : 49.2799987793, Lat : 49.2835963, Lng : -123.1149642, Q1 : 0.874001145363, Q2 : 0.0716184154153, Q3 : -0.116471901536, Q4 : 0.466290831566}
2019-04-14 18:40:30.01: SIM {TimeUS : 57835190, Roll : 2.34, Pitch : -15.87, Yaw : 53.45, Alt : 49.2799987793, Lat : 49.283598, Lng : -123.114961, Q1 : 0.883151113987, Q2 : 0.0802187249064, Q3 : -0.114226236939, Q4 : 0.447840869427}
2019-04-14 18:40:30.11: SIM {TimeUS : 57935150, Roll : 3.27, Pitch : -15.9, Yaw : 51.59, Alt : 49.2799987793, Lat : 49.2835996, Lng : -123.1149577, Q1 : 0.88959312439, Q2 : 0.0856604725122, Q3 : -0.112244963646, Q4 : 0.434381753206}
2019-04-14 18:40:30.21: SIM {TimeUS : 58035110, Roll : 3.7, Pitch : -15.86, Yaw : 50.53, Alt : 49.2799987793, Lat : 49.2836013, Lng : -123.1149543, Q1 : 0.893280267715, Q2 : 0.0878557786345, Q3 : -0.111064180732, Q4 : 0.426610469818}
2019-04-14 18:40:30.31: SIM {TimeUS : 58135070, Roll : 3.66, Pitch : -15.82, Yaw : 50.26, Alt : 49.2799987793, Lat : 49.283603, Lng : -123.1149507, Q1 : 0.894384384155, Q2 : 0.0871121957898, Q3 : -0.111139759421, Q4 : 0.424424290657}
2019-04-14 18:40:30.41: SIM {TimeUS : 58235030, Roll : 3.23, Pitch : -15.82, Yaw : 50.66, Alt : 49.2799987793, Lat : 49.2836047, Lng : -123.114947, Q1 : 0.893233954906, Q2 : 0.0841078385711, Q3 : -0.112431161106, Q4 : 0.427104502916}
2019-04-14 18:40:30.51: SIM {TimeUS : 58334990, Roll : 2.53, Pitch : -15.87, Yaw : 51.57, Alt : 49.2799987793, Lat : 49.2836063, Lng : -123.1149432, Q1 : 0.890251636505, Q2 : 0.0797678977251, Q3 : -0.114810600877, Q4 : 0.433483153582}
2019-04-14 18:40:30.61: SIM {TimeUS : 58434950, Roll : 1.66, Pitch : -15.98, Yaw : 52.8, Alt : 49.2799987793, Lat : 49.283608, Lng : -123.1149393, Q1 : 0.885990679264, Q2 : 0.0746891126037, Q3 : -0.118095993996, Q4 : 0.442148655653}
2019-04-14 18:40:30.71: SIM {TimeUS : 58534910, Roll : 0.77, Pitch : -16.11, Yaw : 54.18, Alt : 49.2799987793, Lat : 49.2836098, Lng : -123.1149354, Q1 : 0.881037294865, Q2 : 0.06978636235, Q3 : -0.121753029525, Q4 : 0.451751470566}
2019-04-14 18:40:30.81: SIM {TimeUS : 58634870, Roll : -0.02, Pitch : -16.23, Yaw : 55.52, Alt : 49.2799987793, Lat : 49.2836116, Lng : -123.1149313, Q1 : 0.876044034958, Q2 : 0.0655671954155, Q3 : -0.125032380223, Q4 : 0.461101561785}
2019-04-14 18:40:30.91: SIM {TimeUS : 58734830, Roll : -0.68, Pitch : -16.31, Yaw : 56.68, Alt : 49.2900009155, Lat : 49.2836134, Lng : -123.1149272, Q1 : 0.871593058109, Q2 : 0.0621738694608, Q3 : -0.127687335014, Q4 : 0.469207793474}
2019-04-14 18:40:31.01: SIM {TimeUS : 58834790, Roll : -1.17, Pitch : -16.38, Yaw : 57.57, Alt : 49.2900009155, Lat : 49.2836152, Lng : -123.1149231, Q1 : 0.86810708046, Q2 : 0.0597420036793, Q3 : -0.129739105701, Q4 : 0.475382745266}
2019-04-14 18:40:31.11: SIM {TimeUS : 58934750, Roll : -1.45, Pitch : -16.43, Yaw : 58.14, Alt : 49.2900009155, Lat : 49.2836171, Lng : -123.1149189, Q1 : 0.865834772587, Q2 : 0.0584443174303, Q3 : -0.131033435464, Q4 : 0.47931689024}
2019-04-14 18:40:31.21: SIM {TimeUS : 59034710, Roll : -1.54, Pitch : -16.48, Yaw : 58.38, Alt : 49.2900009155, Lat : 49.2836189, Lng : -123.1149147, Q1 : 0.864837169647, Q2 : 0.0583021007478, Q3 : -0.13164229691, Q4 : 0.480965584517}
2019-04-14 18:40:31.31: SIM {TimeUS : 59134670, Roll : -1.44, Pitch : -16.52, Yaw : 58.31, Alt : 49.2900009155, Lat : 49.2836208, Lng : -123.1149104, Q1 : 0.86501967907, Q2 : 0.0591176301241, Q3 : -0.131539404392, Q4 : 0.480565816164}
2019-04-14 18:40:31.41: SIM {TimeUS : 59234630, Roll : -1.19, Pitch : -16.55, Yaw : 58.01, Alt : 49.2900009155, Lat : 49.2836227, Lng : -123.1149061, Q1 : 0.86613702774, Q2 : 0.0607774890959, Q3 : -0.130940496922, Q4 : 0.478505313396}
2019-04-14 18:40:31.51: SIM {TimeUS : 59334590, Roll : -0.85, Pitch : -16.59, Yaw : 57.53, Alt : 49.2900009155, Lat : 49.2836248, Lng : -123.1149017, Q1 : 0.867882847786, Q2 : 0.0630222856998, Q3 : -0.130040109158, Q4 : 0.475286275148}
2019-04-14 18:40:31.61: SIM {TimeUS : 59434550, Roll : -0.46, Pitch : -16.63, Yaw : 56.97, Alt : 49.2900009155, Lat : 49.2836268, Lng : -123.1148973, Q1 : 0.869946181774, Q2 : 0.0654762834311, Q3 : -0.129051685333, Q4 : 0.471436351538}
2019-04-14 18:40:31.71: SIM {TimeUS : 59534510, Roll : -0.08, Pitch : -16.67, Yaw : 56.4, Alt : 49.2900009155, Lat : 49.2836287, Lng : -123.1148929, Q1 : 0.872039437294, Q2 : 0.0678790137172, Q3 : -0.128109157085, Q4 : 0.467469543219}
2019-04-14 18:40:31.81: SIM {TimeUS : 59635303, Roll : 0.24, Pitch : -16.71, Yaw : 55.87, Alt : 49.2900009155, Lat : 49.2836309, Lng : -123.1148884, Q1 : 0.873940467834, Q2 : 0.0699884146452, Q3 : -0.127398937941, Q4 : 0.463787972927}
2019-04-14 18:40:31.91: SIM {TimeUS : 59735263, Roll : 0.48, Pitch : -16.74, Yaw : 55.44, Alt : 49.2900009155, Lat : 49.2836329, Lng : -123.1148838, Q1 : 0.875480949879, Q2 : 0.071463406086, Q3 : -0.126917243004, Q4 : 0.460779994726}
2019-04-14 18:40:32.01: SIM {TimeUS : 59835223, Roll : 0.63, Pitch : -16.77, Yaw : 55.14, Alt : 49.2900009155, Lat : 49.2836349, Lng : -123.1148792, Q1 : 0.876559793949, Q2 : 0.0723794922233, Q3 : -0.12674471736, Q4 : 0.458628326654}
2019-04-14 18:40:32.11: SIM {TimeUS : 59935183, Roll : 0.68, Pitch : -16.81, Yaw : 54.98, Alt : 49.2900009155, Lat : 49.283637, Lng : -123.1148746, Q1 : 0.87713688612, Q2 : 0.0727559402585, Q3 : -0.126928925514, Q4 : 0.457412838936}
2019-04-14 18:40:32.21: SIM {TimeUS : 60035143, Roll : 0.65, Pitch : -16.85, Yaw : 54.94, Alt : 49.2900009155, Lat : 49.283639, Lng : -123.11487, Q1 : 0.877251505852, Q2 : 0.0726473778486, Q3 : -0.127452835441, Q4 : 0.457064509392}
2019-04-14 18:40:32.31: SIM {TimeUS : 60135103, Roll : 0.53, Pitch : -16.9, Yaw : 55.01, Alt : 49.2900009155, Lat : 49.2836412, Lng : -123.1148653, Q1 : 0.876999795437, Q2 : 0.0719758719206, Q3 : -0.128206238151, Q4 : 0.457442909479}
2019-04-14 18:40:32.41: SIM {TimeUS : 60235063, Roll : 0.36, Pitch : -16.92, Yaw : 55.16, Alt : 49.2999992371, Lat : 49.2836432, Lng : -123.1148605, Q1 : 0.876485943794, Q2 : 0.0709341615438, Q3 : -0.128985494375, Q4 : 0.458370476961}
2019-04-14 18:40:32.51: SIM {TimeUS : 60335023, Roll : 0.17, Pitch : -16.95, Yaw : 55.35, Alt : 49.2999992371, Lat : 49.2836454, Lng : -123.1148558, Q1 : 0.875792086124, Q2 : 0.0698304921389, Q3 : -0.129842400551, Q4 : 0.459622561932}
2019-04-14 18:40:32.61: SIM {TimeUS : 60434983, Roll : 0.01, Pitch : -17.0, Yaw : 55.56, Alt : 49.2999992371, Lat : 49.2836475, Lng : -123.1148509, Q1 : 0.875001013279, Q2 : 0.069035127759, Q3 : -0.130705341697, Q4 : 0.461002707481}
2019-04-14 18:40:32.71: SIM {TimeUS : 60534943, Roll : -0.09, Pitch : -17.04, Yaw : 55.75, Alt : 49.2999992371, Lat : 49.2836495, Lng : -123.1148461, Q1 : 0.87423235178, Q2 : 0.0685600042343, Q3 : -0.131392240524, Q4 : 0.462334722281}
2019-04-14 18:40:32.81: SIM {TimeUS : 60634903, Roll : -0.16, Pitch : -17.09, Yaw : 55.92, Alt : 49.2999992371, Lat : 49.2836517, Lng : -123.1148413, Q1 : 0.873567044735, Q2 : 0.068414054811, Q3 : -0.1319231987, Q4 : 0.463461339474}
2019-04-14 18:40:32.91: SIM {TimeUS : 60734863, Roll : -0.18, Pitch : -17.13, Yaw : 56.03, Alt : 49.2999992371, Lat : 49.2836539, Lng : -123.1148364, Q1 : 0.873065888882, Q2 : 0.0685374885798, Q3 : -0.132291212678, Q4 : 0.464281857014}
2019-04-14 18:40:33.01: SIM {TimeUS : 60834823, Roll : -0.2, Pitch : -17.16, Yaw : 56.09, Alt : 49.2999992371, Lat : 49.283656, Lng : -123.1148315, Q1 : 0.872786521912, Q2 : 0.0686462074518, Q3 : -0.132541596889, Q4 : 0.464719414711}
2019-04-14 18:40:33.11: SIM {TimeUS : 60934783, Roll : -0.2, Pitch : -17.18, Yaw : 56.1, Alt : 49.2999992371, Lat : 49.2836582, Lng : -123.1148266, Q1 : 0.872740209103, Q2 : 0.0687123760581, Q3 : -0.132644057274, Q4 : 0.464767366648}
2019-04-14 18:40:33.21: SIM {TimeUS : 61034743, Roll : -0.18, Pitch : -17.19, Yaw : 56.06, Alt : 49.2999992371, Lat : 49.2836603, Lng : -123.1148216, Q1 : 0.872886478901, Q2 : 0.0688120871782, Q3 : -0.132721677423, Q4 : 0.46445569396}
2019-04-14 18:40:33.31: SIM {TimeUS : 61134703, Roll : -0.14, Pitch : -17.2, Yaw : 55.98, Alt : 49.3100013733, Lat : 49.2836626, Lng : -123.1148167, Q1 : 0.873169362545, Q2 : 0.069065362215, Q3 : -0.13265709579, Q4 : 0.463904500008}
2019-04-14 18:40:33.41: SIM {TimeUS : 61234663, Roll : -0.08, Pitch : -17.21, Yaw : 55.88, Alt : 49.3100013733, Lat : 49.2836647, Lng : -123.1148117, Q1 : 0.873530745506, Q2 : 0.0694571509957, Q3 : -0.132537782192, Q4 : 0.463199198246}
2019-04-14 18:40:33.51: SIM {TimeUS : 61334623, Roll : 0.0, Pitch : -17.24, Yaw : 55.77, Alt : 49.3100013733, Lat : 49.283667, Lng : -123.1148067, Q1 : 0.873891949654, Q2 : 0.0700871050358, Q3 : -0.132521018386, Q4 : 0.462427169085}
2019-04-14 18:40:33.61: SIM {TimeUS : 61434583, Roll : 0.08, Pitch : -17.3, Yaw : 55.66, Alt : 49.3100013733, Lat : 49.2836693, Lng : -123.1148017, Q1 : 0.87421631813, Q2 : 0.07084608078, Q3 : -0.132701292634, Q4 : 0.46164599061}
2019-04-14 18:40:33.71: SIM {TimeUS : 61534543, Roll : 0.14, Pitch : -17.34, Yaw : 55.56, Alt : 49.3100013733, Lat : 49.2836714, Lng : -123.1147966, Q1 : 0.874522447586, Q2 : 0.0714288502932, Q3 : -0.132815390825, Q4 : 0.460943132639}
2019-04-14 18:40:33.81: SIM {TimeUS : 61634503, Roll : 0.19, Pitch : -17.36, Yaw : 55.48, Alt : 49.3100013733, Lat : 49.2836737, Lng : -123.1147916, Q1 : 0.874796569347, Q2 : 0.0717433094978, Q3 : -0.132785007358, Q4 : 0.46038249135}
2019-04-14 18:40:33.91: SIM {TimeUS : 61735296, Roll : 0.21, Pitch : -17.37, Yaw : 55.42, Alt : 49.3100013733, Lat : 49.283676, Lng : -123.1147865, Q1 : 0.875001430511, Q2 : 0.0718582645059, Q3 : -0.132862582803, Q4 : 0.459952622652}
2019-04-14 18:40:34.01: SIM {TimeUS : 61835256, Roll : 0.2, Pitch : -17.39, Yaw : 55.39, Alt : 49.3100013733, Lat : 49.2836783, Lng : -123.1147814, Q1 : 0.875121772289, Q2 : 0.0718570053577, Q3 : -0.133074596524, Q4 : 0.459662497044}
2019-04-14 18:40:34.11: SIM {TimeUS : 61935216, Roll : 0.19, Pitch : -17.41, Yaw : 55.37, Alt : 49.3100013733, Lat : 49.2836805, Lng : -123.1147763, Q1 : 0.875159859657, Q2 : 0.0718561038375, Q3 : -0.133261084557, Q4 : 0.459536105394}
2019-04-14 18:40:34.21: SIM {TimeUS : 62035176, Roll : 0.18, Pitch : -17.44, Yaw : 55.37, Alt : 49.3100013733, Lat : 49.2836828, Lng : -123.1147711, Q1 : 0.875133931637, Q2 : 0.0718288049102, Q3 : -0.133532300591, Q4 : 0.459511041641}
2019-04-14 18:40:34.31: SIM {TimeUS : 62135136, Roll : 0.15, Pitch : -17.46, Yaw : 55.39, Alt : 49.3100013733, Lat : 49.2836851, Lng : -123.114766, Q1 : 0.875073552132, Q2 : 0.0717461109161, Q3 : -0.133786052465, Q4 : 0.459565073252}
2019-04-14 18:40:34.41: SIM {TimeUS : 62235096, Roll : 0.13, Pitch : -17.49, Yaw : 55.4, Alt : 49.3100013733, Lat : 49.2836874, Lng : -123.1147608, Q1 : 0.874978542328, Q2 : 0.0717518702149, Q3 : -0.134046658874, Q4 : 0.459669202566}
2019-04-14 18:40:34.51: SIM {TimeUS : 62335056, Roll : 0.12, Pitch : -17.5, Yaw : 55.42, Alt : 49.3100013733, Lat : 49.2836896, Lng : -123.1147557, Q1 : 0.874891042709, Q2 : 0.071729592979, Q3 : -0.134223803878, Q4 : 0.459787458181}
2019-04-14 18:40:34.61: SIM {TimeUS : 62435016, Roll : 0.11, Pitch : -17.52, Yaw : 55.44, Alt : 49.3199996948, Lat : 49.2836919, Lng : -123.1147505, Q1 : 0.874812424183, Q2 : 0.0717581957579, Q3 : -0.134358912706, Q4 : 0.459893107414}
2019-04-14 18:40:34.71: SIM {TimeUS : 62534976, Roll : 0.11, Pitch : -17.54, Yaw : 55.45, Alt : 49.3199996948, Lat : 49.2836943, Lng : -123.1147453, Q1 : 0.87474244833, Q2 : 0.0718625932932, Q3 : -0.134516090155, Q4 : 0.459964036942}
2019-04-14 18:40:34.81: SIM {TimeUS : 62634936, Roll : 0.1, Pitch : -17.58, Yaw : 55.45, Alt : 49.3199996948, Lat : 49.2836966, Lng : -123.1147401, Q1 : 0.874692678452, Q2 : 0.071941010654, Q3 : -0.134845107794, Q4 : 0.459950059652}
2019-04-14 18:40:34.91: SIM {TimeUS : 62734896, Roll : 0.07, Pitch : -17.62, Yaw : 55.45, Alt : 49.3199996948, Lat : 49.2836989, Lng : -123.1147348, Q1 : 0.874677419662, Q2 : 0.0718831419945, Q3 : -0.135287806392, Q4 : 0.459858208895}
2019-04-14 18:40:35.01: SIM {TimeUS : 62834856, Roll : 0.06, Pitch : -17.66, Yaw : 55.44, Alt : 49.3199996948, Lat : 49.2837011, Lng : -123.1147296, Q1 : 0.874683558941, Q2 : 0.0718937143683, Q3 : -0.135699138045, Q4 : 0.4597235322}
2019-04-14 18:40:35.11: SIM {TimeUS : 62934816, Roll : 0.07, Pitch : -17.69, Yaw : 55.42, Alt : 49.3199996948, Lat : 49.2837034, Lng : -123.1147244, Q1 : 0.874710381031, Q2 : 0.0720941573381, Q3 : -0.135891452432, Q4 : 0.459584236145}
2019-04-14 18:40:35.21: SIM {TimeUS : 63034776, Roll : 0.1, Pitch : -17.69, Yaw : 55.4, Alt : 49.3199996948, Lat : 49.2837059, Lng : -123.114719, Q1 : 0.874784529209, Q2 : 0.0722937807441, Q3 : -0.135800391436, Q4 : 0.459438711405}
2019-04-14 18:40:35.31: SIM {TimeUS : 63134736, Roll : 0.13, Pitch : -17.67, Yaw : 55.37, Alt : 49.3199996948, Lat : 49.2837082, Lng : -123.1147138, Q1 : 0.874904096127, Q2 : 0.0723882317543, Q3 : -0.135512903333, Q4 : 0.459281027317}
2019-04-14 18:40:35.41: SIM {TimeUS : 63234696, Roll : 0.14, Pitch : -17.65, Yaw : 55.34, Alt : 49.3199996948, Lat : 49.2837106, Lng : -123.1147085, Q1 : 0.875031411648, Q2 : 0.0723725780845, Q3 : -0.135340437293, Q4 : 0.459091693163}
2019-04-14 18:40:35.51: SIM {TimeUS : 63334656, Roll : 0.14, Pitch : -17.64, Yaw : 55.31, Alt : 49.3199996948, Lat : 49.2837129, Lng : -123.1147032, Q1 : 0.875160038471, Q2 : 0.0722998380661, Q3 : -0.135229513049, Q4 : 0.458890557289}
2019-04-14 18:40:35.61: SIM {TimeUS : 63434616, Roll : 0.14, Pitch : -17.62, Yaw : 55.29, Alt : 49.3199996948, Lat : 49.2837153, Lng : -123.1146979, Q1 : 0.875283777714, Q2 : 0.072227217257, Q3 : -0.135159522295, Q4 : 0.458686649799}
2019-04-14 18:40:35.71: SIM {TimeUS : 63534576, Roll : 0.13, Pitch : -17.64, Yaw : 55.26, Alt : 49.3199996948, Lat : 49.2837175, Lng : -123.1146926, Q1 : 0.875368833542, Q2 : 0.0722086802125, Q3 : -0.135354861617, Q4 : 0.45846965909}
2019-04-14 18:40:35.81: SIM {TimeUS : 63634536, Roll : 0.13, Pitch : -17.68, Yaw : 55.24, Alt : 49.3199996948, Lat : 49.2837199, Lng : -123.1146873, Q1 : 0.875418424606, Q2 : 0.0722949579358, Q3 : -0.135681346059, Q4 : 0.458264768124}
2019-04-14 18:40:35.91: SIM {TimeUS : 63734496, Roll : 0.12, Pitch : -17.74, Yaw : 55.22, Alt : 49.3199996948, Lat : 49.2837223, Lng : -123.1146819, Q1 : 0.875432252884, Q2 : 0.072415612638, Q3 : -0.136154487729, Q4 : 0.458078920841}
2019-04-14 18:40:36.01: SIM {TimeUS : 63835289, Roll : 0.11, Pitch : -17.8, Yaw : 55.2, Alt : 49.3199996948, Lat : 49.2837247, Lng : -123.1146764, Q1 : 0.875424563885, Q2 : 0.0726050883532, Q3 : -0.13664868474, Q4 : 0.457916408777}
2019-04-14 18:40:36.11: SIM {TimeUS : 63935249, Roll : 0.12, Pitch : -17.83, Yaw : 55.19, Alt : 49.3300018311, Lat : 49.2837271, Lng : -123.1146712, Q1 : 0.875433802605, Q2 : 0.0727672502398, Q3 : -0.136827796698, Q4 : 0.457819521427}
2019-04-14 18:40:36.21: SIM {TimeUS : 64035209, Roll : 0.12, Pitch : -17.85, Yaw : 55.18, Alt : 49.3300018311, Lat : 49.2837295, Lng : -123.1146658, Q1 : 0.875448822975, Q2 : 0.0728566423059, Q3 : -0.136989429593, Q4 : 0.457728296518}
2019-04-14 18:40:36.31: SIM {TimeUS : 64135169, Roll : 0.12, Pitch : -17.86, Yaw : 55.17, Alt : 49.3300018311, Lat : 49.2837319, Lng : -123.1146605, Q1 : 0.875473976135, Q2 : 0.0728809535503, Q3 : -0.137094512582, Q4 : 0.457644820213}
2019-04-14 18:40:36.41: SIM {TimeUS : 64235129, Roll : 0.14, Pitch : -17.85, Yaw : 55.16, Alt : 49.3300018311, Lat : 49.2837343, Lng : -123.1146551, Q1 : 0.875509977341, Q2 : 0.0729625746608, Q3 : -0.136952191591, Q4 : 0.457605540752}
2019-04-14 18:40:36.51: SIM {TimeUS : 64335089, Roll : 0.17, Pitch : -17.85, Yaw : 55.15, Alt : 49.3300018311, Lat : 49.2837367, Lng : -123.1146497, Q1 : 0.875519812107, Q2 : 0.0731758326292, Q3 : -0.136894881725, Q4 : 0.45756983757}
2019-04-14 18:40:36.61: SIM {TimeUS : 64435049, Roll : 0.18, Pitch : -17.87, Yaw : 55.15, Alt : 49.3300018311, Lat : 49.2837391, Lng : -123.1146443, Q1 : 0.875519812107, Q2 : 0.0733502283692, Q3 : -0.137000590563, Q4 : 0.457510262728}
2019-04-14 18:40:36.71: SIM {TimeUS : 64535009, Roll : 0.19, Pitch : -17.89, Yaw : 55.14, Alt : 49.3300018311, Lat : 49.2837415, Lng : -123.1146389, Q1 : 0.875530958176, Q2 : 0.0734489262104, Q3 : -0.137096792459, Q4 : 0.457444250584}
2019-04-14 18:40:36.81: SIM {TimeUS : 64634969, Roll : 0.19, Pitch : -17.89, Yaw : 55.13, Alt : 49.3300018311, Lat : 49.2837439, Lng : -123.1146335, Q1 : 0.875570237637, Q2 : 0.0734207183123, Q3 : -0.137098044157, Q4 : 0.457373291254}
2019-04-14 18:40:36.91: SIM {TimeUS : 64734929, Roll : 0.17, Pitch : -17.89, Yaw : 55.12, Alt : 49.3300018311, Lat : 49.2837463, Lng : -123.1146281, Q1 : 0.875614762306, Q2 : 0.0733174905181, Q3 : -0.137187257409, Q4 : 0.457277864218}
2019-04-14 18:40:37.01: SIM {TimeUS : 64834889, Roll : 0.14, Pitch : -17.91, Yaw : 55.11, Alt : 49.3300018311, Lat : 49.2837486, Lng : -123.1146227, Q1 : 0.875651419163, Q2 : 0.0731788352132, Q3 : -0.137486428022, Q4 : 0.457139968872}
2019-04-14 18:40:37.11: SIM {TimeUS : 64934849, Roll : 0.11, Pitch : -17.96, Yaw : 55.09, Alt : 49.3300018311, Lat : 49.283751, Lng : -123.1146173, Q1 : 0.875678777695, Q2 : 0.0730694308877, Q3 : -0.137939453125, Q4 : 0.456968605518}
2019-04-14 18:40:37.21: SIM {TimeUS : 65034809, Roll : 0.1, Pitch : -17.97, Yaw : 55.08, Alt : 49.3300018311, Lat : 49.2837534, Lng : -123.1146118, Q1 : 0.875739395618, Q2 : 0.0730022788048, Q3 : -0.138079464436, Q4 : 0.456820875406}
2019-04-14 18:40:37.31: SIM {TimeUS : 65134769, Roll : 0.11, Pitch : -17.96, Yaw : 55.06, Alt : 49.3300018311, Lat : 49.2837559, Lng : -123.1146064, Q1 : 0.875811100006, Q2 : 0.0730282589793, Q3 : -0.137971162796, Q4 : 0.456711947918}
2019-04-14 18:40:37.41: SIM {TimeUS : 65234729, Roll : 0.13, Pitch : -17.95, Yaw : 55.04, Alt : 49.3300018311, Lat : 49.2837583, Lng : -123.1146009, Q1 : 0.875874102116, Q2 : 0.0731519088149, Q3 : -0.137811690569, Q4 : 0.456619441509}
2019-04-14 18:40:37.51: SIM {TimeUS : 65334689, Roll : 0.15, Pitch : -17.96, Yaw : 55.03, Alt : 49.3300018311, Lat : 49.2837607, Lng : -123.1145955, Q1 : 0.875916659832, Q2 : 0.0733144953847, Q3 : -0.137834697962, Q4 : 0.456504791975}
2019-04-14 18:40:37.61: SIM {TimeUS : 65434649, Roll : 0.14, Pitch : -17.97, Yaw : 55.01, Alt : 49.3400001526, Lat : 49.2837631, Lng : -123.11459, Q1 : 0.875963866711, Q2 : 0.0733106061816, Q3 : -0.137998327613, Q4 : 0.456365346909}
2019-04-14 18:40:37.71: SIM {TimeUS : 65534609, Roll : 0.12, Pitch : -17.99, Yaw : 55.0, Alt : 49.3400001526, Lat : 49.2837656, Lng : -123.1145846, Q1 : 0.876011550426, Q2 : 0.0732129141688, Q3 : -0.138218834996, Q4 : 0.456222712994}
2019-04-14 18:40:37.81: SIM {TimeUS : 65634569, Roll : 0.11, Pitch : -18.01, Yaw : 54.98, Alt : 49.3400001526, Lat : 49.283768, Lng : -123.1145791, Q1 : 0.876049101353, Q2 : 0.0731867179275, Q3 : -0.138393744826, Q4 : 0.456101834774}
2019-04-14 18:40:37.91: SIM {TimeUS : 65734529, Roll : 0.12, Pitch : -18.03, Yaw : 54.97, Alt : 49.3400001526, Lat : 49.2837705, Lng : -123.1145736, Q1 : 0.876075983047, Q2 : 0.0733014345169, Q3 : -0.138516500592, Q4 : 0.455994486809}
2019-04-14 18:40:38.01: SIM {TimeUS : 65835322, Roll : 0.14, Pitch : -18.04, Yaw : 54.96, Alt : 49.3400001526, Lat : 49.2837729, Lng : -123.1145681, Q1 : 0.876096427441, Q2 : 0.0734758153558, Q3 : -0.138571709394, Q4 : 0.455910265446}
2019-04-14 18:40:38.11: SIM {TimeUS : 65935282, Roll : 0.17, Pitch : -18.05, Yaw : 54.95, Alt : 49.3400001526, Lat : 49.2837755, Lng : -123.1145626, Q1 : 0.876093924046, Q2 : 0.0737172141671, Q3 : -0.138547033072, Q4 : 0.455883711576}
2019-04-14 18:40:38.21: SIM {TimeUS : 66035242, Roll : 0.18, Pitch : -18.07, Yaw : 54.95, Alt : 49.3400001526, Lat : 49.2837778, Lng : -123.1145571, Q1 : 0.876077651978, Q2 : 0.0739011019468, Q3 : -0.138583958149, Q4 : 0.455874025822}
2019-04-14 18:40:38.31: SIM {TimeUS : 66135202, Roll : 0.2, Pitch : -18.08, Yaw : 54.94, Alt : 49.3400001526, Lat : 49.2837804, Lng : -123.1145517, Q1 : 0.876057803631, Q2 : 0.074086420238, Q3 : -0.138642549515, Q4 : 0.45586425066}
2019-04-14 18:40:38.41: SIM {TimeUS : 66235162, Roll : 0.22, Pitch : -18.1, Yaw : 54.94, Alt : 49.3400001526, Lat : 49.2837828, Lng : -123.1145462, Q1 : 0.876036822796, Q2 : 0.0742726325989, Q3 : -0.138698101044, Q4 : 0.455857306719}
2019-04-14 18:40:38.51: SIM {TimeUS : 66335122, Roll : 0.24, Pitch : -18.11, Yaw : 54.94, Alt : 49.3400001526, Lat : 49.2837853, Lng : -123.1145407, Q1 : 0.876013040543, Q2 : 0.0744993165135, Q3 : -0.138707906008, Q4 : 0.455863088369}
2019-04-14 18:40:38.61: SIM {TimeUS : 66435082, Roll : 0.26, Pitch : -18.13, Yaw : 54.94, Alt : 49.3400001526, Lat : 49.2837877, Lng : -123.1145352, Q1 : 0.875987172127, Q2 : 0.0747371464968, Q3 : -0.13874091208, Q4 : 0.455863773823}
2019-04-14 18:40:38.71: SIM {TimeUS : 66535042, Roll : 0.25, Pitch : -18.12, Yaw : 54.93, Alt : 49.3400001526, Lat : 49.2837902, Lng : -123.1145297, Q1 : 0.876008927822, Q2 : 0.0746254473925, Q3 : -0.138763964176, Q4 : 0.455833226442}
2019-04-14 18:40:38.81: SIM {TimeUS : 66635002, Roll : 0.22, Pitch : -18.13, Yaw : 54.93, Alt : 49.3499984741, Lat : 49.2837927, Lng : -123.1145242, Q1 : 0.876040875912, Q2 : 0.0743765160441, Q3 : -0.138933539391, Q4 : 0.455760896206}
2019-04-14 18:40:38.91: SIM {TimeUS : 66734962, Roll : 0.18, Pitch : -18.15, Yaw : 54.93, Alt : 49.3499984741, Lat : 49.2837951, Lng : -123.1145186, Q1 : 0.876059889793, Q2 : 0.074178814888, Q3 : -0.139209151268, Q4 : 0.455672442913}
