2019-04-14 16:42:00.90: SIM {TimeUS : 40316367, Roll : 0.0, Pitch : 0.0, Yaw : 0.0, Alt : 30.1000003815, Lat : 49.28357, Lng : -123.11502, Q1 : 1.0, Q2 : 0.0, Q3 : 0.0, Q4 : 0.0}
2019-04-14 16:42:01.01: SIM {TimeUS : 40435486, Roll : 0.0, Pitch : 0.0, Yaw : 0.0, Alt : 30.1000003815, Lat : 49.28357, Lng : -123.11502, Q1 : 1.0, Q2 : 0.0, Q3 : 0.0, Q4 : 0.0}
2019-04-14 16:42:01.11: SIM {TimeUS : 40535446, Roll : 0.0, Pitch : 0.0, Yaw : 0.0, Alt : 30.1000003815, Lat : 49.28357, Lng : -123.11502, Q1 : 1.0, Q2 : 0.0, Q3 : 0.0, Q4 : 0.0}
2019-04-14 16:42:01.21: SIM {TimeUS : 40635406, Roll : 0.0, Pitch : 0.0, Yaw : 0.0, Alt : 30.1000003815, Lat : 49.28357, Lng : -123.11502, Q1 : 1.0, Q2 : 0.0, Q3 : 0.0, Q4 : 0.0}
2019-04-14 16:42:01.31: SIM {TimeUS : 40735366, Roll : 0.0, Pitch : 0.0, Yaw : 0.0, Alt : 30.1000003815, Lat : 49.28357, Lng : -123.11502, Q1 : 1.0, Q2 : 0.0, Q3 : 0.0, Q4 : 0.0}
2019-04-14 16:42:01.41: SIM {TimeUS : 40835326, Roll : 0.0, Pitch : 0.0, Yaw : 0.0, Alt : 30.1000003815, Lat : 49.28357, Lng : -123.11502, Q1 : 1.0, Q2 : 0.0, Q3 : 0.0, Q4 : 0.0}
2019-04-14 16:42:01.51: SIM {TimeUS : 40935286, Roll : 0.0, Pitch : 0.0, Yaw : 0.0, Alt : 30.1000003815, Lat : 49.28357, Lng : -123.11502, Q1 : 1.0, Q2 : 0.0, Q3 : 0.0, Q4 : 0.0}
2019-04-14 16:42:01.61: SIM {TimeUS : 41035246, Roll : 0.0, Pitch : 0.0, Yaw : 0.0, Alt : 30.1000003815, Lat : 49.28357, Lng : -123.11502, Q1 : 1.0, Q2 : 0.0, Q3 : 0.0, Q4 : 0.0}
2019-04-14 16:42:01.71: SIM {TimeUS : 41135206, Roll : 0.0, Pitch : 0.0, Yaw : 0.0, Alt : 30.1000003815, Lat : 49.28357, Lng : -123.11502, Q1 : 1.0, Q2 : 0.0, Q3 : 0.0, Q4 : 0.0}
2019-04-14 16:42:01.81: SIM {TimeUS : 41235166, Roll : 0.0, Pitch : 0.0, Yaw : 0.0, Alt : 30.1000003815, Lat : 49.28357, Lng : -123.11502, Q1 : 1.0, Q2 : 0.0, Q3 : 0.0, Q4 : 0.0}
2019-04-14 16:42:01.91: SIM {TimeUS : 41335126, Roll : 0.0, Pitch : 0.0, Yaw : 0.0, Alt : 30.1000003815, Lat : 49.28357, Lng : -123.11502, Q1 : 1.0, Q2 : 0.0, Q3 : 0.0, Q4 : 0.0}
2019-04-14 16:42:02.01: SIM {TimeUS : 41435086, Roll : 0.0, Pitch : 0.0, Yaw : 0.0, Alt : 30.1000003815, Lat : 49.28357, Lng : -123.11502, Q1 : 1.0, Q2 : 0.0, Q3 : 0.0, Q4 : 0.0}
2019-04-14 16:42:02.11: SIM {TimeUS : 41535046, Roll : 0.0, Pitch : 0.0, Yaw : 0.0, Alt : 30.1000003815, Lat : 49.28357, Lng : -123.11502, Q1 : 1.0, Q2 : 0.0, Q3 : 0.0, Q4 : 0.0}
2019-04-14 16:42:02.21: SIM {TimeUS : 41635006, Roll : 0.0, Pitch : 0.0, Yaw : 0.0, Alt : 30.1000003815, Lat : 49.28357, Lng : -123.11502, Q1 : 1.0, Q2 : 0.0, Q3 : 0.0, Q4 : 0.0}
2019-04-14 16:42:02.31: SIM {TimeUS : 41734966, Roll : 0.0, Pitch : 0.0, Yaw : 0.0, Alt : 30.1000003815, Lat : 49.28357, Lng : -123.11502, Q1 : 1.0, Q2 : 0.0, Q3 : 0.0, Q4 : 0.0}
2019-04-14 16:42:02.41: SIM {TimeUS : 41834926, Roll : 0.0, Pitch : 0.0, Yaw : 0.0, Alt : 30.1000003815, Lat : 49.28357, Lng : -123.11502, Q1 : 1.0, Q2 : 0.0, Q3 : 0.0, Q4 : 0.0}
2019-04-14 16:42:02.51: SIM {TimeUS : 41934886, Roll : 0.0, Pitch : 0.0, Yaw : 0.0, Alt : 30.1000003815, Lat : 49.28357, Lng : -123.11502, Q1 : 1.0, Q2 : 0.0, Q3 : 0.0, Q4 : 0.0}
2019-04-14 16:42:02.61: SIM {TimeUS : 42034846, Roll : 0.0, Pitch : 0.0, Yaw : 0.0, Alt : 30.1000003815, Lat : 49.28357, Lng : -123.11502, Q1 : 1.0, Q2 : 0.0, Q3 : 0.0, Q4 : 0.0}
2019-04-14 16:42:02.71: SIM {TimeUS : 42134806, Roll : 0.0, Pitch : 0.0, Yaw : 0.0, Alt : 30.1000003815, Lat : 49.28357, Lng : -123.11502, Q1 : 1.0, Q2 : 0.0, Q3 : 0.0, Q4 : 0.0}
2019-04-14 16:42:02.81: SIM {TimeUS : 42234766, Roll : 0.0, Pitch : 0.0, Yaw : 0.0, Alt : 30.1000003815, Lat : 49.28357, Lng : -123.11502, Q1 : 1.0, Q2 : 0.0, Q3 : 0.0, Q4 : 0.0}
2019-04-14 16:42:02.91: SIM {TimeUS : 42334726, Roll : 0.0, Pitch : 0.0, Yaw : 0.0, Alt : 30.1000003815, Lat : 49.28357, Lng : -123.11502, Q1 : 1.0, Q2 : 0.0, Q3 : 0.0, Q4 : 0.0}
2019-04-14 16:42:03.02: SIM {TimeUS : 42435519, Roll : 0.0, Pitch : 0.0, Yaw : 0.0, Alt : 30.1000003815, Lat : 49.28357, Lng : -123.11502, Q1 : 1.0, Q2 : 0.0, Q3 : 0.0, Q4 : 0.0}
2019-04-14 16:42:03.11: SIM {TimeUS : 42535479, Roll : 0.0, Pitch : 0.0, Yaw : 0.0, Alt : 30.1000003815, Lat : 49.28357, Lng : -123.11502, Q1 : 1.0, Q2 : 0.0, Q3 : 0.0, Q4 : 0.0}
2019-04-14 16:42:03.21: SIM {TimeUS : 42635439, Roll : 0.0, Pitch : 0.0, Yaw : 360.0, Alt : 30.1000003815, Lat : 49.28357, Lng : -123.11502, Q1 : 1.0, Q2 : 0.0, Q3 : 0.0, Q4 : -7.26646824309e-12}
2019-04-14 16:42:03.31: SIM {TimeUS : 42735399, Roll : 0.0, Pitch : 0.0, Yaw : 0.0, Alt : 30.1000003815, Lat : 49.28357, Lng : -123.11502, Q1 : 1.0, Q2 : 0.0, Q3 : 0.0, Q4 : 2.12949782807e-10}
2019-04-14 16:42:03.41: SIM {TimeUS : 42835359, Roll : 0.0, Pitch : 0.0, Yaw : 360.0, Alt : 30.1000003815, Lat : 49.28357, Lng : -123.11502, Q1 : 1.0, Q2 : 0.0, Q3 : 0.0, Q4 : -1.12301528077e-07}
2019-04-14 16:42:03.51: SIM {TimeUS : 42935319, Roll : 0.0, Pitch : 0.0, Yaw : 359.99, Alt : 30.1000003815, Lat : 49.28357, Lng : -123.11502, Q1 : 1.0, Q2 : 0.0, Q3 : 0.0, Q4 : -2.42104391646e-07}
2019-04-14 16:42:03.61: SIM {TimeUS : 43035279, Roll : 0.0, Pitch : 0.0, Yaw : 359.99, Alt : 30.1000003815, Lat : 49.28357, Lng : -123.11502, Q1 : 1.0, Q2 : 0.0, Q3 : 0.0, Q4 : -4.4629553031e-07}
2019-04-14 16:42:03.71: SIM {TimeUS : 43135239, Roll : 0.0, Pitch : 0.0, Yaw : 359.99, Alt : 30.1000003815, Lat : 49.28357, Lng : -123.11502, Q1 : 1.0, Q2 : 0.0, Q3 : 0.0, Q4 : -6.71783425332e-07}
2019-04-14 16:42:03.81: SIM {TimeUS : 43235199, Roll : 0.0, Pitch : 0.0, Yaw : 359.99, Alt : 30.1000003815, Lat : 49.28357, Lng : -123.11502, Q1 : 1.0, Q2 : 0.0, Q3 : 0.0, Q4 : -8.32529963191e-07}
2019-04-14 16:42:03.91: SIM {TimeUS : 43335159, Roll : 0.0, Pitch : 0.0, Yaw : 359.99, Alt : 30.1000003815, Lat : 49.28357, Lng : -123.11502, Q1 : 1.0, Q2 : 0.0, Q3 : 0.0, Q4 : -1.02483500086e-06}
2019-04-14 16:42:04.01: SIM {TimeUS : 43435119, Roll : 0.0, Pitch : 0.0, Yaw : 359.99, Alt : 30.1000003815, Lat : 49.28357, Lng : -123.11502, Q1 : 1.0, Q2 : 0.0, Q3 : 0.0, Q4 : -1.22115920931e-06}
2019-04-14 16:42:04.11: SIM {TimeUS : 43535079, Roll : 0.0, Pitch : 0.0, Yaw : 359.99, Alt : 30.1100006104, Lat : 49.28357, Lng : -123.11502, Q1 : 1.0, Q2 : 0.0, Q3 : 0.0, Q4 : -1.42737701481e-06}
2019-04-14 16:42:04.21: SIM {TimeUS : 43635039, Roll : 0.0, Pitch : 0.0, Yaw : 359.99, Alt : 30.1299991608, Lat : 49.28357, Lng : -123.11502, Q1 : 1.0, Q2 : 0.0, Q3 : 0.0, Q4 : -1.65380561157e-06}
2019-04-14 16:42:04.31: SIM {TimeUS : 43734999, Roll : 0.0, Pitch : 0.0, Yaw : 359.99, Alt : 30.1599998474, Lat : 49.28357, Lng : -123.11502, Q1 : 1.0, Q2 : 0.0, Q3 : 0.0, Q4 : -1.89724005395e-06}
2019-04-14 16:42:04.41: SIM {TimeUS : 43834959, Roll : 0.0, Pitch : 0.0, Yaw : 359.99, Alt : 30.1900005341, Lat : 49.28357, Lng : -123.11502, Q1 : 1.0, Q2 : 0.0, Q3 : 0.0, Q4 : -2.13756584344e-06}
2019-04-14 16:42:04.51: SIM {TimeUS : 43934919, Roll : -0.03, Pitch : -0.03, Yaw : 359.99, Alt : 30.2299995422, Lat : 49.28357, Lng : -123.11502, Q1 : 0.999999940395, Q2 : -0.000318342616083, Q3 : -0.000290508469334, Q4 : -5.17910893905e-06}
2019-04-14 16:42:04.61: SIM {TimeUS : 44034879, Roll : -0.28, Pitch : -0.26, Yaw : 359.99, Alt : 30.3099994659, Lat : 49.28357, Lng : -123.11502, Q1 : 0.999994277954, Q2 : -0.00250868685544, Q3 : -0.00227498589084, Q4 : -3.00127867376e-05}
2019-04-14 16:42:04.71: SIM {TimeUS : 44134839, Roll : -0.59, Pitch : -0.54, Yaw : 359.99, Alt : 30.4400005341, Lat : 49.28357, Lng : -123.11502, Q1 : 0.999975204468, Q2 : -0.00521333236247, Q3 : -0.00474016414955, Q4 : -8.48060226417e-05}
2019-04-14 16:42:04.81: SIM {TimeUS : 44234799, Roll : -0.81, Pitch : -0.73, Yaw : 359.98, Alt : 30.6000003815, Lat : 49.28357, Lng : -123.11502, Q1 : 0.999954521656, Q2 : -0.00710070645437, Q3 : -0.0063700703904, Q4 : -0.000160439143656}
2019-04-14 16:42:04.91: SIM {TimeUS : 44334759, Roll : -0.86, Pitch : -0.76, Yaw : 359.97, Alt : 30.75, Lat : 49.28357, Lng : -123.11502, Q1 : 0.999949038029, Q2 : -0.0075591863133, Q3 : -0.00668570678681, Q4 : -0.000247577903792}
2019-04-14 16:42:05.01: SIM {TimeUS : 44434719, Roll : -0.75, Pitch : -0.68, Yaw : 359.96, Alt : 30.9099998474, Lat : 49.28357, Lng : -123.1150201, Q1 : 0.999960660934, Q2 : -0.00656680203974, Q3 : -0.00595559319481, Q4 : -0.000337911682436}
2019-04-14 16:42:05.12: SIM {TimeUS : 44535512, Roll : -0.54, Pitch : -0.5, Yaw : 359.95, Alt : 31.0599994659, Lat : 49.2835701, Lng : -123.1150202, Q1 : 0.999978899956, Q2 : -0.00472937244922, Q3 : -0.00443238345906, Q4 : -0.000421483709943}
2019-04-14 16:42:05.21: SIM {TimeUS : 44635472, Roll : -0.32, Pitch : -0.29, Yaw : 359.94, Alt : 31.2199993134, Lat : 49.2835701, Lng : -123.1150202, Q1 : 0.999992609024, Q2 : -0.00281257904135, Q3 : -0.00258232071064, Q4 : -0.000483277806779}
2019-04-14 16:42:05.31: SIM {TimeUS : 44735432, Roll : -0.13, Pitch : -0.11, Yaw : 359.93, Alt : 31.3899993896, Lat : 49.2835702, Lng : -123.1150203, Q1 : 0.999998688698, Q2 : -0.00114669103641, Q3 : -0.00101693242323, Q4 : -0.000526865071151}
2019-04-14 16:42:05.41: SIM {TimeUS : 44835392, Roll : 0.0, Pitch : 0.0, Yaw : 359.93, Alt : 31.5599994659, Lat : 49.2835702, Lng : -123.1150204, Q1 : 0.999999821186, Q2 : -7.28973100195e-06, Q3 : 1.21787197713e-05, Q4 : -0.000553318415768}
2019-04-14 16:42:05.51: SIM {TimeUS : 44935352, Roll : 0.06, Pitch : 0.05, Yaw : 359.93, Alt : 31.7299995422, Lat : 49.2835703, Lng : -123.1150205, Q1 : 0.999999582767, Q2 : 0.00058157381136, Q3 : 0.000452946114819, Q4 : -0.000565379392356}
2019-04-14 16:42:05.61: SIM {TimeUS : 45035312, Roll : 0.09, Pitch : 0.05, Yaw : 359.93, Alt : 31.9200000763, Lat : 49.2835703, Lng : -123.1150205, Q1 : 0.999999403954, Q2 : 0.000819886976387, Q3 : 0.000469125225209, Q4 : -0.00056274374947}
2019-04-14 16:42:05.71: SIM {TimeUS : 45135272, Roll : 0.09, Pitch : 0.03, Yaw : 359.93, Alt : 32.0999984741, Lat : 49.2835703, Lng : -123.1150206, Q1 : 0.999999403954, Q2 : 0.00086783390725, Q3 : 0.000317772763083, Q4 : -0.000551622710191}
2019-04-14 16:42:05.81: SIM {TimeUS : 45235232, Roll : 0.09, Pitch : 0.02, Yaw : 359.93, Alt : 32.2900009155, Lat : 49.2835703, Lng : -123.1150207, Q1 : 0.999999463558, Q2 : 0.000841464381665, Q3 : 0.000254978629528, Q4 : -0.000528285221662}
2019-04-14 16:42:05.91: SIM {TimeUS : 45335192, Roll : 0.08, Pitch : 0.05, Yaw : 359.94, Alt : 32.4799995422, Lat : 49.2835703, Lng : -123.1150207, Q1 : 0.999999523163, Q2 : 0.00075655861292, Q3 : 0.000464482815005, Q4 : -0.000483754673041}
2019-04-14 16:42:06.01: SIM {TimeUS : 45435152, Roll : 0.07, Pitch : 0.08, Yaw : 359.94, Alt : 32.6800003052, Lat : 49.2835703, Lng : -123.1150207, Q1 : 0.999999463558, Q2 : 0.000624336185865, Q3 : 0.00073799432721, Q4 : -0.000440312112914}
2019-04-14 16:42:06.11: SIM {TimeUS : 45535112, Roll : 0.08, Pitch : 0.13, Yaw : 359.95, Alt : 32.8800010681, Lat : 49.2835704, Lng : -123.1150208, Q1 : 0.999998927116, Q2 : 0.000776818720624, Q3 : 0.0011642324971, Q4 : -0.000413837842643}
2019-04-14 16:42:06.21: SIM {TimeUS : 45635072, Roll : 0.12, Pitch : 0.17, Yaw : 359.95, Alt : 33.0800018311, Lat : 49.2835704, Lng : -123.1150208, Q1 : 0.999998092651, Q2 : 0.00111828511581, Q3 : 0.00153668888379, Q4 : -0.000402337085688}
2019-04-14 16:42:06.31: SIM {TimeUS : 45735032, Roll : 0.15, Pitch : 0.2, Yaw : 359.95, Alt : 33.2799987793, Lat : 49.2835704, Lng : -123.1150208, Q1 : 0.999997437, Q2 : 0.00135716260411, Q3 : 0.00174823845737, Q4 : -0.000418605457526}
2019-04-14 16:42:06.41: SIM {TimeUS : 45834992, Roll : 0.16, Pitch : 0.21, Yaw : 359.94, Alt : 33.4900016785, Lat : 49.2835704, Lng : -123.1150208, Q1 : 0.999997079372, Q2 : 0.00145255285315, Q3 : 0.00188479560893, Q4 : -0.000441949174274}
2019-04-14 16:42:06.51: SIM {TimeUS : 45934952, Roll : 0.16, Pitch : 0.18, Yaw : 359.94, Alt : 33.6899986267, Lat : 49.2835704, Lng : -123.1150209, Q1 : 0.999997496605, Q2 : 0.00145843927749, Q3 : 0.00163957837503, Q4 : -0.000487088807859}
2019-04-14 16:42:06.61: SIM {TimeUS : 46034912, Roll : 0.15, Pitch : 0.14, Yaw : 359.93, Alt : 33.9000015259, Lat : 49.2835704, Lng : -123.1150209, Q1 : 0.999998152256, Q2 : 0.00136654183734, Q3 : 0.0012545309728, Q4 : -0.000531642173883}
2019-04-14 16:42:06.71: SIM {TimeUS : 46134872, Roll : 0.13, Pitch : 0.11, Yaw : 359.93, Alt : 34.1100006104, Lat : 49.2835704, Lng : -123.1150209, Q1 : 0.999998629093, Q2 : 0.00119559140876, Q3 : 0.000975806848146, Q4 : -0.000574662117288}
2019-04-14 16:42:06.81: SIM {TimeUS : 46234832, Roll : 0.12, Pitch : 0.08, Yaw : 359.92, Alt : 34.3199996948, Lat : 49.2835704, Lng : -123.1150209, Q1 : 0.999998927116, Q2 : 0.00107160350308, Q3 : 0.000782383838668, Q4 : -0.000615344673861}
2019-04-14 16:42:06.91: SIM {TimeUS : 46334792, Roll : 0.12, Pitch : 0.08, Yaw : 359.92, Alt : 34.5299987793, Lat : 49.2835704, Lng : -123.1150209, Q1 : 0.999998927116, Q2 : 0.00104948598891, Q3 : 0.000756715482567, Q4 : -0.00065179442754}
2019-04-14 16:42:07.01: SIM {TimeUS : 46434752, Roll : 0.1, Pitch : 0.06, Yaw : 359.92, Alt : 34.75, Lat : 49.2835704, Lng : -123.1150208, Q1 : 0.99999910593, Q2 : 0.000950384826865, Q3 : 0.000608687696513, Q4 : -0.000671096669976}
2019-04-14 16:42:07.11: SIM {TimeUS : 46534712, Roll : 0.08, Pitch : 0.05, Yaw : 359.92, Alt : 34.9599990845, Lat : 49.2835704, Lng : -123.1150208, Q1 : 0.999999403954, Q2 : 0.000756462861318, Q3 : 0.000472331623314, Q4 : -0.000679160410073}
2019-04-14 16:42:07.22: SIM {TimeUS : 46635505, Roll : 0.06, Pitch : 0.04, Yaw : 359.92, Alt : 35.1800003052, Lat : 49.2835704, Lng : -123.1150208, Q1 : 0.999999523163, Q2 : 0.000531070865691, Q3 : 0.000419025396695, Q4 : -0.00068570591975}
2019-04-14 16:42:07.31: SIM {TimeUS : 46735465, Roll : 0.03, Pitch : 0.04, Yaw : 359.92, Alt : 35.4000015259, Lat : 49.2835704, Lng : -123.1150208, Q1 : 0.999999642372, Q2 : 0.000316243473208, Q3 : 0.00038378147292, Q4 : -0.000686813378707}
2019-04-14 16:42:07.41: SIM {TimeUS : 46835425, Roll : 0.02, Pitch : 0.01, Yaw : 359.92, Alt : 35.6199989319, Lat : 49.2835704, Lng : -123.1150208, Q1 : 0.999999761581, Q2 : 0.000245871895459, Q3 : 0.000112797439215, Q4 : -0.000689300708473}
2019-04-14 16:42:07.51: SIM {TimeUS : 46935385, Roll : 0.02, Pitch : -0.01, Yaw : 359.91, Alt : 35.8400001526, Lat : 49.2835704, Lng : -123.1150208, Q1 : 0.999999701977, Q2 : 0.000212341954466, Q3 : -0.000108632419142, Q4 : -0.000699787400663}
2019-04-14 16:42:07.61: SIM {TimeUS : 47035345, Roll : 0.0, Pitch : -0.02, Yaw : 359.91, Alt : 36.0600013733, Lat : 49.2835704, Lng : -123.1150208, Q1 : 0.999999701977, Q2 : 5.41718181921e-05, Q3 : -0.00022315957176, Q4 : -0.000720169278793}
2019-04-14 16:42:07.71: SIM {TimeUS : 47135305, Roll : 0.0, Pitch : -0.02, Yaw : 359.91, Alt : 36.2799987793, Lat : 49.2835704, Lng : -123.1150207, Q1 : 0.999999701977, Q2 : 1.06234720079e-05, Q3 : -0.000229063225561, Q4 : -0.000739975250326}
2019-04-14 16:42:07.81: SIM {TimeUS : 47235265, Roll : 0.0, Pitch : -0.02, Yaw : 359.91, Alt : 36.5, Lat : 49.2835704, Lng : -123.1150207, Q1 : 0.999999701977, Q2 : 6.37639677734e-05, Q3 : -0.00019711907953, Q4 : -0.000758208800107}
2019-04-14 16:42:07.91: SIM {TimeUS : 47335225, Roll : 0.0, Pitch : -0.03, Yaw : 359.91, Alt : 36.7200012207, Lat : 49.2835704, Lng : -123.1150207, Q1 : 0.999999642372, Q2 : -3.13295786327e-05, Q3 : -0.000284077454126, Q4 : -0.000781621609349}
2019-04-14 16:42:08.01: SIM {TimeUS : 47435185, Roll : -0.03, Pitch : -0.05, Yaw : 359.9, Alt : 36.9500007629, Lat : 49.2835704, Lng : -123.1150207, Q1 : 0.999999463558, Q2 : -0.000312978663715, Q3 : -0.000504238239955, Q4 : -0.000815060338937}
2019-04-14 16:42:08.11: SIM {TimeUS : 47535145, Roll : -0.07, Pitch : -0.07, Yaw : 359.9, Alt : 37.1699981689, Lat : 49.2835704, Lng : -123.1150207, Q1 : 0.99999922514, Q2 : -0.000648026471026, Q3 : -0.000686504819896, Q4 : -0.000849842617754}
2019-04-14 16:42:08.21: SIM {TimeUS : 47635105, Roll : -0.11, Pitch : -0.09, Yaw : 359.89, Alt : 37.3899993896, Lat : 49.2835704, Lng : -123.1150207, Q1 : 0.999998807907, Q2 : -0.000967514235526, Q3 : -0.000837707135361, Q4 : -0.000884476816282}
2019-04-14 16:42:08.31: SIM {TimeUS : 47735065, Roll : -0.12, Pitch : -0.1, Yaw : 359.89, Alt : 37.6199989319, Lat : 49.2835704, Lng : -123.1150207, Q1 : 0.999998629093, Q2 : -0.00109422300011, Q3 : -0.000879173574504, Q4 : -0.000921410508454}
2019-04-14 16:42:08.41: SIM {TimeUS : 47835025, Roll : -0.11, Pitch : -0.08, Yaw : 359.89, Alt : 37.8499984741, Lat : 49.2835704, Lng : -123.1150207, Q1 : 0.999998688698, Q2 : -0.00104197999462, Q3 : -0.000754685315769, Q4 : -0.000959084252827}
2019-04-14 16:42:08.51: SIM {TimeUS : 47934985, Roll : -0.09, Pitch : -0.05, Yaw : 359.88, Alt : 38.0699996948, Lat : 49.2835704, Lng : -123.1150207, Q1 : 0.999999046326, Q2 : -0.00086690869648, Q3 : -0.000457847869257, Q4 : -0.000989571330138}
2019-04-14 16:42:08.61: SIM {TimeUS : 48034945, Roll : -0.07, Pitch : -0.02, Yaw : 359.88, Alt : 38.2999992371, Lat : 49.2835706, Lng : -123.1150207, Q1 : 0.99999922514, Q2 : -0.000654872041196, Q3 : -0.000233722370467, Q4 : -0.00101775676012}
2019-04-14 16:42:08.71: SIM {TimeUS : 48134905, Roll : -0.06, Pitch : -0.02, Yaw : 359.87, Alt : 38.5299987793, Lat : 49.2835706, Lng : -123.1150206, Q1 : 0.999999284744, Q2 : -0.00058727292344, Q3 : -0.000217189066461, Q4 : -0.00104764883872}
2019-04-14 16:42:08.81: SIM {TimeUS : 48234865, Roll : -0.06, Pitch : -0.01, Yaw : 359.87, Alt : 38.7599983215, Lat : 49.2835706, Lng : -123.1150206, Q1 : 0.99999922514, Q2 : -0.000576462363824, Q3 : -0.000133568493766, Q4 : -0.0010643984424}
2019-04-14 16:42:08.91: SIM {TimeUS : 48334825, Roll : -0.08, Pitch : 0.0, Yaw : 359.87, Alt : 38.9900016785, Lat : 49.2835706, Lng : -123.1150206, Q1 : 0.999999165535, Q2 : -0.000724298472051, Q3 : 8.52371613291e-06, Q4 : -0.00107168173417}
2019-04-14 16:42:09.01: SIM {TimeUS : 48434785, Roll : -0.08, Pitch : 0.01, Yaw : 359.87, Alt : 39.2200012207, Lat : 49.2835706, Lng : -123.1150207, Q1 : 0.999999165535, Q2 : -0.000714121386409, Q3 : 0.00012953132682, Q4 : -0.0010735578835}
2019-04-14 16:42:09.11: SIM {TimeUS : 48534745, Roll : -0.05, Pitch : 0.04, Yaw : 359.87, Alt : 39.4399986267, Lat : 49.2835706, Lng : -123.1150207, Q1 : 0.99999922514, Q2 : -0.000517230189871, Q3 : 0.000362430640962, Q4 : -0.00107697059866}
2019-04-14 16:42:09.21: SIM {TimeUS : 48634705, Roll : -0.03, Pitch : 0.04, Yaw : 359.87, Alt : 39.6800003052, Lat : 49.2835706, Lng : -123.1150207, Q1 : 0.999999284744, Q2 : -0.000276353588561, Q3 : 0.000432826724136, Q4 : -0.00107753404882}
2019-04-14 16:42:09.32: SIM {TimeUS : 48735498, Roll : 0.0, Pitch : 0.05, Yaw : 359.87, Alt : 39.9099998474, Lat : 49.2835706, Lng : -123.1150207, Q1 : 0.999999284744, Q2 : -7.34173318051e-06, Q3 : 0.000459722679807, Q4 : -0.00107819226105}
2019-04-14 16:42:09.41: SIM {TimeUS : 48835458, Roll : 0.03, Pitch : 0.08, Yaw : 359.87, Alt : 40.1399993896, Lat : 49.2835706, Lng : -123.1150207, Q1 : 0.99999910593, Q2 : 0.000307100621285, Q3 : 0.000733749533538, Q4 : -0.0010694086086}
2019-04-14 16:42:09.51: SIM {TimeUS : 48935418, Roll : 0.07, Pitch : 0.12, Yaw : 359.87, Alt : 40.3699989319, Lat : 49.2835706, Lng : -123.1150207, Q1 : 0.999998569489, Q2 : 0.000648216693662, Q3 : 0.00111756590195, Q4 : -0.00106789940037}
2019-04-14 16:42:09.61: SIM {TimeUS : 49035378, Roll : 0.1, Pitch : 0.16, Yaw : 359.87, Alt : 40.5999984741, Lat : 49.2835706, Lng : -123.1150207, Q1 : 0.999997913837, Q2 : 0.000923020357732, Q3 : 0.00147752987687, Q4 : -0.001073997817}
2019-04-14 16:42:09.71: SIM {TimeUS : 49135338, Roll : 0.1, Pitch : 0.19, Yaw : 359.87, Alt : 40.8300018311, Lat : 49.2835706, Lng : -123.1150207, Q1 : 0.99999755621, Q2 : 0.000887692091055, Q3 : 0.0017336984165, Q4 : -0.00108261837158}
2019-04-14 16:42:09.81: SIM {TimeUS : 49235298, Roll : 0.05, Pitch : 0.21, Yaw : 359.87, Alt : 41.0699996948, Lat : 49.2835706, Lng : -123.1150207, Q1 : 0.999997496605, Q2 : 0.000473164691357, Q3 : 0.00187355140224, Q4 : -0.00111134257168}
2019-04-14 16:42:09.91: SIM {TimeUS : 49335258, Roll : 0.0, Pitch : 0.21, Yaw : 359.86, Alt : 41.2999992371, Lat : 49.2835706, Lng : -123.1150207, Q1 : 0.999997615814, Q2 : 8.00476118457e-05, Q3 : 0.00187786540482, Q4 : -0.00113982229959}
2019-04-14 16:42:10.01: SIM {TimeUS : 49435218, Roll : -0.01, Pitch : 0.18, Yaw : 359.86, Alt : 41.5299987793, Lat : 49.2835706, Lng : -123.1150207, Q1 : 0.999998033047, Q2 : -0.000147752216435, Q3 : 0.00157946918625, Q4 : -0.00116807525046}
2019-04-14 16:42:10.11: SIM {TimeUS : 49535178, Roll : -0.02, Pitch : 0.13, Yaw : 359.86, Alt : 41.7700004578, Lat : 49.2835706, Lng : -123.1150207, Q1 : 0.999998569489, Q2 : -0.000258501822827, Q3 : 0.00118480320089, Q4 : -0.00120774249081}
2019-04-14 16:42:10.21: SIM {TimeUS : 49635138, Roll : -0.02, Pitch : 0.12, Yaw : 359.85, Alt : 42.0, Lat : 49.2835706, Lng : -123.1150207, Q1 : 0.999998629093, Q2 : -0.00019689121109, Q3 : 0.00107367162127, Q4 : -0.00125738373026}
2019-04-14 16:42:10.31: SIM {TimeUS : 49735098, Roll : 0.01, Pitch : 0.13, Yaw : 359.84, Alt : 42.2299995422, Lat : 49.2835706, Lng : -123.1150207, Q1 : 0.999998450279, Q2 : 9.4476621598e-05, Q3 : 0.00114075059537, Q4 : -0.00130975234788}
2019-04-14 16:42:10.41: SIM {TimeUS : 49835058, Roll : 0.06, Pitch : 0.13, Yaw : 359.84, Alt : 42.4700012207, Lat : 49.2835706, Lng : -123.1150207, Q1 : 0.999998211861, Q2 : 0.000537261599675, Q3 : 0.00118443218525, Q4 : -0.0013579162769}
2019-04-14 16:42:10.51: SIM {TimeUS : 49935018, Roll : 0.1, Pitch : 0.11, Yaw : 359.83, Alt : 42.7000007629, Lat : 49.2835706, Lng : -123.1150207, Q1 : 0.999998092651, Q2 : 0.000895772711374, Q3 : 0.00100402976386, Q4 : -0.00140513735823}
2019-04-14 16:42:10.61: SIM {TimeUS : 50034978, Roll : 0.1, Pitch : 0.08, Yaw : 359.83, Alt : 42.9399986267, Lat : 49.2835706, Lng : -123.1150207, Q1 : 0.999998271465, Q2 : 0.000933920382522, Q3 : 0.000734701752663, Q4 : -0.00144830869976}
2019-04-14 16:42:10.71: SIM {TimeUS : 50134938, Roll : 0.06, Pitch : 0.06, Yaw : 359.83, Alt : 43.1699981689, Lat : 49.2835706, Lng : -123.1150207, Q1 : 0.999998569489, Q2 : 0.00060099264374, Q3 : 0.00055107427761, Q4 : -0.00147439888678}
2019-04-14 16:42:10.81: SIM {TimeUS : 50234898, Roll : 0.01, Pitch : 0.05, Yaw : 359.82, Alt : 43.4099998474, Lat : 49.2835704, Lng : -123.1150207, Q1 : 0.999998748302, Q2 : 0.000114467649837, Q3 : 0.000503891089465, Q4 : -0.00149201694876}
2019-04-14 16:42:10.91: SIM {TimeUS : 50334858, Roll : -0.02, Pitch : 0.07, Yaw : 359.82, Alt : 43.6399993896, Lat : 49.2835704, Lng : -123.1150207, Q1 : 0.999998629093, Q2 : -0.000253596226685, Q3 : 0.000662183214445, Q4 : -0.00150503974874}
2019-04-14 16:42:11.01: SIM {TimeUS : 50434818, Roll : -0.05, Pitch : 0.08, Yaw : 359.82, Alt : 43.8800010681, Lat : 49.2835704, Lng : -123.1150207, Q1 : 0.999998450279, Q2 : -0.000453836342786, Q3 : 0.00075695628766, Q4 : -0.0015168171376}
2019-04-14 16:42:11.11: SIM {TimeUS : 50534778, Roll : -0.04, Pitch : 0.07, Yaw : 359.82, Alt : 44.1100006104, Lat : 49.2835704, Lng : -123.1150206, Q1 : 0.999998509884, Q2 : -0.000426386424806, Q3 : 0.000661110854708, Q4 : -0.00152935390361}
2019-04-14 16:42:11.21: SIM {TimeUS : 50634738, Roll : -0.04, Pitch : 0.05, Yaw : 359.82, Alt : 44.3499984741, Lat : 49.2835704, Lng : -123.1150206, Q1 : 0.999998569489, Q2 : -0.000416467548348, Q3 : 0.000505155650899, Q4 : -0.00154621235561}
2019-04-14 16:42:11.31: SIM {TimeUS : 50734698, Roll : -0.03, Pitch : 0.03, Yaw : 359.82, Alt : 44.5900001526, Lat : 49.2835704, Lng : -123.1150206, Q1 : 0.999998629093, Q2 : -0.000347046123352, Q3 : 0.000301177904475, Q4 : -0.00156289443839}
2019-04-14 16:42:11.41: SIM {TimeUS : 50835491, Roll : -0.02, Pitch : 0.01, Yaw : 359.81, Alt : 44.8199996948, Lat : 49.2835704, Lng : -123.1150206, Q1 : 0.999998748302, Q2 : -0.000232508056797, Q3 : 0.000115341579658, Q4 : -0.00158310437109}
2019-04-14 16:42:11.51: SIM {TimeUS : 50935451, Roll : -0.02, Pitch : 0.0, Yaw : 359.81, Alt : 45.0600013733, Lat : 49.2835704, Lng : -123.1150206, Q1 : 0.999998688698, Q2 : -0.000199843241717, Q3 : -2.23473871301e-05, Q4 : -0.00160747952759}
2019-04-14 16:42:11.61: SIM {TimeUS : 51035411, Roll : -0.03, Pitch : -0.01, Yaw : 359.81, Alt : 45.2999992371, Lat : 49.2835703, Lng : -123.1150206, Q1 : 0.999998569489, Q2 : -0.00026665252517, Q3 : -0.000162119336892, Q4 : -0.001639097929}
2019-04-14 16:42:11.71: SIM {TimeUS : 51135371, Roll : -0.03, Pitch : -0.04, Yaw : 359.8, Alt : 45.5299987793, Lat : 49.2835703, Lng : -123.1150206, Q1 : 0.999998509884, Q2 : -0.00032625431777, Q3 : -0.000355081923772, Q4 : -0.00167344755027}
2019-04-14 16:42:11.81: SIM {TimeUS : 51235331, Roll : -0.03, Pitch : -0.05, Yaw : 359.8, Alt : 45.7700004578, Lat : 49.2835703, Lng : -123.1150206, Q1 : 0.999998390675, Q2 : -0.000306058587739, Q3 : -0.000438502756879, Q4 : -0.00170792406425}
2019-04-14 16:42:11.91: SIM {TimeUS : 51335291, Roll : -0.02, Pitch : -0.05, Yaw : 359.8, Alt : 46.0, Lat : 49.2835703, Lng : -123.1150206, Q1 : 0.99999833107, Q2 : -0.000217506341869, Q3 : -0.000480456568766, Q4 : -0.00174185435753}
2019-04-14 16:42:12.01: SIM {TimeUS : 51435251, Roll : -0.02, Pitch : -0.05, Yaw : 359.79, Alt : 46.2299995422, Lat : 49.2835703, Lng : -123.1150206, Q1 : 0.999998271465, Q2 : -0.000233591272263, Q3 : -0.000509395380504, Q4 : -0.00177248427644}
2019-04-14 16:42:12.11: SIM {TimeUS : 51535211, Roll : -0.04, Pitch : -0.05, Yaw : 359.79, Alt : 46.4500007629, Lat : 49.2835703, Lng : -123.1150206, Q1 : 0.999998211861, Q2 : -0.000430794199929, Q3 : -0.000460229173768, Q4 : -0.00179937877692}
2019-04-14 16:42:12.21: SIM {TimeUS : 51635171, Roll : -0.08, Pitch : -0.04, Yaw : 359.79, Alt : 46.6699981689, Lat : 49.2835703, Lng : -123.1150206, Q1 : 0.999997973442, Q2 : -0.000740182586014, Q3 : -0.000425689650001, Q4 : -0.00182208861224}
2019-04-14 16:42:12.31: SIM {TimeUS : 51735131, Roll : -0.1, Pitch : -0.04, Yaw : 359.78, Alt : 46.8899993896, Lat : 49.2835703, Lng : -123.1150206, Q1 : 0.999997735023, Q2 : -0.000950339017436, Q3 : -0.000407636485761, Q4 : -0.00184375210665}
2019-04-14 16:42:12.41: SIM {TimeUS : 51835091, Roll : -0.11, Pitch : -0.03, Yaw : 359.78, Alt : 47.0900001526, Lat : 49.2835703, Lng : -123.1150206, Q1 : 0.999997735023, Q2 : -0.00100581441075, Q3 : -0.000301219435642, Q4 : -0.00186382653192}
2019-04-14 16:42:12.51: SIM {TimeUS : 51935051, Roll : -0.1, Pitch : -0.01, Yaw : 359.78, Alt : 47.2900009155, Lat : 49.2835703, Lng : -123.1150206, Q1 : 0.999997794628, Q2 : -0.000917769561056, Q3 : -8.91031231731e-05, Q4 : -0.0018841593992}
2019-04-14 16:42:12.61: SIM {TimeUS : 52035011, Roll : -0.08, Pitch : 0.0, Yaw : 359.78, Alt : 47.4900016785, Lat : 49.2835703, Lng : -123.1150206, Q1 : 0.999997913837, Q2 : -0.00071229878813, Q3 : 5.39608190593e-05, Q4 : -0.0019074480515}
2019-04-14 16:42:12.71: SIM {TimeUS : 52134971, Roll : -0.07, Pitch : 0.0, Yaw : 359.77, Alt : 47.6699981689, Lat : 49.2835703, Lng : -123.1150206, Q1 : 0.999997913837, Q2 : -0.000632372451946, Q3 : 3.09564129566e-05, Q4 : -0.00193068804219}
2019-04-14 16:42:12.81: SIM {TimeUS : 52234931, Roll : -0.08, Pitch : -0.01, Yaw : 359.77, Alt : 47.8400001526, Lat : 49.2835703, Lng : -123.1150206, Q1 : 0.999997854233, Q2 : -0.000714585825335, Q3 : -0.000144250137964, Q4 : -0.00195572967641}
2019-04-14 16:42:12.91: SIM {TimeUS : 52334891, Roll : -0.07, Pitch : -0.04, Yaw : 359.77, Alt : 48.0, Lat : 49.2835703, Lng : -123.1150206, Q1 : 0.999997735023, Q2 : -0.000678320648149, Q3 : -0.000382337486371, Q4 : -0.00198559439741}
2019-04-14 16:42:13.01: SIM {TimeUS : 52434851, Roll : -0.05, Pitch : -0.06, Yaw : 359.76, Alt : 48.1500015259, Lat : 49.2835703, Lng : -123.1150206, Q1 : 0.999997675419, Q2 : -0.000482579111122, Q3 : -0.000584890833125, Q4 : -0.00201482186094}
2019-04-14 16:42:13.11: SIM {TimeUS : 52534811, Roll : -0.03, Pitch : -0.08, Yaw : 359.76, Alt : 48.2799987793, Lat : 49.2835703, Lng : -123.1150206, Q1 : 0.999997615814, Q2 : -0.000338161044056, Q3 : -0.000739987066481, Q4 : -0.00204212986864}
2019-04-14 16:42:13.21: SIM {TimeUS : 52634771, Roll : -0.03, Pitch : -0.09, Yaw : 359.76, Alt : 48.4099998474, Lat : 49.2835703, Lng : -123.1150206, Q1 : 0.999997437, Q2 : -0.000281954824459, Q3 : -0.000846929091495, Q4 : -0.00206554750912}
2019-04-14 16:42:13.31: SIM {TimeUS : 52734731, Roll : 0.0, Pitch : -0.09, Yaw : 359.76, Alt : 48.5200004578, Lat : 49.2835703, Lng : -123.1150206, Q1 : 0.999997496605, Q2 : -2.39750443143e-05, Q3 : -0.000807877571788, Q4 : -0.00208613788709}
2019-04-14 16:42:13.42: SIM {TimeUS : 52835524, Roll : 0.03, Pitch : -0.07, Yaw : 359.75, Alt : 48.6199989319, Lat : 49.2835703, Lng : -123.1150206, Q1 : 0.99999755621, Q2 : 0.000271577970125, Q3 : -0.000643724866677, Q4 : -0.00210703210905}
2019-04-14 16:42:13.51: SIM {TimeUS : 52935484, Roll : 0.05, Pitch : -0.05, Yaw : 359.75, Alt : 48.7099990845, Lat : 49.2835703, Lng : -123.1150206, Q1 : 0.999997496605, Q2 : 0.000485798402224, Q3 : -0.000450511084637, Q4 : -0.00212957593612}
2019-04-14 16:42:13.61: SIM {TimeUS : 53035444, Roll : 0.06, Pitch : -0.02, Yaw : 359.75, Alt : 48.7799987793, Lat : 49.2835703, Lng : -123.1150206, Q1 : 0.999997496605, Q2 : 0.000535277125891, Q3 : -0.000245657545747, Q4 : -0.00215448555537}
2019-04-14 16:42:13.71: SIM {TimeUS : 53135404, Roll : 0.06, Pitch : -0.01, Yaw : 359.74, Alt : 48.8499984741, Lat : 49.2835703, Lng : -123.1150206, Q1 : 0.999997437, Q2 : 0.000571863900404, Q3 : -0.000165948978974, Q4 : -0.00218482222408}
2019-04-14 16:42:13.81: SIM {TimeUS : 53235364, Roll : 0.05, Pitch : -0.03, Yaw : 359.74, Alt : 48.9099998474, Lat : 49.2835703, Lng : -123.1150206, Q1 : 0.999997377396, Q2 : 0.000514690065756, Q3 : -0.000266180286417, Q4 : -0.002220190363}
2019-04-14 16:42:13.91: SIM {TimeUS : 53335324, Roll : 0.03, Pitch : -0.04, Yaw : 359.74, Alt : 48.9599990845, Lat : 49.2835703, Lng : -123.1150207, Q1 : 0.999997317791, Q2 : 0.000313903699862, Q3 : -0.000356955832103, Q4 : -0.00225472939201}
2019-04-14 16:42:14.01: SIM {TimeUS : 53435284, Roll : 0.02, Pitch : -0.04, Yaw : 359.73, Alt : 49.0, Lat : 49.2835703, Lng : -123.1150207, Q1 : 0.999997317791, Q2 : 0.000251347781159, Q3 : -0.000375098577933, Q4 : -0.00228830147535}
2019-04-14 16:42:14.11: SIM {TimeUS : 53535244, Roll : 0.11, Pitch : -0.1, Yaw : 359.73, Alt : 49.0400009155, Lat : 49.2835703, Lng : -123.1150207, Q1 : 0.999996423721, Q2 : 0.00101184227969, Q3 : -0.000894544355106, Q4 : -0.00231818528846}
2019-04-14 16:42:14.21: SIM {TimeUS : 53635204, Roll : 0.4, Pitch : -0.28, Yaw : 359.73, Alt : 49.0699996948, Lat : 49.2835703, Lng : -123.1150207, Q1 : 0.999987900257, Q2 : 0.00351286563091, Q3 : -0.00252319523133, Q4 : -0.00234227860346}
2019-04-14 16:42:14.31: SIM {TimeUS : 53735164, Roll : 0.94, Pitch : -0.61, Yaw : 359.72, Alt : 49.0900001526, Lat : 49.2835704, Lng : -123.1150207, Q1 : 0.999948918819, Q2 : 0.00819358415902, Q3 : -0.00542403524742, Q4 : -0.00235868571326}
2019-04-14 16:42:14.41: SIM {TimeUS : 53835124, Roll : 1.67, Pitch : -1.09, Yaw : 359.71, Alt : 49.1199989319, Lat : 49.2835704, Lng : -123.1150206, Q1 : 0.999843835831, Q2 : 0.0146241625771, Q3 : -0.00963402818888, Q4 : -0.00236255396158}
2019-04-14 16:42:14.51: SIM {TimeUS : 53935084, Roll : 2.53, Pitch : -1.7, Yaw : 359.69, Alt : 49.1399993896, Lat : 49.2835704, Lng : -123.1150206, Q1 : 0.999642968178, Q2 : 0.022055439651, Q3 : -0.01489998959, Q4 : -0.00233849184588}
2019-04-14 16:42:14.61: SIM {TimeUS : 54035044, Roll : 3.37, Pitch : -2.3, Yaw : 359.67, Alt : 49.1500015259, Lat : 49.2835706, Lng : -123.1150205, Q1 : 0.999361991882, Q2 : 0.0293658021837, Q3 : -0.0202046204358, Q4 : -0.00225846190006}
2019-04-14 16:42:14.71: SIM {TimeUS : 54135004, Roll : 4.07, Pitch : -2.84, Yaw : 359.65, Alt : 49.1699981689, Lat : 49.2835707, Lng : -123.1150203, Q1 : 0.999059081078, Q2 : 0.035434089601, Q3 : -0.0249184034765, Q4 : -0.00211973674595}
2019-04-14 16:42:14.81: SIM {TimeUS : 54234964, Roll : 4.6, Pitch : -3.25, Yaw : 359.64, Alt : 49.1800003052, Lat : 49.2835708, Lng : -123.11502, Q1 : 0.99878847599, Q2 : 0.0400594621897, Q3 : -0.0285160075873, Q4 : -0.00191316346172}
2019-04-14 16:42:14.91: SIM {TimeUS : 54334924, Roll : 4.99, Pitch : -3.53, Yaw : 359.65, Alt : 49.1899986267, Lat : 49.2835709, Lng : -123.1150198, Q1 : 0.998574674129, Q2 : 0.0434681214392, Q3 : -0.0309269521385, Q4 : -0.00165181909688}
2019-04-14 16:42:15.01: SIM {TimeUS : 54434884, Roll : 5.3, Pitch : -3.74, Yaw : 359.66, Alt : 49.2000007629, Lat : 49.2835712, Lng : -123.1150193, Q1 : 0.998396277428, Q2 : 0.0461450442672, Q3 : -0.0327664427459, Q4 : -0.00137226528022}
2019-04-14 16:42:15.11: SIM {TimeUS : 54534844, Roll : 5.58, Pitch : -3.94, Yaw : 359.68, Alt : 49.2099990845, Lat : 49.2835714, Lng : -123.1150188, Q1 : 0.998220205307, Q2 : 0.0486369356513, Q3 : -0.0344914719462, Q4 : -0.00109191483352}
2019-04-14 16:42:15.21: SIM {TimeUS : 54634804, Roll : 5.89, Pitch : -4.15, Yaw : 359.69, Alt : 49.2200012207, Lat : 49.2835716, Lng : -123.1150181, Q1 : 0.998024821281, Q2 : 0.0512513332069, Q3 : -0.0363186001778, Q4 : -0.000816168205347}
2019-04-14 16:42:15.31: SIM {TimeUS : 54734764, Roll : 6.19, Pitch : -4.38, Yaw : 359.69, Alt : 49.2200012207, Lat : 49.283572, Lng : -123.1150174, Q1 : 0.99781113863, Q2 : 0.0538884811103, Q3 : -0.0383225381374, Q4 : -0.000563356035855}
2019-04-14 16:42:15.41: SIM {TimeUS : 54834724, Roll : 6.46, Pitch : -4.59, Yaw : 359.7, Alt : 49.2299995422, Lat : 49.2835724, Lng : -123.1150166, Q1 : 0.997609317303, Q2 : 0.0562551580369, Q3 : -0.0401371978223, Q4 : -0.000323556130752}
2019-04-14 16:42:15.52: SIM {TimeUS : 54935517, Roll : 6.69, Pitch : -4.74, Yaw : 359.71, Alt : 49.2400016785, Lat : 49.2835727, Lng : -123.1150157, Q1 : 0.997442364693, Q2 : 0.0581986643374, Q3 : -0.0414932221174, Q4 : -0.000101550256659}
2019-04-14 16:42:15.61: SIM {TimeUS : 55035477, Roll : 6.83, Pitch : -4.83, Yaw : 359.72, Alt : 49.2400016785, Lat : 49.2835733, Lng : -123.1150147, Q1 : 0.997335612774, Q2 : 0.0594405196607, Q3 : -0.0422899462283, Q4 : 8.21438152343e-05}
2019-04-14 16:42:15.71: SIM {TimeUS : 55135437, Roll : 6.93, Pitch : -4.9, Yaw : 359.72, Alt : 49.25, Lat : 49.2835738, Lng : -123.1150136, Q1 : 0.997258424759, Q2 : 0.0603182986379, Q3 : -0.0428637266159, Q4 : 0.000209154983168}
2019-04-14 16:42:15.81: SIM {TimeUS : 55235397, Roll : 7.02, Pitch : -4.97, Yaw : 359.72, Alt : 49.25, Lat : 49.2835744, Lng : -123.1150124, Q1 : 0.997187852859, Q2 : 0.0610696263611, Q3 : -0.0434380546212, Q4 : 0.00029477928183}
2019-04-14 16:42:15.91: SIM {TimeUS : 55335357, Roll : 7.2, Pitch : -5.0, Yaw : 359.74, Alt : 49.25, Lat : 49.283575, Lng : -123.1150111, Q1 : 0.997077822685, Q2 : 0.0626533776522, Q3 : -0.0437039509416, Q4 : 0.000563815992791}
2019-04-14 16:42:16.01: SIM {TimeUS : 55435317, Roll : 7.6, Pitch : -4.87, Yaw : 0.09, Alt : 49.2599983215, Lat : 49.2835756, Lng : -123.1150096, Q1 : 0.996891796589, Q2 : 0.0663236603141, Q3 : -0.0423595644534, Q4 : 0.00368044851348}
2019-04-14 16:42:16.11: SIM {TimeUS : 55535277, Roll : 8.21, Pitch : -4.66, Yaw : 1.42, Alt : 49.2599983215, Lat : 49.2835762, Lng : -123.1150082, Q1 : 0.996489644051, Q2 : 0.0720952376723, Q3 : -0.0396990738809, Q4 : 0.0153205897659}
2019-04-14 16:42:16.21: SIM {TimeUS : 55635237, Roll : 8.79, Pitch : -4.73, Yaw : 4.25, Alt : 49.2599983215, Lat : 49.2835769, Lng : -123.1150067, Q1 : 0.995400190353, Q2 : 0.0780745819211, Q3 : -0.0383293144405, Q4 : 0.0401708371937}
2019-04-14 16:42:16.31: SIM {TimeUS : 55735197, Roll : 9.09, Pitch : -5.3, Yaw : 8.65, Alt : 49.2599983215, Lat : 49.2835776, Lng : -123.115005, Q1 : 0.992665410042, Q2 : 0.0824681222439, Q3 : -0.040034737438, Q4 : 0.0788141414523}
2019-04-14 16:42:16.41: SIM {TimeUS : 55835157, Roll : 8.91, Pitch : -6.37, Yaw : 14.44, Alt : 49.2599983215, Lat : 49.2835783, Lng : -123.1150032, Q1 : 0.986991524696, Q2 : 0.0839458480477, Q3 : -0.045245885849, Q4 : 0.129435539246}
2019-04-14 16:42:16.51: SIM {TimeUS : 55935117, Roll : 8.11, Pitch : -7.8, Yaw : 21.37, Alt : 49.2700004578, Lat : 49.2835791, Lng : -123.1150013, Q1 : 0.977018117905, Q2 : 0.081993304193, Q3 : -0.0536284297705, Q4 : 0.189305648208}
2019-04-14 16:42:16.61: SIM {TimeUS : 56035077, Roll : 6.7, Pitch : -9.39, Yaw : 29.19, Alt : 49.2700004578, Lat : 49.2835798, Lng : -123.1149993, Q1 : 0.961611390114, Q2 : 0.0769784078002, Q3 : -0.0644341930747, Q4 : 0.255393892527}
2019-04-14 16:42:16.71: SIM {TimeUS : 56135037, Roll : 4.73, Pitch : -10.92, Yaw : 37.64, Alt : 49.2700004578, Lat : 49.2835806, Lng : -123.1149971, Q1 : 0.940146446228, Q2 : 0.0696245729923, Q3 : -0.0767259672284, Q4 : 0.32463863492}
2019-04-14 16:42:16.81: SIM {TimeUS : 56234997, Roll : 2.18, Pitch : -12.17, Yaw : 46.39, Alt : 49.2700004578, Lat : 49.2835813, Lng : -123.1149949, Q1 : 0.912992298603, Q2 : 0.0591893233359, Q3 : -0.0900008901954, Q4 : 0.393499076366}
2019-04-14 16:42:16.91: SIM {TimeUS : 56334957, Roll : -0.93, Pitch : -12.93, Yaw : 54.74, Alt : 49.2700004578, Lat : 49.2835823, Lng : -123.1149925, Q1 : 0.882762253284, Q2 : 0.044586930424, Q3 : -0.103794202209, Q4 : 0.456036895514}
2019-04-14 16:42:17.01: SIM {TimeUS : 56434917, Roll : -4.06, Pitch : -13.14, Yaw : 61.79, Alt : 49.2700004578, Lat : 49.2835831, Lng : -123.1149901, Q1 : 0.853979349136, Q2 : 0.0284537263215, Q3 : -0.11623480916, Q4 : 0.506358742714}
2019-04-14 16:42:17.11: SIM {TimeUS : 56534877, Roll : -6.55, Pitch : -12.97, Yaw : 66.92, Alt : 49.2700004578, Lat : 49.2835842, Lng : -123.1149876, Q1 : 0.831131756306, Q2 : 0.0148042738438, Q3 : -0.125378444791, Q4 : 0.541554331779}
2019-04-14 16:42:17.21: SIM {TimeUS : 56634837, Roll : -8.0, Pitch : -12.7, Yaw : 69.94, Alt : 49.2700004578, Lat : 49.2835854, Lng : -123.1149851, Q1 : 0.816847681999, Q2 : 0.0064121237956, Q3 : -0.130228668451, Q4 : 0.561924576759}
2019-04-14 16:42:17.31: SIM {TimeUS : 56734797, Roll : -8.37, Pitch : -12.58, Yaw : 71.05, Alt : 49.2700004578, Lat : 49.2835866, Lng : -123.1149825, Q1 : 0.811432123184, Q2 : 0.00441711768508, Q3 : -0.131137132645, Q4 : 0.569527387619}
2019-04-14 16:42:17.41: SIM {TimeUS : 56834757, Roll : -7.83, Pitch : -12.72, Yaw : 70.59, Alt : 49.2700004578, Lat : 49.2835879, Lng : -123.1149798, Q1 : 0.813603341579, Q2 : 0.00849653035402, Q3 : -0.129456698895, Q4 : 0.566761374474}
2019-04-14 16:42:17.51: SIM {TimeUS : 56934717, Roll : -6.62, Pitch : -13.13, Yaw : 68.93, Alt : 49.2700004578, Lat : 49.2835893, Lng : -123.1149771, Q1 : 0.821389734745, Q2 : 0.0173099581152, Q3 : -0.12657622993, Q4 : 0.555875599384}
2019-04-14 16:42:17.62: SIM {TimeUS : 57035510, Roll : -4.95, Pitch : -13.74, Yaw : 66.4, Alt : 49.2799987793, Lat : 49.2835909, Lng : -123.1149743, Q1 : 0.832791745663, Q2 : 0.0295478943735, Q3 : -0.123519770801, Q4 : 0.538820683956}
2019-04-14 16:42:17.71: SIM {TimeUS : 57135470, Roll : -3.07, Pitch : -14.43, Yaw : 63.35, Alt : 49.2799987793, Lat : 49.2835925, Lng : -123.1149715, Q1 : 0.845749080181, Q2 : 0.0432629026473, Q3 : -0.120871417224, Q4 : 0.517906308174}
2019-04-14 16:42:17.81: SIM {TimeUS : 57235430, Roll : -1.18, Pitch : -15.07, Yaw : 60.08, Alt : 49.2799987793, Lat : 49.283594, Lng : -123.1149686, Q1 : 0.85882049799, Q2 : 0.0567661970854, Q3 : -0.118681289256, Q4 : 0.495095610619}
2019-04-14 16:42:17.91: SIM {TimeUS : 57335390, Roll : 0.55, Pitch : -15.54, Yaw : 56.91, Alt : 49.2799987793, Lat : 49.2835957, Lng : -123.1149655, Q1 : 0.870760500431, Q2 : 0.0686820745468, Q3 : -0.116593621671, Q4 : 0.472720712423}
2019-04-14 16:42:18.01: SIM {TimeUS : 57435350, Roll : 1.99, Pitch : -15.8, Yaw : 54.17, Alt : 49.2799987793, Lat : 49.2835974, Lng : -123.1149624, Q1 : 0.880619645119, Q2 : 0.0779505595565, Q3 : -0.114565171301, Q4 : 0.453108757734}
2019-04-14 16:42:18.11: SIM {TimeUS : 57535310, Roll : 3.01, Pitch : -15.88, Yaw : 52.1, Alt : 49.2799987793, Lat : 49.2835989, Lng : -123.1149591, Q1 : 0.887875854969, Q2 : 0.0840529501438, Q3 : -0.112665109336, Q4 : 0.438084572554}
2019-04-14 16:42:18.21: SIM {TimeUS : 57635270, Roll : 3.55, Pitch : -15.84, Yaw : 50.81, Alt : 49.2799987793, Lat : 49.2836007, Lng : -123.1149555, Q1 : 0.892383873463, Q2 : 0.0868865996599, Q3 : -0.111292913556, Q4 : 0.428620636463}
2019-04-14 16:42:18.31: SIM {TimeUS : 57735230, Roll : 3.63, Pitch : -15.78, Yaw : 50.32, Alt : 49.2799987793, Lat : 49.2836024, Lng : -123.1149521, Q1 : 0.894244194031, Q2 : 0.0867926105857, Q3 : -0.110865660012, Q4 : 0.42485666275}
2019-04-14 16:42:18.41: SIM {TimeUS : 57835190, Roll : 3.32, Pitch : -15.76, Yaw : 50.53, Alt : 49.2799987793, Lat : 49.2836041, Lng : -123.1149484, Q1 : 0.893713891506, Q2 : 0.0844943895936, Q3 : -0.111724130809, Q4 : 0.426208823919}
2019-04-14 16:42:18.51: SIM {TimeUS : 57935150, Roll : 2.71, Pitch : -15.83, Yaw : 51.3, Alt : 49.2900009155, Lat : 49.2836057, Lng : -123.1149447, Q1 : 0.891187667847, Q2 : 0.0807419121265, Q3 : -0.113975964487, Q4 : 0.431595623493}
2019-04-14 16:42:18.61: SIM {TimeUS : 58035110, Roll : 1.9, Pitch : -15.96, Yaw : 52.45, Alt : 49.2900009155, Lat : 49.2836074, Lng : -123.1149408, Q1 : 0.887203574181, Q2 : 0.0761638134718, Q3 : -0.117287330329, Q4 : 0.439673304558}
2019-04-14 16:42:18.71: SIM {TimeUS : 58135070, Roll : 1.01, Pitch : -16.13, Yaw : 53.79, Alt : 49.2900009155, Lat : 49.2836092, Lng : -123.1149369, Q1 : 0.882380127907, Q2 : 0.0712988525629, Q3 : -0.121189817786, Q4 : 0.449037611485}
2019-04-14 16:42:18.81: SIM {TimeUS : 58235030, Roll : 0.15, Pitch : -16.27, Yaw : 55.15, Alt : 49.2900009155, Lat : 49.2836109, Lng : -123.1149329, Q1 : 0.877375245094, Q2 : 0.0667072087526, Q3 : -0.124817550182, Q4 : 0.458457708359}
2019-04-14 16:42:18.91: SIM {TimeUS : 58334990, Roll : -0.55, Pitch : -16.36, Yaw : 56.37, Alt : 49.2900009155, Lat : 49.2836127, Lng : -123.1149288, Q1 : 0.872766494751, Q2 : 0.062951400876, Q3 : -0.127692312002, Q4 : 0.46691596508}
2019-04-14 16:42:19.01: SIM {TimeUS : 58434950, Roll : -1.09, Pitch : -16.4, Yaw : 57.34, Alt : 49.2900009155, Lat : 49.2836145, Lng : -123.1149247, Q1 : 0.869026720524, Q2 : 0.0601443722844, Q3 : -0.129759132862, Q4 : 0.473643064499}
2019-04-14 16:42:19.11: SIM {TimeUS : 58534910, Roll : -1.41, Pitch : -16.43, Yaw : 57.99, Alt : 49.2900009155, Lat : 49.2836164, Lng : -123.1149205, Q1 : 0.86643487215, Q2 : 0.058588270098, Q3 : -0.130939990282, Q4 : 0.478239238262}
2019-04-14 16:42:19.21: SIM {TimeUS : 58634870, Roll : -1.5, Pitch : -16.43, Yaw : 58.32, Alt : 49.2900009155, Lat : 49.2836182, Lng : -123.1149163, Q1 : 0.865121126175, Q2 : 0.0582528598607, Q3 : -0.131144106388, Q4 : 0.480596750975}
2019-04-14 16:42:19.31: SIM {TimeUS : 58734830, Roll : -1.41, Pitch : -16.42, Yaw : 58.33, Alt : 49.2900009155, Lat : 49.2836201, Lng : -123.1149121, Q1 : 0.865013003349, Q2 : 0.0589723736048, Q3 : -0.130707636476, Q4 : 0.480822533369}
2019-04-14 16:42:19.41: SIM {TimeUS : 58834790, Roll : -1.18, Pitch : -16.45, Yaw : 58.09, Alt : 49.2900009155, Lat : 49.283622, Lng : -123.1149078, Q1 : 0.865881204605, Q2 : 0.0605263486505, Q3 : -0.130090653896, Q4 : 0.479231387377}
2019-04-14 16:42:19.51: SIM {TimeUS : 58934750, Roll : -0.87, Pitch : -16.51, Yaw : 57.66, Alt : 49.2900009155, Lat : 49.2836241, Lng : -123.1149034, Q1 : 0.867440700531, Q2 : 0.0626454800367, Q3 : -0.12948359549, Q4 : 0.476294308901}
2019-04-14 16:42:19.61: SIM {TimeUS : 59034710, Roll : -0.52, Pitch : -16.6, Yaw : 57.12, Alt : 49.2900009155, Lat : 49.283626, Lng : -123.114899, Q1 : 0.869390130043, Q2 : 0.0650089085102, Q3 : -0.128981918097, Q4 : 0.472544550896}
2019-04-14 16:42:19.72: SIM {TimeUS : 59135503, Roll : -0.18, Pitch : -16.67, Yaw : 56.55, Alt : 49.2900009155, Lat : 49.283628, Lng : -123.1148946, Q1 : 0.871484220028, Q2 : 0.0672795325518, Q3 : -0.128440707922, Q4 : 0.468499422073}
2019-04-14 16:42:19.81: SIM {TimeUS : 59235463, Roll : 0.12, Pitch : -16.72, Yaw : 56.01, Alt : 49.2900009155, Lat : 49.28363, Lng : -123.1148901, Q1 : 0.873439490795, Q2 : 0.0692673325539, Q3 : -0.127858996391, Q4 : 0.464712381363}
2019-04-14 16:42:19.91: SIM {TimeUS : 59335423, Roll : 0.38, Pitch : -16.76, Yaw : 55.55, Alt : 49.2900009155, Lat : 49.2836321, Lng : -123.1148856, Q1 : 0.875072538853, Q2 : 0.0708967223763, Q3 : -0.127393394709, Q4 : 0.461511284113}
2019-04-14 16:42:20.01: SIM {TimeUS : 59435383, Roll : 0.56, Pitch : -16.79, Yaw : 55.22, Alt : 49.2900009155, Lat : 49.2836341, Lng : -123.114881, Q1 : 0.876274943352, Q2 : 0.0720042139292, Q3 : -0.127143353224, Q4 : 0.459121108055}
2019-04-14 16:42:20.11: SIM {TimeUS : 59535343, Roll : 0.65, Pitch : -16.82, Yaw : 55.01, Alt : 49.2900009155, Lat : 49.2836361, Lng : -123.1148764, Q1 : 0.877001106739, Q2 : 0.0725639760494, Q3 : -0.127148196101, Q4 : 0.457642734051}
2019-04-14 16:42:20.21: SIM {TimeUS : 59635303, Roll : 0.66, Pitch : -16.84, Yaw : 54.94, Alt : 49.2900009155, Lat : 49.2836383, Lng : -123.1148717, Q1 : 0.877257943153, Q2 : 0.0726913288236, Q3 : -0.127317920327, Q4 : 0.457082748413}
2019-04-14 16:42:20.31: SIM {TimeUS : 59735263, Roll : 0.6, Pitch : -16.86, Yaw : 54.98, Alt : 49.2900009155, Lat : 49.2836403, Lng : -123.1148671, Q1 : 0.877104699612, Q2 : 0.0723641291261, Q3 : -0.127673789859, Q4 : 0.457329422235}
2019-04-14 16:42:20.41: SIM {TimeUS : 59835223, Roll : 0.49, Pitch : -16.89, Yaw : 55.11, Alt : 49.2999992371, Lat : 49.2836425, Lng : -123.1148623, Q1 : 0.876631855965, Q2 : 0.0717365145683, Q3 : -0.128232568502, Q4 : 0.458177775145}
2019-04-14 16:42:20.51: SIM {TimeUS : 59935183, Roll : 0.35, Pitch : -16.92, Yaw : 55.3, Alt : 49.2999992371, Lat : 49.2836445, Lng : -123.1148576, Q1 : 0.875937879086, Q2 : 0.0709847286344, Q3 : -0.128961384296, Q4 : 0.45941594243}
2019-04-14 16:42:20.61: SIM {TimeUS : 60035143, Roll : 0.18, Pitch : -16.96, Yaw : 55.51, Alt : 49.2999992371, Lat : 49.2836467, Lng : -123.1148528, Q1 : 0.875142037868, Q2 : 0.0701477825642, Q3 : -0.129817843437, Q4 : 0.460817843676}
2019-04-14 16:42:20.71: SIM {TimeUS : 60135103, Roll : 0.01, Pitch : -17.01, Yaw : 55.71, Alt : 49.2999992371, Lat : 49.2836487, Lng : -123.114848, Q1 : 0.874361634254, Q2 : 0.0692651048303, Q3 : -0.130688562989, Q4 : 0.46218457818}
2019-04-14 16:42:20.81: SIM {TimeUS : 60235063, Roll : -0.13, Pitch : -17.03, Yaw : 55.89, Alt : 49.2999992371, Lat : 49.2836509, Lng : -123.114843, Q1 : 0.873703181744, Q2 : 0.0684165284038, Q3 : -0.131369292736, Q4 : 0.46336171031}
2019-04-14 16:42:20.91: SIM {TimeUS : 60335023, Roll : -0.25, Pitch : -17.06, Yaw : 56.02, Alt : 49.2999992371, Lat : 49.283653, Lng : -123.1148383, Q1 : 0.873210906982, Q2 : 0.0677584186196, Q3 : -0.131970629096, Q4 : 0.464214712381}
2019-04-14 16:42:21.01: SIM {TimeUS : 60434983, Roll : -0.31, Pitch : -17.1, Yaw : 56.1, Alt : 49.2999992371, Lat : 49.2836552, Lng : -123.1148334, Q1 : 0.872875928879, Q2 : 0.067578881979, Q3 : -0.132508352399, Q4 : 0.464717447758}
2019-04-14 16:42:21.11: SIM {TimeUS : 60534943, Roll : -0.3, Pitch : -17.15, Yaw : 56.13, Alt : 49.2999992371, Lat : 49.2836573, Lng : -123.1148284, Q1 : 0.87272810936, Q2 : 0.0678332671523, Q3 : -0.132845461369, Q4 : 0.4648617208}
2019-04-14 16:42:21.21: SIM {TimeUS : 60634903, Roll : -0.25, Pitch : -17.2, Yaw : 56.1, Alt : 49.2999992371, Lat : 49.2836596, Lng : -123.1148235, Q1 : 0.872762084007, Q2 : 0.0683951973915, Q3 : -0.133032232523, Q4 : 0.464662075043}
2019-04-14 16:42:21.31: SIM {TimeUS : 60734863, Roll : -0.17, Pitch : -17.25, Yaw : 56.02, Alt : 49.2999992371, Lat : 49.2836618, Lng : -123.1148186, Q1 : 0.872955858707, Q2 : 0.0690716952085, Q3 : -0.133123025298, Q4 : 0.464171797037}
2019-04-14 16:42:21.41: SIM {TimeUS : 60834823, Roll : -0.09, Pitch : -17.28, Yaw : 55.92, Alt : 49.3100013733, Lat : 49.2836639, Lng : -123.1148136, Q1 : 0.873281061649, Q2 : 0.0696881711483, Q3 : -0.133104845881, Q4 : 0.463472574949}
2019-04-14 16:42:21.51: SIM {TimeUS : 60934783, Roll : -0.02, Pitch : -17.3, Yaw : 55.81, Alt : 49.3100013733, Lat : 49.2836662, Lng : -123.1148086, Q1 : 0.87367939949, Q2 : 0.0701983347535, Q3 : -0.133085861802, Q4 : 0.462649643421}
2019-04-14 16:42:21.61: SIM {TimeUS : 61034743, Roll : 0.02, Pitch : -17.31, Yaw : 55.69, Alt : 49.3100013733, Lat : 49.2836683, Lng : -123.1148035, Q1 : 0.874111950397, Q2 : 0.0705489143729, Q3 : -0.132996052504, Q4 : 0.461804270744}
2019-04-14 16:42:21.71: SIM {TimeUS : 61134703, Roll : 0.09, Pitch : -17.31, Yaw : 55.58, Alt : 49.3100013733, Lat : 49.2836706, Lng : -123.1147985, Q1 : 0.874519169331, Q2 : 0.070880509913, Q3 : -0.132824540138, Q4 : 0.461031228304}
2019-04-14 16:42:21.82: SIM {TimeUS : 61235496, Roll : 0.14, Pitch : -17.31, Yaw : 55.48, Alt : 49.3100013733, Lat : 49.2836729, Lng : -123.1147934, Q1 : 0.874869704247, Q2 : 0.0711618810892, Q3 : -0.132657065988, Q4 : 0.460370659828}
2019-04-14 16:42:21.91: SIM {TimeUS : 61335456, Roll : 0.19, Pitch : -17.33, Yaw : 55.41, Alt : 49.3100013733, Lat : 49.2836752, Lng : -123.1147884, Q1 : 0.875098884106, Q2 : 0.0715475603938, Q3 : -0.132660582662, Q4 : 0.459873884916}
2019-04-14 16:42:22.01: SIM {TimeUS : 61435416, Roll : 0.22, Pitch : -17.38, Yaw : 55.36, Alt : 49.3100013733, Lat : 49.2836773, Lng : -123.1147833, Q1 : 0.875211060047, Q2 : 0.0719269812107, Q3 : -0.132907941937, Q4 : 0.459529727697}
2019-04-14 16:42:22.11: SIM {TimeUS : 61535376, Roll : 0.23, Pitch : -17.41, Yaw : 55.34, Alt : 49.3100013733, Lat : 49.2836797, Lng : -123.1147782, Q1 : 0.87526589632, Q2 : 0.0720871314406, Q3 : -0.133114233613, Q4 : 0.45934048295}
2019-04-14 16:42:22.21: SIM {TimeUS : 61635336, Roll : 0.22, Pitch : -17.41, Yaw : 55.34, Alt : 49.3100013733, Lat : 49.2836819, Lng : -123.1147731, Q1 : 0.875278353691, Q2 : 0.0720468088984, Q3 : -0.133198738098, Q4 : 0.459298610687}
2019-04-14 16:42:22.31: SIM {TimeUS : 61735296, Roll : 0.19, Pitch : -17.44, Yaw : 55.35, Alt : 49.3100013733, Lat : 49.2836841, Lng : -123.1147679, Q1 : 0.875228047371, Q2 : 0.071926407516, Q3 : -0.133479818702, Q4 : 0.459331780672}
2019-04-14 16:42:22.41: SIM {TimeUS : 61835256, Roll : 0.14, Pitch : -17.47, Yaw : 55.37, Alt : 49.3100013733, Lat : 49.2836864, Lng : -123.1147628, Q1 : 0.875136852264, Q2 : 0.0716853439808, Q3 : -0.13395768404, Q4 : 0.459403932095}
2019-04-14 16:42:22.51: SIM {TimeUS : 61935216, Roll : 0.09, Pitch : -17.5, Yaw : 55.39, Alt : 49.3100013733, Lat : 49.2836888, Lng : -123.1147576, Q1 : 0.875032246113, Q2 : 0.0714948400855, Q3 : -0.134356036782, Q4 : 0.45951667428}
2019-04-14 16:42:22.61: SIM {TimeUS : 62035176, Roll : 0.07, Pitch : -17.54, Yaw : 55.41, Alt : 49.3199996948, Lat : 49.2836911, Lng : -123.1147524, Q1 : 0.874921262264, Q2 : 0.0714599862695, Q3 : -0.134722352028, Q4 : 0.459626078606}
2019-04-14 16:42:22.71: SIM {TimeUS : 62135136, Roll : 0.06, Pitch : -17.56, Yaw : 55.43, Alt : 49.3199996948, Lat : 49.2836934, Lng : -123.1147472, Q1 : 0.874836683273, Q2 : 0.0714874863625, Q3 : -0.134941741824, Q4 : 0.459718465805}
2019-04-14 16:42:22.81: SIM {TimeUS : 62235096, Roll : 0.05, Pitch : -17.58, Yaw : 55.44, Alt : 49.3199996948, Lat : 49.2836956, Lng : -123.114742, Q1 : 0.874789476395, Q2 : 0.0715380832553, Q3 : -0.135072901845, Q4 : 0.459761917591}
2019-04-14 16:42:22.91: SIM {TimeUS : 62335056, Roll : 0.07, Pitch : -17.58, Yaw : 55.43, Alt : 49.3199996948, Lat : 49.283698, Lng : -123.1147368, Q1 : 0.874781191349, Q2 : 0.0716571956873, Q3 : -0.135047331452, Q4 : 0.459766626358}
2019-04-14 16:42:23.01: SIM {TimeUS : 62435016, Roll : 0.09, Pitch : -17.59, Yaw : 55.42, Alt : 49.3199996948, Lat : 49.2837003, Lng : -123.1147316, Q1 : 0.874790906906, Q2 : 0.0718954056501, Q3 : -0.135038107634, Q4 : 0.459713667631}
2019-04-14 16:42:23.11: SIM {TimeUS : 62534976, Roll : 0.12, Pitch : -17.61, Yaw : 55.41, Alt : 49.3199996948, Lat : 49.2837027, Lng : -123.1147263, Q1 : 0.874822735786, Q2 : 0.0721706673503, Q3 : -0.135079801083, Q4 : 0.459597706795}
2019-04-14 16:42:23.21: SIM {TimeUS : 62634936, Roll : 0.13, Pitch : -17.64, Yaw : 55.38, Alt : 49.3199996948, Lat : 49.283705, Lng : -123.1147211, Q1 : 0.874879598618, Q2 : 0.0723195150495, Q3 : -0.135306373239, Q4 : 0.459399372339}
2019-04-14 16:42:23.31: SIM {TimeUS : 62734896, Roll : 0.12, Pitch : -17.69, Yaw : 55.36, Alt : 49.3199996948, Lat : 49.2837072, Lng : -123.1147158, Q1 : 0.874946117401, Q2 : 0.0723776742816, Q3 : -0.135671108961, Q4 : 0.459155917168}
2019-04-14 16:42:23.41: SIM {TimeUS : 62834856, Roll : 0.11, Pitch : -17.73, Yaw : 55.33, Alt : 49.3199996948, Lat : 49.2837096, Lng : -123.1147105, Q1 : 0.875015795231, Q2 : 0.0724468454719, Q3 : -0.136045083404, Q4 : 0.458901494741}
2019-04-14 16:42:23.51: SIM {TimeUS : 62934816, Roll : 0.12, Pitch : -17.76, Yaw : 55.3, Alt : 49.3199996948, Lat : 49.283712, Lng : -123.1147052, Q1 : 0.875090301037, Q2 : 0.0726094022393, Q3 : -0.136226937175, Q4 : 0.458679676056}
2019-04-14 16:42:23.61: SIM {TimeUS : 63034776, Roll : 0.14, Pitch : -17.76, Yaw : 55.27, Alt : 49.3199996948, Lat : 49.2837144, Lng : -123.1147, Q1 : 0.875181257725, Q2 : 0.0727179273963, Q3 : -0.136262819171, Q4 : 0.458478301764}
2019-04-14 16:42:23.71: SIM {TimeUS : 63134736, Roll : 0.15, Pitch : -17.75, Yaw : 55.24, Alt : 49.3199996948, Lat : 49.2837167, Lng : -123.1146946, Q1 : 0.875290870667, Q2 : 0.072771422565, Q3 : -0.136098250747, Q4 : 0.458309412003}
2019-04-14 16:42:23.81: SIM {TimeUS : 63234696, Roll : 0.16, Pitch : -17.73, Yaw : 55.22, Alt : 49.3199996948, Lat : 49.2837191, Lng : -123.1146893, Q1 : 0.875394105911, Q2 : 0.0727019682527, Q3 : -0.135964304209, Q4 : 0.458162993193}
2019-04-14 16:42:23.91: SIM {TimeUS : 63335489, Roll : 0.16, Pitch : -17.72, Yaw : 55.21, Alt : 49.3199996948, Lat : 49.2837215, Lng : -123.1146839, Q1 : 0.87548750639, Q2 : 0.0725980773568, Q3 : -0.135847255588, Q4 : 0.458035647869}
2019-04-14 16:42:24.01: SIM {TimeUS : 63435449, Roll : 0.16, Pitch : -17.7, Yaw : 55.19, Alt : 49.3199996948, Lat : 49.2837239, Lng : -123.1146786, Q1 : 0.875555515289, Q2 : 0.0725126191974, Q3 : -0.135699868202, Q4 : 0.457962840796}
2019-04-14 16:42:24.11: SIM {TimeUS : 63535409, Roll : 0.16, Pitch : -17.7, Yaw : 55.19, Alt : 49.3199996948, Lat : 49.2837261, Lng : -123.1146732, Q1 : 0.875580787659, Q2 : 0.0725206360221, Q3 : -0.135756492615, Q4 : 0.457896530628}
2019-04-14 16:42:24.21: SIM {TimeUS : 63635369, Roll : 0.16, Pitch : -17.72, Yaw : 55.18, Alt : 49.3300018311, Lat : 49.2837285, Lng : -123.1146679, Q1 : 0.875580608845, Q2 : 0.0726363509893, Q3 : -0.135896116495, Q4 : 0.457837104797}
2019-04-14 16:42:24.31: SIM {TimeUS : 63735329, Roll : 0.15, Pitch : -17.77, Yaw : 55.17, Alt : 49.3300018311, Lat : 49.2837309, Lng : -123.1146625, Q1 : 0.875552296638, Q2 : 0.0727496594191, Q3 : -0.136317148805, Q4 : 0.457748115063}
2019-04-14 16:42:24.41: SIM {TimeUS : 63835289, Roll : 0.14, Pitch : -17.83, Yaw : 55.17, Alt : 49.3300018311, Lat : 49.2837333, Lng : -123.114657, Q1 : 0.875518023968, Q2 : 0.0728828310966, Q3 : -0.136784136295, Q4 : 0.457653164864}
2019-04-14 16:42:24.51: SIM {TimeUS : 63935249, Roll : 0.14, Pitch : -17.87, Yaw : 55.16, Alt : 49.3300018311, Lat : 49.2837357, Lng : -123.1146518, Q1 : 0.875502943993, Q2 : 0.0729978084564, Q3 : -0.137101843953, Q4 : 0.457568585873}
2019-04-14 16:42:24.61: SIM {TimeUS : 64035209, Roll : 0.13, Pitch : -17.9, Yaw : 55.15, Alt : 49.3300018311, Lat : 49.2837381, Lng : -123.1146464, Q1 : 0.875503063202, Q2 : 0.0730708092451, Q3 : -0.137371703982, Q4 : 0.457475781441}
2019-04-14 16:42:24.71: SIM {TimeUS : 64135169, Roll : 0.12, Pitch : -17.92, Yaw : 55.14, Alt : 49.3300018311, Lat : 49.2837405, Lng : -123.114641, Q1 : 0.875523269176, Q2 : 0.0730831921101, Q3 : -0.137559339404, Q4 : 0.457378745079}
2019-04-14 16:42:24.81: SIM {TimeUS : 64235129, Roll : 0.13, Pitch : -17.91, Yaw : 55.13, Alt : 49.3300018311, Lat : 49.283743, Lng : -123.1146356, Q1 : 0.875568807125, Q2 : 0.0731288120151, Q3 : -0.137472808361, Q4 : 0.457310259342}
2019-04-14 16:42:24.91: SIM {TimeUS : 64335089, Roll : 0.16, Pitch : -17.92, Yaw : 55.12, Alt : 49.3300018311, Lat : 49.2837454, Lng : -123.1146302, Q1 : 0.875596702099, Q2 : 0.0733439549804, Q3 : -0.137420207262, Q4 : 0.457238227129}
2019-04-14 16:42:25.01: SIM {TimeUS : 64435049, Roll : 0.17, Pitch : -17.94, Yaw : 55.1, Alt : 49.3300018311, Lat : 49.2837478, Lng : -123.1146247, Q1 : 0.875621020794, Q2 : 0.0734990984201, Q3 : -0.137520074844, Q4 : 0.457136690617}
2019-04-14 16:42:25.11: SIM {TimeUS : 64535009, Roll : 0.19, Pitch : -17.95, Yaw : 55.09, Alt : 49.3300018311, Lat : 49.2837502, Lng : -123.1146193, Q1 : 0.875655293465, Q2 : 0.0736162364483, Q3 : -0.13756325841, Q4 : 0.457039177418}
2019-04-14 16:42:25.21: SIM {TimeUS : 64634969, Roll : 0.2, Pitch : -17.94, Yaw : 55.08, Alt : 49.3300018311, Lat : 49.2837526, Lng : -123.1146139, Q1 : 0.875708818436, Q2 : 0.0736526474357, Q3 : -0.137480482459, Q4 : 0.456955641508}
2019-04-14 16:42:25.31: SIM {TimeUS : 64734929, Roll : 0.2, Pitch : -17.94, Yaw : 55.06, Alt : 49.3300018311, Lat : 49.283755, Lng : -123.1146085, Q1 : 0.875762045383, Q2 : 0.0736474320292, Q3 : -0.137471482158, Q4 : 0.456857144833}
2019-04-14 16:42:25.41: SIM {TimeUS : 64834889, Roll : 0.18, Pitch : -17.96, Yaw : 55.05, Alt : 49.3300018311, Lat : 49.2837575, Lng : -123.114603, Q1 : 0.875804424286, Q2 : 0.073530189693, Q3 : -0.137708932161, Q4 : 0.456723362207}
2019-04-14 16:42:25.51: SIM {TimeUS : 64934849, Roll : 0.14, Pitch : -17.99, Yaw : 55.04, Alt : 49.3300018311, Lat : 49.2837599, Lng : -123.1145976, Q1 : 0.875830769539, Q2 : 0.0733919888735, Q3 : -0.138130754232, Q4 : 0.456567585468}
2019-04-14 16:42:25.61: SIM {TimeUS : 65034809, Roll : 0.12, Pitch : -18.0, Yaw : 55.03, Alt : 49.3300018311, Lat : 49.2837623, Lng : -123.1145921, Q1 : 0.875880897045, Q2 : 0.0732729062438, Q3 : -0.138242989779, Q4 : 0.45645660162}
2019-04-14 16:42:25.71: SIM {TimeUS : 65134769, Roll : 0.13, Pitch : -17.98, Yaw : 55.01, Alt : 49.3400001526, Lat : 49.2837647, Lng : -123.1145866, Q1 : 0.875944077969, Q2 : 0.0732631906867, Q3 : -0.138068512082, Q4 : 0.456389755011}
2019-04-14 16:42:25.81: SIM {TimeUS : 65234729, Roll : 0.16, Pitch : -17.96, Yaw : 55.0, Alt : 49.3400001526, Lat : 49.2837672, Lng : -123.1145812, Q1 : 0.875997841358, Q2 : 0.073339484632, Q3 : -0.137874662876, Q4 : 0.456332862377}
2019-04-14 16:42:25.92: SIM {TimeUS : 65335522, Roll : 0.17, Pitch : -17.97, Yaw : 54.99, Alt : 49.3400001526, Lat : 49.2837696, Lng : -123.1145757, Q1 : 0.876028418541, Q2 : 0.0734446719289, Q3 : -0.137911260128, Q4 : 0.456246227026}
2019-04-14 16:42:26.01: SIM {TimeUS : 65435482, Roll : 0.15, Pitch : -17.99, Yaw : 54.98, Alt : 49.3400001526, Lat : 49.2837721, Lng : -123.1145702, Q1 : 0.876062214375, Q2 : 0.0733980089426, Q3 : -0.138097181916, Q4 : 0.456132680178}
2019-04-14 16:42:26.11: SIM {TimeUS : 65535442, Roll : 0.13, Pitch : -18.01, Yaw : 54.97, Alt : 49.3400001526, Lat : 49.2837745, Lng : -123.1145647, Q1 : 0.876092016697, Q2 : 0.0732990279794, Q3 : -0.138362377882, Q4 : 0.456010878086}
2019-04-14 16:42:26.21: SIM {TimeUS : 65635402, Roll : 0.12, Pitch : -18.04, Yaw : 54.96, Alt : 49.3400001526, Lat : 49.283777, Lng : -123.1145591, Q1 : 0.876111149788, Q2 : 0.073306851089, Q3 : -0.138612225652, Q4 : 0.455897003412}
2019-04-14 16:42:26.31: SIM {TimeUS : 65735362, Roll : 0.13, Pitch : -18.06, Yaw : 54.95, Alt : 49.3400001526, Lat : 49.2837794, Lng : -123.1145536, Q1 : 0.876123607159, Q2 : 0.0734454616904, Q3 : -0.138773292303, Q4 : 0.455801725388}
2019-04-14 16:42:26.41: SIM {TimeUS : 65835322, Roll : 0.14, Pitch : -18.08, Yaw : 54.93, Alt : 49.3400001526, Lat : 49.2837819, Lng : -123.1145481, Q1 : 0.876134455204, Q2 : 0.073608264327, Q3 : -0.138884395361, Q4 : 0.455720633268}
2019-04-14 16:42:26.51: SIM {TimeUS : 65935282, Roll : 0.16, Pitch : -18.09, Yaw : 54.92, Alt : 49.3400001526, Lat : 49.2837843, Lng : -123.1145427, Q1 : 0.876144528389, Q2 : 0.0738135501742, Q3 : -0.138875737786, Q4 : 0.455670773983}
2019-04-14 16:42:26.61: SIM {TimeUS : 66035242, Roll : 0.18, Pitch : -18.11, Yaw : 54.92, Alt : 49.3400001526, Lat : 49.2837867, Lng : -123.1145372, Q1 : 0.876147925854, Q2 : 0.0739789605141, Q3 : -0.138939678669, Q4 : 0.455617845058}
2019-04-14 16:42:26.71: SIM {TimeUS : 66135202, Roll : 0.19, Pitch : -18.12, Yaw : 54.91, Alt : 49.3400001526, Lat : 49.2837892, Lng : -123.1145317, Q1 : 0.876147568226, Q2 : 0.0741556882858, Q3 : -0.139010474086, Q4 : 0.455568373203}
2019-04-14 16:42:26.81: SIM {TimeUS : 66235162, Roll : 0.21, Pitch : -18.14, Yaw : 54.9, Alt : 49.3400001526, Lat : 49.2837916, Lng : -123.1145262, Q1 : 0.876142680645, Q2 : 0.0743478164077, Q3 : -0.139057919383, Q4 : 0.455531865358}
