2019-04-14 17:07:52.50: SIM {TimeUS : 40716207, Roll : 0.0, Pitch : 0.0, Yaw : 0.0, Alt : 30.1000003815, Lat : 49.28357, Lng : -123.11502, Q1 : 1.0, Q2 : 0.0, Q3 : 0.0, Q4 : 0.0}
2019-04-14 17:07:52.61: SIM {TimeUS : 40835326, Roll : 0.0, Pitch : 0.0, Yaw : 0.0, Alt : 30.1000003815, Lat : 49.28357, Lng : -123.11502, Q1 : 1.0, Q2 : 0.0, Q3 : 0.0, Q4 : 0.0}
2019-04-14 17:07:52.71: SIM {TimeUS : 40935286, Roll : 0.0, Pitch : 0.0, Yaw : 0.0, Alt : 30.1000003815, Lat : 49.28357, Lng : -123.11502, Q1 : 1.0, Q2 : 0.0, Q3 : 0.0, Q4 : 0.0}
2019-04-14 17:07:52.81: SIM {TimeUS : 41035246, Roll : 0.0, Pitch : 0.0, Yaw : 0.0, Alt : 30.1000003815, Lat : 49.28357, Lng : -123.11502, Q1 : 1.0, Q2 : 0.0, Q3 : 0.0, Q4 : 0.0}
2019-04-14 17:07:52.91: SIM {TimeUS : 41135206, Roll : 0.0, Pitch : 0.0, Yaw : 0.0, Alt : 30.1000003815, Lat : 49.28357, Lng : -123.11502, Q1 : 1.0, Q2 : 0.0, Q3 : 0.0, Q4 : 0.0}
2019-04-14 17:07:53.01: SIM {TimeUS : 41235166, Roll : 0.0, Pitch : 0.0, Yaw : 0.0, Alt : 30.1000003815, Lat : 49.28357, Lng : -123.11502, Q1 : 1.0, Q2 : 0.0, Q3 : 0.0, Q4 : 0.0}
2019-04-14 17:07:53.11: SIM {TimeUS : 41335126, Roll : 0.0, Pitch : 0.0, Yaw : 0.0, Alt : 30.1000003815, Lat : 49.28357, Lng : -123.11502, Q1 : 1.0, Q2 : 0.0, Q3 : 0.0, Q4 : 0.0}
2019-04-14 17:07:53.21: SIM {TimeUS : 41435086, Roll : 0.0, Pitch : 0.0, Yaw : 0.0, Alt : 30.1000003815, Lat : 49.28357, Lng : -123.11502, Q1 : 1.0, Q2 : 0.0, Q3 : 0.0, Q4 : 0.0}
2019-04-14 17:07:53.31: SIM {TimeUS : 41535046, Roll : 0.0, Pitch : 0.0, Yaw : 0.0, Alt : 30.1000003815, Lat : 49.28357, Lng : -123.11502, Q1 : 1.0, Q2 : 0.0, Q3 : 0.0, Q4 : 0.0}
2019-04-14 17:07:53.41: SIM {TimeUS : 41635006, Roll : 0.0, Pitch : 0.0, Yaw : 0.0, Alt : 30.1000003815, Lat : 49.28357, Lng : -123.11502, Q1 : 1.0, Q2 : 0.0, Q3 : 0.0, Q4 : 0.0}
2019-04-14 17:07:53.51: SIM {TimeUS : 41734966, Roll : 0.0, Pitch : 0.0, Yaw : 0.0, Alt : 30.1000003815, Lat : 49.28357, Lng : -123.11502, Q1 : 1.0, Q2 : 0.0, Q3 : 0.0, Q4 : 0.0}
2019-04-14 17:07:53.61: SIM {TimeUS : 41834926, Roll : 0.0, Pitch : 0.0, Yaw : 0.0, Alt : 30.1000003815, Lat : 49.28357, Lng : -123.11502, Q1 : 1.0, Q2 : 0.0, Q3 : 0.0, Q4 : 0.0}
2019-04-14 17:07:53.71: SIM {TimeUS : 41934886, Roll : 0.0, Pitch : 0.0, Yaw : 0.0, Alt : 30.1000003815, Lat : 49.28357, Lng : -123.11502, Q1 : 1.0, Q2 : 0.0, Q3 : 0.0, Q4 : 0.0}
2019-04-14 17:07:53.81: SIM {TimeUS : 42034846, Roll : 0.0, Pitch : 0.0, Yaw : 0.0, Alt : 30.1000003815, Lat : 49.28357, Lng : -123.11502, Q1 : 1.0, Q2 : 0.0, Q3 : 0.0, Q4 : 0.0}
2019-04-14 17:07:53.91: SIM {TimeUS : 42134806, Roll : 0.0, Pitch : 0.0, Yaw : 0.0, Alt : 30.1000003815, Lat : 49.28357, Lng : -123.11502, Q1 : 1.0, Q2 : 0.0, Q3 : 0.0, Q4 : 0.0}
2019-04-14 17:07:54.01: SIM {TimeUS : 42234766, Roll : 0.0, Pitch : 0.0, Yaw : 0.0, Alt : 30.1000003815, Lat : 49.28357, Lng : -123.11502, Q1 : 1.0, Q2 : 0.0, Q3 : 0.0, Q4 : 0.0}
2019-04-14 17:07:54.11: SIM {TimeUS : 42334726, Roll : 0.0, Pitch : 0.0, Yaw : 0.0, Alt : 30.1000003815, Lat : 49.28357, Lng : -123.11502, Q1 : 1.0, Q2 : 0.0, Q3 : 0.0, Q4 : 0.0}
2019-04-14 17:07:54.21: SIM {TimeUS : 42434686, Roll : 0.0, Pitch : 0.0, Yaw : 0.0, Alt : 30.1000003815, Lat : 49.28357, Lng : -123.11502, Q1 : 1.0, Q2 : 0.0, Q3 : 0.0, Q4 : 0.0}
2019-04-14 17:07:54.31: SIM {TimeUS : 42534646, Roll : 0.0, Pitch : 0.0, Yaw : 0.0, Alt : 30.1000003815, Lat : 49.28357, Lng : -123.11502, Q1 : 1.0, Q2 : 0.0, Q3 : 0.0, Q4 : 0.0}
2019-04-14 17:07:54.41: SIM {TimeUS : 42634606, Roll : 0.0, Pitch : 0.0, Yaw : 0.0, Alt : 30.1000003815, Lat : 49.28357, Lng : -123.11502, Q1 : 1.0, Q2 : 0.0, Q3 : 0.0, Q4 : 0.0}
2019-04-14 17:07:54.51: SIM {TimeUS : 42734566, Roll : 0.0, Pitch : 0.0, Yaw : 0.0, Alt : 30.1000003815, Lat : 49.28357, Lng : -123.11502, Q1 : 1.0, Q2 : 0.0, Q3 : 0.0, Q4 : 0.0}
2019-04-14 17:07:54.62: SIM {TimeUS : 42835359, Roll : 0.0, Pitch : 0.0, Yaw : 0.0, Alt : 30.1000003815, Lat : 49.28357, Lng : -123.11502, Q1 : 1.0, Q2 : 0.0, Q3 : 0.0, Q4 : 0.0}
2019-04-14 17:07:54.71: SIM {TimeUS : 42935319, Roll : 0.0, Pitch : 0.0, Yaw : 0.0, Alt : 30.1000003815, Lat : 49.28357, Lng : -123.11502, Q1 : 1.0, Q2 : 0.0, Q3 : 0.0, Q4 : 0.0}
2019-04-14 17:07:54.81: SIM {TimeUS : 43035279, Roll : 0.0, Pitch : 0.0, Yaw : 0.0, Alt : 30.1000003815, Lat : 49.28357, Lng : -123.11502, Q1 : 1.0, Q2 : 0.0, Q3 : 0.0, Q4 : 6.45378759115e-12}
2019-04-14 17:07:54.91: SIM {TimeUS : 43135239, Roll : 0.0, Pitch : 0.0, Yaw : 0.0, Alt : 30.1000003815, Lat : 49.28357, Lng : -123.11502, Q1 : 1.0, Q2 : 0.0, Q3 : 0.0, Q4 : 1.04344363011e-11}
2019-04-14 17:07:55.01: SIM {TimeUS : 43235199, Roll : 0.0, Pitch : 0.0, Yaw : 360.0, Alt : 30.1000003815, Lat : 49.28357, Lng : -123.11502, Q1 : 1.0, Q2 : 0.0, Q3 : 0.0, Q4 : -9.69060778289e-08}
2019-04-14 17:07:55.11: SIM {TimeUS : 43335159, Roll : 0.0, Pitch : 0.0, Yaw : 359.99, Alt : 30.1000003815, Lat : 49.28357, Lng : -123.11502, Q1 : 1.0, Q2 : 0.0, Q3 : 0.0, Q4 : -2.33415448747e-07}
2019-04-14 17:07:55.21: SIM {TimeUS : 43435119, Roll : 0.0, Pitch : 0.0, Yaw : 359.99, Alt : 30.1000003815, Lat : 49.28357, Lng : -123.11502, Q1 : 1.0, Q2 : 0.0, Q3 : 0.0, Q4 : -4.15923608443e-07}
2019-04-14 17:07:55.31: SIM {TimeUS : 43535079, Roll : 0.0, Pitch : 0.0, Yaw : 359.99, Alt : 30.1000003815, Lat : 49.28357, Lng : -123.11502, Q1 : 1.0, Q2 : 0.0, Q3 : 0.0, Q4 : -6.04413514793e-07}
2019-04-14 17:07:55.41: SIM {TimeUS : 43635039, Roll : 0.0, Pitch : 0.0, Yaw : 359.99, Alt : 30.1000003815, Lat : 49.28357, Lng : -123.11502, Q1 : 1.0, Q2 : 0.0, Q3 : 0.0, Q4 : -7.98426924575e-07}
2019-04-14 17:07:55.51: SIM {TimeUS : 43734999, Roll : 0.0, Pitch : 0.0, Yaw : 359.99, Alt : 30.1000003815, Lat : 49.28357, Lng : -123.11502, Q1 : 1.0, Q2 : 0.0, Q3 : 0.0, Q4 : -9.54681013354e-07}
2019-04-14 17:07:55.61: SIM {TimeUS : 43834959, Roll : 0.0, Pitch : 0.0, Yaw : 359.99, Alt : 30.1000003815, Lat : 49.28357, Lng : -123.11502, Q1 : 1.0, Q2 : 0.0, Q3 : 0.0, Q4 : -1.10659232178e-06}
2019-04-14 17:07:55.71: SIM {TimeUS : 43934919, Roll : 0.0, Pitch : 0.0, Yaw : 359.99, Alt : 30.1100006104, Lat : 49.28357, Lng : -123.11502, Q1 : 1.0, Q2 : 0.0, Q3 : 0.0, Q4 : -1.29106081204e-06}
2019-04-14 17:07:55.81: SIM {TimeUS : 44034879, Roll : 0.0, Pitch : 0.0, Yaw : 359.99, Alt : 30.1299991608, Lat : 49.28357, Lng : -123.11502, Q1 : 1.0, Q2 : 0.0, Q3 : 0.0, Q4 : -1.5313436279e-06}
2019-04-14 17:07:55.91: SIM {TimeUS : 44134839, Roll : 0.0, Pitch : 0.0, Yaw : 359.99, Alt : 30.1599998474, Lat : 49.28357, Lng : -123.11502, Q1 : 1.0, Q2 : 0.0, Q3 : 0.0, Q4 : -1.79396158728e-06}
2019-04-14 17:07:56.01: SIM {TimeUS : 44234799, Roll : 0.0, Pitch : 0.0, Yaw : 359.99, Alt : 30.1900005341, Lat : 49.28357, Lng : -123.11502, Q1 : 1.0, Q2 : 0.0, Q3 : 0.0, Q4 : -2.0370139282e-06}
2019-04-14 17:07:56.11: SIM {TimeUS : 44334759, Roll : -0.03, Pitch : -0.03, Yaw : 359.99, Alt : 30.2299995422, Lat : 49.28357, Lng : -123.11502, Q1 : 0.999999940395, Q2 : -0.000281902059214, Q3 : -0.000267907045782, Q4 : -3.67667030332e-06}
2019-04-14 17:07:56.21: SIM {TimeUS : 44434719, Roll : -0.25, Pitch : -0.26, Yaw : 359.99, Alt : 30.2999992371, Lat : 49.28357, Lng : -123.11502, Q1 : 0.999994874001, Q2 : -0.00222795899026, Q3 : -0.00229430082254, Q4 : -2.60119322775e-05}
2019-04-14 17:07:56.31: SIM {TimeUS : 44534679, Roll : -0.54, Pitch : -0.53, Yaw : 359.99, Alt : 30.4400005341, Lat : 49.28357, Lng : -123.11502, Q1 : 0.999977827072, Q2 : -0.00474673695862, Q3 : -0.00467167841271, Q4 : -8.07918622741e-05}
2019-04-14 17:07:56.41: SIM {TimeUS : 44634639, Roll : -0.76, Pitch : -0.7, Yaw : 359.98, Alt : 30.5900001526, Lat : 49.28357, Lng : -123.11502, Q1 : 0.999958693981, Q2 : -0.00667967507616, Q3 : -0.00616268953308, Q4 : -0.000154878900503}
2019-04-14 17:07:56.51: SIM {TimeUS : 44734599, Roll : -0.82, Pitch : -0.74, Yaw : 359.97, Alt : 30.75, Lat : 49.28357, Lng : -123.11502, Q1 : 0.999952912331, Q2 : -0.0072352765128, Q3 : -0.00645868526772, Q4 : -0.000232916892855}
2019-04-14 17:07:56.61: SIM {TimeUS : 44834559, Roll : -0.73, Pitch : -0.65, Yaw : 359.96, Alt : 30.9099998474, Lat : 49.28357, Lng : -123.1150201, Q1 : 0.999962866306, Q2 : -0.00644341716543, Q3 : -0.00571669917554, Q4 : -0.000316551129799}
2019-04-14 17:07:56.72: SIM {TimeUS : 44935352, Roll : -0.54, Pitch : -0.48, Yaw : 359.95, Alt : 31.0599994659, Lat : 49.2835701, Lng : -123.1150201, Q1 : 0.999979615211, Q2 : -0.00473664421588, Q3 : -0.00425981497392, Q4 : -0.000390749890357}
2019-04-14 17:07:56.81: SIM {TimeUS : 45035312, Roll : -0.3, Pitch : -0.29, Yaw : 359.94, Alt : 31.2199993134, Lat : 49.2835701, Lng : -123.1150202, Q1 : 0.999993145466, Q2 : -0.0026511864271, Q3 : -0.00255099637434, Q4 : -0.000450884690508}
2019-04-14 17:07:56.91: SIM {TimeUS : 45135272, Roll : -0.09, Pitch : -0.12, Yaw : 359.94, Alt : 31.3799991608, Lat : 49.2835702, Lng : -123.1150203, Q1 : 0.999998986721, Q2 : -0.000796046224423, Q3 : -0.00104691437446, Q4 : -0.000495760992635}
2019-04-14 17:07:57.01: SIM {TimeUS : 45235232, Roll : 0.04, Pitch : 0.0, Yaw : 359.94, Alt : 31.5599994659, Lat : 49.2835702, Lng : -123.1150204, Q1 : 0.999999761581, Q2 : 0.000371440168237, Q3 : 7.28326558601e-05, Q4 : -0.000520797562785}
2019-04-14 17:07:57.11: SIM {TimeUS : 45335192, Roll : 0.08, Pitch : 0.08, Yaw : 359.93, Alt : 31.7299995422, Lat : 49.2835702, Lng : -123.1150204, Q1 : 0.999999344349, Q2 : 0.000773983250838, Q3 : 0.000707056547981, Q4 : -0.000530240708031}
2019-04-14 17:07:57.21: SIM {TimeUS : 45435152, Roll : 0.07, Pitch : 0.1, Yaw : 359.93, Alt : 31.9099998474, Lat : 49.2835703, Lng : -123.1150205, Q1 : 0.99999922514, Q2 : 0.00061636720784, Q3 : 0.000904909567907, Q4 : -0.000527884578332}
2019-04-14 17:07:57.31: SIM {TimeUS : 45535112, Roll : 0.05, Pitch : 0.11, Yaw : 359.94, Alt : 32.0999984741, Lat : 49.2835703, Lng : -123.1150205, Q1 : 0.999999284744, Q2 : 0.000487742712721, Q3 : 0.000979042379186, Q4 : -0.000507118587848}
2019-04-14 17:07:57.41: SIM {TimeUS : 45635072, Roll : 0.05, Pitch : 0.11, Yaw : 359.94, Alt : 32.2900009155, Lat : 49.2835703, Lng : -123.1150206, Q1 : 0.999999284744, Q2 : 0.00046495712013, Q3 : 0.00101676315535, Q4 : -0.000484419113491}
2019-04-14 17:07:57.51: SIM {TimeUS : 45735032, Roll : 0.05, Pitch : 0.12, Yaw : 359.94, Alt : 32.4799995422, Lat : 49.2835703, Lng : -123.1150206, Q1 : 0.99999922514, Q2 : 0.000473421969218, Q3 : 0.00106152670924, Q4 : -0.000465283694211}
2019-04-14 17:07:57.61: SIM {TimeUS : 45834992, Roll : 0.06, Pitch : 0.14, Yaw : 359.94, Alt : 32.6800003052, Lat : 49.2835703, Lng : -123.1150207, Q1 : 0.999998986721, Q2 : 0.000533842190634, Q3 : 0.00122466532048, Q4 : -0.000455741013866}
2019-04-14 17:07:57.71: SIM {TimeUS : 45934952, Roll : 0.08, Pitch : 0.14, Yaw : 359.94, Alt : 32.8699989319, Lat : 49.2835703, Lng : -123.1150207, Q1 : 0.999998867512, Q2 : 0.000735983019695, Q3 : 0.00123333197553, Q4 : -0.000446940975962}
2019-04-14 17:07:57.81: SIM {TimeUS : 46034912, Roll : 0.11, Pitch : 0.12, Yaw : 359.94, Alt : 33.0699996948, Lat : 49.2835704, Lng : -123.1150207, Q1 : 0.999998748302, Q2 : 0.00101738527883, Q3 : 0.00113082514144, Q4 : -0.000441594311269}
2019-04-14 17:07:57.91: SIM {TimeUS : 46134872, Roll : 0.14, Pitch : 0.12, Yaw : 359.95, Alt : 33.2799987793, Lat : 49.2835704, Lng : -123.1150208, Q1 : 0.999998509884, Q2 : 0.00130295788404, Q3 : 0.00105735403486, Q4 : -0.000437259237515}
2019-04-14 17:07:58.01: SIM {TimeUS : 46234832, Roll : 0.17, Pitch : 0.12, Yaw : 359.95, Alt : 33.4799995422, Lat : 49.2835704, Lng : -123.1150208, Q1 : 0.999998211861, Q2 : 0.00149099121336, Q3 : 0.00107815896627, Q4 : -0.000433255598182}
2019-04-14 17:07:58.11: SIM {TimeUS : 46334792, Roll : 0.19, Pitch : 0.13, Yaw : 359.95, Alt : 33.6899986267, Lat : 49.2835704, Lng : -123.1150208, Q1 : 0.999997854233, Q2 : 0.00165931379888, Q3 : 0.00117595214397, Q4 : -0.000432740373071}
2019-04-14 17:07:58.21: SIM {TimeUS : 46434752, Roll : 0.19, Pitch : 0.13, Yaw : 359.95, Alt : 33.9000015259, Lat : 49.2835704, Lng : -123.1150208, Q1 : 0.999997794628, Q2 : 0.00167350075208, Q3 : 0.00117235817015, Q4 : -0.00043725388241}
2019-04-14 17:07:58.31: SIM {TimeUS : 46534712, Roll : 0.17, Pitch : 0.13, Yaw : 359.94, Alt : 34.1100006104, Lat : 49.2835704, Lng : -123.1150208, Q1 : 0.999998092651, Q2 : 0.00152789801359, Q3 : 0.00113773194607, Q4 : -0.000443713506684}
2019-04-14 17:07:58.41: SIM {TimeUS : 46634672, Roll : 0.14, Pitch : 0.12, Yaw : 359.94, Alt : 34.3199996948, Lat : 49.2835704, Lng : -123.1150208, Q1 : 0.999998509884, Q2 : 0.00125821377151, Q3 : 0.00110731250606, Q4 : -0.00046267331345}
2019-04-14 17:07:58.51: SIM {TimeUS : 46734632, Roll : 0.11, Pitch : 0.11, Yaw : 359.94, Alt : 34.5299987793, Lat : 49.2835704, Lng : -123.1150208, Q1 : 0.999998867512, Q2 : 0.000986133236438, Q3 : 0.0010327170603, Q4 : -0.000484376825625}
2019-04-14 17:07:58.61: SIM {TimeUS : 46834592, Roll : 0.09, Pitch : 0.07, Yaw : 359.94, Alt : 34.7400016785, Lat : 49.2835704, Lng : -123.1150208, Q1 : 0.999999344349, Q2 : 0.000797487737145, Q3 : 0.000669864064548, Q4 : -0.000515113584697}
2019-04-14 17:07:58.71: SIM {TimeUS : 46934552, Roll : 0.07, Pitch : 0.03, Yaw : 359.93, Alt : 34.9599990845, Lat : 49.2835704, Lng : -123.1150208, Q1 : 0.999999582767, Q2 : 0.000646043918096, Q3 : 0.000333892501658, Q4 : -0.000555723439902}
2019-04-14 17:07:58.82: SIM {TimeUS : 47035345, Roll : 0.04, Pitch : 0.01, Yaw : 359.93, Alt : 35.1800003052, Lat : 49.2835704, Lng : -123.1150207, Q1 : 0.999999701977, Q2 : 0.000425704114605, Q3 : 0.000161983494763, Q4 : -0.000597737787757}
2019-04-14 17:07:58.91: SIM {TimeUS : 47135305, Roll : 0.03, Pitch : 0.01, Yaw : 359.92, Alt : 35.3899993896, Lat : 49.2835704, Lng : -123.1150207, Q1 : 0.999999761581, Q2 : 0.000297453021631, Q3 : 0.000121628945635, Q4 : -0.000631943170447}
2019-04-14 17:07:59.01: SIM {TimeUS : 47235265, Roll : 0.03, Pitch : 0.01, Yaw : 359.92, Alt : 35.6100006104, Lat : 49.2835704, Lng : -123.1150207, Q1 : 0.999999761581, Q2 : 0.000298211176414, Q3 : 0.000108640291728, Q4 : -0.000661080586724}
2019-04-14 17:07:59.11: SIM {TimeUS : 47335225, Roll : 0.01, Pitch : -0.01, Yaw : 359.92, Alt : 35.8300018311, Lat : 49.2835704, Lng : -123.1150207, Q1 : 0.999999761581, Q2 : 0.000141229465953, Q3 : -8.73839308042e-05, Q4 : -0.000688730215188}
2019-04-14 17:07:59.21: SIM {TimeUS : 47435185, Roll : -0.01, Pitch : -0.04, Yaw : 359.91, Alt : 36.0499992371, Lat : 49.2835704, Lng : -123.1150207, Q1 : 0.999999701977, Q2 : -0.000109723165224, Q3 : -0.000382645666832, Q4 : -0.000716204755008}
2019-04-14 17:07:59.31: SIM {TimeUS : 47535145, Roll : -0.04, Pitch : -0.06, Yaw : 359.91, Alt : 36.2700004578, Lat : 49.2835704, Lng : -123.1150207, Q1 : 0.999999463558, Q2 : -0.00038053872413, Q3 : -0.00057856622152, Q4 : -0.000746932229958}
2019-04-14 17:07:59.41: SIM {TimeUS : 47635105, Roll : -0.07, Pitch : -0.07, Yaw : 359.91, Alt : 36.5, Lat : 49.2835704, Lng : -123.1150207, Q1 : 0.999999284744, Q2 : -0.000613405252807, Q3 : -0.000696149014402, Q4 : -0.000776741711888}
2019-04-14 17:07:59.51: SIM {TimeUS : 47735065, Roll : -0.07, Pitch : -0.07, Yaw : 359.9, Alt : 36.7200012207, Lat : 49.2835704, Lng : -123.1150206, Q1 : 0.99999922514, Q2 : -0.000678479613271, Q3 : -0.000682594429236, Q4 : -0.000798585475422}
2019-04-14 17:07:59.61: SIM {TimeUS : 47835025, Roll : -0.07, Pitch : -0.06, Yaw : 359.9, Alt : 36.9399986267, Lat : 49.2835704, Lng : -123.1150206, Q1 : 0.999999284744, Q2 : -0.000664798426442, Q3 : -0.000608582631685, Q4 : -0.000818967819214}
2019-04-14 17:07:59.71: SIM {TimeUS : 47934985, Roll : -0.07, Pitch : -0.04, Yaw : 359.9, Alt : 37.1699981689, Lat : 49.2835704, Lng : -123.1150206, Q1 : 0.999999403954, Q2 : -0.000621879356913, Q3 : -0.00042764339014, Q4 : -0.000840472581331}
2019-04-14 17:07:59.81: SIM {TimeUS : 48034945, Roll : -0.06, Pitch : -0.03, Yaw : 359.9, Alt : 37.3899993896, Lat : 49.2835704, Lng : -123.1150206, Q1 : 0.999999463558, Q2 : -0.000566433125641, Q3 : -0.000317851663567, Q4 : -0.000855445803609}
2019-04-14 17:07:59.91: SIM {TimeUS : 48134905, Roll : -0.07, Pitch : -0.04, Yaw : 359.9, Alt : 37.6199989319, Lat : 49.2835704, Lng : -123.1150206, Q1 : 0.999999344349, Q2 : -0.00064571731491, Q3 : -0.000349170237314, Q4 : -0.000862320768647}
2019-04-14 17:08:00.01: SIM {TimeUS : 48234865, Roll : -0.08, Pitch : -0.02, Yaw : 359.9, Alt : 37.8400001526, Lat : 49.2835704, Lng : -123.1150206, Q1 : 0.999999344349, Q2 : -0.000725441845134, Q3 : -0.000249832402915, Q4 : -0.000867054681294}
2019-04-14 17:08:00.11: SIM {TimeUS : 48334825, Roll : -0.1, Pitch : -0.01, Yaw : 359.9, Alt : 38.0699996948, Lat : 49.2835704, Lng : -123.1150206, Q1 : 0.99999922514, Q2 : -0.000902704021428, Q3 : -0.000107153049612, Q4 : -0.000872661999892}
2019-04-14 17:08:00.21: SIM {TimeUS : 48434785, Roll : -0.1, Pitch : 0.0, Yaw : 359.9, Alt : 38.2999992371, Lat : 49.2835704, Lng : -123.1150206, Q1 : 0.99999922514, Q2 : -0.000889916089363, Q3 : 1.15725197247e-05, Q4 : -0.000872016418725}
2019-04-14 17:08:00.31: SIM {TimeUS : 48534745, Roll : -0.07, Pitch : 0.03, Yaw : 359.9, Alt : 38.5200004578, Lat : 49.2835704, Lng : -123.1150206, Q1 : 0.999999344349, Q2 : -0.000658746459521, Q3 : 0.000266511779046, Q4 : -0.000871377065778}
2019-04-14 17:08:00.41: SIM {TimeUS : 48634705, Roll : -0.04, Pitch : 0.02, Yaw : 359.89, Alt : 38.75, Lat : 49.2835704, Lng : -123.1150206, Q1 : 0.999999463558, Q2 : -0.000426390790381, Q3 : 0.000238251479459, Q4 : -0.000876594218425}
2019-04-14 17:08:00.51: SIM {TimeUS : 48734665, Roll : -0.01, Pitch : 0.01, Yaw : 359.89, Alt : 38.9799995422, Lat : 49.2835704, Lng : -123.1150206, Q1 : 0.999999582767, Q2 : -0.000142742981552, Q3 : 0.000145173165947, Q4 : -0.000881634303369}
2019-04-14 17:08:00.61: SIM {TimeUS : 48834625, Roll : 0.02, Pitch : 0.03, Yaw : 359.89, Alt : 39.2099990845, Lat : 49.2835704, Lng : -123.1150206, Q1 : 0.999999523163, Q2 : 0.000179821639904, Q3 : 0.000286547641736, Q4 : -0.000892282580025}
2019-04-14 17:08:00.71: SIM {TimeUS : 48934585, Roll : 0.05, Pitch : 0.06, Yaw : 359.89, Alt : 39.4399986267, Lat : 49.2835706, Lng : -123.1150206, Q1 : 0.999999284744, Q2 : 0.000500648282468, Q3 : 0.000570961332414, Q4 : -0.000914469535928}
2019-04-14 17:08:00.81: SIM {TimeUS : 49034545, Roll : 0.08, Pitch : 0.09, Yaw : 359.89, Alt : 39.6699981689, Lat : 49.2835706, Lng : -123.1150206, Q1 : 0.999998927116, Q2 : 0.000710084335878, Q3 : 0.000835271610413, Q4 : -0.00094300461933}
2019-04-14 17:08:00.92: SIM {TimeUS : 49135338, Roll : 0.06, Pitch : 0.12, Yaw : 359.88, Alt : 39.9000015259, Lat : 49.2835706, Lng : -123.1150206, Q1 : 0.999998807907, Q2 : 0.000608791364357, Q3 : 0.00105377438013, Q4 : -0.000967459171079}
2019-04-14 17:08:01.01: SIM {TimeUS : 49235298, Roll : 0.02, Pitch : 0.14, Yaw : 359.88, Alt : 40.1300010681, Lat : 49.2835706, Lng : -123.1150206, Q1 : 0.999998748302, Q2 : 0.000185105192941, Q3 : 0.00122583995108, Q4 : -0.00101234205067}
2019-04-14 17:08:01.11: SIM {TimeUS : 49335258, Roll : -0.01, Pitch : 0.13, Yaw : 359.87, Alt : 40.3699989319, Lat : 49.2835706, Lng : -123.1150206, Q1 : 0.999998748302, Q2 : -0.000150351042976, Q3 : 0.00119234167505, Q4 : -0.0010494759772}
2019-04-14 17:08:01.21: SIM {TimeUS : 49435218, Roll : -0.04, Pitch : 0.11, Yaw : 359.87, Alt : 40.5999984741, Lat : 49.2835706, Lng : -123.1150206, Q1 : 0.999998867512, Q2 : -0.000380215060432, Q3 : 0.000981160439551, Q4 : -0.00108528521378}
2019-04-14 17:08:01.31: SIM {TimeUS : 49535178, Roll : -0.05, Pitch : 0.09, Yaw : 359.87, Alt : 40.8300018311, Lat : 49.2835706, Lng : -123.1150206, Q1 : 0.999998927116, Q2 : -0.00047457148321, Q3 : 0.000810101279058, Q4 : -0.00112148036715}
2019-04-14 17:08:01.41: SIM {TimeUS : 49635138, Roll : -0.04, Pitch : 0.09, Yaw : 359.86, Alt : 41.0600013733, Lat : 49.2835706, Lng : -123.1150206, Q1 : 0.999998927116, Q2 : -0.000368108623661, Q3 : 0.00086162541993, Q4 : -0.00116060068831}
2019-04-14 17:08:01.51: SIM {TimeUS : 49735098, Roll : 0.0, Pitch : 0.12, Yaw : 359.86, Alt : 41.2999992371, Lat : 49.2835706, Lng : -123.1150206, Q1 : 0.999998688698, Q2 : 2.1458467927e-06, Q3 : 0.00110567826778, Q4 : -0.00120457424782}
2019-04-14 17:08:01.61: SIM {TimeUS : 49835058, Roll : 0.05, Pitch : 0.14, Yaw : 359.85, Alt : 41.5299987793, Lat : 49.2835706, Lng : -123.1150206, Q1 : 0.99999833107, Q2 : 0.000460338545963, Q3 : 0.00126729323529, Q4 : -0.00125040672719}
2019-04-14 17:08:01.71: SIM {TimeUS : 49935018, Roll : 0.09, Pitch : 0.12, Yaw : 359.85, Alt : 41.7599983215, Lat : 49.2835706, Lng : -123.1150207, Q1 : 0.999998271465, Q2 : 0.000818855362013, Q3 : 0.00106948928442, Q4 : -0.00129140389618}
2019-04-14 17:08:01.81: SIM {TimeUS : 50034978, Roll : 0.09, Pitch : 0.08, Yaw : 359.84, Alt : 42.0, Lat : 49.2835706, Lng : -123.1150207, Q1 : 0.999998509884, Q2 : 0.000859234947711, Q3 : 0.000711358326953, Q4 : -0.0013254089281}
2019-04-14 17:08:01.91: SIM {TimeUS : 50134938, Roll : 0.06, Pitch : 0.04, Yaw : 359.84, Alt : 42.2299995422, Lat : 49.2835706, Lng : -123.1150207, Q1 : 0.999998867512, Q2 : 0.000553861493245, Q3 : 0.000433860201156, Q4 : -0.00134551280644}
2019-04-14 17:08:02.01: SIM {TimeUS : 50234898, Roll : 0.0, Pitch : 0.04, Yaw : 359.84, Alt : 42.4700012207, Lat : 49.2835706, Lng : -123.1150207, Q1 : 0.999999046326, Q2 : 7.52798878239e-05, Q3 : 0.000375978241209, Q4 : -0.00135612057056}
2019-04-14 17:08:02.11: SIM {TimeUS : 50334858, Roll : -0.03, Pitch : 0.06, Yaw : 359.84, Alt : 42.7000007629, Lat : 49.2835706, Lng : -123.1150206, Q1 : 0.999998867512, Q2 : -0.000290992757073, Q3 : 0.0006083692424, Q4 : -0.00135449087247}
2019-04-14 17:08:02.21: SIM {TimeUS : 50434818, Roll : -0.05, Pitch : 0.08, Yaw : 359.84, Alt : 42.9300003052, Lat : 49.2835704, Lng : -123.1150206, Q1 : 0.999998688698, Q2 : -0.000480316986796, Q3 : 0.000783503579441, Q4 : -0.00135051680263}
2019-04-14 17:08:02.31: SIM {TimeUS : 50534778, Roll : -0.05, Pitch : 0.08, Yaw : 359.84, Alt : 43.1699981689, Lat : 49.2835704, Lng : -123.1150206, Q1 : 0.999998748302, Q2 : -0.000444759556558, Q3 : 0.000760969240218, Q4 : -0.00134699977934}
2019-04-14 17:08:02.41: SIM {TimeUS : 50634738, Roll : -0.04, Pitch : 0.07, Yaw : 359.84, Alt : 43.4000015259, Lat : 49.2835704, Lng : -123.1150206, Q1 : 0.999998748302, Q2 : -0.000434309156844, Q3 : 0.000655344105326, Q4 : -0.00135095219593}
2019-04-14 17:08:02.51: SIM {TimeUS : 50734698, Roll : -0.03, Pitch : 0.05, Yaw : 359.84, Alt : 43.6399993896, Lat : 49.2835704, Lng : -123.1150206, Q1 : 0.999998867512, Q2 : -0.000345189677319, Q3 : 0.000501607253682, Q4 : -0.00136161362752}
2019-04-14 17:08:02.61: SIM {TimeUS : 50834658, Roll : -0.01, Pitch : 0.04, Yaw : 359.84, Alt : 43.8699989319, Lat : 49.2835704, Lng : -123.1150206, Q1 : 0.999998927116, Q2 : -0.000161505566211, Q3 : 0.000389447202906, Q4 : -0.00138812407386}
2019-04-14 17:08:02.71: SIM {TimeUS : 50934618, Roll : 0.0, Pitch : 0.03, Yaw : 359.83, Alt : 44.1100006104, Lat : 49.2835704, Lng : -123.1150206, Q1 : 0.999998927116, Q2 : -4.42789569206e-05, Q3 : 0.000321999250446, Q4 : -0.00142061419319}
2019-04-14 17:08:02.81: SIM {TimeUS : 51034578, Roll : 0.0, Pitch : 0.01, Yaw : 359.83, Alt : 44.3499984741, Lat : 49.2835704, Lng : -123.1150206, Q1 : 0.999998927116, Q2 : -7.15891437721e-05, Q3 : 0.000131877866806, Q4 : -0.00145310838707}
2019-04-14 17:08:02.91: SIM {TimeUS : 51134538, Roll : -0.01, Pitch : -0.01, Yaw : 359.82, Alt : 44.5800018311, Lat : 49.2835704, Lng : -123.1150206, Q1 : 0.999998867512, Q2 : -0.000150638777995, Q3 : -0.00016747272457, Q4 : -0.0014875944471}
2019-04-14 17:08:03.01: SIM {TimeUS : 51235331, Roll : -0.02, Pitch : -0.04, Yaw : 359.82, Alt : 44.8199996948, Lat : 49.2835704, Lng : -123.1150206, Q1 : 0.999998748302, Q2 : -0.000204632262466, Q3 : -0.000367748842109, Q4 : -0.00152618950233}
2019-04-14 17:08:03.11: SIM {TimeUS : 51335291, Roll : -0.02, Pitch : -0.05, Yaw : 359.82, Alt : 45.0600013733, Lat : 49.2835704, Lng : -123.1150206, Q1 : 0.999998629093, Q2 : -0.000194960506633, Q3 : -0.00046707119327, Q4 : -0.00156606431119}
2019-04-14 17:08:03.21: SIM {TimeUS : 51435251, Roll : -0.02, Pitch : -0.05, Yaw : 359.81, Alt : 45.2900009155, Lat : 49.2835703, Lng : -123.1150206, Q1 : 0.999998569489, Q2 : -0.000215335356188, Q3 : -0.000452561595012, Q4 : -0.00160250370391}
2019-04-14 17:08:03.31: SIM {TimeUS : 51535211, Roll : -0.04, Pitch : -0.03, Yaw : 359.81, Alt : 45.5299987793, Lat : 49.2835703, Lng : -123.1150206, Q1 : 0.999998509884, Q2 : -0.000401254568715, Q3 : -0.000342845509294, Q4 : -0.00164274009876}
2019-04-14 17:08:03.41: SIM {TimeUS : 51635171, Roll : -0.07, Pitch : -0.02, Yaw : 359.8, Alt : 45.7599983215, Lat : 49.2835703, Lng : -123.1150206, Q1 : 0.99999833107, Q2 : -0.000694037240464, Q3 : -0.000222687871428, Q4 : -0.00168173084967}
2019-04-14 17:08:03.51: SIM {TimeUS : 51735131, Roll : -0.1, Pitch : -0.01, Yaw : 359.8, Alt : 45.9900016785, Lat : 49.2835703, Lng : -123.1150205, Q1 : 0.999998092651, Q2 : -0.000894385215361, Q3 : -0.000134469300974, Q4 : -0.00171635113657}
2019-04-14 17:08:03.61: SIM {TimeUS : 51835091, Roll : -0.1, Pitch : 0.0, Yaw : 359.79, Alt : 46.2200012207, Lat : 49.2835703, Lng : -123.1150205, Q1 : 0.999998033047, Q2 : -0.000930303125642, Q3 : 5.79609547913e-07, Q4 : -0.00174609734677}
2019-04-14 17:08:03.71: SIM {TimeUS : 51935051, Roll : -0.09, Pitch : 0.02, Yaw : 359.79, Alt : 46.4500007629, Lat : 49.2835703, Lng : -123.1150205, Q1 : 0.999998092651, Q2 : -0.000799260626081, Q3 : 0.000204614378163, Q4 : -0.00176701601595}
2019-04-14 17:08:03.81: SIM {TimeUS : 52035011, Roll : -0.06, Pitch : 0.03, Yaw : 359.79, Alt : 46.6699981689, Lat : 49.2835703, Lng : -123.1150205, Q1 : 0.999998211861, Q2 : -0.00055045512272, Q3 : 0.000290542986477, Q4 : -0.00178740371484}
2019-04-14 17:08:03.91: SIM {TimeUS : 52134971, Roll : -0.04, Pitch : 0.02, Yaw : 359.79, Alt : 46.8800010681, Lat : 49.2835703, Lng : -123.1150205, Q1 : 0.999998271465, Q2 : -0.000352767907316, Q3 : 0.000200067501282, Q4 : -0.00180484738667}
2019-04-14 17:08:04.01: SIM {TimeUS : 52234931, Roll : -0.03, Pitch : 0.0, Yaw : 359.79, Alt : 47.0900001526, Lat : 49.2835703, Lng : -123.1150206, Q1 : 0.999998271465, Q2 : -0.000274960591923, Q3 : 1.00828456198e-05, Q4 : -0.00181965273805}
2019-04-14 17:08:04.11: SIM {TimeUS : 52334891, Roll : -0.01, Pitch : -0.02, Yaw : 359.79, Alt : 47.2900009155, Lat : 49.2835703, Lng : -123.1150206, Q1 : 0.999998271465, Q2 : -0.000172885440406, Q3 : -0.000261129520368, Q4 : -0.00183272082359}
2019-04-14 17:08:04.21: SIM {TimeUS : 52434851, Roll : 0.0, Pitch : -0.05, Yaw : 359.78, Alt : 47.4799995422, Lat : 49.2835703, Lng : -123.1150206, Q1 : 0.999998152256, Q2 : -2.95913505397e-05, Q3 : -0.000501630012877, Q4 : -0.00184832711238}
2019-04-14 17:08:04.31: SIM {TimeUS : 52534811, Roll : 0.0, Pitch : -0.09, Yaw : 359.78, Alt : 47.6599998474, Lat : 49.2835703, Lng : -123.1150206, Q1 : 0.999997913837, Q2 : -3.33372781824e-07, Q3 : -0.000809762335848, Q4 : -0.00186540035065}
2019-04-14 17:08:04.41: SIM {TimeUS : 52634771, Roll : 0.0, Pitch : -0.12, Yaw : 359.78, Alt : 47.8400001526, Lat : 49.2835703, Lng : -123.1150206, Q1 : 0.99999755621, Q2 : -1.51466986154e-06, Q3 : -0.00113300909288, Q4 : -0.00188363809139}
2019-04-14 17:08:04.51: SIM {TimeUS : 52734731, Roll : 0.02, Pitch : -0.14, Yaw : 359.78, Alt : 48.0, Lat : 49.2835703, Lng : -123.1150206, Q1 : 0.999997377396, Q2 : 0.000183897238458, Q3 : -0.00124201644212, Q4 : -0.00190261856187}
2019-04-14 17:08:04.61: SIM {TimeUS : 52834691, Roll : 0.04, Pitch : -0.13, Yaw : 359.77, Alt : 48.1399993896, Lat : 49.2835703, Lng : -123.1150206, Q1 : 0.999997437, Q2 : 0.000411466724472, Q3 : -0.00116141163744, Q4 : -0.00192357727792}
2019-04-14 17:08:04.71: SIM {TimeUS : 52934651, Roll : 0.06, Pitch : -0.1, Yaw : 359.77, Alt : 48.2799987793, Lat : 49.2835703, Lng : -123.1150206, Q1 : 0.999997496605, Q2 : 0.000590622134041, Q3 : -0.000949914043304, Q4 : -0.00194618850946}
2019-04-14 17:08:04.81: SIM {TimeUS : 53034611, Roll : 0.07, Pitch : -0.08, Yaw : 359.77, Alt : 48.4099998474, Lat : 49.2835703, Lng : -123.1150206, Q1 : 0.99999755621, Q2 : 0.000630274298601, Q3 : -0.00071412185207, Q4 : -0.00197421200573}
2019-04-14 17:08:04.91: SIM {TimeUS : 53134571, Roll : 0.07, Pitch : -0.06, Yaw : 359.77, Alt : 48.5200004578, Lat : 49.2835704, Lng : -123.1150206, Q1 : 0.999997615814, Q2 : 0.000652915216051, Q3 : -0.000558496743906, Q4 : -0.00200637499802}
2019-04-14 17:08:05.02: SIM {TimeUS : 53235364, Roll : 0.06, Pitch : -0.06, Yaw : 359.76, Alt : 48.6199989319, Lat : 49.2835704, Lng : -123.1150206, Q1 : 0.999997615814, Q2 : 0.000579151790589, Q3 : -0.000545619113836, Q4 : -0.00204436667264}
2019-04-14 17:08:05.11: SIM {TimeUS : 53335324, Roll : 0.03, Pitch : -0.06, Yaw : 359.76, Alt : 48.7099990845, Lat : 49.2835704, Lng : -123.1150206, Q1 : 0.999997615814, Q2 : 0.000327386049321, Q3 : -0.000527175609022, Q4 : -0.00208756932989}
2019-04-14 17:08:05.21: SIM {TimeUS : 53435284, Roll : 0.02, Pitch : -0.04, Yaw : 359.75, Alt : 48.7799987793, Lat : 49.2835704, Lng : -123.1150206, Q1 : 0.999997675419, Q2 : 0.000184944467037, Q3 : -0.000396454008296, Q4 : -0.00212310324423}
2019-04-14 17:08:05.31: SIM {TimeUS : 53535244, Roll : 0.0, Pitch : -0.02, Yaw : 359.75, Alt : 48.8499984741, Lat : 49.2835704, Lng : -123.1150206, Q1 : 0.999997675419, Q2 : 8.42670342536e-05, Q3 : -0.000244906637818, Q4 : -0.00215436238796}
2019-04-14 17:08:05.41: SIM {TimeUS : 53635204, Roll : 0.0, Pitch : 0.0, Yaw : 359.74, Alt : 48.9099998474, Lat : 49.2835704, Lng : -123.1150206, Q1 : 0.999997615814, Q2 : 4.78117908642e-05, Q3 : -3.63749422831e-05, Q4 : -0.0021821630653}
2019-04-14 17:08:05.51: SIM {TimeUS : 53735164, Roll : 0.02, Pitch : 0.02, Yaw : 359.74, Alt : 48.9599990845, Lat : 49.2835704, Lng : -123.1150206, Q1 : 0.99999755621, Q2 : 0.000227617099881, Q3 : 0.000239151937421, Q4 : -0.00220718677156}
2019-04-14 17:08:05.61: SIM {TimeUS : 53835124, Roll : 0.08, Pitch : 0.02, Yaw : 359.74, Alt : 49.0, Lat : 49.2835704, Lng : -123.1150206, Q1 : 0.999997258186, Q2 : 0.000720167532563, Q3 : 0.000223285736865, Q4 : -0.00223288824782}
2019-04-14 17:08:05.71: SIM {TimeUS : 53935084, Roll : 0.26, Pitch : -0.09, Yaw : 359.74, Alt : 49.0299987793, Lat : 49.2835704, Lng : -123.1150206, Q1 : 0.999994516373, Q2 : 0.0022679255344, Q3 : -0.000858548621181, Q4 : -0.00225385394879}
2019-04-14 17:08:05.81: SIM {TimeUS : 54035044, Roll : 0.62, Pitch : -0.37, Yaw : 359.73, Alt : 49.0600013733, Lat : 49.2835704, Lng : -123.1150206, Q1 : 0.999977231026, Q2 : 0.00545525038615, Q3 : -0.00326352682896, Q4 : -0.00227349600755}
2019-04-14 17:08:05.91: SIM {TimeUS : 54135004, Roll : 1.19, Pitch : -0.81, Yaw : 359.73, Alt : 49.0900001526, Lat : 49.2835704, Lng : -123.1150206, Q1 : 0.999918103218, Q2 : 0.0104036796838, Q3 : -0.0070993793197, Q4 : -0.00227543828078}
2019-04-14 17:08:06.01: SIM {TimeUS : 54234964, Roll : 1.93, Pitch : -1.36, Yaw : 359.71, Alt : 49.1100006104, Lat : 49.2835706, Lng : -123.1150205, Q1 : 0.999782860279, Q2 : 0.0168908797204, Q3 : -0.0119941905141, Q4 : -0.00225198897533}
2019-04-14 17:08:06.11: SIM {TimeUS : 54334924, Roll : 2.78, Pitch : -1.97, Yaw : 359.7, Alt : 49.1300010681, Lat : 49.2835706, Lng : -123.1150204, Q1 : 0.999554038048, Q2 : 0.0242738407105, Q3 : -0.0172534938902, Q4 : -0.00219045486301}
2019-04-14 17:08:06.21: SIM {TimeUS : 54434884, Roll : 3.59, Pitch : -2.53, Yaw : 359.68, Alt : 49.1500015259, Lat : 49.2835707, Lng : -123.1150203, Q1 : 0.999259293079, Q2 : 0.031340867281, Q3 : -0.0222349278629, Q4 : -0.0020695803687}
2019-04-14 17:08:06.31: SIM {TimeUS : 54534844, Roll : 4.26, Pitch : -3.0, Yaw : 359.67, Alt : 49.1699981689, Lat : 49.2835708, Lng : -123.1150201, Q1 : 0.998964190483, Q2 : 0.0370818674564, Q3 : -0.0263025648892, Q4 : -0.0018991677789}
2019-04-14 17:08:06.41: SIM {TimeUS : 54634804, Roll : 4.74, Pitch : -3.34, Yaw : 359.66, Alt : 49.1800003052, Lat : 49.2835709, Lng : -123.1150199, Q1 : 0.99871724844, Q2 : 0.0412723533809, Q3 : -0.0292853936553, Q4 : -0.0016765067121}
2019-04-14 17:08:06.51: SIM {TimeUS : 54734764, Roll : 5.08, Pitch : -3.61, Yaw : 359.67, Alt : 49.1899986267, Lat : 49.283571, Lng : -123.1150195, Q1 : 0.998518764973, Q2 : 0.0442677810788, Q3 : -0.0316006727517, Q4 : -0.0014280983014}
2019-04-14 17:08:06.61: SIM {TimeUS : 54834724, Roll : 5.37, Pitch : -3.84, Yaw : 359.68, Alt : 49.2000007629, Lat : 49.2835713, Lng : -123.115019, Q1 : 0.998339414597, Q2 : 0.0467686727643, Q3 : -0.0336118303239, Q4 : -0.00116229162086}
2019-04-14 17:08:06.71: SIM {TimeUS : 54934684, Roll : 5.67, Pitch : -4.04, Yaw : 359.69, Alt : 49.2099990845, Lat : 49.2835715, Lng : -123.1150184, Q1 : 0.998153328896, Q2 : 0.0493559390306, Q3 : -0.035400826484, Q4 : -0.000882107124198}
2019-04-14 17:08:06.81: SIM {TimeUS : 55034644, Roll : 5.97, Pitch : -4.24, Yaw : 359.7, Alt : 49.2200012207, Lat : 49.2835719, Lng : -123.1150178, Q1 : 0.997957110405, Q2 : 0.0520220249891, Q3 : -0.0370803773403, Q4 : -0.000603728869464}
2019-04-14 17:08:06.91: SIM {TimeUS : 55134604, Roll : 6.27, Pitch : -4.42, Yaw : 359.71, Alt : 49.2200012207, Lat : 49.2835721, Lng : -123.115017, Q1 : 0.997757315636, Q2 : 0.0546092987061, Q3 : -0.0387044586241, Q4 : -0.000347667053575}
2019-04-14 17:08:07.01: SIM {TimeUS : 55234564, Roll : 6.51, Pitch : -4.59, Yaw : 359.72, Alt : 49.2299995422, Lat : 49.2835726, Lng : -123.1150161, Q1 : 0.997586011887, Q2 : 0.0566794537008, Q3 : -0.0401198752224, Q4 : -0.000124429832795}
2019-04-14 17:08:07.12: SIM {TimeUS : 55335357, Roll : 6.69, Pitch : -4.71, Yaw : 359.73, Alt : 49.2400016785, Lat : 49.2835731, Lng : -123.1150151, Q1 : 0.997450530529, Q2 : 0.0582638159394, Q3 : -0.0412031747401, Q4 : 5.68958930671e-05}
2019-04-14 17:08:07.21: SIM {TimeUS : 55435317, Roll : 6.82, Pitch : -4.79, Yaw : 359.73, Alt : 49.2400016785, Lat : 49.2835734, Lng : -123.1150141, Q1 : 0.997355937958, Q2 : 0.0593661256135, Q3 : -0.0419140644372, Q4 : 0.000182751071407}
2019-04-14 17:08:07.31: SIM {TimeUS : 55535277, Roll : 6.92, Pitch : -4.86, Yaw : 359.73, Alt : 49.25, Lat : 49.283574, Lng : -123.115013, Q1 : 0.997279047966, Q2 : 0.0602473206818, Q3 : -0.0424813814461, Q4 : 0.000263164518401}
2019-04-14 17:08:07.41: SIM {TimeUS : 55635237, Roll : 7.05, Pitch : -4.93, Yaw : 359.73, Alt : 49.25, Lat : 49.2835745, Lng : -123.1150118, Q1 : 0.997183978558, Q2 : 0.0613402426243, Q3 : -0.043143555522, Q4 : 0.000314936187351}
2019-04-14 17:08:07.51: SIM {TimeUS : 55735197, Roll : 7.33, Pitch : -4.94, Yaw : 359.79, Alt : 49.25, Lat : 49.2835751, Lng : -123.1150105, Q1 : 0.997027695179, Q2 : 0.0637997016311, Q3 : -0.0431786477566, Q4 : 0.000964864389971}
2019-04-14 17:08:07.61: SIM {TimeUS : 55835157, Roll : 7.84, Pitch : -4.78, Yaw : 0.35, Alt : 49.2599983215, Lat : 49.2835758, Lng : -123.1150091, Q1 : 0.996772527695, Q2 : 0.0685090944171, Q3 : -0.0414167121053, Q4 : 0.00598108721897}
2019-04-14 17:08:07.71: SIM {TimeUS : 55935117, Roll : 8.49, Pitch : -4.62, Yaw : 2.1, Alt : 49.2599983215, Lat : 49.2835764, Lng : -123.1150076, Q1 : 0.996219336987, Q2 : 0.0747307911515, Q3 : -0.0388445556164, Q4 : 0.0212953519076}
2019-04-14 17:08:07.81: SIM {TimeUS : 56035077, Roll : 8.99, Pitch : -4.82, Yaw : 5.41, Alt : 49.2599983215, Lat : 49.2835771, Lng : -123.115006, Q1 : 0.994767189026, Q2 : 0.0802661329508, Q3 : -0.0381765663624, Q4 : 0.0503802001476}
2019-04-14 17:08:07.91: SIM {TimeUS : 56135037, Roll : 9.13, Pitch : -5.55, Yaw : 10.25, Alt : 49.2599983215, Lat : 49.2835779, Lng : -123.1150043, Q1 : 0.991321980953, Q2 : 0.083537325263, Q3 : -0.0410008914769, Q4 : 0.0928501561284}
2019-04-14 17:08:08.01: SIM {TimeUS : 56234997, Roll : 8.74, Pitch : -6.78, Yaw : 16.41, Alt : 49.2599983215, Lat : 49.2835787, Lng : -123.1150024, Q1 : 0.98450922966, Q2 : 0.0837161615491, Q3 : -0.0475512221456, Q4 : 0.146533474326}
2019-04-14 17:08:08.11: SIM {TimeUS : 56334957, Roll : 7.73, Pitch : -8.33, Yaw : 23.63, Alt : 49.2700004578, Lat : 49.2835794, Lng : -123.1150005, Q1 : 0.972988724709, Q2 : 0.0807041078806, Q3 : -0.0571909062564, Q4 : 0.20858810842}
2019-04-14 17:08:08.21: SIM {TimeUS : 56434917, Roll : 6.14, Pitch : -9.96, Yaw : 31.67, Alt : 49.2700004578, Lat : 49.28358, Lng : -123.1149984, Q1 : 0.95575684309, Q2 : 0.075017310679, Q3 : -0.0688465833664, Q4 : 0.275973677635}
2019-04-14 17:08:08.31: SIM {TimeUS : 56534877, Roll : 4.03, Pitch : -11.44, Yaw : 40.27, Alt : 49.2700004578, Lat : 49.2835808, Lng : -123.1149962, Q1 : 0.932407975197, Q2 : 0.0671981275082, Q3 : -0.0815116912127, Q4 : 0.345623552799}
2019-04-14 17:08:08.41: SIM {TimeUS : 56634837, Roll : 1.29, Pitch : -12.56, Yaw : 49.01, Alt : 49.2700004578, Lat : 49.2835818, Lng : -123.1149938, Q1 : 0.903884708881, Q2 : 0.0556431896985, Q3 : -0.0949091240764, Q4 : 0.413386613131}
2019-04-14 17:08:08.51: SIM {TimeUS : 56734797, Roll : -1.88, Pitch : -13.13, Yaw : 57.07, Alt : 49.2700004578, Lat : 49.2835825, Lng : -123.1149916, Q1 : 0.873534321785, Q2 : 0.0403117090464, Q3 : -0.108277544379, Q4 : 0.472851723433}
2019-04-14 17:08:08.61: SIM {TimeUS : 56834757, Roll : -4.87, Pitch : -13.18, Yaw : 63.59, Alt : 49.2700004578, Lat : 49.2835836, Lng : -123.1149891, Q1 : 0.846100091934, Q2 : 0.0245056468993, Q3 : -0.119751252234, Q4 : 0.518819570541}
2019-04-14 17:08:08.71: SIM {TimeUS : 56934717, Roll : -7.1, Pitch : -12.91, Yaw : 68.08, Alt : 49.2700004578, Lat : 49.2835847, Lng : -123.1149866, Q1 : 0.825682938099, Q2 : 0.0118529051542, Q3 : -0.127509817481, Q4 : 0.549407303333}
2019-04-14 17:08:08.81: SIM {TimeUS : 57034677, Roll : -8.26, Pitch : -12.63, Yaw : 70.49, Alt : 49.2700004578, Lat : 49.2835858, Lng : -123.114984, Q1 : 0.814156234264, Q2 : 0.00487366179004, Q3 : -0.13093650341, Q4 : 0.565669119358}
2019-04-14 17:08:08.91: SIM {TimeUS : 57134637, Roll : -8.36, Pitch : -12.54, Yaw : 71.09, Alt : 49.2700004578, Lat : 49.2835871, Lng : -123.1149814, Q1 : 0.811236619949, Q2 : 0.00434910785407, Q3 : -0.130797415972, Q4 : 0.569884479046}
2019-04-14 17:08:09.01: SIM {TimeUS : 57234597, Roll : -7.61, Pitch : -12.73, Yaw : 70.23, Alt : 49.2700004578, Lat : 49.2835885, Lng : -123.1149787, Q1 : 0.815366089344, Q2 : 0.00966427754611, Q3 : -0.128493994474, Q4 : 0.564423680305}
2019-04-14 17:08:09.11: SIM {TimeUS : 57334557, Roll : -6.24, Pitch : -13.2, Yaw : 68.28, Alt : 49.2700004578, Lat : 49.2835898, Lng : -123.114976, Q1 : 0.824461638927, Q2 : 0.0196443498135, Q3 : -0.125421345234, Q4 : 0.551494896412}
2019-04-14 17:08:09.22: SIM {TimeUS : 57435350, Roll : -4.49, Pitch : -13.89, Yaw : 65.54, Alt : 49.2799987793, Lat : 49.2835915, Lng : -123.1149731, Q1 : 0.836562097073, Q2 : 0.0327144525945, Q3 : -0.122661970556, Q4 : 0.532961189747}
2019-04-14 17:08:09.31: SIM {TimeUS : 57535310, Roll : -2.58, Pitch : -14.62, Yaw : 62.39, Alt : 49.2799987793, Lat : 49.2835931, Lng : -123.1149703, Q1 : 0.849713385105, Q2 : 0.0467877089977, Q3 : -0.12044352293, Q4 : 0.51116669178}
2019-04-14 17:08:09.41: SIM {TimeUS : 57635270, Roll : -0.7, Pitch : -15.26, Yaw : 59.1, Alt : 49.2799987793, Lat : 49.2835946, Lng : -123.1149673, Q1 : 0.862585783005, Q2 : 0.0602208599448, Q3 : -0.118501834571, Q4 : 0.488135755062}
2019-04-14 17:08:09.51: SIM {TimeUS : 57735230, Roll : 0.98, Pitch : -15.68, Yaw : 56.02, Alt : 49.2799987793, Lat : 49.2835963, Lng : -123.1149642, Q1 : 0.874014258385, Q2 : 0.0716178864241, Q3 : -0.116468511522, Q4 : 0.46626713872}
2019-04-14 17:08:09.61: SIM {TimeUS : 57835190, Roll : 2.34, Pitch : -15.88, Yaw : 53.44, Alt : 49.2799987793, Lat : 49.283598, Lng : -123.114961, Q1 : 0.883158326149, Q2 : 0.0802127569914, Q3 : -0.114251166582, Q4 : 0.447821348906}
2019-04-14 17:08:09.71: SIM {TimeUS : 57935150, Roll : 3.26, Pitch : -15.91, Yaw : 51.59, Alt : 49.2799987793, Lat : 49.2835996, Lng : -123.1149577, Q1 : 0.889596879482, Q2 : 0.0856486558914, Q3 : -0.112277440727, Q4 : 0.434367865324}
2019-04-14 17:08:09.81: SIM {TimeUS : 58035110, Roll : 3.7, Pitch : -15.87, Yaw : 50.53, Alt : 49.2799987793, Lat : 49.2836013, Lng : -123.1149543, Q1 : 0.893275856972, Q2 : 0.0878603905439, Q3 : -0.111123494804, Q4 : 0.426603287458}
2019-04-14 17:08:09.91: SIM {TimeUS : 58135070, Roll : 3.66, Pitch : -15.83, Yaw : 50.26, Alt : 49.2799987793, Lat : 49.283603, Lng : -123.1149507, Q1 : 0.894375622272, Q2 : 0.0871182903647, Q3 : -0.111212417483, Q4 : 0.42442253232}
2019-04-14 17:08:10.01: SIM {TimeUS : 58235030, Roll : 3.22, Pitch : -15.83, Yaw : 50.66, Alt : 49.2799987793, Lat : 49.2836047, Lng : -123.114947, Q1 : 0.893225967884, Q2 : 0.0841188058257, Q3 : -0.112486213446, Q4 : 0.427104502916}
2019-04-14 17:08:10.11: SIM {TimeUS : 58334990, Roll : 2.53, Pitch : -15.87, Yaw : 51.57, Alt : 49.2799987793, Lat : 49.2836063, Lng : -123.1149432, Q1 : 0.890248000622, Q2 : 0.0797923281789, Q3 : -0.114806935191, Q4 : 0.433487147093}
2019-04-14 17:08:10.21: SIM {TimeUS : 58434950, Roll : 1.67, Pitch : -15.97, Yaw : 52.8, Alt : 49.2799987793, Lat : 49.283608, Lng : -123.1149393, Q1 : 0.885991036892, Q2 : 0.0747248381376, Q3 : -0.118049763143, Q4 : 0.442154228687}
2019-04-14 17:08:10.31: SIM {TimeUS : 58534910, Roll : 0.77, Pitch : -16.11, Yaw : 54.18, Alt : 49.2799987793, Lat : 49.2836098, Lng : -123.1149354, Q1 : 0.88104313612, Q2 : 0.0697976946831, Q3 : -0.121700048447, Q4 : 0.451752543449}
2019-04-14 17:08:10.41: SIM {TimeUS : 58634870, Roll : -0.02, Pitch : -16.22, Yaw : 55.52, Alt : 49.2900009155, Lat : 49.2836116, Lng : -123.1149313, Q1 : 0.876053988934, Q2 : 0.0655598640442, Q3 : -0.124993830919, Q4 : 0.461094200611}
2019-04-14 17:08:10.51: SIM {TimeUS : 58734830, Roll : -0.68, Pitch : -16.31, Yaw : 56.68, Alt : 49.2900009155, Lat : 49.2836134, Lng : -123.1149272, Q1 : 0.871603429317, Q2 : 0.0621740967035, Q3 : -0.127666473389, Q4 : 0.469194144011}
2019-04-14 17:08:10.61: SIM {TimeUS : 58834790, Roll : -1.16, Pitch : -16.38, Yaw : 57.57, Alt : 49.2900009155, Lat : 49.2836152, Lng : -123.1149231, Q1 : 0.86811709404, Q2 : 0.059760723263, Q3 : -0.129712238908, Q4 : 0.475369542837}
2019-04-14 17:08:10.71: SIM {TimeUS : 58934750, Roll : -1.45, Pitch : -16.43, Yaw : 58.14, Alt : 49.2900009155, Lat : 49.2836171, Lng : -123.1149189, Q1 : 0.865846455097, Q2 : 0.0584609992802, Q3 : -0.131021350622, Q4 : 0.479297101498}
2019-04-14 17:08:10.81: SIM {TimeUS : 59034710, Roll : -1.53, Pitch : -16.48, Yaw : 58.37, Alt : 49.2900009155, Lat : 49.2836189, Lng : -123.1149147, Q1 : 0.864851713181, Q2 : 0.0583183281124, Q3 : -0.131631538272, Q4 : 0.480940401554}
2019-04-14 17:08:10.91: SIM {TimeUS : 59134670, Roll : -1.43, Pitch : -16.52, Yaw : 58.31, Alt : 49.2900009155, Lat : 49.2836208, Lng : -123.1149104, Q1 : 0.865035772324, Q2 : 0.0591412633657, Q3 : -0.131531208754, Q4 : 0.480536162853}
2019-04-14 17:08:11.01: SIM {TimeUS : 59234630, Roll : -1.19, Pitch : -16.55, Yaw : 58.0, Alt : 49.2900009155, Lat : 49.2836227, Lng : -123.1149061, Q1 : 0.866156935692, Q2 : 0.0607992261648, Q3 : -0.130909696221, Q4 : 0.478475004435}
2019-04-14 17:08:11.11: SIM {TimeUS : 59334590, Roll : -0.84, Pitch : -16.59, Yaw : 57.53, Alt : 49.2900009155, Lat : 49.2836248, Lng : -123.1149017, Q1 : 0.867905139923, Q2 : 0.0630312785506, Q3 : -0.130008757114, Q4 : 0.475253045559}
2019-04-14 17:08:11.21: SIM {TimeUS : 59434550, Roll : -0.46, Pitch : -16.63, Yaw : 56.97, Alt : 49.2900009155, Lat : 49.2836268, Lng : -123.1148973, Q1 : 0.869969129562, Q2 : 0.0654815062881, Q3 : -0.129031717777, Q4 : 0.471398621798}
2019-04-14 17:08:11.32: SIM {TimeUS : 59535343, Roll : -0.07, Pitch : -16.66, Yaw : 56.39, Alt : 49.2900009155, Lat : 49.2836287, Lng : -123.1148928, Q1 : 0.872081398964, Q2 : 0.0678982287645, Q3 : -0.128074645996, Q4 : 0.467397928238}
2019-04-14 17:08:11.41: SIM {TimeUS : 59635303, Roll : 0.25, Pitch : -16.7, Yaw : 55.86, Alt : 49.2900009155, Lat : 49.2836309, Lng : -123.1148883, Q1 : 0.873972952366, Q2 : 0.0699694529176, Q3 : -0.127334699035, Q4 : 0.463747143745}
2019-04-14 17:08:11.51: SIM {TimeUS : 59735263, Roll : 0.49, Pitch : -16.73, Yaw : 55.43, Alt : 49.2900009155, Lat : 49.2836329, Lng : -123.1148838, Q1 : 0.875510931015, Q2 : 0.0714826360345, Q3 : -0.126841187477, Q4 : 0.460740864277}
2019-04-14 17:08:11.61: SIM {TimeUS : 59835223, Roll : 0.64, Pitch : -16.77, Yaw : 55.13, Alt : 49.2900009155, Lat : 49.2836349, Lng : -123.1148792, Q1 : 0.876581370831, Q2 : 0.0724320784211, Q3 : -0.126700550318, Q4 : 0.458590984344}
2019-04-14 17:08:11.71: SIM {TimeUS : 59935183, Roll : 0.69, Pitch : -16.81, Yaw : 54.97, Alt : 49.2900009155, Lat : 49.283637, Lng : -123.1148746, Q1 : 0.877153813839, Q2 : 0.0728058889508, Q3 : -0.126898616552, Q4 : 0.457380890846}
2019-04-14 17:08:11.81: SIM {TimeUS : 60035143, Roll : 0.66, Pitch : -16.86, Yaw : 54.93, Alt : 49.2900009155, Lat : 49.283639, Lng : -123.11487, Q1 : 0.877260684967, Q2 : 0.0726919472218, Q3 : -0.127442717552, Q4 : 0.457042634487}
2019-04-14 17:08:11.91: SIM {TimeUS : 60135103, Roll : 0.54, Pitch : -16.9, Yaw : 55.01, Alt : 49.2900009155, Lat : 49.2836412, Lng : -123.1148653, Q1 : 0.877002060413, Q2 : 0.0720150545239, Q3 : -0.12819442153, Q4 : 0.457435697317}
2019-04-14 17:08:12.01: SIM {TimeUS : 60235063, Roll : 0.36, Pitch : -16.92, Yaw : 55.16, Alt : 49.2999992371, Lat : 49.2836432, Lng : -123.1148605, Q1 : 0.876481473446, Q2 : 0.0709753111005, Q3 : -0.128988400102, Q4 : 0.458371847868}
2019-04-14 17:08:12.11: SIM {TimeUS : 60335023, Roll : 0.18, Pitch : -16.95, Yaw : 55.35, Alt : 49.2999992371, Lat : 49.2836454, Lng : -123.1148557, Q1 : 0.875787496567, Q2 : 0.0698594301939, Q3 : -0.129840970039, Q4 : 0.459627270699}
2019-04-14 17:08:12.21: SIM {TimeUS : 60434983, Roll : 0.01, Pitch : -16.99, Yaw : 55.56, Alt : 49.2999992371, Lat : 49.2836475, Lng : -123.1148509, Q1 : 0.875003457069, Q2 : 0.0690264105797, Q3 : -0.13066855073, Q4 : 0.461009800434}
2019-04-14 17:08:12.31: SIM {TimeUS : 60534943, Roll : -0.09, Pitch : -17.03, Yaw : 55.75, Alt : 49.2999992371, Lat : 49.2836495, Lng : -123.1148461, Q1 : 0.874240756035, Q2 : 0.068537093699, Q3 : -0.13132570684, Q4 : 0.462341099977}
2019-04-14 17:08:12.41: SIM {TimeUS : 60634903, Roll : -0.16, Pitch : -17.08, Yaw : 55.91, Alt : 49.2999992371, Lat : 49.2836517, Lng : -123.1148413, Q1 : 0.873579263687, Q2 : 0.0683874711394, Q3 : -0.131860077381, Q4 : 0.463460206985}
2019-04-14 17:08:12.51: SIM {TimeUS : 60734863, Roll : -0.19, Pitch : -17.13, Yaw : 56.03, Alt : 49.2999992371, Lat : 49.2836539, Lng : -123.1148364, Q1 : 0.873071730137, Q2 : 0.0685401782393, Q3 : -0.132305502892, Q4 : 0.464266359806}
2019-04-14 17:08:12.61: SIM {TimeUS : 60834823, Roll : -0.2, Pitch : -17.17, Yaw : 56.09, Alt : 49.2999992371, Lat : 49.283656, Lng : -123.1148315, Q1 : 0.8727876544, Q2 : 0.0686775892973, Q3 : -0.132615342736, Q4 : 0.464691579342}
2019-04-14 17:08:12.71: SIM {TimeUS : 60934783, Roll : -0.2, Pitch : -17.18, Yaw : 56.1, Alt : 49.2999992371, Lat : 49.2836582, Lng : -123.1148266, Q1 : 0.872745931149, Q2 : 0.0687219724059, Q3 : -0.132714673877, Q4 : 0.464735031128}
2019-04-14 17:08:12.81: SIM {TimeUS : 61034743, Roll : -0.19, Pitch : -17.19, Yaw : 56.05, Alt : 49.2999992371, Lat : 49.2836603, Lng : -123.1148216, Q1 : 0.872898280621, Q2 : 0.0688130259514, Q3 : -0.132749587297, Q4 : 0.464425355196}
2019-04-14 17:08:12.91: SIM {TimeUS : 61134703, Roll : -0.14, Pitch : -17.2, Yaw : 55.98, Alt : 49.3100013733, Lat : 49.2836626, Lng : -123.1148167, Q1 : 0.873181760311, Q2 : 0.0690750181675, Q3 : -0.132660016418, Q4 : 0.46387887001}
2019-04-14 17:08:13.01: SIM {TimeUS : 61234663, Roll : -0.08, Pitch : -17.2, Yaw : 55.88, Alt : 49.3100013733, Lat : 49.2836647, Lng : -123.1148117, Q1 : 0.873544752598, Q2 : 0.069479458034, Q3 : -0.132504552603, Q4 : 0.463178932667}
2019-04-14 17:08:13.11: SIM {TimeUS : 61334623, Roll : 0.0, Pitch : -17.24, Yaw : 55.76, Alt : 49.3100013733, Lat : 49.283667, Lng : -123.1148067, Q1 : 0.87390512228, Q2 : 0.0701224729419, Q3 : -0.132479727268, Q4 : 0.462408751249}
2019-04-14 17:08:13.21: SIM {TimeUS : 61434583, Roll : 0.08, Pitch : -17.3, Yaw : 55.65, Alt : 49.3100013733, Lat : 49.2836693, Lng : -123.1148017, Q1 : 0.874231994152, Q2 : 0.0708793997765, Q3 : -0.132655799389, Q4 : 0.461624294519}
2019-04-14 17:08:13.31: SIM {TimeUS : 61534543, Roll : 0.15, Pitch : -17.34, Yaw : 55.55, Alt : 49.3100013733, Lat : 49.2836714, Lng : -123.1147966, Q1 : 0.874544799328, Q2 : 0.0714607611299, Q3 : -0.132755324244, Q4 : 0.460912972689}
2019-04-14 17:08:13.42: SIM {TimeUS : 61635336, Roll : 0.2, Pitch : -17.35, Yaw : 55.47, Alt : 49.3100013733, Lat : 49.2836737, Lng : -123.1147915, Q1 : 0.874825656414, Q2 : 0.0717978999019, Q3 : -0.132706671953, Q4 : 0.460341364145}
2019-04-14 17:08:13.51: SIM {TimeUS : 61735296, Roll : 0.22, Pitch : -17.36, Yaw : 55.41, Alt : 49.3100013733, Lat : 49.283676, Lng : -123.1147865, Q1 : 0.87503528595, Q2 : 0.0718805268407, Q3 : -0.132767498493, Q4 : 0.459912210703}
2019-04-14 17:08:13.61: SIM {TimeUS : 61835256, Roll : 0.21, Pitch : -17.39, Yaw : 55.38, Alt : 49.3100013733, Lat : 49.2836783, Lng : -123.1147814, Q1 : 0.875152468681, Q2 : 0.0718813687563, Q3 : -0.133004754782, Q4 : 0.459620475769}
2019-04-14 17:08:13.71: SIM {TimeUS : 61935216, Roll : 0.2, Pitch : -17.41, Yaw : 55.37, Alt : 49.3100013733, Lat : 49.2836804, Lng : -123.1147763, Q1 : 0.875184237957, Q2 : 0.071883700788, Q3 : -0.133229866624, Q4 : 0.459494441748}
2019-04-14 17:08:13.81: SIM {TimeUS : 62035176, Roll : 0.18, Pitch : -17.44, Yaw : 55.37, Alt : 49.3100013733, Lat : 49.2836828, Lng : -123.1147711, Q1 : 0.875152170658, Q2 : 0.0718419253826, Q3 : -0.133536577225, Q4 : 0.459472954273}
2019-04-14 17:08:13.91: SIM {TimeUS : 62135136, Roll : 0.15, Pitch : -17.46, Yaw : 55.38, Alt : 49.3100013733, Lat : 49.2836851, Lng : -123.114766, Q1 : 0.875089049339, Q2 : 0.0717613920569, Q3 : -0.133782893419, Q4 : 0.459534168243}
2019-04-14 17:08:14.01: SIM {TimeUS : 62235096, Roll : 0.14, Pitch : -17.48, Yaw : 55.4, Alt : 49.3100013733, Lat : 49.2836874, Lng : -123.1147608, Q1 : 0.874996244907, Q2 : 0.0717729702592, Q3 : -0.134003460407, Q4 : 0.459644794464}
2019-04-14 17:08:14.11: SIM {TimeUS : 62335056, Roll : 0.13, Pitch : -17.5, Yaw : 55.42, Alt : 49.3199996948, Lat : 49.2836896, Lng : -123.1147557, Q1 : 0.874910771847, Q2 : 0.0717427060008, Q3 : -0.134164437652, Q4 : 0.459765136242}
2019-04-14 17:08:14.21: SIM {TimeUS : 62435016, Roll : 0.12, Pitch : -17.52, Yaw : 55.44, Alt : 49.3199996948, Lat : 49.2836919, Lng : -123.1147505, Q1 : 0.874826133251, Q2 : 0.0717818811536, Q3 : -0.134335711598, Q4 : 0.459870159626}
2019-04-14 17:08:14.31: SIM {TimeUS : 62534976, Roll : 0.11, Pitch : -17.54, Yaw : 55.45, Alt : 49.3199996948, Lat : 49.2836943, Lng : -123.1147453, Q1 : 0.874756574631, Q2 : 0.071875564754, Q3 : -0.134537830949, Q4 : 0.459928661585}
2019-04-14 17:08:14.41: SIM {TimeUS : 62634936, Roll : 0.1, Pitch : -17.58, Yaw : 55.45, Alt : 49.3199996948, Lat : 49.2836966, Lng : -123.1147401, Q1 : 0.874714612961, Q2 : 0.0719283893704, Q3 : -0.134873896837, Q4 : 0.459901839495}
2019-04-14 17:08:14.51: SIM {TimeUS : 62734896, Roll : 0.07, Pitch : -17.62, Yaw : 55.44, Alt : 49.3199996948, Lat : 49.2836989, Lng : -123.1147348, Q1 : 0.874706327915, Q2 : 0.0718522444367, Q3 : -0.135327652097, Q4 : 0.459796190262}
2019-04-14 17:08:14.61: SIM {TimeUS : 62834856, Roll : 0.05, Pitch : -17.66, Yaw : 55.43, Alt : 49.3199996948, Lat : 49.2837011, Lng : -123.1147296, Q1 : 0.874717891216, Q2 : 0.071851529181, Q3 : -0.135741487145, Q4 : 0.459652364254}
2019-04-14 17:08:14.71: SIM {TimeUS : 62934816, Roll : 0.07, Pitch : -17.69, Yaw : 55.41, Alt : 49.3199996948, Lat : 49.2837034, Lng : -123.1147243, Q1 : 0.874750196934, Q2 : 0.0720632597804, Q3 : -0.13591735065, Q4 : 0.459505677223}
2019-04-14 17:08:14.81: SIM {TimeUS : 63034776, Roll : 0.1, Pitch : -17.7, Yaw : 55.38, Alt : 49.3199996948, Lat : 49.2837059, Lng : -123.114719, Q1 : 0.874823749065, Q2 : 0.0723295286298, Q3 : -0.135802850127, Q4 : 0.45935767889}
2019-04-14 17:08:14.91: SIM {TimeUS : 63134736, Roll : 0.14, Pitch : -17.68, Yaw : 55.36, Alt : 49.3199996948, Lat : 49.2837082, Lng : -123.1147138, Q1 : 0.874935030937, Q2 : 0.0724970623851, Q3 : -0.135539904237, Q4 : 0.459196984768}
2019-04-14 17:08:15.01: SIM {TimeUS : 63234696, Roll : 0.15, Pitch : -17.66, Yaw : 55.33, Alt : 49.3199996948, Lat : 49.2837106, Lng : -123.1147085, Q1 : 0.875064492226, Q2 : 0.072462618351, Q3 : -0.135390654206, Q4 : 0.458999663591}
2019-04-14 17:08:15.11: SIM {TimeUS : 63334656, Roll : 0.15, Pitch : -17.65, Yaw : 55.3, Alt : 49.3199996948, Lat : 49.2837129, Lng : -123.1147032, Q1 : 0.875195741653, Q2 : 0.0723568946123, Q3 : -0.135307818651, Q4 : 0.458790451288}
2019-04-14 17:08:15.21: SIM {TimeUS : 63434616, Roll : 0.14, Pitch : -17.63, Yaw : 55.27, Alt : 49.3199996948, Lat : 49.2837153, Lng : -123.1146979, Q1 : 0.875324547291, Q2 : 0.0722313821316, Q3 : -0.135243982077, Q4 : 0.458583414555}
2019-04-14 17:08:15.31: SIM {TimeUS : 63534576, Roll : 0.14, Pitch : -17.65, Yaw : 55.25, Alt : 49.3199996948, Lat : 49.2837175, Lng : -123.1146926, Q1 : 0.875411331654, Q2 : 0.0722289383411, Q3 : -0.135378375649, Q4 : 0.45837828517}
2019-04-14 17:08:15.41: SIM {TimeUS : 63634536, Roll : 0.13, Pitch : -17.68, Yaw : 55.23, Alt : 49.3199996948, Lat : 49.2837199, Lng : -123.1146873, Q1 : 0.875462889671, Q2 : 0.0723136886954, Q3 : -0.135648936033, Q4 : 0.458186507225}
2019-04-14 17:08:15.51: SIM {TimeUS : 63735329, Roll : 0.13, Pitch : -17.73, Yaw : 55.21, Alt : 49.3199996948, Lat : 49.2837223, Lng : -123.1146819, Q1 : 0.8754748106, Q2 : 0.0724529623985, Q3 : -0.136069118977, Q4 : 0.458016961813}
2019-04-14 17:08:15.61: SIM {TimeUS : 63835289, Roll : 0.13, Pitch : -17.79, Yaw : 55.19, Alt : 49.3300018311, Lat : 49.2837247, Lng : -123.1146764, Q1 : 0.875465154648, Q2 : 0.0726388916373, Q3 : -0.136505618691, Q4 : 0.457876175642}
2019-04-14 17:08:15.71: SIM {TimeUS : 63935249, Roll : 0.13, Pitch : -17.81, Yaw : 55.18, Alt : 49.3300018311, Lat : 49.2837271, Lng : -123.1146712, Q1 : 0.875467598438, Q2 : 0.0728017315269, Q3 : -0.136697694659, Q4 : 0.457788318396}
2019-04-14 17:08:15.81: SIM {TimeUS : 64035209, Roll : 0.13, Pitch : -17.84, Yaw : 55.17, Alt : 49.3300018311, Lat : 49.2837295, Lng : -123.1146658, Q1 : 0.875478386879, Q2 : 0.0728649348021, Q3 : -0.136890247464, Q4 : 0.457700163126}
2019-04-14 17:08:15.91: SIM {TimeUS : 64135169, Roll : 0.13, Pitch : -17.85, Yaw : 55.17, Alt : 49.3300018311, Lat : 49.2837319, Lng : -123.1146605, Q1 : 0.8755017519, Q2 : 0.0728582069278, Q3 : -0.13702429831, Q4 : 0.457616358995}
2019-04-14 17:08:16.01: SIM {TimeUS : 64235129, Roll : 0.14, Pitch : -17.84, Yaw : 55.16, Alt : 49.3300018311, Lat : 49.2837343, Lng : -123.1146551, Q1 : 0.875534415245, Q2 : 0.0729164034128, Q3 : -0.136926904321, Q4 : 0.457573711872}
2019-04-14 17:08:16.11: SIM {TimeUS : 64335089, Roll : 0.16, Pitch : -17.85, Yaw : 55.15, Alt : 49.3300018311, Lat : 49.2837367, Lng : -123.1146497, Q1 : 0.8755428195, Q2 : 0.0731211602688, Q3 : -0.136880457401, Q4 : 0.45753890276}
2019-04-14 17:08:16.21: SIM {TimeUS : 64435049, Roll : 0.18, Pitch : -17.87, Yaw : 55.14, Alt : 49.3300018311, Lat : 49.2837391, Lng : -123.1146443, Q1 : 0.875541508198, Q2 : 0.0732979401946, Q3 : -0.136989355087, Q4 : 0.457480460405}
2019-04-14 17:08:16.31: SIM {TimeUS : 64535009, Roll : 0.18, Pitch : -17.89, Yaw : 55.13, Alt : 49.3300018311, Lat : 49.2837415, Lng : -123.1146389, Q1 : 0.87555116415, Q2 : 0.0733994916081, Q3 : -0.137087315321, Q4 : 0.45741635561}
2019-04-14 17:08:16.41: SIM {TimeUS : 64634969, Roll : 0.19, Pitch : -17.88, Yaw : 55.12, Alt : 49.3300018311, Lat : 49.2837439, Lng : -123.1146335, Q1 : 0.875591516495, Q2 : 0.07342518121, Q3 : -0.137038081884, Q4 : 0.457349866629}
2019-04-14 17:08:16.51: SIM {TimeUS : 64734929, Roll : 0.18, Pitch : -17.88, Yaw : 55.11, Alt : 49.3300018311, Lat : 49.2837463, Lng : -123.1146281, Q1 : 0.875639021397, Q2 : 0.0733728483319, Q3 : -0.137087404728, Q4 : 0.457252502441}
2019-04-14 17:08:16.61: SIM {TimeUS : 64834889, Roll : 0.16, Pitch : -17.91, Yaw : 55.1, Alt : 49.3300018311, Lat : 49.2837486, Lng : -123.1146227, Q1 : 0.875680744648, Q2 : 0.0732584670186, Q3 : -0.137375548482, Q4 : 0.457104384899}
2019-04-14 17:08:16.71: SIM {TimeUS : 64934849, Roll : 0.12, Pitch : -17.95, Yaw : 55.08, Alt : 49.3300018311, Lat : 49.283751, Lng : -123.1146172, Q1 : 0.875710308552, Q2 : 0.0731501877308, Q3 : -0.137883901596, Q4 : 0.456911891699}
2019-04-14 17:08:16.81: SIM {TimeUS : 65034809, Roll : 0.1, Pitch : -17.97, Yaw : 55.07, Alt : 49.3300018311, Lat : 49.2837534, Lng : -123.1146118, Q1 : 0.875768065453, Q2 : 0.0730556473136, Q3 : -0.13809761405, Q4 : 0.456751853228}
2019-04-14 17:08:16.91: SIM {TimeUS : 65134769, Roll : 0.11, Pitch : -17.97, Yaw : 55.05, Alt : 49.3300018311, Lat : 49.2837558, Lng : -123.1146064, Q1 : 0.875835955143, Q2 : 0.0730758532882, Q3 : -0.138029977679, Q4 : 0.456638783216}
2019-04-14 17:08:17.01: SIM {TimeUS : 65234729, Roll : 0.14, Pitch : -17.96, Yaw : 55.03, Alt : 49.3300018311, Lat : 49.2837583, Lng : -123.1146009, Q1 : 0.875895500183, Q2 : 0.0732067599893, Q3 : -0.137893229723, Q4 : 0.456544965506}
2019-04-14 17:08:17.11: SIM {TimeUS : 65334689, Roll : 0.16, Pitch : -17.96, Yaw : 55.02, Alt : 49.3300018311, Lat : 49.2837607, Lng : -123.1145955, Q1 : 0.875937521458, Q2 : 0.0733627080917, Q3 : -0.137871742249, Q4 : 0.456445813179}
2019-04-14 17:08:17.21: SIM {TimeUS : 65434649, Roll : 0.16, Pitch : -17.98, Yaw : 55.0, Alt : 49.3400001526, Lat : 49.2837631, Lng : -123.11459, Q1 : 0.875977933407, Q2 : 0.073402531445, Q3 : -0.137981548905, Q4 : 0.45632866025}
2019-04-14 17:08:17.31: SIM {TimeUS : 65534609, Roll : 0.14, Pitch : -17.99, Yaw : 54.99, Alt : 49.3400001526, Lat : 49.2837656, Lng : -123.1145846, Q1 : 0.8760227561, Q2 : 0.0732905119658, Q3 : -0.13818885386, Q4 : 0.456197887659}
2019-04-14 17:08:17.41: SIM {TimeUS : 65634569, Roll : 0.12, Pitch : -18.01, Yaw : 54.98, Alt : 49.3400001526, Lat : 49.283768, Lng : -123.1145791, Q1 : 0.87605369091, Q2 : 0.0732590928674, Q3 : -0.138387978077, Q4 : 0.456083148718}
2019-04-14 17:08:17.52: SIM {TimeUS : 65735362, Roll : 0.13, Pitch : -18.03, Yaw : 54.97, Alt : 49.3400001526, Lat : 49.2837704, Lng : -123.1145736, Q1 : 0.876074612141, Q2 : 0.0733788013458, Q3 : -0.138523072004, Q4 : 0.455982685089}
2019-04-14 17:08:17.61: SIM {TimeUS : 65835322, Roll : 0.14, Pitch : -18.05, Yaw : 54.95, Alt : 49.3400001526, Lat : 49.2837729, Lng : -123.1145681, Q1 : 0.876094281673, Q2 : 0.0735212564468, Q3 : -0.138601928949, Q4 : 0.455897986889}
2019-04-14 17:08:17.71: SIM {TimeUS : 65935282, Roll : 0.16, Pitch : -18.05, Yaw : 54.95, Alt : 49.3400001526, Lat : 49.2837753, Lng : -123.1145626, Q1 : 0.876106083393, Q2 : 0.0736992433667, Q3 : -0.138565897942, Q4 : 0.45585745573}
2019-04-14 17:08:17.81: SIM {TimeUS : 66035242, Roll : 0.18, Pitch : -18.07, Yaw : 54.94, Alt : 49.3400001526, Lat : 49.2837778, Lng : -123.1145571, Q1 : 0.8761048913, Q2 : 0.0738358646631, Q3 : -0.138620257378, Q4 : 0.455821126699}
2019-04-14 17:08:17.91: SIM {TimeUS : 66135202, Roll : 0.19, Pitch : -18.09, Yaw : 54.94, Alt : 49.3400001526, Lat : 49.2837802, Lng : -123.1145516, Q1 : 0.876094043255, Q2 : 0.073994487524, Q3 : -0.138717591763, Q4 : 0.455786705017}
2019-04-14 17:08:18.01: SIM {TimeUS : 66235162, Roll : 0.2, Pitch : -18.1, Yaw : 54.93, Alt : 49.3400001526, Lat : 49.2837828, Lng : -123.1145461, Q1 : 0.876082479954, Q2 : 0.0741723924875, Q3 : -0.138791814446, Q4 : 0.45575734973}
2019-04-14 17:08:18.11: SIM {TimeUS : 66335122, Roll : 0.23, Pitch : -18.11, Yaw : 54.93, Alt : 49.3400001526, Lat : 49.2837851, Lng : -123.1145407, Q1 : 0.876072227955, Q2 : 0.0743885114789, Q3 : -0.138787895441, Q4 : 0.455743104219}
2019-04-14 17:08:18.21: SIM {TimeUS : 66435082, Roll : 0.25, Pitch : -18.12, Yaw : 54.92, Alt : 49.3400001526, Lat : 49.2837877, Lng : -123.1145352, Q1 : 0.876056671143, Q2 : 0.0746407210827, Q3 : -0.138750910759, Q4 : 0.455743014812}
2019-04-14 17:08:18.31: SIM {TimeUS : 66535042, Roll : 0.25, Pitch : -18.11, Yaw : 54.92, Alt : 49.3400001526, Lat : 49.2837902, Lng : -123.1145296, Q1 : 0.876086711884, Q2 : 0.0745421648026, Q3 : -0.138708889484, Q4 : 0.455714195967}
2019-04-14 17:08:18.41: SIM {TimeUS : 66635002, Roll : 0.22, Pitch : -18.12, Yaw : 54.92, Alt : 49.3499984741, Lat : 49.2837926, Lng : -123.1145241, Q1 : 0.876114964485, Q2 : 0.0743284970522, Q3 : -0.13886256516, Q4 : 0.455647975206}
