2019-04-14 18:14:24.40: SIM {TimeUS : 40416327, Roll : 0.0, Pitch : 0.0, Yaw : 0.0, Alt : 30.1000003815, Lat : 49.28357, Lng : -123.11502, Q1 : 1.0, Q2 : 0.0, Q3 : 0.0, Q4 : 0.0}
2019-04-14 18:14:24.51: SIM {TimeUS : 40535446, Roll : 0.0, Pitch : 0.0, Yaw : 0.0, Alt : 30.1000003815, Lat : 49.28357, Lng : -123.11502, Q1 : 1.0, Q2 : 0.0, Q3 : 0.0, Q4 : 0.0}
2019-04-14 18:14:24.61: SIM {TimeUS : 40635406, Roll : 0.0, Pitch : 0.0, Yaw : 0.0, Alt : 30.1000003815, Lat : 49.28357, Lng : -123.11502, Q1 : 1.0, Q2 : 0.0, Q3 : 0.0, Q4 : 0.0}
2019-04-14 18:14:24.71: SIM {TimeUS : 40735366, Roll : 0.0, Pitch : 0.0, Yaw : 0.0, Alt : 30.1000003815, Lat : 49.28357, Lng : -123.11502, Q1 : 1.0, Q2 : 0.0, Q3 : 0.0, Q4 : 0.0}
2019-04-14 18:14:24.81: SIM {TimeUS : 40835326, Roll : 0.0, Pitch : 0.0, Yaw : 0.0, Alt : 30.1000003815, Lat : 49.28357, Lng : -123.11502, Q1 : 1.0, Q2 : 0.0, Q3 : 0.0, Q4 : 0.0}
2019-04-14 18:14:24.91: SIM {TimeUS : 40935286, Roll : 0.0, Pitch : 0.0, Yaw : 0.0, Alt : 30.1000003815, Lat : 49.28357, Lng : -123.11502, Q1 : 1.0, Q2 : 0.0, Q3 : 0.0, Q4 : 0.0}
2019-04-14 18:14:25.01: SIM {TimeUS : 41035246, Roll : 0.0, Pitch : 0.0, Yaw : 0.0, Alt : 30.1000003815, Lat : 49.28357, Lng : -123.11502, Q1 : 1.0, Q2 : 0.0, Q3 : 0.0, Q4 : 0.0}
2019-04-14 18:14:25.11: SIM {TimeUS : 41135206, Roll : 0.0, Pitch : 0.0, Yaw : 0.0, Alt : 30.1000003815, Lat : 49.28357, Lng : -123.11502, Q1 : 1.0, Q2 : 0.0, Q3 : 0.0, Q4 : 0.0}
2019-04-14 18:14:25.21: SIM {TimeUS : 41235166, Roll : 0.0, Pitch : 0.0, Yaw : 0.0, Alt : 30.1000003815, Lat : 49.28357, Lng : -123.11502, Q1 : 1.0, Q2 : 0.0, Q3 : 0.0, Q4 : 0.0}
2019-04-14 18:14:25.31: SIM {TimeUS : 41335126, Roll : 0.0, Pitch : 0.0, Yaw : 0.0, Alt : 30.1000003815, Lat : 49.28357, Lng : -123.11502, Q1 : 1.0, Q2 : 0.0, Q3 : 0.0, Q4 : 0.0}
2019-04-14 18:14:25.41: SIM {TimeUS : 41435086, Roll : 0.0, Pitch : 0.0, Yaw : 0.0, Alt : 30.1000003815, Lat : 49.28357, Lng : -123.11502, Q1 : 1.0, Q2 : 0.0, Q3 : 0.0, Q4 : 0.0}
2019-04-14 18:14:25.51: SIM {TimeUS : 41535046, Roll : 0.0, Pitch : 0.0, Yaw : 0.0, Alt : 30.1000003815, Lat : 49.28357, Lng : -123.11502, Q1 : 1.0, Q2 : 0.0, Q3 : 0.0, Q4 : 0.0}
2019-04-14 18:14:25.61: SIM {TimeUS : 41635006, Roll : 0.0, Pitch : 0.0, Yaw : 0.0, Alt : 30.1000003815, Lat : 49.28357, Lng : -123.11502, Q1 : 1.0, Q2 : 0.0, Q3 : 0.0, Q4 : 0.0}
2019-04-14 18:14:25.71: SIM {TimeUS : 41734966, Roll : 0.0, Pitch : 0.0, Yaw : 0.0, Alt : 30.1000003815, Lat : 49.28357, Lng : -123.11502, Q1 : 1.0, Q2 : 0.0, Q3 : 0.0, Q4 : 0.0}
2019-04-14 18:14:25.81: SIM {TimeUS : 41834926, Roll : 0.0, Pitch : 0.0, Yaw : 0.0, Alt : 30.1000003815, Lat : 49.28357, Lng : -123.11502, Q1 : 1.0, Q2 : 0.0, Q3 : 0.0, Q4 : 0.0}
2019-04-14 18:14:25.91: SIM {TimeUS : 41934886, Roll : 0.0, Pitch : 0.0, Yaw : 0.0, Alt : 30.1000003815, Lat : 49.28357, Lng : -123.11502, Q1 : 1.0, Q2 : 0.0, Q3 : 0.0, Q4 : 0.0}
2019-04-14 18:14:26.01: SIM {TimeUS : 42034846, Roll : 0.0, Pitch : 0.0, Yaw : 0.0, Alt : 30.1000003815, Lat : 49.28357, Lng : -123.11502, Q1 : 1.0, Q2 : 0.0, Q3 : 0.0, Q4 : 0.0}
2019-04-14 18:14:26.11: SIM {TimeUS : 42134806, Roll : 0.0, Pitch : 0.0, Yaw : 0.0, Alt : 30.1000003815, Lat : 49.28357, Lng : -123.11502, Q1 : 1.0, Q2 : 0.0, Q3 : 0.0, Q4 : 0.0}
2019-04-14 18:14:26.21: SIM {TimeUS : 42234766, Roll : 0.0, Pitch : 0.0, Yaw : 0.0, Alt : 30.1000003815, Lat : 49.28357, Lng : -123.11502, Q1 : 1.0, Q2 : 0.0, Q3 : 0.0, Q4 : 0.0}
2019-04-14 18:14:26.31: SIM {TimeUS : 42334726, Roll : 0.0, Pitch : 0.0, Yaw : 0.0, Alt : 30.1000003815, Lat : 49.28357, Lng : -123.11502, Q1 : 1.0, Q2 : 0.0, Q3 : 0.0, Q4 : 0.0}
2019-04-14 18:14:26.41: SIM {TimeUS : 42434686, Roll : 0.0, Pitch : 0.0, Yaw : 0.0, Alt : 30.1000003815, Lat : 49.28357, Lng : -123.11502, Q1 : 1.0, Q2 : 0.0, Q3 : 0.0, Q4 : 0.0}
2019-04-14 18:14:26.51: SIM {TimeUS : 42535479, Roll : 0.0, Pitch : 0.0, Yaw : 0.0, Alt : 30.1000003815, Lat : 49.28357, Lng : -123.11502, Q1 : 1.0, Q2 : 0.0, Q3 : 0.0, Q4 : 0.0}
2019-04-14 18:14:26.61: SIM {TimeUS : 42635439, Roll : 0.0, Pitch : 0.0, Yaw : 0.0, Alt : 30.1000003815, Lat : 49.28357, Lng : -123.11502, Q1 : 1.0, Q2 : 0.0, Q3 : 0.0, Q4 : 0.0}
2019-04-14 18:14:26.71: SIM {TimeUS : 42735399, Roll : 0.0, Pitch : 0.0, Yaw : 0.0, Alt : 30.1000003815, Lat : 49.28357, Lng : -123.11502, Q1 : 1.0, Q2 : 0.0, Q3 : 0.0, Q4 : 6.82903594784e-11}
2019-04-14 18:14:26.81: SIM {TimeUS : 42835359, Roll : 0.0, Pitch : 0.0, Yaw : 0.0, Alt : 30.1000003815, Lat : 49.28357, Lng : -123.11502, Q1 : 1.0, Q2 : 0.0, Q3 : 0.0, Q4 : 2.50326148699e-10}
2019-04-14 18:14:26.91: SIM {TimeUS : 42935319, Roll : 0.0, Pitch : 0.0, Yaw : 360.0, Alt : 30.1000003815, Lat : 49.28357, Lng : -123.11502, Q1 : 1.0, Q2 : 0.0, Q3 : 0.0, Q4 : -1.69380413695e-07}
2019-04-14 18:14:27.01: SIM {TimeUS : 43035279, Roll : 0.0, Pitch : 0.0, Yaw : 359.99, Alt : 30.1000003815, Lat : 49.28357, Lng : -123.11502, Q1 : 1.0, Q2 : 0.0, Q3 : 0.0, Q4 : -3.40988208336e-07}
2019-04-14 18:14:27.11: SIM {TimeUS : 43135239, Roll : 0.0, Pitch : 0.0, Yaw : 359.99, Alt : 30.1000003815, Lat : 49.28357, Lng : -123.11502, Q1 : 1.0, Q2 : 0.0, Q3 : 0.0, Q4 : -5.82690006468e-07}
2019-04-14 18:14:27.21: SIM {TimeUS : 43235199, Roll : 0.0, Pitch : 0.0, Yaw : 359.99, Alt : 30.1000003815, Lat : 49.28357, Lng : -123.11502, Q1 : 1.0, Q2 : 0.0, Q3 : 0.0, Q4 : -7.35430432997e-07}
2019-04-14 18:14:27.31: SIM {TimeUS : 43335159, Roll : 0.0, Pitch : 0.0, Yaw : 359.99, Alt : 30.1000003815, Lat : 49.28357, Lng : -123.11502, Q1 : 1.0, Q2 : 0.0, Q3 : 0.0, Q4 : -9.52079460603e-07}
2019-04-14 18:14:27.41: SIM {TimeUS : 43435119, Roll : 0.0, Pitch : 0.0, Yaw : 359.99, Alt : 30.1000003815, Lat : 49.28357, Lng : -123.11502, Q1 : 1.0, Q2 : 0.0, Q3 : 0.0, Q4 : -1.16489502489e-06}
2019-04-14 18:14:27.51: SIM {TimeUS : 43535079, Roll : 0.0, Pitch : 0.0, Yaw : 359.99, Alt : 30.1000003815, Lat : 49.28357, Lng : -123.11502, Q1 : 1.0, Q2 : 0.0, Q3 : 0.0, Q4 : -1.39515907449e-06}
2019-04-14 18:14:27.61: SIM {TimeUS : 43635039, Roll : 0.0, Pitch : 0.0, Yaw : 359.99, Alt : 30.1100006104, Lat : 49.28357, Lng : -123.11502, Q1 : 1.0, Q2 : 0.0, Q3 : 0.0, Q4 : -1.60542674621e-06}
2019-04-14 18:14:27.71: SIM {TimeUS : 43734999, Roll : 0.0, Pitch : 0.0, Yaw : 359.99, Alt : 30.1399993896, Lat : 49.28357, Lng : -123.11502, Q1 : 1.0, Q2 : 0.0, Q3 : 0.0, Q4 : -1.81684674772e-06}
2019-04-14 18:14:27.81: SIM {TimeUS : 43834959, Roll : 0.0, Pitch : 0.0, Yaw : 359.99, Alt : 30.1700000763, Lat : 49.28357, Lng : -123.11502, Q1 : 1.0, Q2 : 0.0, Q3 : 0.0, Q4 : -2.01687316803e-06}
2019-04-14 18:14:27.91: SIM {TimeUS : 43934919, Roll : 0.0, Pitch : 0.0, Yaw : 359.99, Alt : 30.2000007629, Lat : 49.28357, Lng : -123.11502, Q1 : 1.0, Q2 : 0.0, Q3 : 0.0, Q4 : -2.23960978474e-06}
2019-04-14 18:14:28.01: SIM {TimeUS : 44034879, Roll : -0.1, Pitch : -0.09, Yaw : 359.99, Alt : 30.25, Lat : 49.28357, Lng : -123.11502, Q1 : 0.999999284744, Q2 : -0.000878485443536, Q3 : -0.00081121257972, Q4 : -1.02490330391e-05}
2019-04-14 18:14:28.11: SIM {TimeUS : 44134839, Roll : -0.4, Pitch : -0.36, Yaw : 359.99, Alt : 30.3400001526, Lat : 49.28357, Lng : -123.11502, Q1 : 0.999988555908, Q2 : -0.00355583406053, Q3 : -0.00321069499478, Q4 : -4.26897859143e-05}
2019-04-14 18:14:28.21: SIM {TimeUS : 44234799, Roll : -0.72, Pitch : -0.63, Yaw : 359.99, Alt : 30.4899997711, Lat : 49.28357, Lng : -123.11502, Q1 : 0.99996483326, Q2 : -0.00629360647872, Q3 : -0.00554111786187, Q4 : -0.000101050100056}
2019-04-14 18:14:28.31: SIM {TimeUS : 44334759, Roll : -0.89, Pitch : -0.77, Yaw : 359.98, Alt : 30.6499996185, Lat : 49.28357, Lng : -123.11502, Q1 : 0.99994713068, Q2 : -0.00777175882831, Q3 : -0.00673095555976, Q4 : -0.000182999516255}
2019-04-14 18:14:28.41: SIM {TimeUS : 44434719, Roll : -0.86, Pitch : -0.77, Yaw : 359.97, Alt : 30.8099994659, Lat : 49.28357, Lng : -123.11502, Q1 : 0.999948740005, Q2 : -0.00754535570741, Q3 : -0.00674771843478, Q4 : -0.000271660625003}
2019-04-14 18:14:28.51: SIM {TimeUS : 44534679, Roll : -0.7, Pitch : -0.64, Yaw : 359.96, Alt : 30.9599990845, Lat : 49.28357, Lng : -123.1150201, Q1 : 0.999965310097, Q2 : -0.00611761957407, Q3 : -0.00563448667526, Q4 : -0.000358597841114}
2019-04-14 18:14:28.61: SIM {TimeUS : 44635472, Roll : -0.48, Pitch : -0.43, Yaw : 359.95, Alt : 31.1100006104, Lat : 49.2835701, Lng : -123.1150202, Q1 : 0.999983787537, Q2 : -0.00419481564313, Q3 : -0.00382147030905, Q4 : -0.000431330758147}
2019-04-14 18:14:28.71: SIM {TimeUS : 44735432, Roll : -0.25, Pitch : -0.23, Yaw : 359.94, Alt : 31.2700004578, Lat : 49.2835701, Lng : -123.1150203, Q1 : 0.999995291233, Q2 : -0.00225889543071, Q3 : -0.00200942228548, Q4 : -0.000493405095767}
2019-04-14 18:14:28.81: SIM {TimeUS : 44835392, Roll : -0.07, Pitch : -0.06, Yaw : 359.93, Alt : 31.4400005341, Lat : 49.2835702, Lng : -123.1150203, Q1 : 0.999999463558, Q2 : -0.000660757359583, Q3 : -0.000577837869059, Q4 : -0.000543576839846}
2019-04-14 18:14:28.91: SIM {TimeUS : 44935352, Roll : 0.03, Pitch : 0.03, Yaw : 359.93, Alt : 31.6200008392, Lat : 49.2835702, Lng : -123.1150204, Q1 : 0.999999761581, Q2 : 0.000334918440785, Q3 : 0.00026914983755, Q4 : -0.000576691876631}
2019-04-14 18:14:29.01: SIM {TimeUS : 45035312, Roll : 0.09, Pitch : 0.06, Yaw : 359.93, Alt : 31.7900009155, Lat : 49.2835703, Lng : -123.1150205, Q1 : 0.999999344349, Q2 : 0.000814434315544, Q3 : 0.0005390830338, Q4 : -0.000577862665523}
2019-04-14 18:14:29.11: SIM {TimeUS : 45135272, Roll : 0.1, Pitch : 0.05, Yaw : 359.93, Alt : 31.9799995422, Lat : 49.2835703, Lng : -123.1150206, Q1 : 0.999999284744, Q2 : 0.000942719285376, Q3 : 0.000446477293735, Q4 : -0.000553618941922}
2019-04-14 18:14:29.21: SIM {TimeUS : 45235232, Roll : 0.1, Pitch : 0.03, Yaw : 359.94, Alt : 32.1599998474, Lat : 49.2835703, Lng : -123.1150206, Q1 : 0.999999463558, Q2 : 0.000881697051227, Q3 : 0.00033119082218, Q4 : -0.000517469132319}
2019-04-14 18:14:29.31: SIM {TimeUS : 45335192, Roll : 0.08, Pitch : 0.04, Yaw : 359.94, Alt : 32.3600006104, Lat : 49.2835703, Lng : -123.1150207, Q1 : 0.999999523163, Q2 : 0.000759792863391, Q3 : 0.000348709116224, Q4 : -0.000474084808957}
2019-04-14 18:14:29.41: SIM {TimeUS : 45435152, Roll : 0.06, Pitch : 0.07, Yaw : 359.94, Alt : 32.5499992371, Lat : 49.2835703, Lng : -123.1150207, Q1 : 0.999999523163, Q2 : 0.000564866291825, Q3 : 0.000681012810674, Q4 : -0.00044782430632}
2019-04-14 18:14:29.51: SIM {TimeUS : 45535112, Roll : 0.07, Pitch : 0.13, Yaw : 359.95, Alt : 32.75, Lat : 49.2835703, Lng : -123.1150208, Q1 : 0.999999046326, Q2 : 0.000613266369328, Q3 : 0.00115317350719, Q4 : -0.000429855310358}
2019-04-14 18:14:29.61: SIM {TimeUS : 45635072, Roll : 0.1, Pitch : 0.17, Yaw : 359.95, Alt : 32.9399986267, Lat : 49.2835704, Lng : -123.1150208, Q1 : 0.99999833107, Q2 : 0.000901494349819, Q3 : 0.00151273910888, Q4 : -0.000426862272434}
2019-04-14 18:14:29.71: SIM {TimeUS : 45735032, Roll : 0.13, Pitch : 0.2, Yaw : 359.95, Alt : 33.1500015259, Lat : 49.2835704, Lng : -123.1150208, Q1 : 0.999997615814, Q2 : 0.00118681020103, Q3 : 0.00178064429201, Q4 : -0.000429100444308}
2019-04-14 18:14:29.81: SIM {TimeUS : 45834992, Roll : 0.15, Pitch : 0.21, Yaw : 359.95, Alt : 33.3499984741, Lat : 49.2835704, Lng : -123.1150208, Q1 : 0.999997198582, Q2 : 0.00131399929523, Q3 : 0.00191245484166, Q4 : -0.000436781236203}
2019-04-14 18:14:29.91: SIM {TimeUS : 45934952, Roll : 0.15, Pitch : 0.18, Yaw : 359.94, Alt : 33.5499992371, Lat : 49.2835704, Lng : -123.1150209, Q1 : 0.999997615814, Q2 : 0.0013713829685, Q3 : 0.00165650399867, Q4 : -0.00046872132225}
2019-04-14 18:14:30.01: SIM {TimeUS : 46034912, Roll : 0.15, Pitch : 0.14, Yaw : 359.94, Alt : 33.7599983215, Lat : 49.2835704, Lng : -123.1150209, Q1 : 0.999998092651, Q2 : 0.00137101789005, Q3 : 0.00129716598894, Q4 : -0.00050950149307}
2019-04-14 18:14:30.11: SIM {TimeUS : 46134872, Roll : 0.15, Pitch : 0.12, Yaw : 359.93, Alt : 33.9700012207, Lat : 49.2835704, Lng : -123.1150209, Q1 : 0.999998390675, Q2 : 0.00132719916292, Q3 : 0.00104738445953, Q4 : -0.000544472015463}
2019-04-14 18:14:30.21: SIM {TimeUS : 46234832, Roll : 0.14, Pitch : 0.1, Yaw : 359.93, Alt : 34.1800003052, Lat : 49.2835704, Lng : -123.1150209, Q1 : 0.999998629093, Q2 : 0.00129116128664, Q3 : 0.000886554713361, Q4 : -0.000575365207624}
2019-04-14 18:14:30.31: SIM {TimeUS : 46334792, Roll : 0.15, Pitch : 0.1, Yaw : 359.93, Alt : 34.3899993896, Lat : 49.2835704, Lng : -123.1150209, Q1 : 0.999998569489, Q2 : 0.00132208399009, Q3 : 0.000901034101844, Q4 : -0.000606716552284}
2019-04-14 18:14:30.41: SIM {TimeUS : 46434752, Roll : 0.14, Pitch : 0.08, Yaw : 359.92, Alt : 34.6100006104, Lat : 49.2835704, Lng : -123.1150209, Q1 : 0.999998748302, Q2 : 0.00122745719273, Q3 : 0.000769663020037, Q4 : -0.000624557200354}
2019-04-14 18:14:30.51: SIM {TimeUS : 46534712, Roll : 0.11, Pitch : 0.07, Yaw : 359.92, Alt : 34.8199996948, Lat : 49.2835704, Lng : -123.1150209, Q1 : 0.999999046326, Q2 : 0.00101834139787, Q3 : 0.000642697385047, Q4 : -0.000634568394162}
2019-04-14 18:14:30.61: SIM {TimeUS : 46634672, Roll : 0.08, Pitch : 0.06, Yaw : 359.92, Alt : 35.0400009155, Lat : 49.2835704, Lng : -123.1150208, Q1 : 0.999999344349, Q2 : 0.000773043604568, Q3 : 0.000553990306798, Q4 : -0.000647102540825}
2019-04-14 18:14:30.71: SIM {TimeUS : 46735465, Roll : 0.06, Pitch : 0.05, Yaw : 359.92, Alt : 35.25, Lat : 49.2835704, Lng : -123.1150208, Q1 : 0.999999523163, Q2 : 0.000532985723112, Q3 : 0.000473483465612, Q4 : -0.000663348298986}
2019-04-14 18:14:30.81: SIM {TimeUS : 46835425, Roll : 0.04, Pitch : 0.02, Yaw : 359.92, Alt : 35.4700012207, Lat : 49.2835704, Lng : -123.1150208, Q1 : 0.999999701977, Q2 : 0.000425629783422, Q3 : 0.000179191512871, Q4 : -0.000678442709614}
2019-04-14 18:14:30.91: SIM {TimeUS : 46935385, Roll : 0.04, Pitch : 0.0, Yaw : 359.92, Alt : 35.6899986267, Lat : 49.2835704, Lng : -123.1150208, Q1 : 0.999999701977, Q2 : 0.000359168363502, Q3 : -4.83158110001e-05, Q4 : -0.00069184525637}
2019-04-14 18:14:31.01: SIM {TimeUS : 47035345, Roll : 0.01, Pitch : -0.01, Yaw : 359.91, Alt : 35.9099998474, Lat : 49.2835704, Lng : -123.1150208, Q1 : 0.999999701977, Q2 : 0.000172135885805, Q3 : -0.000117147312267, Q4 : -0.000710339285433}
2019-04-14 18:14:31.11: SIM {TimeUS : 47135305, Roll : 0.01, Pitch : -0.01, Yaw : 359.91, Alt : 36.1300010681, Lat : 49.2835704, Lng : -123.1150208, Q1 : 0.999999701977, Q2 : 0.000108435218863, Q3 : -9.16418721317e-05, Q4 : -0.000727294827811}
2019-04-14 18:14:31.21: SIM {TimeUS : 47235265, Roll : 0.01, Pitch : 0.0, Yaw : 359.91, Alt : 36.3499984741, Lat : 49.2835704, Lng : -123.1150207, Q1 : 0.999999701977, Q2 : 0.000127007311676, Q3 : -4.37577618868e-05, Q4 : -0.000744254211895}
2019-04-14 18:14:31.31: SIM {TimeUS : 47335225, Roll : 0.0, Pitch : -0.02, Yaw : 359.91, Alt : 36.5699996948, Lat : 49.2835704, Lng : -123.1150207, Q1 : 0.999999701977, Q2 : 1.25383837712e-06, Q3 : -0.000183824275155, Q4 : -0.000764530559536}
2019-04-14 18:14:31.41: SIM {TimeUS : 47435185, Roll : -0.03, Pitch : -0.05, Yaw : 359.9, Alt : 36.7999992371, Lat : 49.2835704, Lng : -123.1150207, Q1 : 0.999999523163, Q2 : -0.000294131314149, Q3 : -0.000470288039651, Q4 : -0.000787294236943}
2019-04-14 18:14:31.51: SIM {TimeUS : 47535145, Roll : -0.07, Pitch : -0.07, Yaw : 359.9, Alt : 37.0200004578, Lat : 49.2835704, Lng : -123.1150207, Q1 : 0.99999922514, Q2 : -0.000645553867798, Q3 : -0.000696379167493, Q4 : -0.000811395759229}
2019-04-14 18:14:31.61: SIM {TimeUS : 47635105, Roll : -0.11, Pitch : -0.09, Yaw : 359.9, Alt : 37.2400016785, Lat : 49.2835704, Lng : -123.1150207, Q1 : 0.999998807907, Q2 : -0.000983245903626, Q3 : -0.000868745381013, Q4 : -0.000838112377096}
2019-04-14 18:14:31.71: SIM {TimeUS : 47735065, Roll : -0.12, Pitch : -0.1, Yaw : 359.89, Alt : 37.4700012207, Lat : 49.2835704, Lng : -123.1150207, Q1 : 0.999998629093, Q2 : -0.0010674049845, Q3 : -0.00091818079818, Q4 : -0.00087390106637}
2019-04-14 18:14:31.81: SIM {TimeUS : 47835025, Roll : -0.11, Pitch : -0.09, Yaw : 359.89, Alt : 37.7000007629, Lat : 49.2835704, Lng : -123.1150207, Q1 : 0.999998748302, Q2 : -0.000996403745376, Q3 : -0.000804263458122, Q4 : -0.000910442206077}
2019-04-14 18:14:31.91: SIM {TimeUS : 47934985, Roll : -0.09, Pitch : -0.05, Yaw : 359.89, Alt : 37.9199981689, Lat : 49.2835704, Lng : -123.1150207, Q1 : 0.999999046326, Q2 : -0.00085723772645, Q3 : -0.000505081203301, Q4 : -0.000943318998907}
2019-04-14 18:14:32.01: SIM {TimeUS : 48034945, Roll : -0.07, Pitch : -0.03, Yaw : 359.88, Alt : 38.1500015259, Lat : 49.2835704, Lng : -123.1150206, Q1 : 0.999999284744, Q2 : -0.000681074452586, Q3 : -0.000265959854005, Q4 : -0.000975732284132}
2019-04-14 18:14:32.11: SIM {TimeUS : 48134905, Roll : -0.07, Pitch : -0.02, Yaw : 359.88, Alt : 38.3800010681, Lat : 49.2835704, Lng : -123.1150206, Q1 : 0.999999284744, Q2 : -0.000618972990196, Q3 : -0.000237746280618, Q4 : -0.00101118057501}
2019-04-14 18:14:32.21: SIM {TimeUS : 48234865, Roll : -0.07, Pitch : -0.01, Yaw : 359.88, Alt : 38.5999984741, Lat : 49.2835704, Lng : -123.1150206, Q1 : 0.999999284744, Q2 : -0.000613224226981, Q3 : -0.000124780286569, Q4 : -0.00103363953531}
2019-04-14 18:14:32.31: SIM {TimeUS : 48334825, Roll : -0.08, Pitch : 0.0, Yaw : 359.88, Alt : 38.8300018311, Lat : 49.2835704, Lng : -123.1150206, Q1 : 0.999999165535, Q2 : -0.000745376048144, Q3 : 4.01788241788e-07, Q4 : -0.00104421749711}
2019-04-14 18:14:32.41: SIM {TimeUS : 48434785, Roll : -0.08, Pitch : 0.01, Yaw : 359.88, Alt : 39.0600013733, Lat : 49.2835706, Lng : -123.1150206, Q1 : 0.999999165535, Q2 : -0.000727655482478, Q3 : 9.95135851554e-05, Q4 : -0.00104277755599}
2019-04-14 18:14:32.51: SIM {TimeUS : 48534745, Roll : -0.06, Pitch : 0.03, Yaw : 359.88, Alt : 39.2900009155, Lat : 49.2835706, Lng : -123.1150206, Q1 : 0.999999284744, Q2 : -0.000551245349925, Q3 : 0.0003141395282, Q4 : -0.00103536865208}
2019-04-14 18:14:32.61: SIM {TimeUS : 48634705, Roll : -0.04, Pitch : 0.03, Yaw : 359.88, Alt : 39.5200004578, Lat : 49.2835706, Lng : -123.1150207, Q1 : 0.999999344349, Q2 : -0.000360315199941, Q3 : 0.000343861698639, Q4 : -0.00102322269231}
2019-04-14 18:14:32.71: SIM {TimeUS : 48734665, Roll : -0.01, Pitch : 0.03, Yaw : 359.88, Alt : 39.75, Lat : 49.2835706, Lng : -123.1150207, Q1 : 0.999999403954, Q2 : -0.000121041986858, Q3 : 0.000330601964379, Q4 : -0.00101213983726}
2019-04-14 18:14:32.81: SIM {TimeUS : 48835458, Roll : 0.01, Pitch : 0.05, Yaw : 359.88, Alt : 39.9900016785, Lat : 49.2835706, Lng : -123.1150207, Q1 : 0.999999344349, Q2 : 0.000167426114785, Q3 : 0.000490108854137, Q4 : -0.00100439589005}
2019-04-14 18:14:32.91: SIM {TimeUS : 48935418, Roll : 0.05, Pitch : 0.08, Yaw : 359.88, Alt : 40.2200012207, Lat : 49.2835706, Lng : -123.1150207, Q1 : 0.999999046326, Q2 : 0.00048404710833, Q3 : 0.000754847424105, Q4 : -0.00100531196222}
2019-04-14 18:14:33.01: SIM {TimeUS : 49035378, Roll : 0.08, Pitch : 0.11, Yaw : 359.88, Alt : 40.4500007629, Lat : 49.2835706, Lng : -123.1150207, Q1 : 0.999998629093, Q2 : 0.000784266507253, Q3 : 0.00103895145003, Q4 : -0.00102161546238}
2019-04-14 18:14:33.11: SIM {TimeUS : 49135338, Roll : 0.08, Pitch : 0.14, Yaw : 359.88, Alt : 40.6800003052, Lat : 49.2835706, Lng : -123.1150207, Q1 : 0.99999833107, Q2 : 0.000773356121499, Q3 : 0.00129979208577, Q4 : -0.00103557051625}
2019-04-14 18:14:33.21: SIM {TimeUS : 49235298, Roll : 0.04, Pitch : 0.17, Yaw : 359.87, Alt : 40.9099998474, Lat : 49.2835706, Lng : -123.1150207, Q1 : 0.999998211861, Q2 : 0.000402729696361, Q3 : 0.00151454925071, Q4 : -0.00106887856964}
2019-04-14 18:14:33.31: SIM {TimeUS : 49335258, Roll : 0.0, Pitch : 0.18, Yaw : 359.87, Alt : 41.1500015259, Lat : 49.2835706, Lng : -123.1150207, Q1 : 0.999998092651, Q2 : 5.61665983696e-05, Q3 : 0.00160874519497, Q4 : -0.00110355764627}
2019-04-14 18:14:33.41: SIM {TimeUS : 49435218, Roll : -0.02, Pitch : 0.16, Yaw : 359.87, Alt : 41.3800010681, Lat : 49.2835706, Lng : -123.1150207, Q1 : 0.99999833107, Q2 : -0.00017620511062, Q3 : 0.00141582835931, Q4 : -0.0011343085207}
2019-04-14 18:14:33.51: SIM {TimeUS : 49535178, Roll : -0.03, Pitch : 0.12, Yaw : 359.86, Alt : 41.6100006104, Lat : 49.2835706, Lng : -123.1150207, Q1 : 0.999998629093, Q2 : -0.000306758098304, Q3 : 0.00113425950985, Q4 : -0.00117658637464}
2019-04-14 18:14:33.61: SIM {TimeUS : 49635138, Roll : -0.02, Pitch : 0.12, Yaw : 359.85, Alt : 41.8499984741, Lat : 49.2835706, Lng : -123.1150207, Q1 : 0.999998629093, Q2 : -0.000238342254306, Q3 : 0.00106602557935, Q4 : -0.00123259157408}
2019-04-14 18:14:33.71: SIM {TimeUS : 49735098, Roll : 0.01, Pitch : 0.13, Yaw : 359.85, Alt : 42.0800018311, Lat : 49.2835706, Lng : -123.1150207, Q1 : 0.999998509884, Q2 : 0.000106988707557, Q3 : 0.00115250062663, Q4 : -0.00129716063384}
2019-04-14 18:14:33.81: SIM {TimeUS : 49835058, Roll : 0.06, Pitch : 0.13, Yaw : 359.84, Alt : 42.3100013733, Lat : 49.2835706, Lng : -123.1150207, Q1 : 0.999998152256, Q2 : 0.000574850011617, Q3 : 0.00120607099961, Q4 : -0.0013585886918}
2019-04-14 18:14:33.91: SIM {TimeUS : 49935018, Roll : 0.1, Pitch : 0.11, Yaw : 359.83, Alt : 42.5499992371, Lat : 49.2835706, Lng : -123.1150207, Q1 : 0.999998033047, Q2 : 0.00094157224521, Q3 : 0.0010165895801, Q4 : -0.00141110410914}
2019-04-14 18:14:34.01: SIM {TimeUS : 50034978, Roll : 0.11, Pitch : 0.08, Yaw : 359.83, Alt : 42.7799987793, Lat : 49.2835706, Lng : -123.1150207, Q1 : 0.999998211861, Q2 : 0.000984132871963, Q3 : 0.000702873512637, Q4 : -0.00145064818207}
2019-04-14 18:14:34.11: SIM {TimeUS : 50134938, Roll : 0.07, Pitch : 0.05, Yaw : 359.83, Alt : 43.0200004578, Lat : 49.2835706, Lng : -123.1150207, Q1 : 0.999998569489, Q2 : 0.000643714272883, Q3 : 0.000507961958647, Q4 : -0.00146839651279}
2019-04-14 18:14:34.21: SIM {TimeUS : 50234898, Roll : 0.01, Pitch : 0.05, Yaw : 359.83, Alt : 43.25, Lat : 49.2835706, Lng : -123.1150207, Q1 : 0.999998748302, Q2 : 0.000157143644174, Q3 : 0.000484227173729, Q4 : -0.00147784128785}
2019-04-14 18:14:34.31: SIM {TimeUS : 50334858, Roll : -0.02, Pitch : 0.07, Yaw : 359.83, Alt : 43.4900016785, Lat : 49.2835704, Lng : -123.1150207, Q1 : 0.999998629093, Q2 : -0.000191962317331, Q3 : 0.000690400716849, Q4 : -0.00148072850425}
2019-04-14 18:14:34.41: SIM {TimeUS : 50434818, Roll : -0.04, Pitch : 0.09, Yaw : 359.83, Alt : 43.7200012207, Lat : 49.2835704, Lng : -123.1150207, Q1 : 0.999998450279, Q2 : -0.000376585521735, Q3 : 0.000830397359096, Q4 : -0.00148211698979}
2019-04-14 18:14:34.51: SIM {TimeUS : 50534778, Roll : -0.04, Pitch : 0.08, Yaw : 359.82, Alt : 43.9599990845, Lat : 49.2835704, Lng : -123.1150207, Q1 : 0.999998569489, Q2 : -0.000376272189897, Q3 : 0.000740248360671, Q4 : -0.00148417358287}
2019-04-14 18:14:34.61: SIM {TimeUS : 50634738, Roll : -0.05, Pitch : 0.06, Yaw : 359.82, Alt : 44.1899986267, Lat : 49.2835704, Lng : -123.1150206, Q1 : 0.999998629093, Q2 : -0.000445739977295, Q3 : 0.000552308454644, Q4 : -0.00149186793715}
2019-04-14 18:14:34.71: SIM {TimeUS : 50734698, Roll : -0.04, Pitch : 0.04, Yaw : 359.82, Alt : 44.4300003052, Lat : 49.2835704, Lng : -123.1150206, Q1 : 0.999998688698, Q2 : -0.000433746841736, Q3 : 0.000383317441447, Q4 : -0.00150389282499}
2019-04-14 18:14:34.81: SIM {TimeUS : 50834658, Roll : -0.03, Pitch : 0.03, Yaw : 359.82, Alt : 44.6699981689, Lat : 49.2835704, Lng : -123.1150206, Q1 : 0.999998748302, Q2 : -0.000286491995212, Q3 : 0.000318316277117, Q4 : -0.00152551929932}
2019-04-14 18:14:34.91: SIM {TimeUS : 50935451, Roll : -0.01, Pitch : 0.03, Yaw : 359.82, Alt : 44.9000015259, Lat : 49.2835704, Lng : -123.1150206, Q1 : 0.999998748302, Q2 : -0.000164532553754, Q3 : 0.000298532453598, Q4 : -0.00155193696264}
2019-04-14 18:14:35.01: SIM {TimeUS : 51035411, Roll : -0.02, Pitch : 0.01, Yaw : 359.81, Alt : 45.1399993896, Lat : 49.2835704, Lng : -123.1150206, Q1 : 0.999998748302, Q2 : -0.000175287001184, Q3 : 0.000166493526194, Q4 : -0.00158361613285}
2019-04-14 18:14:35.11: SIM {TimeUS : 51135371, Roll : -0.02, Pitch : -0.01, Yaw : 359.81, Alt : 45.3800010681, Lat : 49.2835704, Lng : -123.1150206, Q1 : 0.999998688698, Q2 : -0.000234521357925, Q3 : -0.000103939346445, Q4 : -0.00161702488549}
2019-04-14 18:14:35.21: SIM {TimeUS : 51235331, Roll : -0.03, Pitch : -0.03, Yaw : 359.81, Alt : 45.6100006104, Lat : 49.2835703, Lng : -123.1150206, Q1 : 0.999998569489, Q2 : -0.000301318912534, Q3 : -0.000306328031002, Q4 : -0.00164970499463}
2019-04-14 18:14:35.31: SIM {TimeUS : 51335291, Roll : -0.03, Pitch : -0.04, Yaw : 359.8, Alt : 45.8400001526, Lat : 49.2835703, Lng : -123.1150206, Q1 : 0.999998450279, Q2 : -0.000312109390507, Q3 : -0.000416844675783, Q4 : -0.00168021651916}
2019-04-14 18:14:35.41: SIM {TimeUS : 51435251, Roll : -0.04, Pitch : -0.04, Yaw : 359.8, Alt : 46.0699996948, Lat : 49.2835703, Lng : -123.1150206, Q1 : 0.999998390675, Q2 : -0.000378755066777, Q3 : -0.000408378400607, Q4 : -0.00170810311101}
2019-04-14 18:14:35.51: SIM {TimeUS : 51535211, Roll : -0.06, Pitch : -0.03, Yaw : 359.8, Alt : 46.2999992371, Lat : 49.2835703, Lng : -123.1150206, Q1 : 0.999998271465, Q2 : -0.000568302522879, Q3 : -0.000296027777949, Q4 : -0.00173733360134}
2019-04-14 18:14:35.61: SIM {TimeUS : 51635171, Roll : -0.09, Pitch : -0.02, Yaw : 359.79, Alt : 46.5200004578, Lat : 49.2835703, Lng : -123.1150206, Q1 : 0.999998092651, Q2 : -0.000845284550451, Q3 : -0.000220467132749, Q4 : -0.00176695000846}
2019-04-14 18:14:35.71: SIM {TimeUS : 51735131, Roll : -0.11, Pitch : -0.02, Yaw : 359.79, Alt : 46.7400016785, Lat : 49.2835703, Lng : -123.1150206, Q1 : 0.999997854233, Q2 : -0.00102784053888, Q3 : -0.000219118082896, Q4 : -0.00179579434916}
2019-04-14 18:14:35.81: SIM {TimeUS : 51835091, Roll : -0.11, Pitch : -0.01, Yaw : 359.79, Alt : 46.9599990845, Lat : 49.2835703, Lng : -123.1150206, Q1 : 0.999997794628, Q2 : -0.00104420352727, Q3 : -0.000164062294061, Q4 : -0.00182239746209}
2019-04-14 18:14:35.91: SIM {TimeUS : 51935051, Roll : -0.1, Pitch : 0.0, Yaw : 359.78, Alt : 47.1599998474, Lat : 49.2835703, Lng : -123.1150206, Q1 : 0.999997854233, Q2 : -0.000919073820114, Q3 : -1.28331739688e-05, Q4 : -0.00184844282921}
2019-04-14 18:14:36.01: SIM {TimeUS : 52035011, Roll : -0.07, Pitch : 0.0, Yaw : 359.78, Alt : 47.3600006104, Lat : 49.2835703, Lng : -123.1150206, Q1 : 0.999998033047, Q2 : -0.000683235761244, Q3 : 6.9346941018e-05, Q4 : -0.00187106966041}
2019-04-14 18:14:36.11: SIM {TimeUS : 52134971, Roll : -0.05, Pitch : 0.0, Yaw : 359.78, Alt : 47.5499992371, Lat : 49.2835703, Lng : -123.1150206, Q1 : 0.999998092651, Q2 : -0.000483717536554, Q3 : 4.85579403176e-05, Q4 : -0.00189594703261}
2019-04-14 18:14:36.21: SIM {TimeUS : 52234931, Roll : -0.05, Pitch : -0.01, Yaw : 359.77, Alt : 47.7299995422, Lat : 49.2835703, Lng : -123.1150206, Q1 : 0.999998033047, Q2 : -0.00048604386393, Q3 : -0.000143084602314, Q4 : -0.00192309706472}
2019-04-14 18:14:36.31: SIM {TimeUS : 52334891, Roll : -0.05, Pitch : -0.05, Yaw : 359.77, Alt : 47.8899993896, Lat : 49.2835703, Lng : -123.1150206, Q1 : 0.999997854233, Q2 : -0.00049104669597, Q3 : -0.00046409596689, Q4 : -0.0019465618534}
2019-04-14 18:14:36.41: SIM {TimeUS : 52434851, Roll : -0.04, Pitch : -0.08, Yaw : 359.77, Alt : 48.0499992371, Lat : 49.2835703, Lng : -123.1150206, Q1 : 0.999997735023, Q2 : -0.000369196088286, Q3 : -0.000744502409361, Q4 : -0.00196691695601}
2019-04-14 18:14:36.51: SIM {TimeUS : 52534811, Roll : -0.03, Pitch : -0.1, Yaw : 359.77, Alt : 48.1899986267, Lat : 49.2835703, Lng : -123.1150206, Q1 : 0.99999755621, Q2 : -0.000285603920929, Q3 : -0.000934333307669, Q4 : -0.00198677182198}
2019-04-14 18:14:36.61: SIM {TimeUS : 52634771, Roll : -0.03, Pitch : -0.11, Yaw : 359.77, Alt : 48.3300018311, Lat : 49.2835703, Lng : -123.1150206, Q1 : 0.999997377396, Q2 : -0.000274920283118, Q3 : -0.00103839719668, Q4 : -0.00200419942848}
2019-04-14 18:14:36.71: SIM {TimeUS : 52734731, Roll : 0.0, Pitch : -0.1, Yaw : 359.76, Alt : 48.4500007629, Lat : 49.2835703, Lng : -123.1150206, Q1 : 0.99999755621, Q2 : -3.96757350245e-05, Q3 : -0.000918436853681, Q4 : -0.00202295952477}
2019-04-14 18:14:36.81: SIM {TimeUS : 52834691, Roll : 0.03, Pitch : -0.07, Yaw : 359.76, Alt : 48.5499992371, Lat : 49.2835703, Lng : -123.1150206, Q1 : 0.999997675419, Q2 : 0.000273450801615, Q3 : -0.000688788015395, Q4 : -0.00204328284599}
2019-04-14 18:14:36.91: SIM {TimeUS : 52935484, Roll : 0.06, Pitch : -0.04, Yaw : 359.76, Alt : 48.6500015259, Lat : 49.2835703, Lng : -123.1150206, Q1 : 0.999997675419, Q2 : 0.000530846009497, Q3 : -0.000421176489908, Q4 : -0.00206659757532}
2019-04-14 18:14:37.01: SIM {TimeUS : 53035444, Roll : 0.07, Pitch : -0.02, Yaw : 359.75, Alt : 48.7299995422, Lat : 49.2835703, Lng : -123.1150206, Q1 : 0.999997615814, Q2 : 0.000620738894213, Q3 : -0.000197240617126, Q4 : -0.00209788419306}
2019-04-14 18:14:37.11: SIM {TimeUS : 53135404, Roll : 0.07, Pitch : -0.01, Yaw : 359.75, Alt : 48.8100013733, Lat : 49.2835703, Lng : -123.1150207, Q1 : 0.999997496605, Q2 : 0.000659391400404, Q3 : -9.85059668892e-05, Q4 : -0.0021373287309}
2019-04-14 18:14:37.21: SIM {TimeUS : 53235364, Roll : 0.06, Pitch : -0.02, Yaw : 359.75, Alt : 48.8699989319, Lat : 49.2835703, Lng : -123.1150207, Q1 : 0.999997437, Q2 : 0.000574613746721, Q3 : -0.000214204599615, Q4 : -0.00217487942427}
2019-04-14 18:14:37.31: SIM {TimeUS : 53335324, Roll : 0.03, Pitch : -0.03, Yaw : 359.74, Alt : 48.9300003052, Lat : 49.2835703, Lng : -123.1150207, Q1 : 0.999997437, Q2 : 0.000338501122314, Q3 : -0.000288545445073, Q4 : -0.00221538101323}
2019-04-14 18:14:37.41: SIM {TimeUS : 53435284, Roll : 0.02, Pitch : -0.02, Yaw : 359.74, Alt : 48.9700012207, Lat : 49.2835703, Lng : -123.1150207, Q1 : 0.999997437, Q2 : 0.000196083201445, Q3 : -0.000253385311225, Q4 : -0.00225495384075}
2019-04-14 18:14:37.51: SIM {TimeUS : 53535244, Roll : 0.05, Pitch : -0.05, Yaw : 359.73, Alt : 49.0099983215, Lat : 49.2835703, Lng : -123.1150207, Q1 : 0.999997138977, Q2 : 0.00051627861103, Q3 : -0.000503565010149, Q4 : -0.00229273131117}
2019-04-14 18:14:37.61: SIM {TimeUS : 53635204, Roll : 0.26, Pitch : -0.18, Yaw : 359.73, Alt : 49.0499992371, Lat : 49.2835703, Lng : -123.1150207, Q1 : 0.999993264675, Q2 : 0.00231578177772, Q3 : -0.00163353804965, Q4 : -0.00232620048337}
2019-04-14 18:14:37.71: SIM {TimeUS : 53735164, Roll : 0.72, Pitch : -0.46, Yaw : 359.72, Alt : 49.0800018311, Lat : 49.2835704, Lng : -123.1150207, Q1 : 0.999969303608, Q2 : 0.00627641426399, Q3 : -0.00406016316265, Q4 : -0.00234427419491}
2019-04-14 18:14:37.81: SIM {TimeUS : 53835124, Roll : 1.39, Pitch : -0.89, Yaw : 359.72, Alt : 49.0999984741, Lat : 49.2835704, Lng : -123.1150206, Q1 : 0.999892771244, Q2 : 0.0121307233348, Q3 : -0.00786521472037, Q4 : -0.00234734057449}
2019-04-14 18:14:37.91: SIM {TimeUS : 53935084, Roll : 2.2, Pitch : -1.47, Yaw : 359.7, Alt : 49.1199989319, Lat : 49.2835704, Lng : -123.1150206, Q1 : 0.999729335308, Q2 : 0.0192233584821, Q3 : -0.0128974765539, Q4 : -0.00232639024034}
2019-04-14 18:14:38.01: SIM {TimeUS : 54035044, Roll : 3.05, Pitch : -2.09, Yaw : 359.68, Alt : 49.1399993896, Lat : 49.2835704, Lng : -123.1150205, Q1 : 0.999473750591, Q2 : 0.0266348291188, Q3 : -0.0183781776577, Q4 : -0.00226135854609}
2019-04-14 18:14:38.11: SIM {TimeUS : 54135004, Roll : 3.81, Pitch : -2.67, Yaw : 359.66, Alt : 49.1599998474, Lat : 49.2835706, Lng : -123.1150203, Q1 : 0.999170541763, Q2 : 0.0332329794765, Q3 : -0.0234361328185, Q4 : -0.0021348351147}
2019-04-14 18:14:38.21: SIM {TimeUS : 54234964, Roll : 4.41, Pitch : -3.13, Yaw : 359.65, Alt : 49.1699981689, Lat : 49.2835707, Lng : -123.1150201, Q1 : 0.998882293701, Q2 : 0.0384394042194, Q3 : -0.0274379197508, Q4 : -0.00194449827541}
2019-04-14 18:14:38.31: SIM {TimeUS : 54334924, Roll : 4.86, Pitch : -3.44, Yaw : 359.65, Alt : 49.1800003052, Lat : 49.2835709, Lng : -123.1150199, Q1 : 0.998646974564, Q2 : 0.0423014611006, Q3 : -0.0301995929331, Q4 : -0.0016897508176}
2019-04-14 18:14:38.41: SIM {TimeUS : 54434884, Roll : 5.19, Pitch : -3.68, Yaw : 359.67, Alt : 49.1899986267, Lat : 49.283571, Lng : -123.1150195, Q1 : 0.998456418514, Q2 : 0.0452138893306, Q3 : -0.0322253704071, Q4 : -0.00140908104368}
2019-04-14 18:14:38.51: SIM {TimeUS : 54534844, Roll : 5.48, Pitch : -3.86, Yaw : 359.68, Alt : 49.2000007629, Lat : 49.2835713, Lng : -123.115019, Q1 : 0.99828761816, Q2 : 0.0476903282106, Q3 : -0.0338545665145, Q4 : -0.00112319854088}
2019-04-14 18:14:38.61: SIM {TimeUS : 54634804, Roll : 5.75, Pitch : -4.05, Yaw : 359.69, Alt : 49.2099990845, Lat : 49.2835715, Lng : -123.1150184, Q1 : 0.998113334179, Q2 : 0.05010933429, Q3 : -0.0354704782367, Q4 : -0.000847339339089}
2019-04-14 18:14:38.71: SIM {TimeUS : 54734764, Roll : 6.05, Pitch : -4.27, Yaw : 359.7, Alt : 49.2200012207, Lat : 49.2835719, Lng : -123.1150177, Q1 : 0.997908830643, Q2 : 0.0526992566884, Q3 : -0.0374222435057, Q4 : -0.000592886121012}
2019-04-14 18:14:38.81: SIM {TimeUS : 54834724, Roll : 6.35, Pitch : -4.5, Yaw : 359.7, Alt : 49.2299995422, Lat : 49.2835722, Lng : -123.1150169, Q1 : 0.99769204855, Q2 : 0.0552998185158, Q3 : -0.0394004881382, Q4 : -0.000353210198227}
2019-04-14 18:14:38.91: SIM {TimeUS : 54934684, Roll : 6.61, Pitch : -4.69, Yaw : 359.71, Alt : 49.2299995422, Lat : 49.2835727, Lng : -123.115016, Q1 : 0.99750071764, Q2 : 0.0575301907957, Q3 : -0.0410197637975, Q4 : -0.000125184829812}
2019-04-14 18:14:39.01: SIM {TimeUS : 55035477, Roll : 6.78, Pitch : -4.8, Yaw : 359.72, Alt : 49.2400016785, Lat : 49.2835731, Lng : -123.1150151, Q1 : 0.997371673584, Q2 : 0.0590239688754, Q3 : -0.042022947222, Q4 : 7.01336466591e-05}
2019-04-14 18:14:39.11: SIM {TimeUS : 55135437, Roll : 6.89, Pitch : -4.88, Yaw : 359.73, Alt : 49.2400016785, Lat : 49.2835735, Lng : -123.1150139, Q1 : 0.997285425663, Q2 : 0.0600152015686, Q3 : -0.0426609553397, Q4 : 0.000220201400225}
2019-04-14 18:14:39.21: SIM {TimeUS : 55235397, Roll : 6.98, Pitch : -4.94, Yaw : 359.73, Alt : 49.25, Lat : 49.283574, Lng : -123.1150128, Q1 : 0.997218728065, Q2 : 0.0607528984547, Q3 : -0.0431723222136, Q4 : 0.000322569336277}
2019-04-14 18:14:39.31: SIM {TimeUS : 55335357, Roll : 7.11, Pitch : -4.98, Yaw : 359.73, Alt : 49.25, Lat : 49.2835746, Lng : -123.1150116, Q1 : 0.997132658958, Q2 : 0.0618768557906, Q3 : -0.0435607992113, Q4 : 0.000425817677751}
2019-04-14 18:14:39.41: SIM {TimeUS : 55435317, Roll : 7.41, Pitch : -4.91, Yaw : 359.89, Alt : 49.2599983215, Lat : 49.2835752, Lng : -123.1150102, Q1 : 0.996988832951, Q2 : 0.0645947605371, Q3 : -0.0428652241826, Q4 : 0.00183639291208}
2019-04-14 18:14:39.51: SIM {TimeUS : 55535277, Roll : 7.95, Pitch : -4.71, Yaw : 0.74, Alt : 49.2599983215, Lat : 49.2835759, Lng : -123.1150088, Q1 : 0.996705591679, Q2 : 0.0696115493774, Q3 : -0.0405669175088, Q4 : 0.00929903239012}
2019-04-14 18:14:39.61: SIM {TimeUS : 55635237, Roll : 8.58, Pitch : -4.64, Yaw : 2.93, Alt : 49.2599983215, Lat : 49.2835767, Lng : -123.1150072, Q1 : 0.995975315571, Q2 : 0.0757599920034, Q3 : -0.038446828723, Q4 : 0.0285572577268}
2019-04-14 18:14:39.71: SIM {TimeUS : 55735197, Roll : 9.02, Pitch : -5.0, Yaw : 6.71, Alt : 49.2599983215, Lat : 49.2835774, Lng : -123.1150057, Q1 : 0.994035065174, Q2 : 0.081016972661, Q3 : -0.0388771444559, Q4 : 0.06179940328}
2019-04-14 18:14:39.81: SIM {TimeUS : 55835157, Roll : 9.05, Pitch : -5.88, Yaw : 11.97, Alt : 49.2599983215, Lat : 49.2835781, Lng : -123.1150039, Q1 : 0.989706933498, Q2 : 0.0837316960096, Q3 : -0.0426928140223, Q4 : 0.107919245958}
2019-04-14 18:14:39.91: SIM {TimeUS : 55935117, Roll : 8.5, Pitch : -7.19, Yaw : 18.48, Alt : 49.2700004578, Lat : 49.2835788, Lng : -123.1150021, Q1 : 0.981614291668, Q2 : 0.0830989032984, Q3 : -0.0498580634594, Q4 : 0.164444729686}
2019-04-14 18:14:40.01: SIM {TimeUS : 56035077, Roll : 7.33, Pitch : -8.74, Yaw : 25.97, Alt : 49.2700004578, Lat : 49.2835794, Lng : -123.1150001, Q1 : 0.9684907794, Q2 : 0.0792220532894, Q3 : -0.0597927607596, Q4 : 0.228417113423}
2019-04-14 18:14:40.11: SIM {TimeUS : 56135037, Roll : 5.57, Pitch : -10.33, Yaw : 34.2, Alt : 49.2700004578, Lat : 49.2835802, Lng : -123.114998, Q1 : 0.949474215508, Q2 : 0.072758808732, Q3 : -0.0717046260834, Q4 : 0.296754717827}
2019-04-14 18:14:40.21: SIM {TimeUS : 56234997, Roll : 3.28, Pitch : -11.73, Yaw : 42.89, Alt : 49.2700004578, Lat : 49.2835811, Lng : -123.1149958, Q1 : 0.924418210983, Q2 : 0.0639185234904, Q3 : -0.0846718177199, Q4 : 0.366327792406}
2019-04-14 18:14:40.31: SIM {TimeUS : 56334957, Roll : 0.34, Pitch : -12.72, Yaw : 51.51, Alt : 49.2700004578, Lat : 49.2835818, Lng : -123.1149935, Q1 : 0.89493060112, Q2 : 0.0508657768369, Q3 : -0.0984720438719, Q4 : 0.432221263647}
2019-04-14 18:14:40.41: SIM {TimeUS : 56434917, Roll : -2.86, Pitch : -13.13, Yaw : 59.19, Alt : 49.2700004578, Lat : 49.2835828, Lng : -123.1149911, Q1 : 0.86497181654, Q2 : 0.0348549745977, Q3 : -0.111682698131, Q4 : 0.487991690636}
2019-04-14 18:14:40.51: SIM {TimeUS : 56534877, Roll : -5.67, Pitch : -13.07, Yaw : 65.13, Alt : 49.2700004578, Lat : 49.2835837, Lng : -123.1149886, Q1 : 0.839288711548, Q2 : 0.019776571542, Q3 : -0.12231207639, Q4 : 0.529379963875}
2019-04-14 18:14:40.61: SIM {TimeUS : 56634837, Roll : -7.56, Pitch : -12.81, Yaw : 68.98, Alt : 49.2700004578, Lat : 49.2835849, Lng : -123.1149861, Q1 : 0.821418642998, Q2 : 0.00902122911066, Q3 : -0.128882735968, Q4 : 0.555499136448}
2019-04-14 18:14:40.71: SIM {TimeUS : 56734797, Roll : -8.35, Pitch : -12.61, Yaw : 70.82, Alt : 49.2700004578, Lat : 49.2835861, Lng : -123.1149835, Q1 : 0.812540948391, Q2 : 0.00443673692644, Q3 : -0.131241202354, Q4 : 0.567920088768}
2019-04-14 18:14:40.81: SIM {TimeUS : 56834757, Roll : -8.15, Pitch : -12.64, Yaw : 70.95, Alt : 49.2700004578, Lat : 49.2835873, Lng : -123.1149808, Q1 : 0.81189674139, Q2 : 0.00615319097415, Q3 : -0.130468457937, Q4 : 0.569002449512}
2019-04-14 18:14:40.91: SIM {TimeUS : 56934717, Roll : -7.19, Pitch : -12.94, Yaw : 69.72, Alt : 49.2700004578, Lat : 49.2835887, Lng : -123.1149782, Q1 : 0.817712366581, Q2 : 0.0131243793294, Q3 : -0.127921268344, Q4 : 0.56107968092}
2019-04-14 18:14:41.01: SIM {TimeUS : 57034677, Roll : -5.69, Pitch : -13.47, Yaw : 67.51, Alt : 49.2799987793, Lat : 49.2835903, Lng : -123.1149754, Q1 : 0.8278683424, Q2 : 0.0240633953363, Q3 : -0.124838523567, Q4 : 0.546324372292}
2019-04-14 18:14:41.11: SIM {TimeUS : 57135470, Roll : -3.87, Pitch : -14.15, Yaw : 64.61, Alt : 49.2799987793, Lat : 49.2835917, Lng : -123.1149725, Q1 : 0.840482413769, Q2 : 0.0374678745866, Q3 : -0.122039787471, Q4 : 0.526585042477}
2019-04-14 18:14:41.21: SIM {TimeUS : 57235430, Roll : -1.96, Pitch : -14.83, Yaw : 61.39, Alt : 49.2799987793, Lat : 49.2835934, Lng : -123.1149697, Q1 : 0.853689193726, Q2 : 0.0512725003064, Q3 : -0.11971373111, Q4 : 0.504236519337}
2019-04-14 18:14:41.31: SIM {TimeUS : 57335390, Roll : -0.13, Pitch : -15.38, Yaw : 58.13, Alt : 49.2799987793, Lat : 49.2835951, Lng : -123.1149667, Q1 : 0.866236507893, Q2 : 0.0640348941088, Q3 : -0.117561385036, Q4 : 0.481365859509}
2019-04-14 18:14:41.41: SIM {TimeUS : 57435350, Roll : 1.45, Pitch : -15.73, Yaw : 55.18, Alt : 49.2799987793, Lat : 49.2835966, Lng : -123.1149636, Q1 : 0.877026617527, Q2 : 0.0745330229402, Q3 : -0.115504212677, Q4 : 0.460356295109}
2019-04-14 18:14:41.51: SIM {TimeUS : 57535310, Roll : 2.65, Pitch : -15.88, Yaw : 52.82, Alt : 49.2799987793, Lat : 49.2835983, Lng : -123.1149603, Q1 : 0.885366857052, Q2 : 0.0820271894336, Q3 : -0.113481536508, Q4 : 0.443304657936}
2019-04-14 18:14:41.61: SIM {TimeUS : 57635270, Roll : 3.4, Pitch : -15.87, Yaw : 51.21, Alt : 49.2799987793, Lat : 49.2836001, Lng : -123.114957, Q1 : 0.890982568264, Q2 : 0.0861902683973, Q3 : -0.1118035689, Q4 : 0.431533694267}
2019-04-14 18:14:41.71: SIM {TimeUS : 57735230, Roll : 3.66, Pitch : -15.81, Yaw : 50.4, Alt : 49.2799987793, Lat : 49.2836017, Lng : -123.1149535, Q1 : 0.893884837627, Q2 : 0.0872109010816, Q3 : -0.110909767449, Q4 : 0.425515174866}
2019-04-14 18:14:41.81: SIM {TimeUS : 57835190, Roll : 3.5, Pitch : -15.77, Yaw : 50.34, Alt : 49.2799987793, Lat : 49.2836033, Lng : -123.1149499, Q1 : 0.894264996052, Q2 : 0.0857494398952, Q3 : -0.111209824681, Q4 : 0.42493480444}
2019-04-14 18:14:41.91: SIM {TimeUS : 57935150, Roll : 3.0, Pitch : -15.8, Yaw : 50.91, Alt : 49.2799987793, Lat : 49.283605, Lng : -123.1149462, Q1 : 0.892468452454, Q2 : 0.0825210809708, Q3 : -0.112961724401, Q4 : 0.428870588541}
2019-04-14 18:14:42.01: SIM {TimeUS : 58035110, Roll : 2.25, Pitch : -15.91, Yaw : 51.94, Alt : 49.2799987793, Lat : 49.2836068, Lng : -123.1149423, Q1 : 0.888991892338, Q2 : 0.0781610235572, Q3 : -0.115928940475, Q4 : 0.436055958271}
2019-04-14 18:14:42.11: SIM {TimeUS : 58135070, Roll : 1.37, Pitch : -16.07, Yaw : 53.23, Alt : 49.2900009155, Lat : 49.2836085, Lng : -123.1149384, Q1 : 0.884425640106, Q2 : 0.0732537657022, Q3 : -0.119676813483, Q4 : 0.44508728385}
2019-04-14 18:14:42.21: SIM {TimeUS : 58235030, Roll : 0.48, Pitch : -16.21, Yaw : 54.6, Alt : 49.2900009155, Lat : 49.2836102, Lng : -123.1149345, Q1 : 0.879416406155, Q2 : 0.0684409067035, Q3 : -0.123379379511, Q4 : 0.454664945602}
2019-04-14 18:14:42.31: SIM {TimeUS : 58334990, Roll : -0.28, Pitch : -16.31, Yaw : 55.9, Alt : 49.2900009155, Lat : 49.283612, Lng : -123.1149304, Q1 : 0.874569952488, Q2 : 0.064335860312, Q3 : -0.12651334703, Q4 : 0.463662236929}
2019-04-14 18:14:42.41: SIM {TimeUS : 58434950, Roll : -0.9, Pitch : -16.38, Yaw : 56.98, Alt : 49.2900009155, Lat : 49.2836138, Lng : -123.1149263, Q1 : 0.870415151119, Q2 : 0.0611120462418, Q3 : -0.12896707654, Q4 : 0.47117972374}
2019-04-14 18:14:42.51: SIM {TimeUS : 58534910, Roll : -1.3, Pitch : -16.43, Yaw : 57.77, Alt : 49.2900009155, Lat : 49.2836156, Lng : -123.1149222, Q1 : 0.867306172848, Q2 : 0.0591687262058, Q3 : -0.130550205708, Q4 : 0.476692527533}
2019-04-14 18:14:42.61: SIM {TimeUS : 58634870, Roll : -1.46, Pitch : -16.43, Yaw : 58.23, Alt : 49.2900009155, Lat : 49.2836175, Lng : -123.114918, Q1 : 0.865462779999, Q2 : 0.0584807805717, Q3 : -0.131027951837, Q4 : 0.479985266924}
2019-04-14 18:14:42.71: SIM {TimeUS : 58734830, Roll : -1.43, Pitch : -16.43, Yaw : 58.37, Alt : 49.2900009155, Lat : 49.2836194, Lng : -123.1149137, Q1 : 0.864868760109, Q2 : 0.0588368922472, Q3 : -0.130801811814, Q4 : 0.481072902679}
2019-04-14 18:14:42.81: SIM {TimeUS : 58834790, Roll : -1.27, Pitch : -16.45, Yaw : 58.23, Alt : 49.2900009155, Lat : 49.2836213, Lng : -123.1149093, Q1 : 0.865360379219, Q2 : 0.0599920079112, Q3 : -0.130345597863, Q4 : 0.480169147253}
2019-04-14 18:14:42.91: SIM {TimeUS : 58934750, Roll : -1.0, Pitch : -16.5, Yaw : 57.87, Alt : 49.2900009155, Lat : 49.2836232, Lng : -123.1149051, Q1 : 0.866669774055, Q2 : 0.0618277639151, Q3 : -0.129797175527, Q4 : 0.477717041969}
2019-04-14 18:14:43.01: SIM {TimeUS : 59034710, Roll : -0.67, Pitch : -16.57, Yaw : 57.37, Alt : 49.2900009155, Lat : 49.2836253, Lng : -123.1149007, Q1 : 0.868494153023, Q2 : 0.0640631094575, Q3 : -0.129291221499, Q4 : 0.474233746529}
2019-04-14 18:14:43.11: SIM {TimeUS : 59134670, Roll : -0.33, Pitch : -16.65, Yaw : 56.8, Alt : 49.2900009155, Lat : 49.2836273, Lng : -123.1148963, Q1 : 0.870555639267, Q2 : 0.0663103163242, Q3 : -0.12877856195, Q4 : 0.470267981291}
2019-04-14 18:14:43.21: SIM {TimeUS : 59235463, Roll : 0.0, Pitch : -16.71, Yaw : 56.24, Alt : 49.2900009155, Lat : 49.2836293, Lng : -123.1148918, Q1 : 0.87259721756, Q2 : 0.0684443935752, Q3 : -0.128241375089, Q4 : 0.466308504343}
2019-04-14 18:14:43.31: SIM {TimeUS : 59335423, Roll : 0.27, Pitch : -16.75, Yaw : 55.74, Alt : 49.2900009155, Lat : 49.2836312, Lng : -123.1148873, Q1 : 0.874378919601, Q2 : 0.0702481716871, Q3 : -0.127687230706, Q4 : 0.462841898203}
2019-04-14 18:14:43.41: SIM {TimeUS : 59435383, Roll : 0.49, Pitch : -16.78, Yaw : 55.36, Alt : 49.2900009155, Lat : 49.2836334, Lng : -123.1148828, Q1 : 0.875773310661, Q2 : 0.0715894401073, Q3 : -0.127222016454, Q4 : 0.460120230913}
2019-04-14 18:14:43.51: SIM {TimeUS : 59535343, Roll : 0.62, Pitch : -16.8, Yaw : 55.1, Alt : 49.2900009155, Lat : 49.2836353, Lng : -123.1148782, Q1 : 0.876698434353, Q2 : 0.0723910108209, Q3 : -0.127006426454, Q4 : 0.458288967609}
2019-04-14 18:14:43.61: SIM {TimeUS : 59635303, Roll : 0.67, Pitch : -16.82, Yaw : 54.97, Alt : 49.2900009155, Lat : 49.2836375, Lng : -123.1148734, Q1 : 0.877147018909, Q2 : 0.0726982057095, Q3 : -0.127049282193, Q4 : 0.457369208336}
2019-04-14 18:14:43.71: SIM {TimeUS : 59735263, Roll : 0.64, Pitch : -16.84, Yaw : 54.97, Alt : 49.2900009155, Lat : 49.2836396, Lng : -123.1148689, Q1 : 0.877159893513, Q2 : 0.072538010776, Q3 : -0.127347946167, Q4 : 0.457286894321}
2019-04-14 18:14:43.81: SIM {TimeUS : 59835223, Roll : 0.55, Pitch : -16.86, Yaw : 55.06, Alt : 49.2900009155, Lat : 49.2836416, Lng : -123.1148642, Q1 : 0.876813590527, Q2 : 0.0720419362187, Q3 : -0.127850964665, Q4 : 0.45788872242}
2019-04-14 18:14:43.91: SIM {TimeUS : 59935183, Roll : 0.4, Pitch : -16.91, Yaw : 55.23, Alt : 49.2900009155, Lat : 49.2836437, Lng : -123.1148594, Q1 : 0.876199603081, Q2 : 0.0712951421738, Q3 : -0.128663316369, Q4 : 0.458952158689}
2019-04-14 18:14:44.01: SIM {TimeUS : 60035143, Roll : 0.24, Pitch : -16.96, Yaw : 55.43, Alt : 49.2999992371, Lat : 49.2836458, Lng : -123.1148546, Q1 : 0.875426650047, Q2 : 0.0704835504293, Q3 : -0.129632517695, Q4 : 0.460277825594}
2019-04-14 18:14:44.11: SIM {TimeUS : 60135103, Roll : 0.07, Pitch : -17.01, Yaw : 55.64, Alt : 49.2999992371, Lat : 49.283648, Lng : -123.1148497, Q1 : 0.87463760376, Q2 : 0.0695795714855, Q3 : -0.130558431149, Q4 : 0.461651712656}
2019-04-14 18:14:44.21: SIM {TimeUS : 60235063, Roll : -0.08, Pitch : -17.04, Yaw : 55.83, Alt : 49.2999992371, Lat : 49.28365, Lng : -123.114845, Q1 : 0.873922526836, Q2 : 0.0687308162451, Q3 : -0.131321266294, Q4 : 0.462914943695}
2019-04-14 18:14:44.31: SIM {TimeUS : 60335023, Roll : -0.21, Pitch : -17.07, Yaw : 55.98, Alt : 49.2999992371, Lat : 49.2836522, Lng : -123.1148401, Q1 : 0.873353779316, Q2 : 0.0680547952652, Q3 : -0.131925910711, Q4 : 0.463915228844}
2019-04-14 18:14:44.41: SIM {TimeUS : 60434983, Roll : -0.27, Pitch : -17.1, Yaw : 56.08, Alt : 49.2999992371, Lat : 49.2836543, Lng : -123.1148351, Q1 : 0.87294960022, Q2 : 0.0677948668599, Q3 : -0.132400408387, Q4 : 0.464578330517}
2019-04-14 18:14:44.51: SIM {TimeUS : 60534943, Roll : -0.29, Pitch : -17.13, Yaw : 56.12, Alt : 49.2999992371, Lat : 49.2836565, Lng : -123.1148303, Q1 : 0.872744739056, Q2 : 0.0678485035896, Q3 : -0.132690057158, Q4 : 0.464872688055}
2019-04-14 18:14:44.61: SIM {TimeUS : 60634903, Roll : -0.26, Pitch : -17.17, Yaw : 56.11, Alt : 49.2999992371, Lat : 49.2836586, Lng : -123.1148254, Q1 : 0.872721135616, Q2 : 0.0682519823313, Q3 : -0.132856115699, Q4 : 0.464810520411}
2019-04-14 18:14:44.71: SIM {TimeUS : 60734863, Roll : -0.19, Pitch : -17.22, Yaw : 56.06, Alt : 49.2999992371, Lat : 49.2836609, Lng : -123.1148205, Q1 : 0.872854650021, Q2 : 0.0688968300819, Q3 : -0.132954493165, Q4 : 0.464436292648}
2019-04-14 18:14:44.81: SIM {TimeUS : 60834823, Roll : -0.11, Pitch : -17.26, Yaw : 55.97, Alt : 49.2999992371, Lat : 49.2836631, Lng : -123.1148155, Q1 : 0.873131811619, Q2 : 0.0695346370339, Q3 : -0.132983535528, Q4 : 0.463811576366}
2019-04-14 18:14:44.91: SIM {TimeUS : 60934783, Roll : -0.05, Pitch : -17.28, Yaw : 55.86, Alt : 49.2999992371, Lat : 49.2836652, Lng : -123.1148105, Q1 : 0.873512685299, Q2 : 0.0699829533696, Q3 : -0.132991820574, Q4 : 0.463023930788}
2019-04-14 18:14:45.01: SIM {TimeUS : 61034743, Roll : -0.01, Pitch : -17.29, Yaw : 55.74, Alt : 49.3100013733, Lat : 49.2836675, Lng : -123.1148055, Q1 : 0.873953580856, Q2 : 0.0701880082488, Q3 : -0.132981479168, Q4 : 0.462163090706}
2019-04-14 18:14:45.11: SIM {TimeUS : 61134703, Roll : 0.03, Pitch : -17.29, Yaw : 55.63, Alt : 49.3100013733, Lat : 49.2836698, Lng : -123.1148005, Q1 : 0.874378740788, Q2 : 0.0704395994544, Q3 : -0.132819935679, Q4 : 0.461366355419}
2019-04-14 18:14:45.21: SIM {TimeUS : 61234663, Roll : 0.09, Pitch : -17.29, Yaw : 55.53, Alt : 49.3100013733, Lat : 49.2836719, Lng : -123.1147954, Q1 : 0.874739646912, Q2 : 0.0707462728024, Q3 : -0.132688909769, Q4 : 0.460672527552}
2019-04-14 18:14:45.31: SIM {TimeUS : 61335456, Roll : 0.15, Pitch : -17.32, Yaw : 55.45, Alt : 49.3100013733, Lat : 49.2836743, Lng : -123.1147903, Q1 : 0.874978065491, Q2 : 0.0712859258056, Q3 : -0.13272921741, Q4 : 0.460124611855}
2019-04-14 18:14:45.41: SIM {TimeUS : 61435416, Roll : 0.2, Pitch : -17.38, Yaw : 55.39, Alt : 49.3100013733, Lat : 49.2836765, Lng : -123.1147852, Q1 : 0.875106334686, Q2 : 0.0718284398317, Q3 : -0.132942244411, Q4 : 0.459734708071}
2019-04-14 18:14:45.51: SIM {TimeUS : 61535376, Roll : 0.23, Pitch : -17.4, Yaw : 55.36, Alt : 49.3100013733, Lat : 49.2836787, Lng : -123.1147801, Q1 : 0.875187158585, Q2 : 0.0720936432481, Q3 : -0.133073285222, Q4 : 0.459501326084}
2019-04-14 18:14:45.61: SIM {TimeUS : 61635336, Roll : 0.24, Pitch : -17.4, Yaw : 55.35, Alt : 49.3100013733, Lat : 49.283681, Lng : -123.114775, Q1 : 0.875228345394, Q2 : 0.0721247121692, Q3 : -0.133031785488, Q4 : 0.459429979324}
2019-04-14 18:14:45.71: SIM {TimeUS : 61735296, Roll : 0.21, Pitch : -17.41, Yaw : 55.36, Alt : 49.3100013733, Lat : 49.2836833, Lng : -123.1147699, Q1 : 0.875200510025, Q2 : 0.0719822570682, Q3 : -0.133224353194, Q4 : 0.459449619055}
2019-04-14 18:14:45.81: SIM {TimeUS : 61835256, Roll : 0.16, Pitch : -17.45, Yaw : 55.38, Alt : 49.3100013733, Lat : 49.2836856, Lng : -123.1147648, Q1 : 0.875118076801, Q2 : 0.0717296674848, Q3 : -0.13366997242, Q4 : 0.459516704082}
2019-04-14 18:14:45.91: SIM {TimeUS : 61935216, Roll : 0.11, Pitch : -17.48, Yaw : 55.4, Alt : 49.3100013733, Lat : 49.2836878, Lng : -123.1147596, Q1 : 0.87501090765, Q2 : 0.0715180933475, Q3 : -0.134078681469, Q4 : 0.459634631872}
2019-04-14 18:14:46.01: SIM {TimeUS : 62035176, Roll : 0.08, Pitch : -17.51, Yaw : 55.43, Alt : 49.3100013733, Lat : 49.2836901, Lng : -123.1147544, Q1 : 0.874896228313, Q2 : 0.0714174583554, Q3 : -0.134443104267, Q4 : 0.459762185812}
2019-04-14 18:14:46.11: SIM {TimeUS : 62135136, Roll : 0.06, Pitch : -17.53, Yaw : 55.45, Alt : 49.3199996948, Lat : 49.2836925, Lng : -123.1147492, Q1 : 0.874802410603, Q2 : 0.0714093521237, Q3 : -0.134676724672, Q4 : 0.459873437881}
2019-04-14 18:14:46.21: SIM {TimeUS : 62235096, Roll : 0.05, Pitch : -17.56, Yaw : 55.46, Alt : 49.3199996948, Lat : 49.2836948, Lng : -123.1147439, Q1 : 0.874734163284, Q2 : 0.0714824050665, Q3 : -0.134871393442, Q4 : 0.459934860468}
2019-04-14 18:14:46.31: SIM {TimeUS : 62335056, Roll : 0.06, Pitch : -17.56, Yaw : 55.46, Alt : 49.3199996948, Lat : 49.2836971, Lng : -123.1147388, Q1 : 0.874711215496, Q2 : 0.0715935975313, Q3 : -0.134901508689, Q4 : 0.459952443838}
2019-04-14 18:14:46.41: SIM {TimeUS : 62435016, Roll : 0.09, Pitch : -17.58, Yaw : 55.45, Alt : 49.3199996948, Lat : 49.2836993, Lng : -123.1147336, Q1 : 0.874712705612, Q2 : 0.0718158110976, Q3 : -0.134937956929, Q4 : 0.459904283285}
2019-04-14 18:14:46.51: SIM {TimeUS : 62534976, Roll : 0.11, Pitch : -17.6, Yaw : 55.43, Alt : 49.3199996948, Lat : 49.2837016, Lng : -123.1147284, Q1 : 0.874740600586, Q2 : 0.0720668360591, Q3 : -0.13501162827, Q4 : 0.459790229797}
2019-04-14 18:14:46.61: SIM {TimeUS : 62634936, Roll : 0.12, Pitch : -17.63, Yaw : 55.41, Alt : 49.3199996948, Lat : 49.283704, Lng : -123.1147231, Q1 : 0.874798536301, Q2 : 0.0722365900874, Q3 : -0.135217800736, Q4 : 0.459592789412}
2019-04-14 18:14:46.71: SIM {TimeUS : 62734896, Roll : 0.11, Pitch : -17.67, Yaw : 55.38, Alt : 49.3199996948, Lat : 49.2837064, Lng : -123.1147178, Q1 : 0.874875068665, Q2 : 0.0722526162863, Q3 : -0.135615035892, Q4 : 0.459327489138}
2019-04-14 18:14:46.81: SIM {TimeUS : 62834856, Roll : 0.09, Pitch : -17.72, Yaw : 55.35, Alt : 49.3199996948, Lat : 49.2837087, Lng : -123.1147126, Q1 : 0.874954164028, Q2 : 0.0723122432828, Q3 : -0.136018976569, Q4 : 0.459047943354}
2019-04-14 18:14:46.91: SIM {TimeUS : 62934816, Roll : 0.11, Pitch : -17.75, Yaw : 55.31, Alt : 49.3199996948, Lat : 49.2837111, Lng : -123.1147073, Q1 : 0.875034272671, Q2 : 0.0725101456046, Q3 : -0.136248841882, Q4 : 0.458795845509}
2019-04-14 18:14:47.01: SIM {TimeUS : 63034776, Roll : 0.12, Pitch : -17.76, Yaw : 55.28, Alt : 49.3199996948, Lat : 49.2837133, Lng : -123.114702, Q1 : 0.87514179945, Q2 : 0.0726166591048, Q3 : -0.136253833771, Q4 : 0.458572328091}
2019-04-14 18:14:47.11: SIM {TimeUS : 63134736, Roll : 0.14, Pitch : -17.74, Yaw : 55.26, Alt : 49.3199996948, Lat : 49.2837157, Lng : -123.1146967, Q1 : 0.875257909298, Q2 : 0.0726740211248, Q3 : -0.136081829667, Q4 : 0.458392679691}
2019-04-14 18:14:47.21: SIM {TimeUS : 63234696, Roll : 0.15, Pitch : -17.73, Yaw : 55.23, Alt : 49.3199996948, Lat : 49.2837181, Lng : -123.1146914, Q1 : 0.875365555286, Q2 : 0.0725984722376, Q3 : -0.135942950845, Q4 : 0.458240240812}
2019-04-14 18:14:47.31: SIM {TimeUS : 63334656, Roll : 0.15, Pitch : -17.71, Yaw : 55.22, Alt : 49.3199996948, Lat : 49.2837205, Lng : -123.114686, Q1 : 0.875459492207, Q2 : 0.0725082457066, Q3 : -0.135816201568, Q4 : 0.45811265707}
2019-04-14 18:14:47.41: SIM {TimeUS : 63435449, Roll : 0.15, Pitch : -17.69, Yaw : 55.2, Alt : 49.3199996948, Lat : 49.2837229, Lng : -123.1146807, Q1 : 0.875528216362, Q2 : 0.072439417243, Q3 : -0.13570381701, Q4 : 0.458025455475}
2019-04-14 18:14:47.51: SIM {TimeUS : 63535409, Roll : 0.14, Pitch : -17.7, Yaw : 55.19, Alt : 49.3199996948, Lat : 49.2837253, Lng : -123.1146752, Q1 : 0.875560462475, Q2 : 0.0724191367626, Q3 : -0.135788217187, Q4 : 0.457942068577}
2019-04-14 18:14:47.61: SIM {TimeUS : 63635369, Roll : 0.14, Pitch : -17.72, Yaw : 55.19, Alt : 49.3300018311, Lat : 49.2837277, Lng : -123.11467, Q1 : 0.875569939613, Q2 : 0.0724903121591, Q3 : -0.135946586728, Q4 : 0.45786562562}
2019-04-14 18:14:47.71: SIM {TimeUS : 63735329, Roll : 0.13, Pitch : -17.77, Yaw : 55.18, Alt : 49.3300018311, Lat : 49.28373, Lng : -123.1146646, Q1 : 0.875545442104, Q2 : 0.0725909993052, Q3 : -0.1363889575, Q4 : 0.45776501298}
2019-04-14 18:14:47.81: SIM {TimeUS : 63835289, Roll : 0.12, Pitch : -17.83, Yaw : 55.17, Alt : 49.3300018311, Lat : 49.2837324, Lng : -123.1146592, Q1 : 0.875511586666, Q2 : 0.072742305696, Q3 : -0.136852964759, Q4 : 0.457667201757}
2019-04-14 18:14:47.91: SIM {TimeUS : 63935249, Roll : 0.13, Pitch : -17.86, Yaw : 55.16, Alt : 49.3300018311, Lat : 49.2837348, Lng : -123.1146539, Q1 : 0.875489115715, Q2 : 0.07294151932, Q3 : -0.137114584446, Q4 : 0.457600235939}
2019-04-14 18:14:48.01: SIM {TimeUS : 64035209, Roll : 0.13, Pitch : -17.9, Yaw : 55.16, Alt : 49.3300018311, Lat : 49.2837372, Lng : -123.1146485, Q1 : 0.87548071146, Q2 : 0.0730373635888, Q3 : -0.137368813157, Q4 : 0.457524776459}
2019-04-14 18:14:48.11: SIM {TimeUS : 64135169, Roll : 0.12, Pitch : -17.91, Yaw : 55.15, Alt : 49.3300018311, Lat : 49.2837395, Lng : -123.1146431, Q1 : 0.87550008297, Q2 : 0.07303506881, Q3 : -0.13752104342, Q4 : 0.457442343235}
2019-04-14 18:14:48.21: SIM {TimeUS : 64235129, Roll : 0.13, Pitch : -17.9, Yaw : 55.14, Alt : 49.3300018311, Lat : 49.2837419, Lng : -123.1146377, Q1 : 0.875543355942, Q2 : 0.0730639174581, Q3 : -0.137425199151, Q4 : 0.457383662462}
2019-04-14 18:14:48.31: SIM {TimeUS : 64335089, Roll : 0.15, Pitch : -17.91, Yaw : 55.13, Alt : 49.3300018311, Lat : 49.2837443, Lng : -123.1146323, Q1 : 0.875570595264, Q2 : 0.0732486099005, Q3 : -0.137410849333, Q4 : 0.457306325436}
2019-04-14 18:14:48.41: SIM {TimeUS : 64435049, Roll : 0.16, Pitch : -17.93, Yaw : 55.11, Alt : 49.3300018311, Lat : 49.2837467, Lng : -123.1146269, Q1 : 0.875596225262, Q2 : 0.0733819305897, Q3 : -0.137508168817, Q4 : 0.457206606865}
2019-04-14 18:14:48.51: SIM {TimeUS : 64535009, Roll : 0.17, Pitch : -17.94, Yaw : 55.1, Alt : 49.3300018311, Lat : 49.2837491, Lng : -123.1146214, Q1 : 0.875630617142, Q2 : 0.0734857693315, Q3 : -0.137552753091, Q4 : 0.457110583782}
2019-04-14 18:14:48.61: SIM {TimeUS : 64634969, Roll : 0.18, Pitch : -17.94, Yaw : 55.09, Alt : 49.3300018311, Lat : 49.2837516, Lng : -123.114616, Q1 : 0.875682115555, Q2 : 0.0735518112779, Q3 : -0.137492418289, Q4 : 0.457019537687}
2019-04-14 18:14:48.71: SIM {TimeUS : 64734929, Roll : 0.19, Pitch : -17.94, Yaw : 55.07, Alt : 49.3300018311, Lat : 49.283754, Lng : -123.1146106, Q1 : 0.875740349293, Q2 : 0.0735481977463, Q3 : -0.137495040894, Q4 : 0.456907719374}
2019-04-14 18:14:48.81: SIM {TimeUS : 64834889, Roll : 0.16, Pitch : -17.95, Yaw : 55.06, Alt : 49.3300018311, Lat : 49.2837564, Lng : -123.1146051, Q1 : 0.875788927078, Q2 : 0.0734339654446, Q3 : -0.137741014361, Q4 : 0.456758797169}
2019-04-14 18:14:48.91: SIM {TimeUS : 64934849, Roll : 0.13, Pitch : -17.99, Yaw : 55.04, Alt : 49.3300018311, Lat : 49.2837588, Lng : -123.1145997, Q1 : 0.875816047192, Q2 : 0.0733414664865, Q3 : -0.138153731823, Q4 : 0.456597030163}
2019-04-14 18:14:49.01: SIM {TimeUS : 65034809, Roll : 0.12, Pitch : -18.0, Yaw : 55.03, Alt : 49.3300018311, Lat : 49.2837613, Lng : -123.1145942, Q1 : 0.875865161419, Q2 : 0.0732411071658, Q3 : -0.138271093369, Q4 : 0.456483393908}
2019-04-14 18:14:49.11: SIM {TimeUS : 65134769, Roll : 0.13, Pitch : -17.98, Yaw : 55.02, Alt : 49.3300018311, Lat : 49.2837637, Lng : -123.1145888, Q1 : 0.875923097134, Q2 : 0.0732610449195, Q3 : -0.138098478317, Q4 : 0.456421256065}
2019-04-14 18:14:49.21: SIM {TimeUS : 65234729, Roll : 0.16, Pitch : -17.97, Yaw : 55.01, Alt : 49.3400001526, Lat : 49.2837661, Lng : -123.1145833, Q1 : 0.875973582268, Q2 : 0.0733577311039, Q3 : -0.137886449695, Q4 : 0.456372976303}
2019-04-14 18:14:49.31: SIM {TimeUS : 65334689, Roll : 0.17, Pitch : -17.97, Yaw : 55.0, Alt : 49.3400001526, Lat : 49.2837686, Lng : -123.1145779, Q1 : 0.875998914242, Q2 : 0.0735033005476, Q3 : -0.137883663177, Q4 : 0.456301748753}
2019-04-14 18:14:49.41: SIM {TimeUS : 65435482, Roll : 0.16, Pitch : -18.0, Yaw : 54.99, Alt : 49.3400001526, Lat : 49.283771, Lng : -123.1145723, Q1 : 0.876012086868, Q2 : 0.0735276266932, Q3 : -0.138110950589, Q4 : 0.456203788519}
2019-04-14 18:14:49.51: SIM {TimeUS : 65535442, Roll : 0.14, Pitch : -18.02, Yaw : 54.98, Alt : 49.3400001526, Lat : 49.2837735, Lng : -123.1145669, Q1 : 0.876030564308, Q2 : 0.0734073296189, Q3 : -0.138426542282, Q4 : 0.456092000008}
2019-04-14 18:14:49.61: SIM {TimeUS : 65635402, Roll : 0.12, Pitch : -18.04, Yaw : 54.97, Alt : 49.3400001526, Lat : 49.2837759, Lng : -123.1145614, Q1 : 0.876053452492, Q2 : 0.0733388438821, Q3 : -0.13861091435, Q4 : 0.45600309968}
2019-04-14 18:14:49.71: SIM {TimeUS : 65735362, Roll : 0.12, Pitch : -18.05, Yaw : 54.96, Alt : 49.3400001526, Lat : 49.2837784, Lng : -123.1145559, Q1 : 0.876070916653, Q2 : 0.0733940973878, Q3 : -0.138726338744, Q4 : 0.455925554037}
2019-04-14 18:14:49.81: SIM {TimeUS : 65835322, Roll : 0.13, Pitch : -18.07, Yaw : 54.95, Alt : 49.3400001526, Lat : 49.2837808, Lng : -123.1145504, Q1 : 0.876082062721, Q2 : 0.0735129192472, Q3 : -0.138791933656, Q4 : 0.455864995718}
2019-04-14 18:14:49.91: SIM {TimeUS : 65935282, Roll : 0.16, Pitch : -18.08, Yaw : 54.95, Alt : 49.3400001526, Lat : 49.2837834, Lng : -123.1145449, Q1 : 0.876078307629, Q2 : 0.0737875029445, Q3 : -0.138781800866, Q4 : 0.455830961466}
2019-04-14 18:14:50.01: SIM {TimeUS : 66035242, Roll : 0.18, Pitch : -18.1, Yaw : 54.94, Alt : 49.3400001526, Lat : 49.2837857, Lng : -123.1145394, Q1 : 0.876071810722, Q2 : 0.0740094706416, Q3 : -0.138865023851, Q4 : 0.455782085657}
2019-04-14 18:14:50.11: SIM {TimeUS : 66135202, Roll : 0.2, Pitch : -18.12, Yaw : 54.93, Alt : 49.3400001526, Lat : 49.2837883, Lng : -123.1145339, Q1 : 0.876063883305, Q2 : 0.0742265060544, Q3 : -0.138961181045, Q4 : 0.455732733011}
2019-04-14 18:14:50.21: SIM {TimeUS : 66235162, Roll : 0.22, Pitch : -18.14, Yaw : 54.92, Alt : 49.3400001526, Lat : 49.2837907, Lng : -123.1145284, Q1 : 0.876060664654, Q2 : 0.0744417458773, Q3 : -0.138993054628, Q4 : 0.455694079399}
2019-04-14 18:14:50.31: SIM {TimeUS : 66335122, Roll : 0.25, Pitch : -18.14, Yaw : 54.92, Alt : 49.3400001526, Lat : 49.2837932, Lng : -123.1145229, Q1 : 0.876062750816, Q2 : 0.0746921598911, Q3 : -0.138894423842, Q4 : 0.455679148436}
