2019-04-14 16:53:06.70: SIM {TimeUS : 40116447, Roll : 0.0, Pitch : 0.0, Yaw : 0.0, Alt : 30.1000003815, Lat : 49.28357, Lng : -123.11502, Q1 : 1.0, Q2 : 0.0, Q3 : 0.0, Q4 : 0.0}
2019-04-14 16:53:06.81: SIM {TimeUS : 40235566, Roll : 0.0, Pitch : 0.0, Yaw : 0.0, Alt : 30.1000003815, Lat : 49.28357, Lng : -123.11502, Q1 : 1.0, Q2 : 0.0, Q3 : 0.0, Q4 : 0.0}
2019-04-14 16:53:06.91: SIM {TimeUS : 40335526, Roll : 0.0, Pitch : 0.0, Yaw : 0.0, Alt : 30.1000003815, Lat : 49.28357, Lng : -123.11502, Q1 : 1.0, Q2 : 0.0, Q3 : 0.0, Q4 : 0.0}
2019-04-14 16:53:07.01: SIM {TimeUS : 40435486, Roll : 0.0, Pitch : 0.0, Yaw : 0.0, Alt : 30.1000003815, Lat : 49.28357, Lng : -123.11502, Q1 : 1.0, Q2 : 0.0, Q3 : 0.0, Q4 : 0.0}
2019-04-14 16:53:07.11: SIM {TimeUS : 40535446, Roll : 0.0, Pitch : 0.0, Yaw : 0.0, Alt : 30.1000003815, Lat : 49.28357, Lng : -123.11502, Q1 : 1.0, Q2 : 0.0, Q3 : 0.0, Q4 : 0.0}
2019-04-14 16:53:07.21: SIM {TimeUS : 40635406, Roll : 0.0, Pitch : 0.0, Yaw : 0.0, Alt : 30.1000003815, Lat : 49.28357, Lng : -123.11502, Q1 : 1.0, Q2 : 0.0, Q3 : 0.0, Q4 : 0.0}
2019-04-14 16:53:07.31: SIM {TimeUS : 40735366, Roll : 0.0, Pitch : 0.0, Yaw : 0.0, Alt : 30.1000003815, Lat : 49.28357, Lng : -123.11502, Q1 : 1.0, Q2 : 0.0, Q3 : 0.0, Q4 : 0.0}
2019-04-14 16:53:07.41: SIM {TimeUS : 40835326, Roll : 0.0, Pitch : 0.0, Yaw : 0.0, Alt : 30.1000003815, Lat : 49.28357, Lng : -123.11502, Q1 : 1.0, Q2 : 0.0, Q3 : 0.0, Q4 : 0.0}
2019-04-14 16:53:07.51: SIM {TimeUS : 40935286, Roll : 0.0, Pitch : 0.0, Yaw : 0.0, Alt : 30.1000003815, Lat : 49.28357, Lng : -123.11502, Q1 : 1.0, Q2 : 0.0, Q3 : 0.0, Q4 : 0.0}
2019-04-14 16:53:07.61: SIM {TimeUS : 41035246, Roll : 0.0, Pitch : 0.0, Yaw : 0.0, Alt : 30.1000003815, Lat : 49.28357, Lng : -123.11502, Q1 : 1.0, Q2 : 0.0, Q3 : 0.0, Q4 : 0.0}
2019-04-14 16:53:07.71: SIM {TimeUS : 41135206, Roll : 0.0, Pitch : 0.0, Yaw : 0.0, Alt : 30.1000003815, Lat : 49.28357, Lng : -123.11502, Q1 : 1.0, Q2 : 0.0, Q3 : 0.0, Q4 : 0.0}
2019-04-14 16:53:07.81: SIM {TimeUS : 41235166, Roll : 0.0, Pitch : 0.0, Yaw : 0.0, Alt : 30.1000003815, Lat : 49.28357, Lng : -123.11502, Q1 : 1.0, Q2 : 0.0, Q3 : 0.0, Q4 : 0.0}
2019-04-14 16:53:07.91: SIM {TimeUS : 41335126, Roll : 0.0, Pitch : 0.0, Yaw : 0.0, Alt : 30.1000003815, Lat : 49.28357, Lng : -123.11502, Q1 : 1.0, Q2 : 0.0, Q3 : 0.0, Q4 : 0.0}
2019-04-14 16:53:08.01: SIM {TimeUS : 41435086, Roll : 0.0, Pitch : 0.0, Yaw : 0.0, Alt : 30.1000003815, Lat : 49.28357, Lng : -123.11502, Q1 : 1.0, Q2 : 0.0, Q3 : 0.0, Q4 : 0.0}
2019-04-14 16:53:08.11: SIM {TimeUS : 41535046, Roll : 0.0, Pitch : 0.0, Yaw : 0.0, Alt : 30.1000003815, Lat : 49.28357, Lng : -123.11502, Q1 : 1.0, Q2 : 0.0, Q3 : 0.0, Q4 : 0.0}
2019-04-14 16:53:08.21: SIM {TimeUS : 41635006, Roll : 0.0, Pitch : 0.0, Yaw : 0.0, Alt : 30.1000003815, Lat : 49.28357, Lng : -123.11502, Q1 : 1.0, Q2 : 0.0, Q3 : 0.0, Q4 : 0.0}
2019-04-14 16:53:08.31: SIM {TimeUS : 41734966, Roll : 0.0, Pitch : 0.0, Yaw : 0.0, Alt : 30.1000003815, Lat : 49.28357, Lng : -123.11502, Q1 : 1.0, Q2 : 0.0, Q3 : 0.0, Q4 : 0.0}
2019-04-14 16:53:08.41: SIM {TimeUS : 41834926, Roll : 0.0, Pitch : 0.0, Yaw : 0.0, Alt : 30.1000003815, Lat : 49.28357, Lng : -123.11502, Q1 : 1.0, Q2 : 0.0, Q3 : 0.0, Q4 : 0.0}
2019-04-14 16:53:08.51: SIM {TimeUS : 41934886, Roll : 0.0, Pitch : 0.0, Yaw : 0.0, Alt : 30.1000003815, Lat : 49.28357, Lng : -123.11502, Q1 : 1.0, Q2 : 0.0, Q3 : 0.0, Q4 : 0.0}
2019-04-14 16:53:08.61: SIM {TimeUS : 42034846, Roll : 0.0, Pitch : 0.0, Yaw : 0.0, Alt : 30.1000003815, Lat : 49.28357, Lng : -123.11502, Q1 : 1.0, Q2 : 0.0, Q3 : 0.0, Q4 : 0.0}
2019-04-14 16:53:08.71: SIM {TimeUS : 42134806, Roll : 0.0, Pitch : 0.0, Yaw : 0.0, Alt : 30.1000003815, Lat : 49.28357, Lng : -123.11502, Q1 : 1.0, Q2 : 0.0, Q3 : 0.0, Q4 : 0.0}
2019-04-14 16:53:08.82: SIM {TimeUS : 42235599, Roll : 0.0, Pitch : 0.0, Yaw : 0.0, Alt : 30.1000003815, Lat : 49.28357, Lng : -123.11502, Q1 : 1.0, Q2 : 0.0, Q3 : 0.0, Q4 : 0.0}
2019-04-14 16:53:08.91: SIM {TimeUS : 42335559, Roll : 0.0, Pitch : 0.0, Yaw : 0.0, Alt : 30.1000003815, Lat : 49.28357, Lng : -123.11502, Q1 : 1.0, Q2 : 0.0, Q3 : 0.0, Q4 : 0.0}
2019-04-14 16:53:09.01: SIM {TimeUS : 42435519, Roll : 0.0, Pitch : 0.0, Yaw : 0.0, Alt : 30.1000003815, Lat : 49.28357, Lng : -123.11502, Q1 : 1.0, Q2 : 0.0, Q3 : 0.0, Q4 : 2.92034322072e-12}
2019-04-14 16:53:09.11: SIM {TimeUS : 42535479, Roll : 0.0, Pitch : 0.0, Yaw : 0.0, Alt : 30.1000003815, Lat : 49.28357, Lng : -123.11502, Q1 : 1.0, Q2 : 0.0, Q3 : 0.0, Q4 : 6.72381109124e-11}
2019-04-14 16:53:09.21: SIM {TimeUS : 42635439, Roll : 0.0, Pitch : 0.0, Yaw : 360.0, Alt : 30.1000003815, Lat : 49.28357, Lng : -123.11502, Q1 : 1.0, Q2 : 0.0, Q3 : 0.0, Q4 : -9.67227649085e-08}
2019-04-14 16:53:09.31: SIM {TimeUS : 42735399, Roll : 0.0, Pitch : 0.0, Yaw : 359.99, Alt : 30.1000003815, Lat : 49.28357, Lng : -123.11502, Q1 : 1.0, Q2 : 0.0, Q3 : 0.0, Q4 : -2.56668243992e-07}
2019-04-14 16:53:09.41: SIM {TimeUS : 42835359, Roll : 0.0, Pitch : 0.0, Yaw : 359.99, Alt : 30.1000003815, Lat : 49.28357, Lng : -123.11502, Q1 : 1.0, Q2 : 0.0, Q3 : 0.0, Q4 : -4.3219566237e-07}
2019-04-14 16:53:09.51: SIM {TimeUS : 42935319, Roll : 0.0, Pitch : 0.0, Yaw : 359.99, Alt : 30.1000003815, Lat : 49.28357, Lng : -123.11502, Q1 : 1.0, Q2 : 0.0, Q3 : 0.0, Q4 : -6.59302884287e-07}
2019-04-14 16:53:09.61: SIM {TimeUS : 43035279, Roll : 0.0, Pitch : 0.0, Yaw : 359.99, Alt : 30.1000003815, Lat : 49.28357, Lng : -123.11502, Q1 : 1.0, Q2 : 0.0, Q3 : 0.0, Q4 : -8.72439898103e-07}
2019-04-14 16:53:09.71: SIM {TimeUS : 43135239, Roll : 0.0, Pitch : 0.0, Yaw : 359.99, Alt : 30.1000003815, Lat : 49.28357, Lng : -123.11502, Q1 : 1.0, Q2 : 0.0, Q3 : 0.0, Q4 : -1.09772690848e-06}
2019-04-14 16:53:09.81: SIM {TimeUS : 43235199, Roll : 0.0, Pitch : 0.0, Yaw : 359.99, Alt : 30.1000003815, Lat : 49.28357, Lng : -123.11502, Q1 : 1.0, Q2 : 0.0, Q3 : 0.0, Q4 : -1.31478407184e-06}
2019-04-14 16:53:09.91: SIM {TimeUS : 43335159, Roll : 0.0, Pitch : 0.0, Yaw : 359.99, Alt : 30.1100006104, Lat : 49.28357, Lng : -123.11502, Q1 : 1.0, Q2 : 0.0, Q3 : 0.0, Q4 : -1.53102473632e-06}
2019-04-14 16:53:10.01: SIM {TimeUS : 43435119, Roll : 0.0, Pitch : 0.0, Yaw : 359.99, Alt : 30.1299991608, Lat : 49.28357, Lng : -123.11502, Q1 : 1.0, Q2 : 0.0, Q3 : 0.0, Q4 : -1.7588835135e-06}
2019-04-14 16:53:10.11: SIM {TimeUS : 43535079, Roll : 0.0, Pitch : 0.0, Yaw : 359.99, Alt : 30.1499996185, Lat : 49.28357, Lng : -123.11502, Q1 : 1.0, Q2 : 0.0, Q3 : 0.0, Q4 : -1.99797318601e-06}
2019-04-14 16:53:10.21: SIM {TimeUS : 43635039, Roll : 0.0, Pitch : 0.0, Yaw : 359.99, Alt : 30.1900005341, Lat : 49.28357, Lng : -123.11502, Q1 : 1.0, Q2 : 0.0, Q3 : 0.0, Q4 : -2.19216235564e-06}
2019-04-14 16:53:10.31: SIM {TimeUS : 43734999, Roll : -0.03, Pitch : -0.03, Yaw : 359.99, Alt : 30.2299995422, Lat : 49.28357, Lng : -123.11502, Q1 : 0.999999940395, Q2 : -0.000305180059513, Q3 : -0.000303753447952, Q4 : -4.44076658823e-06}
2019-04-14 16:53:10.41: SIM {TimeUS : 43834959, Roll : -0.29, Pitch : -0.26, Yaw : 359.99, Alt : 30.3099994659, Lat : 49.28357, Lng : -123.11502, Q1 : 0.999994039536, Q2 : -0.00259948172607, Q3 : -0.00227842316963, Q4 : -2.83917925117e-05}
2019-04-14 16:53:10.51: SIM {TimeUS : 43934919, Roll : -0.61, Pitch : -0.5, Yaw : 359.99, Alt : 30.4400005341, Lat : 49.28357, Lng : -123.11502, Q1 : 0.999975800514, Q2 : -0.00538989715278, Q3 : -0.00440320465714, Q4 : -7.59470131015e-05}
2019-04-14 16:53:10.61: SIM {TimeUS : 44034879, Roll : -0.81, Pitch : -0.65, Yaw : 359.98, Alt : 30.5900001526, Lat : 49.28357, Lng : -123.11502, Q1 : 0.999957978725, Q2 : -0.00715174013749, Q3 : -0.00573991239071, Q4 : -0.000145366808283}
2019-04-14 16:53:10.71: SIM {TimeUS : 44134839, Roll : -0.85, Pitch : -0.68, Yaw : 359.97, Alt : 30.75, Lat : 49.28357, Lng : -123.11502, Q1 : 0.999954104424, Q2 : -0.00745089817792, Q3 : -0.0060174157843, Q4 : -0.000227483789786}
2019-04-14 16:53:10.81: SIM {TimeUS : 44234799, Roll : -0.75, Pitch : -0.61, Yaw : 359.96, Alt : 30.9099998474, Lat : 49.28357, Lng : -123.1150201, Q1 : 0.99996393919, Q2 : -0.00657761376351, Q3 : -0.00536672770977, Q4 : -0.000310774019454}
2019-04-14 16:53:10.92: SIM {TimeUS : 44335592, Roll : -0.56, Pitch : -0.46, Yaw : 359.95, Alt : 31.0599994659, Lat : 49.2835701, Lng : -123.1150202, Q1 : 0.999979615211, Q2 : -0.00490229297429, Q3 : -0.00407770322636, Q4 : -0.00039402130642}
2019-04-14 16:53:11.01: SIM {TimeUS : 44435552, Roll : -0.32, Pitch : -0.31, Yaw : 359.94, Alt : 31.2199993134, Lat : 49.2835701, Lng : -123.1150202, Q1 : 0.999992311001, Q2 : -0.00279924878851, Q3 : -0.00270852888934, Q4 : -0.00046463785111}
2019-04-14 16:53:11.11: SIM {TimeUS : 44535512, Roll : -0.1, Pitch : -0.15, Yaw : 359.94, Alt : 31.3799991608, Lat : 49.2835702, Lng : -123.1150203, Q1 : 0.999998450279, Q2 : -0.000958117016125, Q3 : -0.00138046988286, Q4 : -0.000519408727996}
2019-04-14 16:53:11.21: SIM {TimeUS : 44635472, Roll : 0.01, Pitch : -0.03, Yaw : 359.93, Alt : 31.5599994659, Lat : 49.2835702, Lng : -123.1150204, Q1 : 0.999999761581, Q2 : 0.000128887302708, Q3 : -0.000308731367113, Q4 : -0.000563012785278}
2019-04-14 16:53:11.31: SIM {TimeUS : 44735432, Roll : 0.06, Pitch : 0.03, Yaw : 359.93, Alt : 31.7299995422, Lat : 49.2835703, Lng : -123.1150205, Q1 : 0.999999642372, Q2 : 0.000587587244809, Q3 : 0.000271733646514, Q4 : -0.000588666065596}
2019-04-14 16:53:11.41: SIM {TimeUS : 44835392, Roll : 0.06, Pitch : 0.04, Yaw : 359.93, Alt : 31.9099998474, Lat : 49.2835703, Lng : -123.1150206, Q1 : 0.999999582767, Q2 : 0.000603866181336, Q3 : 0.000433713954408, Q4 : -0.000600671977736}
2019-04-14 16:53:11.51: SIM {TimeUS : 44935352, Roll : 0.06, Pitch : 0.04, Yaw : 359.93, Alt : 32.0999984741, Lat : 49.2835703, Lng : -123.1150206, Q1 : 0.999999582767, Q2 : 0.000543489120901, Q3 : 0.000376837997464, Q4 : -0.000597857753746}
2019-04-14 16:53:11.61: SIM {TimeUS : 45035312, Roll : 0.06, Pitch : 0.02, Yaw : 359.93, Alt : 32.2900009155, Lat : 49.2835703, Lng : -123.1150207, Q1 : 0.999999642372, Q2 : 0.000557234103326, Q3 : 0.000248203723459, Q4 : -0.000584102468565}
2019-04-14 16:53:11.71: SIM {TimeUS : 45135272, Roll : 0.08, Pitch : 0.02, Yaw : 359.93, Alt : 32.4799995422, Lat : 49.2835703, Lng : -123.1150207, Q1 : 0.999999582767, Q2 : 0.000702996563632, Q3 : 0.000184430376976, Q4 : -0.000573645462282}
2019-04-14 16:53:11.81: SIM {TimeUS : 45235232, Roll : 0.1, Pitch : 0.04, Yaw : 359.93, Alt : 32.6800003052, Lat : 49.2835703, Lng : -123.1150208, Q1 : 0.999999344349, Q2 : 0.000897010671906, Q3 : 0.000399931042921, Q4 : -0.00056779012084}
2019-04-14 16:53:11.91: SIM {TimeUS : 45335192, Roll : 0.12, Pitch : 0.1, Yaw : 359.93, Alt : 32.8800010681, Lat : 49.2835704, Lng : -123.1150208, Q1 : 0.999998807907, Q2 : 0.001091065933, Q3 : 0.000894966768101, Q4 : -0.000566408969462}
2019-04-14 16:53:12.01: SIM {TimeUS : 45435152, Roll : 0.13, Pitch : 0.15, Yaw : 359.93, Alt : 33.0800018311, Lat : 49.2835704, Lng : -123.1150208, Q1 : 0.999998092651, Q2 : 0.00122037576512, Q3 : 0.00138964515645, Q4 : -0.000566671602428}
2019-04-14 16:53:12.11: SIM {TimeUS : 45535112, Roll : 0.16, Pitch : 0.19, Yaw : 359.93, Alt : 33.2799987793, Lat : 49.2835704, Lng : -123.1150209, Q1 : 0.999997317791, Q2 : 0.00140926754102, Q3 : 0.00174091290683, Q4 : -0.000569096417166}
2019-04-14 16:53:12.21: SIM {TimeUS : 45635072, Roll : 0.18, Pitch : 0.21, Yaw : 359.93, Alt : 33.4799995422, Lat : 49.2835704, Lng : -123.1150209, Q1 : 0.999996781349, Q2 : 0.00161050853785, Q3 : 0.00186353665777, Q4 : -0.000571065349504}
2019-04-14 16:53:12.31: SIM {TimeUS : 45735032, Roll : 0.19, Pitch : 0.21, Yaw : 359.93, Alt : 33.6899986267, Lat : 49.2835704, Lng : -123.1150209, Q1 : 0.99999666214, Q2 : 0.00172892655246, Q3 : 0.00185312668327, Q4 : -0.000564379268326}
2019-04-14 16:53:12.41: SIM {TimeUS : 45834992, Roll : 0.18, Pitch : 0.2, Yaw : 359.93, Alt : 33.9000015259, Lat : 49.2835706, Lng : -123.1150209, Q1 : 0.999996960163, Q2 : 0.00162367115263, Q3 : 0.00177247740794, Q4 : -0.000561576744076}
2019-04-14 16:53:12.51: SIM {TimeUS : 45934952, Roll : 0.16, Pitch : 0.16, Yaw : 359.93, Alt : 34.1100006104, Lat : 49.2835706, Lng : -123.1150209, Q1 : 0.999997854233, Q2 : 0.00143867300358, Q3 : 0.00139991845936, Q4 : -0.000556348415557}
2019-04-14 16:53:12.61: SIM {TimeUS : 46034912, Roll : 0.13, Pitch : 0.09, Yaw : 359.93, Alt : 34.3199996948, Lat : 49.2835706, Lng : -123.1150209, Q1 : 0.999998748302, Q2 : 0.00119338836521, Q3 : 0.000856539118104, Q4 : -0.000540697015822}
2019-04-14 16:53:12.71: SIM {TimeUS : 46134872, Roll : 0.1, Pitch : 0.05, Yaw : 359.93, Alt : 34.5299987793, Lat : 49.2835706, Lng : -123.1150209, Q1 : 0.999999284744, Q2 : 0.000936220807489, Q3 : 0.000464643206215, Q4 : -0.000535166531336}
2019-04-14 16:53:12.81: SIM {TimeUS : 46234832, Roll : 0.07, Pitch : 0.03, Yaw : 359.93, Alt : 34.75, Lat : 49.2835706, Lng : -123.1150209, Q1 : 0.999999582767, Q2 : 0.000694321293849, Q3 : 0.000271659868304, Q4 : -0.00054460123647}
2019-04-14 16:53:12.91: SIM {TimeUS : 46334792, Roll : 0.06, Pitch : 0.03, Yaw : 359.93, Alt : 34.9599990845, Lat : 49.2835706, Lng : -123.1150208, Q1 : 0.999999642372, Q2 : 0.000595026067458, Q3 : 0.000292354408884, Q4 : -0.000562871864531}
2019-04-14 16:53:13.02: SIM {TimeUS : 46435585, Roll : 0.06, Pitch : 0.03, Yaw : 359.93, Alt : 35.1800003052, Lat : 49.2835706, Lng : -123.1150208, Q1 : 0.999999642372, Q2 : 0.00054517533863, Q3 : 0.000279612228042, Q4 : -0.000594244687818}
2019-04-14 16:53:13.11: SIM {TimeUS : 46535545, Roll : 0.05, Pitch : 0.03, Yaw : 359.92, Alt : 35.4000015259, Lat : 49.2835706, Lng : -123.1150208, Q1 : 0.999999642372, Q2 : 0.000446042220574, Q3 : 0.000309647410177, Q4 : -0.000630140013527}
2019-04-14 16:53:13.21: SIM {TimeUS : 46635505, Roll : 0.03, Pitch : 0.04, Yaw : 359.92, Alt : 35.6100006104, Lat : 49.2835706, Lng : -123.1150208, Q1 : 0.999999642372, Q2 : 0.000323940941598, Q3 : 0.000400864781113, Q4 : -0.000668559281621}
2019-04-14 16:53:13.31: SIM {TimeUS : 46735465, Roll : 0.02, Pitch : 0.06, Yaw : 359.91, Alt : 35.8300018311, Lat : 49.2835706, Lng : -123.1150208, Q1 : 0.999999582767, Q2 : 0.000203860516194, Q3 : 0.000526513555087, Q4 : -0.000707843864802}
2019-04-14 16:53:13.41: SIM {TimeUS : 46835425, Roll : 0.01, Pitch : 0.05, Yaw : 359.91, Alt : 36.0499992371, Lat : 49.2835706, Lng : -123.1150208, Q1 : 0.999999582767, Q2 : 0.000103918137029, Q3 : 0.000470011524158, Q4 : -0.000733594235498}
2019-04-14 16:53:13.51: SIM {TimeUS : 46935385, Roll : 0.0, Pitch : 0.04, Yaw : 359.91, Alt : 36.2799987793, Lat : 49.2835704, Lng : -123.1150207, Q1 : 0.999999642372, Q2 : 4.82240466226e-05, Q3 : 0.000409606233006, Q4 : -0.000758472364396}
2019-04-14 16:53:13.61: SIM {TimeUS : 47035345, Roll : 0.0, Pitch : 0.04, Yaw : 359.9, Alt : 36.5, Lat : 49.2835704, Lng : -123.1150207, Q1 : 0.999999642372, Q2 : -5.21607362316e-05, Q3 : 0.000369408662664, Q4 : -0.000787127006333}
2019-04-14 16:53:13.71: SIM {TimeUS : 47135305, Roll : -0.01, Pitch : 0.03, Yaw : 359.9, Alt : 36.7200012207, Lat : 49.2835704, Lng : -123.1150207, Q1 : 0.999999582767, Q2 : -0.000129385240143, Q3 : 0.000320147519233, Q4 : -0.000817155872937}
2019-04-14 16:53:13.81: SIM {TimeUS : 47235265, Roll : 0.0, Pitch : 0.02, Yaw : 359.9, Alt : 36.9399986267, Lat : 49.2835704, Lng : -123.1150207, Q1 : 0.999999642372, Q2 : -5.76945458306e-05, Q3 : 0.000229997589486, Q4 : -0.000849122472573}
2019-04-14 16:53:13.91: SIM {TimeUS : 47335225, Roll : 0.0, Pitch : 0.01, Yaw : 359.89, Alt : 37.1699981689, Lat : 49.2835704, Lng : -123.1150207, Q1 : 0.999999582767, Q2 : -8.54673271533e-05, Q3 : 8.79005456227e-05, Q4 : -0.000881357933395}
2019-04-14 16:53:14.01: SIM {TimeUS : 47435185, Roll : -0.03, Pitch : -0.01, Yaw : 359.89, Alt : 37.3899993896, Lat : 49.2835704, Lng : -123.1150207, Q1 : 0.999999523163, Q2 : -0.000306181900669, Q3 : -0.000155925677973, Q4 : -0.0009115691646}
2019-04-14 16:53:14.11: SIM {TimeUS : 47535145, Roll : -0.07, Pitch : -0.04, Yaw : 359.89, Alt : 37.6199989319, Lat : 49.2835704, Lng : -123.1150207, Q1 : 0.999999284744, Q2 : -0.000636301818304, Q3 : -0.000413529312937, Q4 : -0.000940888596233}
2019-04-14 16:53:14.21: SIM {TimeUS : 47635105, Roll : -0.1, Pitch : -0.06, Yaw : 359.88, Alt : 37.8400001526, Lat : 49.2835704, Lng : -123.1150206, Q1 : 0.999998927116, Q2 : -0.000954487361014, Q3 : -0.00056851725094, Q4 : -0.000961832352914}
2019-04-14 16:53:14.31: SIM {TimeUS : 47735065, Roll : -0.13, Pitch : -0.07, Yaw : 359.88, Alt : 38.0699996948, Lat : 49.2835704, Lng : -123.1150206, Q1 : 0.999998629093, Q2 : -0.00113619526383, Q3 : -0.000687059538905, Q4 : -0.000981421442702}
2019-04-14 16:53:14.41: SIM {TimeUS : 47835025, Roll : -0.13, Pitch : -0.07, Yaw : 359.88, Alt : 38.2999992371, Lat : 49.2835704, Lng : -123.1150206, Q1 : 0.999998569489, Q2 : -0.00116894207895, Q3 : -0.000693195615895, Q4 : -0.00100203184411}
2019-04-14 16:53:14.51: SIM {TimeUS : 47934985, Roll : -0.11, Pitch : -0.05, Yaw : 359.88, Alt : 38.5299987793, Lat : 49.2835704, Lng : -123.1150206, Q1 : 0.999998807907, Q2 : -0.00102590338793, Q3 : -0.000519722525496, Q4 : -0.00102056167088}
2019-04-14 16:53:14.61: SIM {TimeUS : 48034945, Roll : -0.08, Pitch : -0.05, Yaw : 359.88, Alt : 38.75, Lat : 49.2835704, Lng : -123.1150206, Q1 : 0.999999046326, Q2 : -0.000778349291068, Q3 : -0.000458837923361, Q4 : -0.00103854981717}
2019-04-14 16:53:14.71: SIM {TimeUS : 48134905, Roll : -0.07, Pitch : -0.05, Yaw : 359.87, Alt : 38.9799995422, Lat : 49.2835704, Lng : -123.1150206, Q1 : 0.99999910593, Q2 : -0.000614392221905, Q3 : -0.000478198635392, Q4 : -0.00106316700112}
2019-04-14 16:53:14.81: SIM {TimeUS : 48234865, Roll : -0.05, Pitch : -0.03, Yaw : 359.87, Alt : 39.2099990845, Lat : 49.2835704, Lng : -123.1150206, Q1 : 0.99999922514, Q2 : -0.00051477731904, Q3 : -0.000312118558213, Q4 : -0.00107866630424}
2019-04-14 16:53:14.91: SIM {TimeUS : 48334825, Roll : -0.07, Pitch : 0.0, Yaw : 359.87, Alt : 39.4399986267, Lat : 49.2835704, Lng : -123.1150206, Q1 : 0.99999922514, Q2 : -0.000614251825027, Q3 : -7.49222090235e-05, Q4 : -0.00108731340151}
2019-04-14 16:53:15.01: SIM {TimeUS : 48434785, Roll : -0.07, Pitch : 0.01, Yaw : 359.87, Alt : 39.6699981689, Lat : 49.2835704, Lng : -123.1150206, Q1 : 0.99999922514, Q2 : -0.000611034978647, Q3 : 0.000133736859425, Q4 : -0.00109703431372}
2019-04-14 16:53:15.12: SIM {TimeUS : 48535578, Roll : -0.05, Pitch : 0.04, Yaw : 359.87, Alt : 39.9099998474, Lat : 49.2835704, Lng : -123.1150206, Q1 : 0.999999165535, Q2 : -0.000462505064206, Q3 : 0.000424965983257, Q4 : -0.0011140339775}
2019-04-14 16:53:15.21: SIM {TimeUS : 48635538, Roll : -0.03, Pitch : 0.05, Yaw : 359.87, Alt : 40.1399993896, Lat : 49.2835704, Lng : -123.1150207, Q1 : 0.99999922514, Q2 : -0.000294618745102, Q3 : 0.000477287132526, Q4 : -0.00113226496615}
2019-04-14 16:53:15.31: SIM {TimeUS : 48735498, Roll : -0.01, Pitch : 0.05, Yaw : 359.86, Alt : 40.3699989319, Lat : 49.2835704, Lng : -123.1150207, Q1 : 0.99999922514, Q2 : -8.94745535334e-05, Q3 : 0.000443621131126, Q4 : -0.0011476627551}
2019-04-14 16:53:15.41: SIM {TimeUS : 48835458, Roll : 0.02, Pitch : 0.06, Yaw : 359.86, Alt : 40.5999984741, Lat : 49.2835704, Lng : -123.1150207, Q1 : 0.999999165535, Q2 : 0.000191968414583, Q3 : 0.000531744095497, Q4 : -0.00116160011385}
2019-04-14 16:53:15.51: SIM {TimeUS : 48935418, Roll : 0.07, Pitch : 0.08, Yaw : 359.86, Alt : 40.8300018311, Lat : 49.2835704, Lng : -123.1150207, Q1 : 0.999998807907, Q2 : 0.000631867733318, Q3 : 0.000767410034314, Q4 : -0.00117585505359}
2019-04-14 16:53:15.61: SIM {TimeUS : 49035378, Roll : 0.1, Pitch : 0.11, Yaw : 359.86, Alt : 41.0699996948, Lat : 49.2835706, Lng : -123.1150207, Q1 : 0.999998390675, Q2 : 0.000897296529729, Q3 : 0.001016641967, Q4 : -0.00119447137695}
2019-04-14 16:53:15.71: SIM {TimeUS : 49135338, Roll : 0.08, Pitch : 0.13, Yaw : 359.86, Alt : 41.2999992371, Lat : 49.2835706, Lng : -123.1150207, Q1 : 0.999998271465, Q2 : 0.000784401607234, Q3 : 0.00119025632739, Q4 : -0.00120504142251}
2019-04-14 16:53:15.81: SIM {TimeUS : 49235298, Roll : 0.03, Pitch : 0.14, Yaw : 359.86, Alt : 41.5299987793, Lat : 49.2835706, Lng : -123.1150207, Q1 : 0.99999833107, Q2 : 0.000333021249389, Q3 : 0.00128417252563, Q4 : -0.00121991266496}
2019-04-14 16:53:15.91: SIM {TimeUS : 49335258, Roll : -0.01, Pitch : 0.14, Yaw : 359.85, Alt : 41.7599983215, Lat : 49.2835706, Lng : -123.1150207, Q1 : 0.999998390675, Q2 : -8.68406714289e-05, Q3 : 0.00129418703727, Q4 : -0.00124185683671}
2019-04-14 16:53:16.01: SIM {TimeUS : 49435218, Roll : -0.02, Pitch : 0.11, Yaw : 359.85, Alt : 42.0, Lat : 49.2835706, Lng : -123.1150207, Q1 : 0.999998629093, Q2 : -0.000239109023823, Q3 : 0.00101373286452, Q4 : -0.00126966461539}
2019-04-14 16:53:16.11: SIM {TimeUS : 49535178, Roll : -0.02, Pitch : 0.07, Yaw : 359.85, Alt : 42.2299995422, Lat : 49.2835706, Lng : -123.1150207, Q1 : 0.999998927116, Q2 : -0.000256552390056, Q3 : 0.000635209900793, Q4 : -0.0013022928033}
2019-04-14 16:53:16.21: SIM {TimeUS : 49635138, Roll : -0.01, Pitch : 0.06, Yaw : 359.84, Alt : 42.4700012207, Lat : 49.2835706, Lng : -123.1150207, Q1 : 0.999998927116, Q2 : -0.000145129815792, Q3 : 0.000577652535867, Q4 : -0.00133901555091}
2019-04-14 16:53:16.31: SIM {TimeUS : 49735098, Roll : 0.02, Pitch : 0.08, Yaw : 359.84, Alt : 42.7000007629, Lat : 49.2835706, Lng : -123.1150207, Q1 : 0.999998748302, Q2 : 0.000176782326889, Q3 : 0.000751798390411, Q4 : -0.00138190528378}
2019-04-14 16:53:16.41: SIM {TimeUS : 49835058, Roll : 0.07, Pitch : 0.1, Yaw : 359.83, Alt : 42.9399986267, Lat : 49.2835706, Lng : -123.1150207, Q1 : 0.99999833107, Q2 : 0.000672322115861, Q3 : 0.000933589588385, Q4 : -0.0014191607479}
2019-04-14 16:53:16.51: SIM {TimeUS : 49935018, Roll : 0.12, Pitch : 0.1, Yaw : 359.83, Alt : 43.1699981689, Lat : 49.2835704, Lng : -123.1150207, Q1 : 0.999997913837, Q2 : 0.00106707226951, Q3 : 0.000941498496104, Q4 : -0.00145973544568}
2019-04-14 16:53:16.61: SIM {TimeUS : 50034978, Roll : 0.12, Pitch : 0.09, Yaw : 359.82, Alt : 43.4099998474, Lat : 49.2835704, Lng : -123.1150207, Q1 : 0.999997913837, Q2 : 0.00109367654659, Q3 : 0.000844973488711, Q4 : -0.00149460148532}
2019-04-14 16:53:16.71: SIM {TimeUS : 50134938, Roll : 0.08, Pitch : 0.08, Yaw : 359.82, Alt : 43.6399993896, Lat : 49.2835704, Lng : -123.1150207, Q1 : 0.99999833107, Q2 : 0.000719764793757, Q3 : 0.000778931891546, Q4 : -0.00150633929297}
2019-04-14 16:53:16.81: SIM {TimeUS : 50234898, Roll : 0.02, Pitch : 0.09, Yaw : 359.82, Alt : 43.8800010681, Lat : 49.2835704, Lng : -123.1150207, Q1 : 0.999998569489, Q2 : 0.000190151418792, Q3 : 0.000785687647294, Q4 : -0.00151147076394}
2019-04-14 16:53:16.91: SIM {TimeUS : 50334858, Roll : -0.02, Pitch : 0.1, Yaw : 359.82, Alt : 44.1100006104, Lat : 49.2835704, Lng : -123.1150207, Q1 : 0.999998450279, Q2 : -0.000191538652871, Q3 : 0.000888778304216, Q4 : -0.00152180693112}
2019-04-14 16:53:17.01: SIM {TimeUS : 50434818, Roll : -0.04, Pitch : 0.09, Yaw : 359.82, Alt : 44.3499984741, Lat : 49.2835704, Lng : -123.1150207, Q1 : 0.999998390675, Q2 : -0.000399276876124, Q3 : 0.00085307052359, Q4 : -0.001533438568}
2019-04-14 16:53:17.11: SIM {TimeUS : 50534778, Roll : -0.04, Pitch : 0.07, Yaw : 359.82, Alt : 44.5800018311, Lat : 49.2835704, Lng : -123.1150206, Q1 : 0.999998509884, Q2 : -0.000399697571993, Q3 : 0.000621751183644, Q4 : -0.00154979270883}
2019-04-14 16:53:17.21: SIM {TimeUS : 50635571, Roll : -0.04, Pitch : 0.04, Yaw : 359.81, Alt : 44.8199996948, Lat : 49.2835704, Lng : -123.1150206, Q1 : 0.999998569489, Q2 : -0.000428724772064, Q3 : 0.000377286691219, Q4 : -0.00158224871848}
2019-04-14 16:53:17.31: SIM {TimeUS : 50735531, Roll : -0.04, Pitch : 0.01, Yaw : 359.81, Alt : 45.0600013733, Lat : 49.2835704, Lng : -123.1150206, Q1 : 0.999998629093, Q2 : -0.000355850119377, Q3 : 0.00013527846022, Q4 : -0.0016281188}
2019-04-14 16:53:17.41: SIM {TimeUS : 50835491, Roll : -0.01, Pitch : 0.0, Yaw : 359.8, Alt : 45.2900009155, Lat : 49.2835704, Lng : -123.1150206, Q1 : 0.999998569489, Q2 : -0.000166942176293, Q3 : -8.38117830426e-06, Q4 : -0.00168469303753}
2019-04-14 16:53:17.51: SIM {TimeUS : 50935451, Roll : -0.01, Pitch : 0.0, Yaw : 359.8, Alt : 45.5299987793, Lat : 49.2835704, Lng : -123.1150206, Q1 : 0.999998450279, Q2 : -0.000127809180412, Q3 : -3.93636582885e-05, Q4 : -0.00173884013202}
2019-04-14 16:53:17.61: SIM {TimeUS : 51035411, Roll : -0.02, Pitch : 0.0, Yaw : 359.79, Alt : 45.7599983215, Lat : 49.2835703, Lng : -123.1150206, Q1 : 0.999998390675, Q2 : -0.000183951837244, Q3 : -8.15668536234e-05, Q4 : -0.00178647076245}
2019-04-14 16:53:17.71: SIM {TimeUS : 51135371, Roll : -0.02, Pitch : -0.02, Yaw : 359.79, Alt : 46.0, Lat : 49.2835703, Lng : -123.1150206, Q1 : 0.999998271465, Q2 : -0.000258129002759, Q3 : -0.000202471885132, Q4 : -0.00182733067777}
2019-04-14 16:53:17.81: SIM {TimeUS : 51235331, Roll : -0.03, Pitch : -0.02, Yaw : 359.78, Alt : 46.2200012207, Lat : 49.2835703, Lng : -123.1150206, Q1 : 0.999998211861, Q2 : -0.000292115146294, Q3 : -0.000254122947808, Q4 : -0.00185877003241}
2019-04-14 16:53:17.91: SIM {TimeUS : 51335291, Roll : -0.02, Pitch : -0.02, Yaw : 359.78, Alt : 46.4500007629, Lat : 49.2835703, Lng : -123.1150206, Q1 : 0.999998152256, Q2 : -0.000256670406088, Q3 : -0.000257068080828, Q4 : -0.00187969335821}
2019-04-14 16:53:18.01: SIM {TimeUS : 51435251, Roll : -0.03, Pitch : -0.02, Yaw : 359.78, Alt : 46.6699981689, Lat : 49.2835703, Lng : -123.1150206, Q1 : 0.999998152256, Q2 : -0.000310844188789, Q3 : -0.00024423119612, Q4 : -0.00189194106497}
2019-04-14 16:53:18.11: SIM {TimeUS : 51535211, Roll : -0.05, Pitch : -0.02, Yaw : 359.78, Alt : 46.8800010681, Lat : 49.2835703, Lng : -123.1150206, Q1 : 0.999998033047, Q2 : -0.000512972997967, Q3 : -0.000227823256864, Q4 : -0.00190467364155}
2019-04-14 16:53:18.21: SIM {TimeUS : 51635171, Roll : -0.09, Pitch : -0.02, Yaw : 359.78, Alt : 47.0900001526, Lat : 49.2835703, Lng : -123.1150205, Q1 : 0.999997854233, Q2 : -0.000790074758697, Q3 : -0.000247624557232, Q4 : -0.00191942288075}
2019-04-14 16:53:18.31: SIM {TimeUS : 51735131, Roll : -0.11, Pitch : -0.03, Yaw : 359.77, Alt : 47.2900009155, Lat : 49.2835703, Lng : -123.1150205, Q1 : 0.999997615814, Q2 : -0.000975427916273, Q3 : -0.000277015176835, Q4 : -0.00193515792489}
2019-04-14 16:53:18.41: SIM {TimeUS : 51835091, Roll : -0.11, Pitch : -0.02, Yaw : 359.77, Alt : 47.4799995422, Lat : 49.2835703, Lng : -123.1150205, Q1 : 0.999997615814, Q2 : -0.000984193524346, Q3 : -0.000199737973162, Q4 : -0.00195212685503}
2019-04-14 16:53:18.51: SIM {TimeUS : 51935051, Roll : -0.11, Pitch : -0.01, Yaw : 359.77, Alt : 47.6699981689, Lat : 49.2835703, Lng : -123.1150205, Q1 : 0.99999755621, Q2 : -0.000975544913672, Q3 : -0.000101490426459, Q4 : -0.00196995935403}
2019-04-14 16:53:18.61: SIM {TimeUS : 52035011, Roll : -0.12, Pitch : -0.02, Yaw : 359.77, Alt : 47.8400001526, Lat : 49.2835703, Lng : -123.1150205, Q1 : 0.999997377396, Q2 : -0.00109550915658, Q3 : -0.000190764345462, Q4 : -0.0019912244752}
2019-04-14 16:53:18.71: SIM {TimeUS : 52134971, Roll : -0.13, Pitch : -0.02, Yaw : 359.76, Alt : 48.0, Lat : 49.2835703, Lng : -123.1150205, Q1 : 0.999997258186, Q2 : -0.00115528621245, Q3 : -0.00025213972549, Q4 : -0.0020144758746}
2019-04-14 16:53:18.81: SIM {TimeUS : 52234931, Roll : -0.13, Pitch : -0.03, Yaw : 359.76, Alt : 48.1500015259, Lat : 49.2835703, Lng : -123.1150206, Q1 : 0.999997198582, Q2 : -0.00114207284059, Q3 : -0.00032262300374, Q4 : -0.00203654658981}
2019-04-14 16:53:18.91: SIM {TimeUS : 52334891, Roll : -0.11, Pitch : -0.05, Yaw : 359.76, Alt : 48.2799987793, Lat : 49.2835703, Lng : -123.1150206, Q1 : 0.999997317791, Q2 : -0.000964366248809, Q3 : -0.000453902641311, Q4 : -0.00205698702484}
2019-04-14 16:53:19.01: SIM {TimeUS : 52434851, Roll : -0.07, Pitch : -0.06, Yaw : 359.76, Alt : 48.4099998474, Lat : 49.2835703, Lng : -123.1150206, Q1 : 0.999997437, Q2 : -0.000654225994367, Q3 : -0.000594751094468, Q4 : -0.00208009057678}
2019-04-14 16:53:19.11: SIM {TimeUS : 52534811, Roll : -0.05, Pitch : -0.08, Yaw : 359.75, Alt : 48.5200004578, Lat : 49.2835703, Lng : -123.1150206, Q1 : 0.999997437, Q2 : -0.000441679003416, Q3 : -0.000712790468242, Q4 : -0.00210739928298}
2019-04-14 16:53:19.22: SIM {TimeUS : 52635604, Roll : -0.04, Pitch : -0.09, Yaw : 359.75, Alt : 48.6199989319, Lat : 49.2835703, Lng : -123.1150206, Q1 : 0.999997317791, Q2 : -0.000366854248568, Q3 : -0.000810596044175, Q4 : -0.00214007520117}
2019-04-14 16:53:19.31: SIM {TimeUS : 52735564, Roll : -0.01, Pitch : -0.08, Yaw : 359.75, Alt : 48.7099990845, Lat : 49.2835703, Lng : -123.1150206, Q1 : 0.999997317791, Q2 : -0.000127425926621, Q3 : -0.000765824632253, Q4 : -0.00216999440454}
2019-04-14 16:53:19.41: SIM {TimeUS : 52835524, Roll : 0.01, Pitch : -0.06, Yaw : 359.74, Alt : 48.7799987793, Lat : 49.2835703, Lng : -123.1150206, Q1 : 0.999997377396, Q2 : 0.000154334964463, Q3 : -0.000611049064901, Q4 : -0.00220140721649}
2019-04-14 16:53:19.51: SIM {TimeUS : 52935484, Roll : 0.04, Pitch : -0.04, Yaw : 359.74, Alt : 48.8499984741, Lat : 49.2835703, Lng : -123.1150206, Q1 : 0.999997317791, Q2 : 0.000404080696171, Q3 : -0.000417818606365, Q4 : -0.00223005167209}
2019-04-14 16:53:19.61: SIM {TimeUS : 53035444, Roll : 0.06, Pitch : -0.02, Yaw : 359.74, Alt : 48.9099998474, Lat : 49.2835703, Lng : -123.1150206, Q1 : 0.999997258186, Q2 : 0.000528365606442, Q3 : -0.000218129556742, Q4 : -0.00225741113536}
2019-04-14 16:53:19.71: SIM {TimeUS : 53135404, Roll : 0.07, Pitch : -0.01, Yaw : 359.73, Alt : 48.9599990845, Lat : 49.2835703, Lng : -123.1150207, Q1 : 0.999997198582, Q2 : 0.000651674170513, Q3 : -0.000138652641908, Q4 : -0.00228844676167}
2019-04-14 16:53:19.81: SIM {TimeUS : 53235364, Roll : 0.12, Pitch : -0.06, Yaw : 359.73, Alt : 49.0, Lat : 49.2835703, Lng : -123.1150207, Q1 : 0.999996542931, Q2 : 0.00112631393131, Q3 : -0.000570802949369, Q4 : -0.00232297321782}
2019-04-14 16:53:19.91: SIM {TimeUS : 53335324, Roll : 0.32, Pitch : -0.22, Yaw : 359.72, Alt : 49.0400009155, Lat : 49.2835703, Lng : -123.1150207, Q1 : 0.999991238117, Q2 : 0.00285449880175, Q3 : -0.0019445446087, Q4 : -0.00235542771406}
2019-04-14 16:53:20.01: SIM {TimeUS : 53435284, Roll : 0.75, Pitch : -0.51, Yaw : 359.72, Alt : 49.0699996948, Lat : 49.2835704, Lng : -123.1150207, Q1 : 0.999965429306, Q2 : 0.00654592178762, Q3 : -0.00454289326444, Q4 : -0.00237761996686}
2019-04-14 16:53:20.11: SIM {TimeUS : 53535244, Roll : 1.38, Pitch : -0.96, Yaw : 359.71, Alt : 49.0900001526, Lat : 49.2835704, Lng : -123.1150207, Q1 : 0.999888122082, Q2 : 0.012107340619, Q3 : -0.00845480710268, Q4 : -0.00238686101511}
2019-04-14 16:53:20.21: SIM {TimeUS : 53635204, Roll : 2.19, Pitch : -1.51, Yaw : 359.69, Alt : 49.1199989319, Lat : 49.2835704, Lng : -123.1150206, Q1 : 0.999727129936, Q2 : 0.0190894436091, Q3 : -0.0132535193115, Q4 : -0.00236974772997}
2019-04-14 16:53:20.31: SIM {TimeUS : 53735164, Roll : 3.07, Pitch : -2.08, Yaw : 359.68, Alt : 49.1399993896, Lat : 49.2835704, Lng : -123.1150205, Q1 : 0.999473333359, Q2 : 0.0267466921359, Q3 : -0.0182338543236, Q4 : -0.00228941277601}
2019-04-14 16:53:20.41: SIM {TimeUS : 53835124, Roll : 3.87, Pitch : -2.6, Yaw : 359.66, Alt : 49.1500015259, Lat : 49.2835706, Lng : -123.1150204, Q1 : 0.999170303345, Q2 : 0.0336924493313, Q3 : -0.0227796491235, Q4 : -0.00215298286639}
2019-04-14 16:53:20.51: SIM {TimeUS : 53935084, Roll : 4.49, Pitch : -3.03, Yaw : 359.65, Alt : 49.1699981689, Lat : 49.2835707, Lng : -123.1150201, Q1 : 0.99887907505, Q2 : 0.0391184724867, Q3 : -0.026579298079, Q4 : -0.00196522427723}
2019-04-14 16:53:20.61: SIM {TimeUS : 54035044, Roll : 4.93, Pitch : -3.36, Yaw : 359.65, Alt : 49.1800003052, Lat : 49.2835709, Lng : -123.1150199, Q1 : 0.998642981052, Q2 : 0.0429186075926, Q3 : -0.0294489692897, Q4 : -0.00173110724427}
2019-04-14 16:53:20.71: SIM {TimeUS : 54135004, Roll : 5.24, Pitch : -3.63, Yaw : 359.66, Alt : 49.1899986267, Lat : 49.283571, Lng : -123.1150195, Q1 : 0.998452484608, Q2 : 0.04561438784, Q3 : -0.0317777730525, Q4 : -0.00147852138616}
2019-04-14 16:53:20.81: SIM {TimeUS : 54234964, Roll : 5.51, Pitch : -3.86, Yaw : 359.67, Alt : 49.2000007629, Lat : 49.2835713, Lng : -123.115019, Q1 : 0.998277366161, Q2 : 0.0479475595057, Q3 : -0.0337921530008, Q4 : -0.00121128454339}
2019-04-14 16:53:20.91: SIM {TimeUS : 54334924, Roll : 5.79, Pitch : -4.08, Yaw : 359.68, Alt : 49.2099990845, Lat : 49.2835715, Lng : -123.1150184, Q1 : 0.998088598251, Q2 : 0.0504388809204, Q3 : -0.0356963314116, Q4 : -0.000924205582123}
2019-04-14 16:53:21.01: SIM {TimeUS : 54434884, Roll : 6.1, Pitch : -4.29, Yaw : 359.69, Alt : 49.2200012207, Lat : 49.2835719, Lng : -123.1150177, Q1 : 0.997879207134, Q2 : 0.0531301684678, Q3 : -0.0376023165882, Q4 : -0.000628694484476}
2019-04-14 16:53:21.11: SIM {TimeUS : 54534844, Roll : 6.4, Pitch : -4.49, Yaw : 359.7, Alt : 49.2200012207, Lat : 49.2835722, Lng : -123.1150169, Q1 : 0.9976760149, Q2 : 0.0556860528886, Q3 : -0.0392618365586, Q4 : -0.000352352915797}
2019-04-14 16:53:21.21: SIM {TimeUS : 54634804, Roll : 6.62, Pitch : -4.64, Yaw : 359.71, Alt : 49.2299995422, Lat : 49.2835727, Lng : -123.115016, Q1 : 0.997511088848, Q2 : 0.0576736778021, Q3 : -0.0405628494918, Q4 : -0.00012280367082}
2019-04-14 16:53:21.32: SIM {TimeUS : 54735597, Roll : 6.79, Pitch : -4.77, Yaw : 359.72, Alt : 49.2400016785, Lat : 49.2835731, Lng : -123.1150151, Q1 : 0.997381746769, Q2 : 0.0590860769153, Q3 : -0.0416949875653, Q4 : 4.55126391898e-05}
2019-04-14 16:53:21.41: SIM {TimeUS : 54835557, Roll : 6.9, Pitch : -4.87, Yaw : 359.72, Alt : 49.2400016785, Lat : 49.2835735, Lng : -123.1150139, Q1 : 0.997284173965, Q2 : 0.0600859485567, Q3 : -0.0425908267498, Q4 : 0.000157299291459}
2019-04-14 16:53:21.51: SIM {TimeUS : 54935517, Roll : 7.01, Pitch : -4.94, Yaw : 359.72, Alt : 49.25, Lat : 49.283574, Lng : -123.1150128, Q1 : 0.997197091579, Q2 : 0.0610540099442, Q3 : -0.0432467795908, Q4 : 0.000243772316026}
2019-04-14 16:53:21.61: SIM {TimeUS : 55035477, Roll : 7.15, Pitch : -5.0, Yaw : 359.72, Alt : 49.25, Lat : 49.2835746, Lng : -123.1150116, Q1 : 0.997104763985, Q2 : 0.0622283928096, Q3 : -0.0436995103955, Q4 : 0.00034787383629}
2019-04-14 16:53:21.71: SIM {TimeUS : 55135437, Roll : 7.46, Pitch : -4.93, Yaw : 359.89, Alt : 49.25, Lat : 49.2835752, Lng : -123.1150102, Q1 : 0.996953487396, Q2 : 0.0650324895978, Q3 : -0.0430207699537, Q4 : 0.00192137085833}
2019-04-14 16:53:21.81: SIM {TimeUS : 55235397, Roll : 8.0, Pitch : -4.73, Yaw : 0.8, Alt : 49.2599983215, Lat : 49.2835759, Lng : -123.1150088, Q1 : 0.996664643288, Q2 : 0.0700303018093, Q3 : -0.0407200083137, Q4 : 0.00986177567393}
2019-04-14 16:53:21.91: SIM {TimeUS : 55335357, Roll : 8.61, Pitch : -4.66, Yaw : 3.07, Alt : 49.2599983215, Lat : 49.2835765, Lng : -123.1150072, Q1 : 0.995908617973, Q2 : 0.0760802477598, Q3 : -0.0385830886662, Q4 : 0.0298194848001}
2019-04-14 16:53:22.01: SIM {TimeUS : 55435317, Roll : 9.01, Pitch : -5.03, Yaw : 6.94, Alt : 49.2599983215, Lat : 49.2835773, Lng : -123.1150056, Q1 : 0.99390745163, Q2 : 0.081015072763, Q3 : -0.0389951951802, Q4 : 0.0637488886714}
2019-04-14 16:53:22.11: SIM {TimeUS : 55535277, Roll : 8.98, Pitch : -5.93, Yaw : 12.27, Alt : 49.2599983215, Lat : 49.283578, Lng : -123.1150039, Q1 : 0.989454507828, Q2 : 0.0833070725203, Q3 : -0.0429399088025, Q4 : 0.110434696078}
2019-04-14 16:53:22.21: SIM {TimeUS : 55635237, Roll : 8.39, Pitch : -7.26, Yaw : 18.83, Alt : 49.2599983215, Lat : 49.2835788, Lng : -123.115002, Q1 : 0.981148719788, Q2 : 0.0824105069041, Q3 : -0.050353076309, Q4 : 0.167392492294}
2019-04-14 16:53:22.31: SIM {TimeUS : 55735197, Roll : 7.21, Pitch : -8.83, Yaw : 26.36, Alt : 49.2700004578, Lat : 49.2835794, Lng : -123.115, Q1 : 0.967722058296, Q2 : 0.0785877928138, Q3 : -0.0605863146484, Q4 : 0.231662064791}
2019-04-14 16:53:22.41: SIM {TimeUS : 55835157, Roll : 5.45, Pitch : -10.42, Yaw : 34.62, Alt : 49.2700004578, Lat : 49.2835802, Lng : -123.1149979, Q1 : 0.948378920555, Q2 : 0.0722401887178, Q3 : -0.0724930614233, Q4 : 0.300172567368}
2019-04-14 16:53:22.51: SIM {TimeUS : 55935117, Roll : 3.14, Pitch : -11.76, Yaw : 43.33, Alt : 49.2700004578, Lat : 49.2835811, Lng : -123.1149957, Q1 : 0.923058569431, Q2 : 0.0632146447897, Q3 : -0.0851408541203, Q4 : 0.369753807783}
2019-04-14 16:53:22.61: SIM {TimeUS : 56035077, Roll : 0.19, Pitch : -12.67, Yaw : 51.93, Alt : 49.2700004578, Lat : 49.2835818, Lng : -123.1149934, Q1 : 0.893479645252, Q2 : 0.0498515367508, Q3 : -0.0984773933887, Q4 : 0.435328900814}
2019-04-14 16:53:22.71: SIM {TimeUS : 56135037, Roll : -2.99, Pitch : -13.03, Yaw : 59.52, Alt : 49.2700004578, Lat : 49.2835828, Lng : -123.114991, Q1 : 0.863656401634, Q2 : 0.0338138304651, Q3 : -0.111369200051, Q4 : 0.490460157394}
2019-04-14 16:53:22.81: SIM {TimeUS : 56234997, Roll : -5.74, Pitch : -12.96, Yaw : 65.35, Alt : 49.2700004578, Lat : 49.2835837, Lng : -123.1149885, Q1 : 0.838324069977, Q2 : 0.018944201991, Q3 : -0.121825054288, Q4 : 0.531048476696}
2019-04-14 16:53:22.91: SIM {TimeUS : 56334957, Roll : -7.6, Pitch : -12.72, Yaw : 69.1, Alt : 49.2700004578, Lat : 49.2835849, Lng : -123.1149859, Q1 : 0.8209156394, Q2 : 0.00845444202423, Q3 : -0.128433927894, Q4 : 0.556354939938}
2019-04-14 16:53:23.01: SIM {TimeUS : 56434917, Roll : -8.37, Pitch : -12.55, Yaw : 70.84, Alt : 49.2700004578, Lat : 49.2835861, Lng : -123.1149834, Q1 : 0.812503159046, Q2 : 0.00403427891433, Q3 : -0.130914509296, Q4 : 0.568052589893}
2019-04-14 16:53:23.11: SIM {TimeUS : 56534877, Roll : -8.14, Pitch : -12.61, Yaw : 70.88, Alt : 49.2700004578, Lat : 49.2835873, Lng : -123.1149808, Q1 : 0.812244951725, Q2 : 0.00602796301246, Q3 : -0.130189165473, Q4 : 0.56857073307}
2019-04-14 16:53:23.21: SIM {TimeUS : 56634837, Roll : -7.13, Pitch : -12.94, Yaw : 69.6, Alt : 49.2700004578, Lat : 49.2835887, Lng : -123.114978, Q1 : 0.818321287632, Q2 : 0.0134689463302, Q3 : -0.127658322453, Q4 : 0.560243010521}
2019-04-14 16:53:23.31: SIM {TimeUS : 56734797, Roll : -5.57, Pitch : -13.51, Yaw : 67.34, Alt : 49.2799987793, Lat : 49.2835903, Lng : -123.1149754, Q1 : 0.828613460064, Q2 : 0.0249628685415, Q3 : -0.124630197883, Q4 : 0.545200765133}
2019-04-14 16:53:23.42: SIM {TimeUS : 56835590, Roll : -3.71, Pitch : -14.24, Yaw : 64.42, Alt : 49.2799987793, Lat : 49.2835917, Lng : -123.1149725, Q1 : 0.841248989105, Q2 : 0.038850966841, Q3 : -0.121965683997, Q4 : 0.525276303291}
2019-04-14 16:53:23.51: SIM {TimeUS : 56935550, Roll : -1.78, Pitch : -14.92, Yaw : 61.19, Alt : 49.2799987793, Lat : 49.2835934, Lng : -123.1149697, Q1 : 0.854411900043, Q2 : 0.0528071820736, Q3 : -0.119664564729, Q4 : 0.502863943577}
2019-04-14 16:53:23.61: SIM {TimeUS : 57035510, Roll : 0.04, Pitch : -15.45, Yaw : 57.95, Alt : 49.2799987793, Lat : 49.2835951, Lng : -123.1149667, Q1 : 0.866861701012, Q2 : 0.065477013588, Q3 : -0.117423176765, Q4 : 0.480078548193}
2019-04-14 16:53:23.71: SIM {TimeUS : 57135470, Roll : 1.61, Pitch : -15.76, Yaw : 55.03, Alt : 49.2799987793, Lat : 49.2835966, Lng : -123.1149636, Q1 : 0.877515554428, Q2 : 0.0756958127022, Q3 : -0.11517123878, Q4 : 0.459317028522}
2019-04-14 16:53:23.81: SIM {TimeUS : 57235430, Roll : 2.77, Pitch : -15.86, Yaw : 52.71, Alt : 49.2799987793, Lat : 49.2835983, Lng : -123.1149603, Q1 : 0.885707437992, Q2 : 0.0827402919531, Q3 : -0.113022953272, Q4 : 0.442608386278}
2019-04-14 16:53:23.91: SIM {TimeUS : 57335390, Roll : 3.46, Pitch : -15.83, Yaw : 51.16, Alt : 49.2799987793, Lat : 49.2836, Lng : -123.114957, Q1 : 0.891165792942, Q2 : 0.0864877551794, Q3 : -0.111245788634, Q4 : 0.431239783764}
2019-04-14 16:53:24.01: SIM {TimeUS : 57435350, Roll : 3.67, Pitch : -15.76, Yaw : 50.4, Alt : 49.2799987793, Lat : 49.2836017, Lng : -123.1149535, Q1 : 0.893906414509, Q2 : 0.0871486440301, Q3 : -0.110498443246, Q4 : 0.425589621067}
2019-04-14 16:53:24.11: SIM {TimeUS : 57535310, Roll : 3.46, Pitch : -15.73, Yaw : 50.39, Alt : 49.2799987793, Lat : 49.2836033, Lng : -123.1149498, Q1 : 0.894140839577, Q2 : 0.0853656604886, Q3 : -0.111063212156, Q4 : 0.42531144619}
2019-04-14 16:53:24.21: SIM {TimeUS : 57635270, Roll : 2.91, Pitch : -15.77, Yaw : 51.0, Alt : 49.2900009155, Lat : 49.283605, Lng : -123.1149461, Q1 : 0.892243146896, Q2 : 0.0817820429802, Q3 : -0.113011643291, Q4 : 0.429467439651}
2019-04-14 16:53:24.31: SIM {TimeUS : 57735230, Roll : 2.12, Pitch : -15.88, Yaw : 52.05, Alt : 49.2900009155, Lat : 49.2836068, Lng : -123.1149423, Q1 : 0.888704180717, Q2 : 0.0771292820573, Q3 : -0.116055138409, Q4 : 0.436791956425}
2019-04-14 16:53:24.41: SIM {TimeUS : 57835190, Roll : 1.25, Pitch : -16.02, Yaw : 53.35, Alt : 49.2900009155, Lat : 49.2836085, Lng : -123.1149384, Q1 : 0.884098231792, Q2 : 0.0722335204482, Q3 : -0.119658276439, Q4 : 0.445908665657}
2019-04-14 16:53:24.51: SIM {TimeUS : 57935150, Roll : 0.39, Pitch : -16.18, Yaw : 54.72, Alt : 49.2900009155, Lat : 49.2836102, Lng : -123.1149344, Q1 : 0.879044950008, Q2 : 0.0677529647946, Q3 : -0.12342172116, Q4 : 0.455474108458}
2019-04-14 16:53:24.61: SIM {TimeUS : 58035110, Roll : -0.35, Pitch : -16.32, Yaw : 56.0, Alt : 49.2900009155, Lat : 49.283612, Lng : -123.1149304, Q1 : 0.874186336994, Q2 : 0.0639734789729, Q3 : -0.12683172524, Q4 : 0.464348226786}
2019-04-14 16:53:24.71: SIM {TimeUS : 58135070, Roll : -0.95, Pitch : -16.44, Yaw : 57.06, Alt : 49.2900009155, Lat : 49.2836136, Lng : -123.1149263, Q1 : 0.870060026646, Q2 : 0.0610409975052, Q3 : -0.129564926028, Q4 : 0.471680521965}
2019-04-14 16:53:24.81: SIM {TimeUS : 58235030, Roll : -1.35, Pitch : -16.49, Yaw : 57.82, Alt : 49.2900009155, Lat : 49.2836156, Lng : -123.1149221, Q1 : 0.867057919502, Q2 : 0.0590821616352, Q3 : -0.131215468049, Q4 : 0.476972073317}
2019-04-14 16:53:24.91: SIM {TimeUS : 58334990, Roll : -1.52, Pitch : -16.49, Yaw : 58.25, Alt : 49.2900009155, Lat : 49.2836174, Lng : -123.1149179, Q1 : 0.865344166756, Q2 : 0.0582899339497, Q3 : -0.131682604551, Q4 : 0.480043202639}
2019-04-14 16:53:25.01: SIM {TimeUS : 58434950, Roll : -1.5, Pitch : -16.48, Yaw : 58.37, Alt : 49.2900009155, Lat : 49.2836193, Lng : -123.1149137, Q1 : 0.864874839783, Q2 : 0.0585300214589, Q3 : -0.131475478411, Q4 : 0.480915755033}
2019-04-14 16:53:25.11: SIM {TimeUS : 58534910, Roll : -1.31, Pitch : -16.49, Yaw : 58.2, Alt : 49.2900009155, Lat : 49.2836213, Lng : -123.1149093, Q1 : 0.865459263325, Q2 : 0.0598288029432, Q3 : -0.130827218294, Q4 : 0.47988024354}
2019-04-14 16:53:25.21: SIM {TimeUS : 58634870, Roll : -0.99, Pitch : -16.5, Yaw : 57.82, Alt : 49.2900009155, Lat : 49.2836232, Lng : -123.1149051, Q1 : 0.866857111454, Q2 : 0.0618778988719, Q3 : -0.129810526967, Q4 : 0.477366954088}
2019-04-14 16:53:25.31: SIM {TimeUS : 58734830, Roll : -0.62, Pitch : -16.53, Yaw : 57.31, Alt : 49.2900009155, Lat : 49.2836251, Lng : -123.1149007, Q1 : 0.868764996529, Q2 : 0.0642157644033, Q3 : -0.12875328958, Q4 : 0.473863184452}
2019-04-14 16:53:25.41: SIM {TimeUS : 58834790, Roll : -0.26, Pitch : -16.58, Yaw : 56.73, Alt : 49.2900009155, Lat : 49.2836272, Lng : -123.1148963, Q1 : 0.870860636234, Q2 : 0.0665246024728, Q3 : -0.128017529845, Q4 : 0.469880521297}
2019-04-14 16:53:25.52: SIM {TimeUS : 58935583, Roll : 0.06, Pitch : -16.66, Yaw : 56.17, Alt : 49.2900009155, Lat : 49.2836293, Lng : -123.1148918, Q1 : 0.872890532017, Q2 : 0.0686720535159, Q3 : -0.127577185631, Q4 : 0.465908080339}
2019-04-14 16:53:25.61: SIM {TimeUS : 59035543, Roll : 0.32, Pitch : -16.73, Yaw : 55.68, Alt : 49.2900009155, Lat : 49.2836312, Lng : -123.1148873, Q1 : 0.874626517296, Q2 : 0.070432215929, Q3 : -0.127365380526, Q4 : 0.462434738874}
2019-04-14 16:53:25.71: SIM {TimeUS : 59135503, Roll : 0.49, Pitch : -16.78, Yaw : 55.3, Alt : 49.2900009155, Lat : 49.2836333, Lng : -123.1148827, Q1 : 0.875987768173, Q2 : 0.0715361684561, Q3 : -0.127244666219, Q4 : 0.459713816643}
2019-04-14 16:53:25.81: SIM {TimeUS : 59235463, Roll : 0.6, Pitch : -16.81, Yaw : 55.05, Alt : 49.2900009155, Lat : 49.2836353, Lng : -123.1148781, Q1 : 0.876870155334, Q2 : 0.0721887350082, Q3 : -0.127289369702, Q4 : 0.457913786173}
2019-04-14 16:53:25.91: SIM {TimeUS : 59335423, Roll : 0.62, Pitch : -16.85, Yaw : 54.94, Alt : 49.2900009155, Lat : 49.2836375, Lng : -123.1148734, Q1 : 0.877275288105, Q2 : 0.0723949447274, Q3 : -0.127515032887, Q4 : 0.457041561604}
2019-04-14 16:53:26.01: SIM {TimeUS : 59435383, Roll : 0.58, Pitch : -16.88, Yaw : 54.95, Alt : 49.2900009155, Lat : 49.2836395, Lng : -123.1148688, Q1 : 0.877246379852, Q2 : 0.0721647590399, Q3 : -0.127919390798, Q4 : 0.457020461559}
2019-04-14 16:53:26.11: SIM {TimeUS : 59535343, Roll : 0.49, Pitch : -16.9, Yaw : 55.05, Alt : 49.2900009155, Lat : 49.2836415, Lng : -123.1148641, Q1 : 0.87685751915, Q2 : 0.0717161670327, Q3 : -0.128399312496, Q4 : 0.457702159882}
2019-04-14 16:53:26.21: SIM {TimeUS : 59635303, Roll : 0.38, Pitch : -16.93, Yaw : 55.22, Alt : 49.2900009155, Lat : 49.2836437, Lng : -123.1148594, Q1 : 0.876206934452, Q2 : 0.071181178093, Q3 : -0.128982529044, Q4 : 0.458866119385}
2019-04-14 16:53:26.31: SIM {TimeUS : 59735263, Roll : 0.25, Pitch : -16.96, Yaw : 55.43, Alt : 49.2900009155, Lat : 49.2836457, Lng : -123.1148546, Q1 : 0.875434815884, Q2 : 0.0705190524459, Q3 : -0.129580006003, Q4 : 0.460271656513}
2019-04-14 16:53:26.41: SIM {TimeUS : 59835223, Roll : 0.11, Pitch : -16.99, Yaw : 55.64, Alt : 49.2999992371, Lat : 49.2836479, Lng : -123.1148497, Q1 : 0.874637365341, Q2 : 0.0698440819979, Q3 : -0.130212306976, Q4 : 0.461709886789}
2019-04-14 16:53:26.51: SIM {TimeUS : 59935183, Roll : -0.01, Pitch : -17.03, Yaw : 55.83, Alt : 49.2999992371, Lat : 49.28365, Lng : -123.114845, Q1 : 0.873901844025, Q2 : 0.069261200726, Q3 : -0.1309132725, Q4 : 0.462990492582}
2019-04-14 16:53:26.61: SIM {TimeUS : 60035143, Roll : -0.12, Pitch : -17.07, Yaw : 55.98, Alt : 49.2999992371, Lat : 49.2836522, Lng : -123.1148401, Q1 : 0.873313844204, Q2 : 0.0687678083777, Q3 : -0.131602227688, Q4 : 0.463977098465}
2019-04-14 16:53:26.71: SIM {TimeUS : 60135103, Roll : -0.21, Pitch : -17.11, Yaw : 56.07, Alt : 49.2999992371, Lat : 49.2836543, Lng : -123.1148351, Q1 : 0.872927129269, Q2 : 0.0683326870203, Q3 : -0.13218459487, Q4 : 0.464603155851}
2019-04-14 16:53:26.81: SIM {TimeUS : 60235063, Roll : -0.26, Pitch : -17.13, Yaw : 56.12, Alt : 49.2999992371, Lat : 49.2836565, Lng : -123.1148303, Q1 : 0.87275582552, Q2 : 0.0680480003357, Q3 : -0.132573470473, Q4 : 0.464855968952}
2019-04-14 16:53:26.91: SIM {TimeUS : 60335023, Roll : -0.29, Pitch : -17.16, Yaw : 56.11, Alt : 49.2999992371, Lat : 49.2836586, Lng : -123.1148254, Q1 : 0.872782289982, Q2 : 0.0679445117712, Q3 : -0.132877841592, Q4 : 0.464734435081}
2019-04-14 16:53:27.01: SIM {TimeUS : 60434983, Roll : -0.26, Pitch : -17.19, Yaw : 56.05, Alt : 49.2999992371, Lat : 49.2836609, Lng : -123.1148204, Q1 : 0.872951686382, Q2 : 0.0682563334703, Q3 : -0.132991537452, Q4 : 0.464337974787}
2019-04-14 16:53:27.11: SIM {TimeUS : 60534943, Roll : -0.19, Pitch : -17.22, Yaw : 55.96, Alt : 49.2999992371, Lat : 49.2836631, Lng : -123.1148155, Q1 : 0.873232662678, Q2 : 0.0687932670116, Q3 : -0.133023947477, Q4 : 0.463720649481}
2019-04-14 16:53:27.21: SIM {TimeUS : 60634903, Roll : -0.09, Pitch : -17.25, Yaw : 55.86, Alt : 49.2999992371, Lat : 49.2836652, Lng : -123.1148105, Q1 : 0.873574912548, Q2 : 0.0695549398661, Q3 : -0.132958188653, Q4 : 0.462980777025}
2019-04-14 16:53:27.31: SIM {TimeUS : 60734863, Roll : 0.01, Pitch : -17.29, Yaw : 55.74, Alt : 49.3100013733, Lat : 49.2836675, Lng : -123.1148055, Q1 : 0.873934566975, Q2 : 0.0703844502568, Q3 : -0.132864519954, Q4 : 0.462202817202}
2019-04-14 16:53:27.41: SIM {TimeUS : 60834823, Roll : 0.1, Pitch : -17.32, Yaw : 55.63, Alt : 49.3100013733, Lat : 49.2836697, Lng : -123.1148005, Q1 : 0.874289214611, Q2 : 0.0710563212633, Q3 : -0.132814973593, Q4 : 0.461442917585}
2019-04-14 16:53:27.51: SIM {TimeUS : 60934783, Roll : 0.15, Pitch : -17.34, Yaw : 55.53, Alt : 49.3100013733, Lat : 49.2836719, Lng : -123.1147954, Q1 : 0.874623656273, Q2 : 0.0714222565293, Q3 : -0.132762476802, Q4 : 0.460767269135}
2019-04-14 16:53:27.62: SIM {TimeUS : 61035576, Roll : 0.17, Pitch : -17.35, Yaw : 55.46, Alt : 49.3100013733, Lat : 49.2836743, Lng : -123.1147903, Q1 : 0.874894976616, Q2 : 0.0715537071228, Q3 : -0.132832229137, Q4 : 0.460211366415}
2019-04-14 16:53:27.71: SIM {TimeUS : 61135536, Roll : 0.18, Pitch : -17.36, Yaw : 55.41, Alt : 49.3100013733, Lat : 49.2836765, Lng : -123.1147852, Q1 : 0.875094115734, Q2 : 0.0715964287519, Q3 : -0.132864251733, Q4 : 0.45981657505}
2019-04-14 16:53:27.81: SIM {TimeUS : 61235496, Roll : 0.18, Pitch : -17.37, Yaw : 55.38, Alt : 49.3100013733, Lat : 49.2836787, Lng : -123.1147801, Q1 : 0.875202059746, Q2 : 0.0715896189213, Q3 : -0.133004099131, Q4 : 0.459571838379}
2019-04-14 16:53:27.91: SIM {TimeUS : 61335456, Roll : 0.18, Pitch : -17.4, Yaw : 55.37, Alt : 49.3100013733, Lat : 49.2836809, Lng : -123.114775, Q1 : 0.875200510025, Q2 : 0.071719609201, Q3 : -0.13328422606, Q4 : 0.459473252296}
2019-04-14 16:53:28.01: SIM {TimeUS : 61435416, Roll : 0.18, Pitch : -17.46, Yaw : 55.37, Alt : 49.3100013733, Lat : 49.2836833, Lng : -123.1147699, Q1 : 0.875117480755, Q2 : 0.0719388723373, Q3 : -0.133722379804, Q4 : 0.459469854832}
2019-04-14 16:53:28.11: SIM {TimeUS : 61535376, Roll : 0.17, Pitch : -17.49, Yaw : 55.38, Alt : 49.3100013733, Lat : 49.2836856, Lng : -123.1147647, Q1 : 0.875035345554, Q2 : 0.0719835832715, Q3 : -0.133967384696, Q4 : 0.459547907114}
2019-04-14 16:53:28.21: SIM {TimeUS : 61635336, Roll : 0.15, Pitch : -17.49, Yaw : 55.4, Alt : 49.3100013733, Lat : 49.2836878, Lng : -123.1147596, Q1 : 0.87497985363, Q2 : 0.0718287080526, Q3 : -0.134006947279, Q4 : 0.459666281939}
2019-04-14 16:53:28.31: SIM {TimeUS : 61735296, Roll : 0.11, Pitch : -17.49, Yaw : 55.42, Alt : 49.3100013733, Lat : 49.2836901, Lng : -123.1147544, Q1 : 0.874911308289, Q2 : 0.0716406330466, Q3 : -0.134174704552, Q4 : 0.459777146578}
2019-04-14 16:53:28.41: SIM {TimeUS : 61835256, Roll : 0.08, Pitch : -17.52, Yaw : 55.44, Alt : 49.3199996948, Lat : 49.2836925, Lng : -123.1147492, Q1 : 0.874837040901, Q2 : 0.0715011656284, Q3 : -0.134515672922, Q4 : 0.459840446711}
2019-04-14 16:53:28.51: SIM {TimeUS : 61935216, Roll : 0.06, Pitch : -17.55, Yaw : 55.45, Alt : 49.3199996948, Lat : 49.2836948, Lng : -123.1147439, Q1 : 0.874768614769, Q2 : 0.0715079531074, Q3 : -0.134787887335, Q4 : 0.45988997817}
2019-04-14 16:53:28.61: SIM {TimeUS : 62035176, Roll : 0.05, Pitch : -17.57, Yaw : 55.45, Alt : 49.3199996948, Lat : 49.2836971, Lng : -123.1147388, Q1 : 0.874741315842, Q2 : 0.0714855194092, Q3 : -0.135031819344, Q4 : 0.459873795509}
2019-04-14 16:53:28.71: SIM {TimeUS : 62135136, Roll : 0.04, Pitch : -17.59, Yaw : 55.44, Alt : 49.3199996948, Lat : 49.2836993, Lng : -123.1147335, Q1 : 0.874753415585, Q2 : 0.0714995637536, Q3 : -0.135185837746, Q4 : 0.459803313017}
2019-04-14 16:53:28.81: SIM {TimeUS : 62235096, Roll : 0.05, Pitch : -17.61, Yaw : 55.43, Alt : 49.3199996948, Lat : 49.2837016, Lng : -123.1147283, Q1 : 0.874791920185, Q2 : 0.0716051459312, Q3 : -0.135304734111, Q4 : 0.4596786201}
2019-04-14 16:53:28.91: SIM {TimeUS : 62335056, Roll : 0.07, Pitch : -17.62, Yaw : 55.4, Alt : 49.3199996948, Lat : 49.283704, Lng : -123.1147231, Q1 : 0.874857068062, Q2 : 0.0717852711678, Q3 : -0.135338962078, Q4 : 0.459516525269}
2019-04-14 16:53:29.01: SIM {TimeUS : 62435016, Roll : 0.1, Pitch : -17.63, Yaw : 55.38, Alt : 49.3199996948, Lat : 49.2837064, Lng : -123.1147178, Q1 : 0.874922335148, Q2 : 0.0720700621605, Q3 : -0.135332807899, Q4 : 0.459349453449}
2019-04-14 16:53:29.11: SIM {TimeUS : 62534976, Roll : 0.13, Pitch : -17.66, Yaw : 55.35, Alt : 49.3199996948, Lat : 49.2837087, Lng : -123.1147125, Q1 : 0.874985694885, Q2 : 0.0723847746849, Q3 : -0.135414645076, Q4 : 0.459155142307}
2019-04-14 16:53:29.21: SIM {TimeUS : 62634936, Roll : 0.14, Pitch : -17.7, Yaw : 55.32, Alt : 49.3199996948, Lat : 49.2837111, Lng : -123.1147073, Q1 : 0.875054419041, Q2 : 0.0725839287043, Q3 : -0.135695159435, Q4 : 0.458909779787}
2019-04-14 16:53:29.31: SIM {TimeUS : 62734896, Roll : 0.14, Pitch : -17.74, Yaw : 55.29, Alt : 49.3199996948, Lat : 49.2837133, Lng : -123.114702, Q1 : 0.875123500824, Q2 : 0.0726894065738, Q3 : -0.136060267687, Q4 : 0.458653092384}
2019-04-14 16:53:29.41: SIM {TimeUS : 62834856, Roll : 0.13, Pitch : -17.79, Yaw : 55.26, Alt : 49.3199996948, Lat : 49.2837157, Lng : -123.1146967, Q1 : 0.875188589096, Q2 : 0.0727514326572, Q3 : -0.136455357075, Q4 : 0.45840165019}
2019-04-14 16:53:29.51: SIM {TimeUS : 62934816, Roll : 0.14, Pitch : -17.81, Yaw : 55.24, Alt : 49.3199996948, Lat : 49.283718, Lng : -123.1146914, Q1 : 0.87524998188, Q2 : 0.0729076042771, Q3 : -0.13662160933, Q4 : 0.458210140467}
2019-04-14 16:53:29.61: SIM {TimeUS : 63034776, Roll : 0.17, Pitch : -17.81, Yaw : 55.22, Alt : 49.3199996948, Lat : 49.2837205, Lng : -123.114686, Q1 : 0.875325918198, Q2 : 0.0730682089925, Q3 : -0.136518418789, Q4 : 0.458070218563}
2019-04-14 16:53:29.71: SIM {TimeUS : 63135569, Roll : 0.19, Pitch : -17.78, Yaw : 55.2, Alt : 49.3199996948, Lat : 49.2837229, Lng : -123.1146807, Q1 : 0.875420749187, Q2 : 0.0730800256133, Q3 : -0.136246591806, Q4 : 0.457968056202}
2019-04-14 16:53:29.81: SIM {TimeUS : 63235529, Roll : 0.18, Pitch : -17.76, Yaw : 55.18, Alt : 49.3199996948, Lat : 49.2837253, Lng : -123.1146752, Q1 : 0.875506043434, Q2 : 0.0729317292571, Q3 : -0.136061504483, Q4 : 0.457883656025}
2019-04-14 16:53:29.91: SIM {TimeUS : 63335489, Roll : 0.17, Pitch : -17.73, Yaw : 55.17, Alt : 49.3199996948, Lat : 49.2837276, Lng : -123.1146699, Q1 : 0.875580489635, Q2 : 0.0727137923241, Q3 : -0.1359629035, Q4 : 0.457805275917}
2019-04-14 16:53:30.01: SIM {TimeUS : 63435449, Roll : 0.15, Pitch : -17.73, Yaw : 55.17, Alt : 49.3300018311, Lat : 49.28373, Lng : -123.1146646, Q1 : 0.875618457794, Q2 : 0.0725944712758, Q3 : -0.135988071561, Q4 : 0.457744121552}
2019-04-14 16:53:30.11: SIM {TimeUS : 63535409, Roll : 0.14, Pitch : -17.75, Yaw : 55.16, Alt : 49.3300018311, Lat : 49.2837324, Lng : -123.1146592, Q1 : 0.875621676445, Q2 : 0.0725881680846, Q3 : -0.136174678802, Q4 : 0.457683444023}
2019-04-14 16:53:30.21: SIM {TimeUS : 63635369, Roll : 0.15, Pitch : -17.78, Yaw : 55.16, Alt : 49.3300018311, Lat : 49.2837348, Lng : -123.1146538, Q1 : 0.875603973866, Q2 : 0.0727149993181, Q3 : -0.136393591762, Q4 : 0.457632005215}
2019-04-14 16:53:30.31: SIM {TimeUS : 63735329, Roll : 0.14, Pitch : -17.82, Yaw : 55.15, Alt : 49.3300018311, Lat : 49.2837372, Lng : -123.1146484, Q1 : 0.875577270985, Q2 : 0.0728350952268, Q3 : -0.136736690998, Q4 : 0.457561582327}
2019-04-14 16:53:30.41: SIM {TimeUS : 63835289, Roll : 0.14, Pitch : -17.87, Yaw : 55.15, Alt : 49.3300018311, Lat : 49.2837395, Lng : -123.114643, Q1 : 0.875546991825, Q2 : 0.0729791596532, Q3 : -0.137126863003, Q4 : 0.457479804754}
2019-04-14 16:53:30.51: SIM {TimeUS : 63935249, Roll : 0.14, Pitch : -17.9, Yaw : 55.14, Alt : 49.3300018311, Lat : 49.2837419, Lng : -123.1146376, Q1 : 0.875532031059, Q2 : 0.0731358155608, Q3 : -0.137401461601, Q4 : 0.457400947809}
2019-04-14 16:53:30.61: SIM {TimeUS : 64035209, Roll : 0.13, Pitch : -17.94, Yaw : 55.13, Alt : 49.3300018311, Lat : 49.2837443, Lng : -123.1146322, Q1 : 0.875536680222, Q2 : 0.073211222887, Q3 : -0.13767015934, Q4 : 0.457299262285}
2019-04-14 16:53:30.71: SIM {TimeUS : 64135169, Roll : 0.13, Pitch : -17.96, Yaw : 55.12, Alt : 49.3300018311, Lat : 49.2837467, Lng : -123.1146268, Q1 : 0.875561952591, Q2 : 0.0732412040234, Q3 : -0.137873396277, Q4 : 0.45718485117}
2019-04-14 16:53:30.81: SIM {TimeUS : 64235129, Roll : 0.14, Pitch : -17.95, Yaw : 55.1, Alt : 49.3300018311, Lat : 49.2837491, Lng : -123.1146214, Q1 : 0.875615656376, Q2 : 0.0732956752181, Q3 : -0.137805208564, Q4 : 0.457093834877}
2019-04-14 16:53:30.91: SIM {TimeUS : 64335089, Roll : 0.16, Pitch : -17.96, Yaw : 55.09, Alt : 49.3300018311, Lat : 49.2837515, Lng : -123.114616, Q1 : 0.875667989254, Q2 : 0.0734513625503, Q3 : -0.137741982937, Q4 : 0.456987559795}
2019-04-14 16:53:31.01: SIM {TimeUS : 64435049, Roll : 0.17, Pitch : -17.97, Yaw : 55.07, Alt : 49.3300018311, Lat : 49.2837539, Lng : -123.1146105, Q1 : 0.875722050667, Q2 : 0.0735308900476, Q3 : -0.137816026807, Q4 : 0.456848889589}
2019-04-14 16:53:31.11: SIM {TimeUS : 64535009, Roll : 0.17, Pitch : -17.97, Yaw : 55.05, Alt : 49.3300018311, Lat : 49.2837564, Lng : -123.1146051, Q1 : 0.875788331032, Q2 : 0.0735752135515, Q3 : -0.137827277184, Q4 : 0.456711262465}
2019-04-14 16:53:31.21: SIM {TimeUS : 64634969, Roll : 0.18, Pitch : -17.97, Yaw : 55.03, Alt : 49.3300018311, Lat : 49.2837588, Lng : -123.1145997, Q1 : 0.875860512257, Q2 : 0.0735936611891, Q3 : -0.137761458755, Q4 : 0.456589698792}
2019-04-14 16:53:31.31: SIM {TimeUS : 64734929, Roll : 0.19, Pitch : -17.96, Yaw : 55.02, Alt : 49.3300018311, Lat : 49.2837612, Lng : -123.1145942, Q1 : 0.875927507877, Q2 : 0.0736086592078, Q3 : -0.137698024511, Q4 : 0.45647791028}
2019-04-14 16:53:31.41: SIM {TimeUS : 64834889, Roll : 0.18, Pitch : -17.97, Yaw : 55.0, Alt : 49.3400001526, Lat : 49.2837637, Lng : -123.1145888, Q1 : 0.875970184803, Q2 : 0.0735620483756, Q3 : -0.137871176004, Q4 : 0.456351220608}
2019-04-14 16:53:31.51: SIM {TimeUS : 64934849, Roll : 0.15, Pitch : -18.01, Yaw : 54.99, Alt : 49.3400001526, Lat : 49.2837661, Lng : -123.1145833, Q1 : 0.875985145569, Q2 : 0.073514804244, Q3 : -0.138256505132, Q4 : 0.456213533878}
2019-04-14 16:53:31.61: SIM {TimeUS : 65034809, Roll : 0.14, Pitch : -18.02, Yaw : 54.98, Alt : 49.3400001526, Lat : 49.2837685, Lng : -123.1145778, Q1 : 0.87602108717, Q2 : 0.0734009295702, Q3 : -0.138382107019, Q4 : 0.456124782562}
2019-04-14 16:53:31.72: SIM {TimeUS : 65135602, Roll : 0.15, Pitch : -18.01, Yaw : 54.98, Alt : 49.3400001526, Lat : 49.283771, Lng : -123.1145723, Q1 : 0.876056849957, Q2 : 0.0734142884612, Q3 : -0.138268783689, Q4 : 0.456088274717}
2019-04-14 16:53:31.81: SIM {TimeUS : 65235562, Roll : 0.16, Pitch : -18.0, Yaw : 54.97, Alt : 49.3400001526, Lat : 49.2837734, Lng : -123.1145668, Q1 : 0.876081705093, Q2 : 0.0735080763698, Q3 : -0.138128295541, Q4 : 0.456067979336}
2019-04-14 16:53:31.91: SIM {TimeUS : 65335522, Roll : 0.17, Pitch : -18.0, Yaw : 54.96, Alt : 49.3400001526, Lat : 49.2837759, Lng : -123.1145613, Q1 : 0.876099348068, Q2 : 0.073583997786, Q3 : -0.138089522719, Q4 : 0.456033498049}
2019-04-14 16:53:32.01: SIM {TimeUS : 65435482, Roll : 0.16, Pitch : -18.01, Yaw : 54.96, Alt : 49.3400001526, Lat : 49.2837783, Lng : -123.1145558, Q1 : 0.876118600368, Q2 : 0.0735302641988, Q3 : -0.138230636716, Q4 : 0.455962508917}
2019-04-14 16:53:32.11: SIM {TimeUS : 65535442, Roll : 0.14, Pitch : -18.03, Yaw : 54.95, Alt : 49.3400001526, Lat : 49.2837808, Lng : -123.1145504, Q1 : 0.876134574413, Q2 : 0.0734177827835, Q3 : -0.138502284884, Q4 : 0.455867558718}
2019-04-14 16:53:32.21: SIM {TimeUS : 65635402, Roll : 0.13, Pitch : -18.06, Yaw : 54.94, Alt : 49.3400001526, Lat : 49.2837832, Lng : -123.1145449, Q1 : 0.876144528389, Q2 : 0.0734164044261, Q3 : -0.138748422265, Q4 : 0.455773711205}
2019-04-14 16:53:32.31: SIM {TimeUS : 65735362, Roll : 0.13, Pitch : -18.08, Yaw : 54.93, Alt : 49.3400001526, Lat : 49.2837857, Lng : -123.1145394, Q1 : 0.876144111156, Q2 : 0.0735649317503, Q3 : -0.138937562704, Q4 : 0.455692976713}
2019-04-14 16:53:32.41: SIM {TimeUS : 65835322, Roll : 0.15, Pitch : -18.11, Yaw : 54.92, Alt : 49.3400001526, Lat : 49.2837881, Lng : -123.1145339, Q1 : 0.876145601273, Q2 : 0.0737430751324, Q3 : -0.139055326581, Q4 : 0.455625355244}
2019-04-14 16:53:32.51: SIM {TimeUS : 65935282, Roll : 0.17, Pitch : -18.12, Yaw : 54.91, Alt : 49.3400001526, Lat : 49.2837907, Lng : -123.1145284, Q1 : 0.876152336597, Q2 : 0.0739637240767, Q3 : -0.13903196156, Q4 : 0.455583781004}
2019-04-14 16:53:32.61: SIM {TimeUS : 66035242, Roll : 0.19, Pitch : -18.13, Yaw : 54.91, Alt : 49.3400001526, Lat : 49.2837932, Lng : -123.1145228, Q1 : 0.876157343388, Q2 : 0.0741161033511, Q3 : -0.139086395502, Q4 : 0.455532819033}
