2019-04-14 18:10:43.30: SIM {TimeUS : 40516287, Roll : 0.0, Pitch : 0.0, Yaw : 0.0, Alt : 30.1000003815, Lat : 49.28357, Lng : -123.11502, Q1 : 1.0, Q2 : 0.0, Q3 : 0.0, Q4 : 0.0}
2019-04-14 18:10:43.41: SIM {TimeUS : 40635406, Roll : 0.0, Pitch : 0.0, Yaw : 0.0, Alt : 30.1000003815, Lat : 49.28357, Lng : -123.11502, Q1 : 1.0, Q2 : 0.0, Q3 : 0.0, Q4 : 0.0}
2019-04-14 18:10:43.51: SIM {TimeUS : 40735366, Roll : 0.0, Pitch : 0.0, Yaw : 0.0, Alt : 30.1000003815, Lat : 49.28357, Lng : -123.11502, Q1 : 1.0, Q2 : 0.0, Q3 : 0.0, Q4 : 0.0}
2019-04-14 18:10:43.61: SIM {TimeUS : 40835326, Roll : 0.0, Pitch : 0.0, Yaw : 0.0, Alt : 30.1000003815, Lat : 49.28357, Lng : -123.11502, Q1 : 1.0, Q2 : 0.0, Q3 : 0.0, Q4 : 0.0}
2019-04-14 18:10:43.71: SIM {TimeUS : 40935286, Roll : 0.0, Pitch : 0.0, Yaw : 0.0, Alt : 30.1000003815, Lat : 49.28357, Lng : -123.11502, Q1 : 1.0, Q2 : 0.0, Q3 : 0.0, Q4 : 0.0}
2019-04-14 18:10:43.81: SIM {TimeUS : 41035246, Roll : 0.0, Pitch : 0.0, Yaw : 0.0, Alt : 30.1000003815, Lat : 49.28357, Lng : -123.11502, Q1 : 1.0, Q2 : 0.0, Q3 : 0.0, Q4 : 0.0}
2019-04-14 18:10:43.91: SIM {TimeUS : 41135206, Roll : 0.0, Pitch : 0.0, Yaw : 0.0, Alt : 30.1000003815, Lat : 49.28357, Lng : -123.11502, Q1 : 1.0, Q2 : 0.0, Q3 : 0.0, Q4 : 0.0}
2019-04-14 18:10:44.01: SIM {TimeUS : 41235166, Roll : 0.0, Pitch : 0.0, Yaw : 0.0, Alt : 30.1000003815, Lat : 49.28357, Lng : -123.11502, Q1 : 1.0, Q2 : 0.0, Q3 : 0.0, Q4 : 0.0}
2019-04-14 18:10:44.11: SIM {TimeUS : 41335126, Roll : 0.0, Pitch : 0.0, Yaw : 0.0, Alt : 30.1000003815, Lat : 49.28357, Lng : -123.11502, Q1 : 1.0, Q2 : 0.0, Q3 : 0.0, Q4 : 0.0}
2019-04-14 18:10:44.21: SIM {TimeUS : 41435086, Roll : 0.0, Pitch : 0.0, Yaw : 0.0, Alt : 30.1000003815, Lat : 49.28357, Lng : -123.11502, Q1 : 1.0, Q2 : 0.0, Q3 : 0.0, Q4 : 0.0}
2019-04-14 18:10:44.31: SIM {TimeUS : 41535046, Roll : 0.0, Pitch : 0.0, Yaw : 0.0, Alt : 30.1000003815, Lat : 49.28357, Lng : -123.11502, Q1 : 1.0, Q2 : 0.0, Q3 : 0.0, Q4 : 0.0}
2019-04-14 18:10:44.41: SIM {TimeUS : 41635006, Roll : 0.0, Pitch : 0.0, Yaw : 0.0, Alt : 30.1000003815, Lat : 49.28357, Lng : -123.11502, Q1 : 1.0, Q2 : 0.0, Q3 : 0.0, Q4 : 0.0}
2019-04-14 18:10:44.51: SIM {TimeUS : 41734966, Roll : 0.0, Pitch : 0.0, Yaw : 0.0, Alt : 30.1000003815, Lat : 49.28357, Lng : -123.11502, Q1 : 1.0, Q2 : 0.0, Q3 : 0.0, Q4 : 0.0}
2019-04-14 18:10:44.61: SIM {TimeUS : 41834926, Roll : 0.0, Pitch : 0.0, Yaw : 0.0, Alt : 30.1000003815, Lat : 49.28357, Lng : -123.11502, Q1 : 1.0, Q2 : 0.0, Q3 : 0.0, Q4 : 0.0}
2019-04-14 18:10:44.71: SIM {TimeUS : 41934886, Roll : 0.0, Pitch : 0.0, Yaw : 0.0, Alt : 30.1000003815, Lat : 49.28357, Lng : -123.11502, Q1 : 1.0, Q2 : 0.0, Q3 : 0.0, Q4 : 0.0}
2019-04-14 18:10:44.81: SIM {TimeUS : 42034846, Roll : 0.0, Pitch : 0.0, Yaw : 0.0, Alt : 30.1000003815, Lat : 49.28357, Lng : -123.11502, Q1 : 1.0, Q2 : 0.0, Q3 : 0.0, Q4 : 0.0}
2019-04-14 18:10:44.91: SIM {TimeUS : 42134806, Roll : 0.0, Pitch : 0.0, Yaw : 0.0, Alt : 30.1000003815, Lat : 49.28357, Lng : -123.11502, Q1 : 1.0, Q2 : 0.0, Q3 : 0.0, Q4 : 0.0}
2019-04-14 18:10:45.01: SIM {TimeUS : 42234766, Roll : 0.0, Pitch : 0.0, Yaw : 0.0, Alt : 30.1000003815, Lat : 49.28357, Lng : -123.11502, Q1 : 1.0, Q2 : 0.0, Q3 : 0.0, Q4 : 0.0}
2019-04-14 18:10:45.11: SIM {TimeUS : 42334726, Roll : 0.0, Pitch : 0.0, Yaw : 0.0, Alt : 30.1000003815, Lat : 49.28357, Lng : -123.11502, Q1 : 1.0, Q2 : 0.0, Q3 : 0.0, Q4 : 0.0}
2019-04-14 18:10:45.21: SIM {TimeUS : 42434686, Roll : 0.0, Pitch : 0.0, Yaw : 0.0, Alt : 30.1000003815, Lat : 49.28357, Lng : -123.11502, Q1 : 1.0, Q2 : 0.0, Q3 : 0.0, Q4 : 0.0}
2019-04-14 18:10:45.31: SIM {TimeUS : 42534646, Roll : 0.0, Pitch : 0.0, Yaw : 0.0, Alt : 30.1000003815, Lat : 49.28357, Lng : -123.11502, Q1 : 1.0, Q2 : 0.0, Q3 : 0.0, Q4 : 0.0}
2019-04-14 18:10:45.42: SIM {TimeUS : 42635439, Roll : 0.0, Pitch : 0.0, Yaw : 0.0, Alt : 30.1000003815, Lat : 49.28357, Lng : -123.11502, Q1 : 1.0, Q2 : 0.0, Q3 : 0.0, Q4 : 0.0}
2019-04-14 18:10:45.51: SIM {TimeUS : 42735399, Roll : 0.0, Pitch : 0.0, Yaw : 0.0, Alt : 30.1000003815, Lat : 49.28357, Lng : -123.11502, Q1 : 1.0, Q2 : 0.0, Q3 : 0.0, Q4 : 0.0}
2019-04-14 18:10:45.61: SIM {TimeUS : 42835359, Roll : 0.0, Pitch : 0.0, Yaw : 0.0, Alt : 30.1000003815, Lat : 49.28357, Lng : -123.11502, Q1 : 1.0, Q2 : 0.0, Q3 : 0.0, Q4 : 3.50114867653e-11}
2019-04-14 18:10:45.71: SIM {TimeUS : 42935319, Roll : 0.0, Pitch : 0.0, Yaw : 360.0, Alt : 30.1000003815, Lat : 49.28357, Lng : -123.11502, Q1 : 1.0, Q2 : 0.0, Q3 : 0.0, Q4 : -1.62090429967e-08}
2019-04-14 18:10:45.81: SIM {TimeUS : 43035279, Roll : 0.0, Pitch : 0.0, Yaw : 359.99, Alt : 30.1000003815, Lat : 49.28357, Lng : -123.11502, Q1 : 1.0, Q2 : 0.0, Q3 : 0.0, Q4 : -2.03575766022e-07}
2019-04-14 18:10:45.91: SIM {TimeUS : 43135239, Roll : 0.0, Pitch : 0.0, Yaw : 359.99, Alt : 30.1000003815, Lat : 49.28357, Lng : -123.11502, Q1 : 1.0, Q2 : 0.0, Q3 : 0.0, Q4 : -3.88829448639e-07}
2019-04-14 18:10:46.01: SIM {TimeUS : 43235199, Roll : 0.0, Pitch : 0.0, Yaw : 359.99, Alt : 30.1000003815, Lat : 49.28357, Lng : -123.11502, Q1 : 1.0, Q2 : 0.0, Q3 : 0.0, Q4 : -5.73934016757e-07}
2019-04-14 18:10:46.11: SIM {TimeUS : 43335159, Roll : 0.0, Pitch : 0.0, Yaw : 359.99, Alt : 30.1000003815, Lat : 49.28357, Lng : -123.11502, Q1 : 1.0, Q2 : 0.0, Q3 : 0.0, Q4 : -7.34191758056e-07}
2019-04-14 18:10:46.21: SIM {TimeUS : 43435119, Roll : 0.0, Pitch : 0.0, Yaw : 359.99, Alt : 30.1000003815, Lat : 49.28357, Lng : -123.11502, Q1 : 1.0, Q2 : 0.0, Q3 : 0.0, Q4 : -9.15105772492e-07}
2019-04-14 18:10:46.31: SIM {TimeUS : 43535079, Roll : 0.0, Pitch : 0.0, Yaw : 359.99, Alt : 30.1000003815, Lat : 49.28357, Lng : -123.11502, Q1 : 1.0, Q2 : 0.0, Q3 : 0.0, Q4 : -1.15322916372e-06}
2019-04-14 18:10:46.41: SIM {TimeUS : 43635039, Roll : 0.0, Pitch : 0.0, Yaw : 359.99, Alt : 30.1000003815, Lat : 49.28357, Lng : -123.11502, Q1 : 1.0, Q2 : 0.0, Q3 : 0.0, Q4 : -1.34733625146e-06}
2019-04-14 18:10:46.51: SIM {TimeUS : 43734999, Roll : 0.0, Pitch : 0.0, Yaw : 359.99, Alt : 30.1200008392, Lat : 49.28357, Lng : -123.11502, Q1 : 1.0, Q2 : 0.0, Q3 : 0.0, Q4 : -1.53480505105e-06}
2019-04-14 18:10:46.61: SIM {TimeUS : 43834959, Roll : 0.0, Pitch : 0.0, Yaw : 359.99, Alt : 30.1399993896, Lat : 49.28357, Lng : -123.11502, Q1 : 1.0, Q2 : 0.0, Q3 : 0.0, Q4 : -1.76719515821e-06}
2019-04-14 18:10:46.71: SIM {TimeUS : 43934919, Roll : 0.0, Pitch : 0.0, Yaw : 359.99, Alt : 30.1800003052, Lat : 49.28357, Lng : -123.11502, Q1 : 1.0, Q2 : 0.0, Q3 : 0.0, Q4 : -1.99844953386e-06}
2019-04-14 18:10:46.81: SIM {TimeUS : 44034879, Roll : 0.0, Pitch : 0.0, Yaw : 359.99, Alt : 30.2099990845, Lat : 49.28357, Lng : -123.11502, Q1 : 1.0, Q2 : -8.27413714433e-06, Q3 : -7.33499473426e-06, Q4 : -2.26202064368e-06}
2019-04-14 18:10:46.91: SIM {TimeUS : 44134839, Roll : -0.19, Pitch : -0.17, Yaw : 359.99, Alt : 30.2700004578, Lat : 49.28357, Lng : -123.11502, Q1 : 0.999997437, Q2 : -0.00169147271663, Q3 : -0.0015088923974, Q4 : -1.52704924403e-05}
2019-04-14 18:10:47.01: SIM {TimeUS : 44234799, Roll : -0.53, Pitch : -0.45, Yaw : 359.99, Alt : 30.3899993896, Lat : 49.28357, Lng : -123.11502, Q1 : 0.999981343746, Q2 : -0.00464398413897, Q3 : -0.00397411873564, Q4 : -5.80040978093e-05}
2019-04-14 18:10:47.11: SIM {TimeUS : 44334759, Roll : -0.8, Pitch : -0.67, Yaw : 359.98, Alt : 30.5400009155, Lat : 49.28357, Lng : -123.11502, Q1 : 0.999957978725, Q2 : -0.00699715036899, Q3 : -0.00592422951013, Q4 : -0.00012957805302}
2019-04-14 18:10:47.21: SIM {TimeUS : 44434719, Roll : -0.88, Pitch : -0.77, Yaw : 359.98, Alt : 30.7000007629, Lat : 49.28357, Lng : -123.11502, Q1 : 0.99994713068, Q2 : -0.00773485703394, Q3 : -0.00677637755871, Q4 : -0.000215904437937}
2019-04-14 18:10:47.31: SIM {TimeUS : 44534679, Roll : -0.8, Pitch : -0.72, Yaw : 359.96, Alt : 30.8500003815, Lat : 49.28357, Lng : -123.1150201, Q1 : 0.999955296516, Q2 : -0.00701143173501, Q3 : -0.00633848551661, Q4 : -0.000310338946292}
2019-04-14 18:10:47.41: SIM {TimeUS : 44634639, Roll : -0.62, Pitch : -0.56, Yaw : 359.95, Alt : 31.0100002289, Lat : 49.28357, Lng : -123.1150201, Q1 : 0.999972641468, Q2 : -0.00547655811533, Q3 : -0.00495102861896, Q4 : -0.000395789305912}
2019-04-14 18:10:47.52: SIM {TimeUS : 44735432, Roll : -0.4, Pitch : -0.35, Yaw : 359.94, Alt : 31.1599998474, Lat : 49.2835701, Lng : -123.1150202, Q1 : 0.999988794327, Q2 : -0.00351203954779, Q3 : -0.00313820922747, Q4 : -0.000465405290015}
2019-04-14 18:10:47.61: SIM {TimeUS : 44835392, Roll : -0.19, Pitch : -0.16, Yaw : 359.94, Alt : 31.3199996948, Lat : 49.2835701, Lng : -123.1150203, Q1 : 0.999997437, Q2 : -0.00166440394241, Q3 : -0.00145741528831, Q4 : -0.000515604857355}
2019-04-14 18:10:47.71: SIM {TimeUS : 44935352, Roll : -0.03, Pitch : -0.02, Yaw : 359.93, Alt : 31.4899997711, Lat : 49.2835702, Lng : -123.1150204, Q1 : 0.999999761581, Q2 : -0.000272216100711, Q3 : -0.000250891316682, Q4 : -0.000544720329344}
2019-04-14 18:10:47.81: SIM {TimeUS : 45035312, Roll : 0.06, Pitch : 0.03, Yaw : 359.93, Alt : 31.6700000763, Lat : 49.2835702, Lng : -123.1150204, Q1 : 0.999999642372, Q2 : 0.000542559137102, Q3 : 0.000326882756781, Q4 : -0.00055203033844}
2019-04-14 18:10:47.91: SIM {TimeUS : 45135272, Roll : 0.1, Pitch : 0.05, Yaw : 359.93, Alt : 31.8500003815, Lat : 49.2835703, Lng : -123.1150205, Q1 : 0.999999344349, Q2 : 0.000887598493136, Q3 : 0.000470227590995, Q4 : -0.000537090119906}
2019-04-14 18:10:48.01: SIM {TimeUS : 45235232, Roll : 0.09, Pitch : 0.05, Yaw : 359.94, Alt : 32.0299987793, Lat : 49.2835703, Lng : -123.1150206, Q1 : 0.999999403954, Q2 : 0.000834424572531, Q3 : 0.000459067727206, Q4 : -0.00051968783373}
2019-04-14 18:10:48.11: SIM {TimeUS : 45335192, Roll : 0.08, Pitch : 0.05, Yaw : 359.94, Alt : 32.2200012207, Lat : 49.2835703, Lng : -123.1150206, Q1 : 0.999999523163, Q2 : 0.000703915837221, Q3 : 0.000472417916171, Q4 : -0.000502675306052}
2019-04-14 18:10:48.21: SIM {TimeUS : 45435152, Roll : 0.06, Pitch : 0.07, Yaw : 359.94, Alt : 32.4099998474, Lat : 49.2835703, Lng : -123.1150207, Q1 : 0.999999582767, Q2 : 0.000530169578269, Q3 : 0.000613954151049, Q4 : -0.000482244853629}
2019-04-14 18:10:48.31: SIM {TimeUS : 45535112, Roll : 0.07, Pitch : 0.1, Yaw : 359.94, Alt : 32.5999984741, Lat : 49.2835703, Lng : -123.1150207, Q1 : 0.99999922514, Q2 : 0.000629286281765, Q3 : 0.000944342988078, Q4 : -0.000458532653283}
2019-04-14 18:10:48.41: SIM {TimeUS : 45635072, Roll : 0.1, Pitch : 0.13, Yaw : 359.94, Alt : 32.7999992371, Lat : 49.2835703, Lng : -123.1150208, Q1 : 0.999998748302, Q2 : 0.000923299405258, Q3 : 0.00121389317792, Q4 : -0.000440714909928}
2019-04-14 18:10:48.51: SIM {TimeUS : 45735032, Roll : 0.13, Pitch : 0.16, Yaw : 359.95, Alt : 33.0, Lat : 49.2835704, Lng : -123.1150208, Q1 : 0.999998211861, Q2 : 0.00118856388144, Q3 : 0.00141738902312, Q4 : -0.000432414672105}
2019-04-14 18:10:48.61: SIM {TimeUS : 45834992, Roll : 0.15, Pitch : 0.18, Yaw : 359.95, Alt : 33.2000007629, Lat : 49.2835704, Lng : -123.1150208, Q1 : 0.999997735023, Q2 : 0.00135971989948, Q3 : 0.00159544881899, Q4 : -0.000431879307143}
2019-04-14 18:10:48.71: SIM {TimeUS : 45934952, Roll : 0.16, Pitch : 0.17, Yaw : 359.95, Alt : 33.4000015259, Lat : 49.2835704, Lng : -123.1150208, Q1 : 0.999997615814, Q2 : 0.00147037033457, Q3 : 0.00152474071365, Q4 : -0.000430650572525}
2019-04-14 18:10:48.81: SIM {TimeUS : 46034912, Roll : 0.16, Pitch : 0.13, Yaw : 359.94, Alt : 33.6100006104, Lat : 49.2835704, Lng : -123.1150209, Q1 : 0.999998092651, Q2 : 0.00148222502321, Q3 : 0.00118691567332, Q4 : -0.000446621183073}
2019-04-14 18:10:48.91: SIM {TimeUS : 46134872, Roll : 0.16, Pitch : 0.11, Yaw : 359.94, Alt : 33.8199996948, Lat : 49.2835704, Lng : -123.1150209, Q1 : 0.999998390675, Q2 : 0.00142458186019, Q3 : 0.000987065955997, Q4 : -0.000460855284473}
2019-04-14 18:10:49.01: SIM {TimeUS : 46234832, Roll : 0.15, Pitch : 0.1, Yaw : 359.94, Alt : 34.0200004578, Lat : 49.2835704, Lng : -123.1150209, Q1 : 0.999998509884, Q2 : 0.00136588956229, Q3 : 0.000945407897234, Q4 : -0.000484546268126}
2019-04-14 18:10:49.11: SIM {TimeUS : 46334792, Roll : 0.15, Pitch : 0.11, Yaw : 359.94, Alt : 34.2299995422, Lat : 49.2835704, Lng : -123.1150209, Q1 : 0.999998450279, Q2 : 0.00135409028735, Q3 : 0.00100442522671, Q4 : -0.00051110656932}
2019-04-14 18:10:49.21: SIM {TimeUS : 46434752, Roll : 0.14, Pitch : 0.1, Yaw : 359.93, Alt : 34.4500007629, Lat : 49.2835704, Lng : -123.1150209, Q1 : 0.999998629093, Q2 : 0.00126649660524, Q3 : 0.000902166008018, Q4 : -0.000531695608515}
2019-04-14 18:10:49.31: SIM {TimeUS : 46534712, Roll : 0.12, Pitch : 0.08, Yaw : 359.93, Alt : 34.6599998474, Lat : 49.2835704, Lng : -123.1150208, Q1 : 0.999998986721, Q2 : 0.00107558898162, Q3 : 0.000740858784411, Q4 : -0.000551541801542}
2019-04-14 18:10:49.41: SIM {TimeUS : 46634672, Roll : 0.09, Pitch : 0.07, Yaw : 359.93, Alt : 34.8800010681, Lat : 49.2835704, Lng : -123.1150208, Q1 : 0.999999284744, Q2 : 0.000860700791236, Q3 : 0.000631029426586, Q4 : -0.000572336779442}
2019-04-14 18:10:49.51: SIM {TimeUS : 46734632, Roll : 0.07, Pitch : 0.06, Yaw : 359.93, Alt : 35.0900001526, Lat : 49.2835704, Lng : -123.1150208, Q1 : 0.999999463558, Q2 : 0.000627249595709, Q3 : 0.00055065494962, Q4 : -0.000598359969445}
2019-04-14 18:10:49.62: SIM {TimeUS : 46835425, Roll : 0.05, Pitch : 0.02, Yaw : 359.92, Alt : 35.3100013733, Lat : 49.2835704, Lng : -123.1150208, Q1 : 0.999999642372, Q2 : 0.00051824253751, Q3 : 0.000260676053585, Q4 : -0.000626362278126}
2019-04-14 18:10:49.71: SIM {TimeUS : 46935385, Roll : 0.05, Pitch : 0.0, Yaw : 359.92, Alt : 35.5299987793, Lat : 49.2835704, Lng : -123.1150208, Q1 : 0.999999701977, Q2 : 0.000438988150563, Q3 : 3.3227057429e-05, Q4 : -0.000660560501274}
2019-04-14 18:10:49.81: SIM {TimeUS : 47035345, Roll : 0.02, Pitch : 0.0, Yaw : 359.91, Alt : 35.75, Lat : 49.2835704, Lng : -123.1150208, Q1 : 0.999999761581, Q2 : 0.000225670723012, Q3 : -3.21152947436e-05, Q4 : -0.000698652176652}
2019-04-14 18:10:49.91: SIM {TimeUS : 47135305, Roll : 0.01, Pitch : 0.0, Yaw : 359.91, Alt : 35.9700012207, Lat : 49.2835704, Lng : -123.1150207, Q1 : 0.999999701977, Q2 : 0.000137421404361, Q3 : -1.11308618216e-05, Q4 : -0.000727740523871}
2019-04-14 18:10:50.01: SIM {TimeUS : 47235265, Roll : 0.02, Pitch : 0.0, Yaw : 359.91, Alt : 36.1899986267, Lat : 49.2835704, Lng : -123.1150207, Q1 : 0.999999701977, Q2 : 0.00018587053637, Q3 : 4.21798040406e-06, Q4 : -0.000750784820411}
2019-04-14 18:10:50.11: SIM {TimeUS : 47335225, Roll : 0.0, Pitch : -0.01, Yaw : 359.91, Alt : 36.4099998474, Lat : 49.2835704, Lng : -123.1150207, Q1 : 0.999999701977, Q2 : 5.5887059716e-05, Q3 : -0.000153749235324, Q4 : -0.000770085258409}
2019-04-14 18:10:50.21: SIM {TimeUS : 47435185, Roll : -0.02, Pitch : -0.05, Yaw : 359.9, Alt : 36.6300010681, Lat : 49.2835704, Lng : -123.1150207, Q1 : 0.999999523163, Q2 : -0.000259183463641, Q3 : -0.000483970972709, Q4 : -0.000789869111031}
2019-04-14 18:10:50.31: SIM {TimeUS : 47535145, Roll : -0.07, Pitch : -0.08, Yaw : 359.9, Alt : 36.8499984741, Lat : 49.2835704, Lng : -123.1150207, Q1 : 0.999999165535, Q2 : -0.000630923605058, Q3 : -0.000728358747438, Q4 : -0.000808017386589}
2019-04-14 18:10:50.41: SIM {TimeUS : 47635105, Roll : -0.11, Pitch : -0.1, Yaw : 359.9, Alt : 37.0800018311, Lat : 49.2835704, Lng : -123.1150207, Q1 : 0.999998748302, Q2 : -0.00099386961665, Q3 : -0.000934155483264, Q4 : -0.000827985699289}
2019-04-14 18:10:50.51: SIM {TimeUS : 47735065, Roll : -0.12, Pitch : -0.11, Yaw : 359.9, Alt : 37.2999992371, Lat : 49.2835704, Lng : -123.1150207, Q1 : 0.999998569489, Q2 : -0.00111533235759, Q3 : -0.000983763602562, Q4 : -0.000854075595271}
2019-04-14 18:10:50.61: SIM {TimeUS : 47835025, Roll : -0.12, Pitch : -0.09, Yaw : 359.89, Alt : 37.5299987793, Lat : 49.2835704, Lng : -123.1150206, Q1 : 0.999998688698, Q2 : -0.00105409801472, Q3 : -0.000862016982865, Q4 : -0.00088207150111}
2019-04-14 18:10:50.71: SIM {TimeUS : 47934985, Roll : -0.09, Pitch : -0.06, Yaw : 359.89, Alt : 37.75, Lat : 49.2835704, Lng : -123.1150206, Q1 : 0.99999910593, Q2 : -0.000862493063323, Q3 : -0.000542810419574, Q4 : -0.000907163717784}
2019-04-14 18:10:50.81: SIM {TimeUS : 48034945, Roll : -0.07, Pitch : -0.03, Yaw : 359.89, Alt : 37.9799995422, Lat : 49.2835704, Lng : -123.1150206, Q1 : 0.999999284744, Q2 : -0.000674394075759, Q3 : -0.000306791684125, Q4 : -0.000935748394113}
2019-04-14 18:10:50.91: SIM {TimeUS : 48134905, Roll : -0.07, Pitch : -0.03, Yaw : 359.88, Alt : 38.2099990845, Lat : 49.2835704, Lng : -123.1150206, Q1 : 0.999999284744, Q2 : -0.000637610268313, Q3 : -0.000280840526102, Q4 : -0.000966890482232}
2019-04-14 18:10:51.01: SIM {TimeUS : 48234865, Roll : -0.07, Pitch : -0.01, Yaw : 359.88, Alt : 38.4399986267, Lat : 49.2835706, Lng : -123.1150206, Q1 : 0.999999284744, Q2 : -0.000683379999828, Q3 : -0.000161640200531, Q4 : -0.00098789180629}
2019-04-14 18:10:51.11: SIM {TimeUS : 48334825, Roll : -0.09, Pitch : 0.0, Yaw : 359.88, Alt : 38.6699981689, Lat : 49.2835706, Lng : -123.1150206, Q1 : 0.99999910593, Q2 : -0.000854048179463, Q3 : -2.49548656939e-06, Q4 : -0.00100245920476}
2019-04-14 18:10:51.21: SIM {TimeUS : 48434785, Roll : -0.1, Pitch : 0.01, Yaw : 359.88, Alt : 38.8899993896, Lat : 49.2835706, Lng : -123.1150206, Q1 : 0.99999910593, Q2 : -0.000885560410097, Q3 : 0.000128126484924, Q4 : -0.00101167755201}
2019-04-14 18:10:51.31: SIM {TimeUS : 48534745, Roll : -0.08, Pitch : 0.03, Yaw : 359.88, Alt : 39.1199989319, Lat : 49.2835706, Lng : -123.1150206, Q1 : 0.999999165535, Q2 : -0.00073723756941, Q3 : 0.00034093321301, Q4 : -0.00102070719004}
2019-04-14 18:10:51.41: SIM {TimeUS : 48634705, Roll : -0.06, Pitch : 0.03, Yaw : 359.88, Alt : 39.3499984741, Lat : 49.2835706, Lng : -123.1150206, Q1 : 0.999999284744, Q2 : -0.000528502161615, Q3 : 0.000338669808116, Q4 : -0.00102044292726}
2019-04-14 18:10:51.51: SIM {TimeUS : 48734665, Roll : -0.02, Pitch : 0.03, Yaw : 359.88, Alt : 39.5800018311, Lat : 49.2835706, Lng : -123.1150207, Q1 : 0.999999403954, Q2 : -0.000249817036092, Q3 : 0.000309918483254, Q4 : -0.0010163889965}
2019-04-14 18:10:51.61: SIM {TimeUS : 48834625, Roll : 0.01, Pitch : 0.05, Yaw : 359.88, Alt : 39.8100013733, Lat : 49.2835706, Lng : -123.1150207, Q1 : 0.999999344349, Q2 : 0.000103540281998, Q3 : 0.000479792564875, Q4 : -0.00100845517591}
2019-04-14 18:10:51.72: SIM {TimeUS : 48935418, Roll : 0.05, Pitch : 0.09, Yaw : 359.88, Alt : 40.0499992371, Lat : 49.2835706, Lng : -123.1150207, Q1 : 0.999999046326, Q2 : 0.000501587870531, Q3 : 0.000805056013633, Q4 : -0.00100911268964}
2019-04-14 18:10:51.81: SIM {TimeUS : 49035378, Roll : 0.08, Pitch : 0.13, Yaw : 359.88, Alt : 40.2799987793, Lat : 49.2835706, Lng : -123.1150207, Q1 : 0.999998509884, Q2 : 0.000776491244324, Q3 : 0.00117607403081, Q4 : -0.00101850286592}
2019-04-14 18:10:51.91: SIM {TimeUS : 49135338, Roll : 0.08, Pitch : 0.17, Yaw : 359.88, Alt : 40.5099983215, Lat : 49.2835706, Lng : -123.1150207, Q1 : 0.999998092651, Q2 : 0.000702614022885, Q3 : 0.00150300085079, Q4 : -0.00102299207356}
2019-04-14 18:10:52.01: SIM {TimeUS : 49235298, Roll : 0.03, Pitch : 0.19, Yaw : 359.88, Alt : 40.7400016785, Lat : 49.2835706, Lng : -123.1150207, Q1 : 0.999997973442, Q2 : 0.000276160251815, Q3 : 0.00170501414686, Q4 : -0.00104396149982}
2019-04-14 18:10:52.11: SIM {TimeUS : 49335258, Roll : -0.01, Pitch : 0.2, Yaw : 359.87, Alt : 40.9799995422, Lat : 49.2835706, Lng : -123.1150207, Q1 : 0.999997854233, Q2 : -0.000134468864417, Q3 : 0.00177218159661, Q4 : -0.00106840825174}
2019-04-14 18:10:52.21: SIM {TimeUS : 49435218, Roll : -0.03, Pitch : 0.17, Yaw : 359.87, Alt : 41.2099990845, Lat : 49.2835706, Lng : -123.1150207, Q1 : 0.999998211861, Q2 : -0.00034344944288, Q3 : 0.00153206801042, Q4 : -0.00109676585998}
2019-04-14 18:10:52.31: SIM {TimeUS : 49535178, Roll : -0.04, Pitch : 0.13, Yaw : 359.86, Alt : 41.4399986267, Lat : 49.2835706, Lng : -123.1150207, Q1 : 0.999998629093, Q2 : -0.000386074301787, Q3 : 0.00115886819549, Q4 : -0.00113790587056}
2019-04-14 18:10:52.41: SIM {TimeUS : 49635138, Roll : -0.02, Pitch : 0.11, Yaw : 359.86, Alt : 41.6800003052, Lat : 49.2835706, Lng : -123.1150207, Q1 : 0.999998748302, Q2 : -0.000248945259955, Q3 : 0.00103368016426, Q4 : -0.00119102082681}
2019-04-14 18:10:52.51: SIM {TimeUS : 49735098, Roll : 0.01, Pitch : 0.12, Yaw : 359.85, Alt : 41.9099998474, Lat : 49.2835706, Lng : -123.1150207, Q1 : 0.999998629093, Q2 : 0.000105424041976, Q3 : 0.00108650501352, Q4 : -0.00124735443387}
2019-04-14 18:10:52.61: SIM {TimeUS : 49835058, Roll : 0.06, Pitch : 0.12, Yaw : 359.85, Alt : 42.1399993896, Lat : 49.2835706, Lng : -123.1150207, Q1 : 0.99999833107, Q2 : 0.000602216052357, Q3 : 0.00113242119551, Q4 : -0.00129858963192}
2019-04-14 18:10:52.71: SIM {TimeUS : 49935018, Roll : 0.11, Pitch : 0.11, Yaw : 359.84, Alt : 42.3800010681, Lat : 49.2835706, Lng : -123.1150207, Q1 : 0.999998092651, Q2 : 0.00096818653401, Q3 : 0.000994979287498, Q4 : -0.00135031423997}
2019-04-14 18:10:52.81: SIM {TimeUS : 50034978, Roll : 0.11, Pitch : 0.09, Yaw : 359.84, Alt : 42.6100006104, Lat : 49.2835706, Lng : -123.1150207, Q1 : 0.999998211861, Q2 : 0.000995026086457, Q3 : 0.000791989034042, Q4 : -0.00139712658711}
2019-04-14 18:10:52.91: SIM {TimeUS : 50134938, Roll : 0.07, Pitch : 0.07, Yaw : 359.83, Alt : 42.8499984741, Lat : 49.2835706, Lng : -123.1150207, Q1 : 0.999998629093, Q2 : 0.000629879068583, Q3 : 0.000633954128716, Q4 : -0.00141857587732}
2019-04-14 18:10:53.01: SIM {TimeUS : 50234898, Roll : 0.01, Pitch : 0.06, Yaw : 359.83, Alt : 43.0800018311, Lat : 49.2835706, Lng : -123.1150207, Q1 : 0.999998807907, Q2 : 0.000116406670713, Q3 : 0.000579003302846, Q4 : -0.00143011368345}
2019-04-14 18:10:53.11: SIM {TimeUS : 50334858, Roll : -0.02, Pitch : 0.07, Yaw : 359.83, Alt : 43.3199996948, Lat : 49.2835706, Lng : -123.1150207, Q1 : 0.999998688698, Q2 : -0.000253477221122, Q3 : 0.000681035278831, Q4 : -0.00144112692215}
2019-04-14 18:10:53.21: SIM {TimeUS : 50434818, Roll : -0.04, Pitch : 0.08, Yaw : 359.83, Alt : 43.5499992371, Lat : 49.2835704, Lng : -123.1150207, Q1 : 0.999998569489, Q2 : -0.000430155225331, Q3 : 0.000728686340153, Q4 : -0.00145138730295}
2019-04-14 18:10:53.31: SIM {TimeUS : 50534778, Roll : -0.04, Pitch : 0.07, Yaw : 359.83, Alt : 43.7900009155, Lat : 49.2835704, Lng : -123.1150207, Q1 : 0.999998688698, Q2 : -0.00038660413702, Q3 : 0.000618614663836, Q4 : -0.00145517650526}
2019-04-14 18:10:53.41: SIM {TimeUS : 50634738, Roll : -0.04, Pitch : 0.05, Yaw : 359.83, Alt : 44.0200004578, Lat : 49.2835704, Lng : -123.1150207, Q1 : 0.999998748302, Q2 : -0.000390936009353, Q3 : 0.000453876738902, Q4 : -0.00146507180762}
2019-04-14 18:10:53.51: SIM {TimeUS : 50734698, Roll : -0.03, Pitch : 0.03, Yaw : 359.83, Alt : 44.2599983215, Lat : 49.2835704, Lng : -123.1150207, Q1 : 0.999998807907, Q2 : -0.000334491749527, Q3 : 0.000293561228318, Q4 : -0.0014798581833}
2019-04-14 18:10:53.61: SIM {TimeUS : 50834658, Roll : -0.02, Pitch : 0.02, Yaw : 359.82, Alt : 44.5, Lat : 49.2835704, Lng : -123.1150207, Q1 : 0.999998807907, Q2 : -0.000198035748326, Q3 : 0.000250758428592, Q4 : -0.00150544149801}
2019-04-14 18:10:53.71: SIM {TimeUS : 50934618, Roll : -0.01, Pitch : 0.03, Yaw : 359.82, Alt : 44.7299995422, Lat : 49.2835704, Lng : -123.1150206, Q1 : 0.999998748302, Q2 : -0.000137864830322, Q3 : 0.000272086064797, Q4 : -0.00153330212925}
2019-04-14 18:10:53.81: SIM {TimeUS : 51035411, Roll : -0.02, Pitch : 0.01, Yaw : 359.82, Alt : 44.9700012207, Lat : 49.2835704, Lng : -123.1150206, Q1 : 0.999998748302, Q2 : -0.000176891830051, Q3 : 0.000137082126457, Q4 : -0.00156435614917}
2019-04-14 18:10:53.91: SIM {TimeUS : 51135371, Roll : -0.02, Pitch : -0.01, Yaw : 359.81, Alt : 45.2099990845, Lat : 49.2835704, Lng : -123.1150206, Q1 : 0.999998688698, Q2 : -0.000231020851061, Q3 : -0.00012692801829, Q4 : -0.00159554393031}
2019-04-14 18:10:54.01: SIM {TimeUS : 51235331, Roll : -0.02, Pitch : -0.03, Yaw : 359.81, Alt : 45.4399986267, Lat : 49.2835703, Lng : -123.1150206, Q1 : 0.999998569489, Q2 : -0.000261674547801, Q3 : -0.000315082870657, Q4 : -0.00162649503909}
2019-04-14 18:10:54.11: SIM {TimeUS : 51335291, Roll : -0.02, Pitch : -0.05, Yaw : 359.8, Alt : 45.6800003052, Lat : 49.2835703, Lng : -123.1150206, Q1 : 0.999998509884, Q2 : -0.000206331984373, Q3 : -0.000437231006799, Q4 : -0.0016592516331}
2019-04-14 18:10:54.21: SIM {TimeUS : 51435251, Roll : -0.02, Pitch : -0.05, Yaw : 359.8, Alt : 45.9099998474, Lat : 49.2835703, Lng : -123.1150206, Q1 : 0.999998450279, Q2 : -0.000224088318646, Q3 : -0.000452525331639, Q4 : -0.00169067678507}
2019-04-14 18:10:54.31: SIM {TimeUS : 51535211, Roll : -0.04, Pitch : -0.03, Yaw : 359.8, Alt : 46.1399993896, Lat : 49.2835703, Lng : -123.1150206, Q1 : 0.999998390675, Q2 : -0.000420085474616, Q3 : -0.000341417413438, Q4 : -0.00172351696528}
2019-04-14 18:10:54.41: SIM {TimeUS : 51635171, Roll : -0.08, Pitch : -0.02, Yaw : 359.79, Alt : 46.3699989319, Lat : 49.2835703, Lng : -123.1150206, Q1 : 0.999998152256, Q2 : -0.00072056701174, Q3 : -0.000245394709054, Q4 : -0.00175346701872}
2019-04-14 18:10:54.51: SIM {TimeUS : 51735131, Roll : -0.1, Pitch : -0.01, Yaw : 359.79, Alt : 46.5900001526, Lat : 49.2835703, Lng : -123.1150206, Q1 : 0.999997973442, Q2 : -0.000944242754485, Q3 : -0.000161735719303, Q4 : -0.00178106501698}
2019-04-14 18:10:54.61: SIM {TimeUS : 51835091, Roll : -0.11, Pitch : 0.0, Yaw : 359.79, Alt : 46.8100013733, Lat : 49.2835703, Lng : -123.1150206, Q1 : 0.999997854233, Q2 : -0.000990740722045, Q3 : -3.84538761864e-05, Q4 : -0.00180737068877}
2019-04-14 18:10:54.71: SIM {TimeUS : 51935051, Roll : -0.1, Pitch : 0.01, Yaw : 359.78, Alt : 47.0200004578, Lat : 49.2835703, Lng : -123.1150206, Q1 : 0.999997913837, Q2 : -0.000880576553755, Q3 : 0.000134928966872, Q4 : -0.00183570862282}
2019-04-14 18:10:54.81: SIM {TimeUS : 52035011, Roll : -0.07, Pitch : 0.02, Yaw : 359.78, Alt : 47.2200012207, Lat : 49.2835703, Lng : -123.1150206, Q1 : 0.999998033047, Q2 : -0.000673274800647, Q3 : 0.000203230170882, Q4 : -0.00186660862528}
2019-04-14 18:10:54.91: SIM {TimeUS : 52134971, Roll : -0.05, Pitch : 0.01, Yaw : 359.78, Alt : 47.4099998474, Lat : 49.2835703, Lng : -123.1150206, Q1 : 0.999998092651, Q2 : -0.000495148124173, Q3 : 0.000124334677821, Q4 : -0.00189464690629}
2019-04-14 18:10:55.01: SIM {TimeUS : 52234931, Roll : -0.04, Pitch : -0.01, Yaw : 359.78, Alt : 47.5999984741, Lat : 49.2835703, Lng : -123.1150206, Q1 : 0.999998092651, Q2 : -0.000412379566114, Q3 : -9.07732464839e-05, Q4 : -0.00191794277634}
2019-04-14 18:10:55.11: SIM {TimeUS : 52334891, Roll : -0.05, Pitch : -0.04, Yaw : 359.77, Alt : 47.7700004578, Lat : 49.2835703, Lng : -123.1150206, Q1 : 0.999997913837, Q2 : -0.000463978154585, Q3 : -0.000433121138485, Q4 : -0.00193689705338}
2019-04-14 18:10:55.21: SIM {TimeUS : 52434851, Roll : -0.04, Pitch : -0.08, Yaw : 359.77, Alt : 47.9399986267, Lat : 49.2835703, Lng : -123.1150206, Q1 : 0.999997735023, Q2 : -0.000401168683311, Q3 : -0.000713555084076, Q4 : -0.0019515621243}
2019-04-14 18:10:55.31: SIM {TimeUS : 52534811, Roll : -0.03, Pitch : -0.1, Yaw : 359.77, Alt : 48.0900001526, Lat : 49.2835703, Lng : -123.1150206, Q1 : 0.99999755621, Q2 : -0.000319785583997, Q3 : -0.000954056275077, Q4 : -0.00196503545158}
2019-04-14 18:10:55.41: SIM {TimeUS : 52634771, Roll : -0.03, Pitch : -0.12, Yaw : 359.77, Alt : 48.2299995422, Lat : 49.2835703, Lng : -123.1150206, Q1 : 0.999997437, Q2 : -0.000304421992041, Q3 : -0.00108987069689, Q4 : -0.00198147259653}
2019-04-14 18:10:55.51: SIM {TimeUS : 52734731, Roll : 0.0, Pitch : -0.11, Yaw : 359.77, Alt : 48.3600006104, Lat : 49.2835703, Lng : -123.1150206, Q1 : 0.999997496605, Q2 : -5.82917928114e-05, Q3 : -0.000990888453089, Q4 : -0.00200170977041}
2019-04-14 18:10:55.61: SIM {TimeUS : 52834691, Roll : 0.02, Pitch : -0.08, Yaw : 359.76, Alt : 48.4799995422, Lat : 49.2835703, Lng : -123.1150206, Q1 : 0.999997615814, Q2 : 0.000233290353208, Q3 : -0.000757830566727, Q4 : -0.00202504592016}
2019-04-14 18:10:55.71: SIM {TimeUS : 52934651, Roll : 0.05, Pitch : -0.05, Yaw : 359.76, Alt : 48.5800018311, Lat : 49.2835703, Lng : -123.1150207, Q1 : 0.999997675419, Q2 : 0.000491061422508, Q3 : -0.00048585634795, Q4 : -0.00205078884028}
2019-04-14 18:10:55.82: SIM {TimeUS : 53035444, Roll : 0.06, Pitch : -0.03, Yaw : 359.76, Alt : 48.6699981689, Lat : 49.2835703, Lng : -123.1150207, Q1 : 0.999997675419, Q2 : 0.000565755472053, Q3 : -0.000264025497017, Q4 : -0.00207555084489}
2019-04-14 18:10:55.91: SIM {TimeUS : 53135404, Roll : 0.07, Pitch : -0.02, Yaw : 359.75, Alt : 48.75, Lat : 49.2835703, Lng : -123.1150207, Q1 : 0.99999755621, Q2 : 0.000619282363914, Q3 : -0.000197185974685, Q4 : -0.00210475269705}
2019-04-14 18:10:56.01: SIM {TimeUS : 53235364, Roll : 0.06, Pitch : -0.03, Yaw : 359.75, Alt : 48.8199996948, Lat : 49.2835703, Lng : -123.1150207, Q1 : 0.999997496605, Q2 : 0.000548369833268, Q3 : -0.00029974716017, Q4 : -0.00213270727545}
2019-04-14 18:10:56.11: SIM {TimeUS : 53335324, Roll : 0.03, Pitch : -0.04, Yaw : 359.75, Alt : 48.8800010681, Lat : 49.2835703, Lng : -123.1150207, Q1 : 0.99999755621, Q2 : 0.000316474382998, Q3 : -0.000366917491192, Q4 : -0.00216064276174}
2019-04-14 18:10:56.21: SIM {TimeUS : 53435284, Roll : 0.01, Pitch : -0.03, Yaw : 359.74, Alt : 48.9399986267, Lat : 49.2835703, Lng : -123.1150207, Q1 : 0.99999755621, Q2 : 0.00012256304035, Q3 : -0.000342794024618, Q4 : -0.00218925788067}
2019-04-14 18:10:56.31: SIM {TimeUS : 53535244, Roll : 0.02, Pitch : -0.04, Yaw : 359.74, Alt : 48.9799995422, Lat : 49.2835703, Lng : -123.1150207, Q1 : 0.999997377396, Q2 : 0.000221799360588, Q3 : -0.000434453628259, Q4 : -0.00222091120668}
2019-04-14 18:10:56.41: SIM {TimeUS : 53635204, Roll : 0.18, Pitch : -0.13, Yaw : 359.74, Alt : 49.0200004578, Lat : 49.2835703, Lng : -123.1150207, Q1 : 0.999995470047, Q2 : 0.00157695251983, Q3 : -0.00119119137526, Q4 : -0.00225605629385}
2019-04-14 18:10:56.51: SIM {TimeUS : 53735164, Roll : 0.57, Pitch : -0.36, Yaw : 359.73, Alt : 49.0499992371, Lat : 49.2835704, Lng : -123.1150207, Q1 : 0.99997985363, Q2 : 0.00499450974166, Q3 : -0.00318766012788, Q4 : -0.00228845421225}
2019-04-14 18:10:56.61: SIM {TimeUS : 53835124, Roll : 1.19, Pitch : -0.76, Yaw : 359.72, Alt : 49.0800018311, Lat : 49.2835704, Lng : -123.1150207, Q1 : 0.999920785427, Q2 : 0.0104217166081, Q3 : -0.00667103426531, Q4 : -0.00230971886776}
2019-04-14 18:10:56.71: SIM {TimeUS : 53935084, Roll : 1.98, Pitch : -1.31, Yaw : 359.71, Alt : 49.0999984741, Lat : 49.2835704, Lng : -123.1150206, Q1 : 0.999782204628, Q2 : 0.0172643046826, Q3 : -0.0114958044142, Q4 : -0.00231738388538}
2019-04-14 18:10:56.81: SIM {TimeUS : 54035044, Roll : 2.83, Pitch : -1.93, Yaw : 359.69, Alt : 49.1300010681, Lat : 49.2835704, Lng : -123.1150206, Q1 : 0.999549031258, Q2 : 0.0246937293559, Q3 : -0.01693293266, Q4 : -0.00228077010252}
2019-04-14 18:10:56.91: SIM {TimeUS : 54135004, Roll : 3.62, Pitch : -2.52, Yaw : 359.67, Alt : 49.1399993896, Lat : 49.2835706, Lng : -123.1150204, Q1 : 0.999253094196, Q2 : 0.0315877124667, Q3 : -0.022154532373, Q4 : -0.00217320094816}
2019-04-14 18:10:57.01: SIM {TimeUS : 54234964, Roll : 4.27, Pitch : -3.01, Yaw : 359.65, Alt : 49.1599998474, Lat : 49.2835707, Lng : -123.1150202, Q1 : 0.99895554781, Q2 : 0.037219222635, Q3 : -0.0264314841479, Q4 : -0.00198894203641}
2019-04-14 18:10:57.11: SIM {TimeUS : 54334924, Roll : 4.76, Pitch : -3.36, Yaw : 359.66, Alt : 49.1699981689, Lat : 49.2835708, Lng : -123.11502, Q1 : 0.998706519604, Q2 : 0.041435431689, Q3 : -0.0294176097959, Q4 : -0.00173508597072}
2019-04-14 18:10:57.21: SIM {TimeUS : 54434884, Roll : 5.11, Pitch : -3.6, Yaw : 359.67, Alt : 49.1800003052, Lat : 49.2835709, Lng : -123.1150196, Q1 : 0.998510420322, Q2 : 0.0445023886859, Q3 : -0.0315337665379, Q4 : -0.00144831510261}
2019-04-14 18:10:57.31: SIM {TimeUS : 54534844, Roll : 5.41, Pitch : -3.81, Yaw : 359.68, Alt : 49.1899986267, Lat : 49.2835712, Lng : -123.1150192, Q1 : 0.9983330369, Q2 : 0.0470971725881, Q3 : -0.033343102783, Q4 : -0.00114585831761}
2019-04-14 18:10:57.41: SIM {TimeUS : 54634804, Roll : 5.69, Pitch : -4.0, Yaw : 359.7, Alt : 49.2000007629, Lat : 49.2835715, Lng : -123.1150186, Q1 : 0.998156130314, Q2 : 0.0495582260191, Q3 : -0.0350374653935, Q4 : -0.000847911986057}
2019-04-14 18:10:57.51: SIM {TimeUS : 54734764, Roll : 5.99, Pitch : -4.23, Yaw : 359.71, Alt : 49.2099990845, Lat : 49.2835718, Lng : -123.1150179, Q1 : 0.997952580452, Q2 : 0.0521753802896, Q3 : -0.0369869321585, Q4 : -0.000568782852497}
2019-04-14 18:10:57.61: SIM {TimeUS : 54834724, Roll : 6.29, Pitch : -4.46, Yaw : 359.71, Alt : 49.2200012207, Lat : 49.2835721, Lng : -123.1150172, Q1 : 0.997735500336, Q2 : 0.0548019744456, Q3 : -0.0389936342835, Q4 : -0.00030530479853}
2019-04-14 18:10:57.71: SIM {TimeUS : 54934684, Roll : 6.56, Pitch : -4.65, Yaw : 359.72, Alt : 49.2299995422, Lat : 49.2835726, Lng : -123.1150163, Q1 : 0.99753844738, Q2 : 0.0571362376213, Q3 : -0.0406514666975, Q4 : -6.33315794403e-05}
2019-04-14 18:10:57.81: SIM {TimeUS : 55034644, Roll : 6.75, Pitch : -4.77, Yaw : 359.73, Alt : 49.2299995422, Lat : 49.2835729, Lng : -123.1150154, Q1 : 0.997401297092, Q2 : 0.0587638504803, Q3 : -0.0416827537119, Q4 : 0.000142447752296}
2019-04-14 18:10:57.92: SIM {TimeUS : 55135437, Roll : 6.87, Pitch : -4.85, Yaw : 359.74, Alt : 49.2400016785, Lat : 49.2835734, Lng : -123.1150143, Q1 : 0.997307121754, Q2 : 0.059836935252, Q3 : -0.0424018725753, Q4 : 0.00029695534613}
2019-04-14 18:10:58.01: SIM {TimeUS : 55235397, Roll : 6.95, Pitch : -4.92, Yaw : 359.74, Alt : 49.2400016785, Lat : 49.2835739, Lng : -123.1150132, Q1 : 0.997240781784, Q2 : 0.0605150535703, Q3 : -0.0429960675538, Q4 : 0.000382690835977}
2019-04-14 18:10:58.11: SIM {TimeUS : 55335357, Roll : 7.05, Pitch : -4.97, Yaw : 359.74, Alt : 49.25, Lat : 49.2835745, Lng : -123.1150119, Q1 : 0.997165083885, Q2 : 0.061401873827, Q3 : -0.0434913523495, Q4 : 0.000431877211668}
2019-04-14 18:10:58.21: SIM {TimeUS : 55435317, Roll : 7.29, Pitch : -4.95, Yaw : 359.81, Alt : 49.25, Lat : 49.2835751, Lng : -123.1150106, Q1 : 0.997043311596, Q2 : 0.0634974092245, Q3 : -0.0432610549033, Q4 : 0.00110570644028}
2019-04-14 18:10:58.31: SIM {TimeUS : 55535277, Roll : 7.77, Pitch : -4.78, Yaw : 0.39, Alt : 49.25, Lat : 49.2835758, Lng : -123.1150092, Q1 : 0.996814846992, Q2 : 0.0678734481335, Q3 : -0.0414042361081, Q4 : 0.00625331699848}
2019-04-14 18:10:58.41: SIM {TimeUS : 55635237, Roll : 8.4, Pitch : -4.63, Yaw : 2.17, Alt : 49.2599983215, Lat : 49.2835764, Lng : -123.1150077, Q1 : 0.996258795261, Q2 : 0.0739987418056, Q3 : -0.0389295890927, Q4 : 0.0218433402479}
2019-04-14 18:10:58.51: SIM {TimeUS : 55735197, Roll : 8.93, Pitch : -4.86, Yaw : 5.51, Alt : 49.2599983215, Lat : 49.2835771, Lng : -123.115006, Q1 : 0.994748234749, Q2 : 0.079793356359, Q3 : -0.0384951494634, Q4 : 0.0512561313808}
2019-04-14 18:10:58.61: SIM {TimeUS : 55835157, Roll : 9.1, Pitch : -5.59, Yaw : 10.39, Alt : 49.2599983215, Lat : 49.2835779, Lng : -123.1150044, Q1 : 0.991209626198, Q2 : 0.0833834409714, Q3 : -0.041311968118, Q4 : 0.0940425097942}
2019-04-14 18:10:58.71: SIM {TimeUS : 55935117, Roll : 8.72, Pitch : -6.79, Yaw : 16.58, Alt : 49.2599983215, Lat : 49.2835786, Lng : -123.1150026, Q1 : 0.984294652939, Q2 : 0.0836792811751, Q3 : -0.0475447103381, Q4 : 0.14799079299}
2019-04-14 18:10:58.81: SIM {TimeUS : 56035077, Roll : 7.72, Pitch : -8.29, Yaw : 23.83, Alt : 49.2599983215, Lat : 49.2835793, Lng : -123.1150005, Q1 : 0.972669482231, Q2 : 0.0806043744087, Q3 : -0.056779012084, Q4 : 0.210221618414}
2019-04-14 18:10:58.91: SIM {TimeUS : 56135037, Roll : 6.11, Pitch : -9.9, Yaw : 31.88, Alt : 49.2599983215, Lat : 49.28358, Lng : -123.1149986, Q1 : 0.95532900095, Q2 : 0.0747475251555, Q3 : -0.0683090239763, Q4 : 0.27765673399}
2019-04-14 18:10:59.01: SIM {TimeUS : 56234997, Roll : 3.97, Pitch : -11.38, Yaw : 40.47, Alt : 49.2700004578, Lat : 49.2835808, Lng : -123.1149964, Q1 : 0.931878983974, Q2 : 0.0666846632957, Q3 : -0.0810490399599, Q4 : 0.347254574299}
2019-04-14 18:10:59.11: SIM {TimeUS : 56334957, Roll : 1.19, Pitch : -12.5, Yaw : 49.2, Alt : 49.2700004578, Lat : 49.2835817, Lng : -123.1149941, Q1 : 0.903302669525, Q2 : 0.0547997765243, Q3 : -0.0946879684925, Q4 : 0.41481974721}
2019-04-14 18:10:59.21: SIM {TimeUS : 56434917, Roll : -2.0, Pitch : -13.07, Yaw : 57.22, Alt : 49.2700004578, Lat : 49.2835825, Lng : -123.1149917, Q1 : 0.872987568378, Q2 : 0.0392717421055, Q3 : -0.10822249949, Q4 : 0.473960280418}
2019-04-14 18:10:59.31: SIM {TimeUS : 56534877, Roll : -4.97, Pitch : -13.12, Yaw : 63.7, Alt : 49.2700004578, Lat : 49.2835835, Lng : -123.1149893, Q1 : 0.8456620574, Q2 : 0.0236190035939, Q3 : -0.119728736579, Q4 : 0.519579529762}
2019-04-14 18:10:59.41: SIM {TimeUS : 56634837, Roll : -7.14, Pitch : -12.88, Yaw : 68.14, Alt : 49.2700004578, Lat : 49.2835846, Lng : -123.1149868, Q1 : 0.825404703617, Q2 : 0.011477057822, Q3 : -0.127432689071, Q4 : 0.549851179123}
2019-04-14 18:10:59.51: SIM {TimeUS : 56734797, Roll : -8.23, Pitch : -12.64, Yaw : 70.51, Alt : 49.2700004578, Lat : 49.2835858, Lng : -123.1149842, Q1 : 0.814049720764, Q2 : 0.00514743290842, Q3 : -0.1308580935, Q4 : 0.565838158131}
2019-04-14 18:10:59.61: SIM {TimeUS : 56834757, Roll : -8.29, Pitch : -12.6, Yaw : 71.08, Alt : 49.2700004578, Lat : 49.283587, Lng : -123.1149816, Q1 : 0.811276495457, Q2 : 0.0051577500999, Q3 : -0.13082921505, Q4 : 0.569813668728}
2019-04-14 18:10:59.71: SIM {TimeUS : 56934717, Roll : -7.52, Pitch : -12.82, Yaw : 70.19, Alt : 49.2700004578, Lat : 49.2835884, Lng : -123.1149789, Q1 : 0.815513491631, Q2 : 0.0107327243313, Q3 : -0.128627747297, Q4 : 0.564160883427}
2019-04-14 18:10:59.81: SIM {TimeUS : 57034677, Roll : -6.14, Pitch : -13.29, Yaw : 68.22, Alt : 49.2700004578, Lat : 49.2835898, Lng : -123.1149762, Q1 : 0.824674606323, Q2 : 0.020721770823, Q3 : -0.125560328364, Q4 : 0.551105320454}
2019-04-14 18:10:59.91: SIM {TimeUS : 57134637, Roll : -4.39, Pitch : -13.94, Yaw : 65.5, Alt : 49.2700004578, Lat : 49.2835914, Lng : -123.1149734, Q1 : 0.836704969406, Q2 : 0.033587064594, Q3 : -0.122615665197, Q4 : 0.532693266869}
2019-04-14 18:11:00.02: SIM {TimeUS : 57235430, Roll : -2.48, Pitch : -14.64, Yaw : 62.32, Alt : 49.2799987793, Lat : 49.2835929, Lng : -123.1149705, Q1 : 0.849960803986, Q2 : 0.0475754663348, Q3 : -0.120162986219, Q4 : 0.510748565197}
2019-04-14 18:11:00.11: SIM {TimeUS : 57335390, Roll : -0.6, Pitch : -15.24, Yaw : 59.04, Alt : 49.2799987793, Lat : 49.2835946, Lng : -123.1149675, Q1 : 0.862805247307, Q2 : 0.0607797503471, Q3 : -0.118004910648, Q4 : 0.487798899412}
2019-04-14 18:11:00.21: SIM {TimeUS : 57435350, Roll : 1.05, Pitch : -15.65, Yaw : 55.98, Alt : 49.2799987793, Lat : 49.2835963, Lng : -123.1149645, Q1 : 0.874166309834, Q2 : 0.0719850733876, Q3 : -0.115972071886, Q4 : 0.466049194336}
2019-04-14 18:11:00.31: SIM {TimeUS : 57535310, Roll : 2.37, Pitch : -15.85, Yaw : 53.43, Alt : 49.2799987793, Lat : 49.2835978, Lng : -123.1149613, Q1 : 0.883228361607, Q2 : 0.0803273096681, Q3 : -0.113950677216, Q4 : 0.447739332914}
2019-04-14 18:11:00.41: SIM {TimeUS : 57635270, Roll : 3.24, Pitch : -15.88, Yaw : 51.6, Alt : 49.2799987793, Lat : 49.2835995, Lng : -123.1149579, Q1 : 0.889612019062, Q2 : 0.085361994803, Q3 : -0.112151905894, Q4 : 0.434425890446}
2019-04-14 18:11:00.51: SIM {TimeUS : 57735230, Roll : 3.64, Pitch : -15.82, Yaw : 50.57, Alt : 49.2799987793, Lat : 49.2836013, Lng : -123.1149545, Q1 : 0.89325773716, Q2 : 0.0872128978372, Q3 : -0.110950052738, Q4 : 0.426819145679}
2019-04-14 18:11:00.61: SIM {TimeUS : 57835190, Roll : 3.59, Pitch : -15.76, Yaw : 50.31, Alt : 49.2799987793, Lat : 49.2836029, Lng : -123.1149509, Q1 : 0.89431065321, Q2 : 0.086404107511, Q3 : -0.110837981105, Q4 : 0.424803167582}
2019-04-14 18:11:00.71: SIM {TimeUS : 57935150, Roll : 3.17, Pitch : -15.77, Yaw : 50.72, Alt : 49.2799987793, Lat : 49.2836045, Lng : -123.1149472, Q1 : 0.893080174923, Q2 : 0.0835904031992, Q3 : -0.112220346928, Q4 : 0.427582800388}
2019-04-14 18:11:00.81: SIM {TimeUS : 58035110, Roll : 2.48, Pitch : -15.87, Yaw : 51.64, Alt : 49.2799987793, Lat : 49.2836062, Lng : -123.1149434, Q1 : 0.890027225018, Q2 : 0.0794365629554, Q3 : -0.114933669567, Q4 : 0.433971971273}
2019-04-14 18:11:00.91: SIM {TimeUS : 58135070, Roll : 1.61, Pitch : -16.02, Yaw : 52.87, Alt : 49.2799987793, Lat : 49.283608, Lng : -123.1149395, Q1 : 0.885712921619, Q2 : 0.0745598897338, Q3 : -0.11861359328, Q4 : 0.442588150501}
2019-04-14 18:11:01.01: SIM {TimeUS : 58235030, Roll : 0.71, Pitch : -16.17, Yaw : 54.24, Alt : 49.2799987793, Lat : 49.2836097, Lng : -123.1149356, Q1 : 0.880780994892, Q2 : 0.0696033760905, Q3 : -0.122409656644, Q4 : 0.452101886272}
2019-04-14 18:11:01.11: SIM {TimeUS : 58334990, Roll : -0.09, Pitch : -16.28, Yaw : 55.56, Alt : 49.2799987793, Lat : 49.2836115, Lng : -123.1149315, Q1 : 0.875846147537, Q2 : 0.0652743428946, Q3 : -0.125728234649, Q4 : 0.461329877377}
2019-04-14 18:11:01.21: SIM {TimeUS : 58434950, Roll : -0.77, Pitch : -16.36, Yaw : 56.71, Alt : 49.2799987793, Lat : 49.2836133, Lng : -123.1149275, Q1 : 0.871476113796, Q2 : 0.061750382185, Q3 : -0.128421440721, Q4 : 0.469280511141}
2019-04-14 18:11:01.31: SIM {TimeUS : 58534910, Roll : -1.22, Pitch : -16.41, Yaw : 57.58, Alt : 49.2900009155, Lat : 49.2836151, Lng : -123.1149233, Q1 : 0.868069469929, Q2 : 0.0594789460301, Q3 : -0.130243271589, Q4 : 0.475346624851}
2019-04-14 18:11:01.41: SIM {TimeUS : 58634870, Roll : -1.45, Pitch : -16.43, Yaw : 58.13, Alt : 49.2900009155, Lat : 49.283617, Lng : -123.1149191, Q1 : 0.865889370441, Q2 : 0.0584837459028, Q3 : -0.130995586514, Q4 : 0.479223787785}
2019-04-14 18:11:01.51: SIM {TimeUS : 58734830, Roll : -1.47, Pitch : -16.43, Yaw : 58.35, Alt : 49.2900009155, Lat : 49.2836189, Lng : -123.1149148, Q1 : 0.864980518818, Q2 : 0.0585809871554, Q3 : -0.130979016423, Q4 : 0.480854928493}
2019-04-14 18:11:01.61: SIM {TimeUS : 58834790, Roll : -1.33, Pitch : -16.45, Yaw : 58.27, Alt : 49.2900009155, Lat : 49.2836207, Lng : -123.1149105, Q1 : 0.865203082561, Q2 : 0.0595936626196, Q3 : -0.130611404777, Q4 : 0.480429917574}
2019-04-14 18:11:01.71: SIM {TimeUS : 58934750, Roll : -1.09, Pitch : -16.49, Yaw : 57.96, Alt : 49.2900009155, Lat : 49.2836226, Lng : -123.1149063, Q1 : 0.866328418255, Q2 : 0.0612571313977, Q3 : -0.130083277822, Q4 : 0.47833147645}
2019-04-14 18:11:01.81: SIM {TimeUS : 59034710, Roll : -0.78, Pitch : -16.56, Yaw : 57.49, Alt : 49.2900009155, Lat : 49.2836247, Lng : -123.1149019, Q1 : 0.868050992489, Q2 : 0.0633685737848, Q3 : -0.129576265812, Q4 : 0.475059986115}
2019-04-14 18:11:01.91: SIM {TimeUS : 59134670, Roll : -0.44, Pitch : -16.63, Yaw : 56.93, Alt : 49.2900009155, Lat : 49.2836267, Lng : -123.1148975, Q1 : 0.870088398457, Q2 : 0.0655786767602, Q3 : -0.129013225436, Q4 : 0.471170037985}
2019-04-14 18:11:02.01: SIM {TimeUS : 59234630, Roll : -0.1, Pitch : -16.69, Yaw : 56.37, Alt : 49.2900009155, Lat : 49.2836287, Lng : -123.1148931, Q1 : 0.872147977352, Q2 : 0.0677749738097, Q3 : -0.128414496779, Q4 : 0.467198222876}
2019-04-14 18:11:02.12: SIM {TimeUS : 59335423, Roll : 0.2, Pitch : -16.74, Yaw : 55.85, Alt : 49.2900009155, Lat : 49.2836308, Lng : -123.1148886, Q1 : 0.874018609524, Q2 : 0.069751560688, Q3 : -0.127826809883, Q4 : 0.463558495045}
2019-04-14 18:11:02.21: SIM {TimeUS : 59435383, Roll : 0.44, Pitch : -16.77, Yaw : 55.43, Alt : 49.2900009155, Lat : 49.2836328, Lng : -123.114884, Q1 : 0.87551599741, Q2 : 0.0712430998683, Q3 : -0.127347528934, Q4 : 0.460628658533}
2019-04-14 18:11:02.31: SIM {TimeUS : 59535343, Roll : 0.59, Pitch : -16.79, Yaw : 55.14, Alt : 49.2900009155, Lat : 49.2836348, Lng : -123.1148795, Q1 : 0.876564204693, Q2 : 0.0721836611629, Q3 : -0.127057760954, Q4 : 0.458564162254}
2019-04-14 18:11:02.41: SIM {TimeUS : 59635303, Roll : 0.66, Pitch : -16.81, Yaw : 54.98, Alt : 49.2900009155, Lat : 49.2836369, Lng : -123.1148748, Q1 : 0.87713432312, Q2 : 0.0726036727428, Q3 : -0.127040013671, Q4 : 0.457411140203}
2019-04-14 18:11:02.51: SIM {TimeUS : 59735263, Roll : 0.65, Pitch : -16.83, Yaw : 54.94, Alt : 49.2900009155, Lat : 49.283639, Lng : -123.1148702, Q1 : 0.877260506153, Q2 : 0.0725336447358, Q3 : -0.127262070775, Q4 : 0.457118451595}
2019-04-14 18:11:02.61: SIM {TimeUS : 59835223, Roll : 0.57, Pitch : -16.86, Yaw : 55.01, Alt : 49.2900009155, Lat : 49.283641, Lng : -123.1148655, Q1 : 0.876990377903, Q2 : 0.0721401199698, Q3 : -0.127801060677, Q4 : 0.457548439503}
2019-04-14 18:11:02.71: SIM {TimeUS : 59935183, Roll : 0.44, Pitch : -16.91, Yaw : 55.16, Alt : 49.2900009155, Lat : 49.2836432, Lng : -123.1148608, Q1 : 0.876431107521, Q2 : 0.0715126544237, Q3 : -0.128545597196, Q4 : 0.458508968353}
2019-04-14 18:11:02.81: SIM {TimeUS : 60035143, Roll : 0.28, Pitch : -16.96, Yaw : 55.35, Alt : 49.2999992371, Lat : 49.2836452, Lng : -123.114856, Q1 : 0.875703036785, Q2 : 0.0706928893924, Q3 : -0.129443258047, Q4 : 0.459773004055}
2019-04-14 18:11:02.91: SIM {TimeUS : 60135103, Roll : 0.1, Pitch : -17.0, Yaw : 55.56, Alt : 49.2999992371, Lat : 49.2836474, Lng : -123.1148512, Q1 : 0.874921858311, Q2 : 0.0697482526302, Q3 : -0.130348339677, Q4 : 0.461146742105}
2019-04-14 18:11:03.01: SIM {TimeUS : 60235063, Roll : -0.05, Pitch : -17.03, Yaw : 55.76, Alt : 49.2999992371, Lat : 49.2836494, Lng : -123.1148464, Q1 : 0.874195575714, Q2 : 0.0688269659877, Q3 : -0.131100907922, Q4 : 0.462447315454}
2019-04-14 18:11:03.11: SIM {TimeUS : 60335023, Roll : -0.19, Pitch : -17.06, Yaw : 55.92, Alt : 49.2999992371, Lat : 49.2836516, Lng : -123.1148415, Q1 : 0.873579919338, Q2 : 0.0680936053395, Q3 : -0.131795302033, Q4 : 0.463520675898}
2019-04-14 18:11:03.21: SIM {TimeUS : 60434983, Roll : -0.27, Pitch : -17.1, Yaw : 56.04, Alt : 49.2999992371, Lat : 49.2836537, Lng : -123.1148366, Q1 : 0.873113036156, Q2 : 0.0677896887064, Q3 : -0.13236053288, Q4 : 0.464283198118}
2019-04-14 18:11:03.31: SIM {TimeUS : 60534943, Roll : -0.29, Pitch : -17.14, Yaw : 56.1, Alt : 49.2999992371, Lat : 49.2836559, Lng : -123.1148317, Q1 : 0.872842371464, Q2 : 0.0678252279758, Q3 : -0.132719874382, Q4 : 0.464684218168}
2019-04-14 18:11:03.41: SIM {TimeUS : 60634903, Roll : -0.26, Pitch : -17.18, Yaw : 56.1, Alt : 49.2999992371, Lat : 49.283658, Lng : -123.1148268, Q1 : 0.872759461403, Q2 : 0.06819755584, Q3 : -0.132917657495, Q4 : 0.464728832245}
2019-04-14 18:11:03.51: SIM {TimeUS : 60734863, Roll : -0.2, Pitch : -17.21, Yaw : 56.06, Alt : 49.2999992371, Lat : 49.2836603, Lng : -123.1148219, Q1 : 0.872854053974, Q2 : 0.0688021332026, Q3 : -0.132954776287, Q4 : 0.464451432228}
2019-04-14 18:11:03.61: SIM {TimeUS : 60834823, Roll : -0.12, Pitch : -17.24, Yaw : 55.98, Alt : 49.2999992371, Lat : 49.2836625, Lng : -123.1148169, Q1 : 0.873102903366, Q2 : 0.0694010555744, Q3 : -0.13294069469, Q4 : 0.463898211718}
2019-04-14 18:11:03.71: SIM {TimeUS : 60934783, Roll : -0.06, Pitch : -17.26, Yaw : 55.88, Alt : 49.2999992371, Lat : 49.2836646, Lng : -123.1148119, Q1 : 0.873466074467, Q2 : 0.0698454976082, Q3 : -0.132845550776, Q4 : 0.46317461133}
2019-04-14 18:11:03.81: SIM {TimeUS : 61034743, Roll : -0.01, Pitch : -17.27, Yaw : 55.76, Alt : 49.3100013733, Lat : 49.2836669, Lng : -123.1148069, Q1 : 0.873892784119, Q2 : 0.0700705870986, Q3 : -0.132790222764, Q4 : 0.462350845337}
2019-04-14 18:11:03.91: SIM {TimeUS : 61134703, Roll : 0.02, Pitch : -17.27, Yaw : 55.65, Alt : 49.3100013733, Lat : 49.2836692, Lng : -123.1148019, Q1 : 0.874306499958, Q2 : 0.0703310519457, Q3 : -0.132725849748, Q4 : 0.461546987295}
2019-04-14 18:11:04.01: SIM {TimeUS : 61234663, Roll : 0.07, Pitch : -17.29, Yaw : 55.55, Alt : 49.3100013733, Lat : 49.2836713, Lng : -123.1147968, Q1 : 0.874663949013, Q2 : 0.0706444084644, Q3 : -0.132720187306, Q4 : 0.460822939873}
2019-04-14 18:11:04.11: SIM {TimeUS : 61334623, Roll : 0.13, Pitch : -17.33, Yaw : 55.46, Alt : 49.3100013733, Lat : 49.2836736, Lng : -123.1147918, Q1 : 0.874920129776, Q2 : 0.0711586102843, Q3 : -0.132841125131, Q4 : 0.460222184658}
2019-04-14 18:11:04.22: SIM {TimeUS : 61435416, Roll : 0.18, Pitch : -17.39, Yaw : 55.4, Alt : 49.3100013733, Lat : 49.2836759, Lng : -123.1147867, Q1 : 0.875070869923, Q2 : 0.0717375427485, Q3 : -0.133150056005, Q4 : 0.45975625515}
2019-04-14 18:11:04.31: SIM {TimeUS : 61535376, Roll : 0.22, Pitch : -17.42, Yaw : 55.36, Alt : 49.3100013733, Lat : 49.2836782, Lng : -123.1147816, Q1 : 0.875176727772, Q2 : 0.0720838457346, Q3 : -0.13328255713, Q4 : 0.459462076426}
2019-04-14 18:11:04.41: SIM {TimeUS : 61635336, Roll : 0.23, Pitch : -17.42, Yaw : 55.34, Alt : 49.3100013733, Lat : 49.2836803, Lng : -123.1147765, Q1 : 0.87524574995, Q2 : 0.0721728354692, Q3 : -0.133194133639, Q4 : 0.459342241287}
2019-04-14 18:11:04.51: SIM {TimeUS : 61735296, Roll : 0.21, Pitch : -17.42, Yaw : 55.34, Alt : 49.3100013733, Lat : 49.2836827, Lng : -123.1147714, Q1 : 0.875260531902, Q2 : 0.0719734206796, Q3 : -0.133304104209, Q4 : 0.459313422441}
2019-04-14 18:11:04.61: SIM {TimeUS : 61835256, Roll : 0.16, Pitch : -17.44, Yaw : 55.35, Alt : 49.3100013733, Lat : 49.283685, Lng : -123.1147662, Q1 : 0.875212192535, Q2 : 0.0717016533017, Q3 : -0.133638873696, Q4 : 0.459350764751}
2019-04-14 18:11:04.71: SIM {TimeUS : 61935216, Roll : 0.12, Pitch : -17.47, Yaw : 55.38, Alt : 49.3100013733, Lat : 49.2836872, Lng : -123.1147611, Q1 : 0.875113964081, Q2 : 0.0715417787433, Q3 : -0.13399271667, Q4 : 0.459459751844}
2019-04-14 18:11:04.81: SIM {TimeUS : 62035176, Roll : 0.09, Pitch : -17.5, Yaw : 55.4, Alt : 49.3100013733, Lat : 49.2836895, Lng : -123.1147559, Q1 : 0.874989449978, Q2 : 0.0714662894607, Q3 : -0.134359151125, Q4 : 0.459601700306}
2019-04-14 18:11:04.91: SIM {TimeUS : 62135136, Roll : 0.07, Pitch : -17.53, Yaw : 55.43, Alt : 49.3199996948, Lat : 49.2836919, Lng : -123.1147506, Q1 : 0.874881863594, Q2 : 0.0714424476027, Q3 : -0.134598433971, Q4 : 0.459740072489}
2019-04-14 18:11:05.01: SIM {TimeUS : 62235096, Roll : 0.06, Pitch : -17.55, Yaw : 55.44, Alt : 49.3199996948, Lat : 49.2836942, Lng : -123.1147455, Q1 : 0.874797701836, Q2 : 0.0714966282248, Q3 : -0.134778276086, Q4 : 0.459839195013}
2019-04-14 18:11:05.11: SIM {TimeUS : 62335056, Roll : 0.07, Pitch : -17.56, Yaw : 55.45, Alt : 49.3199996948, Lat : 49.2836965, Lng : -123.1147403, Q1 : 0.874754309654, Q2 : 0.0715819448233, Q3 : -0.134830504656, Q4 : 0.459893077612}
2019-04-14 18:11:05.21: SIM {TimeUS : 62435016, Roll : 0.09, Pitch : -17.58, Yaw : 55.45, Alt : 49.3199996948, Lat : 49.2836987, Lng : -123.1147351, Q1 : 0.874731898308, Q2 : 0.0718123987317, Q3 : -0.134906336665, Q4 : 0.459877580404}
2019-04-14 18:11:05.31: SIM {TimeUS : 62534976, Roll : 0.11, Pitch : -17.6, Yaw : 55.43, Alt : 49.3199996948, Lat : 49.283701, Lng : -123.1147298, Q1 : 0.874740540981, Q2 : 0.0720870345831, Q3 : -0.135002344847, Q4 : 0.459789931774}
2019-04-14 18:11:05.41: SIM {TimeUS : 62634936, Roll : 0.13, Pitch : -17.63, Yaw : 55.41, Alt : 49.3199996948, Lat : 49.2837034, Lng : -123.1147246, Q1 : 0.874782085419, Q2 : 0.0722913965583, Q3 : -0.135206490755, Q4 : 0.459618896246}
2019-04-14 18:11:05.51: SIM {TimeUS : 62734896, Roll : 0.11, Pitch : -17.68, Yaw : 55.38, Alt : 49.3199996948, Lat : 49.2837058, Lng : -123.1147193, Q1 : 0.874847412109, Q2 : 0.0723228007555, Q3 : -0.135598510504, Q4 : 0.45937409997}
2019-04-14 18:11:05.61: SIM {TimeUS : 62834856, Roll : 0.1, Pitch : -17.72, Yaw : 55.35, Alt : 49.3199996948, Lat : 49.2837081, Lng : -123.1147141, Q1 : 0.87491953373, Q2 : 0.0723902285099, Q3 : -0.135983496904, Q4 : 0.459112197161}
2019-04-14 18:11:05.71: SIM {TimeUS : 62934816, Roll : 0.12, Pitch : -17.75, Yaw : 55.32, Alt : 49.3199996948, Lat : 49.2837105, Lng : -123.1147088, Q1 : 0.874997198582, Q2 : 0.0725782960653, Q3 : -0.136173844337, Q4 : 0.458877980709}
2019-04-14 18:11:05.81: SIM {TimeUS : 63034776, Roll : 0.13, Pitch : -17.75, Yaw : 55.29, Alt : 49.3199996948, Lat : 49.2837127, Lng : -123.1147035, Q1 : 0.875096678734, Q2 : 0.0726866871119, Q3 : -0.136169284582, Q4 : 0.458672463894}
2019-04-14 18:11:05.91: SIM {TimeUS : 63134736, Roll : 0.15, Pitch : -17.74, Yaw : 55.27, Alt : 49.3199996948, Lat : 49.2837151, Lng : -123.1146982, Q1 : 0.875211715698, Q2 : 0.0727346912026, Q3 : -0.135972097516, Q4 : 0.458503872156}
2019-04-14 18:11:06.01: SIM {TimeUS : 63234696, Roll : 0.16, Pitch : -17.72, Yaw : 55.25, Alt : 49.3199996948, Lat : 49.2837174, Lng : -123.1146929, Q1 : 0.875316381454, Q2 : 0.0726664438844, Q3 : -0.135823607445, Q4 : 0.458358854055}
2019-04-14 18:11:06.11: SIM {TimeUS : 63334656, Roll : 0.16, Pitch : -17.7, Yaw : 55.23, Alt : 49.3199996948, Lat : 49.2837199, Lng : -123.1146874, Q1 : 0.875409901142, Q2 : 0.0725689604878, Q3 : -0.135694503784, Q4 : 0.458233892918}
2019-04-14 18:11:06.21: SIM {TimeUS : 63434616, Roll : 0.16, Pitch : -17.69, Yaw : 55.22, Alt : 49.3199996948, Lat : 49.2837223, Lng : -123.1146822, Q1 : 0.875475645065, Q2 : 0.0724980831146, Q3 : -0.135608315468, Q4 : 0.45814499259}
2019-04-14 18:11:06.31: SIM {TimeUS : 63535409, Roll : 0.15, Pitch : -17.7, Yaw : 55.21, Alt : 49.3199996948, Lat : 49.2837247, Lng : -123.1146768, Q1 : 0.875503122807, Q2 : 0.0724959671497, Q3 : -0.135719209909, Q4 : 0.458059966564}
2019-04-14 18:11:06.41: SIM {TimeUS : 63635369, Roll : 0.15, Pitch : -17.72, Yaw : 55.2, Alt : 49.3199996948, Lat : 49.283727, Lng : -123.1146715, Q1 : 0.875513255596, Q2 : 0.0725680664182, Q3 : -0.135874941945, Q4 : 0.45798304677}
2019-04-14 18:11:06.51: SIM {TimeUS : 63735329, Roll : 0.14, Pitch : -17.76, Yaw : 55.19, Alt : 49.3300018311, Lat : 49.2837294, Lng : -123.1146661, Q1 : 0.875494062901, Q2 : 0.0726678147912, Q3 : -0.136272117496, Q4 : 0.457885891199}
2019-04-14 18:11:06.61: SIM {TimeUS : 63835289, Roll : 0.14, Pitch : -17.82, Yaw : 55.18, Alt : 49.3300018311, Lat : 49.2837318, Lng : -123.1146606, Q1 : 0.87546402216, Q2 : 0.072826474905, Q3 : -0.136702537537, Q4 : 0.457789838314}
2019-04-14 18:11:06.71: SIM {TimeUS : 63935249, Roll : 0.14, Pitch : -17.85, Yaw : 55.18, Alt : 49.3300018311, Lat : 49.2837342, Lng : -123.1146554, Q1 : 0.875449359417, Q2 : 0.0729892998934, Q3 : -0.136959955096, Q4 : 0.457714855671}
2019-04-14 18:11:06.81: SIM {TimeUS : 64035209, Roll : 0.14, Pitch : -17.88, Yaw : 55.17, Alt : 49.3300018311, Lat : 49.2837366, Lng : -123.11465, Q1 : 0.875445127487, Q2 : 0.0730724334717, Q3 : -0.137224048376, Q4 : 0.457630723715}
2019-04-14 18:11:06.91: SIM {TimeUS : 64135169, Roll : 0.13, Pitch : -17.9, Yaw : 55.16, Alt : 49.3300018311, Lat : 49.283739, Lng : -123.1146446, Q1 : 0.875462830067, Q2 : 0.0730754286051, Q3 : -0.137400075793, Q4 : 0.45754352212}
2019-04-14 18:11:07.01: SIM {TimeUS : 64235129, Roll : 0.14, Pitch : -17.89, Yaw : 55.15, Alt : 49.3300018311, Lat : 49.2837413, Lng : -123.1146392, Q1 : 0.875505387783, Q2 : 0.0731023699045, Q3 : -0.137332141399, Q4 : 0.457478195429}
2019-04-14 18:11:07.11: SIM {TimeUS : 64335089, Roll : 0.16, Pitch : -17.9, Yaw : 55.14, Alt : 49.3300018311, Lat : 49.2837437, Lng : -123.1146338, Q1 : 0.875536441803, Q2 : 0.0732743665576, Q3 : -0.137322694063, Q4 : 0.457394093275}
2019-04-14 18:11:07.21: SIM {TimeUS : 64435049, Roll : 0.17, Pitch : -17.92, Yaw : 55.12, Alt : 49.3300018311, Lat : 49.2837461, Lng : -123.1146284, Q1 : 0.875564098358, Q2 : 0.0734002888203, Q3 : -0.137443497777, Q4 : 0.457284599543}
2019-04-14 18:11:07.31: SIM {TimeUS : 64535009, Roll : 0.17, Pitch : -17.93, Yaw : 55.11, Alt : 49.3300018311, Lat : 49.2837485, Lng : -123.114623, Q1 : 0.87560147047, Q2 : 0.0734924003482, Q3 : -0.137507647276, Q4 : 0.457178980112}
2019-04-14 18:11:07.41: SIM {TimeUS : 64634969, Roll : 0.18, Pitch : -17.93, Yaw : 55.09, Alt : 49.3300018311, Lat : 49.2837509, Lng : -123.1146175, Q1 : 0.875660538673, Q2 : 0.0735240280628, Q3 : -0.137444317341, Q4 : 0.457079797983}
2019-04-14 18:11:07.51: SIM {TimeUS : 64734929, Roll : 0.19, Pitch : -17.93, Yaw : 55.08, Alt : 49.3300018311, Lat : 49.2837533, Lng : -123.114612, Q1 : 0.875716149807, Q2 : 0.0735269859433, Q3 : -0.137436375022, Q4 : 0.456975102425}
2019-04-14 18:11:07.61: SIM {TimeUS : 64834889, Roll : 0.17, Pitch : -17.95, Yaw : 55.06, Alt : 49.3300018311, Lat : 49.2837558, Lng : -123.1146067, Q1 : 0.875760436058, Q2 : 0.0734528005123, Q3 : -0.137648805976, Q4 : 0.456838190556}
2019-04-14 18:11:07.71: SIM {TimeUS : 64934849, Roll : 0.14, Pitch : -17.98, Yaw : 55.05, Alt : 49.3300018311, Lat : 49.2837582, Lng : -123.1146012, Q1 : 0.875789940357, Q2 : 0.0733387172222, Q3 : -0.13806989789, Q4 : 0.456672906876}
2019-04-14 18:11:07.81: SIM {TimeUS : 65034809, Roll : 0.12, Pitch : -17.99, Yaw : 55.04, Alt : 49.3300018311, Lat : 49.2837606, Lng : -123.1145958, Q1 : 0.875840902328, Q2 : 0.0732262432575, Q3 : -0.138207629323, Q4 : 0.456551611423}
2019-04-14 18:11:07.91: SIM {TimeUS : 65134769, Roll : 0.13, Pitch : -17.98, Yaw : 55.03, Alt : 49.3400001526, Lat : 49.283763, Lng : -123.1145903, Q1 : 0.875896453857, Q2 : 0.0732450857759, Q3 : -0.138075321913, Q4 : 0.456481963396}
2019-04-14 18:11:08.01: SIM {TimeUS : 65234729, Roll : 0.15, Pitch : -17.97, Yaw : 55.02, Alt : 49.3400001526, Lat : 49.2837655, Lng : -123.1145848, Q1 : 0.875943183899, Q2 : 0.0733420923352, Q3 : -0.137909933925, Q4 : 0.45642670989}
2019-04-14 18:11:08.11: SIM {TimeUS : 65334689, Roll : 0.17, Pitch : -17.97, Yaw : 55.0, Alt : 49.3400001526, Lat : 49.2837679, Lng : -123.1145794, Q1 : 0.875971317291, Q2 : 0.0734786093235, Q3 : -0.137905552983, Q4 : 0.456352055073}
2019-04-14 18:11:08.21: SIM {TimeUS : 65434649, Roll : 0.16, Pitch : -17.99, Yaw : 54.99, Alt : 49.3400001526, Lat : 49.2837703, Lng : -123.1145739, Q1 : 0.876002967358, Q2 : 0.0734605267644, Q3 : -0.138073906302, Q4 : 0.456243366003}
2019-04-14 18:11:08.32: SIM {TimeUS : 65535442, Roll : 0.14, Pitch : -18.01, Yaw : 54.98, Alt : 49.3400001526, Lat : 49.2837728, Lng : -123.1145684, Q1 : 0.876033186913, Q2 : 0.0733651071787, Q3 : -0.138333246112, Q4 : 0.456122070551}
2019-04-14 18:11:08.41: SIM {TimeUS : 65635402, Roll : 0.12, Pitch : -18.03, Yaw : 54.97, Alt : 49.3400001526, Lat : 49.2837752, Lng : -123.1145629, Q1 : 0.876060605049, Q2 : 0.0733288601041, Q3 : -0.138524621725, Q4 : 0.456017166376}
2019-04-14 18:11:08.51: SIM {TimeUS : 65735362, Roll : 0.13, Pitch : -18.04, Yaw : 54.96, Alt : 49.3400001526, Lat : 49.2837777, Lng : -123.1145574, Q1 : 0.876083016396, Q2 : 0.0734254866838, Q3 : -0.138608619571, Q4 : 0.455932945013}
2019-04-14 18:11:08.61: SIM {TimeUS : 65835322, Roll : 0.14, Pitch : -18.06, Yaw : 54.95, Alt : 49.3400001526, Lat : 49.2837801, Lng : -123.1145519, Q1 : 0.876102089882, Q2 : 0.0735649093986, Q3 : -0.138661235571, Q4 : 0.455857902765}
2019-04-14 18:11:08.71: SIM {TimeUS : 65935282, Roll : 0.17, Pitch : -18.07, Yaw : 54.94, Alt : 49.3400001526, Lat : 49.2837826, Lng : -123.1145464, Q1 : 0.876103639603, Q2 : 0.0738120526075, Q3 : -0.138686671853, Q4 : 0.455807179213}
2019-04-14 18:11:08.81: SIM {TimeUS : 66035242, Roll : 0.18, Pitch : -18.09, Yaw : 54.93, Alt : 49.3400001526, Lat : 49.283785, Lng : -123.1145409, Q1 : 0.876105725765, Q2 : 0.0739688500762, Q3 : -0.138805747032, Q4 : 0.455741584301}
2019-04-14 18:11:08.91: SIM {TimeUS : 66135202, Roll : 0.19, Pitch : -18.11, Yaw : 54.92, Alt : 49.3400001526, Lat : 49.2837875, Lng : -123.1145354, Q1 : 0.876106262207, Q2 : 0.074121311307, Q3 : -0.13893084228, Q4 : 0.455677658319}
2019-04-14 18:11:09.01: SIM {TimeUS : 66235162, Roll : 0.21, Pitch : -18.13, Yaw : 54.92, Alt : 49.3400001526, Lat : 49.2837901, Lng : -123.1145299, Q1 : 0.876106977463, Q2 : 0.0743074640632, Q3 : -0.138989582658, Q4 : 0.455627977848}
2019-04-14 18:11:09.11: SIM {TimeUS : 66335122, Roll : 0.24, Pitch : -18.14, Yaw : 54.91, Alt : 49.3400001526, Lat : 49.2837924, Lng : -123.1145244, Q1 : 0.876104831696, Q2 : 0.0745647773147, Q3 : -0.138946264982, Q4 : 0.45560336113}
2019-04-14 18:11:09.21: SIM {TimeUS : 66435082, Roll : 0.26, Pitch : -18.15, Yaw : 54.9, Alt : 49.3499984741, Lat : 49.283795, Lng : -123.1145189, Q1 : 0.876092851162, Q2 : 0.0748030394316, Q3 : -0.138960987329, Q4 : 0.45558282733}
