2019-04-14 18:54:58.80: SIM {TimeUS : 40016487, Roll : 0.0, Pitch : 0.0, Yaw : 0.0, Alt : 30.1000003815, Lat : 49.28357, Lng : -123.11502, Q1 : 1.0, Q2 : 0.0, Q3 : 0.0, Q4 : 0.0}
2019-04-14 18:54:58.91: SIM {TimeUS : 40135606, Roll : 0.0, Pitch : 0.0, Yaw : 0.0, Alt : 30.1000003815, Lat : 49.28357, Lng : -123.11502, Q1 : 1.0, Q2 : 0.0, Q3 : 0.0, Q4 : 0.0}
2019-04-14 18:54:59.01: SIM {TimeUS : 40235566, Roll : 0.0, Pitch : 0.0, Yaw : 0.0, Alt : 30.1000003815, Lat : 49.28357, Lng : -123.11502, Q1 : 1.0, Q2 : 0.0, Q3 : 0.0, Q4 : 0.0}
2019-04-14 18:54:59.11: SIM {TimeUS : 40335526, Roll : 0.0, Pitch : 0.0, Yaw : 0.0, Alt : 30.1000003815, Lat : 49.28357, Lng : -123.11502, Q1 : 1.0, Q2 : 0.0, Q3 : 0.0, Q4 : 0.0}
2019-04-14 18:54:59.21: SIM {TimeUS : 40435486, Roll : 0.0, Pitch : 0.0, Yaw : 0.0, Alt : 30.1000003815, Lat : 49.28357, Lng : -123.11502, Q1 : 1.0, Q2 : 0.0, Q3 : 0.0, Q4 : 0.0}
2019-04-14 18:54:59.31: SIM {TimeUS : 40535446, Roll : 0.0, Pitch : 0.0, Yaw : 0.0, Alt : 30.1000003815, Lat : 49.28357, Lng : -123.11502, Q1 : 1.0, Q2 : 0.0, Q3 : 0.0, Q4 : 0.0}
2019-04-14 18:54:59.41: SIM {TimeUS : 40635406, Roll : 0.0, Pitch : 0.0, Yaw : 0.0, Alt : 30.1000003815, Lat : 49.28357, Lng : -123.11502, Q1 : 1.0, Q2 : 0.0, Q3 : 0.0, Q4 : 0.0}
2019-04-14 18:54:59.51: SIM {TimeUS : 40735366, Roll : 0.0, Pitch : 0.0, Yaw : 0.0, Alt : 30.1000003815, Lat : 49.28357, Lng : -123.11502, Q1 : 1.0, Q2 : 0.0, Q3 : 0.0, Q4 : 0.0}
2019-04-14 18:54:59.61: SIM {TimeUS : 40835326, Roll : 0.0, Pitch : 0.0, Yaw : 0.0, Alt : 30.1000003815, Lat : 49.28357, Lng : -123.11502, Q1 : 1.0, Q2 : 0.0, Q3 : 0.0, Q4 : 0.0}
2019-04-14 18:54:59.71: SIM {TimeUS : 40935286, Roll : 0.0, Pitch : 0.0, Yaw : 0.0, Alt : 30.1000003815, Lat : 49.28357, Lng : -123.11502, Q1 : 1.0, Q2 : 0.0, Q3 : 0.0, Q4 : 0.0}
2019-04-14 18:54:59.81: SIM {TimeUS : 41035246, Roll : 0.0, Pitch : 0.0, Yaw : 0.0, Alt : 30.1000003815, Lat : 49.28357, Lng : -123.11502, Q1 : 1.0, Q2 : 0.0, Q3 : 0.0, Q4 : 0.0}
2019-04-14 18:54:59.91: SIM {TimeUS : 41135206, Roll : 0.0, Pitch : 0.0, Yaw : 0.0, Alt : 30.1000003815, Lat : 49.28357, Lng : -123.11502, Q1 : 1.0, Q2 : 0.0, Q3 : 0.0, Q4 : 0.0}
2019-04-14 18:55:00.01: SIM {TimeUS : 41235166, Roll : 0.0, Pitch : 0.0, Yaw : 0.0, Alt : 30.1000003815, Lat : 49.28357, Lng : -123.11502, Q1 : 1.0, Q2 : 0.0, Q3 : 0.0, Q4 : 0.0}
2019-04-14 18:55:00.11: SIM {TimeUS : 41335126, Roll : 0.0, Pitch : 0.0, Yaw : 0.0, Alt : 30.1000003815, Lat : 49.28357, Lng : -123.11502, Q1 : 1.0, Q2 : 0.0, Q3 : 0.0, Q4 : 0.0}
2019-04-14 18:55:00.21: SIM {TimeUS : 41435086, Roll : 0.0, Pitch : 0.0, Yaw : 0.0, Alt : 30.1000003815, Lat : 49.28357, Lng : -123.11502, Q1 : 1.0, Q2 : 0.0, Q3 : 0.0, Q4 : 0.0}
2019-04-14 18:55:00.31: SIM {TimeUS : 41535046, Roll : 0.0, Pitch : 0.0, Yaw : 0.0, Alt : 30.1000003815, Lat : 49.28357, Lng : -123.11502, Q1 : 1.0, Q2 : 0.0, Q3 : 0.0, Q4 : 0.0}
2019-04-14 18:55:00.41: SIM {TimeUS : 41635006, Roll : 0.0, Pitch : 0.0, Yaw : 0.0, Alt : 30.1000003815, Lat : 49.28357, Lng : -123.11502, Q1 : 1.0, Q2 : 0.0, Q3 : 0.0, Q4 : 0.0}
2019-04-14 18:55:00.51: SIM {TimeUS : 41734966, Roll : 0.0, Pitch : 0.0, Yaw : 0.0, Alt : 30.1000003815, Lat : 49.28357, Lng : -123.11502, Q1 : 1.0, Q2 : 0.0, Q3 : 0.0, Q4 : 0.0}
2019-04-14 18:55:00.61: SIM {TimeUS : 41834926, Roll : 0.0, Pitch : 0.0, Yaw : 0.0, Alt : 30.1000003815, Lat : 49.28357, Lng : -123.11502, Q1 : 1.0, Q2 : 0.0, Q3 : 0.0, Q4 : 0.0}
2019-04-14 18:55:00.71: SIM {TimeUS : 41934886, Roll : 0.0, Pitch : 0.0, Yaw : 0.0, Alt : 30.1000003815, Lat : 49.28357, Lng : -123.11502, Q1 : 1.0, Q2 : 0.0, Q3 : 0.0, Q4 : 0.0}
2019-04-14 18:55:00.81: SIM {TimeUS : 42034846, Roll : 0.0, Pitch : 0.0, Yaw : 0.0, Alt : 30.1000003815, Lat : 49.28357, Lng : -123.11502, Q1 : 1.0, Q2 : 0.0, Q3 : 0.0, Q4 : 0.0}
2019-04-14 18:55:00.91: SIM {TimeUS : 42135639, Roll : 0.0, Pitch : 0.0, Yaw : 0.0, Alt : 30.1000003815, Lat : 49.28357, Lng : -123.11502, Q1 : 1.0, Q2 : 0.0, Q3 : 0.0, Q4 : 0.0}
2019-04-14 18:55:01.01: SIM {TimeUS : 42235599, Roll : 0.0, Pitch : 0.0, Yaw : 0.0, Alt : 30.1000003815, Lat : 49.28357, Lng : -123.11502, Q1 : 1.0, Q2 : 0.0, Q3 : 0.0, Q4 : 0.0}
2019-04-14 18:55:01.11: SIM {TimeUS : 42335559, Roll : 0.0, Pitch : 0.0, Yaw : 360.0, Alt : 30.1000003815, Lat : 49.28357, Lng : -123.11502, Q1 : 1.0, Q2 : 0.0, Q3 : 0.0, Q4 : -2.01208320838e-11}
2019-04-14 18:55:01.21: SIM {TimeUS : 42435519, Roll : 0.0, Pitch : 0.0, Yaw : 360.0, Alt : 30.1000003815, Lat : 49.28357, Lng : -123.11502, Q1 : 1.0, Q2 : 0.0, Q3 : 0.0, Q4 : -2.4061257875e-08}
2019-04-14 18:55:01.31: SIM {TimeUS : 42535479, Roll : 0.0, Pitch : 0.0, Yaw : 359.99, Alt : 30.1000003815, Lat : 49.28357, Lng : -123.11502, Q1 : 1.0, Q2 : 0.0, Q3 : 0.0, Q4 : -1.76403858632e-07}
2019-04-14 18:55:01.41: SIM {TimeUS : 42635439, Roll : 0.0, Pitch : 0.0, Yaw : 359.99, Alt : 30.1000003815, Lat : 49.28357, Lng : -123.11502, Q1 : 1.0, Q2 : 0.0, Q3 : 0.0, Q4 : -3.94444271024e-07}
2019-04-14 18:55:01.51: SIM {TimeUS : 42735399, Roll : 0.0, Pitch : 0.0, Yaw : 359.99, Alt : 30.1000003815, Lat : 49.28357, Lng : -123.11502, Q1 : 1.0, Q2 : 0.0, Q3 : 0.0, Q4 : -6.18527053575e-07}
2019-04-14 18:55:01.61: SIM {TimeUS : 42835359, Roll : 0.0, Pitch : 0.0, Yaw : 359.99, Alt : 30.1000003815, Lat : 49.28357, Lng : -123.11502, Q1 : 1.0, Q2 : 0.0, Q3 : 0.0, Q4 : -8.17618115434e-07}
2019-04-14 18:55:01.71: SIM {TimeUS : 42935319, Roll : 0.0, Pitch : 0.0, Yaw : 359.99, Alt : 30.1000003815, Lat : 49.28357, Lng : -123.11502, Q1 : 1.0, Q2 : 0.0, Q3 : 0.0, Q4 : -1.05309788978e-06}
2019-04-14 18:55:01.81: SIM {TimeUS : 43035279, Roll : 0.0, Pitch : 0.0, Yaw : 359.99, Alt : 30.1000003815, Lat : 49.28357, Lng : -123.11502, Q1 : 1.0, Q2 : 0.0, Q3 : 0.0, Q4 : -1.22660696888e-06}
2019-04-14 18:55:01.91: SIM {TimeUS : 43135239, Roll : 0.0, Pitch : 0.0, Yaw : 359.99, Alt : 30.1000003815, Lat : 49.28357, Lng : -123.11502, Q1 : 1.0, Q2 : 0.0, Q3 : 0.0, Q4 : -1.43558997934e-06}
2019-04-14 18:55:02.01: SIM {TimeUS : 43235199, Roll : 0.0, Pitch : 0.0, Yaw : 359.99, Alt : 30.1200008392, Lat : 49.28357, Lng : -123.11502, Q1 : 1.0, Q2 : 0.0, Q3 : 0.0, Q4 : -1.64446976214e-06}
2019-04-14 18:55:02.11: SIM {TimeUS : 43335159, Roll : 0.0, Pitch : 0.0, Yaw : 359.99, Alt : 30.1399993896, Lat : 49.28357, Lng : -123.11502, Q1 : 1.0, Q2 : 0.0, Q3 : 0.0, Q4 : -1.86859642781e-06}
2019-04-14 18:55:02.21: SIM {TimeUS : 43435119, Roll : 0.0, Pitch : 0.0, Yaw : 359.99, Alt : 30.1800003052, Lat : 49.28357, Lng : -123.11502, Q1 : 1.0, Q2 : 0.0, Q3 : 0.0, Q4 : -2.08771189136e-06}
2019-04-14 18:55:02.31: SIM {TimeUS : 43535079, Roll : 0.0, Pitch : 0.0, Yaw : 359.99, Alt : 30.2099990845, Lat : 49.28357, Lng : -123.11502, Q1 : 1.0, Q2 : -5.64689798921e-06, Q3 : -4.94103096571e-06, Q4 : -2.36270534515e-06}
2019-04-14 18:55:02.41: SIM {TimeUS : 43635039, Roll : -0.16, Pitch : -0.17, Yaw : 359.99, Alt : 30.2700004578, Lat : 49.28357, Lng : -123.11502, Q1 : 0.999997794628, Q2 : -0.0014752629213, Q3 : -0.00150514720008, Q4 : -2.13170787902e-05}
2019-04-14 18:55:02.51: SIM {TimeUS : 43734999, Roll : -0.47, Pitch : -0.49, Yaw : 359.99, Alt : 30.3899993896, Lat : 49.28357, Lng : -123.11502, Q1 : 0.999982357025, Q2 : -0.00411294400692, Q3 : -0.00428460072726, Q4 : -7.1269030741e-05}
2019-04-14 18:55:02.61: SIM {TimeUS : 43834959, Roll : -0.72, Pitch : -0.73, Yaw : 359.98, Alt : 30.5400009155, Lat : 49.28357, Lng : -123.11502, Q1 : 0.999959111214, Q2 : -0.00635996414348, Q3 : -0.00642535788938, Q4 : -0.000142925870023}
2019-04-14 18:55:02.71: SIM {TimeUS : 43934919, Roll : -0.84, Pitch : -0.79, Yaw : 359.97, Alt : 30.7000007629, Lat : 49.28357, Lng : -123.11502, Q1 : 0.999948978424, Q2 : -0.00733858719468, Q3 : -0.00693781208247, Q4 : -0.000232782986131}
2019-04-14 18:55:02.81: SIM {TimeUS : 44034879, Roll : -0.79, Pitch : -0.69, Yaw : 359.96, Alt : 30.8500003815, Lat : 49.28357, Lng : -123.1150201, Q1 : 0.999957382679, Q2 : -0.00691807037219, Q3 : -0.00610474217683, Q4 : -0.000326328969095}
2019-04-14 18:55:02.91: SIM {TimeUS : 44134839, Roll : -0.63, Pitch : -0.51, Yaw : 359.95, Alt : 31.0100002289, Lat : 49.2835701, Lng : -123.1150201, Q1 : 0.999974370003, Q2 : -0.00553259020671, Q3 : -0.00452136946842, Q4 : -0.000408515916206}
2019-04-14 18:55:03.01: SIM {TimeUS : 44235632, Roll : -0.43, Pitch : -0.31, Yaw : 359.94, Alt : 31.1599998474, Lat : 49.2835701, Lng : -123.1150202, Q1 : 0.999989151955, Q2 : -0.00375436991453, Q3 : -0.00271042436361, Q4 : -0.000479143549455}
2019-04-14 18:55:03.11: SIM {TimeUS : 44335592, Roll : -0.23, Pitch : -0.13, Yaw : 359.93, Alt : 31.3299999237, Lat : 49.2835702, Lng : -123.1150203, Q1 : 0.999997079372, Q2 : -0.00203763134778, Q3 : -0.00119691318832, Q4 : -0.000534452090506}
2019-04-14 18:55:03.21: SIM {TimeUS : 44435552, Roll : -0.05, Pitch : -0.03, Yaw : 359.93, Alt : 31.5, Lat : 49.2835702, Lng : -123.1150204, Q1 : 0.999999642372, Q2 : -0.000498446286656, Q3 : -0.000329166883603, Q4 : -0.000572367978748}
2019-04-14 18:55:03.31: SIM {TimeUS : 44535512, Roll : 0.04, Pitch : 0.0, Yaw : 359.93, Alt : 31.6700000763, Lat : 49.2835702, Lng : -123.1150205, Q1 : 0.999999701977, Q2 : 0.000425027974416, Q3 : 5.45494112885e-05, Q4 : -0.000589751871303}
2019-04-14 18:55:03.41: SIM {TimeUS : 44635472, Roll : 0.07, Pitch : 0.02, Yaw : 359.93, Alt : 31.8500003815, Lat : 49.2835703, Lng : -123.1150205, Q1 : 0.999999582767, Q2 : 0.000686029961798, Q3 : 0.00020328037499, Q4 : -0.000591874239035}
2019-04-14 18:55:03.51: SIM {TimeUS : 44735432, Roll : 0.07, Pitch : 0.02, Yaw : 359.93, Alt : 32.0299987793, Lat : 49.2835703, Lng : -123.1150206, Q1 : 0.999999642372, Q2 : 0.000618775084149, Q3 : 0.000204564901651, Q4 : -0.000576477730647}
2019-04-14 18:55:03.61: SIM {TimeUS : 44835392, Roll : 0.06, Pitch : 0.02, Yaw : 359.93, Alt : 32.2200012207, Lat : 49.2835703, Lng : -123.1150207, Q1 : 0.999999642372, Q2 : 0.000577558006626, Q3 : 0.000238829408772, Q4 : -0.000552512938157}
2019-04-14 18:55:03.71: SIM {TimeUS : 44935352, Roll : 0.07, Pitch : 0.04, Yaw : 359.93, Alt : 32.4099998474, Lat : 49.2835703, Lng : -123.1150207, Q1 : 0.999999582767, Q2 : 0.000637127261143, Q3 : 0.00038107438013, Q4 : -0.000525790965185}
2019-04-14 18:55:03.81: SIM {TimeUS : 45035312, Roll : 0.09, Pitch : 0.06, Yaw : 359.94, Alt : 32.6100006104, Lat : 49.2835703, Lng : -123.1150208, Q1 : 0.999999403954, Q2 : 0.000799545261543, Q3 : 0.000537062820513, Q4 : -0.000503765593749}
2019-04-14 18:55:03.91: SIM {TimeUS : 45135272, Roll : 0.12, Pitch : 0.07, Yaw : 359.94, Alt : 32.8100013733, Lat : 49.2835703, Lng : -123.1150208, Q1 : 0.999999046326, Q2 : 0.00109540403355, Q3 : 0.000658116885461, Q4 : -0.000487680314109}
2019-04-14 18:55:04.01: SIM {TimeUS : 45235232, Roll : 0.15, Pitch : 0.1, Yaw : 359.94, Alt : 33.0099983215, Lat : 49.2835704, Lng : -123.1150208, Q1 : 0.999998629093, Q2 : 0.00131731666625, Q3 : 0.000900491082575, Q4 : -0.000478190020658}
2019-04-14 18:55:04.11: SIM {TimeUS : 45335192, Roll : 0.15, Pitch : 0.13, Yaw : 359.94, Alt : 33.2099990845, Lat : 49.2835704, Lng : -123.1150209, Q1 : 0.999998271465, Q2 : 0.00136513868347, Q3 : 0.0011775639141, Q4 : -0.000491888669785}
2019-04-14 18:55:04.21: SIM {TimeUS : 45435152, Roll : 0.15, Pitch : 0.16, Yaw : 359.94, Alt : 33.4099998474, Lat : 49.2835704, Lng : -123.1150209, Q1 : 0.999997973442, Q2 : 0.00133405032102, Q3 : 0.00139908632264, Q4 : -0.00050844612997}
2019-04-14 18:55:04.31: SIM {TimeUS : 45535112, Roll : 0.15, Pitch : 0.18, Yaw : 359.94, Alt : 33.6199989319, Lat : 49.2835704, Lng : -123.1150209, Q1 : 0.999997615814, Q2 : 0.00137388217263, Q3 : 0.00161580310669, Q4 : -0.000520520901773}
2019-04-14 18:55:04.41: SIM {TimeUS : 45635072, Roll : 0.17, Pitch : 0.18, Yaw : 359.93, Alt : 33.8300018311, Lat : 49.2835704, Lng : -123.1150209, Q1 : 0.999997437, Q2 : 0.00148526055273, Q3 : 0.00162373646162, Q4 : -0.000529252865817}
2019-04-14 18:55:04.51: SIM {TimeUS : 45735032, Roll : 0.17, Pitch : 0.17, Yaw : 359.93, Alt : 34.0400009155, Lat : 49.2835704, Lng : -123.1150209, Q1 : 0.999997437, Q2 : 0.00152600370347, Q3 : 0.00156439561397, Q4 : -0.000548123789486}
2019-04-14 18:55:04.61: SIM {TimeUS : 45834992, Roll : 0.15, Pitch : 0.17, Yaw : 359.93, Alt : 34.25, Lat : 49.2835706, Lng : -123.1150209, Q1 : 0.999997794628, Q2 : 0.00134611001704, Q3 : 0.00150277535431, Q4 : -0.000575147103518}
2019-04-14 18:55:04.71: SIM {TimeUS : 45934952, Roll : 0.13, Pitch : 0.13, Yaw : 359.93, Alt : 34.4599990845, Lat : 49.2835706, Lng : -123.1150209, Q1 : 0.999998450279, Q2 : 0.00113951682579, Q3 : 0.00119727628771, Q4 : -0.000591260381043}
2019-04-14 18:55:04.81: SIM {TimeUS : 46034912, Roll : 0.1, Pitch : 0.08, Yaw : 359.93, Alt : 34.6699981689, Lat : 49.2835706, Lng : -123.1150209, Q1 : 0.99999910593, Q2 : 0.000951327907387, Q3 : 0.000704006408341, Q4 : -0.000597331149038}
2019-04-14 18:55:04.91: SIM {TimeUS : 46134872, Roll : 0.08, Pitch : 0.03, Yaw : 359.92, Alt : 34.8899993896, Lat : 49.2835704, Lng : -123.1150209, Q1 : 0.999999463558, Q2 : 0.000768154568505, Q3 : 0.000335726304911, Q4 : -0.000612126314081}
2019-04-14 18:55:05.01: SIM {TimeUS : 46234832, Roll : 0.06, Pitch : 0.01, Yaw : 359.92, Alt : 35.0999984741, Lat : 49.2835704, Lng : -123.1150209, Q1 : 0.999999582767, Q2 : 0.000603170599788, Q3 : 0.000162333875778, Q4 : -0.000640702026431}
2019-04-14 18:55:05.11: SIM {TimeUS : 46335625, Roll : 0.06, Pitch : 0.02, Yaw : 359.92, Alt : 35.3199996948, Lat : 49.2835704, Lng : -123.1150209, Q1 : 0.999999582767, Q2 : 0.000583946937695, Q3 : 0.000231711077504, Q4 : -0.000678138050716}
2019-04-14 18:55:05.21: SIM {TimeUS : 46435585, Roll : 0.06, Pitch : 0.02, Yaw : 359.91, Alt : 35.5400009155, Lat : 49.2835704, Lng : -123.1150208, Q1 : 0.999999582767, Q2 : 0.000566407223232, Q3 : 0.00019836667343, Q4 : -0.000709748535883}
2019-04-14 18:55:05.31: SIM {TimeUS : 46535545, Roll : 0.05, Pitch : 0.02, Yaw : 359.91, Alt : 35.7599983215, Lat : 49.2835704, Lng : -123.1150208, Q1 : 0.999999642372, Q2 : 0.000447671773145, Q3 : 0.000192972642253, Q4 : -0.000733158609364}
2019-04-14 18:55:05.41: SIM {TimeUS : 46635505, Roll : 0.03, Pitch : 0.03, Yaw : 359.91, Alt : 35.9799995422, Lat : 49.2835704, Lng : -123.1150208, Q1 : 0.999999642372, Q2 : 0.00028413545806, Q3 : 0.000262995628873, Q4 : -0.000751818937715}
2019-04-14 18:55:05.51: SIM {TimeUS : 46735465, Roll : 0.01, Pitch : 0.04, Yaw : 359.91, Alt : 36.2000007629, Lat : 49.2835704, Lng : -123.1150208, Q1 : 0.999999642372, Q2 : 0.000142794888234, Q3 : 0.000391047185985, Q4 : -0.000771467632148}
2019-04-14 18:55:05.61: SIM {TimeUS : 46835425, Roll : 0.0, Pitch : 0.03, Yaw : 359.9, Alt : 36.4199981689, Lat : 49.2835704, Lng : -123.1150208, Q1 : 0.999999642372, Q2 : 5.76516094952e-06, Q3 : 0.000312327640131, Q4 : -0.000787684170064}
2019-04-14 18:55:05.71: SIM {TimeUS : 46935385, Roll : 0.0, Pitch : 0.01, Yaw : 359.9, Alt : 36.6399993896, Lat : 49.2835704, Lng : -123.1150207, Q1 : 0.999999642372, Q2 : -7.29839812266e-05, Q3 : 0.000126693703351, Q4 : -0.000808098062407}
2019-04-14 18:55:05.81: SIM {TimeUS : 47035345, Roll : -0.01, Pitch : 0.0, Yaw : 359.9, Alt : 36.8600006104, Lat : 49.2835704, Lng : -123.1150207, Q1 : 0.999999642372, Q2 : -0.000143383571412, Q3 : -7.37360460334e-05, Q4 : -0.000832006917335}
2019-04-14 18:55:05.91: SIM {TimeUS : 47135305, Roll : -0.02, Pitch : -0.02, Yaw : 359.9, Alt : 37.0900001526, Lat : 49.2835704, Lng : -123.1150207, Q1 : 0.999999582767, Q2 : -0.000186907505849, Q3 : -0.000242793073994, Q4 : -0.000861936016008}
2019-04-14 18:55:06.01: SIM {TimeUS : 47235265, Roll : 0.0, Pitch : -0.04, Yaw : 359.89, Alt : 37.3100013733, Lat : 49.2835704, Lng : -123.1150207, Q1 : 0.999999523163, Q2 : -8.24872622616e-05, Q3 : -0.000375717645511, Q4 : -0.000886435562279}
2019-04-14 18:55:06.11: SIM {TimeUS : 47335225, Roll : -0.01, Pitch : -0.06, Yaw : 359.89, Alt : 37.5400009155, Lat : 49.2835704, Lng : -123.1150207, Q1 : 0.999999463558, Q2 : -0.000102036327007, Q3 : -0.00052764301654, Q4 : -0.000905200489797}
2019-04-14 18:55:06.21: SIM {TimeUS : 47435185, Roll : -0.03, Pitch : -0.08, Yaw : 359.89, Alt : 37.7599983215, Lat : 49.2835704, Lng : -123.1150207, Q1 : 0.999999284744, Q2 : -0.000293455406791, Q3 : -0.000742964853998, Q4 : -0.000921116734389}
2019-04-14 18:55:06.31: SIM {TimeUS : 47535145, Roll : -0.06, Pitch : -0.09, Yaw : 359.89, Alt : 37.9900016785, Lat : 49.2835704, Lng : -123.1150207, Q1 : 0.999998986721, Q2 : -0.000593720120378, Q3 : -0.000863592082169, Q4 : -0.000943397346418}
2019-04-14 18:55:06.41: SIM {TimeUS : 47635105, Roll : -0.1, Pitch : -0.09, Yaw : 359.88, Alt : 38.2200012207, Lat : 49.2835704, Lng : -123.1150206, Q1 : 0.999998748302, Q2 : -0.000910594419111, Q3 : -0.000828543794341, Q4 : -0.000973603280727}
2019-04-14 18:55:06.51: SIM {TimeUS : 47735065, Roll : -0.13, Pitch : -0.08, Yaw : 359.88, Alt : 38.4500007629, Lat : 49.2835704, Lng : -123.1150206, Q1 : 0.999998569489, Q2 : -0.00113625242375, Q3 : -0.000740388757549, Q4 : -0.00100214523263}
2019-04-14 18:55:06.61: SIM {TimeUS : 47835025, Roll : -0.13, Pitch : -0.07, Yaw : 359.88, Alt : 38.6699981689, Lat : 49.2835704, Lng : -123.1150206, Q1 : 0.999998569489, Q2 : -0.00118644407485, Q3 : -0.000613415089902, Q4 : -0.00102406565566}
2019-04-14 18:55:06.71: SIM {TimeUS : 47934985, Roll : -0.12, Pitch : -0.04, Yaw : 359.88, Alt : 38.9000015259, Lat : 49.2835704, Lng : -123.1150206, Q1 : 0.999998807907, Q2 : -0.00104975129943, Q3 : -0.00038664494059, Q4 : -0.00104703044053}
2019-04-14 18:55:06.81: SIM {TimeUS : 48034945, Roll : -0.08, Pitch : -0.03, Yaw : 359.87, Alt : 39.1300010681, Lat : 49.2835704, Lng : -123.1150206, Q1 : 0.999999046326, Q2 : -0.000784346542787, Q3 : -0.000345976877725, Q4 : -0.00107485696208}
2019-04-14 18:55:06.91: SIM {TimeUS : 48134905, Roll : -0.06, Pitch : -0.04, Yaw : 359.87, Alt : 39.3600006104, Lat : 49.2835704, Lng : -123.1150206, Q1 : 0.999999165535, Q2 : -0.000599286169745, Q3 : -0.000363571802154, Q4 : -0.00110759318341}
2019-04-14 18:55:07.01: SIM {TimeUS : 48234865, Roll : -0.05, Pitch : -0.02, Yaw : 359.87, Alt : 39.5900001526, Lat : 49.2835706, Lng : -123.1150206, Q1 : 0.99999922514, Q2 : -0.000509971461724, Q3 : -0.000236645457335, Q4 : -0.00113009149209}
2019-04-14 18:55:07.11: SIM {TimeUS : 48334825, Roll : -0.07, Pitch : 0.0, Yaw : 359.86, Alt : 39.8199996948, Lat : 49.2835706, Lng : -123.1150206, Q1 : 0.999999165535, Q2 : -0.000616994977463, Q3 : 2.53786424764e-06, Q4 : -0.00114880944602}
2019-04-14 18:55:07.21: SIM {TimeUS : 48435618, Roll : -0.06, Pitch : 0.03, Yaw : 359.86, Alt : 40.0600013733, Lat : 49.2835706, Lng : -123.1150206, Q1 : 0.99999910593, Q2 : -0.000573672179598, Q3 : 0.000276833365206, Q4 : -0.00116957339924}
2019-04-14 18:55:07.31: SIM {TimeUS : 48535578, Roll : -0.04, Pitch : 0.06, Yaw : 359.86, Alt : 40.2900009155, Lat : 49.2835706, Lng : -123.1150206, Q1 : 0.999999046326, Q2 : -0.000419783347752, Q3 : 0.000589001458138, Q4 : -0.00119192269631}
2019-04-14 18:55:07.41: SIM {TimeUS : 48635538, Roll : -0.03, Pitch : 0.06, Yaw : 359.86, Alt : 40.5200004578, Lat : 49.2835706, Lng : -123.1150206, Q1 : 0.999999046326, Q2 : -0.000299859559163, Q3 : 0.000598666723818, Q4 : -0.00120520801283}
2019-04-14 18:55:07.51: SIM {TimeUS : 48735498, Roll : -0.01, Pitch : 0.06, Yaw : 359.86, Alt : 40.75, Lat : 49.2835706, Lng : -123.1150207, Q1 : 0.99999910593, Q2 : -9.90936605376e-05, Q3 : 0.000542530789971, Q4 : -0.00121247011703}
2019-04-14 18:55:07.61: SIM {TimeUS : 48835458, Roll : 0.02, Pitch : 0.07, Yaw : 359.86, Alt : 40.9799995422, Lat : 49.2835706, Lng : -123.1150207, Q1 : 0.999999046326, Q2 : 0.000190343693248, Q3 : 0.000653299735859, Q4 : -0.00122031290084}
2019-04-14 18:55:07.71: SIM {TimeUS : 48935418, Roll : 0.06, Pitch : 0.11, Yaw : 359.85, Alt : 41.2200012207, Lat : 49.2835706, Lng : -123.1150207, Q1 : 0.999998569489, Q2 : 0.0005906704464, Q3 : 0.000965678249486, Q4 : -0.00123754516244}
2019-04-14 18:55:07.81: SIM {TimeUS : 49035378, Roll : 0.09, Pitch : 0.15, Yaw : 359.85, Alt : 41.4500007629, Lat : 49.2835706, Lng : -123.1150207, Q1 : 0.999997973442, Q2 : 0.000835742976051, Q3 : 0.00131478731055, Q4 : -0.00126351928338}
2019-04-14 18:55:07.91: SIM {TimeUS : 49135338, Roll : 0.08, Pitch : 0.18, Yaw : 359.85, Alt : 41.6800003052, Lat : 49.2835706, Lng : -123.1150207, Q1 : 0.999997675419, Q2 : 0.000728724524379, Q3 : 0.00159625569358, Q4 : -0.00127751147375}
2019-04-14 18:55:08.01: SIM {TimeUS : 49235298, Roll : 0.03, Pitch : 0.2, Yaw : 359.85, Alt : 41.9199981689, Lat : 49.2835706, Lng : -123.1150207, Q1 : 0.99999755621, Q2 : 0.000346468121279, Q3 : 0.00177642458584, Q4 : -0.00128925545141}
2019-04-14 18:55:08.11: SIM {TimeUS : 49335258, Roll : 0.0, Pitch : 0.21, Yaw : 359.85, Alt : 42.1500015259, Lat : 49.2835706, Lng : -123.1150207, Q1 : 0.999997437, Q2 : -2.09403642657e-05, Q3 : 0.00185170781333, Q4 : -0.00130523543339}
2019-04-14 18:55:08.21: SIM {TimeUS : 49435218, Roll : -0.01, Pitch : 0.18, Yaw : 359.84, Alt : 42.3800010681, Lat : 49.2835706, Lng : -123.1150207, Q1 : 0.999997794628, Q2 : -0.000153397733811, Q3 : 0.00161585549358, Q4 : -0.00132317270618}
2019-04-14 18:55:08.31: SIM {TimeUS : 49535178, Roll : -0.01, Pitch : 0.14, Yaw : 359.84, Alt : 42.6199989319, Lat : 49.2835706, Lng : -123.1150207, Q1 : 0.99999833107, Q2 : -0.000144863020978, Q3 : 0.00123529159464, Q4 : -0.00134533923119}
2019-04-14 18:55:08.41: SIM {TimeUS : 49635138, Roll : 0.0, Pitch : 0.12, Yaw : 359.84, Alt : 42.8499984741, Lat : 49.2835706, Lng : -123.1150207, Q1 : 0.999998450279, Q2 : -3.33466814482e-05, Q3 : 0.00113179441541, Q4 : -0.0013728023041}
2019-04-14 18:55:08.51: SIM {TimeUS : 49735098, Roll : 0.03, Pitch : 0.13, Yaw : 359.83, Alt : 43.0900001526, Lat : 49.2835706, Lng : -123.1150207, Q1 : 0.999998211861, Q2 : 0.000265264796326, Q3 : 0.00121010967996, Q4 : -0.00140886264853}
2019-04-14 18:55:08.61: SIM {TimeUS : 49835058, Roll : 0.08, Pitch : 0.14, Yaw : 359.83, Alt : 43.3199996948, Lat : 49.2835706, Lng : -123.1150207, Q1 : 0.999997854233, Q2 : 0.000700152129866, Q3 : 0.0013008081587, Q4 : -0.00144373101648}
2019-04-14 18:55:08.71: SIM {TimeUS : 49935018, Roll : 0.11, Pitch : 0.13, Yaw : 359.83, Alt : 43.5600013733, Lat : 49.2835706, Lng : -123.1150207, Q1 : 0.999997675419, Q2 : 0.00103780522477, Q3 : 0.00116729934234, Q4 : -0.00148109684233}
2019-04-14 18:55:08.81: SIM {TimeUS : 50034978, Roll : 0.12, Pitch : 0.1, Yaw : 359.82, Alt : 43.7900009155, Lat : 49.2835706, Lng : -123.1150207, Q1 : 0.999997854233, Q2 : 0.00105885637458, Q3 : 0.000948969915044, Q4 : -0.00151364225894}
2019-04-14 18:55:08.91: SIM {TimeUS : 50134938, Roll : 0.07, Pitch : 0.08, Yaw : 359.82, Alt : 44.0299987793, Lat : 49.2835704, Lng : -123.1150207, Q1 : 0.999998271465, Q2 : 0.000690854969434, Q3 : 0.000778500514571, Q4 : -0.00152793352026}
2019-04-14 18:55:09.01: SIM {TimeUS : 50234898, Roll : 0.02, Pitch : 0.07, Yaw : 359.82, Alt : 44.2700004578, Lat : 49.2835704, Lng : -123.1150207, Q1 : 0.999998569489, Q2 : 0.000188210091437, Q3 : 0.000688778294716, Q4 : -0.00153876747936}
2019-04-14 18:55:09.11: SIM {TimeUS : 50334858, Roll : -0.02, Pitch : 0.08, Yaw : 359.82, Alt : 44.5, Lat : 49.2835704, Lng : -123.1150207, Q1 : 0.999998569489, Q2 : -0.000173576161615, Q3 : 0.000699510739651, Q4 : -0.00155481265392}
2019-04-14 18:55:09.21: SIM {TimeUS : 50434818, Roll : -0.04, Pitch : 0.07, Yaw : 359.81, Alt : 44.7400016785, Lat : 49.2835704, Lng : -123.1150206, Q1 : 0.999998509884, Q2 : -0.000349045847543, Q3 : 0.000665122584905, Q4 : -0.00157238636166}
2019-04-14 18:55:09.31: SIM {TimeUS : 50535611, Roll : -0.03, Pitch : 0.06, Yaw : 359.81, Alt : 44.9799995422, Lat : 49.2835704, Lng : -123.1150206, Q1 : 0.999998569489, Q2 : -0.0003083855554, Q3 : 0.000551079399884, Q4 : -0.00159134995192}
2019-04-14 18:55:09.41: SIM {TimeUS : 50635571, Roll : -0.04, Pitch : 0.04, Yaw : 359.81, Alt : 45.2099990845, Lat : 49.2835704, Lng : -123.1150206, Q1 : 0.999998509884, Q2 : -0.000350558926584, Q3 : 0.000421555305365, Q4 : -0.00161766691599}
2019-04-14 18:55:09.51: SIM {TimeUS : 50735531, Roll : -0.03, Pitch : 0.02, Yaw : 359.81, Alt : 45.4500007629, Lat : 49.2835704, Lng : -123.1150206, Q1 : 0.999998569489, Q2 : -0.000310774747049, Q3 : 0.000261117849732, Q4 : -0.00164910801686}
2019-04-14 18:55:09.61: SIM {TimeUS : 50835491, Roll : -0.02, Pitch : 0.01, Yaw : 359.8, Alt : 45.6800003052, Lat : 49.2835703, Lng : -123.1150206, Q1 : 0.999998569489, Q2 : -0.0001912953594, Q3 : 0.000155210160301, Q4 : -0.00168370094616}
2019-04-14 18:55:09.71: SIM {TimeUS : 50935451, Roll : -0.01, Pitch : 0.01, Yaw : 359.8, Alt : 45.9099998474, Lat : 49.2835703, Lng : -123.1150206, Q1 : 0.999998509884, Q2 : -0.000149080035044, Q3 : 0.0001144842754, Q4 : -0.00171626242809}
2019-04-14 18:55:09.81: SIM {TimeUS : 51035411, Roll : -0.02, Pitch : 0.0, Yaw : 359.79, Alt : 46.1399993896, Lat : 49.2835703, Lng : -123.1150206, Q1 : 0.999998450279, Q2 : -0.000179915485205, Q3 : -6.31231250736e-06, Q4 : -0.00174935988616}
2019-04-14 18:55:09.91: SIM {TimeUS : 51135371, Roll : -0.02, Pitch : -0.02, Yaw : 359.79, Alt : 46.3699989319, Lat : 49.2835703, Lng : -123.1150206, Q1 : 0.99999833107, Q2 : -0.000198094247025, Q3 : -0.000223456838285, Q4 : -0.00178337271791}
2019-04-14 18:55:10.01: SIM {TimeUS : 51235331, Roll : -0.01, Pitch : -0.04, Yaw : 359.79, Alt : 46.5900001526, Lat : 49.2835703, Lng : -123.1150206, Q1 : 0.999998271465, Q2 : -0.000171143969055, Q3 : -0.000362622842658, Q4 : -0.00182073190808}
2019-04-14 18:55:10.11: SIM {TimeUS : 51335291, Roll : -0.01, Pitch : -0.05, Yaw : 359.78, Alt : 46.8100013733, Lat : 49.2835703, Lng : -123.1150205, Q1 : 0.999998152256, Q2 : -0.000120987635455, Q3 : -0.00043964915676, Q4 : -0.00185991148464}
2019-04-14 18:55:10.21: SIM {TimeUS : 51435251, Roll : -0.02, Pitch : -0.05, Yaw : 359.78, Alt : 47.0200004578, Lat : 49.2835703, Lng : -123.1150205, Q1 : 0.999998092651, Q2 : -0.000182864678209, Q3 : -0.000485290831421, Q4 : -0.00189905951265}
2019-04-14 18:55:10.31: SIM {TimeUS : 51535211, Roll : -0.04, Pitch : -0.05, Yaw : 359.77, Alt : 47.2200012207, Lat : 49.2835703, Lng : -123.1150205, Q1 : 0.999997913837, Q2 : -0.000400822929805, Q3 : -0.000485964003019, Q4 : -0.00193443207536}
2019-04-14 18:55:10.41: SIM {TimeUS : 51635171, Roll : -0.08, Pitch : -0.05, Yaw : 359.77, Alt : 47.4199981689, Lat : 49.2835703, Lng : -123.1150205, Q1 : 0.999997735023, Q2 : -0.000715169939213, Q3 : -0.0004647699825, Q4 : -0.00196487572975}
2019-04-14 18:55:10.51: SIM {TimeUS : 51735131, Roll : -0.11, Pitch : -0.05, Yaw : 359.77, Alt : 47.5999984741, Lat : 49.2835703, Lng : -123.1150205, Q1 : 0.999997437, Q2 : -0.000968521868344, Q3 : -0.000440000643721, Q4 : -0.00199158350006}
2019-04-14 18:55:10.61: SIM {TimeUS : 51835091, Roll : -0.15, Pitch : -0.07, Yaw : 359.76, Alt : 47.7799987793, Lat : 49.2835703, Lng : -123.1150205, Q1 : 0.999996900558, Q2 : -0.00133133179042, Q3 : -0.000627576722763, Q4 : -0.00201630941592}
2019-04-14 18:55:10.71: SIM {TimeUS : 51935051, Roll : -0.17, Pitch : -0.07, Yaw : 359.76, Alt : 47.9399986267, Lat : 49.2835703, Lng : -123.1150205, Q1 : 0.999996542931, Q2 : -0.0014969157055, Q3 : -0.000685913313646, Q4 : -0.00204298901372}
2019-04-14 18:55:10.81: SIM {TimeUS : 52035011, Roll : -0.16, Pitch : -0.07, Yaw : 359.76, Alt : 48.0900001526, Lat : 49.2835703, Lng : -123.1150205, Q1 : 0.99999666214, Q2 : -0.00142218673136, Q3 : -0.000644633197226, Q4 : -0.00206623435952}
2019-04-14 18:55:10.91: SIM {TimeUS : 52134971, Roll : -0.13, Pitch : -0.06, Yaw : 359.76, Alt : 48.2299995422, Lat : 49.2835703, Lng : -123.1150205, Q1 : 0.999996960163, Q2 : -0.00120156642515, Q3 : -0.000558767933398, Q4 : -0.00208682590164}
2019-04-14 18:55:11.01: SIM {TimeUS : 52234931, Roll : -0.11, Pitch : -0.05, Yaw : 359.75, Alt : 48.3600006104, Lat : 49.2835703, Lng : -123.1150205, Q1 : 0.999997198582, Q2 : -0.000975609291345, Q3 : -0.000476089306176, Q4 : -0.00210527540185}
2019-04-14 18:55:11.11: SIM {TimeUS : 52334891, Roll : -0.08, Pitch : -0.05, Yaw : 359.75, Alt : 48.4799995422, Lat : 49.2835703, Lng : -123.1150205, Q1 : 0.999997377396, Q2 : -0.000741080904845, Q3 : -0.000485654571094, Q4 : -0.00212421827018}
2019-04-14 18:55:11.21: SIM {TimeUS : 52434851, Roll : -0.05, Pitch : -0.06, Yaw : 359.75, Alt : 48.5800018311, Lat : 49.2835703, Lng : -123.1150205, Q1 : 0.999997437, Q2 : -0.000461683230242, Q3 : -0.000538100139238, Q4 : -0.00214040256105}
2019-04-14 18:55:11.31: SIM {TimeUS : 52535644, Roll : -0.03, Pitch : -0.07, Yaw : 359.75, Alt : 48.6800003052, Lat : 49.2835703, Lng : -123.1150205, Q1 : 0.999997437, Q2 : -0.00030340932426, Q3 : -0.000617064128164, Q4 : -0.00216594571248}
2019-04-14 18:55:11.41: SIM {TimeUS : 52635604, Roll : -0.03, Pitch : -0.07, Yaw : 359.74, Alt : 48.7599983215, Lat : 49.2835703, Lng : -123.1150206, Q1 : 0.999997317791, Q2 : -0.000268483505351, Q3 : -0.000675814517308, Q4 : -0.00219523743726}
2019-04-14 18:55:11.51: SIM {TimeUS : 52735564, Roll : 0.0, Pitch : -0.06, Yaw : 359.74, Alt : 48.8300018311, Lat : 49.2835703, Lng : -123.1150206, Q1 : 0.999997317791, Q2 : -6.88038926455e-05, Q3 : -0.000589915260207, Q4 : -0.00223043560982}
2019-04-14 18:55:11.61: SIM {TimeUS : 52835524, Roll : 0.01, Pitch : -0.05, Yaw : 359.74, Alt : 48.8899993896, Lat : 49.2835703, Lng : -123.1150206, Q1 : 0.999997317791, Q2 : 0.000143383076647, Q3 : -0.000454238150269, Q4 : -0.00226270826533}
2019-04-14 18:55:11.71: SIM {TimeUS : 52935484, Roll : 0.03, Pitch : -0.03, Yaw : 359.73, Alt : 48.9399986267, Lat : 49.2835703, Lng : -123.1150206, Q1 : 0.999997317791, Q2 : 0.000292688171612, Q3 : -0.000269787968136, Q4 : -0.00229009706527}
2019-04-14 18:55:11.81: SIM {TimeUS : 53035444, Roll : 0.04, Pitch : -0.01, Yaw : 359.73, Alt : 48.9799995422, Lat : 49.2835703, Lng : -123.1150206, Q1 : 0.999997258186, Q2 : 0.000350915477611, Q3 : -0.00011761886708, Q4 : -0.0023145203013}
2019-04-14 18:55:11.91: SIM {TimeUS : 53135404, Roll : 0.11, Pitch : -0.04, Yaw : 359.73, Alt : 49.0200004578, Lat : 49.2835703, Lng : -123.1150206, Q1 : 0.999996721745, Q2 : 0.00095920113381, Q3 : -0.000370118475985, Q4 : -0.00233922782354}
2019-04-14 18:55:12.01: SIM {TimeUS : 53235364, Roll : 0.33, Pitch : -0.2, Yaw : 359.72, Alt : 49.0600013733, Lat : 49.2835703, Lng : -123.1150206, Q1 : 0.999991238117, Q2 : 0.00295486603864, Q3 : -0.00180892273784, Q4 : -0.00236181099899}
2019-04-14 18:55:12.11: SIM {TimeUS : 53335324, Roll : 0.77, Pitch : -0.52, Yaw : 359.72, Alt : 49.0800018311, Lat : 49.2835703, Lng : -123.1150206, Q1 : 0.999963760376, Q2 : 0.00675191683695, Q3 : -0.00460710376501, Q4 : -0.00237750681117}
2019-04-14 18:55:12.21: SIM {TimeUS : 53435284, Roll : 1.42, Pitch : -0.97, Yaw : 359.71, Alt : 49.1100006104, Lat : 49.2835703, Lng : -123.1150206, Q1 : 0.999883830547, Q2 : 0.0123725598678, Q3 : -0.00857996381819, Q4 : -0.00237331609242}
2019-04-14 18:55:12.31: SIM {TimeUS : 53535244, Roll : 2.21, Pitch : -1.53, Yaw : 359.7, Alt : 49.1300010681, Lat : 49.2835704, Lng : -123.1150206, Q1 : 0.999721884727, Q2 : 0.0192630849779, Q3 : -0.0134014124051, Q4 : -0.002344107721}
2019-04-14 18:55:12.41: SIM {TimeUS : 53635204, Roll : 3.06, Pitch : -2.1, Yaw : 359.68, Alt : 49.1500015259, Lat : 49.2835704, Lng : -123.1150205, Q1 : 0.999471783638, Q2 : 0.0266596674919, Q3 : -0.0184482894838, Q4 : -0.00226739095524}
2019-04-14 18:55:12.51: SIM {TimeUS : 53735164, Roll : 3.84, Pitch : -2.6, Yaw : 359.66, Alt : 49.1599998474, Lat : 49.2835706, Lng : -123.1150203, Q1 : 0.999175429344, Q2 : 0.0334900990129, Q3 : -0.0228548236191, Q4 : -0.00212849257514}
2019-04-14 18:55:12.61: SIM {TimeUS : 53835124, Roll : 4.47, Pitch : -3.01, Yaw : 359.66, Alt : 49.1800003052, Lat : 49.2835707, Lng : -123.1150201, Q1 : 0.998892724514, Q2 : 0.0389189869165, Q3 : -0.0263616032898, Q4 : -0.00193327781744}
2019-04-14 18:55:12.71: SIM {TimeUS : 53935084, Roll : 4.92, Pitch : -3.33, Yaw : 359.66, Alt : 49.1899986267, Lat : 49.2835709, Lng : -123.1150199, Q1 : 0.998653769493, Q2 : 0.0428476668894, Q3 : -0.0291874632239, Q4 : -0.00169733655639}
2019-04-14 18:55:12.81: SIM {TimeUS : 54035044, Roll : 5.24, Pitch : -3.58, Yaw : 359.67, Alt : 49.2000007629, Lat : 49.283571, Lng : -123.1150195, Q1 : 0.998462855816, Q2 : 0.0456611290574, Q3 : -0.0313828922808, Q4 : -0.0014424060937}
2019-04-14 18:55:12.91: SIM {TimeUS : 54135004, Roll : 5.5, Pitch : -3.82, Yaw : 359.67, Alt : 49.2099990845, Lat : 49.2835713, Lng : -123.115019, Q1 : 0.998289227486, Q2 : 0.0479283630848, Q3 : -0.0334669910371, Q4 : -0.00119543389883}
2019-04-14 18:55:13.01: SIM {TimeUS : 54234964, Roll : 5.78, Pitch : -4.06, Yaw : 359.68, Alt : 49.2099990845, Lat : 49.2835715, Lng : -123.1150184, Q1 : 0.998095750809, Q2 : 0.0503708831966, Q3 : -0.0355919189751, Q4 : -0.000949929119088}
2019-04-14 18:55:13.11: SIM {TimeUS : 54334924, Roll : 6.09, Pitch : -4.3, Yaw : 359.69, Alt : 49.2200012207, Lat : 49.2835719, Lng : -123.1150177, Q1 : 0.997879862785, Q2 : 0.0530596263707, Q3 : -0.0376818440855, Q4 : -0.00069752446143}
2019-04-14 18:55:13.21: SIM {TimeUS : 54434884, Roll : 6.39, Pitch : -4.52, Yaw : 359.69, Alt : 49.2299995422, Lat : 49.2835721, Lng : -123.1150169, Q1 : 0.997667849064, Q2 : 0.0556239448488, Q3 : -0.0395551659167, Q4 : -0.000448973703897}
2019-04-14 18:55:13.31: SIM {TimeUS : 54534844, Roll : 6.63, Pitch : -4.68, Yaw : 359.7, Alt : 49.2299995422, Lat : 49.2835726, Lng : -123.115016, Q1 : 0.997494876385, Q2 : 0.0577071011066, Q3 : -0.0409122332931, Q4 : -0.000218601897359}
2019-04-14 18:55:13.41: SIM {TimeUS : 54635637, Roll : 6.8, Pitch : -4.78, Yaw : 359.71, Alt : 49.2400016785, Lat : 49.2835731, Lng : -123.115015, Q1 : 0.997372329235, Q2 : 0.0591749623418, Q3 : -0.0417944528162, Q4 : -9.12929681363e-06}
2019-04-14 18:55:13.51: SIM {TimeUS : 54735597, Roll : 6.91, Pitch : -4.85, Yaw : 359.72, Alt : 49.2400016785, Lat : 49.2835735, Lng : -123.1150139, Q1 : 0.997287094593, Q2 : 0.0601378567517, Q3 : -0.0424483604729, Q4 : 0.000144147794344}
2019-04-14 18:55:13.61: SIM {TimeUS : 54835557, Roll : 7.01, Pitch : -4.93, Yaw : 359.72, Alt : 49.25, Lat : 49.283574, Lng : -123.1150128, Q1 : 0.997204422951, Q2 : 0.0610515549779, Q3 : -0.0430805720389, Q4 : 0.000246359733865}
2019-04-14 18:55:13.71: SIM {TimeUS : 54935517, Roll : 7.16, Pitch : -5.0, Yaw : 359.72, Alt : 49.25, Lat : 49.2835746, Lng : -123.1150115, Q1 : 0.997098445892, Q2 : 0.0623198598623, Q3 : -0.0437125228345, Q4 : 0.000344752537785}
2019-04-14 18:55:13.81: SIM {TimeUS : 55035477, Roll : 7.47, Pitch : -4.94, Yaw : 359.88, Alt : 49.25, Lat : 49.2835752, Lng : -123.1150102, Q1 : 0.996943473816, Q2 : 0.0651114955544, Q3 : -0.0431380346417, Q4 : 0.00183109333739}
2019-04-14 18:55:13.91: SIM {TimeUS : 55135437, Roll : 8.02, Pitch : -4.75, Yaw : 0.76, Alt : 49.2599983215, Lat : 49.2835758, Lng : -123.1150088, Q1 : 0.996649503708, Q2 : 0.0701990425587, Q3 : -0.0408755280077, Q4 : 0.00954353157431}
2019-04-14 18:55:14.01: SIM {TimeUS : 55235397, Roll : 8.62, Pitch : -4.69, Yaw : 2.99, Alt : 49.2599983215, Lat : 49.2835765, Lng : -123.1150072, Q1 : 0.995908081532, Q2 : 0.0762133970857, Q3 : -0.038839366287, Q4 : 0.0291569698602}
2019-04-14 18:55:14.11: SIM {TimeUS : 55335357, Roll : 9.03, Pitch : -5.06, Yaw : 6.82, Alt : 49.2599983215, Lat : 49.2835773, Lng : -123.1150056, Q1 : 0.993948817253, Q2 : 0.0811717733741, Q3 : -0.0392505638301, Q4 : 0.062740214169}
2019-04-14 18:55:14.21: SIM {TimeUS : 55435317, Roll : 9.01, Pitch : -5.93, Yaw : 12.11, Alt : 49.2599983215, Lat : 49.283578, Lng : -123.1150039, Q1 : 0.989574730396, Q2 : 0.0835288614035, Q3 : -0.0430500023067, Q4 : 0.109139576554}
2019-04-14 18:55:14.31: SIM {TimeUS : 55535277, Roll : 8.43, Pitch : -7.24, Yaw : 18.65, Alt : 49.2599983215, Lat : 49.2835787, Lng : -123.115002, Q1 : 0.981392860413, Q2 : 0.0826099589467, Q3 : -0.0503207333386, Q4 : 0.165865913033}
2019-04-14 18:55:14.41: SIM {TimeUS : 55635237, Roll : 7.24, Pitch : -8.8, Yaw : 26.16, Alt : 49.2700004578, Lat : 49.2835794, Lng : -123.115, Q1 : 0.968129038811, Q2 : 0.0786681249738, Q3 : -0.0604022182524, Q4 : 0.229976132512}
2019-04-14 18:55:14.51: SIM {TimeUS : 55735197, Roll : 5.49, Pitch : -10.39, Yaw : 34.41, Alt : 49.2700004578, Lat : 49.2835802, Lng : -123.1149979, Q1 : 0.948942184448, Q2 : 0.0723647177219, Q3 : -0.0722833275795, Q4 : 0.298407882452}
2019-04-14 18:55:14.61: SIM {TimeUS : 55835157, Roll : 3.21, Pitch : -11.75, Yaw : 43.11, Alt : 49.2700004578, Lat : 49.2835811, Lng : -123.1149957, Q1 : 0.92374932766, Q2 : 0.0635688602924, Q3 : -0.0849729776382, Q4 : 0.368002384901}
2019-04-14 18:55:14.71: SIM {TimeUS : 55935117, Roll : 0.28, Pitch : -12.69, Yaw : 51.72, Alt : 49.2700004578, Lat : 49.2835818, Lng : -123.1149934, Q1 : 0.894225418568, Q2 : 0.0504123866558, Q3 : -0.0983860120177, Q4 : 0.433750838041}
2019-04-14 18:55:14.81: SIM {TimeUS : 56035077, Roll : -2.91, Pitch : -13.05, Yaw : 59.35, Alt : 49.2700004578, Lat : 49.2835828, Lng : -123.114991, Q1 : 0.864360868931, Q2 : 0.0343147814274, Q3 : -0.111221380532, Q4 : 0.489216297865}
2019-04-14 18:55:14.91: SIM {TimeUS : 56135037, Roll : -5.69, Pitch : -12.97, Yaw : 65.23, Alt : 49.2700004578, Lat : 49.2835837, Lng : -123.1149885, Q1 : 0.838871061802, Q2 : 0.0192207545042, Q3 : -0.121645234525, Q4 : 0.530215442181}
2019-04-14 18:55:15.01: SIM {TimeUS : 56234997, Roll : -7.56, Pitch : -12.71, Yaw : 69.03, Alt : 49.2700004578, Lat : 49.2835849, Lng : -123.1149859, Q1 : 0.821227908134, Q2 : 0.00858960486948, Q3 : -0.128235027194, Q4 : 0.555937707424}
2019-04-14 18:55:15.11: SIM {TimeUS : 56334957, Roll : -8.36, Pitch : -12.54, Yaw : 70.82, Alt : 49.2700004578, Lat : 49.2835861, Lng : -123.1149834, Q1 : 0.812556803226, Q2 : 0.00405418034643, Q3 : -0.130867362022, Q4 : 0.567986607552}
2019-04-14 18:55:15.21: SIM {TimeUS : 56434917, Roll : -8.18, Pitch : -12.6, Yaw : 70.91, Alt : 49.2700004578, Lat : 49.2835873, Lng : -123.1149807, Q1 : 0.81209641695, Q2 : 0.00575535790995, Q3 : -0.13032707572, Q4 : 0.568754076958}
2019-04-14 18:55:15.31: SIM {TimeUS : 56534877, Roll : -7.2, Pitch : -12.93, Yaw : 69.66, Alt : 49.2700004578, Lat : 49.2835887, Lng : -123.114978, Q1 : 0.818032622337, Q2 : 0.0130072161555, Q3 : -0.12795470655, Q4 : 0.560607731342}
2019-04-14 18:55:15.41: SIM {TimeUS : 56634837, Roll : -5.67, Pitch : -13.51, Yaw : 67.43, Alt : 49.2799987793, Lat : 49.2835903, Lng : -123.1149753, Q1 : 0.828249633312, Q2 : 0.0243427399546, Q3 : -0.125011458993, Q4 : 0.545694172382}
2019-04-14 18:55:15.51: SIM {TimeUS : 56735630, Roll : -3.8, Pitch : -14.22, Yaw : 64.51, Alt : 49.2799987793, Lat : 49.2835917, Lng : -123.1149725, Q1 : 0.840871810913, Q2 : 0.0381796993315, Q3 : -0.122285149992, Q4 : 0.525854766369}
2019-04-14 18:55:15.61: SIM {TimeUS : 56835590, Roll : -1.85, Pitch : -14.92, Yaw : 61.28, Alt : 49.2799987793, Lat : 49.2835934, Lng : -123.1149696, Q1 : 0.854039907455, Q2 : 0.0523694865406, Q3 : -0.119951352477, Q4 : 0.503472864628}
2019-04-14 18:55:15.71: SIM {TimeUS : 56935550, Roll : 0.0, Pitch : -15.46, Yaw : 58.03, Alt : 49.2799987793, Lat : 49.2835951, Lng : -123.1149666, Q1 : 0.866535127163, Q2 : 0.0652026981115, Q3 : -0.117717273533, Q4 : 0.480633050203}
2019-04-14 18:55:15.81: SIM {TimeUS : 57035510, Roll : 1.57, Pitch : -15.78, Yaw : 55.09, Alt : 49.2799987793, Lat : 49.2835966, Lng : -123.1149634, Q1 : 0.877266049385, Q2 : 0.0755896568298, Q3 : -0.115411609411, Q4 : 0.459750652313}
2019-04-14 18:55:15.91: SIM {TimeUS : 57135470, Roll : 2.76, Pitch : -15.89, Yaw : 52.75, Alt : 49.2799987793, Lat : 49.2835983, Lng : -123.1149603, Q1 : 0.88554340601, Q2 : 0.0828250423074, Q3 : -0.113170295954, Q4 : 0.442883133888}
2019-04-14 18:55:16.01: SIM {TimeUS : 57235430, Roll : 3.47, Pitch : -15.86, Yaw : 51.17, Alt : 49.2799987793, Lat : 49.2836, Lng : -123.1149569, Q1 : 0.891089141369, Q2 : 0.0866779237986, Q3 : -0.111394844949, Q4 : 0.431321591139}
2019-04-14 18:55:16.11: SIM {TimeUS : 57335390, Roll : 3.7, Pitch : -15.78, Yaw : 50.39, Alt : 49.2799987793, Lat : 49.2836017, Lng : -123.1149534, Q1 : 0.893917381763, Q2 : 0.0873953327537, Q3 : -0.110548429191, Q4 : 0.425503134727}
2019-04-14 18:55:16.21: SIM {TimeUS : 57435350, Roll : 3.49, Pitch : -15.74, Yaw : 50.36, Alt : 49.2799987793, Lat : 49.2836033, Lng : -123.1149498, Q1 : 0.894231617451, Q2 : 0.0855849310756, Q3 : -0.111083261669, Q4 : 0.425071269274}
2019-04-14 18:55:16.31: SIM {TimeUS : 57535310, Roll : 2.93, Pitch : -15.78, Yaw : 50.95, Alt : 49.2900009155, Lat : 49.283605, Lng : -123.1149461, Q1 : 0.892392635345, Q2 : 0.0819867327809, Q3 : -0.113006368279, Q4 : 0.429119050503}
2019-04-14 18:55:16.41: SIM {TimeUS : 57635270, Roll : 2.15, Pitch : -15.88, Yaw : 51.99, Alt : 49.2900009155, Lat : 49.2836068, Lng : -123.1149421, Q1 : 0.888892352581, Q2 : 0.0773055702448, Q3 : -0.11605348438, Q4 : 0.436378091574}
2019-04-14 18:55:16.51: SIM {TimeUS : 57735230, Roll : 1.26, Pitch : -16.02, Yaw : 53.29, Alt : 49.2900009155, Lat : 49.2836085, Lng : -123.1149383, Q1 : 0.884310722351, Q2 : 0.0722912922502, Q3 : -0.119696818292, Q4 : 0.445467352867}
2019-04-14 18:55:16.61: SIM {TimeUS : 57835190, Roll : 0.4, Pitch : -16.16, Yaw : 54.67, Alt : 49.2900009155, Lat : 49.2836102, Lng : -123.1149342, Q1 : 0.879273116589, Q2 : 0.0676632076502, Q3 : -0.123339921236, Q4 : 0.455068975687}
2019-04-14 18:55:16.71: SIM {TimeUS : 57935150, Roll : -0.34, Pitch : -16.3, Yaw : 55.95, Alt : 49.2900009155, Lat : 49.283612, Lng : -123.1149303, Q1 : 0.8743891716, Q2 : 0.0638751536608, Q3 : -0.126660272479, Q4 : 0.464026719332}
2019-04-14 18:55:16.81: SIM {TimeUS : 58035110, Roll : -0.93, Pitch : -16.41, Yaw : 57.03, Alt : 49.2900009155, Lat : 49.2836138, Lng : -123.1149262, Q1 : 0.870209395885, Q2 : 0.0610629096627, Q3 : -0.12927903235, Q4 : 0.471480518579}
2019-04-14 18:55:16.91: SIM {TimeUS : 58135070, Roll : -1.33, Pitch : -16.48, Yaw : 57.81, Alt : 49.2900009155, Lat : 49.2836156, Lng : -123.1149221, Q1 : 0.867117762566, Q2 : 0.0592322461307, Q3 : -0.131094545126, Q4 : 0.47687792778}
2019-04-14 18:55:17.01: SIM {TimeUS : 58235030, Roll : -1.52, Pitch : -16.51, Yaw : 58.25, Alt : 49.2900009155, Lat : 49.2836175, Lng : -123.1149179, Q1 : 0.865325629711, Q2 : 0.0583966970444, Q3 : -0.131836429238, Q4 : 0.480021387339}
2019-04-14 18:55:17.11: SIM {TimeUS : 58334990, Roll : -1.49, Pitch : -16.51, Yaw : 58.38, Alt : 49.2900009155, Lat : 49.2836194, Lng : -123.1149136, Q1 : 0.864795804024, Q2 : 0.0587195307016, Q3 : -0.131657853723, Q4 : 0.480984866619}
2019-04-14 18:55:17.21: SIM {TimeUS : 58434950, Roll : -1.32, Pitch : -16.51, Yaw : 58.22, Alt : 49.2900009155, Lat : 49.2836213, Lng : -123.1149093, Q1 : 0.865363538265, Q2 : 0.0598389320076, Q3 : -0.13102710247, Q4 : 0.479997068644}
2019-04-14 18:55:17.31: SIM {TimeUS : 58534910, Roll : -1.03, Pitch : -16.53, Yaw : 57.85, Alt : 49.2900009155, Lat : 49.2836232, Lng : -123.114905, Q1 : 0.866738498211, Q2 : 0.0617430061102, Q3 : -0.130151003599, Q4 : 0.477506965399}
2019-04-14 18:55:17.41: SIM {TimeUS : 58634870, Roll : -0.65, Pitch : -16.55, Yaw : 57.34, Alt : 49.2900009155, Lat : 49.2836251, Lng : -123.1149006, Q1 : 0.868629038334, Q2 : 0.0641298890114, Q3 : -0.129036441445, Q4 : 0.474047005177}
2019-04-14 18:55:17.51: SIM {TimeUS : 58734830, Roll : -0.26, Pitch : -16.58, Yaw : 56.76, Alt : 49.2900009155, Lat : 49.2836273, Lng : -123.1148962, Q1 : 0.870732903481, Q2 : 0.0665446221828, Q3 : -0.127964168787, Q4 : 0.470128953457}
2019-04-14 18:55:17.61: SIM {TimeUS : 58835623, Roll : 0.07, Pitch : -16.63, Yaw : 56.2, Alt : 49.2900009155, Lat : 49.2836293, Lng : -123.1148917, Q1 : 0.872783899307, Q2 : 0.0687032416463, Q3 : -0.127277463675, Q4 : 0.466185182333}
2019-04-14 18:55:17.71: SIM {TimeUS : 58935583, Roll : 0.34, Pitch : -16.68, Yaw : 55.71, Alt : 49.2900009155, Lat : 49.2836312, Lng : -123.1148872, Q1 : 0.874553561211, Q2 : 0.0704022794962, Q3 : -0.1268889606, Q4 : 0.462708115578}
2019-04-14 18:55:17.81: SIM {TimeUS : 59035543, Roll : 0.52, Pitch : -16.74, Yaw : 55.33, Alt : 49.2900009155, Lat : 49.2836334, Lng : -123.1148827, Q1 : 0.875903248787, Q2 : 0.0716231092811, Q3 : -0.12689614296, Q4 : 0.459957629442}
2019-04-14 18:55:17.91: SIM {TimeUS : 59135503, Roll : 0.61, Pitch : -16.8, Yaw : 55.08, Alt : 49.2900009155, Lat : 49.2836353, Lng : -123.1148781, Q1 : 0.876792132854, Q2 : 0.0722315609455, Q3 : -0.127110660076, Q4 : 0.458105921745}
2019-04-14 18:55:18.01: SIM {TimeUS : 59235463, Roll : 0.62, Pitch : -16.85, Yaw : 54.96, Alt : 49.2900009155, Lat : 49.2836375, Lng : -123.1148734, Q1 : 0.877187013626, Q2 : 0.0724487379193, Q3 : -0.127528905869, Q4 : 0.457198619843}
2019-04-14 18:55:18.11: SIM {TimeUS : 59335423, Roll : 0.58, Pitch : -16.89, Yaw : 54.96, Alt : 49.2900009155, Lat : 49.2836396, Lng : -123.1148688, Q1 : 0.877151250839, Q2 : 0.0722616016865, Q3 : -0.128024116158, Q4 : 0.457158386707}
2019-04-14 18:55:18.21: SIM {TimeUS : 59435383, Roll : 0.48, Pitch : -16.92, Yaw : 55.06, Alt : 49.2900009155, Lat : 49.2836416, Lng : -123.114864, Q1 : 0.876780986786, Q2 : 0.0717232823372, Q3 : -0.128575876355, Q4 : 0.457798153162}
2019-04-14 18:55:18.31: SIM {TimeUS : 59535343, Roll : 0.36, Pitch : -16.94, Yaw : 55.23, Alt : 49.2900009155, Lat : 49.2836437, Lng : -123.1148593, Q1 : 0.876163482666, Q2 : 0.0710919573903, Q3 : -0.129062667489, Q4 : 0.458940505981}
2019-04-14 18:55:18.41: SIM {TimeUS : 59635303, Roll : 0.24, Pitch : -16.96, Yaw : 55.44, Alt : 49.2999992371, Lat : 49.2836458, Lng : -123.1148545, Q1 : 0.875396549702, Q2 : 0.0704650729895, Q3 : -0.129586115479, Q4 : 0.460350930691}
2019-04-14 18:55:18.51: SIM {TimeUS : 59735263, Roll : 0.11, Pitch : -16.98, Yaw : 55.65, Alt : 49.2999992371, Lat : 49.283648, Lng : -123.1148497, Q1 : 0.874603569508, Q2 : 0.0697935223579, Q3 : -0.130139052868, Q4 : 0.461802244186}
2019-04-14 18:55:18.61: SIM {TimeUS : 59835223, Roll : 0.0, Pitch : -17.01, Yaw : 55.84, Alt : 49.2999992371, Lat : 49.28365, Lng : -123.1148449, Q1 : 0.873867213726, Q2 : 0.0692261233926, Q3 : -0.130783259869, Q4 : 0.463097929955}
2019-04-14 18:55:18.71: SIM {TimeUS : 59935183, Roll : -0.11, Pitch : -17.06, Yaw : 55.99, Alt : 49.2999992371, Lat : 49.2836522, Lng : -123.11484, Q1 : 0.87327337265, Q2 : 0.0687832459807, Q3 : -0.131451621652, Q4 : 0.46409368515}
2019-04-14 18:55:18.81: SIM {TimeUS : 60035143, Roll : -0.18, Pitch : -17.11, Yaw : 56.09, Alt : 49.2999992371, Lat : 49.2836543, Lng : -123.1148351, Q1 : 0.872866272926, Q2 : 0.0685328617692, Q3 : -0.132066622376, Q4 : 0.464721560478}
2019-04-14 18:55:18.91: SIM {TimeUS : 60135103, Roll : -0.24, Pitch : -17.14, Yaw : 56.13, Alt : 49.2999992371, Lat : 49.2836566, Lng : -123.1148302, Q1 : 0.872684121132, Q2 : 0.0683180391788, Q3 : -0.132540374994, Q4 : 0.464960336685}
2019-04-14 18:55:19.01: SIM {TimeUS : 60235063, Roll : -0.26, Pitch : -17.16, Yaw : 56.12, Alt : 49.2999992371, Lat : 49.2836586, Lng : -123.1148253, Q1 : 0.872714579105, Q2 : 0.0682147294283, Q3 : -0.132796779275, Q4 : 0.464845210314}
2019-04-14 18:55:19.11: SIM {TimeUS : 60335023, Roll : -0.25, Pitch : -17.18, Yaw : 56.06, Alt : 49.2999992371, Lat : 49.2836609, Lng : -123.1148203, Q1 : 0.872916460037, Q2 : 0.0682677179575, Q3 : -0.132904276252, Q4 : 0.464427441359}
2019-04-14 18:55:19.21: SIM {TimeUS : 60434983, Roll : -0.21, Pitch : -17.21, Yaw : 55.97, Alt : 49.2999992371, Lat : 49.2836631, Lng : -123.1148154, Q1 : 0.873210906982, Q2 : 0.0686359182, Q3 : -0.133054539561, Q4 : 0.463776171207}
2019-04-14 18:55:19.31: SIM {TimeUS : 60534943, Roll : -0.14, Pitch : -17.25, Yaw : 55.86, Alt : 49.2999992371, Lat : 49.2836652, Lng : -123.1148104, Q1 : 0.873566806316, Q2 : 0.0691953673959, Q3 : -0.133139148355, Q4 : 0.462997823954}
2019-04-14 18:55:19.41: SIM {TimeUS : 60634903, Roll : -0.05, Pitch : -17.3, Yaw : 55.75, Alt : 49.3100013733, Lat : 49.2836676, Lng : -123.1148054, Q1 : 0.87393695116, Q2 : 0.0699294283986, Q3 : -0.133155345917, Q4 : 0.462183743715}
2019-04-14 18:55:19.51: SIM {TimeUS : 60734863, Roll : 0.05, Pitch : -17.34, Yaw : 55.63, Alt : 49.3100013733, Lat : 49.2836698, Lng : -123.1148004, Q1 : 0.874279260635, Q2 : 0.0707684755325, Q3 : -0.133113995194, Q4 : 0.46141988039}
2019-04-14 18:55:19.61: SIM {TimeUS : 60834823, Roll : 0.13, Pitch : -17.36, Yaw : 55.53, Alt : 49.3100013733, Lat : 49.2836719, Lng : -123.1147953, Q1 : 0.874598562717, Q2 : 0.0713773518801, Q3 : -0.133058995008, Q4 : 0.460736274719}
2019-04-14 18:55:19.71: SIM {TimeUS : 60935616, Roll : 0.16, Pitch : -17.37, Yaw : 55.46, Alt : 49.3100013733, Lat : 49.2836743, Lng : -123.1147901, Q1 : 0.8748909235, Q2 : 0.0715634375811, Q3 : -0.133018389344, Q4 : 0.460163801908}
2019-04-14 18:55:19.81: SIM {TimeUS : 61035576, Roll : 0.16, Pitch : -17.37, Yaw : 55.4, Alt : 49.3100013733, Lat : 49.2836765, Lng : -123.1147851, Q1 : 0.875117123127, Q2 : 0.0714650303125, Q3 : -0.133043587208, Q4 : 0.459741473198}
2019-04-14 18:55:19.91: SIM {TimeUS : 61135536, Roll : 0.16, Pitch : -17.37, Yaw : 55.37, Alt : 49.3100013733, Lat : 49.2836787, Lng : -123.11478, Q1 : 0.875241875648, Q2 : 0.0714508444071, Q3 : -0.133046835661, Q4 : 0.459505200386}
2019-04-14 18:55:20.01: SIM {TimeUS : 61235496, Roll : 0.16, Pitch : -17.38, Yaw : 55.36, Alt : 49.3100013733, Lat : 49.283681, Lng : -123.1147749, Q1 : 0.875272810459, Q2 : 0.0714838579297, Q3 : -0.133152768016, Q4 : 0.459410399199}
2019-04-14 18:55:20.11: SIM {TimeUS : 61335456, Roll : 0.17, Pitch : -17.41, Yaw : 55.36, Alt : 49.3100013733, Lat : 49.2836833, Lng : -123.1147698, Q1 : 0.875211775303, Q2 : 0.0716723427176, Q3 : -0.133370727301, Q4 : 0.459434151649}
2019-04-14 18:55:20.21: SIM {TimeUS : 61435416, Roll : 0.17, Pitch : -17.46, Yaw : 55.38, Alt : 49.3100013733, Lat : 49.2836856, Lng : -123.1147646, Q1 : 0.875087440014, Q2 : 0.0719181746244, Q3 : -0.133759200573, Q4 : 0.45951962471}
2019-04-14 18:55:20.31: SIM {TimeUS : 61535376, Roll : 0.16, Pitch : -17.5, Yaw : 55.4, Alt : 49.3100013733, Lat : 49.2836878, Lng : -123.1147595, Q1 : 0.874970316887, Q2 : 0.0719826444983, Q3 : -0.134065657854, Q4 : 0.459643214941}
2019-04-14 18:55:20.41: SIM {TimeUS : 61635336, Roll : 0.14, Pitch : -17.51, Yaw : 55.42, Alt : 49.3199996948, Lat : 49.2836901, Lng : -123.1147543, Q1 : 0.874879777431, Q2 : 0.0719153061509, Q3 : -0.134251654148, Q4 : 0.459771722555}
2019-04-14 18:55:20.51: SIM {TimeUS : 61735296, Roll : 0.1, Pitch : -17.53, Yaw : 55.44, Alt : 49.3199996948, Lat : 49.2836925, Lng : -123.1147491, Q1 : 0.874818384647, Q2 : 0.0717189311981, Q3 : -0.134516969323, Q4 : 0.45984172821}
2019-04-14 18:55:20.61: SIM {TimeUS : 61835256, Roll : 0.06, Pitch : -17.56, Yaw : 55.45, Alt : 49.3199996948, Lat : 49.2836948, Lng : -123.1147439, Q1 : 0.874768912792, Q2 : 0.0715536102653, Q3 : -0.13487188518, Q4 : 0.459857523441}
2019-04-14 18:55:20.71: SIM {TimeUS : 61935216, Roll : 0.05, Pitch : -17.58, Yaw : 55.45, Alt : 49.3199996948, Lat : 49.2836971, Lng : -123.1147387, Q1 : 0.874740064144, Q2 : 0.0715526342392, Q3 : -0.135075181723, Q4 : 0.459852874279}
2019-04-14 18:55:20.81: SIM {TimeUS : 62035176, Roll : 0.04, Pitch : -17.6, Yaw : 55.44, Alt : 49.3199996948, Lat : 49.2836993, Lng : -123.1147334, Q1 : 0.874744951725, Q2 : 0.0715566799045, Q3 : -0.135270014405, Q4 : 0.459785729647}
2019-04-14 18:55:20.91: SIM {TimeUS : 62135136, Roll : 0.05, Pitch : -17.61, Yaw : 55.43, Alt : 49.3199996948, Lat : 49.2837017, Lng : -123.1147281, Q1 : 0.874786913395, Q2 : 0.0716094002128, Q3 : -0.135357350111, Q4 : 0.459672063589}
2019-04-14 18:55:21.01: SIM {TimeUS : 62235096, Roll : 0.06, Pitch : -17.62, Yaw : 55.41, Alt : 49.3199996948, Lat : 49.283704, Lng : -123.114723, Q1 : 0.874857902527, Q2 : 0.0717115700245, Q3 : -0.135423213243, Q4 : 0.459501504898}
2019-04-14 18:55:21.11: SIM {TimeUS : 62335056, Roll : 0.08, Pitch : -17.63, Yaw : 55.38, Alt : 49.3199996948, Lat : 49.2837064, Lng : -123.1147177, Q1 : 0.874950528145, Q2 : 0.0718560218811, Q3 : -0.135432213545, Q4 : 0.459299951792}
2019-04-14 18:55:21.21: SIM {TimeUS : 62435016, Roll : 0.1, Pitch : -17.64, Yaw : 55.35, Alt : 49.3199996948, Lat : 49.2837088, Lng : -123.1147123, Q1 : 0.875037491322, Q2 : 0.0720547586679, Q3 : -0.135440841317, Q4 : 0.459100604057}
2019-04-14 18:55:21.31: SIM {TimeUS : 62534976, Roll : 0.13, Pitch : -17.67, Yaw : 55.32, Alt : 49.3199996948, Lat : 49.2837111, Lng : -123.1147071, Q1 : 0.875103235245, Q2 : 0.0723589062691, Q3 : -0.135559022427, Q4 : 0.458892464638}
2019-04-14 18:55:21.41: SIM {TimeUS : 62634936, Roll : 0.15, Pitch : -17.72, Yaw : 55.29, Alt : 49.3199996948, Lat : 49.2837135, Lng : -123.1147019, Q1 : 0.875156283379, Q2 : 0.0726283639669, Q3 : -0.135846376419, Q4 : 0.458663702011}
2019-04-14 18:55:21.51: SIM {TimeUS : 62734896, Roll : 0.14, Pitch : -17.76, Yaw : 55.26, Alt : 49.3199996948, Lat : 49.2837157, Lng : -123.1146965, Q1 : 0.875209987164, Q2 : 0.0727550834417, Q3 : -0.136220082641, Q4 : 0.458430230618}
2019-04-14 18:55:21.61: SIM {TimeUS : 62834856, Roll : 0.14, Pitch : -17.81, Yaw : 55.24, Alt : 49.3199996948, Lat : 49.2837181, Lng : -123.1146913, Q1 : 0.875257670879, Q2 : 0.072859801352, Q3 : -0.13658362627, Q4 : 0.458214372396}
2019-04-14 18:55:21.71: SIM {TimeUS : 62934816, Roll : 0.15, Pitch : -17.83, Yaw : 55.22, Alt : 49.3199996948, Lat : 49.2837205, Lng : -123.1146859, Q1 : 0.875298082829, Q2 : 0.0730478689075, Q3 : -0.13674852252, Q4 : 0.458057969809}
2019-04-14 18:55:21.81: SIM {TimeUS : 63035609, Roll : 0.18, Pitch : -17.83, Yaw : 55.2, Alt : 49.3199996948, Lat : 49.2837229, Lng : -123.1146806, Q1 : 0.875358104706, Q2 : 0.0731967538595, Q3 : -0.136609241366, Q4 : 0.457961112261}
2019-04-14 18:55:21.91: SIM {TimeUS : 63135569, Roll : 0.19, Pitch : -17.79, Yaw : 55.19, Alt : 49.3300018311, Lat : 49.2837253, Lng : -123.1146752, Q1 : 0.875442147255, Q2 : 0.0731519386172, Q3 : -0.136272013187, Q4 : 0.457908093929}
2019-04-14 18:55:22.01: SIM {TimeUS : 63235529, Roll : 0.19, Pitch : -17.76, Yaw : 55.18, Alt : 49.3300018311, Lat : 49.2837277, Lng : -123.1146699, Q1 : 0.875505566597, Q2 : 0.073003180325, Q3 : -0.136100634933, Q4 : 0.457861602306}
2019-04-14 18:55:22.11: SIM {TimeUS : 63335489, Roll : 0.17, Pitch : -17.75, Yaw : 55.18, Alt : 49.3300018311, Lat : 49.2837301, Lng : -123.1146645, Q1 : 0.875555872917, Q2 : 0.0728028938174, Q3 : -0.136048942804, Q4 : 0.457812547684}
2019-04-14 18:55:22.21: SIM {TimeUS : 63435449, Roll : 0.16, Pitch : -17.75, Yaw : 55.17, Alt : 49.3300018311, Lat : 49.2837325, Lng : -123.1146591, Q1 : 0.875579953194, Q2 : 0.0727011933923, Q3 : -0.136112600565, Q4 : 0.457763671875}
2019-04-14 18:55:22.31: SIM {TimeUS : 63535409, Roll : 0.14, Pitch : -17.77, Yaw : 55.17, Alt : 49.3300018311, Lat : 49.2837349, Lng : -123.1146537, Q1 : 0.875582337379, Q2 : 0.0726682841778, Q3 : -0.136309191585, Q4 : 0.457705914974}
2019-04-14 18:55:22.41: SIM {TimeUS : 63635369, Roll : 0.14, Pitch : -17.79, Yaw : 55.16, Alt : 49.3300018311, Lat : 49.2837372, Lng : -123.1146483, Q1 : 0.875574171543, Q2 : 0.0727299749851, Q3 : -0.136507600546, Q4 : 0.457652598619}
2019-04-14 18:55:22.51: SIM {TimeUS : 63735329, Roll : 0.13, Pitch : -17.83, Yaw : 55.16, Alt : 49.3300018311, Lat : 49.2837395, Lng : -123.114643, Q1 : 0.875551998615, Q2 : 0.0728195384145, Q3 : -0.136862382293, Q4 : 0.457574814558}
2019-04-14 18:55:22.61: SIM {TimeUS : 63835289, Roll : 0.13, Pitch : -17.88, Yaw : 55.15, Alt : 49.3300018311, Lat : 49.2837419, Lng : -123.1146376, Q1 : 0.875526130199, Q2 : 0.0729619264603, Q3 : -0.137244299054, Q4 : 0.457487165928}
2019-04-14 18:55:22.71: SIM {TimeUS : 63935249, Roll : 0.13, Pitch : -17.91, Yaw : 55.14, Alt : 49.3300018311, Lat : 49.2837443, Lng : -123.1146321, Q1 : 0.875517606735, Q2 : 0.0731477215886, Q3 : -0.137499913573, Q4 : 0.45739710331}
2019-04-14 18:55:22.81: SIM {TimeUS : 64035209, Roll : 0.13, Pitch : -17.95, Yaw : 55.13, Alt : 49.3300018311, Lat : 49.2837469, Lng : -123.1146267, Q1 : 0.875528633595, Q2 : 0.0732499659061, Q3 : -0.137749448419, Q4 : 0.457284599543}
2019-04-14 18:55:22.91: SIM {TimeUS : 64135169, Roll : 0.13, Pitch : -17.97, Yaw : 55.12, Alt : 49.3300018311, Lat : 49.2837492, Lng : -123.1146213, Q1 : 0.875556886196, Q2 : 0.0732967704535, Q3 : -0.137943983078, Q4 : 0.457164257765}
2019-04-14 18:55:23.01: SIM {TimeUS : 64235129, Roll : 0.14, Pitch : -17.97, Yaw : 55.1, Alt : 49.3300018311, Lat : 49.2837516, Lng : -123.1146159, Q1 : 0.875609755516, Q2 : 0.0733753368258, Q3 : -0.137872755527, Q4 : 0.457071989775}
2019-04-14 18:55:23.11: SIM {TimeUS : 64335089, Roll : 0.16, Pitch : -17.97, Yaw : 55.08, Alt : 49.3300018311, Lat : 49.283754, Lng : -123.1146105, Q1 : 0.875662446022, Q2 : 0.0735151395202, Q3 : -0.1378364712, Q4 : 0.45695951581}
2019-04-14 18:55:23.21: SIM {TimeUS : 64435049, Roll : 0.17, Pitch : -17.98, Yaw : 55.06, Alt : 49.3300018311, Lat : 49.2837564, Lng : -123.114605, Q1 : 0.875716149807, Q2 : 0.0735916793346, Q3 : -0.137939691544, Q4 : 0.456813007593}
2019-04-14 18:55:23.31: SIM {TimeUS : 64535009, Roll : 0.17, Pitch : -17.99, Yaw : 55.05, Alt : 49.3400001526, Lat : 49.2837589, Lng : -123.1145996, Q1 : 0.87578099966, Q2 : 0.0736291334033, Q3 : -0.137961983681, Q4 : 0.456675946712}
2019-04-14 18:55:23.41: SIM {TimeUS : 64634969, Roll : 0.18, Pitch : -17.98, Yaw : 55.03, Alt : 49.3400001526, Lat : 49.2837613, Lng : -123.1145941, Q1 : 0.875853478909, Q2 : 0.0736502483487, Q3 : -0.137867823243, Q4 : 0.456561863422}
2019-04-14 18:55:23.51: SIM {TimeUS : 64734929, Roll : 0.19, Pitch : -17.98, Yaw : 55.01, Alt : 49.3400001526, Lat : 49.2837637, Lng : -123.1145887, Q1 : 0.875914692879, Q2 : 0.0736796557903, Q3 : -0.137816533446, Q4 : 0.456455290318}
2019-04-14 18:55:23.61: SIM {TimeUS : 64834889, Roll : 0.18, Pitch : -17.99, Yaw : 55.0, Alt : 49.3400001526, Lat : 49.2837661, Lng : -123.1145832, Q1 : 0.875951468945, Q2 : 0.0736388936639, Q3 : -0.138004973531, Q4 : 0.456334322691}
2019-04-14 18:55:23.71: SIM {TimeUS : 64934849, Roll : 0.16, Pitch : -18.02, Yaw : 54.99, Alt : 49.3400001526, Lat : 49.2837686, Lng : -123.1145777, Q1 : 0.875964581966, Q2 : 0.0735946819186, Q3 : -0.138332739472, Q4 : 0.45621702075}
2019-04-14 18:55:23.81: SIM {TimeUS : 65035642, Roll : 0.14, Pitch : -18.03, Yaw : 54.98, Alt : 49.3400001526, Lat : 49.283771, Lng : -123.1145722, Q1 : 0.875998556614, Q2 : 0.0734990984201, Q3 : -0.138427615166, Q4 : 0.456138432026}
2019-04-14 18:55:23.91: SIM {TimeUS : 65135602, Roll : 0.16, Pitch : -18.01, Yaw : 54.98, Alt : 49.3400001526, Lat : 49.2837735, Lng : -123.1145667, Q1 : 0.876041829586, Q2 : 0.0735115706921, Q3 : -0.138229817152, Q4 : 0.456113249063}
2019-04-14 18:55:24.01: SIM {TimeUS : 65235562, Roll : 0.18, Pitch : -17.99, Yaw : 54.97, Alt : 49.3400001526, Lat : 49.2837759, Lng : -123.1145612, Q1 : 0.876078784466, Q2 : 0.0735707953572, Q3 : -0.138012945652, Q4 : 0.456098437309}
2019-04-14 18:55:24.11: SIM {TimeUS : 65335522, Roll : 0.18, Pitch : -18.0, Yaw : 54.96, Alt : 49.3400001526, Lat : 49.2837784, Lng : -123.1145558, Q1 : 0.876091301441, Q2 : 0.0736493691802, Q3 : -0.138042524457, Q4 : 0.456052780151}
2019-04-14 18:55:24.21: SIM {TimeUS : 65435482, Roll : 0.17, Pitch : -18.02, Yaw : 54.96, Alt : 49.3400001526, Lat : 49.2837808, Lng : -123.1145503, Q1 : 0.876094102859, Q2 : 0.0736369416118, Q3 : -0.138276934624, Q4 : 0.455978274345}
2019-04-14 18:55:24.31: SIM {TimeUS : 65535442, Roll : 0.15, Pitch : -18.05, Yaw : 54.95, Alt : 49.3400001526, Lat : 49.2837834, Lng : -123.1145448, Q1 : 0.876097798347, Q2 : 0.0735476240516, Q3 : -0.138595074415, Q4 : 0.45588901639}
2019-04-14 18:55:24.41: SIM {TimeUS : 65635402, Roll : 0.13, Pitch : -18.07, Yaw : 54.95, Alt : 49.3400001526, Lat : 49.2837857, Lng : -123.1145393, Q1 : 0.876101851463, Q2 : 0.0735495835543, Q3 : -0.13884074986, Q4 : 0.455806225538}
2019-04-14 18:55:24.51: SIM {TimeUS : 65735362, Roll : 0.14, Pitch : -18.1, Yaw : 54.94, Alt : 49.3400001526, Lat : 49.2837883, Lng : -123.1145338, Q1 : 0.876098752022, Q2 : 0.0736779794097, Q3 : -0.139020577073, Q4 : 0.455736637115}
2019-04-14 18:55:24.61: SIM {TimeUS : 65835322, Roll : 0.15, Pitch : -18.12, Yaw : 54.93, Alt : 49.3400001526, Lat : 49.2837908, Lng : -123.1145283, Q1 : 0.876097917557, Q2 : 0.0738154277205, Q3 : -0.139158055186, Q4 : 0.455673933029}
2019-04-14 18:55:24.71: SIM {TimeUS : 65935282, Roll : 0.17, Pitch : -18.13, Yaw : 54.92, Alt : 49.3400001526, Lat : 49.2837932, Lng : -123.1145227, Q1 : 0.876106262207, Q2 : 0.0739980638027, Q3 : -0.139156669378, Q4 : 0.455628722906}
