2019-04-14 19:17:07.50: SIM {TimeUS : 40316367, Roll : 0.0, Pitch : 0.0, Yaw : 0.0, Alt : 30.1000003815, Lat : 49.28357, Lng : -123.11502, Q1 : 1.0, Q2 : 0.0, Q3 : 0.0, Q4 : 0.0}
2019-04-14 19:17:07.61: SIM {TimeUS : 40435486, Roll : 0.0, Pitch : 0.0, Yaw : 0.0, Alt : 30.1000003815, Lat : 49.28357, Lng : -123.11502, Q1 : 1.0, Q2 : 0.0, Q3 : 0.0, Q4 : 0.0}
2019-04-14 19:17:07.71: SIM {TimeUS : 40535446, Roll : 0.0, Pitch : 0.0, Yaw : 0.0, Alt : 30.1000003815, Lat : 49.28357, Lng : -123.11502, Q1 : 1.0, Q2 : 0.0, Q3 : 0.0, Q4 : 0.0}
2019-04-14 19:17:07.81: SIM {TimeUS : 40635406, Roll : 0.0, Pitch : 0.0, Yaw : 0.0, Alt : 30.1000003815, Lat : 49.28357, Lng : -123.11502, Q1 : 1.0, Q2 : 0.0, Q3 : 0.0, Q4 : 0.0}
2019-04-14 19:17:07.91: SIM {TimeUS : 40735366, Roll : 0.0, Pitch : 0.0, Yaw : 0.0, Alt : 30.1000003815, Lat : 49.28357, Lng : -123.11502, Q1 : 1.0, Q2 : 0.0, Q3 : 0.0, Q4 : 0.0}
2019-04-14 19:17:08.01: SIM {TimeUS : 40835326, Roll : 0.0, Pitch : 0.0, Yaw : 0.0, Alt : 30.1000003815, Lat : 49.28357, Lng : -123.11502, Q1 : 1.0, Q2 : 0.0, Q3 : 0.0, Q4 : 0.0}
2019-04-14 19:17:08.11: SIM {TimeUS : 40935286, Roll : 0.0, Pitch : 0.0, Yaw : 0.0, Alt : 30.1000003815, Lat : 49.28357, Lng : -123.11502, Q1 : 1.0, Q2 : 0.0, Q3 : 0.0, Q4 : 0.0}
2019-04-14 19:17:08.21: SIM {TimeUS : 41035246, Roll : 0.0, Pitch : 0.0, Yaw : 0.0, Alt : 30.1000003815, Lat : 49.28357, Lng : -123.11502, Q1 : 1.0, Q2 : 0.0, Q3 : 0.0, Q4 : 0.0}
2019-04-14 19:17:08.31: SIM {TimeUS : 41135206, Roll : 0.0, Pitch : 0.0, Yaw : 0.0, Alt : 30.1000003815, Lat : 49.28357, Lng : -123.11502, Q1 : 1.0, Q2 : 0.0, Q3 : 0.0, Q4 : 0.0}
2019-04-14 19:17:08.41: SIM {TimeUS : 41235166, Roll : 0.0, Pitch : 0.0, Yaw : 0.0, Alt : 30.1000003815, Lat : 49.28357, Lng : -123.11502, Q1 : 1.0, Q2 : 0.0, Q3 : 0.0, Q4 : 0.0}
2019-04-14 19:17:08.51: SIM {TimeUS : 41335126, Roll : 0.0, Pitch : 0.0, Yaw : 0.0, Alt : 30.1000003815, Lat : 49.28357, Lng : -123.11502, Q1 : 1.0, Q2 : 0.0, Q3 : 0.0, Q4 : 0.0}
2019-04-14 19:17:08.61: SIM {TimeUS : 41435086, Roll : 0.0, Pitch : 0.0, Yaw : 0.0, Alt : 30.1000003815, Lat : 49.28357, Lng : -123.11502, Q1 : 1.0, Q2 : 0.0, Q3 : 0.0, Q4 : 0.0}
2019-04-14 19:17:08.71: SIM {TimeUS : 41535046, Roll : 0.0, Pitch : 0.0, Yaw : 0.0, Alt : 30.1000003815, Lat : 49.28357, Lng : -123.11502, Q1 : 1.0, Q2 : 0.0, Q3 : 0.0, Q4 : 0.0}
2019-04-14 19:17:08.81: SIM {TimeUS : 41635006, Roll : 0.0, Pitch : 0.0, Yaw : 0.0, Alt : 30.1000003815, Lat : 49.28357, Lng : -123.11502, Q1 : 1.0, Q2 : 0.0, Q3 : 0.0, Q4 : 0.0}
2019-04-14 19:17:08.91: SIM {TimeUS : 41734966, Roll : 0.0, Pitch : 0.0, Yaw : 0.0, Alt : 30.1000003815, Lat : 49.28357, Lng : -123.11502, Q1 : 1.0, Q2 : 0.0, Q3 : 0.0, Q4 : 0.0}
2019-04-14 19:17:09.01: SIM {TimeUS : 41834926, Roll : 0.0, Pitch : 0.0, Yaw : 0.0, Alt : 30.1000003815, Lat : 49.28357, Lng : -123.11502, Q1 : 1.0, Q2 : 0.0, Q3 : 0.0, Q4 : 0.0}
2019-04-14 19:17:09.11: SIM {TimeUS : 41934886, Roll : 0.0, Pitch : 0.0, Yaw : 0.0, Alt : 30.1000003815, Lat : 49.28357, Lng : -123.11502, Q1 : 1.0, Q2 : 0.0, Q3 : 0.0, Q4 : 0.0}
2019-04-14 19:17:09.21: SIM {TimeUS : 42034846, Roll : 0.0, Pitch : 0.0, Yaw : 0.0, Alt : 30.1000003815, Lat : 49.28357, Lng : -123.11502, Q1 : 1.0, Q2 : 0.0, Q3 : 0.0, Q4 : 0.0}
2019-04-14 19:17:09.31: SIM {TimeUS : 42134806, Roll : 0.0, Pitch : 0.0, Yaw : 0.0, Alt : 30.1000003815, Lat : 49.28357, Lng : -123.11502, Q1 : 1.0, Q2 : 0.0, Q3 : 0.0, Q4 : 0.0}
2019-04-14 19:17:09.41: SIM {TimeUS : 42234766, Roll : 0.0, Pitch : 0.0, Yaw : 0.0, Alt : 30.1000003815, Lat : 49.28357, Lng : -123.11502, Q1 : 1.0, Q2 : 0.0, Q3 : 0.0, Q4 : 0.0}
2019-04-14 19:17:09.51: SIM {TimeUS : 42334726, Roll : 0.0, Pitch : 0.0, Yaw : 0.0, Alt : 30.1000003815, Lat : 49.28357, Lng : -123.11502, Q1 : 1.0, Q2 : 0.0, Q3 : 0.0, Q4 : 0.0}
2019-04-14 19:17:09.62: SIM {TimeUS : 42435519, Roll : 0.0, Pitch : 0.0, Yaw : 0.0, Alt : 30.1000003815, Lat : 49.28357, Lng : -123.11502, Q1 : 1.0, Q2 : 0.0, Q3 : 0.0, Q4 : 0.0}
2019-04-14 19:17:09.71: SIM {TimeUS : 42535479, Roll : 0.0, Pitch : 0.0, Yaw : 0.0, Alt : 30.1000003815, Lat : 49.28357, Lng : -123.11502, Q1 : 1.0, Q2 : 0.0, Q3 : 0.0, Q4 : 0.0}
2019-04-14 19:17:09.81: SIM {TimeUS : 42635439, Roll : 0.0, Pitch : 0.0, Yaw : 360.0, Alt : 30.1000003815, Lat : 49.28357, Lng : -123.11502, Q1 : 1.0, Q2 : 0.0, Q3 : 0.0, Q4 : -7.26646824309e-12}
2019-04-14 19:17:09.91: SIM {TimeUS : 42735399, Roll : 0.0, Pitch : 0.0, Yaw : 0.0, Alt : 30.1000003815, Lat : 49.28357, Lng : -123.11502, Q1 : 1.0, Q2 : 0.0, Q3 : 0.0, Q4 : 2.12949782807e-10}
2019-04-14 19:17:10.01: SIM {TimeUS : 42835359, Roll : 0.0, Pitch : 0.0, Yaw : 360.0, Alt : 30.1000003815, Lat : 49.28357, Lng : -123.11502, Q1 : 1.0, Q2 : 0.0, Q3 : 0.0, Q4 : -1.12301528077e-07}
2019-04-14 19:17:10.11: SIM {TimeUS : 42935319, Roll : 0.0, Pitch : 0.0, Yaw : 359.99, Alt : 30.1000003815, Lat : 49.28357, Lng : -123.11502, Q1 : 1.0, Q2 : 0.0, Q3 : 0.0, Q4 : -2.42104391646e-07}
2019-04-14 19:17:10.21: SIM {TimeUS : 43035279, Roll : 0.0, Pitch : 0.0, Yaw : 359.99, Alt : 30.1000003815, Lat : 49.28357, Lng : -123.11502, Q1 : 1.0, Q2 : 0.0, Q3 : 0.0, Q4 : -4.4629553031e-07}
2019-04-14 19:17:10.31: SIM {TimeUS : 43135239, Roll : 0.0, Pitch : 0.0, Yaw : 359.99, Alt : 30.1000003815, Lat : 49.28357, Lng : -123.11502, Q1 : 1.0, Q2 : 0.0, Q3 : 0.0, Q4 : -6.71783425332e-07}
2019-04-14 19:17:10.41: SIM {TimeUS : 43235199, Roll : 0.0, Pitch : 0.0, Yaw : 359.99, Alt : 30.1000003815, Lat : 49.28357, Lng : -123.11502, Q1 : 1.0, Q2 : 0.0, Q3 : 0.0, Q4 : -8.48678041621e-07}
2019-04-14 19:17:10.51: SIM {TimeUS : 43335159, Roll : 0.0, Pitch : 0.0, Yaw : 359.99, Alt : 30.1000003815, Lat : 49.28357, Lng : -123.11502, Q1 : 1.0, Q2 : 0.0, Q3 : 0.0, Q4 : -1.03290994957e-06}
2019-04-14 19:17:10.61: SIM {TimeUS : 43435119, Roll : 0.0, Pitch : 0.0, Yaw : 359.99, Alt : 30.1000003815, Lat : 49.28357, Lng : -123.11502, Q1 : 1.0, Q2 : 0.0, Q3 : 0.0, Q4 : -1.22116068724e-06}
2019-04-14 19:17:10.71: SIM {TimeUS : 43535079, Roll : 0.0, Pitch : 0.0, Yaw : 359.99, Alt : 30.1100006104, Lat : 49.28357, Lng : -123.11502, Q1 : 1.0, Q2 : 0.0, Q3 : 0.0, Q4 : -1.42737849274e-06}
2019-04-14 19:17:10.81: SIM {TimeUS : 43635039, Roll : 0.0, Pitch : 0.0, Yaw : 359.99, Alt : 30.1299991608, Lat : 49.28357, Lng : -123.11502, Q1 : 1.0, Q2 : 0.0, Q3 : 0.0, Q4 : -1.6538070895e-06}
2019-04-14 19:17:10.91: SIM {TimeUS : 43734999, Roll : 0.0, Pitch : 0.0, Yaw : 359.99, Alt : 30.1499996185, Lat : 49.28357, Lng : -123.11502, Q1 : 1.0, Q2 : 0.0, Q3 : 0.0, Q4 : -1.88916851585e-06}
2019-04-14 19:17:11.01: SIM {TimeUS : 43834959, Roll : 0.0, Pitch : 0.0, Yaw : 359.99, Alt : 30.1900005341, Lat : 49.28357, Lng : -123.11502, Q1 : 1.0, Q2 : 0.0, Q3 : 0.0, Q4 : -2.12949385059e-06}
2019-04-14 19:17:11.11: SIM {TimeUS : 43934919, Roll : -0.03, Pitch : -0.03, Yaw : 359.99, Alt : 30.2299995422, Lat : 49.28357, Lng : -123.11502, Q1 : 0.999999940395, Q2 : -0.000317939004162, Q3 : -0.000290508527542, Q4 : -5.15477995577e-06}
2019-04-14 19:17:11.21: SIM {TimeUS : 44034879, Roll : -0.28, Pitch : -0.26, Yaw : 359.99, Alt : 30.3099994659, Lat : 49.28357, Lng : -123.11502, Q1 : 0.999994277954, Q2 : -0.00250101974234, Q3 : -0.00227498495951, Q4 : -2.91543692583e-05}
2019-04-14 19:17:11.31: SIM {TimeUS : 44134839, Roll : -0.59, Pitch : -0.54, Yaw : 359.99, Alt : 30.4400005341, Lat : 49.28357, Lng : -123.11502, Q1 : 0.999975144863, Q2 : -0.00521536683664, Q3 : -0.00474016088992, Q4 : -8.13472288428e-05}
2019-04-14 19:17:11.41: SIM {TimeUS : 44234799, Roll : -0.81, Pitch : -0.73, Yaw : 359.98, Alt : 30.6000003815, Lat : 49.28357, Lng : -123.11502, Q1 : 0.999954342842, Q2 : -0.00711464229971, Q3 : -0.00637744320557, Q4 : -0.000153866334585}
2019-04-14 19:17:11.51: SIM {TimeUS : 44334759, Roll : -0.86, Pitch : -0.76, Yaw : 359.97, Alt : 30.75, Lat : 49.28357, Lng : -123.11502, Q1 : 0.999948859215, Q2 : -0.0075770188123, Q3 : -0.00669564446434, Q4 : -0.000235213607084}
2019-04-14 19:17:11.61: SIM {TimeUS : 44434719, Roll : -0.75, Pitch : -0.68, Yaw : 359.96, Alt : 30.9099998474, Lat : 49.28357, Lng : -123.1150201, Q1 : 0.999960482121, Q2 : -0.00657918676734, Q3 : -0.00597035745159, Q4 : -0.000321589322994}
2019-04-14 19:17:11.72: SIM {TimeUS : 44535512, Roll : -0.54, Pitch : -0.5, Yaw : 359.95, Alt : 31.0599994659, Lat : 49.2835701, Lng : -123.1150202, Q1 : 0.99997895956, Q2 : -0.00472323503345, Q3 : -0.00443566450849, Q4 : -0.000401540775783}
2019-04-14 19:17:11.81: SIM {TimeUS : 44635472, Roll : -0.31, Pitch : -0.29, Yaw : 359.94, Alt : 31.2199993134, Lat : 49.2835701, Lng : -123.1150202, Q1 : 0.999992668629, Q2 : -0.00277967890725, Q3 : -0.00259444862604, Q4 : -0.000463108503027}
2019-04-14 19:17:11.91: SIM {TimeUS : 44735432, Roll : -0.12, Pitch : -0.11, Yaw : 359.94, Alt : 31.3899993896, Lat : 49.2835702, Lng : -123.1150203, Q1 : 0.999998748302, Q2 : -0.00112055626232, Q3 : -0.00101730704773, Q4 : -0.000508196011651}
2019-04-14 19:17:12.01: SIM {TimeUS : 44835392, Roll : 0.0, Pitch : 0.0, Yaw : 359.93, Alt : 31.5599994659, Lat : 49.2835702, Lng : -123.1150204, Q1 : 0.999999821186, Q2 : 6.1610217017e-06, Q3 : 9.47033186094e-06, Q4 : -0.000539328786545}
2019-04-14 19:17:12.11: SIM {TimeUS : 44935352, Roll : 0.06, Pitch : 0.05, Yaw : 359.93, Alt : 31.7299995422, Lat : 49.2835703, Lng : -123.1150205, Q1 : 0.999999582767, Q2 : 0.000601951498538, Q3 : 0.0004541168164, Q4 : -0.000558428815566}
2019-04-14 19:17:12.21: SIM {TimeUS : 45035312, Roll : 0.09, Pitch : 0.05, Yaw : 359.93, Alt : 31.9200000763, Lat : 49.2835703, Lng : -123.1150205, Q1 : 0.999999403954, Q2 : 0.0008401441155, Q3 : 0.000472220184747, Q4 : -0.000563381938264}
2019-04-14 19:17:12.31: SIM {TimeUS : 45135272, Roll : 0.1, Pitch : 0.03, Yaw : 359.93, Alt : 32.0999984741, Lat : 49.2835703, Lng : -123.1150206, Q1 : 0.999999403954, Q2 : 0.000896506069694, Q3 : 0.000324229156831, Q4 : -0.000551900651772}
2019-04-14 19:17:12.41: SIM {TimeUS : 45235232, Roll : 0.09, Pitch : 0.03, Yaw : 359.93, Alt : 32.2900009155, Lat : 49.2835703, Lng : -123.1150207, Q1 : 0.999999463558, Q2 : 0.000865528360009, Q3 : 0.000277896091575, Q4 : -0.000529404787812}
2019-04-14 19:17:12.51: SIM {TimeUS : 45335192, Roll : 0.08, Pitch : 0.05, Yaw : 359.94, Alt : 32.4799995422, Lat : 49.2835703, Lng : -123.1150207, Q1 : 0.999999463558, Q2 : 0.000751905783545, Q3 : 0.000479971495224, Q4 : -0.000490753736813}
2019-04-14 19:17:12.61: SIM {TimeUS : 45435152, Roll : 0.06, Pitch : 0.08, Yaw : 359.94, Alt : 32.6800003052, Lat : 49.2835703, Lng : -123.1150207, Q1 : 0.999999403954, Q2 : 0.000599724589847, Q3 : 0.000744689139538, Q4 : -0.000457205198472}
2019-04-14 19:17:12.71: SIM {TimeUS : 45535112, Roll : 0.08, Pitch : 0.13, Yaw : 359.94, Alt : 32.8800010681, Lat : 49.2835704, Lng : -123.1150208, Q1 : 0.999998927116, Q2 : 0.000744528952055, Q3 : 0.00117076013703, Q4 : -0.000440120114945}
2019-04-14 19:17:12.81: SIM {TimeUS : 45635072, Roll : 0.12, Pitch : 0.17, Yaw : 359.95, Alt : 33.0800018311, Lat : 49.2835704, Lng : -123.1150208, Q1 : 0.999998152256, Q2 : 0.00107725302223, Q3 : 0.00153614860028, Q4 : -0.000434292072896}
2019-04-14 19:17:12.91: SIM {TimeUS : 45735032, Roll : 0.15, Pitch : 0.19, Yaw : 359.94, Alt : 33.2799987793, Lat : 49.2835704, Lng : -123.1150208, Q1 : 0.999997496605, Q2 : 0.00133491342422, Q3 : 0.00173733686097, Q4 : -0.00045200868044}
2019-04-14 19:17:13.01: SIM {TimeUS : 45834992, Roll : 0.16, Pitch : 0.21, Yaw : 359.94, Alt : 33.4900016785, Lat : 49.2835704, Lng : -123.1150208, Q1 : 0.999997079372, Q2 : 0.0014353407314, Q3 : 0.00187973596621, Q4 : -0.000474279921036}
2019-04-14 19:17:13.11: SIM {TimeUS : 45934952, Roll : 0.16, Pitch : 0.18, Yaw : 359.94, Alt : 33.6899986267, Lat : 49.2835704, Lng : -123.1150209, Q1 : 0.999997437, Q2 : 0.00146666960791, Q3 : 0.00164727959782, Q4 : -0.000514881627169}
2019-04-14 19:17:13.21: SIM {TimeUS : 46034912, Roll : 0.16, Pitch : 0.14, Yaw : 359.93, Alt : 33.9000015259, Lat : 49.2835704, Lng : -123.1150209, Q1 : 0.999998033047, Q2 : 0.00140264094807, Q3 : 0.0012748062145, Q4 : -0.000550824857783}
2019-04-14 19:17:13.31: SIM {TimeUS : 46134872, Roll : 0.14, Pitch : 0.11, Yaw : 359.93, Alt : 34.1100006104, Lat : 49.2835704, Lng : -123.1150209, Q1 : 0.999998569489, Q2 : 0.00123773084488, Q3 : 0.00101567036472, Q4 : -0.000579386251047}
2019-04-14 19:17:13.41: SIM {TimeUS : 46234832, Roll : 0.13, Pitch : 0.09, Yaw : 359.93, Alt : 34.3199996948, Lat : 49.2835704, Lng : -123.1150209, Q1 : 0.999998867512, Q2 : 0.00113532028627, Q3 : 0.0008291490376, Q4 : -0.000602957326919}
2019-04-14 19:17:13.51: SIM {TimeUS : 46334792, Roll : 0.12, Pitch : 0.09, Yaw : 359.92, Alt : 34.5299987793, Lat : 49.2835704, Lng : -123.1150209, Q1 : 0.999998927116, Q2 : 0.00108994683251, Q3 : 0.000788973062299, Q4 : -0.000623040250503}
2019-04-14 19:17:13.61: SIM {TimeUS : 46434752, Roll : 0.1, Pitch : 0.07, Yaw : 359.92, Alt : 34.75, Lat : 49.2835704, Lng : -123.1150208, Q1 : 0.999999165535, Q2 : 0.000950456014834, Q3 : 0.000616304809228, Q4 : -0.000635586155113}
2019-04-14 19:17:13.71: SIM {TimeUS : 46534712, Roll : 0.08, Pitch : 0.05, Yaw : 359.92, Alt : 34.9599990845, Lat : 49.2835704, Lng : -123.1150208, Q1 : 0.999999403954, Q2 : 0.000758286216296, Q3 : 0.000457424728666, Q4 : -0.000646156317089}
2019-04-14 19:17:13.82: SIM {TimeUS : 46635505, Roll : 0.06, Pitch : 0.04, Yaw : 359.92, Alt : 35.1800003052, Lat : 49.2835704, Lng : -123.1150208, Q1 : 0.999999582767, Q2 : 0.000532576232217, Q3 : 0.000388364598621, Q4 : -0.000657054188196}
2019-04-14 19:17:13.91: SIM {TimeUS : 46735465, Roll : 0.03, Pitch : 0.04, Yaw : 359.92, Alt : 35.4000015259, Lat : 49.2835704, Lng : -123.1150208, Q1 : 0.999999642372, Q2 : 0.000316752644721, Q3 : 0.000367833243217, Q4 : -0.000665252096951}
2019-04-14 19:17:14.01: SIM {TimeUS : 46835425, Roll : 0.02, Pitch : 0.01, Yaw : 359.92, Alt : 35.6199989319, Lat : 49.2835704, Lng : -123.1150208, Q1 : 0.999999761581, Q2 : 0.00023331506236, Q3 : 0.000121193777886, Q4 : -0.000674410257488}
2019-04-14 19:17:14.11: SIM {TimeUS : 46935385, Roll : 0.02, Pitch : -0.01, Yaw : 359.92, Alt : 35.8400001526, Lat : 49.2835704, Lng : -123.1150208, Q1 : 0.999999761581, Q2 : 0.000190935417777, Q3 : -9.57650408964e-05, Q4 : -0.00068727665348}
2019-04-14 19:17:14.21: SIM {TimeUS : 47035345, Roll : 0.0, Pitch : -0.02, Yaw : 359.91, Alt : 36.0600013733, Lat : 49.2835704, Lng : -123.1150207, Q1 : 0.999999701977, Q2 : 3.33386888087e-05, Q3 : -0.000222288959776, Q4 : -0.000710838008672}
2019-04-14 19:17:14.31: SIM {TimeUS : 47135305, Roll : 0.0, Pitch : -0.02, Yaw : 359.91, Alt : 36.2799987793, Lat : 49.2835704, Lng : -123.1150207, Q1 : 0.999999701977, Q2 : 3.98396832679e-06, Q3 : -0.000219438035856, Q4 : -0.000734375556931}
2019-04-14 19:17:14.41: SIM {TimeUS : 47235265, Roll : 0.0, Pitch : -0.02, Yaw : 359.91, Alt : 36.5, Lat : 49.2835704, Lng : -123.1150207, Q1 : 0.999999701977, Q2 : 4.91989048896e-05, Q3 : -0.000174591579707, Q4 : -0.000760002410971}
2019-04-14 19:17:14.51: SIM {TimeUS : 47335225, Roll : 0.0, Pitch : -0.02, Yaw : 359.9, Alt : 36.7200012207, Lat : 49.2835704, Lng : -123.1150207, Q1 : 0.999999642372, Q2 : -4.54000328318e-05, Q3 : -0.000256045983406, Q4 : -0.000787660654169}
2019-04-14 19:17:14.61: SIM {TimeUS : 47435185, Roll : -0.03, Pitch : -0.05, Yaw : 359.9, Alt : 36.9500007629, Lat : 49.2835704, Lng : -123.1150207, Q1 : 0.999999523163, Q2 : -0.000310094677843, Q3 : -0.000486174860271, Q4 : -0.000822726171464}
2019-04-14 19:17:14.71: SIM {TimeUS : 47535145, Roll : -0.07, Pitch : -0.08, Yaw : 359.9, Alt : 37.1699981689, Lat : 49.2835704, Lng : -123.1150207, Q1 : 0.999999165535, Q2 : -0.000620079634245, Q3 : -0.000699270749465, Q4 : -0.000865322654136}
2019-04-14 19:17:14.81: SIM {TimeUS : 47635105, Roll : -0.1, Pitch : -0.1, Yaw : 359.89, Alt : 37.3899993896, Lat : 49.2835704, Lng : -123.1150207, Q1 : 0.999998807907, Q2 : -0.000927384768147, Q3 : -0.00088063912699, Q4 : -0.000908991030883}
2019-04-14 19:17:14.91: SIM {TimeUS : 47735065, Roll : -0.12, Pitch : -0.1, Yaw : 359.89, Alt : 37.6199989319, Lat : 49.2835704, Lng : -123.1150207, Q1 : 0.999998569489, Q2 : -0.00106437504292, Q3 : -0.000913401017897, Q4 : -0.000951582507696}
2019-04-14 19:17:15.01: SIM {TimeUS : 47835025, Roll : -0.11, Pitch : -0.08, Yaw : 359.88, Alt : 37.8499984741, Lat : 49.2835704, Lng : -123.1150207, Q1 : 0.999998688698, Q2 : -0.00103961862624, Q3 : -0.000765517412219, Q4 : -0.000990626518615}
2019-04-14 19:17:15.11: SIM {TimeUS : 47934985, Roll : -0.09, Pitch : -0.05, Yaw : 359.88, Alt : 38.0699996948, Lat : 49.2835704, Lng : -123.1150206, Q1 : 0.999998986721, Q2 : -0.000871506577823, Q3 : -0.000454337045085, Q4 : -0.0010228556348}
2019-04-14 19:17:15.21: SIM {TimeUS : 48034945, Roll : -0.07, Pitch : -0.02, Yaw : 359.87, Alt : 38.2999992371, Lat : 49.2835704, Lng : -123.1150206, Q1 : 0.999999165535, Q2 : -0.000663152895868, Q3 : -0.000222219139687, Q4 : -0.00104858144186}
2019-04-14 19:17:15.31: SIM {TimeUS : 48134905, Roll : -0.06, Pitch : -0.02, Yaw : 359.87, Alt : 38.5299987793, Lat : 49.2835706, Lng : -123.1150206, Q1 : 0.99999922514, Q2 : -0.000604974338785, Q3 : -0.000216004234971, Q4 : -0.00107122061308}
2019-04-14 19:17:15.41: SIM {TimeUS : 48234865, Roll : -0.06, Pitch : -0.01, Yaw : 359.87, Alt : 38.7599983215, Lat : 49.2835706, Lng : -123.1150206, Q1 : 0.99999922514, Q2 : -0.000596072641201, Q3 : -0.000126790007926, Q4 : -0.00107621354982}
2019-04-14 19:17:15.51: SIM {TimeUS : 48334825, Roll : -0.08, Pitch : 0.0, Yaw : 359.87, Alt : 38.9900016785, Lat : 49.2835706, Lng : -123.1150206, Q1 : 0.999999165535, Q2 : -0.000716421112884, Q3 : 8.99798760656e-06, Q4 : -0.00107379676774}
2019-04-14 19:17:15.61: SIM {TimeUS : 48434785, Roll : -0.07, Pitch : 0.01, Yaw : 359.87, Alt : 39.2200012207, Lat : 49.2835706, Lng : -123.1150206, Q1 : 0.999999165535, Q2 : -0.000682026846334, Q3 : 0.000127245628391, Q4 : -0.0010683175642}
2019-04-14 19:17:15.71: SIM {TimeUS : 48534745, Roll : -0.05, Pitch : 0.04, Yaw : 359.87, Alt : 39.4399986267, Lat : 49.2835706, Lng : -123.1150207, Q1 : 0.99999922514, Q2 : -0.000510255398694, Q3 : 0.000353011681, Q4 : -0.00106611452065}
2019-04-14 19:17:15.81: SIM {TimeUS : 48634705, Roll : -0.03, Pitch : 0.04, Yaw : 359.87, Alt : 39.6800003052, Lat : 49.2835706, Lng : -123.1150207, Q1 : 0.999999284744, Q2 : -0.000305411871523, Q3 : 0.000425134028774, Q4 : -0.00106462009717}
2019-04-14 19:17:15.92: SIM {TimeUS : 48735498, Roll : 0.0, Pitch : 0.05, Yaw : 359.87, Alt : 39.9099998474, Lat : 49.2835706, Lng : -123.1150207, Q1 : 0.999999284744, Q2 : -7.17371949577e-05, Q3 : 0.000451186933788, Q4 : -0.00106473930646}
2019-04-14 19:17:16.01: SIM {TimeUS : 48835458, Roll : 0.02, Pitch : 0.08, Yaw : 359.87, Alt : 40.1399993896, Lat : 49.2835706, Lng : -123.1150207, Q1 : 0.999999165535, Q2 : 0.000222790768021, Q3 : 0.00070892192889, Q4 : -0.00105842202902}
2019-04-14 19:17:16.11: SIM {TimeUS : 48935418, Roll : 0.06, Pitch : 0.12, Yaw : 359.87, Alt : 40.3699989319, Lat : 49.2835706, Lng : -123.1150207, Q1 : 0.999998688698, Q2 : 0.000559580104891, Q3 : 0.00109977286775, Q4 : -0.00106017803773}
2019-04-14 19:17:16.21: SIM {TimeUS : 49035378, Roll : 0.09, Pitch : 0.16, Yaw : 359.87, Alt : 40.5999984741, Lat : 49.2835706, Lng : -123.1150207, Q1 : 0.999998033047, Q2 : 0.000823140493594, Q3 : 0.00146460323595, Q4 : -0.00107094331179}
2019-04-14 19:17:16.31: SIM {TimeUS : 49135338, Roll : 0.08, Pitch : 0.2, Yaw : 359.87, Alt : 40.8300018311, Lat : 49.2835706, Lng : -123.1150207, Q1 : 0.99999755621, Q2 : 0.000786125136074, Q3 : 0.00174915662501, Q4 : -0.00108134571929}
2019-04-14 19:17:16.41: SIM {TimeUS : 49235298, Roll : 0.04, Pitch : 0.21, Yaw : 359.87, Alt : 41.0699996948, Lat : 49.2835706, Lng : -123.1150207, Q1 : 0.999997496605, Q2 : 0.0004201788106, Q3 : 0.00191243633162, Q4 : -0.00111012626439}
2019-04-14 19:17:16.51: SIM {TimeUS : 49335258, Roll : 0.0, Pitch : 0.21, Yaw : 359.87, Alt : 41.2999992371, Lat : 49.2835706, Lng : -123.1150207, Q1 : 0.999997496605, Q2 : 5.35054932698e-05, Q3 : 0.0019110130379, Q4 : -0.00113456777763}
2019-04-14 19:17:16.61: SIM {TimeUS : 49435218, Roll : -0.01, Pitch : 0.18, Yaw : 359.86, Alt : 41.5299987793, Lat : 49.2835706, Lng : -123.1150207, Q1 : 0.999998033047, Q2 : -0.000166226702277, Q3 : 0.0015937841963, Q4 : -0.00115619366989}
2019-04-14 19:17:16.71: SIM {TimeUS : 49535178, Roll : -0.02, Pitch : 0.13, Yaw : 359.86, Alt : 41.7700004578, Lat : 49.2835706, Lng : -123.1150207, Q1 : 0.999998569489, Q2 : -0.000229068769841, Q3 : 0.00118312030099, Q4 : -0.00118711707182}
2019-04-14 19:17:16.81: SIM {TimeUS : 49635138, Roll : -0.01, Pitch : 0.11, Yaw : 359.85, Alt : 42.0, Lat : 49.2835706, Lng : -123.1150207, Q1 : 0.999998688698, Q2 : -0.000125340084196, Q3 : 0.00104534893762, Q4 : -0.00122435134836}
2019-04-14 19:17:16.91: SIM {TimeUS : 49735098, Roll : 0.02, Pitch : 0.12, Yaw : 359.85, Alt : 42.2299995422, Lat : 49.2835706, Lng : -123.1150207, Q1 : 0.999998569489, Q2 : 0.000202163995709, Q3 : 0.00109848135617, Q4 : -0.00126650324091}
2019-04-14 19:17:17.01: SIM {TimeUS : 49835058, Roll : 0.07, Pitch : 0.13, Yaw : 359.84, Alt : 42.4700012207, Lat : 49.2835706, Lng : -123.1150207, Q1 : 0.999998271465, Q2 : 0.000617133802734, Q3 : 0.00114833656698, Q4 : -0.00131371733733}
2019-04-14 19:17:17.11: SIM {TimeUS : 49935018, Roll : 0.1, Pitch : 0.11, Yaw : 359.84, Alt : 42.7000007629, Lat : 49.2835706, Lng : -123.1150207, Q1 : 0.999998092651, Q2 : 0.000925783184357, Q3 : 0.00101065530907, Q4 : -0.00137273385189}
2019-04-14 19:17:17.21: SIM {TimeUS : 50034978, Roll : 0.1, Pitch : 0.09, Yaw : 359.83, Alt : 42.9399986267, Lat : 49.2835706, Lng : -123.1150207, Q1 : 0.999998271465, Q2 : 0.000907831068616, Q3 : 0.000791401951574, Q4 : -0.00143093825318}
2019-04-14 19:17:17.31: SIM {TimeUS : 50134938, Roll : 0.06, Pitch : 0.07, Yaw : 359.83, Alt : 43.1699981689, Lat : 49.2835706, Lng : -123.1150207, Q1 : 0.999998569489, Q2 : 0.000568346469663, Q3 : 0.000624104810413, Q4 : -0.00146949081682}
2019-04-14 19:17:17.41: SIM {TimeUS : 50234898, Roll : 0.0, Pitch : 0.06, Yaw : 359.82, Alt : 43.4099998474, Lat : 49.2835704, Lng : -123.1150207, Q1 : 0.999998688698, Q2 : 7.37293084967e-05, Q3 : 0.000567149312701, Q4 : -0.0014964035945}
2019-04-14 19:17:17.51: SIM {TimeUS : 50334858, Roll : -0.03, Pitch : 0.07, Yaw : 359.82, Alt : 43.6399993896, Lat : 49.2835704, Lng : -123.1150207, Q1 : 0.999998569489, Q2 : -0.000309013208607, Q3 : 0.000671629037242, Q4 : -0.00151792133693}
2019-04-14 19:17:17.61: SIM {TimeUS : 50434818, Roll : -0.05, Pitch : 0.08, Yaw : 359.82, Alt : 43.8800010681, Lat : 49.2835704, Lng : -123.1150207, Q1 : 0.999998450279, Q2 : -0.000489005993586, Q3 : 0.000706368358806, Q4 : -0.00153625872917}
2019-04-14 19:17:17.71: SIM {TimeUS : 50534778, Roll : -0.05, Pitch : 0.06, Yaw : 359.82, Alt : 44.1100006104, Lat : 49.2835704, Lng : -123.1150207, Q1 : 0.999998569489, Q2 : -0.000436777918367, Q3 : 0.000578670646064, Q4 : -0.00154843588825}
2019-04-14 19:17:17.81: SIM {TimeUS : 50634738, Roll : -0.04, Pitch : 0.05, Yaw : 359.82, Alt : 44.3499984741, Lat : 49.2835704, Lng : -123.1150206, Q1 : 0.999998569489, Q2 : -0.000427864259109, Q3 : 0.000442257442046, Q4 : -0.00156243087258}
2019-04-14 19:17:17.91: SIM {TimeUS : 50734698, Roll : -0.04, Pitch : 0.03, Yaw : 359.81, Alt : 44.5900001526, Lat : 49.2835704, Lng : -123.1150206, Q1 : 0.999998688698, Q2 : -0.000359450903488, Q3 : 0.000274897494819, Q4 : -0.00157669465989}
2019-04-14 19:17:18.01: SIM {TimeUS : 50835491, Roll : -0.02, Pitch : 0.01, Yaw : 359.81, Alt : 44.8199996948, Lat : 49.2835704, Lng : -123.1150206, Q1 : 0.999998688698, Q2 : -0.000233183964156, Q3 : 0.000111708824988, Q4 : -0.00159351155162}
2019-04-14 19:17:18.11: SIM {TimeUS : 50935451, Roll : -0.02, Pitch : 0.0, Yaw : 359.81, Alt : 45.0600013733, Lat : 49.2835703, Lng : -123.1150206, Q1 : 0.999998688698, Q2 : -0.000179903494427, Q3 : 2.63528704636e-06, Q4 : -0.00161326513626}
2019-04-14 19:17:18.21: SIM {TimeUS : 51035411, Roll : -0.02, Pitch : -0.01, Yaw : 359.81, Alt : 45.2999992371, Lat : 49.2835703, Lng : -123.1150206, Q1 : 0.999998629093, Q2 : -0.000212905200897, Q3 : -0.000112512454507, Q4 : -0.00163649593014}
2019-04-14 19:17:18.31: SIM {TimeUS : 51135371, Roll : -0.02, Pitch : -0.03, Yaw : 359.8, Alt : 45.5299987793, Lat : 49.2835703, Lng : -123.1150206, Q1 : 0.999998569489, Q2 : -0.000249621225521, Q3 : -0.000331786461174, Q4 : -0.00165839097463}
2019-04-14 19:17:18.41: SIM {TimeUS : 51235331, Roll : -0.02, Pitch : -0.05, Yaw : 359.8, Alt : 45.7700004578, Lat : 49.2835703, Lng : -123.1150206, Q1 : 0.999998450279, Q2 : -0.000247248215601, Q3 : -0.000439636904048, Q4 : -0.00168475171085}
2019-04-14 19:17:18.51: SIM {TimeUS : 51335291, Roll : -0.02, Pitch : -0.05, Yaw : 359.8, Alt : 46.0, Lat : 49.2835703, Lng : -123.1150206, Q1 : 0.999998390675, Q2 : -0.000197703833692, Q3 : -0.000450795341749, Q4 : -0.0017130470369}
2019-04-14 19:17:18.61: SIM {TimeUS : 51435251, Roll : -0.02, Pitch : -0.05, Yaw : 359.8, Alt : 46.2299995422, Lat : 49.2835703, Lng : -123.1150206, Q1 : 0.99999833107, Q2 : -0.000250218377914, Q3 : -0.000436244503362, Q4 : -0.00174078333657}
2019-04-14 19:17:18.71: SIM {TimeUS : 51535211, Roll : -0.05, Pitch : -0.04, Yaw : 359.79, Alt : 46.4500007629, Lat : 49.2835703, Lng : -123.1150206, Q1 : 0.999998271465, Q2 : -0.000455791625427, Q3 : -0.000403738114983, Q4 : -0.00176560832188}
2019-04-14 19:17:18.81: SIM {TimeUS : 51635171, Roll : -0.08, Pitch : -0.04, Yaw : 359.79, Alt : 46.6699981689, Lat : 49.2835703, Lng : -123.1150206, Q1 : 0.999998033047, Q2 : -0.000768769648857, Q3 : -0.000358595221769, Q4 : -0.00179391610436}
2019-04-14 19:17:18.91: SIM {TimeUS : 51735131, Roll : -0.11, Pitch : -0.04, Yaw : 359.79, Alt : 46.8899993896, Lat : 49.2835703, Lng : -123.1150206, Q1 : 0.999997794628, Q2 : -0.000982839963399, Q3 : -0.000361113809049, Q4 : -0.00182273145765}
2019-04-14 19:17:19.01: SIM {TimeUS : 51835091, Roll : -0.11, Pitch : -0.03, Yaw : 359.78, Alt : 47.0900001526, Lat : 49.2835703, Lng : -123.1150206, Q1 : 0.999997735023, Q2 : -0.00101564219221, Q3 : -0.000301919906633, Q4 : -0.00184995180462}
2019-04-14 19:17:19.11: SIM {TimeUS : 51935051, Roll : -0.1, Pitch : -0.01, Yaw : 359.78, Alt : 47.2900009155, Lat : 49.2835703, Lng : -123.1150206, Q1 : 0.999997854233, Q2 : -0.000898592115846, Q3 : -0.000109822663944, Q4 : -0.0018809234025}
2019-04-14 19:17:19.21: SIM {TimeUS : 52035011, Roll : -0.07, Pitch : 0.0, Yaw : 359.78, Alt : 47.4900016785, Lat : 49.2835703, Lng : -123.1150206, Q1 : 0.999997913837, Q2 : -0.000689155887812, Q3 : 3.62030004908e-05, Q4 : -0.00191381713375}
2019-04-14 19:17:19.31: SIM {TimeUS : 52134971, Roll : -0.06, Pitch : 0.0, Yaw : 359.77, Alt : 47.6699981689, Lat : 49.2835703, Lng : -123.1150206, Q1 : 0.999997913837, Q2 : -0.000597333768383, Q3 : 8.07635024103e-06, Q4 : -0.00194969575386}
2019-04-14 19:17:19.41: SIM {TimeUS : 52234931, Roll : -0.07, Pitch : -0.01, Yaw : 359.77, Alt : 47.8400001526, Lat : 49.2835703, Lng : -123.1150206, Q1 : 0.999997794628, Q2 : -0.000676900614053, Q3 : -0.000147773796925, Q4 : -0.00198744446971}
2019-04-14 19:17:19.51: SIM {TimeUS : 52334891, Roll : -0.07, Pitch : -0.04, Yaw : 359.76, Alt : 48.0, Lat : 49.2835703, Lng : -123.1150206, Q1 : 0.999997675419, Q2 : -0.000643722771201, Q3 : -0.000383331818739, Q4 : -0.00202443124726}
2019-04-14 19:17:19.61: SIM {TimeUS : 52434851, Roll : -0.05, Pitch : -0.06, Yaw : 359.76, Alt : 48.1500015259, Lat : 49.2835703, Lng : -123.1150206, Q1 : 0.999997615814, Q2 : -0.00045929395128, Q3 : -0.000607365858741, Q4 : -0.00205468363129}
2019-04-14 19:17:19.71: SIM {TimeUS : 52534811, Roll : -0.03, Pitch : -0.08, Yaw : 359.76, Alt : 48.2799987793, Lat : 49.2835703, Lng : -123.1150206, Q1 : 0.999997496605, Q2 : -0.000330057286192, Q3 : -0.000767240650021, Q4 : -0.00208334065974}
2019-04-14 19:17:19.81: SIM {TimeUS : 52634771, Roll : -0.03, Pitch : -0.09, Yaw : 359.75, Alt : 48.4099998474, Lat : 49.2835703, Lng : -123.1150206, Q1 : 0.999997377396, Q2 : -0.000285247748252, Q3 : -0.000865373935085, Q4 : -0.00210809428245}
2019-04-14 19:17:19.91: SIM {TimeUS : 52734731, Roll : 0.0, Pitch : -0.09, Yaw : 359.75, Alt : 48.5200004578, Lat : 49.2835703, Lng : -123.1150206, Q1 : 0.999997437, Q2 : -3.36227640219e-05, Q3 : -0.000800139619969, Q4 : -0.00213086092845}
2019-04-14 19:17:20.02: SIM {TimeUS : 52835524, Roll : 0.03, Pitch : -0.07, Yaw : 359.75, Alt : 48.6199989319, Lat : 49.2835703, Lng : -123.1150206, Q1 : 0.999997437, Q2 : 0.00026730549871, Q3 : -0.000642466824502, Q4 : -0.00214787060395}
2019-04-14 19:17:20.11: SIM {TimeUS : 52935484, Roll : 0.05, Pitch : -0.05, Yaw : 359.75, Alt : 48.7099990845, Lat : 49.2835703, Lng : -123.1150206, Q1 : 0.999997437, Q2 : 0.00048401375534, Q3 : -0.000444767385488, Q4 : -0.00216107186861}
2019-04-14 19:17:20.21: SIM {TimeUS : 53035444, Roll : 0.06, Pitch : -0.02, Yaw : 359.75, Alt : 48.7799987793, Lat : 49.2835703, Lng : -123.1150206, Q1 : 0.999997496605, Q2 : 0.000530709454324, Q3 : -0.000234752544202, Q4 : -0.00217256648466}
2019-04-14 19:17:20.31: SIM {TimeUS : 53135404, Roll : 0.06, Pitch : -0.01, Yaw : 359.74, Alt : 48.8499984741, Lat : 49.2835703, Lng : -123.1150206, Q1 : 0.999997437, Q2 : 0.000583704910241, Q3 : -0.00014895296772, Q4 : -0.00218756264076}
2019-04-14 19:17:20.41: SIM {TimeUS : 53235364, Roll : 0.06, Pitch : -0.02, Yaw : 359.74, Alt : 48.9099998474, Lat : 49.2835703, Lng : -123.1150207, Q1 : 0.999997437, Q2 : 0.000523558876012, Q3 : -0.000245344563155, Q4 : -0.00220885779709}
2019-04-14 19:17:20.51: SIM {TimeUS : 53335324, Roll : 0.03, Pitch : -0.03, Yaw : 359.74, Alt : 48.9599990845, Lat : 49.2835703, Lng : -123.1150207, Q1 : 0.999997377396, Q2 : 0.000325888657244, Q3 : -0.0003496814752, Q4 : -0.00223219185136}
2019-04-14 19:17:20.61: SIM {TimeUS : 53435284, Roll : 0.04, Pitch : -0.05, Yaw : 359.74, Alt : 49.0, Lat : 49.2835703, Lng : -123.1150207, Q1 : 0.999997258186, Q2 : 0.000363649858627, Q3 : -0.00045692207641, Q4 : -0.00225718063302}
2019-04-14 19:17:20.71: SIM {TimeUS : 53535244, Roll : 0.16, Pitch : -0.13, Yaw : 359.73, Alt : 49.0400009155, Lat : 49.2835703, Lng : -123.1150207, Q1 : 0.999995648861, Q2 : 0.00143038190436, Q3 : -0.00118070363533, Q4 : -0.00229151407257}
2019-04-14 19:17:20.81: SIM {TimeUS : 53635204, Roll : 0.5, Pitch : -0.35, Yaw : 359.73, Alt : 49.0699996948, Lat : 49.2835703, Lng : -123.1150207, Q1 : 0.999982893467, Q2 : 0.00438164034858, Q3 : -0.0030960328877, Q4 : -0.00232194713317}
2019-04-14 19:17:20.91: SIM {TimeUS : 53735164, Roll : 1.09, Pitch : -0.71, Yaw : 359.72, Alt : 49.0900001526, Lat : 49.2835704, Lng : -123.1150207, Q1 : 0.999932229519, Q2 : 0.00950714759529, Q3 : -0.00629696808755, Q4 : -0.00234500062652}
2019-04-14 19:17:21.01: SIM {TimeUS : 53835124, Roll : 1.86, Pitch : -1.22, Yaw : 359.71, Alt : 49.1199989319, Lat : 49.2835704, Lng : -123.1150206, Q1 : 0.99980711937, Q2 : 0.0162800699472, Q3 : -0.0107312696055, Q4 : -0.00234642461874}
2019-04-14 19:17:21.11: SIM {TimeUS : 53935084, Roll : 2.73, Pitch : -1.83, Yaw : 359.68, Alt : 49.1399993896, Lat : 49.2835704, Lng : -123.1150205, Q1 : 0.999583601952, Q2 : 0.0238573309034, Q3 : -0.0160649958998, Q4 : -0.00232628197409}
2019-04-14 19:17:21.21: SIM {TimeUS : 54035044, Roll : 3.56, Pitch : -2.42, Yaw : 359.66, Alt : 49.1500015259, Lat : 49.2835706, Lng : -123.1150204, Q1 : 0.999290406704, Q2 : 0.0310016218573, Q3 : -0.0212730877101, Q4 : -0.00224474514835}
2019-04-14 19:17:21.31: SIM {TimeUS : 54135004, Roll : 4.21, Pitch : -2.93, Yaw : 359.65, Alt : 49.1699981689, Lat : 49.2835707, Lng : -123.1150202, Q1 : 0.998991787434, Q2 : 0.0367170609534, Q3 : -0.025745023042, Q4 : -0.00210348959081}
2019-04-14 19:17:21.41: SIM {TimeUS : 54234964, Roll : 4.7, Pitch : -3.32, Yaw : 359.64, Alt : 49.1800003052, Lat : 49.2835708, Lng : -123.11502, Q1 : 0.99873483181, Q2 : 0.0409767068923, Q3 : -0.0290881022811, Q4 : -0.00189403747208}
2019-04-14 19:17:21.51: SIM {TimeUS : 54334924, Roll : 5.07, Pitch : -3.58, Yaw : 359.65, Alt : 49.1899986267, Lat : 49.2835709, Lng : -123.1150197, Q1 : 0.998531937599, Q2 : 0.044144153595, Q3 : -0.0313466191292, Q4 : -0.00162229198031}
2019-04-14 19:17:21.61: SIM {TimeUS : 54434884, Roll : 5.36, Pitch : -3.78, Yaw : 359.66, Alt : 49.2000007629, Lat : 49.2835712, Lng : -123.1150192, Q1 : 0.998359024525, Q2 : 0.0467117018998, Q3 : -0.0330989360809, Q4 : -0.00133112212643}
2019-04-14 19:17:21.71: SIM {TimeUS : 54534844, Roll : 5.65, Pitch : -3.97, Yaw : 359.68, Alt : 49.2099990845, Lat : 49.2835715, Lng : -123.1150186, Q1 : 0.998183965683, Q2 : 0.0491734109819, Q3 : -0.0347797088325, Q4 : -0.0010384907946}
2019-04-14 19:17:21.81: SIM {TimeUS : 54634804, Roll : 5.95, Pitch : -4.18, Yaw : 359.69, Alt : 49.2200012207, Lat : 49.2835718, Lng : -123.115018, Q1 : 0.997983932495, Q2 : 0.051846191287, Q3 : -0.0365985520184, Q4 : -0.000746649631765}
2019-04-14 19:17:21.91: SIM {TimeUS : 54734764, Roll : 6.25, Pitch : -4.41, Yaw : 359.7, Alt : 49.2200012207, Lat : 49.2835721, Lng : -123.1150172, Q1 : 0.997770965099, Q2 : 0.05445972085, Q3 : -0.0385612286627, Q4 : -0.000485196680529}
2019-04-14 19:17:22.01: SIM {TimeUS : 54834724, Roll : 6.52, Pitch : -4.61, Yaw : 359.7, Alt : 49.2299995422, Lat : 49.2835725, Lng : -123.1150163, Q1 : 0.99757450819, Q2 : 0.0567402951419, Q3 : -0.0403190143406, Q4 : -0.000248057913268}
2019-04-14 19:17:22.12: SIM {TimeUS : 54935517, Roll : 6.73, Pitch : -4.76, Yaw : 359.71, Alt : 49.2400016785, Lat : 49.2835728, Lng : -123.1150155, Q1 : 0.997415363789, Q2 : 0.0585803091526, Q3 : -0.0416040979326, Q4 : -3.17422382068e-05}
2019-04-14 19:17:22.21: SIM {TimeUS : 55035477, Roll : 6.86, Pitch : -4.84, Yaw : 359.72, Alt : 49.2400016785, Lat : 49.2835733, Lng : -123.1150144, Q1 : 0.997316300869, Q2 : 0.0597479864955, Q3 : -0.0423140712082, Q4 : 0.000144448596984}
2019-04-14 19:17:22.31: SIM {TimeUS : 55135437, Roll : 6.95, Pitch : -4.9, Yaw : 359.73, Alt : 49.25, Lat : 49.2835739, Lng : -123.1150133, Q1 : 0.997246742249, Q2 : 0.0605391971767, Q3 : -0.0428235754371, Q4 : 0.000267017749138}
2019-04-14 19:17:22.41: SIM {TimeUS : 55235397, Roll : 7.04, Pitch : -4.96, Yaw : 359.73, Alt : 49.25, Lat : 49.2835745, Lng : -123.1150121, Q1 : 0.997177064419, Q2 : 0.0612593330443, Q3 : -0.043417699635, Q4 : 0.000337385368766}
2019-04-14 19:17:22.51: SIM {TimeUS : 55335357, Roll : 7.25, Pitch : -4.98, Yaw : 359.77, Alt : 49.25, Lat : 49.2835751, Lng : -123.1150108, Q1 : 0.997057020664, Q2 : 0.0631348639727, Q3 : -0.04348173365, Q4 : 0.000829393859021}
2019-04-14 19:17:22.61: SIM {TimeUS : 55435317, Roll : 7.71, Pitch : -4.82, Yaw : 0.26, Alt : 49.2599983215, Lat : 49.2835757, Lng : -123.1150094, Q1 : 0.996842861176, Q2 : 0.067277148366, Q3 : -0.041853196919, Q4 : 0.00514044426382}
2019-04-14 19:17:22.71: SIM {TimeUS : 55535277, Roll : 8.33, Pitch : -4.65, Yaw : 1.86, Alt : 49.2599983215, Lat : 49.2835764, Lng : -123.1150079, Q1 : 0.996352434158, Q2 : 0.0732895433903, Q3 : -0.0392795875669, Q4 : 0.0191708430648}
2019-04-14 19:17:22.81: SIM {TimeUS : 55635237, Roll : 8.88, Pitch : -4.8, Yaw : 5.01, Alt : 49.2599983215, Lat : 49.283577, Lng : -123.1150063, Q1 : 0.995020985603, Q2 : 0.0791453793645, Q3 : -0.0384080298245, Q4 : 0.0468408577144}
2019-04-14 19:17:22.91: SIM {TimeUS : 55735197, Roll : 9.11, Pitch : -5.48, Yaw : 9.71, Alt : 49.2599983215, Lat : 49.2835777, Lng : -123.1150046, Q1 : 0.991804242134, Q2 : 0.0830952003598, Q3 : -0.0407932549715, Q4 : 0.0880653485656}
2019-04-14 19:17:23.01: SIM {TimeUS : 55835157, Roll : 8.81, Pitch : -6.63, Yaw : 15.74, Alt : 49.2599983215, Lat : 49.2835785, Lng : -123.1150028, Q1 : 0.985373258591, Q2 : 0.083947211504, Q3 : -0.0466595925391, Q4 : 0.140766561031}
2019-04-14 19:17:23.11: SIM {TimeUS : 55935117, Roll : 7.9, Pitch : -8.11, Yaw : 22.87, Alt : 49.2700004578, Lat : 49.2835792, Lng : -123.1150009, Q1 : 0.974389314651, Q2 : 0.0813742280006, Q3 : -0.0555854514241, Q4 : 0.202123686671}
2019-04-14 19:17:23.21: SIM {TimeUS : 56035077, Roll : 6.36, Pitch : -9.71, Yaw : 30.84, Alt : 49.2700004578, Lat : 49.28358, Lng : -123.1149988, Q1 : 0.957805871964, Q2 : 0.0758091434836, Q3 : -0.0667642727494, Q4 : 0.269078910351}
2019-04-14 19:17:23.31: SIM {TimeUS : 56135037, Roll : 4.29, Pitch : -11.2, Yaw : 39.38, Alt : 49.2700004578, Lat : 49.2835807, Lng : -123.1149966, Q1 : 0.935128331184, Q2 : 0.0679551064968, Q3 : -0.0792516246438, Q4 : 0.338579833508}
2019-04-14 19:17:23.41: SIM {TimeUS : 56234997, Roll : 1.6, Pitch : -12.38, Yaw : 48.12, Alt : 49.2700004578, Lat : 49.2835816, Lng : -123.1149944, Q1 : 0.907064378262, Q2 : 0.0566416829824, Q3 : -0.0927918031812, Q4 : 0.406713187695}
2019-04-14 19:17:23.51: SIM {TimeUS : 56334957, Roll : -1.58, Pitch : -13.03, Yaw : 56.28, Alt : 49.2700004578, Lat : 49.2835824, Lng : -123.114992, Q1 : 0.876723587513, Q2 : 0.0414428114891, Q3 : -0.106565706432, Q4 : 0.467206656933}
2019-04-14 19:17:23.61: SIM {TimeUS : 56434917, Roll : -4.64, Pitch : -13.14, Yaw : 62.99, Alt : 49.2700004578, Lat : 49.2835834, Lng : -123.1149896, Q1 : 0.848803460598, Q2 : 0.0254379380494, Q3 : -0.118501745164, Q4 : 0.514628946781}
2019-04-14 19:17:23.71: SIM {TimeUS : 56534877, Roll : -6.94, Pitch : -12.92, Yaw : 67.69, Alt : 49.2700004578, Lat : 49.2835843, Lng : -123.114987, Q1 : 0.827536642551, Q2 : 0.0126104922965, Q3 : -0.126847580075, Q4 : 0.546748399734}
2019-04-14 19:17:23.81: SIM {TimeUS : 56634837, Roll : -8.18, Pitch : -12.67, Yaw : 70.3, Alt : 49.2700004578, Lat : 49.2835855, Lng : -123.1149845, Q1 : 0.815066754818, Q2 : 0.00538708269596, Q3 : -0.130860716105, Q4 : 0.564369261265}
2019-04-14 19:17:23.91: SIM {TimeUS : 56734797, Roll : -8.36, Pitch : -12.59, Yaw : 71.07, Alt : 49.2700004578, Lat : 49.2835868, Lng : -123.1149819, Q1 : 0.811305940151, Q2 : 0.00462877145037, Q3 : -0.131155923009, Q4 : 0.569701135159}
2019-04-14 19:17:24.01: SIM {TimeUS : 56834757, Roll : -7.66, Pitch : -12.79, Yaw : 70.35, Alt : 49.2799987793, Lat : 49.2835881, Lng : -123.1149792, Q1 : 0.814776539803, Q2 : 0.00977430865169, Q3 : -0.129108250141, Q4 : 0.565132439137}
2019-04-14 19:17:24.11: SIM {TimeUS : 56934717, Roll : -6.33, Pitch : -13.24, Yaw : 68.49, Alt : 49.2799987793, Lat : 49.2835897, Lng : -123.1149765, Q1 : 0.823440790176, Q2 : 0.0194122157991, Q3 : -0.126092925668, Q4 : 0.552873432636}
2019-04-14 19:17:24.22: SIM {TimeUS : 57035510, Roll : -4.6, Pitch : -13.88, Yaw : 65.82, Alt : 49.2799987793, Lat : 49.2835911, Lng : -123.1149737, Q1 : 0.835324287415, Q2 : 0.0321597382426, Q3 : -0.123082093894, Q4 : 0.534836351871}
2019-04-14 19:17:24.31: SIM {TimeUS : 57135470, Roll : -2.7, Pitch : -14.57, Yaw : 62.69, Alt : 49.2799987793, Lat : 49.2835928, Lng : -123.1149708, Q1 : 0.848426222801, Q2 : 0.0460291057825, Q3 : -0.120495297015, Q4 : 0.513356745243}
2019-04-14 19:17:24.41: SIM {TimeUS : 57235430, Roll : -0.81, Pitch : -15.19, Yaw : 59.41, Alt : 49.2799987793, Lat : 49.2835944, Lng : -123.1149679, Q1 : 0.861372768879, Q2 : 0.0593979842961, Q3 : -0.118289001286, Q4 : 0.490424871445}
2019-04-14 19:17:24.51: SIM {TimeUS : 57335390, Roll : 0.89, Pitch : -15.61, Yaw : 56.31, Alt : 49.2799987793, Lat : 49.2835959, Lng : -123.1149648, Q1 : 0.872965991497, Q2 : 0.0709165409207, Q3 : -0.116155698895, Q4 : 0.468411207199}
2019-04-14 19:17:24.61: SIM {TimeUS : 57435350, Roll : 2.25, Pitch : -15.84, Yaw : 53.68, Alt : 49.2799987793, Lat : 49.2835976, Lng : -123.1149616, Q1 : 0.882336199284, Q2 : 0.0796012282372, Q3 : -0.114122353494, Q4 : 0.449580490589}
2019-04-14 19:17:24.71: SIM {TimeUS : 57535310, Roll : 3.18, Pitch : -15.89, Yaw : 51.76, Alt : 49.2799987793, Lat : 49.2835994, Lng : -123.1149583, Q1 : 0.889042437077, Q2 : 0.0850555449724, Q3 : -0.112310543656, Q4 : 0.43560937047}
2019-04-14 19:17:24.81: SIM {TimeUS : 57635270, Roll : 3.62, Pitch : -15.84, Yaw : 50.63, Alt : 49.2799987793, Lat : 49.283601, Lng : -123.1149549, Q1 : 0.893002092838, Q2 : 0.0872554779053, Q3 : -0.111093871295, Q4 : 0.427307844162}
2019-04-14 19:17:24.91: SIM {TimeUS : 57735230, Roll : 3.62, Pitch : -15.77, Yaw : 50.29, Alt : 49.2799987793, Lat : 49.2836026, Lng : -123.1149513, Q1 : 0.894357264042, Q2 : 0.0866224095225, Q3 : -0.110895842314, Q4 : 0.424645483494}
2019-04-14 19:17:25.01: SIM {TimeUS : 57835190, Roll : 3.23, Pitch : -15.77, Yaw : 50.63, Alt : 49.2900009155, Lat : 49.2836043, Lng : -123.1149476, Q1 : 0.893387556076, Q2 : 0.0839065164328, Q3 : -0.112028568983, Q4 : 0.426928520203}
2019-04-14 19:17:25.11: SIM {TimeUS : 57935150, Roll : 2.56, Pitch : -15.85, Yaw : 51.5, Alt : 49.2900009155, Lat : 49.2836061, Lng : -123.1149438, Q1 : 0.890515983105, Q2 : 0.0798532962799, Q3 : -0.114562548697, Q4 : 0.432989776134}
2019-04-14 19:17:25.21: SIM {TimeUS : 58035110, Roll : 1.72, Pitch : -15.99, Yaw : 52.71, Alt : 49.2900009155, Lat : 49.2836078, Lng : -123.11494, Q1 : 0.886304140091, Q2 : 0.0751027613878, Q3 : -0.118063919246, Q4 : 0.441458404064}
2019-04-14 19:17:25.31: SIM {TimeUS : 58135070, Roll : 0.82, Pitch : -16.16, Yaw : 54.07, Alt : 49.2900009155, Lat : 49.2836095, Lng : -123.114936, Q1 : 0.881376445293, Q2 : 0.0702478140593, Q3 : -0.122008629143, Q4 : 0.450948685408}
2019-04-14 19:17:25.41: SIM {TimeUS : 58235030, Roll : -0.01, Pitch : -16.29, Yaw : 55.41, Alt : 49.2900009155, Lat : 49.2836112, Lng : -123.114932, Q1 : 0.876392364502, Q2 : 0.0657703280449, Q3 : -0.125582128763, Q4 : 0.460260659456}
2019-04-14 19:17:25.51: SIM {TimeUS : 58334990, Roll : -0.7, Pitch : -16.38, Yaw : 56.59, Alt : 49.2900009155, Lat : 49.2836129, Lng : -123.1149279, Q1 : 0.871917426586, Q2 : 0.0622103475034, Q3 : -0.128314480186, Q4 : 0.468428522348}
2019-04-14 19:17:25.61: SIM {TimeUS : 58434950, Roll : -1.19, Pitch : -16.42, Yaw : 57.5, Alt : 49.2900009155, Lat : 49.2836148, Lng : -123.1149238, Q1 : 0.868395984173, Q2 : 0.059642251581, Q3 : -0.13020786643, Q4 : 0.474739044905}
2019-04-14 19:17:25.71: SIM {TimeUS : 58534910, Roll : -1.46, Pitch : -16.45, Yaw : 58.08, Alt : 49.2900009155, Lat : 49.2836166, Lng : -123.1149196, Q1 : 0.866060912609, Q2 : 0.058402903378, Q3 : -0.131227821112, Q4 : 0.478860020638}
2019-04-14 19:17:25.81: SIM {TimeUS : 58634870, Roll : -1.5, Pitch : -16.45, Yaw : 58.34, Alt : 49.2900009155, Lat : 49.2836185, Lng : -123.1149154, Q1 : 0.865006089211, Q2 : 0.0583721213043, Q3 : -0.131284490228, Q4 : 0.480751037598}
2019-04-14 19:17:25.91: SIM {TimeUS : 58734830, Roll : -1.37, Pitch : -16.44, Yaw : 58.3, Alt : 49.2900009155, Lat : 49.2836205, Lng : -123.1149111, Q1 : 0.865125954151, Q2 : 0.0593054331839, Q3 : -0.130715712905, Q4 : 0.480576008558}
2019-04-14 19:17:26.01: SIM {TimeUS : 58834790, Roll : -1.12, Pitch : -16.47, Yaw : 58.01, Alt : 49.2900009155, Lat : 49.2836225, Lng : -123.1149068, Q1 : 0.866171240807, Q2 : 0.0609679371119, Q3 : -0.130045071244, Q4 : 0.478663355112}
2019-04-14 19:17:26.11: SIM {TimeUS : 58934750, Roll : -0.81, Pitch : -16.53, Yaw : 57.55, Alt : 49.2900009155, Lat : 49.2836244, Lng : -123.1149024, Q1 : 0.86785620451, Q2 : 0.0630633533001, Q3 : -0.129436329007, Q4 : 0.475494354963}
2019-04-14 19:17:26.21: SIM {TimeUS : 59034710, Roll : -0.47, Pitch : -16.61, Yaw : 57.0, Alt : 49.2900009155, Lat : 49.2836263, Lng : -123.114898, Q1 : 0.869867026806, Q2 : 0.0653729513288, Q3 : -0.128959968686, Q4 : 0.471621692181}
2019-04-14 19:17:26.32: SIM {TimeUS : 59135503, Roll : -0.13, Pitch : -16.68, Yaw : 56.42, Alt : 49.2900009155, Lat : 49.2836285, Lng : -123.1148935, Q1 : 0.87196713686, Q2 : 0.0675697028637, Q3 : -0.128429830074, Q4 : 0.467561125755}
2019-04-14 19:17:26.41: SIM {TimeUS : 59235463, Roll : 0.16, Pitch : -16.73, Yaw : 55.89, Alt : 49.2900009155, Lat : 49.2836305, Lng : -123.1148891, Q1 : 0.873877942562, Q2 : 0.0694784447551, Q3 : -0.127907156944, Q4 : 0.463842451572}
2019-04-14 19:17:26.51: SIM {TimeUS : 59335423, Roll : 0.4, Pitch : -16.77, Yaw : 55.45, Alt : 49.2900009155, Lat : 49.2836324, Lng : -123.1148844, Q1 : 0.87544888258, Q2 : 0.0709690824151, Q3 : -0.127478569746, Q4 : 0.460762232542}
2019-04-14 19:17:26.61: SIM {TimeUS : 59435383, Roll : 0.57, Pitch : -16.79, Yaw : 55.14, Alt : 49.2900009155, Lat : 49.2836346, Lng : -123.1148799, Q1 : 0.87657481432, Q2 : 0.0719697698951, Q3 : -0.127188906074, Q4 : 0.458541125059}
2019-04-14 19:17:26.71: SIM {TimeUS : 59535343, Roll : 0.65, Pitch : -16.82, Yaw : 54.96, Alt : 49.2900009155, Lat : 49.2836366, Lng : -123.1148753, Q1 : 0.877213895321, Q2 : 0.072501949966, Q3 : -0.12716434896, Q4 : 0.457240074873}
2019-04-14 19:17:26.81: SIM {TimeUS : 59635303, Roll : 0.66, Pitch : -16.84, Yaw : 54.91, Alt : 49.2900009155, Lat : 49.2836387, Lng : -123.1148707, Q1 : 0.877387940884, Q2 : 0.0726044327021, Q3 : -0.127358153462, Q4 : 0.456835746765}
2019-04-14 19:17:26.91: SIM {TimeUS : 59735263, Roll : 0.59, Pitch : -16.86, Yaw : 54.97, Alt : 49.2900009155, Lat : 49.2836408, Lng : -123.114866, Q1 : 0.877167582512, Q2 : 0.0722720101476, Q3 : -0.127740368247, Q4 : 0.457204759121}
2019-04-14 19:17:27.01: SIM {TimeUS : 59835223, Roll : 0.48, Pitch : -16.89, Yaw : 55.11, Alt : 49.2900009155, Lat : 49.2836428, Lng : -123.1148613, Q1 : 0.876644015312, Q2 : 0.0716314837337, Q3 : -0.128314360976, Q4 : 0.458148092031}
2019-04-14 19:17:27.11: SIM {TimeUS : 59935183, Roll : 0.32, Pitch : -16.93, Yaw : 55.3, Alt : 49.2999992371, Lat : 49.283645, Lng : -123.1148564, Q1 : 0.875915944576, Q2 : 0.0708319321275, Q3 : -0.129139512777, Q4 : 0.459431231022}
2019-04-14 19:17:27.21: SIM {TimeUS : 60035143, Roll : 0.15, Pitch : -16.99, Yaw : 55.52, Alt : 49.2999992371, Lat : 49.283647, Lng : -123.1148517, Q1 : 0.875100016594, Q2 : 0.0699991807342, Q3 : -0.130092948675, Q4 : 0.46084266901}
2019-04-14 19:17:27.31: SIM {TimeUS : 60135103, Roll : -0.01, Pitch : -17.03, Yaw : 55.72, Alt : 49.2999992371, Lat : 49.2836492, Lng : -123.1148469, Q1 : 0.874324321747, Q2 : 0.0691234618425, Q3 : -0.130983948708, Q4 : 0.462192773819}
2019-04-14 19:17:27.41: SIM {TimeUS : 60235063, Roll : -0.15, Pitch : -17.06, Yaw : 55.9, Alt : 49.2999992371, Lat : 49.2836513, Lng : -123.114842, Q1 : 0.873676478863, Q2 : 0.0683258473873, Q3 : -0.131677687168, Q4 : 0.463337957859}
2019-04-14 19:17:27.51: SIM {TimeUS : 60335023, Roll : -0.26, Pitch : -17.08, Yaw : 56.02, Alt : 49.2999992371, Lat : 49.2836535, Lng : -123.1148371, Q1 : 0.873201966286, Q2 : 0.067727483809, Q3 : -0.132248237729, Q4 : 0.464157015085}
2019-04-14 19:17:27.61: SIM {TimeUS : 60434983, Roll : -0.31, Pitch : -17.11, Yaw : 56.09, Alt : 49.2999992371, Lat : 49.2836557, Lng : -123.1148323, Q1 : 0.872908532619, Q2 : 0.0675521269441, Q3 : -0.132640615106, Q4 : 0.464622288942}
2019-04-14 19:17:27.71: SIM {TimeUS : 60534943, Roll : -0.3, Pitch : -17.15, Yaw : 56.11, Alt : 49.2999992371, Lat : 49.2836578, Lng : -123.1148272, Q1 : 0.872801542282, Q2 : 0.0678218230605, Q3 : -0.132840976119, Q4 : 0.46472671628}
2019-04-14 19:17:27.81: SIM {TimeUS : 60634903, Roll : -0.24, Pitch : -17.19, Yaw : 56.07, Alt : 49.2999992371, Lat : 49.28366, Lng : -123.1148224, Q1 : 0.872867703438, Q2 : 0.0683720558882, Q3 : -0.132943809032, Q4 : 0.464492499828}
2019-04-14 19:17:27.91: SIM {TimeUS : 60734863, Roll : -0.17, Pitch : -17.24, Yaw : 56.0, Alt : 49.2999992371, Lat : 49.2836621, Lng : -123.1148174, Q1 : 0.873073995113, Q2 : 0.0690545365214, Q3 : -0.133052304387, Q4 : 0.4639724195}
2019-04-14 19:17:28.01: SIM {TimeUS : 60834823, Roll : -0.09, Pitch : -17.28, Yaw : 55.89, Alt : 49.2999992371, Lat : 49.2836645, Lng : -123.1148125, Q1 : 0.873389661312, Q2 : 0.0697289705276, Q3 : -0.133122906089, Q4 : 0.463256597519}
2019-04-14 19:17:28.11: SIM {TimeUS : 60934783, Roll : -0.02, Pitch : -17.31, Yaw : 55.78, Alt : 49.3100013733, Lat : 49.2836667, Lng : -123.1148075, Q1 : 0.873786389828, Q2 : 0.0702052786946, Q3 : -0.133110761642, Q4 : 0.462439328432}
2019-04-14 19:17:28.21: SIM {TimeUS : 61034743, Roll : 0.03, Pitch : -17.32, Yaw : 55.66, Alt : 49.3100013733, Lat : 49.2836688, Lng : -123.1148023, Q1 : 0.874210417271, Q2 : 0.0705466866493, Q3 : -0.133033558726, Q4 : 0.461607336998}
2019-04-14 19:17:28.31: SIM {TimeUS : 61134703, Roll : 0.09, Pitch : -17.32, Yaw : 55.55, Alt : 49.3100013733, Lat : 49.2836711, Lng : -123.1147974, Q1 : 0.874608576298, Q2 : 0.0708842501044, Q3 : -0.132859036326, Q4 : 0.460851043463}
2019-04-14 19:17:28.42: SIM {TimeUS : 61235496, Roll : 0.14, Pitch : -17.32, Yaw : 55.46, Alt : 49.3100013733, Lat : 49.2836734, Lng : -123.1147923, Q1 : 0.874948203564, Q2 : 0.0711813792586, Q3 : -0.132709488273, Q4 : 0.460203230381}
2019-04-14 19:17:28.51: SIM {TimeUS : 61335456, Roll : 0.19, Pitch : -17.34, Yaw : 55.39, Alt : 49.3100013733, Lat : 49.2836756, Lng : -123.1147872, Q1 : 0.875162899494, Q2 : 0.0716029033065, Q3 : -0.132736980915, Q4 : 0.45972147584}
2019-04-14 19:17:28.61: SIM {TimeUS : 61435416, Roll : 0.23, Pitch : -17.39, Yaw : 55.35, Alt : 49.3100013733, Lat : 49.2836779, Lng : -123.1147822, Q1 : 0.875261723995, Q2 : 0.0720078647137, Q3 : -0.132997080684, Q4 : 0.459394842386}
2019-04-14 19:17:28.71: SIM {TimeUS : 61535376, Roll : 0.23, Pitch : -17.42, Yaw : 55.32, Alt : 49.3100013733, Lat : 49.2836802, Lng : -123.114777, Q1 : 0.875312328339, Q2 : 0.072153493762, Q3 : -0.13319259882, Q4 : 0.459218889475}
2019-04-14 19:17:28.81: SIM {TimeUS : 61635336, Roll : 0.23, Pitch : -17.43, Yaw : 55.32, Alt : 49.3100013733, Lat : 49.2836825, Lng : -123.1147719, Q1 : 0.875319480896, Q2 : 0.0721111372113, Q3 : -0.133278593421, Q4 : 0.459186941385}
2019-04-14 19:17:28.91: SIM {TimeUS : 61735296, Roll : 0.2, Pitch : -17.44, Yaw : 55.33, Alt : 49.3100013733, Lat : 49.2836846, Lng : -123.1147668, Q1 : 0.875268876553, Q2 : 0.0719657018781, Q3 : -0.133533328772, Q4 : 0.459232181311}
2019-04-14 19:17:29.01: SIM {TimeUS : 61835256, Roll : 0.14, Pitch : -17.48, Yaw : 55.36, Alt : 49.3100013733, Lat : 49.283687, Lng : -123.1147616, Q1 : 0.875176489353, Q2 : 0.0717076659203, Q3 : -0.133991092443, Q4 : 0.459315240383}
2019-04-14 19:17:29.11: SIM {TimeUS : 61935216, Roll : 0.1, Pitch : -17.51, Yaw : 55.38, Alt : 49.3100013733, Lat : 49.2836893, Lng : -123.1147564, Q1 : 0.875072062016, Q2 : 0.0715222656727, Q3 : -0.13436794281, Q4 : 0.459433048964}
2019-04-14 19:17:29.21: SIM {TimeUS : 62035176, Roll : 0.07, Pitch : -17.53, Yaw : 55.4, Alt : 49.3100013733, Lat : 49.2836916, Lng : -123.1147513, Q1 : 0.874965727329, Q2 : 0.07147038728, Q3 : -0.13466848433, Q4 : 0.45955568552}
2019-04-14 19:17:29.31: SIM {TimeUS : 62135136, Roll : 0.06, Pitch : -17.55, Yaw : 55.42, Alt : 49.3199996948, Lat : 49.2836938, Lng : -123.1147461, Q1 : 0.874880671501, Q2 : 0.0714884474874, Q3 : -0.134829923511, Q4 : 0.459667414427}
2019-04-14 19:17:29.41: SIM {TimeUS : 62235096, Roll : 0.06, Pitch : -17.57, Yaw : 55.43, Alt : 49.3199996948, Lat : 49.2836961, Lng : -123.1147409, Q1 : 0.874817252159, Q2 : 0.0715923160315, Q3 : -0.134984582663, Q4 : 0.459726572037}
2019-04-14 19:17:29.51: SIM {TimeUS : 62335056, Roll : 0.08, Pitch : -17.58, Yaw : 55.43, Alt : 49.3199996948, Lat : 49.2836985, Lng : -123.1147356, Q1 : 0.874799072742, Q2 : 0.071727655828, Q3 : -0.134995058179, Q4 : 0.45973700285}
2019-04-14 19:17:29.61: SIM {TimeUS : 62435016, Roll : 0.1, Pitch : -17.6, Yaw : 55.42, Alt : 49.3199996948, Lat : 49.2837009, Lng : -123.1147304, Q1 : 0.874804198742, Q2 : 0.0719454288483, Q3 : -0.135042712092, Q4 : 0.459679245949}
2019-04-14 19:17:29.71: SIM {TimeUS : 62534976, Roll : 0.12, Pitch : -17.62, Yaw : 55.4, Alt : 49.3199996948, Lat : 49.2837032, Lng : -123.1147252, Q1 : 0.874831140041, Q2 : 0.0722016617656, Q3 : -0.135137274861, Q4 : 0.459560036659}
2019-04-14 19:17:29.81: SIM {TimeUS : 62634936, Roll : 0.13, Pitch : -17.66, Yaw : 55.38, Alt : 49.3199996948, Lat : 49.2837054, Lng : -123.1147199, Q1 : 0.87488168478, Q2 : 0.0723827332258, Q3 : -0.135371491313, Q4 : 0.459366321564}
2019-04-14 19:17:29.91: SIM {TimeUS : 62734896, Roll : 0.12, Pitch : -17.7, Yaw : 55.35, Alt : 49.3199996948, Lat : 49.2837078, Lng : -123.1147146, Q1 : 0.87494790554, Q2 : 0.0724512115121, Q3 : -0.135733544827, Q4 : 0.45912244916}
2019-04-14 19:17:30.01: SIM {TimeUS : 62834856, Roll : 0.11, Pitch : -17.74, Yaw : 55.32, Alt : 49.3199996948, Lat : 49.2837101, Lng : -123.1147094, Q1 : 0.875017523766, Q2 : 0.0725089684129, Q3 : -0.136127948761, Q4 : 0.458863765001}
2019-04-14 19:17:30.11: SIM {TimeUS : 62934816, Roll : 0.12, Pitch : -17.77, Yaw : 55.29, Alt : 49.3199996948, Lat : 49.2837126, Lng : -123.1147041, Q1 : 0.875092804432, Q2 : 0.0726469308138, Q3 : -0.136352464557, Q4 : 0.458631694317}
2019-04-14 19:17:30.21: SIM {TimeUS : 63034776, Roll : 0.13, Pitch : -17.77, Yaw : 55.26, Alt : 49.3199996948, Lat : 49.2837149, Lng : -123.1146988, Q1 : 0.875194132328, Q2 : 0.0727153047919, Q3 : -0.13636097312, Q4 : 0.458424925804}
2019-04-14 19:17:30.31: SIM {TimeUS : 63134736, Roll : 0.15, Pitch : -17.76, Yaw : 55.24, Alt : 49.3199996948, Lat : 49.2837173, Lng : -123.1146935, Q1 : 0.875308036804, Q2 : 0.0727594196796, Q3 : -0.136161014438, Q4 : 0.458259820938}
2019-04-14 19:17:30.41: SIM {TimeUS : 63234696, Roll : 0.16, Pitch : -17.73, Yaw : 55.22, Alt : 49.3199996948, Lat : 49.2837196, Lng : -123.1146881, Q1 : 0.875414669514, Q2 : 0.0726939812303, Q3 : -0.135982632637, Q4 : 0.458119452}
2019-04-14 19:17:30.51: SIM {TimeUS : 63335489, Roll : 0.16, Pitch : -17.71, Yaw : 55.2, Alt : 49.3199996948, Lat : 49.283722, Lng : -123.1146827, Q1 : 0.87550920248, Q2 : 0.0726103037596, Q3 : -0.135822609067, Q4 : 0.457999587059}
2019-04-14 19:17:30.61: SIM {TimeUS : 63435449, Roll : 0.16, Pitch : -17.7, Yaw : 55.19, Alt : 49.3199996948, Lat : 49.2837243, Lng : -123.1146774, Q1 : 0.875577032566, Q2 : 0.0725291594863, Q3 : -0.135691851377, Q4 : 0.457921534777}
2019-04-14 19:17:30.71: SIM {TimeUS : 63535409, Roll : 0.16, Pitch : -17.7, Yaw : 55.18, Alt : 49.3199996948, Lat : 49.2837267, Lng : -123.114672, Q1 : 0.875606119633, Q2 : 0.0725179538131, Q3 : -0.135755345225, Q4 : 0.457848906517}
2019-04-14 19:17:30.81: SIM {TimeUS : 63635369, Roll : 0.16, Pitch : -17.72, Yaw : 55.17, Alt : 49.3300018311, Lat : 49.2837291, Lng : -123.1146667, Q1 : 0.875611960888, Q2 : 0.0726047381759, Q3 : -0.13588693738, Q4 : 0.457784920931}
2019-04-14 19:17:30.91: SIM {TimeUS : 63735329, Roll : 0.15, Pitch : -17.77, Yaw : 55.17, Alt : 49.3300018311, Lat : 49.2837314, Lng : -123.1146613, Q1 : 0.875582098961, Q2 : 0.0727070271969, Q3 : -0.136342823505, Q4 : 0.457690179348}
2019-04-14 19:17:31.01: SIM {TimeUS : 63835289, Roll : 0.13, Pitch : -17.83, Yaw : 55.16, Alt : 49.3300018311, Lat : 49.2837338, Lng : -123.1146559, Q1 : 0.87554371357, Q2 : 0.0728431791067, Q3 : -0.136843577027, Q4 : 0.457592576742}
2019-04-14 19:17:31.11: SIM {TimeUS : 63935249, Roll : 0.14, Pitch : -17.87, Yaw : 55.15, Alt : 49.3300018311, Lat : 49.2837363, Lng : -123.1146506, Q1 : 0.875518739223, Q2 : 0.0730221346021, Q3 : -0.137160003185, Q4 : 0.45751708746}
2019-04-14 19:17:31.21: SIM {TimeUS : 64035209, Roll : 0.13, Pitch : -17.91, Yaw : 55.14, Alt : 49.3300018311, Lat : 49.2837387, Lng : -123.1146452, Q1 : 0.875514447689, Q2 : 0.0730968415737, Q3 : -0.137443110347, Q4 : 0.457428455353}
2019-04-14 19:17:31.31: SIM {TimeUS : 64135169, Roll : 0.12, Pitch : -17.93, Yaw : 55.14, Alt : 49.3300018311, Lat : 49.2837411, Lng : -123.1146398, Q1 : 0.875529706478, Q2 : 0.0731150731444, Q3 : -0.137628689408, Q4 : 0.457340419292}
2019-04-14 19:17:31.41: SIM {TimeUS : 64235129, Roll : 0.14, Pitch : -17.92, Yaw : 55.13, Alt : 49.3300018311, Lat : 49.2837435, Lng : -123.1146344, Q1 : 0.87557131052, Q2 : 0.0731761604548, Q3 : -0.137520939112, Q4 : 0.457283437252}
2019-04-14 19:17:31.51: SIM {TimeUS : 64335089, Roll : 0.17, Pitch : -17.92, Yaw : 55.11, Alt : 49.3300018311, Lat : 49.2837459, Lng : -123.114629, Q1 : 0.875596523285, Q2 : 0.0734243169427, Q3 : -0.137431770563, Q4 : 0.45722219348}
2019-04-14 19:17:31.61: SIM {TimeUS : 64435049, Roll : 0.19, Pitch : -17.94, Yaw : 55.1, Alt : 49.3300018311, Lat : 49.2837483, Lng : -123.1146235, Q1 : 0.875616848469, Q2 : 0.0736250802875, Q3 : -0.137497976422, Q4 : 0.457130998373}
2019-04-14 19:17:31.71: SIM {TimeUS : 64535009, Roll : 0.2, Pitch : -17.95, Yaw : 55.09, Alt : 49.3300018311, Lat : 49.2837508, Lng : -123.1146181, Q1 : 0.875650763512, Q2 : 0.0737621411681, Q3 : -0.137520208955, Q4 : 0.457037240267}
2019-04-14 19:17:31.81: SIM {TimeUS : 64634969, Roll : 0.21, Pitch : -17.94, Yaw : 55.07, Alt : 49.3300018311, Lat : 49.2837532, Lng : -123.1146127, Q1 : 0.87570977211, Q2 : 0.0737593322992, Q3 : -0.137445896864, Q4 : 0.456946969032}
2019-04-14 19:17:31.91: SIM {TimeUS : 64734929, Roll : 0.21, Pitch : -17.94, Yaw : 55.06, Alt : 49.3300018311, Lat : 49.2837556, Lng : -123.1146072, Q1 : 0.875766515732, Q2 : 0.0736994221807, Q3 : -0.137433961034, Q4 : 0.456851541996}
2019-04-14 19:17:32.01: SIM {TimeUS : 64834889, Roll : 0.18, Pitch : -17.95, Yaw : 55.05, Alt : 49.3300018311, Lat : 49.283758, Lng : -123.1146018, Q1 : 0.87580794096, Q2 : 0.0735698267817, Q3 : -0.137654393911, Q4 : 0.456726610661}
2019-04-14 19:17:32.11: SIM {TimeUS : 64934849, Roll : 0.14, Pitch : -17.99, Yaw : 55.04, Alt : 49.3300018311, Lat : 49.2837604, Lng : -123.1145963, Q1 : 0.875832378864, Q2 : 0.0734028965235, Q3 : -0.138084441423, Q4 : 0.456576734781}
2019-04-14 19:17:32.21: SIM {TimeUS : 65034809, Roll : 0.12, Pitch : -17.99, Yaw : 55.03, Alt : 49.3300018311, Lat : 49.2837629, Lng : -123.1145909, Q1 : 0.875880300999, Q2 : 0.0732333511114, Q3 : -0.138233020902, Q4 : 0.456467181444}
2019-04-14 19:17:32.31: SIM {TimeUS : 65134769, Roll : 0.13, Pitch : -17.98, Yaw : 55.02, Alt : 49.3400001526, Lat : 49.2837653, Lng : -123.1145854, Q1 : 0.875934362411, Q2 : 0.0732024982572, Q3 : -0.138103887439, Q4 : 0.456407427788}
2019-04-14 19:17:32.41: SIM {TimeUS : 65234729, Roll : 0.15, Pitch : -17.97, Yaw : 55.01, Alt : 49.3400001526, Lat : 49.2837678, Lng : -123.11458, Q1 : 0.875978767872, Q2 : 0.0732894837856, Q3 : -0.137935459614, Q4 : 0.456359177828}
2019-04-14 19:17:32.52: SIM {TimeUS : 65335522, Roll : 0.16, Pitch : -17.98, Yaw : 55.0, Alt : 49.3400001526, Lat : 49.2837702, Lng : -123.1145744, Q1 : 0.876001238823, Q2 : 0.0734517648816, Q3 : -0.137948989868, Q4 : 0.456285893917}
2019-04-14 19:17:32.61: SIM {TimeUS : 65435482, Roll : 0.16, Pitch : -18.0, Yaw : 54.99, Alt : 49.3400001526, Lat : 49.2837727, Lng : -123.114569, Q1 : 0.876024127007, Q2 : 0.073485635221, Q3 : -0.138107970357, Q4 : 0.456188380718}
2019-04-14 19:17:32.71: SIM {TimeUS : 65535442, Roll : 0.14, Pitch : -18.02, Yaw : 54.97, Alt : 49.3400001526, Lat : 49.2837751, Lng : -123.1145635, Q1 : 0.876056075096, Q2 : 0.0733673945069, Q3 : -0.138371139765, Q4 : 0.456066220999}
2019-04-14 19:17:32.81: SIM {TimeUS : 65635402, Roll : 0.12, Pitch : -18.04, Yaw : 54.96, Alt : 49.3400001526, Lat : 49.2837775, Lng : -123.114558, Q1 : 0.876087009907, Q2 : 0.0733372196555, Q3 : -0.138583093882, Q4 : 0.455947309732}
2019-04-14 19:17:32.91: SIM {TimeUS : 65735362, Roll : 0.13, Pitch : -18.06, Yaw : 54.95, Alt : 49.3400001526, Lat : 49.28378, Lng : -123.1145524, Q1 : 0.8761074543, Q2 : 0.0734599232674, Q3 : -0.138733431697, Q4 : 0.455842524767}
2019-04-14 19:17:33.01: SIM {TimeUS : 65835322, Roll : 0.14, Pitch : -18.08, Yaw : 54.94, Alt : 49.3400001526, Lat : 49.2837824, Lng : -123.1145469, Q1 : 0.876126050949, Q2 : 0.0736014097929, Q3 : -0.138868555427, Q4 : 0.455742776394}
2019-04-14 19:17:33.11: SIM {TimeUS : 65935282, Roll : 0.16, Pitch : -18.09, Yaw : 54.92, Alt : 49.3400001526, Lat : 49.2837849, Lng : -123.1145415, Q1 : 0.876148402691, Q2 : 0.0737818107009, Q3 : -0.138918086886, Q4 : 0.455655544996}
2019-04-14 19:17:33.21: SIM {TimeUS : 66035242, Roll : 0.17, Pitch : -18.11, Yaw : 54.91, Alt : 49.3400001526, Lat : 49.2837873, Lng : -123.114536, Q1 : 0.876168906689, Q2 : 0.0739334747195, Q3 : -0.138972938061, Q4 : 0.455574780703}
2019-04-14 19:17:33.31: SIM {TimeUS : 66135202, Roll : 0.19, Pitch : -18.12, Yaw : 54.9, Alt : 49.3400001526, Lat : 49.2837898, Lng : -123.1145305, Q1 : 0.876186549664, Q2 : 0.0740861147642, Q3 : -0.139031767845, Q4 : 0.455498248339}
2019-04-14 19:17:33.41: SIM {TimeUS : 66235162, Roll : 0.21, Pitch : -18.13, Yaw : 54.89, Alt : 49.3400001526, Lat : 49.2837922, Lng : -123.114525, Q1 : 0.876194596291, Q2 : 0.0742873549461, Q3 : -0.139050751925, Q4 : 0.455444127321}
