2019-04-14 16:23:32.90: SIM {TimeUS : 40516287, Roll : 0.0, Pitch : 0.0, Yaw : 0.0, Alt : 30.1000003815, Lat : 49.28357, Lng : -123.11502, Q1 : 1.0, Q2 : 0.0, Q3 : 0.0, Q4 : 0.0}
2019-04-14 16:23:33.01: SIM {TimeUS : 40635406, Roll : 0.0, Pitch : 0.0, Yaw : 0.0, Alt : 30.1000003815, Lat : 49.28357, Lng : -123.11502, Q1 : 1.0, Q2 : 0.0, Q3 : 0.0, Q4 : 0.0}
2019-04-14 16:23:33.11: SIM {TimeUS : 40735366, Roll : 0.0, Pitch : 0.0, Yaw : 0.0, Alt : 30.1000003815, Lat : 49.28357, Lng : -123.11502, Q1 : 1.0, Q2 : 0.0, Q3 : 0.0, Q4 : 0.0}
2019-04-14 16:23:33.21: SIM {TimeUS : 40835326, Roll : 0.0, Pitch : 0.0, Yaw : 0.0, Alt : 30.1000003815, Lat : 49.28357, Lng : -123.11502, Q1 : 1.0, Q2 : 0.0, Q3 : 0.0, Q4 : 0.0}
2019-04-14 16:23:33.31: SIM {TimeUS : 40935286, Roll : 0.0, Pitch : 0.0, Yaw : 0.0, Alt : 30.1000003815, Lat : 49.28357, Lng : -123.11502, Q1 : 1.0, Q2 : 0.0, Q3 : 0.0, Q4 : 0.0}
2019-04-14 16:23:33.41: SIM {TimeUS : 41035246, Roll : 0.0, Pitch : 0.0, Yaw : 0.0, Alt : 30.1000003815, Lat : 49.28357, Lng : -123.11502, Q1 : 1.0, Q2 : 0.0, Q3 : 0.0, Q4 : 0.0}
2019-04-14 16:23:33.51: SIM {TimeUS : 41135206, Roll : 0.0, Pitch : 0.0, Yaw : 0.0, Alt : 30.1000003815, Lat : 49.28357, Lng : -123.11502, Q1 : 1.0, Q2 : 0.0, Q3 : 0.0, Q4 : 0.0}
2019-04-14 16:23:33.61: SIM {TimeUS : 41235166, Roll : 0.0, Pitch : 0.0, Yaw : 0.0, Alt : 30.1000003815, Lat : 49.28357, Lng : -123.11502, Q1 : 1.0, Q2 : 0.0, Q3 : 0.0, Q4 : 0.0}
2019-04-14 16:23:33.71: SIM {TimeUS : 41335126, Roll : 0.0, Pitch : 0.0, Yaw : 0.0, Alt : 30.1000003815, Lat : 49.28357, Lng : -123.11502, Q1 : 1.0, Q2 : 0.0, Q3 : 0.0, Q4 : 0.0}
2019-04-14 16:23:33.81: SIM {TimeUS : 41435086, Roll : 0.0, Pitch : 0.0, Yaw : 0.0, Alt : 30.1000003815, Lat : 49.28357, Lng : -123.11502, Q1 : 1.0, Q2 : 0.0, Q3 : 0.0, Q4 : 0.0}
2019-04-14 16:23:33.91: SIM {TimeUS : 41535046, Roll : 0.0, Pitch : 0.0, Yaw : 0.0, Alt : 30.1000003815, Lat : 49.28357, Lng : -123.11502, Q1 : 1.0, Q2 : 0.0, Q3 : 0.0, Q4 : 0.0}
2019-04-14 16:23:34.01: SIM {TimeUS : 41635006, Roll : 0.0, Pitch : 0.0, Yaw : 0.0, Alt : 30.1000003815, Lat : 49.28357, Lng : -123.11502, Q1 : 1.0, Q2 : 0.0, Q3 : 0.0, Q4 : 0.0}
2019-04-14 16:23:34.11: SIM {TimeUS : 41734966, Roll : 0.0, Pitch : 0.0, Yaw : 0.0, Alt : 30.1000003815, Lat : 49.28357, Lng : -123.11502, Q1 : 1.0, Q2 : 0.0, Q3 : 0.0, Q4 : 0.0}
2019-04-14 16:23:34.21: SIM {TimeUS : 41834926, Roll : 0.0, Pitch : 0.0, Yaw : 0.0, Alt : 30.1000003815, Lat : 49.28357, Lng : -123.11502, Q1 : 1.0, Q2 : 0.0, Q3 : 0.0, Q4 : 0.0}
2019-04-14 16:23:34.31: SIM {TimeUS : 41934886, Roll : 0.0, Pitch : 0.0, Yaw : 0.0, Alt : 30.1000003815, Lat : 49.28357, Lng : -123.11502, Q1 : 1.0, Q2 : 0.0, Q3 : 0.0, Q4 : 0.0}
2019-04-14 16:23:34.41: SIM {TimeUS : 42034846, Roll : 0.0, Pitch : 0.0, Yaw : 0.0, Alt : 30.1000003815, Lat : 49.28357, Lng : -123.11502, Q1 : 1.0, Q2 : 0.0, Q3 : 0.0, Q4 : 0.0}
2019-04-14 16:23:34.51: SIM {TimeUS : 42134806, Roll : 0.0, Pitch : 0.0, Yaw : 0.0, Alt : 30.1000003815, Lat : 49.28357, Lng : -123.11502, Q1 : 1.0, Q2 : 0.0, Q3 : 0.0, Q4 : 0.0}
2019-04-14 16:23:34.61: SIM {TimeUS : 42234766, Roll : 0.0, Pitch : 0.0, Yaw : 0.0, Alt : 30.1000003815, Lat : 49.28357, Lng : -123.11502, Q1 : 1.0, Q2 : 0.0, Q3 : 0.0, Q4 : 0.0}
2019-04-14 16:23:34.71: SIM {TimeUS : 42334726, Roll : 0.0, Pitch : 0.0, Yaw : 0.0, Alt : 30.1000003815, Lat : 49.28357, Lng : -123.11502, Q1 : 1.0, Q2 : 0.0, Q3 : 0.0, Q4 : 0.0}
2019-04-14 16:23:34.81: SIM {TimeUS : 42434686, Roll : 0.0, Pitch : 0.0, Yaw : 0.0, Alt : 30.1000003815, Lat : 49.28357, Lng : -123.11502, Q1 : 1.0, Q2 : 0.0, Q3 : 0.0, Q4 : 0.0}
2019-04-14 16:23:34.91: SIM {TimeUS : 42534646, Roll : 0.0, Pitch : 0.0, Yaw : 0.0, Alt : 30.1000003815, Lat : 49.28357, Lng : -123.11502, Q1 : 1.0, Q2 : 0.0, Q3 : 0.0, Q4 : 0.0}
2019-04-14 16:23:35.02: SIM {TimeUS : 42635439, Roll : 0.0, Pitch : 0.0, Yaw : 0.0, Alt : 30.1000003815, Lat : 49.28357, Lng : -123.11502, Q1 : 1.0, Q2 : 0.0, Q3 : 0.0, Q4 : 0.0}
2019-04-14 16:23:35.11: SIM {TimeUS : 42735399, Roll : 0.0, Pitch : 0.0, Yaw : 0.0, Alt : 30.1000003815, Lat : 49.28357, Lng : -123.11502, Q1 : 1.0, Q2 : 0.0, Q3 : 0.0, Q4 : 0.0}
2019-04-14 16:23:35.21: SIM {TimeUS : 42835359, Roll : 0.0, Pitch : 0.0, Yaw : 360.0, Alt : 30.1000003815, Lat : 49.28357, Lng : -123.11502, Q1 : 1.0, Q2 : 0.0, Q3 : 0.0, Q4 : -2.77582514266e-12}
2019-04-14 16:23:35.31: SIM {TimeUS : 42935319, Roll : 0.0, Pitch : 0.0, Yaw : 360.0, Alt : 30.1000003815, Lat : 49.28357, Lng : -123.11502, Q1 : 1.0, Q2 : 0.0, Q3 : 0.0, Q4 : -1.29439896301e-11}
2019-04-14 16:23:35.41: SIM {TimeUS : 43035279, Roll : 0.0, Pitch : 0.0, Yaw : 360.0, Alt : 30.1000003815, Lat : 49.28357, Lng : -123.11502, Q1 : 1.0, Q2 : 0.0, Q3 : 0.0, Q4 : -1.05486080315e-07}
2019-04-14 16:23:35.51: SIM {TimeUS : 43135239, Roll : 0.0, Pitch : 0.0, Yaw : 359.99, Alt : 30.1000003815, Lat : 49.28357, Lng : -123.11502, Q1 : 1.0, Q2 : 0.0, Q3 : 0.0, Q4 : -2.82765824977e-07}
2019-04-14 16:23:35.61: SIM {TimeUS : 43235199, Roll : 0.0, Pitch : 0.0, Yaw : 359.99, Alt : 30.1000003815, Lat : 49.28357, Lng : -123.11502, Q1 : 1.0, Q2 : 0.0, Q3 : 0.0, Q4 : -4.51791038358e-07}
2019-04-14 16:23:35.71: SIM {TimeUS : 43335159, Roll : 0.0, Pitch : 0.0, Yaw : 359.99, Alt : 30.1000003815, Lat : 49.28357, Lng : -123.11502, Q1 : 1.0, Q2 : 0.0, Q3 : 0.0, Q4 : -6.12165308667e-07}
2019-04-14 16:23:35.81: SIM {TimeUS : 43435119, Roll : 0.0, Pitch : 0.0, Yaw : 359.99, Alt : 30.1000003815, Lat : 49.28357, Lng : -123.11502, Q1 : 1.0, Q2 : 0.0, Q3 : 0.0, Q4 : -7.77330114943e-07}
2019-04-14 16:23:35.91: SIM {TimeUS : 43535079, Roll : 0.0, Pitch : 0.0, Yaw : 359.99, Alt : 30.1000003815, Lat : 49.28357, Lng : -123.11502, Q1 : 1.0, Q2 : 0.0, Q3 : 0.0, Q4 : -9.82871483757e-07}
2019-04-14 16:23:36.01: SIM {TimeUS : 43635039, Roll : 0.0, Pitch : 0.0, Yaw : 359.99, Alt : 30.1000003815, Lat : 49.28357, Lng : -123.11502, Q1 : 1.0, Q2 : 0.0, Q3 : 0.0, Q4 : -1.22541712244e-06}
2019-04-14 16:23:36.11: SIM {TimeUS : 43734999, Roll : 0.0, Pitch : 0.0, Yaw : 359.99, Alt : 30.1100006104, Lat : 49.28357, Lng : -123.11502, Q1 : 1.0, Q2 : 0.0, Q3 : 0.0, Q4 : -1.44543491842e-06}
2019-04-14 16:23:36.21: SIM {TimeUS : 43834959, Roll : 0.0, Pitch : 0.0, Yaw : 359.99, Alt : 30.1299991608, Lat : 49.28357, Lng : -123.11502, Q1 : 1.0, Q2 : 0.0, Q3 : 0.0, Q4 : -1.66982181327e-06}
2019-04-14 16:23:36.31: SIM {TimeUS : 43934919, Roll : 0.0, Pitch : 0.0, Yaw : 359.99, Alt : 30.1599998474, Lat : 49.28357, Lng : -123.11502, Q1 : 1.0, Q2 : 0.0, Q3 : 0.0, Q4 : -1.83690565336e-06}
2019-04-14 16:23:36.41: SIM {TimeUS : 44034879, Roll : 0.0, Pitch : 0.0, Yaw : 359.99, Alt : 30.1900005341, Lat : 49.28357, Lng : -123.11502, Q1 : 1.0, Q2 : 0.0, Q3 : 0.0, Q4 : -2.0537643195e-06}
2019-04-14 16:23:36.51: SIM {TimeUS : 44134839, Roll : -0.03, Pitch : -0.03, Yaw : 359.99, Alt : 30.2299995422, Lat : 49.28357, Lng : -123.11502, Q1 : 0.999999880791, Q2 : -0.000344887957908, Q3 : -0.000270151504083, Q4 : -5.32972035217e-06}
2019-04-14 16:23:36.61: SIM {TimeUS : 44234799, Roll : -0.3, Pitch : -0.26, Yaw : 359.99, Alt : 30.3099994659, Lat : 49.28357, Lng : -123.11502, Q1 : 0.999993801117, Q2 : -0.00267593795434, Q3 : -0.00227534561418, Q4 : -3.41548584402e-05}
2019-04-14 16:23:36.71: SIM {TimeUS : 44334759, Roll : -0.61, Pitch : -0.54, Yaw : 359.99, Alt : 30.4400005341, Lat : 49.28357, Lng : -123.11502, Q1 : 0.999974250793, Q2 : -0.00538672925904, Q3 : -0.00474026519805, Q4 : -9.29983580136e-05}
2019-04-14 16:23:36.81: SIM {TimeUS : 44434719, Roll : -0.79, Pitch : -0.74, Yaw : 359.98, Alt : 30.5900001526, Lat : 49.28357, Lng : -123.11502, Q1 : 0.999954581261, Q2 : -0.00696052284911, Q3 : -0.00650726305321, Q4 : -0.000174427477759}
2019-04-14 16:23:36.91: SIM {TimeUS : 44534679, Roll : -0.82, Pitch : -0.79, Yaw : 359.97, Alt : 30.75, Lat : 49.28357, Lng : -123.11502, Q1 : 0.999950349331, Q2 : -0.00718608032912, Q3 : -0.00689702993259, Q4 : -0.000258135172771}
2019-04-14 16:23:37.01: SIM {TimeUS : 44634639, Roll : -0.72, Pitch : -0.69, Yaw : 359.96, Alt : 30.9099998474, Lat : 49.28357, Lng : -123.1150201, Q1 : 0.999961495399, Q2 : -0.00635136151686, Q3 : -0.00604156125337, Q4 : -0.000340052589308}
2019-04-14 16:23:37.12: SIM {TimeUS : 44735432, Roll : -0.54, Pitch : -0.5, Yaw : 359.95, Alt : 31.0599994659, Lat : 49.2835701, Lng : -123.1150202, Q1 : 0.999978899956, Q2 : -0.004730891902, Q3 : -0.00443291198462, Q4 : -0.000409476342611}
2019-04-14 16:23:37.21: SIM {TimeUS : 44835392, Roll : -0.32, Pitch : -0.29, Yaw : 359.94, Alt : 31.2199993134, Lat : 49.2835701, Lng : -123.1150202, Q1 : 0.999992549419, Q2 : -0.00282136769965, Q3 : -0.00259279506281, Q4 : -0.000469668535516}
2019-04-14 16:23:37.31: SIM {TimeUS : 44935352, Roll : -0.12, Pitch : -0.11, Yaw : 359.94, Alt : 31.3899993896, Lat : 49.2835702, Lng : -123.1150203, Q1 : 0.999998748302, Q2 : -0.0010998591315, Q3 : -0.00101625500247, Q4 : -0.000517210166436}
2019-04-14 16:23:37.41: SIM {TimeUS : 45035312, Roll : 0.01, Pitch : 0.0, Yaw : 359.93, Alt : 31.5599994659, Lat : 49.2835702, Lng : -123.1150204, Q1 : 0.999999821186, Q2 : 0.000131327760755, Q3 : -1.85941607924e-05, Q4 : -0.000546176801436}
2019-04-14 16:23:37.51: SIM {TimeUS : 45135272, Roll : 0.09, Pitch : 0.04, Yaw : 359.93, Alt : 31.7299995422, Lat : 49.2835702, Lng : -123.1150205, Q1 : 0.999999403954, Q2 : 0.000806735712104, Q3 : 0.000417652452597, Q4 : -0.00055684853578}
2019-04-14 16:23:37.61: SIM {TimeUS : 45235232, Roll : 0.11, Pitch : 0.06, Yaw : 359.93, Alt : 31.9200000763, Lat : 49.2835703, Lng : -123.1150205, Q1 : 0.999999165535, Q2 : 0.000985246384516, Q3 : 0.000580236373935, Q4 : -0.000554344500415}
2019-04-14 16:23:37.71: SIM {TimeUS : 45335192, Roll : 0.09, Pitch : 0.08, Yaw : 359.93, Alt : 32.0999984741, Lat : 49.2835703, Lng : -123.1150206, Q1 : 0.99999922514, Q2 : 0.000867736991495, Q3 : 0.000705260259565, Q4 : -0.000544627953786}
2019-04-14 16:23:37.81: SIM {TimeUS : 45435152, Roll : 0.07, Pitch : 0.09, Yaw : 359.93, Alt : 32.2900009155, Lat : 49.2835703, Lng : -123.1150206, Q1 : 0.999999344349, Q2 : 0.000629995774943, Q3 : 0.000840286258608, Q4 : -0.000525546143763}
2019-04-14 16:23:37.91: SIM {TimeUS : 45535112, Roll : 0.06, Pitch : 0.11, Yaw : 359.94, Alt : 32.4799995422, Lat : 49.2835703, Lng : -123.1150207, Q1 : 0.99999922514, Q2 : 0.000550697091967, Q3 : 0.000982213998213, Q4 : -0.000505982374307}
2019-04-14 16:23:38.01: SIM {TimeUS : 45635072, Roll : 0.08, Pitch : 0.12, Yaw : 359.94, Alt : 32.6800003052, Lat : 49.2835703, Lng : -123.1150207, Q1 : 0.999998986721, Q2 : 0.000728351355065, Q3 : 0.0011291699484, Q4 : -0.000490864156745}
2019-04-14 16:23:38.11: SIM {TimeUS : 45735032, Roll : 0.11, Pitch : 0.15, Yaw : 359.94, Alt : 32.8800010681, Lat : 49.2835703, Lng : -123.1150208, Q1 : 0.999998509884, Q2 : 0.00100669218227, Q3 : 0.00131225038785, Q4 : -0.000479858601466}
2019-04-14 16:23:38.21: SIM {TimeUS : 45834992, Roll : 0.13, Pitch : 0.17, Yaw : 359.94, Alt : 33.0800018311, Lat : 49.2835704, Lng : -123.1150208, Q1 : 0.999998033047, Q2 : 0.00121387990657, Q3 : 0.00150056334678, Q4 : -0.000467336329166}
2019-04-14 16:23:38.31: SIM {TimeUS : 45934952, Roll : 0.15, Pitch : 0.16, Yaw : 359.94, Alt : 33.2799987793, Lat : 49.2835704, Lng : -123.1150208, Q1 : 0.999997913837, Q2 : 0.00134219694883, Q3 : 0.00146245094948, Q4 : -0.000455318193417}
2019-04-14 16:23:38.41: SIM {TimeUS : 46034912, Roll : 0.15, Pitch : 0.13, Yaw : 359.94, Alt : 33.4799995422, Lat : 49.2835704, Lng : -123.1150208, Q1 : 0.999998211861, Q2 : 0.00136296229903, Q3 : 0.00119962496683, Q4 : -0.000459223636426}
2019-04-14 16:23:38.51: SIM {TimeUS : 46134872, Roll : 0.15, Pitch : 0.12, Yaw : 359.94, Alt : 33.6899986267, Lat : 49.2835704, Lng : -123.1150208, Q1 : 0.999998450279, Q2 : 0.00130967178848, Q3 : 0.00107696466148, Q4 : -0.000466184690595}
2019-04-14 16:23:38.61: SIM {TimeUS : 46234832, Roll : 0.14, Pitch : 0.12, Yaw : 359.94, Alt : 33.9000015259, Lat : 49.2835704, Lng : -123.1150208, Q1 : 0.999998509884, Q2 : 0.00126730359625, Q3 : 0.00105349952355, Q4 : -0.000486611126689}
2019-04-14 16:23:38.71: SIM {TimeUS : 46334792, Roll : 0.15, Pitch : 0.13, Yaw : 359.94, Alt : 34.1100006104, Lat : 49.2835704, Lng : -123.1150209, Q1 : 0.99999833107, Q2 : 0.00131346622948, Q3 : 0.00113846163731, Q4 : -0.000513170438353}
2019-04-14 16:23:38.81: SIM {TimeUS : 46434752, Roll : 0.14, Pitch : 0.11, Yaw : 359.93, Alt : 34.3199996948, Lat : 49.2835704, Lng : -123.1150208, Q1 : 0.999998569489, Q2 : 0.00125178170856, Q3 : 0.000991912325844, Q4 : -0.000532104866579}
2019-04-14 16:23:38.91: SIM {TimeUS : 46534712, Roll : 0.12, Pitch : 0.09, Yaw : 359.93, Alt : 34.5299987793, Lat : 49.2835704, Lng : -123.1150208, Q1 : 0.999998867512, Q2 : 0.00107991311233, Q3 : 0.000843381916638, Q4 : -0.000546964991372}
2019-04-14 16:23:39.01: SIM {TimeUS : 46634672, Roll : 0.09, Pitch : 0.08, Yaw : 359.93, Alt : 34.75, Lat : 49.2835704, Lng : -123.1150208, Q1 : 0.99999922514, Q2 : 0.000845262024086, Q3 : 0.000728169456124, Q4 : -0.000563819776289}
2019-04-14 16:23:39.11: SIM {TimeUS : 46734632, Roll : 0.06, Pitch : 0.07, Yaw : 359.93, Alt : 34.9599990845, Lat : 49.2835704, Lng : -123.1150208, Q1 : 0.999999463558, Q2 : 0.000562205153983, Q3 : 0.000628936220892, Q4 : -0.000580010993872}
2019-04-14 16:23:39.22: SIM {TimeUS : 46835425, Roll : 0.04, Pitch : 0.03, Yaw : 359.93, Alt : 35.1800003052, Lat : 49.2835704, Lng : -123.1150208, Q1 : 0.999999701977, Q2 : 0.000392195332097, Q3 : 0.000310371891828, Q4 : -0.000604903150816}
2019-04-14 16:23:39.31: SIM {TimeUS : 46935385, Roll : 0.03, Pitch : 0.0, Yaw : 359.92, Alt : 35.4000015259, Lat : 49.2835704, Lng : -123.1150208, Q1 : 0.999999761581, Q2 : 0.000331611896399, Q3 : 7.20303578419e-05, Q4 : -0.000633681658655}
2019-04-14 16:23:39.41: SIM {TimeUS : 47035345, Roll : 0.02, Pitch : 0.0, Yaw : 359.92, Alt : 35.6100006104, Lat : 49.2835704, Lng : -123.1150208, Q1 : 0.999999761581, Q2 : 0.000177790236194, Q3 : -7.46820751374e-06, Q4 : -0.00066604942549}
2019-04-14 16:23:39.51: SIM {TimeUS : 47135305, Roll : 0.01, Pitch : 0.0, Yaw : 359.92, Alt : 35.8300018311, Lat : 49.2835704, Lng : -123.1150208, Q1 : 0.999999761581, Q2 : 0.000139037932968, Q3 : -1.25550138819e-06, Q4 : -0.000693270063493}
2019-04-14 16:23:39.61: SIM {TimeUS : 47235265, Roll : 0.02, Pitch : 0.0, Yaw : 359.91, Alt : 36.0499992371, Lat : 49.2835704, Lng : -123.1150207, Q1 : 0.999999701977, Q2 : 0.000188700709259, Q3 : 1.39219782795e-05, Q4 : -0.000722757191397}
2019-04-14 16:23:39.71: SIM {TimeUS : 47335225, Roll : 0.0, Pitch : -0.02, Yaw : 359.91, Alt : 36.2700004578, Lat : 49.2835704, Lng : -123.1150207, Q1 : 0.999999701977, Q2 : 5.41654444532e-05, Q3 : -0.000182051837328, Q4 : -0.000752754393034}
2019-04-14 16:23:39.81: SIM {TimeUS : 47435185, Roll : -0.02, Pitch : -0.05, Yaw : 359.91, Alt : 36.5, Lat : 49.2835704, Lng : -123.1150207, Q1 : 0.999999582767, Q2 : -0.000253490288742, Q3 : -0.000512339174747, Q4 : -0.000780422473326}
2019-04-14 16:23:39.91: SIM {TimeUS : 47535145, Roll : -0.06, Pitch : -0.07, Yaw : 359.9, Alt : 36.7200012207, Lat : 49.2835704, Lng : -123.1150207, Q1 : 0.999999284744, Q2 : -0.000602521991823, Q3 : -0.00068428053055, Q4 : -0.000801415415481}
2019-04-14 16:23:40.01: SIM {TimeUS : 47635105, Roll : -0.1, Pitch : -0.09, Yaw : 359.9, Alt : 36.9399986267, Lat : 49.2835704, Lng : -123.1150207, Q1 : 0.999998927116, Q2 : -0.000917729048524, Q3 : -0.00082078151172, Q4 : -0.000822888745461}
2019-04-14 16:23:40.11: SIM {TimeUS : 47735065, Roll : -0.1, Pitch : -0.09, Yaw : 359.9, Alt : 37.1699981689, Lat : 49.2835704, Lng : -123.1150207, Q1 : 0.999998867512, Q2 : -0.000932539114729, Q3 : -0.000806876632851, Q4 : -0.000848015537485}
2019-04-14 16:23:40.21: SIM {TimeUS : 47835025, Roll : -0.09, Pitch : -0.07, Yaw : 359.89, Alt : 37.3899993896, Lat : 49.2835704, Lng : -123.1150207, Q1 : 0.999999046326, Q2 : -0.000810939643998, Q3 : -0.000659057230223, Q4 : -0.000876234902535}
2019-04-14 16:23:40.31: SIM {TimeUS : 47934985, Roll : -0.07, Pitch : -0.04, Yaw : 359.89, Alt : 37.6199989319, Lat : 49.2835704, Lng : -123.1150207, Q1 : 0.999999284744, Q2 : -0.000625539221801, Q3 : -0.000429256440839, Q4 : -0.000900860468391}
2019-04-14 16:23:40.41: SIM {TimeUS : 48034945, Roll : -0.05, Pitch : -0.03, Yaw : 359.89, Alt : 37.8400001526, Lat : 49.2835704, Lng : -123.1150207, Q1 : 0.999999463558, Q2 : -0.000442044110969, Q3 : -0.000269573676633, Q4 : -0.000921184604522}
2019-04-14 16:23:40.51: SIM {TimeUS : 48134905, Roll : -0.05, Pitch : -0.03, Yaw : 359.89, Alt : 38.0699996948, Lat : 49.2835704, Lng : -123.1150207, Q1 : 0.999999403954, Q2 : -0.000457625021227, Q3 : -0.000280191190541, Q4 : -0.000936321448535}
2019-04-14 16:23:40.61: SIM {TimeUS : 48234865, Roll : -0.06, Pitch : -0.02, Yaw : 359.89, Alt : 38.2999992371, Lat : 49.2835704, Lng : -123.1150206, Q1 : 0.999999344349, Q2 : -0.000572770019062, Q3 : -0.00018991252, Q4 : -0.000951374298893}
2019-04-14 16:23:40.71: SIM {TimeUS : 48334825, Roll : -0.09, Pitch : 0.0, Yaw : 359.88, Alt : 38.5299987793, Lat : 49.2835704, Lng : -123.1150206, Q1 : 0.99999922514, Q2 : -0.000800919195171, Q3 : -5.26170188095e-05, Q4 : -0.00096740067238}
2019-04-14 16:23:40.81: SIM {TimeUS : 48434785, Roll : -0.09, Pitch : 0.0, Yaw : 359.88, Alt : 38.75, Lat : 49.2835704, Lng : -123.1150206, Q1 : 0.999999165535, Q2 : -0.000842173758429, Q3 : 6.70840236126e-05, Q4 : -0.000976934446953}
2019-04-14 16:23:40.91: SIM {TimeUS : 48534745, Roll : -0.07, Pitch : 0.03, Yaw : 359.88, Alt : 38.9799995422, Lat : 49.2835706, Lng : -123.1150207, Q1 : 0.999999284744, Q2 : -0.000629035348538, Q3 : 0.000273864861811, Q4 : -0.000991782639176}
2019-04-14 16:23:41.01: SIM {TimeUS : 48634705, Roll : -0.04, Pitch : 0.02, Yaw : 359.88, Alt : 39.2099990845, Lat : 49.2835706, Lng : -123.1150207, Q1 : 0.999999403954, Q2 : -0.000375050352886, Q3 : 0.000242087669903, Q4 : -0.0010027148528}
2019-04-14 16:23:41.11: SIM {TimeUS : 48734665, Roll : -0.01, Pitch : 0.02, Yaw : 359.88, Alt : 39.4399986267, Lat : 49.2835706, Lng : -123.1150207, Q1 : 0.999999463558, Q2 : -9.69625907601e-05, Q3 : 0.000183526135515, Q4 : -0.00101482367609}
2019-04-14 16:23:41.21: SIM {TimeUS : 48834625, Roll : 0.02, Pitch : 0.03, Yaw : 359.88, Alt : 39.6699981689, Lat : 49.2835706, Lng : -123.1150207, Q1 : 0.999999403954, Q2 : 0.000229091674555, Q3 : 0.000339831516612, Q4 : -0.00102579698432}
2019-04-14 16:23:41.32: SIM {TimeUS : 48935418, Roll : 0.06, Pitch : 0.07, Yaw : 359.88, Alt : 39.9099998474, Lat : 49.2835706, Lng : -123.1150207, Q1 : 0.99999910593, Q2 : 0.000574989651795, Q3 : 0.000651711248793, Q4 : -0.00104190642014}
2019-04-14 16:23:41.41: SIM {TimeUS : 49035378, Roll : 0.09, Pitch : 0.1, Yaw : 359.87, Alt : 40.1399993896, Lat : 49.2835706, Lng : -123.1150207, Q1 : 0.999998629093, Q2 : 0.000832215999253, Q3 : 0.000958732503932, Q4 : -0.00106184103061}
2019-04-14 16:23:41.51: SIM {TimeUS : 49135338, Roll : 0.08, Pitch : 0.14, Yaw : 359.87, Alt : 40.3699989319, Lat : 49.2835706, Lng : -123.1150207, Q1 : 0.999998390675, Q2 : 0.000739690032788, Q3 : 0.00125454657245, Q4 : -0.00107365229633}
2019-04-14 16:23:41.61: SIM {TimeUS : 49235298, Roll : 0.03, Pitch : 0.17, Yaw : 359.87, Alt : 40.5999984741, Lat : 49.2835706, Lng : -123.1150207, Q1 : 0.999998211861, Q2 : 0.000278154999251, Q3 : 0.00152245583013, Q4 : -0.00110029277857}
2019-04-14 16:23:41.71: SIM {TimeUS : 49335258, Roll : -0.01, Pitch : 0.19, Yaw : 359.87, Alt : 40.8300018311, Lat : 49.2835706, Lng : -123.1150207, Q1 : 0.999997973442, Q2 : -0.000139577736263, Q3 : 0.00166785053443, Q4 : -0.00112035823986}
2019-04-14 16:23:41.81: SIM {TimeUS : 49435218, Roll : -0.03, Pitch : 0.17, Yaw : 359.86, Alt : 41.0600013733, Lat : 49.2835706, Lng : -123.1150207, Q1 : 0.999998211861, Q2 : -0.000323550833855, Q3 : 0.00150411110371, Q4 : -0.00114020192996}
2019-04-14 16:23:41.91: SIM {TimeUS : 49535178, Roll : -0.03, Pitch : 0.14, Yaw : 359.86, Alt : 41.2999992371, Lat : 49.2835706, Lng : -123.1150207, Q1 : 0.999998509884, Q2 : -0.000336035242071, Q3 : 0.00122252153233, Q4 : -0.0011675968999}
2019-04-14 16:23:42.01: SIM {TimeUS : 49635138, Roll : -0.02, Pitch : 0.13, Yaw : 359.86, Alt : 41.5299987793, Lat : 49.2835706, Lng : -123.1150207, Q1 : 0.999998629093, Q2 : -0.000197097018827, Q3 : 0.00114473153371, Q4 : -0.00120294024237}
2019-04-14 16:23:42.11: SIM {TimeUS : 49735098, Roll : 0.02, Pitch : 0.14, Yaw : 359.85, Alt : 41.7599983215, Lat : 49.2835706, Lng : -123.1150207, Q1 : 0.999998450279, Q2 : 0.000179065958946, Q3 : 0.00122231733985, Q4 : -0.0012444955064}
2019-04-14 16:23:42.21: SIM {TimeUS : 49835058, Roll : 0.06, Pitch : 0.14, Yaw : 359.85, Alt : 42.0, Lat : 49.2835706, Lng : -123.1150207, Q1 : 0.999998211861, Q2 : 0.000610207964201, Q3 : 0.0012509272201, Q4 : -0.0012864661403}
2019-04-14 16:23:42.31: SIM {TimeUS : 49935018, Roll : 0.1, Pitch : 0.11, Yaw : 359.84, Alt : 42.2299995422, Lat : 49.2835706, Lng : -123.1150207, Q1 : 0.999998211861, Q2 : 0.000903419509996, Q3 : 0.00101809552871, Q4 : -0.00132762687281}
2019-04-14 16:23:42.41: SIM {TimeUS : 50034978, Roll : 0.1, Pitch : 0.07, Yaw : 359.84, Alt : 42.4700012207, Lat : 49.2835706, Lng : -123.1150207, Q1 : 0.999998450279, Q2 : 0.000881532614585, Q3 : 0.000660961843096, Q4 : -0.00136440410279}
2019-04-14 16:23:42.51: SIM {TimeUS : 50134938, Roll : 0.05, Pitch : 0.05, Yaw : 359.84, Alt : 42.7000007629, Lat : 49.2835706, Lng : -123.1150207, Q1 : 0.999998807907, Q2 : 0.000520019326359, Q3 : 0.000447838625405, Q4 : -0.00138785573654}
2019-04-14 16:23:42.61: SIM {TimeUS : 50234898, Roll : 0.0, Pitch : 0.04, Yaw : 359.83, Alt : 42.9399986267, Lat : 49.2835706, Lng : -123.1150207, Q1 : 0.999998927116, Q2 : 2.97058923024e-05, Q3 : 0.000426149694249, Q4 : -0.00140580034349}
2019-04-14 16:23:42.71: SIM {TimeUS : 50334858, Roll : -0.03, Pitch : 0.07, Yaw : 359.83, Alt : 43.1699981689, Lat : 49.2835704, Lng : -123.1150207, Q1 : 0.999998748302, Q2 : -0.000319107115502, Q3 : 0.000637462944724, Q4 : -0.00141759135295}
2019-04-14 16:23:42.81: SIM {TimeUS : 50434818, Roll : -0.05, Pitch : 0.08, Yaw : 359.83, Alt : 43.4099998474, Lat : 49.2835704, Lng : -123.1150207, Q1 : 0.999998569489, Q2 : -0.000481238821521, Q3 : 0.000773913983721, Q4 : -0.00142810610123}
2019-04-14 16:23:42.91: SIM {TimeUS : 50534778, Roll : -0.04, Pitch : 0.07, Yaw : 359.83, Alt : 43.6399993896, Lat : 49.2835704, Lng : -123.1150207, Q1 : 0.999998629093, Q2 : -0.000430200772826, Q3 : 0.000678168435115, Q4 : -0.00143856613431}
2019-04-14 16:23:43.01: SIM {TimeUS : 50634738, Roll : -0.05, Pitch : 0.05, Yaw : 359.83, Alt : 43.8800010681, Lat : 49.2835704, Lng : -123.1150206, Q1 : 0.999998688698, Q2 : -0.000436719448771, Q3 : 0.000507345946971, Q4 : -0.00145213562064}
2019-04-14 16:23:43.11: SIM {TimeUS : 50734698, Roll : -0.04, Pitch : 0.04, Yaw : 359.83, Alt : 44.1100006104, Lat : 49.2835704, Lng : -123.1150206, Q1 : 0.999998807907, Q2 : -0.000380823941668, Q3 : 0.000369788554963, Q4 : -0.00147118023597}
2019-04-14 16:23:43.21: SIM {TimeUS : 50834658, Roll : -0.02, Pitch : 0.03, Yaw : 359.82, Alt : 44.3499984741, Lat : 49.2835704, Lng : -123.1150206, Q1 : 0.999998807907, Q2 : -0.00023099927057, Q3 : 0.000330735580064, Q4 : -0.0014966907911}
2019-04-14 16:23:43.31: SIM {TimeUS : 50934618, Roll : -0.01, Pitch : 0.03, Yaw : 359.82, Alt : 44.5800018311, Lat : 49.2835704, Lng : -123.1150206, Q1 : 0.999998748302, Q2 : -0.000102028403489, Q3 : 0.000331067421939, Q4 : -0.00152301345952}
2019-04-14 16:23:43.41: SIM {TimeUS : 51035411, Roll : -0.01, Pitch : 0.01, Yaw : 359.82, Alt : 44.8199996948, Lat : 49.2835704, Lng : -123.1150206, Q1 : 0.999998748302, Q2 : -0.000130229993374, Q3 : 0.000143217708683, Q4 : -0.00155435479246}
2019-04-14 16:23:43.51: SIM {TimeUS : 51135371, Roll : -0.02, Pitch : -0.02, Yaw : 359.81, Alt : 45.0600013733, Lat : 49.2835704, Lng : -123.1150206, Q1 : 0.999998688698, Q2 : -0.000231331869145, Q3 : -0.000185266442713, Q4 : -0.00159042025916}
2019-04-14 16:23:43.61: SIM {TimeUS : 51235331, Roll : -0.03, Pitch : -0.04, Yaw : 359.81, Alt : 45.2900009155, Lat : 49.2835703, Lng : -123.1150206, Q1 : 0.999998569489, Q2 : -0.000303403707221, Q3 : -0.000401444674935, Q4 : -0.00162806268781}
2019-04-14 16:23:43.71: SIM {TimeUS : 51335291, Roll : -0.03, Pitch : -0.05, Yaw : 359.8, Alt : 45.5299987793, Lat : 49.2835703, Lng : -123.1150206, Q1 : 0.999998450279, Q2 : -0.000286438298644, Q3 : -0.000488726480398, Q4 : -0.00166510685813}
2019-04-14 16:23:43.81: SIM {TimeUS : 51435251, Roll : -0.04, Pitch : -0.05, Yaw : 359.8, Alt : 45.7599983215, Lat : 49.2835703, Lng : -123.1150206, Q1 : 0.999998390675, Q2 : -0.000350055081071, Q3 : -0.000453338900115, Q4 : -0.00169966823887}
2019-04-14 16:23:43.91: SIM {TimeUS : 51535211, Roll : -0.06, Pitch : -0.03, Yaw : 359.8, Alt : 46.0, Lat : 49.2835703, Lng : -123.1150206, Q1 : 0.999998271465, Q2 : -0.000556523154955, Q3 : -0.000328004156472, Q4 : -0.00173261901364}
2019-04-14 16:23:44.01: SIM {TimeUS : 51635171, Roll : -0.1, Pitch : -0.02, Yaw : 359.79, Alt : 46.2200012207, Lat : 49.2835703, Lng : -123.1150206, Q1 : 0.999998033047, Q2 : -0.000895978824701, Q3 : -0.000223651353735, Q4 : -0.00176198617555}
2019-04-14 16:23:44.11: SIM {TimeUS : 51735131, Roll : -0.13, Pitch : -0.02, Yaw : 359.79, Alt : 46.4500007629, Lat : 49.2835703, Lng : -123.1150206, Q1 : 0.999997735023, Q2 : -0.00113485998008, Q3 : -0.000187951183761, Q4 : -0.00178965448868}
2019-04-14 16:23:44.21: SIM {TimeUS : 51835091, Roll : -0.13, Pitch : -0.01, Yaw : 359.79, Alt : 46.6699981689, Lat : 49.2835703, Lng : -123.1150206, Q1 : 0.999997675419, Q2 : -0.0011538277613, Q3 : -0.000118784460938, Q4 : -0.00181378936395}
2019-04-14 16:23:44.31: SIM {TimeUS : 51935051, Roll : -0.11, Pitch : 0.0, Yaw : 359.79, Alt : 46.8800010681, Lat : 49.2835703, Lng : -123.1150206, Q1 : 0.999997854233, Q2 : -0.000985306338407, Q3 : 4.30412073911e-05, Q4 : -0.0018322232645}
2019-04-14 16:23:44.41: SIM {TimeUS : 52035011, Roll : -0.08, Pitch : 0.01, Yaw : 359.78, Alt : 47.0900001526, Lat : 49.2835703, Lng : -123.1150206, Q1 : 0.999998033047, Q2 : -0.00071547034895, Q3 : 0.000114314178063, Q4 : -0.00184910569806}
2019-04-14 16:23:44.51: SIM {TimeUS : 52134971, Roll : -0.05, Pitch : 0.0, Yaw : 359.78, Alt : 47.2900009155, Lat : 49.2835703, Lng : -123.1150206, Q1 : 0.999998152256, Q2 : -0.000474016938824, Q3 : 6.8867499067e-05, Q4 : -0.0018623668002}
2019-04-14 16:23:44.61: SIM {TimeUS : 52234931, Roll : -0.04, Pitch : 0.0, Yaw : 359.78, Alt : 47.4799995422, Lat : 49.2835703, Lng : -123.1150206, Q1 : 0.999998152256, Q2 : -0.000353445473593, Q3 : -8.04117516964e-05, Q4 : -0.00187540322077}
2019-04-14 16:23:44.71: SIM {TimeUS : 52334891, Roll : -0.02, Pitch : -0.04, Yaw : 359.78, Alt : 47.6699981689, Lat : 49.2835703, Lng : -123.1150206, Q1 : 0.999998152256, Q2 : -0.000254470680375, Q3 : -0.0003513917909, Q4 : -0.00189088704064}
2019-04-14 16:23:44.81: SIM {TimeUS : 52434851, Roll : -0.02, Pitch : -0.07, Yaw : 359.78, Alt : 47.8400001526, Lat : 49.2835703, Lng : -123.1150206, Q1 : 0.999997973442, Q2 : -0.000180681978236, Q3 : -0.000636930228211, Q4 : -0.00191136274952}
2019-04-14 16:23:44.91: SIM {TimeUS : 52534811, Roll : -0.01, Pitch : -0.1, Yaw : 359.77, Alt : 48.0, Lat : 49.2835703, Lng : -123.1150206, Q1 : 0.999997735023, Q2 : -0.000158024326083, Q3 : -0.000912004732527, Q4 : -0.00193146255333}
2019-04-14 16:23:45.01: SIM {TimeUS : 52634771, Roll : -0.02, Pitch : -0.12, Yaw : 359.77, Alt : 48.1500015259, Lat : 49.2835703, Lng : -123.1150206, Q1 : 0.999997437, Q2 : -0.000207842895179, Q3 : -0.00112213718239, Q4 : -0.00195210275706}
2019-04-14 16:23:45.11: SIM {TimeUS : 52734731, Roll : 0.0, Pitch : -0.12, Yaw : 359.77, Alt : 48.2799987793, Lat : 49.2835703, Lng : -123.1150206, Q1 : 0.999997437, Q2 : -1.33708999783e-05, Q3 : -0.00110221770592, Q4 : -0.00197299709544}
2019-04-14 16:23:45.21: SIM {TimeUS : 52834691, Roll : 0.03, Pitch : -0.1, Yaw : 359.77, Alt : 48.4099998474, Lat : 49.2835703, Lng : -123.1150206, Q1 : 0.99999755621, Q2 : 0.000266838324023, Q3 : -0.000919153273571, Q4 : -0.00199453369714}
2019-04-14 16:23:45.31: SIM {TimeUS : 52934651, Roll : 0.05, Pitch : -0.07, Yaw : 359.76, Alt : 48.5200004578, Lat : 49.2835703, Lng : -123.1150207, Q1 : 0.999997615814, Q2 : 0.000486348348204, Q3 : -0.00066472630715, Q4 : -0.00202007009648}
2019-04-14 16:23:45.42: SIM {TimeUS : 53035444, Roll : 0.06, Pitch : -0.04, Yaw : 359.76, Alt : 48.6199989319, Lat : 49.2835703, Lng : -123.1150207, Q1 : 0.999997675419, Q2 : 0.00057531701168, Q3 : -0.00042443847633, Q4 : -0.00205008033663}
2019-04-14 16:23:45.51: SIM {TimeUS : 53135404, Roll : 0.07, Pitch : -0.03, Yaw : 359.76, Alt : 48.7099990845, Lat : 49.2835703, Lng : -123.1150207, Q1 : 0.999997615814, Q2 : 0.000618430611212, Q3 : -0.000295069126878, Q4 : -0.00208172295243}
2019-04-14 16:23:45.61: SIM {TimeUS : 53235364, Roll : 0.06, Pitch : -0.03, Yaw : 359.75, Alt : 48.7799987793, Lat : 49.2835703, Lng : -123.1150207, Q1 : 0.99999755621, Q2 : 0.000576169695705, Q3 : -0.000321642233757, Q4 : -0.00211389223114}
2019-04-14 16:23:45.71: SIM {TimeUS : 53335324, Roll : 0.04, Pitch : -0.03, Yaw : 359.75, Alt : 48.8499984741, Lat : 49.2835703, Lng : -123.1150207, Q1 : 0.99999755621, Q2 : 0.000356920587365, Q3 : -0.00032898579957, Q4 : -0.00214382749982}
2019-04-14 16:23:45.81: SIM {TimeUS : 53435284, Roll : 0.02, Pitch : -0.03, Yaw : 359.75, Alt : 48.9099998474, Lat : 49.2835703, Lng : -123.1150207, Q1 : 0.99999755621, Q2 : 0.000187582802027, Q3 : -0.000263731373707, Q4 : -0.00217661238275}
2019-04-14 16:23:45.91: SIM {TimeUS : 53535244, Roll : 0.0, Pitch : -0.02, Yaw : 359.74, Alt : 48.9599990845, Lat : 49.2835704, Lng : -123.1150207, Q1 : 0.99999755621, Q2 : 3.69142035197e-05, Q3 : -0.000205740376259, Q4 : -0.00220953812823}
2019-04-14 16:23:46.01: SIM {TimeUS : 53635204, Roll : 0.0, Pitch : -0.01, Yaw : 359.74, Alt : 49.0, Lat : 49.2835704, Lng : -123.1150207, Q1 : 0.999997496605, Q2 : 6.66296837153e-05, Q3 : -0.000127869134303, Q4 : -0.00223778584041}
2019-04-14 16:23:46.11: SIM {TimeUS : 53735164, Roll : 0.13, Pitch : -0.06, Yaw : 359.74, Alt : 49.0299987793, Lat : 49.2835704, Lng : -123.1150207, Q1 : 0.99999666214, Q2 : 0.00115763617214, Q3 : -0.000553467136342, Q4 : -0.0022589424625}
2019-04-14 16:23:46.21: SIM {TimeUS : 53835124, Roll : 0.46, Pitch : -0.25, Yaw : 359.73, Alt : 49.0699996948, Lat : 49.2835704, Lng : -123.1150207, Q1 : 0.999986827374, Q2 : 0.00403461232781, Q3 : -0.00220016483217, Q4 : -0.00228135497309}
2019-04-14 16:23:46.31: SIM {TimeUS : 53935084, Roll : 1.0, Pitch : -0.63, Yaw : 359.73, Alt : 49.0900001526, Lat : 49.2835704, Lng : -123.1150207, Q1 : 0.999943614006, Q2 : 0.00876671914011, Q3 : -0.00553545868024, Q4 : -0.00230249552988}
2019-04-14 16:23:46.41: SIM {TimeUS : 54035044, Roll : 1.71, Pitch : -1.14, Yaw : 359.71, Alt : 49.1100006104, Lat : 49.2835704, Lng : -123.1150207, Q1 : 0.999834775925, Q2 : 0.0149591825902, Q3 : -0.0100648384541, Q4 : -0.00230753282085}
2019-04-14 16:23:46.51: SIM {TimeUS : 54135004, Roll : 2.53, Pitch : -1.76, Yaw : 359.7, Alt : 49.1300010681, Lat : 49.2835704, Lng : -123.1150206, Q1 : 0.999635517597, Q2 : 0.0220445729792, Q3 : -0.0154192298651, Q4 : -0.00227117794566}
2019-04-14 16:23:46.61: SIM {TimeUS : 54234964, Roll : 3.35, Pitch : -2.36, Yaw : 359.68, Alt : 49.1500015259, Lat : 49.2835706, Lng : -123.1150205, Q1 : 0.999356031418, Q2 : 0.0291991885751, Q3 : -0.0207420382649, Q4 : -0.0021754251793}
2019-04-14 16:23:46.71: SIM {TimeUS : 54334924, Roll : 4.06, Pitch : -2.87, Yaw : 359.66, Alt : 49.1699981689, Lat : 49.2835707, Lng : -123.1150203, Q1 : 0.999054133892, Q2 : 0.0354107432067, Q3 : -0.0251562539488, Q4 : -0.0020102604758}
2019-04-14 16:23:46.81: SIM {TimeUS : 54434884, Roll : 4.6, Pitch : -3.25, Yaw : 359.66, Alt : 49.1800003052, Lat : 49.2835708, Lng : -123.11502, Q1 : 0.998788058758, Q2 : 0.0401113964617, Q3 : -0.028467360884, Q4 : -0.00178668252192}
2019-04-14 16:23:46.91: SIM {TimeUS : 54534844, Roll : 5.0, Pitch : -3.52, Yaw : 359.67, Alt : 49.1899986267, Lat : 49.2835709, Lng : -123.1150198, Q1 : 0.998574793339, Q2 : 0.04353967309, Q3 : -0.0308276675642, Q4 : -0.00153411354404}
2019-04-14 16:23:47.01: SIM {TimeUS : 54634804, Roll : 5.3, Pitch : -3.73, Yaw : 359.68, Alt : 49.2000007629, Lat : 49.2835712, Lng : -123.1150193, Q1 : 0.998400092125, Q2 : 0.0461359284818, Q3 : -0.0326680168509, Q4 : -0.00125987723004}
2019-04-14 16:23:47.11: SIM {TimeUS : 54734764, Roll : 5.57, Pitch : -3.93, Yaw : 359.69, Alt : 49.2099990845, Lat : 49.2835714, Lng : -123.1150188, Q1 : 0.998227715492, Q2 : 0.0485311336815, Q3 : -0.0344281829894, Q4 : -0.000988647108898}
2019-04-14 16:23:47.21: SIM {TimeUS : 54834724, Roll : 5.88, Pitch : -4.16, Yaw : 359.7, Alt : 49.2200012207, Lat : 49.2835716, Lng : -123.1150181, Q1 : 0.998021960258, Q2 : 0.0512286573648, Q3 : -0.0364323146641, Q4 : -0.000724145560525}
2019-04-14 16:23:47.31: SIM {TimeUS : 54934684, Roll : 6.21, Pitch : -4.39, Yaw : 359.7, Alt : 49.2200012207, Lat : 49.2835721, Lng : -123.1150174, Q1 : 0.997798860073, Q2 : 0.0540736541152, Q3 : -0.0383836701512, Q4 : -0.000457960937638}
2019-04-14 16:23:47.41: SIM {TimeUS : 55034644, Roll : 6.48, Pitch : -4.56, Yaw : 359.71, Alt : 49.2299995422, Lat : 49.2835724, Lng : -123.1150166, Q1 : 0.997609496117, Q2 : 0.056414630264, Q3 : -0.0399082712829, Q4 : -0.000215649633901}
2019-04-14 16:23:47.52: SIM {TimeUS : 55135437, Roll : 6.68, Pitch : -4.7, Yaw : 359.72, Alt : 49.2400016785, Lat : 49.2835728, Lng : -123.1150156, Q1 : 0.997458040714, Q2 : 0.058167424053, Q3 : -0.0411590822041, Q4 : -2.64881382463e-05}
2019-04-14 16:23:47.61: SIM {TimeUS : 55235397, Roll : 6.8, Pitch : -4.81, Yaw : 359.72, Alt : 49.2400016785, Lat : 49.2835733, Lng : -123.1150146, Q1 : 0.997358381748, Q2 : 0.0592404529452, Q3 : -0.0420323051512, Q4 : 0.000121029363072}
2019-04-14 16:23:47.71: SIM {TimeUS : 55335357, Roll : 6.9, Pitch : -4.87, Yaw : 359.73, Alt : 49.25, Lat : 49.2835738, Lng : -123.1150135, Q1 : 0.997284412384, Q2 : 0.060055308044, Q3 : -0.0426282063127, Q4 : 0.000231418438489}
2019-04-14 16:23:47.81: SIM {TimeUS : 55435317, Roll : 6.99, Pitch : -4.94, Yaw : 359.73, Alt : 49.25, Lat : 49.2835744, Lng : -123.1150123, Q1 : 0.997213125229, Q2 : 0.0608532167971, Q3 : -0.0431599244475, Q4 : 0.000288044160698}
2019-04-14 16:23:47.91: SIM {TimeUS : 55535277, Roll : 7.17, Pitch : -4.98, Yaw : 359.74, Alt : 49.25, Lat : 49.283575, Lng : -123.115011, Q1 : 0.997097730637, Q2 : 0.0624601431191, Q3 : -0.043526109308, Q4 : 0.000523839669768}
2019-04-14 16:23:48.01: SIM {TimeUS : 55635237, Roll : 7.59, Pitch : -4.86, Yaw : 0.09, Alt : 49.2599983215, Lat : 49.2835756, Lng : -123.1150096, Q1 : 0.996898949146, Q2 : 0.0662333890796, Q3 : -0.0423385202885, Q4 : 0.00361722148955}
2019-04-14 16:23:48.11: SIM {TimeUS : 55735197, Roll : 8.24, Pitch : -4.67, Yaw : 1.41, Alt : 49.2599983215, Lat : 49.2835763, Lng : -123.1150082, Q1 : 0.99647372961, Q2 : 0.0722847729921, Q3 : -0.0397755131125, Q4 : 0.0152610139921}
2019-04-14 16:23:48.21: SIM {TimeUS : 55835157, Roll : 8.84, Pitch : -4.73, Yaw : 4.25, Alt : 49.2599983215, Lat : 49.283577, Lng : -123.1150066, Q1 : 0.995365858078, Q2 : 0.078533731401, Q3 : -0.03832744807, Q4 : 0.0401282608509}
2019-04-14 16:23:48.31: SIM {TimeUS : 55935117, Roll : 9.14, Pitch : -5.28, Yaw : 8.65, Alt : 49.2599983215, Lat : 49.2835776, Lng : -123.115005, Q1 : 0.992641806602, Q2 : 0.0828731656075, Q3 : -0.0398338958621, Q4 : 0.0787882953882}
2019-04-14 16:23:48.41: SIM {TimeUS : 56035077, Roll : 8.93, Pitch : -6.34, Yaw : 14.44, Alt : 49.2599983215, Lat : 49.2835783, Lng : -123.1150032, Q1 : 0.986999630928, Q2 : 0.08405148983, Q3 : -0.0449319779873, Q4 : 0.129414722323}
2019-04-14 16:23:48.51: SIM {TimeUS : 56135037, Roll : 8.1, Pitch : -7.79, Yaw : 21.37, Alt : 49.2700004578, Lat : 49.2835791, Lng : -123.1150013, Q1 : 0.977041244507, Q2 : 0.0818861946464, Q3 : -0.0535031929612, Q4 : 0.189268290997}
2019-04-14 16:23:48.61: SIM {TimeUS : 56234997, Roll : 6.68, Pitch : -9.42, Yaw : 29.18, Alt : 49.2700004578, Lat : 49.2835799, Lng : -123.1149992, Q1 : 0.961616635323, Q2 : 0.0768663138151, Q3 : -0.0647438541055, Q4 : 0.255329668522}
2019-04-14 16:23:48.71: SIM {TimeUS : 56334957, Roll : 4.7, Pitch : -10.98, Yaw : 37.64, Alt : 49.2700004578, Lat : 49.2835806, Lng : -123.1149971, Q1 : 0.940122127533, Q2 : 0.0695680454373, Q3 : -0.0773435682058, Q4 : 0.324574679136}
2019-04-14 16:23:48.81: SIM {TimeUS : 56434917, Roll : 2.14, Pitch : -12.24, Yaw : 46.4, Alt : 49.2700004578, Lat : 49.2835814, Lng : -123.1149948, Q1 : 0.912943303585, Q2 : 0.059134233743, Q3 : -0.0906633809209, Q4 : 0.393468946218}
2019-04-14 16:23:48.91: SIM {TimeUS : 56534877, Roll : -0.95, Pitch : -12.99, Yaw : 54.75, Alt : 49.2700004578, Lat : 49.2835823, Lng : -123.1149925, Q1 : 0.882680237293, Q2 : 0.0446596033871, Q3 : -0.1043324247, Q4 : 0.456065654755}
2019-04-14 16:23:49.01: SIM {TimeUS : 56634837, Roll : -4.06, Pitch : -13.18, Yaw : 61.81, Alt : 49.2700004578, Lat : 49.2835832, Lng : -123.1149901, Q1 : 0.853878855705, Q2 : 0.028684373945, Q3 : -0.116579376161, Q4 : 0.506435930729}
2019-04-14 16:23:49.11: SIM {TimeUS : 56734797, Roll : -6.53, Pitch : -13.0, Yaw : 66.93, Alt : 49.2700004578, Lat : 49.2835843, Lng : -123.1149876, Q1 : 0.831038951874, Q2 : 0.0150750167668, Q3 : -0.125565364957, Q4 : 0.541646003723}
2019-04-14 16:23:49.21: SIM {TimeUS : 56834757, Roll : -7.99, Pitch : -12.73, Yaw : 69.95, Alt : 49.2700004578, Lat : 49.2835854, Lng : -123.114985, Q1 : 0.816771566868, Q2 : 0.00664270948619, Q3 : -0.130367308855, Q4 : 0.562000453472}
2019-04-14 16:23:49.31: SIM {TimeUS : 56934717, Roll : -8.39, Pitch : -12.58, Yaw : 71.06, Alt : 49.2700004578, Lat : 49.2835867, Lng : -123.1149824, Q1 : 0.811384499073, Q2 : 0.00433674501255, Q3 : -0.131267383695, Q4 : 0.56956589222}
2019-04-14 16:23:49.41: SIM {TimeUS : 57034677, Roll : -7.87, Pitch : -12.69, Yaw : 70.6, Alt : 49.2700004578, Lat : 49.2835879, Lng : -123.1149797, Q1 : 0.813592970371, Q2 : 0.00802763924003, Q3 : -0.129450887442, Q4 : 0.566784322262}
2019-04-14 16:23:49.51: SIM {TimeUS : 57134637, Roll : -6.66, Pitch : -13.07, Yaw : 68.94, Alt : 49.2700004578, Lat : 49.2835893, Lng : -123.114977, Q1 : 0.821400463581, Q2 : 0.0167246256024, Q3 : -0.126414388418, Q4 : 0.555914580822}
2019-04-14 16:23:49.62: SIM {TimeUS : 57235430, Roll : -4.99, Pitch : -13.69, Yaw : 66.4, Alt : 49.2799987793, Lat : 49.283591, Lng : -123.1149742, Q1 : 0.8328140378, Q2 : 0.0289716590196, Q3 : -0.123345717788, Q4 : 0.538857340813}
2019-04-14 16:23:49.71: SIM {TimeUS : 57335390, Roll : -3.12, Pitch : -14.39, Yaw : 63.35, Alt : 49.2799987793, Lat : 49.2835925, Lng : -123.1149713, Q1 : 0.845777153969, Q2 : 0.0427909865975, Q3 : -0.120787337422, Q4 : 0.517919301987}
2019-04-14 16:23:49.81: SIM {TimeUS : 57435350, Roll : -1.22, Pitch : -15.06, Yaw : 60.08, Alt : 49.2799987793, Lat : 49.283594, Lng : -123.1149685, Q1 : 0.858843326569, Q2 : 0.0564731769264, Q3 : -0.118780940771, Q4 : 0.495065718889}
2019-04-14 16:23:49.91: SIM {TimeUS : 57535310, Roll : 0.52, Pitch : -15.56, Yaw : 56.91, Alt : 49.2799987793, Lat : 49.2835958, Lng : -123.1149654, Q1 : 0.870777368546, Q2 : 0.06855327636, Q3 : -0.116894192994, Q4 : 0.472634106874}
2019-04-14 16:23:50.01: SIM {TimeUS : 57635270, Roll : 1.97, Pitch : -15.83, Yaw : 54.16, Alt : 49.2799987793, Lat : 49.2835974, Lng : -123.1149622, Q1 : 0.880648612976, Q2 : 0.0779200494289, Q3 : -0.114871203899, Q4 : 0.452980190516}
2019-04-14 16:23:50.11: SIM {TimeUS : 57735230, Roll : 3.0, Pitch : -15.9, Yaw : 52.08, Alt : 49.2799987793, Lat : 49.283599, Lng : -123.114959, Q1 : 0.887929141521, Q2 : 0.0840493887663, Q3 : -0.112857781351, Q4 : 0.437927782536}
2019-04-14 16:23:50.21: SIM {TimeUS : 57835190, Roll : 3.57, Pitch : -15.85, Yaw : 50.79, Alt : 49.2799987793, Lat : 49.2836007, Lng : -123.1149555, Q1 : 0.892443656921, Q2 : 0.0870456770062, Q3 : -0.111302658916, Q4 : 0.42846134305}
2019-04-14 16:23:50.31: SIM {TimeUS : 57935150, Roll : 3.69, Pitch : -15.8, Yaw : 50.29, Alt : 49.2799987793, Lat : 49.2836025, Lng : -123.114952, Q1 : 0.894272983074, Q2 : 0.0872992649674, Q3 : -0.110832951963, Q4 : 0.424700796604}
2019-04-14 16:23:50.41: SIM {TimeUS : 58035110, Roll : 3.39, Pitch : -15.8, Yaw : 50.5, Alt : 49.2799987793, Lat : 49.2836041, Lng : -123.1149484, Q1 : 0.893722712994, Q2 : 0.0851602330804, Q3 : -0.111766546965, Q4 : 0.426046639681}
2019-04-14 16:23:50.51: SIM {TimeUS : 58135070, Roll : 2.75, Pitch : -15.87, Yaw : 51.27, Alt : 49.2799987793, Lat : 49.2836057, Lng : -123.1149446, Q1 : 0.891210079193, Q2 : 0.0812371820211, Q3 : -0.114142671227, Q4 : 0.431412309408}
2019-04-14 16:23:50.61: SIM {TimeUS : 58235030, Roll : 1.91, Pitch : -15.98, Yaw : 52.43, Alt : 49.2799987793, Lat : 49.2836074, Lng : -123.1149407, Q1 : 0.887268960476, Q2 : 0.0762917548418, Q3 : -0.117391571403, Q4 : 0.439491391182}
2019-04-14 16:23:50.71: SIM {TimeUS : 58334990, Roll : 1.02, Pitch : -16.1, Yaw : 53.78, Alt : 49.2799987793, Lat : 49.2836092, Lng : -123.1149368, Q1 : 0.882479786873, Q2 : 0.0712363421917, Q3 : -0.120954677463, Q4 : 0.448915183544}
2019-04-14 16:23:50.81: SIM {TimeUS : 58434950, Roll : 0.15, Pitch : -16.22, Yaw : 55.14, Alt : 49.2900009155, Lat : 49.283611, Lng : -123.1149328, Q1 : 0.877480626106, Q2 : 0.0665103271604, Q3 : -0.124481335282, Q4 : 0.458376020193}
2019-04-14 16:23:50.91: SIM {TimeUS : 58534910, Roll : -0.56, Pitch : -16.32, Yaw : 56.36, Alt : 49.2900009155, Lat : 49.2836128, Lng : -123.1149287, Q1 : 0.872839033604, Q2 : 0.0627687871456, Q3 : -0.127465829253, Q4 : 0.466866791248}
2019-04-14 16:23:51.01: SIM {TimeUS : 58634870, Roll : -1.07, Pitch : -16.38, Yaw : 57.33, Alt : 49.2900009155, Lat : 49.2836146, Lng : -123.1149246, Q1 : 0.869049310684, Q2 : 0.0602368228137, Q3 : -0.129471093416, Q4 : 0.473668724298}
2019-04-14 16:23:51.11: SIM {TimeUS : 58734830, Roll : -1.37, Pitch : -16.4, Yaw : 58.0, Alt : 49.2900009155, Lat : 49.2836164, Lng : -123.1149204, Q1 : 0.866430699825, Q2 : 0.0588012710214, Q3 : -0.130550533533, Q4 : 0.478327184916}
2019-04-14 16:23:51.21: SIM {TimeUS : 58834790, Roll : -1.49, Pitch : -16.43, Yaw : 58.33, Alt : 49.2900009155, Lat : 49.2836183, Lng : -123.1149162, Q1 : 0.86508089304, Q2 : 0.0583790764213, Q3 : -0.131051748991, Q4 : 0.480679094791}
2019-04-14 16:23:51.31: SIM {TimeUS : 58934750, Roll : -1.43, Pitch : -16.46, Yaw : 58.35, Alt : 49.2900009155, Lat : 49.2836201, Lng : -123.1149119, Q1 : 0.864923238754, Q2 : 0.0589883103967, Q3 : -0.131093397737, Q4 : 0.480877071619}
2019-04-14 16:23:51.41: SIM {TimeUS : 59034710, Roll : -1.23, Pitch : -16.52, Yaw : 58.11, Alt : 49.2900009155, Lat : 49.2836221, Lng : -123.1149076, Q1 : 0.865755617619, Q2 : 0.0604712814093, Q3 : -0.130812764168, Q4 : 0.479268699884}
2019-04-14 16:23:51.51: SIM {TimeUS : 59134670, Roll : -0.93, Pitch : -16.57, Yaw : 57.68, Alt : 49.2900009155, Lat : 49.2836241, Lng : -123.1149033, Q1 : 0.867327511311, Q2 : 0.0624692700803, Q3 : -0.130185291171, Q4 : 0.476332247257}
2019-04-14 16:23:51.61: SIM {TimeUS : 59234630, Roll : -0.57, Pitch : -16.62, Yaw : 57.14, Alt : 49.2900009155, Lat : 49.2836261, Lng : -123.1148989, Q1 : 0.869314432144, Q2 : 0.0647756159306, Q3 : -0.129379421473, Q4 : 0.472607135773}
2019-04-14 16:23:51.72: SIM {TimeUS : 59335423, Roll : -0.2, Pitch : -16.67, Yaw : 56.56, Alt : 49.2900009155, Lat : 49.283628, Lng : -123.1148944, Q1 : 0.871431946754, Q2 : 0.0671497285366, Q3 : -0.128517329693, Q4 : 0.468594282866}
2019-04-14 16:23:51.81: SIM {TimeUS : 59435383, Roll : 0.13, Pitch : -16.7, Yaw : 56.02, Alt : 49.2900009155, Lat : 49.2836302, Lng : -123.11489, Q1 : 0.87340092659, Q2 : 0.0692605227232, Q3 : -0.127703607082, Q4 : 0.464828550816}
2019-04-14 16:23:51.91: SIM {TimeUS : 59535343, Roll : 0.41, Pitch : -16.73, Yaw : 55.56, Alt : 49.2900009155, Lat : 49.2836322, Lng : -123.1148854, Q1 : 0.875046670437, Q2 : 0.0709772929549, Q3 : -0.127046659589, Q4 : 0.461643517017}
2019-04-14 16:23:52.01: SIM {TimeUS : 59635303, Roll : 0.6, Pitch : -16.76, Yaw : 55.23, Alt : 49.2900009155, Lat : 49.2836342, Lng : -123.1148809, Q1 : 0.876246392727, Q2 : 0.0721931532025, Q3 : -0.126724362373, Q4 : 0.459261775017}
2019-04-14 16:23:52.11: SIM {TimeUS : 59735263, Roll : 0.69, Pitch : -16.78, Yaw : 55.02, Alt : 49.2900009155, Lat : 49.2836363, Lng : -123.1148763, Q1 : 0.876972556114, Q2 : 0.0727594047785, Q3 : -0.126712366939, Q4 : 0.457787334919}
2019-04-14 16:23:52.21: SIM {TimeUS : 59835223, Roll : 0.69, Pitch : -16.81, Yaw : 54.95, Alt : 49.2900009155, Lat : 49.2836384, Lng : -123.1148716, Q1 : 0.877229452133, Q2 : 0.0727790892124, Q3 : -0.126983433962, Q4 : 0.457216471434}
2019-04-14 16:23:52.31: SIM {TimeUS : 59935183, Roll : 0.6, Pitch : -16.86, Yaw : 54.99, Alt : 49.2900009155, Lat : 49.2836405, Lng : -123.1148669, Q1 : 0.87707221508, Q2 : 0.072353489697, Q3 : -0.127626523376, Q4 : 0.457406640053}
2019-04-14 16:23:52.41: SIM {TimeUS : 60035143, Roll : 0.47, Pitch : -16.91, Yaw : 55.12, Alt : 49.2999992371, Lat : 49.2836426, Lng : -123.1148622, Q1 : 0.876592934132, Q2 : 0.0716620087624, Q3 : -0.128495424986, Q4 : 0.45819029212}
2019-04-14 16:23:52.51: SIM {TimeUS : 60135103, Roll : 0.3, Pitch : -16.95, Yaw : 55.3, Alt : 49.2999992371, Lat : 49.2836446, Lng : -123.1148575, Q1 : 0.875914037228, Q2 : 0.0707499757409, Q3 : -0.129391312599, Q4 : 0.459376633167}
2019-04-14 16:23:52.61: SIM {TimeUS : 60235063, Roll : 0.12, Pitch : -16.98, Yaw : 55.51, Alt : 49.2999992371, Lat : 49.2836468, Lng : -123.1148527, Q1 : 0.87515515089, Q2 : 0.0697459131479, Q3 : -0.130169406533, Q4 : 0.460754722357}
2019-04-14 16:23:52.71: SIM {TimeUS : 60335023, Roll : -0.03, Pitch : -17.01, Yaw : 55.71, Alt : 49.2999992371, Lat : 49.2836488, Lng : -123.1148478, Q1 : 0.874393820763, Q2 : 0.0688434541225, Q3 : -0.130944848061, Q4 : 0.462114185095}
2019-04-14 16:23:52.81: SIM {TimeUS : 60434983, Roll : -0.15, Pitch : -17.05, Yaw : 55.89, Alt : 49.2999992371, Lat : 49.283651, Lng : -123.114843, Q1 : 0.87370634079, Q2 : 0.0682903751731, Q3 : -0.131620422006, Q4 : 0.46330305934}
2019-04-14 16:23:52.91: SIM {TimeUS : 60534943, Roll : -0.22, Pitch : -17.09, Yaw : 56.02, Alt : 49.2999992371, Lat : 49.283653, Lng : -123.1148381, Q1 : 0.873169183731, Q2 : 0.0680563598871, Q3 : -0.132133975625, Q4 : 0.464203119278}
2019-04-14 16:23:53.01: SIM {TimeUS : 60634903, Roll : -0.24, Pitch : -17.13, Yaw : 56.1, Alt : 49.2999992371, Lat : 49.2836553, Lng : -123.1148332, Q1 : 0.872810065746, Q2 : 0.0681852549314, Q3 : -0.132500872016, Q4 : 0.464754700661}
2019-04-14 16:23:53.11: SIM {TimeUS : 60734863, Roll : -0.22, Pitch : -17.18, Yaw : 56.13, Alt : 49.2999992371, Lat : 49.2836574, Lng : -123.1148283, Q1 : 0.872651100159, Q2 : 0.0685476064682, Q3 : -0.132728561759, Q4 : 0.464934825897}
2019-04-14 16:23:53.21: SIM {TimeUS : 60834823, Roll : -0.18, Pitch : -17.21, Yaw : 56.1, Alt : 49.2999992371, Lat : 49.2836597, Lng : -123.1148234, Q1 : 0.872691452503, Q2 : 0.0689769536257, Q3 : -0.132848545909, Q4 : 0.464761316776}
2019-04-14 16:23:53.31: SIM {TimeUS : 60934783, Roll : -0.14, Pitch : -17.24, Yaw : 56.03, Alt : 49.2999992371, Lat : 49.2836619, Lng : -123.1148184, Q1 : 0.872906565666, Q2 : 0.0693310126662, Q3 : -0.132921725512, Q4 : 0.464283525944}
2019-04-14 16:23:53.41: SIM {TimeUS : 61034743, Roll : -0.1, Pitch : -17.25, Yaw : 55.94, Alt : 49.3100013733, Lat : 49.283664, Lng : -123.1148135, Q1 : 0.873259186745, Q2 : 0.0695574432611, Q3 : -0.132923975587, Q4 : 0.463585317135}
2019-04-14 16:23:53.51: SIM {TimeUS : 61134703, Roll : -0.05, Pitch : -17.25, Yaw : 55.82, Alt : 49.3100013733, Lat : 49.2836663, Lng : -123.1148085, Q1 : 0.873679459095, Q2 : 0.0698396936059, Q3 : -0.132753014565, Q4 : 0.462799370289}
2019-04-14 16:23:53.61: SIM {TimeUS : 61234663, Roll : 0.01, Pitch : -17.25, Yaw : 55.71, Alt : 49.3100013733, Lat : 49.2836685, Lng : -123.1148034, Q1 : 0.874094486237, Q2 : 0.0702455416322, Q3 : -0.132556170225, Q4 : 0.462009966373}
2019-04-14 16:23:53.71: SIM {TimeUS : 61334623, Roll : 0.1, Pitch : -17.28, Yaw : 55.6, Alt : 49.3100013733, Lat : 49.2836706, Lng : -123.1147984, Q1 : 0.874436974525, Q2 : 0.0708689317107, Q3 : -0.132515922189, Q4 : 0.46127769351}
2019-04-14 16:23:53.82: SIM {TimeUS : 61435416, Roll : 0.17, Pitch : -17.34, Yaw : 55.51, Alt : 49.3100013733, Lat : 49.283673, Lng : -123.1147933, Q1 : 0.874683201313, Q2 : 0.0715887919068, Q3 : -0.132718905807, Q4 : 0.460640907288}
2019-04-14 16:23:53.91: SIM {TimeUS : 61535376, Roll : 0.22, Pitch : -17.37, Yaw : 55.45, Alt : 49.3100013733, Lat : 49.2836752, Lng : -123.1147882, Q1 : 0.874888181686, Q2 : 0.071991071105, Q3 : -0.13284099102, Q4 : 0.460153460503}
2019-04-14 16:23:54.01: SIM {TimeUS : 61635336, Roll : 0.23, Pitch : -17.37, Yaw : 55.4, Alt : 49.3100013733, Lat : 49.2836774, Lng : -123.1147832, Q1 : 0.875058710575, Q2 : 0.0720692053437, Q3 : -0.132804170251, Q4 : 0.4598274827}
2019-04-14 16:23:54.11: SIM {TimeUS : 61735296, Roll : 0.21, Pitch : -17.38, Yaw : 55.38, Alt : 49.3100013733, Lat : 49.2836797, Lng : -123.114778, Q1 : 0.875153720379, Q2 : 0.0719094127417, Q3 : -0.132971480489, Q4 : 0.459623366594}
2019-04-14 16:23:54.21: SIM {TimeUS : 61835256, Roll : 0.17, Pitch : -17.41, Yaw : 55.37, Alt : 49.3100013733, Lat : 49.283682, Lng : -123.1147729, Q1 : 0.875162541866, Q2 : 0.0717199966311, Q3 : -0.133351445198, Q4 : 0.459526121616}
2019-04-14 16:23:54.31: SIM {TimeUS : 61935216, Roll : 0.15, Pitch : -17.44, Yaw : 55.38, Alt : 49.3100013733, Lat : 49.2836843, Lng : -123.1147678, Q1 : 0.87510985136, Q2 : 0.0716499462724, Q3 : -0.133696272969, Q4 : 0.459537088871}
2019-04-14 16:23:54.41: SIM {TimeUS : 62035176, Roll : 0.12, Pitch : -17.47, Yaw : 55.4, Alt : 49.3100013733, Lat : 49.2836865, Lng : -123.1147626, Q1 : 0.875021100044, Q2 : 0.0715901702642, Q3 : -0.134024694562, Q4 : 0.459619760513}
2019-04-14 16:23:54.51: SIM {TimeUS : 62135136, Roll : 0.1, Pitch : -17.5, Yaw : 55.42, Alt : 49.3199996948, Lat : 49.2836888, Lng : -123.1147575, Q1 : 0.874919295311, Q2 : 0.071550861001, Q3 : -0.134267315269, Q4 : 0.459748834372}
2019-04-14 16:23:54.61: SIM {TimeUS : 62235096, Roll : 0.08, Pitch : -17.52, Yaw : 55.44, Alt : 49.3199996948, Lat : 49.2836912, Lng : -123.1147523, Q1 : 0.874821007252, Q2 : 0.0715322643518, Q3 : -0.134489893913, Q4 : 0.459873706102}
2019-04-14 16:23:54.71: SIM {TimeUS : 62335056, Roll : 0.08, Pitch : -17.53, Yaw : 55.46, Alt : 49.3199996948, Lat : 49.2836935, Lng : -123.1147471, Q1 : 0.874746382236, Q2 : 0.0715474709868, Q3 : -0.134593218565, Q4 : 0.459983050823}
2019-04-14 16:23:54.81: SIM {TimeUS : 62435016, Roll : 0.08, Pitch : -17.55, Yaw : 55.47, Alt : 49.3199996948, Lat : 49.2836957, Lng : -123.1147419, Q1 : 0.874683022499, Q2 : 0.071688503027, Q3 : -0.134720847011, Q4 : 0.460044145584}
2019-04-14 16:23:54.91: SIM {TimeUS : 62534976, Roll : 0.09, Pitch : -17.58, Yaw : 55.46, Alt : 49.3199996948, Lat : 49.283698, Lng : -123.1147367, Q1 : 0.874653995037, Q2 : 0.0718654841185, Q3 : -0.134863108397, Q4 : 0.46003010869}
2019-04-14 16:23:55.01: SIM {TimeUS : 62634936, Roll : 0.09, Pitch : -17.61, Yaw : 55.45, Alt : 49.3199996948, Lat : 49.2837004, Lng : -123.1147314, Q1 : 0.874665737152, Q2 : 0.0719674900174, Q3 : -0.135116219521, Q4 : 0.459917545319}
2019-04-14 16:23:55.11: SIM {TimeUS : 62734896, Roll : 0.07, Pitch : -17.65, Yaw : 55.43, Alt : 49.3199996948, Lat : 49.2837027, Lng : -123.1147262, Q1 : 0.874710798264, Q2 : 0.0719611942768, Q3 : -0.135517433286, Q4 : 0.459714800119}
2019-04-14 16:23:55.21: SIM {TimeUS : 62834856, Roll : 0.06, Pitch : -17.69, Yaw : 55.41, Alt : 49.3199996948, Lat : 49.2837051, Lng : -123.1147209, Q1 : 0.87476849556, Q2 : 0.0720580145717, Q3 : -0.135922193527, Q4 : 0.459470182657}
2019-04-14 16:23:55.31: SIM {TimeUS : 62934816, Roll : 0.09, Pitch : -17.73, Yaw : 55.37, Alt : 49.3199996948, Lat : 49.2837074, Lng : -123.1147157, Q1 : 0.874838650227, Q2 : 0.0723431184888, Q3 : -0.136114895344, Q4 : 0.459234714508}
2019-04-14 16:23:55.41: SIM {TimeUS : 63034776, Roll : 0.12, Pitch : -17.73, Yaw : 55.34, Alt : 49.3199996948, Lat : 49.2837096, Lng : -123.1147104, Q1 : 0.87494546175, Q2 : 0.0725766271353, Q3 : -0.136028036475, Q4 : 0.459020137787}
2019-04-14 16:23:55.51: SIM {TimeUS : 63134736, Roll : 0.15, Pitch : -17.71, Yaw : 55.31, Alt : 49.3199996948, Lat : 49.283712, Lng : -123.1147051, Q1 : 0.875074744225, Q2 : 0.0727077946067, Q3 : -0.135771512985, Q4 : 0.458828836679}
2019-04-14 16:23:55.61: SIM {TimeUS : 63234696, Roll : 0.16, Pitch : -17.7, Yaw : 55.28, Alt : 49.3199996948, Lat : 49.2837144, Lng : -123.1146998, Q1 : 0.875207602978, Q2 : 0.0726243704557, Q3 : -0.135639667511, Q4 : 0.458627611399}
2019-04-14 16:23:55.71: SIM {TimeUS : 63334656, Roll : 0.15, Pitch : -17.68, Yaw : 55.25, Alt : 49.3199996948, Lat : 49.2837168, Lng : -123.1146945, Q1 : 0.875334501266, Q2 : 0.0724943652749, Q3 : -0.135546684265, Q4 : 0.458433359861}
2019-04-14 16:23:55.81: SIM {TimeUS : 63434616, Roll : 0.15, Pitch : -17.66, Yaw : 55.23, Alt : 49.3199996948, Lat : 49.2837192, Lng : -123.1146891, Q1 : 0.87544387579, Q2 : 0.0723758712411, Q3 : -0.135466232896, Q4 : 0.4582670331}
2019-04-14 16:23:55.91: SIM {TimeUS : 63535409, Roll : 0.14, Pitch : -17.68, Yaw : 55.21, Alt : 49.3199996948, Lat : 49.2837215, Lng : -123.1146838, Q1 : 0.875508368015, Q2 : 0.0723386332393, Q3 : -0.135616287589, Q4 : 0.458105236292}
2019-04-14 16:23:56.01: SIM {TimeUS : 63635369, Roll : 0.14, Pitch : -17.7, Yaw : 55.2, Alt : 49.3199996948, Lat : 49.2837239, Lng : -123.1146784, Q1 : 0.875542283058, Q2 : 0.0724080428481, Q3 : -0.135844737291, Q4 : 0.457961857319}
2019-04-14 16:23:56.11: SIM {TimeUS : 63735329, Roll : 0.13, Pitch : -17.75, Yaw : 55.18, Alt : 49.3300018311, Lat : 49.2837263, Lng : -123.1146731, Q1 : 0.875542461872, Q2 : 0.0725153461099, Q3 : -0.136244818568, Q4 : 0.457825660706}
2019-04-14 16:23:56.21: SIM {TimeUS : 63835289, Roll : 0.13, Pitch : -17.81, Yaw : 55.17, Alt : 49.3300018311, Lat : 49.2837287, Lng : -123.1146677, Q1 : 0.875520884991, Q2 : 0.0726959779859, Q3 : -0.136685833335, Q4 : 0.457706719637}
2019-04-14 16:23:56.31: SIM {TimeUS : 63935249, Roll : 0.14, Pitch : -17.84, Yaw : 55.17, Alt : 49.3300018311, Lat : 49.2837311, Lng : -123.1146624, Q1 : 0.875508069992, Q2 : 0.0728904828429, Q3 : -0.136880159378, Q4 : 0.457642227411}
2019-04-14 16:23:56.41: SIM {TimeUS : 64035209, Roll : 0.13, Pitch : -17.86, Yaw : 55.16, Alt : 49.3300018311, Lat : 49.2837333, Lng : -123.114657, Q1 : 0.875503659248, Q2 : 0.0729784965515, Q3 : -0.137099310756, Q4 : 0.457571059465}
2019-04-14 16:23:56.51: SIM {TimeUS : 64135169, Roll : 0.13, Pitch : -17.88, Yaw : 55.15, Alt : 49.3300018311, Lat : 49.2837357, Lng : -123.1146515, Q1 : 0.87551599741, Q2 : 0.0729934722185, Q3 : -0.137240886688, Q4 : 0.457502663136}
2019-04-14 16:23:56.61: SIM {TimeUS : 64235129, Roll : 0.14, Pitch : -17.87, Yaw : 55.14, Alt : 49.3300018311, Lat : 49.2837381, Lng : -123.1146462, Q1 : 0.87554526329, Q2 : 0.0730710551143, Q3 : -0.13713657856, Q4 : 0.457465559244}
2019-04-14 16:23:56.71: SIM {TimeUS : 64335089, Roll : 0.16, Pitch : -17.88, Yaw : 55.14, Alt : 49.3300018311, Lat : 49.2837405, Lng : -123.1146408, Q1 : 0.875556647778, Q2 : 0.0732539743185, Q3 : -0.137134552002, Q4 : 0.457415044308}
2019-04-14 16:23:56.81: SIM {TimeUS : 64435049, Roll : 0.17, Pitch : -17.9, Yaw : 55.13, Alt : 49.3300018311, Lat : 49.283743, Lng : -123.1146354, Q1 : 0.87556630373, Q2 : 0.0733844712377, Q3 : -0.137247189879, Q4 : 0.457341939211}
2019-04-14 16:23:56.91: SIM {TimeUS : 64535009, Roll : 0.18, Pitch : -17.92, Yaw : 55.12, Alt : 49.3300018311, Lat : 49.2837454, Lng : -123.11463, Q1 : 0.875582575798, Q2 : 0.0734801441431, Q3 : -0.137347742915, Q4 : 0.457265079021}
2019-04-14 16:23:57.01: SIM {TimeUS : 64634969, Roll : 0.19, Pitch : -17.91, Yaw : 55.11, Alt : 49.3300018311, Lat : 49.2837478, Lng : -123.1146246, Q1 : 0.875625789165, Q2 : 0.0735080391169, Q3 : -0.13731020689, Q4 : 0.457189142704}
2019-04-14 16:23:57.11: SIM {TimeUS : 64734929, Roll : 0.19, Pitch : -17.92, Yaw : 55.09, Alt : 49.3300018311, Lat : 49.2837503, Lng : -123.1146192, Q1 : 0.875673830509, Q2 : 0.0734955370426, Q3 : -0.137324750423, Q4 : 0.457094788551}
2019-04-14 16:23:57.21: SIM {TimeUS : 64834889, Roll : 0.17, Pitch : -17.93, Yaw : 55.08, Alt : 49.3300018311, Lat : 49.2837527, Lng : -123.1146137, Q1 : 0.875714719296, Q2 : 0.0733988508582, Q3 : -0.13755145669, Q4 : 0.456963926554}
2019-04-14 16:23:57.31: SIM {TimeUS : 64934849, Roll : 0.13, Pitch : -17.97, Yaw : 55.07, Alt : 49.3300018311, Lat : 49.2837551, Lng : -123.1146083, Q1 : 0.875743150711, Q2 : 0.073270149529, Q3 : -0.137975931168, Q4 : 0.456802010536}
2019-04-14 16:23:57.41: SIM {TimeUS : 65034809, Roll : 0.12, Pitch : -17.98, Yaw : 55.05, Alt : 49.3300018311, Lat : 49.2837575, Lng : -123.1146028, Q1 : 0.875797152519, Q2 : 0.0731573626399, Q3 : -0.1380956918, Q4 : 0.456680327654}
2019-04-14 16:23:57.51: SIM {TimeUS : 65134769, Roll : 0.13, Pitch : -17.96, Yaw : 55.04, Alt : 49.3300018311, Lat : 49.2837599, Lng : -123.1145974, Q1 : 0.87585735321, Q2 : 0.0731621086597, Q3 : -0.137967929244, Q4 : 0.456602782011}
2019-04-14 16:23:57.61: SIM {TimeUS : 65234729, Roll : 0.15, Pitch : -17.95, Yaw : 55.03, Alt : 49.3400001526, Lat : 49.2837624, Lng : -123.1145919, Q1 : 0.87591201067, Q2 : 0.0732459872961, Q3 : -0.137791216373, Q4 : 0.456537872553}
2019-04-14 16:23:57.71: SIM {TimeUS : 65334689, Roll : 0.16, Pitch : -17.96, Yaw : 55.02, Alt : 49.3400001526, Lat : 49.2837648, Lng : -123.1145865, Q1 : 0.875946938992, Q2 : 0.0733621791005, Q3 : -0.137809574604, Q4 : 0.456446498632}
2019-04-14 16:23:57.81: SIM {TimeUS : 65434649, Roll : 0.15, Pitch : -17.98, Yaw : 55.0, Alt : 49.3400001526, Lat : 49.2837672, Lng : -123.114581, Q1 : 0.875978410244, Q2 : 0.0733559280634, Q3 : -0.13801831007, Q4 : 0.456324100494}
2019-04-14 16:23:57.92: SIM {TimeUS : 65535442, Roll : 0.13, Pitch : -18.0, Yaw : 54.99, Alt : 49.3400001526, Lat : 49.2837697, Lng : -123.1145755, Q1 : 0.876011013985, Q2 : 0.0732698664069, Q3 : -0.138289168477, Q4 : 0.456193387508}
2019-04-14 16:23:58.01: SIM {TimeUS : 65635402, Roll : 0.12, Pitch : -18.02, Yaw : 54.98, Alt : 49.3400001526, Lat : 49.2837721, Lng : -123.11457, Q1 : 0.876045167446, Q2 : 0.0732475072145, Q3 : -0.138460993767, Q4 : 0.456079244614}
2019-04-14 16:23:58.11: SIM {TimeUS : 65735362, Roll : 0.13, Pitch : -18.03, Yaw : 54.97, Alt : 49.3400001526, Lat : 49.2837746, Lng : -123.1145645, Q1 : 0.876075685024, Q2 : 0.0733496025205, Q3 : -0.138527363539, Q4 : 0.455984026194}
2019-04-14 16:23:58.21: SIM {TimeUS : 65835322, Roll : 0.14, Pitch : -18.04, Yaw : 54.95, Alt : 49.3400001526, Lat : 49.283777, Lng : -123.1145591, Q1 : 0.876103818417, Q2 : 0.0734701380134, Q3 : -0.138573184609, Q4 : 0.45589658618}
2019-04-14 16:23:58.31: SIM {TimeUS : 65935282, Roll : 0.16, Pitch : -18.06, Yaw : 54.94, Alt : 49.3400001526, Lat : 49.2837794, Lng : -123.1145536, Q1 : 0.876111149788, Q2 : 0.0736809521914, Q3 : -0.138636782765, Q4 : 0.455829173326}
2019-04-14 16:23:58.41: SIM {TimeUS : 66035242, Roll : 0.17, Pitch : -18.08, Yaw : 54.94, Alt : 49.3400001526, Lat : 49.2837819, Lng : -123.1145481, Q1 : 0.876111388206, Q2 : 0.0738333389163, Q3 : -0.138749822974, Q4 : 0.455769598484}
2019-04-14 16:23:58.51: SIM {TimeUS : 66135202, Roll : 0.18, Pitch : -18.1, Yaw : 54.93, Alt : 49.3400001526, Lat : 49.2837843, Lng : -123.1145426, Q1 : 0.876108705997, Q2 : 0.0739902406931, Q3 : -0.138870939612, Q4 : 0.455712586641}
2019-04-14 16:23:58.61: SIM {TimeUS : 66235162, Roll : 0.2, Pitch : -18.12, Yaw : 54.92, Alt : 49.3400001526, Lat : 49.2837867, Lng : -123.1145371, Q1 : 0.876100242138, Q2 : 0.0741890072823, Q3 : -0.138964354992, Q4 : 0.455667883158}
2019-04-14 16:23:58.71: SIM {TimeUS : 66335122, Roll : 0.23, Pitch : -18.13, Yaw : 54.92, Alt : 49.3400001526, Lat : 49.2837892, Lng : -123.1145316, Q1 : 0.876090347767, Q2 : 0.0744710639119, Q3 : -0.138919457793, Q4 : 0.455654680729}
2019-04-14 16:23:58.81: SIM {TimeUS : 66435082, Roll : 0.26, Pitch : -18.14, Yaw : 54.91, Alt : 49.3499984741, Lat : 49.2837917, Lng : -123.1145261, Q1 : 0.876076757908, Q2 : 0.0747526884079, Q3 : -0.138881772757, Q4 : 0.455646187067}
