2019-04-14 17:55:55.80: SIM {TimeUS : 40216407, Roll : 0.0, Pitch : 0.0, Yaw : 0.0, Alt : 30.1000003815, Lat : 49.28357, Lng : -123.11502, Q1 : 1.0, Q2 : 0.0, Q3 : 0.0, Q4 : 0.0}
2019-04-14 17:55:55.91: SIM {TimeUS : 40335526, Roll : 0.0, Pitch : 0.0, Yaw : 0.0, Alt : 30.1000003815, Lat : 49.28357, Lng : -123.11502, Q1 : 1.0, Q2 : 0.0, Q3 : 0.0, Q4 : 0.0}
2019-04-14 17:55:56.01: SIM {TimeUS : 40435486, Roll : 0.0, Pitch : 0.0, Yaw : 0.0, Alt : 30.1000003815, Lat : 49.28357, Lng : -123.11502, Q1 : 1.0, Q2 : 0.0, Q3 : 0.0, Q4 : 0.0}
2019-04-14 17:55:56.11: SIM {TimeUS : 40535446, Roll : 0.0, Pitch : 0.0, Yaw : 0.0, Alt : 30.1000003815, Lat : 49.28357, Lng : -123.11502, Q1 : 1.0, Q2 : 0.0, Q3 : 0.0, Q4 : 0.0}
2019-04-14 17:55:56.21: SIM {TimeUS : 40635406, Roll : 0.0, Pitch : 0.0, Yaw : 0.0, Alt : 30.1000003815, Lat : 49.28357, Lng : -123.11502, Q1 : 1.0, Q2 : 0.0, Q3 : 0.0, Q4 : 0.0}
2019-04-14 17:55:56.31: SIM {TimeUS : 40735366, Roll : 0.0, Pitch : 0.0, Yaw : 0.0, Alt : 30.1000003815, Lat : 49.28357, Lng : -123.11502, Q1 : 1.0, Q2 : 0.0, Q3 : 0.0, Q4 : 0.0}
2019-04-14 17:55:56.41: SIM {TimeUS : 40835326, Roll : 0.0, Pitch : 0.0, Yaw : 0.0, Alt : 30.1000003815, Lat : 49.28357, Lng : -123.11502, Q1 : 1.0, Q2 : 0.0, Q3 : 0.0, Q4 : 0.0}
2019-04-14 17:55:56.51: SIM {TimeUS : 40935286, Roll : 0.0, Pitch : 0.0, Yaw : 0.0, Alt : 30.1000003815, Lat : 49.28357, Lng : -123.11502, Q1 : 1.0, Q2 : 0.0, Q3 : 0.0, Q4 : 0.0}
2019-04-14 17:55:56.61: SIM {TimeUS : 41035246, Roll : 0.0, Pitch : 0.0, Yaw : 0.0, Alt : 30.1000003815, Lat : 49.28357, Lng : -123.11502, Q1 : 1.0, Q2 : 0.0, Q3 : 0.0, Q4 : 0.0}
2019-04-14 17:55:56.71: SIM {TimeUS : 41135206, Roll : 0.0, Pitch : 0.0, Yaw : 0.0, Alt : 30.1000003815, Lat : 49.28357, Lng : -123.11502, Q1 : 1.0, Q2 : 0.0, Q3 : 0.0, Q4 : 0.0}
2019-04-14 17:55:56.81: SIM {TimeUS : 41235166, Roll : 0.0, Pitch : 0.0, Yaw : 0.0, Alt : 30.1000003815, Lat : 49.28357, Lng : -123.11502, Q1 : 1.0, Q2 : 0.0, Q3 : 0.0, Q4 : 0.0}
2019-04-14 17:55:56.91: SIM {TimeUS : 41335126, Roll : 0.0, Pitch : 0.0, Yaw : 0.0, Alt : 30.1000003815, Lat : 49.28357, Lng : -123.11502, Q1 : 1.0, Q2 : 0.0, Q3 : 0.0, Q4 : 0.0}
2019-04-14 17:55:57.01: SIM {TimeUS : 41435086, Roll : 0.0, Pitch : 0.0, Yaw : 0.0, Alt : 30.1000003815, Lat : 49.28357, Lng : -123.11502, Q1 : 1.0, Q2 : 0.0, Q3 : 0.0, Q4 : 0.0}
2019-04-14 17:55:57.11: SIM {TimeUS : 41535046, Roll : 0.0, Pitch : 0.0, Yaw : 0.0, Alt : 30.1000003815, Lat : 49.28357, Lng : -123.11502, Q1 : 1.0, Q2 : 0.0, Q3 : 0.0, Q4 : 0.0}
2019-04-14 17:55:57.21: SIM {TimeUS : 41635006, Roll : 0.0, Pitch : 0.0, Yaw : 0.0, Alt : 30.1000003815, Lat : 49.28357, Lng : -123.11502, Q1 : 1.0, Q2 : 0.0, Q3 : 0.0, Q4 : 0.0}
2019-04-14 17:55:57.31: SIM {TimeUS : 41734966, Roll : 0.0, Pitch : 0.0, Yaw : 0.0, Alt : 30.1000003815, Lat : 49.28357, Lng : -123.11502, Q1 : 1.0, Q2 : 0.0, Q3 : 0.0, Q4 : 0.0}
2019-04-14 17:55:57.41: SIM {TimeUS : 41834926, Roll : 0.0, Pitch : 0.0, Yaw : 0.0, Alt : 30.1000003815, Lat : 49.28357, Lng : -123.11502, Q1 : 1.0, Q2 : 0.0, Q3 : 0.0, Q4 : 0.0}
2019-04-14 17:55:57.51: SIM {TimeUS : 41934886, Roll : 0.0, Pitch : 0.0, Yaw : 0.0, Alt : 30.1000003815, Lat : 49.28357, Lng : -123.11502, Q1 : 1.0, Q2 : 0.0, Q3 : 0.0, Q4 : 0.0}
2019-04-14 17:55:57.61: SIM {TimeUS : 42034846, Roll : 0.0, Pitch : 0.0, Yaw : 0.0, Alt : 30.1000003815, Lat : 49.28357, Lng : -123.11502, Q1 : 1.0, Q2 : 0.0, Q3 : 0.0, Q4 : 0.0}
2019-04-14 17:55:57.71: SIM {TimeUS : 42134806, Roll : 0.0, Pitch : 0.0, Yaw : 0.0, Alt : 30.1000003815, Lat : 49.28357, Lng : -123.11502, Q1 : 1.0, Q2 : 0.0, Q3 : 0.0, Q4 : 0.0}
2019-04-14 17:55:57.81: SIM {TimeUS : 42234766, Roll : 0.0, Pitch : 0.0, Yaw : 0.0, Alt : 30.1000003815, Lat : 49.28357, Lng : -123.11502, Q1 : 1.0, Q2 : 0.0, Q3 : 0.0, Q4 : 0.0}
2019-04-14 17:55:57.91: SIM {TimeUS : 42335559, Roll : 0.0, Pitch : 0.0, Yaw : 0.0, Alt : 30.1000003815, Lat : 49.28357, Lng : -123.11502, Q1 : 1.0, Q2 : 0.0, Q3 : 0.0, Q4 : 0.0}
2019-04-14 17:55:58.01: SIM {TimeUS : 42435519, Roll : 0.0, Pitch : 0.0, Yaw : 0.0, Alt : 30.1000003815, Lat : 49.28357, Lng : -123.11502, Q1 : 1.0, Q2 : 0.0, Q3 : 0.0, Q4 : 0.0}
2019-04-14 17:55:58.11: SIM {TimeUS : 42535479, Roll : 0.0, Pitch : 0.0, Yaw : 360.0, Alt : 30.1000003815, Lat : 49.28357, Lng : -123.11502, Q1 : 1.0, Q2 : 0.0, Q3 : 0.0, Q4 : -1.1336584449e-11}
2019-04-14 17:55:58.21: SIM {TimeUS : 42635439, Roll : 0.0, Pitch : 0.0, Yaw : 360.0, Alt : 30.1000003815, Lat : 49.28357, Lng : -123.11502, Q1 : 1.0, Q2 : 0.0, Q3 : 0.0, Q4 : -1.61812430122e-08}
2019-04-14 17:55:58.31: SIM {TimeUS : 42735399, Roll : 0.0, Pitch : 0.0, Yaw : 359.99, Alt : 30.1000003815, Lat : 49.28357, Lng : -123.11502, Q1 : 1.0, Q2 : 0.0, Q3 : 0.0, Q4 : -2.16412402665e-07}
2019-04-14 17:55:58.41: SIM {TimeUS : 42835359, Roll : 0.0, Pitch : 0.0, Yaw : 359.99, Alt : 30.1000003815, Lat : 49.28357, Lng : -123.11502, Q1 : 1.0, Q2 : 0.0, Q3 : 0.0, Q4 : -4.0015422087e-07}
2019-04-14 17:55:58.51: SIM {TimeUS : 42935319, Roll : 0.0, Pitch : 0.0, Yaw : 359.99, Alt : 30.1000003815, Lat : 49.28357, Lng : -123.11502, Q1 : 1.0, Q2 : 0.0, Q3 : 0.0, Q4 : -5.86828434734e-07}
2019-04-14 17:55:58.61: SIM {TimeUS : 43035279, Roll : 0.0, Pitch : 0.0, Yaw : 359.99, Alt : 30.1000003815, Lat : 49.28357, Lng : -123.11502, Q1 : 1.0, Q2 : 0.0, Q3 : 0.0, Q4 : -7.91736056271e-07}
2019-04-14 17:55:58.71: SIM {TimeUS : 43135239, Roll : 0.0, Pitch : 0.0, Yaw : 359.99, Alt : 30.1000003815, Lat : 49.28357, Lng : -123.11502, Q1 : 1.0, Q2 : 0.0, Q3 : 0.0, Q4 : -1.00091062905e-06}
2019-04-14 17:55:58.81: SIM {TimeUS : 43235199, Roll : 0.0, Pitch : 0.0, Yaw : 359.99, Alt : 30.1000003815, Lat : 49.28357, Lng : -123.11502, Q1 : 1.0, Q2 : 0.0, Q3 : 0.0, Q4 : -1.15340731099e-06}
2019-04-14 17:55:58.91: SIM {TimeUS : 43335159, Roll : 0.0, Pitch : 0.0, Yaw : 359.99, Alt : 30.1000003815, Lat : 49.28357, Lng : -123.11502, Q1 : 1.0, Q2 : 0.0, Q3 : 0.0, Q4 : -1.36968674269e-06}
2019-04-14 17:55:59.01: SIM {TimeUS : 43435119, Roll : 0.0, Pitch : 0.0, Yaw : 359.99, Alt : 30.1200008392, Lat : 49.28357, Lng : -123.11502, Q1 : 1.0, Q2 : 0.0, Q3 : 0.0, Q4 : -1.59767898822e-06}
2019-04-14 17:55:59.11: SIM {TimeUS : 43535079, Roll : 0.0, Pitch : 0.0, Yaw : 359.99, Alt : 30.1399993896, Lat : 49.28357, Lng : -123.11502, Q1 : 1.0, Q2 : 0.0, Q3 : 0.0, Q4 : -1.87702949006e-06}
2019-04-14 17:55:59.21: SIM {TimeUS : 43635039, Roll : 0.0, Pitch : 0.0, Yaw : 359.99, Alt : 30.1800003052, Lat : 49.28357, Lng : -123.11502, Q1 : 1.0, Q2 : 0.0, Q3 : 0.0, Q4 : -2.0792772375e-06}
2019-04-14 17:55:59.31: SIM {TimeUS : 43734999, Roll : 0.0, Pitch : 0.0, Yaw : 359.99, Alt : 30.2099990845, Lat : 49.28357, Lng : -123.11502, Q1 : 1.0, Q2 : -5.85225370742e-06, Q3 : -5.64090623811e-06, Q4 : -2.28684439207e-06}
2019-04-14 17:55:59.41: SIM {TimeUS : 43834959, Roll : -0.18, Pitch : -0.15, Yaw : 359.99, Alt : 30.2700004578, Lat : 49.28357, Lng : -123.11502, Q1 : 0.999997735023, Q2 : -0.0016461731866, Q3 : -0.00137554632965, Q4 : -1.58336133609e-05}
2019-04-14 17:55:59.51: SIM {TimeUS : 43934919, Roll : -0.5, Pitch : -0.41, Yaw : 359.99, Alt : 30.3899993896, Lat : 49.28357, Lng : -123.11502, Q1 : 0.999983847141, Q2 : -0.00439720368013, Q3 : -0.00359446858056, Q4 : -5.55609985895e-05}
2019-04-14 17:55:59.61: SIM {TimeUS : 44034879, Roll : -0.74, Pitch : -0.62, Yaw : 359.99, Alt : 30.5400009155, Lat : 49.28357, Lng : -123.11502, Q1 : 0.999963879585, Q2 : -0.00651917420328, Q3 : -0.0054499451071, Q4 : -0.000121055541968}
2019-04-14 17:55:59.71: SIM {TimeUS : 44134839, Roll : -0.83, Pitch : -0.72, Yaw : 359.98, Alt : 30.7000007629, Lat : 49.28357, Lng : -123.11502, Q1 : 0.999953329563, Q2 : -0.00732329022139, Q3 : -0.00629836274311, Q4 : -0.000201766975806}
2019-04-14 17:55:59.81: SIM {TimeUS : 44234799, Roll : -0.78, Pitch : -0.68, Yaw : 359.97, Alt : 30.8500003815, Lat : 49.28357, Lng : -123.1150201, Q1 : 0.999958336353, Q2 : -0.00687345908955, Q3 : -0.0059992657043, Q4 : -0.000284751527943}
2019-04-14 17:55:59.91: SIM {TimeUS : 44334759, Roll : -0.63, Pitch : -0.55, Yaw : 359.96, Alt : 31.0100002289, Lat : 49.2835701, Lng : -123.1150201, Q1 : 0.999973058701, Q2 : -0.00550187844783, Q3 : -0.00485139898956, Q4 : -0.00036475964589}
2019-04-14 17:56:00.01: SIM {TimeUS : 44435552, Roll : -0.39, Pitch : -0.39, Yaw : 359.95, Alt : 31.1599998474, Lat : 49.2835701, Lng : -123.1150202, Q1 : 0.999988079071, Q2 : -0.00346340308897, Q3 : -0.00340966461226, Q4 : -0.000432461354649}
2019-04-14 17:56:00.11: SIM {TimeUS : 44535512, Roll : -0.17, Pitch : -0.21, Yaw : 359.94, Alt : 31.3299999237, Lat : 49.2835701, Lng : -123.1150203, Q1 : 0.999996960163, Q2 : -0.00153032876551, Q3 : -0.00189350766595, Q4 : -0.000485267984914}
2019-04-14 17:56:00.21: SIM {TimeUS : 44635472, Roll : -0.02, Pitch : -0.07, Yaw : 359.93, Alt : 31.5, Lat : 49.2835702, Lng : -123.1150204, Q1 : 0.999999642372, Q2 : -0.000245765026193, Q3 : -0.000617834390141, Q4 : -0.000526770250872}
2019-04-14 17:56:00.31: SIM {TimeUS : 44735432, Roll : 0.04, Pitch : 0.01, Yaw : 359.93, Alt : 31.6700000763, Lat : 49.2835702, Lng : -123.1150205, Q1 : 0.999999761581, Q2 : 0.000393508991692, Q3 : 0.000166149140568, Q4 : -0.000557186198421}
2019-04-14 17:56:00.41: SIM {TimeUS : 44835392, Roll : 0.06, Pitch : 0.05, Yaw : 359.93, Alt : 31.8500003815, Lat : 49.2835703, Lng : -123.1150205, Q1 : 0.999999582767, Q2 : 0.000524390372448, Q3 : 0.000475730892504, Q4 : -0.000580383639317}
2019-04-14 17:56:00.51: SIM {TimeUS : 44935352, Roll : 0.05, Pitch : 0.05, Yaw : 359.93, Alt : 32.0400009155, Lat : 49.2835703, Lng : -123.1150206, Q1 : 0.999999582767, Q2 : 0.000492929248139, Q3 : 0.000470289407531, Q4 : -0.000589325092733}
2019-04-14 17:56:00.61: SIM {TimeUS : 45035312, Roll : 0.05, Pitch : 0.03, Yaw : 359.93, Alt : 32.2200012207, Lat : 49.2835703, Lng : -123.1150207, Q1 : 0.999999642372, Q2 : 0.000516158819664, Q3 : 0.000322909851093, Q4 : -0.000589568575379}
2019-04-14 17:56:00.71: SIM {TimeUS : 45135272, Roll : 0.07, Pitch : 0.02, Yaw : 359.93, Alt : 32.4199981689, Lat : 49.2835703, Lng : -123.1150207, Q1 : 0.999999582767, Q2 : 0.000680425495375, Q3 : 0.000254416314419, Q4 : -0.000583602814004}
2019-04-14 17:56:00.81: SIM {TimeUS : 45235232, Roll : 0.09, Pitch : 0.05, Yaw : 359.93, Alt : 32.6100006104, Lat : 49.2835703, Lng : -123.1150208, Q1 : 0.999999344349, Q2 : 0.000851736636832, Q3 : 0.000474325817777, Q4 : -0.000569846131839}
2019-04-14 17:56:00.91: SIM {TimeUS : 45335192, Roll : 0.11, Pitch : 0.1, Yaw : 359.93, Alt : 32.8100013733, Lat : 49.2835704, Lng : -123.1150208, Q1 : 0.999998927116, Q2 : 0.00102814112324, Q3 : 0.000917110184673, Q4 : -0.000538499327376}
2019-04-14 17:56:01.01: SIM {TimeUS : 45435152, Roll : 0.13, Pitch : 0.15, Yaw : 359.94, Alt : 33.0099983215, Lat : 49.2835704, Lng : -123.1150208, Q1 : 0.999998271465, Q2 : 0.00117010634858, Q3 : 0.00134838372469, Q4 : -0.000505807518493}
2019-04-14 17:56:01.11: SIM {TimeUS : 45535112, Roll : 0.15, Pitch : 0.19, Yaw : 359.94, Alt : 33.2099990845, Lat : 49.2835704, Lng : -123.1150209, Q1 : 0.999997496605, Q2 : 0.00138940964825, Q3 : 0.00169786124025, Q4 : -0.000480768474517}
2019-04-14 17:56:01.21: SIM {TimeUS : 45635072, Roll : 0.18, Pitch : 0.21, Yaw : 359.94, Alt : 33.4099998474, Lat : 49.2835704, Lng : -123.1150209, Q1 : 0.999996840954, Q2 : 0.00164567946922, Q3 : 0.00185680529103, Q4 : -0.000468730024295}
2019-04-14 17:56:01.31: SIM {TimeUS : 45735032, Roll : 0.2, Pitch : 0.21, Yaw : 359.94, Alt : 33.6199989319, Lat : 49.2835704, Lng : -123.1150209, Q1 : 0.999996602535, Q2 : 0.00176554813515, Q3 : 0.00185670773499, Q4 : -0.000465430377517}
2019-04-14 17:56:01.41: SIM {TimeUS : 45834992, Roll : 0.18, Pitch : 0.2, Yaw : 359.94, Alt : 33.8300018311, Lat : 49.2835704, Lng : -123.1150209, Q1 : 0.999997079372, Q2 : 0.00160010065883, Q3 : 0.00174796418287, Q4 : -0.000476101355162}
2019-04-14 17:56:01.51: SIM {TimeUS : 45934952, Roll : 0.15, Pitch : 0.16, Yaw : 359.94, Alt : 34.0400009155, Lat : 49.2835704, Lng : -123.1150209, Q1 : 0.999997973442, Q2 : 0.00137567729689, Q3 : 0.00140755262692, Q4 : -0.00048676104052}
2019-04-14 17:56:01.61: SIM {TimeUS : 46034912, Roll : 0.13, Pitch : 0.1, Yaw : 359.94, Alt : 34.25, Lat : 49.2835706, Lng : -123.1150209, Q1 : 0.999998807907, Q2 : 0.00114969699644, Q3 : 0.000919742742553, Q4 : -0.000487485231133}
2019-04-14 17:56:01.71: SIM {TimeUS : 46134872, Roll : 0.1, Pitch : 0.06, Yaw : 359.94, Alt : 34.4599990845, Lat : 49.2835706, Lng : -123.1150209, Q1 : 0.999999284744, Q2 : 0.000929757312406, Q3 : 0.000569327676203, Q4 : -0.000498049543239}
2019-04-14 17:56:01.81: SIM {TimeUS : 46234832, Roll : 0.08, Pitch : 0.04, Yaw : 359.94, Alt : 34.6699981689, Lat : 49.2835706, Lng : -123.1150209, Q1 : 0.999999523163, Q2 : 0.000726363854483, Q3 : 0.000392806628952, Q4 : -0.000520027242601}
2019-04-14 17:56:01.91: SIM {TimeUS : 46334792, Roll : 0.07, Pitch : 0.04, Yaw : 359.93, Alt : 34.8899993896, Lat : 49.2835706, Lng : -123.1150209, Q1 : 0.999999523163, Q2 : 0.000696230388712, Q3 : 0.00042052633944, Q4 : -0.000549840799067}
2019-04-14 17:56:02.01: SIM {TimeUS : 46434752, Roll : 0.08, Pitch : 0.04, Yaw : 359.93, Alt : 35.0999984741, Lat : 49.2835704, Lng : -123.1150208, Q1 : 0.999999463558, Q2 : 0.000735152570996, Q3 : 0.000431695021689, Q4 : -0.000598477490712}
2019-04-14 17:56:02.11: SIM {TimeUS : 46535545, Roll : 0.07, Pitch : 0.05, Yaw : 359.92, Alt : 35.3199996948, Lat : 49.2835704, Lng : -123.1150208, Q1 : 0.999999463558, Q2 : 0.000677834381349, Q3 : 0.000480436137877, Q4 : -0.000652138784062}
2019-04-14 17:56:02.21: SIM {TimeUS : 46635505, Roll : 0.05, Pitch : 0.06, Yaw : 359.91, Alt : 35.5400009155, Lat : 49.2835704, Lng : -123.1150208, Q1 : 0.999999463558, Q2 : 0.000511816295329, Q3 : 0.000553522782866, Q4 : -0.000702297489624}
2019-04-14 17:56:02.31: SIM {TimeUS : 46735465, Roll : 0.03, Pitch : 0.07, Yaw : 359.91, Alt : 35.7599983215, Lat : 49.2835704, Lng : -123.1150208, Q1 : 0.999999463558, Q2 : 0.000338163401466, Q3 : 0.000637285294943, Q4 : -0.000746256031562}
2019-04-14 17:56:02.41: SIM {TimeUS : 46835425, Roll : 0.02, Pitch : 0.05, Yaw : 359.91, Alt : 35.9799995422, Lat : 49.2835704, Lng : -123.1150208, Q1 : 0.999999582767, Q2 : 0.000215491629206, Q3 : 0.000466378143756, Q4 : -0.000774620333686}
2019-04-14 17:56:02.51: SIM {TimeUS : 46935385, Roll : 0.01, Pitch : 0.03, Yaw : 359.9, Alt : 36.2000007629, Lat : 49.2835704, Lng : -123.1150207, Q1 : 0.999999642372, Q2 : 0.000133756009745, Q3 : 0.000276948674582, Q4 : -0.000794827123173}
2019-04-14 17:56:02.61: SIM {TimeUS : 47035345, Roll : 0.0, Pitch : 0.01, Yaw : 359.9, Alt : 36.4199981689, Lat : 49.2835704, Lng : -123.1150207, Q1 : 0.999999642372, Q2 : 1.11381241368e-05, Q3 : 0.000106989049527, Q4 : -0.000818295229692}
2019-04-14 17:56:02.71: SIM {TimeUS : 47135305, Roll : 0.0, Pitch : 0.0, Yaw : 359.9, Alt : 36.6399993896, Lat : 49.2835704, Lng : -123.1150207, Q1 : 0.999999642372, Q2 : -6.24078093097e-05, Q3 : 2.84263696813e-05, Q4 : -0.000841813685838}
2019-04-14 17:56:02.81: SIM {TimeUS : 47235265, Roll : 0.0, Pitch : -0.01, Yaw : 359.9, Alt : 36.8600006104, Lat : 49.2835704, Lng : -123.1150207, Q1 : 0.999999642372, Q2 : 2.45945502684e-05, Q3 : -9.2873822723e-05, Q4 : -0.000863627705257}
2019-04-14 17:56:02.91: SIM {TimeUS : 47335225, Roll : 0.0, Pitch : -0.03, Yaw : 359.89, Alt : 37.0900001526, Lat : 49.2835704, Lng : -123.1150207, Q1 : 0.999999582767, Q2 : -1.94535969058e-05, Q3 : -0.000269023701549, Q4 : -0.000882807013113}
2019-04-14 17:56:03.01: SIM {TimeUS : 47435185, Roll : -0.03, Pitch : -0.05, Yaw : 359.89, Alt : 37.3100013733, Lat : 49.2835704, Lng : -123.1150207, Q1 : 0.999999403954, Q2 : -0.000278143124888, Q3 : -0.000522947462741, Q4 : -0.00090380437905}
2019-04-14 17:56:03.11: SIM {TimeUS : 47535145, Roll : -0.07, Pitch : -0.08, Yaw : 359.89, Alt : 37.5400009155, Lat : 49.2835704, Lng : -123.1150207, Q1 : 0.99999910593, Q2 : -0.000639416626655, Q3 : -0.000746841891669, Q4 : -0.000929849804379}
2019-04-14 17:56:03.21: SIM {TimeUS : 47635105, Roll : -0.11, Pitch : -0.1, Yaw : 359.89, Alt : 37.7599983215, Lat : 49.2835704, Lng : -123.1150206, Q1 : 0.999998688698, Q2 : -0.00098354590591, Q3 : -0.000879071478266, Q4 : -0.000952333037276}
2019-04-14 17:56:03.31: SIM {TimeUS : 47735065, Roll : -0.13, Pitch : -0.1, Yaw : 359.88, Alt : 37.9900016785, Lat : 49.2835704, Lng : -123.1150206, Q1 : 0.999998390675, Q2 : -0.00119238719344, Q3 : -0.000923624145798, Q4 : -0.000974412425421}
2019-04-14 17:56:03.41: SIM {TimeUS : 47835025, Roll : -0.14, Pitch : -0.09, Yaw : 359.88, Alt : 38.2200012207, Lat : 49.2835704, Lng : -123.1150206, Q1 : 0.999998390675, Q2 : -0.00124004646204, Q3 : -0.000833564379718, Q4 : -0.00099646486342}
2019-04-14 17:56:03.51: SIM {TimeUS : 47934985, Roll : -0.12, Pitch : -0.06, Yaw : 359.88, Alt : 38.4500007629, Lat : 49.2835704, Lng : -123.1150206, Q1 : 0.999998748302, Q2 : -0.00107943755575, Q3 : -0.000560220098123, Q4 : -0.00101612310391}
2019-04-14 17:56:03.61: SIM {TimeUS : 48034945, Roll : -0.09, Pitch : -0.04, Yaw : 359.88, Alt : 38.6699981689, Lat : 49.2835704, Lng : -123.1150206, Q1 : 0.999999046326, Q2 : -0.000836876977701, Q3 : -0.000394279835746, Q4 : -0.0010350701632}
2019-04-14 17:56:03.71: SIM {TimeUS : 48134905, Roll : -0.07, Pitch : -0.04, Yaw : 359.87, Alt : 38.9000015259, Lat : 49.2835704, Lng : -123.1150206, Q1 : 0.99999910593, Q2 : -0.000696865667123, Q3 : -0.000352361850673, Q4 : -0.00105977675412}
2019-04-14 17:56:03.81: SIM {TimeUS : 48234865, Roll : -0.07, Pitch : -0.02, Yaw : 359.87, Alt : 39.1300010681, Lat : 49.2835704, Lng : -123.1150206, Q1 : 0.999999165535, Q2 : -0.000653764873277, Q3 : -0.000197893430595, Q4 : -0.00108021404594}
2019-04-14 17:56:03.91: SIM {TimeUS : 48334825, Roll : -0.08, Pitch : 0.0, Yaw : 359.87, Alt : 39.3600006104, Lat : 49.2835704, Lng : -123.1150206, Q1 : 0.999999165535, Q2 : -0.000756490451749, Q3 : 7.27152473701e-06, Q4 : -0.00109567807522}
2019-04-14 17:56:04.01: SIM {TimeUS : 48434785, Roll : -0.08, Pitch : 0.01, Yaw : 359.87, Alt : 39.5900001526, Lat : 49.2835704, Lng : -123.1150206, Q1 : 0.99999910593, Q2 : -0.000729659805074, Q3 : 0.000153185173986, Q4 : -0.00110844557639}
2019-04-14 17:56:04.11: SIM {TimeUS : 48534745, Roll : -0.06, Pitch : 0.04, Yaw : 359.87, Alt : 39.8199996948, Lat : 49.2835704, Lng : -123.1150206, Q1 : 0.99999910593, Q2 : -0.000580337073188, Q3 : 0.000368814071408, Q4 : -0.00112406443805}
2019-04-14 17:56:04.21: SIM {TimeUS : 48635538, Roll : -0.04, Pitch : 0.04, Yaw : 359.87, Alt : 40.0600013733, Lat : 49.2835706, Lng : -123.1150206, Q1 : 0.99999922514, Q2 : -0.000360007165, Q3 : 0.000357185199391, Q4 : -0.00113229430281}
2019-04-14 17:56:04.31: SIM {TimeUS : 48735498, Roll : 0.0, Pitch : 0.03, Yaw : 359.86, Alt : 40.2900009155, Lat : 49.2835706, Lng : -123.1150207, Q1 : 0.999999344349, Q2 : -8.582425653e-05, Q3 : 0.000281427724985, Q4 : -0.00113981077448}
2019-04-14 17:56:04.41: SIM {TimeUS : 48835458, Roll : 0.02, Pitch : 0.05, Yaw : 359.86, Alt : 40.5200004578, Lat : 49.2835706, Lng : -123.1150207, Q1 : 0.99999922514, Q2 : 0.00020674681582, Q3 : 0.000451097002951, Q4 : -0.00114550557919}
2019-04-14 17:56:04.51: SIM {TimeUS : 48935418, Roll : 0.06, Pitch : 0.09, Yaw : 359.86, Alt : 40.75, Lat : 49.2835706, Lng : -123.1150207, Q1 : 0.999998867512, Q2 : 0.000572462566197, Q3 : 0.000794916355517, Q4 : -0.00115544197615}
2019-04-14 17:56:04.61: SIM {TimeUS : 49035378, Roll : 0.09, Pitch : 0.12, Yaw : 359.86, Alt : 40.9799995422, Lat : 49.2835706, Lng : -123.1150207, Q1 : 0.99999833107, Q2 : 0.000815492880065, Q3 : 0.00112417270429, Q4 : -0.00117569230497}
2019-04-14 17:56:04.71: SIM {TimeUS : 49135338, Roll : 0.08, Pitch : 0.15, Yaw : 359.86, Alt : 41.2200012207, Lat : 49.2835706, Lng : -123.1150207, Q1 : 0.999998152256, Q2 : 0.000727366714273, Q3 : 0.00134376785718, Q4 : -0.00119363993872}
2019-04-14 17:56:04.81: SIM {TimeUS : 49235298, Roll : 0.03, Pitch : 0.16, Yaw : 359.86, Alt : 41.4500007629, Lat : 49.2835706, Lng : -123.1150207, Q1 : 0.999998092651, Q2 : 0.000333935953677, Q3 : 0.00146996509284, Q4 : -0.00121752044652}
2019-04-14 17:56:04.91: SIM {TimeUS : 49335258, Roll : 0.0, Pitch : 0.17, Yaw : 359.85, Alt : 41.6800003052, Lat : 49.2835706, Lng : -123.1150207, Q1 : 0.999998092651, Q2 : -2.70514319709e-05, Q3 : 0.00151033280417, Q4 : -0.00124171585776}
2019-04-14 17:56:05.01: SIM {TimeUS : 49435218, Roll : -0.02, Pitch : 0.14, Yaw : 359.85, Alt : 41.9199981689, Lat : 49.2835706, Lng : -123.1150207, Q1 : 0.99999833107, Q2 : -0.000197470450075, Q3 : 0.00130617374089, Q4 : -0.00126123800874}
2019-04-14 17:56:05.11: SIM {TimeUS : 49535178, Roll : -0.02, Pitch : 0.11, Yaw : 359.85, Alt : 42.1500015259, Lat : 49.2835706, Lng : -123.1150207, Q1 : 0.999998629093, Q2 : -0.000216541462578, Q3 : 0.00101383193396, Q4 : -0.00128117960412}
2019-04-14 17:56:05.21: SIM {TimeUS : 49635138, Roll : 0.0, Pitch : 0.11, Yaw : 359.85, Alt : 42.3800010681, Lat : 49.2835706, Lng : -123.1150207, Q1 : 0.999998688698, Q2 : -7.85768061178e-05, Q3 : 0.000995917827822, Q4 : -0.00130221317522}
2019-04-14 17:56:05.31: SIM {TimeUS : 49735098, Roll : 0.02, Pitch : 0.12, Yaw : 359.84, Alt : 42.6199989319, Lat : 49.2835706, Lng : -123.1150207, Q1 : 0.999998450279, Q2 : 0.000256344210356, Q3 : 0.00113399245311, Q4 : -0.00133070710581}
2019-04-14 17:56:05.41: SIM {TimeUS : 49835058, Roll : 0.07, Pitch : 0.14, Yaw : 359.84, Alt : 42.8499984741, Lat : 49.2835706, Lng : -123.1150207, Q1 : 0.999998033047, Q2 : 0.000694432121236, Q3 : 0.00126186490525, Q4 : -0.0013589062728}
2019-04-14 17:56:05.51: SIM {TimeUS : 49935018, Roll : 0.11, Pitch : 0.13, Yaw : 359.84, Alt : 43.0900001526, Lat : 49.2835706, Lng : -123.1150207, Q1 : 0.999997854233, Q2 : 0.00100534630474, Q3 : 0.00118102622218, Q4 : -0.00139629316982}
2019-04-14 17:56:05.61: SIM {TimeUS : 50034978, Roll : 0.11, Pitch : 0.11, Yaw : 359.83, Alt : 43.3199996948, Lat : 49.2835706, Lng : -123.1150207, Q1 : 0.999997973442, Q2 : 0.00101207336411, Q3 : 0.000992221175693, Q4 : -0.00143171171658}
2019-04-14 17:56:05.71: SIM {TimeUS : 50134938, Roll : 0.07, Pitch : 0.09, Yaw : 359.83, Alt : 43.5600013733, Lat : 49.2835704, Lng : -123.1150207, Q1 : 0.999998390675, Q2 : 0.000657943193801, Q3 : 0.000844016496558, Q4 : -0.00144808413461}
2019-04-14 17:56:05.81: SIM {TimeUS : 50234898, Roll : 0.01, Pitch : 0.08, Yaw : 359.83, Alt : 43.7900009155, Lat : 49.2835704, Lng : -123.1150207, Q1 : 0.999998629093, Q2 : 0.000158562077559, Q3 : 0.000752530060709, Q4 : -0.00146096351091}
2019-04-14 17:56:05.91: SIM {TimeUS : 50334858, Roll : -0.02, Pitch : 0.08, Yaw : 359.83, Alt : 44.0299987793, Lat : 49.2835704, Lng : -123.1150207, Q1 : 0.999998569489, Q2 : -0.000194930835278, Q3 : 0.000776244385634, Q4 : -0.00148048065603}
2019-04-14 17:56:06.01: SIM {TimeUS : 50434818, Roll : -0.04, Pitch : 0.08, Yaw : 359.82, Alt : 44.2700004578, Lat : 49.2835704, Lng : -123.1150207, Q1 : 0.999998569489, Q2 : -0.000367218453903, Q3 : 0.00073357578367, Q4 : -0.00150249875151}
2019-04-14 17:56:06.11: SIM {TimeUS : 50534778, Roll : -0.03, Pitch : 0.06, Yaw : 359.82, Alt : 44.5, Lat : 49.2835704, Lng : -123.1150207, Q1 : 0.999998569489, Q2 : -0.000337197299814, Q3 : 0.000609463138971, Q4 : -0.00152935378719}
2019-04-14 17:56:06.21: SIM {TimeUS : 50634738, Roll : -0.04, Pitch : 0.05, Yaw : 359.82, Alt : 44.7400016785, Lat : 49.2835704, Lng : -123.1150206, Q1 : 0.999998629093, Q2 : -0.000379533565138, Q3 : 0.000445527228294, Q4 : -0.00155855249614}
2019-04-14 17:56:06.31: SIM {TimeUS : 50735531, Roll : -0.04, Pitch : 0.03, Yaw : 359.81, Alt : 44.9799995422, Lat : 49.2835704, Lng : -123.1150206, Q1 : 0.999998629093, Q2 : -0.000365148793207, Q3 : 0.00027668470284, Q4 : -0.00158778845798}
2019-04-14 17:56:06.41: SIM {TimeUS : 50835491, Roll : -0.03, Pitch : 0.01, Yaw : 359.81, Alt : 45.2099990845, Lat : 49.2835704, Lng : -123.1150206, Q1 : 0.999998688698, Q2 : -0.000267882773187, Q3 : 0.000167928592418, Q4 : -0.00161353813019}
2019-04-14 17:56:06.51: SIM {TimeUS : 50935451, Roll : -0.02, Pitch : 0.01, Yaw : 359.81, Alt : 45.4500007629, Lat : 49.2835704, Lng : -123.1150206, Q1 : 0.999998629093, Q2 : -0.000207136879908, Q3 : 0.000121288110677, Q4 : -0.00164076196961}
2019-04-14 17:56:06.61: SIM {TimeUS : 51035411, Roll : -0.02, Pitch : 0.0, Yaw : 359.8, Alt : 45.6800003052, Lat : 49.2835703, Lng : -123.1150206, Q1 : 0.999998569489, Q2 : -0.000226760399528, Q3 : -2.14707006307e-06, Q4 : -0.00167099596001}
2019-04-14 17:56:06.71: SIM {TimeUS : 51135371, Roll : -0.03, Pitch : -0.02, Yaw : 359.8, Alt : 45.9099998474, Lat : 49.2835703, Lng : -123.1150206, Q1 : 0.999998450279, Q2 : -0.000275777507341, Q3 : -0.000222004338866, Q4 : -0.00170339806937}
2019-04-14 17:56:06.81: SIM {TimeUS : 51235331, Roll : -0.03, Pitch : -0.04, Yaw : 359.8, Alt : 46.1399993896, Lat : 49.2835703, Lng : -123.1150206, Q1 : 0.999998390675, Q2 : -0.000287559989374, Q3 : -0.000350655376678, Q4 : -0.0017391438596}
2019-04-14 17:56:06.91: SIM {TimeUS : 51335291, Roll : -0.02, Pitch : -0.04, Yaw : 359.79, Alt : 46.3699989319, Lat : 49.2835703, Lng : -123.1150206, Q1 : 0.99999833107, Q2 : -0.000218521076022, Q3 : -0.000396346207708, Q4 : -0.00177940784488}
2019-04-14 17:56:07.01: SIM {TimeUS : 51435251, Roll : -0.02, Pitch : -0.04, Yaw : 359.79, Alt : 46.5900001526, Lat : 49.2835703, Lng : -123.1150206, Q1 : 0.999998271465, Q2 : -0.000228345670621, Q3 : -0.000392551039113, Q4 : -0.00182151782792}
2019-04-14 17:56:07.11: SIM {TimeUS : 51535211, Roll : -0.04, Pitch : -0.04, Yaw : 359.78, Alt : 46.8100013733, Lat : 49.2835703, Lng : -123.1150206, Q1 : 0.999998152256, Q2 : -0.000401774363127, Q3 : -0.000365119136404, Q4 : -0.00186134735122}
2019-04-14 17:56:07.21: SIM {TimeUS : 51635171, Roll : -0.07, Pitch : -0.04, Yaw : 359.78, Alt : 47.0200004578, Lat : 49.2835703, Lng : -123.1150206, Q1 : 0.999997913837, Q2 : -0.000682181096636, Q3 : -0.000359189551091, Q4 : -0.00190142332576}
2019-04-14 17:56:07.31: SIM {TimeUS : 51735131, Roll : -0.1, Pitch : -0.04, Yaw : 359.77, Alt : 47.2200012207, Lat : 49.2835703, Lng : -123.1150206, Q1 : 0.999997615814, Q2 : -0.000887524220161, Q3 : -0.000362235063221, Q4 : -0.00193931348622}
2019-04-14 17:56:07.41: SIM {TimeUS : 51835091, Roll : -0.1, Pitch : -0.03, Yaw : 359.77, Alt : 47.4199981689, Lat : 49.2835703, Lng : -123.1150206, Q1 : 0.99999755621, Q2 : -0.000956848147325, Q3 : -0.000278818683, Q4 : -0.00196918402798}
2019-04-14 17:56:07.51: SIM {TimeUS : 51935051, Roll : -0.1, Pitch : 0.0, Yaw : 359.77, Alt : 47.5999984741, Lat : 49.2835703, Lng : -123.1150206, Q1 : 0.999997615814, Q2 : -0.000896237266716, Q3 : -7.4297102401e-05, Q4 : -0.00199354114011}
2019-04-14 17:56:07.61: SIM {TimeUS : 52035011, Roll : -0.11, Pitch : -0.01, Yaw : 359.76, Alt : 47.7799987793, Lat : 49.2835703, Lng : -123.1150206, Q1 : 0.999997437, Q2 : -0.00103319820482, Q3 : -0.000145956204506, Q4 : -0.00201546354219}
2019-04-14 17:56:07.71: SIM {TimeUS : 52134971, Roll : -0.12, Pitch : -0.03, Yaw : 359.76, Alt : 47.9399986267, Lat : 49.2835703, Lng : -123.1150206, Q1 : 0.999997258186, Q2 : -0.00111232709605, Q3 : -0.000278297811747, Q4 : -0.00203489651904}
2019-04-14 17:56:07.81: SIM {TimeUS : 52234931, Roll : -0.12, Pitch : -0.04, Yaw : 359.76, Alt : 48.0900001526, Lat : 49.2835703, Lng : -123.1150206, Q1 : 0.999997198582, Q2 : -0.00109058944508, Q3 : -0.000419473741204, Q4 : -0.00205227197148}
2019-04-14 17:56:07.91: SIM {TimeUS : 52334891, Roll : -0.1, Pitch : -0.06, Yaw : 359.76, Alt : 48.2400016785, Lat : 49.2835703, Lng : -123.1150206, Q1 : 0.999997317791, Q2 : -0.000889123417437, Q3 : -0.000566402974073, Q4 : -0.00206807395443}
2019-04-14 17:56:08.01: SIM {TimeUS : 52434851, Roll : -0.06, Pitch : -0.07, Yaw : 359.76, Alt : 48.3600006104, Lat : 49.2835703, Lng : -123.1150206, Q1 : 0.999997437, Q2 : -0.000555363250896, Q3 : -0.000665701169055, Q4 : -0.00208094227128}
2019-04-14 17:56:08.11: SIM {TimeUS : 52534811, Roll : -0.03, Pitch : -0.08, Yaw : 359.76, Alt : 48.4799995422, Lat : 49.2835703, Lng : -123.1150206, Q1 : 0.999997496605, Q2 : -0.00029637166881, Q3 : -0.000734504079446, Q4 : -0.00209195935167}
2019-04-14 17:56:08.21: SIM {TimeUS : 52634771, Roll : -0.02, Pitch : -0.09, Yaw : 359.75, Alt : 48.5800018311, Lat : 49.2835703, Lng : -123.1150206, Q1 : 0.999997437, Q2 : -0.000195716100279, Q3 : -0.000788511766586, Q4 : -0.00210395781323}
2019-04-14 17:56:08.31: SIM {TimeUS : 52735564, Roll : 0.0, Pitch : -0.08, Yaw : 359.75, Alt : 48.6800003052, Lat : 49.2835703, Lng : -123.1150206, Q1 : 0.999997496605, Q2 : 7.00996461092e-05, Q3 : -0.000711717293598, Q4 : -0.00211877282709}
2019-04-14 17:56:08.41: SIM {TimeUS : 52835524, Roll : 0.03, Pitch : -0.06, Yaw : 359.75, Alt : 48.7599983215, Lat : 49.2835703, Lng : -123.1150206, Q1 : 0.999997496605, Q2 : 0.000345395645127, Q3 : -0.000591945892666, Q4 : -0.00213659345172}
2019-04-14 17:56:08.51: SIM {TimeUS : 52935484, Roll : 0.06, Pitch : -0.04, Yaw : 359.75, Alt : 48.8300018311, Lat : 49.2835703, Lng : -123.1150206, Q1 : 0.999997437, Q2 : 0.000550305703655, Q3 : -0.000371621747036, Q4 : -0.00216116756201}
2019-04-14 17:56:08.61: SIM {TimeUS : 53035444, Roll : 0.07, Pitch : -0.01, Yaw : 359.74, Alt : 48.8899993896, Lat : 49.2835703, Lng : -123.1150206, Q1 : 0.999997377396, Q2 : 0.000655548938084, Q3 : -0.000161065443535, Q4 : -0.00218980317004}
2019-04-14 17:56:08.71: SIM {TimeUS : 53135404, Roll : 0.07, Pitch : -0.01, Yaw : 359.74, Alt : 48.9399986267, Lat : 49.2835703, Lng : -123.1150207, Q1 : 0.999997317791, Q2 : 0.000680983939674, Q3 : -0.000103112441138, Q4 : -0.00222476990893}
2019-04-14 17:56:08.81: SIM {TimeUS : 53235364, Roll : 0.06, Pitch : -0.02, Yaw : 359.74, Alt : 48.9799995422, Lat : 49.2835703, Lng : -123.1150207, Q1 : 0.999997258186, Q2 : 0.000582254608162, Q3 : -0.000205017393455, Q4 : -0.00226199463941}
2019-04-14 17:56:08.91: SIM {TimeUS : 53335324, Roll : 0.04, Pitch : -0.03, Yaw : 359.73, Alt : 49.0200004578, Lat : 49.2835703, Lng : -123.1150207, Q1 : 0.999997258186, Q2 : 0.000421100878157, Q3 : -0.000330504582962, Q4 : -0.00229373690672}
2019-04-14 17:56:09.01: SIM {TimeUS : 53435284, Roll : 0.13, Pitch : -0.1, Yaw : 359.73, Alt : 49.0600013733, Lat : 49.2835703, Lng : -123.1150207, Q1 : 0.999996304512, Q2 : 0.00113522598986, Q3 : -0.000888245529495, Q4 : -0.00232063210569}
2019-04-14 17:56:09.11: SIM {TimeUS : 53535244, Roll : 0.4, Pitch : -0.29, Yaw : 359.73, Alt : 49.0800018311, Lat : 49.2835703, Lng : -123.1150207, Q1 : 0.999987542629, Q2 : 0.00356517662294, Q3 : -0.00258593051694, Q4 : -0.00234624417499}
2019-04-14 17:56:09.21: SIM {TimeUS : 53635204, Roll : 0.92, Pitch : -0.63, Yaw : 359.72, Alt : 49.1100006104, Lat : 49.2835703, Lng : -123.1150207, Q1 : 0.999949276447, Q2 : 0.00803376175463, Q3 : -0.0055986950174, Q4 : -0.00236503919587}
2019-04-14 17:56:09.31: SIM {TimeUS : 53735164, Roll : 1.65, Pitch : -1.11, Yaw : 359.71, Alt : 49.1300010681, Lat : 49.2835704, Lng : -123.1150206, Q1 : 0.999845564365, Q2 : 0.0144426878542, Q3 : -0.00973067618906, Q4 : -0.00236888206564}
2019-04-14 17:56:09.41: SIM {TimeUS : 53835124, Roll : 2.52, Pitch : -1.68, Yaw : 359.69, Alt : 49.1500015259, Lat : 49.2835704, Lng : -123.1150206, Q1 : 0.999646604061, Q2 : 0.0220097415149, Q3 : -0.0147223304957, Q4 : -0.00233636144549}
2019-04-14 17:56:09.51: SIM {TimeUS : 53935084, Roll : 3.38, Pitch : -2.27, Yaw : 359.67, Alt : 49.1599998474, Lat : 49.2835706, Lng : -123.1150205, Q1 : 0.999362528324, Q2 : 0.0295073017478, Q3 : -0.0199691969901, Q4 : -0.00226208451204}
2019-04-14 17:56:09.61: SIM {TimeUS : 54035044, Roll : 4.1, Pitch : -2.79, Yaw : 359.65, Alt : 49.1800003052, Lat : 49.2835706, Lng : -123.1150203, Q1 : 0.999059259892, Q2 : 0.0357058756053, Q3 : -0.0245185326785, Q4 : -0.00212734704837}
2019-04-14 17:56:09.71: SIM {TimeUS : 54135004, Roll : 4.62, Pitch : -3.21, Yaw : 359.64, Alt : 49.1899986267, Lat : 49.2835708, Lng : -123.11502, Q1 : 0.998790442944, Q2 : 0.040268894285, Q3 : -0.0281484331936, Q4 : -0.0019444883801}
2019-04-14 17:56:09.81: SIM {TimeUS : 54234964, Roll : 5.0, Pitch : -3.52, Yaw : 359.64, Alt : 49.2000007629, Lat : 49.2835709, Lng : -123.1150198, Q1 : 0.998572707176, Q2 : 0.0435550436378, Q3 : -0.0308630950749, Q4 : -0.00171329383738}
2019-04-14 17:56:09.91: SIM {TimeUS : 54334924, Roll : 5.31, Pitch : -3.74, Yaw : 359.65, Alt : 49.2099990845, Lat : 49.283571, Lng : -123.1150193, Q1 : 0.998391568661, Q2 : 0.0462064519525, Q3 : -0.0328201763332, Q4 : -0.00144780962728}
2019-04-14 17:56:10.01: SIM {TimeUS : 54434884, Roll : 5.59, Pitch : -3.94, Yaw : 359.67, Alt : 49.2099990845, Lat : 49.2835714, Lng : -123.1150188, Q1 : 0.99821639061, Q2 : 0.0486792884767, Q3 : -0.034540232271, Q4 : -0.00117155117914}
2019-04-14 17:56:10.11: SIM {TimeUS : 54534844, Roll : 5.89, Pitch : -4.15, Yaw : 359.68, Alt : 49.2200012207, Lat : 49.2835716, Lng : -123.1150181, Q1 : 0.998022317886, Q2 : 0.051298327744, Q3 : -0.0363204590976, Q4 : -0.000902812753338}
2019-04-14 17:56:10.21: SIM {TimeUS : 54634804, Roll : 6.19, Pitch : -4.35, Yaw : 359.69, Alt : 49.2299995422, Lat : 49.283572, Lng : -123.1150174, Q1 : 0.997817456722, Q2 : 0.0539367645979, Q3 : -0.0380892194808, Q4 : -0.000642787781544}
2019-04-14 17:56:10.31: SIM {TimeUS : 54734764, Roll : 6.46, Pitch : -4.54, Yaw : 359.69, Alt : 49.2299995422, Lat : 49.2835724, Lng : -123.1150166, Q1 : 0.997624754906, Q2 : 0.0562367029488, Q3 : -0.0397758670151, Q4 : -0.000397709780373}
2019-04-14 17:56:10.41: SIM {TimeUS : 54835557, Roll : 6.67, Pitch : -4.71, Yaw : 359.7, Alt : 49.2400016785, Lat : 49.2835727, Lng : -123.1150157, Q1 : 0.997461855412, Q2 : 0.0580917000771, Q3 : -0.041172452271, Q4 : -0.000163692500792}
2019-04-14 17:56:10.51: SIM {TimeUS : 54935517, Roll : 6.84, Pitch : -4.82, Yaw : 359.71, Alt : 49.2400016785, Lat : 49.2835733, Lng : -123.1150147, Q1 : 0.997337222099, Q2 : 0.0594993494451, Q3 : -0.042170483619, Q4 : 4.13447487517e-05}
2019-04-14 17:56:10.61: SIM {TimeUS : 55035477, Roll : 6.95, Pitch : -4.88, Yaw : 359.72, Alt : 49.25, Lat : 49.2835738, Lng : -123.1150136, Q1 : 0.99725496769, Q2 : 0.0604794882238, Q3 : -0.0427175164223, Q4 : 0.000210219746805}
2019-04-14 17:56:10.71: SIM {TimeUS : 55135437, Roll : 7.04, Pitch : -4.94, Yaw : 359.73, Alt : 49.25, Lat : 49.2835743, Lng : -123.1150124, Q1 : 0.997181236744, Q2 : 0.0613259188831, Q3 : -0.0432271286845, Q4 : 0.000328119698679}
2019-04-14 17:56:10.81: SIM {TimeUS : 55235397, Roll : 7.2, Pitch : -4.99, Yaw : 359.75, Alt : 49.2599983215, Lat : 49.2835749, Lng : -123.1150111, Q1 : 0.997077643871, Q2 : 0.0627169087529, Q3 : -0.0436177887022, Q4 : 0.000580238818657}
2019-04-14 17:56:10.91: SIM {TimeUS : 55335357, Roll : 7.59, Pitch : -4.87, Yaw : 0.08, Alt : 49.2599983215, Lat : 49.2835756, Lng : -123.1150096, Q1 : 0.996898591518, Q2 : 0.0662027001381, Q3 : -0.0423993431032, Q4 : 0.00355457700789}
2019-04-14 17:56:11.01: SIM {TimeUS : 55435317, Roll : 8.19, Pitch : -4.66, Yaw : 1.37, Alt : 49.2599983215, Lat : 49.2835762, Lng : -123.1150082, Q1 : 0.996514320374, Q2 : 0.0718477591872, Q3 : -0.0396911166608, Q4 : 0.0148928202689}
2019-04-14 17:56:11.11: SIM {TimeUS : 55535277, Roll : 8.76, Pitch : -4.71, Yaw : 4.16, Alt : 49.2599983215, Lat : 49.2835769, Lng : -123.1150067, Q1 : 0.995462536812, Q2 : 0.0777517184615, Q3 : -0.0382052697241, Q4 : 0.0393616892397}
2019-04-14 17:56:11.21: SIM {TimeUS : 55635237, Roll : 9.05, Pitch : -5.26, Yaw : 8.52, Alt : 49.2599983215, Lat : 49.2835776, Lng : -123.115005, Q1 : 0.992803096771, Q2 : 0.0820297673345, Q3 : -0.0398132316768, Q4 : 0.0776409655809}
2019-04-14 17:56:11.31: SIM {TimeUS : 55735197, Roll : 8.88, Pitch : -6.33, Yaw : 14.27, Alt : 49.2700004578, Lat : 49.2835782, Lng : -123.1150032, Q1 : 0.987224936485, Q2 : 0.0835514366627, Q3 : -0.0450528264046, Q4 : 0.127969875932}
2019-04-14 17:56:11.41: SIM {TimeUS : 55835157, Roll : 8.11, Pitch : -7.77, Yaw : 21.18, Alt : 49.2700004578, Lat : 49.2835789, Lng : -123.1150013, Q1 : 0.977359771729, Q2 : 0.0818422883749, Q3 : -0.0535011067986, Q4 : 0.187636181712}
2019-04-14 17:56:11.51: SIM {TimeUS : 55935117, Roll : 6.73, Pitch : -9.37, Yaw : 28.98, Alt : 49.2700004578, Lat : 49.2835798, Lng : -123.1149993, Q1 : 0.962084531784, Q2 : 0.0770561024547, Q3 : -0.0643282458186, Q4 : 0.253609150648}
2019-04-14 17:56:11.61: SIM {TimeUS : 56035077, Roll : 4.78, Pitch : -10.88, Yaw : 37.42, Alt : 49.2700004578, Lat : 49.2835806, Lng : -123.1149971, Q1 : 0.940776884556, Q2 : 0.069803096354, Q3 : -0.0764446780086, Q4 : 0.322835326195}
2019-04-14 17:56:11.71: SIM {TimeUS : 56135037, Roll : 2.25, Pitch : -12.13, Yaw : 46.17, Alt : 49.2700004578, Lat : 49.2835813, Lng : -123.1149949, Q1 : 0.913757681847, Q2 : 0.0594264566898, Q3 : -0.0895308479667, Q4 : 0.391790360212}
2019-04-14 17:56:11.81: SIM {TimeUS : 56234997, Roll : -0.84, Pitch : -12.9, Yaw : 54.54, Alt : 49.2700004578, Lat : 49.2835822, Lng : -123.1149926, Q1 : 0.883554041386, Q2 : 0.0449512824416, Q3 : -0.103226743639, Q4 : 0.454594135284}
2019-04-14 17:56:11.91: SIM {TimeUS : 56334957, Roll : -3.98, Pitch : -13.12, Yaw : 61.64, Alt : 49.2700004578, Lat : 49.2835831, Lng : -123.1149901, Q1 : 0.85467427969, Q2 : 0.0288344100118, Q3 : -0.115761958063, Q4 : 0.505271852016}
2019-04-14 17:56:12.01: SIM {TimeUS : 56434917, Roll : -6.5, Pitch : -12.95, Yaw : 66.81, Alt : 49.2700004578, Lat : 49.2835842, Lng : -123.1149876, Q1 : 0.831651329994, Q2 : 0.0149423992261, Q3 : -0.125075668097, Q4 : 0.540822386742}
2019-04-14 17:56:12.11: SIM {TimeUS : 56534877, Roll : -8.0, Pitch : -12.69, Yaw : 69.88, Alt : 49.2700004578, Lat : 49.2835853, Lng : -123.1149851, Q1 : 0.817155241966, Q2 : 0.00632256316021, Q3 : -0.130111426115, Q4 : 0.561505436897}
2019-04-14 17:56:12.21: SIM {TimeUS : 56634837, Roll : -8.41, Pitch : -12.56, Yaw : 71.03, Alt : 49.2700004578, Lat : 49.2835865, Lng : -123.1149825, Q1 : 0.811540305614, Q2 : 0.00407532043755, Q3 : -0.131173878908, Q4 : 0.569367289543}
2019-04-14 17:56:12.31: SIM {TimeUS : 56734797, Roll : -7.88, Pitch : -12.69, Yaw : 70.6, Alt : 49.2700004578, Lat : 49.2835879, Lng : -123.1149798, Q1 : 0.81355959177, Q2 : 0.00801485963166, Q3 : -0.129514202476, Q4 : 0.566818058491}
2019-04-14 17:56:12.41: SIM {TimeUS : 56834757, Roll : -6.66, Pitch : -13.11, Yaw : 68.97, Alt : 49.2799987793, Lat : 49.2835892, Lng : -123.1149771, Q1 : 0.821225643158, Q2 : 0.0169887170196, Q3 : -0.126680955291, Q4 : 0.556104123592}
2019-04-14 17:56:12.51: SIM {TimeUS : 56935550, Roll : -4.99, Pitch : -13.74, Yaw : 66.45, Alt : 49.2799987793, Lat : 49.2835908, Lng : -123.1149744, Q1 : 0.832559704781, Q2 : 0.0293061248958, Q3 : -0.12376511842, Q4 : 0.539136052132}
2019-04-14 17:56:12.61: SIM {TimeUS : 57035510, Roll : -3.11, Pitch : -14.44, Yaw : 63.4, Alt : 49.2799987793, Lat : 49.2835923, Lng : -123.1149715, Q1 : 0.845503151417, Q2 : 0.0430786013603, Q3 : -0.121127821505, Q4 : 0.518263220787}
2019-04-14 17:56:12.71: SIM {TimeUS : 57135470, Roll : -1.21, Pitch : -15.08, Yaw : 60.13, Alt : 49.2799987793, Lat : 49.283594, Lng : -123.1149686, Q1 : 0.858589231968, Q2 : 0.0566865950823, Q3 : -0.118874125183, Q4 : 0.495459467173}
2019-04-14 17:56:12.81: SIM {TimeUS : 57235430, Roll : 0.54, Pitch : -15.55, Yaw : 56.96, Alt : 49.2799987793, Lat : 49.2835957, Lng : -123.1149656, Q1 : 0.87056940794, Q2 : 0.0686634555459, Q3 : -0.116747625172, Q4 : 0.473037183285}
2019-04-14 17:56:12.91: SIM {TimeUS : 57335390, Roll : 1.99, Pitch : -15.8, Yaw : 54.21, Alt : 49.2799987793, Lat : 49.2835972, Lng : -123.1149624, Q1 : 0.880492925644, Q2 : 0.0779667645693, Q3 : -0.114553630352, Q4 : 0.453355103731}
2019-04-14 17:56:13.01: SIM {TimeUS : 57435350, Roll : 3.01, Pitch : -15.87, Yaw : 52.12, Alt : 49.2799987793, Lat : 49.2835989, Lng : -123.1149591, Q1 : 0.887817323208, Q2 : 0.0840690508485, Q3 : -0.112594470382, Q4 : 0.438218325377}
2019-04-14 17:56:13.11: SIM {TimeUS : 57535310, Roll : 3.56, Pitch : -15.84, Yaw : 50.81, Alt : 49.2799987793, Lat : 49.2836006, Lng : -123.1149557, Q1 : 0.892379879951, Q2 : 0.0869538336992, Q3 : -0.111180923879, Q4 : 0.428644329309}
2019-04-14 17:56:13.21: SIM {TimeUS : 57635270, Roll : 3.65, Pitch : -15.78, Yaw : 50.3, Alt : 49.2799987793, Lat : 49.2836023, Lng : -123.1149522, Q1 : 0.894285321236, Q2 : 0.0869210213423, Q3 : -0.110761106014, Q4 : 0.424771159887}
2019-04-14 17:56:13.31: SIM {TimeUS : 57735230, Roll : 3.33, Pitch : -15.75, Yaw : 50.5, Alt : 49.2799987793, Lat : 49.2836039, Lng : -123.1149485, Q1 : 0.89380645752, Q2 : 0.0845071449876, Q3 : -0.111642450094, Q4 : 0.426033526659}
2019-04-14 17:56:13.41: SIM {TimeUS : 57835190, Roll : 2.7, Pitch : -15.8, Yaw : 51.27, Alt : 49.2900009155, Lat : 49.2836056, Lng : -123.1149447, Q1 : 0.891331315041, Q2 : 0.0805789753795, Q3 : -0.113802492619, Q4 : 0.431375145912}
2019-04-14 17:56:13.51: SIM {TimeUS : 57935150, Roll : 1.9, Pitch : -15.93, Yaw : 52.42, Alt : 49.2900009155, Lat : 49.2836074, Lng : -123.1149409, Q1 : 0.887361586094, Q2 : 0.0759477540851, Q3 : -0.117075651884, Q4 : 0.439448177814}
2019-04-14 17:56:13.61: SIM {TimeUS : 58035110, Roll : 1.02, Pitch : -16.1, Yaw : 53.77, Alt : 49.2900009155, Lat : 49.2836091, Lng : -123.114937, Q1 : 0.882519006729, Q2 : 0.0712055265903, Q3 : -0.120914198458, Q4 : 0.448853760958}
2019-04-14 17:56:13.71: SIM {TimeUS : 58135070, Roll : 0.16, Pitch : -16.27, Yaw : 55.13, Alt : 49.2900009155, Lat : 49.2836108, Lng : -123.114933, Q1 : 0.877455711365, Q2 : 0.0667751058936, Q3 : -0.124776445329, Q4 : 0.458304941654}
2019-04-14 17:56:13.81: SIM {TimeUS : 58235030, Roll : -0.56, Pitch : -16.38, Yaw : 56.35, Alt : 49.2900009155, Lat : 49.2836126, Lng : -123.1149289, Q1 : 0.872803270817, Q2 : 0.0629773810506, Q3 : -0.127898558974, Q4 : 0.466787219048}
2019-04-14 17:56:13.91: SIM {TimeUS : 58334990, Roll : -1.09, Pitch : -16.43, Yaw : 57.33, Alt : 49.2900009155, Lat : 49.2836144, Lng : -123.1149248, Q1 : 0.869022846222, Q2 : 0.0602514483035, Q3 : -0.129981845617, Q4 : 0.473575532436}
2019-04-14 17:56:14.01: SIM {TimeUS : 58434950, Roll : -1.42, Pitch : -16.45, Yaw : 57.99, Alt : 49.2900009155, Lat : 49.2836163, Lng : -123.1149206, Q1 : 0.866417765617, Q2 : 0.0585909932852, Q3 : -0.131156459451, Q4 : 0.478210568428}
2019-04-14 17:56:14.11: SIM {TimeUS : 58534910, Roll : -1.53, Pitch : -16.47, Yaw : 58.33, Alt : 49.2900009155, Lat : 49.2836181, Lng : -123.1149164, Q1 : 0.865068972111, Q2 : 0.0582374334335, Q3 : -0.131521418691, Q4 : 0.480589449406}
2019-04-14 17:56:14.21: SIM {TimeUS : 58634870, Roll : -1.42, Pitch : -16.46, Yaw : 58.35, Alt : 49.2900009155, Lat : 49.2836201, Lng : -123.1149121, Q1 : 0.864934265614, Q2 : 0.0590401142836, Q3 : -0.131052568555, Q4 : 0.480861961842}
2019-04-14 17:56:14.31: SIM {TimeUS : 58734830, Roll : -1.18, Pitch : -16.47, Yaw : 58.11, Alt : 49.2900009155, Lat : 49.283622, Lng : -123.1149078, Q1 : 0.865800917149, Q2 : 0.0606621392071, Q3 : -0.130172997713, Q4 : 0.479336947203}
2019-04-14 17:56:14.41: SIM {TimeUS : 58834790, Roll : -0.85, Pitch : -16.5, Yaw : 57.68, Alt : 49.2900009155, Lat : 49.2836239, Lng : -123.1149035, Q1 : 0.867374837399, Q2 : 0.0627547428012, Q3 : -0.129326969385, Q4 : 0.476442366838}
2019-04-14 17:56:14.51: SIM {TimeUS : 58934750, Roll : -0.51, Pitch : -16.57, Yaw : 57.14, Alt : 49.2900009155, Lat : 49.283626, Lng : -123.1148991, Q1 : 0.869346737862, Q2 : 0.0650393888354, Q3 : -0.128658875823, Q4 : 0.47270822525}
2019-04-14 17:56:14.61: SIM {TimeUS : 59035543, Roll : -0.17, Pitch : -16.65, Yaw : 56.56, Alt : 49.2900009155, Lat : 49.283628, Lng : -123.1148946, Q1 : 0.871440947056, Q2 : 0.0673112422228, Q3 : -0.128199175, Q4 : 0.468641489744}
2019-04-14 17:56:14.71: SIM {TimeUS : 59135503, Roll : 0.12, Pitch : -16.7, Yaw : 56.02, Alt : 49.2900009155, Lat : 49.2836299, Lng : -123.1148902, Q1 : 0.87340760231, Q2 : 0.069197230041, Q3 : -0.127743497491, Q4 : 0.464814454317}
2019-04-14 17:56:14.81: SIM {TimeUS : 59235463, Roll : 0.36, Pitch : -16.75, Yaw : 55.56, Alt : 49.2900009155, Lat : 49.2836321, Lng : -123.1148856, Q1 : 0.875050485134, Q2 : 0.0707178711891, Q3 : -0.127404093742, Q4 : 0.46157759428}
2019-04-14 17:56:14.91: SIM {TimeUS : 59335423, Roll : 0.53, Pitch : -16.79, Yaw : 55.23, Alt : 49.2900009155, Lat : 49.2836341, Lng : -123.1148811, Q1 : 0.87625169754, Q2 : 0.0717930868268, Q3 : -0.127265259624, Q4 : 0.459164649248}
2019-04-14 17:56:15.01: SIM {TimeUS : 59435383, Roll : 0.62, Pitch : -16.83, Yaw : 55.02, Alt : 49.2900009155, Lat : 49.2836361, Lng : -123.1148765, Q1 : 0.87696480751, Q2 : 0.072439558804, Q3 : -0.127344891429, Q4 : 0.457677304745}
2019-04-14 17:56:15.11: SIM {TimeUS : 59535343, Roll : 0.64, Pitch : -16.86, Yaw : 54.95, Alt : 49.2900009155, Lat : 49.2836382, Lng : -123.1148718, Q1 : 0.87722158432, Q2 : 0.0725997239351, Q3 : -0.127572104335, Q4 : 0.457096248865}
2019-04-14 17:56:15.21: SIM {TimeUS : 59635303, Roll : 0.59, Pitch : -16.89, Yaw : 54.98, Alt : 49.2900009155, Lat : 49.2836402, Lng : -123.1148671, Q1 : 0.87707978487, Q2 : 0.0723717063665, Q3 : -0.127899989486, Q4 : 0.457312822342}
2019-04-14 17:56:15.31: SIM {TimeUS : 59735263, Roll : 0.49, Pitch : -16.9, Yaw : 55.1, Alt : 49.2900009155, Lat : 49.2836424, Lng : -123.1148624, Q1 : 0.876636147499, Q2 : 0.0717673823237, Q3 : -0.128360629082, Q4 : 0.458128929138}
2019-04-14 17:56:15.41: SIM {TimeUS : 59835223, Roll : 0.35, Pitch : -16.93, Yaw : 55.29, Alt : 49.2999992371, Lat : 49.2836445, Lng : -123.1148576, Q1 : 0.875971674919, Q2 : 0.0710048824549, Q3 : -0.128991603851, Q4 : 0.459339886904}
2019-04-14 17:56:15.51: SIM {TimeUS : 59935183, Roll : 0.19, Pitch : -16.96, Yaw : 55.49, Alt : 49.2999992371, Lat : 49.2836466, Lng : -123.1148529, Q1 : 0.875198960304, Q2 : 0.0701963454485, Q3 : -0.129784420133, Q4 : 0.460711687803}
2019-04-14 17:56:15.61: SIM {TimeUS : 60035143, Roll : 0.04, Pitch : -17.01, Yaw : 55.69, Alt : 49.2999992371, Lat : 49.2836487, Lng : -123.1148481, Q1 : 0.874429762363, Q2 : 0.069442473352, Q3 : -0.130628183484, Q4 : 0.462046146393}
2019-04-14 17:56:15.71: SIM {TimeUS : 60135103, Roll : -0.09, Pitch : -17.05, Yaw : 55.87, Alt : 49.2999992371, Lat : 49.2836509, Lng : -123.1148432, Q1 : 0.873770952225, Q2 : 0.0687056332827, Q3 : -0.131374850869, Q4 : 0.463189542294}
2019-04-14 17:56:15.81: SIM {TimeUS : 60235063, Roll : -0.21, Pitch : -17.07, Yaw : 56.0, Alt : 49.2999992371, Lat : 49.283653, Lng : -123.1148383, Q1 : 0.873283326626, Q2 : 0.0680846869946, Q3 : -0.131916686893, Q4 : 0.464046001434}
2019-04-14 17:56:15.91: SIM {TimeUS : 60335023, Roll : -0.28, Pitch : -17.1, Yaw : 56.08, Alt : 49.2999992371, Lat : 49.2836551, Lng : -123.1148334, Q1 : 0.872974932194, Q2 : 0.0676917880774, Q3 : -0.132401391864, Q4 : 0.464545458555}
2019-04-14 17:56:16.01: SIM {TimeUS : 60434983, Roll : -0.3, Pitch : -17.13, Yaw : 56.1, Alt : 49.2999992371, Lat : 49.2836572, Lng : -123.1148284, Q1 : 0.872837722301, Q2 : 0.0677408427, Q3 : -0.132742613554, Q4 : 0.464698702097}
2019-04-14 17:56:16.11: SIM {TimeUS : 60534943, Roll : -0.27, Pitch : -17.17, Yaw : 56.08, Alt : 49.2999992371, Lat : 49.2836595, Lng : -123.1148236, Q1 : 0.872877299786, Q2 : 0.0680773109198, Q3 : -0.132937639952, Q4 : 0.464519441128}
2019-04-14 17:56:16.21: SIM {TimeUS : 60634903, Roll : -0.2, Pitch : -17.21, Yaw : 56.01, Alt : 49.2999992371, Lat : 49.2836616, Lng : -123.1148186, Q1 : 0.873055398464, Q2 : 0.0686988830566, Q3 : -0.132994458079, Q4 : 0.464076757431}
2019-04-14 17:56:16.31: SIM {TimeUS : 60734863, Roll : -0.1, Pitch : -17.25, Yaw : 55.92, Alt : 49.3100013733, Lat : 49.2836639, Lng : -123.1148137, Q1 : 0.873329401016, Q2 : 0.069521650672, Q3 : -0.132946521044, Q4 : 0.463452011347}
2019-04-14 17:56:16.41: SIM {TimeUS : 60834823, Roll : -0.01, Pitch : -17.28, Yaw : 55.81, Alt : 49.3100013733, Lat : 49.2836661, Lng : -123.1148087, Q1 : 0.873679220676, Q2 : 0.0702387616038, Q3 : -0.132890567183, Q4 : 0.462699949741}
2019-04-14 17:56:16.51: SIM {TimeUS : 60934783, Roll : 0.04, Pitch : -17.3, Yaw : 55.7, Alt : 49.3100013733, Lat : 49.2836682, Lng : -123.1148037, Q1 : 0.874073624611, Q2 : 0.0706589072943, Q3 : -0.132806390524, Q4 : 0.461914598942}
2019-04-14 17:56:16.61: SIM {TimeUS : 61034743, Roll : 0.08, Pitch : -17.3, Yaw : 55.59, Alt : 49.3100013733, Lat : 49.2836706, Lng : -123.1147986, Q1 : 0.87446564436, Q2 : 0.0708105936646, Q3 : -0.132780596614, Q4 : 0.461156189442}
2019-04-14 17:56:16.71: SIM {TimeUS : 61135536, Roll : 0.11, Pitch : -17.31, Yaw : 55.5, Alt : 49.3100013733, Lat : 49.2836728, Lng : -123.1147935, Q1 : 0.874800920486, Q2 : 0.0710027515888, Q3 : -0.132722273469, Q4 : 0.460507065058}
2019-04-14 17:56:16.81: SIM {TimeUS : 61235496, Roll : 0.15, Pitch : -17.32, Yaw : 55.43, Alt : 49.3100013733, Lat : 49.283675, Lng : -123.1147885, Q1 : 0.875051438808, Q2 : 0.0712153762579, Q3 : -0.132703393698, Q4 : 0.460003435612}
2019-04-14 17:56:16.91: SIM {TimeUS : 61335456, Roll : 0.18, Pitch : -17.36, Yaw : 55.38, Alt : 49.3100013733, Lat : 49.2836773, Lng : -123.1147834, Q1 : 0.875176250935, Q2 : 0.0715931504965, Q3 : -0.132876619697, Q4 : 0.459657222033}
2019-04-14 17:56:17.01: SIM {TimeUS : 61435416, Roll : 0.21, Pitch : -17.42, Yaw : 55.36, Alt : 49.3100013733, Lat : 49.2836796, Lng : -123.1147783, Q1 : 0.8751937747, Q2 : 0.0720086395741, Q3 : -0.13325227797, Q4 : 0.459450185299}
2019-04-14 17:56:17.11: SIM {TimeUS : 61535376, Roll : 0.22, Pitch : -17.45, Yaw : 55.35, Alt : 49.3100013733, Lat : 49.2836819, Lng : -123.1147731, Q1 : 0.875173032284, Q2 : 0.0721884667873, Q3 : -0.133520156145, Q4 : 0.459383666515}
2019-04-14 17:56:17.21: SIM {TimeUS : 61635336, Roll : 0.21, Pitch : -17.46, Yaw : 55.36, Alt : 49.3100013733, Lat : 49.283684, Lng : -123.114768, Q1 : 0.875136256218, Q2 : 0.0721468627453, Q3 : -0.133605793118, Q4 : 0.459435373545}
2019-04-14 17:56:17.31: SIM {TimeUS : 61735296, Roll : 0.18, Pitch : -17.47, Yaw : 55.38, Alt : 49.3100013733, Lat : 49.2836864, Lng : -123.1147629, Q1 : 0.87507379055, Q2 : 0.0719943791628, Q3 : -0.133765101433, Q4 : 0.459531873465}
2019-04-14 17:56:17.41: SIM {TimeUS : 61835256, Roll : 0.13, Pitch : -17.49, Yaw : 55.4, Alt : 49.3199996948, Lat : 49.2836887, Lng : -123.1147577, Q1 : 0.874995291233, Q2 : 0.0717041417956, Q3 : -0.134131118655, Q4 : 0.459620088339}
2019-04-14 17:56:17.51: SIM {TimeUS : 61935216, Roll : 0.08, Pitch : -17.51, Yaw : 55.42, Alt : 49.3199996948, Lat : 49.283691, Lng : -123.1147525, Q1 : 0.874915003777, Q2 : 0.071490868926, Q3 : -0.134455487132, Q4 : 0.459711372852}
2019-04-14 17:56:17.61: SIM {TimeUS : 62035176, Roll : 0.05, Pitch : -17.54, Yaw : 55.43, Alt : 49.3199996948, Lat : 49.2836932, Lng : -123.1147473, Q1 : 0.874847471714, Q2 : 0.0713876932859, Q3 : -0.134764611721, Q4 : 0.459765464067}
2019-04-14 17:56:17.71: SIM {TimeUS : 62135136, Roll : 0.04, Pitch : -17.55, Yaw : 55.44, Alt : 49.3199996948, Lat : 49.2836955, Lng : -123.1147421, Q1 : 0.874808371067, Q2 : 0.0713722258806, Q3 : -0.134919315577, Q4 : 0.459796845913}
2019-04-14 17:56:17.81: SIM {TimeUS : 62235096, Roll : 0.05, Pitch : -17.57, Yaw : 55.44, Alt : 49.3199996948, Lat : 49.2836979, Lng : -123.1147369, Q1 : 0.874794721603, Q2 : 0.0714635103941, Q3 : -0.135023638606, Q4 : 0.459777921438}
2019-04-14 17:56:17.91: SIM {TimeUS : 62335056, Roll : 0.07, Pitch : -17.58, Yaw : 55.43, Alt : 49.3199996948, Lat : 49.2837003, Lng : -123.1147317, Q1 : 0.874810934067, Q2 : 0.0716287568212, Q3 : -0.13503549993, Q4 : 0.459717959166}
2019-04-14 17:56:18.01: SIM {TimeUS : 62435016, Roll : 0.09, Pitch : -17.6, Yaw : 55.41, Alt : 49.3199996948, Lat : 49.2837026, Lng : -123.1147264, Q1 : 0.874832808971, Q2 : 0.0719010308385, Q3 : -0.135080218315, Q4 : 0.459620624781}
2019-04-14 17:56:18.11: SIM {TimeUS : 62534976, Roll : 0.12, Pitch : -17.63, Yaw : 55.39, Alt : 49.3199996948, Lat : 49.2837048, Lng : -123.1147212, Q1 : 0.874870359898, Q2 : 0.0721994936466, Q3 : -0.135187610984, Q4 : 0.459470897913}
2019-04-14 17:56:18.21: SIM {TimeUS : 62634936, Roll : 0.13, Pitch : -17.66, Yaw : 55.36, Alt : 49.3199996948, Lat : 49.2837071, Lng : -123.1147159, Q1 : 0.874930202961, Q2 : 0.0723854824901, Q3 : -0.135445550084, Q4 : 0.459251672029}
2019-04-14 17:56:18.31: SIM {TimeUS : 62734896, Roll : 0.13, Pitch : -17.7, Yaw : 55.33, Alt : 49.3199996948, Lat : 49.2837095, Lng : -123.1147106, Q1 : 0.875002086163, Q2 : 0.0724874436855, Q3 : -0.135783344507, Q4 : 0.458998680115}
2019-04-14 17:56:18.41: SIM {TimeUS : 62834856, Roll : 0.12, Pitch : -17.75, Yaw : 55.3, Alt : 49.3199996948, Lat : 49.2837119, Lng : -123.1147054, Q1 : 0.875075101852, Q2 : 0.0725569948554, Q3 : -0.136168211699, Q4 : 0.458734422922}
2019-04-14 17:56:18.51: SIM {TimeUS : 62934816, Roll : 0.12, Pitch : -17.78, Yaw : 55.28, Alt : 49.3199996948, Lat : 49.2837143, Lng : -123.1147001, Q1 : 0.875151574612, Q2 : 0.0726885050535, Q3 : -0.136385530233, Q4 : 0.458503097296}
2019-04-14 17:56:18.61: SIM {TimeUS : 63034776, Roll : 0.14, Pitch : -17.78, Yaw : 55.25, Alt : 49.3199996948, Lat : 49.2837166, Lng : -123.1146948, Q1 : 0.875243008137, Q2 : 0.0727949142456, Q3 : -0.1364030689, Q4 : 0.458306461573}
2019-04-14 17:56:18.71: SIM {TimeUS : 63134736, Roll : 0.16, Pitch : -17.77, Yaw : 55.22, Alt : 49.3199996948, Lat : 49.283719, Lng : -123.1146894, Q1 : 0.875346243382, Q2 : 0.0728539228439, Q3 : -0.136217027903, Q4 : 0.458155184984}
2019-04-14 17:56:18.81: SIM {TimeUS : 63235529, Roll : 0.16, Pitch : -17.75, Yaw : 55.21, Alt : 49.3199996948, Lat : 49.2837214, Lng : -123.1146841, Q1 : 0.875440955162, Q2 : 0.0727688372135, Q3 : -0.136070027947, Q4 : 0.458031505346}
2019-04-14 17:56:18.91: SIM {TimeUS : 63335489, Roll : 0.16, Pitch : -17.73, Yaw : 55.19, Alt : 49.3199996948, Lat : 49.2837238, Lng : -123.1146787, Q1 : 0.875527381897, Q2 : 0.0726297646761, Q3 : -0.135953858495, Q4 : 0.457922786474}
2019-04-14 17:56:19.01: SIM {TimeUS : 63435449, Roll : 0.15, Pitch : -17.71, Yaw : 55.18, Alt : 49.3300018311, Lat : 49.283726, Lng : -123.1146734, Q1 : 0.875585496426, Q2 : 0.0725155547261, Q3 : -0.13587397337, Q4 : 0.457853496075}
2019-04-14 17:56:19.11: SIM {TimeUS : 63535409, Roll : 0.15, Pitch : -17.73, Yaw : 55.18, Alt : 49.3300018311, Lat : 49.2837284, Lng : -123.114668, Q1 : 0.87559825182, Q2 : 0.0725251585245, Q3 : -0.135985225439, Q4 : 0.457794547081}
2019-04-14 17:56:19.21: SIM {TimeUS : 63635369, Roll : 0.15, Pitch : -17.75, Yaw : 55.17, Alt : 49.3300018311, Lat : 49.2837308, Lng : -123.1146626, Q1 : 0.875592529774, Q2 : 0.0726281180978, Q3 : -0.136154696345, Q4 : 0.457738786936}
2019-04-14 17:56:19.31: SIM {TimeUS : 63735329, Roll : 0.14, Pitch : -17.79, Yaw : 55.16, Alt : 49.3300018311, Lat : 49.2837332, Lng : -123.1146573, Q1 : 0.875573456287, Q2 : 0.0727055519819, Q3 : -0.136535748839, Q4 : 0.457649499178}
2019-04-14 17:56:19.41: SIM {TimeUS : 63835289, Roll : 0.13, Pitch : -17.84, Yaw : 55.16, Alt : 49.3300018311, Lat : 49.2837357, Lng : -123.1146519, Q1 : 0.875548005104, Q2 : 0.072823882103, Q3 : -0.136966481805, Q4 : 0.457550615072}
2019-04-14 17:56:19.51: SIM {TimeUS : 63935249, Roll : 0.13, Pitch : -17.88, Yaw : 55.15, Alt : 49.3300018311, Lat : 49.2837381, Lng : -123.1146465, Q1 : 0.875537872314, Q2 : 0.0729802176356, Q3 : -0.137241244316, Q4 : 0.457462787628}
2019-04-14 17:56:19.61: SIM {TimeUS : 64035209, Roll : 0.13, Pitch : -17.91, Yaw : 55.14, Alt : 49.3300018311, Lat : 49.2837405, Lng : -123.1146411, Q1 : 0.875540494919, Q2 : 0.0730750188231, Q3 : -0.137509763241, Q4 : 0.457362025976}
2019-04-14 17:56:19.71: SIM {TimeUS : 64135169, Roll : 0.12, Pitch : -17.93, Yaw : 55.13, Alt : 49.3300018311, Lat : 49.2837429, Lng : -123.1146357, Q1 : 0.875566840172, Q2 : 0.0730919241905, Q3 : -0.137663438916, Q4 : 0.457262575626}
2019-04-14 17:56:19.81: SIM {TimeUS : 64235129, Roll : 0.14, Pitch : -17.92, Yaw : 55.11, Alt : 49.3300018311, Lat : 49.2837453, Lng : -123.1146302, Q1 : 0.875612258911, Q2 : 0.0731645300984, Q3 : -0.137551784515, Q4 : 0.457197576761}
2019-04-14 17:56:19.91: SIM {TimeUS : 64335089, Roll : 0.17, Pitch : -17.93, Yaw : 55.1, Alt : 49.3300018311, Lat : 49.2837477, Lng : -123.1146249, Q1 : 0.87563419342, Q2 : 0.0734149068594, Q3 : -0.137506633997, Q4 : 0.457129001617}
2019-04-14 17:56:20.01: SIM {TimeUS : 64435049, Roll : 0.18, Pitch : -17.95, Yaw : 55.09, Alt : 49.3300018311, Lat : 49.2837501, Lng : -123.1146195, Q1 : 0.875656783581, Q2 : 0.0735899806023, Q3 : -0.137587085366, Q4 : 0.45703342557}
2019-04-14 17:56:20.11: SIM {TimeUS : 64535009, Roll : 0.2, Pitch : -17.96, Yaw : 55.07, Alt : 49.3300018311, Lat : 49.2837525, Lng : -123.114614, Q1 : 0.875693142414, Q2 : 0.0737049877644, Q3 : -0.13761331141, Q4 : 0.456937342882}
2019-04-14 17:56:20.21: SIM {TimeUS : 64634969, Roll : 0.2, Pitch : -17.95, Yaw : 55.06, Alt : 49.3300018311, Lat : 49.283755, Lng : -123.1146086, Q1 : 0.875747323036, Q2 : 0.0737230181694, Q3 : -0.137569189072, Q4 : 0.456843852997}
2019-04-14 17:56:20.31: SIM {TimeUS : 64734929, Roll : 0.2, Pitch : -17.95, Yaw : 55.05, Alt : 49.3300018311, Lat : 49.2837574, Lng : -123.1146032, Q1 : 0.875804305077, Q2 : 0.0736511796713, Q3 : -0.137586191297, Q4 : 0.456741034985}
2019-04-14 17:56:20.41: SIM {TimeUS : 64834889, Roll : 0.16, Pitch : -17.97, Yaw : 55.04, Alt : 49.3400001526, Lat : 49.2837598, Lng : -123.1145977, Q1 : 0.875847816467, Q2 : 0.0734770447016, Q3 : -0.137872293591, Q4 : 0.456599354744}
2019-04-14 17:56:20.51: SIM {TimeUS : 64934849, Roll : 0.13, Pitch : -18.01, Yaw : 55.02, Alt : 49.3400001526, Lat : 49.2837622, Lng : -123.1145923, Q1 : 0.875870347023, Q2 : 0.073336660862, Q3 : -0.138321787119, Q4 : 0.456442773342}
2019-04-14 17:56:20.61: SIM {TimeUS : 65034809, Roll : 0.11, Pitch : -18.02, Yaw : 55.01, Alt : 49.3400001526, Lat : 49.2837647, Lng : -123.1145868, Q1 : 0.875911295414, Q2 : 0.0732563883066, Q3 : -0.138465076685, Q4 : 0.456333607435}
2019-04-14 17:56:20.71: SIM {TimeUS : 65134769, Roll : 0.13, Pitch : -18.01, Yaw : 55.0, Alt : 49.3400001526, Lat : 49.2837671, Lng : -123.1145813, Q1 : 0.875966846943, Q2 : 0.0732858181, Q3 : -0.138310849667, Q4 : 0.456268996}
2019-04-14 17:56:20.81: SIM {TimeUS : 65235562, Roll : 0.15, Pitch : -17.99, Yaw : 54.99, Alt : 49.3400001526, Lat : 49.2837696, Lng : -123.1145758, Q1 : 0.876016139984, Q2 : 0.0733898580074, Q3 : -0.138129517436, Q4 : 0.456212550402}
2019-04-14 17:56:20.91: SIM {TimeUS : 65335522, Roll : 0.17, Pitch : -18.0, Yaw : 54.98, Alt : 49.3400001526, Lat : 49.283772, Lng : -123.1145703, Q1 : 0.876048147678, Q2 : 0.0735307410359, Q3 : -0.13811327517, Q4 : 0.456133276224}
2019-04-14 17:56:21.01: SIM {TimeUS : 65435482, Roll : 0.16, Pitch : -18.01, Yaw : 54.96, Alt : 49.3400001526, Lat : 49.2837745, Lng : -123.1145648, Q1 : 0.876087963581, Q2 : 0.0734907016158, Q3 : -0.138263240457, Q4 : 0.45601785183}
2019-04-14 17:56:21.11: SIM {TimeUS : 65535442, Roll : 0.13, Pitch : -18.03, Yaw : 54.95, Alt : 49.3400001526, Lat : 49.2837769, Lng : -123.1145594, Q1 : 0.876122236252, Q2 : 0.073373220861, Q3 : -0.138553902507, Q4 : 0.4558827281}
2019-04-14 17:56:21.21: SIM {TimeUS : 65635402, Roll : 0.12, Pitch : -18.06, Yaw : 54.94, Alt : 49.3400001526, Lat : 49.2837794, Lng : -123.1145539, Q1 : 0.876145124435, Q2 : 0.0733564347029, Q3 : -0.138833671808, Q4 : 0.455756276846}
2019-04-14 17:56:21.31: SIM {TimeUS : 65735362, Roll : 0.12, Pitch : -18.09, Yaw : 54.93, Alt : 49.3400001526, Lat : 49.2837818, Lng : -123.1145484, Q1 : 0.876158893108, Q2 : 0.0734977722168, Q3 : -0.139033734798, Q4 : 0.45564609766}
2019-04-14 17:56:21.41: SIM {TimeUS : 65835322, Roll : 0.14, Pitch : -18.11, Yaw : 54.92, Alt : 49.3400001526, Lat : 49.2837843, Lng : -123.1145429, Q1 : 0.876172423363, Q2 : 0.0736901313066, Q3 : -0.139125794172, Q4 : 0.455560833216}
2019-04-14 17:56:21.51: SIM {TimeUS : 65935282, Roll : 0.16, Pitch : -18.12, Yaw : 54.91, Alt : 49.3400001526, Lat : 49.2837867, Lng : -123.1145374, Q1 : 0.876187324524, Q2 : 0.0739070028067, Q3 : -0.139069512486, Q4 : 0.455514252186}
2019-04-14 17:56:21.61: SIM {TimeUS : 66035242, Roll : 0.18, Pitch : -18.13, Yaw : 54.9, Alt : 49.3400001526, Lat : 49.2837892, Lng : -123.1145319, Q1 : 0.876191198826, Q2 : 0.0740820541978, Q3 : -0.139069274068, Q4 : 0.455478399992}
2019-04-14 17:56:21.71: SIM {TimeUS : 66135202, Roll : 0.2, Pitch : -18.14, Yaw : 54.89, Alt : 49.3400001526, Lat : 49.2837916, Lng : -123.1145264, Q1 : 0.876191794872, Q2 : 0.0742335394025, Q3 : -0.139100447297, Q4 : 0.455443143845}
