2019-04-14 17:26:23.00: SIM {TimeUS : 40016487, Roll : 0.0, Pitch : 0.0, Yaw : 0.0, Alt : 30.1000003815, Lat : 49.28357, Lng : -123.11502, Q1 : 1.0, Q2 : 0.0, Q3 : 0.0, Q4 : 0.0}
2019-04-14 17:26:23.11: SIM {TimeUS : 40135606, Roll : 0.0, Pitch : 0.0, Yaw : 0.0, Alt : 30.1000003815, Lat : 49.28357, Lng : -123.11502, Q1 : 1.0, Q2 : 0.0, Q3 : 0.0, Q4 : 0.0}
2019-04-14 17:26:23.21: SIM {TimeUS : 40235566, Roll : 0.0, Pitch : 0.0, Yaw : 0.0, Alt : 30.1000003815, Lat : 49.28357, Lng : -123.11502, Q1 : 1.0, Q2 : 0.0, Q3 : 0.0, Q4 : 0.0}
2019-04-14 17:26:23.31: SIM {TimeUS : 40335526, Roll : 0.0, Pitch : 0.0, Yaw : 0.0, Alt : 30.1000003815, Lat : 49.28357, Lng : -123.11502, Q1 : 1.0, Q2 : 0.0, Q3 : 0.0, Q4 : 0.0}
2019-04-14 17:26:23.41: SIM {TimeUS : 40435486, Roll : 0.0, Pitch : 0.0, Yaw : 0.0, Alt : 30.1000003815, Lat : 49.28357, Lng : -123.11502, Q1 : 1.0, Q2 : 0.0, Q3 : 0.0, Q4 : 0.0}
2019-04-14 17:26:23.51: SIM {TimeUS : 40535446, Roll : 0.0, Pitch : 0.0, Yaw : 0.0, Alt : 30.1000003815, Lat : 49.28357, Lng : -123.11502, Q1 : 1.0, Q2 : 0.0, Q3 : 0.0, Q4 : 0.0}
2019-04-14 17:26:23.61: SIM {TimeUS : 40635406, Roll : 0.0, Pitch : 0.0, Yaw : 0.0, Alt : 30.1000003815, Lat : 49.28357, Lng : -123.11502, Q1 : 1.0, Q2 : 0.0, Q3 : 0.0, Q4 : 0.0}
2019-04-14 17:26:23.71: SIM {TimeUS : 40735366, Roll : 0.0, Pitch : 0.0, Yaw : 0.0, Alt : 30.1000003815, Lat : 49.28357, Lng : -123.11502, Q1 : 1.0, Q2 : 0.0, Q3 : 0.0, Q4 : 0.0}
2019-04-14 17:26:23.81: SIM {TimeUS : 40835326, Roll : 0.0, Pitch : 0.0, Yaw : 0.0, Alt : 30.1000003815, Lat : 49.28357, Lng : -123.11502, Q1 : 1.0, Q2 : 0.0, Q3 : 0.0, Q4 : 0.0}
2019-04-14 17:26:23.91: SIM {TimeUS : 40935286, Roll : 0.0, Pitch : 0.0, Yaw : 0.0, Alt : 30.1000003815, Lat : 49.28357, Lng : -123.11502, Q1 : 1.0, Q2 : 0.0, Q3 : 0.0, Q4 : 0.0}
2019-04-14 17:26:24.01: SIM {TimeUS : 41035246, Roll : 0.0, Pitch : 0.0, Yaw : 0.0, Alt : 30.1000003815, Lat : 49.28357, Lng : -123.11502, Q1 : 1.0, Q2 : 0.0, Q3 : 0.0, Q4 : 0.0}
2019-04-14 17:26:24.11: SIM {TimeUS : 41135206, Roll : 0.0, Pitch : 0.0, Yaw : 0.0, Alt : 30.1000003815, Lat : 49.28357, Lng : -123.11502, Q1 : 1.0, Q2 : 0.0, Q3 : 0.0, Q4 : 0.0}
2019-04-14 17:26:24.21: SIM {TimeUS : 41235166, Roll : 0.0, Pitch : 0.0, Yaw : 0.0, Alt : 30.1000003815, Lat : 49.28357, Lng : -123.11502, Q1 : 1.0, Q2 : 0.0, Q3 : 0.0, Q4 : 0.0}
2019-04-14 17:26:24.31: SIM {TimeUS : 41335126, Roll : 0.0, Pitch : 0.0, Yaw : 0.0, Alt : 30.1000003815, Lat : 49.28357, Lng : -123.11502, Q1 : 1.0, Q2 : 0.0, Q3 : 0.0, Q4 : 0.0}
2019-04-14 17:26:24.41: SIM {TimeUS : 41435086, Roll : 0.0, Pitch : 0.0, Yaw : 0.0, Alt : 30.1000003815, Lat : 49.28357, Lng : -123.11502, Q1 : 1.0, Q2 : 0.0, Q3 : 0.0, Q4 : 0.0}
2019-04-14 17:26:24.51: SIM {TimeUS : 41535046, Roll : 0.0, Pitch : 0.0, Yaw : 0.0, Alt : 30.1000003815, Lat : 49.28357, Lng : -123.11502, Q1 : 1.0, Q2 : 0.0, Q3 : 0.0, Q4 : 0.0}
2019-04-14 17:26:24.61: SIM {TimeUS : 41635006, Roll : 0.0, Pitch : 0.0, Yaw : 0.0, Alt : 30.1000003815, Lat : 49.28357, Lng : -123.11502, Q1 : 1.0, Q2 : 0.0, Q3 : 0.0, Q4 : 0.0}
2019-04-14 17:26:24.71: SIM {TimeUS : 41734966, Roll : 0.0, Pitch : 0.0, Yaw : 0.0, Alt : 30.1000003815, Lat : 49.28357, Lng : -123.11502, Q1 : 1.0, Q2 : 0.0, Q3 : 0.0, Q4 : 0.0}
2019-04-14 17:26:24.81: SIM {TimeUS : 41834926, Roll : 0.0, Pitch : 0.0, Yaw : 0.0, Alt : 30.1000003815, Lat : 49.28357, Lng : -123.11502, Q1 : 1.0, Q2 : 0.0, Q3 : 0.0, Q4 : 0.0}
2019-04-14 17:26:24.91: SIM {TimeUS : 41934886, Roll : 0.0, Pitch : 0.0, Yaw : 0.0, Alt : 30.1000003815, Lat : 49.28357, Lng : -123.11502, Q1 : 1.0, Q2 : 0.0, Q3 : 0.0, Q4 : 0.0}
2019-04-14 17:26:25.01: SIM {TimeUS : 42034846, Roll : 0.0, Pitch : 0.0, Yaw : 0.0, Alt : 30.1000003815, Lat : 49.28357, Lng : -123.11502, Q1 : 1.0, Q2 : 0.0, Q3 : 0.0, Q4 : 0.0}
2019-04-14 17:26:25.11: SIM {TimeUS : 42135639, Roll : 0.0, Pitch : 0.0, Yaw : 0.0, Alt : 30.1000003815, Lat : 49.28357, Lng : -123.11502, Q1 : 1.0, Q2 : 0.0, Q3 : 0.0, Q4 : 0.0}
2019-04-14 17:26:25.21: SIM {TimeUS : 42235599, Roll : 0.0, Pitch : 0.0, Yaw : 0.0, Alt : 30.1000003815, Lat : 49.28357, Lng : -123.11502, Q1 : 1.0, Q2 : 0.0, Q3 : 0.0, Q4 : 0.0}
2019-04-14 17:26:25.31: SIM {TimeUS : 42335559, Roll : 0.0, Pitch : 0.0, Yaw : 360.0, Alt : 30.1000003815, Lat : 49.28357, Lng : -123.11502, Q1 : 1.0, Q2 : 0.0, Q3 : 0.0, Q4 : -3.64348308468e-11}
2019-04-14 17:26:25.41: SIM {TimeUS : 42435519, Roll : 0.0, Pitch : 0.0, Yaw : 0.0, Alt : 30.1000003815, Lat : 49.28357, Lng : -123.11502, Q1 : 1.0, Q2 : 0.0, Q3 : 0.0, Q4 : 1.10355766192e-10}
2019-04-14 17:26:25.51: SIM {TimeUS : 42535479, Roll : 0.0, Pitch : 0.0, Yaw : 360.0, Alt : 30.1000003815, Lat : 49.28357, Lng : -123.11502, Q1 : 1.0, Q2 : 0.0, Q3 : 0.0, Q4 : -1.28680156308e-07}
2019-04-14 17:26:25.61: SIM {TimeUS : 42635439, Roll : 0.0, Pitch : 0.0, Yaw : 359.99, Alt : 30.1000003815, Lat : 49.28357, Lng : -123.11502, Q1 : 1.0, Q2 : 0.0, Q3 : 0.0, Q4 : -2.90197334607e-07}
2019-04-14 17:26:25.71: SIM {TimeUS : 42735399, Roll : 0.0, Pitch : 0.0, Yaw : 359.99, Alt : 30.1000003815, Lat : 49.28357, Lng : -123.11502, Q1 : 1.0, Q2 : 0.0, Q3 : 0.0, Q4 : -4.90157788136e-07}
2019-04-14 17:26:25.81: SIM {TimeUS : 42835359, Roll : 0.0, Pitch : 0.0, Yaw : 359.99, Alt : 30.1000003815, Lat : 49.28357, Lng : -123.11502, Q1 : 1.0, Q2 : 0.0, Q3 : 0.0, Q4 : -7.13601934876e-07}
2019-04-14 17:26:25.91: SIM {TimeUS : 42935319, Roll : 0.0, Pitch : 0.0, Yaw : 359.99, Alt : 30.1000003815, Lat : 49.28357, Lng : -123.11502, Q1 : 1.0, Q2 : 0.0, Q3 : 0.0, Q4 : -9.0057807256e-07}
2019-04-14 17:26:26.01: SIM {TimeUS : 43035279, Roll : 0.0, Pitch : 0.0, Yaw : 359.99, Alt : 30.1000003815, Lat : 49.28357, Lng : -123.11502, Q1 : 1.0, Q2 : 0.0, Q3 : 0.0, Q4 : -1.09817392513e-06}
2019-04-14 17:26:26.11: SIM {TimeUS : 43135239, Roll : 0.0, Pitch : 0.0, Yaw : 359.99, Alt : 30.1000003815, Lat : 49.28357, Lng : -123.11502, Q1 : 1.0, Q2 : 0.0, Q3 : 0.0, Q4 : -1.30717512548e-06}
2019-04-14 17:26:26.21: SIM {TimeUS : 43235199, Roll : 0.0, Pitch : 0.0, Yaw : 359.99, Alt : 30.1100006104, Lat : 49.28357, Lng : -123.11502, Q1 : 1.0, Q2 : 0.0, Q3 : 0.0, Q4 : -1.53222310928e-06}
2019-04-14 17:26:26.31: SIM {TimeUS : 43335159, Roll : 0.0, Pitch : 0.0, Yaw : 359.99, Alt : 30.1399993896, Lat : 49.28357, Lng : -123.11502, Q1 : 1.0, Q2 : 0.0, Q3 : 0.0, Q4 : -1.77253320999e-06}
2019-04-14 17:26:26.41: SIM {TimeUS : 43435119, Roll : 0.0, Pitch : 0.0, Yaw : 359.99, Alt : 30.1599998474, Lat : 49.28357, Lng : -123.11502, Q1 : 1.0, Q2 : 0.0, Q3 : 0.0, Q4 : -2.02407886718e-06}
2019-04-14 17:26:26.51: SIM {TimeUS : 43535079, Roll : 0.0, Pitch : 0.0, Yaw : 359.99, Alt : 30.2000007629, Lat : 49.28357, Lng : -123.11502, Q1 : 1.0, Q2 : 0.0, Q3 : 0.0, Q4 : -2.25550570576e-06}
2019-04-14 17:26:26.61: SIM {TimeUS : 43635039, Roll : -0.09, Pitch : -0.09, Yaw : 359.99, Alt : 30.25, Lat : 49.28357, Lng : -123.11502, Q1 : 0.999999344349, Q2 : -0.000799732108135, Q3 : -0.000825589464512, Q4 : -9.29921588977e-06}
2019-04-14 17:26:26.71: SIM {TimeUS : 43734999, Roll : -0.37, Pitch : -0.38, Yaw : 359.99, Alt : 30.3400001526, Lat : 49.28357, Lng : -123.11502, Q1 : 0.999988853931, Q2 : -0.00328851048835, Q3 : -0.00338139035739, Q4 : -4.68059442937e-05}
2019-04-14 17:26:26.81: SIM {TimeUS : 43834959, Roll : -0.67, Pitch : -0.64, Yaw : 359.99, Alt : 30.4899997711, Lat : 49.28357, Lng : -123.11502, Q1 : 0.999966800213, Q2 : -0.0058529949747, Q3 : -0.00566463917494, Q4 : -0.000107970627141}
2019-04-14 17:26:26.91: SIM {TimeUS : 43934919, Roll : -0.83, Pitch : -0.74, Yaw : 359.98, Alt : 30.6499996185, Lat : 49.28357, Lng : -123.11502, Q1 : 0.999952495098, Q2 : -0.00724770966917, Q3 : -0.00651426427066, Q4 : -0.000184393691598}
2019-04-14 17:26:27.01: SIM {TimeUS : 44034879, Roll : -0.82, Pitch : -0.69, Yaw : 359.97, Alt : 30.7999992371, Lat : 49.28357, Lng : -123.11502, Q1 : 0.99995547533, Q2 : -0.00719762267545, Q3 : -0.00609936751425, Q4 : -0.000266115384875}
2019-04-14 17:26:27.11: SIM {TimeUS : 44134839, Roll : -0.69, Pitch : -0.55, Yaw : 359.96, Alt : 30.9599990845, Lat : 49.28357, Lng : -123.1150201, Q1 : 0.999970018864, Q2 : -0.00603590672836, Q3 : -0.00484793866053, Q4 : -0.000347883556969}
2019-04-14 17:26:27.21: SIM {TimeUS : 44235632, Roll : -0.49, Pitch : -0.36, Yaw : 359.95, Alt : 31.1100006104, Lat : 49.2835701, Lng : -123.1150202, Q1 : 0.999985456467, Q2 : -0.00430412916467, Q3 : -0.00321165798232, Q4 : -0.000420425320044}
2019-04-14 17:26:27.31: SIM {TimeUS : 44335592, Roll : -0.27, Pitch : -0.19, Yaw : 359.94, Alt : 31.2700004578, Lat : 49.2835701, Lng : -123.1150203, Q1 : 0.999995470047, Q2 : -0.00244026328437, Q3 : -0.00169398775324, Q4 : -0.000481697003124}
2019-04-14 17:26:27.41: SIM {TimeUS : 44435552, Roll : -0.08, Pitch : -0.08, Yaw : 359.93, Alt : 31.4400005341, Lat : 49.2835702, Lng : -123.1150204, Q1 : 0.999999344349, Q2 : -0.00073181942571, Q3 : -0.000698775867932, Q4 : -0.000530364923179}
2019-04-14 17:26:27.51: SIM {TimeUS : 44535512, Roll : 0.04, Pitch : -0.01, Yaw : 359.93, Alt : 31.6100006104, Lat : 49.2835702, Lng : -123.1150204, Q1 : 0.999999761581, Q2 : 0.000358657300239, Q3 : -9.82769706752e-05, Q4 : -0.000566810020246}
2019-04-14 17:26:27.61: SIM {TimeUS : 44635472, Roll : 0.08, Pitch : 0.02, Yaw : 359.93, Alt : 31.7900009155, Lat : 49.2835703, Lng : -123.1150205, Q1 : 0.999999523163, Q2 : 0.000706198741682, Q3 : 0.000214646526729, Q4 : -0.000591994670685}
2019-04-14 17:26:27.71: SIM {TimeUS : 44735432, Roll : 0.07, Pitch : 0.02, Yaw : 359.93, Alt : 31.9699993134, Lat : 49.2835703, Lng : -123.1150206, Q1 : 0.999999582767, Q2 : 0.000640869431663, Q3 : 0.000234719787841, Q4 : -0.000604276894592}
2019-04-14 17:26:27.81: SIM {TimeUS : 44835392, Roll : 0.06, Pitch : 0.02, Yaw : 359.93, Alt : 32.1599998474, Lat : 49.2835703, Lng : -123.1150206, Q1 : 0.999999642372, Q2 : 0.000550171884242, Q3 : 0.00022191136668, Q4 : -0.000591492338572}
2019-04-14 17:26:27.91: SIM {TimeUS : 44935352, Roll : 0.06, Pitch : 0.03, Yaw : 359.93, Alt : 32.3499984741, Lat : 49.2835703, Lng : -123.1150207, Q1 : 0.999999642372, Q2 : 0.000562552595511, Q3 : 0.000310922827339, Q4 : -0.000565396330785}
2019-04-14 17:26:28.01: SIM {TimeUS : 45035312, Roll : 0.07, Pitch : 0.05, Yaw : 359.93, Alt : 32.5499992371, Lat : 49.2835703, Lng : -123.1150207, Q1 : 0.999999523163, Q2 : 0.000674915499985, Q3 : 0.000454019929748, Q4 : -0.000537850777619}
2019-04-14 17:26:28.11: SIM {TimeUS : 45135272, Roll : 0.1, Pitch : 0.07, Yaw : 359.94, Alt : 32.7400016785, Lat : 49.2835703, Lng : -123.1150208, Q1 : 0.99999922514, Q2 : 0.000943812832702, Q3 : 0.000642951054033, Q4 : -0.000512247963343}
2019-04-14 17:26:28.21: SIM {TimeUS : 45235232, Roll : 0.13, Pitch : 0.1, Yaw : 359.94, Alt : 32.9399986267, Lat : 49.2835704, Lng : -123.1150208, Q1 : 0.999998748302, Q2 : 0.00119975139387, Q3 : 0.000914589094464, Q4 : -0.000493620580528}
2019-04-14 17:26:28.31: SIM {TimeUS : 45335192, Roll : 0.15, Pitch : 0.13, Yaw : 359.94, Alt : 33.1399993896, Lat : 49.2835704, Lng : -123.1150209, Q1 : 0.99999833107, Q2 : 0.00132363394368, Q3 : 0.00118184334133, Q4 : -0.000481364550069}
2019-04-14 17:26:28.41: SIM {TimeUS : 45435152, Roll : 0.15, Pitch : 0.15, Yaw : 359.94, Alt : 33.3499984741, Lat : 49.2835704, Lng : -123.1150209, Q1 : 0.999998092651, Q2 : 0.0013129679719, Q3 : 0.001353745698, Q4 : -0.000474850909086}
2019-04-14 17:26:28.51: SIM {TimeUS : 45535112, Roll : 0.15, Pitch : 0.18, Yaw : 359.94, Alt : 33.5499992371, Lat : 49.2835704, Lng : -123.1150209, Q1 : 0.999997794628, Q2 : 0.00133424671367, Q3 : 0.00157600361854, Q4 : -0.000475716835354}
2019-04-14 17:26:28.61: SIM {TimeUS : 45635072, Roll : 0.16, Pitch : 0.18, Yaw : 359.94, Alt : 33.7599983215, Lat : 49.2835704, Lng : -123.1150209, Q1 : 0.999997496605, Q2 : 0.00142326566856, Q3 : 0.00165111664683, Q4 : -0.000480700779008}
2019-04-14 17:26:28.71: SIM {TimeUS : 45735032, Roll : 0.16, Pitch : 0.19, Yaw : 359.94, Alt : 33.9700012207, Lat : 49.2835704, Lng : -123.1150209, Q1 : 0.999997437, Q2 : 0.00147349550389, Q3 : 0.00165969668888, Q4 : -0.000491760438308}
2019-04-14 17:26:28.81: SIM {TimeUS : 45834992, Roll : 0.15, Pitch : 0.18, Yaw : 359.94, Alt : 34.1800003052, Lat : 49.2835704, Lng : -123.1150209, Q1 : 0.999997615814, Q2 : 0.00133659562562, Q3 : 0.00162772031035, Q4 : -0.000508121214807}
2019-04-14 17:26:28.91: SIM {TimeUS : 45934952, Roll : 0.13, Pitch : 0.15, Yaw : 359.94, Alt : 34.3899993896, Lat : 49.2835706, Lng : -123.1150209, Q1 : 0.99999833107, Q2 : 0.00118789856788, Q3 : 0.00130912207533, Q4 : -0.00052058219444}
2019-04-14 17:26:29.01: SIM {TimeUS : 46034912, Roll : 0.12, Pitch : 0.09, Yaw : 359.93, Alt : 34.5999984741, Lat : 49.2835706, Lng : -123.1150209, Q1 : 0.999998986721, Q2 : 0.00105226959568, Q3 : 0.000802688649856, Q4 : -0.000527219555806}
2019-04-14 17:26:29.11: SIM {TimeUS : 46134872, Roll : 0.1, Pitch : 0.04, Yaw : 359.93, Alt : 34.8199996948, Lat : 49.2835704, Lng : -123.1150209, Q1 : 0.999999344349, Q2 : 0.00091834180057, Q3 : 0.000427845923696, Q4 : -0.000543193833437}
2019-04-14 17:26:29.21: SIM {TimeUS : 46234832, Roll : 0.09, Pitch : 0.02, Yaw : 359.93, Alt : 35.0299987793, Lat : 49.2835704, Lng : -123.1150209, Q1 : 0.999999463558, Q2 : 0.000798711145762, Q3 : 0.000231821832131, Q4 : -0.000572219491005}
2019-04-14 17:26:29.31: SIM {TimeUS : 46335625, Roll : 0.09, Pitch : 0.02, Yaw : 359.93, Alt : 35.25, Lat : 49.2835704, Lng : -123.1150209, Q1 : 0.999999463558, Q2 : 0.000798437336925, Q3 : 0.000228456949117, Q4 : -0.000609370414168}
2019-04-14 17:26:29.41: SIM {TimeUS : 46435585, Roll : 0.07, Pitch : 0.01, Yaw : 359.92, Alt : 35.4700012207, Lat : 49.2835704, Lng : -123.1150208, Q1 : 0.999999523163, Q2 : 0.0006699966616, Q3 : 0.000160871029948, Q4 : -0.000656771124341}
2019-04-14 17:26:29.51: SIM {TimeUS : 46535545, Roll : 0.04, Pitch : 0.01, Yaw : 359.91, Alt : 35.6899986267, Lat : 49.2835704, Lng : -123.1150208, Q1 : 0.999999642372, Q2 : 0.000431851454778, Q3 : 0.000130490065203, Q4 : -0.000702765013557}
2019-04-14 17:26:29.61: SIM {TimeUS : 46635505, Roll : 0.02, Pitch : 0.01, Yaw : 359.91, Alt : 35.9099998474, Lat : 49.2835704, Lng : -123.1150208, Q1 : 0.999999701977, Q2 : 0.000196899083676, Q3 : 0.00016379157023, Q4 : -0.000746602076106}
2019-04-14 17:26:29.71: SIM {TimeUS : 46735465, Roll : 0.0, Pitch : 0.03, Yaw : 359.9, Alt : 36.1300010681, Lat : 49.2835704, Lng : -123.1150208, Q1 : 0.999999642372, Q2 : 1.36929202199e-05, Q3 : 0.000305044814013, Q4 : -0.000791167665739}
2019-04-14 17:26:29.81: SIM {TimeUS : 46835425, Roll : -0.01, Pitch : 0.02, Yaw : 359.9, Alt : 36.3499984741, Lat : 49.2835704, Lng : -123.1150208, Q1 : 0.999999582767, Q2 : -0.000163358534337, Q3 : 0.000255396473221, Q4 : -0.000825775670819}
2019-04-14 17:26:29.91: SIM {TimeUS : 46935385, Roll : -0.02, Pitch : 0.01, Yaw : 359.9, Alt : 36.5699996948, Lat : 49.2835704, Lng : -123.1150207, Q1 : 0.999999582767, Q2 : -0.000252881087363, Q3 : 0.000104449296487, Q4 : -0.000859905849211}
2019-04-14 17:26:30.01: SIM {TimeUS : 47035345, Roll : -0.03, Pitch : 0.0, Yaw : 359.89, Alt : 36.7900009155, Lat : 49.2835704, Lng : -123.1150207, Q1 : 0.999999582767, Q2 : -0.000288173323497, Q3 : -5.0499507779e-05, Q4 : -0.00089011102682}
2019-04-14 17:26:30.11: SIM {TimeUS : 47135305, Roll : -0.02, Pitch : -0.02, Yaw : 359.89, Alt : 37.0200004578, Lat : 49.2835704, Lng : -123.1150207, Q1 : 0.999999523163, Q2 : -0.000259884633124, Q3 : -0.000182731004315, Q4 : -0.000915057200473}
2019-04-14 17:26:30.21: SIM {TimeUS : 47235265, Roll : -0.01, Pitch : -0.03, Yaw : 359.89, Alt : 37.2400016785, Lat : 49.2835704, Lng : -123.1150207, Q1 : 0.999999523163, Q2 : -8.77795100678e-05, Q3 : -0.000317121535772, Q4 : -0.000936304335482}
2019-04-14 17:26:30.31: SIM {TimeUS : 47335225, Roll : 0.0, Pitch : -0.05, Yaw : 359.89, Alt : 37.4700012207, Lat : 49.2835704, Lng : -123.1150207, Q1 : 0.999999403954, Q2 : -4.95046479045e-05, Q3 : -0.000490592385177, Q4 : -0.00095001119189}
2019-04-14 17:26:30.41: SIM {TimeUS : 47435185, Roll : -0.02, Pitch : -0.08, Yaw : 359.89, Alt : 37.6899986267, Lat : 49.2835704, Lng : -123.1150207, Q1 : 0.99999922514, Q2 : -0.000200811220566, Q3 : -0.000726846395992, Q4 : -0.000959606317338}
2019-04-14 17:26:30.51: SIM {TimeUS : 47535145, Roll : -0.05, Pitch : -0.09, Yaw : 359.88, Alt : 37.9199981689, Lat : 49.2835704, Lng : -123.1150207, Q1 : 0.999999046326, Q2 : -0.000503890099935, Q3 : -0.000867755850777, Q4 : -0.000974113470875}
2019-04-14 17:26:30.61: SIM {TimeUS : 47635105, Roll : -0.09, Pitch : -0.09, Yaw : 359.88, Alt : 38.1399993896, Lat : 49.2835704, Lng : -123.1150207, Q1 : 0.999998807907, Q2 : -0.000838336360175, Q3 : -0.000835464627016, Q4 : -0.000993213616312}
2019-04-14 17:26:30.71: SIM {TimeUS : 47735065, Roll : -0.12, Pitch : -0.08, Yaw : 359.88, Alt : 38.3699989319, Lat : 49.2835704, Lng : -123.1150206, Q1 : 0.999998629093, Q2 : -0.00106450321618, Q3 : -0.000743493961636, Q4 : -0.00101064098999}
2019-04-14 17:26:30.81: SIM {TimeUS : 47835025, Roll : -0.13, Pitch : -0.06, Yaw : 359.88, Alt : 38.5999984741, Lat : 49.2835704, Lng : -123.1150206, Q1 : 0.999998629093, Q2 : -0.00114649021998, Q3 : -0.000605645414907, Q4 : -0.00102730235085}
2019-04-14 17:26:30.91: SIM {TimeUS : 47934985, Roll : -0.11, Pitch : -0.04, Yaw : 359.88, Alt : 38.8300018311, Lat : 49.2835704, Lng : -123.1150206, Q1 : 0.999998927116, Q2 : -0.000983130070381, Q3 : -0.000354531483026, Q4 : -0.00104635348544}
2019-04-14 17:26:31.01: SIM {TimeUS : 48034945, Roll : -0.07, Pitch : -0.03, Yaw : 359.87, Alt : 39.0600013733, Lat : 49.2835704, Lng : -123.1150206, Q1 : 0.999999165535, Q2 : -0.000697482842952, Q3 : -0.000299336214084, Q4 : -0.00106786913238}
2019-04-14 17:26:31.11: SIM {TimeUS : 48134905, Roll : -0.05, Pitch : -0.03, Yaw : 359.87, Alt : 39.2900009155, Lat : 49.2835704, Lng : -123.1150206, Q1 : 0.99999922514, Q2 : -0.000519867404364, Q3 : -0.00034358992707, Q4 : -0.00109512894414}
2019-04-14 17:26:31.21: SIM {TimeUS : 48234865, Roll : -0.05, Pitch : -0.02, Yaw : 359.87, Alt : 39.5200004578, Lat : 49.2835704, Lng : -123.1150206, Q1 : 0.999999284744, Q2 : -0.000439044117229, Q3 : -0.000224524483201, Q4 : -0.0011144730961}
2019-04-14 17:26:31.31: SIM {TimeUS : 48334825, Roll : -0.06, Pitch : 0.0, Yaw : 359.86, Alt : 39.75, Lat : 49.2835706, Lng : -123.1150206, Q1 : 0.99999922514, Q2 : -0.000567807175685, Q3 : -4.87844954478e-06, Q4 : -0.00113643240184}
2019-04-14 17:26:31.41: SIM {TimeUS : 48435618, Roll : -0.06, Pitch : 0.02, Yaw : 359.86, Alt : 39.9799995422, Lat : 49.2835706, Lng : -123.1150206, Q1 : 0.999999165535, Q2 : -0.000564978457987, Q3 : 0.00026001376682, Q4 : -0.00116088823415}
2019-04-14 17:26:31.51: SIM {TimeUS : 48535578, Roll : -0.04, Pitch : 0.06, Yaw : 359.86, Alt : 40.2099990845, Lat : 49.2835706, Lng : -123.1150206, Q1 : 0.999999046326, Q2 : -0.000409555475926, Q3 : 0.000601151201408, Q4 : -0.00118276139256}
2019-04-14 17:26:31.61: SIM {TimeUS : 48635538, Roll : -0.03, Pitch : 0.07, Yaw : 359.86, Alt : 40.4399986267, Lat : 49.2835706, Lng : -123.1150207, Q1 : 0.999999046326, Q2 : -0.000273609446594, Q3 : 0.000644350831863, Q4 : -0.00119376473594}
2019-04-14 17:26:31.71: SIM {TimeUS : 48735498, Roll : 0.0, Pitch : 0.07, Yaw : 359.86, Alt : 40.6800003052, Lat : 49.2835706, Lng : -123.1150207, Q1 : 0.99999910593, Q2 : -6.8958994234e-05, Q3 : 0.000617452256847, Q4 : -0.00119940633886}
2019-04-14 17:26:31.81: SIM {TimeUS : 48835458, Roll : 0.02, Pitch : 0.08, Yaw : 359.86, Alt : 40.9099998474, Lat : 49.2835706, Lng : -123.1150207, Q1 : 0.999998986721, Q2 : 0.000223066686885, Q3 : 0.000728773709852, Q4 : -0.00120380520821}
2019-04-14 17:26:31.91: SIM {TimeUS : 48935418, Roll : 0.07, Pitch : 0.11, Yaw : 359.86, Alt : 41.1399993896, Lat : 49.2835706, Lng : -123.1150207, Q1 : 0.999998509884, Q2 : 0.000635769101791, Q3 : 0.00101929937955, Q4 : -0.00121505395509}
2019-04-14 17:26:32.01: SIM {TimeUS : 49035378, Roll : 0.1, Pitch : 0.15, Yaw : 359.85, Alt : 41.3699989319, Lat : 49.2835706, Lng : -123.1150207, Q1 : 0.999997913837, Q2 : 0.000902135740034, Q3 : 0.00136029778514, Q4 : -0.00123665493447}
2019-04-14 17:26:32.11: SIM {TimeUS : 49135338, Roll : 0.09, Pitch : 0.18, Yaw : 359.85, Alt : 41.6100006104, Lat : 49.2835706, Lng : -123.1150207, Q1 : 0.99999755621, Q2 : 0.000801513204351, Q3 : 0.00162879086565, Q4 : -0.00125211349223}
2019-04-14 17:26:32.21: SIM {TimeUS : 49235298, Roll : 0.04, Pitch : 0.2, Yaw : 359.85, Alt : 41.8400001526, Lat : 49.2835706, Lng : -123.1150207, Q1 : 0.999997496605, Q2 : 0.000389371271012, Q3 : 0.00180068297777, Q4 : -0.00126928009558}
2019-04-14 17:26:32.31: SIM {TimeUS : 49335258, Roll : 0.0, Pitch : 0.21, Yaw : 359.85, Alt : 42.0699996948, Lat : 49.2835706, Lng : -123.1150207, Q1 : 0.999997437, Q2 : -1.43413035403e-05, Q3 : 0.00187195639592, Q4 : -0.00129124778323}
2019-04-14 17:26:32.41: SIM {TimeUS : 49435218, Roll : -0.02, Pitch : 0.18, Yaw : 359.84, Alt : 42.3100013733, Lat : 49.2835706, Lng : -123.1150207, Q1 : 0.999997794628, Q2 : -0.000185248674825, Q3 : 0.00162834476214, Q4 : -0.00131178169977}
2019-04-14 17:26:32.51: SIM {TimeUS : 49535178, Roll : -0.02, Pitch : 0.14, Yaw : 359.84, Alt : 42.5400009155, Lat : 49.2835706, Lng : -123.1150207, Q1 : 0.999998271465, Q2 : -0.00019345455803, Q3 : 0.00126060808543, Q4 : -0.0013355629053}
2019-04-14 17:26:32.61: SIM {TimeUS : 49635138, Roll : 0.0, Pitch : 0.13, Yaw : 359.84, Alt : 42.7799987793, Lat : 49.2835706, Lng : -123.1150207, Q1 : 0.999998390675, Q2 : -6.37781777186e-05, Q3 : 0.00114881526679, Q4 : -0.00136582099367}
2019-04-14 17:26:32.71: SIM {TimeUS : 49735098, Roll : 0.02, Pitch : 0.13, Yaw : 359.83, Alt : 43.0099983215, Lat : 49.2835706, Lng : -123.1150207, Q1 : 0.999998271465, Q2 : 0.000255182239925, Q3 : 0.00118966121227, Q4 : -0.00140470534097}
2019-04-14 17:26:32.81: SIM {TimeUS : 49835058, Roll : 0.08, Pitch : 0.14, Yaw : 359.83, Alt : 43.25, Lat : 49.2835706, Lng : -123.1150207, Q1 : 0.999997913837, Q2 : 0.000708880950697, Q3 : 0.00124687002972, Q4 : -0.00144196697511}
2019-04-14 17:26:32.91: SIM {TimeUS : 49935018, Roll : 0.12, Pitch : 0.12, Yaw : 359.83, Alt : 43.4799995422, Lat : 49.2835706, Lng : -123.1150207, Q1 : 0.999997735023, Q2 : 0.00104891019873, Q3 : 0.00112160597928, Q4 : -0.00148220197298}
2019-04-14 17:26:33.01: SIM {TimeUS : 50034978, Roll : 0.12, Pitch : 0.1, Yaw : 359.82, Alt : 43.7200012207, Lat : 49.2835704, Lng : -123.1150207, Q1 : 0.999997854233, Q2 : 0.00108687742613, Q3 : 0.000914249802008, Q4 : -0.00151579710655}
2019-04-14 17:26:33.11: SIM {TimeUS : 50134938, Roll : 0.08, Pitch : 0.08, Yaw : 359.82, Alt : 43.9500007629, Lat : 49.2835704, Lng : -123.1150207, Q1 : 0.99999833107, Q2 : 0.000714202527888, Q3 : 0.000724674260709, Q4 : -0.0015267804265}
2019-04-14 17:26:33.21: SIM {TimeUS : 50234898, Roll : 0.02, Pitch : 0.07, Yaw : 359.82, Alt : 44.1899986267, Lat : 49.2835704, Lng : -123.1150207, Q1 : 0.999998569489, Q2 : 0.00020005076658, Q3 : 0.000636801414657, Q4 : -0.00153466209304}
2019-04-14 17:26:33.31: SIM {TimeUS : 50334858, Roll : -0.01, Pitch : 0.07, Yaw : 359.82, Alt : 44.4300003052, Lat : 49.2835704, Lng : -123.1150206, Q1 : 0.999998569489, Q2 : -0.000149809406139, Q3 : 0.000671015761327, Q4 : -0.00154794810805}
2019-04-14 17:26:33.41: SIM {TimeUS : 50434818, Roll : -0.03, Pitch : 0.07, Yaw : 359.82, Alt : 44.6599998474, Lat : 49.2835704, Lng : -123.1150206, Q1 : 0.999998509884, Q2 : -0.000317653844832, Q3 : 0.000668098160531, Q4 : -0.00156277325004}
2019-04-14 17:26:33.51: SIM {TimeUS : 50535611, Roll : -0.03, Pitch : 0.06, Yaw : 359.81, Alt : 44.9000015259, Lat : 49.2835704, Lng : -123.1150206, Q1 : 0.999998569489, Q2 : -0.000278372463072, Q3 : 0.000570060976315, Q4 : -0.00157932413276}
2019-04-14 17:26:33.61: SIM {TimeUS : 50635571, Roll : -0.03, Pitch : 0.05, Yaw : 359.81, Alt : 45.1399993896, Lat : 49.2835704, Lng : -123.1150206, Q1 : 0.999998569489, Q2 : -0.000318990554661, Q3 : 0.0004532384919, Q4 : -0.00160191603936}
2019-04-14 17:26:33.71: SIM {TimeUS : 50735531, Roll : -0.03, Pitch : 0.03, Yaw : 359.81, Alt : 45.3699989319, Lat : 49.2835703, Lng : -123.1150206, Q1 : 0.999998569489, Q2 : -0.000302921311231, Q3 : 0.000289669784252, Q4 : -0.00162999716122}
2019-04-14 17:26:33.81: SIM {TimeUS : 50835491, Roll : -0.02, Pitch : 0.01, Yaw : 359.8, Alt : 45.6100006104, Lat : 49.2835703, Lng : -123.1150206, Q1 : 0.999998569489, Q2 : -0.000209820413147, Q3 : 0.00017453856708, Q4 : -0.00166178517975}
2019-04-14 17:26:33.91: SIM {TimeUS : 50935451, Roll : -0.02, Pitch : 0.01, Yaw : 359.8, Alt : 45.8400001526, Lat : 49.2835703, Lng : -123.1150206, Q1 : 0.999998509884, Q2 : -0.000228047167184, Q3 : 0.000143972050864, Q4 : -0.00169861968607}
2019-04-14 17:26:34.01: SIM {TimeUS : 51035411, Roll : -0.03, Pitch : 0.0, Yaw : 359.8, Alt : 46.0699996948, Lat : 49.2835703, Lng : -123.1150206, Q1 : 0.999998450279, Q2 : -0.000298222352285, Q3 : 4.36208247265e-05, Q4 : -0.00173952674959}
2019-04-14 17:26:34.11: SIM {TimeUS : 51135371, Roll : -0.04, Pitch : -0.02, Yaw : 359.79, Alt : 46.2999992371, Lat : 49.2835703, Lng : -123.1150205, Q1 : 0.99999833107, Q2 : -0.00034939989564, Q3 : -0.000185761382454, Q4 : -0.00178259075619}
2019-04-14 17:26:34.21: SIM {TimeUS : 51235331, Roll : -0.03, Pitch : -0.04, Yaw : 359.79, Alt : 46.5200004578, Lat : 49.2835703, Lng : -123.1150205, Q1 : 0.999998211861, Q2 : -0.000345334614394, Q3 : -0.000370082125301, Q4 : -0.00182387256064}
2019-04-14 17:26:34.31: SIM {TimeUS : 51335291, Roll : -0.03, Pitch : -0.05, Yaw : 359.78, Alt : 46.7400016785, Lat : 49.2835703, Lng : -123.1150205, Q1 : 0.999998092651, Q2 : -0.000271440687357, Q3 : -0.00047329501831, Q4 : -0.00186066667084}
2019-04-14 17:26:34.41: SIM {TimeUS : 51435251, Roll : -0.03, Pitch : -0.06, Yaw : 359.78, Alt : 46.9500007629, Lat : 49.2835703, Lng : -123.1150205, Q1 : 0.999998033047, Q2 : -0.00027038087137, Q3 : -0.000524651317392, Q4 : -0.00189496495295}
2019-04-14 17:26:34.51: SIM {TimeUS : 51535211, Roll : -0.04, Pitch : -0.05, Yaw : 359.77, Alt : 47.1599998474, Lat : 49.2835703, Lng : -123.1150205, Q1 : 0.999997973442, Q2 : -0.000400548044126, Q3 : -0.000482478644699, Q4 : -0.00192765402608}
2019-04-14 17:26:34.61: SIM {TimeUS : 51635171, Roll : -0.07, Pitch : -0.05, Yaw : 359.77, Alt : 47.3499984741, Lat : 49.2835703, Lng : -123.1150205, Q1 : 0.999997735023, Q2 : -0.000651948386803, Q3 : -0.000449194427347, Q4 : -0.00196132739075}
2019-04-14 17:26:34.71: SIM {TimeUS : 51735131, Roll : -0.09, Pitch : -0.04, Yaw : 359.77, Alt : 47.5400009155, Lat : 49.2835703, Lng : -123.1150205, Q1 : 0.99999755621, Q2 : -0.000858088023961, Q3 : -0.00041996766231, Q4 : -0.00199129595421}
2019-04-14 17:26:34.81: SIM {TimeUS : 51835091, Roll : -0.13, Pitch : -0.06, Yaw : 359.76, Alt : 47.7200012207, Lat : 49.2835703, Lng : -123.1150205, Q1 : 0.999997198582, Q2 : -0.00113604881335, Q3 : -0.000538507010788, Q4 : -0.00201768800616}
2019-04-14 17:26:34.91: SIM {TimeUS : 51935051, Roll : -0.15, Pitch : -0.07, Yaw : 359.76, Alt : 47.8899993896, Lat : 49.2835703, Lng : -123.1150205, Q1 : 0.999996840954, Q2 : -0.00133248907514, Q3 : -0.00061751564499, Q4 : -0.00203878898174}
2019-04-14 17:26:35.01: SIM {TimeUS : 52035011, Roll : -0.15, Pitch : -0.07, Yaw : 359.76, Alt : 48.0499992371, Lat : 49.2835703, Lng : -123.1150205, Q1 : 0.999996781349, Q2 : -0.00134598196018, Q3 : -0.000633491843473, Q4 : -0.00205545686185}
2019-04-14 17:26:35.11: SIM {TimeUS : 52134971, Roll : -0.14, Pitch : -0.06, Yaw : 359.76, Alt : 48.1899986267, Lat : 49.2835703, Lng : -123.1150205, Q1 : 0.999996960163, Q2 : -0.00122538069263, Q3 : -0.000594534503762, Q4 : -0.00207254779525}
2019-04-14 17:26:35.21: SIM {TimeUS : 52234931, Roll : -0.12, Pitch : -0.06, Yaw : 359.76, Alt : 48.3199996948, Lat : 49.2835703, Lng : -123.1150205, Q1 : 0.999997079372, Q2 : -0.00105769501533, Q3 : -0.00054543785518, Q4 : -0.00209204759449}
2019-04-14 17:26:35.31: SIM {TimeUS : 52334891, Roll : -0.09, Pitch : -0.06, Yaw : 359.75, Alt : 48.4399986267, Lat : 49.2835703, Lng : -123.1150205, Q1 : 0.999997258186, Q2 : -0.000839199288748, Q3 : -0.000549303600565, Q4 : -0.00211298069917}
2019-04-14 17:26:35.41: SIM {TimeUS : 52434851, Roll : -0.06, Pitch : -0.06, Yaw : 359.75, Alt : 48.5499992371, Lat : 49.2835703, Lng : -123.1150205, Q1 : 0.999997377396, Q2 : -0.000557022925932, Q3 : -0.000597834878135, Q4 : -0.00213041109964}
2019-04-14 17:26:35.51: SIM {TimeUS : 52535644, Roll : -0.03, Pitch : -0.07, Yaw : 359.75, Alt : 48.6500015259, Lat : 49.2835703, Lng : -123.1150205, Q1 : 0.999997437, Q2 : -0.000346840213751, Q3 : -0.000627674919087, Q4 : -0.00214778585359}
2019-04-14 17:26:35.61: SIM {TimeUS : 52635604, Roll : -0.03, Pitch : -0.07, Yaw : 359.75, Alt : 48.7299995422, Lat : 49.2835703, Lng : -123.1150205, Q1 : 0.999997437, Q2 : -0.000264674046775, Q3 : -0.000636510958429, Q4 : -0.00216299016029}
2019-04-14 17:26:35.71: SIM {TimeUS : 52735564, Roll : 0.0, Pitch : -0.06, Yaw : 359.75, Alt : 48.7999992371, Lat : 49.2835703, Lng : -123.1150206, Q1 : 0.999997496605, Q2 : -4.81880670122e-05, Q3 : -0.000563991256058, Q4 : -0.00217999704182}
2019-04-14 17:26:35.81: SIM {TimeUS : 52835524, Roll : 0.02, Pitch : -0.04, Yaw : 359.74, Alt : 48.8699989319, Lat : 49.2835703, Lng : -123.1150206, Q1 : 0.999997496605, Q2 : 0.000190806560568, Q3 : -0.000431779684732, Q4 : -0.00220133597031}
2019-04-14 17:26:35.91: SIM {TimeUS : 52935484, Roll : 0.04, Pitch : -0.03, Yaw : 359.74, Alt : 48.9199981689, Lat : 49.2835703, Lng : -123.1150206, Q1 : 0.999997377396, Q2 : 0.000377400312573, Q3 : -0.000281551503576, Q4 : -0.00222755153663}
2019-04-14 17:26:36.01: SIM {TimeUS : 53035444, Roll : 0.06, Pitch : -0.01, Yaw : 359.74, Alt : 48.9700012207, Lat : 49.2835703, Lng : -123.1150206, Q1 : 0.999997258186, Q2 : 0.000566739647184, Q3 : -0.000170253741089, Q4 : -0.00225674803369}
2019-04-14 17:26:36.11: SIM {TimeUS : 53135404, Roll : 0.16, Pitch : -0.07, Yaw : 359.73, Alt : 49.0099983215, Lat : 49.2835703, Lng : -123.1150206, Q1 : 0.999996066093, Q2 : 0.00145148823503, Q3 : -0.000683507765643, Q4 : -0.00228578480892}
2019-04-14 17:26:36.21: SIM {TimeUS : 53235364, Roll : 0.45, Pitch : -0.29, Yaw : 359.73, Alt : 49.0499992371, Lat : 49.2835703, Lng : -123.1150206, Q1 : 0.999986350536, Q2 : 0.00392828090116, Q3 : -0.0025617252104, Q4 : -0.00231912638992}
2019-04-14 17:26:36.31: SIM {TimeUS : 53335324, Roll : 0.94, Pitch : -0.65, Yaw : 359.72, Alt : 49.0800018311, Lat : 49.2835703, Lng : -123.1150206, Q1 : 0.999946832657, Q2 : 0.00822201929986, Q3 : -0.00577199226245, Q4 : -0.00234490842558}
2019-04-14 17:26:36.41: SIM {TimeUS : 53435284, Roll : 1.63, Pitch : -1.14, Yaw : 359.71, Alt : 49.0999984741, Lat : 49.2835703, Lng : -123.1150206, Q1 : 0.999845147133, Q2 : 0.0142610566691, Q3 : -0.010040291585, Q4 : -0.00235278485343}
2019-04-14 17:26:36.51: SIM {TimeUS : 53535244, Roll : 2.46, Pitch : -1.71, Yaw : 359.69, Alt : 49.1199989319, Lat : 49.2835704, Lng : -123.1150205, Q1 : 0.999653220177, Q2 : 0.0214874111116, Q3 : -0.0150411613286, Q4 : -0.00232486310415}
2019-04-14 17:26:36.61: SIM {TimeUS : 53635204, Roll : 3.31, Pitch : -2.28, Yaw : 359.67, Alt : 49.1399993896, Lat : 49.2835704, Lng : -123.1150204, Q1 : 0.999381244183, Q2 : 0.0288666561246, Q3 : -0.0199701823294, Q4 : -0.00223923707381}
2019-04-14 17:26:36.71: SIM {TimeUS : 53735164, Roll : 4.06, Pitch : -2.75, Yaw : 359.66, Alt : 49.1599998474, Lat : 49.2835706, Lng : -123.1150202, Q1 : 0.999079465866, Q2 : 0.0353957861662, Q3 : -0.024145392701, Q4 : -0.00208878004923}
2019-04-14 17:26:36.81: SIM {TimeUS : 53835124, Roll : 4.64, Pitch : -3.12, Yaw : 359.65, Alt : 49.1699981689, Lat : 49.2835707, Lng : -123.11502, Q1 : 0.998805820942, Q2 : 0.0404250435531, Q3 : -0.0273736156523, Q4 : -0.00187749660108}
2019-04-14 17:26:36.91: SIM {TimeUS : 53935084, Roll : 5.05, Pitch : -3.42, Yaw : 359.66, Alt : 49.1800003052, Lat : 49.2835709, Lng : -123.1150197, Q1 : 0.998580694199, Q2 : 0.0440164059401, Q3 : -0.0299425963312, Q4 : -0.00162960437592}
2019-04-14 17:26:37.01: SIM {TimeUS : 54035044, Roll : 5.36, Pitch : -3.66, Yaw : 359.67, Alt : 49.1899986267, Lat : 49.283571, Lng : -123.1150193, Q1 : 0.998396217823, Q2 : 0.046656768769, Q3 : -0.0320345498621, Q4 : -0.0013657748932}
2019-04-14 17:26:37.11: SIM {TimeUS : 54135004, Roll : 5.61, Pitch : -3.9, Yaw : 359.68, Alt : 49.2000007629, Lat : 49.2835713, Lng : -123.1150188, Q1 : 0.998219847679, Q2 : 0.0488889440894, Q3 : -0.0341442897916, Q4 : -0.0011044726707}
2019-04-14 17:26:37.21: SIM {TimeUS : 54234964, Roll : 5.9, Pitch : -4.15, Yaw : 359.68, Alt : 49.2099990845, Lat : 49.2835715, Lng : -123.1150181, Q1 : 0.998019874096, Q2 : 0.0513459257782, Q3 : -0.0363209359348, Q4 : -0.000843586982228}
2019-04-14 17:26:37.31: SIM {TimeUS : 54334924, Roll : 6.2, Pitch : -4.38, Yaw : 359.69, Alt : 49.2200012207, Lat : 49.283572, Lng : -123.1150174, Q1 : 0.997803807259, Q2 : 0.0540042333305, Q3 : -0.0383515879512, Q4 : -0.000585784029681}
2019-04-14 17:26:37.41: SIM {TimeUS : 54434884, Roll : 6.48, Pitch : -4.58, Yaw : 359.7, Alt : 49.2299995422, Lat : 49.2835722, Lng : -123.1150166, Q1 : 0.997601628304, Q2 : 0.0564438812435, Q3 : -0.0400631390512, Q4 : -0.000345439621015}
2019-04-14 17:26:37.51: SIM {TimeUS : 54534844, Roll : 6.7, Pitch : -4.72, Yaw : 359.7, Alt : 49.2299995422, Lat : 49.2835727, Lng : -123.1150157, Q1 : 0.997443258762, Q2 : 0.0583246722817, Q3 : -0.0412937887013, Q4 : -0.000127512321342}
2019-04-14 17:26:37.61: SIM {TimeUS : 54635637, Roll : 6.85, Pitch : -4.82, Yaw : 359.71, Alt : 49.2400016785, Lat : 49.2835732, Lng : -123.1150147, Q1 : 0.99733120203, Q2 : 0.0596272088587, Q3 : -0.0421311557293, Q4 : 6.07402143942e-05}
2019-04-14 17:26:37.71: SIM {TimeUS : 54735597, Roll : 6.95, Pitch : -4.89, Yaw : 359.72, Alt : 49.2400016785, Lat : 49.2835737, Lng : -123.1150136, Q1 : 0.997253417969, Q2 : 0.0604669675231, Q3 : -0.0427710749209, Q4 : 0.000192827705177}
2019-04-14 17:26:37.81: SIM {TimeUS : 54835557, Roll : 7.04, Pitch : -4.97, Yaw : 359.72, Alt : 49.25, Lat : 49.2835743, Lng : -123.1150124, Q1 : 0.997173726559, Q2 : 0.0612871982157, Q3 : -0.0434559956193, Q4 : 0.000270478369202}
2019-04-14 17:26:37.91: SIM {TimeUS : 54935517, Roll : 7.23, Pitch : -5.02, Yaw : 359.74, Alt : 49.25, Lat : 49.2835749, Lng : -123.1150111, Q1 : 0.997051537037, Q2 : 0.0629308819771, Q3 : -0.0439058169723, Q4 : 0.000520593370311}
2019-04-14 17:26:38.01: SIM {TimeUS : 55035477, Roll : 7.64, Pitch : -4.91, Yaw : 0.07, Alt : 49.25, Lat : 49.2835755, Lng : -123.1150096, Q1 : 0.996859133244, Q2 : 0.0665962696075, Q3 : -0.0427145659924, Q4 : 0.00351481954567}
2019-04-14 17:26:38.11: SIM {TimeUS : 55135437, Roll : 8.25, Pitch : -4.7, Yaw : 1.37, Alt : 49.2599983215, Lat : 49.2835761, Lng : -123.1150083, Q1 : 0.996460020542, Q2 : 0.0723688006401, Q3 : -0.040108460933, Q4 : 0.0148813780397}
2019-04-14 17:26:38.21: SIM {TimeUS : 55235397, Roll : 8.81, Pitch : -4.77, Yaw : 4.16, Alt : 49.2599983215, Lat : 49.2835768, Lng : -123.1150067, Q1 : 0.995404660702, Q2 : 0.078245729208, Q3 : -0.0386799052358, Q4 : 0.0393839739263}
2019-04-14 17:26:38.31: SIM {TimeUS : 55335357, Roll : 9.09, Pitch : -5.31, Yaw : 8.52, Alt : 49.2599983215, Lat : 49.2835775, Lng : -123.1150051, Q1 : 0.992750883102, Q2 : 0.0824307650328, Q3 : -0.0401876457036, Q4 : 0.0776904225349}
2019-04-14 17:26:38.41: SIM {TimeUS : 55435317, Roll : 8.88, Pitch : -6.35, Yaw : 14.28, Alt : 49.2599983215, Lat : 49.2835782, Lng : -123.1150033, Q1 : 0.987203896046, Q2 : 0.0836294665933, Q3 : -0.045203782618, Q4 : 0.128028124571}
2019-04-14 17:26:38.51: SIM {TimeUS : 55535277, Roll : 8.07, Pitch : -7.77, Yaw : 21.18, Alt : 49.2599983215, Lat : 49.2835789, Lng : -123.1150013, Q1 : 0.977375984192, Q2 : 0.0815045684576, Q3 : -0.0535726211965, Q4 : 0.187678292394}
2019-04-14 17:26:38.61: SIM {TimeUS : 55635237, Roll : 6.66, Pitch : -9.37, Yaw : 28.98, Alt : 49.2700004578, Lat : 49.2835797, Lng : -123.1149993, Q1 : 0.962112426758, Q2 : 0.0765243396163, Q3 : -0.0644612982869, Q4 : 0.253630489111}
2019-04-14 17:26:38.71: SIM {TimeUS : 55735197, Roll : 4.73, Pitch : -10.9, Yaw : 37.42, Alt : 49.2700004578, Lat : 49.2835805, Lng : -123.1149972, Q1 : 0.940777719021, Q2 : 0.0694348290563, Q3 : -0.0767279714346, Q4 : 0.322845041752}
2019-04-14 17:26:38.81: SIM {TimeUS : 55835157, Roll : 2.22, Pitch : -12.15, Yaw : 46.18, Alt : 49.2700004578, Lat : 49.2835812, Lng : -123.1149949, Q1 : 0.913739800453, Q2 : 0.0592771694064, Q3 : -0.0897625163198, Q4 : 0.391801565886}
2019-04-14 17:26:38.91: SIM {TimeUS : 55935117, Roll : -0.85, Pitch : -12.89, Yaw : 54.54, Alt : 49.2700004578, Lat : 49.2835822, Lng : -123.1149926, Q1 : 0.883564949036, Q2 : 0.044817365706, Q3 : -0.10319852829, Q4 : 0.454592615366}
2019-04-14 17:26:39.01: SIM {TimeUS : 56035077, Roll : -3.97, Pitch : -13.06, Yaw : 61.63, Alt : 49.2700004578, Lat : 49.2835831, Lng : -123.1149901, Q1 : 0.854753196239, Q2 : 0.0286291986704, Q3 : -0.115329116583, Q4 : 0.505249023438}
2019-04-14 17:26:39.11: SIM {TimeUS : 56135037, Roll : -6.47, Pitch : -12.87, Yaw : 66.79, Alt : 49.2700004578, Lat : 49.2835841, Lng : -123.1149876, Q1 : 0.831785559654, Q2 : 0.0147687708959, Q3 : -0.124383375049, Q4 : 0.540780365467}
2019-04-14 17:26:39.21: SIM {TimeUS : 56234997, Roll : -7.95, Pitch : -12.62, Yaw : 69.85, Alt : 49.2700004578, Lat : 49.2835853, Lng : -123.1149851, Q1 : 0.81731826067, Q2 : 0.00623394921422, Q3 : -0.129395321012, Q4 : 0.561434626579}
2019-04-14 17:26:39.31: SIM {TimeUS : 56334957, Roll : -8.38, Pitch : -12.52, Yaw : 71.0, Alt : 49.2700004578, Lat : 49.2835865, Lng : -123.1149825, Q1 : 0.811705648899, Q2 : 0.00401264242828, Q3 : -0.130737572908, Q4 : 0.569232404232}
2019-04-14 17:26:39.41: SIM {TimeUS : 56434917, Roll : -7.89, Pitch : -12.67, Yaw : 70.57, Alt : 49.2700004578, Lat : 49.2835878, Lng : -123.1149798, Q1 : 0.813730955124, Q2 : 0.00779562769458, Q3 : -0.129417642951, Q4 : 0.566597104073}
2019-04-14 17:26:39.51: SIM {TimeUS : 56534877, Roll : -6.69, Pitch : -13.11, Yaw : 68.94, Alt : 49.2700004578, Lat : 49.2835892, Lng : -123.1149772, Q1 : 0.82139647007, Q2 : 0.0167020913213, Q3 : -0.126800611615, Q4 : 0.555833160877}
2019-04-14 17:26:39.61: SIM {TimeUS : 56634837, Roll : -5.02, Pitch : -13.75, Yaw : 66.44, Alt : 49.2799987793, Lat : 49.2835908, Lng : -123.1149744, Q1 : 0.832608699799, Q2 : 0.0291064810008, Q3 : -0.123948641121, Q4 : 0.539029061794}
2019-04-14 17:26:39.71: SIM {TimeUS : 56735630, Roll : -3.11, Pitch : -14.48, Yaw : 63.37, Alt : 49.2799987793, Lat : 49.2835922, Lng : -123.1149716, Q1 : 0.84560495615, Q2 : 0.0433062165976, Q3 : -0.121400669217, Q4 : 0.518014192581}
2019-04-14 17:26:39.81: SIM {TimeUS : 56835590, Roll : -1.16, Pitch : -15.14, Yaw : 60.1, Alt : 49.2799987793, Lat : 49.283594, Lng : -123.1149686, Q1 : 0.858640134335, Q2 : 0.0572507716715, Q3 : -0.119138553739, Q4 : 0.495242863894}
2019-04-14 17:26:39.91: SIM {TimeUS : 56935550, Roll : 0.6, Pitch : -15.61, Yaw : 56.93, Alt : 49.2799987793, Lat : 49.2835956, Lng : -123.1149656, Q1 : 0.87058031559, Q2 : 0.0693656057119, Q3 : -0.116881586611, Q4 : 0.472881615162}
2019-04-14 17:26:40.01: SIM {TimeUS : 57035510, Roll : 2.07, Pitch : -15.84, Yaw : 54.19, Alt : 49.2799987793, Lat : 49.2835972, Lng : -123.1149625, Q1 : 0.8804666996, Q2 : 0.0787042751908, Q3 : -0.114531375468, Q4 : 0.453284293413}
2019-04-14 17:26:40.11: SIM {TimeUS : 57135470, Roll : 3.09, Pitch : -15.88, Yaw : 52.11, Alt : 49.2799987793, Lat : 49.2835989, Lng : -123.1149592, Q1 : 0.887764215469, Q2 : 0.0847355499864, Q3 : -0.112358175218, Q4 : 0.438258230686}
2019-04-14 17:26:40.21: SIM {TimeUS : 57235430, Roll : 3.63, Pitch : -15.82, Yaw : 50.82, Alt : 49.2799987793, Lat : 49.2836006, Lng : -123.1149558, Q1 : 0.892312705517, Q2 : 0.0873980000615, Q3 : -0.110839731991, Q4 : 0.428782224655}
2019-04-14 17:26:40.31: SIM {TimeUS : 57335390, Roll : 3.69, Pitch : -15.75, Yaw : 50.33, Alt : 49.2799987793, Lat : 49.2836023, Lng : -123.1149522, Q1 : 0.894196212292, Q2 : 0.0871342867613, Q3 : -0.110418140888, Q4 : 0.425004184246}
2019-04-14 17:26:40.41: SIM {TimeUS : 57435350, Roll : 3.33, Pitch : -15.74, Yaw : 50.54, Alt : 49.2900009155, Lat : 49.2836039, Lng : -123.1149486, Q1 : 0.8936881423, Q2 : 0.0845209881663, Q3 : -0.111481525004, Q4 : 0.426321059465}
2019-04-14 17:26:40.51: SIM {TimeUS : 57535310, Roll : 2.67, Pitch : -15.8, Yaw : 51.31, Alt : 49.2900009155, Lat : 49.2836055, Lng : -123.1149448, Q1 : 0.891188502312, Q2 : 0.0803986489773, Q3 : -0.113875843585, Q4 : 0.431684374809}
2019-04-14 17:26:40.61: SIM {TimeUS : 57635270, Roll : 1.83, Pitch : -15.92, Yaw : 52.47, Alt : 49.2900009155, Lat : 49.2836073, Lng : -123.1149409, Q1 : 0.887225091457, Q2 : 0.075479157269, Q3 : -0.117235817015, Q4 : 0.439761668444}
2019-04-14 17:26:40.71: SIM {TimeUS : 57735230, Roll : 0.93, Pitch : -16.07, Yaw : 53.82, Alt : 49.2900009155, Lat : 49.283609, Lng : -123.114937, Q1 : 0.882403373718, Q2 : 0.0704866051674, Q3 : -0.121010221541, Q4 : 0.449168652296}
2019-04-14 17:26:40.81: SIM {TimeUS : 57835190, Roll : 0.09, Pitch : -16.21, Yaw : 55.18, Alt : 49.2900009155, Lat : 49.2836108, Lng : -123.114933, Q1 : 0.877359807491, Q2 : 0.0660697221756, Q3 : -0.124601356685, Q4 : 0.458638340235}
2019-04-14 17:26:40.91: SIM {TimeUS : 57935150, Roll : -0.59, Pitch : -16.34, Yaw : 56.4, Alt : 49.2900009155, Lat : 49.2836126, Lng : -123.114929, Q1 : 0.872684299946, Q2 : 0.0626208782196, Q3 : -0.12769921124, Q4 : 0.467112034559}
2019-04-14 17:26:41.01: SIM {TimeUS : 58035110, Roll : -1.1, Pitch : -16.43, Yaw : 57.37, Alt : 49.2900009155, Lat : 49.2836144, Lng : -123.1149248, Q1 : 0.86887460947, Q2 : 0.0602234490216, Q3 : -0.130010858178, Q4 : 0.473843067884}
2019-04-14 17:26:41.11: SIM {TimeUS : 58135070, Roll : -1.43, Pitch : -16.5, Yaw : 58.02, Alt : 49.2900009155, Lat : 49.2836162, Lng : -123.1149207, Q1 : 0.866245985031, Q2 : 0.0587976910174, Q3 : -0.13153013587, Q4 : 0.478393763304}
2019-04-14 17:26:41.21: SIM {TimeUS : 58235030, Roll : -1.55, Pitch : -16.53, Yaw : 58.35, Alt : 49.2900009155, Lat : 49.2836181, Lng : -123.1149165, Q1 : 0.864931166172, Q2 : 0.0583881027997, Q3 : -0.132047116756, Q4 : 0.480675071478}
2019-04-14 17:26:41.31: SIM {TimeUS : 58334990, Roll : -1.46, Pitch : -16.52, Yaw : 58.36, Alt : 49.2900009155, Lat : 49.28362, Lng : -123.1149122, Q1 : 0.864843845367, Q2 : 0.0590484216809, Q3 : -0.131633132696, Q4 : 0.480865031481}
2019-04-14 17:26:41.41: SIM {TimeUS : 58434950, Roll : -1.23, Pitch : -16.52, Yaw : 58.11, Alt : 49.2900009155, Lat : 49.2836219, Lng : -123.1149079, Q1 : 0.865764975548, Q2 : 0.060439851135, Q3 : -0.130815237761, Q4 : 0.479255050421}
2019-04-14 17:26:41.51: SIM {TimeUS : 58534910, Roll : -0.9, Pitch : -16.54, Yaw : 57.67, Alt : 49.2900009155, Lat : 49.2836238, Lng : -123.1149036, Q1 : 0.867376506329, Q2 : 0.0625322386622, Q3 : -0.129845112562, Q4 : 0.476327598095}
2019-04-14 17:26:41.61: SIM {TimeUS : 58634870, Roll : -0.51, Pitch : -16.57, Yaw : 57.13, Alt : 49.2900009155, Lat : 49.2836258, Lng : -123.1148992, Q1 : 0.869381606579, Q2 : 0.065023496747, Q3 : -0.128698080778, Q4 : 0.472635626793}
2019-04-14 17:26:41.71: SIM {TimeUS : 58734830, Roll : -0.12, Pitch : -16.6, Yaw : 56.55, Alt : 49.2900009155, Lat : 49.2836279, Lng : -123.1148947, Q1 : 0.871492445469, Q2 : 0.0674382001162, Q3 : -0.127674266696, Q4 : 0.468670725822}
2019-04-14 17:26:41.81: SIM {TimeUS : 58835623, Roll : 0.19, Pitch : -16.65, Yaw : 56.01, Alt : 49.2900009155, Lat : 49.2836299, Lng : -123.1148902, Q1 : 0.873471021652, Q2 : 0.0694855451584, Q3 : -0.127066850662, Q4 : 0.464837759733}
2019-04-14 17:26:41.91: SIM {TimeUS : 58935583, Roll : 0.43, Pitch : -16.7, Yaw : 55.55, Alt : 49.2900009155, Lat : 49.283632, Lng : -123.1148856, Q1 : 0.875107765198, Q2 : 0.0709925815463, Q3 : -0.126786202192, Q4 : 0.461596995592}
2019-04-14 17:26:42.01: SIM {TimeUS : 59035543, Roll : 0.57, Pitch : -16.76, Yaw : 55.22, Alt : 49.2900009155, Lat : 49.283634, Lng : -123.1148811, Q1 : 0.876297414303, Q2 : 0.0719520077109, Q3 : -0.126866728067, Q4 : 0.45916301012}
2019-04-14 17:26:42.11: SIM {TimeUS : 59135503, Roll : 0.62, Pitch : -16.81, Yaw : 55.02, Alt : 49.2900009155, Lat : 49.283636, Lng : -123.1148765, Q1 : 0.87701356411, Q2 : 0.0723227709532, Q3 : -0.127198025584, Q4 : 0.45764324069}
2019-04-14 17:26:42.21: SIM {TimeUS : 59235463, Roll : 0.61, Pitch : -16.86, Yaw : 54.94, Alt : 49.2900009155, Lat : 49.2836382, Lng : -123.1148719, Q1 : 0.877249777317, Q2 : 0.0723368525505, Q3 : -0.127659767866, Q4 : 0.457059323788}
2019-04-14 17:26:42.31: SIM {TimeUS : 59335423, Roll : 0.54, Pitch : -16.9, Yaw : 54.99, Alt : 49.2900009155, Lat : 49.2836402, Lng : -123.1148672, Q1 : 0.877076208591, Q2 : 0.0720336586237, Q3 : -0.128230005503, Q4 : 0.457280606031}
2019-04-14 17:26:42.41: SIM {TimeUS : 59435383, Roll : 0.44, Pitch : -16.93, Yaw : 55.12, Alt : 49.2900009155, Lat : 49.2836422, Lng : -123.1148625, Q1 : 0.876588761806, Q2 : 0.0715312212706, Q3 : -0.128768593073, Q4 : 0.458142071962}
2019-04-14 17:26:42.51: SIM {TimeUS : 59535343, Roll : 0.31, Pitch : -16.95, Yaw : 55.3, Alt : 49.2900009155, Lat : 49.2836444, Lng : -123.1148576, Q1 : 0.875905573368, Q2 : 0.0708444938064, Q3 : -0.129310652614, Q4 : 0.459400981665}
2019-04-14 17:26:42.61: SIM {TimeUS : 59635303, Roll : 0.18, Pitch : -16.98, Yaw : 55.51, Alt : 49.2999992371, Lat : 49.2836464, Lng : -123.1148529, Q1 : 0.875120043755, Q2 : 0.0701513290405, Q3 : -0.129942670465, Q4 : 0.460823833942}
2019-04-14 17:26:42.71: SIM {TimeUS : 59735263, Roll : 0.04, Pitch : -17.01, Yaw : 55.71, Alt : 49.2999992371, Lat : 49.2836487, Lng : -123.1148481, Q1 : 0.874356925488, Q2 : 0.0694675892591, Q3 : -0.130570530891, Q4 : 0.462196499109}
2019-04-14 17:26:42.81: SIM {TimeUS : 59835223, Roll : -0.07, Pitch : -17.03, Yaw : 55.88, Alt : 49.2999992371, Lat : 49.2836507, Lng : -123.1148433, Q1 : 0.873699605465, Q2 : 0.0688512846828, Q3 : -0.131150692701, Q4 : 0.463366001844}
2019-04-14 17:26:42.91: SIM {TimeUS : 59935183, Roll : -0.16, Pitch : -17.06, Yaw : 56.01, Alt : 49.2999992371, Lat : 49.2836529, Lng : -123.1148384, Q1 : 0.873193621635, Q2 : 0.0684142932296, Q3 : -0.13170017302, Q4 : 0.464227795601}
2019-04-14 17:26:43.01: SIM {TimeUS : 60035143, Roll : -0.22, Pitch : -17.11, Yaw : 56.09, Alt : 49.2999992371, Lat : 49.2836551, Lng : -123.1148335, Q1 : 0.872865319252, Q2 : 0.0682792514563, Q3 : -0.132203519344, Q4 : 0.464721798897}
2019-04-14 17:26:43.11: SIM {TimeUS : 60135103, Roll : -0.25, Pitch : -17.15, Yaw : 56.11, Alt : 49.2999992371, Lat : 49.2836572, Lng : -123.1148286, Q1 : 0.8727465868, Q2 : 0.0682234987617, Q3 : -0.132618263364, Q4 : 0.464834809303}
2019-04-14 17:26:43.21: SIM {TimeUS : 60235063, Roll : -0.25, Pitch : -17.17, Yaw : 56.09, Alt : 49.2999992371, Lat : 49.2836594, Lng : -123.1148237, Q1 : 0.872834026814, Q2 : 0.0682373791933, Q3 : -0.132827341557, Q4 : 0.464608848095}
2019-04-14 17:26:43.31: SIM {TimeUS : 60335023, Roll : -0.23, Pitch : -17.19, Yaw : 56.02, Alt : 49.2999992371, Lat : 49.2836615, Lng : -123.1148187, Q1 : 0.87307536602, Q2 : 0.0683888271451, Q3 : -0.132901400328, Q4 : 0.464111626148}
2019-04-14 17:26:43.41: SIM {TimeUS : 60434983, Roll : -0.18, Pitch : -17.21, Yaw : 55.92, Alt : 49.2999992371, Lat : 49.2836638, Lng : -123.1148137, Q1 : 0.873403429985, Q2 : 0.0687897354364, Q3 : -0.132966950536, Q4 : 0.46341586113}
2019-04-14 17:26:43.51: SIM {TimeUS : 60534943, Roll : -0.11, Pitch : -17.25, Yaw : 55.81, Alt : 49.2999992371, Lat : 49.2836661, Lng : -123.1148087, Q1 : 0.873772501945, Q2 : 0.0693610534072, Q3 : -0.133056879044, Q4 : 0.462608397007}
2019-04-14 17:26:43.61: SIM {TimeUS : 60634903, Roll : -0.02, Pitch : -17.3, Yaw : 55.69, Alt : 49.3100013733, Lat : 49.2836682, Lng : -123.1148037, Q1 : 0.874146938324, Q2 : 0.070056438446, Q3 : -0.133121743798, Q4 : 0.461776793003}
2019-04-14 17:26:43.71: SIM {TimeUS : 60734863, Roll : 0.06, Pitch : -17.35, Yaw : 55.58, Alt : 49.3100013733, Lat : 49.2836705, Lng : -123.1147987, Q1 : 0.874475479126, Q2 : 0.0708227604628, Q3 : -0.133199989796, Q4 : 0.46101474762}
2019-04-14 17:26:43.81: SIM {TimeUS : 60834823, Roll : 0.13, Pitch : -17.39, Yaw : 55.49, Alt : 49.3100013733, Lat : 49.2836728, Lng : -123.1147936, Q1 : 0.874761521816, Q2 : 0.0714010819793, Q3 : -0.133276417851, Q4 : 0.460360258818}
2019-04-14 17:26:43.91: SIM {TimeUS : 60935616, Roll : 0.16, Pitch : -17.4, Yaw : 55.42, Alt : 49.3100013733, Lat : 49.2836749, Lng : -123.1147885, Q1 : 0.875023841858, Q2 : 0.0715860202909, Q3 : -0.133257463574, Q4 : 0.459838271141}
2019-04-14 17:26:44.01: SIM {TimeUS : 61035576, Roll : 0.16, Pitch : -17.39, Yaw : 55.37, Alt : 49.3100013733, Lat : 49.2836773, Lng : -123.1147834, Q1 : 0.875223219395, Q2 : 0.0714911594987, Q3 : -0.133271276951, Q4 : 0.459469377995}
2019-04-14 17:26:44.11: SIM {TimeUS : 61135536, Roll : 0.16, Pitch : -17.38, Yaw : 55.34, Alt : 49.3100013733, Lat : 49.2836796, Lng : -123.1147783, Q1 : 0.875331521034, Q2 : 0.0714454427361, Q3 : -0.133221626282, Q4 : 0.459284543991}
2019-04-14 17:26:44.21: SIM {TimeUS : 61235496, Roll : 0.16, Pitch : -17.39, Yaw : 55.34, Alt : 49.3100013733, Lat : 49.2836817, Lng : -123.1147731, Q1 : 0.875347554684, Q2 : 0.071456708014, Q3 : -0.133278891444, Q4 : 0.459235668182}
2019-04-14 17:26:44.31: SIM {TimeUS : 61335456, Roll : 0.17, Pitch : -17.42, Yaw : 55.34, Alt : 49.3100013733, Lat : 49.283684, Lng : -123.1147681, Q1 : 0.87526756525, Q2 : 0.0716716051102, Q3 : -0.133490398526, Q4 : 0.459293186665}
2019-04-14 17:26:44.41: SIM {TimeUS : 61435416, Roll : 0.17, Pitch : -17.48, Yaw : 55.36, Alt : 49.3100013733, Lat : 49.2836864, Lng : -123.1147629, Q1 : 0.875126242638, Q2 : 0.0719509571791, Q3 : -0.133891612291, Q4 : 0.459402024746}
2019-04-14 17:26:44.51: SIM {TimeUS : 61535376, Roll : 0.16, Pitch : -17.52, Yaw : 55.39, Alt : 49.3199996948, Lat : 49.2836887, Lng : -123.1147577, Q1 : 0.874991893768, Q2 : 0.0720587000251, Q3 : -0.134196296334, Q4 : 0.459552049637}
2019-04-14 17:26:44.61: SIM {TimeUS : 61635336, Roll : 0.14, Pitch : -17.53, Yaw : 55.41, Alt : 49.3199996948, Lat : 49.283691, Lng : -123.1147526, Q1 : 0.874890506268, Q2 : 0.0720016285777, Q3 : -0.134361982346, Q4 : 0.459705591202}
2019-04-14 17:26:44.71: SIM {TimeUS : 61735296, Roll : 0.1, Pitch : -17.54, Yaw : 55.43, Alt : 49.3199996948, Lat : 49.2836932, Lng : -123.1147474, Q1 : 0.874824166298, Q2 : 0.0717862993479, Q3 : -0.134599462152, Q4 : 0.45979604125}
2019-04-14 17:26:44.81: SIM {TimeUS : 61835256, Roll : 0.06, Pitch : -17.57, Yaw : 55.44, Alt : 49.3199996948, Lat : 49.2836955, Lng : -123.1147422, Q1 : 0.874779820442, Q2 : 0.0715726315975, Q3 : -0.134929478168, Q4 : 0.459816962481}
2019-04-14 17:26:44.91: SIM {TimeUS : 61935216, Roll : 0.05, Pitch : -17.58, Yaw : 55.44, Alt : 49.3199996948, Lat : 49.2836979, Lng : -123.1147369, Q1 : 0.874756455421, Q2 : 0.0715582892299, Q3 : -0.135109916329, Q4 : 0.459810733795}
2019-04-14 17:26:45.01: SIM {TimeUS : 62035176, Roll : 0.05, Pitch : -17.6, Yaw : 55.44, Alt : 49.3199996948, Lat : 49.2837002, Lng : -123.1147317, Q1 : 0.874765276909, Q2 : 0.0715876445174, Q3 : -0.135269358754, Q4 : 0.459742486477}
2019-04-14 17:26:45.11: SIM {TimeUS : 62135136, Roll : 0.05, Pitch : -17.61, Yaw : 55.42, Alt : 49.3199996948, Lat : 49.2837024, Lng : -123.1147265, Q1 : 0.874808728695, Q2 : 0.0716677904129, Q3 : -0.135338172317, Q4 : 0.45962703228}
2019-04-14 17:26:45.21: SIM {TimeUS : 62235096, Roll : 0.07, Pitch : -17.63, Yaw : 55.4, Alt : 49.3199996948, Lat : 49.2837048, Lng : -123.1147212, Q1 : 0.874878048897, Q2 : 0.071804150939, Q3 : -0.135391011834, Q4 : 0.459458231926}
2019-04-14 17:26:45.31: SIM {TimeUS : 62335056, Roll : 0.09, Pitch : -17.64, Yaw : 55.37, Alt : 49.3199996948, Lat : 49.2837071, Lng : -123.114716, Q1 : 0.874969422817, Q2 : 0.0719690099359, Q3 : -0.135394394398, Q4 : 0.45925745368}
2019-04-14 17:26:45.41: SIM {TimeUS : 62435016, Roll : 0.12, Pitch : -17.65, Yaw : 55.34, Alt : 49.3199996948, Lat : 49.2837095, Lng : -123.1147107, Q1 : 0.875054001808, Q2 : 0.0721819847822, Q3 : -0.135406300426, Q4 : 0.459059298038}
2019-04-14 17:26:45.51: SIM {TimeUS : 62534976, Roll : 0.14, Pitch : -17.67, Yaw : 55.31, Alt : 49.3199996948, Lat : 49.2837119, Lng : -123.1147054, Q1 : 0.875119328499, Q2 : 0.0724682435393, Q3 : -0.135516241193, Q4 : 0.458857119083}
2019-04-14 17:26:45.61: SIM {TimeUS : 62634936, Roll : 0.16, Pitch : -17.72, Yaw : 55.28, Alt : 49.3199996948, Lat : 49.2837143, Lng : -123.1147001, Q1 : 0.875168085098, Q2 : 0.0727114975452, Q3 : -0.135813653469, Q4 : 0.458637684584}
2019-04-14 17:26:45.71: SIM {TimeUS : 62734896, Roll : 0.15, Pitch : -17.77, Yaw : 55.26, Alt : 49.3199996948, Lat : 49.2837166, Lng : -123.1146948, Q1 : 0.875214397907, Q2 : 0.0728129521012, Q3 : -0.136222377419, Q4 : 0.458411931992}
2019-04-14 17:26:45.81: SIM {TimeUS : 62834856, Roll : 0.14, Pitch : -17.81, Yaw : 55.24, Alt : 49.3199996948, Lat : 49.283719, Lng : -123.1146895, Q1 : 0.875255942345, Q2 : 0.0729059204459, Q3 : -0.136585563421, Q4 : 0.458209812641}
2019-04-14 17:26:45.91: SIM {TimeUS : 62934816, Roll : 0.16, Pitch : -17.84, Yaw : 55.22, Alt : 49.3199996948, Lat : 49.2837214, Lng : -123.1146842, Q1 : 0.87528860569, Q2 : 0.0730926245451, Q3 : -0.136758968234, Q4 : 0.458065867424}
2019-04-14 17:26:46.01: SIM {TimeUS : 63035609, Roll : 0.18, Pitch : -17.83, Yaw : 55.2, Alt : 49.3199996948, Lat : 49.2837236, Lng : -123.1146788, Q1 : 0.875338077545, Q2 : 0.0732761472464, Q3 : -0.136628493667, Q4 : 0.457980871201}
2019-04-14 17:26:46.11: SIM {TimeUS : 63135569, Roll : 0.2, Pitch : -17.79, Yaw : 55.19, Alt : 49.3300018311, Lat : 49.283726, Lng : -123.1146734, Q1 : 0.875418961048, Q2 : 0.0732485204935, Q3 : -0.136271744967, Q4 : 0.457937091589}
2019-04-14 17:26:46.21: SIM {TimeUS : 63235529, Roll : 0.2, Pitch : -17.77, Yaw : 55.18, Alt : 49.3300018311, Lat : 49.2837284, Lng : -123.1146681, Q1 : 0.875481247902, Q2 : 0.0730954781175, Q3 : -0.13610291481, Q4 : 0.457892626524}
2019-04-14 17:26:46.31: SIM {TimeUS : 63335489, Roll : 0.18, Pitch : -17.75, Yaw : 55.18, Alt : 49.3300018311, Lat : 49.2837308, Lng : -123.1146627, Q1 : 0.875531733036, Q2 : 0.0728788152337, Q3 : -0.136077955365, Q4 : 0.457838088274}
2019-04-14 17:26:46.41: SIM {TimeUS : 63435449, Roll : 0.16, Pitch : -17.75, Yaw : 55.17, Alt : 49.3300018311, Lat : 49.2837332, Lng : -123.1146573, Q1 : 0.875563263893, Q2 : 0.072752058506, Q3 : -0.136130034924, Q4 : 0.45778247714}
2019-04-14 17:26:46.51: SIM {TimeUS : 63535409, Roll : 0.15, Pitch : -17.77, Yaw : 55.17, Alt : 49.3300018311, Lat : 49.2837357, Lng : -123.114652, Q1 : 0.875572443008, Q2 : 0.0727270767093, Q3 : -0.136315152049, Q4 : 0.45771381259}
2019-04-14 17:26:46.61: SIM {TimeUS : 63635369, Roll : 0.15, Pitch : -17.79, Yaw : 55.16, Alt : 49.3300018311, Lat : 49.2837381, Lng : -123.1146466, Q1 : 0.875573217869, Q2 : 0.0727864578366, Q3 : -0.136506646872, Q4 : 0.457645744085}
2019-04-14 17:26:46.71: SIM {TimeUS : 63735329, Roll : 0.14, Pitch : -17.84, Yaw : 55.15, Alt : 49.3300018311, Lat : 49.2837405, Lng : -123.1146412, Q1 : 0.875555157661, Q2 : 0.072901904583, Q3 : -0.136857688427, Q4 : 0.457557082176}
2019-04-14 17:26:46.81: SIM {TimeUS : 63835289, Roll : 0.14, Pitch : -17.89, Yaw : 55.15, Alt : 49.3300018311, Lat : 49.2837429, Lng : -123.1146357, Q1 : 0.875528454781, Q2 : 0.0730756819248, Q3 : -0.137255311012, Q4 : 0.457461357117}
2019-04-14 17:26:46.91: SIM {TimeUS : 63935249, Roll : 0.15, Pitch : -17.92, Yaw : 55.14, Alt : 49.3300018311, Lat : 49.2837453, Lng : -123.1146304, Q1 : 0.875512301922, Q2 : 0.0732992887497, Q3 : -0.137517079711, Q4 : 0.457377821207}
2019-04-14 17:26:47.01: SIM {TimeUS : 64035209, Roll : 0.15, Pitch : -17.95, Yaw : 55.13, Alt : 49.3300018311, Lat : 49.2837477, Lng : -123.1146249, Q1 : 0.875524520874, Q2 : 0.0733736529946, Q3 : -0.137747719884, Q4 : 0.457273215055}
2019-04-14 17:26:47.11: SIM {TimeUS : 64135169, Roll : 0.14, Pitch : -17.97, Yaw : 55.11, Alt : 49.3300018311, Lat : 49.2837501, Lng : -123.1146195, Q1 : 0.875558614731, Q2 : 0.0733614265919, Q3 : -0.137905970216, Q4 : 0.4571621418}
2019-04-14 17:26:47.21: SIM {TimeUS : 64235129, Roll : 0.15, Pitch : -17.96, Yaw : 55.1, Alt : 49.3300018311, Lat : 49.2837525, Lng : -123.1146141, Q1 : 0.875617086887, Q2 : 0.0733708590269, Q3 : -0.137818589807, Q4 : 0.457074940205}
2019-04-14 17:26:47.31: SIM {TimeUS : 64335089, Roll : 0.17, Pitch : -17.96, Yaw : 55.09, Alt : 49.3300018311, Lat : 49.2837549, Lng : -123.1146086, Q1 : 0.875656366348, Q2 : 0.0735289007425, Q3 : -0.1377902776, Q4 : 0.456982821226}
2019-04-14 17:26:47.41: SIM {TimeUS : 64435049, Roll : 0.17, Pitch : -17.98, Yaw : 55.07, Alt : 49.3300018311, Lat : 49.2837573, Lng : -123.1146032, Q1 : 0.875693142414, Q2 : 0.073610432446, Q3 : -0.137926220894, Q4 : 0.456858247519}
2019-04-14 17:26:47.51: SIM {TimeUS : 64535009, Roll : 0.18, Pitch : -17.99, Yaw : 55.05, Alt : 49.3400001526, Lat : 49.2837598, Lng : -123.1145978, Q1 : 0.875741362572, Q2 : 0.0736724436283, Q3 : -0.137968361378, Q4 : 0.45674303174}
2019-04-14 17:26:47.61: SIM {TimeUS : 64634969, Roll : 0.18, Pitch : -17.99, Yaw : 55.04, Alt : 49.3400001526, Lat : 49.2837622, Lng : -123.1145923, Q1 : 0.875799834728, Q2 : 0.0737070217729, Q3 : -0.137927010655, Q4 : 0.456637829542}
2019-04-14 17:26:47.71: SIM {TimeUS : 64734929, Roll : 0.19, Pitch : -17.99, Yaw : 55.02, Alt : 49.3400001526, Lat : 49.2837646, Lng : -123.1145868, Q1 : 0.875862121582, Q2 : 0.0736932232976, Q3 : -0.137904748321, Q4 : 0.456527292728}
2019-04-14 17:26:47.81: SIM {TimeUS : 64834889, Roll : 0.17, Pitch : -18.0, Yaw : 55.01, Alt : 49.3400001526, Lat : 49.2837671, Lng : -123.1145814, Q1 : 0.875911295414, Q2 : 0.0736059397459, Q3 : -0.138076215982, Q4 : 0.456395149231}
2019-04-14 17:26:47.91: SIM {TimeUS : 64934849, Roll : 0.14, Pitch : -18.03, Yaw : 55.0, Alt : 49.3400001526, Lat : 49.2837695, Lng : -123.1145759, Q1 : 0.87593537569, Q2 : 0.0735204666853, Q3 : -0.138449981809, Q4 : 0.456249445677}
2019-04-14 17:26:48.01: SIM {TimeUS : 65035642, Roll : 0.13, Pitch : -18.04, Yaw : 54.99, Alt : 49.3400001526, Lat : 49.283772, Lng : -123.1145704, Q1 : 0.875976145267, Q2 : 0.0734322592616, Q3 : -0.138586729765, Q4 : 0.456143915653}
2019-04-14 17:26:48.11: SIM {TimeUS : 65135602, Roll : 0.14, Pitch : -18.03, Yaw : 54.98, Alt : 49.3400001526, Lat : 49.2837744, Lng : -123.1145649, Q1 : 0.876027047634, Q2 : 0.0734608620405, Q3 : -0.138423427939, Q4 : 0.456091076136}
2019-04-14 17:26:48.21: SIM {TimeUS : 65235562, Roll : 0.16, Pitch : -18.01, Yaw : 54.97, Alt : 49.3400001526, Lat : 49.2837769, Lng : -123.1145594, Q1 : 0.876072108746, Q2 : 0.0735443681479, Q3 : -0.138239681721, Q4 : 0.456046849489}
2019-04-14 17:26:48.31: SIM {TimeUS : 65335522, Roll : 0.18, Pitch : -18.01, Yaw : 54.96, Alt : 49.3400001526, Lat : 49.2837793, Lng : -123.1145539, Q1 : 0.876101911068, Q2 : 0.0736474841833, Q3 : -0.138207539916, Q4 : 0.455982625484}
2019-04-14 17:26:48.41: SIM {TimeUS : 65435482, Roll : 0.17, Pitch : -18.03, Yaw : 54.95, Alt : 49.3400001526, Lat : 49.2837818, Lng : -123.1145484, Q1 : 0.8761267066, Q2 : 0.073640152812, Q3 : -0.13836248219, Q4 : 0.455889225006}
2019-04-14 17:26:48.51: SIM {TimeUS : 65535442, Roll : 0.14, Pitch : -18.05, Yaw : 54.94, Alt : 49.3400001526, Lat : 49.2837842, Lng : -123.1145429, Q1 : 0.876152396202, Q2 : 0.0734949633479, Q3 : -0.138672530651, Q4 : 0.455769062042}
2019-04-14 17:26:48.61: SIM {TimeUS : 65635402, Roll : 0.12, Pitch : -18.08, Yaw : 54.93, Alt : 49.3400001526, Lat : 49.2837867, Lng : -123.1145374, Q1 : 0.876168787479, Q2 : 0.0734411776066, Q3 : -0.138970971107, Q4 : 0.455655306578}
2019-04-14 17:26:48.71: SIM {TimeUS : 65735362, Roll : 0.11, Pitch : -18.11, Yaw : 54.92, Alt : 49.3400001526, Lat : 49.2837891, Lng : -123.1145319, Q1 : 0.876179456711, Q2 : 0.0735063105822, Q3 : -0.139199212193, Q4 : 0.455554544926}
2019-04-14 17:26:48.81: SIM {TimeUS : 65835322, Roll : 0.12, Pitch : -18.13, Yaw : 54.91, Alt : 49.3400001526, Lat : 49.2837916, Lng : -123.1145264, Q1 : 0.876188695431, Q2 : 0.0736389309168, Q3 : -0.139318242669, Q4 : 0.455479025841}
2019-04-14 17:26:48.91: SIM {TimeUS : 65935282, Roll : 0.15, Pitch : -18.14, Yaw : 54.9, Alt : 49.3400001526, Lat : 49.283794, Lng : -123.1145208, Q1 : 0.876199483871, Q2 : 0.0738761499524, Q3 : -0.139286011457, Q4 : 0.455429643393}
