2019-04-14 18:07:01.50: SIM {TimeUS : 39915694, Roll : 0.0, Pitch : 0.0, Yaw : 0.0, Alt : 30.1000003815, Lat : 49.28357, Lng : -123.11502, Q1 : 1.0, Q2 : 0.0, Q3 : 0.0, Q4 : 0.0}
2019-04-14 18:07:01.61: SIM {TimeUS : 40034813, Roll : 0.0, Pitch : 0.0, Yaw : 0.0, Alt : 30.1000003815, Lat : 49.28357, Lng : -123.11502, Q1 : 1.0, Q2 : 0.0, Q3 : 0.0, Q4 : 0.0}
2019-04-14 18:07:01.71: SIM {TimeUS : 40134773, Roll : 0.0, Pitch : 0.0, Yaw : 0.0, Alt : 30.1000003815, Lat : 49.28357, Lng : -123.11502, Q1 : 1.0, Q2 : 0.0, Q3 : 0.0, Q4 : 0.0}
2019-04-14 18:07:01.81: SIM {TimeUS : 40234733, Roll : 0.0, Pitch : 0.0, Yaw : 0.0, Alt : 30.1000003815, Lat : 49.28357, Lng : -123.11502, Q1 : 1.0, Q2 : 0.0, Q3 : 0.0, Q4 : 0.0}
2019-04-14 18:07:01.91: SIM {TimeUS : 40334693, Roll : 0.0, Pitch : 0.0, Yaw : 0.0, Alt : 30.1000003815, Lat : 49.28357, Lng : -123.11502, Q1 : 1.0, Q2 : 0.0, Q3 : 0.0, Q4 : 0.0}
2019-04-14 18:07:02.01: SIM {TimeUS : 40434653, Roll : 0.0, Pitch : 0.0, Yaw : 0.0, Alt : 30.1000003815, Lat : 49.28357, Lng : -123.11502, Q1 : 1.0, Q2 : 0.0, Q3 : 0.0, Q4 : 0.0}
2019-04-14 18:07:02.11: SIM {TimeUS : 40534613, Roll : 0.0, Pitch : 0.0, Yaw : 0.0, Alt : 30.1000003815, Lat : 49.28357, Lng : -123.11502, Q1 : 1.0, Q2 : 0.0, Q3 : 0.0, Q4 : 0.0}
2019-04-14 18:07:02.21: SIM {TimeUS : 40634573, Roll : 0.0, Pitch : 0.0, Yaw : 0.0, Alt : 30.1000003815, Lat : 49.28357, Lng : -123.11502, Q1 : 1.0, Q2 : 0.0, Q3 : 0.0, Q4 : 0.0}
2019-04-14 18:07:02.31: SIM {TimeUS : 40734533, Roll : 0.0, Pitch : 0.0, Yaw : 0.0, Alt : 30.1000003815, Lat : 49.28357, Lng : -123.11502, Q1 : 1.0, Q2 : 0.0, Q3 : 0.0, Q4 : 0.0}
2019-04-14 18:07:02.41: SIM {TimeUS : 40834493, Roll : 0.0, Pitch : 0.0, Yaw : 0.0, Alt : 30.1000003815, Lat : 49.28357, Lng : -123.11502, Q1 : 1.0, Q2 : 0.0, Q3 : 0.0, Q4 : 0.0}
2019-04-14 18:07:02.51: SIM {TimeUS : 40934453, Roll : 0.0, Pitch : 0.0, Yaw : 0.0, Alt : 30.1000003815, Lat : 49.28357, Lng : -123.11502, Q1 : 1.0, Q2 : 0.0, Q3 : 0.0, Q4 : 0.0}
2019-04-14 18:07:02.61: SIM {TimeUS : 41034413, Roll : 0.0, Pitch : 0.0, Yaw : 0.0, Alt : 30.1000003815, Lat : 49.28357, Lng : -123.11502, Q1 : 1.0, Q2 : 0.0, Q3 : 0.0, Q4 : 0.0}
2019-04-14 18:07:02.71: SIM {TimeUS : 41134373, Roll : 0.0, Pitch : 0.0, Yaw : 0.0, Alt : 30.1000003815, Lat : 49.28357, Lng : -123.11502, Q1 : 1.0, Q2 : 0.0, Q3 : 0.0, Q4 : 0.0}
2019-04-14 18:07:02.81: SIM {TimeUS : 41234333, Roll : 0.0, Pitch : 0.0, Yaw : 0.0, Alt : 30.1000003815, Lat : 49.28357, Lng : -123.11502, Q1 : 1.0, Q2 : 0.0, Q3 : 0.0, Q4 : 0.0}
2019-04-14 18:07:02.91: SIM {TimeUS : 41334293, Roll : 0.0, Pitch : 0.0, Yaw : 0.0, Alt : 30.1000003815, Lat : 49.28357, Lng : -123.11502, Q1 : 1.0, Q2 : 0.0, Q3 : 0.0, Q4 : 0.0}
2019-04-14 18:07:03.01: SIM {TimeUS : 41434253, Roll : 0.0, Pitch : 0.0, Yaw : 0.0, Alt : 30.1000003815, Lat : 49.28357, Lng : -123.11502, Q1 : 1.0, Q2 : 0.0, Q3 : 0.0, Q4 : 0.0}
2019-04-14 18:07:03.11: SIM {TimeUS : 41534213, Roll : 0.0, Pitch : 0.0, Yaw : 0.0, Alt : 30.1000003815, Lat : 49.28357, Lng : -123.11502, Q1 : 1.0, Q2 : 0.0, Q3 : 0.0, Q4 : 0.0}
2019-04-14 18:07:03.21: SIM {TimeUS : 41634173, Roll : 0.0, Pitch : 0.0, Yaw : 0.0, Alt : 30.1000003815, Lat : 49.28357, Lng : -123.11502, Q1 : 1.0, Q2 : 0.0, Q3 : 0.0, Q4 : 0.0}
2019-04-14 18:07:03.31: SIM {TimeUS : 41734133, Roll : 0.0, Pitch : 0.0, Yaw : 0.0, Alt : 30.1000003815, Lat : 49.28357, Lng : -123.11502, Q1 : 1.0, Q2 : 0.0, Q3 : 0.0, Q4 : 0.0}
2019-04-14 18:07:03.41: SIM {TimeUS : 41834093, Roll : 0.0, Pitch : 0.0, Yaw : 0.0, Alt : 30.1000003815, Lat : 49.28357, Lng : -123.11502, Q1 : 1.0, Q2 : 0.0, Q3 : 0.0, Q4 : 0.0}
2019-04-14 18:07:03.51: SIM {TimeUS : 41934053, Roll : 0.0, Pitch : 0.0, Yaw : 0.0, Alt : 30.1000003815, Lat : 49.28357, Lng : -123.11502, Q1 : 1.0, Q2 : 0.0, Q3 : 0.0, Q4 : 0.0}
2019-04-14 18:07:03.62: SIM {TimeUS : 42034846, Roll : 0.0, Pitch : 0.0, Yaw : 0.0, Alt : 30.1000003815, Lat : 49.28357, Lng : -123.11502, Q1 : 1.0, Q2 : 0.0, Q3 : 0.0, Q4 : 0.0}
2019-04-14 18:07:03.71: SIM {TimeUS : 42134806, Roll : 0.0, Pitch : 0.0, Yaw : 0.0, Alt : 30.1000003815, Lat : 49.28357, Lng : -123.11502, Q1 : 1.0, Q2 : 0.0, Q3 : 0.0, Q4 : 0.0}
2019-04-14 18:07:03.81: SIM {TimeUS : 42234766, Roll : 0.0, Pitch : 0.0, Yaw : 360.0, Alt : 30.1000003815, Lat : 49.28357, Lng : -123.11502, Q1 : 1.0, Q2 : 0.0, Q3 : 0.0, Q4 : -2.28186089815e-12}
2019-04-14 18:07:03.91: SIM {TimeUS : 42334726, Roll : 0.0, Pitch : 0.0, Yaw : 0.0, Alt : 30.1000003815, Lat : 49.28357, Lng : -123.11502, Q1 : 1.0, Q2 : 0.0, Q3 : 0.0, Q4 : 3.4573906238e-14}
2019-04-14 18:07:04.01: SIM {TimeUS : 42434686, Roll : 0.0, Pitch : 0.0, Yaw : 360.0, Alt : 30.1000003815, Lat : 49.28357, Lng : -123.11502, Q1 : 1.0, Q2 : 0.0, Q3 : 0.0, Q4 : -1.52330088099e-07}
2019-04-14 18:07:04.11: SIM {TimeUS : 42534646, Roll : 0.0, Pitch : 0.0, Yaw : 359.99, Alt : 30.1000003815, Lat : 49.28357, Lng : -123.11502, Q1 : 1.0, Q2 : 0.0, Q3 : 0.0, Q4 : -3.36350723273e-07}
2019-04-14 18:07:04.21: SIM {TimeUS : 42634606, Roll : 0.0, Pitch : 0.0, Yaw : 359.99, Alt : 30.1000003815, Lat : 49.28357, Lng : -123.11502, Q1 : 1.0, Q2 : 0.0, Q3 : 0.0, Q4 : -5.37927348887e-07}
2019-04-14 18:07:04.31: SIM {TimeUS : 42734566, Roll : 0.0, Pitch : 0.0, Yaw : 359.99, Alt : 30.1000003815, Lat : 49.28357, Lng : -123.11502, Q1 : 1.0, Q2 : 0.0, Q3 : 0.0, Q4 : -7.45896898025e-07}
2019-04-14 18:07:04.41: SIM {TimeUS : 42834526, Roll : 0.0, Pitch : 0.0, Yaw : 359.99, Alt : 30.1000003815, Lat : 49.28357, Lng : -123.11502, Q1 : 1.0, Q2 : 0.0, Q3 : 0.0, Q4 : -9.44404973779e-07}
2019-04-14 18:07:04.51: SIM {TimeUS : 42934486, Roll : 0.0, Pitch : 0.0, Yaw : 359.99, Alt : 30.1000003815, Lat : 49.28357, Lng : -123.11502, Q1 : 1.0, Q2 : 0.0, Q3 : 0.0, Q4 : -1.13995963602e-06}
2019-04-14 18:07:04.61: SIM {TimeUS : 43034446, Roll : 0.0, Pitch : 0.0, Yaw : 359.99, Alt : 30.1000003815, Lat : 49.28357, Lng : -123.11502, Q1 : 1.0, Q2 : 0.0, Q3 : 0.0, Q4 : -1.3543692603e-06}
2019-04-14 18:07:04.71: SIM {TimeUS : 43134406, Roll : 0.0, Pitch : 0.0, Yaw : 359.99, Alt : 30.1100006104, Lat : 49.28357, Lng : -123.11502, Q1 : 1.0, Q2 : 0.0, Q3 : 0.0, Q4 : -1.57880617735e-06}
2019-04-14 18:07:04.81: SIM {TimeUS : 43234366, Roll : 0.0, Pitch : 0.0, Yaw : 359.99, Alt : 30.1399993896, Lat : 49.28357, Lng : -123.11502, Q1 : 1.0, Q2 : 0.0, Q3 : 0.0, Q4 : -1.77944912139e-06}
2019-04-14 18:07:04.91: SIM {TimeUS : 43334326, Roll : 0.0, Pitch : 0.0, Yaw : 359.99, Alt : 30.1599998474, Lat : 49.28357, Lng : -123.11502, Q1 : 1.0, Q2 : 0.0, Q3 : 0.0, Q4 : -1.99664691536e-06}
2019-04-14 18:07:05.01: SIM {TimeUS : 43434286, Roll : 0.0, Pitch : 0.0, Yaw : 359.99, Alt : 30.2000007629, Lat : 49.28357, Lng : -123.11502, Q1 : 1.0, Q2 : 0.0, Q3 : 0.0, Q4 : -2.23133338295e-06}
2019-04-14 18:07:05.11: SIM {TimeUS : 43534246, Roll : -0.08, Pitch : -0.08, Yaw : 359.99, Alt : 30.25, Lat : 49.28357, Lng : -123.11502, Q1 : 0.999999403954, Q2 : -0.000780777540058, Q3 : -0.000752827327233, Q4 : -7.86294913269e-06}
2019-04-14 18:07:05.21: SIM {TimeUS : 43634206, Roll : -0.35, Pitch : -0.36, Yaw : 359.99, Alt : 30.3400001526, Lat : 49.28357, Lng : -123.11502, Q1 : 0.999990224838, Q2 : -0.00310818245634, Q3 : -0.00315328943543, Q4 : -4.13228590332e-05}
2019-04-14 18:07:05.31: SIM {TimeUS : 43734166, Roll : -0.62, Pitch : -0.66, Yaw : 359.99, Alt : 30.4899997711, Lat : 49.28357, Lng : -123.11502, Q1 : 0.99996817112, Q2 : -0.00546162435785, Q3 : -0.00581618351862, Q4 : -9.80149270617e-05}
2019-04-14 18:07:05.41: SIM {TimeUS : 43834126, Roll : -0.78, Pitch : -0.82, Yaw : 359.98, Alt : 30.6499996185, Lat : 49.28357, Lng : -123.11502, Q1 : 0.999950289726, Q2 : -0.00687138224021, Q3 : -0.00722407503054, Q4 : -0.000172133470187}
2019-04-14 18:07:05.51: SIM {TimeUS : 43934086, Roll : -0.79, Pitch : -0.78, Yaw : 359.97, Alt : 30.7999992371, Lat : 49.28357, Lng : -123.11502, Q1 : 0.99995225668, Q2 : -0.00694884965196, Q3 : -0.00687060225755, Q4 : -0.000256560888374}
2019-04-14 18:07:05.61: SIM {TimeUS : 44034046, Roll : -0.67, Pitch : -0.6, Yaw : 359.96, Alt : 30.9599990845, Lat : 49.28357, Lng : -123.1150201, Q1 : 0.999968588352, Q2 : -0.00587656581774, Q3 : -0.00531048001722, Q4 : -0.000342718150932}
2019-04-14 18:07:05.72: SIM {TimeUS : 44134839, Roll : -0.47, Pitch : -0.37, Yaw : 359.95, Alt : 31.1100006104, Lat : 49.2835701, Lng : -123.1150202, Q1 : 0.999985873699, Q2 : -0.00416266173124, Q3 : -0.00327548384666, Q4 : -0.000422018376412}
2019-04-14 18:07:05.81: SIM {TimeUS : 44234799, Roll : -0.27, Pitch : -0.16, Yaw : 359.94, Alt : 31.2700004578, Lat : 49.2835701, Lng : -123.1150203, Q1 : 0.99999588728, Q2 : -0.00242478516884, Q3 : -0.0014267929364, Q4 : -0.000495871296152}
2019-04-14 18:07:05.91: SIM {TimeUS : 44334759, Roll : -0.11, Pitch : -0.01, Yaw : 359.93, Alt : 31.4400005341, Lat : 49.2835702, Lng : -123.1150204, Q1 : 0.999999284744, Q2 : -0.00101617199834, Q3 : -0.000164252734976, Q4 : -0.000554821803235}
2019-04-14 18:07:06.01: SIM {TimeUS : 44434719, Roll : 0.0, Pitch : 0.03, Yaw : 359.93, Alt : 31.6100006104, Lat : 49.2835702, Lng : -123.1150204, Q1 : 0.999999761581, Q2 : 6.73339382047e-05, Q3 : 0.000269980897428, Q4 : -0.00059774867259}
2019-04-14 18:07:06.11: SIM {TimeUS : 44534679, Roll : 0.07, Pitch : 0.02, Yaw : 359.92, Alt : 31.7900009155, Lat : 49.2835703, Lng : -123.1150205, Q1 : 0.999999582767, Q2 : 0.000665766594466, Q3 : 0.000257897627307, Q4 : -0.000620269973297}
2019-04-14 18:07:06.21: SIM {TimeUS : 44634639, Roll : 0.08, Pitch : 0.01, Yaw : 359.92, Alt : 31.9699993134, Lat : 49.2835703, Lng : -123.1150206, Q1 : 0.999999582767, Q2 : 0.000700621982105, Q3 : 0.00010089706484, Q4 : -0.000625462969765}
2019-04-14 18:07:06.31: SIM {TimeUS : 44734599, Roll : 0.06, Pitch : 0.0, Yaw : 359.93, Alt : 32.1599998474, Lat : 49.2835703, Lng : -123.1150206, Q1 : 0.999999642372, Q2 : 0.000554713828024, Q3 : -2.38719421759e-05, Q4 : -0.000599159160629}
2019-04-14 18:07:06.41: SIM {TimeUS : 44834559, Roll : 0.05, Pitch : 0.0, Yaw : 359.93, Alt : 32.3499984741, Lat : 49.2835703, Lng : -123.1150207, Q1 : 0.999999701977, Q2 : 0.000489356869366, Q3 : 1.3715057321e-06, Q4 : -0.000557569030207}
2019-04-14 18:07:06.51: SIM {TimeUS : 44934519, Roll : 0.06, Pitch : 0.02, Yaw : 359.94, Alt : 32.5400009155, Lat : 49.2835703, Lng : -123.1150207, Q1 : 0.999999701977, Q2 : 0.000532564416062, Q3 : 0.000193218351342, Q4 : -0.000517038162798}
2019-04-14 18:07:06.61: SIM {TimeUS : 45034479, Roll : 0.08, Pitch : 0.04, Yaw : 359.94, Alt : 32.7299995422, Lat : 49.2835703, Lng : -123.1150208, Q1 : 0.999999523163, Q2 : 0.000778542540502, Q3 : 0.000404599210015, Q4 : -0.000483007577714}
2019-04-14 18:07:06.71: SIM {TimeUS : 45134439, Roll : 0.13, Pitch : 0.07, Yaw : 359.94, Alt : 32.9300003052, Lat : 49.2835704, Lng : -123.1150208, Q1 : 0.999998986721, Q2 : 0.00116608454846, Q3 : 0.000622812483925, Q4 : -0.000466215307824}
2019-04-14 18:07:06.81: SIM {TimeUS : 45234399, Roll : 0.16, Pitch : 0.1, Yaw : 359.94, Alt : 33.1300010681, Lat : 49.2835704, Lng : -123.1150209, Q1 : 0.999998390675, Q2 : 0.00144759193063, Q3 : 0.000920191698242, Q4 : -0.000461745192297}
2019-04-14 18:07:06.91: SIM {TimeUS : 45334359, Roll : 0.17, Pitch : 0.13, Yaw : 359.94, Alt : 33.3400001526, Lat : 49.2835704, Lng : -123.1150209, Q1 : 0.999998033047, Q2 : 0.00150727538858, Q3 : 0.00120979419444, Q4 : -0.000465373828774}
2019-04-14 18:07:07.01: SIM {TimeUS : 45434319, Roll : 0.16, Pitch : 0.15, Yaw : 359.94, Alt : 33.5400009155, Lat : 49.2835704, Lng : -123.1150209, Q1 : 0.999997913837, Q2 : 0.00141689239535, Q3 : 0.00138172169682, Q4 : -0.000473919149954}
2019-04-14 18:07:07.11: SIM {TimeUS : 45534279, Roll : 0.15, Pitch : 0.17, Yaw : 359.94, Alt : 33.75, Lat : 49.2835704, Lng : -123.1150209, Q1 : 0.999997854233, Q2 : 0.0013300528517, Q3 : 0.00152755109593, Q4 : -0.000485340278829}
2019-04-14 18:07:07.21: SIM {TimeUS : 45634239, Roll : 0.15, Pitch : 0.17, Yaw : 359.94, Alt : 33.9599990845, Lat : 49.2835704, Lng : -123.1150209, Q1 : 0.999997794628, Q2 : 0.00135062076151, Q3 : 0.00150948890951, Q4 : -0.000504849944264}
2019-04-14 18:07:07.31: SIM {TimeUS : 45734199, Roll : 0.15, Pitch : 0.16, Yaw : 359.93, Alt : 34.1699981689, Lat : 49.2835706, Lng : -123.1150209, Q1 : 0.999997973442, Q2 : 0.00132492103148, Q3 : 0.00142281700391, Q4 : -0.00053329981165}
2019-04-14 18:07:07.41: SIM {TimeUS : 45834159, Roll : 0.12, Pitch : 0.15, Yaw : 359.93, Alt : 34.3800010681, Lat : 49.2835706, Lng : -123.1150209, Q1 : 0.99999833107, Q2 : 0.00113474112004, Q3 : 0.00131636171136, Q4 : -0.000563553359825}
2019-04-14 18:07:07.51: SIM {TimeUS : 45934119, Roll : 0.1, Pitch : 0.11, Yaw : 359.93, Alt : 34.5900001526, Lat : 49.2835706, Lng : -123.1150209, Q1 : 0.999998927116, Q2 : 0.000940484693274, Q3 : 0.000982140772976, Q4 : -0.000581866654102}
2019-04-14 18:07:07.61: SIM {TimeUS : 46034079, Roll : 0.09, Pitch : 0.05, Yaw : 359.93, Alt : 34.8100013733, Lat : 49.2835706, Lng : -123.1150209, Q1 : 0.999999403954, Q2 : 0.000802265014499, Q3 : 0.00050817761803, Q4 : -0.000591931864619}
2019-04-14 18:07:07.71: SIM {TimeUS : 46134039, Roll : 0.07, Pitch : 0.02, Yaw : 359.92, Alt : 35.0200004578, Lat : 49.2835706, Lng : -123.1150209, Q1 : 0.999999582767, Q2 : 0.00064181612106, Q3 : 0.000228499455261, Q4 : -0.000614311429672}
2019-04-14 18:07:07.82: SIM {TimeUS : 46234832, Roll : 0.06, Pitch : 0.02, Yaw : 359.92, Alt : 35.2400016785, Lat : 49.2835706, Lng : -123.1150209, Q1 : 0.999999642372, Q2 : 0.000540945271496, Q3 : 0.000182456700713, Q4 : -0.000658495875541}
2019-04-14 18:07:07.91: SIM {TimeUS : 46334792, Roll : 0.06, Pitch : 0.03, Yaw : 359.91, Alt : 35.4599990845, Lat : 49.2835706, Lng : -123.1150208, Q1 : 0.999999582767, Q2 : 0.00053685484454, Q3 : 0.000316035118885, Q4 : -0.000715860456694}
2019-04-14 18:07:08.01: SIM {TimeUS : 46434752, Roll : 0.05, Pitch : 0.04, Yaw : 359.91, Alt : 35.6800003052, Lat : 49.2835706, Lng : -123.1150208, Q1 : 0.999999523163, Q2 : 0.000441565876827, Q3 : 0.000349029607605, Q4 : -0.000769872451201}
2019-04-14 18:07:08.11: SIM {TimeUS : 46534712, Roll : 0.02, Pitch : 0.03, Yaw : 359.9, Alt : 35.8899993896, Lat : 49.2835706, Lng : -123.1150208, Q1 : 0.999999642372, Q2 : 0.000181087874807, Q3 : 0.00029886959237, Q4 : -0.000816070358269}
2019-04-14 18:07:08.21: SIM {TimeUS : 46634672, Roll : 0.0, Pitch : 0.03, Yaw : 359.9, Alt : 36.1100006104, Lat : 49.2835706, Lng : -123.1150208, Q1 : 0.999999582767, Q2 : -5.01430840814e-05, Q3 : 0.0002924320288, Q4 : -0.000849060132168}
2019-04-14 18:07:08.31: SIM {TimeUS : 46734632, Roll : -0.01, Pitch : 0.04, Yaw : 359.89, Alt : 36.3400001526, Lat : 49.2835706, Lng : -123.1150208, Q1 : 0.999999523163, Q2 : -0.000173149135662, Q3 : 0.000433483190136, Q4 : -0.000873974699061}
2019-04-14 18:07:08.41: SIM {TimeUS : 46834592, Roll : -0.02, Pitch : 0.05, Yaw : 359.89, Alt : 36.5600013733, Lat : 49.2835704, Lng : -123.1150208, Q1 : 0.999999463558, Q2 : -0.000243566304562, Q3 : 0.000455891364254, Q4 : -0.000892861513421}
2019-04-14 18:07:08.51: SIM {TimeUS : 46934552, Roll : -0.02, Pitch : 0.04, Yaw : 359.89, Alt : 36.7799987793, Lat : 49.2835704, Lng : -123.1150207, Q1 : 0.999999463558, Q2 : -0.00025375848054, Q3 : 0.000392173271393, Q4 : -0.000911970739253}
2019-04-14 18:07:08.61: SIM {TimeUS : 47034512, Roll : -0.02, Pitch : 0.03, Yaw : 359.89, Alt : 37.0, Lat : 49.2835704, Lng : -123.1150207, Q1 : 0.999999523163, Q2 : -0.000256883329712, Q3 : 0.000313841592288, Q4 : -0.00092757033417}
2019-04-14 18:07:08.71: SIM {TimeUS : 47134472, Roll : -0.02, Pitch : 0.02, Yaw : 359.89, Alt : 37.2299995422, Lat : 49.2835704, Lng : -123.1150207, Q1 : 0.999999523163, Q2 : -0.00021870531782, Q3 : 0.000218763874727, Q4 : -0.000937176635489}
2019-04-14 18:07:08.81: SIM {TimeUS : 47234432, Roll : 0.0, Pitch : 0.01, Yaw : 359.89, Alt : 37.4500007629, Lat : 49.2835704, Lng : -123.1150207, Q1 : 0.999999523163, Q2 : -4.73136969958e-05, Q3 : 0.000120954588056, Q4 : -0.000938899931498}
2019-04-14 18:07:08.91: SIM {TimeUS : 47334392, Roll : 0.0, Pitch : 0.0, Yaw : 359.89, Alt : 37.6800003052, Lat : 49.2835704, Lng : -123.1150207, Q1 : 0.999999582767, Q2 : -1.61873085744e-05, Q3 : -3.79786870326e-05, Q4 : -0.000936397409532}
2019-04-14 18:07:09.01: SIM {TimeUS : 47434352, Roll : -0.01, Pitch : -0.03, Yaw : 359.89, Alt : 37.9099998474, Lat : 49.2835704, Lng : -123.1150207, Q1 : 0.999999523163, Q2 : -0.000152099048137, Q3 : -0.00028403752367, Q4 : -0.000930590613279}
2019-04-14 18:07:09.11: SIM {TimeUS : 47534312, Roll : -0.04, Pitch : -0.05, Yaw : 359.89, Alt : 38.1300010681, Lat : 49.2835704, Lng : -123.1150207, Q1 : 0.999999403954, Q2 : -0.000413565314375, Q3 : -0.00047836516751, Q4 : -0.000932236667722}
2019-04-14 18:07:09.21: SIM {TimeUS : 47634272, Roll : -0.08, Pitch : -0.06, Yaw : 359.89, Alt : 38.3600006104, Lat : 49.2835704, Lng : -123.1150207, Q1 : 0.99999910593, Q2 : -0.000737633032259, Q3 : -0.000559149251785, Q4 : -0.000953866168857}
2019-04-14 18:07:09.31: SIM {TimeUS : 47734232, Roll : -0.11, Pitch : -0.06, Yaw : 359.88, Alt : 38.5900001526, Lat : 49.2835704, Lng : -123.1150207, Q1 : 0.999998867512, Q2 : -0.000982392230071, Q3 : -0.00058210187126, Q4 : -0.000978965545073}
2019-04-14 18:07:09.41: SIM {TimeUS : 47834192, Roll : -0.12, Pitch : -0.06, Yaw : 359.88, Alt : 38.8199996948, Lat : 49.2835704, Lng : -123.1150207, Q1 : 0.999998748302, Q2 : -0.00107782380655, Q3 : -0.000551066943444, Q4 : -0.00100322777871}
2019-04-14 18:07:09.51: SIM {TimeUS : 47934152, Roll : -0.11, Pitch : -0.05, Yaw : 359.88, Alt : 39.0499992371, Lat : 49.2835704, Lng : -123.1150207, Q1 : 0.999998867512, Q2 : -0.000968960113823, Q3 : -0.00043579924386, Q4 : -0.0010362372268}
2019-04-14 18:07:09.61: SIM {TimeUS : 48034112, Roll : -0.08, Pitch : -0.05, Yaw : 359.87, Alt : 39.2799987793, Lat : 49.2835704, Lng : -123.1150206, Q1 : 0.999999046326, Q2 : -0.000746702426113, Q3 : -0.000437263370259, Q4 : -0.00106902676634}
2019-04-14 18:07:09.71: SIM {TimeUS : 48134072, Roll : -0.06, Pitch : -0.05, Yaw : 359.87, Alt : 39.5099983215, Lat : 49.2835704, Lng : -123.1150206, Q1 : 0.99999910593, Q2 : -0.000567598559428, Q3 : -0.000490031088702, Q4 : -0.00110604136717}
2019-04-14 18:07:09.81: SIM {TimeUS : 48234032, Roll : -0.05, Pitch : -0.04, Yaw : 359.87, Alt : 39.7400016785, Lat : 49.2835704, Lng : -123.1150206, Q1 : 0.999999165535, Q2 : -0.000454638298834, Q3 : -0.000374376104446, Q4 : -0.00113313889597}
2019-04-14 18:07:09.92: SIM {TimeUS : 48334825, Roll : -0.05, Pitch : -0.01, Yaw : 359.86, Alt : 39.9700012207, Lat : 49.2835704, Lng : -123.1150207, Q1 : 0.99999922514, Q2 : -0.000506431388203, Q3 : -0.000128805826535, Q4 : -0.00115977809764}
2019-04-14 18:07:10.01: SIM {TimeUS : 48434785, Roll : -0.05, Pitch : 0.01, Yaw : 359.86, Alt : 40.2000007629, Lat : 49.2835704, Lng : -123.1150207, Q1 : 0.999999165535, Q2 : -0.000468891870696, Q3 : 0.000120026699733, Q4 : -0.00118761707563}
2019-04-14 18:07:10.11: SIM {TimeUS : 48534745, Roll : -0.04, Pitch : 0.04, Yaw : 359.86, Alt : 40.4300003052, Lat : 49.2835704, Lng : -123.1150207, Q1 : 0.99999910593, Q2 : -0.000352790375473, Q3 : 0.000425353064202, Q4 : -0.00121887831483}
2019-04-14 18:07:10.21: SIM {TimeUS : 48634705, Roll : -0.02, Pitch : 0.06, Yaw : 359.85, Alt : 40.6699981689, Lat : 49.2835704, Lng : -123.1150207, Q1 : 0.999999046326, Q2 : -0.000205087402719, Q3 : 0.000537645246368, Q4 : -0.00124113459606}
2019-04-14 18:07:10.31: SIM {TimeUS : 48734665, Roll : 0.0, Pitch : 0.06, Yaw : 359.85, Alt : 40.9000015259, Lat : 49.2835704, Lng : -123.1150207, Q1 : 0.999999046326, Q2 : 2.5469906177e-05, Q3 : 0.000566814735066, Q4 : -0.00126127840485}
2019-04-14 18:07:10.41: SIM {TimeUS : 48834625, Roll : 0.03, Pitch : 0.08, Yaw : 359.85, Alt : 41.1300010681, Lat : 49.2835704, Lng : -123.1150207, Q1 : 0.999998867512, Q2 : 0.000316715158988, Q3 : 0.000714973430149, Q4 : -0.00128112360835}
2019-04-14 18:07:10.51: SIM {TimeUS : 48934585, Roll : 0.08, Pitch : 0.1, Yaw : 359.85, Alt : 41.3600006104, Lat : 49.2835706, Lng : -123.1150207, Q1 : 0.999998450279, Q2 : 0.0007209686446, Q3 : 0.000917792436667, Q4 : -0.00130311178509}
2019-04-14 18:07:10.61: SIM {TimeUS : 49034545, Roll : 0.11, Pitch : 0.12, Yaw : 359.84, Alt : 41.5999984741, Lat : 49.2835706, Lng : -123.1150207, Q1 : 0.999998033047, Q2 : 0.000963834580034, Q3 : 0.00111934996676, Q4 : -0.00132574723102}
2019-04-14 18:07:10.71: SIM {TimeUS : 49134505, Roll : 0.09, Pitch : 0.14, Yaw : 359.84, Alt : 41.8300018311, Lat : 49.2835706, Lng : -123.1150207, Q1 : 0.999997973442, Q2 : 0.000847382587381, Q3 : 0.00125620374456, Q4 : -0.00133459665813}
2019-04-14 18:07:10.81: SIM {TimeUS : 49234465, Roll : 0.05, Pitch : 0.15, Yaw : 359.84, Alt : 42.0600013733, Lat : 49.2835706, Lng : -123.1150207, Q1 : 0.999998092651, Q2 : 0.000453599932371, Q3 : 0.00133417872712, Q4 : -0.00134339253418}
2019-04-14 18:07:10.91: SIM {TimeUS : 49334425, Roll : 0.0, Pitch : 0.15, Yaw : 359.84, Alt : 42.2999992371, Lat : 49.2835706, Lng : -123.1150207, Q1 : 0.999998211861, Q2 : 6.6499778768e-05, Q3 : 0.00132918148302, Q4 : -0.00135874550324}
2019-04-14 18:07:11.01: SIM {TimeUS : 49434385, Roll : -0.01, Pitch : 0.12, Yaw : 359.84, Alt : 42.5299987793, Lat : 49.2835706, Lng : -123.1150207, Q1 : 0.999998450279, Q2 : -8.82656750036e-05, Q3 : 0.00108998606447, Q4 : -0.0013767631026}
2019-04-14 18:07:11.11: SIM {TimeUS : 49534345, Roll : 0.0, Pitch : 0.08, Yaw : 359.84, Alt : 42.7700004578, Lat : 49.2835706, Lng : -123.1150207, Q1 : 0.999998748302, Q2 : -7.06195714884e-05, Q3 : 0.000771204009652, Q4 : -0.00139581190888}
2019-04-14 18:07:11.21: SIM {TimeUS : 49634305, Roll : 0.0, Pitch : 0.08, Yaw : 359.83, Alt : 43.0, Lat : 49.2835706, Lng : -123.1150207, Q1 : 0.999998688698, Q2 : 7.90707872511e-06, Q3 : 0.000758066249546, Q4 : -0.00142533518374}
2019-04-14 18:07:11.31: SIM {TimeUS : 49734265, Roll : 0.02, Pitch : 0.1, Yaw : 359.83, Alt : 43.2400016785, Lat : 49.2835706, Lng : -123.1150207, Q1 : 0.999998450279, Q2 : 0.000263030204223, Q3 : 0.000938840268645, Q4 : -0.00146941910498}
2019-04-14 18:07:11.41: SIM {TimeUS : 49834225, Roll : 0.07, Pitch : 0.13, Yaw : 359.82, Alt : 43.4700012207, Lat : 49.2835706, Lng : -123.1150207, Q1 : 0.999997973442, Q2 : 0.000695822644047, Q3 : 0.00116003328003, Q4 : -0.0015063311439}
2019-04-14 18:07:11.51: SIM {TimeUS : 49934185, Roll : 0.11, Pitch : 0.13, Yaw : 359.82, Alt : 43.7099990845, Lat : 49.2835704, Lng : -123.1150207, Q1 : 0.999997675419, Q2 : 0.00100556551479, Q3 : 0.00114602944814, Q4 : -0.0015421184944}
2019-04-14 18:07:11.61: SIM {TimeUS : 50034145, Roll : 0.11, Pitch : 0.11, Yaw : 359.81, Alt : 43.9500007629, Lat : 49.2835704, Lng : -123.1150207, Q1 : 0.999997735023, Q2 : 0.000990967033431, Q3 : 0.00102503504604, Q4 : -0.00157263234723}
2019-04-14 18:07:11.71: SIM {TimeUS : 50134105, Roll : 0.06, Pitch : 0.1, Yaw : 359.81, Alt : 44.1800003052, Lat : 49.2835704, Lng : -123.1150207, Q1 : 0.999998152256, Q2 : 0.000610805000179, Q3 : 0.00091336137848, Q4 : -0.00158189411741}
2019-04-14 18:07:11.81: SIM {TimeUS : 50234065, Roll : 0.01, Pitch : 0.09, Yaw : 359.81, Alt : 44.4199981689, Lat : 49.2835704, Lng : -123.1150207, Q1 : 0.999998390675, Q2 : 9.32957482291e-05, Q3 : 0.000809853430837, Q4 : -0.00158605270553}
2019-04-14 18:07:11.91: SIM {TimeUS : 50334025, Roll : -0.03, Pitch : 0.08, Yaw : 359.81, Alt : 44.6500015259, Lat : 49.2835704, Lng : -123.1150206, Q1 : 0.999998390675, Q2 : -0.000288356939564, Q3 : 0.000783279770985, Q4 : -0.00159434229136}
2019-04-14 18:07:12.01: SIM {TimeUS : 50434818, Roll : -0.05, Pitch : 0.07, Yaw : 359.81, Alt : 44.8899993896, Lat : 49.2835704, Lng : -123.1150206, Q1 : 0.99999833107, Q2 : -0.000500396126881, Q3 : 0.000697023468092, Q4 : -0.00160256226081}
2019-04-14 18:07:12.11: SIM {TimeUS : 50534778, Roll : -0.06, Pitch : 0.06, Yaw : 359.81, Alt : 45.1300010681, Lat : 49.2835704, Lng : -123.1150206, Q1 : 0.999998390675, Q2 : -0.000557398714591, Q3 : 0.000556878221687, Q4 : -0.00160481757484}
2019-04-14 18:07:12.21: SIM {TimeUS : 50634738, Roll : -0.06, Pitch : 0.03, Yaw : 359.81, Alt : 45.3600006104, Lat : 49.2835704, Lng : -123.1150206, Q1 : 0.999998509884, Q2 : -0.000546997995116, Q3 : 0.000328368187184, Q4 : -0.00161595980171}
2019-04-14 18:07:12.31: SIM {TimeUS : 50734698, Roll : -0.04, Pitch : 0.01, Yaw : 359.81, Alt : 45.5999984741, Lat : 49.2835703, Lng : -123.1150206, Q1 : 0.999998569489, Q2 : -0.000378663797164, Q3 : 0.000103503407445, Q4 : -0.00164108304307}
2019-04-14 18:07:12.41: SIM {TimeUS : 50834658, Roll : -0.01, Pitch : 0.0, Yaw : 359.8, Alt : 45.8300018311, Lat : 49.2835703, Lng : -123.1150206, Q1 : 0.999998569489, Q2 : -0.000119894815725, Q3 : -2.77195031231e-05, Q4 : -0.00167590042111}
2019-04-14 18:07:12.51: SIM {TimeUS : 50934618, Roll : 0.0, Pitch : 0.0, Yaw : 359.8, Alt : 46.0600013733, Lat : 49.2835703, Lng : -123.1150206, Q1 : 0.999998509884, Q2 : -3.36571320076e-05, Q3 : -7.07995786797e-05, Q4 : -0.00171748409048}
2019-04-14 18:07:12.61: SIM {TimeUS : 51034578, Roll : 0.0, Pitch : -0.01, Yaw : 359.79, Alt : 46.2900009155, Lat : 49.2835703, Lng : -123.1150206, Q1 : 0.999998450279, Q2 : -7.52730702516e-05, Q3 : -0.000143063560245, Q4 : -0.00176464312244}
2019-04-14 18:07:12.71: SIM {TimeUS : 51134538, Roll : -0.01, Pitch : -0.03, Yaw : 359.79, Alt : 46.5099983215, Lat : 49.2835703, Lng : -123.1150205, Q1 : 0.99999833107, Q2 : -0.000170993153006, Q3 : -0.000308444723487, Q4 : -0.00180886010639}
2019-04-14 18:07:12.81: SIM {TimeUS : 51234498, Roll : -0.02, Pitch : -0.04, Yaw : 359.78, Alt : 46.7299995422, Lat : 49.2835703, Lng : -123.1150205, Q1 : 0.999998152256, Q2 : -0.000230455872952, Q3 : -0.000399463780923, Q4 : -0.00184829824138}
2019-04-14 18:07:12.91: SIM {TimeUS : 51334458, Roll : -0.02, Pitch : -0.05, Yaw : 359.78, Alt : 46.9399986267, Lat : 49.2835703, Lng : -123.1150205, Q1 : 0.999998092651, Q2 : -0.000224585703108, Q3 : -0.0004444316437, Q4 : -0.0018878254341}
2019-04-14 18:07:13.01: SIM {TimeUS : 51434418, Roll : -0.03, Pitch : -0.05, Yaw : 359.77, Alt : 47.1500015259, Lat : 49.2835703, Lng : -123.1150205, Q1 : 0.999998033047, Q2 : -0.000277651997749, Q3 : -0.00045243956265, Q4 : -0.00192619801965}
2019-04-14 18:07:13.11: SIM {TimeUS : 51534378, Roll : -0.05, Pitch : -0.04, Yaw : 359.77, Alt : 47.3499984741, Lat : 49.2835703, Lng : -123.1150205, Q1 : 0.999997913837, Q2 : -0.000452331500128, Q3 : -0.000405615515774, Q4 : -0.00196143379435}
2019-04-14 18:07:13.21: SIM {TimeUS : 51634338, Roll : -0.08, Pitch : -0.04, Yaw : 359.77, Alt : 47.5400009155, Lat : 49.2835703, Lng : -123.1150205, Q1 : 0.999997675419, Q2 : -0.000738109170925, Q3 : -0.000355548283551, Q4 : -0.00199203938246}
2019-04-14 18:07:13.31: SIM {TimeUS : 51734298, Roll : -0.12, Pitch : -0.05, Yaw : 359.76, Alt : 47.7200012207, Lat : 49.2835703, Lng : -123.1150205, Q1 : 0.999997258186, Q2 : -0.00108780118171, Q3 : -0.000506940414198, Q4 : -0.0020209280774}
2019-04-14 18:07:13.41: SIM {TimeUS : 51834258, Roll : -0.15, Pitch : -0.06, Yaw : 359.76, Alt : 47.8800010681, Lat : 49.2835703, Lng : -123.1150205, Q1 : 0.999996781349, Q2 : -0.00135577737819, Q3 : -0.000598895188887, Q4 : -0.00204472150654}
2019-04-14 18:07:13.51: SIM {TimeUS : 51934218, Roll : -0.16, Pitch : -0.06, Yaw : 359.76, Alt : 48.0400009155, Lat : 49.2835703, Lng : -123.1150205, Q1 : 0.999996721745, Q2 : -0.00143599498551, Q3 : -0.000541290384717, Q4 : -0.00206361501478}
2019-04-14 18:07:13.61: SIM {TimeUS : 52034178, Roll : -0.15, Pitch : -0.05, Yaw : 359.76, Alt : 48.1800003052, Lat : 49.2835703, Lng : -123.1150205, Q1 : 0.999996840954, Q2 : -0.00131999561563, Q3 : -0.000450408289908, Q4 : -0.0020811483264}
2019-04-14 18:07:13.71: SIM {TimeUS : 52134138, Roll : -0.12, Pitch : -0.04, Yaw : 359.75, Alt : 48.3199996948, Lat : 49.2835703, Lng : -123.1150205, Q1 : 0.999997079372, Q2 : -0.00111694610678, Q3 : -0.000362100952771, Q4 : -0.00209710001945}
2019-04-14 18:07:13.81: SIM {TimeUS : 52234098, Roll : -0.1, Pitch : -0.03, Yaw : 359.75, Alt : 48.4399986267, Lat : 49.2835703, Lng : -123.1150205, Q1 : 0.999997258186, Q2 : -0.000926991109736, Q3 : -0.00032224462484, Q4 : -0.00211604614742}
2019-04-14 18:07:13.91: SIM {TimeUS : 52334058, Roll : -0.08, Pitch : -0.04, Yaw : 359.75, Alt : 48.5499992371, Lat : 49.2835703, Lng : -123.1150205, Q1 : 0.999997377396, Q2 : -0.000725450867321, Q3 : -0.000410402397392, Q4 : -0.00213885493577}
2019-04-14 18:07:14.02: SIM {TimeUS : 52434851, Roll : -0.05, Pitch : -0.06, Yaw : 359.75, Alt : 48.6399993896, Lat : 49.2835703, Lng : -123.1150205, Q1 : 0.999997437, Q2 : -0.000468314479804, Q3 : -0.000536217004992, Q4 : -0.00216470193118}
2019-04-14 18:07:14.11: SIM {TimeUS : 52534811, Roll : -0.03, Pitch : -0.07, Yaw : 359.74, Alt : 48.7299995422, Lat : 49.2835703, Lng : -123.1150205, Q1 : 0.999997317791, Q2 : -0.000318753795, Q3 : -0.000668118649628, Q4 : -0.00219667074271}
2019-04-14 18:07:14.21: SIM {TimeUS : 52634771, Roll : -0.03, Pitch : -0.08, Yaw : 359.74, Alt : 48.7999992371, Lat : 49.2835703, Lng : -123.1150206, Q1 : 0.999997138977, Q2 : -0.00033742832602, Q3 : -0.000772834406234, Q4 : -0.00223492877558}
2019-04-14 18:07:14.31: SIM {TimeUS : 52734731, Roll : -0.02, Pitch : -0.08, Yaw : 359.73, Alt : 48.8600006104, Lat : 49.2835703, Lng : -123.1150206, Q1 : 0.999997138977, Q2 : -0.000219236026169, Q3 : -0.000727425329387, Q4 : -0.00226932810619}
2019-04-14 18:07:14.41: SIM {TimeUS : 52834691, Roll : 0.0, Pitch : -0.06, Yaw : 359.73, Alt : 48.9199981689, Lat : 49.2835703, Lng : -123.1150206, Q1 : 0.999997198582, Q2 : -2.00236991077e-06, Q3 : -0.000543362752069, Q4 : -0.00229848455638}
2019-04-14 18:07:14.51: SIM {TimeUS : 52934651, Roll : 0.02, Pitch : -0.03, Yaw : 359.73, Alt : 48.9700012207, Lat : 49.2835703, Lng : -123.1150206, Q1 : 0.999997198582, Q2 : 0.000239713699557, Q3 : -0.000331794086378, Q4 : -0.00232626893558}
2019-04-14 18:07:14.61: SIM {TimeUS : 53034611, Roll : 0.09, Pitch : -0.04, Yaw : 359.73, Alt : 49.0099983215, Lat : 49.2835703, Lng : -123.1150206, Q1 : 0.999996781349, Q2 : 0.000828241929412, Q3 : -0.000407673389418, Q4 : -0.00235191499814}
2019-04-14 18:07:14.71: SIM {TimeUS : 53134571, Roll : 0.32, Pitch : -0.17, Yaw : 359.72, Alt : 49.0400009155, Lat : 49.2835703, Lng : -123.1150206, Q1 : 0.999991834164, Q2 : 0.00285013089888, Q3 : -0.0015769089805, Q4 : -0.0023808456026}
2019-04-14 18:07:14.81: SIM {TimeUS : 53234531, Roll : 0.76, Pitch : -0.49, Yaw : 359.72, Alt : 49.0699996948, Lat : 49.2835703, Lng : -123.1150206, Q1 : 0.999965190887, Q2 : 0.0067066452466, Q3 : -0.00433703418821, Q4 : -0.0024117261637}
2019-04-14 18:07:14.91: SIM {TimeUS : 53334491, Roll : 1.4, Pitch : -0.95, Yaw : 359.7, Alt : 49.0999984741, Lat : 49.2835704, Lng : -123.1150206, Q1 : 0.99988681078, Q2 : 0.0122551387176, Q3 : -0.00837887637317, Q4 : -0.00243328767829}
2019-04-14 18:07:15.01: SIM {TimeUS : 53434451, Roll : 2.19, Pitch : -1.51, Yaw : 359.69, Alt : 49.1199989319, Lat : 49.2835704, Lng : -123.1150206, Q1 : 0.999725878239, Q2 : 0.0191519130021, Q3 : -0.0132448412478, Q4 : -0.00242447433993}
2019-04-14 18:07:15.11: SIM {TimeUS : 53534411, Roll : 3.04, Pitch : -2.1, Yaw : 359.67, Alt : 49.1399993896, Lat : 49.2835704, Lng : -123.1150205, Q1 : 0.999476671219, Q2 : 0.0264850221574, Q3 : -0.0184218659997, Q4 : -0.00236012949608}
2019-04-14 18:07:15.21: SIM {TimeUS : 53634371, Roll : 3.8, Pitch : -2.62, Yaw : 359.65, Alt : 49.1500015259, Lat : 49.2835706, Lng : -123.1150203, Q1 : 0.999183475971, Q2 : 0.0331498458982, Q3 : -0.0229883659631, Q4 : -0.00222309771925}
2019-04-14 18:07:15.31: SIM {TimeUS : 53734331, Roll : 4.43, Pitch : -3.02, Yaw : 359.65, Alt : 49.1699981689, Lat : 49.2835707, Lng : -123.1150201, Q1 : 0.998902499676, Q2 : 0.0385904870927, Q3 : -0.0264682676643, Q4 : -0.00201517879032}
2019-04-14 18:07:15.41: SIM {TimeUS : 53834291, Roll : 4.89, Pitch : -3.31, Yaw : 359.65, Alt : 49.1800003052, Lat : 49.2835709, Lng : -123.1150199, Q1 : 0.99866861105, Q2 : 0.0426291003823, Q3 : -0.0289946179837, Q4 : -0.00176169816405}
2019-04-14 18:07:15.51: SIM {TimeUS : 53934251, Roll : 5.24, Pitch : -3.55, Yaw : 359.66, Alt : 49.1899986267, Lat : 49.283571, Lng : -123.1150195, Q1 : 0.998472332954, Q2 : 0.0456277020276, Q3 : -0.0311271715909, Q4 : -0.00150105392095}
2019-04-14 18:07:15.61: SIM {TimeUS : 54034211, Roll : 5.52, Pitch : -3.78, Yaw : 359.67, Alt : 49.2000007629, Lat : 49.2835713, Lng : -123.115019, Q1 : 0.998294949532, Q2 : 0.048075594008, Q3 : -0.0330817587674, Q4 : -0.00123434280977}
2019-04-14 18:07:15.71: SIM {TimeUS : 54134171, Roll : 5.8, Pitch : -4.01, Yaw : 359.68, Alt : 49.2099990845, Lat : 49.2835715, Lng : -123.1150184, Q1 : 0.998105943203, Q2 : 0.0504752658308, Q3 : -0.0351543687284, Q4 : -0.000977317336947}
2019-04-14 18:07:15.81: SIM {TimeUS : 54234131, Roll : 6.1, Pitch : -4.26, Yaw : 359.69, Alt : 49.2200012207, Lat : 49.2835719, Lng : -123.1150177, Q1 : 0.997892022133, Q2 : 0.0531133338809, Q3 : -0.0372835360467, Q4 : -0.00070758536458}
2019-04-14 18:07:15.91: SIM {TimeUS : 54334091, Roll : 6.39, Pitch : -4.46, Yaw : 359.7, Alt : 49.2299995422, Lat : 49.2835721, Lng : -123.1150169, Q1 : 0.997688412666, Q2 : 0.0556041188538, Q3 : -0.0390630550683, Q4 : -0.000425924867159}
2019-04-14 18:07:16.01: SIM {TimeUS : 54434051, Roll : 6.62, Pitch : -4.63, Yaw : 359.71, Alt : 49.2299995422, Lat : 49.2835726, Lng : -123.115016, Q1 : 0.997516691685, Q2 : 0.0576059557498, Q3 : -0.0405213274062, Q4 : -0.000172170301084}
2019-04-14 18:07:16.12: SIM {TimeUS : 54534844, Roll : 6.8, Pitch : -4.76, Yaw : 359.72, Alt : 49.2400016785, Lat : 49.2835731, Lng : -123.1150151, Q1 : 0.997379779816, Q2 : 0.0591587126255, Q3 : -0.0416398867965, Q4 : 5.62808418181e-05}
2019-04-14 18:07:16.21: SIM {TimeUS : 54634804, Roll : 6.91, Pitch : -4.85, Yaw : 359.73, Alt : 49.2400016785, Lat : 49.2835735, Lng : -123.1150139, Q1 : 0.997286677361, Q2 : 0.0601896233857, Q3 : -0.0423847138882, Q4 : 0.000231939004152}
2019-04-14 18:07:16.31: SIM {TimeUS : 54734764, Roll : 7.01, Pitch : -4.92, Yaw : 359.73, Alt : 49.25, Lat : 49.283574, Lng : -123.1150128, Q1 : 0.997207641602, Q2 : 0.0610163807869, Q3 : -0.04305652529, Q4 : 0.000333659729222}
2019-04-14 18:07:16.41: SIM {TimeUS : 54834724, Roll : 7.14, Pitch : -5.01, Yaw : 359.73, Alt : 49.25, Lat : 49.2835746, Lng : -123.1150116, Q1 : 0.997107326984, Q2 : 0.0621222890913, Q3 : -0.0437911599874, Q4 : 0.000403867947171}
2019-04-14 18:07:16.51: SIM {TimeUS : 54934684, Roll : 7.46, Pitch : -4.97, Yaw : 359.88, Alt : 49.25, Lat : 49.2835752, Lng : -123.1150103, Q1 : 0.996943295002, Q2 : 0.0649539530277, Q3 : -0.0433814749122, Q4 : 0.00179519876838}
2019-04-14 18:07:16.61: SIM {TimeUS : 55034644, Roll : 8.0, Pitch : -4.76, Yaw : 0.73, Alt : 49.2599983215, Lat : 49.2835758, Lng : -123.1150088, Q1 : 0.996659874916, Q2 : 0.0700050890446, Q3 : -0.0410187393427, Q4 : 0.0092658130452}
2019-04-14 18:07:16.71: SIM {TimeUS : 55134604, Roll : 8.61, Pitch : -4.67, Yaw : 2.92, Alt : 49.2599983215, Lat : 49.2835765, Lng : -123.1150072, Q1 : 0.995939314365, Q2 : 0.0760864913464, Q3 : -0.0387557409704, Q4 : 0.0285262223333}
2019-04-14 18:07:16.81: SIM {TimeUS : 55234564, Roll : 9.02, Pitch : -5.02, Yaw : 6.71, Alt : 49.2599983215, Lat : 49.2835773, Lng : -123.1150057, Q1 : 0.994033038616, Q2 : 0.0810024365783, Q3 : -0.0390651524067, Q4 : 0.0617316812277}
2019-04-14 18:07:16.91: SIM {TimeUS : 55334524, Roll : 9.01, Pitch : -5.89, Yaw : 11.96, Alt : 49.2599983215, Lat : 49.283578, Lng : -123.1150039, Q1 : 0.989741504192, Q2 : 0.0834288969636, Q3 : -0.0428070351481, Q4 : 0.107791140676}
2019-04-14 18:07:17.01: SIM {TimeUS : 55434484, Roll : 8.45, Pitch : -7.19, Yaw : 18.46, Alt : 49.2599983215, Lat : 49.2835787, Lng : -123.1150021, Q1 : 0.981680095196, Q2 : 0.0826381519437, Q3 : -0.0499622747302, Q4 : 0.164252623916}
2019-04-14 18:07:17.11: SIM {TimeUS : 55534444, Roll : 7.27, Pitch : -8.75, Yaw : 25.95, Alt : 49.2599983215, Lat : 49.2835794, Lng : -123.1150001, Q1 : 0.968572378159, Q2 : 0.0787527561188, Q3 : -0.0600400604308, Q4 : 0.228168234229}
2019-04-14 18:07:17.21: SIM {TimeUS : 55634404, Roll : 5.52, Pitch : -10.34, Yaw : 34.18, Alt : 49.2700004578, Lat : 49.2835801, Lng : -123.114998, Q1 : 0.949562191963, Q2 : 0.0723812058568, Q3 : -0.071945078671, Q4 : 0.296507328749}
2019-04-14 18:07:17.31: SIM {TimeUS : 55734364, Roll : 3.26, Pitch : -11.72, Yaw : 42.87, Alt : 49.2700004578, Lat : 49.283581, Lng : -123.1149958, Q1 : 0.924510061741, Q2 : 0.0636888071895, Q3 : -0.0846858620644, Q4 : 0.366132855415}
2019-04-14 18:07:17.41: SIM {TimeUS : 55834324, Roll : 0.35, Pitch : -12.67, Yaw : 51.5, Alt : 49.2700004578, Lat : 49.2835818, Lng : -123.1149935, Q1 : 0.895033717155, Q2 : 0.0507789514959, Q3 : -0.0981024131179, Q4 : 0.432101905346}
2019-04-14 18:07:17.51: SIM {TimeUS : 55934284, Roll : -2.83, Pitch : -13.06, Yaw : 59.17, Alt : 49.2700004578, Lat : 49.2835828, Lng : -123.1149911, Q1 : 0.865093708038, Q2 : 0.0348063893616, Q3 : -0.11100166291, Q4 : 0.487934499979}
2019-04-14 18:07:17.61: SIM {TimeUS : 56034244, Roll : -5.63, Pitch : -12.97, Yaw : 65.11, Alt : 49.2700004578, Lat : 49.2835837, Lng : -123.1149886, Q1 : 0.839446604252, Q2 : 0.0195444021374, Q3 : -0.121375381947, Q4 : 0.529353797436}
2019-04-14 18:07:17.71: SIM {TimeUS : 56134204, Roll : -7.52, Pitch : -12.69, Yaw : 68.96, Alt : 49.2700004578, Lat : 49.2835848, Lng : -123.1149859, Q1 : 0.821589529514, Q2 : 0.00866271182895, Q3 : -0.127866029739, Q4 : 0.55548709631}
2019-04-14 18:07:17.81: SIM {TimeUS : 56234164, Roll : -8.33, Pitch : -12.49, Yaw : 70.8, Alt : 49.2700004578, Lat : 49.283586, Lng : -123.1149835, Q1 : 0.812695920467, Q2 : 0.00400134501979, Q3 : -0.130351305008, Q4 : 0.567906558514}
2019-04-14 18:07:17.91: SIM {TimeUS : 56334124, Roll : -8.16, Pitch : -12.54, Yaw : 70.93, Alt : 49.2700004578, Lat : 49.2835873, Lng : -123.1149808, Q1 : 0.812026083469, Q2 : 0.00563539424911, Q3 : -0.129832595587, Q4 : 0.568968713284}
2019-04-14 18:07:18.01: SIM {TimeUS : 56434084, Roll : -7.21, Pitch : -12.87, Yaw : 69.71, Alt : 49.2700004578, Lat : 49.2835886, Lng : -123.1149782, Q1 : 0.817811489105, Q2 : 0.012692370452, Q3 : -0.127563536167, Q4 : 0.561026573181}
2019-04-14 18:07:18.11: SIM {TimeUS : 56534044, Roll : -5.7, Pitch : -13.46, Yaw : 67.5, Alt : 49.2700004578, Lat : 49.2835902, Lng : -123.1149754, Q1 : 0.827924787998, Q2 : 0.0239457376301, Q3 : -0.124796815217, Q4 : 0.546253561974}
2019-04-14 18:07:18.22: SIM {TimeUS : 56634837, Roll : -3.86, Pitch : -14.18, Yaw : 64.6, Alt : 49.2799987793, Lat : 49.2835916, Lng : -123.1149725, Q1 : 0.840497851372, Q2 : 0.0376942493021, Q3 : -0.122201144695, Q4 : 0.526506781578}
2019-04-14 18:07:18.31: SIM {TimeUS : 56734797, Roll : -1.92, Pitch : -14.9, Yaw : 61.38, Alt : 49.2799987793, Lat : 49.2835933, Lng : -123.1149697, Q1 : 0.85365831852, Q2 : 0.0518890880048, Q3 : -0.119969576597, Q4 : 0.504164934158}
2019-04-14 18:07:18.41: SIM {TimeUS : 56834757, Roll : -0.05, Pitch : -15.47, Yaw : 58.12, Alt : 49.2799987793, Lat : 49.283595, Lng : -123.1149668, Q1 : 0.866155982018, Q2 : 0.0649848133326, Q3 : -0.11791241169, Q4 : 0.4812977314}
2019-04-14 18:07:18.51: SIM {TimeUS : 56934717, Roll : 1.54, Pitch : -15.81, Yaw : 55.17, Alt : 49.2799987793, Lat : 49.2835965, Lng : -123.1149637, Q1 : 0.876940250397, Q2 : 0.0755357220769, Q3 : -0.115705274045, Q4 : 0.460306882858}
2019-04-14 18:07:18.61: SIM {TimeUS : 57034677, Roll : 2.75, Pitch : -15.92, Yaw : 52.8, Alt : 49.2799987793, Lat : 49.2835983, Lng : -123.1149604, Q1 : 0.885307013988, Q2 : 0.0828894376755, Q3 : -0.113412246108, Q4 : 0.443281531334}
2019-04-14 18:07:18.71: SIM {TimeUS : 57134637, Roll : 3.48, Pitch : -15.88, Yaw : 51.2, Alt : 49.2799987793, Lat : 49.2836, Lng : -123.1149571, Q1 : 0.890953540802, Q2 : 0.08685156703, Q3 : -0.111495308578, Q4 : 0.43154078722}
2019-04-14 18:07:18.81: SIM {TimeUS : 57234597, Roll : 3.73, Pitch : -15.78, Yaw : 50.39, Alt : 49.2799987793, Lat : 49.2836016, Lng : -123.1149536, Q1 : 0.89388936758, Q2 : 0.0876360088587, Q3 : -0.110442325473, Q4 : 0.425539910793}
2019-04-14 18:07:18.91: SIM {TimeUS : 57334557, Roll : 3.53, Pitch : -15.72, Yaw : 50.34, Alt : 49.2799987793, Lat : 49.2836032, Lng : -123.11495, Q1 : 0.894308805466, Q2 : 0.0858350470662, Q3 : -0.110720984638, Q4 : 0.424952954054}
2019-04-14 18:07:19.01: SIM {TimeUS : 57434517, Roll : 2.98, Pitch : -15.75, Yaw : 50.91, Alt : 49.2900009155, Lat : 49.2836049, Lng : -123.1149462, Q1 : 0.892552912235, Q2 : 0.0821648538113, Q3 : -0.112607054412, Q4 : 0.428856611252}
2019-04-14 18:07:19.11: SIM {TimeUS : 57534477, Roll : 2.19, Pitch : -15.86, Yaw : 51.94, Alt : 49.2900009155, Lat : 49.2836067, Lng : -123.1149424, Q1 : 0.889102160931, Q2 : 0.0774389654398, Q3 : -0.115739688277, Q4 : 0.436010241508}
2019-04-14 18:07:19.21: SIM {TimeUS : 57634437, Roll : 1.28, Pitch : -16.01, Yaw : 53.23, Alt : 49.2900009155, Lat : 49.2836084, Lng : -123.1149385, Q1 : 0.884540915489, Q2 : 0.0723644942045, Q3 : -0.119578503072, Q4 : 0.445030093193}
2019-04-14 18:07:19.31: SIM {TimeUS : 57734397, Roll : 0.39, Pitch : -16.17, Yaw : 54.61, Alt : 49.2900009155, Lat : 49.2836101, Lng : -123.1149345, Q1 : 0.879511415958, Q2 : 0.067574813962, Q3 : -0.123412370682, Q4 : 0.454601675272}
2019-04-14 18:07:19.41: SIM {TimeUS : 57834357, Roll : -0.36, Pitch : -16.29, Yaw : 55.9, Alt : 49.2900009155, Lat : 49.2836118, Lng : -123.1149305, Q1 : 0.874634861946, Q2 : 0.0636147558689, Q3 : -0.126680016518, Q4 : 0.463593810797}
2019-04-14 18:07:19.51: SIM {TimeUS : 57934317, Roll : -0.95, Pitch : -16.39, Yaw : 56.98, Alt : 49.2900009155, Lat : 49.2836136, Lng : -123.1149263, Q1 : 0.870435714722, Q2 : 0.0607620850205, Q3 : -0.12924259901, Q4 : 0.471111476421}
2019-04-14 18:07:19.61: SIM {TimeUS : 58034277, Roll : -1.33, Pitch : -16.46, Yaw : 57.77, Alt : 49.2900009155, Lat : 49.2836154, Lng : -123.1149223, Q1 : 0.867307960987, Q2 : 0.0590363442898, Q3 : -0.13094060123, Q4 : 0.47659856081}
2019-04-14 18:07:19.71: SIM {TimeUS : 58134237, Roll : -1.52, Pitch : -16.51, Yaw : 58.22, Alt : 49.2900009155, Lat : 49.2836172, Lng : -123.1149181, Q1 : 0.865444660187, Q2 : 0.0583401322365, Q3 : -0.131890773773, Q4 : 0.479798704386}
2019-04-14 18:07:19.81: SIM {TimeUS : 58234197, Roll : -1.52, Pitch : -16.53, Yaw : 58.36, Alt : 49.2900009155, Lat : 49.2836191, Lng : -123.1149138, Q1 : 0.864872992039, Q2 : 0.0585750564933, Q3 : -0.131933122873, Q4 : 0.480788290501}
2019-04-14 18:07:19.91: SIM {TimeUS : 58334157, Roll : -1.34, Pitch : -16.52, Yaw : 58.21, Alt : 49.2900009155, Lat : 49.2836212, Lng : -123.1149095, Q1 : 0.865414321423, Q2 : 0.0597755350173, Q3 : -0.13122446835, Q4 : 0.479859441519}
2019-04-14 18:07:20.01: SIM {TimeUS : 58434117, Roll : -1.05, Pitch : -16.53, Yaw : 57.84, Alt : 49.2900009155, Lat : 49.2836231, Lng : -123.1149052, Q1 : 0.866797745228, Q2 : 0.0615550465882, Q3 : -0.130259037018, Q4 : 0.477394282818}
2019-04-14 18:07:20.11: SIM {TimeUS : 58534077, Roll : -0.69, Pitch : -16.56, Yaw : 57.33, Alt : 49.2900009155, Lat : 49.283625, Lng : -123.1149009, Q1 : 0.868686437607, Q2 : 0.0638424605131, Q3 : -0.129258394241, Q4 : 0.473920077085}
2019-04-14 18:07:20.21: SIM {TimeUS : 58634037, Roll : -0.29, Pitch : -16.59, Yaw : 56.75, Alt : 49.2900009155, Lat : 49.283627, Lng : -123.1148964, Q1 : 0.870784044266, Q2 : 0.0663759335876, Q3 : -0.128167182207, Q4 : 0.470002740622}
2019-04-14 18:07:20.32: SIM {TimeUS : 58734830, Roll : 0.08, Pitch : -16.62, Yaw : 56.19, Alt : 49.2900009155, Lat : 49.2836292, Lng : -123.1148919, Q1 : 0.872846126556, Q2 : 0.0687111914158, Q3 : -0.127240806818, Q4 : 0.466077446938}
2019-04-14 18:07:20.41: SIM {TimeUS : 58834790, Roll : 0.36, Pitch : -16.67, Yaw : 55.69, Alt : 49.2900009155, Lat : 49.2836311, Lng : -123.1148874, Q1 : 0.874620258808, Q2 : 0.0705434158444, Q3 : -0.126746430993, Q4 : 0.46259957552}
2019-04-14 18:07:20.51: SIM {TimeUS : 58934750, Roll : 0.55, Pitch : -16.73, Yaw : 55.31, Alt : 49.2900009155, Lat : 49.2836333, Lng : -123.1148829, Q1 : 0.87598323822, Q2 : 0.0717756301165, Q3 : -0.12669698894, Q4 : 0.459836304188}
2019-04-14 18:07:20.61: SIM {TimeUS : 59034710, Roll : 0.63, Pitch : -16.8, Yaw : 55.05, Alt : 49.2900009155, Lat : 49.2836353, Lng : -123.1148783, Q1 : 0.87685918808, Q2 : 0.0724414214492, Q3 : -0.127034336329, Q4 : 0.457965612411}
2019-04-14 18:07:20.71: SIM {TimeUS : 59134670, Roll : 0.63, Pitch : -16.85, Yaw : 54.94, Alt : 49.2900009155, Lat : 49.2836373, Lng : -123.1148737, Q1 : 0.877269923687, Q2 : 0.072486281395, Q3 : -0.127515360713, Q4 : 0.457037299871}
2019-04-14 18:07:20.81: SIM {TimeUS : 59234630, Roll : 0.57, Pitch : -16.89, Yaw : 54.94, Alt : 49.2900009155, Lat : 49.2836395, Lng : -123.114869, Q1 : 0.877250850201, Q2 : 0.0721606686711, Q3 : -0.128028333187, Q4 : 0.456982076168}
2019-04-14 18:07:20.91: SIM {TimeUS : 59334590, Roll : 0.47, Pitch : -16.92, Yaw : 55.04, Alt : 49.2900009155, Lat : 49.2836414, Lng : -123.1148643, Q1 : 0.876871705055, Q2 : 0.0716546401381, Q3 : -0.128557652235, Q4 : 0.457640171051}
2019-04-14 18:07:21.01: SIM {TimeUS : 59434550, Roll : 0.36, Pitch : -16.94, Yaw : 55.21, Alt : 49.2900009155, Lat : 49.2836436, Lng : -123.1148596, Q1 : 0.876238882542, Q2 : 0.0710528492928, Q3 : -0.129095032811, Q4 : 0.458793371916}
2019-04-14 18:07:21.11: SIM {TimeUS : 59534510, Roll : 0.23, Pitch : -16.96, Yaw : 55.42, Alt : 49.2999992371, Lat : 49.2836457, Lng : -123.1148548, Q1 : 0.875475525856, Q2 : 0.0703664496541, Q3 : -0.129635468125, Q4 : 0.460201919079}
2019-04-14 18:07:21.21: SIM {TimeUS : 59634470, Roll : 0.1, Pitch : -16.99, Yaw : 55.63, Alt : 49.2999992371, Lat : 49.2836479, Lng : -123.11485, Q1 : 0.874674260616, Q2 : 0.0697336196899, Q3 : -0.13025341928, Q4 : 0.461645126343}
2019-04-14 18:07:21.31: SIM {TimeUS : 59734430, Roll : -0.01, Pitch : -17.02, Yaw : 55.82, Alt : 49.2999992371, Lat : 49.2836499, Lng : -123.1148451, Q1 : 0.873943626881, Q2 : 0.0691658332944, Q3 : -0.130881622434, Q4 : 0.462934881449}
2019-04-14 18:07:21.41: SIM {TimeUS : 59834390, Roll : -0.11, Pitch : -17.06, Yaw : 55.97, Alt : 49.2999992371, Lat : 49.2836521, Lng : -123.1148403, Q1 : 0.87335640192, Q2 : 0.0687297657132, Q3 : -0.131458759308, Q4 : 0.463943332434}
2019-04-14 18:07:21.51: SIM {TimeUS : 59934350, Roll : -0.18, Pitch : -17.1, Yaw : 56.07, Alt : 49.2999992371, Lat : 49.2836542, Lng : -123.1148354, Q1 : 0.87294870615, Q2 : 0.0685089156032, Q3 : -0.131959959865, Q4 : 0.464600622654}
2019-04-14 18:07:21.61: SIM {TimeUS : 60034310, Roll : -0.21, Pitch : -17.13, Yaw : 56.11, Alt : 49.2999992371, Lat : 49.2836564, Lng : -123.1148305, Q1 : 0.872747957706, Q2 : 0.068449087441, Q3 : -0.132377237082, Q4 : 0.46486774087}
2019-04-14 18:07:21.71: SIM {TimeUS : 60134270, Roll : -0.22, Pitch : -17.17, Yaw : 56.1, Alt : 49.2999992371, Lat : 49.2836585, Lng : -123.1148256, Q1 : 0.872754216194, Q2 : 0.0684583708644, Q3 : -0.132675752044, Q4 : 0.464769482613}
2019-04-14 18:07:21.81: SIM {TimeUS : 60234230, Roll : -0.23, Pitch : -17.18, Yaw : 56.05, Alt : 49.2999992371, Lat : 49.2836608, Lng : -123.1148205, Q1 : 0.872949957848, Q2 : 0.0684598013759, Q3 : -0.132839694619, Q4 : 0.464354723692}
2019-04-14 18:07:21.91: SIM {TimeUS : 60334190, Roll : -0.21, Pitch : -17.2, Yaw : 55.96, Alt : 49.2999992371, Lat : 49.283663, Lng : -123.1148157, Q1 : 0.873266518116, Q2 : 0.0685811415315, Q3 : -0.132987737656, Q4 : 0.463698714972}
2019-04-14 18:07:22.01: SIM {TimeUS : 60434150, Roll : -0.15, Pitch : -17.24, Yaw : 55.85, Alt : 49.2999992371, Lat : 49.2836651, Lng : -123.1148107, Q1 : 0.873631596565, Q2 : 0.0690489113331, Q3 : -0.133081153035, Q4 : 0.462914168835}
2019-04-14 18:07:22.11: SIM {TimeUS : 60534110, Roll : -0.06, Pitch : -17.27, Yaw : 55.74, Alt : 49.3100013733, Lat : 49.2836674, Lng : -123.1148057, Q1 : 0.874012231827, Q2 : 0.0697297081351, Q3 : -0.1330550313, Q4 : 0.462100446224}
2019-04-14 18:07:22.21: SIM {TimeUS : 60634070, Roll : 0.03, Pitch : -17.31, Yaw : 55.62, Alt : 49.3100013733, Lat : 49.2836697, Lng : -123.1148006, Q1 : 0.874371111393, Q2 : 0.0704689398408, Q3 : -0.13298599422, Q4 : 0.461328595877}
2019-04-14 18:07:22.31: SIM {TimeUS : 60734030, Roll : 0.12, Pitch : -17.34, Yaw : 55.52, Alt : 49.3100013733, Lat : 49.2836718, Lng : -123.1147956, Q1 : 0.874676942825, Q2 : 0.0712110921741, Q3 : -0.132917970419, Q4 : 0.460653960705}
2019-04-14 18:07:22.42: SIM {TimeUS : 60834823, Roll : 0.19, Pitch : -17.37, Yaw : 55.44, Alt : 49.3100013733, Lat : 49.2836742, Lng : -123.1147905, Q1 : 0.874921023846, Q2 : 0.0717410743237, Q3 : -0.132944896817, Q4 : 0.460100084543}
2019-04-14 18:07:22.51: SIM {TimeUS : 60934783, Roll : 0.2, Pitch : -17.39, Yaw : 55.39, Alt : 49.3100013733, Lat : 49.2836764, Lng : -123.1147854, Q1 : 0.8751116395, Q2 : 0.0718694403768, Q3 : -0.133042708039, Q4 : 0.45968914032}
2019-04-14 18:07:22.61: SIM {TimeUS : 61034743, Roll : 0.18, Pitch : -17.4, Yaw : 55.36, Alt : 49.3100013733, Lat : 49.2836786, Lng : -123.1147803, Q1 : 0.875236749649, Q2 : 0.0717164725065, Q3 : -0.133221447468, Q4 : 0.459422945976}
2019-04-14 18:07:22.71: SIM {TimeUS : 61134703, Roll : 0.17, Pitch : -17.4, Yaw : 55.35, Alt : 49.3100013733, Lat : 49.2836809, Lng : -123.1147752, Q1 : 0.87528449297, Q2 : 0.0715867504478, Q3 : -0.133282408118, Q4 : 0.459334552288}
2019-04-14 18:07:22.81: SIM {TimeUS : 61234663, Roll : 0.15, Pitch : -17.4, Yaw : 55.35, Alt : 49.3100013733, Lat : 49.2836832, Lng : -123.11477, Q1 : 0.875265836716, Q2 : 0.0714757740498, Q3 : -0.133362814784, Q4 : 0.459364026785}
2019-04-14 18:07:22.91: SIM {TimeUS : 61334623, Roll : 0.15, Pitch : -17.43, Yaw : 55.37, Alt : 49.3100013733, Lat : 49.2836855, Lng : -123.1147649, Q1 : 0.875168144703, Q2 : 0.0716040953994, Q3 : -0.133592620492, Q4 : 0.459463387728}
2019-04-14 18:07:23.01: SIM {TimeUS : 61434583, Roll : 0.15, Pitch : -17.49, Yaw : 55.39, Alt : 49.3199996948, Lat : 49.2836877, Lng : -123.1147597, Q1 : 0.875015556812, Q2 : 0.0718469247222, Q3 : -0.134055525064, Q4 : 0.459581315517}
2019-04-14 18:07:23.11: SIM {TimeUS : 61534543, Roll : 0.13, Pitch : -17.53, Yaw : 55.41, Alt : 49.3199996948, Lat : 49.2836901, Lng : -123.1147546, Q1 : 0.8748934865, Q2 : 0.0719172656536, Q3 : -0.134409978986, Q4 : 0.459699124098}
2019-04-14 18:07:23.21: SIM {TimeUS : 61634503, Roll : 0.11, Pitch : -17.54, Yaw : 55.43, Alt : 49.3199996948, Lat : 49.2836924, Lng : -123.1147494, Q1 : 0.874831199646, Q2 : 0.0718253552914, Q3 : -0.134507372975, Q4 : 0.459803521633}
2019-04-14 18:07:23.31: SIM {TimeUS : 61734463, Roll : 0.09, Pitch : -17.55, Yaw : 55.44, Alt : 49.3199996948, Lat : 49.2836947, Lng : -123.1147442, Q1 : 0.874798119068, Q2 : 0.0716731697321, Q3 : -0.134673446417, Q4 : 0.459841638803}
2019-04-14 18:07:23.41: SIM {TimeUS : 61834423, Roll : 0.06, Pitch : -17.57, Yaw : 55.44, Alt : 49.3199996948, Lat : 49.2836969, Lng : -123.114739, Q1 : 0.874779701233, Q2 : 0.0715648159385, Q3 : -0.134989589453, Q4 : 0.459800809622}
2019-04-14 18:07:23.51: SIM {TimeUS : 61934383, Roll : 0.05, Pitch : -17.59, Yaw : 55.43, Alt : 49.3199996948, Lat : 49.2836992, Lng : -123.1147336, Q1 : 0.874785006046, Q2 : 0.0715979337692, Q3 : -0.135193035007, Q4 : 0.459725797176}
2019-04-14 18:07:23.61: SIM {TimeUS : 62034343, Roll : 0.05, Pitch : -17.61, Yaw : 55.42, Alt : 49.3199996948, Lat : 49.2837016, Lng : -123.1147285, Q1 : 0.874820888042, Q2 : 0.071659475565, Q3 : -0.135360881686, Q4 : 0.459598481655}
2019-04-14 18:07:23.71: SIM {TimeUS : 62134303, Roll : 0.06, Pitch : -17.63, Yaw : 55.4, Alt : 49.3199996948, Lat : 49.283704, Lng : -123.1147233, Q1 : 0.874884784222, Q2 : 0.0717492178082, Q3 : -0.135452255607, Q4 : 0.459435939789}
2019-04-14 18:07:23.81: SIM {TimeUS : 62234263, Roll : 0.08, Pitch : -17.65, Yaw : 55.37, Alt : 49.3199996948, Lat : 49.2837063, Lng : -123.114718, Q1 : 0.874965548515, Q2 : 0.0719378739595, Q3 : -0.135524302721, Q4 : 0.459231346846}
2019-04-14 18:07:23.91: SIM {TimeUS : 62334223, Roll : 0.1, Pitch : -17.66, Yaw : 55.34, Alt : 49.3199996948, Lat : 49.2837086, Lng : -123.1147127, Q1 : 0.875069200993, Q2 : 0.0721119046211, Q3 : -0.135538950562, Q4 : 0.459002166986}
2019-04-14 18:07:24.01: SIM {TimeUS : 62434183, Roll : 0.13, Pitch : -17.67, Yaw : 55.3, Alt : 49.3199996948, Lat : 49.2837109, Lng : -123.1147075, Q1 : 0.875164210796, Q2 : 0.0723310410976, Q3 : -0.135538741946, Q4 : 0.458786636591}
2019-04-14 18:07:24.11: SIM {TimeUS : 62534143, Roll : 0.16, Pitch : -17.69, Yaw : 55.27, Alt : 49.3199996948, Lat : 49.2837132, Lng : -123.1147022, Q1 : 0.875233411789, Q2 : 0.0726398974657, Q3 : -0.135601103306, Q4 : 0.458587318659}
2019-04-14 18:07:24.21: SIM {TimeUS : 62634103, Roll : 0.17, Pitch : -17.73, Yaw : 55.25, Alt : 49.3199996948, Lat : 49.2837156, Lng : -123.1146969, Q1 : 0.875292241573, Q2 : 0.072821855545, Q3 : -0.135842382908, Q4 : 0.458374619484}
2019-04-14 18:07:24.31: SIM {TimeUS : 62734063, Roll : 0.15, Pitch : -17.77, Yaw : 55.23, Alt : 49.3199996948, Lat : 49.283718, Lng : -123.1146916, Q1 : 0.875346183777, Q2 : 0.0728003755212, Q3 : -0.136238873005, Q4 : 0.458157300949}
2019-04-14 18:07:24.41: SIM {TimeUS : 62834023, Roll : 0.13, Pitch : -17.81, Yaw : 55.21, Alt : 49.3199996948, Lat : 49.2837204, Lng : -123.1146862, Q1 : 0.875380694866, Q2 : 0.0727982148528, Q3 : -0.1366558671, Q4 : 0.45796751976}
2019-04-14 18:07:24.51: SIM {TimeUS : 62934816, Roll : 0.14, Pitch : -17.84, Yaw : 55.19, Alt : 49.3199996948, Lat : 49.2837228, Lng : -123.1146809, Q1 : 0.875398993492, Q2 : 0.0729458332062, Q3 : -0.136855214834, Q4 : 0.457849502563}
2019-04-14 18:07:24.61: SIM {TimeUS : 63034776, Roll : 0.16, Pitch : -17.84, Yaw : 55.18, Alt : 49.3300018311, Lat : 49.2837252, Lng : -123.1146755, Q1 : 0.875429570675, Q2 : 0.0731202065945, Q3 : -0.136775240302, Q4 : 0.4577870965}
2019-04-14 18:07:24.71: SIM {TimeUS : 63134736, Roll : 0.18, Pitch : -17.81, Yaw : 55.17, Alt : 49.3300018311, Lat : 49.2837276, Lng : -123.1146702, Q1 : 0.875487744808, Q2 : 0.0731263682246, Q3 : -0.136497542262, Q4 : 0.457757771015}
2019-04-14 18:07:24.81: SIM {TimeUS : 63234696, Roll : 0.18, Pitch : -17.79, Yaw : 55.17, Alt : 49.3300018311, Lat : 49.2837299, Lng : -123.1146648, Q1 : 0.875535011292, Q2 : 0.073010250926, Q3 : -0.136344775558, Q4 : 0.457731485367}
2019-04-14 18:07:24.91: SIM {TimeUS : 63334656, Roll : 0.17, Pitch : -17.78, Yaw : 55.16, Alt : 49.3300018311, Lat : 49.2837322, Lng : -123.1146594, Q1 : 0.875568449497, Q2 : 0.0728778615594, Q3 : -0.136310830712, Q4 : 0.45769867301}
2019-04-14 18:07:25.01: SIM {TimeUS : 63434616, Roll : 0.16, Pitch : -17.77, Yaw : 55.16, Alt : 49.3300018311, Lat : 49.2837346, Lng : -123.1146541, Q1 : 0.875593900681, Q2 : 0.0727846622467, Q3 : -0.136331006885, Q4 : 0.457658797503}
2019-04-14 18:07:25.11: SIM {TimeUS : 63534576, Roll : 0.14, Pitch : -17.79, Yaw : 55.16, Alt : 49.3300018311, Lat : 49.283737, Lng : -123.1146487, Q1 : 0.875604569912, Q2 : 0.0727465748787, Q3 : -0.136502459645, Q4 : 0.457593351603}
2019-04-14 18:07:25.21: SIM {TimeUS : 63634536, Roll : 0.14, Pitch : -17.81, Yaw : 55.15, Alt : 49.3300018311, Lat : 49.2837394, Lng : -123.1146433, Q1 : 0.875608563423, Q2 : 0.0727859064937, Q3 : -0.136703178287, Q4 : 0.457519471645}
2019-04-14 18:07:25.31: SIM {TimeUS : 63734496, Roll : 0.13, Pitch : -17.85, Yaw : 55.14, Alt : 49.3300018311, Lat : 49.2837418, Lng : -123.1146379, Q1 : 0.875606536865, Q2 : 0.0728366598487, Q3 : -0.137022614479, Q4 : 0.457419753075}
2019-04-14 18:07:25.41: SIM {TimeUS : 63834456, Roll : 0.12, Pitch : -17.9, Yaw : 55.13, Alt : 49.3300018311, Lat : 49.2837442, Lng : -123.1146325, Q1 : 0.875591754913, Q2 : 0.0729822590947, Q3 : -0.137417823076, Q4 : 0.457306236029}
2019-04-14 18:07:25.51: SIM {TimeUS : 63934416, Roll : 0.13, Pitch : -17.93, Yaw : 55.12, Alt : 49.3300018311, Lat : 49.2837466, Lng : -123.1146271, Q1 : 0.875589132309, Q2 : 0.0731634125113, Q3 : -0.137680947781, Q4 : 0.457203179598}
2019-04-14 18:07:25.61: SIM {TimeUS : 64034376, Roll : 0.13, Pitch : -17.97, Yaw : 55.1, Alt : 49.3300018311, Lat : 49.283749, Lng : -123.1146216, Q1 : 0.875607848167, Q2 : 0.0732585638762, Q3 : -0.137938827276, Q4 : 0.457074344158}
2019-04-14 18:07:25.71: SIM {TimeUS : 64134336, Roll : 0.12, Pitch : -17.98, Yaw : 55.09, Alt : 49.3300018311, Lat : 49.2837515, Lng : -123.1146162, Q1 : 0.875649034977, Q2 : 0.0732866674662, Q3 : -0.138098880649, Q4 : 0.456942647696}
2019-04-14 18:07:25.81: SIM {TimeUS : 64234296, Roll : 0.14, Pitch : -17.98, Yaw : 55.07, Alt : 49.3300018311, Lat : 49.2837539, Lng : -123.1146108, Q1 : 0.875712156296, Q2 : 0.0733603835106, Q3 : -0.137990564108, Q4 : 0.456842571497}
2019-04-14 18:07:25.91: SIM {TimeUS : 64334256, Roll : 0.17, Pitch : -17.98, Yaw : 55.06, Alt : 49.3300018311, Lat : 49.2837563, Lng : -123.1146053, Q1 : 0.875762939453, Q2 : 0.0735650584102, Q3 : -0.13787817955, Q4 : 0.456746220589}
2019-04-14 18:07:26.01: SIM {TimeUS : 64434216, Roll : 0.19, Pitch : -17.99, Yaw : 55.04, Alt : 49.3300018311, Lat : 49.2837588, Lng : -123.1145998, Q1 : 0.875804543495, Q2 : 0.0737376362085, Q3 : -0.137887835503, Q4 : 0.45663562417}
2019-04-14 18:07:26.11: SIM {TimeUS : 64534176, Roll : 0.21, Pitch : -17.99, Yaw : 55.02, Alt : 49.3400001526, Lat : 49.2837612, Lng : -123.1145944, Q1 : 0.875842452049, Q2 : 0.073868714273, Q3 : -0.137875542045, Q4 : 0.456545472145}
2019-04-14 18:07:26.21: SIM {TimeUS : 64634136, Roll : 0.22, Pitch : -17.99, Yaw : 55.01, Alt : 49.3400001526, Lat : 49.2837636, Lng : -123.114589, Q1 : 0.875889599323, Q2 : 0.0739068090916, Q3 : -0.137798637152, Q4 : 0.456472069025}
2019-04-14 18:07:26.31: SIM {TimeUS : 64734096, Roll : 0.22, Pitch : -17.98, Yaw : 55.0, Alt : 49.3400001526, Lat : 49.2837661, Lng : -123.1145835, Q1 : 0.875936448574, Q2 : 0.0738677754998, Q3 : -0.137761160731, Q4 : 0.456399768591}
2019-04-14 18:07:26.41: SIM {TimeUS : 64834056, Roll : 0.2, Pitch : -18.0, Yaw : 55.0, Alt : 49.3400001526, Lat : 49.2837685, Lng : -123.1145781, Q1 : 0.875958800316, Q2 : 0.0737855136395, Q3 : -0.137973800302, Q4 : 0.456305980682}
2019-04-14 18:07:26.52: SIM {TimeUS : 64934849, Roll : 0.17, Pitch : -18.03, Yaw : 54.99, Alt : 49.3400001526, Lat : 49.2837709, Lng : -123.1145725, Q1 : 0.875954389572, Q2 : 0.073722794652, Q3 : -0.138368055224, Q4 : 0.456205248833}
2019-04-14 18:07:26.61: SIM {TimeUS : 65034809, Roll : 0.15, Pitch : -18.04, Yaw : 54.98, Alt : 49.3400001526, Lat : 49.2837734, Lng : -123.114567, Q1 : 0.875976860523, Q2 : 0.0736110210419, Q3 : -0.138466536999, Q4 : 0.456150174141}
2019-04-14 18:07:26.71: SIM {TimeUS : 65134769, Roll : 0.16, Pitch : -18.02, Yaw : 54.98, Alt : 49.3400001526, Lat : 49.2837758, Lng : -123.1145615, Q1 : 0.87601339817, Q2 : 0.0735886693001, Q3 : -0.138295605779, Q4 : 0.456135541201}
2019-04-14 18:07:26.81: SIM {TimeUS : 65234729, Roll : 0.17, Pitch : -18.01, Yaw : 54.97, Alt : 49.3400001526, Lat : 49.2837783, Lng : -123.1145561, Q1 : 0.876038730145, Q2 : 0.073640063405, Q3 : -0.138160809875, Q4 : 0.45611935854}
2019-04-14 18:07:26.91: SIM {TimeUS : 65334689, Roll : 0.18, Pitch : -18.02, Yaw : 54.97, Alt : 49.3400001526, Lat : 49.2837807, Lng : -123.1145506, Q1 : 0.876056969166, Q2 : 0.0736742690206, Q3 : -0.138204440475, Q4 : 0.456065624952}
2019-04-14 18:07:27.01: SIM {TimeUS : 65434649, Roll : 0.16, Pitch : -18.03, Yaw : 54.96, Alt : 49.3400001526, Lat : 49.2837832, Lng : -123.1145451, Q1 : 0.876073122025, Q2 : 0.0736313462257, Q3 : -0.138416782022, Q4 : 0.455977082253}
2019-04-14 18:07:27.11: SIM {TimeUS : 65534609, Roll : 0.14, Pitch : -18.06, Yaw : 54.95, Alt : 49.3400001526, Lat : 49.2837856, Lng : -123.1145396, Q1 : 0.876091122627, Q2 : 0.073516279459, Q3 : -0.138736784458, Q4 : 0.455863803625}
2019-04-14 18:07:27.21: SIM {TimeUS : 65634569, Roll : 0.12, Pitch : -18.08, Yaw : 54.94, Alt : 49.3400001526, Lat : 49.2837881, Lng : -123.1145341, Q1 : 0.876115858555, Q2 : 0.0734764710069, Q3 : -0.138956576586, Q4 : 0.455755770206}
2019-04-14 18:07:27.31: SIM {TimeUS : 65734529, Roll : 0.13, Pitch : -18.1, Yaw : 54.93, Alt : 49.3400001526, Lat : 49.2837905, Lng : -123.1145286, Q1 : 0.876133739948, Q2 : 0.0735816657543, Q3 : -0.139094144106, Q4 : 0.455662459135}
2019-04-14 18:07:27.41: SIM {TimeUS : 65834489, Roll : 0.14, Pitch : -18.12, Yaw : 54.92, Alt : 49.3400001526, Lat : 49.283793, Lng : -123.1145231, Q1 : 0.876152873039, Q2 : 0.0737263038754, Q3 : -0.139160066843, Q4 : 0.455582171679}
