2019-04-14 17:06:11.30: SIM {TimeUS : 40516287, Roll : 0.0, Pitch : 0.0, Yaw : 0.0, Alt : 30.1000003815, Lat : 49.28357, Lng : -123.11502, Q1 : 1.0, Q2 : 0.0, Q3 : 0.0, Q4 : 0.0}
2019-04-14 17:06:11.41: SIM {TimeUS : 40635406, Roll : 0.0, Pitch : 0.0, Yaw : 0.0, Alt : 30.1000003815, Lat : 49.28357, Lng : -123.11502, Q1 : 1.0, Q2 : 0.0, Q3 : 0.0, Q4 : 0.0}
2019-04-14 17:06:11.51: SIM {TimeUS : 40735366, Roll : 0.0, Pitch : 0.0, Yaw : 0.0, Alt : 30.1000003815, Lat : 49.28357, Lng : -123.11502, Q1 : 1.0, Q2 : 0.0, Q3 : 0.0, Q4 : 0.0}
2019-04-14 17:06:11.61: SIM {TimeUS : 40835326, Roll : 0.0, Pitch : 0.0, Yaw : 0.0, Alt : 30.1000003815, Lat : 49.28357, Lng : -123.11502, Q1 : 1.0, Q2 : 0.0, Q3 : 0.0, Q4 : 0.0}
2019-04-14 17:06:11.71: SIM {TimeUS : 40935286, Roll : 0.0, Pitch : 0.0, Yaw : 0.0, Alt : 30.1000003815, Lat : 49.28357, Lng : -123.11502, Q1 : 1.0, Q2 : 0.0, Q3 : 0.0, Q4 : 0.0}
2019-04-14 17:06:11.81: SIM {TimeUS : 41035246, Roll : 0.0, Pitch : 0.0, Yaw : 0.0, Alt : 30.1000003815, Lat : 49.28357, Lng : -123.11502, Q1 : 1.0, Q2 : 0.0, Q3 : 0.0, Q4 : 0.0}
2019-04-14 17:06:11.91: SIM {TimeUS : 41135206, Roll : 0.0, Pitch : 0.0, Yaw : 0.0, Alt : 30.1000003815, Lat : 49.28357, Lng : -123.11502, Q1 : 1.0, Q2 : 0.0, Q3 : 0.0, Q4 : 0.0}
2019-04-14 17:06:12.01: SIM {TimeUS : 41235166, Roll : 0.0, Pitch : 0.0, Yaw : 0.0, Alt : 30.1000003815, Lat : 49.28357, Lng : -123.11502, Q1 : 1.0, Q2 : 0.0, Q3 : 0.0, Q4 : 0.0}
2019-04-14 17:06:12.11: SIM {TimeUS : 41335126, Roll : 0.0, Pitch : 0.0, Yaw : 0.0, Alt : 30.1000003815, Lat : 49.28357, Lng : -123.11502, Q1 : 1.0, Q2 : 0.0, Q3 : 0.0, Q4 : 0.0}
2019-04-14 17:06:12.21: SIM {TimeUS : 41435086, Roll : 0.0, Pitch : 0.0, Yaw : 0.0, Alt : 30.1000003815, Lat : 49.28357, Lng : -123.11502, Q1 : 1.0, Q2 : 0.0, Q3 : 0.0, Q4 : 0.0}
2019-04-14 17:06:12.31: SIM {TimeUS : 41535046, Roll : 0.0, Pitch : 0.0, Yaw : 0.0, Alt : 30.1000003815, Lat : 49.28357, Lng : -123.11502, Q1 : 1.0, Q2 : 0.0, Q3 : 0.0, Q4 : 0.0}
2019-04-14 17:06:12.41: SIM {TimeUS : 41635006, Roll : 0.0, Pitch : 0.0, Yaw : 0.0, Alt : 30.1000003815, Lat : 49.28357, Lng : -123.11502, Q1 : 1.0, Q2 : 0.0, Q3 : 0.0, Q4 : 0.0}
2019-04-14 17:06:12.51: SIM {TimeUS : 41734966, Roll : 0.0, Pitch : 0.0, Yaw : 0.0, Alt : 30.1000003815, Lat : 49.28357, Lng : -123.11502, Q1 : 1.0, Q2 : 0.0, Q3 : 0.0, Q4 : 0.0}
2019-04-14 17:06:12.61: SIM {TimeUS : 41834926, Roll : 0.0, Pitch : 0.0, Yaw : 0.0, Alt : 30.1000003815, Lat : 49.28357, Lng : -123.11502, Q1 : 1.0, Q2 : 0.0, Q3 : 0.0, Q4 : 0.0}
2019-04-14 17:06:12.71: SIM {TimeUS : 41934886, Roll : 0.0, Pitch : 0.0, Yaw : 0.0, Alt : 30.1000003815, Lat : 49.28357, Lng : -123.11502, Q1 : 1.0, Q2 : 0.0, Q3 : 0.0, Q4 : 0.0}
2019-04-14 17:06:12.81: SIM {TimeUS : 42034846, Roll : 0.0, Pitch : 0.0, Yaw : 0.0, Alt : 30.1000003815, Lat : 49.28357, Lng : -123.11502, Q1 : 1.0, Q2 : 0.0, Q3 : 0.0, Q4 : 0.0}
2019-04-14 17:06:12.91: SIM {TimeUS : 42134806, Roll : 0.0, Pitch : 0.0, Yaw : 0.0, Alt : 30.1000003815, Lat : 49.28357, Lng : -123.11502, Q1 : 1.0, Q2 : 0.0, Q3 : 0.0, Q4 : 0.0}
2019-04-14 17:06:13.01: SIM {TimeUS : 42234766, Roll : 0.0, Pitch : 0.0, Yaw : 0.0, Alt : 30.1000003815, Lat : 49.28357, Lng : -123.11502, Q1 : 1.0, Q2 : 0.0, Q3 : 0.0, Q4 : 0.0}
2019-04-14 17:06:13.11: SIM {TimeUS : 42334726, Roll : 0.0, Pitch : 0.0, Yaw : 0.0, Alt : 30.1000003815, Lat : 49.28357, Lng : -123.11502, Q1 : 1.0, Q2 : 0.0, Q3 : 0.0, Q4 : 0.0}
2019-04-14 17:06:13.21: SIM {TimeUS : 42434686, Roll : 0.0, Pitch : 0.0, Yaw : 0.0, Alt : 30.1000003815, Lat : 49.28357, Lng : -123.11502, Q1 : 1.0, Q2 : 0.0, Q3 : 0.0, Q4 : 0.0}
2019-04-14 17:06:13.31: SIM {TimeUS : 42534646, Roll : 0.0, Pitch : 0.0, Yaw : 0.0, Alt : 30.1000003815, Lat : 49.28357, Lng : -123.11502, Q1 : 1.0, Q2 : 0.0, Q3 : 0.0, Q4 : 0.0}
2019-04-14 17:06:13.42: SIM {TimeUS : 42635439, Roll : 0.0, Pitch : 0.0, Yaw : 0.0, Alt : 30.1000003815, Lat : 49.28357, Lng : -123.11502, Q1 : 1.0, Q2 : 0.0, Q3 : 0.0, Q4 : 0.0}
2019-04-14 17:06:13.51: SIM {TimeUS : 42735399, Roll : 0.0, Pitch : 0.0, Yaw : 0.0, Alt : 30.1000003815, Lat : 49.28357, Lng : -123.11502, Q1 : 1.0, Q2 : 0.0, Q3 : 0.0, Q4 : 0.0}
2019-04-14 17:06:13.61: SIM {TimeUS : 42835359, Roll : 0.0, Pitch : 0.0, Yaw : 0.0, Alt : 30.1000003815, Lat : 49.28357, Lng : -123.11502, Q1 : 1.0, Q2 : 0.0, Q3 : 0.0, Q4 : 2.04542945081e-11}
2019-04-14 17:06:13.71: SIM {TimeUS : 42935319, Roll : 0.0, Pitch : 0.0, Yaw : 360.0, Alt : 30.1000003815, Lat : 49.28357, Lng : -123.11502, Q1 : 1.0, Q2 : 0.0, Q3 : 0.0, Q4 : -2.45379706137e-11}
2019-04-14 17:06:13.81: SIM {TimeUS : 43035279, Roll : 0.0, Pitch : 0.0, Yaw : 360.0, Alt : 30.1000003815, Lat : 49.28357, Lng : -123.11502, Q1 : 1.0, Q2 : 0.0, Q3 : 0.0, Q4 : -1.38435765962e-07}
2019-04-14 17:06:13.91: SIM {TimeUS : 43135239, Roll : 0.0, Pitch : 0.0, Yaw : 359.99, Alt : 30.1000003815, Lat : 49.28357, Lng : -123.11502, Q1 : 1.0, Q2 : 0.0, Q3 : 0.0, Q4 : -3.15642552096e-07}
2019-04-14 17:06:14.01: SIM {TimeUS : 43235199, Roll : 0.0, Pitch : 0.0, Yaw : 359.99, Alt : 30.1000003815, Lat : 49.28357, Lng : -123.11502, Q1 : 1.0, Q2 : 0.0, Q3 : 0.0, Q4 : -4.92706817568e-07}
2019-04-14 17:06:14.11: SIM {TimeUS : 43335159, Roll : 0.0, Pitch : 0.0, Yaw : 359.99, Alt : 30.1000003815, Lat : 49.28357, Lng : -123.11502, Q1 : 1.0, Q2 : 0.0, Q3 : 0.0, Q4 : -6.61097999455e-07}
2019-04-14 17:06:14.21: SIM {TimeUS : 43435119, Roll : 0.0, Pitch : 0.0, Yaw : 359.99, Alt : 30.1000003815, Lat : 49.28357, Lng : -123.11502, Q1 : 1.0, Q2 : 0.0, Q3 : 0.0, Q4 : -8.58357850575e-07}
2019-04-14 17:06:14.31: SIM {TimeUS : 43535079, Roll : 0.0, Pitch : 0.0, Yaw : 359.99, Alt : 30.1000003815, Lat : 49.28357, Lng : -123.11502, Q1 : 1.0, Q2 : 0.0, Q3 : 0.0, Q4 : -1.05597598576e-06}
2019-04-14 17:06:14.41: SIM {TimeUS : 43635039, Roll : 0.0, Pitch : 0.0, Yaw : 359.99, Alt : 30.1000003815, Lat : 49.28357, Lng : -123.11502, Q1 : 1.0, Q2 : 0.0, Q3 : 0.0, Q4 : -1.26623092456e-06}
2019-04-14 17:06:14.51: SIM {TimeUS : 43734999, Roll : 0.0, Pitch : 0.0, Yaw : 359.99, Alt : 30.1100006104, Lat : 49.28357, Lng : -123.11502, Q1 : 1.0, Q2 : 0.0, Q3 : 0.0, Q4 : -1.46997604134e-06}
2019-04-14 17:06:14.61: SIM {TimeUS : 43834959, Roll : 0.0, Pitch : 0.0, Yaw : 359.99, Alt : 30.1399993896, Lat : 49.28357, Lng : -123.11502, Q1 : 1.0, Q2 : 0.0, Q3 : 0.0, Q4 : -1.66203267327e-06}
2019-04-14 17:06:14.71: SIM {TimeUS : 43934919, Roll : 0.0, Pitch : 0.0, Yaw : 359.99, Alt : 30.1700000763, Lat : 49.28357, Lng : -123.11502, Q1 : 1.0, Q2 : 0.0, Q3 : 0.0, Q4 : -1.85312444501e-06}
2019-04-14 17:06:14.81: SIM {TimeUS : 44034879, Roll : 0.0, Pitch : 0.0, Yaw : 359.99, Alt : 30.2000007629, Lat : 49.28357, Lng : -123.11502, Q1 : 1.0, Q2 : 0.0, Q3 : 0.0, Q4 : -2.0458930976e-06}
2019-04-14 17:06:14.91: SIM {TimeUS : 44134839, Roll : -0.1, Pitch : -0.09, Yaw : 359.99, Alt : 30.25, Lat : 49.28357, Lng : -123.11502, Q1 : 0.99999922514, Q2 : -0.000948819390032, Q3 : -0.000814388680737, Q4 : -1.10641367428e-05}
2019-04-14 17:06:15.01: SIM {TimeUS : 44234799, Roll : -0.42, Pitch : -0.36, Yaw : 359.99, Alt : 30.3400001526, Lat : 49.28357, Lng : -123.11502, Q1 : 0.99998819828, Q2 : -0.00367321656086, Q3 : -0.00318057858385, Q4 : -4.86081044073e-05}
2019-04-14 17:06:15.11: SIM {TimeUS : 44334759, Roll : -0.71, Pitch : -0.62, Yaw : 359.99, Alt : 30.4899997711, Lat : 49.28357, Lng : -123.11502, Q1 : 0.999965369701, Q2 : -0.00625801319256, Q3 : -0.00549321668223, Q4 : -0.000112038462248}
2019-04-14 17:06:15.21: SIM {TimeUS : 44434719, Roll : -0.85, Pitch : -0.78, Yaw : 359.98, Alt : 30.6499996185, Lat : 49.28357, Lng : -123.11502, Q1 : 0.999948978424, Q2 : -0.00743358489126, Q3 : -0.00683738524094, Q4 : -0.000190454826225}
2019-04-14 17:06:15.31: SIM {TimeUS : 44534679, Roll : -0.82, Pitch : -0.77, Yaw : 359.97, Alt : 30.7999992371, Lat : 49.28357, Lng : -123.11502, Q1 : 0.999950647354, Q2 : -0.00723148137331, Q3 : -0.00680377101526, Q4 : -0.000276894308627}
2019-04-14 17:06:15.41: SIM {TimeUS : 44634639, Roll : -0.69, Pitch : -0.64, Yaw : 359.96, Alt : 30.9599990845, Lat : 49.28357, Lng : -123.1150201, Q1 : 0.999965786934, Q2 : -0.00603859964758, Q3 : -0.0056399134919, Q4 : -0.000365973450243}
2019-04-14 17:06:15.52: SIM {TimeUS : 44735432, Roll : -0.47, Pitch : -0.44, Yaw : 359.95, Alt : 31.1100006104, Lat : 49.2835701, Lng : -123.1150202, Q1 : 0.999983787537, Q2 : -0.00417245225981, Q3 : -0.00385263189673, Q4 : -0.000442755263066}
2019-04-14 17:06:15.61: SIM {TimeUS : 44835392, Roll : -0.25, Pitch : -0.23, Yaw : 359.94, Alt : 31.2700004578, Lat : 49.2835701, Lng : -123.1150203, Q1 : 0.999995410442, Q2 : -0.00220302143134, Q3 : -0.00200980948284, Q4 : -0.000497117696796}
2019-04-14 17:06:15.71: SIM {TimeUS : 44935352, Roll : -0.07, Pitch : -0.06, Yaw : 359.93, Alt : 31.4400005341, Lat : 49.2835702, Lng : -123.1150203, Q1 : 0.999999463558, Q2 : -0.000618281308562, Q3 : -0.000595157442149, Q4 : -0.000534317281563}
2019-04-14 17:06:15.81: SIM {TimeUS : 45035312, Roll : 0.04, Pitch : 0.02, Yaw : 359.93, Alt : 31.6100006104, Lat : 49.2835702, Lng : -123.1150204, Q1 : 0.999999701977, Q2 : 0.000404880498536, Q3 : 0.000210778176552, Q4 : -0.000554973084945}
2019-04-14 17:06:15.91: SIM {TimeUS : 45135272, Roll : 0.1, Pitch : 0.05, Yaw : 359.93, Alt : 31.7900009155, Lat : 49.2835703, Lng : -123.1150205, Q1 : 0.999999344349, Q2 : 0.000906761793885, Q3 : 0.000469956750749, Q4 : -0.000567507348023}
2019-04-14 17:06:16.01: SIM {TimeUS : 45235232, Roll : 0.11, Pitch : 0.05, Yaw : 359.93, Alt : 31.9699993134, Lat : 49.2835703, Lng : -123.1150206, Q1 : 0.99999922514, Q2 : 0.000978549825959, Q3 : 0.000484946795041, Q4 : -0.000587958609685}
2019-04-14 17:06:16.11: SIM {TimeUS : 45335192, Roll : 0.09, Pitch : 0.05, Yaw : 359.93, Alt : 32.1599998474, Lat : 49.2835703, Lng : -123.1150206, Q1 : 0.999999344349, Q2 : 0.000804946699645, Q3 : 0.000497764674947, Q4 : -0.000598235870712}
2019-04-14 17:06:16.21: SIM {TimeUS : 45435152, Roll : 0.06, Pitch : 0.06, Yaw : 359.93, Alt : 32.3499984741, Lat : 49.2835703, Lng : -123.1150207, Q1 : 0.999999523163, Q2 : 0.000540492124856, Q3 : 0.000557413499337, Q4 : -0.000595939636696}
2019-04-14 17:06:16.31: SIM {TimeUS : 45535112, Roll : 0.05, Pitch : 0.09, Yaw : 359.93, Alt : 32.5400009155, Lat : 49.2835703, Lng : -123.1150207, Q1 : 0.999999403954, Q2 : 0.000493723084219, Q3 : 0.000791552593, Q4 : -0.000584013469052}
2019-04-14 17:06:16.41: SIM {TimeUS : 45635072, Roll : 0.08, Pitch : 0.12, Yaw : 359.93, Alt : 32.7400016785, Lat : 49.2835703, Lng : -123.1150208, Q1 : 0.999998927116, Q2 : 0.00072819145862, Q3 : 0.00111161277164, Q4 : -0.000561160966754}
2019-04-14 17:06:16.51: SIM {TimeUS : 45735032, Roll : 0.11, Pitch : 0.15, Yaw : 359.93, Alt : 32.9399986267, Lat : 49.2835704, Lng : -123.1150208, Q1 : 0.999998390675, Q2 : 0.00102552142926, Q3 : 0.00139001954813, Q4 : -0.000534119957592}
2019-04-14 17:06:16.61: SIM {TimeUS : 45834992, Roll : 0.14, Pitch : 0.18, Yaw : 359.94, Alt : 33.1399993896, Lat : 49.2835704, Lng : -123.1150208, Q1 : 0.999997735023, Q2 : 0.00124383287039, Q3 : 0.0016473766882, Q4 : -0.000508083729073}
2019-04-14 17:06:16.71: SIM {TimeUS : 45934952, Roll : 0.15, Pitch : 0.19, Yaw : 359.94, Alt : 33.3400001526, Lat : 49.2835704, Lng : -123.1150208, Q1 : 0.99999755621, Q2 : 0.00137577776331, Q3 : 0.00167019385844, Q4 : -0.000480582588352}
2019-04-14 17:06:16.81: SIM {TimeUS : 46034912, Roll : 0.15, Pitch : 0.15, Yaw : 359.94, Alt : 33.5400009155, Lat : 49.2835704, Lng : -123.1150208, Q1 : 0.999998033047, Q2 : 0.00137678254396, Q3 : 0.00136335159186, Q4 : -0.00046887237113}
2019-04-14 17:06:16.91: SIM {TimeUS : 46134872, Roll : 0.15, Pitch : 0.12, Yaw : 359.94, Alt : 33.75, Lat : 49.2835704, Lng : -123.1150209, Q1 : 0.999998390675, Q2 : 0.00131534924731, Q3 : 0.00112948217429, Q4 : -0.000463232048787}
2019-04-14 17:06:17.01: SIM {TimeUS : 46234832, Roll : 0.14, Pitch : 0.12, Yaw : 359.94, Alt : 33.9599990845, Lat : 49.2835704, Lng : -123.1150209, Q1 : 0.999998509884, Q2 : 0.00126903736964, Q3 : 0.00106324884109, Q4 : -0.000472017447464}
2019-04-14 17:06:17.11: SIM {TimeUS : 46334792, Roll : 0.14, Pitch : 0.12, Yaw : 359.94, Alt : 34.1699981689, Lat : 49.2835704, Lng : -123.1150209, Q1 : 0.999998390675, Q2 : 0.00129866646603, Q3 : 0.00112571846694, Q4 : -0.000485698255943}
2019-04-14 17:06:17.21: SIM {TimeUS : 46434752, Roll : 0.14, Pitch : 0.11, Yaw : 359.94, Alt : 34.3800010681, Lat : 49.2835704, Lng : -123.1150209, Q1 : 0.999998569489, Q2 : 0.0012425709283, Q3 : 0.00100648670923, Q4 : -0.000497191387694}
2019-04-14 17:06:17.31: SIM {TimeUS : 46534712, Roll : 0.12, Pitch : 0.09, Yaw : 359.94, Alt : 34.5999984741, Lat : 49.2835704, Lng : -123.1150209, Q1 : 0.999998927116, Q2 : 0.00107125984505, Q3 : 0.000833986327052, Q4 : -0.000506158103235}
2019-04-14 17:06:17.41: SIM {TimeUS : 46634672, Roll : 0.1, Pitch : 0.08, Yaw : 359.94, Alt : 34.8100013733, Lat : 49.2835704, Lng : -123.1150208, Q1 : 0.99999922514, Q2 : 0.000874375342391, Q3 : 0.000705999264028, Q4 : -0.000520003610291}
2019-04-14 17:06:17.51: SIM {TimeUS : 46734632, Roll : 0.07, Pitch : 0.06, Yaw : 359.93, Alt : 35.0299987793, Lat : 49.2835704, Lng : -123.1150208, Q1 : 0.999999463558, Q2 : 0.000638918834738, Q3 : 0.00059953489108, Q4 : -0.000543770671356}
2019-04-14 17:06:17.62: SIM {TimeUS : 46835425, Roll : 0.05, Pitch : 0.03, Yaw : 359.93, Alt : 35.2400016785, Lat : 49.2835704, Lng : -123.1150208, Q1 : 0.999999701977, Q2 : 0.000498707930092, Q3 : 0.000277285435004, Q4 : -0.000570603762753}
2019-04-14 17:06:17.71: SIM {TimeUS : 46935385, Roll : 0.04, Pitch : 0.0, Yaw : 359.93, Alt : 35.4599990845, Lat : 49.2835704, Lng : -123.1150208, Q1 : 0.999999701977, Q2 : 0.000409744476201, Q3 : 3.22399100696e-05, Q4 : -0.000606937392149}
2019-04-14 17:06:17.81: SIM {TimeUS : 47035345, Roll : 0.02, Pitch : 0.0, Yaw : 359.92, Alt : 35.6800003052, Lat : 49.2835704, Lng : -123.1150208, Q1 : 0.999999761581, Q2 : 0.000199778864044, Q3 : -4.33376335423e-05, Q4 : -0.000652663118672}
2019-04-14 17:06:17.91: SIM {TimeUS : 47135305, Roll : 0.01, Pitch : 0.0, Yaw : 359.92, Alt : 35.9000015259, Lat : 49.2835704, Lng : -123.1150208, Q1 : 0.999999761581, Q2 : 0.000125016551465, Q3 : -2.68168369075e-05, Q4 : -0.000693087582476}
2019-04-14 17:06:18.01: SIM {TimeUS : 47235265, Roll : 0.01, Pitch : 0.0, Yaw : 359.91, Alt : 36.1199989319, Lat : 49.2835704, Lng : -123.1150207, Q1 : 0.999999701977, Q2 : 0.000154346649651, Q3 : -1.59293231263e-05, Q4 : -0.000733792141546}
2019-04-14 17:06:18.11: SIM {TimeUS : 47335225, Roll : 0.0, Pitch : -0.02, Yaw : 359.91, Alt : 36.3400001526, Lat : 49.2835704, Lng : -123.1150207, Q1 : 0.999999701977, Q2 : 4.38552233391e-05, Q3 : -0.000206576078199, Q4 : -0.00077236245852}
2019-04-14 17:06:18.21: SIM {TimeUS : 47435185, Roll : -0.02, Pitch : -0.06, Yaw : 359.9, Alt : 36.5600013733, Lat : 49.2835704, Lng : -123.1150207, Q1 : 0.999999463558, Q2 : -0.000233160084463, Q3 : -0.000549508491531, Q4 : -0.000808956392575}
2019-04-14 17:06:18.31: SIM {TimeUS : 47535145, Roll : -0.06, Pitch : -0.08, Yaw : 359.9, Alt : 36.7900009155, Lat : 49.2835704, Lng : -123.1150207, Q1 : 0.99999922514, Q2 : -0.000559866952244, Q3 : -0.000751913641579, Q4 : -0.00083125726087}
2019-04-14 17:06:18.41: SIM {TimeUS : 47635105, Roll : -0.1, Pitch : -0.1, Yaw : 359.9, Alt : 37.0099983215, Lat : 49.2835704, Lng : -123.1150207, Q1 : 0.999998807907, Q2 : -0.000878378632478, Q3 : -0.000926450418774, Q4 : -0.000851500488352}
2019-04-14 17:06:18.51: SIM {TimeUS : 47735065, Roll : -0.11, Pitch : -0.11, Yaw : 359.9, Alt : 37.2400016785, Lat : 49.2835704, Lng : -123.1150207, Q1 : 0.999998688698, Q2 : -0.000973994901869, Q3 : -0.000962435849942, Q4 : -0.000868615345098}
2019-04-14 17:06:18.61: SIM {TimeUS : 47835025, Roll : -0.1, Pitch : -0.09, Yaw : 359.89, Alt : 37.4599990845, Lat : 49.2835704, Lng : -123.1150207, Q1 : 0.999998867512, Q2 : -0.000907545269001, Q3 : -0.000828803982586, Q4 : -0.000886483758222}
2019-04-14 17:06:18.71: SIM {TimeUS : 47934985, Roll : -0.08, Pitch : -0.05, Yaw : 359.89, Alt : 37.6899986267, Lat : 49.2835704, Lng : -123.1150207, Q1 : 0.999999165535, Q2 : -0.000753152358811, Q3 : -0.000520404835697, Q4 : -0.000904809450731}
2019-04-14 17:06:18.81: SIM {TimeUS : 48034945, Roll : -0.06, Pitch : -0.03, Yaw : 359.89, Alt : 37.9099998474, Lat : 49.2835704, Lng : -123.1150207, Q1 : 0.999999344349, Q2 : -0.000581290165428, Q3 : -0.000272806588328, Q4 : -0.000926368054934}
2019-04-14 17:06:18.91: SIM {TimeUS : 48134905, Roll : -0.06, Pitch : -0.02, Yaw : 359.89, Alt : 38.1399993896, Lat : 49.2835704, Lng : -123.1150207, Q1 : 0.999999344349, Q2 : -0.000577713013627, Q3 : -0.000244358292548, Q4 : -0.000951584370341}
2019-04-14 17:06:19.01: SIM {TimeUS : 48234865, Roll : -0.07, Pitch : -0.01, Yaw : 359.88, Alt : 38.3699989319, Lat : 49.2835704, Lng : -123.1150206, Q1 : 0.999999284744, Q2 : -0.000642782077193, Q3 : -0.000138123577926, Q4 : -0.000968409120105}
2019-04-14 17:06:19.11: SIM {TimeUS : 48334825, Roll : -0.09, Pitch : 0.0, Yaw : 359.88, Alt : 38.5999984741, Lat : 49.2835704, Lng : -123.1150206, Q1 : 0.999999165535, Q2 : -0.000810180499684, Q3 : -2.42375426751e-05, Q4 : -0.000977079267614}
2019-04-14 17:06:19.21: SIM {TimeUS : 48434785, Roll : -0.09, Pitch : 0.01, Yaw : 359.88, Alt : 38.8300018311, Lat : 49.2835706, Lng : -123.1150207, Q1 : 0.999999165535, Q2 : -0.000811404257547, Q3 : 9.14825504879e-05, Q4 : -0.000982208177447}
2019-04-14 17:06:19.31: SIM {TimeUS : 48534745, Roll : -0.06, Pitch : 0.03, Yaw : 359.88, Alt : 39.0499992371, Lat : 49.2835706, Lng : -123.1150207, Q1 : 0.999999284744, Q2 : -0.000608304515481, Q3 : 0.000286176335067, Q4 : -0.000996591057628}
2019-04-14 17:06:19.41: SIM {TimeUS : 48634705, Roll : -0.04, Pitch : 0.03, Yaw : 359.88, Alt : 39.2799987793, Lat : 49.2835706, Lng : -123.1150207, Q1 : 0.999999403954, Q2 : -0.000367347442079, Q3 : 0.000281853077468, Q4 : -0.0010052776197}
2019-04-14 17:06:19.51: SIM {TimeUS : 48734665, Roll : -0.01, Pitch : 0.02, Yaw : 359.88, Alt : 39.5099983215, Lat : 49.2835706, Lng : -123.1150207, Q1 : 0.999999463558, Q2 : -9.76368464762e-05, Q3 : 0.000245643983362, Q4 : -0.00101086695213}
2019-04-14 17:06:19.61: SIM {TimeUS : 48834625, Roll : 0.02, Pitch : 0.04, Yaw : 359.88, Alt : 39.75, Lat : 49.2835706, Lng : -123.1150207, Q1 : 0.999999344349, Q2 : 0.000218366563786, Q3 : 0.000428267376265, Q4 : -0.00101492926478}
2019-04-14 17:06:19.72: SIM {TimeUS : 48935418, Roll : 0.06, Pitch : 0.09, Yaw : 359.88, Alt : 39.9799995422, Lat : 49.2835706, Lng : -123.1150207, Q1 : 0.999998986721, Q2 : 0.000573424738832, Q3 : 0.000799933157396, Q4 : -0.0010253614746}
2019-04-14 17:06:19.81: SIM {TimeUS : 49035378, Roll : 0.09, Pitch : 0.13, Yaw : 359.88, Alt : 40.2099990845, Lat : 49.2835706, Lng : -123.1150207, Q1 : 0.999998390675, Q2 : 0.000821509107482, Q3 : 0.00118537957314, Q4 : -0.00104379456025}
2019-04-14 17:06:19.91: SIM {TimeUS : 49135338, Roll : 0.08, Pitch : 0.17, Yaw : 359.87, Alt : 40.4399986267, Lat : 49.2835706, Lng : -123.1150207, Q1 : 0.999997973442, Q2 : 0.000742480275221, Q3 : 0.00153204926755, Q4 : -0.00105698860716}
2019-04-14 17:06:20.01: SIM {TimeUS : 49235298, Roll : 0.03, Pitch : 0.2, Yaw : 359.87, Alt : 40.6699981689, Lat : 49.2835706, Lng : -123.1150207, Q1 : 0.999997794628, Q2 : 0.000314139993861, Q3 : 0.00177806615829, Q4 : -0.00108840980101}
2019-04-14 17:06:20.11: SIM {TimeUS : 49335258, Roll : 0.0, Pitch : 0.21, Yaw : 359.87, Alt : 40.9099998474, Lat : 49.2835706, Lng : -123.1150207, Q1 : 0.999997675419, Q2 : -7.55804067012e-05, Q3 : 0.00183445692528, Q4 : -0.00111595715862}
2019-04-14 17:06:20.21: SIM {TimeUS : 49435218, Roll : -0.03, Pitch : 0.18, Yaw : 359.86, Alt : 41.1399993896, Lat : 49.2835706, Lng : -123.1150207, Q1 : 0.999998092651, Q2 : -0.000297566351946, Q3 : 0.00157298054546, Q4 : -0.00113423343282}
2019-04-14 17:06:20.31: SIM {TimeUS : 49535178, Roll : -0.04, Pitch : 0.13, Yaw : 359.86, Alt : 41.3699989319, Lat : 49.2835706, Lng : -123.1150207, Q1 : 0.999998509884, Q2 : -0.000381107616704, Q3 : 0.00121747085359, Q4 : -0.0011586836772}
2019-04-14 17:06:20.41: SIM {TimeUS : 49635138, Roll : -0.03, Pitch : 0.12, Yaw : 359.86, Alt : 41.6100006104, Lat : 49.2835706, Lng : -123.1150207, Q1 : 0.999998688698, Q2 : -0.00028239164385, Q3 : 0.00108742038719, Q4 : -0.00119071232621}
2019-04-14 17:06:20.51: SIM {TimeUS : 49735098, Roll : 0.0, Pitch : 0.12, Yaw : 359.85, Alt : 41.8400001526, Lat : 49.2835706, Lng : -123.1150207, Q1 : 0.999998629093, Q2 : 8.14535960671e-05, Q3 : 0.00111499335617, Q4 : -0.00123237445951}
2019-04-14 17:06:20.61: SIM {TimeUS : 49835058, Roll : 0.06, Pitch : 0.12, Yaw : 359.85, Alt : 42.0699996948, Lat : 49.2835706, Lng : -123.1150207, Q1 : 0.999998390675, Q2 : 0.000556074781343, Q3 : 0.00113329698797, Q4 : -0.00127482786775}
2019-04-14 17:06:20.71: SIM {TimeUS : 49935018, Roll : 0.1, Pitch : 0.11, Yaw : 359.84, Alt : 42.3100013733, Lat : 49.2835706, Lng : -123.1150207, Q1 : 0.999998211861, Q2 : 0.000914434203878, Q3 : 0.000995042617433, Q4 : -0.00131925661117}
2019-04-14 17:06:20.81: SIM {TimeUS : 50034978, Roll : 0.1, Pitch : 0.08, Yaw : 359.84, Alt : 42.5400009155, Lat : 49.2835706, Lng : -123.1150207, Q1 : 0.99999833107, Q2 : 0.00094640936004, Q3 : 0.000773406703956, Q4 : -0.00136302202009}
2019-04-14 17:06:20.91: SIM {TimeUS : 50134938, Roll : 0.06, Pitch : 0.07, Yaw : 359.84, Alt : 42.7799987793, Lat : 49.2835706, Lng : -123.1150207, Q1 : 0.999998688698, Q2 : 0.000588482012972, Q3 : 0.000626628752798, Q4 : -0.00139102223329}
2019-04-14 17:06:21.01: SIM {TimeUS : 50234898, Roll : 0.01, Pitch : 0.06, Yaw : 359.83, Alt : 43.0099983215, Lat : 49.2835706, Lng : -123.1150207, Q1 : 0.999998867512, Q2 : 0.00010000236216, Q3 : 0.000568283314351, Q4 : -0.00141017045826}
2019-04-14 17:06:21.11: SIM {TimeUS : 50334858, Roll : -0.03, Pitch : 0.07, Yaw : 359.83, Alt : 43.25, Lat : 49.2835704, Lng : -123.1150207, Q1 : 0.999998688698, Q2 : -0.000280595530057, Q3 : 0.000686818151735, Q4 : -0.00142334843986}
2019-04-14 17:06:21.21: SIM {TimeUS : 50434818, Roll : -0.05, Pitch : 0.08, Yaw : 359.83, Alt : 43.4799995422, Lat : 49.2835704, Lng : -123.1150207, Q1 : 0.999998569489, Q2 : -0.000483783311211, Q3 : 0.000756895926315, Q4 : -0.00143482966814}
2019-04-14 17:06:21.31: SIM {TimeUS : 50534778, Roll : -0.05, Pitch : 0.07, Yaw : 359.83, Alt : 43.7200012207, Lat : 49.2835704, Lng : -123.1150207, Q1 : 0.999998688698, Q2 : -0.000444942503236, Q3 : 0.000635209609754, Q4 : -0.00144536118023}
2019-04-14 17:06:21.41: SIM {TimeUS : 50634738, Roll : -0.05, Pitch : 0.05, Yaw : 359.83, Alt : 43.9500007629, Lat : 49.2835704, Lng : -123.1150207, Q1 : 0.999998748302, Q2 : -0.000447300961241, Q3 : 0.000470125465654, Q4 : -0.0014631699305}
2019-04-14 17:06:21.51: SIM {TimeUS : 50734698, Roll : -0.04, Pitch : 0.03, Yaw : 359.82, Alt : 44.1899986267, Lat : 49.2835704, Lng : -123.1150206, Q1 : 0.999998807907, Q2 : -0.000363132712664, Q3 : 0.000326283392496, Q4 : -0.00148477545008}
2019-04-14 17:06:21.61: SIM {TimeUS : 50834658, Roll : -0.02, Pitch : 0.03, Yaw : 359.82, Alt : 44.4199981689, Lat : 49.2835704, Lng : -123.1150206, Q1 : 0.999998807907, Q2 : -0.000181455339771, Q3 : 0.000276406673947, Q4 : -0.00150835351087}
2019-04-14 17:06:21.71: SIM {TimeUS : 50934618, Roll : 0.0, Pitch : 0.03, Yaw : 359.82, Alt : 44.6599998474, Lat : 49.2835704, Lng : -123.1150206, Q1 : 0.999998807907, Q2 : -6.13553202129e-05, Q3 : 0.000268471980235, Q4 : -0.00153036240954}
2019-04-14 17:06:21.81: SIM {TimeUS : 51035411, Roll : -0.01, Pitch : 0.01, Yaw : 359.82, Alt : 44.9000015259, Lat : 49.2835704, Lng : -123.1150206, Q1 : 0.999998748302, Q2 : -9.4047980383e-05, Q3 : 0.000110005203169, Q4 : -0.00155548250768}
2019-04-14 17:06:21.91: SIM {TimeUS : 51135371, Roll : -0.02, Pitch : -0.01, Yaw : 359.81, Alt : 45.1399993896, Lat : 49.2835703, Lng : -123.1150206, Q1 : 0.999998748302, Q2 : -0.000180978167919, Q3 : -0.000155502508278, Q4 : -0.00158208294306}
2019-04-14 17:06:22.01: SIM {TimeUS : 51235331, Roll : -0.02, Pitch : -0.04, Yaw : 359.81, Alt : 45.3699989319, Lat : 49.2835703, Lng : -123.1150206, Q1 : 0.999998629093, Q2 : -0.000238528707996, Q3 : -0.000351826631231, Q4 : -0.00160968664568}
2019-04-14 17:06:22.11: SIM {TimeUS : 51335291, Roll : -0.02, Pitch : -0.05, Yaw : 359.81, Alt : 45.6100006104, Lat : 49.2835703, Lng : -123.1150206, Q1 : 0.999998509884, Q2 : -0.00024165128707, Q3 : -0.000483804993564, Q4 : -0.0016376391286}
2019-04-14 17:06:22.21: SIM {TimeUS : 51435251, Roll : -0.03, Pitch : -0.05, Yaw : 359.8, Alt : 45.8400001526, Lat : 49.2835703, Lng : -123.1150206, Q1 : 0.999998450279, Q2 : -0.000323251675582, Q3 : -0.00050788099179, Q4 : -0.00166303326841}
2019-04-14 17:06:22.31: SIM {TimeUS : 51535211, Roll : -0.05, Pitch : -0.04, Yaw : 359.8, Alt : 46.0699996948, Lat : 49.2835703, Lng : -123.1150206, Q1 : 0.99999833107, Q2 : -0.000520677363966, Q3 : -0.00043462915346, Q4 : -0.00168785895221}
2019-04-14 17:06:22.41: SIM {TimeUS : 51635171, Roll : -0.09, Pitch : -0.04, Yaw : 359.8, Alt : 46.2999992371, Lat : 49.2835703, Lng : -123.1150206, Q1 : 0.999998152256, Q2 : -0.000822034373414, Q3 : -0.000355955009582, Q4 : -0.00171249394771}
2019-04-14 17:06:22.51: SIM {TimeUS : 51735131, Roll : -0.11, Pitch : -0.03, Yaw : 359.8, Alt : 46.5200004578, Lat : 49.2835703, Lng : -123.1150206, Q1 : 0.999997913837, Q2 : -0.00103729509283, Q3 : -0.000283073983155, Q4 : -0.00173914292827}
2019-04-14 17:06:22.61: SIM {TimeUS : 51835091, Roll : -0.12, Pitch : -0.01, Yaw : 359.79, Alt : 46.7400016785, Lat : 49.2835703, Lng : -123.1150206, Q1 : 0.999997854233, Q2 : -0.00108541082591, Q3 : -0.000170344035723, Q4 : -0.00176974665374}
2019-04-14 17:06:22.71: SIM {TimeUS : 51935051, Roll : -0.11, Pitch : 0.0, Yaw : 359.79, Alt : 46.9500007629, Lat : 49.2835703, Lng : -123.1150206, Q1 : 0.999997913837, Q2 : -0.000964176433627, Q3 : 2.04283333005e-05, Q4 : -0.0018005205784}
2019-04-14 17:06:22.81: SIM {TimeUS : 52035011, Roll : -0.08, Pitch : 0.01, Yaw : 359.79, Alt : 47.1599998474, Lat : 49.2835703, Lng : -123.1150206, Q1 : 0.999998033047, Q2 : -0.000756222812925, Q3 : 0.000122751196614, Q4 : -0.00183068949264}
2019-04-14 17:06:22.91: SIM {TimeUS : 52134971, Roll : -0.06, Pitch : 0.01, Yaw : 359.78, Alt : 47.3499984741, Lat : 49.2835703, Lng : -123.1150206, Q1 : 0.999998152256, Q2 : -0.000525261450093, Q3 : 9.8326796433e-05, Q4 : -0.0018588998355}
2019-04-14 17:06:23.01: SIM {TimeUS : 52234931, Roll : -0.04, Pitch : 0.0, Yaw : 359.78, Alt : 47.5400009155, Lat : 49.2835703, Lng : -123.1150206, Q1 : 0.999998152256, Q2 : -0.000390033615986, Q3 : -3.96828327212e-05, Q4 : -0.00188915629406}
2019-04-14 17:06:23.11: SIM {TimeUS : 52334891, Roll : -0.03, Pitch : -0.03, Yaw : 359.77, Alt : 47.7200012207, Lat : 49.2835703, Lng : -123.1150206, Q1 : 0.999998033047, Q2 : -0.000348864530679, Q3 : -0.000336789322319, Q4 : -0.00192055478692}
2019-04-14 17:06:23.21: SIM {TimeUS : 52434851, Roll : -0.03, Pitch : -0.06, Yaw : 359.77, Alt : 47.8899993896, Lat : 49.2835703, Lng : -123.1150206, Q1 : 0.999997854233, Q2 : -0.000288144510705, Q3 : -0.000607139314525, Q4 : -0.00195124023594}
2019-04-14 17:06:23.31: SIM {TimeUS : 52534811, Roll : -0.03, Pitch : -0.1, Yaw : 359.77, Alt : 48.0499992371, Lat : 49.2835703, Lng : -123.1150206, Q1 : 0.999997615814, Q2 : -0.000276019796729, Q3 : -0.000894757045899, Q4 : -0.00197905162349}
2019-04-14 17:06:23.41: SIM {TimeUS : 52634771, Roll : -0.03, Pitch : -0.12, Yaw : 359.77, Alt : 48.1899986267, Lat : 49.2835703, Lng : -123.1150206, Q1 : 0.999997377396, Q2 : -0.000314144825097, Q3 : -0.00108494935557, Q4 : -0.00200558151118}
2019-04-14 17:06:23.51: SIM {TimeUS : 52734731, Roll : -0.01, Pitch : -0.12, Yaw : 359.76, Alt : 48.3199996948, Lat : 49.2835703, Lng : -123.1150206, Q1 : 0.999997377396, Q2 : -0.000105756073026, Q3 : -0.00105197657831, Q4 : -0.00202751159668}
2019-04-14 17:06:23.61: SIM {TimeUS : 52834691, Roll : 0.02, Pitch : -0.09, Yaw : 359.76, Alt : 48.4399986267, Lat : 49.2835703, Lng : -123.1150206, Q1 : 0.999997496605, Q2 : 0.00020958641835, Q3 : -0.000853844860103, Q4 : -0.00204466050491}
2019-04-14 17:06:23.71: SIM {TimeUS : 52934651, Roll : 0.05, Pitch : -0.06, Yaw : 359.76, Alt : 48.5499992371, Lat : 49.2835703, Lng : -123.1150206, Q1 : 0.999997615814, Q2 : 0.000490084057674, Q3 : -0.000588336260989, Q4 : -0.00205838982947}
2019-04-14 17:06:23.82: SIM {TimeUS : 53035444, Roll : 0.06, Pitch : -0.03, Yaw : 359.76, Alt : 48.6500015259, Lat : 49.2835703, Lng : -123.1150207, Q1 : 0.999997615814, Q2 : 0.000591859803535, Q3 : -0.000339072488714, Q4 : -0.00207539671101}
2019-04-14 17:06:23.91: SIM {TimeUS : 53135404, Roll : 0.07, Pitch : -0.02, Yaw : 359.75, Alt : 48.7299995422, Lat : 49.2835703, Lng : -123.1150207, Q1 : 0.99999755621, Q2 : 0.000637403165456, Q3 : -0.000260748027358, Q4 : -0.00210037129}
2019-04-14 17:06:24.01: SIM {TimeUS : 53235364, Roll : 0.06, Pitch : -0.04, Yaw : 359.75, Alt : 48.7999992371, Lat : 49.2835703, Lng : -123.1150207, Q1 : 0.999997496605, Q2 : 0.000565353431739, Q3 : -0.000362612947356, Q4 : -0.00213473360054}
2019-04-14 17:06:24.11: SIM {TimeUS : 53335324, Roll : 0.03, Pitch : -0.04, Yaw : 359.75, Alt : 48.8699989319, Lat : 49.2835703, Lng : -123.1150207, Q1 : 0.999997496605, Q2 : 0.000309132243274, Q3 : -0.000409514090279, Q4 : -0.00217304332182}
2019-04-14 17:06:24.21: SIM {TimeUS : 53435284, Roll : 0.01, Pitch : -0.03, Yaw : 359.74, Alt : 48.9199981689, Lat : 49.2835703, Lng : -123.1150207, Q1 : 0.999997496605, Q2 : 0.000132099463372, Q3 : -0.000330984010361, Q4 : -0.00220744824037}
2019-04-14 17:06:24.31: SIM {TimeUS : 53535244, Roll : 0.0, Pitch : -0.03, Yaw : 359.74, Alt : 48.9700012207, Lat : 49.2835703, Lng : -123.1150207, Q1 : 0.999997437, Q2 : 1.36295439006e-05, Q3 : -0.000267330324277, Q4 : -0.00224036327563}
2019-04-14 17:06:24.41: SIM {TimeUS : 53635204, Roll : 0.03, Pitch : -0.06, Yaw : 359.73, Alt : 49.0099983215, Lat : 49.2835703, Lng : -123.1150207, Q1 : 0.999997198582, Q2 : 0.000340206926921, Q3 : -0.000601356441621, Q4 : -0.00227300426923}
2019-04-14 17:06:24.51: SIM {TimeUS : 53735164, Roll : 0.21, Pitch : -0.25, Yaw : 359.73, Alt : 49.0400009155, Lat : 49.2835704, Lng : -123.1150207, Q1 : 0.999993026257, Q2 : 0.0018577335868, Q3 : -0.00227205944248, Q4 : -0.00230180914514}
2019-04-14 17:06:24.61: SIM {TimeUS : 53835124, Roll : 0.54, Pitch : -0.68, Yaw : 359.73, Alt : 49.0699996948, Lat : 49.2835704, Lng : -123.1150207, Q1 : 0.999968111515, Q2 : 0.0047569880262, Q3 : -0.00597988814116, Q4 : -0.00232579279691}
2019-04-14 17:06:24.71: SIM {TimeUS : 53935084, Roll : 1.01, Pitch : -1.35, Yaw : 359.72, Alt : 49.0999984741, Lat : 49.2835704, Lng : -123.1150207, Q1 : 0.99988847971, Q2 : 0.00880848336965, Q3 : -0.0118346763775, Q4 : -0.00232944218442}
2019-04-14 17:06:24.81: SIM {TimeUS : 54035044, Roll : 1.56, Pitch : -2.18, Yaw : 359.7, Alt : 49.1199989319, Lat : 49.2835704, Lng : -123.1150206, Q1 : 0.999722898006, Q2 : 0.0136100845411, Q3 : -0.0190697535872, Q4 : -0.00229654391296}
2019-04-14 17:06:24.91: SIM {TimeUS : 54135004, Roll : 2.14, Pitch : -3.07, Yaw : 359.68, Alt : 49.1399993896, Lat : 49.2835706, Lng : -123.1150206, Q1 : 0.999463319778, Q2 : 0.0186143387109, Q3 : -0.0268645212054, Q4 : -0.00221357867122}
2019-04-14 17:06:25.01: SIM {TimeUS : 54234964, Roll : 2.65, Pitch : -3.87, Yaw : 359.67, Alt : 49.1500015259, Lat : 49.2835707, Lng : -123.1150205, Q1 : 0.999157726765, Q2 : 0.0230806432664, Q3 : -0.0338650457561, Q4 : -0.00206414167769}
2019-04-14 17:06:25.11: SIM {TimeUS : 54334924, Roll : 3.06, Pitch : -4.47, Yaw : 359.66, Alt : 49.1699981689, Lat : 49.2835709, Lng : -123.1150203, Q1 : 0.998878777027, Q2 : 0.0265810843557, Q3 : -0.0391310602427, Q4 : -0.00185405369848}
2019-04-14 17:06:25.21: SIM {TimeUS : 54434884, Roll : 3.35, Pitch : -4.9, Yaw : 359.67, Alt : 49.1800003052, Lat : 49.283571, Lng : -123.1150201, Q1 : 0.998654842377, Q2 : 0.0291007310152, Q3 : -0.042884696275, Q4 : -0.00160238379613}
2019-04-14 17:06:25.31: SIM {TimeUS : 54534844, Roll : 3.57, Pitch : -5.23, Yaw : 359.68, Alt : 49.1899986267, Lat : 49.2835714, Lng : -123.1150199, Q1 : 0.998471498489, Q2 : 0.0310676805675, Q3 : -0.0456910692155, Q4 : -0.00132768671028}
2019-04-14 17:06:25.41: SIM {TimeUS : 54634804, Roll : 3.76, Pitch : -5.5, Yaw : 359.69, Alt : 49.2000007629, Lat : 49.2835716, Lng : -123.1150196, Q1 : 0.998308062553, Q2 : 0.0327207632363, Q3 : -0.0480554699898, Q4 : -0.00105231453199}
2019-04-14 17:06:25.51: SIM {TimeUS : 54734764, Roll : 3.96, Pitch : -5.79, Yaw : 359.7, Alt : 49.2099990845, Lat : 49.2835721, Lng : -123.1150191, Q1 : 0.998122692108, Q2 : 0.0344319231808, Q3 : -0.0506445169449, Q4 : -0.000800850160886}
2019-04-14 17:06:25.61: SIM {TimeUS : 54834724, Roll : 4.19, Pitch : -6.13, Yaw : 359.71, Alt : 49.2200012207, Lat : 49.2835725, Lng : -123.1150187, Q1 : 0.997901082039, Q2 : 0.0363928191364, Q3 : -0.0535607486963, Q4 : -0.000555417675059}
2019-04-14 17:06:25.71: SIM {TimeUS : 54934684, Roll : 4.42, Pitch : -6.45, Yaw : 359.71, Alt : 49.2200012207, Lat : 49.2835731, Lng : -123.1150181, Q1 : 0.997674524784, Q2 : 0.0383656285703, Q3 : -0.0563345849514, Q4 : -0.000310725532472}
2019-04-14 17:06:25.81: SIM {TimeUS : 55034644, Roll : 4.58, Pitch : -6.69, Yaw : 359.72, Alt : 49.2299995422, Lat : 49.2835735, Lng : -123.1150175, Q1 : 0.997495353222, Q2 : 0.0398264415562, Q3 : -0.0584535188973, Q4 : -8.67507696967e-05}
2019-04-14 17:06:25.92: SIM {TimeUS : 55135437, Roll : 4.7, Pitch : -6.87, Yaw : 359.72, Alt : 49.2400016785, Lat : 49.2835743, Lng : -123.1150168, Q1 : 0.997365951538, Q2 : 0.0407920926809, Q3 : -0.0599768534303, Q4 : 8.45034373924e-05}
2019-04-14 17:06:26.01: SIM {TimeUS : 55235397, Roll : 4.75, Pitch : -6.98, Yaw : 359.73, Alt : 49.2400016785, Lat : 49.283575, Lng : -123.1150161, Q1 : 0.997284829617, Q2 : 0.0412702634931, Q3 : -0.0609895288944, Q4 : 0.000204459836823}
2019-04-14 17:06:26.11: SIM {TimeUS : 55335357, Roll : 4.8, Pitch : -7.06, Yaw : 359.73, Alt : 49.25, Lat : 49.2835758, Lng : -123.1150153, Q1 : 0.99722391367, Q2 : 0.0417176708579, Q3 : -0.0616765804589, Q4 : 0.000287157454295}
2019-04-14 17:06:26.21: SIM {TimeUS : 55435317, Roll : 4.88, Pitch : -7.14, Yaw : 359.73, Alt : 49.25, Lat : 49.2835765, Lng : -123.1150144, Q1 : 0.997154593468, Q2 : 0.04236394912, Q3 : -0.0623534843326, Q4 : 0.00034641707316}
2019-04-14 17:06:26.31: SIM {TimeUS : 55535277, Roll : 5.12, Pitch : -7.21, Yaw : 359.81, Alt : 49.25, Lat : 49.2835775, Lng : -123.1150135, Q1 : 0.997021079063, Q2 : 0.0445403233171, Q3 : -0.062958702445, Q4 : 0.00118894176558}
2019-04-14 17:06:26.41: SIM {TimeUS : 55635237, Roll : 5.66, Pitch : -7.25, Yaw : 0.43, Alt : 49.2599983215, Lat : 49.2835783, Lng : -123.1150125, Q1 : 0.99676066637, Q2 : 0.0495534949005, Q3 : -0.0629664584994, Q4 : 0.00691720517352}
2019-04-14 17:06:26.51: SIM {TimeUS : 55735197, Roll : 6.32, Pitch : -7.37, Yaw : 2.29, Alt : 49.2599983215, Lat : 49.2835794, Lng : -123.1150115, Q1 : 0.996138572693, Q2 : 0.0563644245267, Q3 : -0.0630906671286, Q4 : 0.0234631430358}
2019-04-14 17:06:26.61: SIM {TimeUS : 55835157, Roll : 6.73, Pitch : -7.78, Yaw : 5.74, Alt : 49.2599983215, Lat : 49.2835804, Lng : -123.1150103, Q1 : 0.994518637657, Q2 : 0.0619263537228, Q3 : -0.0647805258632, Q4 : 0.0538638308644}
2019-04-14 17:06:26.71: SIM {TimeUS : 55935117, Roll : 6.59, Pitch : -8.52, Yaw : 10.74, Alt : 49.2599983215, Lat : 49.2835814, Lng : -123.1150091, Q1 : 0.990810453892, Q2 : 0.064046934247, Q3 : -0.0685393884778, Q4 : 0.0974425524473}
2019-04-14 17:06:26.81: SIM {TimeUS : 56035077, Roll : 5.68, Pitch : -9.51, Yaw : 17.05, Alt : 49.2599983215, Lat : 49.2835825, Lng : -123.1150077, Q1 : 0.983720064163, Q2 : 0.0611432902515, Q3 : -0.0745865851641, Q4 : 0.151634916663}
2019-04-14 17:06:26.91: SIM {TimeUS : 56135037, Roll : 3.75, Pitch : -10.59, Yaw : 24.14, Alt : 49.2599983215, Lat : 49.2835837, Lng : -123.1150063, Q1 : 0.972553789616, Q2 : 0.0512289218605, Q3 : -0.08337790519, Q4 : 0.211099237204}
2019-04-14 17:06:27.01: SIM {TimeUS : 56234997, Roll : 1.04, Pitch : -11.5, Yaw : 31.23, Alt : 49.2700004578, Lat : 49.2835849, Lng : -123.1150047, Q1 : 0.957946419716, Q2 : 0.0357081852853, Q3 : -0.0940970405936, Q4 : 0.268718004227}
2019-04-14 17:06:27.11: SIM {TimeUS : 56334957, Roll : -1.91, Pitch : -12.08, Yaw : 37.55, Alt : 49.2700004578, Lat : 49.2835861, Lng : -123.1150031, Q1 : 0.94193649292, Q2 : 0.0181896686554, Q3 : -0.105008788407, Q4 : 0.318430364132}
2019-04-14 17:06:27.21: SIM {TimeUS : 56434917, Roll : -4.44, Pitch : -12.34, Yaw : 42.5, Alt : 49.2700004578, Lat : 49.2835874, Lng : -123.1150015, Q1 : 0.927405238152, Q2 : 0.00298895011656, Q3 : -0.114116735756, Q4 : 0.356213450432}
2019-04-14 17:06:27.31: SIM {TimeUS : 56534877, Roll : -6.1, Pitch : -12.43, Yaw : 45.73, Alt : 49.2700004578, Lat : 49.283589, Lng : -123.1149999, Q1 : 0.916917085648, Q2 : -0.00673176348209, Q3 : -0.120195113122, Q4 : 0.380487680435}
2019-04-14 17:06:27.41: SIM {TimeUS : 56634837, Roll : -6.75, Pitch : -12.51, Yaw : 47.26, Alt : 49.2700004578, Lat : 49.2835904, Lng : -123.1149981, Q1 : 0.911679804325, Q2 : -0.0100276330486, Q3 : -0.123131617904, Q4 : 0.391890347004}
2019-04-14 17:06:27.51: SIM {TimeUS : 56734797, Roll : -6.5, Pitch : -12.71, Yaw : 47.3, Alt : 49.2700004578, Lat : 49.2835922, Lng : -123.1149966, Q1 : 0.911424875259, Q2 : -0.00731389131397, Q3 : -0.12390896678, Q4 : 0.392298161983}
2019-04-14 17:06:27.61: SIM {TimeUS : 56834757, Roll : -5.59, Pitch : -13.11, Yaw : 46.17, Alt : 49.2700004578, Lat : 49.2835939, Lng : -123.1149949, Q1 : 0.915001213551, Q2 : 0.000109625172627, Q3 : -0.12393720448, Q4 : 0.383943170309}
2019-04-14 17:06:27.71: SIM {TimeUS : 56934717, Roll : -4.27, Pitch : -13.67, Yaw : 44.18, Alt : 49.2700004578, Lat : 49.2835958, Lng : -123.1149932, Q1 : 0.921013474464, Q2 : 0.010446768254, Q3 : -0.1241177544, Q4 : 0.369079738855}
2019-04-14 17:06:27.81: SIM {TimeUS : 57034677, Roll : -2.73, Pitch : -14.28, Yaw : 41.65, Alt : 49.2700004578, Lat : 49.2835976, Lng : -123.1149914, Q1 : 0.928178012371, Q2 : 0.0220815613866, Q3 : -0.124594502151, Q4 : 0.349963217974}
2019-04-14 17:06:27.91: SIM {TimeUS : 57134637, Roll : -1.15, Pitch : -14.84, Yaw : 38.89, Alt : 49.2799987793, Lat : 49.2835996, Lng : -123.1149897, Q1 : 0.935447752476, Q2 : 0.0335506796837, Q3 : -0.125122815371, Q4 : 0.328871071339}
2019-04-14 17:06:28.02: SIM {TimeUS : 57235430, Roll : 0.3, Pitch : -15.24, Yaw : 36.17, Alt : 49.2799987793, Lat : 49.2836018, Lng : -123.1149878, Q1 : 0.94207495451, Q2 : 0.0437203757465, Q3 : -0.125304609537, Q4 : 0.308029323816}
2019-04-14 17:06:28.11: SIM {TimeUS : 57335390, Roll : 1.51, Pitch : -15.46, Yaw : 33.83, Alt : 49.2799987793, Lat : 49.2836038, Lng : -123.1149858, Q1 : 0.947424530983, Q2 : 0.0516777150333, Q3 : -0.124936468899, Q4 : 0.290012210608}
2019-04-14 17:06:28.21: SIM {TimeUS : 57435350, Roll : 2.36, Pitch : -15.55, Yaw : 32.05, Alt : 49.2799987793, Lat : 49.283606, Lng : -123.1149837, Q1 : 0.95130199194, Q2 : 0.0570477955043, Q3 : -0.124369718134, Q4 : 0.276228636503}
2019-04-14 17:06:28.31: SIM {TimeUS : 57535310, Roll : 2.83, Pitch : -15.56, Yaw : 30.95, Alt : 49.2799987793, Lat : 49.2836081, Lng : -123.1149815, Q1 : 0.953673899174, Q2 : 0.0597792118788, Q3 : -0.123940899968, Q4 : 0.267527908087}
2019-04-14 17:06:28.41: SIM {TimeUS : 57635270, Roll : 2.91, Pitch : -15.56, Yaw : 30.51, Alt : 49.2799987793, Lat : 49.2836104, Lng : -123.1149792, Q1 : 0.954636573792, Q2 : 0.0599847659469, Q3 : -0.123988524079, Q4 : 0.264003366232}
2019-04-14 17:06:28.51: SIM {TimeUS : 57735230, Roll : 2.67, Pitch : -15.59, Yaw : 30.68, Alt : 49.2799987793, Lat : 49.2836127, Lng : -123.1149768, Q1 : 0.954345881939, Q2 : 0.0581439100206, Q3 : -0.124663695693, Q4 : 0.265145629644}
2019-04-14 17:06:28.61: SIM {TimeUS : 57835190, Roll : 2.17, Pitch : -15.66, Yaw : 31.33, Alt : 49.2799987793, Lat : 49.2836151, Lng : -123.1149743, Q1 : 0.952990233898, Q2 : 0.0549056977034, Q3 : -0.126066714525, Q4 : 0.270004123449}
2019-04-14 17:06:28.71: SIM {TimeUS : 57935150, Roll : 1.52, Pitch : -15.78, Yaw : 32.31, Alt : 49.2799987793, Lat : 49.2836174, Lng : -123.1149718, Q1 : 0.950811386108, Q2 : 0.0508803911507, Q3 : -0.128213822842, Q4 : 0.277362793684}
2019-04-14 17:06:28.81: SIM {TimeUS : 58035110, Roll : 0.8, Pitch : -15.93, Yaw : 33.45, Alt : 49.2799987793, Lat : 49.2836197, Lng : -123.1149691, Q1 : 0.948135972023, Q2 : 0.0465864464641, Q3 : -0.13076171279, Q4 : 0.285953402519}
2019-04-14 17:06:28.91: SIM {TimeUS : 58135070, Roll : 0.1, Pitch : -16.08, Yaw : 34.6, Alt : 49.2799987793, Lat : 49.2836223, Lng : -123.1149665, Q1 : 0.945316672325, Q2 : 0.0424761101604, Q3 : -0.133346050978, Q4 : 0.294603079557}
2019-04-14 17:06:29.01: SIM {TimeUS : 58235030, Roll : -0.5, Pitch : -16.19, Yaw : 35.63, Alt : 49.2799987793, Lat : 49.2836248, Lng : -123.1149637, Q1 : 0.94271928072, Q2 : 0.0389426536858, Q3 : -0.135424748063, Q4 : 0.302363932133}
2019-04-14 17:06:29.11: SIM {TimeUS : 58334990, Roll : -0.94, Pitch : -16.24, Yaw : 36.45, Alt : 49.2799987793, Lat : 49.2836273, Lng : -123.1149609, Q1 : 0.940608859062, Q2 : 0.0364565700293, Q3 : -0.136783197522, Q4 : 0.308571279049}
2019-04-14 17:06:29.21: SIM {TimeUS : 58434950, Roll : -1.21, Pitch : -16.27, Yaw : 37.01, Alt : 49.2799987793, Lat : 49.2836299, Lng : -123.1149581, Q1 : 0.939152419567, Q2 : 0.0349914133549, Q3 : -0.137578174472, Q4 : 0.31279489398}
2019-04-14 17:06:29.31: SIM {TimeUS : 58534910, Roll : -1.29, Pitch : -16.3, Yaw : 37.29, Alt : 49.2799987793, Lat : 49.2836324, Lng : -123.1149553, Q1 : 0.938393592834, Q2 : 0.034718491137, Q3 : -0.137932389975, Q4 : 0.31493923068}
2019-04-14 17:06:29.41: SIM {TimeUS : 58634870, Roll : -1.2, Pitch : -16.31, Yaw : 37.3, Alt : 49.2799987793, Lat : 49.2836352, Lng : -123.1149524, Q1 : 0.938319563866, Q2 : 0.0355366952717, Q3 : -0.137764111161, Q4 : 0.315142303705}
2019-04-14 17:06:29.51: SIM {TimeUS : 58734830, Roll : -0.99, Pitch : -16.32, Yaw : 37.09, Alt : 49.2799987793, Lat : 49.2836378, Lng : -123.1149495, Q1 : 0.938806712627, Q2 : 0.0370328985155, Q3 : -0.137374177575, Q4 : 0.313685923815}
2019-04-14 17:06:29.61: SIM {TimeUS : 58834790, Roll : -0.73, Pitch : -16.37, Yaw : 36.72, Alt : 49.2799987793, Lat : 49.2836407, Lng : -123.1149466, Q1 : 0.939664959908, Q2 : 0.0388593040407, Q3 : -0.137140020728, Q4 : 0.310985982418}
2019-04-14 17:06:29.71: SIM {TimeUS : 58934750, Roll : -0.44, Pitch : -16.44, Yaw : 36.27, Alt : 49.2799987793, Lat : 49.2836434, Lng : -123.1149437, Q1 : 0.940718948841, Q2 : 0.0408548749983, Q3 : -0.13708782196, Q4 : 0.307547748089}
2019-04-14 17:06:29.81: SIM {TimeUS : 59034710, Roll : -0.16, Pitch : -16.53, Yaw : 35.78, Alt : 49.2799987793, Lat : 49.2836463, Lng : -123.1149407, Q1 : 0.941806554794, Q2 : 0.0428367815912, Q3 : -0.13723026216, Q4 : 0.303863942623}
2019-04-14 17:06:29.91: SIM {TimeUS : 59134670, Roll : 0.08, Pitch : -16.6, Yaw : 35.33, Alt : 49.2900009155, Lat : 49.2836492, Lng : -123.1149376, Q1 : 0.942830860615, Q2 : 0.044508934021, Q3 : -0.137331783772, Q4 : 0.300381213427}
2019-04-14 17:06:30.01: SIM {TimeUS : 59234630, Roll : 0.28, Pitch : -16.65, Yaw : 34.94, Alt : 49.2900009155, Lat : 49.2836519, Lng : -123.1149346, Q1 : 0.943683087826, Q2 : 0.0458768941462, Q3 : -0.137415453792, Q4 : 0.297446787357}
2019-04-14 17:06:30.12: SIM {TimeUS : 59335423, Roll : 0.44, Pitch : -16.69, Yaw : 34.66, Alt : 49.2900009155, Lat : 49.2836549, Lng : -123.1149315, Q1 : 0.944310605526, Q2 : 0.0469120666385, Q3 : -0.137461766601, Q4 : 0.295264303684}
2019-04-14 17:06:30.21: SIM {TimeUS : 59435383, Roll : 0.52, Pitch : -16.72, Yaw : 34.49, Alt : 49.2900009155, Lat : 49.2836578, Lng : -123.1149283, Q1 : 0.944678068161, Q2 : 0.0474724248052, Q3 : -0.137573197484, Q4 : 0.29394441843}
2019-04-14 17:06:30.31: SIM {TimeUS : 59535343, Roll : 0.54, Pitch : -16.74, Yaw : 34.42, Alt : 49.2900009155, Lat : 49.2836608, Lng : -123.1149251, Q1 : 0.94480329752, Q2 : 0.0475852899253, Q3 : -0.137720778584, Q4 : 0.293454200029}
2019-04-14 17:06:30.41: SIM {TimeUS : 59635303, Roll : 0.51, Pitch : -16.77, Yaw : 34.46, Alt : 49.2900009155, Lat : 49.2836638, Lng : -123.114922, Q1 : 0.944697082043, Q2 : 0.0474597886205, Q3 : -0.137963831425, Q4 : 0.293702155352}
2019-04-14 17:06:30.51: SIM {TimeUS : 59735263, Roll : 0.43, Pitch : -16.79, Yaw : 34.57, Alt : 49.2900009155, Lat : 49.2836668, Lng : -123.1149187, Q1 : 0.94441986084, Q2 : 0.0469731986523, Q3 : -0.13831153512, Q4 : 0.294507354498}
2019-04-14 17:06:30.61: SIM {TimeUS : 59835223, Roll : 0.31, Pitch : -16.82, Yaw : 34.73, Alt : 49.2900009155, Lat : 49.2836698, Lng : -123.1149155, Q1 : 0.944026589394, Q2 : 0.0462593957782, Q3 : -0.138778343797, Q4 : 0.295659303665}
2019-04-14 17:06:30.71: SIM {TimeUS : 59935183, Roll : 0.18, Pitch : -16.85, Yaw : 34.91, Alt : 49.2900009155, Lat : 49.2836728, Lng : -123.1149122, Q1 : 0.943573534489, Q2 : 0.0454696305096, Q3 : -0.13934135437, Q4 : 0.296960443258}
2019-04-14 17:06:30.81: SIM {TimeUS : 60035143, Roll : 0.04, Pitch : -16.9, Yaw : 35.08, Alt : 49.2900009155, Lat : 49.2836759, Lng : -123.1149089, Q1 : 0.94310849905, Q2 : 0.0446984693408, Q3 : -0.140033975244, Q4 : 0.298226237297}
2019-04-14 17:06:30.91: SIM {TimeUS : 60135103, Roll : -0.07, Pitch : -16.94, Yaw : 35.24, Alt : 49.2900009155, Lat : 49.2836789, Lng : -123.1149056, Q1 : 0.942706465721, Q2 : 0.0439550355077, Q3 : -0.140668034554, Q4 : 0.299307525158}
2019-04-14 17:06:31.01: SIM {TimeUS : 60235063, Roll : -0.18, Pitch : -16.98, Yaw : 35.35, Alt : 49.2900009155, Lat : 49.283682, Lng : -123.1149022, Q1 : 0.942408680916, Q2 : 0.0433414615691, Q3 : -0.141149565578, Q4 : 0.300107061863}
2019-04-14 17:06:31.11: SIM {TimeUS : 60335023, Roll : -0.25, Pitch : -17.01, Yaw : 35.42, Alt : 49.2999992371, Lat : 49.2836851, Lng : -123.1148988, Q1 : 0.94222587347, Q2 : 0.042909104377, Q3 : -0.141553282738, Q4 : 0.30055257678}
2019-04-14 17:06:31.21: SIM {TimeUS : 60434983, Roll : -0.26, Pitch : -17.04, Yaw : 35.43, Alt : 49.2999992371, Lat : 49.2836882, Lng : -123.1148955, Q1 : 0.942138314247, Q2 : 0.0429398491979, Q3 : -0.141888365149, Q4 : 0.300664693117}
2019-04-14 17:06:31.31: SIM {TimeUS : 60534943, Roll : -0.22, Pitch : -17.08, Yaw : 35.4, Alt : 49.2999992371, Lat : 49.2836913, Lng : -123.1148921, Q1 : 0.942156493664, Q2 : 0.043286010623, Q3 : -0.142105773091, Q4 : 0.300455361605}
2019-04-14 17:06:31.41: SIM {TimeUS : 60634903, Roll : -0.15, Pitch : -17.12, Yaw : 35.34, Alt : 49.2999992371, Lat : 49.2836944, Lng : -123.1148887, Q1 : 0.942248880863, Q2 : 0.043905466795, Q3 : -0.142258256674, Q4 : 0.300003170967}
2019-04-14 17:06:31.51: SIM {TimeUS : 60734863, Roll : -0.06, Pitch : -17.16, Yaw : 35.25, Alt : 49.2999992371, Lat : 49.2836977, Lng : -123.1148852, Q1 : 0.942382931709, Q2 : 0.0446729250252, Q3 : -0.142419055104, Q4 : 0.299391955137}
2019-04-14 17:06:31.61: SIM {TimeUS : 60834823, Roll : 0.02, Pitch : -17.2, Yaw : 35.16, Alt : 49.2999992371, Lat : 49.2837009, Lng : -123.1148818, Q1 : 0.942559182644, Q2 : 0.0453458949924, Q3 : -0.142528817058, Q4 : 0.29868298769}
2019-04-14 17:06:31.71: SIM {TimeUS : 60934783, Roll : 0.08, Pitch : -17.22, Yaw : 35.06, Alt : 49.2999992371, Lat : 49.283704, Lng : -123.1148783, Q1 : 0.942759752274, Q2 : 0.0457781106234, Q3 : -0.142609581351, Q4 : 0.297944456339}
2019-04-14 17:06:31.81: SIM {TimeUS : 61034743, Roll : 0.11, Pitch : -17.23, Yaw : 34.97, Alt : 49.2999992371, Lat : 49.2837072, Lng : -123.1148749, Q1 : 0.942968010902, Q2 : 0.0459357574582, Q3 : -0.142635345459, Q4 : 0.297248095274}
2019-04-14 17:06:31.91: SIM {TimeUS : 61134703, Roll : 0.13, Pitch : -17.23, Yaw : 34.9, Alt : 49.2999992371, Lat : 49.2837105, Lng : -123.1148714, Q1 : 0.943149924278, Q2 : 0.0460702888668, Q3 : -0.142585933208, Q4 : 0.296673327684}
2019-04-14 17:06:32.01: SIM {TimeUS : 61234663, Roll : 0.15, Pitch : -17.24, Yaw : 34.84, Alt : 49.3100013733, Lat : 49.2837137, Lng : -123.1148679, Q1 : 0.943274021149, Q2 : 0.0462043881416, Q3 : -0.142662882805, Q4 : 0.296220541}
2019-04-14 17:06:32.11: SIM {TimeUS : 61334623, Roll : 0.19, Pitch : -17.28, Yaw : 34.8, Alt : 49.3100013733, Lat : 49.2837169, Lng : -123.1148643, Q1 : 0.943311154842, Q2 : 0.0465160682797, Q3 : -0.142910599709, Q4 : 0.295933991671}
2019-04-14 17:06:32.22: SIM {TimeUS : 61435416, Roll : 0.21, Pitch : -17.34, Yaw : 34.78, Alt : 49.3100013733, Lat : 49.2837203, Lng : -123.1148608, Q1 : 0.943279445171, Q2 : 0.0468401499093, Q3 : -0.143314599991, Q4 : 0.295788526535}
2019-04-14 17:06:32.31: SIM {TimeUS : 61535376, Roll : 0.21, Pitch : -17.36, Yaw : 34.78, Alt : 49.3100013733, Lat : 49.2837235, Lng : -123.1148573, Q1 : 0.943249821663, Q2 : 0.0469293892384, Q3 : -0.14353440702, Q4 : 0.295762181282}
2019-04-14 17:06:32.41: SIM {TimeUS : 61635336, Roll : 0.2, Pitch : -17.36, Yaw : 34.79, Alt : 49.3100013733, Lat : 49.2837267, Lng : -123.1148537, Q1 : 0.943230032921, Q2 : 0.046845830977, Q3 : -0.143558561802, Q4 : 0.295826792717}
2019-04-14 17:06:32.51: SIM {TimeUS : 61735296, Roll : 0.18, Pitch : -17.37, Yaw : 34.81, Alt : 49.3100013733, Lat : 49.2837301, Lng : -123.1148502, Q1 : 0.943189442158, Q2 : 0.0466966740787, Q3 : -0.143644824624, Q4 : 0.295938014984}
2019-04-14 17:06:32.61: SIM {TimeUS : 61835256, Roll : 0.14, Pitch : -17.39, Yaw : 34.83, Alt : 49.3100013733, Lat : 49.2837333, Lng : -123.1148466, Q1 : 0.943126142025, Q2 : 0.0464877039194, Q3 : -0.143913537264, Q4 : 0.296041935682}
2019-04-14 17:06:32.71: SIM {TimeUS : 61935216, Roll : 0.12, Pitch : -17.42, Yaw : 34.84, Alt : 49.3100013733, Lat : 49.2837367, Lng : -123.114843, Q1 : 0.943059921265, Q2 : 0.0463804081082, Q3 : -0.144178286195, Q4 : 0.296141058207}
2019-04-14 17:06:32.81: SIM {TimeUS : 62035176, Roll : 0.1, Pitch : -17.45, Yaw : 34.85, Alt : 49.3100013733, Lat : 49.2837399, Lng : -123.1148394, Q1 : 0.942993462086, Q2 : 0.0463187582791, Q3 : -0.144529849291, Q4 : 0.296190947294}
2019-04-14 17:06:32.91: SIM {TimeUS : 62135136, Roll : 0.09, Pitch : -17.48, Yaw : 34.86, Alt : 49.3100013733, Lat : 49.2837434, Lng : -123.1148358, Q1 : 0.942957341671, Q2 : 0.0462782531977, Q3 : -0.144776433706, Q4 : 0.296191871166}
2019-04-14 17:06:33.01: SIM {TimeUS : 62235096, Roll : 0.09, Pitch : -17.5, Yaw : 34.85, Alt : 49.3100013733, Lat : 49.2837466, Lng : -123.1148322, Q1 : 0.942936241627, Q2 : 0.0463498421013, Q3 : -0.144944489002, Q4 : 0.296165555716}
2019-04-14 17:06:33.11: SIM {TimeUS : 62335056, Roll : 0.1, Pitch : -17.51, Yaw : 34.85, Alt : 49.3199996948, Lat : 49.28375, Lng : -123.1148286, Q1 : 0.94293743372, Q2 : 0.0464315228164, Q3 : -0.145039647818, Q4 : 0.296102404594}
2019-04-14 17:06:33.21: SIM {TimeUS : 62435016, Roll : 0.11, Pitch : -17.53, Yaw : 34.83, Alt : 49.3199996948, Lat : 49.2837533, Lng : -123.1148248, Q1 : 0.942949712276, Q2 : 0.0465950928628, Q3 : -0.145118102431, Q4 : 0.295999109745}
2019-04-14 17:06:33.31: SIM {TimeUS : 62534976, Roll : 0.13, Pitch : -17.56, Yaw : 34.81, Alt : 49.3199996948, Lat : 49.2837568, Lng : -123.1148213, Q1 : 0.942959189415, Q2 : 0.0468107461929, Q3 : -0.14530660212, Q4 : 0.295842379332}
2019-04-14 17:06:33.41: SIM {TimeUS : 62634936, Roll : 0.14, Pitch : -17.6, Yaw : 34.78, Alt : 49.3199996948, Lat : 49.28376, Lng : -123.1148177, Q1 : 0.942976415157, Q2 : 0.046927973628, Q3 : -0.145618364215, Q4 : 0.295615643263}
2019-04-14 17:06:33.51: SIM {TimeUS : 62734896, Roll : 0.13, Pitch : -17.64, Yaw : 34.76, Alt : 49.3199996948, Lat : 49.2837635, Lng : -123.114814, Q1 : 0.943003118038, Q2 : 0.0469026342034, Q3 : -0.145991757512, Q4 : 0.295350015163}
2019-04-14 17:06:33.61: SIM {TimeUS : 62834856, Roll : 0.12, Pitch : -17.68, Yaw : 34.73, Alt : 49.3199996948, Lat : 49.2837668, Lng : -123.1148104, Q1 : 0.943030416965, Q2 : 0.0468993000686, Q3 : -0.14637427032, Q4 : 0.295073956251}
2019-04-14 17:06:33.71: SIM {TimeUS : 62934816, Roll : 0.13, Pitch : -17.7, Yaw : 34.7, Alt : 49.3199996948, Lat : 49.2837703, Lng : -123.1148067, Q1 : 0.943067669868, Q2 : 0.0470491237938, Q3 : -0.146559074521, Q4 : 0.294839262962}
2019-04-14 17:06:33.81: SIM {TimeUS : 63034776, Roll : 0.15, Pitch : -17.7, Yaw : 34.67, Alt : 49.3199996948, Lat : 49.2837737, Lng : -123.114803, Q1 : 0.943128108978, Q2 : 0.047174423933, Q3 : -0.146529495716, Q4 : 0.294640600681}
2019-04-14 17:06:33.91: SIM {TimeUS : 63134736, Roll : 0.17, Pitch : -17.69, Yaw : 34.64, Alt : 49.3199996948, Lat : 49.283777, Lng : -123.1147993, Q1 : 0.94320744276, Q2 : 0.0472459718585, Q3 : -0.1463419348, Q4 : 0.294468253851}
2019-04-14 17:06:34.01: SIM {TimeUS : 63234696, Roll : 0.17, Pitch : -17.67, Yaw : 34.62, Alt : 49.3199996948, Lat : 49.2837805, Lng : -123.1147956, Q1 : 0.943279385567, Q2 : 0.0471846014261, Q3 : -0.146227240562, Q4 : 0.294304698706}
2019-04-14 17:06:34.11: SIM {TimeUS : 63334656, Roll : 0.17, Pitch : -17.66, Yaw : 34.61, Alt : 49.3199996948, Lat : 49.2837838, Lng : -123.1147919, Q1 : 0.9433401227, Q2 : 0.0471283532679, Q3 : -0.146140068769, Q4 : 0.294162243605}
2019-04-14 17:06:34.21: SIM {TimeUS : 63434616, Roll : 0.17, Pitch : -17.65, Yaw : 34.59, Alt : 49.3199996948, Lat : 49.2837873, Lng : -123.1147882, Q1 : 0.943390250206, Q2 : 0.0470745302737, Q3 : -0.14606334269, Q4 : 0.294048160315}
2019-04-14 17:06:34.31: SIM {TimeUS : 63535409, Roll : 0.17, Pitch : -17.67, Yaw : 34.58, Alt : 49.3199996948, Lat : 49.2837908, Lng : -123.1147845, Q1 : 0.943398535252, Q2 : 0.0470673255622, Q3 : -0.146215453744, Q4 : 0.293947190046}
2019-04-14 17:06:34.41: SIM {TimeUS : 63635369, Roll : 0.16, Pitch : -17.7, Yaw : 34.57, Alt : 49.3199996948, Lat : 49.2837942, Lng : -123.1147807, Q1 : 0.943378925323, Q2 : 0.047120090574, Q3 : -0.146502122283, Q4 : 0.293859004974}
2019-04-14 17:06:34.51: SIM {TimeUS : 63735329, Roll : 0.15, Pitch : -17.75, Yaw : 34.57, Alt : 49.3199996948, Lat : 49.2837977, Lng : -123.114777, Q1 : 0.943330049515, Q2 : 0.0471513792872, Q3 : -0.146977782249, Q4 : 0.293773144484}
2019-04-14 17:06:34.61: SIM {TimeUS : 63835289, Roll : 0.15, Pitch : -17.81, Yaw : 34.56, Alt : 49.3300018311, Lat : 49.2838012, Lng : -123.1147733, Q1 : 0.943273901939, Q2 : 0.0472428798676, Q3 : -0.14745645225, Q4 : 0.29369905591}
2019-04-14 17:06:34.71: SIM {TimeUS : 63935249, Roll : 0.15, Pitch : -17.84, Yaw : 34.56, Alt : 49.3300018311, Lat : 49.2838045, Lng : -123.1147695, Q1 : 0.943240582943, Q2 : 0.0473590381444, Q3 : -0.147730603814, Q4 : 0.293649494648}
2019-04-14 17:06:34.81: SIM {TimeUS : 64035209, Roll : 0.15, Pitch : -17.87, Yaw : 34.55, Alt : 49.3300018311, Lat : 49.283808, Lng : -123.1147658, Q1 : 0.943224072456, Q2 : 0.047403767705, Q3 : -0.147946551442, Q4 : 0.29358664155}
2019-04-14 17:06:34.91: SIM {TimeUS : 64135169, Roll : 0.14, Pitch : -17.88, Yaw : 34.54, Alt : 49.3300018311, Lat : 49.2838116, Lng : -123.114762, Q1 : 0.943228721619, Q2 : 0.0473775267601, Q3 : -0.14806778729, Q4 : 0.293514877558}
2019-04-14 17:06:35.01: SIM {TimeUS : 64235129, Roll : 0.16, Pitch : -17.87, Yaw : 34.53, Alt : 49.3300018311, Lat : 49.283815, Lng : -123.1147583, Q1 : 0.943260908127, Q2 : 0.0474401526153, Q3 : -0.14793202281, Q4 : 0.293469578028}
2019-04-14 17:06:35.11: SIM {TimeUS : 64335089, Roll : 0.18, Pitch : -17.87, Yaw : 34.52, Alt : 49.3300018311, Lat : 49.2838184, Lng : -123.1147545, Q1 : 0.943273484707, Q2 : 0.0476279519498, Q3 : -0.147909253836, Q4 : 0.293410211802}
2019-04-14 17:06:35.21: SIM {TimeUS : 64435049, Roll : 0.19, Pitch : -17.89, Yaw : 34.51, Alt : 49.3300018311, Lat : 49.283822, Lng : -123.1147508, Q1 : 0.943279862404, Q2 : 0.0477643460035, Q3 : -0.147989928722, Q4 : 0.293326824903}
2019-04-14 17:06:35.31: SIM {TimeUS : 64535009, Roll : 0.2, Pitch : -17.9, Yaw : 34.5, Alt : 49.3300018311, Lat : 49.2838255, Lng : -123.114747, Q1 : 0.943292319775, Q2 : 0.0478532388806, Q3 : -0.148056924343, Q4 : 0.293238610029}
2019-04-14 17:06:35.41: SIM {TimeUS : 64634969, Roll : 0.21, Pitch : -17.89, Yaw : 34.49, Alt : 49.3300018311, Lat : 49.283829, Lng : -123.1147432, Q1 : 0.943329572678, Q2 : 0.0478774569929, Q3 : -0.148001432419, Q4 : 0.293142676353}
2019-04-14 17:06:35.51: SIM {TimeUS : 64734929, Roll : 0.21, Pitch : -17.89, Yaw : 34.47, Alt : 49.3300018311, Lat : 49.2838324, Lng : -123.1147395, Q1 : 0.943362057209, Q2 : 0.0478505194187, Q3 : -0.148034989834, Q4 : 0.293025612831}
2019-04-14 17:06:35.61: SIM {TimeUS : 64834889, Roll : 0.19, Pitch : -17.91, Yaw : 34.46, Alt : 49.3300018311, Lat : 49.283836, Lng : -123.1147357, Q1 : 0.943380236626, Q2 : 0.0477292090654, Q3 : -0.148250296712, Q4 : 0.292878061533}
2019-04-14 17:06:35.71: SIM {TimeUS : 64934849, Roll : 0.16, Pitch : -17.95, Yaw : 34.45, Alt : 49.3300018311, Lat : 49.2838395, Lng : -123.1147319, Q1 : 0.943376421928, Q2 : 0.047563329339, Q3 : -0.148652479053, Q4 : 0.29271325469}
2019-04-14 17:06:35.81: SIM {TimeUS : 65034809, Roll : 0.15, Pitch : -17.96, Yaw : 34.43, Alt : 49.3300018311, Lat : 49.283843, Lng : -123.1147281, Q1 : 0.943402528763, Q2 : 0.0474748685956, Q3 : -0.148757353425, Q4 : 0.29259032011}
2019-04-14 17:06:35.91: SIM {TimeUS : 65134769, Roll : 0.16, Pitch : -17.95, Yaw : 34.42, Alt : 49.3300018311, Lat : 49.2838464, Lng : -123.1147243, Q1 : 0.943439662457, Q2 : 0.0475325547159, Q3 : -0.148657083511, Q4 : 0.292512118816}
2019-04-14 17:06:36.01: SIM {TimeUS : 65234729, Roll : 0.18, Pitch : -17.94, Yaw : 34.41, Alt : 49.3300018311, Lat : 49.28385, Lng : -123.1147205, Q1 : 0.943470716476, Q2 : 0.0476710945368, Q3 : -0.148543551564, Q4 : 0.292447149754}
2019-04-14 17:06:36.11: SIM {TimeUS : 65334689, Roll : 0.19, Pitch : -17.95, Yaw : 34.4, Alt : 49.3400001526, Lat : 49.2838536, Lng : -123.1147167, Q1 : 0.943484485149, Q2 : 0.047788169235, Q3 : -0.148576959968, Q4 : 0.292366683483}
2019-04-14 17:06:36.21: SIM {TimeUS : 65434649, Roll : 0.18, Pitch : -17.97, Yaw : 34.39, Alt : 49.3400001526, Lat : 49.2838571, Lng : -123.1147129, Q1 : 0.9434902668, Q2 : 0.0477399155498, Q3 : -0.14876139164, Q4 : 0.29226192832}
2019-04-14 17:06:36.32: SIM {TimeUS : 65535442, Roll : 0.16, Pitch : -17.99, Yaw : 34.38, Alt : 49.3400001526, Lat : 49.2838607, Lng : -123.1147091, Q1 : 0.943498790264, Q2 : 0.0475671999156, Q3 : -0.148991718888, Q4 : 0.292145192623}
2019-04-14 17:06:36.41: SIM {TimeUS : 65635402, Roll : 0.15, Pitch : -18.01, Yaw : 34.37, Alt : 49.3400001526, Lat : 49.2838641, Lng : -123.1147052, Q1 : 0.943508386612, Q2 : 0.0474913194776, Q3 : -0.149149477482, Q4 : 0.292046070099}
2019-04-14 17:06:36.51: SIM {TimeUS : 65735362, Roll : 0.15, Pitch : -18.02, Yaw : 34.36, Alt : 49.3400001526, Lat : 49.2838677, Lng : -123.1147014, Q1 : 0.943516075611, Q2 : 0.0475634150207, Q3 : -0.14924004674, Q4 : 0.291963279247}
2019-04-14 17:06:36.61: SIM {TimeUS : 65835322, Roll : 0.16, Pitch : -18.03, Yaw : 34.35, Alt : 49.3400001526, Lat : 49.2838713, Lng : -123.1146976, Q1 : 0.943525493145, Q2 : 0.0476628467441, Q3 : -0.1492934376, Q4 : 0.291889488697}
2019-04-14 17:06:36.71: SIM {TimeUS : 65935282, Roll : 0.18, Pitch : -18.04, Yaw : 34.34, Alt : 49.3400001526, Lat : 49.2838748, Lng : -123.1146938, Q1 : 0.943519294262, Q2 : 0.0478591620922, Q3 : -0.149358555675, Q4 : 0.291843920946}
2019-04-14 17:06:36.81: SIM {TimeUS : 66035242, Roll : 0.19, Pitch : -18.06, Yaw : 34.33, Alt : 49.3400001526, Lat : 49.2838784, Lng : -123.11469, Q1 : 0.943504452705, Q2 : 0.0479831434786, Q3 : -0.149518191814, Q4 : 0.291789770126}
2019-04-14 17:06:36.91: SIM {TimeUS : 66135202, Roll : 0.2, Pitch : -18.09, Yaw : 34.33, Alt : 49.3400001526, Lat : 49.2838819, Lng : -123.1146862, Q1 : 0.94348436594, Q2 : 0.0481133721769, Q3 : -0.149708971381, Q4 : 0.291735589504}
2019-04-14 17:06:37.01: SIM {TimeUS : 66235162, Roll : 0.21, Pitch : -18.11, Yaw : 34.32, Alt : 49.3400001526, Lat : 49.2838854, Lng : -123.1146823, Q1 : 0.943465948105, Q2 : 0.0482653900981, Q3 : -0.149867981672, Q4 : 0.291688352823}
2019-04-14 17:06:37.11: SIM {TimeUS : 66335122, Roll : 0.24, Pitch : -18.12, Yaw : 34.31, Alt : 49.3400001526, Lat : 49.283889, Lng : -123.1146785, Q1 : 0.943454623222, Q2 : 0.0485088378191, Q3 : -0.14989630878, Q4 : 0.291670024395}
2019-04-14 17:06:37.21: SIM {TimeUS : 66435082, Roll : 0.28, Pitch : -18.13, Yaw : 34.31, Alt : 49.3400001526, Lat : 49.2838925, Lng : -123.1146747, Q1 : 0.943442106247, Q2 : 0.048804871738, Q3 : -0.149888604879, Q4 : 0.291665166616}
