2019-04-14 17:36:27.70: SIM {TimeUS : 40716207, Roll : 0.0, Pitch : 0.0, Yaw : 0.0, Alt : 30.1000003815, Lat : 49.28357, Lng : -123.11502, Q1 : 1.0, Q2 : 0.0, Q3 : 0.0, Q4 : 0.0}
2019-04-14 17:36:27.81: SIM {TimeUS : 40835326, Roll : 0.0, Pitch : 0.0, Yaw : 0.0, Alt : 30.1000003815, Lat : 49.28357, Lng : -123.11502, Q1 : 1.0, Q2 : 0.0, Q3 : 0.0, Q4 : 0.0}
2019-04-14 17:36:27.91: SIM {TimeUS : 40935286, Roll : 0.0, Pitch : 0.0, Yaw : 0.0, Alt : 30.1000003815, Lat : 49.28357, Lng : -123.11502, Q1 : 1.0, Q2 : 0.0, Q3 : 0.0, Q4 : 0.0}
2019-04-14 17:36:28.01: SIM {TimeUS : 41035246, Roll : 0.0, Pitch : 0.0, Yaw : 0.0, Alt : 30.1000003815, Lat : 49.28357, Lng : -123.11502, Q1 : 1.0, Q2 : 0.0, Q3 : 0.0, Q4 : 0.0}
2019-04-14 17:36:28.11: SIM {TimeUS : 41135206, Roll : 0.0, Pitch : 0.0, Yaw : 0.0, Alt : 30.1000003815, Lat : 49.28357, Lng : -123.11502, Q1 : 1.0, Q2 : 0.0, Q3 : 0.0, Q4 : 0.0}
2019-04-14 17:36:28.21: SIM {TimeUS : 41235166, Roll : 0.0, Pitch : 0.0, Yaw : 0.0, Alt : 30.1000003815, Lat : 49.28357, Lng : -123.11502, Q1 : 1.0, Q2 : 0.0, Q3 : 0.0, Q4 : 0.0}
2019-04-14 17:36:28.31: SIM {TimeUS : 41335126, Roll : 0.0, Pitch : 0.0, Yaw : 0.0, Alt : 30.1000003815, Lat : 49.28357, Lng : -123.11502, Q1 : 1.0, Q2 : 0.0, Q3 : 0.0, Q4 : 0.0}
2019-04-14 17:36:28.41: SIM {TimeUS : 41435086, Roll : 0.0, Pitch : 0.0, Yaw : 0.0, Alt : 30.1000003815, Lat : 49.28357, Lng : -123.11502, Q1 : 1.0, Q2 : 0.0, Q3 : 0.0, Q4 : 0.0}
2019-04-14 17:36:28.51: SIM {TimeUS : 41535046, Roll : 0.0, Pitch : 0.0, Yaw : 0.0, Alt : 30.1000003815, Lat : 49.28357, Lng : -123.11502, Q1 : 1.0, Q2 : 0.0, Q3 : 0.0, Q4 : 0.0}
2019-04-14 17:36:28.61: SIM {TimeUS : 41635006, Roll : 0.0, Pitch : 0.0, Yaw : 0.0, Alt : 30.1000003815, Lat : 49.28357, Lng : -123.11502, Q1 : 1.0, Q2 : 0.0, Q3 : 0.0, Q4 : 0.0}
2019-04-14 17:36:28.71: SIM {TimeUS : 41734966, Roll : 0.0, Pitch : 0.0, Yaw : 0.0, Alt : 30.1000003815, Lat : 49.28357, Lng : -123.11502, Q1 : 1.0, Q2 : 0.0, Q3 : 0.0, Q4 : 0.0}
2019-04-14 17:36:28.81: SIM {TimeUS : 41834926, Roll : 0.0, Pitch : 0.0, Yaw : 0.0, Alt : 30.1000003815, Lat : 49.28357, Lng : -123.11502, Q1 : 1.0, Q2 : 0.0, Q3 : 0.0, Q4 : 0.0}
2019-04-14 17:36:28.91: SIM {TimeUS : 41934886, Roll : 0.0, Pitch : 0.0, Yaw : 0.0, Alt : 30.1000003815, Lat : 49.28357, Lng : -123.11502, Q1 : 1.0, Q2 : 0.0, Q3 : 0.0, Q4 : 0.0}
2019-04-14 17:36:29.01: SIM {TimeUS : 42034846, Roll : 0.0, Pitch : 0.0, Yaw : 0.0, Alt : 30.1000003815, Lat : 49.28357, Lng : -123.11502, Q1 : 1.0, Q2 : 0.0, Q3 : 0.0, Q4 : 0.0}
2019-04-14 17:36:29.11: SIM {TimeUS : 42134806, Roll : 0.0, Pitch : 0.0, Yaw : 0.0, Alt : 30.1000003815, Lat : 49.28357, Lng : -123.11502, Q1 : 1.0, Q2 : 0.0, Q3 : 0.0, Q4 : 0.0}
2019-04-14 17:36:29.21: SIM {TimeUS : 42234766, Roll : 0.0, Pitch : 0.0, Yaw : 0.0, Alt : 30.1000003815, Lat : 49.28357, Lng : -123.11502, Q1 : 1.0, Q2 : 0.0, Q3 : 0.0, Q4 : 0.0}
2019-04-14 17:36:29.31: SIM {TimeUS : 42334726, Roll : 0.0, Pitch : 0.0, Yaw : 0.0, Alt : 30.1000003815, Lat : 49.28357, Lng : -123.11502, Q1 : 1.0, Q2 : 0.0, Q3 : 0.0, Q4 : 0.0}
2019-04-14 17:36:29.41: SIM {TimeUS : 42434686, Roll : 0.0, Pitch : 0.0, Yaw : 0.0, Alt : 30.1000003815, Lat : 49.28357, Lng : -123.11502, Q1 : 1.0, Q2 : 0.0, Q3 : 0.0, Q4 : 0.0}
2019-04-14 17:36:29.51: SIM {TimeUS : 42534646, Roll : 0.0, Pitch : 0.0, Yaw : 0.0, Alt : 30.1000003815, Lat : 49.28357, Lng : -123.11502, Q1 : 1.0, Q2 : 0.0, Q3 : 0.0, Q4 : 0.0}
2019-04-14 17:36:29.61: SIM {TimeUS : 42634606, Roll : 0.0, Pitch : 0.0, Yaw : 0.0, Alt : 30.1000003815, Lat : 49.28357, Lng : -123.11502, Q1 : 1.0, Q2 : 0.0, Q3 : 0.0, Q4 : 0.0}
2019-04-14 17:36:29.71: SIM {TimeUS : 42734566, Roll : 0.0, Pitch : 0.0, Yaw : 0.0, Alt : 30.1000003815, Lat : 49.28357, Lng : -123.11502, Q1 : 1.0, Q2 : 0.0, Q3 : 0.0, Q4 : 0.0}
2019-04-14 17:36:29.82: SIM {TimeUS : 42835359, Roll : 0.0, Pitch : 0.0, Yaw : 0.0, Alt : 30.1000003815, Lat : 49.28357, Lng : -123.11502, Q1 : 1.0, Q2 : 0.0, Q3 : 0.0, Q4 : 0.0}
2019-04-14 17:36:29.91: SIM {TimeUS : 42935319, Roll : 0.0, Pitch : 0.0, Yaw : 0.0, Alt : 30.1000003815, Lat : 49.28357, Lng : -123.11502, Q1 : 1.0, Q2 : 0.0, Q3 : 0.0, Q4 : 0.0}
2019-04-14 17:36:30.01: SIM {TimeUS : 43035279, Roll : 0.0, Pitch : 0.0, Yaw : 360.0, Alt : 30.1000003815, Lat : 49.28357, Lng : -123.11502, Q1 : 1.0, Q2 : 0.0, Q3 : 0.0, Q4 : -1.2311567564e-11}
2019-04-14 17:36:30.11: SIM {TimeUS : 43135239, Roll : 0.0, Pitch : 0.0, Yaw : 0.0, Alt : 30.1000003815, Lat : 49.28357, Lng : -123.11502, Q1 : 1.0, Q2 : 0.0, Q3 : 0.0, Q4 : 5.47755590885e-12}
2019-04-14 17:36:30.21: SIM {TimeUS : 43235199, Roll : 0.0, Pitch : 0.0, Yaw : 360.0, Alt : 30.1000003815, Lat : 49.28357, Lng : -123.11502, Q1 : 1.0, Q2 : 0.0, Q3 : 0.0, Q4 : -1.20905085055e-07}
2019-04-14 17:36:30.31: SIM {TimeUS : 43335159, Roll : 0.0, Pitch : 0.0, Yaw : 359.99, Alt : 30.1000003815, Lat : 49.28357, Lng : -123.11502, Q1 : 1.0, Q2 : 0.0, Q3 : 0.0, Q4 : -2.4927777531e-07}
2019-04-14 17:36:30.41: SIM {TimeUS : 43435119, Roll : 0.0, Pitch : 0.0, Yaw : 359.99, Alt : 30.1000003815, Lat : 49.28357, Lng : -123.11502, Q1 : 1.0, Q2 : 0.0, Q3 : 0.0, Q4 : -4.47744213261e-07}
2019-04-14 17:36:30.51: SIM {TimeUS : 43535079, Roll : 0.0, Pitch : 0.0, Yaw : 359.99, Alt : 30.1000003815, Lat : 49.28357, Lng : -123.11502, Q1 : 1.0, Q2 : 0.0, Q3 : 0.0, Q4 : -6.60601358504e-07}
2019-04-14 17:36:30.61: SIM {TimeUS : 43635039, Roll : 0.0, Pitch : 0.0, Yaw : 359.99, Alt : 30.1000003815, Lat : 49.28357, Lng : -123.11502, Q1 : 1.0, Q2 : 0.0, Q3 : 0.0, Q4 : -8.62700744619e-07}
2019-04-14 17:36:30.71: SIM {TimeUS : 43734999, Roll : 0.0, Pitch : 0.0, Yaw : 359.99, Alt : 30.1000003815, Lat : 49.28357, Lng : -123.11502, Q1 : 1.0, Q2 : 0.0, Q3 : 0.0, Q4 : -1.01069542779e-06}
2019-04-14 17:36:30.81: SIM {TimeUS : 43834959, Roll : 0.0, Pitch : 0.0, Yaw : 359.99, Alt : 30.1000003815, Lat : 49.28357, Lng : -123.11502, Q1 : 1.0, Q2 : 0.0, Q3 : 0.0, Q4 : -1.21102755202e-06}
2019-04-14 17:36:30.91: SIM {TimeUS : 43934919, Roll : 0.0, Pitch : 0.0, Yaw : 359.99, Alt : 30.1100006104, Lat : 49.28357, Lng : -123.11502, Q1 : 1.0, Q2 : 0.0, Q3 : 0.0, Q4 : -1.41952580179e-06}
2019-04-14 17:36:31.01: SIM {TimeUS : 44034879, Roll : 0.0, Pitch : 0.0, Yaw : 359.99, Alt : 30.1399993896, Lat : 49.28357, Lng : -123.11502, Q1 : 1.0, Q2 : 0.0, Q3 : 0.0, Q4 : -1.6195660919e-06}
2019-04-14 17:36:31.11: SIM {TimeUS : 44134839, Roll : 0.0, Pitch : 0.0, Yaw : 359.99, Alt : 30.1700000763, Lat : 49.28357, Lng : -123.11502, Q1 : 1.0, Q2 : 0.0, Q3 : 0.0, Q4 : -1.87403463769e-06}
2019-04-14 17:36:31.21: SIM {TimeUS : 44234799, Roll : 0.0, Pitch : 0.0, Yaw : 359.99, Alt : 30.2000007629, Lat : 49.28357, Lng : -123.11502, Q1 : 1.0, Q2 : 0.0, Q3 : 0.0, Q4 : -2.10903613151e-06}
2019-04-14 17:36:31.31: SIM {TimeUS : 44334759, Roll : -0.09, Pitch : -0.08, Yaw : 359.99, Alt : 30.25, Lat : 49.28357, Lng : -123.11502, Q1 : 0.999999403954, Q2 : -0.000806122086942, Q3 : -0.000764776254073, Q4 : -7.58801343181e-06}
2019-04-14 17:36:31.41: SIM {TimeUS : 44434719, Roll : -0.35, Pitch : -0.35, Yaw : 359.99, Alt : 30.3400001526, Lat : 49.28357, Lng : -123.11502, Q1 : 0.999990344048, Q2 : -0.00311320903711, Q3 : -0.00310628232546, Q4 : -3.48560752172e-05}
2019-04-14 17:36:31.51: SIM {TimeUS : 44534679, Roll : -0.62, Pitch : -0.61, Yaw : 359.99, Alt : 30.4899997711, Lat : 49.28357, Lng : -123.11502, Q1 : 0.999970853329, Q2 : -0.00545048294589, Q3 : -0.00534742092714, Q4 : -8.86107663973e-05}
2019-04-14 17:36:31.61: SIM {TimeUS : 44634639, Roll : -0.79, Pitch : -0.74, Yaw : 359.98, Alt : 30.6499996185, Lat : 49.28357, Lng : -123.11502, Q1 : 0.999954581261, Q2 : -0.00695509184152, Q3 : -0.00651871738955, Q4 : -0.000160790601512}
2019-04-14 17:36:31.71: SIM {TimeUS : 44734599, Roll : -0.81, Pitch : -0.74, Yaw : 359.97, Alt : 30.7999992371, Lat : 49.28357, Lng : -123.11502, Q1 : 0.999953329563, Q2 : -0.00711611332372, Q3 : -0.00652956962585, Q4 : -0.000248247873969}
2019-04-14 17:36:31.81: SIM {TimeUS : 44834559, Roll : -0.69, Pitch : -0.63, Yaw : 359.96, Alt : 30.9599990845, Lat : 49.28357, Lng : -123.1150201, Q1 : 0.99996638298, Q2 : -0.00606508832425, Q3 : -0.00550941005349, Q4 : -0.000335398828611}
2019-04-14 17:36:31.92: SIM {TimeUS : 44935352, Roll : -0.48, Pitch : -0.44, Yaw : 359.95, Alt : 31.1100006104, Lat : 49.2835701, Lng : -123.1150202, Q1 : 0.999983549118, Q2 : -0.00424309587106, Q3 : -0.00383895379491, Q4 : -0.000413172179833}
2019-04-14 17:36:32.01: SIM {TimeUS : 45035312, Roll : -0.25, Pitch : -0.24, Yaw : 359.94, Alt : 31.2700004578, Lat : 49.2835701, Lng : -123.1150202, Q1 : 0.999995231628, Q2 : -0.00218496401794, Q3 : -0.00211454113014, Q4 : -0.000472731044283}
2019-04-14 17:36:32.11: SIM {TimeUS : 45135272, Roll : -0.04, Pitch : -0.08, Yaw : 359.94, Alt : 31.4400005341, Lat : 49.2835702, Lng : -123.1150203, Q1 : 0.999999523163, Q2 : -0.000417555012973, Q3 : -0.000705585931428, Q4 : -0.000515062129125}
2019-04-14 17:36:32.21: SIM {TimeUS : 45235232, Roll : 0.07, Pitch : 0.03, Yaw : 359.93, Alt : 31.6100006104, Lat : 49.2835702, Lng : -123.1150204, Q1 : 0.999999582767, Q2 : 0.000656197720673, Q3 : 0.000286112684989, Q4 : -0.000538791180588}
2019-04-14 17:36:32.31: SIM {TimeUS : 45335192, Roll : 0.1, Pitch : 0.09, Yaw : 359.93, Alt : 31.7900009155, Lat : 49.2835703, Lng : -123.1150205, Q1 : 0.999999046326, Q2 : 0.00094295135932, Q3 : 0.000852378085256, Q4 : -0.000537156185601}
2019-04-14 17:36:32.41: SIM {TimeUS : 45435152, Roll : 0.08, Pitch : 0.11, Yaw : 359.93, Alt : 31.9699993134, Lat : 49.2835703, Lng : -123.1150205, Q1 : 0.999999046326, Q2 : 0.000737923604902, Q3 : 0.00102881388739, Q4 : -0.000526779738721}
2019-04-14 17:36:32.51: SIM {TimeUS : 45535112, Roll : 0.07, Pitch : 0.11, Yaw : 359.94, Alt : 32.1599998474, Lat : 49.2835703, Lng : -123.1150206, Q1 : 0.99999910593, Q2 : 0.000615897821262, Q3 : 0.00104339350946, Q4 : -0.000506071955897}
2019-04-14 17:36:32.61: SIM {TimeUS : 45635072, Roll : 0.07, Pitch : 0.11, Yaw : 359.94, Alt : 32.3499984741, Lat : 49.2835703, Lng : -123.1150206, Q1 : 0.999999165535, Q2 : 0.000636225042399, Q3 : 0.0010130769806, Q4 : -0.000487893237732}
2019-04-14 17:36:32.71: SIM {TimeUS : 45735032, Roll : 0.08, Pitch : 0.11, Yaw : 359.94, Alt : 32.5400009155, Lat : 49.2835703, Lng : -123.1150207, Q1 : 0.99999910593, Q2 : 0.000742723641451, Q3 : 0.00102955673356, Q4 : -0.000474753469462}
2019-04-14 17:36:32.81: SIM {TimeUS : 45834992, Roll : 0.1, Pitch : 0.13, Yaw : 359.94, Alt : 32.7299995422, Lat : 49.2835703, Lng : -123.1150207, Q1 : 0.999998807907, Q2 : 0.000877067504916, Q3 : 0.00117504538503, Q4 : -0.000468025595183}
2019-04-14 17:36:32.91: SIM {TimeUS : 45934952, Roll : 0.12, Pitch : 0.14, Yaw : 359.94, Alt : 32.9300003052, Lat : 49.2835704, Lng : -123.1150207, Q1 : 0.999998569489, Q2 : 0.00105665496085, Q3 : 0.00122402142733, Q4 : -0.000460067589302}
2019-04-14 17:36:33.01: SIM {TimeUS : 46034912, Roll : 0.13, Pitch : 0.13, Yaw : 359.94, Alt : 33.1300010681, Lat : 49.2835704, Lng : -123.1150208, Q1 : 0.999998450279, Q2 : 0.00120160810184, Q3 : 0.00117141136434, Q4 : -0.000456584151834}
2019-04-14 17:36:33.11: SIM {TimeUS : 46134872, Roll : 0.15, Pitch : 0.12, Yaw : 359.94, Alt : 33.3400001526, Lat : 49.2835704, Lng : -123.1150208, Q1 : 0.999998390675, Q2 : 0.00131455808878, Q3 : 0.0011166514596, Q4 : -0.000456325040432}
2019-04-14 17:36:33.21: SIM {TimeUS : 46234832, Roll : 0.15, Pitch : 0.12, Yaw : 359.94, Alt : 33.5400009155, Lat : 49.2835704, Lng : -123.1150208, Q1 : 0.99999833107, Q2 : 0.00136171816848, Q3 : 0.00113308464643, Q4 : -0.000455906207208}
2019-04-14 17:36:33.31: SIM {TimeUS : 46334792, Roll : 0.16, Pitch : 0.13, Yaw : 359.94, Alt : 33.75, Lat : 49.2835704, Lng : -123.1150208, Q1 : 0.999998152256, Q2 : 0.00143012381159, Q3 : 0.00121373636648, Q4 : -0.000456687033875}
2019-04-14 17:36:33.41: SIM {TimeUS : 46434752, Roll : 0.16, Pitch : 0.13, Yaw : 359.94, Alt : 33.9599990845, Lat : 49.2835704, Lng : -123.1150208, Q1 : 0.999998152256, Q2 : 0.00142155506182, Q3 : 0.00117720232811, Q4 : -0.000455487141153}
2019-04-14 17:36:33.51: SIM {TimeUS : 46534712, Roll : 0.14, Pitch : 0.12, Yaw : 359.94, Alt : 34.1699981689, Lat : 49.2835704, Lng : -123.1150208, Q1 : 0.999998450279, Q2 : 0.00128851342015, Q3 : 0.00108539126813, Q4 : -0.000455952074844}
2019-04-14 17:36:33.61: SIM {TimeUS : 46634672, Roll : 0.12, Pitch : 0.11, Yaw : 359.94, Alt : 34.3800010681, Lat : 49.2835704, Lng : -123.1150208, Q1 : 0.999998748302, Q2 : 0.00111250160262, Q3 : 0.00101134227589, Q4 : -0.000462533876998}
2019-04-14 17:36:33.71: SIM {TimeUS : 46734632, Roll : 0.1, Pitch : 0.1, Yaw : 359.94, Alt : 34.5900001526, Lat : 49.2835704, Lng : -123.1150208, Q1 : 0.999999046326, Q2 : 0.000893573043868, Q3 : 0.000925146043301, Q4 : -0.000480921153212}
2019-04-14 17:36:33.81: SIM {TimeUS : 46834592, Roll : 0.08, Pitch : 0.07, Yaw : 359.94, Alt : 34.8100013733, Lat : 49.2835704, Lng : -123.1150208, Q1 : 0.999999403954, Q2 : 0.000744875636883, Q3 : 0.000618738122284, Q4 : -0.000512626895215}
2019-04-14 17:36:33.91: SIM {TimeUS : 46934552, Roll : 0.06, Pitch : 0.03, Yaw : 359.93, Alt : 35.0200004578, Lat : 49.2835704, Lng : -123.1150208, Q1 : 0.999999582767, Q2 : 0.000602440908551, Q3 : 0.000336969969794, Q4 : -0.000551358330995}
2019-04-14 17:36:34.02: SIM {TimeUS : 47035345, Roll : 0.04, Pitch : 0.01, Yaw : 359.93, Alt : 35.2400016785, Lat : 49.2835704, Lng : -123.1150207, Q1 : 0.999999761581, Q2 : 0.000392373971408, Q3 : 0.000171315434272, Q4 : -0.000596767058596}
2019-04-14 17:36:34.11: SIM {TimeUS : 47135305, Roll : 0.03, Pitch : 0.01, Yaw : 359.92, Alt : 35.4599990845, Lat : 49.2835704, Lng : -123.1150207, Q1 : 0.999999761581, Q2 : 0.000295426987577, Q3 : 0.000125801860122, Q4 : -0.000638835539576}
2019-04-14 17:36:34.21: SIM {TimeUS : 47235265, Roll : 0.03, Pitch : 0.01, Yaw : 359.92, Alt : 35.6800003052, Lat : 49.2835704, Lng : -123.1150207, Q1 : 0.999999761581, Q2 : 0.00031293099164, Q3 : 0.000117616167699, Q4 : -0.000678493583109}
2019-04-14 17:36:34.31: SIM {TimeUS : 47335225, Roll : 0.01, Pitch : -0.01, Yaw : 359.91, Alt : 35.9000015259, Lat : 49.2835704, Lng : -123.1150207, Q1 : 0.999999761581, Q2 : 0.000138824005262, Q3 : -9.72767666099e-05, Q4 : -0.000713192683179}
2019-04-14 17:36:34.41: SIM {TimeUS : 47435185, Roll : -0.02, Pitch : -0.04, Yaw : 359.91, Alt : 36.1199989319, Lat : 49.2835704, Lng : -123.1150207, Q1 : 0.999999642372, Q2 : -0.000187144687516, Q3 : -0.000426344486186, Q4 : -0.000744146702345}
2019-04-14 17:36:34.51: SIM {TimeUS : 47535145, Roll : -0.06, Pitch : -0.06, Yaw : 359.91, Alt : 36.3400001526, Lat : 49.2835704, Lng : -123.1150207, Q1 : 0.999999344349, Q2 : -0.000542771362234, Q3 : -0.000608357775491, Q4 : -0.000773636682425}
2019-04-14 17:36:34.61: SIM {TimeUS : 47635105, Roll : -0.09, Pitch : -0.08, Yaw : 359.9, Alt : 36.5600013733, Lat : 49.2835704, Lng : -123.1150207, Q1 : 0.999999046326, Q2 : -0.00085231824778, Q3 : -0.000708187348209, Q4 : -0.000801212561782}
2019-04-14 17:36:34.71: SIM {TimeUS : 47735065, Roll : -0.1, Pitch : -0.08, Yaw : 359.9, Alt : 36.7799987793, Lat : 49.2835704, Lng : -123.1150206, Q1 : 0.999998986721, Q2 : -0.000894394412171, Q3 : -0.000699063180946, Q4 : -0.000825337832794}
2019-04-14 17:36:34.81: SIM {TimeUS : 47835025, Roll : -0.09, Pitch : -0.06, Yaw : 359.9, Alt : 37.0099983215, Lat : 49.2835704, Lng : -123.1150206, Q1 : 0.99999910593, Q2 : -0.000814969651401, Q3 : -0.000605333771091, Q4 : -0.000843263289426}
2019-04-14 17:36:34.91: SIM {TimeUS : 47934985, Roll : -0.07, Pitch : -0.05, Yaw : 359.9, Alt : 37.2299995422, Lat : 49.2835704, Lng : -123.1150206, Q1 : 0.999999344349, Q2 : -0.000642630096991, Q3 : -0.000440796779003, Q4 : -0.000855021062307}
2019-04-14 17:36:35.01: SIM {TimeUS : 48034945, Roll : -0.05, Pitch : -0.03, Yaw : 359.9, Alt : 37.4599990845, Lat : 49.2835704, Lng : -123.1150206, Q1 : 0.999999463558, Q2 : -0.000456270441646, Q3 : -0.00033379875822, Q4 : -0.000861941603944}
2019-04-14 17:36:35.11: SIM {TimeUS : 48134905, Roll : -0.05, Pitch : -0.03, Yaw : 359.9, Alt : 37.6800003052, Lat : 49.2835704, Lng : -123.1150206, Q1 : 0.999999463558, Q2 : -0.000482796895085, Q3 : -0.000343814259395, Q4 : -0.000866161775775}
2019-04-14 17:36:35.21: SIM {TimeUS : 48234865, Roll : -0.06, Pitch : -0.02, Yaw : 359.9, Alt : 37.9099998474, Lat : 49.2835704, Lng : -123.1150206, Q1 : 0.999999403954, Q2 : -0.000606928253546, Q3 : -0.00024907340412, Q4 : -0.000870647083502}
2019-04-14 17:36:35.31: SIM {TimeUS : 48334825, Roll : -0.09, Pitch : -0.01, Yaw : 359.89, Alt : 38.1399993896, Lat : 49.2835704, Lng : -123.1150206, Q1 : 0.99999922514, Q2 : -0.000846044451464, Q3 : -0.00011439237278, Q4 : -0.000879096041899}
2019-04-14 17:36:35.41: SIM {TimeUS : 48434785, Roll : -0.1, Pitch : 0.0, Yaw : 359.89, Alt : 38.3600006104, Lat : 49.2835704, Lng : -123.1150206, Q1 : 0.99999922514, Q2 : -0.000902858446352, Q3 : 1.5728030121e-05, Q4 : -0.000887070782483}
2019-04-14 17:36:35.51: SIM {TimeUS : 48534745, Roll : -0.08, Pitch : 0.02, Yaw : 359.89, Alt : 38.5900001526, Lat : 49.2835704, Lng : -123.1150206, Q1 : 0.999999284744, Q2 : -0.000708987412509, Q3 : 0.000252461584751, Q4 : -0.000900841609109}
2019-04-14 17:36:35.61: SIM {TimeUS : 48634705, Roll : -0.05, Pitch : 0.02, Yaw : 359.89, Alt : 38.8199996948, Lat : 49.2835704, Lng : -123.1150206, Q1 : 0.999999463558, Q2 : -0.000473663181765, Q3 : 0.000220112735406, Q4 : -0.000915070180781}
2019-04-14 17:36:35.71: SIM {TimeUS : 48734665, Roll : -0.02, Pitch : 0.01, Yaw : 359.89, Alt : 39.0499992371, Lat : 49.2835706, Lng : -123.1150206, Q1 : 0.999999523163, Q2 : -0.000199740577955, Q3 : 0.000126104467199, Q4 : -0.000928820460103}
2019-04-14 17:36:35.81: SIM {TimeUS : 48834625, Roll : 0.01, Pitch : 0.03, Yaw : 359.89, Alt : 39.2799987793, Lat : 49.2835706, Lng : -123.1150206, Q1 : 0.999999523163, Q2 : 0.000109576627437, Q3 : 0.000272650504485, Q4 : -0.000945036183111}
2019-04-14 17:36:35.91: SIM {TimeUS : 48934585, Roll : 0.05, Pitch : 0.06, Yaw : 359.88, Alt : 39.5099983215, Lat : 49.2835706, Lng : -123.1150206, Q1 : 0.999999284744, Q2 : 0.00045287879766, Q3 : 0.000567651179153, Q4 : -0.000969363434706}
2019-04-14 17:36:36.01: SIM {TimeUS : 49034545, Roll : 0.08, Pitch : 0.09, Yaw : 359.88, Alt : 39.7400016785, Lat : 49.2835706, Lng : -123.1150206, Q1 : 0.999998867512, Q2 : 0.000714959460311, Q3 : 0.000837985426188, Q4 : -0.000998410396278}
2019-04-14 17:36:36.12: SIM {TimeUS : 49135338, Roll : 0.07, Pitch : 0.12, Yaw : 359.88, Alt : 39.9700012207, Lat : 49.2835706, Lng : -123.1150206, Q1 : 0.999998688698, Q2 : 0.000637194141746, Q3 : 0.00105526088737, Q4 : -0.00101861765143}
2019-04-14 17:36:36.21: SIM {TimeUS : 49235298, Roll : 0.02, Pitch : 0.14, Yaw : 359.87, Alt : 40.2000007629, Lat : 49.2835706, Lng : -123.1150206, Q1 : 0.999998629093, Q2 : 0.000245478004217, Q3 : 0.00122463447042, Q4 : -0.00105855218135}
2019-04-14 17:36:36.31: SIM {TimeUS : 49335258, Roll : 0.0, Pitch : 0.14, Yaw : 359.87, Alt : 40.4399986267, Lat : 49.2835706, Lng : -123.1150206, Q1 : 0.999998629093, Q2 : -8.48479539854e-05, Q3 : 0.00126678671222, Q4 : -0.00109287083615}
2019-04-14 17:36:36.41: SIM {TimeUS : 49435218, Roll : -0.03, Pitch : 0.12, Yaw : 359.87, Alt : 40.6699981689, Lat : 49.2835706, Lng : -123.1150206, Q1 : 0.999998688698, Q2 : -0.000284791953163, Q3 : 0.00113320327364, Q4 : -0.00111766450573}
2019-04-14 17:36:36.51: SIM {TimeUS : 49535178, Roll : -0.04, Pitch : 0.11, Yaw : 359.86, Alt : 40.9000015259, Lat : 49.2835706, Lng : -123.1150206, Q1 : 0.999998748302, Q2 : -0.000377239834052, Q3 : 0.00102965708356, Q4 : -0.00114231382031}
2019-04-14 17:36:36.61: SIM {TimeUS : 49635138, Roll : -0.03, Pitch : 0.12, Yaw : 359.86, Alt : 41.1300010681, Lat : 49.2835706, Lng : -123.1150206, Q1 : 0.999998629093, Q2 : -0.000290386786219, Q3 : 0.00111709209159, Q4 : -0.00117301265709}
2019-04-14 17:36:36.71: SIM {TimeUS : 49735098, Roll : 0.0, Pitch : 0.15, Yaw : 359.86, Alt : 41.3699989319, Lat : 49.2835706, Lng : -123.1150207, Q1 : 0.999998390675, Q2 : 6.49174398859e-05, Q3 : 0.00131634227, Q4 : -0.00121386733372}
2019-04-14 17:36:36.81: SIM {TimeUS : 49835058, Roll : 0.05, Pitch : 0.16, Yaw : 359.85, Alt : 41.5999984741, Lat : 49.2835706, Lng : -123.1150207, Q1 : 0.999998092651, Q2 : 0.000500390538946, Q3 : 0.0014097118983, Q4 : -0.00125621038023}
2019-04-14 17:36:36.91: SIM {TimeUS : 49935018, Roll : 0.09, Pitch : 0.12, Yaw : 359.85, Alt : 41.8300018311, Lat : 49.2835706, Lng : -123.1150207, Q1 : 0.999998211861, Q2 : 0.000793762970716, Q3 : 0.00111399346497, Q4 : -0.00129462266341}
2019-04-14 17:36:37.01: SIM {TimeUS : 50034978, Roll : 0.09, Pitch : 0.07, Yaw : 359.84, Alt : 42.0699996948, Lat : 49.2835706, Lng : -123.1150207, Q1 : 0.999998569489, Q2 : 0.000811170903035, Q3 : 0.000667977612466, Q4 : -0.00132539216429}
2019-04-14 17:36:37.11: SIM {TimeUS : 50134938, Roll : 0.05, Pitch : 0.04, Yaw : 359.84, Alt : 42.2999992371, Lat : 49.2835706, Lng : -123.1150207, Q1 : 0.999998867512, Q2 : 0.000523523893207, Q3 : 0.00038232334191, Q4 : -0.00134683435317}
2019-04-14 17:36:37.21: SIM {TimeUS : 50234898, Roll : 0.0, Pitch : 0.03, Yaw : 359.84, Alt : 42.5400009155, Lat : 49.2835706, Lng : -123.1150207, Q1 : 0.999998986721, Q2 : 6.95005292073e-05, Q3 : 0.00030891384813, Q4 : -0.00135743618011}
2019-04-14 17:36:37.31: SIM {TimeUS : 50334858, Roll : -0.02, Pitch : 0.06, Yaw : 359.84, Alt : 42.7700004578, Lat : 49.2835706, Lng : -123.1150207, Q1 : 0.999998867512, Q2 : -0.000240081819356, Q3 : 0.000539893342648, Q4 : -0.00135918147862}
2019-04-14 17:36:37.41: SIM {TimeUS : 50434818, Roll : -0.04, Pitch : 0.08, Yaw : 359.84, Alt : 43.0099983215, Lat : 49.2835704, Lng : -123.1150206, Q1 : 0.999998748302, Q2 : -0.000389855966205, Q3 : 0.000732108019292, Q4 : -0.00135901977774}
2019-04-14 17:36:37.51: SIM {TimeUS : 50534778, Roll : -0.04, Pitch : 0.08, Yaw : 359.84, Alt : 43.2400016785, Lat : 49.2835704, Lng : -123.1150206, Q1 : 0.999998748302, Q2 : -0.000376499316189, Q3 : 0.000725879683159, Q4 : -0.00136275554541}
2019-04-14 17:36:37.61: SIM {TimeUS : 50634738, Roll : -0.04, Pitch : 0.07, Yaw : 359.84, Alt : 43.4799995422, Lat : 49.2835704, Lng : -123.1150206, Q1 : 0.999998807907, Q2 : -0.000404078833526, Q3 : 0.00064099766314, Q4 : -0.00137573294342}
2019-04-14 17:36:37.71: SIM {TimeUS : 50734698, Roll : -0.04, Pitch : 0.05, Yaw : 359.84, Alt : 43.7099990845, Lat : 49.2835704, Lng : -123.1150206, Q1 : 0.999998867512, Q2 : -0.000355194701115, Q3 : 0.000521362177096, Q4 : -0.00139177544042}
2019-04-14 17:36:37.81: SIM {TimeUS : 50834658, Roll : -0.02, Pitch : 0.05, Yaw : 359.83, Alt : 43.9500007629, Lat : 49.2835704, Lng : -123.1150206, Q1 : 0.999998927116, Q2 : -0.000184865362826, Q3 : 0.000437415321358, Q4 : -0.00140900304541}
2019-04-14 17:36:37.91: SIM {TimeUS : 50934618, Roll : 0.0, Pitch : 0.04, Yaw : 359.83, Alt : 44.1800003052, Lat : 49.2835704, Lng : -123.1150206, Q1 : 0.999998927116, Q2 : -6.67795538902e-05, Q3 : 0.000414359732531, Q4 : -0.00142549781594}
2019-04-14 17:36:38.01: SIM {TimeUS : 51034578, Roll : -0.01, Pitch : 0.03, Yaw : 359.83, Alt : 44.4199981689, Lat : 49.2835704, Lng : -123.1150206, Q1 : 0.999998927116, Q2 : -9.36412543524e-05, Q3 : 0.000275356054772, Q4 : -0.00144793221261}
2019-04-14 17:36:38.11: SIM {TimeUS : 51134538, Roll : -0.02, Pitch : 0.0, Yaw : 359.83, Alt : 44.6599998474, Lat : 49.2835704, Lng : -123.1150206, Q1 : 0.999998867512, Q2 : -0.000180232571438, Q3 : 2.48560490945e-06, Q4 : -0.00147368921898}
2019-04-14 17:36:38.21: SIM {TimeUS : 51235331, Roll : -0.02, Pitch : -0.02, Yaw : 359.82, Alt : 44.8899993896, Lat : 49.2835704, Lng : -123.1150206, Q1 : 0.999998807907, Q2 : -0.000254168873653, Q3 : -0.000217436710955, Q4 : -0.00150584301446}
2019-04-14 17:36:38.31: SIM {TimeUS : 51335291, Roll : -0.02, Pitch : -0.04, Yaw : 359.82, Alt : 45.1300010681, Lat : 49.2835704, Lng : -123.1150206, Q1 : 0.999998748302, Q2 : -0.000221631591558, Q3 : -0.000356057396857, Q4 : -0.00154201849364}
2019-04-14 17:36:38.41: SIM {TimeUS : 51435251, Roll : -0.02, Pitch : -0.04, Yaw : 359.81, Alt : 45.3699989319, Lat : 49.2835703, Lng : -123.1150206, Q1 : 0.999998688698, Q2 : -0.000254999060417, Q3 : -0.000383907026844, Q4 : -0.00157636613585}
2019-04-14 17:36:38.51: SIM {TimeUS : 51535211, Roll : -0.05, Pitch : -0.03, Yaw : 359.81, Alt : 45.5999984741, Lat : 49.2835703, Lng : -123.1150206, Q1 : 0.999998569489, Q2 : -0.000439778086729, Q3 : -0.000316027580993, Q4 : -0.00161535816733}
2019-04-14 17:36:38.61: SIM {TimeUS : 51635171, Roll : -0.08, Pitch : -0.02, Yaw : 359.81, Alt : 45.8300018311, Lat : 49.2835703, Lng : -123.1150206, Q1 : 0.99999833107, Q2 : -0.000715690199286, Q3 : -0.000256247119978, Q4 : -0.0016568278661}
2019-04-14 17:36:38.71: SIM {TimeUS : 51735131, Roll : -0.1, Pitch : -0.02, Yaw : 359.8, Alt : 46.0699996948, Lat : 49.2835703, Lng : -123.1150206, Q1 : 0.999998152256, Q2 : -0.000912538846023, Q3 : -0.000226109899813, Q4 : -0.00170047802385}
2019-04-14 17:36:38.81: SIM {TimeUS : 51835091, Roll : -0.1, Pitch : -0.01, Yaw : 359.8, Alt : 46.2900009155, Lat : 49.2835703, Lng : -123.1150206, Q1 : 0.999998033047, Q2 : -0.000956514617428, Q3 : -0.000113034337119, Q4 : -0.00174049718771}
2019-04-14 17:36:38.91: SIM {TimeUS : 51935051, Roll : -0.09, Pitch : 0.0, Yaw : 359.79, Alt : 46.5200004578, Lat : 49.2835703, Lng : -123.1150206, Q1 : 0.999998092651, Q2 : -0.000827109499369, Q3 : 4.83100120618e-05, Q4 : -0.00177114002872}
2019-04-14 17:36:39.01: SIM {TimeUS : 52035011, Roll : -0.06, Pitch : 0.01, Yaw : 359.79, Alt : 46.7299995422, Lat : 49.2835703, Lng : -123.1150206, Q1 : 0.999998211861, Q2 : -0.000592796248384, Q3 : 0.000103409380245, Q4 : -0.00180008029565}
2019-04-14 17:36:39.11: SIM {TimeUS : 52134971, Roll : -0.04, Pitch : 0.0, Yaw : 359.79, Alt : 46.9500007629, Lat : 49.2835703, Lng : -123.1150206, Q1 : 0.999998271465, Q2 : -0.000406230101362, Q3 : 3.28683963744e-05, Q4 : -0.00182712741662}
2019-04-14 17:36:39.21: SIM {TimeUS : 52234931, Roll : -0.03, Pitch : -0.01, Yaw : 359.78, Alt : 47.1500015259, Lat : 49.2835703, Lng : -123.1150206, Q1 : 0.999998271465, Q2 : -0.000299372419249, Q3 : -0.000114123649837, Q4 : -0.00185358268209}
2019-04-14 17:36:39.31: SIM {TimeUS : 52334891, Roll : -0.01, Pitch : -0.03, Yaw : 359.78, Alt : 47.3499984741, Lat : 49.2835703, Lng : -123.1150206, Q1 : 0.999998152256, Q2 : -0.000145243902807, Q3 : -0.00034873187542, Q4 : -0.00187743164133}
2019-04-14 17:36:39.41: SIM {TimeUS : 52434851, Roll : 0.0, Pitch : -0.06, Yaw : 359.78, Alt : 47.5400009155, Lat : 49.2835703, Lng : -123.1150206, Q1 : 0.999998033047, Q2 : 5.57712628506e-05, Q3 : -0.000556384969968, Q4 : -0.00189533317462}
2019-04-14 17:36:39.51: SIM {TimeUS : 52534811, Roll : 0.01, Pitch : -0.1, Yaw : 359.78, Alt : 47.7200012207, Lat : 49.2835703, Lng : -123.1150206, Q1 : 0.999997735023, Q2 : 0.000140895019285, Q3 : -0.000912547227927, Q4 : -0.00191093864851}
2019-04-14 17:36:39.61: SIM {TimeUS : 52634771, Roll : 0.01, Pitch : -0.14, Yaw : 359.77, Alt : 47.8899993896, Lat : 49.2835703, Lng : -123.1150206, Q1 : 0.999997317791, Q2 : 0.000156553884153, Q3 : -0.00128012814093, Q4 : -0.00192892365158}
2019-04-14 17:36:39.71: SIM {TimeUS : 52734731, Roll : 0.04, Pitch : -0.15, Yaw : 359.77, Alt : 48.0400009155, Lat : 49.2835703, Lng : -123.1150206, Q1 : 0.999997138977, Q2 : 0.000373219518224, Q3 : -0.00136014784221, Q4 : -0.00194618152454}
2019-04-14 17:36:39.81: SIM {TimeUS : 52834691, Roll : 0.06, Pitch : -0.13, Yaw : 359.77, Alt : 48.1899986267, Lat : 49.2835703, Lng : -123.1150206, Q1 : 0.999997198582, Q2 : 0.000606395595241, Q3 : -0.00121102540288, Q4 : -0.00195975438692}
2019-04-14 17:36:39.91: SIM {TimeUS : 52934651, Roll : 0.08, Pitch : -0.1, Yaw : 359.77, Alt : 48.3199996948, Lat : 49.2835703, Lng : -123.1150206, Q1 : 0.999997317791, Q2 : 0.000754401087761, Q3 : -0.000930195383262, Q4 : -0.00197425042279}
2019-04-14 17:36:40.01: SIM {TimeUS : 53034611, Roll : 0.08, Pitch : -0.06, Yaw : 359.77, Alt : 48.4399986267, Lat : 49.2835703, Lng : -123.1150206, Q1 : 0.99999755621, Q2 : 0.000741620257031, Q3 : -0.000597937498242, Q4 : -0.00199375138618}
2019-04-14 17:36:40.11: SIM {TimeUS : 53134571, Roll : 0.08, Pitch : -0.04, Yaw : 359.76, Alt : 48.5499992371, Lat : 49.2835703, Lng : -123.1150206, Q1 : 0.999997615814, Q2 : 0.000719160714652, Q3 : -0.000380078883609, Q4 : -0.00201870012097}
2019-04-14 17:36:40.22: SIM {TimeUS : 53235364, Roll : 0.06, Pitch : -0.04, Yaw : 359.76, Alt : 48.6500015259, Lat : 49.2835704, Lng : -123.1150206, Q1 : 0.999997675419, Q2 : 0.00056544324616, Q3 : -0.000378749100491, Q4 : -0.00204289657995}
2019-04-14 17:36:40.31: SIM {TimeUS : 53335324, Roll : 0.03, Pitch : -0.04, Yaw : 359.76, Alt : 48.7299995422, Lat : 49.2835704, Lng : -123.1150206, Q1 : 0.999997735023, Q2 : 0.000263087975327, Q3 : -0.000410433567595, Q4 : -0.00206422549672}
2019-04-14 17:36:40.41: SIM {TimeUS : 53435284, Roll : 0.01, Pitch : -0.03, Yaw : 359.76, Alt : 48.7999992371, Lat : 49.2835704, Lng : -123.1150206, Q1 : 0.999997735023, Q2 : 0.00011910986359, Q3 : -0.000346680317307, Q4 : -0.0020929207094}
2019-04-14 17:36:40.51: SIM {TimeUS : 53535244, Roll : 0.0, Pitch : -0.02, Yaw : 359.75, Alt : 48.8699989319, Lat : 49.2835704, Lng : -123.1150206, Q1 : 0.999997735023, Q2 : 1.40073580042e-05, Q3 : -0.000257770530879, Q4 : -0.00212488370016}
2019-04-14 17:36:40.61: SIM {TimeUS : 53635204, Roll : 0.0, Pitch : -0.01, Yaw : 359.75, Alt : 48.9199981689, Lat : 49.2835704, Lng : -123.1150206, Q1 : 0.999997675419, Q2 : -4.60252376797e-05, Q3 : -0.000113393689389, Q4 : -0.00215829419903}
2019-04-14 17:36:40.71: SIM {TimeUS : 53735164, Roll : 0.02, Pitch : 0.0, Yaw : 359.74, Alt : 48.9700012207, Lat : 49.2835704, Lng : -123.1150206, Q1 : 0.99999755621, Q2 : 0.000189765647519, Q3 : -1.52687414356e-06, Q4 : -0.00219030841254}
2019-04-14 17:36:40.81: SIM {TimeUS : 53835124, Roll : 0.11, Pitch : -0.08, Yaw : 359.74, Alt : 49.0099983215, Lat : 49.2835704, Lng : -123.1150206, Q1 : 0.999996721745, Q2 : 0.00101993442513, Q3 : -0.000727750593796, Q4 : -0.00221769115888}
2019-04-14 17:36:40.91: SIM {TimeUS : 53935084, Roll : 0.33, Pitch : -0.38, Yaw : 359.74, Alt : 49.0400009155, Lat : 49.2835704, Lng : -123.1150206, Q1 : 0.999987602234, Q2 : 0.00292523344979, Q3 : -0.00334555469453, Q4 : -0.00224322942086}
2019-04-14 17:36:41.01: SIM {TimeUS : 54035044, Roll : 0.68, Pitch : -0.91, Yaw : 359.73, Alt : 49.0699996948, Lat : 49.2835704, Lng : -123.1150206, Q1 : 0.999947547913, Q2 : 0.00599472457543, Q3 : -0.00799355190247, Q4 : -0.00226433807984}
2019-04-14 17:36:41.11: SIM {TimeUS : 54135004, Roll : 1.16, Pitch : -1.65, Yaw : 359.72, Alt : 49.0999984741, Lat : 49.2835706, Lng : -123.1150206, Q1 : 0.999841630459, Q2 : 0.0101293418556, Q3 : -0.0144601659849, Q4 : -0.00226617092267}
2019-04-14 17:36:41.21: SIM {TimeUS : 54234964, Roll : 1.73, Pitch : -2.52, Yaw : 359.7, Alt : 49.1199989319, Lat : 49.2835706, Lng : -123.1150205, Q1 : 0.999641120434, Q2 : 0.0150512941182, Q3 : -0.0220483653247, Q4 : -0.00223384541459}
2019-04-14 17:36:41.31: SIM {TimeUS : 54334924, Roll : 2.31, Pitch : -3.37, Yaw : 359.68, Alt : 49.1399993896, Lat : 49.2835707, Lng : -123.1150204, Q1 : 0.999359965324, Q2 : 0.0201086997986, Q3 : -0.0295072477311, Q4 : -0.00215057912283}
2019-04-14 17:36:41.41: SIM {TimeUS : 54434884, Roll : 2.8, Pitch : -4.09, Yaw : 359.66, Alt : 49.1500015259, Lat : 49.2835708, Lng : -123.1150203, Q1 : 0.999059021473, Q2 : 0.0243717879057, Q3 : -0.0358212292194, Q4 : -0.00200582528487}
2019-04-14 17:36:41.51: SIM {TimeUS : 54534844, Roll : 3.17, Pitch : -4.63, Yaw : 359.66, Alt : 49.1699981689, Lat : 49.2835709, Lng : -123.1150201, Q1 : 0.998796284199, Q2 : 0.0275853462517, Q3 : -0.0405192859471, Q4 : -0.00180708384141}
2019-04-14 17:36:41.61: SIM {TimeUS : 54634804, Roll : 3.43, Pitch : -5.01, Yaw : 359.67, Alt : 49.1800003052, Lat : 49.2835712, Lng : -123.11502, Q1 : 0.998592793941, Q2 : 0.0298207458109, Q3 : -0.0438260994852, Q4 : -0.00156379723921}
2019-04-14 17:36:41.71: SIM {TimeUS : 54734764, Roll : 3.62, Pitch : -5.31, Yaw : 359.68, Alt : 49.1899986267, Lat : 49.2835715, Lng : -123.1150196, Q1 : 0.998424351215, Q2 : 0.0314930789173, Q3 : -0.0464254394174, Q4 : -0.00129784527235}
2019-04-14 17:36:41.81: SIM {TimeUS : 54834724, Roll : 3.81, Pitch : -5.59, Yaw : 359.69, Alt : 49.2000007629, Lat : 49.2835719, Lng : -123.1150193, Q1 : 0.998254358768, Q2 : 0.0331079289317, Q3 : -0.0488991439342, Q4 : -0.00101886794437}
2019-04-14 17:36:41.91: SIM {TimeUS : 54934684, Roll : 4.02, Pitch : -5.9, Yaw : 359.7, Alt : 49.2099990845, Lat : 49.2835722, Lng : -123.1150188, Q1 : 0.998057842255, Q2 : 0.0349818319082, Q3 : -0.0515392795205, Q4 : -0.000738173665013}
2019-04-14 17:36:42.01: SIM {TimeUS : 55034644, Roll : 4.24, Pitch : -6.21, Yaw : 359.71, Alt : 49.2200012207, Lat : 49.2835727, Lng : -123.1150183, Q1 : 0.997847139835, Q2 : 0.0368648022413, Q3 : -0.0542397424579, Q4 : -0.00047302551684}
2019-04-14 17:36:42.11: SIM {TimeUS : 55134604, Roll : 4.43, Pitch : -6.5, Yaw : 359.72, Alt : 49.2200012207, Lat : 49.2835733, Lng : -123.1150178, Q1 : 0.997645020485, Q2 : 0.0385257229209, Q3 : -0.0567456334829, Q4 : -0.000231144120335}
2019-04-14 17:36:42.21: SIM {TimeUS : 55234564, Roll : 4.57, Pitch : -6.72, Yaw : 359.72, Alt : 49.2299995422, Lat : 49.2835739, Lng : -123.1150171, Q1 : 0.997484445572, Q2 : 0.0396746210754, Q3 : -0.0587431304157, Q4 : -2.57770298049e-05}
2019-04-14 17:36:42.32: SIM {TimeUS : 55335357, Roll : 4.67, Pitch : -6.89, Yaw : 359.73, Alt : 49.2400016785, Lat : 49.2835745, Lng : -123.1150163, Q1 : 0.997364938259, Q2 : 0.0405623316765, Q3 : -0.0601494461298, Q4 : 0.000145039753988}
2019-04-14 17:36:42.41: SIM {TimeUS : 55435317, Roll : 4.74, Pitch : -6.99, Yaw : 359.74, Alt : 49.2400016785, Lat : 49.2835752, Lng : -123.1150157, Q1 : 0.99728256464, Q2 : 0.0412006676197, Q3 : -0.0610729828477, Q4 : 0.000272548059002}
2019-04-14 17:36:42.51: SIM {TimeUS : 55535277, Roll : 4.81, Pitch : -7.08, Yaw : 359.74, Alt : 49.25, Lat : 49.2835761, Lng : -123.1150148, Q1 : 0.99721121788, Q2 : 0.0417521893978, Q3 : -0.0618581622839, Q4 : 0.000359104888048}
2019-04-14 17:36:42.61: SIM {TimeUS : 55635237, Roll : 4.92, Pitch : -7.19, Yaw : 359.74, Alt : 49.25, Lat : 49.2835769, Lng : -123.1150139, Q1 : 0.997109234333, Q2 : 0.0427464358509, Q3 : -0.062814809382, Q4 : 0.000464683718747}
2019-04-14 17:36:42.71: SIM {TimeUS : 55735197, Roll : 5.28, Pitch : -7.25, Yaw : 359.91, Alt : 49.25, Lat : 49.2835777, Lng : -123.115013, Q1 : 0.996935248375, Q2 : 0.0459702946246, Q3 : -0.0632608234882, Q4 : 0.00221534795128}
2019-04-14 17:36:42.81: SIM {TimeUS : 55835157, Roll : 5.91, Pitch : -7.27, Yaw : 0.84, Alt : 49.2599983215, Lat : 49.2835788, Lng : -123.115012, Q1 : 0.996608912945, Q2 : 0.0519280843437, Q3 : -0.0629400387406, Q4 : 0.010616757907}
2019-04-14 17:36:42.91: SIM {TimeUS : 55935117, Roll : 6.51, Pitch : -7.43, Yaw : 3.16, Alt : 49.2599983215, Lat : 49.2835798, Lng : -123.115011, Q1 : 0.99579834938, Q2 : 0.058489613235, Q3 : -0.0631727203727, Q4 : 0.0312063954771}
2019-04-14 17:36:43.01: SIM {TimeUS : 56035077, Roll : 6.75, Pitch : -7.93, Yaw : 7.09, Alt : 49.2599983215, Lat : 49.2835807, Lng : -123.1150098, Q1 : 0.993708431721, Q2 : 0.062915571034, Q3 : -0.0653194785118, Q4 : 0.0657158717513}
2019-04-14 17:36:43.11: SIM {TimeUS : 56135037, Roll : 6.39, Pitch : -8.78, Yaw : 12.51, Alt : 49.2599983215, Lat : 49.2835818, Lng : -123.1150084, Q1 : 0.98911190033, Q2 : 0.0635947659612, Q3 : -0.0699490979314, Q4 : 0.112785324454}
2019-04-14 17:36:43.21: SIM {TimeUS : 56234997, Roll : 5.18, Pitch : -9.86, Yaw : 19.13, Alt : 49.2599983215, Lat : 49.283583, Lng : -123.1150071, Q1 : 0.98078840971, Q2 : 0.0587133653462, Q3 : -0.0772543624043, Q4 : 0.169229462743}
2019-04-14 17:36:43.31: SIM {TimeUS : 56334957, Roll : 2.96, Pitch : -10.95, Yaw : 26.3, Alt : 49.2599983215, Lat : 49.2835842, Lng : -123.1150057, Q1 : 0.96843791008, Q2 : 0.0467996224761, Q3 : -0.0870607569814, Q4 : 0.228819385171}
2019-04-14 17:36:43.41: SIM {TimeUS : 56434917, Roll : 0.1, Pitch : -11.77, Yaw : 33.23, Alt : 49.2700004578, Lat : 49.2835854, Lng : -123.1150041, Q1 : 0.953141689301, Q2 : 0.0302067138255, Q3 : -0.0980486944318, Q4 : 0.284596085548}
2019-04-14 17:36:43.51: SIM {TimeUS : 56534877, Roll : -2.76, Pitch : -12.24, Yaw : 39.2, Alt : 49.2700004578, Lat : 49.2835867, Lng : -123.1150025, Q1 : 0.937266945839, Q2 : 0.0131799168885, Q3 : -0.108484327793, Q4 : 0.331040918827}
2019-04-14 17:36:43.61: SIM {TimeUS : 56634837, Roll : -5.04, Pitch : -12.42, Yaw : 43.65, Alt : 49.2700004578, Lat : 49.283588, Lng : -123.1150008, Q1 : 0.923750817776, Q2 : -0.00040888224612, Q3 : -0.116576351225, Q4 : 0.364820867777}
2019-04-14 17:36:43.71: SIM {TimeUS : 56734797, Roll : -6.37, Pitch : -12.47, Yaw : 46.35, Alt : 49.2700004578, Lat : 49.2835895, Lng : -123.1149992, Q1 : 0.914825081825, Q2 : -0.00813665334135, Q3 : -0.121487438679, Q4 : 0.385058045387}
2019-04-14 17:36:43.81: SIM {TimeUS : 56834757, Roll : -6.73, Pitch : -12.57, Yaw : 47.39, Alt : 49.2700004578, Lat : 49.283591, Lng : -123.1149976, Q1 : 0.911193013191, Q2 : -0.0095483455807, Q3 : -0.123583771288, Q4 : 0.392890900373}
2019-04-14 17:36:43.91: SIM {TimeUS : 56934717, Roll : -6.28, Pitch : -12.81, Yaw : 47.04, Alt : 49.2700004578, Lat : 49.2835928, Lng : -123.1149959, Q1 : 0.912261605263, Q2 : -0.00551501335576, Q3 : -0.123921282589, Q4 : 0.390374064445}
2019-04-14 17:36:44.01: SIM {TimeUS : 57034677, Roll : -5.24, Pitch : -13.23, Yaw : 45.61, Alt : 49.2700004578, Lat : 49.2835946, Lng : -123.1149942, Q1 : 0.916747570038, Q2 : 0.00270520383492, Q3 : -0.123758666217, Q4 : 0.379803061485}
2019-04-14 17:36:44.11: SIM {TimeUS : 57134637, Roll : -3.84, Pitch : -13.81, Yaw : 43.43, Alt : 49.2700004578, Lat : 49.2835964, Lng : -123.1149925, Q1 : 0.923240363598, Q2 : 0.0135267479345, Q3 : -0.1239541471, Q4 : 0.363427698612}
2019-04-14 17:36:44.21: SIM {TimeUS : 57234597, Roll : -2.28, Pitch : -14.41, Yaw : 40.8, Alt : 49.2700004578, Lat : 49.2835983, Lng : -123.1149908, Q1 : 0.930533409119, Q2 : 0.0251984614879, Q3 : -0.124499969184, Q4 : 0.343471080065}
2019-04-14 17:36:44.31: SIM {TimeUS : 57334557, Roll : -0.73, Pitch : -14.94, Yaw : 38.02, Alt : 49.2700004578, Lat : 49.2836004, Lng : -123.114989, Q1 : 0.937655925751, Q2 : 0.0363985039294, Q3 : -0.125009581447, Q4 : 0.322256267071}
2019-04-14 17:36:44.42: SIM {TimeUS : 57435350, Roll : 0.67, Pitch : -15.32, Yaw : 35.39, Alt : 49.2799987793, Lat : 49.2836025, Lng : -123.114987, Q1 : 0.943918943405, Q2 : 0.0460909046233, Q3 : -0.125248521566, Q4 : 0.302002578974}
2019-04-14 17:36:44.51: SIM {TimeUS : 57535310, Roll : 1.79, Pitch : -15.52, Yaw : 33.2, Alt : 49.2799987793, Lat : 49.2836045, Lng : -123.114985, Q1 : 0.948805272579, Q2 : 0.0534156560898, Q3 : -0.124959789217, Q4 : 0.285132229328}
2019-04-14 17:36:44.61: SIM {TimeUS : 57635270, Roll : 2.54, Pitch : -15.57, Yaw : 31.63, Alt : 49.2799987793, Lat : 49.2836068, Lng : -123.1149829, Q1 : 0.952213287354, Q2 : 0.0580858588219, Q3 : -0.12438454479, Q4 : 0.272845119238}
2019-04-14 17:36:44.71: SIM {TimeUS : 57735230, Roll : 2.89, Pitch : -15.57, Yaw : 30.73, Alt : 49.2799987793, Lat : 49.283609, Lng : -123.1149807, Q1 : 0.954151034355, Q2 : 0.0600520968437, Q3 : -0.123971655965, Q4 : 0.265745431185}
2019-04-14 17:36:44.81: SIM {TimeUS : 57835190, Roll : 2.89, Pitch : -15.56, Yaw : 30.48, Alt : 49.2799987793, Lat : 49.2836112, Lng : -123.1149784, Q1 : 0.954718589783, Q2 : 0.0597215034068, Q3 : -0.124051041901, Q4 : 0.263736873865}
2019-04-14 17:36:44.91: SIM {TimeUS : 57935150, Roll : 2.58, Pitch : -15.61, Yaw : 30.81, Alt : 49.2799987793, Lat : 49.2836135, Lng : -123.1149759, Q1 : 0.95405715704, Q2 : 0.0576113574207, Q3 : -0.125003769994, Q4 : 0.266138970852}
2019-04-14 17:36:45.01: SIM {TimeUS : 58035110, Roll : 2.03, Pitch : -15.72, Yaw : 31.58, Alt : 49.2799987793, Lat : 49.2836159, Lng : -123.1149734, Q1 : 0.952401638031, Q2 : 0.0541692152619, Q3 : -0.126783177257, Q4 : 0.271887660027}
2019-04-14 17:36:45.11: SIM {TimeUS : 58135070, Roll : 1.33, Pitch : -15.86, Yaw : 32.62, Alt : 49.2799987793, Lat : 49.2836183, Lng : -123.1149708, Q1 : 0.950038313866, Q2 : 0.0498740151525, Q3 : -0.129192322493, Q4 : 0.279730528593}
2019-04-14 17:36:45.21: SIM {TimeUS : 58235030, Roll : 0.59, Pitch : -15.99, Yaw : 33.78, Alt : 49.2799987793, Lat : 49.2836207, Lng : -123.1149682, Q1 : 0.947319030762, Q2 : 0.0453691147268, Q3 : -0.131630271673, Q4 : 0.288447082043}
2019-04-14 17:36:45.31: SIM {TimeUS : 58334990, Roll : -0.07, Pitch : -16.09, Yaw : 34.91, Alt : 49.2799987793, Lat : 49.2836231, Lng : -123.1149655, Q1 : 0.94457501173, Q2 : 0.0413574390113, Q3 : -0.133745253086, Q4 : 0.296950995922}
2019-04-14 17:36:45.41: SIM {TimeUS : 58434950, Roll : -0.64, Pitch : -16.16, Yaw : 35.89, Alt : 49.2799987793, Lat : 49.2836256, Lng : -123.1149627, Q1 : 0.942114412785, Q2 : 0.038040868938, Q3 : -0.135504767299, Q4 : 0.304321944714}
2019-04-14 17:36:45.51: SIM {TimeUS : 58534910, Roll : -1.03, Pitch : -16.22, Yaw : 36.64, Alt : 49.2799987793, Lat : 49.2836281, Lng : -123.11496, Q1 : 0.940171539783, Q2 : 0.0358970835805, Q3 : -0.136745497584, Q4 : 0.309983193874}
2019-04-14 17:36:45.61: SIM {TimeUS : 58634870, Roll : -1.21, Pitch : -16.25, Yaw : 37.11, Alt : 49.2799987793, Lat : 49.2836308, Lng : -123.1149571, Q1 : 0.938904821873, Q2 : 0.035017773509, Q3 : -0.137363269925, Q4 : 0.313628524542}
2019-04-14 17:36:45.71: SIM {TimeUS : 58734830, Roll : -1.23, Pitch : -16.27, Yaw : 37.31, Alt : 49.2799987793, Lat : 49.2836335, Lng : -123.1149543, Q1 : 0.938349723816, Q2 : 0.0351603664458, Q3 : -0.137513190508, Q4 : 0.315204203129}
2019-04-14 17:36:45.81: SIM {TimeUS : 58834790, Roll : -1.13, Pitch : -16.3, Yaw : 37.25, Alt : 49.2799987793, Lat : 49.2836361, Lng : -123.1149514, Q1 : 0.938432574272, Q2 : 0.0360477380455, Q3 : -0.137526601553, Q4 : 0.314851313829}
2019-04-14 17:36:45.91: SIM {TimeUS : 58934750, Roll : -0.93, Pitch : -16.35, Yaw : 36.99, Alt : 49.2799987793, Lat : 49.2836389, Lng : -123.1149485, Q1 : 0.939018011093, Q2 : 0.0375151075423, Q3 : -0.137478649616, Q4 : 0.312949568033}
2019-04-14 17:36:46.01: SIM {TimeUS : 59034710, Roll : -0.66, Pitch : -16.43, Yaw : 36.6, Alt : 49.2799987793, Lat : 49.2836416, Lng : -123.1149456, Q1 : 0.93992215395, Q2 : 0.0394051708281, Q3 : -0.137502506375, Q4 : 0.309978574514}
2019-04-14 17:36:46.11: SIM {TimeUS : 59134670, Roll : -0.38, Pitch : -16.5, Yaw : 36.13, Alt : 49.2799987793, Lat : 49.2836445, Lng : -123.1149426, Q1 : 0.941005349159, Q2 : 0.0413619168103, Q3 : -0.137456744909, Q4 : 0.306437253952}
2019-04-14 17:36:46.21: SIM {TimeUS : 59234630, Roll : -0.09, Pitch : -16.55, Yaw : 35.65, Alt : 49.2799987793, Lat : 49.2836473, Lng : -123.1149396, Q1 : 0.942105650902, Q2 : 0.0433119721711, Q3 : -0.137339353561, Q4 : 0.302818387747}
2019-04-14 17:36:46.31: SIM {TimeUS : 59334590, Roll : 0.16, Pitch : -16.61, Yaw : 35.21, Alt : 49.2900009155, Lat : 49.2836501, Lng : -123.1149366, Q1 : 0.943094432354, Q2 : 0.0450404509902, Q3 : -0.137256681919, Q4 : 0.299507707357}
2019-04-14 17:36:46.41: SIM {TimeUS : 59434550, Roll : 0.36, Pitch : -16.65, Yaw : 34.85, Alt : 49.2900009155, Lat : 49.283653, Lng : -123.1149335, Q1 : 0.94388794899, Q2 : 0.046406481415, Q3 : -0.137202531099, Q4 : 0.296812295914}
2019-04-14 17:36:46.52: SIM {TimeUS : 59535343, Roll : 0.5, Pitch : -16.68, Yaw : 34.6, Alt : 49.2900009155, Lat : 49.283656, Lng : -123.1149304, Q1 : 0.944438517094, Q2 : 0.0473552569747, Q3 : -0.137216806412, Q4 : 0.294898211956}
2019-04-14 17:36:46.61: SIM {TimeUS : 59635303, Roll : 0.57, Pitch : -16.7, Yaw : 34.46, Alt : 49.2900009155, Lat : 49.2836589, Lng : -123.1149272, Q1 : 0.94473606348, Q2 : 0.0477563999593, Q3 : -0.137312546372, Q4 : 0.293833851814}
2019-04-14 17:36:46.71: SIM {TimeUS : 59735263, Roll : 0.56, Pitch : -16.72, Yaw : 34.44, Alt : 49.2900009155, Lat : 49.2836618, Lng : -123.1149241, Q1 : 0.944796741009, Q2 : 0.0476839467883, Q3 : -0.137476712465, Q4 : 0.293573826551}
2019-04-14 17:36:46.81: SIM {TimeUS : 59835223, Roll : 0.49, Pitch : -16.74, Yaw : 34.5, Alt : 49.2900009155, Lat : 49.2836647, Lng : -123.1149208, Q1 : 0.944641292095, Q2 : 0.0472956560552, Q3 : -0.137774437666, Q4 : 0.293996959925}
2019-04-14 17:36:46.91: SIM {TimeUS : 59935183, Roll : 0.4, Pitch : -16.78, Yaw : 34.62, Alt : 49.2900009155, Lat : 49.2836677, Lng : -123.1149176, Q1 : 0.944304823875, Q2 : 0.0467427037656, Q3 : -0.13832090795, Q4 : 0.294908225536}
2019-04-14 17:36:47.01: SIM {TimeUS : 60035143, Roll : 0.26, Pitch : -16.83, Yaw : 34.79, Alt : 49.2900009155, Lat : 49.2836707, Lng : -123.1149143, Q1 : 0.94387036562, Q2 : 0.0459942668676, Q3 : -0.139002904296, Q4 : 0.296093702316}
2019-04-14 17:36:47.11: SIM {TimeUS : 60135103, Roll : 0.11, Pitch : -16.88, Yaw : 34.97, Alt : 49.2900009155, Lat : 49.2836737, Lng : -123.114911, Q1 : 0.943409442902, Q2 : 0.0450483933091, Q3 : -0.139742091298, Q4 : 0.297357469797}
2019-04-14 17:36:47.21: SIM {TimeUS : 60235063, Roll : -0.03, Pitch : -16.92, Yaw : 35.14, Alt : 49.2900009155, Lat : 49.2836768, Lng : -123.1149077, Q1 : 0.942984700203, Q2 : 0.0441011935472, Q3 : -0.140364825726, Q4 : 0.298550963402}
2019-04-14 17:36:47.31: SIM {TimeUS : 60335023, Roll : -0.15, Pitch : -16.95, Yaw : 35.27, Alt : 49.2900009155, Lat : 49.2836799, Lng : -123.1149044, Q1 : 0.942632913589, Q2 : 0.0433613471687, Q3 : -0.140874326229, Q4 : 0.299528628588}
2019-04-14 17:36:47.41: SIM {TimeUS : 60434983, Roll : -0.22, Pitch : -16.99, Yaw : 35.37, Alt : 49.2900009155, Lat : 49.2836829, Lng : -123.114901, Q1 : 0.942347943783, Q2 : 0.04307083413, Q3 : -0.141369864345, Q4 : 0.300232946873}
2019-04-14 17:36:47.51: SIM {TimeUS : 60534943, Roll : -0.24, Pitch : -17.04, Yaw : 35.42, Alt : 49.2999992371, Lat : 49.2836861, Lng : -123.1148977, Q1 : 0.942166447639, Q2 : 0.0430783331394, Q3 : -0.141776606441, Q4 : 0.300609380007}
2019-04-14 17:36:47.61: SIM {TimeUS : 60634903, Roll : -0.21, Pitch : -17.08, Yaw : 35.43, Alt : 49.2999992371, Lat : 49.2836893, Lng : -123.1148943, Q1 : 0.942092597485, Q2 : 0.0434102490544, Q3 : -0.142068952322, Q4 : 0.300655066967}
2019-04-14 17:36:47.71: SIM {TimeUS : 60734863, Roll : -0.15, Pitch : -17.12, Yaw : 35.39, Alt : 49.2999992371, Lat : 49.2836924, Lng : -123.1148909, Q1 : 0.942112386227, Q2 : 0.044001288712, Q3 : -0.142266318202, Q4 : 0.300413787365}
2019-04-14 17:36:47.81: SIM {TimeUS : 60834823, Roll : -0.08, Pitch : -17.16, Yaw : 35.32, Alt : 49.2999992371, Lat : 49.2836955, Lng : -123.1148875, Q1 : 0.942217469215, Q2 : 0.0446067638695, Q3 : -0.142404839396, Q4 : 0.29992890358}
2019-04-14 17:36:47.91: SIM {TimeUS : 60934783, Roll : -0.02, Pitch : -17.19, Yaw : 35.23, Alt : 49.2999992371, Lat : 49.2836986, Lng : -123.114884, Q1 : 0.942389726639, Q2 : 0.0450543425977, Q3 : -0.142502516508, Q4 : 0.29927366972}
2019-04-14 17:36:48.01: SIM {TimeUS : 61034743, Roll : 0.01, Pitch : -17.19, Yaw : 35.14, Alt : 49.2999992371, Lat : 49.2837018, Lng : -123.1148806, Q1 : 0.942614793777, Q2 : 0.045301284641, Q3 : -0.142498090863, Q4 : 0.298528879881}
2019-04-14 17:36:48.11: SIM {TimeUS : 61134703, Roll : 0.06, Pitch : -17.19, Yaw : 35.04, Alt : 49.2999992371, Lat : 49.2837051, Lng : -123.1148771, Q1 : 0.942852556705, Q2 : 0.045546643436, Q3 : -0.142357423902, Q4 : 0.297806918621}
2019-04-14 17:36:48.21: SIM {TimeUS : 61234663, Roll : 0.1, Pitch : -17.19, Yaw : 34.96, Alt : 49.2999992371, Lat : 49.2837083, Lng : -123.1148737, Q1 : 0.943053722382, Q2 : 0.0458025410771, Q3 : -0.142293214798, Q4 : 0.297160714865}
2019-04-14 17:36:48.31: SIM {TimeUS : 61334623, Roll : 0.15, Pitch : -17.22, Yaw : 34.89, Alt : 49.2999992371, Lat : 49.2837115, Lng : -123.1148702, Q1 : 0.943172574043, Q2 : 0.0461916290224, Q3 : -0.142488405108, Q4 : 0.296629309654}
2019-04-14 17:36:48.41: SIM {TimeUS : 61434583, Roll : 0.19, Pitch : -17.28, Yaw : 34.84, Alt : 49.3100013733, Lat : 49.2837148, Lng : -123.1148667, Q1 : 0.943217396736, Q2 : 0.0466037578881, Q3 : -0.142890587449, Q4 : 0.296228408813}
2019-04-14 17:36:48.51: SIM {TimeUS : 61534543, Roll : 0.21, Pitch : -17.32, Yaw : 34.8, Alt : 49.3100013733, Lat : 49.283718, Lng : -123.1148631, Q1 : 0.943251848221, Q2 : 0.0467986650765, Q3 : -0.143138229847, Q4 : 0.295968413353}
2019-04-14 17:36:48.62: SIM {TimeUS : 61635336, Roll : 0.21, Pitch : -17.32, Yaw : 34.79, Alt : 49.3100013733, Lat : 49.2837212, Lng : -123.1148596, Q1 : 0.943282902241, Q2 : 0.0468359664083, Q3 : -0.143181502819, Q4 : 0.29584261775}
2019-04-14 17:36:48.71: SIM {TimeUS : 61735296, Roll : 0.21, Pitch : -17.33, Yaw : 34.79, Alt : 49.3100013733, Lat : 49.2837246, Lng : -123.1148561, Q1 : 0.943279087543, Q2 : 0.0468021258712, Q3 : -0.143280819058, Q4 : 0.295811980963}
2019-04-14 17:36:48.81: SIM {TimeUS : 61835256, Roll : 0.17, Pitch : -17.36, Yaw : 34.79, Alt : 49.3100013733, Lat : 49.2837278, Lng : -123.1148525, Q1 : 0.943237781525, Q2 : 0.0466036424041, Q3 : -0.143590927124, Q4 : 0.29582464695}
2019-04-14 17:36:48.91: SIM {TimeUS : 61935216, Roll : 0.14, Pitch : -17.39, Yaw : 34.81, Alt : 49.3100013733, Lat : 49.2837312, Lng : -123.1148489, Q1 : 0.943169593811, Q2 : 0.0464641414583, Q3 : -0.143914654851, Q4 : 0.295906722546}
2019-04-14 17:36:49.01: SIM {TimeUS : 62035176, Roll : 0.12, Pitch : -17.42, Yaw : 34.83, Alt : 49.3100013733, Lat : 49.2837344, Lng : -123.1148454, Q1 : 0.943098902702, Q2 : 0.0463320910931, Q3 : -0.144214898348, Q4 : 0.296006530523}
2019-04-14 17:36:49.11: SIM {TimeUS : 62135136, Roll : 0.09, Pitch : -17.44, Yaw : 34.84, Alt : 49.3100013733, Lat : 49.2837378, Lng : -123.1148418, Q1 : 0.943047106266, Q2 : 0.0462226122618, Q3 : -0.144412860274, Q4 : 0.296092033386}
2019-04-14 17:36:49.21: SIM {TimeUS : 62235096, Roll : 0.09, Pitch : -17.46, Yaw : 34.85, Alt : 49.3100013733, Lat : 49.2837411, Lng : -123.1148382, Q1 : 0.942993760109, Q2 : 0.0462539717555, Q3 : -0.144595235586, Q4 : 0.296168118715}
2019-04-14 17:36:49.31: SIM {TimeUS : 62335056, Roll : 0.09, Pitch : -17.47, Yaw : 34.86, Alt : 49.3100013733, Lat : 49.2837443, Lng : -123.1148346, Q1 : 0.942964315414, Q2 : 0.0463285706937, Q3 : -0.144690290093, Q4 : 0.296203732491}
2019-04-14 17:36:49.41: SIM {TimeUS : 62435016, Roll : 0.11, Pitch : -17.49, Yaw : 34.85, Alt : 49.3100013733, Lat : 49.2837478, Lng : -123.114831, Q1 : 0.942943692207, Q2 : 0.0464914850891, Q3 : -0.14483165741, Q4 : 0.296174764633}
2019-04-14 17:36:49.51: SIM {TimeUS : 62534976, Roll : 0.13, Pitch : -17.53, Yaw : 34.84, Alt : 49.3100013733, Lat : 49.283751, Lng : -123.1148272, Q1 : 0.942926168442, Q2 : 0.0467343404889, Q3 : -0.145070701838, Q4 : 0.296075344086}
2019-04-14 17:36:49.61: SIM {TimeUS : 62634936, Roll : 0.13, Pitch : -17.57, Yaw : 34.82, Alt : 49.3199996948, Lat : 49.2837545, Lng : -123.1148237, Q1 : 0.942922651768, Q2 : 0.046856969595, Q3 : -0.145445913076, Q4 : 0.295883089304}
2019-04-14 17:36:49.71: SIM {TimeUS : 62734896, Roll : 0.11, Pitch : -17.62, Yaw : 34.79, Alt : 49.3199996948, Lat : 49.2837579, Lng : -123.1148201, Q1 : 0.942939341068, Q2 : 0.0467673651874, Q3 : -0.145897820592, Q4 : 0.295621454716}
2019-04-14 17:36:49.81: SIM {TimeUS : 62834856, Roll : 0.1, Pitch : -17.66, Yaw : 34.76, Alt : 49.3199996948, Lat : 49.2837612, Lng : -123.1148164, Q1 : 0.942966222763, Q2 : 0.0467694923282, Q3 : -0.146264523268, Q4 : 0.295354008675}
2019-04-14 17:36:49.91: SIM {TimeUS : 62934816, Roll : 0.12, Pitch : -17.68, Yaw : 34.73, Alt : 49.3199996948, Lat : 49.2837646, Lng : -123.1148128, Q1 : 0.943008422852, Q2 : 0.046951495111, Q3 : -0.146416559815, Q4 : 0.295115053654}
2019-04-14 17:36:50.01: SIM {TimeUS : 63034776, Roll : 0.15, Pitch : -17.68, Yaw : 34.7, Alt : 49.3199996948, Lat : 49.2837679, Lng : -123.114809, Q1 : 0.943076431751, Q2 : 0.0471124984324, Q3 : -0.146348059177, Q4 : 0.294906020164}
2019-04-14 17:36:50.11: SIM {TimeUS : 63134736, Roll : 0.17, Pitch : -17.66, Yaw : 34.67, Alt : 49.3199996948, Lat : 49.2837714, Lng : -123.1148054, Q1 : 0.943163514137, Q2 : 0.0472084134817, Q3 : -0.146126881242, Q4 : 0.294721752405}
2019-04-14 17:36:50.21: SIM {TimeUS : 63234696, Roll : 0.17, Pitch : -17.64, Yaw : 34.65, Alt : 49.3199996948, Lat : 49.2837747, Lng : -123.1148017, Q1 : 0.943245232105, Q2 : 0.0471555031836, Q3 : -0.145984604955, Q4 : 0.294539153576}
2019-04-14 17:36:50.31: SIM {TimeUS : 63334656, Roll : 0.17, Pitch : -17.64, Yaw : 34.63, Alt : 49.3199996948, Lat : 49.2837782, Lng : -123.114798, Q1 : 0.943309366703, Q2 : 0.0470966100693, Q3 : -0.145927742124, Q4 : 0.294371247292}
2019-04-14 17:36:50.41: SIM {TimeUS : 63434616, Roll : 0.17, Pitch : -17.63, Yaw : 34.61, Alt : 49.3199996948, Lat : 49.2837816, Lng : -123.1147943, Q1 : 0.943367779255, Q2 : 0.0470323227346, Q3 : -0.145886823535, Q4 : 0.294214695692}
2019-04-14 17:36:50.51: SIM {TimeUS : 63534576, Roll : 0.16, Pitch : -17.65, Yaw : 34.59, Alt : 49.3199996948, Lat : 49.283785, Lng : -123.1147906, Q1 : 0.943390488625, Q2 : 0.0469869188964, Q3 : -0.14605820179, Q4 : 0.294064134359}
2019-04-14 17:36:50.61: SIM {TimeUS : 63634536, Roll : 0.15, Pitch : -17.68, Yaw : 34.58, Alt : 49.3199996948, Lat : 49.2837885, Lng : -123.1147869, Q1 : 0.943381905556, Q2 : 0.0470054000616, Q3 : -0.146365702152, Q4 : 0.293935537338}
2019-04-14 17:36:50.71: SIM {TimeUS : 63735329, Roll : 0.14, Pitch : -17.73, Yaw : 34.57, Alt : 49.3199996948, Lat : 49.283792, Lng : -123.1147832, Q1 : 0.943347871304, Q2 : 0.047006778419, Q3 : -0.146825790405, Q4 : 0.29381531477}
2019-04-14 17:36:50.81: SIM {TimeUS : 63835289, Roll : 0.14, Pitch : -17.78, Yaw : 34.56, Alt : 49.3199996948, Lat : 49.2837953, Lng : -123.1147794, Q1 : 0.943306088448, Q2 : 0.0471110567451, Q3 : -0.147249877453, Q4 : 0.293720364571}
2019-04-14 17:36:50.91: SIM {TimeUS : 63935249, Roll : 0.15, Pitch : -17.81, Yaw : 34.55, Alt : 49.3300018311, Lat : 49.2837989, Lng : -123.1147757, Q1 : 0.943290829659, Q2 : 0.0472255311906, Q3 : -0.147445440292, Q4 : 0.293652951717}
2019-04-14 17:36:51.01: SIM {TimeUS : 64035209, Roll : 0.15, Pitch : -17.83, Yaw : 34.55, Alt : 49.3300018311, Lat : 49.2838023, Lng : -123.1147719, Q1 : 0.943279743195, Q2 : 0.0472892411053, Q3 : -0.147635146976, Q4 : 0.293583035469}
2019-04-14 17:36:51.11: SIM {TimeUS : 64135169, Roll : 0.15, Pitch : -17.84, Yaw : 34.54, Alt : 49.3300018311, Lat : 49.2838057, Lng : -123.1147682, Q1 : 0.943282663822, Q2 : 0.0473178103566, Q3 : -0.147741511464, Q4 : 0.293515473604}
2019-04-14 17:36:51.21: SIM {TimeUS : 64235129, Roll : 0.17, Pitch : -17.83, Yaw : 34.53, Alt : 49.3300018311, Lat : 49.2838092, Lng : -123.1147645, Q1 : 0.943308472633, Q2 : 0.0474353544414, Q3 : -0.147619694471, Q4 : 0.293474882841}
2019-04-14 17:36:51.31: SIM {TimeUS : 64335089, Roll : 0.19, Pitch : -17.84, Yaw : 34.52, Alt : 49.3300018311, Lat : 49.2838127, Lng : -123.1147607, Q1 : 0.943310558796, Q2 : 0.0476584732533, Q3 : -0.147610604763, Q4 : 0.293436586857}
2019-04-14 17:36:51.41: SIM {TimeUS : 64435049, Roll : 0.2, Pitch : -17.86, Yaw : 34.51, Alt : 49.3300018311, Lat : 49.2838161, Lng : -123.114757, Q1 : 0.943300902843, Q2 : 0.0477871634066, Q3 : -0.147762596607, Q4 : 0.293370068073}
2019-04-14 17:36:51.51: SIM {TimeUS : 64535009, Roll : 0.21, Pitch : -17.88, Yaw : 34.5, Alt : 49.3300018311, Lat : 49.2838196, Lng : -123.1147532, Q1 : 0.943301379681, Q2 : 0.0478520393372, Q3 : -0.147892415524, Q4 : 0.293292582035}
2019-04-14 17:36:51.61: SIM {TimeUS : 64634969, Roll : 0.21, Pitch : -17.88, Yaw : 34.49, Alt : 49.3300018311, Lat : 49.2838232, Lng : -123.1147494, Q1 : 0.943327963352, Q2 : 0.0478789694607, Q3 : -0.147885352373, Q4 : 0.293206363916}
2019-04-14 17:36:51.71: SIM {TimeUS : 64734929, Roll : 0.21, Pitch : -17.88, Yaw : 34.48, Alt : 49.3300018311, Lat : 49.2838267, Lng : -123.1147457, Q1 : 0.943353116512, Q2 : 0.0478392764926, Q3 : -0.147952765226, Q4 : 0.293097764254}
2019-04-14 17:36:51.81: SIM {TimeUS : 64834889, Roll : 0.19, Pitch : -17.9, Yaw : 34.47, Alt : 49.3300018311, Lat : 49.2838302, Lng : -123.1147419, Q1 : 0.943369448185, Q2 : 0.0477029643953, Q3 : -0.148164048791, Q4 : 0.292960643768}
2019-04-14 17:36:51.91: SIM {TimeUS : 64934849, Roll : 0.16, Pitch : -17.94, Yaw : 34.46, Alt : 49.3300018311, Lat : 49.2838336, Lng : -123.1147381, Q1 : 0.943370878696, Q2 : 0.0475425608456, Q3 : -0.14851629734, Q4 : 0.292803734541}
2019-04-14 17:36:52.01: SIM {TimeUS : 65034809, Roll : 0.15, Pitch : -17.94, Yaw : 34.44, Alt : 49.3300018311, Lat : 49.2838372, Lng : -123.1147344, Q1 : 0.943406283855, Q2 : 0.0474433153868, Q3 : -0.148558914661, Q4 : 0.292684137821}
2019-04-14 17:36:52.11: SIM {TimeUS : 65134769, Roll : 0.16, Pitch : -17.93, Yaw : 34.43, Alt : 49.3300018311, Lat : 49.2838407, Lng : -123.1147306, Q1 : 0.943448364735, Q2 : 0.0474689863622, Q3 : -0.148453176022, Q4 : 0.292597979307}
2019-04-14 17:36:52.21: SIM {TimeUS : 65234729, Roll : 0.18, Pitch : -17.92, Yaw : 34.42, Alt : 49.3300018311, Lat : 49.2838442, Lng : -123.1147268, Q1 : 0.943482756615, Q2 : 0.0476215593517, Q3 : -0.148328736424, Q4 : 0.292525261641}
2019-04-14 17:36:52.31: SIM {TimeUS : 65334689, Roll : 0.19, Pitch : -17.93, Yaw : 34.4, Alt : 49.3300018311, Lat : 49.2838476, Lng : -123.114723, Q1 : 0.943499445915, Q2 : 0.0477425605059, Q3 : -0.148368924856, Q4 : 0.292431473732}
2019-04-14 17:36:52.41: SIM {TimeUS : 65434649, Roll : 0.19, Pitch : -17.95, Yaw : 34.39, Alt : 49.3300018311, Lat : 49.2838512, Lng : -123.1147192, Q1 : 0.943503379822, Q2 : 0.0477280020714, Q3 : -0.148569181561, Q4 : 0.292319327593}
2019-04-14 17:36:52.51: SIM {TimeUS : 65534609, Roll : 0.17, Pitch : -17.97, Yaw : 34.38, Alt : 49.3400001526, Lat : 49.2838548, Lng : -123.1147154, Q1 : 0.943510651588, Q2 : 0.0475894473493, Q3 : -0.14881311357, Q4 : 0.292194515467}
2019-04-14 17:36:52.61: SIM {TimeUS : 65634569, Roll : 0.16, Pitch : -17.99, Yaw : 34.37, Alt : 49.3400001526, Lat : 49.2838583, Lng : -123.1147116, Q1 : 0.943512439728, Q2 : 0.0475573912263, Q3 : -0.149013534188, Q4 : 0.292091608047}
2019-04-14 17:36:52.72: SIM {TimeUS : 65735362, Roll : 0.16, Pitch : -18.01, Yaw : 34.36, Alt : 49.3400001526, Lat : 49.2838619, Lng : -123.1147077, Q1 : 0.943514168262, Q2 : 0.0476254299283, Q3 : -0.149148285389, Q4 : 0.292006283998}
2019-04-14 17:36:52.81: SIM {TimeUS : 65835322, Roll : 0.17, Pitch : -18.02, Yaw : 34.35, Alt : 49.3400001526, Lat : 49.2838653, Lng : -123.1147039, Q1 : 0.943520367146, Q2 : 0.0477079674602, Q3 : -0.149217307568, Q4 : 0.291937500238}
2019-04-14 17:36:52.91: SIM {TimeUS : 65935282, Roll : 0.19, Pitch : -18.03, Yaw : 34.35, Alt : 49.3400001526, Lat : 49.2838688, Lng : -123.1147001, Q1 : 0.943517565727, Q2 : 0.0479008294642, Q3 : -0.149212956429, Q4 : 0.291917055845}
2019-04-14 17:36:53.01: SIM {TimeUS : 66035242, Roll : 0.2, Pitch : -18.04, Yaw : 34.34, Alt : 49.3400001526, Lat : 49.2838725, Lng : -123.1146963, Q1 : 0.943503201008, Q2 : 0.0480132550001, Q3 : -0.149324163795, Q4 : 0.291888237}
2019-04-14 17:36:53.11: SIM {TimeUS : 66135202, Roll : 0.21, Pitch : -18.06, Yaw : 34.34, Alt : 49.3400001526, Lat : 49.283876, Lng : -123.1146925, Q1 : 0.943482935429, Q2 : 0.0481390990317, Q3 : -0.149461522698, Q4 : 0.291862636805}
2019-04-14 17:36:53.21: SIM {TimeUS : 66235162, Roll : 0.22, Pitch : -18.08, Yaw : 34.34, Alt : 49.3400001526, Lat : 49.2838796, Lng : -123.1146886, Q1 : 0.943464696407, Q2 : 0.0482495427132, Q3 : -0.149595692754, Q4 : 0.291834831238}
2019-04-14 17:36:53.31: SIM {TimeUS : 66335122, Roll : 0.24, Pitch : -18.09, Yaw : 34.33, Alt : 49.3400001526, Lat : 49.2838831, Lng : -123.1146848, Q1 : 0.943449616432, Q2 : 0.0484096594155, Q3 : -0.149663746357, Q4 : 0.291822075844}
2019-04-14 17:36:53.41: SIM {TimeUS : 66435082, Roll : 0.27, Pitch : -18.11, Yaw : 34.33, Alt : 49.3400001526, Lat : 49.2838866, Lng : -123.114681, Q1 : 0.943427920341, Q2 : 0.0486862510443, Q3 : -0.149692282081, Q4 : 0.291831493378}
2019-04-14 17:36:53.51: SIM {TimeUS : 66535042, Roll : 0.27, Pitch : -18.1, Yaw : 34.33, Alt : 49.3400001526, Lat : 49.2838901, Lng : -123.1146772, Q1 : 0.943441808224, Q2 : 0.0486794821918, Q3 : -0.149655610323, Q4 : 0.291806578636}
2019-04-14 17:36:53.61: SIM {TimeUS : 66635002, Roll : 0.24, Pitch : -18.11, Yaw : 34.32, Alt : 49.3400001526, Lat : 49.2838938, Lng : -123.1146734, Q1 : 0.943454086781, Q2 : 0.0484890267253, Q3 : -0.149794384837, Q4 : 0.291727483273}
