2019-04-14 17:40:39.60: SIM {TimeUS : 40216407, Roll : 0.0, Pitch : 0.0, Yaw : 0.0, Alt : 30.1000003815, Lat : 49.28357, Lng : -123.11502, Q1 : 1.0, Q2 : 0.0, Q3 : 0.0, Q4 : 0.0}
2019-04-14 17:40:39.71: SIM {TimeUS : 40335526, Roll : 0.0, Pitch : 0.0, Yaw : 0.0, Alt : 30.1000003815, Lat : 49.28357, Lng : -123.11502, Q1 : 1.0, Q2 : 0.0, Q3 : 0.0, Q4 : 0.0}
2019-04-14 17:40:39.81: SIM {TimeUS : 40435486, Roll : 0.0, Pitch : 0.0, Yaw : 0.0, Alt : 30.1000003815, Lat : 49.28357, Lng : -123.11502, Q1 : 1.0, Q2 : 0.0, Q3 : 0.0, Q4 : 0.0}
2019-04-14 17:40:39.91: SIM {TimeUS : 40535446, Roll : 0.0, Pitch : 0.0, Yaw : 0.0, Alt : 30.1000003815, Lat : 49.28357, Lng : -123.11502, Q1 : 1.0, Q2 : 0.0, Q3 : 0.0, Q4 : 0.0}
2019-04-14 17:40:40.01: SIM {TimeUS : 40635406, Roll : 0.0, Pitch : 0.0, Yaw : 0.0, Alt : 30.1000003815, Lat : 49.28357, Lng : -123.11502, Q1 : 1.0, Q2 : 0.0, Q3 : 0.0, Q4 : 0.0}
2019-04-14 17:40:40.11: SIM {TimeUS : 40735366, Roll : 0.0, Pitch : 0.0, Yaw : 0.0, Alt : 30.1000003815, Lat : 49.28357, Lng : -123.11502, Q1 : 1.0, Q2 : 0.0, Q3 : 0.0, Q4 : 0.0}
2019-04-14 17:40:40.21: SIM {TimeUS : 40835326, Roll : 0.0, Pitch : 0.0, Yaw : 0.0, Alt : 30.1000003815, Lat : 49.28357, Lng : -123.11502, Q1 : 1.0, Q2 : 0.0, Q3 : 0.0, Q4 : 0.0}
2019-04-14 17:40:40.31: SIM {TimeUS : 40935286, Roll : 0.0, Pitch : 0.0, Yaw : 0.0, Alt : 30.1000003815, Lat : 49.28357, Lng : -123.11502, Q1 : 1.0, Q2 : 0.0, Q3 : 0.0, Q4 : 0.0}
2019-04-14 17:40:40.41: SIM {TimeUS : 41035246, Roll : 0.0, Pitch : 0.0, Yaw : 0.0, Alt : 30.1000003815, Lat : 49.28357, Lng : -123.11502, Q1 : 1.0, Q2 : 0.0, Q3 : 0.0, Q4 : 0.0}
2019-04-14 17:40:40.51: SIM {TimeUS : 41135206, Roll : 0.0, Pitch : 0.0, Yaw : 0.0, Alt : 30.1000003815, Lat : 49.28357, Lng : -123.11502, Q1 : 1.0, Q2 : 0.0, Q3 : 0.0, Q4 : 0.0}
2019-04-14 17:40:40.61: SIM {TimeUS : 41235166, Roll : 0.0, Pitch : 0.0, Yaw : 0.0, Alt : 30.1000003815, Lat : 49.28357, Lng : -123.11502, Q1 : 1.0, Q2 : 0.0, Q3 : 0.0, Q4 : 0.0}
2019-04-14 17:40:40.71: SIM {TimeUS : 41335126, Roll : 0.0, Pitch : 0.0, Yaw : 0.0, Alt : 30.1000003815, Lat : 49.28357, Lng : -123.11502, Q1 : 1.0, Q2 : 0.0, Q3 : 0.0, Q4 : 0.0}
2019-04-14 17:40:40.81: SIM {TimeUS : 41435086, Roll : 0.0, Pitch : 0.0, Yaw : 0.0, Alt : 30.1000003815, Lat : 49.28357, Lng : -123.11502, Q1 : 1.0, Q2 : 0.0, Q3 : 0.0, Q4 : 0.0}
2019-04-14 17:40:40.91: SIM {TimeUS : 41535046, Roll : 0.0, Pitch : 0.0, Yaw : 0.0, Alt : 30.1000003815, Lat : 49.28357, Lng : -123.11502, Q1 : 1.0, Q2 : 0.0, Q3 : 0.0, Q4 : 0.0}
2019-04-14 17:40:41.01: SIM {TimeUS : 41635006, Roll : 0.0, Pitch : 0.0, Yaw : 0.0, Alt : 30.1000003815, Lat : 49.28357, Lng : -123.11502, Q1 : 1.0, Q2 : 0.0, Q3 : 0.0, Q4 : 0.0}
2019-04-14 17:40:41.11: SIM {TimeUS : 41734966, Roll : 0.0, Pitch : 0.0, Yaw : 0.0, Alt : 30.1000003815, Lat : 49.28357, Lng : -123.11502, Q1 : 1.0, Q2 : 0.0, Q3 : 0.0, Q4 : 0.0}
2019-04-14 17:40:41.21: SIM {TimeUS : 41834926, Roll : 0.0, Pitch : 0.0, Yaw : 0.0, Alt : 30.1000003815, Lat : 49.28357, Lng : -123.11502, Q1 : 1.0, Q2 : 0.0, Q3 : 0.0, Q4 : 0.0}
2019-04-14 17:40:41.31: SIM {TimeUS : 41934886, Roll : 0.0, Pitch : 0.0, Yaw : 0.0, Alt : 30.1000003815, Lat : 49.28357, Lng : -123.11502, Q1 : 1.0, Q2 : 0.0, Q3 : 0.0, Q4 : 0.0}
2019-04-14 17:40:41.41: SIM {TimeUS : 42034846, Roll : 0.0, Pitch : 0.0, Yaw : 0.0, Alt : 30.1000003815, Lat : 49.28357, Lng : -123.11502, Q1 : 1.0, Q2 : 0.0, Q3 : 0.0, Q4 : 0.0}
2019-04-14 17:40:41.51: SIM {TimeUS : 42134806, Roll : 0.0, Pitch : 0.0, Yaw : 0.0, Alt : 30.1000003815, Lat : 49.28357, Lng : -123.11502, Q1 : 1.0, Q2 : 0.0, Q3 : 0.0, Q4 : 0.0}
2019-04-14 17:40:41.61: SIM {TimeUS : 42234766, Roll : 0.0, Pitch : 0.0, Yaw : 0.0, Alt : 30.1000003815, Lat : 49.28357, Lng : -123.11502, Q1 : 1.0, Q2 : 0.0, Q3 : 0.0, Q4 : 0.0}
2019-04-14 17:40:41.71: SIM {TimeUS : 42335559, Roll : 0.0, Pitch : 0.0, Yaw : 0.0, Alt : 30.1000003815, Lat : 49.28357, Lng : -123.11502, Q1 : 1.0, Q2 : 0.0, Q3 : 0.0, Q4 : 0.0}
2019-04-14 17:40:41.81: SIM {TimeUS : 42435519, Roll : 0.0, Pitch : 0.0, Yaw : 0.0, Alt : 30.1000003815, Lat : 49.28357, Lng : -123.11502, Q1 : 1.0, Q2 : 0.0, Q3 : 0.0, Q4 : 0.0}
2019-04-14 17:40:41.91: SIM {TimeUS : 42535479, Roll : 0.0, Pitch : 0.0, Yaw : 360.0, Alt : 30.1000003815, Lat : 49.28357, Lng : -123.11502, Q1 : 1.0, Q2 : 0.0, Q3 : 0.0, Q4 : -1.4079991513e-12}
2019-04-14 17:40:42.01: SIM {TimeUS : 42635439, Roll : 0.0, Pitch : 0.0, Yaw : 0.0, Alt : 30.1000003815, Lat : 49.28357, Lng : -123.11502, Q1 : 1.0, Q2 : 0.0, Q3 : 0.0, Q4 : 2.27504577677e-11}
2019-04-14 17:40:42.11: SIM {TimeUS : 42735399, Roll : 0.0, Pitch : 0.0, Yaw : 360.0, Alt : 30.1000003815, Lat : 49.28357, Lng : -123.11502, Q1 : 1.0, Q2 : 0.0, Q3 : 0.0, Q4 : -1.59843224878e-07}
2019-04-14 17:40:42.21: SIM {TimeUS : 42835359, Roll : 0.0, Pitch : 0.0, Yaw : 359.99, Alt : 30.1000003815, Lat : 49.28357, Lng : -123.11502, Q1 : 1.0, Q2 : 0.0, Q3 : 0.0, Q4 : -3.35634098292e-07}
2019-04-14 17:40:42.31: SIM {TimeUS : 42935319, Roll : 0.0, Pitch : 0.0, Yaw : 359.99, Alt : 30.1000003815, Lat : 49.28357, Lng : -123.11502, Q1 : 1.0, Q2 : 0.0, Q3 : 0.0, Q4 : -5.30330851234e-07}
2019-04-14 17:40:42.41: SIM {TimeUS : 43035279, Roll : 0.0, Pitch : 0.0, Yaw : 359.99, Alt : 30.1000003815, Lat : 49.28357, Lng : -123.11502, Q1 : 1.0, Q2 : 0.0, Q3 : 0.0, Q4 : -7.0279997999e-07}
2019-04-14 17:40:42.51: SIM {TimeUS : 43135239, Roll : 0.0, Pitch : 0.0, Yaw : 359.99, Alt : 30.1000003815, Lat : 49.28357, Lng : -123.11502, Q1 : 1.0, Q2 : 0.0, Q3 : 0.0, Q4 : -8.95855578165e-07}
2019-04-14 17:40:42.61: SIM {TimeUS : 43235199, Roll : 0.0, Pitch : 0.0, Yaw : 359.99, Alt : 30.1000003815, Lat : 49.28357, Lng : -123.11502, Q1 : 1.0, Q2 : 0.0, Q3 : 0.0, Q4 : -1.11297538297e-06}
2019-04-14 17:40:42.71: SIM {TimeUS : 43335159, Roll : 0.0, Pitch : 0.0, Yaw : 359.99, Alt : 30.1000003815, Lat : 49.28357, Lng : -123.11502, Q1 : 1.0, Q2 : 0.0, Q3 : 0.0, Q4 : -1.30506930418e-06}
2019-04-14 17:40:42.81: SIM {TimeUS : 43435119, Roll : 0.0, Pitch : 0.0, Yaw : 359.99, Alt : 30.1100006104, Lat : 49.28357, Lng : -123.11502, Q1 : 1.0, Q2 : 0.0, Q3 : 0.0, Q4 : -1.4928185692e-06}
2019-04-14 17:40:42.91: SIM {TimeUS : 43535079, Roll : 0.0, Pitch : 0.0, Yaw : 359.99, Alt : 30.1399993896, Lat : 49.28357, Lng : -123.11502, Q1 : 1.0, Q2 : 0.0, Q3 : 0.0, Q4 : -1.69133784311e-06}
2019-04-14 17:40:43.01: SIM {TimeUS : 43635039, Roll : 0.0, Pitch : 0.0, Yaw : 359.99, Alt : 30.1599998474, Lat : 49.28357, Lng : -123.11502, Q1 : 1.0, Q2 : 0.0, Q3 : 0.0, Q4 : -1.9500905637e-06}
2019-04-14 17:40:43.11: SIM {TimeUS : 43734999, Roll : 0.0, Pitch : 0.0, Yaw : 359.99, Alt : 30.2000007629, Lat : 49.28357, Lng : -123.11502, Q1 : 1.0, Q2 : 0.0, Q3 : 0.0, Q4 : -2.19298453885e-06}
2019-04-14 17:40:43.21: SIM {TimeUS : 43834959, Roll : -0.1, Pitch : -0.08, Yaw : 359.99, Alt : 30.25, Lat : 49.28357, Lng : -123.11502, Q1 : 0.999999284744, Q2 : -0.000912581162993, Q3 : -0.000741350348108, Q4 : -9.24715550354e-06}
2019-04-14 17:40:43.31: SIM {TimeUS : 43934919, Roll : -0.41, Pitch : -0.33, Yaw : 359.99, Alt : 30.3400001526, Lat : 49.28357, Lng : -123.11502, Q1 : 0.999989271164, Q2 : -0.00358360912651, Q3 : -0.00293778558262, Q4 : -4.30985710409e-05}
2019-04-14 17:40:43.41: SIM {TimeUS : 44034879, Roll : -0.69, Pitch : -0.59, Yaw : 359.99, Alt : 30.4899997711, Lat : 49.28357, Lng : -123.11502, Q1 : 0.99996817112, Q2 : -0.00607506604865, Q3 : -0.00516904657707, Q4 : -0.000104972183181}
2019-04-14 17:40:43.51: SIM {TimeUS : 44134839, Roll : -0.84, Pitch : -0.73, Yaw : 359.98, Alt : 30.6499996185, Lat : 49.28357, Lng : -123.11502, Q1 : 0.999952077866, Q2 : -0.0073597826995, Q3 : -0.00645596720278, Q4 : -0.000187538156752}
2019-04-14 17:40:43.61: SIM {TimeUS : 44234799, Roll : -0.83, Pitch : -0.75, Yaw : 359.97, Alt : 30.7999992371, Lat : 49.28357, Lng : -123.11502, Q1 : 0.999951660633, Q2 : -0.0073272860609, Q3 : -0.0065546547994, Q4 : -0.000282185093965}
2019-04-14 17:40:43.71: SIM {TimeUS : 44334759, Roll : -0.7, Pitch : -0.63, Yaw : 359.96, Alt : 30.9599990845, Lat : 49.28357, Lng : -123.1150201, Q1 : 0.999965727329, Q2 : -0.00614675972611, Q3 : -0.0055364347063, Q4 : -0.000375719624572}
2019-04-14 17:40:43.81: SIM {TimeUS : 44435552, Roll : -0.46, Pitch : -0.46, Yaw : 359.94, Alt : 31.1100006104, Lat : 49.2835701, Lng : -123.1150202, Q1 : 0.999983429909, Q2 : -0.00410219281912, Q3 : -0.00401744479313, Q4 : -0.000458170252386}
2019-04-14 17:40:43.91: SIM {TimeUS : 44535512, Roll : -0.23, Pitch : -0.26, Yaw : 359.94, Alt : 31.2700004578, Lat : 49.2835701, Lng : -123.1150203, Q1 : 0.999995172024, Q2 : -0.00200858083554, Q3 : -0.00231792218983, Q4 : -0.000521853507962}
2019-04-14 17:40:44.01: SIM {TimeUS : 44635472, Roll : -0.06, Pitch : -0.09, Yaw : 359.93, Alt : 31.4400005341, Lat : 49.2835702, Lng : -123.1150204, Q1 : 0.999999403954, Q2 : -0.000525479728822, Q3 : -0.000798519235104, Q4 : -0.000564720947295}
2019-04-14 17:40:44.11: SIM {TimeUS : 44735432, Roll : 0.03, Pitch : 0.01, Yaw : 359.93, Alt : 31.6100006104, Lat : 49.2835702, Lng : -123.1150204, Q1 : 0.999999761581, Q2 : 0.000300386571325, Q3 : 0.0001596234506, Q4 : -0.00058682251256}
2019-04-14 17:40:44.21: SIM {TimeUS : 44835392, Roll : 0.06, Pitch : 0.06, Yaw : 359.93, Alt : 31.7900009155, Lat : 49.2835703, Lng : -123.1150205, Q1 : 0.999999523163, Q2 : 0.00058112462284, Q3 : 0.00053701584693, Q4 : -0.000595444755163}
2019-04-14 17:40:44.31: SIM {TimeUS : 44935352, Roll : 0.06, Pitch : 0.05, Yaw : 359.93, Alt : 31.9799995422, Lat : 49.2835703, Lng : -123.1150206, Q1 : 0.999999582767, Q2 : 0.000561543332879, Q3 : 0.000495876418427, Q4 : -0.000592176918872}
2019-04-14 17:40:44.41: SIM {TimeUS : 45035312, Roll : 0.06, Pitch : 0.03, Yaw : 359.93, Alt : 32.1599998474, Lat : 49.2835703, Lng : -123.1150206, Q1 : 0.999999642372, Q2 : 0.000571817159653, Q3 : 0.000307279493427, Q4 : -0.000580029329285}
2019-04-14 17:40:44.51: SIM {TimeUS : 45135272, Roll : 0.07, Pitch : 0.02, Yaw : 359.93, Alt : 32.3499984741, Lat : 49.2835703, Lng : -123.1150207, Q1 : 0.999999582767, Q2 : 0.000691973255016, Q3 : 0.000250875222264, Q4 : -0.0005628860672}
2019-04-14 17:40:44.61: SIM {TimeUS : 45235232, Roll : 0.09, Pitch : 0.05, Yaw : 359.93, Alt : 32.5499992371, Lat : 49.2835703, Lng : -123.1150207, Q1 : 0.999999403954, Q2 : 0.0008570595528, Q3 : 0.000467280624434, Q4 : -0.000534283579327}
2019-04-14 17:40:44.71: SIM {TimeUS : 45335192, Roll : 0.11, Pitch : 0.09, Yaw : 359.94, Alt : 32.7400016785, Lat : 49.2835703, Lng : -123.1150208, Q1 : 0.999999046326, Q2 : 0.000960929493885, Q3 : 0.000834721373394, Q4 : -0.000495802960359}
2019-04-14 17:40:44.81: SIM {TimeUS : 45435152, Roll : 0.11, Pitch : 0.14, Yaw : 359.94, Alt : 32.9399986267, Lat : 49.2835704, Lng : -123.1150208, Q1 : 0.999998688698, Q2 : 0.000989304156974, Q3 : 0.00122308032587, Q4 : -0.00046194109018}
2019-04-14 17:40:44.91: SIM {TimeUS : 45535112, Roll : 0.12, Pitch : 0.18, Yaw : 359.94, Alt : 33.1399993896, Lat : 49.2835704, Lng : -123.1150208, Q1 : 0.999997973442, Q2 : 0.00112411542796, Q3 : 0.00161863164976, Q4 : -0.000440939678811}
2019-04-14 17:40:45.01: SIM {TimeUS : 45635072, Roll : 0.15, Pitch : 0.2, Yaw : 359.95, Alt : 33.3499984741, Lat : 49.2835704, Lng : -123.1150209, Q1 : 0.999997317791, Q2 : 0.00133944430854, Q3 : 0.00182645628229, Q4 : -0.000435221940279}
2019-04-14 17:40:45.11: SIM {TimeUS : 45735032, Roll : 0.17, Pitch : 0.21, Yaw : 359.94, Alt : 33.5499992371, Lat : 49.2835704, Lng : -123.1150209, Q1 : 0.999997019768, Q2 : 0.00150051247329, Q3 : 0.00186236971058, Q4 : -0.000443149474449}
2019-04-14 17:40:45.21: SIM {TimeUS : 45834992, Roll : 0.17, Pitch : 0.2, Yaw : 359.94, Alt : 33.7599983215, Lat : 49.2835704, Lng : -123.1150209, Q1 : 0.999997079372, Q2 : 0.00153584161308, Q3 : 0.00182725512423, Q4 : -0.000459245522507}
2019-04-14 17:40:45.31: SIM {TimeUS : 45934952, Roll : 0.17, Pitch : 0.17, Yaw : 359.94, Alt : 33.9700012207, Lat : 49.2835704, Lng : -123.1150209, Q1 : 0.99999755621, Q2 : 0.00151589163579, Q3 : 0.00153846596368, Q4 : -0.00048602357856}
2019-04-14 17:40:45.41: SIM {TimeUS : 46034912, Roll : 0.16, Pitch : 0.13, Yaw : 359.94, Alt : 34.1800003052, Lat : 49.2835706, Lng : -123.1150209, Q1 : 0.999998211861, Q2 : 0.00141211226583, Q3 : 0.00114430580288, Q4 : -0.000502708368003}
2019-04-14 17:40:45.51: SIM {TimeUS : 46134872, Roll : 0.14, Pitch : 0.09, Yaw : 359.94, Alt : 34.3899993896, Lat : 49.2835706, Lng : -123.1150209, Q1 : 0.999998748302, Q2 : 0.00123278575484, Q3 : 0.000870300631505, Q4 : -0.000521672947798}
2019-04-14 17:40:45.61: SIM {TimeUS : 46234832, Roll : 0.12, Pitch : 0.08, Yaw : 359.93, Alt : 34.5999984741, Lat : 49.2835706, Lng : -123.1150209, Q1 : 0.999998986721, Q2 : 0.00108881306369, Q3 : 0.000723425473552, Q4 : -0.000547046191059}
2019-04-14 17:40:45.71: SIM {TimeUS : 46334792, Roll : 0.11, Pitch : 0.08, Yaw : 359.93, Alt : 34.8199996948, Lat : 49.2835704, Lng : -123.1150209, Q1 : 0.999999046326, Q2 : 0.0010294849053, Q3 : 0.000720582902431, Q4 : -0.000583461602218}
2019-04-14 17:40:45.81: SIM {TimeUS : 46434752, Roll : 0.1, Pitch : 0.06, Yaw : 359.92, Alt : 35.0299987793, Lat : 49.2835704, Lng : -123.1150208, Q1 : 0.999999284744, Q2 : 0.00088610308012, Q3 : 0.000537261134014, Q4 : -0.000611818220932}
2019-04-14 17:40:45.91: SIM {TimeUS : 46535545, Roll : 0.07, Pitch : 0.03, Yaw : 359.92, Alt : 35.25, Lat : 49.2835704, Lng : -123.1150208, Q1 : 0.999999523163, Q2 : 0.000652969756629, Q3 : 0.000340084050549, Q4 : -0.000636015436612}
2019-04-14 17:40:46.01: SIM {TimeUS : 46635505, Roll : 0.04, Pitch : 0.02, Yaw : 359.92, Alt : 35.4700012207, Lat : 49.2835704, Lng : -123.1150208, Q1 : 0.999999642372, Q2 : 0.000415386632085, Q3 : 0.000225169103942, Q4 : -0.00066378666088}
2019-04-14 17:40:46.11: SIM {TimeUS : 46735465, Roll : 0.02, Pitch : 0.02, Yaw : 359.92, Alt : 35.6899986267, Lat : 49.2835704, Lng : -123.1150208, Q1 : 0.999999701977, Q2 : 0.000217782246182, Q3 : 0.000242700160015, Q4 : -0.000692743924446}
2019-04-14 17:40:46.21: SIM {TimeUS : 46835425, Roll : 0.01, Pitch : 0.01, Yaw : 359.91, Alt : 35.9099998474, Lat : 49.2835704, Lng : -123.1150208, Q1 : 0.999999701977, Q2 : 0.000130938642542, Q3 : 0.000128214844153, Q4 : -0.000716481707059}
2019-04-14 17:40:46.31: SIM {TimeUS : 46935385, Roll : 0.01, Pitch : 0.0, Yaw : 359.91, Alt : 36.1300010681, Lat : 49.2835704, Lng : -123.1150207, Q1 : 0.999999701977, Q2 : 8.81044397829e-05, Q3 : 2.93051271001e-05, Q4 : -0.000742486852687}
2019-04-14 17:40:46.41: SIM {TimeUS : 47035345, Roll : 0.0, Pitch : 0.0, Yaw : 359.91, Alt : 36.3499984741, Lat : 49.2835704, Lng : -123.1150207, Q1 : 0.999999701977, Q2 : -5.92571893776e-07, Q3 : -2.80721178569e-05, Q4 : -0.000773688429035}
2019-04-14 17:40:46.51: SIM {TimeUS : 47135305, Roll : 0.0, Pitch : 0.0, Yaw : 359.9, Alt : 36.5699996948, Lat : 49.2835704, Lng : -123.1150207, Q1 : 0.999999701977, Q2 : 8.51639470056e-06, Q3 : -8.95089669939e-06, Q4 : -0.000806430063676}
2019-04-14 17:40:46.61: SIM {TimeUS : 47235265, Roll : 0.01, Pitch : 0.0, Yaw : 359.9, Alt : 36.7900009155, Lat : 49.2835704, Lng : -123.1150207, Q1 : 0.999999642372, Q2 : 0.00014348050172, Q3 : -3.89915585401e-05, Q4 : -0.00083739834372}
2019-04-14 17:40:46.71: SIM {TimeUS : 47335225, Roll : 0.0, Pitch : -0.02, Yaw : 359.9, Alt : 37.0200004578, Lat : 49.2835704, Lng : -123.1150207, Q1 : 0.999999642372, Q2 : 8.21090507088e-05, Q3 : -0.000190774982912, Q4 : -0.000864287372679}
2019-04-14 17:40:46.81: SIM {TimeUS : 47435185, Roll : -0.02, Pitch : -0.05, Yaw : 359.89, Alt : 37.2400016785, Lat : 49.2835704, Lng : -123.1150207, Q1 : 0.999999463558, Q2 : -0.00020338066679, Q3 : -0.000506779935677, Q4 : -0.000896928017028}
2019-04-14 17:40:46.91: SIM {TimeUS : 47535145, Roll : -0.06, Pitch : -0.08, Yaw : 359.89, Alt : 37.4700012207, Lat : 49.2835704, Lng : -123.1150207, Q1 : 0.99999910593, Q2 : -0.000610477349255, Q3 : -0.000777685956564, Q4 : -0.000929627334699}
2019-04-14 17:40:47.01: SIM {TimeUS : 47635105, Roll : -0.11, Pitch : -0.1, Yaw : 359.89, Alt : 37.6899986267, Lat : 49.2835704, Lng : -123.1150206, Q1 : 0.999998629093, Q2 : -0.00097835122142, Q3 : -0.00092120456975, Q4 : -0.000960815174039}
2019-04-14 17:40:47.11: SIM {TimeUS : 47735065, Roll : -0.13, Pitch : -0.11, Yaw : 359.88, Alt : 37.9199981689, Lat : 49.2835704, Lng : -123.1150206, Q1 : 0.99999833107, Q2 : -0.00119658850599, Q3 : -0.000969092012383, Q4 : -0.000994058093056}
2019-04-14 17:40:47.21: SIM {TimeUS : 47835025, Roll : -0.14, Pitch : -0.1, Yaw : 359.88, Alt : 38.1500015259, Lat : 49.2835704, Lng : -123.1150206, Q1 : 0.99999833107, Q2 : -0.00124426628463, Q3 : -0.000871530210134, Q4 : -0.00102522096131}
2019-04-14 17:40:47.31: SIM {TimeUS : 47934985, Roll : -0.12, Pitch : -0.06, Yaw : 359.88, Alt : 38.3699989319, Lat : 49.2835704, Lng : -123.1150206, Q1 : 0.999998688698, Q2 : -0.00109808798879, Q3 : -0.000550828175619, Q4 : -0.00104733766057}
2019-04-14 17:40:47.41: SIM {TimeUS : 48034945, Roll : -0.09, Pitch : -0.03, Yaw : 359.87, Alt : 38.5999984741, Lat : 49.2835704, Lng : -123.1150206, Q1 : 0.999998986721, Q2 : -0.000864647328854, Q3 : -0.000333485601004, Q4 : -0.00106852978934}
2019-04-14 17:40:47.51: SIM {TimeUS : 48134905, Roll : -0.08, Pitch : -0.03, Yaw : 359.87, Alt : 38.8300018311, Lat : 49.2835704, Lng : -123.1150206, Q1 : 0.99999910593, Q2 : -0.000721746881027, Q3 : -0.000292313372483, Q4 : -0.00109189329669}
2019-04-14 17:40:47.61: SIM {TimeUS : 48234865, Roll : -0.07, Pitch : -0.01, Yaw : 359.87, Alt : 39.0600013733, Lat : 49.2835704, Lng : -123.1150206, Q1 : 0.999999165535, Q2 : -0.000665236904752, Q3 : -0.00012626699754, Q4 : -0.00110336975195}
2019-04-14 17:40:47.71: SIM {TimeUS : 48334825, Roll : -0.08, Pitch : 0.0, Yaw : 359.87, Alt : 39.2900009155, Lat : 49.2835704, Lng : -123.1150206, Q1 : 0.99999910593, Q2 : -0.000754632172175, Q3 : 6.71965026413e-05, Q4 : -0.00111266307067}
2019-04-14 17:40:47.81: SIM {TimeUS : 48434785, Roll : -0.08, Pitch : 0.02, Yaw : 359.87, Alt : 39.5200004578, Lat : 49.2835704, Lng : -123.1150206, Q1 : 0.99999910593, Q2 : -0.000712596287485, Q3 : 0.000204266878427, Q4 : -0.00111659977119}
2019-04-14 17:40:47.91: SIM {TimeUS : 48534745, Roll : -0.06, Pitch : 0.04, Yaw : 359.87, Alt : 39.75, Lat : 49.2835706, Lng : -123.1150206, Q1 : 0.99999910593, Q2 : -0.000564241374377, Q3 : 0.000426582264481, Q4 : -0.00112231110688}
2019-04-14 17:40:48.01: SIM {TimeUS : 48635538, Roll : -0.04, Pitch : 0.04, Yaw : 359.87, Alt : 39.9799995422, Lat : 49.2835706, Lng : -123.1150206, Q1 : 0.99999922514, Q2 : -0.00035240573925, Q3 : 0.000420077878516, Q4 : -0.00112796877511}
2019-04-14 17:40:48.11: SIM {TimeUS : 48735498, Roll : -0.01, Pitch : 0.03, Yaw : 359.86, Alt : 40.2200012207, Lat : 49.2835706, Lng : -123.1150206, Q1 : 0.999999284744, Q2 : -0.000111191133328, Q3 : 0.000344125670381, Q4 : -0.00113603728823}
2019-04-14 17:40:48.21: SIM {TimeUS : 48835458, Roll : 0.01, Pitch : 0.05, Yaw : 359.86, Alt : 40.4500007629, Lat : 49.2835706, Lng : -123.1150207, Q1 : 0.99999922514, Q2 : 0.000165315126651, Q3 : 0.000494208710734, Q4 : -0.0011407895945}
2019-04-14 17:40:48.31: SIM {TimeUS : 48935418, Roll : 0.06, Pitch : 0.09, Yaw : 359.86, Alt : 40.6800003052, Lat : 49.2835706, Lng : -123.1150207, Q1 : 0.999998807907, Q2 : 0.000554864585865, Q3 : 0.000838307139929, Q4 : -0.00114952493459}
2019-04-14 17:40:48.41: SIM {TimeUS : 49035378, Roll : 0.09, Pitch : 0.13, Yaw : 359.86, Alt : 40.9099998474, Lat : 49.2835706, Lng : -123.1150207, Q1 : 0.999998271465, Q2 : 0.000834810372908, Q3 : 0.00119947176427, Q4 : -0.00116376660299}
2019-04-14 17:40:48.51: SIM {TimeUS : 49135338, Roll : 0.08, Pitch : 0.17, Yaw : 359.86, Alt : 41.1399993896, Lat : 49.2835706, Lng : -123.1150207, Q1 : 0.999997913837, Q2 : 0.000766486569773, Q3 : 0.00149478891399, Q4 : -0.0011699370807}
2019-04-14 17:40:48.61: SIM {TimeUS : 49235298, Roll : 0.04, Pitch : 0.19, Yaw : 359.86, Alt : 41.3800010681, Lat : 49.2835706, Lng : -123.1150207, Q1 : 0.999997794628, Q2 : 0.000364130362868, Q3 : 0.00169359357096, Q4 : -0.00118227663916}
2019-04-14 17:40:48.71: SIM {TimeUS : 49335258, Roll : 0.0, Pitch : 0.2, Yaw : 359.86, Alt : 41.6100006104, Lat : 49.2835706, Lng : -123.1150207, Q1 : 0.999997735023, Q2 : -4.94007554153e-06, Q3 : 0.00176789215766, Q4 : -0.00119768676814}
2019-04-14 17:40:48.81: SIM {TimeUS : 49435218, Roll : -0.02, Pitch : 0.17, Yaw : 359.86, Alt : 41.8400001526, Lat : 49.2835706, Lng : -123.1150207, Q1 : 0.999998092651, Q2 : -0.000184361750144, Q3 : 0.00152400054503, Q4 : -0.00121158198453}
2019-04-14 17:40:48.91: SIM {TimeUS : 49535178, Roll : -0.02, Pitch : 0.13, Yaw : 359.85, Alt : 42.0800018311, Lat : 49.2835706, Lng : -123.1150207, Q1 : 0.999998509884, Q2 : -0.00019747231272, Q3 : 0.0011720060138, Q4 : -0.00123448029626}
2019-04-14 17:40:49.01: SIM {TimeUS : 49635138, Roll : 0.0, Pitch : 0.12, Yaw : 359.85, Alt : 42.3100013733, Lat : 49.2835706, Lng : -123.1150207, Q1 : 0.999998629093, Q2 : -5.19039240316e-05, Q3 : 0.00108656578232, Q4 : -0.00126741768327}
2019-04-14 17:40:49.11: SIM {TimeUS : 49735098, Roll : 0.03, Pitch : 0.13, Yaw : 359.85, Alt : 42.5499992371, Lat : 49.2835706, Lng : -123.1150207, Q1 : 0.999998450279, Q2 : 0.000286236929242, Q3 : 0.00115300831385, Q4 : -0.00130815792363}
2019-04-14 17:40:49.21: SIM {TimeUS : 49835058, Roll : 0.08, Pitch : 0.14, Yaw : 359.84, Alt : 42.7799987793, Lat : 49.2835706, Lng : -123.1150207, Q1 : 0.999998092651, Q2 : 0.000714382913429, Q3 : 0.00122669083066, Q4 : -0.00135033391416}
2019-04-14 17:40:49.31: SIM {TimeUS : 49935018, Roll : 0.11, Pitch : 0.12, Yaw : 359.84, Alt : 43.0200004578, Lat : 49.2835706, Lng : -123.1150207, Q1 : 0.999997854233, Q2 : 0.00102303456515, Q3 : 0.00111487240065, Q4 : -0.00139625056181}
2019-04-14 17:40:49.41: SIM {TimeUS : 50034978, Roll : 0.11, Pitch : 0.1, Yaw : 359.83, Alt : 43.25, Lat : 49.2835706, Lng : -123.1150207, Q1 : 0.999998033047, Q2 : 0.00102674146183, Q3 : 0.000899853999726, Q4 : -0.00144039816223}
2019-04-14 17:40:49.51: SIM {TimeUS : 50134938, Roll : 0.07, Pitch : 0.08, Yaw : 359.83, Alt : 43.4900016785, Lat : 49.2835704, Lng : -123.1150207, Q1 : 0.999998450279, Q2 : 0.000660879886709, Q3 : 0.000744930061046, Q4 : -0.00146445725113}
2019-04-14 17:40:49.61: SIM {TimeUS : 50234898, Roll : 0.01, Pitch : 0.07, Yaw : 359.83, Alt : 43.7200012207, Lat : 49.2835704, Lng : -123.1150207, Q1 : 0.999998688698, Q2 : 0.000147330152686, Q3 : 0.000688921078108, Q4 : -0.00147950055543}
2019-04-14 17:40:49.71: SIM {TimeUS : 50334858, Roll : -0.02, Pitch : 0.08, Yaw : 359.82, Alt : 43.9599990845, Lat : 49.2835704, Lng : -123.1150207, Q1 : 0.999998569489, Q2 : -0.00022817136778, Q3 : 0.000761214003433, Q4 : -0.00149607728235}
2019-04-14 17:40:49.81: SIM {TimeUS : 50434818, Roll : -0.04, Pitch : 0.08, Yaw : 359.82, Alt : 44.1899986267, Lat : 49.2835704, Lng : -123.1150207, Q1 : 0.999998450279, Q2 : -0.000420421303716, Q3 : 0.000764746917412, Q4 : -0.00151140056551}
2019-04-14 17:40:49.91: SIM {TimeUS : 50534778, Roll : -0.04, Pitch : 0.07, Yaw : 359.82, Alt : 44.4300003052, Lat : 49.2835704, Lng : -123.1150206, Q1 : 0.999998569489, Q2 : -0.000378767377697, Q3 : 0.000620465318207, Q4 : -0.00153241970111}
2019-04-14 17:40:50.01: SIM {TimeUS : 50634738, Roll : -0.04, Pitch : 0.05, Yaw : 359.82, Alt : 44.6599998474, Lat : 49.2835704, Lng : -123.1150206, Q1 : 0.999998569489, Q2 : -0.000391305977246, Q3 : 0.000455684203189, Q4 : -0.00156469782814}
2019-04-14 17:40:50.11: SIM {TimeUS : 50735531, Roll : -0.03, Pitch : 0.03, Yaw : 359.81, Alt : 44.9000015259, Lat : 49.2835704, Lng : -123.1150206, Q1 : 0.999998629093, Q2 : -0.000336787197739, Q3 : 0.000274531892501, Q4 : -0.00159821996931}
2019-04-14 17:40:50.21: SIM {TimeUS : 50835491, Roll : -0.02, Pitch : 0.01, Yaw : 359.81, Alt : 45.1399993896, Lat : 49.2835703, Lng : -123.1150206, Q1 : 0.999998629093, Q2 : -0.000175077278982, Q3 : 0.000142757882713, Q4 : -0.00163788499776}
2019-04-14 17:40:50.31: SIM {TimeUS : 50935451, Roll : -0.01, Pitch : 0.01, Yaw : 359.8, Alt : 45.3699989319, Lat : 49.2835703, Lng : -123.1150206, Q1 : 0.999998569489, Q2 : -0.000136021248181, Q3 : 9.12029063329e-05, Q4 : -0.00167630927172}
2019-04-14 17:40:50.41: SIM {TimeUS : 51035411, Roll : -0.02, Pitch : 0.0, Yaw : 359.8, Alt : 45.6100006104, Lat : 49.2835703, Lng : -123.1150206, Q1 : 0.999998509884, Q2 : -0.00019541392976, Q3 : -2.01737693715e-05, Q4 : -0.00171202071942}
2019-04-14 17:40:50.51: SIM {TimeUS : 51135371, Roll : -0.03, Pitch : -0.02, Yaw : 359.8, Alt : 45.8400001526, Lat : 49.2835703, Lng : -123.1150206, Q1 : 0.999998450279, Q2 : -0.00028264982393, Q3 : -0.000255723425653, Q4 : -0.00174501060974}
2019-04-14 17:40:50.61: SIM {TimeUS : 51235331, Roll : -0.03, Pitch : -0.04, Yaw : 359.79, Alt : 46.0699996948, Lat : 49.2835703, Lng : -123.1150206, Q1 : 0.999998271465, Q2 : -0.000323893415043, Q3 : -0.000435510184616, Q4 : -0.00177587545477}
2019-04-14 17:40:50.71: SIM {TimeUS : 51335291, Roll : -0.03, Pitch : -0.06, Yaw : 359.79, Alt : 46.2999992371, Lat : 49.2835703, Lng : -123.1150206, Q1 : 0.999998211861, Q2 : -0.000283880333882, Q3 : -0.000549603544641, Q4 : -0.00180380337406}
2019-04-14 17:40:50.81: SIM {TimeUS : 51435251, Roll : -0.03, Pitch : -0.06, Yaw : 359.79, Alt : 46.5200004578, Lat : 49.2835703, Lng : -123.1150206, Q1 : 0.999998092651, Q2 : -0.000299669947708, Q3 : -0.000567821902223, Q4 : -0.00182681996375}
2019-04-14 17:40:50.91: SIM {TimeUS : 51535211, Roll : -0.05, Pitch : -0.05, Yaw : 359.78, Alt : 46.7400016785, Lat : 49.2835703, Lng : -123.1150205, Q1 : 0.999998033047, Q2 : -0.00048024134594, Q3 : -0.000496727938298, Q4 : -0.00184838019777}
2019-04-14 17:40:51.01: SIM {TimeUS : 51635171, Roll : -0.08, Pitch : -0.04, Yaw : 359.78, Alt : 46.9500007629, Lat : 49.2835703, Lng : -123.1150205, Q1 : 0.999997854233, Q2 : -0.000767780351453, Q3 : -0.000420843280153, Q4 : -0.00186847581062}
2019-04-14 17:40:51.11: SIM {TimeUS : 51735131, Roll : -0.1, Pitch : -0.04, Yaw : 359.78, Alt : 47.1599998474, Lat : 49.2835703, Lng : -123.1150205, Q1 : 0.999997675419, Q2 : -0.000950927031226, Q3 : -0.000372560927644, Q4 : -0.00188875349704}
2019-04-14 17:40:51.21: SIM {TimeUS : 51835091, Roll : -0.11, Pitch : -0.02, Yaw : 359.78, Alt : 47.3600006104, Lat : 49.2835703, Lng : -123.1150205, Q1 : 0.999997675419, Q2 : -0.000977080664597, Q3 : -0.000233069513342, Q4 : -0.00190887157805}
2019-04-14 17:40:51.31: SIM {TimeUS : 51935051, Roll : -0.09, Pitch : 0.0, Yaw : 359.77, Alt : 47.5499992371, Lat : 49.2835703, Lng : -123.1150205, Q1 : 0.999997794628, Q2 : -0.000841814791784, Q3 : -3.79613948098e-06, Q4 : -0.00193143251818}
2019-04-14 17:40:51.41: SIM {TimeUS : 52035011, Roll : -0.09, Pitch : 0.0, Yaw : 359.77, Alt : 47.7200012207, Lat : 49.2835703, Lng : -123.1150205, Q1 : 0.999997735023, Q2 : -0.000864266534336, Q3 : -1.48872356931e-06, Q4 : -0.00195576925762}
2019-04-14 17:40:51.51: SIM {TimeUS : 52134971, Roll : -0.11, Pitch : -0.01, Yaw : 359.77, Alt : 47.8899993896, Lat : 49.2835703, Lng : -123.1150205, Q1 : 0.99999755621, Q2 : -0.000974331866018, Q3 : -0.000158475057106, Q4 : -0.0019787310157}
2019-04-14 17:40:51.61: SIM {TimeUS : 52234931, Roll : -0.11, Pitch : -0.03, Yaw : 359.77, Alt : 48.0499992371, Lat : 49.2835703, Lng : -123.1150205, Q1 : 0.999997437, Q2 : -0.00102770864032, Q3 : -0.000305035238853, Q4 : -0.00200364924967}
2019-04-14 17:40:51.71: SIM {TimeUS : 52334891, Roll : -0.1, Pitch : -0.05, Yaw : 359.76, Alt : 48.1899986267, Lat : 49.2835703, Lng : -123.1150206, Q1 : 0.999997437, Q2 : -0.000924965192098, Q3 : -0.000462449883344, Q4 : -0.00202743452974}
2019-04-14 17:40:51.81: SIM {TimeUS : 52434851, Roll : -0.07, Pitch : -0.06, Yaw : 359.76, Alt : 48.3199996948, Lat : 49.2835703, Lng : -123.1150206, Q1 : 0.999997496605, Q2 : -0.000666206993628, Q3 : -0.000601397186983, Q4 : -0.00205373484641}
2019-04-14 17:40:51.91: SIM {TimeUS : 52534811, Roll : -0.05, Pitch : -0.08, Yaw : 359.76, Alt : 48.4500007629, Lat : 49.2835703, Lng : -123.1150206, Q1 : 0.999997496605, Q2 : -0.000469395250548, Q3 : -0.000705780752469, Q4 : -0.00208129128441}
2019-04-14 17:40:52.01: SIM {TimeUS : 52634771, Roll : -0.04, Pitch : -0.09, Yaw : 359.75, Alt : 48.5499992371, Lat : 49.2835703, Lng : -123.1150206, Q1 : 0.999997377396, Q2 : -0.000409302563639, Q3 : -0.000792301842012, Q4 : -0.00210999604315}
2019-04-14 17:40:52.11: SIM {TimeUS : 52735564, Roll : -0.02, Pitch : -0.08, Yaw : 359.75, Alt : 48.6500015259, Lat : 49.2835703, Lng : -123.1150206, Q1 : 0.999997437, Q2 : -0.000176588524482, Q3 : -0.000762594339903, Q4 : -0.00213709613308}
2019-04-14 17:40:52.21: SIM {TimeUS : 52835524, Roll : 0.01, Pitch : -0.06, Yaw : 359.75, Alt : 48.7299995422, Lat : 49.2835703, Lng : -123.1150206, Q1 : 0.999997496605, Q2 : 0.00012051059457, Q3 : -0.000609601149336, Q4 : -0.00216463580728}
2019-04-14 17:40:52.31: SIM {TimeUS : 52935484, Roll : 0.04, Pitch : -0.04, Yaw : 359.74, Alt : 48.8100013733, Lat : 49.2835703, Lng : -123.1150206, Q1 : 0.999997437, Q2 : 0.000412893452449, Q3 : -0.000424642494181, Q4 : -0.00219244323671}
2019-04-14 17:40:52.41: SIM {TimeUS : 53035444, Roll : 0.05, Pitch : -0.02, Yaw : 359.74, Alt : 48.8699989319, Lat : 49.2835703, Lng : -123.1150206, Q1 : 0.999997437, Q2 : 0.000502971699461, Q3 : -0.000232493606745, Q4 : -0.00220917118713}
2019-04-14 17:40:52.51: SIM {TimeUS : 53135404, Roll : 0.06, Pitch : -0.01, Yaw : 359.74, Alt : 48.9199981689, Lat : 49.2835703, Lng : -123.1150206, Q1 : 0.999997377396, Q2 : 0.00057262001792, Q3 : -0.000135820300784, Q4 : -0.00222568842582}
2019-04-14 17:40:52.61: SIM {TimeUS : 53235364, Roll : 0.08, Pitch : -0.04, Yaw : 359.74, Alt : 48.9700012207, Lat : 49.2835703, Lng : -123.1150207, Q1 : 0.999997138977, Q2 : 0.000715865346137, Q3 : -0.000426124635851, Q4 : -0.00224533770233}
2019-04-14 17:40:52.71: SIM {TimeUS : 53335324, Roll : 0.16, Pitch : -0.2, Yaw : 359.73, Alt : 49.0099983215, Lat : 49.2835703, Lng : -123.1150207, Q1 : 0.999994754791, Q2 : 0.00146068655886, Q3 : -0.00179269025102, Q4 : -0.00227401056327}
2019-04-14 17:40:52.81: SIM {TimeUS : 53435284, Roll : 0.4, Pitch : -0.56, Yaw : 359.73, Alt : 49.0499992371, Lat : 49.2835703, Lng : -123.1150207, Q1 : 0.999979197979, Q2 : 0.00351423025131, Q3 : -0.00489636836573, Q4 : -0.00230163475499}
2019-04-14 17:40:52.91: SIM {TimeUS : 53535244, Roll : 0.79, Pitch : -1.13, Yaw : 359.72, Alt : 49.0800018311, Lat : 49.2835703, Lng : -123.1150207, Q1 : 0.999924004078, Q2 : 0.00690923910588, Q3 : -0.00994242262095, Q4 : -0.00231641111895}
2019-04-14 17:40:53.01: SIM {TimeUS : 53635204, Roll : 1.31, Pitch : -1.88, Yaw : 359.71, Alt : 49.0999984741, Lat : 49.2835704, Lng : -123.1150206, Q1 : 0.999796926975, Q2 : 0.0114209521562, Q3 : -0.01644320786, Q4 : -0.00231109373271}
2019-04-14 17:40:53.11: SIM {TimeUS : 53735164, Roll : 1.91, Pitch : -2.71, Yaw : 359.69, Alt : 49.1199989319, Lat : 49.2835704, Lng : -123.1150206, Q1 : 0.999577045441, Q2 : 0.0166758578271, Q3 : -0.0237161312252, Q4 : -0.00226924708113}
2019-04-14 17:40:53.21: SIM {TimeUS : 53835124, Roll : 2.51, Pitch : -3.51, Yaw : 359.67, Alt : 49.1399993896, Lat : 49.2835706, Lng : -123.1150205, Q1 : 0.999287366867, Q2 : 0.0218207128346, Q3 : -0.0307234618813, Q4 : -0.00216775597073}
2019-04-14 17:40:53.31: SIM {TimeUS : 53935084, Roll : 2.99, Pitch : -4.19, Yaw : 359.66, Alt : 49.1599998474, Lat : 49.2835708, Lng : -123.1150204, Q1 : 0.998987853527, Q2 : 0.0259914509952, Q3 : -0.0366564132273, Q4 : -0.00200794031844}
2019-04-14 17:40:53.41: SIM {TimeUS : 54035044, Roll : 3.32, Pitch : -4.69, Yaw : 359.65, Alt : 49.1699981689, Lat : 49.2835709, Lng : -123.1150202, Q1 : 0.998737156391, Q2 : 0.0288980230689, Q3 : -0.0410597845912, Q4 : -0.00179698492866}
2019-04-14 17:40:53.51: SIM {TimeUS : 54135004, Roll : 3.54, Pitch : -5.08, Yaw : 359.66, Alt : 49.1800003052, Lat : 49.2835712, Lng : -123.11502, Q1 : 0.998536705971, Q2 : 0.0307743679732, Q3 : -0.0444413162768, Q4 : -0.00154697953258}
2019-04-14 17:40:53.61: SIM {TimeUS : 54234964, Roll : 3.72, Pitch : -5.41, Yaw : 359.67, Alt : 49.1899986267, Lat : 49.2835715, Lng : -123.1150197, Q1 : 0.998357951641, Q2 : 0.0323317945004, Q3 : -0.0472694523633, Q4 : -0.00127650715876}
2019-04-14 17:40:53.71: SIM {TimeUS : 54334924, Roll : 3.91, Pitch : -5.7, Yaw : 359.69, Alt : 49.2000007629, Lat : 49.2835719, Lng : -123.1150193, Q1 : 0.998180627823, Q2 : 0.03394786641, Q3 : -0.0498201809824, Q4 : -0.000996191403829}
2019-04-14 17:40:53.81: SIM {TimeUS : 54434884, Roll : 4.12, Pitch : -6.01, Yaw : 359.7, Alt : 49.2099990845, Lat : 49.2835722, Lng : -123.1150188, Q1 : 0.997977018356, Q2 : 0.035801962018, Q3 : -0.0525314919651, Q4 : -0.000722577387933}
2019-04-14 17:40:53.91: SIM {TimeUS : 54534844, Roll : 4.34, Pitch : -6.32, Yaw : 359.7, Alt : 49.2200012207, Lat : 49.2835727, Lng : -123.1150183, Q1 : 0.997761011124, Q2 : 0.0377161465585, Q3 : -0.0552288070321, Q4 : -0.000457872374682}
2019-04-14 17:40:54.01: SIM {TimeUS : 54634804, Roll : 4.52, Pitch : -6.58, Yaw : 359.71, Alt : 49.2299995422, Lat : 49.2835733, Lng : -123.1150177, Q1 : 0.997575163841, Q2 : 0.0392577275634, Q3 : -0.0574687160552, Q4 : -0.000215021515032}
2019-04-14 17:40:54.11: SIM {TimeUS : 54734764, Roll : 4.64, Pitch : -6.78, Yaw : 359.72, Alt : 49.2299995422, Lat : 49.2835739, Lng : -123.1150171, Q1 : 0.997428297997, Q2 : 0.040345389396, Q3 : -0.0592373684049, Q4 : -9.55899758992e-06}
2019-04-14 17:40:54.21: SIM {TimeUS : 54835557, Roll : 4.74, Pitch : -6.94, Yaw : 359.73, Alt : 49.2400016785, Lat : 49.2835746, Lng : -123.1150163, Q1 : 0.997310936451, Q2 : 0.0411790013313, Q3 : -0.0606233105063, Q4 : 0.00016155288904}
2019-04-14 17:40:54.31: SIM {TimeUS : 54935517, Roll : 4.83, Pitch : -7.06, Yaw : 359.73, Alt : 49.2400016785, Lat : 49.2835753, Lng : -123.1150156, Q1 : 0.997217953205, Q2 : 0.0419479571283, Q3 : -0.0616178512573, Q4 : 0.000293249962851}
2019-04-14 17:40:54.41: SIM {TimeUS : 55035477, Roll : 4.9, Pitch : -7.14, Yaw : 359.73, Alt : 49.25, Lat : 49.2835762, Lng : -123.1150148, Q1 : 0.99714499712, Q2 : 0.0425831824541, Q3 : -0.0623571649194, Q4 : 0.000373262446374}
2019-04-14 17:40:54.51: SIM {TimeUS : 55135437, Roll : 5.07, Pitch : -7.23, Yaw : 359.75, Alt : 49.25, Lat : 49.283577, Lng : -123.1150138, Q1 : 0.997032880783, Q2 : 0.0440192185342, Q3 : -0.0631448999047, Q4 : 0.000672592956107}
2019-04-14 17:40:54.61: SIM {TimeUS : 55235397, Roll : 5.49, Pitch : -7.27, Yaw : 0.11, Alt : 49.25, Lat : 49.283578, Lng : -123.1150129, Q1 : 0.996834993362, Q2 : 0.0478734113276, Q3 : -0.0633404031396, Q4 : 0.00402583600953}
2019-04-14 17:40:54.71: SIM {TimeUS : 55335357, Roll : 6.12, Pitch : -7.31, Yaw : 1.46, Alt : 49.2599983215, Lat : 49.2835788, Lng : -123.1150119, Q1 : 0.996411859989, Q2 : 0.0541361905634, Q3 : -0.063015408814, Q4 : 0.0161806792021}
2019-04-14 17:40:54.81: SIM {TimeUS : 55435317, Roll : 6.62, Pitch : -7.58, Yaw : 4.35, Alt : 49.2599983215, Lat : 49.2835799, Lng : -123.1150107, Q1 : 0.995278120041, Q2 : 0.0601003989577, Q3 : -0.0638371184468, Q4 : 0.0416434071958}
2019-04-14 17:40:54.91: SIM {TimeUS : 55535277, Roll : 6.66, Pitch : -8.21, Yaw : 8.82, Alt : 49.2599983215, Lat : 49.283581, Lng : -123.1150095, Q1 : 0.992468953133, Q2 : 0.0633126199245, Q3 : -0.0668598711491, Q4 : 0.0807873830199}
2019-04-14 17:40:55.01: SIM {TimeUS : 55635237, Roll : 6.05, Pitch : -9.14, Yaw : 14.71, Alt : 49.2599983215, Lat : 49.283582, Lng : -123.1150082, Q1 : 0.986689925194, Q2 : 0.0623834654689, Q3 : -0.0722259432077, Q4 : 0.131661519408}
2019-04-14 17:40:55.11: SIM {TimeUS : 55735197, Roll : 4.5, Pitch : -10.23, Yaw : 21.61, Alt : 49.2599983215, Lat : 49.2835831, Lng : -123.1150068, Q1 : 0.97692501545, Q2 : 0.0551932267845, Q3 : -0.0801937431097, Q4 : 0.190105736256}
2019-04-14 17:40:55.21: SIM {TimeUS : 55835157, Roll : 2.03, Pitch : -11.22, Yaw : 28.8, Alt : 49.2599983215, Lat : 49.2835843, Lng : -123.1150053, Q1 : 0.963347613811, Q2 : 0.0414725020528, Q3 : -0.0902811959386, Q4 : 0.249180078506}
2019-04-14 17:40:55.31: SIM {TimeUS : 55935117, Roll : -0.89, Pitch : -11.89, Yaw : 35.47, Alt : 49.2700004578, Lat : 49.2835855, Lng : -123.1150037, Q1 : 0.947539329529, Q2 : 0.024205993861, Q3 : -0.101054571569, Q4 : 0.302276819944}
2019-04-14 17:40:55.41: SIM {TimeUS : 56035077, Roll : -3.62, Pitch : -12.21, Yaw : 40.96, Alt : 49.2700004578, Lat : 49.2835868, Lng : -123.1150021, Q1 : 0.932186543941, Q2 : 0.00775303971022, Q3 : -0.110638611019, Q4 : 0.344568222761}
2019-04-14 17:40:55.51: SIM {TimeUS : 56135037, Roll : -5.61, Pitch : -12.32, Yaw : 44.8, Alt : 49.2700004578, Lat : 49.2835884, Lng : -123.1150005, Q1 : 0.920091569424, Q2 : -0.00415723677725, Q3 : -0.117661729455, Q4 : 0.373590707779}
2019-04-14 17:40:55.61: SIM {TimeUS : 56234997, Roll : -6.61, Pitch : -12.39, Yaw : 46.9, Alt : 49.2700004578, Lat : 49.2835898, Lng : -123.1149988, Q1 : 0.91299289465, Q2 : -0.00975552201271, Q3 : -0.121680565178, Q4 : 0.389284789562}
2019-04-14 17:40:55.71: SIM {TimeUS : 56334957, Roll : -6.68, Pitch : -12.56, Yaw : 47.42, Alt : 49.2700004578, Lat : 49.2835915, Lng : -123.1149972, Q1 : 0.91109007597, Q2 : -0.00916379038244, Q3 : -0.123304493725, Q4 : 0.39322629571}
2019-04-14 17:40:55.81: SIM {TimeUS : 56434917, Roll : -6.01, Pitch : -12.9, Yaw : 46.66, Alt : 49.2700004578, Lat : 49.2835932, Lng : -123.1149955, Q1 : 0.913490772247, Q2 : -0.0034289797768, Q3 : -0.123657383025, Q4 : 0.387597322464}
2019-04-14 17:40:55.91: SIM {TimeUS : 56534877, Roll : -4.81, Pitch : -13.43, Yaw : 44.93, Alt : 49.2700004578, Lat : 49.283595, Lng : -123.1149938, Q1 : 0.918807446957, Q2 : 0.00614278297871, Q3 : -0.12391128391, Q4 : 0.374701350927}
2019-04-14 17:40:56.01: SIM {TimeUS : 56634837, Roll : -3.3, Pitch : -14.07, Yaw : 42.56, Alt : 49.2700004578, Lat : 49.2835969, Lng : -123.1149921, Q1 : 0.925687134266, Q2 : 0.0177571121603, Q3 : -0.124486833811, Q4 : 0.356778711081}
2019-04-14 17:40:56.11: SIM {TimeUS : 56734797, Roll : -1.69, Pitch : -14.69, Yaw : 39.83, Alt : 49.2700004578, Lat : 49.2835988, Lng : -123.1149904, Q1 : 0.932996213436, Q2 : 0.029756737873, Q3 : -0.125241532922, Q4 : 0.336076110601}
2019-04-14 17:40:56.21: SIM {TimeUS : 56834757, Roll : -0.15, Pitch : -15.19, Yaw : 37.07, Alt : 49.2799987793, Lat : 49.2836008, Lng : -123.1149885, Q1 : 0.939849555492, Q2 : 0.0408009439707, Q3 : -0.125779017806, Q4 : 0.314956724644}
2019-04-14 17:40:56.31: SIM {TimeUS : 56935550, Roll : 1.18, Pitch : -15.49, Yaw : 34.55, Alt : 49.2799987793, Lat : 49.283603, Lng : -123.1149866, Q1 : 0.945692420006, Q2 : 0.0498314462602, Q3 : -0.12568128109, Q4 : 0.295612722635}
2019-04-14 17:40:56.41: SIM {TimeUS : 57035510, Roll : 2.18, Pitch : -15.59, Yaw : 32.56, Alt : 49.2799987793, Lat : 49.283605, Lng : -123.1149846, Q1 : 0.95010560751, Q2 : 0.0562077648938, Q3 : -0.124933451414, Q4 : 0.280234992504}
2019-04-14 17:40:56.51: SIM {TimeUS : 57135470, Roll : 2.79, Pitch : -15.58, Yaw : 31.22, Alt : 49.2799987793, Lat : 49.2836073, Lng : -123.1149824, Q1 : 0.953030705452, Q2 : 0.0597998872399, Q3 : -0.12406577915, Q4 : 0.269748359919}
2019-04-14 17:40:56.61: SIM {TimeUS : 57235430, Roll : 3.0, Pitch : -15.54, Yaw : 30.56, Alt : 49.2799987793, Lat : 49.2836095, Lng : -123.1149801, Q1 : 0.954510867596, Q2 : 0.060698851943, Q3 : -0.123597115278, Q4 : 0.264477580786}
2019-04-14 17:40:56.71: SIM {TimeUS : 57335390, Roll : 2.84, Pitch : -15.53, Yaw : 30.54, Alt : 49.2799987793, Lat : 49.2836117, Lng : -123.1149778, Q1 : 0.95466029644, Q2 : 0.0593175888062, Q3 : -0.123903118074, Q4 : 0.264108270407}
2019-04-14 17:40:56.81: SIM {TimeUS : 57435350, Roll : 2.38, Pitch : -15.6, Yaw : 31.04, Alt : 49.2799987793, Lat : 49.2836141, Lng : -123.1149753, Q1 : 0.953650712967, Q2 : 0.0561651848257, Q3 : -0.125230118632, Q4 : 0.267793238163}
2019-04-14 17:40:56.91: SIM {TimeUS : 57535310, Roll : 1.73, Pitch : -15.71, Yaw : 31.92, Alt : 49.2799987793, Lat : 49.2836164, Lng : -123.1149728, Q1 : 0.951723217964, Q2 : 0.0519880801439, Q3 : -0.127349585295, Q4 : 0.274412602186}
2019-04-14 17:40:57.01: SIM {TimeUS : 57635270, Roll : 0.98, Pitch : -15.86, Yaw : 33.03, Alt : 49.2799987793, Lat : 49.2836188, Lng : -123.1149701, Q1 : 0.949187576771, Q2 : 0.0474075675011, Q3 : -0.129881367087, Q4 : 0.282712250948}
2019-04-14 17:40:57.11: SIM {TimeUS : 57735230, Roll : 0.25, Pitch : -16.0, Yaw : 34.2, Alt : 49.2799987793, Lat : 49.2836213, Lng : -123.1149675, Q1 : 0.946392536163, Q2 : 0.0430070497096, Q3 : -0.132400751114, Q4 : 0.291481852531}
2019-04-14 17:40:57.21: SIM {TimeUS : 57835190, Roll : -0.37, Pitch : -16.11, Yaw : 35.29, Alt : 49.2799987793, Lat : 49.2836237, Lng : -123.1149648, Q1 : 0.943680226803, Q2 : 0.0393586307764, Q3 : -0.134566068649, Q4 : 0.299684077501}
2019-04-14 17:40:57.31: SIM {TimeUS : 57935150, Roll : -0.85, Pitch : -16.21, Yaw : 36.19, Alt : 49.2799987793, Lat : 49.2836262, Lng : -123.114962, Q1 : 0.941332578659, Q2 : 0.03676282987, Q3 : -0.136348262429, Q4 : 0.306513756514}
2019-04-14 17:40:57.41: SIM {TimeUS : 58035110, Roll : -1.16, Pitch : -16.29, Yaw : 36.84, Alt : 49.2799987793, Lat : 49.2836287, Lng : -123.1149592, Q1 : 0.939579606056, Q2 : 0.035264018923, Q3 : -0.13761305809, Q4 : 0.311463147402}
2019-04-14 17:40:57.51: SIM {TimeUS : 58135070, Roll : -1.3, Pitch : -16.35, Yaw : 37.21, Alt : 49.2799987793, Lat : 49.2836314, Lng : -123.1149564, Q1 : 0.938534498215, Q2 : 0.0347439683974, Q3 : -0.13841226697, Q4 : 0.314305394888}
2019-04-14 17:40:57.61: SIM {TimeUS : 58235030, Roll : -1.28, Pitch : -16.38, Yaw : 37.31, Alt : 49.2799987793, Lat : 49.2836341, Lng : -123.1149535, Q1 : 0.938226044178, Q2 : 0.0351034849882, Q3 : -0.138576433063, Q4 : 0.31511297822}
2019-04-14 17:40:57.71: SIM {TimeUS : 58334990, Roll : -1.11, Pitch : -16.39, Yaw : 37.17, Alt : 49.2799987793, Lat : 49.2836367, Lng : -123.1149507, Q1 : 0.938545048237, Q2 : 0.0363177321851, Q3 : -0.138226807117, Q4 : 0.314177542925}
2019-04-14 17:40:57.81: SIM {TimeUS : 58434950, Roll : -0.86, Pitch : -16.4, Yaw : 36.85, Alt : 49.2799987793, Lat : 49.2836396, Lng : -123.1149476, Q1 : 0.939320623875, Q2 : 0.0380195491016, Q3 : -0.137742951512, Q4 : 0.311862379313}
2019-04-14 17:40:57.91: SIM {TimeUS : 58534910, Roll : -0.55, Pitch : -16.44, Yaw : 36.42, Alt : 49.2799987793, Lat : 49.2836422, Lng : -123.1149448, Q1 : 0.940347969532, Q2 : 0.0401366055012, Q3 : -0.137336850166, Q4 : 0.30866381526}
2019-04-14 17:40:58.01: SIM {TimeUS : 58634870, Roll : -0.21, Pitch : -16.47, Yaw : 35.94, Alt : 49.2799987793, Lat : 49.2836451, Lng : -123.1149418, Q1 : 0.941479802132, Q2 : 0.0424497388303, Q3 : -0.136846721172, Q4 : 0.305101305246}
2019-04-14 17:40:58.11: SIM {TimeUS : 58734830, Roll : 0.09, Pitch : -16.5, Yaw : 35.47, Alt : 49.2799987793, Lat : 49.283648, Lng : -123.1149388, Q1 : 0.942573308945, Q2 : 0.0445106141269, Q3 : -0.13643412292, Q4 : 0.301595956087}
2019-04-14 17:40:58.21: SIM {TimeUS : 58834790, Roll : 0.32, Pitch : -16.54, Yaw : 35.06, Alt : 49.2799987793, Lat : 49.2836509, Lng : -123.1149358, Q1 : 0.943503081799, Q2 : 0.0460519343615, Q3 : -0.136359795928, Q4 : 0.29847484827}
2019-04-14 17:40:58.31: SIM {TimeUS : 58934750, Roll : 0.47, Pitch : -16.6, Yaw : 34.74, Alt : 49.2799987793, Lat : 49.2836537, Lng : -123.1149327, Q1 : 0.944195508957, Q2 : 0.0470486730337, Q3 : -0.136578932405, Q4 : 0.296019405127}
2019-04-14 17:40:58.41: SIM {TimeUS : 59035543, Roll : 0.54, Pitch : -16.67, Yaw : 34.53, Alt : 49.2900009155, Lat : 49.2836566, Lng : -123.1149295, Q1 : 0.944613039494, Q2 : 0.0475732684135, Q3 : -0.137084066868, Q4 : 0.294365257025}
2019-04-14 17:40:58.51: SIM {TimeUS : 59135503, Roll : 0.54, Pitch : -16.73, Yaw : 34.44, Alt : 49.2900009155, Lat : 49.2836597, Lng : -123.1149263, Q1 : 0.944787800312, Q2 : 0.0475663952529, Q3 : -0.137581735849, Q4 : 0.293572336435}
2019-04-14 17:40:58.61: SIM {TimeUS : 59235463, Roll : 0.48, Pitch : -16.76, Yaw : 34.45, Alt : 49.2900009155, Lat : 49.2836626, Lng : -123.1149232, Q1 : 0.944743156433, Q2 : 0.0472091175616, Q3 : -0.13802999258, Q4 : 0.293563276529}
2019-04-14 17:40:58.71: SIM {TimeUS : 59335423, Roll : 0.4, Pitch : -16.8, Yaw : 34.54, Alt : 49.2900009155, Lat : 49.2836656, Lng : -123.11492, Q1 : 0.944498240948, Q2 : 0.0467203781009, Q3 : -0.138510301709, Q4 : 0.294202715158}
2019-04-14 17:40:58.81: SIM {TimeUS : 59435383, Roll : 0.3, Pitch : -16.83, Yaw : 34.69, Alt : 49.2900009155, Lat : 49.2836686, Lng : -123.1149167, Q1 : 0.944124698639, Q2 : 0.0461394749582, Q3 : -0.138952627778, Q4 : 0.295282691717}
2019-04-14 17:40:58.91: SIM {TimeUS : 59535343, Roll : 0.19, Pitch : -16.86, Yaw : 34.86, Alt : 49.2900009155, Lat : 49.2836716, Lng : -123.1149134, Q1 : 0.943677783012, Q2 : 0.0455611534417, Q3 : -0.139385968447, Q4 : 0.296593993902}
2019-04-14 17:40:59.01: SIM {TimeUS : 59635303, Roll : 0.09, Pitch : -16.89, Yaw : 35.04, Alt : 49.2900009155, Lat : 49.2836746, Lng : -123.1149101, Q1 : 0.943212330341, Q2 : 0.0450426563621, Q3 : -0.139852330089, Q4 : 0.297931373119}
2019-04-14 17:40:59.11: SIM {TimeUS : 59735263, Roll : 0.0, Pitch : -16.92, Yaw : 35.2, Alt : 49.2900009155, Lat : 49.2836777, Lng : -123.1149068, Q1 : 0.942795932293, Q2 : 0.0444944798946, Q3 : -0.140282422304, Q4 : 0.299127012491}
2019-04-14 17:40:59.21: SIM {TimeUS : 59835223, Roll : -0.08, Pitch : -16.95, Yaw : 35.33, Alt : 49.2900009155, Lat : 49.2836808, Lng : -123.1149035, Q1 : 0.942459464073, Q2 : 0.0440520271659, Q3 : -0.140683472157, Q4 : 0.300062954426}
2019-04-14 17:40:59.31: SIM {TimeUS : 59935183, Roll : -0.13, Pitch : -16.98, Yaw : 35.41, Alt : 49.2900009155, Lat : 49.2836839, Lng : -123.1149001, Q1 : 0.942217826843, Q2 : 0.0437986217439, Q3 : -0.141076818109, Q4 : 0.300673425198}
2019-04-14 17:40:59.41: SIM {TimeUS : 60035143, Roll : -0.16, Pitch : -17.02, Yaw : 35.45, Alt : 49.2900009155, Lat : 49.283687, Lng : -123.1148968, Q1 : 0.942083835602, Q2 : 0.0437298193574, Q3 : -0.14146488905, Q4 : 0.30092099309}
2019-04-14 17:40:59.51: SIM {TimeUS : 60135103, Roll : -0.17, Pitch : -17.06, Yaw : 35.44, Alt : 49.2999992371, Lat : 49.2836901, Lng : -123.1148934, Q1 : 0.942072331905, Q2 : 0.0437206849456, Q3 : -0.141783252358, Q4 : 0.300808608532}
2019-04-14 17:40:59.61: SIM {TimeUS : 60235063, Roll : -0.17, Pitch : -17.08, Yaw : 35.39, Alt : 49.2999992371, Lat : 49.2836931, Lng : -123.11489, Q1 : 0.942173838615, Q2 : 0.0437202081084, Q3 : -0.141977280378, Q4 : 0.300398975611}
2019-04-14 17:40:59.71: SIM {TimeUS : 60335023, Roll : -0.15, Pitch : -17.1, Yaw : 35.31, Alt : 49.2999992371, Lat : 49.2836963, Lng : -123.1148865, Q1 : 0.942341506481, Q2 : 0.0438177697361, Q3 : -0.142164453864, Q4 : 0.299769580364}
2019-04-14 17:40:59.81: SIM {TimeUS : 60434983, Roll : -0.1, Pitch : -17.14, Yaw : 35.22, Alt : 49.2999992371, Lat : 49.2836996, Lng : -123.1148831, Q1 : 0.942521810532, Q2 : 0.0442403145134, Q3 : -0.142365977168, Q4 : 0.299044042826}
2019-04-14 17:40:59.91: SIM {TimeUS : 60534943, Roll : -0.03, Pitch : -17.19, Yaw : 35.12, Alt : 49.2999992371, Lat : 49.2837028, Lng : -123.1148796, Q1 : 0.942702114582, Q2 : 0.0448401495814, Q3 : -0.142565444112, Q4 : 0.298290401697}
2019-04-14 17:41:00.01: SIM {TimeUS : 60634903, Roll : 0.04, Pitch : -17.23, Yaw : 35.02, Alt : 49.2999992371, Lat : 49.2837059, Lng : -123.1148762, Q1 : 0.942862689495, Q2 : 0.0454756766558, Q3 : -0.142796888947, Q4 : 0.29757514596}
2019-04-14 17:41:00.11: SIM {TimeUS : 60734863, Roll : 0.11, Pitch : -17.27, Yaw : 34.94, Alt : 49.2999992371, Lat : 49.2837091, Lng : -123.1148727, Q1 : 0.943000435829, Q2 : 0.0460822992027, Q3 : -0.142978861928, Q4 : 0.296957403421}
2019-04-14 17:41:00.21: SIM {TimeUS : 60834823, Roll : 0.16, Pitch : -17.31, Yaw : 34.87, Alt : 49.2999992371, Lat : 49.2837124, Lng : -123.1148692, Q1 : 0.943111777306, Q2 : 0.0464925132692, Q3 : -0.143171280622, Q4 : 0.296446710825}
2019-04-14 17:41:00.31: SIM {TimeUS : 60934783, Roll : 0.18, Pitch : -17.33, Yaw : 34.82, Alt : 49.3100013733, Lat : 49.2837156, Lng : -123.1148657, Q1 : 0.943210065365, Q2 : 0.0466186963022, Q3 : -0.143274262547, Q4 : 0.296064078808}
2019-04-14 17:41:00.41: SIM {TimeUS : 61034743, Roll : 0.17, Pitch : -17.33, Yaw : 34.79, Alt : 49.3100013733, Lat : 49.2837188, Lng : -123.1148622, Q1 : 0.943280398846, Q2 : 0.046496681869, Q3 : -0.14335411787, Q4 : 0.29582041502}
2019-04-14 17:41:00.51: SIM {TimeUS : 61135536, Roll : 0.16, Pitch : -17.32, Yaw : 34.78, Alt : 49.3100013733, Lat : 49.2837222, Lng : -123.1148586, Q1 : 0.943322658539, Q2 : 0.0463831014931, Q3 : -0.143328398466, Q4 : 0.295716106892}
2019-04-14 17:41:00.61: SIM {TimeUS : 61235496, Roll : 0.15, Pitch : -17.32, Yaw : 34.78, Alt : 49.3100013733, Lat : 49.2837254, Lng : -123.1148551, Q1 : 0.943326413631, Q2 : 0.0462849326432, Q3 : -0.143332824111, Q4 : 0.295717328787}
2019-04-14 17:41:00.71: SIM {TimeUS : 61335456, Roll : 0.15, Pitch : -17.35, Yaw : 34.79, Alt : 49.3100013733, Lat : 49.2837288, Lng : -123.1148515, Q1 : 0.943267822266, Q2 : 0.0463646575809, Q3 : -0.143549472094, Q4 : 0.295786559582}
2019-04-14 17:41:00.81: SIM {TimeUS : 61435416, Roll : 0.15, Pitch : -17.4, Yaw : 34.81, Alt : 49.3100013733, Lat : 49.283732, Lng : -123.1148479, Q1 : 0.943159222603, Q2 : 0.0465651340783, Q3 : -0.143996819854, Q4 : 0.295883744955}
2019-04-14 17:41:00.91: SIM {TimeUS : 61535376, Roll : 0.15, Pitch : -17.44, Yaw : 34.82, Alt : 49.3100013733, Lat : 49.2837354, Lng : -123.1148444, Q1 : 0.943070113659, Q2 : 0.0466746874154, Q3 : -0.144333764911, Q4 : 0.295986562967}
2019-04-14 17:41:01.01: SIM {TimeUS : 61635336, Roll : 0.14, Pitch : -17.46, Yaw : 34.83, Alt : 49.3100013733, Lat : 49.2837387, Lng : -123.1148408, Q1 : 0.9430154562, Q2 : 0.0466832965612, Q3 : -0.144484639168, Q4 : 0.296085715294}
2019-04-14 17:41:01.11: SIM {TimeUS : 61735296, Roll : 0.13, Pitch : -17.48, Yaw : 34.84, Alt : 49.3100013733, Lat : 49.2837419, Lng : -123.1148372, Q1 : 0.942986547947, Q2 : 0.0465825870633, Q3 : -0.144643545151, Q4 : 0.296116054058}
2019-04-14 17:41:01.21: SIM {TimeUS : 61835256, Roll : 0.1, Pitch : -17.5, Yaw : 34.84, Alt : 49.3100013733, Lat : 49.2837453, Lng : -123.1148335, Q1 : 0.942963659763, Q2 : 0.0463980548084, Q3 : -0.144945085049, Q4 : 0.296070456505}
2019-04-14 17:41:01.31: SIM {TimeUS : 61935216, Roll : 0.09, Pitch : -17.53, Yaw : 34.84, Alt : 49.3100013733, Lat : 49.2837486, Lng : -123.1148299, Q1 : 0.942953407764, Q2 : 0.0463686697185, Q3 : -0.145159065723, Q4 : 0.296002745628}
2019-04-14 17:41:01.41: SIM {TimeUS : 62035176, Roll : 0.08, Pitch : -17.55, Yaw : 34.82, Alt : 49.3199996948, Lat : 49.283752, Lng : -123.1148263, Q1 : 0.942961931229, Q2 : 0.0463612824678, Q3 : -0.145350605249, Q4 : 0.295882791281}
2019-04-14 17:41:01.51: SIM {TimeUS : 62135136, Roll : 0.08, Pitch : -17.56, Yaw : 34.8, Alt : 49.3199996948, Lat : 49.2837553, Lng : -123.1148227, Q1 : 0.94299030304, Q2 : 0.046410549432, Q3 : -0.145462617278, Q4 : 0.295729696751}
2019-04-14 17:41:01.61: SIM {TimeUS : 62235096, Roll : 0.09, Pitch : -17.58, Yaw : 34.78, Alt : 49.3199996948, Lat : 49.2837588, Lng : -123.114819, Q1 : 0.94302803278, Q2 : 0.0465080216527, Q3 : -0.145598560572, Q4 : 0.295526981354}
2019-04-14 17:41:01.71: SIM {TimeUS : 62335056, Roll : 0.11, Pitch : -17.59, Yaw : 34.75, Alt : 49.3199996948, Lat : 49.283762, Lng : -123.1148154, Q1 : 0.943084061146, Q2 : 0.0466253273189, Q3 : -0.145647138357, Q4 : 0.295305788517}
2019-04-14 17:41:01.81: SIM {TimeUS : 62435016, Roll : 0.13, Pitch : -17.6, Yaw : 34.72, Alt : 49.3199996948, Lat : 49.2837655, Lng : -123.1148117, Q1 : 0.943136453629, Q2 : 0.0467783100903, Q3 : -0.145682603121, Q4 : 0.295096635818}
2019-04-14 17:41:01.91: SIM {TimeUS : 62534976, Roll : 0.16, Pitch : -17.61, Yaw : 34.7, Alt : 49.3199996948, Lat : 49.2837689, Lng : -123.1148081, Q1 : 0.94317150116, Q2 : 0.0470196902752, Q3 : -0.145755782723, Q4 : 0.294910162687}
2019-04-14 17:41:02.01: SIM {TimeUS : 62634936, Roll : 0.18, Pitch : -17.66, Yaw : 34.67, Alt : 49.3199996948, Lat : 49.2837722, Lng : -123.1148044, Q1 : 0.943171739578, Q2 : 0.0472345128655, Q3 : -0.146069735289, Q4 : 0.294719547033}
2019-04-14 17:41:02.11: SIM {TimeUS : 62734896, Roll : 0.18, Pitch : -17.7, Yaw : 34.65, Alt : 49.3199996948, Lat : 49.2837757, Lng : -123.1148007, Q1 : 0.943165361881, Q2 : 0.0473473593593, Q3 : -0.146461710334, Q4 : 0.294527351856}
2019-04-14 17:41:02.21: SIM {TimeUS : 62834856, Roll : 0.17, Pitch : -17.74, Yaw : 34.63, Alt : 49.3199996948, Lat : 49.283779, Lng : -123.114797, Q1 : 0.943161249161, Q2 : 0.0473799332976, Q3 : -0.146829515696, Q4 : 0.294351875782}
2019-04-14 17:41:02.31: SIM {TimeUS : 62934816, Roll : 0.18, Pitch : -17.77, Yaw : 34.62, Alt : 49.3199996948, Lat : 49.2837825, Lng : -123.1147933, Q1 : 0.943162560463, Q2 : 0.0474677160382, Q3 : -0.147043585777, Q4 : 0.294226706028}
2019-04-14 17:41:02.41: SIM {TimeUS : 63034776, Roll : 0.19, Pitch : -17.78, Yaw : 34.6, Alt : 49.3199996948, Lat : 49.283786, Lng : -123.1147896, Q1 : 0.943183302879, Q2 : 0.0475428402424, Q3 : -0.147084578872, Q4 : 0.294127643108}
2019-04-14 17:41:02.51: SIM {TimeUS : 63134736, Roll : 0.2, Pitch : -17.76, Yaw : 34.59, Alt : 49.3199996948, Lat : 49.2837893, Lng : -123.1147859, Q1 : 0.943234026432, Q2 : 0.0475601069629, Q3 : -0.146906301379, Q4 : 0.294051349163}
2019-04-14 17:41:02.61: SIM {TimeUS : 63235529, Roll : 0.19, Pitch : -17.73, Yaw : 34.58, Alt : 49.3199996948, Lat : 49.2837928, Lng : -123.1147822, Q1 : 0.943291187286, Q2 : 0.0474074594676, Q3 : -0.146730720997, Q4 : 0.293980270624}
2019-04-14 17:41:02.71: SIM {TimeUS : 63335489, Roll : 0.17, Pitch : -17.71, Yaw : 34.58, Alt : 49.3199996948, Lat : 49.2837963, Lng : -123.1147784, Q1 : 0.943345487118, Q2 : 0.0472356788814, Q3 : -0.146559491754, Q4 : 0.293918997049}
2019-04-14 17:41:02.81: SIM {TimeUS : 63435449, Roll : 0.17, Pitch : -17.7, Yaw : 34.57, Alt : 49.3199996948, Lat : 49.2837998, Lng : -123.1147747, Q1 : 0.943372368813, Q2 : 0.0471930392087, Q3 : -0.146492317319, Q4 : 0.293873012066}
2019-04-14 17:41:02.91: SIM {TimeUS : 63535409, Roll : 0.17, Pitch : -17.72, Yaw : 34.57, Alt : 49.3300018311, Lat : 49.2838032, Lng : -123.114771, Q1 : 0.943370223045, Q2 : 0.0471823364496, Q3 : -0.146623492241, Q4 : 0.293816387653}
2019-04-14 17:41:03.01: SIM {TimeUS : 63635369, Roll : 0.17, Pitch : -17.74, Yaw : 34.56, Alt : 49.3300018311, Lat : 49.2838067, Lng : -123.1147672, Q1 : 0.943352818489, Q2 : 0.0472291596234, Q3 : -0.146836176515, Q4 : 0.293758571148}
2019-04-14 17:41:03.11: SIM {TimeUS : 63735329, Roll : 0.15, Pitch : -17.79, Yaw : 34.55, Alt : 49.3300018311, Lat : 49.2838102, Lng : -123.1147635, Q1 : 0.943314790726, Q2 : 0.0472453720868, Q3 : -0.147251933813, Q4 : 0.293669939041}
2019-04-14 17:41:03.21: SIM {TimeUS : 63835289, Roll : 0.15, Pitch : -17.84, Yaw : 34.55, Alt : 49.3300018311, Lat : 49.2838135, Lng : -123.1147597, Q1 : 0.943271756172, Q2 : 0.0473255701363, Q3 : -0.147695064545, Q4 : 0.293572604656}
2019-04-14 17:41:03.31: SIM {TimeUS : 63935249, Roll : 0.16, Pitch : -17.87, Yaw : 34.54, Alt : 49.3300018311, Lat : 49.2838171, Lng : -123.114756, Q1 : 0.943248927593, Q2 : 0.0474890433252, Q3 : -0.147966131568, Q4 : 0.293483048677}
2019-04-14 17:41:03.41: SIM {TimeUS : 64035209, Roll : 0.16, Pitch : -17.91, Yaw : 34.52, Alt : 49.3300018311, Lat : 49.2838206, Lng : -123.1147522, Q1 : 0.943237364292, Q2 : 0.0475896410644, Q3 : -0.148216575384, Q4 : 0.293377459049}
2019-04-14 17:41:03.51: SIM {TimeUS : 64135169, Roll : 0.16, Pitch : -17.92, Yaw : 34.51, Alt : 49.3300018311, Lat : 49.283824, Lng : -123.1147484, Q1 : 0.943247616291, Q2 : 0.047601711005, Q3 : -0.148367837071, Q4 : 0.293266147375}
2019-04-14 17:41:03.61: SIM {TimeUS : 64235129, Roll : 0.18, Pitch : -17.91, Yaw : 34.5, Alt : 49.3300018311, Lat : 49.2838275, Lng : -123.1147447, Q1 : 0.943286538124, Q2 : 0.0476749837399, Q3 : -0.148267865181, Q4 : 0.293179631233}
2019-04-14 17:41:03.71: SIM {TimeUS : 64335089, Roll : 0.2, Pitch : -17.92, Yaw : 34.48, Alt : 49.3300018311, Lat : 49.2838311, Lng : -123.1147409, Q1 : 0.943310678005, Q2 : 0.0478317774832, Q3 : -0.148269623518, Q4 : 0.293075531721}
2019-04-14 17:41:03.81: SIM {TimeUS : 64435049, Roll : 0.2, Pitch : -17.94, Yaw : 34.47, Alt : 49.3300018311, Lat : 49.2838346, Lng : -123.1147371, Q1 : 0.943326592445, Q2 : 0.0478991270065, Q3 : -0.148408487439, Q4 : 0.292942851782}
2019-04-14 17:41:03.91: SIM {TimeUS : 64535009, Roll : 0.21, Pitch : -17.95, Yaw : 34.45, Alt : 49.3300018311, Lat : 49.283838, Lng : -123.1147333, Q1 : 0.943351924419, Q2 : 0.0479455403984, Q3 : -0.148487210274, Q4 : 0.292813837528}
2019-04-14 17:41:04.01: SIM {TimeUS : 64634969, Roll : 0.21, Pitch : -17.94, Yaw : 34.44, Alt : 49.3300018311, Lat : 49.2838415, Lng : -123.1147295, Q1 : 0.94339376688, Q2 : 0.0479712486267, Q3 : -0.148426085711, Q4 : 0.292705833912}
2019-04-14 17:41:04.11: SIM {TimeUS : 64734929, Roll : 0.22, Pitch : -17.94, Yaw : 34.42, Alt : 49.3300018311, Lat : 49.2838451, Lng : -123.1147257, Q1 : 0.943431258202, Q2 : 0.0479786917567, Q3 : -0.148396641016, Q4 : 0.292598634958}
2019-04-14 17:41:04.21: SIM {TimeUS : 64834889, Roll : 0.2, Pitch : -17.95, Yaw : 34.41, Alt : 49.3300018311, Lat : 49.2838486, Lng : -123.1147219, Q1 : 0.943449020386, Q2 : 0.04786189273, Q3 : -0.148570880294, Q4 : 0.292472064495}
2019-04-14 17:41:04.31: SIM {TimeUS : 64934849, Roll : 0.17, Pitch : -17.99, Yaw : 34.4, Alt : 49.3300018311, Lat : 49.2838522, Lng : -123.1147181, Q1 : 0.94344240427, Q2 : 0.047687727958, Q3 : -0.14893399179, Q4 : 0.292337208986}
2019-04-14 17:41:04.41: SIM {TimeUS : 65034809, Roll : 0.16, Pitch : -17.99, Yaw : 34.39, Alt : 49.3400001526, Lat : 49.2838556, Lng : -123.1147143, Q1 : 0.943462967873, Q2 : 0.0475645437837, Q3 : -0.149004220963, Q4 : 0.292255103588}
2019-04-14 17:41:04.51: SIM {TimeUS : 65134769, Roll : 0.16, Pitch : -17.98, Yaw : 34.39, Alt : 49.3400001526, Lat : 49.2838591, Lng : -123.1147105, Q1 : 0.94349437952, Q2 : 0.0475771054626, Q3 : -0.148889273405, Q4 : 0.292210191488}
2019-04-14 17:41:04.61: SIM {TimeUS : 65235562, Roll : 0.18, Pitch : -17.97, Yaw : 34.38, Alt : 49.3400001526, Lat : 49.2838627, Lng : -123.1147067, Q1 : 0.943516731262, Q2 : 0.0476843975484, Q3 : -0.148777425289, Q4 : 0.292177408934}
2019-04-14 17:41:04.71: SIM {TimeUS : 65335522, Roll : 0.18, Pitch : -17.98, Yaw : 34.37, Alt : 49.3400001526, Lat : 49.2838663, Lng : -123.1147029, Q1 : 0.943526566029, Q2 : 0.0477443225682, Q3 : -0.148825705051, Q4 : 0.29211139679}
2019-04-14 17:41:04.81: SIM {TimeUS : 65435482, Roll : 0.17, Pitch : -17.99, Yaw : 34.36, Alt : 49.3400001526, Lat : 49.2838699, Lng : -123.1146991, Q1 : 0.943535268307, Q2 : 0.0476650223136, Q3 : -0.148985624313, Q4 : 0.292014628649}
2019-04-14 17:41:04.91: SIM {TimeUS : 65535442, Roll : 0.15, Pitch : -18.01, Yaw : 34.35, Alt : 49.3400001526, Lat : 49.2838734, Lng : -123.1146952, Q1 : 0.943542599678, Q2 : 0.0474882461131, Q3 : -0.149230152369, Q4 : 0.291894942522}
2019-04-14 17:41:05.01: SIM {TimeUS : 65635402, Roll : 0.13, Pitch : -18.04, Yaw : 34.34, Alt : 49.3400001526, Lat : 49.2838769, Lng : -123.1146914, Q1 : 0.943544328213, Q2 : 0.0474458523095, Q3 : -0.149462670088, Q4 : 0.291777253151}
2019-04-14 17:41:05.11: SIM {TimeUS : 65735362, Roll : 0.14, Pitch : -18.06, Yaw : 34.33, Alt : 49.3400001526, Lat : 49.2838804, Lng : -123.1146876, Q1 : 0.943540453911, Q2 : 0.0475640632212, Q3 : -0.149649247527, Q4 : 0.291674852371}
2019-04-14 17:41:05.21: SIM {TimeUS : 65835322, Roll : 0.16, Pitch : -18.08, Yaw : 34.31, Alt : 49.3400001526, Lat : 49.283884, Lng : -123.1146838, Q1 : 0.943536639214, Q2 : 0.0477273240685, Q3 : -0.149796500802, Q4 : 0.29158487916}
2019-04-14 17:41:05.31: SIM {TimeUS : 65935282, Roll : 0.18, Pitch : -18.1, Yaw : 34.3, Alt : 49.3400001526, Lat : 49.2838876, Lng : -123.1146799, Q1 : 0.943535029888, Q2 : 0.0479657389224, Q3 : -0.149855613708, Q4 : 0.29152071476}
2019-04-14 17:41:05.41: SIM {TimeUS : 66035242, Roll : 0.2, Pitch : -18.11, Yaw : 34.29, Alt : 49.3400001526, Lat : 49.2838912, Lng : -123.1146761, Q1 : 0.943533360958, Q2 : 0.0481096357107, Q3 : -0.14994430542, Q4 : 0.291456639767}
2019-04-14 17:41:05.51: SIM {TimeUS : 66135202, Roll : 0.21, Pitch : -18.13, Yaw : 34.29, Alt : 49.3400001526, Lat : 49.2838947, Lng : -123.1146723, Q1 : 0.943529307842, Q2 : 0.0482513308525, Q3 : -0.15004388988, Q4 : 0.291395246983}
