2019-04-14 16:32:26.60: SIM {TimeUS : 40816167, Roll : 0.0, Pitch : 0.0, Yaw : 0.0, Alt : 30.1000003815, Lat : 49.28357, Lng : -123.11502, Q1 : 1.0, Q2 : 0.0, Q3 : 0.0, Q4 : 0.0}
2019-04-14 16:32:26.71: SIM {TimeUS : 40935286, Roll : 0.0, Pitch : 0.0, Yaw : 0.0, Alt : 30.1000003815, Lat : 49.28357, Lng : -123.11502, Q1 : 1.0, Q2 : 0.0, Q3 : 0.0, Q4 : 0.0}
2019-04-14 16:32:26.81: SIM {TimeUS : 41035246, Roll : 0.0, Pitch : 0.0, Yaw : 0.0, Alt : 30.1000003815, Lat : 49.28357, Lng : -123.11502, Q1 : 1.0, Q2 : 0.0, Q3 : 0.0, Q4 : 0.0}
2019-04-14 16:32:26.91: SIM {TimeUS : 41135206, Roll : 0.0, Pitch : 0.0, Yaw : 0.0, Alt : 30.1000003815, Lat : 49.28357, Lng : -123.11502, Q1 : 1.0, Q2 : 0.0, Q3 : 0.0, Q4 : 0.0}
2019-04-14 16:32:27.01: SIM {TimeUS : 41235166, Roll : 0.0, Pitch : 0.0, Yaw : 0.0, Alt : 30.1000003815, Lat : 49.28357, Lng : -123.11502, Q1 : 1.0, Q2 : 0.0, Q3 : 0.0, Q4 : 0.0}
2019-04-14 16:32:27.11: SIM {TimeUS : 41335126, Roll : 0.0, Pitch : 0.0, Yaw : 0.0, Alt : 30.1000003815, Lat : 49.28357, Lng : -123.11502, Q1 : 1.0, Q2 : 0.0, Q3 : 0.0, Q4 : 0.0}
2019-04-14 16:32:27.21: SIM {TimeUS : 41435086, Roll : 0.0, Pitch : 0.0, Yaw : 0.0, Alt : 30.1000003815, Lat : 49.28357, Lng : -123.11502, Q1 : 1.0, Q2 : 0.0, Q3 : 0.0, Q4 : 0.0}
2019-04-14 16:32:27.31: SIM {TimeUS : 41535046, Roll : 0.0, Pitch : 0.0, Yaw : 0.0, Alt : 30.1000003815, Lat : 49.28357, Lng : -123.11502, Q1 : 1.0, Q2 : 0.0, Q3 : 0.0, Q4 : 0.0}
2019-04-14 16:32:27.41: SIM {TimeUS : 41635006, Roll : 0.0, Pitch : 0.0, Yaw : 0.0, Alt : 30.1000003815, Lat : 49.28357, Lng : -123.11502, Q1 : 1.0, Q2 : 0.0, Q3 : 0.0, Q4 : 0.0}
2019-04-14 16:32:27.51: SIM {TimeUS : 41734966, Roll : 0.0, Pitch : 0.0, Yaw : 0.0, Alt : 30.1000003815, Lat : 49.28357, Lng : -123.11502, Q1 : 1.0, Q2 : 0.0, Q3 : 0.0, Q4 : 0.0}
2019-04-14 16:32:27.61: SIM {TimeUS : 41834926, Roll : 0.0, Pitch : 0.0, Yaw : 0.0, Alt : 30.1000003815, Lat : 49.28357, Lng : -123.11502, Q1 : 1.0, Q2 : 0.0, Q3 : 0.0, Q4 : 0.0}
2019-04-14 16:32:27.71: SIM {TimeUS : 41934886, Roll : 0.0, Pitch : 0.0, Yaw : 0.0, Alt : 30.1000003815, Lat : 49.28357, Lng : -123.11502, Q1 : 1.0, Q2 : 0.0, Q3 : 0.0, Q4 : 0.0}
2019-04-14 16:32:27.81: SIM {TimeUS : 42034846, Roll : 0.0, Pitch : 0.0, Yaw : 0.0, Alt : 30.1000003815, Lat : 49.28357, Lng : -123.11502, Q1 : 1.0, Q2 : 0.0, Q3 : 0.0, Q4 : 0.0}
2019-04-14 16:32:27.91: SIM {TimeUS : 42134806, Roll : 0.0, Pitch : 0.0, Yaw : 0.0, Alt : 30.1000003815, Lat : 49.28357, Lng : -123.11502, Q1 : 1.0, Q2 : 0.0, Q3 : 0.0, Q4 : 0.0}
2019-04-14 16:32:28.01: SIM {TimeUS : 42234766, Roll : 0.0, Pitch : 0.0, Yaw : 0.0, Alt : 30.1000003815, Lat : 49.28357, Lng : -123.11502, Q1 : 1.0, Q2 : 0.0, Q3 : 0.0, Q4 : 0.0}
2019-04-14 16:32:28.11: SIM {TimeUS : 42334726, Roll : 0.0, Pitch : 0.0, Yaw : 0.0, Alt : 30.1000003815, Lat : 49.28357, Lng : -123.11502, Q1 : 1.0, Q2 : 0.0, Q3 : 0.0, Q4 : 0.0}
2019-04-14 16:32:28.21: SIM {TimeUS : 42434686, Roll : 0.0, Pitch : 0.0, Yaw : 0.0, Alt : 30.1000003815, Lat : 49.28357, Lng : -123.11502, Q1 : 1.0, Q2 : 0.0, Q3 : 0.0, Q4 : 0.0}
2019-04-14 16:32:28.31: SIM {TimeUS : 42534646, Roll : 0.0, Pitch : 0.0, Yaw : 0.0, Alt : 30.1000003815, Lat : 49.28357, Lng : -123.11502, Q1 : 1.0, Q2 : 0.0, Q3 : 0.0, Q4 : 0.0}
2019-04-14 16:32:28.41: SIM {TimeUS : 42634606, Roll : 0.0, Pitch : 0.0, Yaw : 0.0, Alt : 30.1000003815, Lat : 49.28357, Lng : -123.11502, Q1 : 1.0, Q2 : 0.0, Q3 : 0.0, Q4 : 0.0}
2019-04-14 16:32:28.51: SIM {TimeUS : 42734566, Roll : 0.0, Pitch : 0.0, Yaw : 0.0, Alt : 30.1000003815, Lat : 49.28357, Lng : -123.11502, Q1 : 1.0, Q2 : 0.0, Q3 : 0.0, Q4 : 0.0}
2019-04-14 16:32:28.61: SIM {TimeUS : 42834526, Roll : 0.0, Pitch : 0.0, Yaw : 0.0, Alt : 30.1000003815, Lat : 49.28357, Lng : -123.11502, Q1 : 1.0, Q2 : 0.0, Q3 : 0.0, Q4 : 0.0}
2019-04-14 16:32:28.71: SIM {TimeUS : 42935319, Roll : 0.0, Pitch : 0.0, Yaw : 0.0, Alt : 30.1000003815, Lat : 49.28357, Lng : -123.11502, Q1 : 1.0, Q2 : 0.0, Q3 : 0.0, Q4 : 0.0}
2019-04-14 16:32:28.81: SIM {TimeUS : 43035279, Roll : 0.0, Pitch : 0.0, Yaw : 0.0, Alt : 30.1000003815, Lat : 49.28357, Lng : -123.11502, Q1 : 1.0, Q2 : 0.0, Q3 : 0.0, Q4 : 0.0}
2019-04-14 16:32:28.91: SIM {TimeUS : 43135239, Roll : 0.0, Pitch : 0.0, Yaw : 360.0, Alt : 30.1000003815, Lat : 49.28357, Lng : -123.11502, Q1 : 1.0, Q2 : 0.0, Q3 : 0.0, Q4 : -1.30378364355e-11}
2019-04-14 16:32:29.01: SIM {TimeUS : 43235199, Roll : 0.0, Pitch : 0.0, Yaw : 360.0, Alt : 30.1000003815, Lat : 49.28357, Lng : -123.11502, Q1 : 1.0, Q2 : 0.0, Q3 : 0.0, Q4 : -8.06118372054e-09}
2019-04-14 16:32:29.11: SIM {TimeUS : 43335159, Roll : 0.0, Pitch : 0.0, Yaw : 359.99, Alt : 30.1000003815, Lat : 49.28357, Lng : -123.11502, Q1 : 1.0, Q2 : 0.0, Q3 : 0.0, Q4 : -2.17456758378e-07}
2019-04-14 16:32:29.21: SIM {TimeUS : 43435119, Roll : 0.0, Pitch : 0.0, Yaw : 359.99, Alt : 30.1000003815, Lat : 49.28357, Lng : -123.11502, Q1 : 1.0, Q2 : 0.0, Q3 : 0.0, Q4 : -4.08245114158e-07}
2019-04-14 16:32:29.31: SIM {TimeUS : 43535079, Roll : 0.0, Pitch : 0.0, Yaw : 359.99, Alt : 30.1000003815, Lat : 49.28357, Lng : -123.11502, Q1 : 1.0, Q2 : 0.0, Q3 : 0.0, Q4 : -6.20801927198e-07}
2019-04-14 16:32:29.41: SIM {TimeUS : 43635039, Roll : 0.0, Pitch : 0.0, Yaw : 359.99, Alt : 30.1000003815, Lat : 49.28357, Lng : -123.11502, Q1 : 1.0, Q2 : 0.0, Q3 : 0.0, Q4 : -8.22875563244e-07}
2019-04-14 16:32:29.51: SIM {TimeUS : 43734999, Roll : 0.0, Pitch : 0.0, Yaw : 359.99, Alt : 30.1000003815, Lat : 49.28357, Lng : -123.11502, Q1 : 1.0, Q2 : 0.0, Q3 : 0.0, Q4 : -9.95499590317e-07}
2019-04-14 16:32:29.61: SIM {TimeUS : 43834959, Roll : 0.0, Pitch : 0.0, Yaw : 359.99, Alt : 30.1000003815, Lat : 49.28357, Lng : -123.11502, Q1 : 1.0, Q2 : 0.0, Q3 : 0.0, Q4 : -1.17972967928e-06}
2019-04-14 16:32:29.71: SIM {TimeUS : 43934919, Roll : 0.0, Pitch : 0.0, Yaw : 359.99, Alt : 30.1000003815, Lat : 49.28357, Lng : -123.11502, Q1 : 1.0, Q2 : 0.0, Q3 : 0.0, Q4 : -1.38861616961e-06}
2019-04-14 16:32:29.81: SIM {TimeUS : 44034879, Roll : 0.0, Pitch : 0.0, Yaw : 359.99, Alt : 30.1200008392, Lat : 49.28357, Lng : -123.11502, Q1 : 1.0, Q2 : 0.0, Q3 : 0.0, Q4 : -1.57225076691e-06}
2019-04-14 16:32:29.91: SIM {TimeUS : 44134839, Roll : 0.0, Pitch : 0.0, Yaw : 359.99, Alt : 30.1499996185, Lat : 49.28357, Lng : -123.11502, Q1 : 1.0, Q2 : 0.0, Q3 : 0.0, Q4 : -1.83494921657e-06}
2019-04-14 16:32:30.01: SIM {TimeUS : 44234799, Roll : 0.0, Pitch : 0.0, Yaw : 359.99, Alt : 30.1800003052, Lat : 49.28357, Lng : -123.11502, Q1 : 1.0, Q2 : 0.0, Q3 : 0.0, Q4 : -2.07798962037e-06}
2019-04-14 16:32:30.11: SIM {TimeUS : 44334759, Roll : 0.0, Pitch : 0.0, Yaw : 359.99, Alt : 30.2099990845, Lat : 49.28357, Lng : -123.11502, Q1 : 1.0, Q2 : -7.32536955184e-06, Q3 : -7.54407938075e-06, Q4 : -2.21064942707e-06}
2019-04-14 16:32:30.21: SIM {TimeUS : 44434719, Roll : -0.16, Pitch : -0.16, Yaw : 359.99, Alt : 30.2700004578, Lat : 49.28357, Lng : -123.11502, Q1 : 0.999998033047, Q2 : -0.00141816423275, Q3 : -0.00140721583739, Q4 : -1.70608291228e-05}
2019-04-14 16:32:30.31: SIM {TimeUS : 44534679, Roll : -0.47, Pitch : -0.41, Yaw : 359.99, Alt : 30.3899993896, Lat : 49.28357, Lng : -123.11502, Q1 : 0.999985039234, Q2 : -0.00414197286591, Q3 : -0.00357813108712, Q4 : -6.01048632234e-05}
2019-04-14 16:32:30.41: SIM {TimeUS : 44634639, Roll : -0.76, Pitch : -0.6, Yaw : 359.99, Alt : 30.5400009155, Lat : 49.28357, Lng : -123.11502, Q1 : 0.999964177608, Q2 : -0.00665154028684, Q3 : -0.00524007901549, Q4 : -0.000122026387544}
2019-04-14 16:32:30.51: SIM {TimeUS : 44734599, Roll : -0.88, Pitch : -0.68, Yaw : 359.98, Alt : 30.7000007629, Lat : 49.28357, Lng : -123.11502, Q1 : 0.999952018261, Q2 : -0.00776295457035, Q3 : -0.00597026525065, Q4 : -0.000195700165932}
2019-04-14 16:32:30.61: SIM {TimeUS : 44834559, Roll : -0.83, Pitch : -0.65, Yaw : 359.97, Alt : 30.8500003815, Lat : 49.28357, Lng : -123.11502, Q1 : 0.999957382679, Q2 : -0.00725001376122, Q3 : -0.00571205513552, Q4 : -0.000276473321719}
2019-04-14 16:32:30.71: SIM {TimeUS : 44934519, Roll : -0.64, Pitch : -0.53, Yaw : 359.96, Alt : 31.0100002289, Lat : 49.28357, Lng : -123.1150201, Q1 : 0.999973416328, Q2 : -0.00559141580015, Q3 : -0.00466976547614, Q4 : -0.000352708040737}
2019-04-14 16:32:30.81: SIM {TimeUS : 45035312, Roll : -0.38, Pitch : -0.36, Yaw : 359.95, Alt : 31.1599998474, Lat : 49.2835701, Lng : -123.1150202, Q1 : 0.99998909235, Q2 : -0.00338001339696, Q3 : -0.00318790785968, Q4 : -0.000417849136284}
2019-04-14 16:32:30.91: SIM {TimeUS : 45135272, Roll : -0.14, Pitch : -0.19, Yaw : 359.94, Alt : 31.3299999237, Lat : 49.2835701, Lng : -123.1150203, Q1 : 0.999997615814, Q2 : -0.00130639469717, Q3 : -0.00167293299455, Q4 : -0.00046585072414}
2019-04-14 16:32:31.01: SIM {TimeUS : 45235232, Roll : 0.01, Pitch : -0.04, Yaw : 359.94, Alt : 31.5, Lat : 49.2835702, Lng : -123.1150203, Q1 : 0.999999761581, Q2 : 0.000116074566904, Q3 : -0.000369307788787, Q4 : -0.000499588437378}
2019-04-14 16:32:31.11: SIM {TimeUS : 45335192, Roll : 0.08, Pitch : 0.06, Yaw : 359.94, Alt : 31.6700000763, Lat : 49.2835702, Lng : -123.1150204, Q1 : 0.999999463558, Q2 : 0.000741566182114, Q3 : 0.000530502235051, Q4 : -0.000519721594173}
2019-04-14 16:32:31.21: SIM {TimeUS : 45435152, Roll : 0.07, Pitch : 0.11, Yaw : 359.93, Alt : 31.8500003815, Lat : 49.2835703, Lng : -123.1150205, Q1 : 0.99999910593, Q2 : 0.000681047153194, Q3 : 0.00100411125459, Q4 : -0.000530483783223}
2019-04-14 16:32:31.31: SIM {TimeUS : 45535112, Roll : 0.05, Pitch : 0.13, Yaw : 359.93, Alt : 32.0400009155, Lat : 49.2835703, Lng : -123.1150205, Q1 : 0.999998986721, Q2 : 0.000510198704433, Q3 : 0.00120645540301, Q4 : -0.00054446113063}
2019-04-14 16:32:31.41: SIM {TimeUS : 45635072, Roll : 0.04, Pitch : 0.14, Yaw : 359.93, Alt : 32.2200012207, Lat : 49.2835703, Lng : -123.1150206, Q1 : 0.999998986721, Q2 : 0.000391596055124, Q3 : 0.00123092660215, Q4 : -0.000561548396945}
2019-04-14 16:32:31.51: SIM {TimeUS : 45735032, Roll : 0.03, Pitch : 0.14, Yaw : 359.93, Alt : 32.4199981689, Lat : 49.2835703, Lng : -123.1150206, Q1 : 0.999998986721, Q2 : 0.000330188660882, Q3 : 0.00124843197409, Q4 : -0.000575379002839}
2019-04-14 16:32:31.61: SIM {TimeUS : 45834992, Roll : 0.05, Pitch : 0.15, Yaw : 359.93, Alt : 32.6100006104, Lat : 49.2835703, Lng : -123.1150207, Q1 : 0.999998807907, Q2 : 0.000479082285892, Q3 : 0.00137405679561, Q4 : -0.00056578265503}
2019-04-14 16:32:31.71: SIM {TimeUS : 45934952, Roll : 0.08, Pitch : 0.14, Yaw : 359.93, Alt : 32.8100013733, Lat : 49.2835703, Lng : -123.1150207, Q1 : 0.999998748302, Q2 : 0.000759751303121, Q3 : 0.00127145042643, Q4 : -0.000546832685359}
2019-04-14 16:32:31.81: SIM {TimeUS : 46034912, Roll : 0.12, Pitch : 0.11, Yaw : 359.94, Alt : 33.0099983215, Lat : 49.2835704, Lng : -123.1150207, Q1 : 0.999998748302, Q2 : 0.00109040131792, Q3 : 0.0010018403409, Q4 : -0.000523324531969}
2019-04-14 16:32:31.91: SIM {TimeUS : 46134872, Roll : 0.16, Pitch : 0.09, Yaw : 359.94, Alt : 33.2099990845, Lat : 49.2835704, Lng : -123.1150208, Q1 : 0.999998509884, Q2 : 0.00140889897011, Q3 : 0.000849772244692, Q4 : -0.000499974528793}
2019-04-14 16:32:32.01: SIM {TimeUS : 46234832, Roll : 0.18, Pitch : 0.09, Yaw : 359.94, Alt : 33.4099998474, Lat : 49.2835704, Lng : -123.1150208, Q1 : 0.999998271465, Q2 : 0.00159918400459, Q3 : 0.000842430919874, Q4 : -0.000477567751659}
2019-04-14 16:32:32.11: SIM {TimeUS : 46334792, Roll : 0.19, Pitch : 0.11, Yaw : 359.94, Alt : 33.6199989319, Lat : 49.2835704, Lng : -123.1150208, Q1 : 0.999997973442, Q2 : 0.00169092137367, Q3 : 0.000985537539236, Q4 : -0.000453029002529}
2019-04-14 16:32:32.21: SIM {TimeUS : 46434752, Roll : 0.18, Pitch : 0.12, Yaw : 359.95, Alt : 33.8300018311, Lat : 49.2835704, Lng : -123.1150208, Q1 : 0.999998033047, Q2 : 0.00161082739942, Q3 : 0.00106659403536, Q4 : -0.000435478897998}
2019-04-14 16:32:32.31: SIM {TimeUS : 46534712, Roll : 0.15, Pitch : 0.12, Yaw : 359.95, Alt : 34.0400009155, Lat : 49.2835704, Lng : -123.1150208, Q1 : 0.99999833107, Q2 : 0.00138040212914, Q3 : 0.00110343354754, Q4 : -0.000418596202508}
2019-04-14 16:32:32.41: SIM {TimeUS : 46634672, Roll : 0.12, Pitch : 0.13, Yaw : 359.95, Alt : 34.25, Lat : 49.2835704, Lng : -123.1150208, Q1 : 0.999998629093, Q2 : 0.00112461985555, Q3 : 0.0011579405982, Q4 : -0.000405992672313}
2019-04-14 16:32:32.51: SIM {TimeUS : 46734632, Roll : 0.1, Pitch : 0.13, Yaw : 359.95, Alt : 34.4599990845, Lat : 49.2835704, Lng : -123.1150208, Q1 : 0.999998867512, Q2 : 0.000885630201083, Q3 : 0.00113551539835, Q4 : -0.000402364414185}
2019-04-14 16:32:32.61: SIM {TimeUS : 46834592, Roll : 0.09, Pitch : 0.09, Yaw : 359.95, Alt : 34.6699981689, Lat : 49.2835704, Lng : -123.1150208, Q1 : 0.999999284744, Q2 : 0.000786919321399, Q3 : 0.00080633640755, Q4 : -0.000424396712333}
2019-04-14 16:32:32.71: SIM {TimeUS : 46934552, Roll : 0.08, Pitch : 0.05, Yaw : 359.94, Alt : 34.8899993896, Lat : 49.2835704, Lng : -123.1150208, Q1 : 0.999999463558, Q2 : 0.000754578912165, Q3 : 0.000479173613712, Q4 : -0.000470611528726}
2019-04-14 16:32:32.81: SIM {TimeUS : 47034512, Roll : 0.07, Pitch : 0.03, Yaw : 359.94, Alt : 35.0999984741, Lat : 49.2835704, Lng : -123.1150207, Q1 : 0.999999642372, Q2 : 0.000644904619548, Q3 : 0.000308978196699, Q4 : -0.000523652590346}
2019-04-14 16:32:32.91: SIM {TimeUS : 47135305, Roll : 0.06, Pitch : 0.02, Yaw : 359.93, Alt : 35.3199996948, Lat : 49.2835704, Lng : -123.1150207, Q1 : 0.999999642372, Q2 : 0.000548469310161, Q3 : 0.000258708518231, Q4 : -0.000575219513848}
2019-04-14 16:32:33.01: SIM {TimeUS : 47235265, Roll : 0.05, Pitch : 0.02, Yaw : 359.92, Alt : 35.5400009155, Lat : 49.2835704, Lng : -123.1150207, Q1 : 0.999999642372, Q2 : 0.000510483630933, Q3 : 0.000217795648496, Q4 : -0.0006207349943}
2019-04-14 16:32:33.11: SIM {TimeUS : 47335225, Roll : 0.02, Pitch : 0.0, Yaw : 359.92, Alt : 35.7599983215, Lat : 49.2835704, Lng : -123.1150207, Q1 : 0.999999761581, Q2 : 0.000261543958914, Q3 : 3.16391083288e-06, Q4 : -0.000662948121317}
2019-04-14 16:32:33.21: SIM {TimeUS : 47435185, Roll : 0.0, Pitch : -0.03, Yaw : 359.91, Alt : 35.9799995422, Lat : 49.2835704, Lng : -123.1150207, Q1 : 0.999999701977, Q2 : -8.39961285237e-05, Q3 : -0.000334662065143, Q4 : -0.000698785239365}
2019-04-14 16:32:33.31: SIM {TimeUS : 47535145, Roll : -0.04, Pitch : -0.06, Yaw : 359.91, Alt : 36.2000007629, Lat : 49.2835704, Lng : -123.1150207, Q1 : 0.999999463558, Q2 : -0.000416284892708, Q3 : -0.000555480772164, Q4 : -0.00073568202788}
2019-04-14 16:32:33.41: SIM {TimeUS : 47635105, Roll : -0.07, Pitch : -0.07, Yaw : 359.91, Alt : 36.4199981689, Lat : 49.2835704, Lng : -123.1150207, Q1 : 0.99999922514, Q2 : -0.000674612761941, Q3 : -0.000667717191391, Q4 : -0.000771203194745}
2019-04-14 16:32:33.51: SIM {TimeUS : 47735065, Roll : -0.08, Pitch : -0.07, Yaw : 359.9, Alt : 36.6399993896, Lat : 49.2835704, Lng : -123.1150206, Q1 : 0.99999922514, Q2 : -0.000709373736754, Q3 : -0.000652068178169, Q4 : -0.000795506115537}
2019-04-14 16:32:33.61: SIM {TimeUS : 47835025, Roll : -0.07, Pitch : -0.06, Yaw : 359.9, Alt : 36.8699989319, Lat : 49.2835704, Lng : -123.1150206, Q1 : 0.999999284744, Q2 : -0.000666662992444, Q3 : -0.000595300050918, Q4 : -0.000815053004771}
2019-04-14 16:32:33.71: SIM {TimeUS : 47934985, Roll : -0.06, Pitch : -0.05, Yaw : 359.9, Alt : 37.0900001526, Lat : 49.2835704, Lng : -123.1150206, Q1 : 0.999999403954, Q2 : -0.000582505948842, Q3 : -0.000446573452791, Q4 : -0.000834479636978}
2019-04-14 16:32:33.81: SIM {TimeUS : 48034945, Roll : -0.05, Pitch : -0.04, Yaw : 359.9, Alt : 37.3199996948, Lat : 49.2835704, Lng : -123.1150206, Q1 : 0.999999463558, Q2 : -0.000477975903777, Q3 : -0.000359148310963, Q4 : -0.0008495998336}
2019-04-14 16:32:33.91: SIM {TimeUS : 48134905, Roll : -0.06, Pitch : -0.04, Yaw : 359.9, Alt : 37.5400009155, Lat : 49.2835704, Lng : -123.1150206, Q1 : 0.999999403954, Q2 : -0.000541133456863, Q3 : -0.000393852475099, Q4 : -0.000859954336192}
2019-04-14 16:32:34.01: SIM {TimeUS : 48234865, Roll : -0.07, Pitch : -0.03, Yaw : 359.9, Alt : 37.7700004578, Lat : 49.2835704, Lng : -123.1150206, Q1 : 0.999999344349, Q2 : -0.000672402617056, Q3 : -0.000273911107797, Q4 : -0.000866740359925}
2019-04-14 16:32:34.11: SIM {TimeUS : 48334825, Roll : -0.1, Pitch : -0.01, Yaw : 359.89, Alt : 37.9900016785, Lat : 49.2835704, Lng : -123.1150206, Q1 : 0.99999922514, Q2 : -0.000895021483302, Q3 : -0.000103780919744, Q4 : -0.000874246354215}
2019-04-14 16:32:34.21: SIM {TimeUS : 48434785, Roll : -0.1, Pitch : 0.0, Yaw : 359.89, Alt : 38.2200012207, Lat : 49.2835704, Lng : -123.1150206, Q1 : 0.999999165535, Q2 : -0.000940928526688, Q3 : 4.99264169775e-05, Q4 : -0.000877023383509}
2019-04-14 16:32:34.31: SIM {TimeUS : 48534745, Roll : -0.08, Pitch : 0.03, Yaw : 359.89, Alt : 38.4500007629, Lat : 49.2835704, Lng : -123.1150206, Q1 : 0.999999284744, Q2 : -0.000736925925594, Q3 : 0.000323419400956, Q4 : -0.000885707559064}
2019-04-14 16:32:34.41: SIM {TimeUS : 48634705, Roll : -0.05, Pitch : 0.03, Yaw : 359.89, Alt : 38.6800003052, Lat : 49.2835704, Lng : -123.1150206, Q1 : 0.999999403954, Q2 : -0.000517297012266, Q3 : 0.000295869016554, Q4 : -0.000899245962501}
2019-04-14 16:32:34.51: SIM {TimeUS : 48734665, Roll : -0.03, Pitch : 0.02, Yaw : 359.89, Alt : 38.9099998474, Lat : 49.2835704, Lng : -123.1150206, Q1 : 0.999999523163, Q2 : -0.00026303314371, Q3 : 0.000176809931872, Q4 : -0.000912167131901}
2019-04-14 16:32:34.61: SIM {TimeUS : 48834625, Roll : 0.0, Pitch : 0.03, Yaw : 359.89, Alt : 39.1399993896, Lat : 49.2835704, Lng : -123.1150206, Q1 : 0.999999523163, Q2 : 3.32433555741e-05, Q3 : 0.000274714489933, Q4 : -0.000922806444578}
2019-04-14 16:32:34.71: SIM {TimeUS : 48934585, Roll : 0.04, Pitch : 0.05, Yaw : 359.89, Alt : 39.3600006104, Lat : 49.2835704, Lng : -123.1150206, Q1 : 0.999999344349, Q2 : 0.000356718664989, Q3 : 0.00049216626212, Q4 : -0.000938705692533}
2019-04-14 16:32:34.81: SIM {TimeUS : 49034545, Roll : 0.07, Pitch : 0.08, Yaw : 359.89, Alt : 39.5999984741, Lat : 49.2835704, Lng : -123.1150206, Q1 : 0.99999910593, Q2 : 0.000635540345684, Q3 : 0.000725640391465, Q4 : -0.000960029836278}
2019-04-14 16:32:34.91: SIM {TimeUS : 49134505, Roll : 0.06, Pitch : 0.1, Yaw : 359.88, Alt : 39.8300018311, Lat : 49.2835706, Lng : -123.1150206, Q1 : 0.999998927116, Q2 : 0.000591644609813, Q3 : 0.00094620854361, Q4 : -0.000978934578598}
2019-04-14 16:32:35.01: SIM {TimeUS : 49235298, Roll : 0.02, Pitch : 0.13, Yaw : 359.88, Alt : 40.0600013733, Lat : 49.2835706, Lng : -123.1150206, Q1 : 0.999998807907, Q2 : 0.000214190076804, Q3 : 0.00113888643682, Q4 : -0.00101703894325}
2019-04-14 16:32:35.11: SIM {TimeUS : 49335258, Roll : -0.01, Pitch : 0.12, Yaw : 359.88, Alt : 40.2900009155, Lat : 49.2835706, Lng : -123.1150206, Q1 : 0.999998867512, Q2 : -9.58900564001e-05, Q3 : 0.00107198453043, Q4 : -0.00104329013266}
2019-04-14 16:32:35.21: SIM {TimeUS : 49435218, Roll : -0.03, Pitch : 0.09, Yaw : 359.87, Alt : 40.5200004578, Lat : 49.2835706, Lng : -123.1150206, Q1 : 0.999999046326, Q2 : -0.000347181194229, Q3 : 0.000790596706793, Q4 : -0.00107229559217}
2019-04-14 16:32:35.31: SIM {TimeUS : 49535178, Roll : -0.05, Pitch : 0.06, Yaw : 359.87, Alt : 40.75, Lat : 49.2835706, Lng : -123.1150206, Q1 : 0.99999910593, Q2 : -0.000450474442914, Q3 : 0.000603133288678, Q4 : -0.00110130291432}
2019-04-14 16:32:35.41: SIM {TimeUS : 49635138, Roll : -0.04, Pitch : 0.07, Yaw : 359.86, Alt : 40.9900016785, Lat : 49.2835706, Lng : -123.1150206, Q1 : 0.999999046326, Q2 : -0.000352875387762, Q3 : 0.000694861169904, Q4 : -0.00113508757204}
2019-04-14 16:32:35.51: SIM {TimeUS : 49735098, Roll : 0.0, Pitch : 0.11, Yaw : 359.86, Alt : 41.2200012207, Lat : 49.2835706, Lng : -123.1150206, Q1 : 0.999998867512, Q2 : 2.66751649178e-05, Q3 : 0.000983036239631, Q4 : -0.00116447883192}
2019-04-14 16:32:35.61: SIM {TimeUS : 49835058, Roll : 0.05, Pitch : 0.13, Yaw : 359.86, Alt : 41.4500007629, Lat : 49.2835706, Lng : -123.1150206, Q1 : 0.999998450279, Q2 : 0.000504031428136, Q3 : 0.00119840889238, Q4 : -0.00119684659876}
2019-04-14 16:32:35.71: SIM {TimeUS : 49935018, Roll : 0.09, Pitch : 0.11, Yaw : 359.85, Alt : 41.6899986267, Lat : 49.2835706, Lng : -123.1150207, Q1 : 0.999998390675, Q2 : 0.000815641658846, Q3 : 0.00101947423536, Q4 : -0.00123471498955}
2019-04-14 16:32:35.81: SIM {TimeUS : 50034978, Roll : 0.09, Pitch : 0.07, Yaw : 359.85, Alt : 41.9199981689, Lat : 49.2835706, Lng : -123.1150207, Q1 : 0.999998629093, Q2 : 0.000814717554022, Q3 : 0.000660255027469, Q4 : -0.00127178162802}
2019-04-14 16:32:35.91: SIM {TimeUS : 50134938, Roll : 0.05, Pitch : 0.04, Yaw : 359.85, Alt : 42.1500015259, Lat : 49.2835706, Lng : -123.1150207, Q1 : 0.999998986721, Q2 : 0.000471919163829, Q3 : 0.000361062498996, Q4 : -0.00129478005692}
2019-04-14 16:32:36.01: SIM {TimeUS : 50234898, Roll : 0.0, Pitch : 0.03, Yaw : 359.84, Alt : 42.3899993896, Lat : 49.2835706, Lng : -123.1150207, Q1 : 0.99999910593, Q2 : -3.87157979276e-06, Q3 : 0.000269622600172, Q4 : -0.00131157506257}
2019-04-14 16:32:36.11: SIM {TimeUS : 50334858, Roll : -0.03, Pitch : 0.05, Yaw : 359.84, Alt : 42.6199989319, Lat : 49.2835704, Lng : -123.1150206, Q1 : 0.999998986721, Q2 : -0.00032528230804, Q3 : 0.000478779984405, Q4 : -0.00131900073029}
2019-04-14 16:32:36.21: SIM {TimeUS : 50434818, Roll : -0.05, Pitch : 0.07, Yaw : 359.84, Alt : 42.8600006104, Lat : 49.2835704, Lng : -123.1150206, Q1 : 0.999998807907, Q2 : -0.000460838462459, Q3 : 0.000659116951283, Q4 : -0.00132146663964}
2019-04-14 16:32:36.31: SIM {TimeUS : 50534778, Roll : -0.04, Pitch : 0.07, Yaw : 359.84, Alt : 43.0900001526, Lat : 49.2835704, Lng : -123.1150206, Q1 : 0.999998807907, Q2 : -0.000421022559749, Q3 : 0.000666862935759, Q4 : -0.00132551672868}
2019-04-14 16:32:36.41: SIM {TimeUS : 50634738, Roll : -0.04, Pitch : 0.07, Yaw : 359.84, Alt : 43.3300018311, Lat : 49.2835704, Lng : -123.1150206, Q1 : 0.999998807907, Q2 : -0.000427938764915, Q3 : 0.000631943403278, Q4 : -0.00134083395824}
2019-04-14 16:32:36.51: SIM {TimeUS : 50734698, Roll : -0.04, Pitch : 0.06, Yaw : 359.84, Alt : 43.5600013733, Lat : 49.2835704, Lng : -123.1150206, Q1 : 0.999998867512, Q2 : -0.000354554416845, Q3 : 0.000551753852051, Q4 : -0.00135967181996}
2019-04-14 16:32:36.61: SIM {TimeUS : 50834658, Roll : -0.02, Pitch : 0.05, Yaw : 359.84, Alt : 43.7999992371, Lat : 49.2835704, Lng : -123.1150206, Q1 : 0.999998927116, Q2 : -0.000187620491488, Q3 : 0.000475606299005, Q4 : -0.00138285907451}
2019-04-14 16:32:36.71: SIM {TimeUS : 50934618, Roll : -0.01, Pitch : 0.04, Yaw : 359.83, Alt : 44.0299987793, Lat : 49.2835704, Lng : -123.1150206, Q1 : 0.999998927116, Q2 : -9.03283143998e-05, Q3 : 0.000420546421083, Q4 : -0.0014060480753}
2019-04-14 16:32:36.81: SIM {TimeUS : 51034578, Roll : -0.01, Pitch : 0.02, Yaw : 359.83, Alt : 44.2700004578, Lat : 49.2835704, Lng : -123.1150206, Q1 : 0.999998927116, Q2 : -0.000125757869682, Q3 : 0.000208193581784, Q4 : -0.00143324548844}
2019-04-14 16:32:36.91: SIM {TimeUS : 51134538, Roll : -0.02, Pitch : -0.01, Yaw : 359.83, Alt : 44.5, Lat : 49.2835704, Lng : -123.1150206, Q1 : 0.999998927116, Q2 : -0.000223059294512, Q3 : -0.000120595970657, Q4 : -0.00146477681119}
2019-04-14 16:32:37.01: SIM {TimeUS : 51234498, Roll : -0.03, Pitch : -0.03, Yaw : 359.82, Alt : 44.7400016785, Lat : 49.2835704, Lng : -123.1150206, Q1 : 0.999998807907, Q2 : -0.000265867158305, Q3 : -0.000317638245178, Q4 : -0.00149716774467}
2019-04-14 16:32:37.11: SIM {TimeUS : 51335291, Roll : -0.02, Pitch : -0.04, Yaw : 359.82, Alt : 44.9799995422, Lat : 49.2835704, Lng : -123.1150206, Q1 : 0.999998748302, Q2 : -0.000219468216528, Q3 : -0.000376048497856, Q4 : -0.00152706948575}
2019-04-14 16:32:37.21: SIM {TimeUS : 51435251, Roll : -0.02, Pitch : -0.04, Yaw : 359.82, Alt : 45.2099990845, Lat : 49.2835704, Lng : -123.1150206, Q1 : 0.999998688698, Q2 : -0.000236291831243, Q3 : -0.00036877443199, Q4 : -0.00155842269305}
2019-04-14 16:32:37.31: SIM {TimeUS : 51535211, Roll : -0.04, Pitch : -0.03, Yaw : 359.81, Alt : 45.4500007629, Lat : 49.2835704, Lng : -123.1150206, Q1 : 0.999998629093, Q2 : -0.000412685069023, Q3 : -0.00028860103339, Q4 : -0.00159500795417}
2019-04-14 16:32:37.41: SIM {TimeUS : 51635171, Roll : -0.08, Pitch : -0.02, Yaw : 359.81, Alt : 45.6800003052, Lat : 49.2835703, Lng : -123.1150206, Q1 : 0.999998390675, Q2 : -0.000719133706298, Q3 : -0.000238406442804, Q4 : -0.00163076189347}
2019-04-14 16:32:37.51: SIM {TimeUS : 51735131, Roll : -0.1, Pitch : -0.02, Yaw : 359.8, Alt : 45.9199981689, Lat : 49.2835703, Lng : -123.1150206, Q1 : 0.999998152256, Q2 : -0.000934191164561, Q3 : -0.000226186864893, Q4 : -0.00166173826437}
2019-04-14 16:32:37.61: SIM {TimeUS : 51835091, Roll : -0.11, Pitch : -0.01, Yaw : 359.8, Alt : 46.1500015259, Lat : 49.2835703, Lng : -123.1150206, Q1 : 0.999998092651, Q2 : -0.000975206727162, Q3 : -0.000119200332847, Q4 : -0.00168611097615}
2019-04-14 16:32:37.71: SIM {TimeUS : 51935051, Roll : -0.09, Pitch : 0.01, Yaw : 359.8, Alt : 46.3699989319, Lat : 49.2835703, Lng : -123.1150206, Q1 : 0.999998211861, Q2 : -0.000833065831102, Q3 : 0.000123980382341, Q4 : -0.00170928821899}
2019-04-14 16:32:37.81: SIM {TimeUS : 52035011, Roll : -0.06, Pitch : 0.03, Yaw : 359.8, Alt : 46.5900001526, Lat : 49.2835703, Lng : -123.1150206, Q1 : 0.999998271465, Q2 : -0.000581380736548, Q3 : 0.000267751776846, Q4 : -0.00173142913263}
2019-04-14 16:32:37.91: SIM {TimeUS : 52134971, Roll : -0.04, Pitch : 0.02, Yaw : 359.79, Alt : 46.8100013733, Lat : 49.2835703, Lng : -123.1150206, Q1 : 0.99999833107, Q2 : -0.000396029296098, Q3 : 0.000232726786635, Q4 : -0.00175357901026}
2019-04-14 16:32:38.01: SIM {TimeUS : 52234931, Roll : -0.03, Pitch : 0.0, Yaw : 359.79, Alt : 47.0200004578, Lat : 49.2835703, Lng : -123.1150206, Q1 : 0.999998390675, Q2 : -0.000312362826662, Q3 : 7.49473765609e-05, Q4 : -0.00177315052133}
2019-04-14 16:32:38.11: SIM {TimeUS : 52334891, Roll : -0.02, Pitch : -0.02, Yaw : 359.79, Alt : 47.2200012207, Lat : 49.2835703, Lng : -123.1150206, Q1 : 0.999998390675, Q2 : -0.00017517717788, Q3 : -0.000185153505299, Q4 : -0.00178736296948}
2019-04-14 16:32:38.21: SIM {TimeUS : 52434851, Roll : 0.0, Pitch : -0.05, Yaw : 359.79, Alt : 47.4199981689, Lat : 49.2835703, Lng : -123.1150206, Q1 : 0.999998271465, Q2 : 3.47822569893e-05, Q3 : -0.000473337073345, Q4 : -0.00180444435682}
2019-04-14 16:32:38.31: SIM {TimeUS : 52534811, Roll : 0.01, Pitch : -0.08, Yaw : 359.79, Alt : 47.5999984741, Lat : 49.2835703, Lng : -123.1150206, Q1 : 0.999998033047, Q2 : 0.000124983154819, Q3 : -0.000749433820602, Q4 : -0.00182229885831}
2019-04-14 16:32:38.41: SIM {TimeUS : 52634771, Roll : 0.02, Pitch : -0.12, Yaw : 359.78, Alt : 47.7799987793, Lat : 49.2835703, Lng : -123.1150206, Q1 : 0.999997615814, Q2 : 0.000201428236323, Q3 : -0.00112867739517, Q4 : -0.00184130109847}
2019-04-14 16:32:38.51: SIM {TimeUS : 52734731, Roll : 0.05, Pitch : -0.15, Yaw : 359.78, Alt : 47.9399986267, Lat : 49.2835703, Lng : -123.1150206, Q1 : 0.999997258186, Q2 : 0.000446269288659, Q3 : -0.0013361297315, Q4 : -0.00186333386227}
2019-04-14 16:32:38.61: SIM {TimeUS : 52834691, Roll : 0.07, Pitch : -0.15, Yaw : 359.78, Alt : 48.0999984741, Lat : 49.2835703, Lng : -123.1150206, Q1 : 0.999997138977, Q2 : 0.000671265006531, Q3 : -0.00131779490039, Q4 : -0.00188870867714}
2019-04-14 16:32:38.71: SIM {TimeUS : 52934651, Roll : 0.09, Pitch : -0.12, Yaw : 359.77, Alt : 48.2400016785, Lat : 49.2835704, Lng : -123.1150206, Q1 : 0.999997198582, Q2 : 0.00080175237963, Q3 : -0.00111410848331, Q4 : -0.00191937515046}
2019-04-14 16:32:38.81: SIM {TimeUS : 53034611, Roll : 0.08, Pitch : -0.09, Yaw : 359.77, Alt : 48.3600006104, Lat : 49.2835704, Lng : -123.1150206, Q1 : 0.999997437, Q2 : 0.000767954741605, Q3 : -0.000837658939417, Q4 : -0.00195443443954}
2019-04-14 16:32:38.91: SIM {TimeUS : 53134571, Roll : 0.08, Pitch : -0.07, Yaw : 359.77, Alt : 48.4799995422, Lat : 49.2835704, Lng : -123.1150206, Q1 : 0.99999755621, Q2 : 0.000732733577024, Q3 : -0.000619348371401, Q4 : -0.00199006707408}
2019-04-14 16:32:39.01: SIM {TimeUS : 53234531, Roll : 0.07, Pitch : -0.06, Yaw : 359.76, Alt : 48.5900001526, Lat : 49.2835704, Lng : -123.1150206, Q1 : 0.99999755621, Q2 : 0.000620938022621, Q3 : -0.000567975919694, Q4 : -0.00202768458985}
2019-04-14 16:32:39.11: SIM {TimeUS : 53335324, Roll : 0.04, Pitch : -0.05, Yaw : 359.76, Alt : 48.6800003052, Lat : 49.2835704, Lng : -123.1150206, Q1 : 0.999997675419, Q2 : 0.000404865393648, Q3 : -0.000514448329341, Q4 : -0.00206860899925}
2019-04-14 16:32:39.21: SIM {TimeUS : 53435284, Roll : 0.02, Pitch : -0.04, Yaw : 359.75, Alt : 48.7599983215, Lat : 49.2835704, Lng : -123.1150206, Q1 : 0.999997675419, Q2 : 0.000253936945228, Q3 : -0.000386042025639, Q4 : -0.00210435013287}
2019-04-14 16:32:39.31: SIM {TimeUS : 53535244, Roll : 0.01, Pitch : -0.02, Yaw : 359.75, Alt : 48.8300018311, Lat : 49.2835704, Lng : -123.1150206, Q1 : 0.999997735023, Q2 : 0.000104866543552, Q3 : -0.000209855599678, Q4 : -0.00213416316546}
2019-04-14 16:32:39.41: SIM {TimeUS : 53635204, Roll : 0.0, Pitch : 0.0, Yaw : 359.75, Alt : 48.8899993896, Lat : 49.2835704, Lng : -123.1150206, Q1 : 0.999997675419, Q2 : 7.24663959772e-06, Q3 : 3.67203974747e-05, Q4 : -0.00215866230428}
2019-04-14 16:32:39.51: SIM {TimeUS : 53735164, Roll : 0.0, Pitch : 0.04, Yaw : 359.75, Alt : 48.9399986267, Lat : 49.2835704, Lng : -123.1150206, Q1 : 0.99999755621, Q2 : 8.75518235262e-05, Q3 : 0.000356298900442, Q4 : -0.00217822031118}
2019-04-14 16:32:39.61: SIM {TimeUS : 53835124, Roll : 0.04, Pitch : 0.03, Yaw : 359.74, Alt : 48.9799995422, Lat : 49.2835704, Lng : -123.1150206, Q1 : 0.999997496605, Q2 : 0.000388095417293, Q3 : 0.00029114735662, Q4 : -0.00219330843538}
2019-04-14 16:32:39.71: SIM {TimeUS : 53935084, Roll : 0.16, Pitch : -0.13, Yaw : 359.74, Alt : 49.0200004578, Lat : 49.2835704, Lng : -123.1150206, Q1 : 0.999995827675, Q2 : 0.00145136378706, Q3 : -0.00120488216635, Q4 : -0.00220145052299}
2019-04-14 16:32:39.81: SIM {TimeUS : 54035044, Roll : 0.41, Pitch : -0.53, Yaw : 359.74, Alt : 49.0499992371, Lat : 49.2835704, Lng : -123.1150206, Q1 : 0.999980270863, Q2 : 0.00362001708709, Q3 : -0.00463834404945, Q4 : -0.00220751203597}
2019-04-14 16:32:39.91: SIM {TimeUS : 54135004, Roll : 0.8, Pitch : -1.15, Yaw : 359.73, Alt : 49.0800018311, Lat : 49.2835706, Lng : -123.1150206, Q1 : 0.999922633171, Q2 : 0.00698106130585, Q3 : -0.0100584086031, Q4 : -0.00220344378613}
2019-04-14 16:32:40.01: SIM {TimeUS : 54234964, Roll : 1.31, Pitch : -1.94, Yaw : 359.72, Alt : 49.1100006104, Lat : 49.2835706, Lng : -123.1150206, Q1 : 0.999787271023, Q2 : 0.0114709250629, Q3 : -0.0170045979321, Q4 : -0.00218419963494}
2019-04-14 16:32:40.11: SIM {TimeUS : 54334924, Roll : 1.9, Pitch : -2.81, Yaw : 359.7, Alt : 49.1300010681, Lat : 49.2835707, Lng : -123.1150205, Q1 : 0.999557971954, Q2 : 0.0165941864252, Q3 : -0.0245741605759, Q4 : -0.00213628262281}
2019-04-14 16:32:40.21: SIM {TimeUS : 54434884, Roll : 2.46, Pitch : -3.62, Yaw : 359.68, Alt : 49.1399993896, Lat : 49.2835707, Lng : -123.1150204, Q1 : 0.999264657497, Q2 : 0.0214441493154, Q3 : -0.0317190103233, Q4 : -0.0020400127396}
2019-04-14 16:32:40.31: SIM {TimeUS : 54534844, Roll : 2.92, Pitch : -4.28, Yaw : 359.67, Alt : 49.1599998474, Lat : 49.2835709, Lng : -123.1150202, Q1 : 0.998973309994, Q2 : 0.0254121106118, Q3 : -0.0374562479556, Q4 : -0.00188761297613}
2019-04-14 16:32:40.41: SIM {TimeUS : 54634804, Roll : 3.25, Pitch : -4.75, Yaw : 359.67, Alt : 49.1699981689, Lat : 49.283571, Lng : -123.11502, Q1 : 0.998733222485, Q2 : 0.028281852603, Q3 : -0.0415857695043, Q4 : -0.00168251537252}
2019-04-14 16:32:40.51: SIM {TimeUS : 54734764, Roll : 3.49, Pitch : -5.11, Yaw : 359.67, Alt : 49.1899986267, Lat : 49.2835713, Lng : -123.1150199, Q1 : 0.998540580273, Q2 : 0.0303244888783, Q3 : -0.0446666739881, Q4 : -0.0014393349411}
2019-04-14 16:32:40.61: SIM {TimeUS : 54834724, Roll : 3.69, Pitch : -5.4, Yaw : 359.69, Alt : 49.2000007629, Lat : 49.2835716, Lng : -123.1150195, Q1 : 0.998366057873, Q2 : 0.0321186706424, Q3 : -0.0472472943366, Q4 : -0.00117116887122}
2019-04-14 16:32:40.71: SIM {TimeUS : 54934684, Roll : 3.9, Pitch : -5.69, Yaw : 359.7, Alt : 49.2099990845, Lat : 49.283572, Lng : -123.1150192, Q1 : 0.998184978962, Q2 : 0.0339298509061, Q3 : -0.0497469827533, Q4 : -0.000894399825484}
2019-04-14 16:32:40.81: SIM {TimeUS : 55034644, Roll : 4.11, Pitch : -5.99, Yaw : 359.71, Alt : 49.2099990845, Lat : 49.2835725, Lng : -123.1150187, Q1 : 0.997990489006, Q2 : 0.0357487536967, Q3 : -0.0523131936789, Q4 : -0.000625110347755}
2019-04-14 16:32:40.91: SIM {TimeUS : 55134604, Roll : 4.31, Pitch : -6.3, Yaw : 359.71, Alt : 49.2200012207, Lat : 49.2835729, Lng : -123.1150182, Q1 : 0.997781634331, Q2 : 0.037452545017, Q3 : -0.0550365634263, Q4 : -0.000382145750336}
2019-04-14 16:32:41.01: SIM {TimeUS : 55234564, Roll : 4.47, Pitch : -6.58, Yaw : 359.72, Alt : 49.2299995422, Lat : 49.2835734, Lng : -123.1150175, Q1 : 0.997592628002, Q2 : 0.0388231500983, Q3 : -0.0574607178569, Q4 : -0.000178570000571}
2019-04-14 16:32:41.11: SIM {TimeUS : 55334524, Roll : 4.59, Pitch : -6.78, Yaw : 359.72, Alt : 49.2299995422, Lat : 49.283574, Lng : -123.1150169, Q1 : 0.997449636459, Q2 : 0.0398976616561, Q3 : -0.0591808818281, Q4 : 1.53092423716e-06}
2019-04-14 16:32:41.21: SIM {TimeUS : 55435317, Roll : 4.69, Pitch : -6.91, Yaw : 359.73, Alt : 49.2400016785, Lat : 49.2835747, Lng : -123.1150162, Q1 : 0.997346282005, Q2 : 0.040718331933, Q3 : -0.0603527501225, Q4 : 0.000148821432958}
2019-04-14 16:32:41.31: SIM {TimeUS : 55535277, Roll : 4.76, Pitch : -7.01, Yaw : 359.73, Alt : 49.2400016785, Lat : 49.2835756, Lng : -123.1150154, Q1 : 0.997265219688, Q2 : 0.0413600243628, Q3 : -0.0612482987344, Q4 : 0.000251437159022}
2019-04-14 16:32:41.41: SIM {TimeUS : 55635237, Roll : 4.84, Pitch : -7.11, Yaw : 359.73, Alt : 49.25, Lat : 49.2835764, Lng : -123.1150146, Q1 : 0.99718695879, Q2 : 0.0420382246375, Q3 : -0.0620558187366, Q4 : 0.000328915513819}
2019-04-14 16:32:41.51: SIM {TimeUS : 55735197, Roll : 5.03, Pitch : -7.21, Yaw : 359.75, Alt : 49.25, Lat : 49.2835771, Lng : -123.1150137, Q1 : 0.997061371803, Q2 : 0.0436823144555, Q3 : -0.0629293322563, Q4 : 0.000610647315625}
2019-04-14 16:32:41.61: SIM {TimeUS : 55835157, Roll : 5.48, Pitch : -7.25, Yaw : 0.08, Alt : 49.2599983215, Lat : 49.2835782, Lng : -123.1150127, Q1 : 0.996852397919, Q2 : 0.0478122234344, Q3 : -0.0631304681301, Q4 : 0.00373142887838}
2019-04-14 16:32:41.71: SIM {TimeUS : 55935117, Roll : 6.14, Pitch : -7.28, Yaw : 1.37, Alt : 49.2599983215, Lat : 49.2835791, Lng : -123.1150117, Q1 : 0.996432721615, Q2 : 0.0542315915227, Q3 : -0.0628119409084, Q4 : 0.0153445554897}
2019-04-14 16:32:41.81: SIM {TimeUS : 56035077, Roll : 6.66, Pitch : -7.54, Yaw : 4.17, Alt : 49.2599983215, Lat : 49.28358, Lng : -123.1150106, Q1 : 0.99534457922, Q2 : 0.060318864882, Q3 : -0.0635604932904, Q4 : 0.0401350483298}
2019-04-14 16:32:41.91: SIM {TimeUS : 56135037, Roll : 6.73, Pitch : -8.17, Yaw : 8.57, Alt : 49.2599983215, Lat : 49.2835812, Lng : -123.1150094, Q1 : 0.992635071278, Q2 : 0.0637094900012, Q3 : -0.0665683299303, Q4 : 0.0786474347115}
2019-04-14 16:32:42.01: SIM {TimeUS : 56234997, Roll : 6.15, Pitch : -9.11, Yaw : 14.4, Alt : 49.2599983215, Lat : 49.2835823, Lng : -123.1150081, Q1 : 0.987013220787, Q2 : 0.0630214214325, Q3 : -0.0720530748367, Q4 : 0.129002124071}
2019-04-14 16:32:42.11: SIM {TimeUS : 56334957, Roll : 4.62, Pitch : -10.23, Yaw : 21.26, Alt : 49.2599983215, Lat : 49.2835834, Lng : -123.1150067, Q1 : 0.977445363998, Q2 : 0.0559741966426, Q3 : -0.0801343247294, Q4 : 0.187205597758}
2019-04-14 16:32:42.21: SIM {TimeUS : 56434917, Roll : 2.16, Pitch : -11.24, Yaw : 28.46, Alt : 49.2700004578, Lat : 49.2835846, Lng : -123.1150052, Q1 : 0.964015007019, Q2 : 0.0422991998494, Q3 : -0.0903508737683, Q4 : 0.246419459581}
2019-04-14 16:32:42.31: SIM {TimeUS : 56534877, Roll : -0.77, Pitch : -11.96, Yaw : 35.19, Alt : 49.2700004578, Lat : 49.2835858, Lng : -123.1150036, Q1 : 0.94821023941, Q2 : 0.0251309797168, Q3 : -0.101391755044, Q4 : 0.299975782633}
2019-04-14 16:32:42.41: SIM {TimeUS : 56634837, Roll : -3.52, Pitch : -12.32, Yaw : 40.75, Alt : 49.2700004578, Lat : 49.2835871, Lng : -123.115002, Q1 : 0.93270522356, Q2 : 0.008734960109, Q3 : -0.111250087619, Q4 : 0.34294039011}
2019-04-14 16:32:42.51: SIM {TimeUS : 56734797, Roll : -5.53, Pitch : -12.44, Yaw : 44.69, Alt : 49.2700004578, Lat : 49.2835885, Lng : -123.1150003, Q1 : 0.920357763767, Q2 : -0.00324324797839, Q3 : -0.118424072862, Q4 : 0.37270206213}
2019-04-14 16:32:42.61: SIM {TimeUS : 56834757, Roll : -6.58, Pitch : -12.5, Yaw : 46.88, Alt : 49.2700004578, Lat : 49.2835899, Lng : -123.1149987, Q1 : 0.912982702255, Q2 : -0.00907545071095, Q3 : -0.122470900416, Q4 : 0.389077246189}
2019-04-14 16:32:42.71: SIM {TimeUS : 56934717, Roll : -6.69, Pitch : -12.62, Yaw : 47.48, Alt : 49.2700004578, Lat : 49.2835916, Lng : -123.114997, Q1 : 0.910860240459, Q2 : -0.00890325941145, Q3 : -0.123852655292, Q4 : 0.393592327833}
2019-04-14 16:32:42.81: SIM {TimeUS : 57034677, Roll : -6.04, Pitch : -12.9, Yaw : 46.77, Alt : 49.2700004578, Lat : 49.2835934, Lng : -123.1149954, Q1 : 0.913107097149, Q2 : -0.00352822756395, Q3 : -0.123812183738, Q4 : 0.388450205326}
2019-04-14 16:32:42.91: SIM {TimeUS : 57134637, Roll : -4.87, Pitch : -13.37, Yaw : 45.09, Alt : 49.2700004578, Lat : 49.2835952, Lng : -123.1149937, Q1 : 0.918347418308, Q2 : 0.00561842974275, Q3 : -0.123655721545, Q4 : 0.37591984868}
2019-04-14 16:32:43.01: SIM {TimeUS : 57234597, Roll : -3.41, Pitch : -13.97, Yaw : 42.74, Alt : 49.2700004578, Lat : 49.283597, Lng : -123.114992, Q1 : 0.925215303898, Q2 : 0.0168035831302, Q3 : -0.123968243599, Q4 : 0.358226507902}
2019-04-14 16:32:43.11: SIM {TimeUS : 57334557, Roll : -1.83, Pitch : -14.57, Yaw : 40.03, Alt : 49.2700004578, Lat : 49.2835989, Lng : -123.1149902, Q1 : 0.932570397854, Q2 : 0.0284638665617, Q3 : -0.124577358365, Q4 : 0.337613373995}
2019-04-14 16:32:43.21: SIM {TimeUS : 57434517, Roll : -0.31, Pitch : -15.07, Yaw : 37.26, Alt : 49.2799987793, Lat : 49.2836011, Lng : -123.1149883, Q1 : 0.939502298832, Q2 : 0.0392855480313, Q3 : -0.12516143918, Q4 : 0.316428005695}
2019-04-14 16:32:43.31: SIM {TimeUS : 57535310, Roll : 1.01, Pitch : -15.4, Yaw : 34.72, Alt : 49.2799987793, Lat : 49.2836031, Lng : -123.1149864, Q1 : 0.945418119431, Q2 : 0.0484137758613, Q3 : -0.125298604369, Q4 : 0.296885460615}
2019-04-14 16:32:43.41: SIM {TimeUS : 57635270, Roll : 2.03, Pitch : -15.55, Yaw : 32.7, Alt : 49.2799987793, Lat : 49.2836053, Lng : -123.1149843, Q1 : 0.949894368649, Q2 : 0.0550069622695, Q3 : -0.124909453094, Q4 : 0.281198561192}
2019-04-14 16:32:43.51: SIM {TimeUS : 57735230, Roll : 2.68, Pitch : -15.58, Yaw : 31.31, Alt : 49.2799987793, Lat : 49.2836074, Lng : -123.1149822, Q1 : 0.952885329723, Q2 : 0.0589142590761, Q3 : -0.124265022576, Q4 : 0.27036434412}
2019-04-14 16:32:43.61: SIM {TimeUS : 57835190, Roll : 2.95, Pitch : -15.57, Yaw : 30.6, Alt : 49.2799987793, Lat : 49.2836097, Lng : -123.1149799, Q1 : 0.954413414001, Q2 : 0.0603690445423, Q3 : -0.123877353966, Q4 : 0.26477342844}
2019-04-14 16:32:43.71: SIM {TimeUS : 57935150, Roll : 2.86, Pitch : -15.58, Yaw : 30.53, Alt : 49.2799987793, Lat : 49.283612, Lng : -123.1149776, Q1 : 0.954598724842, Q2 : 0.0595789849758, Q3 : -0.124232016504, Q4 : 0.26411741972}
2019-04-14 16:32:43.81: SIM {TimeUS : 58035110, Roll : 2.47, Pitch : -15.65, Yaw : 31.0, Alt : 49.2799987793, Lat : 49.2836142, Lng : -123.1149751, Q1 : 0.953628718853, Q2 : 0.056975286454, Q3 : -0.125478595495, Q4 : 0.267584174871}
2019-04-14 16:32:43.91: SIM {TimeUS : 58135070, Roll : 1.84, Pitch : -15.77, Yaw : 31.86, Alt : 49.2799987793, Lat : 49.2836165, Lng : -123.1149725, Q1 : 0.951745092869, Q2 : 0.05304421857, Q3 : -0.127563253045, Q4 : 0.274035036564}
2019-04-14 16:32:44.01: SIM {TimeUS : 58235030, Roll : 1.11, Pitch : -15.9, Yaw : 32.96, Alt : 49.2799987793, Lat : 49.2836189, Lng : -123.11497, Q1 : 0.949268400669, Q2 : 0.0484700463712, Q3 : -0.129918649793, Q4 : 0.28224337101}
2019-04-14 16:32:44.11: SIM {TimeUS : 58334990, Roll : 0.38, Pitch : -16.01, Yaw : 34.12, Alt : 49.2799987793, Lat : 49.2836214, Lng : -123.1149673, Q1 : 0.946514606476, Q2 : 0.0440894365311, Q3 : -0.132191479206, Q4 : 0.291018456221}
2019-04-14 16:32:44.21: SIM {TimeUS : 58434950, Roll : -0.27, Pitch : -16.1, Yaw : 35.22, Alt : 49.2799987793, Lat : 49.2836238, Lng : -123.1149646, Q1 : 0.943824350834, Q2 : 0.0401667542756, Q3 : -0.134254291654, Q4 : 0.299262404442}
2019-04-14 16:32:44.31: SIM {TimeUS : 58534910, Roll : -0.78, Pitch : -16.18, Yaw : 36.14, Alt : 49.2799987793, Lat : 49.2836264, Lng : -123.1149618, Q1 : 0.941481292248, Q2 : 0.0372535400093, Q3 : -0.135903254151, Q4 : 0.306195229292}
2019-04-14 16:32:44.41: SIM {TimeUS : 58634870, Roll : -1.09, Pitch : -16.22, Yaw : 36.81, Alt : 49.2799987793, Lat : 49.283629, Lng : -123.114959, Q1 : 0.939727663994, Q2 : 0.0355806462467, Q3 : -0.136845752597, Q4 : 0.311318486929}
2019-04-14 16:32:44.51: SIM {TimeUS : 58734830, Roll : -1.22, Pitch : -16.23, Yaw : 37.2, Alt : 49.2799987793, Lat : 49.2836317, Lng : -123.1149562, Q1 : 0.938680946827, Q2 : 0.0350031852722, Q3 : -0.137197554111, Q4 : 0.314371824265}
2019-04-14 16:32:44.61: SIM {TimeUS : 58834790, Roll : -1.22, Pitch : -16.26, Yaw : 37.32, Alt : 49.2799987793, Lat : 49.2836342, Lng : -123.1149533, Q1 : 0.938315808773, Q2 : 0.035238429904, Q3 : -0.137410908937, Q4 : 0.315341055393}
2019-04-14 16:32:44.71: SIM {TimeUS : 58934750, Roll : -1.1, Pitch : -16.32, Yaw : 37.2, Alt : 49.2799987793, Lat : 49.283637, Lng : -123.1149504, Q1 : 0.938538610935, Q2 : 0.0362526923418, Q3 : -0.137575373054, Q4 : 0.314490139484}
2019-04-14 16:32:44.81: SIM {TimeUS : 59034710, Roll : -0.88, Pitch : -16.4, Yaw : 36.9, Alt : 49.2799987793, Lat : 49.2836397, Lng : -123.1149475, Q1 : 0.93920814991, Q2 : 0.0378680564463, Q3 : -0.137749135494, Q4 : 0.312216728926}
2019-04-14 16:32:44.91: SIM {TimeUS : 59134670, Roll : -0.61, Pitch : -16.47, Yaw : 36.47, Alt : 49.2799987793, Lat : 49.2836425, Lng : -123.1149446, Q1 : 0.940183997154, Q2 : 0.0397802628577, Q3 : -0.13776858151, Q4 : 0.309016793966}
2019-04-14 16:32:45.01: SIM {TimeUS : 59234630, Roll : -0.31, Pitch : -16.54, Yaw : 35.99, Alt : 49.2799987793, Lat : 49.2836452, Lng : -123.1149416, Q1 : 0.941294491291, Q2 : 0.0418190769851, Q3 : -0.137651994824, Q4 : 0.305397868156}
2019-04-14 16:32:45.11: SIM {TimeUS : 59334590, Roll : -0.02, Pitch : -16.59, Yaw : 35.52, Alt : 49.2900009155, Lat : 49.2836481, Lng : -123.1149385, Q1 : 0.942383885384, Q2 : 0.0437872074544, Q3 : -0.137483745813, Q4 : 0.301817119122}
2019-04-14 16:32:45.21: SIM {TimeUS : 59434550, Roll : 0.22, Pitch : -16.62, Yaw : 35.1, Alt : 49.2900009155, Lat : 49.2836511, Lng : -123.1149356, Q1 : 0.943337917328, Q2 : 0.0454792194068, Q3 : -0.137290298939, Q4 : 0.298658072948}
2019-04-14 16:32:45.31: SIM {TimeUS : 59534510, Roll : 0.42, Pitch : -16.65, Yaw : 34.77, Alt : 49.2900009155, Lat : 49.2836539, Lng : -123.1149325, Q1 : 0.944078862667, Q2 : 0.0467757061124, Q3 : -0.137132555246, Q4 : 0.29617869854}
2019-04-14 16:32:45.41: SIM {TimeUS : 59635303, Roll : 0.54, Pitch : -16.68, Yaw : 34.55, Alt : 49.2900009155, Lat : 49.2836568, Lng : -123.1149293, Q1 : 0.944565296173, Q2 : 0.0476115494967, Q3 : -0.13710001111, Q4 : 0.29450494051}
2019-04-14 16:32:45.51: SIM {TimeUS : 59735263, Roll : 0.59, Pitch : -16.7, Yaw : 34.44, Alt : 49.2900009155, Lat : 49.2836597, Lng : -123.1149262, Q1 : 0.944792211056, Q2 : 0.0478922910988, Q3 : -0.137221127748, Q4 : 0.293674021959}
2019-04-14 16:32:45.61: SIM {TimeUS : 59835223, Roll : 0.55, Pitch : -16.73, Yaw : 34.44, Alt : 49.2900009155, Lat : 49.2836627, Lng : -123.114923, Q1 : 0.944771409035, Q2 : 0.0476707741618, Q3 : -0.137591451406, Q4 : 0.293603599072}
2019-04-14 16:32:45.71: SIM {TimeUS : 59935183, Roll : 0.47, Pitch : -16.78, Yaw : 34.52, Alt : 49.2900009155, Lat : 49.2836657, Lng : -123.1149198, Q1 : 0.944540977478, Q2 : 0.0471987649798, Q3 : -0.138139680028, Q4 : 0.294163256884}
2019-04-14 16:32:45.81: SIM {TimeUS : 60035143, Roll : 0.34, Pitch : -16.83, Yaw : 34.66, Alt : 49.2900009155, Lat : 49.2836688, Lng : -123.1149165, Q1 : 0.944172561169, Q2 : 0.0464621707797, Q3 : -0.138808757067, Q4 : 0.295146852732}
2019-04-14 16:32:45.91: SIM {TimeUS : 60135103, Roll : 0.18, Pitch : -16.87, Yaw : 34.83, Alt : 49.2900009155, Lat : 49.2836718, Lng : -123.1149133, Q1 : 0.943742096424, Q2 : 0.0454480424523, Q3 : -0.139492735267, Q4 : 0.296356260777}
2019-04-14 16:32:46.01: SIM {TimeUS : 60235063, Roll : 0.02, Pitch : -16.89, Yaw : 35.01, Alt : 49.2900009155, Lat : 49.2836748, Lng : -123.1149099, Q1 : 0.943311333656, Q2 : 0.0444108061492, Q3 : -0.140043616295, Q4 : 0.29762250185}
2019-04-14 16:32:46.11: SIM {TimeUS : 60335023, Roll : -0.11, Pitch : -16.92, Yaw : 35.17, Alt : 49.2900009155, Lat : 49.2836779, Lng : -123.1149066, Q1 : 0.942913293839, Q2 : 0.0434993766248, Q3 : -0.140581995249, Q4 : 0.298762500286}
2019-04-14 16:32:46.21: SIM {TimeUS : 60434983, Roll : -0.2, Pitch : -16.96, Yaw : 35.3, Alt : 49.2900009155, Lat : 49.2836809, Lng : -123.1149033, Q1 : 0.942561089993, Q2 : 0.0430237166584, Q3 : -0.141119062901, Q4 : 0.299688160419}
2019-04-14 16:32:46.31: SIM {TimeUS : 60534943, Roll : -0.24, Pitch : -17.01, Yaw : 35.39, Alt : 49.2999992371, Lat : 49.283684, Lng : -123.1148999, Q1 : 0.942301154137, Q2 : 0.0429609939456, Q3 : -0.141551584005, Q4 : 0.300309896469}
2019-04-14 16:32:46.41: SIM {TimeUS : 60634903, Roll : -0.22, Pitch : -17.06, Yaw : 35.42, Alt : 49.2999992371, Lat : 49.283687, Lng : -123.1148966, Q1 : 0.942141890526, Q2 : 0.0432755090296, Q3 : -0.141915619373, Q4 : 0.300592601299}
2019-04-14 16:32:46.51: SIM {TimeUS : 60734863, Roll : -0.16, Pitch : -17.11, Yaw : 35.41, Alt : 49.2999992371, Lat : 49.2836902, Lng : -123.1148932, Q1 : 0.942083001137, Q2 : 0.0438792072237, Q3 : -0.142219290137, Q4 : 0.300546079874}
2019-04-14 16:32:46.61: SIM {TimeUS : 60834823, Roll : -0.11, Pitch : -17.15, Yaw : 35.36, Alt : 49.2999992371, Lat : 49.2836934, Lng : -123.1148898, Q1 : 0.942143559456, Q2 : 0.0443825386465, Q3 : -0.142414107919, Q4 : 0.30018979311}
2019-04-14 16:32:46.71: SIM {TimeUS : 60934783, Roll : -0.07, Pitch : -17.17, Yaw : 35.28, Alt : 49.2999992371, Lat : 49.2836966, Lng : -123.1148864, Q1 : 0.942302882671, Q2 : 0.0446746572852, Q3 : -0.142493352294, Q4 : 0.2996083498}
2019-04-14 16:32:46.81: SIM {TimeUS : 61034743, Roll : -0.03, Pitch : -17.18, Yaw : 35.19, Alt : 49.2999992371, Lat : 49.2836997, Lng : -123.1148829, Q1 : 0.942522823811, Q2 : 0.0448425151408, Q3 : -0.142481222749, Q4 : 0.298896223307}
2019-04-14 16:32:46.91: SIM {TimeUS : 61134703, Roll : 0.01, Pitch : -17.18, Yaw : 35.09, Alt : 49.2999992371, Lat : 49.2837028, Lng : -123.1148795, Q1 : 0.942752957344, Q2 : 0.0451546944678, Q3 : -0.142392531037, Q4 : 0.298164963722}
2019-04-14 16:32:47.01: SIM {TimeUS : 61234663, Roll : 0.06, Pitch : -17.19, Yaw : 35.0, Alt : 49.2999992371, Lat : 49.2837062, Lng : -123.114876, Q1 : 0.94296503067, Q2 : 0.0454946830869, Q3 : -0.142361849546, Q4 : 0.297456353903}
2019-04-14 16:32:47.11: SIM {TimeUS : 61334623, Roll : 0.13, Pitch : -17.22, Yaw : 34.92, Alt : 49.2999992371, Lat : 49.2837094, Lng : -123.1148725, Q1 : 0.943112373352, Q2 : 0.046001214534, Q3 : -0.142496705055, Q4 : 0.296846270561}
2019-04-14 16:32:47.21: SIM {TimeUS : 61434583, Roll : 0.18, Pitch : -17.28, Yaw : 34.85, Alt : 49.3100013733, Lat : 49.2837126, Lng : -123.114869, Q1 : 0.943183124065, Q2 : 0.0465382039547, Q3 : -0.142862856388, Q4 : 0.296361297369}
2019-04-14 16:32:47.31: SIM {TimeUS : 61534543, Roll : 0.21, Pitch : -17.31, Yaw : 34.81, Alt : 49.3100013733, Lat : 49.2837157, Lng : -123.1148655, Q1 : 0.943240582943, Q2 : 0.0468276292086, Q3 : -0.143103957176, Q4 : 0.29601636529}
2019-04-14 16:32:47.41: SIM {TimeUS : 61634503, Roll : 0.22, Pitch : -17.31, Yaw : 34.78, Alt : 49.3100013733, Lat : 49.2837191, Lng : -123.1148619, Q1 : 0.943300485611, Q2 : 0.046887345612, Q3 : -0.143090650439, Q4 : 0.295822322369}
2019-04-14 16:32:47.51: SIM {TimeUS : 61735296, Roll : 0.22, Pitch : -17.32, Yaw : 34.78, Alt : 49.3100013733, Lat : 49.2837223, Lng : -123.1148585, Q1 : 0.943311750889, Q2 : 0.0468630343676, Q3 : -0.143180415034, Q4 : 0.295746862888}
2019-04-14 16:32:47.61: SIM {TimeUS : 61835256, Roll : 0.19, Pitch : -17.34, Yaw : 34.78, Alt : 49.3100013733, Lat : 49.2837257, Lng : -123.1148549, Q1 : 0.943287193775, Q2 : 0.0466564632952, Q3 : -0.143411427736, Q4 : 0.295745849609}
2019-04-14 16:32:47.71: SIM {TimeUS : 61935216, Roll : 0.15, Pitch : -17.36, Yaw : 34.8, Alt : 49.3100013733, Lat : 49.283729, Lng : -123.1148514, Q1 : 0.943236589432, Q2 : 0.0464595742524, Q3 : -0.143659204245, Q4 : 0.29581797123}
2019-04-14 16:32:47.81: SIM {TimeUS : 62035176, Roll : 0.12, Pitch : -17.39, Yaw : 34.81, Alt : 49.3100013733, Lat : 49.2837322, Lng : -123.1148478, Q1 : 0.943166613579, Q2 : 0.0462934300303, Q3 : -0.143948420882, Q4 : 0.29592654109}
2019-04-14 16:32:47.91: SIM {TimeUS : 62135136, Roll : 0.1, Pitch : -17.41, Yaw : 34.83, Alt : 49.3100013733, Lat : 49.2837356, Lng : -123.1148442, Q1 : 0.9430975914, Q2 : 0.0461841784418, Q3 : -0.144201740623, Q4 : 0.296040356159}
2019-04-14 16:32:48.01: SIM {TimeUS : 62235096, Roll : 0.09, Pitch : -17.44, Yaw : 34.85, Alt : 49.3100013733, Lat : 49.2837388, Lng : -123.1148406, Q1 : 0.94302046299, Q2 : 0.0462408550084, Q3 : -0.144456684589, Q4 : 0.296152800322}
2019-04-14 16:32:48.11: SIM {TimeUS : 62335056, Roll : 0.1, Pitch : -17.47, Yaw : 34.86, Alt : 49.3100013733, Lat : 49.2837422, Lng : -123.114837, Q1 : 0.942964673042, Q2 : 0.0463358685374, Q3 : -0.144630804658, Q4 : 0.296230643988}
2019-04-14 16:32:48.21: SIM {TimeUS : 62435016, Roll : 0.11, Pitch : -17.49, Yaw : 34.86, Alt : 49.3100013733, Lat : 49.2837454, Lng : -123.1148334, Q1 : 0.942928314209, Q2 : 0.0465022064745, Q3 : -0.144781142473, Q4 : 0.296246916056}
2019-04-14 16:32:48.31: SIM {TimeUS : 62534976, Roll : 0.13, Pitch : -17.52, Yaw : 34.85, Alt : 49.3100013733, Lat : 49.2837489, Lng : -123.1148298, Q1 : 0.94290715456, Q2 : 0.0467156618834, Q3 : -0.144962653518, Q4 : 0.296191751957}
2019-04-14 16:32:48.41: SIM {TimeUS : 62634936, Roll : 0.13, Pitch : -17.56, Yaw : 34.84, Alt : 49.3199996948, Lat : 49.2837521, Lng : -123.1148262, Q1 : 0.942898452282, Q2 : 0.046814776957, Q3 : -0.145297110081, Q4 : 0.296039998531}
2019-04-14 16:32:48.51: SIM {TimeUS : 62734896, Roll : 0.11, Pitch : -17.6, Yaw : 34.81, Alt : 49.3199996948, Lat : 49.2837556, Lng : -123.1148225, Q1 : 0.942908585072, Q2 : 0.0467148423195, Q3 : -0.145725205541, Q4 : 0.295812964439}
2019-04-14 16:32:48.61: SIM {TimeUS : 62834856, Roll : 0.1, Pitch : -17.64, Yaw : 34.79, Alt : 49.3199996948, Lat : 49.2837589, Lng : -123.1148189, Q1 : 0.942928433418, Q2 : 0.0467183589935, Q3 : -0.146103560925, Q4 : 0.295562416315}
2019-04-14 16:32:48.71: SIM {TimeUS : 62934816, Roll : 0.12, Pitch : -17.67, Yaw : 34.76, Alt : 49.3199996948, Lat : 49.2837623, Lng : -123.1148152, Q1 : 0.942959547043, Q2 : 0.0469435304403, Q3 : -0.146294519305, Q4 : 0.295332878828}
2019-04-14 16:32:48.81: SIM {TimeUS : 63034776, Roll : 0.15, Pitch : -17.67, Yaw : 34.73, Alt : 49.3199996948, Lat : 49.2837656, Lng : -123.1148116, Q1 : 0.943019151688, Q2 : 0.0471743009984, Q3 : -0.146237790585, Q4 : 0.295133918524}
2019-04-14 16:32:48.91: SIM {TimeUS : 63134736, Roll : 0.18, Pitch : -17.65, Yaw : 34.7, Alt : 49.3199996948, Lat : 49.2837691, Lng : -123.1148079, Q1 : 0.943102538586, Q2 : 0.0473315007985, Q3 : -0.145996361971, Q4 : 0.294961810112}
2019-04-14 16:32:49.01: SIM {TimeUS : 63234696, Roll : 0.18, Pitch : -17.63, Yaw : 34.68, Alt : 49.3199996948, Lat : 49.2837725, Lng : -123.1148042, Q1 : 0.943186700344, Q2 : 0.0472474172711, Q3 : -0.145856052637, Q4 : 0.294775396585}
2019-04-14 16:32:49.11: SIM {TimeUS : 63334656, Roll : 0.18, Pitch : -17.62, Yaw : 34.66, Alt : 49.3199996948, Lat : 49.2837758, Lng : -123.1148005, Q1 : 0.943260073662, Q2 : 0.0471223667264, Q3 : -0.1457939744, Q4 : 0.294591456652}
2019-04-14 16:32:49.21: SIM {TimeUS : 63434616, Roll : 0.17, Pitch : -17.61, Yaw : 34.64, Alt : 49.3199996948, Lat : 49.2837793, Lng : -123.1147968, Q1 : 0.943323433399, Q2 : 0.0470330789685, Q3 : -0.145754367113, Q4 : 0.294422149658}
2019-04-14 16:32:49.31: SIM {TimeUS : 63534576, Roll : 0.16, Pitch : -17.63, Yaw : 34.62, Alt : 49.3199996948, Lat : 49.2837828, Lng : -123.1147931, Q1 : 0.943347275257, Q2 : 0.0470168031752, Q3 : -0.145922139287, Q4 : 0.294265329838}
2019-04-14 16:32:49.41: SIM {TimeUS : 63634536, Roll : 0.16, Pitch : -17.66, Yaw : 34.6, Alt : 49.3199996948, Lat : 49.2837861, Lng : -123.1147894, Q1 : 0.943346142769, Q2 : 0.0470376759768, Q3 : -0.14618229866, Q4 : 0.2941365242}
2019-04-14 16:32:49.51: SIM {TimeUS : 63734496, Roll : 0.15, Pitch : -17.7, Yaw : 34.6, Alt : 49.3199996948, Lat : 49.2837896, Lng : -123.1147857, Q1 : 0.943320214748, Q2 : 0.0470195710659, Q3 : -0.146576806903, Q4 : 0.294026136398}
2019-04-14 16:32:49.61: SIM {TimeUS : 63835289, Roll : 0.14, Pitch : -17.76, Yaw : 34.59, Alt : 49.3199996948, Lat : 49.283793, Lng : -123.114782, Q1 : 0.943270802498, Q2 : 0.0471153259277, Q3 : -0.147037819028, Q4 : 0.293939232826}
2019-04-14 16:32:49.71: SIM {TimeUS : 63935249, Roll : 0.15, Pitch : -17.78, Yaw : 34.58, Alt : 49.3199996948, Lat : 49.2837965, Lng : -123.1147782, Q1 : 0.943254113197, Q2 : 0.0472487770021, Q3 : -0.147202938795, Q4 : 0.293888568878}
2019-04-14 16:32:49.81: SIM {TimeUS : 64035209, Roll : 0.16, Pitch : -17.8, Yaw : 34.57, Alt : 49.3300018311, Lat : 49.2838, Lng : -123.1147745, Q1 : 0.943243026733, Q2 : 0.0473300144076, Q3 : -0.14736430347, Q4 : 0.293830305338}
2019-04-14 16:32:49.91: SIM {TimeUS : 64135169, Roll : 0.15, Pitch : -17.82, Yaw : 34.57, Alt : 49.3300018311, Lat : 49.2838033, Lng : -123.1147707, Q1 : 0.943244576454, Q2 : 0.0473359785974, Q3 : -0.147493049502, Q4 : 0.293759793043}
2019-04-14 16:32:50.01: SIM {TimeUS : 64235129, Roll : 0.16, Pitch : -17.81, Yaw : 34.56, Alt : 49.3300018311, Lat : 49.2838068, Lng : -123.114767, Q1 : 0.943268656731, Q2 : 0.0473606288433, Q3 : -0.147468671203, Q4 : 0.293690741062}
2019-04-14 16:32:50.11: SIM {TimeUS : 64335089, Roll : 0.17, Pitch : -17.83, Yaw : 34.55, Alt : 49.3300018311, Lat : 49.2838104, Lng : -123.1147633, Q1 : 0.943276524544, Q2 : 0.0474735200405, Q3 : -0.147528678179, Q4 : 0.293617010117}
2019-04-14 16:32:50.21: SIM {TimeUS : 64435049, Roll : 0.18, Pitch : -17.85, Yaw : 34.54, Alt : 49.3300018311, Lat : 49.2838138, Lng : -123.1147595, Q1 : 0.943266928196, Q2 : 0.0476159714162, Q3 : -0.147723123431, Q4 : 0.293526977301}
2019-04-14 16:32:50.31: SIM {TimeUS : 64535009, Roll : 0.19, Pitch : -17.87, Yaw : 34.52, Alt : 49.3300018311, Lat : 49.2838172, Lng : -123.1147558, Q1 : 0.943267941475, Q2 : 0.0477155782282, Q3 : -0.147871896625, Q4 : 0.29343265295}
2019-04-14 16:32:50.41: SIM {TimeUS : 64634969, Roll : 0.2, Pitch : -17.87, Yaw : 34.51, Alt : 49.3300018311, Lat : 49.2838208, Lng : -123.114752, Q1 : 0.943297088146, Q2 : 0.047788772732, Q3 : -0.147845923901, Q4 : 0.293340176344}
2019-04-14 16:32:50.51: SIM {TimeUS : 64734929, Roll : 0.2, Pitch : -17.88, Yaw : 34.5, Alt : 49.3300018311, Lat : 49.2838243, Lng : -123.1147482, Q1 : 0.943324029446, Q2 : 0.0477876216173, Q3 : -0.147890925407, Q4 : 0.293231010437}
2019-04-14 16:32:50.61: SIM {TimeUS : 64834889, Roll : 0.19, Pitch : -17.89, Yaw : 34.48, Alt : 49.3300018311, Lat : 49.2838278, Lng : -123.1147445, Q1 : 0.943343639374, Q2 : 0.047681119293, Q3 : -0.148072212934, Q4 : 0.293093800545}
2019-04-14 16:32:50.71: SIM {TimeUS : 64934849, Roll : 0.15, Pitch : -17.93, Yaw : 34.47, Alt : 49.3300018311, Lat : 49.2838312, Lng : -123.1147407, Q1 : 0.943346619606, Q2 : 0.0474997200072, Q3 : -0.148447468877, Q4 : 0.292923688889}
2019-04-14 16:32:50.81: SIM {TimeUS : 65034809, Roll : 0.14, Pitch : -17.93, Yaw : 34.46, Alt : 49.3300018311, Lat : 49.2838348, Lng : -123.1147369, Q1 : 0.943382561207, Q2 : 0.0473787486553, Q3 : -0.148541614413, Q4 : 0.292779862881}
2019-04-14 16:32:50.91: SIM {TimeUS : 65134769, Roll : 0.15, Pitch : -17.92, Yaw : 34.44, Alt : 49.3300018311, Lat : 49.2838383, Lng : -123.1147331, Q1 : 0.943429946899, Q2 : 0.0473874211311, Q3 : -0.148444086313, Q4 : 0.292675107718}
2019-04-14 16:32:51.01: SIM {TimeUS : 65234729, Roll : 0.17, Pitch : -17.91, Yaw : 34.43, Alt : 49.3300018311, Lat : 49.2838418, Lng : -123.1147293, Q1 : 0.943468570709, Q2 : 0.0475309640169, Q3 : -0.148318856955, Q4 : 0.292590796947}
2019-04-14 16:32:51.11: SIM {TimeUS : 65334689, Roll : 0.19, Pitch : -17.92, Yaw : 34.41, Alt : 49.3300018311, Lat : 49.2838452, Lng : -123.1147256, Q1 : 0.943487644196, Q2 : 0.0476718693972, Q3 : -0.148338794708, Q4 : 0.292496234179}
2019-04-14 16:32:51.21: SIM {TimeUS : 65434649, Roll : 0.18, Pitch : -17.94, Yaw : 34.4, Alt : 49.3300018311, Lat : 49.2838488, Lng : -123.1147218, Q1 : 0.943491697311, Q2 : 0.0476728342474, Q3 : -0.148522406816, Q4 : 0.292390018702}
2019-04-14 16:32:51.31: SIM {TimeUS : 65534609, Roll : 0.16, Pitch : -17.97, Yaw : 34.39, Alt : 49.3400001526, Lat : 49.2838524, Lng : -123.114718, Q1 : 0.943495690823, Q2 : 0.0475591644645, Q3 : -0.148769691586, Q4 : 0.292269706726}
2019-04-14 16:32:51.41: SIM {TimeUS : 65634569, Roll : 0.15, Pitch : -17.99, Yaw : 34.38, Alt : 49.3400001526, Lat : 49.2838559, Lng : -123.1147141, Q1 : 0.943498075008, Q2 : 0.0475119017065, Q3 : -0.148975774646, Q4 : 0.292164802551}
2019-04-14 16:32:51.51: SIM {TimeUS : 65734529, Roll : 0.16, Pitch : -18.0, Yaw : 34.37, Alt : 49.3400001526, Lat : 49.2838594, Lng : -123.1147103, Q1 : 0.943498909473, Q2 : 0.0475799180567, Q3 : -0.149104937911, Q4 : 0.292085081339}
2019-04-14 16:32:51.61: SIM {TimeUS : 65835322, Roll : 0.17, Pitch : -18.02, Yaw : 34.36, Alt : 49.3400001526, Lat : 49.2838629, Lng : -123.1147065, Q1 : 0.943501472473, Q2 : 0.0476745143533, Q3 : -0.149197369814, Q4 : 0.292014151812}
2019-04-14 16:32:51.71: SIM {TimeUS : 65935282, Roll : 0.18, Pitch : -18.03, Yaw : 34.35, Alt : 49.3400001526, Lat : 49.2838664, Lng : -123.1147027, Q1 : 0.94349616766, Q2 : 0.0478255823255, Q3 : -0.149290323257, Q4 : 0.291959017515}
2019-04-14 16:32:51.81: SIM {TimeUS : 66035242, Roll : 0.19, Pitch : -18.05, Yaw : 34.35, Alt : 49.3400001526, Lat : 49.28387, Lng : -123.1146989, Q1 : 0.943491220474, Q2 : 0.0479091405869, Q3 : -0.149398744106, Q4 : 0.291906028986}
2019-04-14 16:32:51.91: SIM {TimeUS : 66135202, Roll : 0.19, Pitch : -18.06, Yaw : 34.34, Alt : 49.3400001526, Lat : 49.2838736, Lng : -123.1146951, Q1 : 0.943484663963, Q2 : 0.0479934290051, Q3 : -0.149513393641, Q4 : 0.29185461998}
2019-04-14 16:32:52.01: SIM {TimeUS : 66235162, Roll : 0.2, Pitch : -18.08, Yaw : 34.33, Alt : 49.3400001526, Lat : 49.2838772, Lng : -123.1146912, Q1 : 0.943475365639, Q2 : 0.0481104366481, Q3 : -0.149617224932, Q4 : 0.29181215167}
2019-04-14 16:32:52.11: SIM {TimeUS : 66335122, Roll : 0.23, Pitch : -18.09, Yaw : 34.33, Alt : 49.3400001526, Lat : 49.2838807, Lng : -123.1146874, Q1 : 0.943462491035, Q2 : 0.0483279190958, Q3 : -0.149653539062, Q4 : 0.291799277067}
2019-04-14 16:32:52.21: SIM {TimeUS : 66435082, Roll : 0.26, Pitch : -18.1, Yaw : 34.33, Alt : 49.3400001526, Lat : 49.2838842, Lng : -123.1146836, Q1 : 0.943441927433, Q2 : 0.0486535802484, Q3 : -0.149670153856, Q4 : 0.291802942753}
2019-04-14 16:32:52.31: SIM {TimeUS : 66535042, Roll : 0.26, Pitch : -18.1, Yaw : 34.32, Alt : 49.3400001526, Lat : 49.2838877, Lng : -123.1146798, Q1 : 0.943452894688, Q2 : 0.0486583039165, Q3 : -0.149667963386, Q4 : 0.291768014431}
2019-04-14 16:32:52.41: SIM {TimeUS : 66635002, Roll : 0.24, Pitch : -18.11, Yaw : 34.32, Alt : 49.3400001526, Lat : 49.2838913, Lng : -123.114676, Q1 : 0.943467974663, Q2 : 0.0484624393284, Q3 : -0.149800017476, Q4 : 0.291684001684}
2019-04-14 16:32:52.51: SIM {TimeUS : 66734962, Roll : 0.21, Pitch : -18.13, Yaw : 34.31, Alt : 49.3400001526, Lat : 49.283895, Lng : -123.1146721, Q1 : 0.94346421957, Q2 : 0.0482962243259, Q3 : -0.150058791041, Q4 : 0.291590809822}
