2019-04-14 17:15:16.10: SIM {TimeUS : 40516287, Roll : 0.0, Pitch : 0.0, Yaw : 0.0, Alt : 30.1000003815, Lat : 49.28357, Lng : -123.11502, Q1 : 1.0, Q2 : 0.0, Q3 : 0.0, Q4 : 0.0}
2019-04-14 17:15:16.21: SIM {TimeUS : 40635406, Roll : 0.0, Pitch : 0.0, Yaw : 0.0, Alt : 30.1000003815, Lat : 49.28357, Lng : -123.11502, Q1 : 1.0, Q2 : 0.0, Q3 : 0.0, Q4 : 0.0}
2019-04-14 17:15:16.31: SIM {TimeUS : 40735366, Roll : 0.0, Pitch : 0.0, Yaw : 0.0, Alt : 30.1000003815, Lat : 49.28357, Lng : -123.11502, Q1 : 1.0, Q2 : 0.0, Q3 : 0.0, Q4 : 0.0}
2019-04-14 17:15:16.41: SIM {TimeUS : 40835326, Roll : 0.0, Pitch : 0.0, Yaw : 0.0, Alt : 30.1000003815, Lat : 49.28357, Lng : -123.11502, Q1 : 1.0, Q2 : 0.0, Q3 : 0.0, Q4 : 0.0}
2019-04-14 17:15:16.51: SIM {TimeUS : 40935286, Roll : 0.0, Pitch : 0.0, Yaw : 0.0, Alt : 30.1000003815, Lat : 49.28357, Lng : -123.11502, Q1 : 1.0, Q2 : 0.0, Q3 : 0.0, Q4 : 0.0}
2019-04-14 17:15:16.61: SIM {TimeUS : 41035246, Roll : 0.0, Pitch : 0.0, Yaw : 0.0, Alt : 30.1000003815, Lat : 49.28357, Lng : -123.11502, Q1 : 1.0, Q2 : 0.0, Q3 : 0.0, Q4 : 0.0}
2019-04-14 17:15:16.71: SIM {TimeUS : 41135206, Roll : 0.0, Pitch : 0.0, Yaw : 0.0, Alt : 30.1000003815, Lat : 49.28357, Lng : -123.11502, Q1 : 1.0, Q2 : 0.0, Q3 : 0.0, Q4 : 0.0}
2019-04-14 17:15:16.81: SIM {TimeUS : 41235166, Roll : 0.0, Pitch : 0.0, Yaw : 0.0, Alt : 30.1000003815, Lat : 49.28357, Lng : -123.11502, Q1 : 1.0, Q2 : 0.0, Q3 : 0.0, Q4 : 0.0}
2019-04-14 17:15:16.91: SIM {TimeUS : 41335126, Roll : 0.0, Pitch : 0.0, Yaw : 0.0, Alt : 30.1000003815, Lat : 49.28357, Lng : -123.11502, Q1 : 1.0, Q2 : 0.0, Q3 : 0.0, Q4 : 0.0}
2019-04-14 17:15:17.01: SIM {TimeUS : 41435086, Roll : 0.0, Pitch : 0.0, Yaw : 0.0, Alt : 30.1000003815, Lat : 49.28357, Lng : -123.11502, Q1 : 1.0, Q2 : 0.0, Q3 : 0.0, Q4 : 0.0}
2019-04-14 17:15:17.11: SIM {TimeUS : 41535046, Roll : 0.0, Pitch : 0.0, Yaw : 0.0, Alt : 30.1000003815, Lat : 49.28357, Lng : -123.11502, Q1 : 1.0, Q2 : 0.0, Q3 : 0.0, Q4 : 0.0}
2019-04-14 17:15:17.21: SIM {TimeUS : 41635006, Roll : 0.0, Pitch : 0.0, Yaw : 0.0, Alt : 30.1000003815, Lat : 49.28357, Lng : -123.11502, Q1 : 1.0, Q2 : 0.0, Q3 : 0.0, Q4 : 0.0}
2019-04-14 17:15:17.31: SIM {TimeUS : 41734966, Roll : 0.0, Pitch : 0.0, Yaw : 0.0, Alt : 30.1000003815, Lat : 49.28357, Lng : -123.11502, Q1 : 1.0, Q2 : 0.0, Q3 : 0.0, Q4 : 0.0}
2019-04-14 17:15:17.41: SIM {TimeUS : 41834926, Roll : 0.0, Pitch : 0.0, Yaw : 0.0, Alt : 30.1000003815, Lat : 49.28357, Lng : -123.11502, Q1 : 1.0, Q2 : 0.0, Q3 : 0.0, Q4 : 0.0}
2019-04-14 17:15:17.51: SIM {TimeUS : 41934886, Roll : 0.0, Pitch : 0.0, Yaw : 0.0, Alt : 30.1000003815, Lat : 49.28357, Lng : -123.11502, Q1 : 1.0, Q2 : 0.0, Q3 : 0.0, Q4 : 0.0}
2019-04-14 17:15:17.61: SIM {TimeUS : 42034846, Roll : 0.0, Pitch : 0.0, Yaw : 0.0, Alt : 30.1000003815, Lat : 49.28357, Lng : -123.11502, Q1 : 1.0, Q2 : 0.0, Q3 : 0.0, Q4 : 0.0}
2019-04-14 17:15:17.71: SIM {TimeUS : 42134806, Roll : 0.0, Pitch : 0.0, Yaw : 0.0, Alt : 30.1000003815, Lat : 49.28357, Lng : -123.11502, Q1 : 1.0, Q2 : 0.0, Q3 : 0.0, Q4 : 0.0}
2019-04-14 17:15:17.81: SIM {TimeUS : 42234766, Roll : 0.0, Pitch : 0.0, Yaw : 0.0, Alt : 30.1000003815, Lat : 49.28357, Lng : -123.11502, Q1 : 1.0, Q2 : 0.0, Q3 : 0.0, Q4 : 0.0}
2019-04-14 17:15:17.91: SIM {TimeUS : 42334726, Roll : 0.0, Pitch : 0.0, Yaw : 0.0, Alt : 30.1000003815, Lat : 49.28357, Lng : -123.11502, Q1 : 1.0, Q2 : 0.0, Q3 : 0.0, Q4 : 0.0}
2019-04-14 17:15:18.01: SIM {TimeUS : 42434686, Roll : 0.0, Pitch : 0.0, Yaw : 0.0, Alt : 30.1000003815, Lat : 49.28357, Lng : -123.11502, Q1 : 1.0, Q2 : 0.0, Q3 : 0.0, Q4 : 0.0}
2019-04-14 17:15:18.11: SIM {TimeUS : 42534646, Roll : 0.0, Pitch : 0.0, Yaw : 0.0, Alt : 30.1000003815, Lat : 49.28357, Lng : -123.11502, Q1 : 1.0, Q2 : 0.0, Q3 : 0.0, Q4 : 0.0}
2019-04-14 17:15:18.22: SIM {TimeUS : 42635439, Roll : 0.0, Pitch : 0.0, Yaw : 0.0, Alt : 30.1000003815, Lat : 49.28357, Lng : -123.11502, Q1 : 1.0, Q2 : 0.0, Q3 : 0.0, Q4 : 0.0}
2019-04-14 17:15:18.31: SIM {TimeUS : 42735399, Roll : 0.0, Pitch : 0.0, Yaw : 0.0, Alt : 30.1000003815, Lat : 49.28357, Lng : -123.11502, Q1 : 1.0, Q2 : 0.0, Q3 : 0.0, Q4 : 0.0}
2019-04-14 17:15:18.41: SIM {TimeUS : 42835359, Roll : 0.0, Pitch : 0.0, Yaw : 0.0, Alt : 30.1000003815, Lat : 49.28357, Lng : -123.11502, Q1 : 1.0, Q2 : 0.0, Q3 : 0.0, Q4 : 3.50114867653e-11}
2019-04-14 17:15:18.51: SIM {TimeUS : 42935319, Roll : 0.0, Pitch : 0.0, Yaw : 360.0, Alt : 30.1000003815, Lat : 49.28357, Lng : -123.11502, Q1 : 1.0, Q2 : 0.0, Q3 : 0.0, Q4 : -1.62090429967e-08}
2019-04-14 17:15:18.61: SIM {TimeUS : 43035279, Roll : 0.0, Pitch : 0.0, Yaw : 359.99, Alt : 30.1000003815, Lat : 49.28357, Lng : -123.11502, Q1 : 1.0, Q2 : 0.0, Q3 : 0.0, Q4 : -2.03575766022e-07}
2019-04-14 17:15:18.71: SIM {TimeUS : 43135239, Roll : 0.0, Pitch : 0.0, Yaw : 359.99, Alt : 30.1000003815, Lat : 49.28357, Lng : -123.11502, Q1 : 1.0, Q2 : 0.0, Q3 : 0.0, Q4 : -3.96903146793e-07}
2019-04-14 17:15:18.81: SIM {TimeUS : 43235199, Roll : 0.0, Pitch : 0.0, Yaw : 359.99, Alt : 30.1000003815, Lat : 49.28357, Lng : -123.11502, Q1 : 1.0, Q2 : 0.0, Q3 : 0.0, Q4 : -5.82007544381e-07}
2019-04-14 17:15:18.91: SIM {TimeUS : 43335159, Roll : 0.0, Pitch : 0.0, Yaw : 359.99, Alt : 30.1000003815, Lat : 49.28357, Lng : -123.11502, Q1 : 1.0, Q2 : 0.0, Q3 : 0.0, Q4 : -7.58412738833e-07}
2019-04-14 17:15:19.01: SIM {TimeUS : 43435119, Roll : 0.0, Pitch : 0.0, Yaw : 359.99, Alt : 30.1000003815, Lat : 49.28357, Lng : -123.11502, Q1 : 1.0, Q2 : 0.0, Q3 : 0.0, Q4 : -9.47400678797e-07}
2019-04-14 17:15:19.11: SIM {TimeUS : 43535079, Roll : 0.0, Pitch : 0.0, Yaw : 359.99, Alt : 30.1000003815, Lat : 49.28357, Lng : -123.11502, Q1 : 1.0, Q2 : 0.0, Q3 : 0.0, Q4 : -1.17745162242e-06}
2019-04-14 17:15:19.21: SIM {TimeUS : 43635039, Roll : 0.0, Pitch : 0.0, Yaw : 359.99, Alt : 30.1000003815, Lat : 49.28357, Lng : -123.11502, Q1 : 1.0, Q2 : 0.0, Q3 : 0.0, Q4 : -1.37155859647e-06}
2019-04-14 17:15:19.31: SIM {TimeUS : 43734999, Roll : 0.0, Pitch : 0.0, Yaw : 359.99, Alt : 30.1200008392, Lat : 49.28357, Lng : -123.11502, Q1 : 1.0, Q2 : 0.0, Q3 : 0.0, Q4 : -1.56710098054e-06}
2019-04-14 17:15:19.41: SIM {TimeUS : 43834959, Roll : 0.0, Pitch : 0.0, Yaw : 359.99, Alt : 30.1399993896, Lat : 49.28357, Lng : -123.11502, Q1 : 1.0, Q2 : 0.0, Q3 : 0.0, Q4 : -1.80756455848e-06}
2019-04-14 17:15:19.51: SIM {TimeUS : 43934919, Roll : 0.0, Pitch : 0.0, Yaw : 359.99, Alt : 30.1800003052, Lat : 49.28357, Lng : -123.11502, Q1 : 1.0, Q2 : 0.0, Q3 : 0.0, Q4 : -2.03074614546e-06}
2019-04-14 17:15:19.61: SIM {TimeUS : 44034879, Roll : 0.0, Pitch : 0.0, Yaw : 359.99, Alt : 30.2099990845, Lat : 49.28357, Lng : -123.11502, Q1 : 1.0, Q2 : -8.27413714433e-06, Q3 : -7.33499473426e-06, Q4 : -2.29431725529e-06}
2019-04-14 17:15:19.71: SIM {TimeUS : 44134839, Roll : -0.19, Pitch : -0.17, Yaw : 359.99, Alt : 30.2700004578, Lat : 49.28357, Lng : -123.11502, Q1 : 0.999997437, Q2 : -0.00169127096888, Q3 : -0.0015088923974, Q4 : -1.5286346752e-05}
2019-04-14 17:15:19.81: SIM {TimeUS : 44234799, Roll : -0.53, Pitch : -0.45, Yaw : 359.99, Alt : 30.3899993896, Lat : 49.28357, Lng : -123.11502, Q1 : 0.999981343746, Q2 : -0.00463476078585, Q3 : -0.00397511105984, Q4 : -5.67430070078e-05}
2019-04-14 17:15:19.91: SIM {TimeUS : 44334759, Roll : -0.8, Pitch : -0.67, Yaw : 359.99, Alt : 30.5400009155, Lat : 49.28357, Lng : -123.11502, Q1 : 0.99995803833, Q2 : -0.0069896900095, Q3 : -0.00591884413734, Q4 : -0.00012773819617}
2019-04-14 17:15:20.01: SIM {TimeUS : 44434719, Roll : -0.88, Pitch : -0.77, Yaw : 359.98, Alt : 30.7000007629, Lat : 49.28357, Lng : -123.11502, Q1 : 0.999947190285, Q2 : -0.00772608723491, Q3 : -0.00677114585415, Q4 : -0.000214407744352}
2019-04-14 17:15:20.11: SIM {TimeUS : 44534679, Roll : -0.8, Pitch : -0.72, Yaw : 359.96, Alt : 30.8500003815, Lat : 49.28357, Lng : -123.1150201, Q1 : 0.999955415726, Q2 : -0.0069986237213, Q3 : -0.00633108522743, Q4 : -0.000309982249746}
2019-04-14 17:15:20.21: SIM {TimeUS : 44634639, Roll : -0.62, Pitch : -0.56, Yaw : 359.95, Alt : 31.0100002289, Lat : 49.28357, Lng : -123.1150201, Q1 : 0.999972760677, Q2 : -0.00547514716163, Q3 : -0.0049336948432, Q4 : -0.000397547613829}
2019-04-14 17:15:20.32: SIM {TimeUS : 44735432, Roll : -0.4, Pitch : -0.35, Yaw : 359.94, Alt : 31.1599998474, Lat : 49.2835701, Lng : -123.1150202, Q1 : 0.999988853931, Q2 : -0.00351885519922, Q3 : -0.00312043330632, Q4 : -0.000465847027954}
2019-04-14 17:15:20.41: SIM {TimeUS : 44835392, Roll : -0.19, Pitch : -0.16, Yaw : 359.94, Alt : 31.3199996948, Lat : 49.2835701, Lng : -123.1150203, Q1 : 0.999997437, Q2 : -0.00166490871925, Q3 : -0.00146434642375, Q4 : -0.000512139580678}
2019-04-14 17:15:20.51: SIM {TimeUS : 44935352, Roll : -0.03, Pitch : -0.03, Yaw : 359.93, Alt : 31.4899997711, Lat : 49.2835702, Lng : -123.1150204, Q1 : 0.999999821186, Q2 : -0.00026620546123, Q3 : -0.000263184221694, Q4 : -0.000540001085028}
2019-04-14 17:15:20.61: SIM {TimeUS : 45035312, Roll : 0.06, Pitch : 0.03, Yaw : 359.93, Alt : 31.6700000763, Lat : 49.2835702, Lng : -123.1150204, Q1 : 0.999999642372, Q2 : 0.000554342695978, Q3 : 0.00031372520607, Q4 : -0.000546680588741}
2019-04-14 17:15:20.71: SIM {TimeUS : 45135272, Roll : 0.1, Pitch : 0.05, Yaw : 359.93, Alt : 31.8500003815, Lat : 49.2835703, Lng : -123.1150205, Q1 : 0.999999344349, Q2 : 0.000886154943146, Q3 : 0.000453258922789, Q4 : -0.000532571459189}
2019-04-14 17:15:20.81: SIM {TimeUS : 45235232, Roll : 0.09, Pitch : 0.05, Yaw : 359.94, Alt : 32.0299987793, Lat : 49.2835703, Lng : -123.1150206, Q1 : 0.999999463558, Q2 : 0.000821937108412, Q3 : 0.000445415906142, Q4 : -0.000517087231856}
2019-04-14 17:15:20.91: SIM {TimeUS : 45335192, Roll : 0.07, Pitch : 0.05, Yaw : 359.94, Alt : 32.2200012207, Lat : 49.2835703, Lng : -123.1150206, Q1 : 0.999999523163, Q2 : 0.000684651196934, Q3 : 0.000483032636112, Q4 : -0.00050069950521}
2019-04-14 17:15:21.01: SIM {TimeUS : 45435152, Roll : 0.05, Pitch : 0.07, Yaw : 359.94, Alt : 32.4099998474, Lat : 49.2835703, Lng : -123.1150207, Q1 : 0.999999582767, Q2 : 0.00050442077918, Q3 : 0.000634904310573, Q4 : -0.000482729898067}
2019-04-14 17:15:21.11: SIM {TimeUS : 45535112, Roll : 0.06, Pitch : 0.1, Yaw : 359.94, Alt : 32.5999984741, Lat : 49.2835703, Lng : -123.1150207, Q1 : 0.999999284744, Q2 : 0.000605168694165, Q3 : 0.000937938515563, Q4 : -0.000466377969133}
2019-04-14 17:15:21.21: SIM {TimeUS : 45635072, Roll : 0.1, Pitch : 0.13, Yaw : 359.94, Alt : 32.7999992371, Lat : 49.2835703, Lng : -123.1150208, Q1 : 0.999998748302, Q2 : 0.000919685757253, Q3 : 0.00120005989447, Q4 : -0.000456527835922}
2019-04-14 17:15:21.31: SIM {TimeUS : 45735032, Roll : 0.13, Pitch : 0.16, Yaw : 359.94, Alt : 33.0, Lat : 49.2835704, Lng : -123.1150208, Q1 : 0.999998211861, Q2 : 0.00118999008555, Q3 : 0.00140262721106, Q4 : -0.000451159634395}
2019-04-14 17:15:21.41: SIM {TimeUS : 45834992, Roll : 0.15, Pitch : 0.17, Yaw : 359.94, Alt : 33.2000007629, Lat : 49.2835704, Lng : -123.1150208, Q1 : 0.999997735023, Q2 : 0.00134294503368, Q3 : 0.00156353437342, Q4 : -0.000448244129075}
2019-04-14 17:15:21.51: SIM {TimeUS : 45934952, Roll : 0.16, Pitch : 0.16, Yaw : 359.94, Alt : 33.4000015259, Lat : 49.2835704, Lng : -123.1150208, Q1 : 0.999997794628, Q2 : 0.00143756030593, Q3 : 0.00147069711238, Q4 : -0.00044413752039}
2019-04-14 17:15:21.61: SIM {TimeUS : 46034912, Roll : 0.16, Pitch : 0.13, Yaw : 359.94, Alt : 33.6100006104, Lat : 49.2835704, Lng : -123.1150209, Q1 : 0.999998152256, Q2 : 0.00145970738959, Q3 : 0.00115082028788, Q4 : -0.000458554306533}
2019-04-14 17:15:21.71: SIM {TimeUS : 46134872, Roll : 0.16, Pitch : 0.11, Yaw : 359.94, Alt : 33.8199996948, Lat : 49.2835704, Lng : -123.1150209, Q1 : 0.999998390675, Q2 : 0.001440858352, Q3 : 0.000965312123299, Q4 : -0.000468811602332}
2019-04-14 17:15:21.81: SIM {TimeUS : 46234832, Roll : 0.15, Pitch : 0.1, Yaw : 359.94, Alt : 34.0200004578, Lat : 49.2835704, Lng : -123.1150209, Q1 : 0.999998509884, Q2 : 0.00138275837526, Q3 : 0.00093513703905, Q4 : -0.000485471013235}
2019-04-14 17:15:21.91: SIM {TimeUS : 46334792, Roll : 0.15, Pitch : 0.11, Yaw : 359.94, Alt : 34.2299995422, Lat : 49.2835704, Lng : -123.1150209, Q1 : 0.999998450279, Q2 : 0.00136299547739, Q3 : 0.000989625114016, Q4 : -0.000508576515131}
2019-04-14 17:15:22.01: SIM {TimeUS : 46434752, Roll : 0.14, Pitch : 0.1, Yaw : 359.93, Alt : 34.4500007629, Lat : 49.2835704, Lng : -123.1150209, Q1 : 0.999998688698, Q2 : 0.00126150867436, Q3 : 0.000891050323844, Q4 : -0.000531865516677}
2019-04-14 17:15:22.11: SIM {TimeUS : 46534712, Roll : 0.12, Pitch : 0.08, Yaw : 359.93, Alt : 34.6599998474, Lat : 49.2835704, Lng : -123.1150208, Q1 : 0.999998986721, Q2 : 0.00108432827983, Q3 : 0.000761712144595, Q4 : -0.000556064827833}
2019-04-14 17:15:22.21: SIM {TimeUS : 46634672, Roll : 0.1, Pitch : 0.07, Yaw : 359.93, Alt : 34.8800010681, Lat : 49.2835704, Lng : -123.1150208, Q1 : 0.99999922514, Q2 : 0.000885391607881, Q3 : 0.000669362314511, Q4 : -0.000582264561672}
2019-04-14 17:15:22.31: SIM {TimeUS : 46734632, Roll : 0.07, Pitch : 0.06, Yaw : 359.93, Alt : 35.0900001526, Lat : 49.2835704, Lng : -123.1150208, Q1 : 0.999999403954, Q2 : 0.000666243955493, Q3 : 0.000580610998441, Q4 : -0.000610574963503}
2019-04-14 17:15:22.42: SIM {TimeUS : 46835425, Roll : 0.06, Pitch : 0.03, Yaw : 359.92, Alt : 35.3100013733, Lat : 49.2835704, Lng : -123.1150208, Q1 : 0.999999582767, Q2 : 0.000545974762645, Q3 : 0.000280946842395, Q4 : -0.000635845295619}
2019-04-14 17:15:22.51: SIM {TimeUS : 46935385, Roll : 0.05, Pitch : 0.0, Yaw : 359.92, Alt : 35.5299987793, Lat : 49.2835704, Lng : -123.1150208, Q1 : 0.999999701977, Q2 : 0.000447377300588, Q3 : 3.92370457121e-05, Q4 : -0.000662607897539}
2019-04-14 17:15:22.61: SIM {TimeUS : 47035345, Roll : 0.02, Pitch : 0.0, Yaw : 359.92, Alt : 35.75, Lat : 49.2835704, Lng : -123.1150208, Q1 : 0.999999761581, Q2 : 0.000211207399843, Q3 : -3.82019861718e-05, Q4 : -0.000693858310115}
2019-04-14 17:15:22.71: SIM {TimeUS : 47135305, Roll : 0.01, Pitch : 0.0, Yaw : 359.91, Alt : 35.9700012207, Lat : 49.2835704, Lng : -123.1150207, Q1 : 0.999999761581, Q2 : 0.000112501395051, Q3 : -1.74592278199e-05, Q4 : -0.000719495816156}
2019-04-14 17:15:22.81: SIM {TimeUS : 47235265, Roll : 0.01, Pitch : 0.0, Yaw : 359.91, Alt : 36.1899986267, Lat : 49.2835704, Lng : -123.1150207, Q1 : 0.999999701977, Q2 : 0.000151573723997, Q3 : -6.05782233265e-08, Q4 : -0.000741625670344}
2019-04-14 17:15:22.91: SIM {TimeUS : 47335225, Roll : 0.0, Pitch : -0.01, Yaw : 359.91, Alt : 36.4099998474, Lat : 49.2835704, Lng : -123.1150207, Q1 : 0.999999701977, Q2 : 3.98349766328e-05, Q3 : -0.000155823116074, Q4 : -0.000761870876886}
2019-04-14 17:15:23.01: SIM {TimeUS : 47435185, Roll : -0.03, Pitch : -0.05, Yaw : 359.91, Alt : 36.6300010681, Lat : 49.2835704, Lng : -123.1150207, Q1 : 0.999999523163, Q2 : -0.000268360425252, Q3 : -0.000487914367113, Q4 : -0.00078361807391}
2019-04-14 17:15:23.11: SIM {TimeUS : 47535145, Roll : -0.07, Pitch : -0.08, Yaw : 359.9, Alt : 36.8499984741, Lat : 49.2835704, Lng : -123.1150207, Q1 : 0.99999922514, Q2 : -0.000643823994324, Q3 : -0.000736823305488, Q4 : -0.000804542331025}
2019-04-14 17:15:23.21: SIM {TimeUS : 47635105, Roll : -0.11, Pitch : -0.1, Yaw : 359.9, Alt : 37.0800018311, Lat : 49.2835704, Lng : -123.1150207, Q1 : 0.999998748302, Q2 : -0.00100949266925, Q3 : -0.000923128565773, Q4 : -0.000829820288345}
2019-04-14 17:15:23.31: SIM {TimeUS : 47735065, Roll : -0.13, Pitch : -0.11, Yaw : 359.9, Alt : 37.2999992371, Lat : 49.2835704, Lng : -123.1150207, Q1 : 0.999998509884, Q2 : -0.00113780819811, Q3 : -0.000967822677922, Q4 : -0.000864428002387}
2019-04-14 17:15:23.41: SIM {TimeUS : 47835025, Roll : -0.12, Pitch : -0.09, Yaw : 359.89, Alt : 37.5299987793, Lat : 49.2835704, Lng : -123.1150206, Q1 : 0.999998688698, Q2 : -0.00107442564331, Q3 : -0.000838239036966, Q4 : -0.000899190024938}
2019-04-14 17:15:23.51: SIM {TimeUS : 47934985, Roll : -0.1, Pitch : -0.06, Yaw : 359.89, Alt : 37.75, Lat : 49.2835704, Lng : -123.1150206, Q1 : 0.999999046326, Q2 : -0.000896203098819, Q3 : -0.000534151040483, Q4 : -0.000926965149119}
2019-04-14 17:15:23.61: SIM {TimeUS : 48034945, Roll : -0.07, Pitch : -0.03, Yaw : 359.89, Alt : 37.9799995422, Lat : 49.2835704, Lng : -123.1150206, Q1 : 0.99999922514, Q2 : -0.000688107276801, Q3 : -0.000306503963657, Q4 : -0.000955946685281}
2019-04-14 17:15:23.71: SIM {TimeUS : 48134905, Roll : -0.07, Pitch : -0.03, Yaw : 359.88, Alt : 38.2099990845, Lat : 49.2835704, Lng : -123.1150206, Q1 : 0.999999284744, Q2 : -0.000627387606073, Q3 : -0.000277059763903, Q4 : -0.000987069215626}
2019-04-14 17:15:23.81: SIM {TimeUS : 48234865, Roll : -0.07, Pitch : -0.01, Yaw : 359.88, Alt : 38.4399986267, Lat : 49.2835706, Lng : -123.1150206, Q1 : 0.999999284744, Q2 : -0.000650223926641, Q3 : -0.00016142099048, Q4 : -0.00100277585443}
2019-04-14 17:15:23.91: SIM {TimeUS : 48334825, Roll : -0.09, Pitch : 0.0, Yaw : 359.88, Alt : 38.6699981689, Lat : 49.2835706, Lng : -123.1150206, Q1 : 0.999999165535, Q2 : -0.000801694812253, Q3 : -2.39819983108e-05, Q4 : -0.00100910128094}
2019-04-14 17:15:24.01: SIM {TimeUS : 48434785, Roll : -0.09, Pitch : 0.01, Yaw : 359.88, Alt : 38.8899993896, Lat : 49.2835706, Lng : -123.1150206, Q1 : 0.999999165535, Q2 : -0.00082071707584, Q3 : 8.98752114153e-05, Q4 : -0.00101211352739}
2019-04-14 17:15:24.11: SIM {TimeUS : 48534745, Roll : -0.07, Pitch : 0.03, Yaw : 359.88, Alt : 39.1199989319, Lat : 49.2835706, Lng : -123.1150206, Q1 : 0.999999165535, Q2 : -0.000697567826137, Q3 : 0.000302362372167, Q4 : -0.00101320038084}
2019-04-14 17:15:24.21: SIM {TimeUS : 48634705, Roll : -0.06, Pitch : 0.03, Yaw : 359.88, Alt : 39.3499984741, Lat : 49.2835706, Lng : -123.1150206, Q1 : 0.999999284744, Q2 : -0.000526479503606, Q3 : 0.000338281242875, Q4 : -0.00100642733742}
2019-04-14 17:15:24.31: SIM {TimeUS : 48734665, Roll : -0.03, Pitch : 0.03, Yaw : 359.88, Alt : 39.5800018311, Lat : 49.2835706, Lng : -123.1150207, Q1 : 0.999999403954, Q2 : -0.000296753656585, Q3 : 0.000347658147803, Q4 : -0.000999820185825}
2019-04-14 17:15:24.41: SIM {TimeUS : 48834625, Roll : 0.0, Pitch : 0.06, Yaw : 359.88, Alt : 39.8100013733, Lat : 49.2835706, Lng : -123.1150207, Q1 : 0.999999344349, Q2 : 4.61568051833e-05, Q3 : 0.000610480608884, Q4 : -0.000995182199404}
2019-04-14 17:15:24.52: SIM {TimeUS : 48935418, Roll : 0.05, Pitch : 0.11, Yaw : 359.88, Alt : 40.0499992371, Lat : 49.2835706, Lng : -123.1150207, Q1 : 0.999998867512, Q2 : 0.00047447392717, Q3 : 0.00103192345705, Q4 : -0.00100226060022}
2019-04-14 17:15:24.61: SIM {TimeUS : 49035378, Roll : 0.08, Pitch : 0.15, Yaw : 359.88, Alt : 40.2799987793, Lat : 49.2835706, Lng : -123.1150207, Q1 : 0.999998211861, Q2 : 0.000774449319579, Q3 : 0.0013909136178, Q4 : -0.00102035747841}
2019-04-14 17:15:24.71: SIM {TimeUS : 49135338, Roll : 0.08, Pitch : 0.19, Yaw : 359.88, Alt : 40.5099983215, Lat : 49.2835706, Lng : -123.1150207, Q1 : 0.999997794628, Q2 : 0.00070764683187, Q3 : 0.00167438131757, Q4 : -0.00102933880407}
2019-04-14 17:15:24.81: SIM {TimeUS : 49235298, Roll : 0.03, Pitch : 0.2, Yaw : 359.87, Alt : 40.7400016785, Lat : 49.2835706, Lng : -123.1150207, Q1 : 0.999997735023, Q2 : 0.000294332246995, Q3 : 0.00182391901035, Q4 : -0.00105216354132}
2019-04-14 17:15:24.91: SIM {TimeUS : 49335258, Roll : -0.01, Pitch : 0.2, Yaw : 359.87, Alt : 40.9799995422, Lat : 49.2835706, Lng : -123.1150207, Q1 : 0.999997794628, Q2 : -0.000114489426778, Q3 : 0.00180647044908, Q4 : -0.00107696757186}
2019-04-14 17:15:25.01: SIM {TimeUS : 49435218, Roll : -0.03, Pitch : 0.17, Yaw : 359.87, Alt : 41.2099990845, Lat : 49.2835706, Lng : -123.1150207, Q1 : 0.999998211861, Q2 : -0.000314988807077, Q3 : 0.00150084251072, Q4 : -0.00110150442924}
2019-04-14 17:15:25.11: SIM {TimeUS : 49535178, Roll : -0.03, Pitch : 0.12, Yaw : 359.87, Alt : 41.4399986267, Lat : 49.2835706, Lng : -123.1150207, Q1 : 0.999998688698, Q2 : -0.00034475204302, Q3 : 0.00111904775258, Q4 : -0.00113356544171}
2019-04-14 17:15:25.21: SIM {TimeUS : 49635138, Roll : -0.02, Pitch : 0.11, Yaw : 359.86, Alt : 41.6800003052, Lat : 49.2835706, Lng : -123.1150207, Q1 : 0.999998807907, Q2 : -0.000210300029721, Q3 : 0.0010058603948, Q4 : -0.00117466424126}
2019-04-14 17:15:25.31: SIM {TimeUS : 49735098, Roll : 0.01, Pitch : 0.12, Yaw : 359.86, Alt : 41.9099998474, Lat : 49.2835706, Lng : -123.1150207, Q1 : 0.999998688698, Q2 : 0.000123143967357, Q3 : 0.00107546546496, Q4 : -0.00122036645189}
2019-04-14 17:15:25.41: SIM {TimeUS : 49835058, Roll : 0.06, Pitch : 0.12, Yaw : 359.85, Alt : 42.1399993896, Lat : 49.2835706, Lng : -123.1150207, Q1 : 0.999998390675, Q2 : 0.000588535913266, Q3 : 0.00113299093209, Q4 : -0.00126425467897}
2019-04-14 17:15:25.51: SIM {TimeUS : 49935018, Roll : 0.11, Pitch : 0.11, Yaw : 359.85, Alt : 42.3800010681, Lat : 49.2835706, Lng : -123.1150207, Q1 : 0.999998152256, Q2 : 0.000964215199929, Q3 : 0.00101551227272, Q4 : -0.0013095337199}
2019-04-14 17:15:25.61: SIM {TimeUS : 50034978, Roll : 0.11, Pitch : 0.09, Yaw : 359.84, Alt : 42.6100006104, Lat : 49.2835706, Lng : -123.1150207, Q1 : 0.999998271465, Q2 : 0.00099820503965, Q3 : 0.000823120702989, Q4 : -0.00135241611861}
2019-04-14 17:15:25.71: SIM {TimeUS : 50134938, Roll : 0.07, Pitch : 0.07, Yaw : 359.84, Alt : 42.8499984741, Lat : 49.2835706, Lng : -123.1150207, Q1 : 0.999998629093, Q2 : 0.000630870403256, Q3 : 0.000648066925351, Q4 : -0.00136986630969}
2019-04-14 17:15:25.81: SIM {TimeUS : 50234898, Roll : 0.01, Pitch : 0.06, Yaw : 359.84, Alt : 43.0800018311, Lat : 49.2835706, Lng : -123.1150207, Q1 : 0.999998867512, Q2 : 0.000114586844575, Q3 : 0.000586192007177, Q4 : -0.00137930735946}
2019-04-14 17:15:25.91: SIM {TimeUS : 50334858, Roll : -0.03, Pitch : 0.07, Yaw : 359.84, Alt : 43.3199996948, Lat : 49.2835704, Lng : -123.1150207, Q1 : 0.999998807907, Q2 : -0.000261125474935, Q3 : 0.00065385637572, Q4 : -0.00139015889727}
2019-04-14 17:15:26.01: SIM {TimeUS : 50434818, Roll : -0.05, Pitch : 0.07, Yaw : 359.83, Alt : 43.5499992371, Lat : 49.2835704, Lng : -123.1150207, Q1 : 0.999998748302, Q2 : -0.000439490017015, Q3 : 0.000654146890156, Q4 : -0.00140203034971}
2019-04-14 17:15:26.11: SIM {TimeUS : 50534778, Roll : -0.04, Pitch : 0.06, Yaw : 359.83, Alt : 43.7900009155, Lat : 49.2835704, Lng : -123.1150207, Q1 : 0.999998807907, Q2 : -0.000393778434955, Q3 : 0.000544136506505, Q4 : -0.00141537643503}
2019-04-14 17:15:26.21: SIM {TimeUS : 50634738, Roll : -0.04, Pitch : 0.04, Yaw : 359.83, Alt : 44.0200004578, Lat : 49.2835704, Lng : -123.1150207, Q1 : 0.999998807907, Q2 : -0.000385971099604, Q3 : 0.000381420191843, Q4 : -0.00143688486423}
2019-04-14 17:15:26.31: SIM {TimeUS : 50734698, Roll : -0.03, Pitch : 0.02, Yaw : 359.83, Alt : 44.2599983215, Lat : 49.2835704, Lng : -123.1150207, Q1 : 0.999998867512, Q2 : -0.00032890154398, Q3 : 0.00023936846992, Q4 : -0.00146076641977}
2019-04-14 17:15:26.41: SIM {TimeUS : 50834658, Roll : -0.02, Pitch : 0.02, Yaw : 359.82, Alt : 44.5, Lat : 49.2835704, Lng : -123.1150207, Q1 : 0.999998867512, Q2 : -0.000206763084861, Q3 : 0.000205057061976, Q4 : -0.00148781575263}
2019-04-14 17:15:26.51: SIM {TimeUS : 50934618, Roll : -0.01, Pitch : 0.02, Yaw : 359.82, Alt : 44.7299995422, Lat : 49.2835704, Lng : -123.1150206, Q1 : 0.999998807907, Q2 : -0.000152004766278, Q3 : 0.000228265314945, Q4 : -0.00151351315435}
2019-04-14 17:15:26.61: SIM {TimeUS : 51035411, Roll : -0.02, Pitch : 0.01, Yaw : 359.82, Alt : 44.9700012207, Lat : 49.2835704, Lng : -123.1150206, Q1 : 0.999998807907, Q2 : -0.000196172768483, Q3 : 0.000142227087053, Q4 : -0.00154372630641}
2019-04-14 17:15:26.71: SIM {TimeUS : 51135371, Roll : -0.02, Pitch : -0.01, Yaw : 359.81, Alt : 45.2099990845, Lat : 49.2835703, Lng : -123.1150206, Q1 : 0.999998748302, Q2 : -0.000244686816586, Q3 : -0.00011431533494, Q4 : -0.00157356180716}
2019-04-14 17:15:26.81: SIM {TimeUS : 51235331, Roll : -0.03, Pitch : -0.03, Yaw : 359.81, Alt : 45.4399986267, Lat : 49.2835703, Lng : -123.1150206, Q1 : 0.999998629093, Q2 : -0.000270430347882, Q3 : -0.000303444103338, Q4 : -0.00160608789884}
2019-04-14 17:15:26.91: SIM {TimeUS : 51335291, Roll : -0.02, Pitch : -0.04, Yaw : 359.81, Alt : 45.6800003052, Lat : 49.2835703, Lng : -123.1150206, Q1 : 0.999998569489, Q2 : -0.000216398228076, Q3 : -0.000416237453464, Q4 : -0.00164257409051}
2019-04-14 17:15:27.01: SIM {TimeUS : 51435251, Roll : -0.02, Pitch : -0.05, Yaw : 359.8, Alt : 45.9099998474, Lat : 49.2835703, Lng : -123.1150206, Q1 : 0.999998450279, Q2 : -0.000215436128201, Q3 : -0.000458602677099, Q4 : -0.00168106076308}
2019-04-14 17:15:27.11: SIM {TimeUS : 51535211, Roll : -0.04, Pitch : -0.04, Yaw : 359.8, Alt : 46.1399993896, Lat : 49.2835703, Lng : -123.1150206, Q1 : 0.99999833107, Q2 : -0.000397035939386, Q3 : -0.00040807298501, Q4 : -0.00172417343128}
2019-04-14 17:15:27.21: SIM {TimeUS : 51635171, Roll : -0.08, Pitch : -0.04, Yaw : 359.79, Alt : 46.3699989319, Lat : 49.2835703, Lng : -123.1150206, Q1 : 0.999998152256, Q2 : -0.00071001163451, Q3 : -0.000360988575267, Q4 : -0.00176931568421}
2019-04-14 17:15:27.31: SIM {TimeUS : 51735131, Roll : -0.1, Pitch : -0.03, Yaw : 359.79, Alt : 46.5900001526, Lat : 49.2835703, Lng : -123.1150206, Q1 : 0.999997854233, Q2 : -0.000938904529903, Q3 : -0.000337230652804, Q4 : -0.00181040598545}
2019-04-14 17:15:27.41: SIM {TimeUS : 51835091, Roll : -0.11, Pitch : -0.02, Yaw : 359.78, Alt : 46.8100013733, Lat : 49.2835703, Lng : -123.1150206, Q1 : 0.999997794628, Q2 : -0.00101025251206, Q3 : -0.00023627790506, Q4 : -0.00184043229092}
2019-04-14 17:15:27.51: SIM {TimeUS : 51935051, Roll : -0.1, Pitch : 0.0, Yaw : 359.78, Alt : 47.0200004578, Lat : 49.2835703, Lng : -123.1150206, Q1 : 0.999997854233, Q2 : -0.000906775647309, Q3 : -4.09525309806e-05, Q4 : -0.0018605850637}
2019-04-14 17:15:27.61: SIM {TimeUS : 52035011, Roll : -0.07, Pitch : 0.0, Yaw : 359.78, Alt : 47.2200012207, Lat : 49.2835703, Lng : -123.1150206, Q1 : 0.999998033047, Q2 : -0.000684374885168, Q3 : 8.06763127912e-05, Q4 : -0.00187216000631}
2019-04-14 17:15:27.71: SIM {TimeUS : 52134971, Roll : -0.05, Pitch : 0.0, Yaw : 359.78, Alt : 47.4099998474, Lat : 49.2835703, Lng : -123.1150206, Q1 : 0.999998092651, Q2 : -0.000511524674948, Q3 : 6.44771716907e-05, Q4 : -0.00188540341333}
2019-04-14 17:15:27.81: SIM {TimeUS : 52234931, Roll : -0.05, Pitch : 0.0, Yaw : 359.78, Alt : 47.5999984741, Lat : 49.2835703, Lng : -123.1150206, Q1 : 0.999998092651, Q2 : -0.00043729817844, Q3 : -6.91962923156e-05, Q4 : -0.001898676157}
2019-04-14 17:15:27.91: SIM {TimeUS : 52334891, Roll : -0.05, Pitch : -0.04, Yaw : 359.78, Alt : 47.7700004578, Lat : 49.2835703, Lng : -123.1150206, Q1 : 0.999997973442, Q2 : -0.00048682524357, Q3 : -0.000387172651244, Q4 : -0.00191721750889}
2019-04-14 17:15:28.01: SIM {TimeUS : 52434851, Roll : -0.04, Pitch : -0.07, Yaw : 359.77, Alt : 47.9399986267, Lat : 49.2835703, Lng : -123.1150206, Q1 : 0.999997854233, Q2 : -0.000435782334534, Q3 : -0.000661991187371, Q4 : -0.00193739752285}
2019-04-14 17:15:28.11: SIM {TimeUS : 52534811, Roll : -0.04, Pitch : -0.1, Yaw : 359.77, Alt : 48.0900001526, Lat : 49.2835703, Lng : -123.1150206, Q1 : 0.999997615814, Q2 : -0.00039557000855, Q3 : -0.000882689841092, Q4 : -0.0019544812385}
2019-04-14 17:15:28.21: SIM {TimeUS : 52634771, Roll : -0.04, Pitch : -0.11, Yaw : 359.77, Alt : 48.2299995422, Lat : 49.2835703, Lng : -123.1150206, Q1 : 0.999997437, Q2 : -0.0003610617714, Q3 : -0.00103716331068, Q4 : -0.00197034841403}
2019-04-14 17:15:28.31: SIM {TimeUS : 52734731, Roll : 0.0, Pitch : -0.11, Yaw : 359.77, Alt : 48.3600006104, Lat : 49.2835703, Lng : -123.1150206, Q1 : 0.99999755621, Q2 : -5.99103877903e-05, Q3 : -0.000983256730251, Q4 : -0.00198986637406}
2019-04-14 17:15:28.41: SIM {TimeUS : 52834691, Roll : 0.03, Pitch : -0.09, Yaw : 359.76, Alt : 48.4799995422, Lat : 49.2835703, Lng : -123.1150206, Q1 : 0.999997615814, Q2 : 0.000314735050779, Q3 : -0.00079546746565, Q4 : -0.00201852805912}
2019-04-14 17:15:28.51: SIM {TimeUS : 52934651, Roll : 0.06, Pitch : -0.06, Yaw : 359.76, Alt : 48.5800018311, Lat : 49.2835703, Lng : -123.1150207, Q1 : 0.999997615814, Q2 : 0.000574709614739, Q3 : -0.000537423416972, Q4 : -0.00205132574774}
2019-04-14 17:15:28.62: SIM {TimeUS : 53035444, Roll : 0.07, Pitch : -0.03, Yaw : 359.76, Alt : 48.6699981689, Lat : 49.2835703, Lng : -123.1150207, Q1 : 0.999997615814, Q2 : 0.000613628595602, Q3 : -0.0002906928421, Q4 : -0.0020847490523}
2019-04-14 17:15:28.71: SIM {TimeUS : 53135404, Roll : 0.07, Pitch : -0.02, Yaw : 359.75, Alt : 48.75, Lat : 49.2835703, Lng : -123.1150207, Q1 : 0.99999755621, Q2 : 0.000625569722615, Q3 : -0.000197729634237, Q4 : -0.00211460306309}
2019-04-14 17:15:28.81: SIM {TimeUS : 53235364, Roll : 0.06, Pitch : -0.03, Yaw : 359.75, Alt : 48.8199996948, Lat : 49.2835703, Lng : -123.1150207, Q1 : 0.999997496605, Q2 : 0.000526256568264, Q3 : -0.000276038772427, Q4 : -0.0021448044572}
2019-04-14 17:15:28.91: SIM {TimeUS : 53335324, Roll : 0.03, Pitch : -0.03, Yaw : 359.75, Alt : 48.8800010681, Lat : 49.2835703, Lng : -123.1150207, Q1 : 0.99999755621, Q2 : 0.000317206286127, Q3 : -0.000320591934724, Q4 : -0.00217450177297}
2019-04-14 17:15:29.01: SIM {TimeUS : 53435284, Roll : 0.01, Pitch : -0.03, Yaw : 359.74, Alt : 48.9399986267, Lat : 49.2835703, Lng : -123.1150207, Q1 : 0.999997496605, Q2 : 0.00015980094031, Q3 : -0.000275337137282, Q4 : -0.00220335274935}
2019-04-14 17:15:29.11: SIM {TimeUS : 53535244, Roll : 0.0, Pitch : -0.02, Yaw : 359.74, Alt : 48.9799995422, Lat : 49.2835703, Lng : -123.1150207, Q1 : 0.999997496605, Q2 : 3.50528280251e-05, Q3 : -0.000203027608222, Q4 : -0.00223096320406}
2019-04-14 17:15:29.21: SIM {TimeUS : 53635204, Roll : 0.0, Pitch : 0.0, Yaw : 359.74, Alt : 49.0200004578, Lat : 49.2835704, Lng : -123.1150207, Q1 : 0.999997437, Q2 : -2.05484616345e-06, Q3 : -6.12019211985e-05, Q4 : -0.00225961115211}
2019-04-14 17:15:29.31: SIM {TimeUS : 53735164, Roll : 0.01, Pitch : 0.01, Yaw : 359.73, Alt : 49.0499992371, Lat : 49.2835704, Lng : -123.1150207, Q1 : 0.999997377396, Q2 : 0.000152318258188, Q3 : 0.000142825985677, Q4 : -0.00228363415226}
2019-04-14 17:15:29.41: SIM {TimeUS : 53835124, Roll : 0.04, Pitch : 0.03, Yaw : 359.73, Alt : 49.0800018311, Lat : 49.2835704, Lng : -123.1150207, Q1 : 0.999997258186, Q2 : 0.000375997449737, Q3 : 0.00028624056722, Q4 : -0.00230867206119}
2019-04-14 17:15:29.51: SIM {TimeUS : 53935084, Roll : 0.05, Pitch : 0.01, Yaw : 359.73, Alt : 49.0999984741, Lat : 49.2835704, Lng : -123.1150207, Q1 : 0.999997138977, Q2 : 0.000510862504598, Q3 : 0.000128918400151, Q4 : -0.00234229466878}
2019-04-14 17:15:29.61: SIM {TimeUS : 54035044, Roll : 0.09, Pitch : -0.06, Yaw : 359.72, Alt : 49.1300010681, Lat : 49.2835704, Lng : -123.1150207, Q1 : 0.999996721745, Q2 : 0.000795902276877, Q3 : -0.00053603341803, Q4 : -0.00237748655491}
2019-04-14 17:15:29.71: SIM {TimeUS : 54135004, Roll : 0.22, Pitch : -0.31, Yaw : 359.72, Alt : 49.1399993896, Lat : 49.2835704, Lng : -123.1150207, Q1 : 0.999991476536, Q2 : 0.00193512905389, Q3 : -0.00275036157109, Q4 : -0.00241317250766}
2019-04-14 17:15:29.81: SIM {TimeUS : 54234964, Roll : 0.51, Pitch : -0.78, Yaw : 359.71, Alt : 49.1599998474, Lat : 49.2835704, Lng : -123.1150207, Q1 : 0.999963462353, Q2 : 0.00444106478244, Q3 : -0.00688413809985, Q4 : -0.00243794824928}
2019-04-14 17:15:29.91: SIM {TimeUS : 54334924, Roll : 0.95, Pitch : -1.45, Yaw : 359.7, Alt : 49.1699981689, Lat : 49.2835704, Lng : -123.1150207, Q1 : 0.999882221222, Q2 : 0.00829309690744, Q3 : -0.0126838050783, Q4 : -0.00244385213591}
2019-04-14 17:15:30.01: SIM {TimeUS : 54434884, Roll : 1.5, Pitch : -2.25, Yaw : 359.69, Alt : 49.1800003052, Lat : 49.2835704, Lng : -123.1150207, Q1 : 0.999716579914, Q2 : 0.0131046054885, Q3 : -0.0197259634733, Q4 : -0.00242094346322}
2019-04-14 17:15:30.11: SIM {TimeUS : 54534844, Roll : 2.09, Pitch : -3.09, Yaw : 359.67, Alt : 49.2000007629, Lat : 49.2835706, Lng : -123.1150206, Q1 : 0.999464213848, Q2 : 0.0182162653655, Q3 : -0.0270916558802, Q4 : -0.00234386650845}
2019-04-14 17:15:30.21: SIM {TimeUS : 54634804, Roll : 2.62, Pitch : -3.85, Yaw : 359.65, Alt : 49.2000007629, Lat : 49.2835707, Lng : -123.1150205, Q1 : 0.999172151089, Q2 : 0.0227496493608, Q3 : -0.0336553864181, Q4 : -0.00219750590622}
2019-04-14 17:15:30.31: SIM {TimeUS : 54734764, Roll : 3.02, Pitch : -4.44, Yaw : 359.65, Alt : 49.2099990845, Lat : 49.2835709, Lng : -123.1150203, Q1 : 0.998898029327, Q2 : 0.026224879548, Q3 : -0.0388721078634, Q4 : -0.00199542194605}
2019-04-14 17:15:30.41: SIM {TimeUS : 54834724, Roll : 3.32, Pitch : -4.89, Yaw : 359.65, Alt : 49.2200012207, Lat : 49.283571, Lng : -123.1150201, Q1 : 0.998666763306, Q2 : 0.0288147199899, Q3 : -0.0427942797542, Q4 : -0.00174403912388}
2019-04-14 17:15:30.51: SIM {TimeUS : 54934684, Roll : 3.56, Pitch : -5.23, Yaw : 359.66, Alt : 49.2299995422, Lat : 49.2835714, Lng : -123.1150199, Q1 : 0.998474538326, Q2 : 0.0309033412486, Q3 : -0.0457327961922, Q4 : -0.0014618410496}
2019-04-14 17:15:30.61: SIM {TimeUS : 55034644, Roll : 3.75, Pitch : -5.51, Yaw : 359.68, Alt : 49.2299995422, Lat : 49.2835716, Lng : -123.1150196, Q1 : 0.998306393623, Q2 : 0.032629519701, Q3 : -0.0481480024755, Q4 : -0.00118255859707}
2019-04-14 17:15:30.72: SIM {TimeUS : 55135437, Roll : 3.95, Pitch : -5.79, Yaw : 359.69, Alt : 49.2400016785, Lat : 49.2835721, Lng : -123.1150191, Q1 : 0.998128294945, Q2 : 0.0343168750405, Q3 : -0.0506110601127, Q4 : -0.000908483809326}
2019-04-14 17:15:30.81: SIM {TimeUS : 55235397, Roll : 4.14, Pitch : -6.1, Yaw : 359.7, Alt : 49.2400016785, Lat : 49.2835726, Lng : -123.1150187, Q1 : 0.997930765152, Q2 : 0.0359795279801, Q3 : -0.0532844625413, Q4 : -0.000652961200103}
2019-04-14 17:15:30.91: SIM {TimeUS : 55335357, Roll : 4.33, Pitch : -6.38, Yaw : 359.71, Alt : 49.25, Lat : 49.2835731, Lng : -123.1150181, Q1 : 0.997734069824, Q2 : 0.0376517996192, Q3 : -0.0557568669319, Q4 : -0.000412632420193}
2019-04-14 17:15:31.01: SIM {TimeUS : 55435317, Roll : 4.5, Pitch : -6.61, Yaw : 359.71, Alt : 49.25, Lat : 49.2835737, Lng : -123.1150175, Q1 : 0.997564911842, Q2 : 0.0391014888883, Q3 : -0.0577524714172, Q4 : -0.000196314809727}
2019-04-14 17:15:31.11: SIM {TimeUS : 55535277, Roll : 4.62, Pitch : -6.79, Yaw : 359.72, Alt : 49.2599983215, Lat : 49.2835743, Lng : -123.1150168, Q1 : 0.99743026495, Q2 : 0.0401648133993, Q3 : -0.0593269690871, Q4 : -1.94873609871e-05}
2019-04-14 17:15:31.21: SIM {TimeUS : 55635237, Roll : 4.72, Pitch : -6.92, Yaw : 359.72, Alt : 49.2599983215, Lat : 49.283575, Lng : -123.1150161, Q1 : 0.997325539589, Q2 : 0.0410330742598, Q3 : -0.0604817010462, Q4 : 0.000117474330182}
2019-04-14 17:15:31.31: SIM {TimeUS : 55735197, Roll : 4.83, Pitch : -7.03, Yaw : 359.72, Alt : 49.2599983215, Lat : 49.2835758, Lng : -123.1150153, Q1 : 0.997232794762, Q2 : 0.0419235117733, Q3 : -0.0613936856389, Q4 : 0.000207145218155}
2019-04-14 17:15:31.41: SIM {TimeUS : 55835157, Roll : 4.93, Pitch : -7.14, Yaw : 359.71, Alt : 49.2700004578, Lat : 49.2835765, Lng : -123.1150144, Q1 : 0.997135281563, Q2 : 0.0428278371692, Q3 : -0.0623457618058, Q4 : 0.000245498406002}
2019-04-14 17:15:31.51: SIM {TimeUS : 55935117, Roll : 5.18, Pitch : -7.22, Yaw : 359.78, Alt : 49.2700004578, Lat : 49.2835775, Lng : -123.1150135, Q1 : 0.996997356415, Q2 : 0.0450253039598, Q3 : -0.062992028892, Q4 : 0.00101456861012}
2019-04-14 17:15:31.61: SIM {TimeUS : 56035077, Roll : 5.69, Pitch : -7.22, Yaw : 0.38, Alt : 49.2700004578, Lat : 49.2835783, Lng : -123.1150125, Q1 : 0.996760368347, Q2 : 0.049823269248, Q3 : -0.0628005415201, Q4 : 0.00652608927339}
2019-04-14 17:15:31.71: SIM {TimeUS : 56135037, Roll : 6.32, Pitch : -7.33, Yaw : 2.2, Alt : 49.2700004578, Lat : 49.2835794, Lng : -123.1150115, Q1 : 0.996179699898, Q2 : 0.0563076771796, Q3 : -0.062768779695, Q4 : 0.022707445547}
2019-04-14 17:15:31.81: SIM {TimeUS : 56234997, Roll : 6.71, Pitch : -7.75, Yaw : 5.61, Alt : 49.2700004578, Lat : 49.2835804, Lng : -123.1150103, Q1 : 0.99460786581, Q2 : 0.0616879463196, Q3 : -0.0645757690072, Q4 : 0.0527242012322}
2019-04-14 17:15:31.91: SIM {TimeUS : 56334957, Roll : 6.57, Pitch : -8.52, Yaw : 10.57, Alt : 49.2700004578, Lat : 49.2835814, Lng : -123.1150091, Q1 : 0.990963816643, Q2 : 0.0638018026948, Q3 : -0.0686099082232, Q4 : 0.0959834456444}
2019-04-14 17:15:32.01: SIM {TimeUS : 56434917, Roll : 5.69, Pitch : -9.53, Yaw : 16.85, Alt : 49.2700004578, Lat : 49.2835825, Lng : -123.1150078, Q1 : 0.983949899673, Q2 : 0.0611200369895, Q3 : -0.0748991519213, Q4 : 0.149990171194}
2019-04-14 17:15:32.11: SIM {TimeUS : 56534877, Roll : 3.81, Pitch : -10.63, Yaw : 23.95, Alt : 49.2700004578, Lat : 49.2835837, Lng : -123.1150063, Q1 : 0.972845137119, Q2 : 0.0516129098833, Q3 : -0.0837588682771, Q4 : 0.209506392479}
2019-04-14 17:15:32.21: SIM {TimeUS : 56634837, Roll : 1.13, Pitch : -11.54, Yaw : 31.06, Alt : 49.2700004578, Lat : 49.2835849, Lng : -123.1150048, Q1 : 0.95827037096, Q2 : 0.0364124700427, Q3 : -0.0943100750446, Q4 : 0.267390489578}
2019-04-14 17:15:32.31: SIM {TimeUS : 56734797, Roll : -1.79, Pitch : -12.12, Yaw : 37.43, Alt : 49.2700004578, Lat : 49.2835861, Lng : -123.1150032, Q1 : 0.942227482796, Q2 : 0.0191083624959, Q3 : -0.105004020035, Q4 : 0.317516028881}
2019-04-14 17:15:32.41: SIM {TimeUS : 56834757, Roll : -4.33, Pitch : -12.37, Yaw : 42.43, Alt : 49.2799987793, Lat : 49.2835876, Lng : -123.1150016, Q1 : 0.927584350109, Q2 : 0.00393242854625, Q3 : -0.114042527974, Q4 : 0.355761259794}
2019-04-14 17:15:32.51: SIM {TimeUS : 56934717, Roll : -6.03, Pitch : -12.43, Yaw : 45.72, Alt : 49.2799987793, Lat : 49.283589, Lng : -123.1149999, Q1 : 0.916961312294, Q2 : -0.00617548963055, Q3 : -0.120004370809, Q4 : 0.380450814962}
2019-04-14 17:15:32.61: SIM {TimeUS : 57034677, Roll : -6.73, Pitch : -12.47, Yaw : 47.29, Alt : 49.2799987793, Lat : 49.2835905, Lng : -123.1149983, Q1 : 0.911593914032, Q2 : -0.0099909491837, Q3 : -0.122784249485, Q4 : 0.392199933529}
2019-04-14 17:15:32.71: SIM {TimeUS : 57134637, Roll : -6.54, Pitch : -12.63, Yaw : 47.37, Alt : 49.2700004578, Lat : 49.2835922, Lng : -123.1149966, Q1 : 0.911238610744, Q2 : -0.0078073986806, Q3 : -0.123400717974, Q4 : 0.392881125212}
2019-04-14 17:15:32.82: SIM {TimeUS : 57235430, Roll : -5.67, Pitch : -12.99, Yaw : 46.25, Alt : 49.2799987793, Lat : 49.283594, Lng : -123.1149949, Q1 : 0.914808034897, Q2 : -0.000816875137389, Q3 : -0.123267158866, Q4 : 0.384617716074}
2019-04-14 17:15:32.91: SIM {TimeUS : 57335390, Roll : -4.36, Pitch : -13.53, Yaw : 44.28, Alt : 49.2799987793, Lat : 49.2835958, Lng : -123.1149932, Q1 : 0.920834004879, Q2 : 0.0093424282968, Q3 : -0.123331621289, Q4 : 0.369819819927}
2019-04-14 17:15:33.01: SIM {TimeUS : 57435350, Roll : -2.84, Pitch : -14.17, Yaw : 41.75, Alt : 49.2799987793, Lat : 49.2835976, Lng : -123.1149914, Q1 : 0.928015053272, Q2 : 0.0209405682981, Q3 : -0.123998470604, Q4 : 0.350676506758}
2019-04-14 17:15:33.11: SIM {TimeUS : 57535310, Roll : -1.27, Pitch : -14.77, Yaw : 38.97, Alt : 49.2799987793, Lat : 49.2835996, Lng : -123.1149897, Q1 : 0.935306668282, Q2 : 0.0324890762568, Q3 : -0.124850317836, Q4 : 0.329481869936}
2019-04-14 17:15:33.21: SIM {TimeUS : 57635270, Roll : 0.19, Pitch : -15.22, Yaw : 36.25, Alt : 49.2799987793, Lat : 49.2836018, Lng : -123.1149878, Q1 : 0.941909134388, Q2 : 0.0427985228598, Q3 : -0.125374108553, Q4 : 0.308636963367}
2019-04-14 17:15:33.31: SIM {TimeUS : 57735230, Roll : 1.42, Pitch : -15.48, Yaw : 33.89, Alt : 49.2799987793, Lat : 49.2836038, Lng : -123.1149858, Q1 : 0.947296202183, Q2 : 0.0510515905917, Q3 : -0.12529823184, Q4 : 0.29038593173}
2019-04-14 17:15:33.41: SIM {TimeUS : 57835190, Roll : 2.33, Pitch : -15.58, Yaw : 32.08, Alt : 49.2799987793, Lat : 49.283606, Lng : -123.1149838, Q1 : 0.951221704483, Q2 : 0.0568738952279, Q3 : -0.124723568559, Q4 : 0.276381373405}
2019-04-14 17:15:33.51: SIM {TimeUS : 57935150, Roll : 2.86, Pitch : -15.61, Yaw : 30.94, Alt : 49.2799987793, Lat : 49.2836081, Lng : -123.1149816, Q1 : 0.95363086462, Q2 : 0.0600987933576, Q3 : -0.124241165817, Q4 : 0.267470479012}
2019-04-14 17:15:33.61: SIM {TimeUS : 58035110, Roll : 3.0, Pitch : -15.61, Yaw : 30.47, Alt : 49.2799987793, Lat : 49.2836104, Lng : -123.1149792, Q1 : 0.954623878002, Q2 : 0.0607928670943, Q3 : -0.124196782708, Q4 : 0.263766258955}
2019-04-14 17:15:33.71: SIM {TimeUS : 58135070, Roll : 2.78, Pitch : -15.64, Yaw : 30.62, Alt : 49.2799987793, Lat : 49.2836127, Lng : -123.1149768, Q1 : 0.954362750053, Q2 : 0.0591619722545, Q3 : -0.124909333885, Q4 : 0.264743953943}
2019-04-14 17:15:33.81: SIM {TimeUS : 58235030, Roll : 2.27, Pitch : -15.7, Yaw : 31.26, Alt : 49.2799987793, Lat : 49.2836151, Lng : -123.1149744, Q1 : 0.953065872192, Q2 : 0.0557673983276, Q3 : -0.126245871186, Q4 : 0.269476115704}
2019-04-14 17:15:33.91: SIM {TimeUS : 58334990, Roll : 1.6, Pitch : -15.78, Yaw : 32.23, Alt : 49.2799987793, Lat : 49.2836174, Lng : -123.1149718, Q1 : 0.95096629858, Q2 : 0.0514762923121, Q3 : -0.128075912595, Q4 : 0.276784896851}
2019-04-14 17:15:34.01: SIM {TimeUS : 58434950, Roll : 0.85, Pitch : -15.89, Yaw : 33.37, Alt : 49.2799987793, Lat : 49.2836197, Lng : -123.1149692, Q1 : 0.948359489441, Q2 : 0.0468044728041, Q3 : -0.130312263966, Q4 : 0.285381048918}
2019-04-14 17:15:34.11: SIM {TimeUS : 58534910, Roll : 0.14, Pitch : -16.01, Yaw : 34.53, Alt : 49.2799987793, Lat : 49.2836223, Lng : -123.1149665, Q1 : 0.945566296577, Q2 : 0.0425539053977, Q3 : -0.132607251406, Q4 : 0.294123977423}
2019-04-14 17:15:34.21: SIM {TimeUS : 58634870, Roll : -0.43, Pitch : -16.1, Yaw : 35.58, Alt : 49.2799987793, Lat : 49.2836248, Lng : -123.1149638, Q1 : 0.942941486835, Q2 : 0.0391742214561, Q3 : -0.13450101018, Q4 : 0.302053302526}
2019-04-14 17:15:34.31: SIM {TimeUS : 58734830, Roll : -0.87, Pitch : -16.16, Yaw : 36.42, Alt : 49.2799987793, Lat : 49.2836273, Lng : -123.114961, Q1 : 0.940774798393, Q2 : 0.0367180481553, Q3 : -0.135906666517, Q4 : 0.3084217906}
2019-04-14 17:15:34.41: SIM {TimeUS : 58834790, Roll : -1.16, Pitch : -16.22, Yaw : 37.0, Alt : 49.2799987793, Lat : 49.2836299, Lng : -123.1149582, Q1 : 0.939233660698, Q2 : 0.0352040603757, Q3 : -0.136987909675, Q4 : 0.312786191702}
2019-04-14 17:15:34.51: SIM {TimeUS : 58934750, Roll : -1.29, Pitch : -16.28, Yaw : 37.29, Alt : 49.2799987793, Lat : 49.2836324, Lng : -123.1149554, Q1 : 0.938394784927, Q2 : 0.0347081534564, Q3 : -0.137753620744, Q4 : 0.315015226603}
2019-04-14 17:15:34.61: SIM {TimeUS : 59034710, Roll : -1.24, Pitch : -16.35, Yaw : 37.32, Alt : 49.2900009155, Lat : 49.2836352, Lng : -123.1149525, Q1 : 0.938230037689, Q2 : 0.0352765023708, Q3 : -0.138167127967, Q4 : 0.315261602402}
2019-04-14 17:15:34.71: SIM {TimeUS : 59134670, Roll : -1.08, Pitch : -16.4, Yaw : 37.12, Alt : 49.2900009155, Lat : 49.2836378, Lng : -123.1149496, Q1 : 0.938654899597, Q2 : 0.0365372225642, Q3 : -0.138216525316, Q4 : 0.313828289509}
2019-04-14 17:15:34.81: SIM {TimeUS : 59234630, Roll : -0.82, Pitch : -16.45, Yaw : 36.76, Alt : 49.2900009155, Lat : 49.2836407, Lng : -123.1149467, Q1 : 0.939496994019, Q2 : 0.0383696369827, Q3 : -0.138014689088, Q4 : 0.311167448759}
2019-04-14 17:15:34.92: SIM {TimeUS : 59335423, Roll : -0.5, Pitch : -16.49, Yaw : 36.3, Alt : 49.2900009155, Lat : 49.2836434, Lng : -123.1149437, Q1 : 0.940584361553, Q2 : 0.0405169390142, Q3 : -0.137672826648, Q4 : 0.307742774487}
2019-04-14 17:15:35.01: SIM {TimeUS : 59435383, Roll : -0.18, Pitch : -16.52, Yaw : 35.81, Alt : 49.2900009155, Lat : 49.2836463, Lng : -123.1149407, Q1 : 0.941734552383, Q2 : 0.042647395283, Q3 : -0.137279570103, Q4 : 0.304091453552}
2019-04-14 17:15:35.11: SIM {TimeUS : 59535343, Roll : 0.1, Pitch : -16.56, Yaw : 35.35, Alt : 49.2900009155, Lat : 49.2836492, Lng : -123.1149377, Q1 : 0.94280654192, Q2 : 0.0446163415909, Q3 : -0.136939719319, Q4 : 0.300620645285}
2019-04-14 17:15:35.21: SIM {TimeUS : 59635303, Roll : 0.34, Pitch : -16.6, Yaw : 34.96, Alt : 49.2900009155, Lat : 49.2836519, Lng : -123.1149347, Q1 : 0.943689584732, Q2 : 0.0462277047336, Q3 : -0.13679587841, Q4 : 0.297657310963}
2019-04-14 17:15:35.31: SIM {TimeUS : 59735263, Roll : 0.5, Pitch : -16.63, Yaw : 34.66, Alt : 49.2900009155, Lat : 49.2836548, Lng : -123.1149316, Q1 : 0.944343209267, Q2 : 0.04726171121, Q3 : -0.136797502637, Q4 : 0.295412808657}
2019-04-14 17:15:35.41: SIM {TimeUS : 59835223, Roll : 0.57, Pitch : -16.67, Yaw : 34.48, Alt : 49.2900009155, Lat : 49.2836578, Lng : -123.1149284, Q1 : 0.944730401039, Q2 : 0.0477621518075, Q3 : -0.136986985803, Q4 : 0.294003218412}
2019-04-14 17:15:35.51: SIM {TimeUS : 59935183, Roll : 0.58, Pitch : -16.72, Yaw : 34.42, Alt : 49.2900009155, Lat : 49.2836608, Lng : -123.1149253, Q1 : 0.944842457771, Q2 : 0.0478442497551, Q3 : -0.137391358614, Q4 : 0.293440520763}
2019-04-14 17:15:35.61: SIM {TimeUS : 60035143, Roll : 0.51, Pitch : -16.77, Yaw : 34.45, Alt : 49.2900009155, Lat : 49.2836638, Lng : -123.1149221, Q1 : 0.944725632668, Q2 : 0.0474718958139, Q3 : -0.137988239527, Q4 : 0.293597012758}
2019-04-14 17:15:35.71: SIM {TimeUS : 60135103, Roll : 0.39, Pitch : -16.82, Yaw : 34.55, Alt : 49.2900009155, Lat : 49.2836667, Lng : -123.1149188, Q1 : 0.944444656372, Q2 : 0.0466655083001, Q3 : -0.138661652803, Q4 : 0.294312030077}
2019-04-14 17:15:35.81: SIM {TimeUS : 60235063, Roll : 0.23, Pitch : -16.85, Yaw : 34.71, Alt : 49.2900009155, Lat : 49.2836697, Lng : -123.1149156, Q1 : 0.944065749645, Q2 : 0.0456365458667, Q3 : -0.139265090227, Q4 : 0.295402169228}
2019-04-14 17:15:35.91: SIM {TimeUS : 60335023, Roll : 0.07, Pitch : -16.87, Yaw : 34.89, Alt : 49.2999992371, Lat : 49.2836728, Lng : -123.1149123, Q1 : 0.943636775017, Q2 : 0.0446255169809, Q3 : -0.139812767506, Q4 : 0.296665817499}
2019-04-14 17:15:36.01: SIM {TimeUS : 60434983, Roll : -0.04, Pitch : -16.91, Yaw : 35.06, Alt : 49.2999992371, Lat : 49.2836758, Lng : -123.114909, Q1 : 0.943181693554, Q2 : 0.0439446717501, Q3 : -0.140391141176, Q4 : 0.297938734293}
2019-04-14 17:15:36.11: SIM {TimeUS : 60534943, Roll : -0.12, Pitch : -16.96, Yaw : 35.21, Alt : 49.2999992371, Lat : 49.2836789, Lng : -123.1149056, Q1 : 0.942762255669, Q2 : 0.0435942262411, Q3 : -0.140932872891, Q4 : 0.299059897661}
2019-04-14 17:15:36.21: SIM {TimeUS : 60634903, Roll : -0.16, Pitch : -17.01, Yaw : 35.33, Alt : 49.2999992371, Lat : 49.283682, Lng : -123.1149023, Q1 : 0.942428290844, Q2 : 0.0435270406306, Q3 : -0.141373261809, Q4 : 0.299913108349}
2019-04-14 17:15:36.31: SIM {TimeUS : 60734863, Roll : -0.15, Pitch : -17.05, Yaw : 35.39, Alt : 49.2999992371, Lat : 49.2836851, Lng : -123.1148989, Q1 : 0.94219571352, Q2 : 0.0437917374074, Q3 : -0.141693040729, Q4 : 0.3004540205}
2019-04-14 17:15:36.41: SIM {TimeUS : 60834823, Roll : -0.13, Pitch : -17.09, Yaw : 35.41, Alt : 49.2999992371, Lat : 49.2836882, Lng : -123.1148956, Q1 : 0.942094683647, Q2 : 0.0440610535443, Q3 : -0.141912177205, Q4 : 0.300628066063}
2019-04-14 17:15:36.51: SIM {TimeUS : 60934783, Roll : -0.12, Pitch : -17.1, Yaw : 35.39, Alt : 49.2999992371, Lat : 49.2836913, Lng : -123.1148922, Q1 : 0.942124605179, Q2 : 0.0442202873528, Q3 : -0.142012163997, Q4 : 0.300463587046}
2019-04-14 17:15:36.61: SIM {TimeUS : 61034743, Roll : -0.1, Pitch : -17.11, Yaw : 35.34, Alt : 49.2999992371, Lat : 49.2836944, Lng : -123.1148888, Q1 : 0.942248106003, Q2 : 0.0443049818277, Q3 : -0.142100542784, Q4 : 0.300021648407}
2019-04-14 17:15:36.71: SIM {TimeUS : 61134703, Roll : -0.06, Pitch : -17.12, Yaw : 35.26, Alt : 49.2999992371, Lat : 49.2836975, Lng : -123.1148853, Q1 : 0.942436158657, Q2 : 0.044515889138, Q3 : -0.142049908638, Q4 : 0.29942330718}
2019-04-14 17:15:36.81: SIM {TimeUS : 61234663, Roll : -0.01, Pitch : -17.13, Yaw : 35.17, Alt : 49.3100013733, Lat : 49.2837008, Lng : -123.1148819, Q1 : 0.942641735077, Q2 : 0.0448779575527, Q3 : -0.142026633024, Q4 : 0.298732310534}
2019-04-14 17:15:36.91: SIM {TimeUS : 61334623, Roll : 0.05, Pitch : -17.17, Yaw : 35.07, Alt : 49.3100013733, Lat : 49.283704, Lng : -123.1148785, Q1 : 0.942812919617, Q2 : 0.0454681515694, Q3 : -0.142185389996, Q4 : 0.298026531935}
2019-04-14 17:15:37.02: SIM {TimeUS : 61435416, Roll : 0.13, Pitch : -17.22, Yaw : 34.98, Alt : 49.3100013733, Lat : 49.2837071, Lng : -123.114875, Q1 : 0.942946374416, Q2 : 0.0461073629558, Q3 : -0.142516940832, Q4 : 0.297346949577}
2019-04-14 17:15:37.11: SIM {TimeUS : 61535376, Roll : 0.18, Pitch : -17.25, Yaw : 34.9, Alt : 49.3100013733, Lat : 49.2837105, Lng : -123.1148715, Q1 : 0.943085312843, Q2 : 0.0465226247907, Q3 : -0.142657220364, Q4 : 0.296773761511}
2019-04-14 17:15:37.21: SIM {TimeUS : 61635336, Roll : 0.22, Pitch : -17.25, Yaw : 34.84, Alt : 49.3100013733, Lat : 49.2837137, Lng : -123.114868, Q1 : 0.943218946457, Q2 : 0.0467724651098, Q3 : -0.142587944865, Q4 : 0.29634270072}
2019-04-14 17:15:37.31: SIM {TimeUS : 61735296, Roll : 0.23, Pitch : -17.26, Yaw : 34.81, Alt : 49.3100013733, Lat : 49.2837169, Lng : -123.1148645, Q1 : 0.943302214146, Q2 : 0.0468782074749, Q3 : -0.142617285252, Q4 : 0.296046733856}
2019-04-14 17:15:37.41: SIM {TimeUS : 61835256, Roll : 0.21, Pitch : -17.29, Yaw : 34.79, Alt : 49.3100013733, Lat : 49.2837202, Lng : -123.1148609, Q1 : 0.943324148655, Q2 : 0.0467436946929, Q3 : -0.142942756414, Q4 : 0.295841127634}
2019-04-14 17:15:37.51: SIM {TimeUS : 61935216, Roll : 0.18, Pitch : -17.33, Yaw : 34.78, Alt : 49.3100013733, Lat : 49.2837235, Lng : -123.1148574, Q1 : 0.943305969238, Q2 : 0.0465819686651, Q3 : -0.143323361874, Q4 : 0.295740544796}
2019-04-14 17:15:37.61: SIM {TimeUS : 62035176, Roll : 0.15, Pitch : -17.37, Yaw : 34.79, Alt : 49.3100013733, Lat : 49.2837266, Lng : -123.1148539, Q1 : 0.943250417709, Q2 : 0.0464278720319, Q3 : -0.143727406859, Q4 : 0.295745760202}
2019-04-14 17:15:37.71: SIM {TimeUS : 62135136, Roll : 0.13, Pitch : -17.4, Yaw : 34.8, Alt : 49.3100013733, Lat : 49.28373, Lng : -123.1148503, Q1 : 0.943184614182, Q2 : 0.0463615208864, Q3 : -0.143986806273, Q4 : 0.295839905739}
2019-04-14 17:15:37.81: SIM {TimeUS : 62235096, Roll : 0.12, Pitch : -17.42, Yaw : 34.82, Alt : 49.3100013733, Lat : 49.2837332, Lng : -123.1148467, Q1 : 0.94311273098, Q2 : 0.0463397651911, Q3 : -0.144231185317, Q4 : 0.295953243971}
2019-04-14 17:15:37.91: SIM {TimeUS : 62335056, Roll : 0.12, Pitch : -17.44, Yaw : 34.84, Alt : 49.3199996948, Lat : 49.2837366, Lng : -123.114843, Q1 : 0.94305229187, Q2 : 0.0464273057878, Q3 : -0.144341006875, Q4 : 0.296078592539}
2019-04-14 17:15:38.01: SIM {TimeUS : 62435016, Roll : 0.14, Pitch : -17.46, Yaw : 34.84, Alt : 49.3199996948, Lat : 49.2837399, Lng : -123.1148394, Q1 : 0.942999303341, Q2 : 0.0466609187424, Q3 : -0.144436374307, Q4 : 0.296164065599}
2019-04-14 17:15:38.11: SIM {TimeUS : 62534976, Roll : 0.16, Pitch : -17.48, Yaw : 34.85, Alt : 49.3199996948, Lat : 49.2837433, Lng : -123.1148359, Q1 : 0.942959010601, Q2 : 0.0468716695905, Q3 : -0.144561976194, Q4 : 0.296197891235}
2019-04-14 17:15:38.21: SIM {TimeUS : 62634936, Roll : 0.16, Pitch : -17.51, Yaw : 34.84, Alt : 49.3199996948, Lat : 49.2837466, Lng : -123.1148323, Q1 : 0.942924201488, Q2 : 0.0469343811274, Q3 : -0.144871875644, Q4 : 0.296147316694}
2019-04-14 17:15:38.31: SIM {TimeUS : 62734896, Roll : 0.13, Pitch : -17.55, Yaw : 34.83, Alt : 49.3199996948, Lat : 49.28375, Lng : -123.1148287, Q1 : 0.942909061909, Q2 : 0.0467863641679, Q3 : -0.145287305117, Q4 : 0.296015411615}
2019-04-14 17:15:38.41: SIM {TimeUS : 62834856, Roll : 0.1, Pitch : -17.6, Yaw : 34.82, Alt : 49.3199996948, Lat : 49.2837533, Lng : -123.1148251, Q1 : 0.942905783653, Q2 : 0.0466527566314, Q3 : -0.145726308227, Q4 : 0.295831203461}
2019-04-14 17:15:38.51: SIM {TimeUS : 62934816, Roll : 0.1, Pitch : -17.63, Yaw : 34.8, Alt : 49.3199996948, Lat : 49.2837567, Lng : -123.1148214, Q1 : 0.94291639328, Q2 : 0.0467414408922, Q3 : -0.146001979709, Q4 : 0.29564717412}
2019-04-14 17:15:38.61: SIM {TimeUS : 63034776, Roll : 0.13, Pitch : -17.64, Yaw : 34.77, Alt : 49.3199996948, Lat : 49.28376, Lng : -123.1148178, Q1 : 0.942957043648, Q2 : 0.0469343736768, Q3 : -0.146036401391, Q4 : 0.295469909906}
2019-04-14 17:15:38.71: SIM {TimeUS : 63134736, Roll : 0.16, Pitch : -17.63, Yaw : 34.75, Alt : 49.3199996948, Lat : 49.2837634, Lng : -123.1148141, Q1 : 0.943024456501, Q2 : 0.0471109561622, Q3 : -0.145864874125, Q4 : 0.295311361551}
2019-04-14 17:15:38.81: SIM {TimeUS : 63234696, Roll : 0.17, Pitch : -17.61, Yaw : 34.72, Alt : 49.3199996948, Lat : 49.2837667, Lng : -123.1148105, Q1 : 0.943097054958, Q2 : 0.0471709147096, Q3 : -0.145720914006, Q4 : 0.295141011477}
2019-04-14 17:15:38.91: SIM {TimeUS : 63334656, Roll : 0.17, Pitch : -17.6, Yaw : 34.7, Alt : 49.3199996948, Lat : 49.2837702, Lng : -123.1148068, Q1 : 0.943175852299, Q2 : 0.0470963045955, Q3 : -0.145617201924, Q4 : 0.294952273369}
2019-04-14 17:15:39.01: SIM {TimeUS : 63434616, Roll : 0.17, Pitch : -17.59, Yaw : 34.68, Alt : 49.3199996948, Lat : 49.2837735, Lng : -123.1148031, Q1 : 0.943255186081, Q2 : 0.0469804294407, Q3 : -0.145525336266, Q4 : 0.29476249218}
2019-04-14 17:15:39.11: SIM {TimeUS : 63535409, Roll : 0.16, Pitch : -17.6, Yaw : 34.65, Alt : 49.3199996948, Lat : 49.283777, Lng : -123.1147994, Q1 : 0.943298101425, Q2 : 0.0469022169709, Q3 : -0.145672097802, Q4 : 0.294564932585}
2019-04-14 17:15:39.21: SIM {TimeUS : 63635369, Roll : 0.15, Pitch : -17.63, Yaw : 34.63, Alt : 49.3199996948, Lat : 49.2837805, Lng : -123.1147956, Q1 : 0.94331663847, Q2 : 0.046908069402, Q3 : -0.145905002952, Q4 : 0.294389367104}
2019-04-14 17:15:39.31: SIM {TimeUS : 63735329, Roll : 0.13, Pitch : -17.67, Yaw : 34.62, Alt : 49.3300018311, Lat : 49.2837838, Lng : -123.114792, Q1 : 0.943308711052, Q2 : 0.0468693599105, Q3 : -0.146323606372, Q4 : 0.294213116169}
2019-04-14 17:15:39.41: SIM {TimeUS : 63835289, Roll : 0.14, Pitch : -17.73, Yaw : 34.6, Alt : 49.3300018311, Lat : 49.2837873, Lng : -123.1147882, Q1 : 0.943265020847, Q2 : 0.0470142960548, Q3 : -0.14684599638, Q4 : 0.294069826603}
2019-04-14 17:15:39.51: SIM {TimeUS : 63935249, Roll : 0.15, Pitch : -17.77, Yaw : 34.59, Alt : 49.3300018311, Lat : 49.2837908, Lng : -123.1147845, Q1 : 0.943249702454, Q2 : 0.0472005084157, Q3 : -0.147078305483, Q4 : 0.293972969055}
2019-04-14 17:15:39.61: SIM {TimeUS : 64035209, Roll : 0.16, Pitch : -17.79, Yaw : 34.58, Alt : 49.3300018311, Lat : 49.2837941, Lng : -123.1147808, Q1 : 0.943243920803, Q2 : 0.0472973324358, Q3 : -0.147270709276, Q4 : 0.293879747391}
2019-04-14 17:15:39.71: SIM {TimeUS : 64135169, Roll : 0.16, Pitch : -17.81, Yaw : 34.57, Alt : 49.3300018311, Lat : 49.2837976, Lng : -123.1147771, Q1 : 0.943251013756, Q2 : 0.0473207347095, Q3 : -0.147393897176, Q4 : 0.293791353703}
2019-04-14 17:15:39.81: SIM {TimeUS : 64235129, Roll : 0.17, Pitch : -17.8, Yaw : 34.56, Alt : 49.3300018311, Lat : 49.2838011, Lng : -123.1147733, Q1 : 0.943281650543, Q2 : 0.0473887771368, Q3 : -0.147288098931, Q4 : 0.293735027313}
2019-04-14 17:15:39.91: SIM {TimeUS : 64335089, Roll : 0.19, Pitch : -17.8, Yaw : 34.55, Alt : 49.3300018311, Lat : 49.2838045, Lng : -123.1147696, Q1 : 0.943297564983, Q2 : 0.0475352369249, Q3 : -0.147236049175, Q4 : 0.293686360121}
2019-04-14 17:15:40.01: SIM {TimeUS : 64435049, Roll : 0.19, Pitch : -17.81, Yaw : 34.54, Alt : 49.3300018311, Lat : 49.283808, Lng : -123.1147659, Q1 : 0.94329726696, Q2 : 0.0476186834276, Q3 : -0.147379055619, Q4 : 0.293602108955}
2019-04-14 17:15:40.11: SIM {TimeUS : 64535009, Roll : 0.19, Pitch : -17.83, Yaw : 34.53, Alt : 49.3300018311, Lat : 49.2838115, Lng : -123.1147621, Q1 : 0.943303763866, Q2 : 0.0476436242461, Q3 : -0.147516772151, Q4 : 0.293507933617}
2019-04-14 17:15:40.21: SIM {TimeUS : 64634969, Roll : 0.19, Pitch : -17.83, Yaw : 34.52, Alt : 49.3300018311, Lat : 49.283815, Lng : -123.1147584, Q1 : 0.943327069283, Q2 : 0.0476503297687, Q3 : -0.147549927235, Q4 : 0.293415129185}
2019-04-14 17:15:40.31: SIM {TimeUS : 64734929, Roll : 0.19, Pitch : -17.85, Yaw : 34.51, Alt : 49.3300018311, Lat : 49.2838184, Lng : -123.1147546, Q1 : 0.943345248699, Q2 : 0.047631829977, Q3 : -0.147659048438, Q4 : 0.293304860592}
2019-04-14 17:15:40.41: SIM {TimeUS : 64834889, Roll : 0.17, Pitch : -17.87, Yaw : 34.49, Alt : 49.3300018311, Lat : 49.2838219, Lng : -123.1147508, Q1 : 0.943352282047, Q2 : 0.0475415661931, Q3 : -0.14791341126, Q4 : 0.293168842793}
2019-04-14 17:15:40.51: SIM {TimeUS : 64934849, Roll : 0.15, Pitch : -17.91, Yaw : 34.48, Alt : 49.3300018311, Lat : 49.2838254, Lng : -123.1147471, Q1 : 0.943344056606, Q2 : 0.0474055707455, Q3 : -0.148320183158, Q4 : 0.29301160574}
2019-04-14 17:15:40.61: SIM {TimeUS : 65034809, Roll : 0.14, Pitch : -17.92, Yaw : 34.47, Alt : 49.3300018311, Lat : 49.2838288, Lng : -123.1147433, Q1 : 0.943365871906, Q2 : 0.0473449863493, Q3 : -0.14843416214, Q4 : 0.292893558741}
2019-04-14 17:15:40.71: SIM {TimeUS : 65134769, Roll : 0.15, Pitch : -17.91, Yaw : 34.46, Alt : 49.3300018311, Lat : 49.2838323, Lng : -123.1147395, Q1 : 0.943410873413, Q2 : 0.0473686009645, Q3 : -0.148314908147, Q4 : 0.292805105448}
2019-04-14 17:15:40.81: SIM {TimeUS : 65234729, Roll : 0.17, Pitch : -17.89, Yaw : 34.44, Alt : 49.3400001526, Lat : 49.2838359, Lng : -123.1147357, Q1 : 0.943450689316, Q2 : 0.0475347824395, Q3 : -0.14813940227, Q4 : 0.292738765478}
2019-04-14 17:15:40.91: SIM {TimeUS : 65334689, Roll : 0.19, Pitch : -17.9, Yaw : 34.43, Alt : 49.3400001526, Lat : 49.2838394, Lng : -123.1147319, Q1 : 0.943471252918, Q2 : 0.047660049051, Q3 : -0.148150324821, Q4 : 0.292646676302}
2019-04-14 17:15:41.01: SIM {TimeUS : 65434649, Roll : 0.18, Pitch : -17.92, Yaw : 34.42, Alt : 49.3400001526, Lat : 49.2838428, Lng : -123.1147281, Q1 : 0.943478047848, Q2 : 0.047624912113, Q3 : -0.148373693228, Q4 : 0.292517215014}
2019-04-14 17:15:41.12: SIM {TimeUS : 65535442, Roll : 0.15, Pitch : -17.95, Yaw : 34.4, Alt : 49.3400001526, Lat : 49.2838464, Lng : -123.1147243, Q1 : 0.943489432335, Q2 : 0.0474321357906, Q3 : -0.148673862219, Q4 : 0.292359322309}
2019-04-14 17:15:41.21: SIM {TimeUS : 65635402, Roll : 0.13, Pitch : -17.97, Yaw : 34.39, Alt : 49.3400001526, Lat : 49.28385, Lng : -123.1147205, Q1 : 0.943505167961, Q2 : 0.0473253540695, Q3 : -0.148877695203, Q4 : 0.292221993208}
2019-04-14 17:15:41.31: SIM {TimeUS : 65735362, Roll : 0.14, Pitch : -17.99, Yaw : 34.38, Alt : 49.3400001526, Lat : 49.2838535, Lng : -123.1147167, Q1 : 0.943511903286, Q2 : 0.0474136173725, Q3 : -0.149004042149, Q4 : 0.2921217978}
2019-04-14 17:15:41.41: SIM {TimeUS : 65835322, Roll : 0.15, Pitch : -18.0, Yaw : 34.37, Alt : 49.3400001526, Lat : 49.2838571, Lng : -123.1147129, Q1 : 0.943513870239, Q2 : 0.0475461408496, Q3 : -0.14911134541, Q4 : 0.292039066553}
2019-04-14 17:15:41.51: SIM {TimeUS : 65935282, Roll : 0.17, Pitch : -18.02, Yaw : 34.36, Alt : 49.3400001526, Lat : 49.2838606, Lng : -123.1147091, Q1 : 0.943508327007, Q2 : 0.0477286837995, Q3 : -0.149198159575, Q4 : 0.291982740164}
2019-04-14 17:15:41.61: SIM {TimeUS : 66035242, Roll : 0.18, Pitch : -18.04, Yaw : 34.35, Alt : 49.3400001526, Lat : 49.283864, Lng : -123.1147053, Q1 : 0.943497300148, Q2 : 0.0478451550007, Q3 : -0.149341076612, Q4 : 0.291926115751}
2019-04-14 17:15:41.71: SIM {TimeUS : 66135202, Roll : 0.19, Pitch : -18.06, Yaw : 34.34, Alt : 49.3400001526, Lat : 49.2838676, Lng : -123.1147015, Q1 : 0.943477988243, Q2 : 0.0479762516916, Q3 : -0.149521946907, Q4 : 0.291874587536}
2019-04-14 17:15:41.81: SIM {TimeUS : 66235162, Roll : 0.2, Pitch : -18.08, Yaw : 34.34, Alt : 49.3400001526, Lat : 49.2838712, Lng : -123.1146977, Q1 : 0.943464040756, Q2 : 0.0481078922749, Q3 : -0.149655163288, Q4 : 0.291829735041}
2019-04-14 17:15:41.91: SIM {TimeUS : 66335122, Roll : 0.23, Pitch : -18.09, Yaw : 34.33, Alt : 49.3400001526, Lat : 49.2838748, Lng : -123.1146939, Q1 : 0.94345754385, Q2 : 0.048315346241, Q3 : -0.149667307734, Q4 : 0.291810065508}
2019-04-14 17:15:42.01: SIM {TimeUS : 66435082, Roll : 0.26, Pitch : -18.09, Yaw : 34.33, Alt : 49.3499984741, Lat : 49.2838783, Lng : -123.1146901, Q1 : 0.943451404572, Q2 : 0.0486038327217, Q3 : -0.149610131979, Q4 : 0.29181137681}
