2019-04-14 15:56:07.90: SIM {TimeUS : 39915694, Roll : 0.0, Pitch : 0.0, Yaw : 0.0, Alt : 30.1000003815, Lat : 49.28357, Lng : -123.11502, Q1 : 1.0, Q2 : 0.0, Q3 : 0.0, Q4 : 0.0}
2019-04-14 15:56:08.01: SIM {TimeUS : 40034813, Roll : 0.0, Pitch : 0.0, Yaw : 0.0, Alt : 30.1000003815, Lat : 49.28357, Lng : -123.11502, Q1 : 1.0, Q2 : 0.0, Q3 : 0.0, Q4 : 0.0}
2019-04-14 15:56:08.11: SIM {TimeUS : 40134773, Roll : 0.0, Pitch : 0.0, Yaw : 0.0, Alt : 30.1000003815, Lat : 49.28357, Lng : -123.11502, Q1 : 1.0, Q2 : 0.0, Q3 : 0.0, Q4 : 0.0}
2019-04-14 15:56:08.21: SIM {TimeUS : 40234733, Roll : 0.0, Pitch : 0.0, Yaw : 0.0, Alt : 30.1000003815, Lat : 49.28357, Lng : -123.11502, Q1 : 1.0, Q2 : 0.0, Q3 : 0.0, Q4 : 0.0}
2019-04-14 15:56:08.31: SIM {TimeUS : 40334693, Roll : 0.0, Pitch : 0.0, Yaw : 0.0, Alt : 30.1000003815, Lat : 49.28357, Lng : -123.11502, Q1 : 1.0, Q2 : 0.0, Q3 : 0.0, Q4 : 0.0}
2019-04-14 15:56:08.41: SIM {TimeUS : 40434653, Roll : 0.0, Pitch : 0.0, Yaw : 0.0, Alt : 30.1000003815, Lat : 49.28357, Lng : -123.11502, Q1 : 1.0, Q2 : 0.0, Q3 : 0.0, Q4 : 0.0}
2019-04-14 15:56:08.51: SIM {TimeUS : 40534613, Roll : 0.0, Pitch : 0.0, Yaw : 0.0, Alt : 30.1000003815, Lat : 49.28357, Lng : -123.11502, Q1 : 1.0, Q2 : 0.0, Q3 : 0.0, Q4 : 0.0}
2019-04-14 15:56:08.61: SIM {TimeUS : 40634573, Roll : 0.0, Pitch : 0.0, Yaw : 0.0, Alt : 30.1000003815, Lat : 49.28357, Lng : -123.11502, Q1 : 1.0, Q2 : 0.0, Q3 : 0.0, Q4 : 0.0}
2019-04-14 15:56:08.71: SIM {TimeUS : 40734533, Roll : 0.0, Pitch : 0.0, Yaw : 0.0, Alt : 30.1000003815, Lat : 49.28357, Lng : -123.11502, Q1 : 1.0, Q2 : 0.0, Q3 : 0.0, Q4 : 0.0}
2019-04-14 15:56:08.81: SIM {TimeUS : 40834493, Roll : 0.0, Pitch : 0.0, Yaw : 0.0, Alt : 30.1000003815, Lat : 49.28357, Lng : -123.11502, Q1 : 1.0, Q2 : 0.0, Q3 : 0.0, Q4 : 0.0}
2019-04-14 15:56:08.91: SIM {TimeUS : 40934453, Roll : 0.0, Pitch : 0.0, Yaw : 0.0, Alt : 30.1000003815, Lat : 49.28357, Lng : -123.11502, Q1 : 1.0, Q2 : 0.0, Q3 : 0.0, Q4 : 0.0}
2019-04-14 15:56:09.01: SIM {TimeUS : 41034413, Roll : 0.0, Pitch : 0.0, Yaw : 0.0, Alt : 30.1000003815, Lat : 49.28357, Lng : -123.11502, Q1 : 1.0, Q2 : 0.0, Q3 : 0.0, Q4 : 0.0}
2019-04-14 15:56:09.11: SIM {TimeUS : 41134373, Roll : 0.0, Pitch : 0.0, Yaw : 0.0, Alt : 30.1000003815, Lat : 49.28357, Lng : -123.11502, Q1 : 1.0, Q2 : 0.0, Q3 : 0.0, Q4 : 0.0}
2019-04-14 15:56:09.21: SIM {TimeUS : 41234333, Roll : 0.0, Pitch : 0.0, Yaw : 0.0, Alt : 30.1000003815, Lat : 49.28357, Lng : -123.11502, Q1 : 1.0, Q2 : 0.0, Q3 : 0.0, Q4 : 0.0}
2019-04-14 15:56:09.31: SIM {TimeUS : 41334293, Roll : 0.0, Pitch : 0.0, Yaw : 0.0, Alt : 30.1000003815, Lat : 49.28357, Lng : -123.11502, Q1 : 1.0, Q2 : 0.0, Q3 : 0.0, Q4 : 0.0}
2019-04-14 15:56:09.41: SIM {TimeUS : 41434253, Roll : 0.0, Pitch : 0.0, Yaw : 0.0, Alt : 30.1000003815, Lat : 49.28357, Lng : -123.11502, Q1 : 1.0, Q2 : 0.0, Q3 : 0.0, Q4 : 0.0}
2019-04-14 15:56:09.51: SIM {TimeUS : 41534213, Roll : 0.0, Pitch : 0.0, Yaw : 0.0, Alt : 30.1000003815, Lat : 49.28357, Lng : -123.11502, Q1 : 1.0, Q2 : 0.0, Q3 : 0.0, Q4 : 0.0}
2019-04-14 15:56:09.61: SIM {TimeUS : 41634173, Roll : 0.0, Pitch : 0.0, Yaw : 0.0, Alt : 30.1000003815, Lat : 49.28357, Lng : -123.11502, Q1 : 1.0, Q2 : 0.0, Q3 : 0.0, Q4 : 0.0}
2019-04-14 15:56:09.71: SIM {TimeUS : 41734133, Roll : 0.0, Pitch : 0.0, Yaw : 0.0, Alt : 30.1000003815, Lat : 49.28357, Lng : -123.11502, Q1 : 1.0, Q2 : 0.0, Q3 : 0.0, Q4 : 0.0}
2019-04-14 15:56:09.81: SIM {TimeUS : 41834093, Roll : 0.0, Pitch : 0.0, Yaw : 0.0, Alt : 30.1000003815, Lat : 49.28357, Lng : -123.11502, Q1 : 1.0, Q2 : 0.0, Q3 : 0.0, Q4 : 0.0}
2019-04-14 15:56:09.91: SIM {TimeUS : 41934053, Roll : 0.0, Pitch : 0.0, Yaw : 0.0, Alt : 30.1000003815, Lat : 49.28357, Lng : -123.11502, Q1 : 1.0, Q2 : 0.0, Q3 : 0.0, Q4 : 0.0}
2019-04-14 15:56:10.02: SIM {TimeUS : 42034846, Roll : 0.0, Pitch : 0.0, Yaw : 0.0, Alt : 30.1000003815, Lat : 49.28357, Lng : -123.11502, Q1 : 1.0, Q2 : 0.0, Q3 : 0.0, Q4 : 0.0}
2019-04-14 15:56:10.11: SIM {TimeUS : 42134806, Roll : 0.0, Pitch : 0.0, Yaw : 0.0, Alt : 30.1000003815, Lat : 49.28357, Lng : -123.11502, Q1 : 1.0, Q2 : 0.0, Q3 : 0.0, Q4 : 0.0}
2019-04-14 15:56:10.21: SIM {TimeUS : 42234766, Roll : 0.0, Pitch : 0.0, Yaw : 0.0, Alt : 30.1000003815, Lat : 49.28357, Lng : -123.11502, Q1 : 1.0, Q2 : 0.0, Q3 : 0.0, Q4 : 2.32067349278e-13}
2019-04-14 15:56:10.31: SIM {TimeUS : 42334726, Roll : 0.0, Pitch : 0.0, Yaw : 0.0, Alt : 30.1000003815, Lat : 49.28357, Lng : -123.11502, Q1 : 1.0, Q2 : 0.0, Q3 : 0.0, Q4 : 2.44555417583e-12}
2019-04-14 15:56:10.41: SIM {TimeUS : 42434686, Roll : 0.0, Pitch : 0.0, Yaw : 360.0, Alt : 30.1000003815, Lat : 49.28357, Lng : -123.11502, Q1 : 1.0, Q2 : 0.0, Q3 : 0.0, Q4 : -8.00653268129e-08}
2019-04-14 15:56:10.51: SIM {TimeUS : 42534646, Roll : 0.0, Pitch : 0.0, Yaw : 359.99, Alt : 30.1000003815, Lat : 49.28357, Lng : -123.11502, Q1 : 1.0, Q2 : 0.0, Q3 : 0.0, Q4 : -2.31961436725e-07}
2019-04-14 15:56:10.61: SIM {TimeUS : 42634606, Roll : 0.0, Pitch : 0.0, Yaw : 359.99, Alt : 30.1000003815, Lat : 49.28357, Lng : -123.11502, Q1 : 1.0, Q2 : 0.0, Q3 : 0.0, Q4 : -4.25476770261e-07}
2019-04-14 15:56:10.71: SIM {TimeUS : 42734566, Roll : 0.0, Pitch : 0.0, Yaw : 359.99, Alt : 30.1000003815, Lat : 49.28357, Lng : -123.11502, Q1 : 1.0, Q2 : 0.0, Q3 : 0.0, Q4 : -6.25467521331e-07}
2019-04-14 15:56:10.81: SIM {TimeUS : 42834526, Roll : 0.0, Pitch : 0.0, Yaw : 359.99, Alt : 30.1000003815, Lat : 49.28357, Lng : -123.11502, Q1 : 1.0, Q2 : 0.0, Q3 : 0.0, Q4 : -8.16057479369e-07}
2019-04-14 15:56:10.91: SIM {TimeUS : 42934486, Roll : 0.0, Pitch : 0.0, Yaw : 359.99, Alt : 30.1000003815, Lat : 49.28357, Lng : -123.11502, Q1 : 1.0, Q2 : 0.0, Q3 : 0.0, Q4 : -1.01960449683e-06}
2019-04-14 15:56:11.01: SIM {TimeUS : 43034446, Roll : 0.0, Pitch : 0.0, Yaw : 359.99, Alt : 30.1000003815, Lat : 49.28357, Lng : -123.11502, Q1 : 1.0, Q2 : 0.0, Q3 : 0.0, Q4 : -1.16124999749e-06}
2019-04-14 15:56:11.11: SIM {TimeUS : 43134406, Roll : 0.0, Pitch : 0.0, Yaw : 359.99, Alt : 30.1100006104, Lat : 49.28357, Lng : -123.11502, Q1 : 1.0, Q2 : 0.0, Q3 : 0.0, Q4 : -1.37764413921e-06}
2019-04-14 15:56:11.21: SIM {TimeUS : 43234366, Roll : 0.0, Pitch : 0.0, Yaw : 359.99, Alt : 30.1299991608, Lat : 49.28357, Lng : -123.11502, Q1 : 1.0, Q2 : 0.0, Q3 : 0.0, Q4 : -1.60254103321e-06}
2019-04-14 15:56:11.31: SIM {TimeUS : 43334326, Roll : 0.0, Pitch : 0.0, Yaw : 359.99, Alt : 30.1499996185, Lat : 49.28357, Lng : -123.11502, Q1 : 1.0, Q2 : 0.0, Q3 : 0.0, Q4 : -1.8358990701e-06}
2019-04-14 15:56:11.41: SIM {TimeUS : 43434286, Roll : 0.0, Pitch : 0.0, Yaw : 359.99, Alt : 30.1900005341, Lat : 49.28357, Lng : -123.11502, Q1 : 1.0, Q2 : 0.0, Q3 : 0.0, Q4 : -2.08688197745e-06}
2019-04-14 15:56:11.51: SIM {TimeUS : 43534246, Roll : -0.02, Pitch : -0.02, Yaw : 359.99, Alt : 30.2299995422, Lat : 49.28357, Lng : -123.11502, Q1 : 0.999999940395, Q2 : -0.000241282890784, Q3 : -0.000243227972533, Q4 : -3.71083820028e-06}
2019-04-14 15:56:11.61: SIM {TimeUS : 43634206, Roll : -0.25, Pitch : -0.25, Yaw : 359.99, Alt : 30.2999992371, Lat : 49.28357, Lng : -123.11502, Q1 : 0.999995052814, Q2 : -0.00221560662612, Q3 : -0.00225012889132, Q4 : -2.65363614744e-05}
2019-04-14 15:56:11.71: SIM {TimeUS : 43734166, Roll : -0.55, Pitch : -0.56, Yaw : 359.99, Alt : 30.4300003052, Lat : 49.28357, Lng : -123.11502, Q1 : 0.999976217747, Q2 : -0.00481275841594, Q3 : -0.00493887998164, Q4 : -7.98675682745e-05}
2019-04-14 15:56:11.81: SIM {TimeUS : 43834126, Roll : -0.76, Pitch : -0.76, Yaw : 359.98, Alt : 30.5900001526, Lat : 49.28357, Lng : -123.11502, Q1 : 0.999955356121, Q2 : -0.00670485757291, Q3 : -0.00665509747341, Q4 : -0.000157986607519}
2019-04-14 15:56:11.91: SIM {TimeUS : 43934086, Roll : -0.83, Pitch : -0.76, Yaw : 359.97, Alt : 30.75, Lat : 49.28357, Lng : -123.11502, Q1 : 0.999951124191, Q2 : -0.00726163107902, Q3 : -0.00671199709177, Q4 : -0.00024893914815}
2019-04-14 15:56:12.01: SIM {TimeUS : 44034046, Roll : -0.74, Pitch : -0.63, Yaw : 359.96, Alt : 30.8999996185, Lat : 49.28357, Lng : -123.1150201, Q1 : 0.999963462353, Q2 : -0.00649071345106, Q3 : -0.00554994819686, Q4 : -0.000336113327648}
2019-04-14 15:56:12.12: SIM {TimeUS : 44134839, Roll : -0.55, Pitch : -0.43, Yaw : 359.95, Alt : 31.0599994659, Lat : 49.2835701, Lng : -123.1150202, Q1 : 0.999980807304, Q2 : -0.00488056102768, Q3 : -0.00379713391885, Q4 : -0.000416557013523}
2019-04-14 15:56:12.21: SIM {TimeUS : 44234799, Roll : -0.35, Pitch : -0.23, Yaw : 359.94, Alt : 31.2199993134, Lat : 49.2835701, Lng : -123.1150202, Q1 : 0.999993145466, Q2 : -0.00306089082733, Q3 : -0.00202463753521, Q4 : -0.000482210511109}
2019-04-14 15:56:12.31: SIM {TimeUS : 44334759, Roll : -0.16, Pitch : -0.07, Yaw : 359.93, Alt : 31.3799991608, Lat : 49.2835702, Lng : -123.1150203, Q1 : 0.999998629093, Q2 : -0.0014091291232, Q3 : -0.000663937767968, Q4 : -0.000534586142749}
2019-04-14 15:56:12.41: SIM {TimeUS : 44434719, Roll : -0.01, Pitch : 0.0, Yaw : 359.93, Alt : 31.5499992371, Lat : 49.2835702, Lng : -123.1150204, Q1 : 0.999999821186, Q2 : -9.23485786188e-05, Q3 : -2.58353447862e-05, Q4 : -0.000571333803236}
2019-04-14 15:56:12.51: SIM {TimeUS : 44534679, Roll : 0.06, Pitch : 0.02, Yaw : 359.93, Alt : 31.7299995422, Lat : 49.2835703, Lng : -123.1150205, Q1 : 0.999999642372, Q2 : 0.000604168279096, Q3 : 0.000198913374334, Q4 : -0.000587250455283}
2019-04-14 15:56:12.61: SIM {TimeUS : 44634639, Roll : 0.07, Pitch : 0.02, Yaw : 359.93, Alt : 31.9099998474, Lat : 49.2835703, Lng : -123.1150206, Q1 : 0.999999582767, Q2 : 0.000688166648615, Q3 : 0.000199111673282, Q4 : -0.000587524089497}
2019-04-14 15:56:12.71: SIM {TimeUS : 44734599, Roll : 0.06, Pitch : 0.0, Yaw : 359.93, Alt : 32.0900001526, Lat : 49.2835703, Lng : -123.1150206, Q1 : 0.999999701977, Q2 : 0.000536952575203, Q3 : 6.94094705977e-05, Q4 : -0.000571672164369}
2019-04-14 15:56:12.81: SIM {TimeUS : 44834559, Roll : 0.05, Pitch : 0.0, Yaw : 359.93, Alt : 32.2799987793, Lat : 49.2835703, Lng : -123.1150207, Q1 : 0.999999701977, Q2 : 0.00050392880803, Q3 : 4.16400362155e-05, Q4 : -0.000552097510081}
2019-04-14 15:56:12.91: SIM {TimeUS : 44934519, Roll : 0.06, Pitch : 0.01, Yaw : 359.93, Alt : 32.4700012207, Lat : 49.2835703, Lng : -123.1150207, Q1 : 0.999999701977, Q2 : 0.000597713689785, Q3 : 0.000164415076142, Q4 : -0.000528060947545}
2019-04-14 15:56:13.01: SIM {TimeUS : 45034479, Roll : 0.09, Pitch : 0.03, Yaw : 359.94, Alt : 32.6699981689, Lat : 49.2835703, Lng : -123.1150208, Q1 : 0.999999463558, Q2 : 0.000872541684657, Q3 : 0.000291954958811, Q4 : -0.000512761704158}
2019-04-14 15:56:13.11: SIM {TimeUS : 45134439, Roll : 0.13, Pitch : 0.05, Yaw : 359.94, Alt : 32.8699989319, Lat : 49.2835703, Lng : -123.1150208, Q1 : 0.999999046326, Q2 : 0.00120035908185, Q3 : 0.000482921954244, Q4 : -0.000502535200212}
2019-04-14 15:56:13.21: SIM {TimeUS : 45234399, Roll : 0.16, Pitch : 0.09, Yaw : 359.94, Alt : 33.0699996948, Lat : 49.2835704, Lng : -123.1150208, Q1 : 0.999998569489, Q2 : 0.00142648105975, Q3 : 0.000790007528849, Q4 : -0.000497683591675}
2019-04-14 15:56:13.31: SIM {TimeUS : 45334359, Roll : 0.16, Pitch : 0.12, Yaw : 359.94, Alt : 33.2700004578, Lat : 49.2835704, Lng : -123.1150209, Q1 : 0.999998152256, Q2 : 0.00146188877989, Q3 : 0.00112729030661, Q4 : -0.000497604603879}
2019-04-14 15:56:13.41: SIM {TimeUS : 45434319, Roll : 0.15, Pitch : 0.15, Yaw : 359.94, Alt : 33.4799995422, Lat : 49.2835704, Lng : -123.1150209, Q1 : 0.999998033047, Q2 : 0.00136821996421, Q3 : 0.00137563818134, Q4 : -0.000497670902405}
2019-04-14 15:56:13.51: SIM {TimeUS : 45534279, Roll : 0.14, Pitch : 0.17, Yaw : 359.94, Alt : 33.6800003052, Lat : 49.2835704, Lng : -123.1150209, Q1 : 0.999997854233, Q2 : 0.00128557789139, Q3 : 0.00156573811546, Q4 : -0.000498759036418}
2019-04-14 15:56:13.61: SIM {TimeUS : 45634239, Roll : 0.15, Pitch : 0.17, Yaw : 359.94, Alt : 33.8899993896, Lat : 49.2835704, Lng : -123.1150209, Q1 : 0.999997794628, Q2 : 0.00132862001192, Q3 : 0.00155182997696, Q4 : -0.000500238093082}
2019-04-14 15:56:13.71: SIM {TimeUS : 45734199, Roll : 0.15, Pitch : 0.16, Yaw : 359.94, Alt : 34.0999984741, Lat : 49.2835704, Lng : -123.1150209, Q1 : 0.999997913837, Q2 : 0.00132892630063, Q3 : 0.00147501740139, Q4 : -0.000510012614541}
2019-04-14 15:56:13.81: SIM {TimeUS : 45834159, Roll : 0.13, Pitch : 0.15, Yaw : 359.93, Alt : 34.3100013733, Lat : 49.2835706, Lng : -123.1150209, Q1 : 0.999998211861, Q2 : 0.00115216127597, Q3 : 0.00139050150756, Q4 : -0.000531059224159}
2019-04-14 15:56:13.91: SIM {TimeUS : 45934119, Roll : 0.11, Pitch : 0.11, Yaw : 359.93, Alt : 34.5200004578, Lat : 49.2835706, Lng : -123.1150209, Q1 : 0.999998867512, Q2 : 0.000987034640275, Q3 : 0.00101586023811, Q4 : -0.000546731287614}
2019-04-14 15:56:14.01: SIM {TimeUS : 46034079, Roll : 0.09, Pitch : 0.05, Yaw : 359.93, Alt : 34.7400016785, Lat : 49.2835706, Lng : -123.1150209, Q1 : 0.999999344349, Q2 : 0.000835240643937, Q3 : 0.000502128852531, Q4 : -0.0005706170341}
2019-04-14 15:56:14.11: SIM {TimeUS : 46134039, Roll : 0.07, Pitch : 0.02, Yaw : 359.93, Alt : 34.9500007629, Lat : 49.2835706, Lng : -123.1150209, Q1 : 0.999999582767, Q2 : 0.000683651538566, Q3 : 0.00018805853324, Q4 : -0.000608917383943}
2019-04-14 15:56:14.22: SIM {TimeUS : 46234832, Roll : 0.06, Pitch : 0.01, Yaw : 359.92, Alt : 35.1699981689, Lat : 49.2835706, Lng : -123.1150209, Q1 : 0.999999642372, Q2 : 0.000541262619663, Q3 : 9.50685644057e-05, Q4 : -0.000663630431518}
2019-04-14 15:56:14.31: SIM {TimeUS : 46334792, Roll : 0.05, Pitch : 0.02, Yaw : 359.91, Alt : 35.3899993896, Lat : 49.2835706, Lng : -123.1150208, Q1 : 0.999999582767, Q2 : 0.000499370857142, Q3 : 0.000220478948904, Q4 : -0.000725864374544}
2019-04-14 15:56:14.41: SIM {TimeUS : 46434752, Roll : 0.05, Pitch : 0.03, Yaw : 359.91, Alt : 35.5999984741, Lat : 49.2835706, Lng : -123.1150208, Q1 : 0.999999582767, Q2 : 0.000438247225247, Q3 : 0.000317025318509, Q4 : -0.000778690504376}
2019-04-14 15:56:14.51: SIM {TimeUS : 46534712, Roll : 0.03, Pitch : 0.04, Yaw : 359.9, Alt : 35.8199996948, Lat : 49.2835706, Lng : -123.1150208, Q1 : 0.999999523163, Q2 : 0.000262938498054, Q3 : 0.000406552804634, Q4 : -0.000822483329102}
2019-04-14 15:56:14.61: SIM {TimeUS : 46634672, Roll : 0.0, Pitch : 0.05, Yaw : 359.9, Alt : 36.0400009155, Lat : 49.2835706, Lng : -123.1150208, Q1 : 0.999999523163, Q2 : 7.00849996065e-05, Q3 : 0.000499911955558, Q4 : -0.000862128217705}
2019-04-14 15:56:14.71: SIM {TimeUS : 46734632, Roll : 0.0, Pitch : 0.07, Yaw : 359.89, Alt : 36.2599983215, Lat : 49.2835706, Lng : -123.1150208, Q1 : 0.999999403954, Q2 : -3.65815649275e-05, Q3 : 0.000655518728308, Q4 : -0.000892046198715}
2019-04-14 15:56:14.81: SIM {TimeUS : 46834592, Roll : -0.01, Pitch : 0.07, Yaw : 359.89, Alt : 36.4900016785, Lat : 49.2835704, Lng : -123.1150208, Q1 : 0.999999403954, Q2 : -0.000140282747452, Q3 : 0.000627187779173, Q4 : -0.000910269503947}
2019-04-14 15:56:14.91: SIM {TimeUS : 46934552, Roll : -0.02, Pitch : 0.05, Yaw : 359.89, Alt : 36.7099990845, Lat : 49.2835704, Lng : -123.1150207, Q1 : 0.999999403954, Q2 : -0.000222757211304, Q3 : 0.00052223354578, Q4 : -0.000924509193283}
2019-04-14 15:56:15.01: SIM {TimeUS : 47034512, Roll : -0.02, Pitch : 0.04, Yaw : 359.89, Alt : 36.9300003052, Lat : 49.2835704, Lng : -123.1150207, Q1 : 0.999999463558, Q2 : -0.000258311833022, Q3 : 0.000370574678527, Q4 : -0.00093196000671}
2019-04-14 15:56:15.11: SIM {TimeUS : 47134472, Roll : -0.02, Pitch : 0.02, Yaw : 359.89, Alt : 37.1599998474, Lat : 49.2835704, Lng : -123.1150207, Q1 : 0.999999523163, Q2 : -0.000209181234823, Q3 : 0.000196238397621, Q4 : -0.000930413254537}
2019-04-14 15:56:15.21: SIM {TimeUS : 47234432, Roll : 0.0, Pitch : 0.0, Yaw : 359.89, Alt : 37.3800010681, Lat : 49.2835704, Lng : -123.1150207, Q1 : 0.999999582767, Q2 : -1.27420080389e-05, Q3 : 4.6929326345e-05, Q4 : -0.000925450178329}
2019-04-14 15:56:15.31: SIM {TimeUS : 47334392, Roll : 0.0, Pitch : -0.01, Yaw : 359.89, Alt : 37.6100006104, Lat : 49.2835704, Lng : -123.1150207, Q1 : 0.999999582767, Q2 : 3.46300657839e-05, Q3 : -0.000167793550645, Q4 : -0.000915053009521}
2019-04-14 15:56:15.41: SIM {TimeUS : 47434352, Roll : -0.01, Pitch : -0.05, Yaw : 359.89, Alt : 37.8300018311, Lat : 49.2835704, Lng : -123.1150207, Q1 : 0.999999523163, Q2 : -0.000116226168757, Q3 : -0.000453864020528, Q4 : -0.000904645363335}
2019-04-14 15:56:15.51: SIM {TimeUS : 47534312, Roll : -0.04, Pitch : -0.07, Yaw : 359.89, Alt : 38.0600013733, Lat : 49.2835704, Lng : -123.1150207, Q1 : 0.999999284744, Q2 : -0.000436569243902, Q3 : -0.000659960031044, Q4 : -0.000907562032808}
2019-04-14 15:56:15.61: SIM {TimeUS : 47634272, Roll : -0.09, Pitch : -0.08, Yaw : 359.89, Alt : 38.2900009155, Lat : 49.2835704, Lng : -123.1150207, Q1 : 0.999998986721, Q2 : -0.000796378822997, Q3 : -0.000726711296011, Q4 : -0.000930329493713}
2019-04-14 15:56:15.71: SIM {TimeUS : 47734232, Roll : -0.11, Pitch : -0.08, Yaw : 359.89, Alt : 38.5200004578, Lat : 49.2835704, Lng : -123.1150207, Q1 : 0.999998748302, Q2 : -0.00103532779031, Q3 : -0.000740882358514, Q4 : -0.000959113473073}
2019-04-14 15:56:15.81: SIM {TimeUS : 47834192, Roll : -0.12, Pitch : -0.07, Yaw : 359.88, Alt : 38.7400016785, Lat : 49.2835704, Lng : -123.1150206, Q1 : 0.999998688698, Q2 : -0.0011095587397, Q3 : -0.000682083016727, Q4 : -0.000986556406133}
2019-04-14 15:56:15.91: SIM {TimeUS : 47934152, Roll : -0.11, Pitch : -0.05, Yaw : 359.88, Alt : 38.9700012207, Lat : 49.2835704, Lng : -123.1150206, Q1 : 0.999998867512, Q2 : -0.000973873306066, Q3 : -0.00048435467761, Q4 : -0.00101776444353}
2019-04-14 15:56:16.01: SIM {TimeUS : 48034112, Roll : -0.08, Pitch : -0.04, Yaw : 359.87, Alt : 39.2000007629, Lat : 49.2835704, Lng : -123.1150206, Q1 : 0.99999910593, Q2 : -0.000733115070034, Q3 : -0.00041631856584, Q4 : -0.00104983407073}
2019-04-14 15:56:16.11: SIM {TimeUS : 48134072, Roll : -0.06, Pitch : -0.05, Yaw : 359.87, Alt : 39.4300003052, Lat : 49.2835704, Lng : -123.1150206, Q1 : 0.999999165535, Q2 : -0.000543832662515, Q3 : -0.000449998333352, Q4 : -0.0010907643009}
2019-04-14 15:56:16.21: SIM {TimeUS : 48234032, Roll : -0.05, Pitch : -0.03, Yaw : 359.87, Alt : 39.6599998474, Lat : 49.2835704, Lng : -123.1150206, Q1 : 0.99999922514, Q2 : -0.000442647666205, Q3 : -0.000313962635119, Q4 : -0.00112710054964}
2019-04-14 15:56:16.32: SIM {TimeUS : 48334825, Roll : -0.06, Pitch : 0.0, Yaw : 359.86, Alt : 39.9000015259, Lat : 49.2835704, Lng : -123.1150206, Q1 : 0.999999165535, Q2 : -0.000567962764762, Q3 : -7.00824457454e-05, Q4 : -0.00115998717956}
2019-04-14 15:56:16.41: SIM {TimeUS : 48434785, Roll : -0.07, Pitch : 0.01, Yaw : 359.86, Alt : 40.1300010681, Lat : 49.2835704, Lng : -123.1150206, Q1 : 0.99999910593, Q2 : -0.000618843827397, Q3 : 0.000169521896169, Q4 : -0.00119125598576}
2019-04-14 15:56:16.51: SIM {TimeUS : 48534745, Roll : -0.06, Pitch : 0.05, Yaw : 359.85, Alt : 40.3600006104, Lat : 49.2835704, Lng : -123.1150207, Q1 : 0.999998986721, Q2 : -0.000524197530467, Q3 : 0.000457332556834, Q4 : -0.00122552004177}
2019-04-14 15:56:16.61: SIM {TimeUS : 48634705, Roll : -0.04, Pitch : 0.06, Yaw : 359.85, Alt : 40.5900001526, Lat : 49.2835704, Lng : -123.1150207, Q1 : 0.999999046326, Q2 : -0.000377793272492, Q3 : 0.000535196333658, Q4 : -0.00124916154891}
2019-04-14 15:56:16.71: SIM {TimeUS : 48734665, Roll : 0.0, Pitch : 0.06, Yaw : 359.85, Alt : 40.8199996948, Lat : 49.2835704, Lng : -123.1150207, Q1 : 0.999999046326, Q2 : -7.55993460189e-05, Q3 : 0.000542307330761, Q4 : -0.00126226083376}
2019-04-14 15:56:16.81: SIM {TimeUS : 48834625, Roll : 0.03, Pitch : 0.07, Yaw : 359.85, Alt : 41.0499992371, Lat : 49.2835706, Lng : -123.1150207, Q1 : 0.999998927116, Q2 : 0.000293138291454, Q3 : 0.000676124356687, Q4 : -0.00127010513097}
2019-04-14 15:56:16.91: SIM {TimeUS : 48934585, Roll : 0.09, Pitch : 0.1, Yaw : 359.85, Alt : 41.2900009155, Lat : 49.2835706, Lng : -123.1150207, Q1 : 0.999998450279, Q2 : 0.000787216704339, Q3 : 0.00091175083071, Q4 : -0.00127849553246}
2019-04-14 15:56:17.01: SIM {TimeUS : 49034545, Roll : 0.12, Pitch : 0.13, Yaw : 359.85, Alt : 41.5200004578, Lat : 49.2835706, Lng : -123.1150207, Q1 : 0.999997913837, Q2 : 0.00108177552465, Q3 : 0.00113759795204, Q4 : -0.00129084021319}
2019-04-14 15:56:17.11: SIM {TimeUS : 49134505, Roll : 0.1, Pitch : 0.14, Yaw : 359.85, Alt : 41.75, Lat : 49.2835706, Lng : -123.1150207, Q1 : 0.999997913837, Q2 : 0.000957394368015, Q3 : 0.00128544971813, Q4 : -0.0012978122104}
2019-04-14 15:56:17.21: SIM {TimeUS : 49234465, Roll : 0.05, Pitch : 0.15, Yaw : 359.84, Alt : 41.9900016785, Lat : 49.2835706, Lng : -123.1150207, Q1 : 0.999998092651, Q2 : 0.000493619241752, Q3 : 0.0013607009314, Q4 : -0.00131191604305}
2019-04-14 15:56:17.31: SIM {TimeUS : 49334425, Roll : 0.0, Pitch : 0.15, Yaw : 359.84, Alt : 42.2200012207, Lat : 49.2835706, Lng : -123.1150207, Q1 : 0.999998211861, Q2 : 2.26093252422e-05, Q3 : 0.00136375625152, Q4 : -0.00133248884231}
2019-04-14 15:56:17.41: SIM {TimeUS : 49434385, Roll : -0.02, Pitch : 0.13, Yaw : 359.84, Alt : 42.4599990845, Lat : 49.2835706, Lng : -123.1150207, Q1 : 0.999998390675, Q2 : -0.000207686491194, Q3 : 0.00115261401515, Q4 : -0.00135288678575}
2019-04-14 15:56:17.51: SIM {TimeUS : 49534345, Roll : -0.02, Pitch : 0.09, Yaw : 359.84, Alt : 42.6899986267, Lat : 49.2835706, Lng : -123.1150207, Q1 : 0.999998688698, Q2 : -0.000228496894124, Q3 : 0.000841896573547, Q4 : -0.00137094117235}
2019-04-14 15:56:17.61: SIM {TimeUS : 49634305, Roll : -0.01, Pitch : 0.09, Yaw : 359.84, Alt : 42.9300003052, Lat : 49.2835706, Lng : -123.1150207, Q1 : 0.999998688698, Q2 : -0.000112130554044, Q3 : 0.000833560538013, Q4 : -0.00139333563857}
2019-04-14 15:56:17.71: SIM {TimeUS : 49734265, Roll : 0.02, Pitch : 0.11, Yaw : 359.83, Alt : 43.1599998474, Lat : 49.2835706, Lng : -123.1150207, Q1 : 0.999998450279, Q2 : 0.000204850628506, Q3 : 0.0010334784165, Q4 : -0.00143005454447}
2019-04-14 15:56:17.81: SIM {TimeUS : 49834225, Roll : 0.07, Pitch : 0.14, Yaw : 359.83, Alt : 43.4000015259, Lat : 49.2835706, Lng : -123.1150207, Q1 : 0.999997913837, Q2 : 0.000694706221111, Q3 : 0.00124365102965, Q4 : -0.00146092916839}
2019-04-14 15:56:17.91: SIM {TimeUS : 49934185, Roll : 0.12, Pitch : 0.13, Yaw : 359.82, Alt : 43.6300010681, Lat : 49.2835704, Lng : -123.1150207, Q1 : 0.99999755621, Q2 : 0.00107659306377, Q3 : 0.00120179506484, Q4 : -0.00148984917905}
2019-04-14 15:56:18.01: SIM {TimeUS : 50034145, Roll : 0.12, Pitch : 0.11, Yaw : 359.82, Alt : 43.8699989319, Lat : 49.2835704, Lng : -123.1150207, Q1 : 0.999997675419, Q2 : 0.00112084986176, Q3 : 0.00103751558345, Q4 : -0.00152538018301}
2019-04-14 15:56:18.11: SIM {TimeUS : 50134105, Roll : 0.08, Pitch : 0.09, Yaw : 359.82, Alt : 44.0999984741, Lat : 49.2835704, Lng : -123.1150207, Q1 : 0.999998152256, Q2 : 0.000759839138482, Q3 : 0.000867044960614, Q4 : -0.00154912797734}
2019-04-14 15:56:18.21: SIM {TimeUS : 50234065, Roll : 0.02, Pitch : 0.08, Yaw : 359.82, Alt : 44.3400001526, Lat : 49.2835704, Lng : -123.1150207, Q1 : 0.999998450279, Q2 : 0.000240919049247, Q3 : 0.000740960473195, Q4 : -0.00156953383703}
2019-04-14 15:56:18.31: SIM {TimeUS : 50334025, Roll : -0.01, Pitch : 0.08, Yaw : 359.81, Alt : 44.5699996948, Lat : 49.2835704, Lng : -123.1150207, Q1 : 0.999998450279, Q2 : -0.000125506296172, Q3 : 0.000738841423299, Q4 : -0.00159243110102}
2019-04-14 15:56:18.41: SIM {TimeUS : 50434818, Roll : -0.03, Pitch : 0.07, Yaw : 359.81, Alt : 44.8100013733, Lat : 49.2835704, Lng : -123.1150206, Q1 : 0.999998390675, Q2 : -0.000329632021021, Q3 : 0.000696066475939, Q4 : -0.00161566957831}
2019-04-14 15:56:18.51: SIM {TimeUS : 50534778, Roll : -0.03, Pitch : 0.05, Yaw : 359.81, Alt : 45.0499992371, Lat : 49.2835704, Lng : -123.1150206, Q1 : 0.999998450279, Q2 : -0.00033596274443, Q3 : 0.000494508596603, Q4 : -0.00164187769406}
2019-04-14 15:56:18.61: SIM {TimeUS : 50634738, Roll : -0.04, Pitch : 0.03, Yaw : 359.8, Alt : 45.2799987793, Lat : 49.2835704, Lng : -123.1150206, Q1 : 0.999998509884, Q2 : -0.000377823103918, Q3 : 0.000280716252746, Q4 : -0.00166898209136}
2019-04-14 15:56:18.71: SIM {TimeUS : 50734698, Roll : -0.03, Pitch : 0.01, Yaw : 359.8, Alt : 45.5200004578, Lat : 49.2835703, Lng : -123.1150206, Q1 : 0.999998509884, Q2 : -0.000325944769429, Q3 : 0.000108323059976, Q4 : -0.00169605505653}
2019-04-14 15:56:18.81: SIM {TimeUS : 50834658, Roll : -0.02, Pitch : 0.0, Yaw : 359.8, Alt : 45.75, Lat : 49.2835703, Lng : -123.1150206, Q1 : 0.999998509884, Q2 : -0.000193237530766, Q3 : 2.25650983339e-05, Q4 : -0.00172691582702}
2019-04-14 15:56:18.91: SIM {TimeUS : 50934618, Roll : -0.02, Pitch : 0.0, Yaw : 359.79, Alt : 45.9799995422, Lat : 49.2835703, Lng : -123.1150206, Q1 : 0.999998450279, Q2 : -0.000180933988304, Q3 : 5.12030310347e-05, Q4 : -0.00175789918285}
2019-04-14 15:56:19.01: SIM {TimeUS : 51034578, Roll : -0.02, Pitch : 0.0, Yaw : 359.79, Alt : 46.2099990845, Lat : 49.2835703, Lng : -123.1150206, Q1 : 0.999998390675, Q2 : -0.000258027808741, Q3 : 7.30214105715e-06, Q4 : -0.00178965379018}
2019-04-14 15:56:19.11: SIM {TimeUS : 51134538, Roll : -0.03, Pitch : -0.01, Yaw : 359.79, Alt : 46.4399986267, Lat : 49.2835703, Lng : -123.1150205, Q1 : 0.999998271465, Q2 : -0.00032212890801, Q3 : -0.000160521492944, Q4 : -0.0018227720866}
2019-04-14 15:56:19.21: SIM {TimeUS : 51234498, Roll : -0.03, Pitch : -0.03, Yaw : 359.78, Alt : 46.6599998474, Lat : 49.2835703, Lng : -123.1150205, Q1 : 0.999998211861, Q2 : -0.000315237703035, Q3 : -0.000304320274154, Q4 : -0.00185452052392}
2019-04-14 15:56:19.31: SIM {TimeUS : 51334458, Roll : -0.02, Pitch : -0.04, Yaw : 359.78, Alt : 46.8699989319, Lat : 49.2835703, Lng : -123.1150205, Q1 : 0.999998152256, Q2 : -0.000228810589761, Q3 : -0.000406155129895, Q4 : -0.00188643974252}
2019-04-14 15:56:19.41: SIM {TimeUS : 51434418, Roll : -0.02, Pitch : -0.05, Yaw : 359.78, Alt : 47.0800018311, Lat : 49.2835703, Lng : -123.1150205, Q1 : 0.999998033047, Q2 : -0.00025460094912, Q3 : -0.000445268757176, Q4 : -0.00191987142898}
2019-04-14 15:56:19.51: SIM {TimeUS : 51534378, Roll : -0.05, Pitch : -0.04, Yaw : 359.77, Alt : 47.2799987793, Lat : 49.2835703, Lng : -123.1150205, Q1 : 0.999997973442, Q2 : -0.000453645770904, Q3 : -0.000362717459211, Q4 : -0.0019489643164}
2019-04-14 15:56:19.61: SIM {TimeUS : 51634338, Roll : -0.08, Pitch : -0.03, Yaw : 359.77, Alt : 47.4700012207, Lat : 49.2835703, Lng : -123.1150205, Q1 : 0.999997735023, Q2 : -0.000744787452277, Q3 : -0.000318722683005, Q4 : -0.00197247718461}
2019-04-14 15:56:19.71: SIM {TimeUS : 51734298, Roll : -0.11, Pitch : -0.04, Yaw : 359.77, Alt : 47.6599998474, Lat : 49.2835703, Lng : -123.1150205, Q1 : 0.999997377396, Q2 : -0.00104104704224, Q3 : -0.000381400401238, Q4 : -0.00199579214677}
2019-04-14 15:56:19.81: SIM {TimeUS : 51834258, Roll : -0.15, Pitch : -0.06, Yaw : 359.76, Alt : 47.8300018311, Lat : 49.2835703, Lng : -123.1150205, Q1 : 0.999996840954, Q2 : -0.00137449696194, Q3 : -0.000562514353078, Q4 : -0.00202123471536}
2019-04-14 15:56:19.91: SIM {TimeUS : 51934218, Roll : -0.17, Pitch : -0.06, Yaw : 359.76, Alt : 47.9900016785, Lat : 49.2835703, Lng : -123.1150205, Q1 : 0.999996542931, Q2 : -0.00153320725076, Q3 : -0.000592613650952, Q4 : -0.00204770220444}
2019-04-14 15:56:20.01: SIM {TimeUS : 52034178, Roll : -0.16, Pitch : -0.06, Yaw : 359.76, Alt : 48.1399993896, Lat : 49.2835703, Lng : -123.1150205, Q1 : 0.999996721745, Q2 : -0.0014208953362, Q3 : -0.000530490302481, Q4 : -0.00207154988311}
2019-04-14 15:56:20.11: SIM {TimeUS : 52134138, Roll : -0.13, Pitch : -0.04, Yaw : 359.76, Alt : 48.2700004578, Lat : 49.2835703, Lng : -123.1150205, Q1 : 0.999997019768, Q2 : -0.00116169138346, Q3 : -0.000416532304371, Q4 : -0.00209425133653}
2019-04-14 15:56:20.21: SIM {TimeUS : 52234098, Roll : -0.1, Pitch : -0.03, Yaw : 359.75, Alt : 48.4000015259, Lat : 49.2835703, Lng : -123.1150205, Q1 : 0.999997258186, Q2 : -0.000930239795707, Q3 : -0.000342512823408, Q4 : -0.00211636628956}
2019-04-14 15:56:20.31: SIM {TimeUS : 52334058, Roll : -0.07, Pitch : -0.04, Yaw : 359.75, Alt : 48.5099983215, Lat : 49.2835703, Lng : -123.1150205, Q1 : 0.999997377396, Q2 : -0.000686763378326, Q3 : -0.000377900258172, Q4 : -0.00213912059553}
2019-04-14 15:56:20.42: SIM {TimeUS : 52434851, Roll : -0.04, Pitch : -0.05, Yaw : 359.75, Alt : 48.6100006104, Lat : 49.2835703, Lng : -123.1150205, Q1 : 0.999997496605, Q2 : -0.000404644088121, Q3 : -0.000457026646473, Q4 : -0.00216337898746}
2019-04-14 15:56:20.51: SIM {TimeUS : 52534811, Roll : -0.03, Pitch : -0.06, Yaw : 359.74, Alt : 48.7000007629, Lat : 49.2835703, Lng : -123.1150205, Q1 : 0.999997377396, Q2 : -0.000264072557911, Q3 : -0.000560757296626, Q4 : -0.00219461624511}
2019-04-14 15:56:20.61: SIM {TimeUS : 52634771, Roll : -0.03, Pitch : -0.07, Yaw : 359.74, Alt : 48.7799987793, Lat : 49.2835703, Lng : -123.1150206, Q1 : 0.999997258186, Q2 : -0.000279384432361, Q3 : -0.000669578264933, Q4 : -0.00222438992932}
2019-04-14 15:56:20.71: SIM {TimeUS : 52734731, Roll : -0.01, Pitch : -0.07, Yaw : 359.74, Alt : 48.8400001526, Lat : 49.2835703, Lng : -123.1150206, Q1 : 0.999997258186, Q2 : -9.11282841116e-05, Q3 : -0.000639576581307, Q4 : -0.0022497670725}
2019-04-14 15:56:20.81: SIM {TimeUS : 52834691, Roll : 0.01, Pitch : -0.05, Yaw : 359.73, Alt : 48.9000015259, Lat : 49.2835703, Lng : -123.1150206, Q1 : 0.999997258186, Q2 : 0.000152943204739, Q3 : -0.000498389417771, Q4 : -0.00227335724048}
2019-04-14 15:56:20.91: SIM {TimeUS : 52934651, Roll : 0.04, Pitch : -0.03, Yaw : 359.73, Alt : 48.9500007629, Lat : 49.2835703, Lng : -123.1150206, Q1 : 0.999997258186, Q2 : 0.000351026887074, Q3 : -0.000318772508763, Q4 : -0.00230036745779}
2019-04-14 15:56:21.01: SIM {TimeUS : 53034611, Roll : 0.06, Pitch : -0.04, Yaw : 359.73, Alt : 48.9900016785, Lat : 49.2835703, Lng : -123.1150206, Q1 : 0.999997079372, Q2 : 0.000593997887336, Q3 : -0.000380544690415, Q4 : -0.00232544890605}
2019-04-14 15:56:21.11: SIM {TimeUS : 53134571, Roll : 0.18, Pitch : -0.18, Yaw : 359.73, Alt : 49.0299987793, Lat : 49.2835703, Lng : -123.1150206, Q1 : 0.999994635582, Q2 : 0.00159310514573, Q3 : -0.00161328539252, Q4 : -0.00235184608027}
2019-04-14 15:56:21.21: SIM {TimeUS : 53234531, Roll : 0.43, Pitch : -0.55, Yaw : 359.72, Alt : 49.0600013733, Lat : 49.2835703, Lng : -123.1150206, Q1 : 0.999978244305, Q2 : 0.00375864678062, Q3 : -0.00487901084125, Q4 : -0.002371462062}
2019-04-14 15:56:21.31: SIM {TimeUS : 53334491, Roll : 0.81, Pitch : -1.15, Yaw : 359.71, Alt : 49.0900001526, Lat : 49.2835703, Lng : -123.1150206, Q1 : 0.99992108345, Q2 : 0.00709386728704, Q3 : -0.010090268217, Q4 : -0.00238026189618}
2019-04-14 15:56:21.41: SIM {TimeUS : 53434451, Roll : 1.32, Pitch : -1.91, Yaw : 359.7, Alt : 49.1100006104, Lat : 49.2835704, Lng : -123.1150206, Q1 : 0.999791204929, Q2 : 0.0115365255624, Q3 : -0.0167023800313, Q4 : -0.0023651116062}
2019-04-14 15:56:21.51: SIM {TimeUS : 53534411, Roll : 1.9, Pitch : -2.75, Yaw : 359.68, Alt : 49.1300010681, Lat : 49.2835704, Lng : -123.1150205, Q1 : 0.999569773674, Q2 : 0.0165674928576, Q3 : -0.0240922812372, Q4 : -0.00230935472064}
2019-04-14 15:56:21.61: SIM {TimeUS : 53634371, Roll : 2.46, Pitch : -3.55, Yaw : 359.67, Alt : 49.1500015259, Lat : 49.2835706, Lng : -123.1150205, Q1 : 0.999285280704, Q2 : 0.0214292872697, Q3 : -0.0310630127788, Q4 : -0.0022031518165}
2019-04-14 15:56:21.71: SIM {TimeUS : 53734331, Roll : 2.94, Pitch : -4.18, Yaw : 359.65, Alt : 49.1699981689, Lat : 49.2835708, Lng : -123.1150203, Q1 : 0.999001979828, Q2 : 0.0255663897842, Q3 : -0.0365697927773, Q4 : -0.00203111278825}
2019-04-14 15:56:21.81: SIM {TimeUS : 53834291, Roll : 3.3, Pitch : -4.64, Yaw : 359.65, Alt : 49.1800003052, Lat : 49.2835709, Lng : -123.1150201, Q1 : 0.998762071133, Q2 : 0.0286940410733, Q3 : -0.0405915118754, Q4 : -0.00180884962901}
2019-04-14 15:56:21.91: SIM {TimeUS : 53934251, Roll : 3.56, Pitch : -5.0, Yaw : 359.66, Alt : 49.1899986267, Lat : 49.2835712, Lng : -123.11502, Q1 : 0.998561441898, Q2 : 0.0309524629265, Q3 : -0.0437550768256, Q4 : -0.00156570167746}
2019-04-14 15:56:22.01: SIM {TimeUS : 54034211, Roll : 3.76, Pitch : -5.31, Yaw : 359.67, Alt : 49.2000007629, Lat : 49.2835715, Lng : -123.1150197, Q1 : 0.998387396336, Q2 : 0.0326503366232, Q3 : -0.0464202240109, Q4 : -0.00132081739139}
2019-04-14 15:56:22.11: SIM {TimeUS : 54134171, Roll : 3.93, Pitch : -5.62, Yaw : 359.68, Alt : 49.2099990845, Lat : 49.2835719, Lng : -123.1150193, Q1 : 0.998204708099, Q2 : 0.0341973006725, Q3 : -0.0491601713002, Q4 : -0.00107848353218}
2019-04-14 15:56:22.21: SIM {TimeUS : 54234131, Roll : 4.13, Pitch : -5.96, Yaw : 359.68, Alt : 49.2200012207, Lat : 49.2835722, Lng : -123.1150188, Q1 : 0.997994363308, Q2 : 0.0358967334032, Q3 : -0.0521344691515, Q4 : -0.000834377657156}
2019-04-14 15:56:22.31: SIM {TimeUS : 54334091, Roll : 4.34, Pitch : -6.28, Yaw : 359.69, Alt : 49.2200012207, Lat : 49.2835727, Lng : -123.1150183, Q1 : 0.997779548168, Q2 : 0.0376831181347, Q3 : -0.0549150817096, Q4 : -0.000574494013563}
2019-04-14 15:56:22.41: SIM {TimeUS : 54434051, Roll : 4.52, Pitch : -6.56, Yaw : 359.7, Alt : 49.2299995422, Lat : 49.2835733, Lng : -123.1150177, Q1 : 0.997584700584, Q2 : 0.0392462350428, Q3 : -0.0573101378977, Q4 : -0.000331003626343}
2019-04-14 15:56:22.52: SIM {TimeUS : 54534844, Roll : 4.66, Pitch : -6.78, Yaw : 359.71, Alt : 49.2400016785, Lat : 49.2835739, Lng : -123.1150171, Q1 : 0.997421979904, Q2 : 0.0405117347836, Q3 : -0.0592301562428, Q4 : -0.000104742182884}
2019-04-14 15:56:22.61: SIM {TimeUS : 54634804, Roll : 4.76, Pitch : -6.92, Yaw : 359.72, Alt : 49.2400016785, Lat : 49.2835746, Lng : -123.1150163, Q1 : 0.997313976288, Q2 : 0.0413090400398, Q3 : -0.0604842938483, Q4 : 8.87537389644e-05}
2019-04-14 15:56:22.71: SIM {TimeUS : 54734764, Roll : 4.82, Pitch : -7.04, Yaw : 359.72, Alt : 49.2400016785, Lat : 49.2835753, Lng : -123.1150156, Q1 : 0.997228264809, Q2 : 0.0418961644173, Q3 : -0.061486184597, Q4 : 0.000224702293053}
2019-04-14 15:56:22.81: SIM {TimeUS : 54834724, Roll : 4.9, Pitch : -7.16, Yaw : 359.72, Alt : 49.25, Lat : 49.2835762, Lng : -123.1150147, Q1 : 0.997138857841, Q2 : 0.04252519086, Q3 : -0.0624948441982, Q4 : 0.000313942175126}
2019-04-14 15:56:22.91: SIM {TimeUS : 54934684, Roll : 5.07, Pitch : -7.26, Yaw : 359.74, Alt : 49.25, Lat : 49.283577, Lng : -123.1150138, Q1 : 0.997013509274, Q2 : 0.0440466292202, Q3 : -0.0634316504002, Q4 : 0.000611542898696}
2019-04-14 15:56:23.01: SIM {TimeUS : 55034644, Roll : 5.5, Pitch : -7.29, Yaw : 0.09, Alt : 49.2599983215, Lat : 49.283578, Lng : -123.1150129, Q1 : 0.996820807457, Q2 : 0.0479635335505, Q3 : -0.0635053217411, Q4 : 0.00385325565003}
2019-04-14 15:56:23.11: SIM {TimeUS : 55134604, Roll : 6.13, Pitch : -7.32, Yaw : 1.41, Alt : 49.2599983215, Lat : 49.2835788, Lng : -123.1150119, Q1 : 0.996410191059, Q2 : 0.0542025752366, Q3 : -0.0630993694067, Q4 : 0.0157234668732}
2019-04-14 15:56:23.21: SIM {TimeUS : 55234564, Roll : 6.62, Pitch : -7.59, Yaw : 4.25, Alt : 49.2599983215, Lat : 49.2835799, Lng : -123.1150107, Q1 : 0.99531006813, Q2 : 0.0600529052317, Q3 : -0.0639216825366, Q4 : 0.0408114604652}
2019-04-14 15:56:23.31: SIM {TimeUS : 55334524, Roll : 6.67, Pitch : -8.2, Yaw : 8.69, Alt : 49.2599983215, Lat : 49.283581, Lng : -123.1150095, Q1 : 0.992569386959, Q2 : 0.0632837936282, Q3 : -0.0668249875307, Q4 : 0.0795965567231}
2019-04-14 15:56:23.41: SIM {TimeUS : 55434484, Roll : 6.06, Pitch : -9.11, Yaw : 14.54, Alt : 49.2599983215, Lat : 49.283582, Lng : -123.1150082, Q1 : 0.986903071404, Q2 : 0.0623853504658, Q3 : -0.072032481432, Q4 : 0.130160361528}
2019-04-14 15:56:23.51: SIM {TimeUS : 55534444, Roll : 4.52, Pitch : -10.19, Yaw : 21.42, Alt : 49.2599983215, Lat : 49.2835831, Lng : -123.1150068, Q1 : 0.977270185947, Q2 : 0.0551646985114, Q3 : -0.0799426585436, Q4 : 0.188438549638}
2019-04-14 15:56:23.61: SIM {TimeUS : 55634404, Roll : 2.06, Pitch : -11.18, Yaw : 28.61, Alt : 49.2700004578, Lat : 49.2835843, Lng : -123.1150053, Q1 : 0.963787913322, Q2 : 0.0414597913623, Q3 : -0.0900188535452, Q4 : 0.247569218278}
2019-04-14 15:56:23.71: SIM {TimeUS : 55734364, Roll : -0.84, Pitch : -11.87, Yaw : 35.3, Alt : 49.2700004578, Lat : 49.2835855, Lng : -123.1150037, Q1 : 0.947994112968, Q2 : 0.0243749152869, Q3 : -0.100813724101, Q4 : 0.300914794207}
2019-04-14 15:56:23.81: SIM {TimeUS : 55834324, Roll : -3.56, Pitch : -12.21, Yaw : 40.83, Alt : 49.2700004578, Lat : 49.2835868, Lng : -123.1150021, Q1 : 0.932569801807, Q2 : 0.00808908883482, Q3 : -0.110456995666, Q4 : 0.343580216169}
2019-04-14 15:56:23.91: SIM {TimeUS : 55934284, Roll : -5.57, Pitch : -12.31, Yaw : 44.72, Alt : 49.2700004578, Lat : 49.2835883, Lng : -123.1150005, Q1 : 0.920356154442, Q2 : -0.00394555320963, Q3 : -0.117488488555, Q4 : 0.372995197773}
2019-04-14 15:56:24.01: SIM {TimeUS : 56034244, Roll : -6.6, Pitch : -12.35, Yaw : 46.86, Alt : 49.2700004578, Lat : 49.2835897, Lng : -123.1149988, Q1 : 0.913139939308, Q2 : -0.0098516587168, Q3 : -0.12134218961, Q4 : 0.389043152332}
2019-04-14 15:56:24.11: SIM {TimeUS : 56134204, Roll : -6.68, Pitch : -12.49, Yaw : 47.42, Alt : 49.2700004578, Lat : 49.2835914, Lng : -123.1149972, Q1 : 0.911129295826, Q2 : -0.00942256581038, Q3 : -0.122768372297, Q4 : 0.393297016621}
2019-04-14 15:56:24.21: SIM {TimeUS : 56234164, Roll : -6.01, Pitch : -12.82, Yaw : 46.69, Alt : 49.2700004578, Lat : 49.2835932, Lng : -123.1149955, Q1 : 0.913428664207, Q2 : -0.00362550653517, Q3 : -0.123058773577, Q4 : 0.387932360172}
2019-04-14 15:56:24.31: SIM {TimeUS : 56334124, Roll : -4.82, Pitch : -13.36, Yaw : 44.99, Alt : 49.2700004578, Lat : 49.283595, Lng : -123.1149938, Q1 : 0.918674349785, Q2 : 0.00585144199431, Q3 : -0.123399563134, Q4 : 0.375200986862}
2019-04-14 15:56:24.41: SIM {TimeUS : 56434084, Roll : -3.35, Pitch : -14.01, Yaw : 42.63, Alt : 49.2700004578, Lat : 49.2835968, Lng : -123.1149921, Q1 : 0.925522148609, Q2 : 0.0172590278089, Q3 : -0.12412776798, Q4 : 0.357355803251}
2019-04-14 15:56:24.51: SIM {TimeUS : 56534044, Roll : -1.76, Pitch : -14.65, Yaw : 39.91, Alt : 49.2799987793, Lat : 49.2835988, Lng : -123.1149904, Q1 : 0.932824552059, Q2 : 0.0291264504194, Q3 : -0.125082090497, Q4 : 0.336666762829}
2019-04-14 15:56:24.62: SIM {TimeUS : 56634837, Roll : -0.21, Pitch : -15.16, Yaw : 37.12, Alt : 49.2799987793, Lat : 49.2836007, Lng : -123.1149885, Q1 : 0.939756453037, Q2 : 0.0402470901608, Q3 : -0.125696331263, Q4 : 0.315338462591}
2019-04-14 15:56:24.71: SIM {TimeUS : 56734797, Roll : 1.13, Pitch : -15.48, Yaw : 34.61, Alt : 49.2799987793, Lat : 49.2836029, Lng : -123.1149866, Q1 : 0.945567071438, Q2 : 0.049449313432, Q3 : -0.125690624118, Q4 : 0.296073615551}
2019-04-14 15:56:24.81: SIM {TimeUS : 56834757, Roll : 2.17, Pitch : -15.62, Yaw : 32.6, Alt : 49.2799987793, Lat : 49.283605, Lng : -123.1149846, Q1 : 0.949980199337, Q2 : 0.0561891049147, Q3 : -0.125166356564, Q4 : 0.280559778214}
2019-04-14 15:56:24.91: SIM {TimeUS : 56934717, Roll : 2.81, Pitch : -15.63, Yaw : 31.24, Alt : 49.2799987793, Lat : 49.2836072, Lng : -123.1149824, Q1 : 0.952923178673, Q2 : 0.0600582323968, Q3 : -0.124391295016, Q4 : 0.269920766354}
2019-04-14 15:56:25.01: SIM {TimeUS : 57034677, Roll : 3.05, Pitch : -15.59, Yaw : 30.56, Alt : 49.2799987793, Lat : 49.2836095, Lng : -123.1149802, Q1 : 0.954428195953, Q2 : 0.0612157918513, Q3 : -0.123879991472, Q4 : 0.264524489641}
2019-04-14 15:56:25.11: SIM {TimeUS : 57134637, Roll : 2.91, Pitch : -15.57, Yaw : 30.52, Alt : 49.2799987793, Lat : 49.2836116, Lng : -123.1149778, Q1 : 0.954618275166, Q2 : 0.0599564090371, Q3 : -0.124059185386, Q4 : 0.264042586088}
2019-04-14 15:56:25.21: SIM {TimeUS : 57234597, Roll : 2.46, Pitch : -15.6, Yaw : 31.01, Alt : 49.2799987793, Lat : 49.283614, Lng : -123.1149754, Q1 : 0.953671276569, Q2 : 0.0567921176553, Q3 : -0.125099480152, Q4 : 0.267648845911}
2019-04-14 15:56:25.31: SIM {TimeUS : 57334557, Roll : 1.8, Pitch : -15.68, Yaw : 31.89, Alt : 49.2799987793, Lat : 49.2836164, Lng : -123.1149728, Q1 : 0.951805710793, Q2 : 0.0524907931685, Q3 : -0.126939937472, Q4 : 0.274220526218}
2019-04-14 15:56:25.41: SIM {TimeUS : 57434517, Roll : 1.04, Pitch : -15.82, Yaw : 32.99, Alt : 49.2799987793, Lat : 49.2836188, Lng : -123.1149701, Q1 : 0.949302017689, Q2 : 0.0477263368666, Q3 : -0.12942288816, Q4 : 0.282484829426}
2019-04-14 15:56:25.51: SIM {TimeUS : 57534477, Roll : 0.29, Pitch : -15.97, Yaw : 34.16, Alt : 49.2799987793, Lat : 49.2836212, Lng : -123.1149675, Q1 : 0.946502923965, Q2 : 0.0432130582631, Q3 : -0.132056877017, Q4 : 0.291248828173}
2019-04-14 15:56:25.61: SIM {TimeUS : 57634437, Roll : -0.37, Pitch : -16.1, Yaw : 35.26, Alt : 49.2799987793, Lat : 49.2836236, Lng : -123.1149648, Q1 : 0.94376462698, Q2 : 0.0393746942282, Q3 : -0.134463533759, Q4 : 0.299462080002}
2019-04-14 15:56:25.71: SIM {TimeUS : 57734397, Roll : -0.88, Pitch : -16.2, Yaw : 36.17, Alt : 49.2799987793, Lat : 49.2836262, Lng : -123.1149621, Q1 : 0.941410422325, Q2 : 0.0364834293723, Q3 : -0.136310786009, Q4 : 0.306324541569}
2019-04-14 15:56:25.81: SIM {TimeUS : 57834357, Roll : -1.2, Pitch : -16.25, Yaw : 36.83, Alt : 49.2799987793, Lat : 49.2836287, Lng : -123.1149593, Q1 : 0.939664185047, Q2 : 0.0347869992256, Q3 : -0.137452468276, Q4 : 0.31133249402}
2019-04-14 15:56:25.91: SIM {TimeUS : 57934317, Roll : -1.33, Pitch : -16.31, Yaw : 37.21, Alt : 49.2799987793, Lat : 49.2836312, Lng : -123.1149564, Q1 : 0.938609480858, Q2 : 0.0343186110258, Q3 : -0.138114377856, Q4 : 0.314259231091}
2019-04-14 15:56:26.01: SIM {TimeUS : 58034277, Roll : -1.3, Pitch : -16.36, Yaw : 37.31, Alt : 49.2799987793, Lat : 49.283634, Lng : -123.1149536, Q1 : 0.938253998756, Q2 : 0.0348590500653, Q3 : -0.138417899609, Q4 : 0.315126687288}
2019-04-14 15:56:26.11: SIM {TimeUS : 58134237, Roll : -1.14, Pitch : -16.41, Yaw : 37.18, Alt : 49.2799987793, Lat : 49.2836366, Lng : -123.1149507, Q1 : 0.938510537148, Q2 : 0.0361562371254, Q3 : -0.138492405415, Q4 : 0.314182430506}
2019-04-14 15:56:26.21: SIM {TimeUS : 58234197, Roll : -0.89, Pitch : -16.45, Yaw : 36.86, Alt : 49.2799987793, Lat : 49.2836395, Lng : -123.1149478, Q1 : 0.9392593503, Q2 : 0.0379146933556, Q3 : -0.138210549951, Q4 : 0.311852842569}
2019-04-14 15:56:26.31: SIM {TimeUS : 58334157, Roll : -0.57, Pitch : -16.48, Yaw : 36.42, Alt : 49.2799987793, Lat : 49.2836421, Lng : -123.1149449, Q1 : 0.940301418304, Q2 : 0.0400501899421, Q3 : -0.137740895152, Q4 : 0.30863699317}
2019-04-14 15:56:26.41: SIM {TimeUS : 58434117, Roll : -0.26, Pitch : -16.51, Yaw : 35.94, Alt : 49.2799987793, Lat : 49.2836451, Lng : -123.1149419, Q1 : 0.941462635994, Q2 : 0.0420992933214, Q3 : -0.137290596962, Q4 : 0.305003374815}
2019-04-14 15:56:26.51: SIM {TimeUS : 58534077, Roll : 0.03, Pitch : -16.54, Yaw : 35.46, Alt : 49.2900009155, Lat : 49.2836479, Lng : -123.1149389, Q1 : 0.942569255829, Q2 : 0.0440860316157, Q3 : -0.13695243001, Q4 : 0.301436066628}
2019-04-14 15:56:26.61: SIM {TimeUS : 58634037, Roll : 0.3, Pitch : -16.56, Yaw : 35.04, Alt : 49.2900009155, Lat : 49.2836507, Lng : -123.1149359, Q1 : 0.943521678448, Q2 : 0.0459059514105, Q3 : -0.136612072587, Q4 : 0.298323124647}
2019-04-14 15:56:26.72: SIM {TimeUS : 58734830, Roll : 0.5, Pitch : -16.58, Yaw : 34.72, Alt : 49.2900009155, Lat : 49.2836536, Lng : -123.1149327, Q1 : 0.944263041019, Q2 : 0.0471871383488, Q3 : -0.136377647519, Q4 : 0.295874595642}
2019-04-14 15:56:26.81: SIM {TimeUS : 58834790, Roll : 0.59, Pitch : -16.62, Yaw : 34.51, Alt : 49.2900009155, Lat : 49.2836566, Lng : -123.1149296, Q1 : 0.944722354412, Q2 : 0.0477877110243, Q3 : -0.136501684785, Q4 : 0.294250458479}
2019-04-14 15:56:26.91: SIM {TimeUS : 58934750, Roll : 0.6, Pitch : -16.67, Yaw : 34.42, Alt : 49.2900009155, Lat : 49.2836595, Lng : -123.1149265, Q1 : 0.944891214371, Q2 : 0.047856349498, Q3 : -0.136985629797, Q4 : 0.293471157551}
2019-04-14 15:56:27.01: SIM {TimeUS : 59034710, Roll : 0.53, Pitch : -16.75, Yaw : 34.43, Alt : 49.2900009155, Lat : 49.2836625, Lng : -123.1149233, Q1 : 0.944799661636, Q2 : 0.0475022047758, Q3 : -0.137780725956, Q4 : 0.293451219797}
2019-04-14 15:56:27.11: SIM {TimeUS : 59134670, Roll : 0.41, Pitch : -16.81, Yaw : 34.52, Alt : 49.2900009155, Lat : 49.2836655, Lng : -123.1149201, Q1 : 0.944535732269, Q2 : 0.0467874929309, Q3 : -0.138545095921, Q4 : 0.294055253267}
2019-04-14 15:56:27.21: SIM {TimeUS : 59234630, Roll : 0.27, Pitch : -16.86, Yaw : 34.67, Alt : 49.2900009155, Lat : 49.2836685, Lng : -123.1149168, Q1 : 0.944147050381, Q2 : 0.0459820665419, Q3 : -0.139247789979, Q4 : 0.295096695423}
2019-04-14 15:56:27.31: SIM {TimeUS : 59334590, Roll : 0.15, Pitch : -16.9, Yaw : 34.84, Alt : 49.2900009155, Lat : 49.2836714, Lng : -123.1149135, Q1 : 0.943696200848, Q2 : 0.0452552102506, Q3 : -0.139816537499, Q4 : 0.296379595995}
2019-04-14 15:56:27.41: SIM {TimeUS : 59434550, Roll : 0.04, Pitch : -16.92, Yaw : 35.02, Alt : 49.2900009155, Lat : 49.2836744, Lng : -123.1149102, Q1 : 0.943249106407, Q2 : 0.0446705445647, Q3 : -0.140194535255, Q4 : 0.297709941864}
2019-04-14 15:56:27.51: SIM {TimeUS : 59534510, Roll : -0.03, Pitch : -16.94, Yaw : 35.18, Alt : 49.2900009155, Lat : 49.2836776, Lng : -123.1149069, Q1 : 0.942844629288, Q2 : 0.0442491620779, Q3 : -0.140515059233, Q4 : 0.298900693655}
2019-04-14 15:56:27.61: SIM {TimeUS : 59634470, Roll : -0.08, Pitch : -16.96, Yaw : 35.3, Alt : 49.2900009155, Lat : 49.2836807, Lng : -123.1149036, Q1 : 0.942507565022, Q2 : 0.0440758243203, Q3 : -0.140788167715, Q4 : 0.299859106541}
2019-04-14 15:56:27.71: SIM {TimeUS : 59734430, Roll : -0.11, Pitch : -16.99, Yaw : 35.39, Alt : 49.2900009155, Lat : 49.2836838, Lng : -123.1149002, Q1 : 0.942275166512, Q2 : 0.0439509637654, Q3 : -0.141064316034, Q4 : 0.30047750473}
2019-04-14 15:56:27.81: SIM {TimeUS : 59834390, Roll : -0.13, Pitch : -17.02, Yaw : 35.42, Alt : 49.2999992371, Lat : 49.2836869, Lng : -123.1148969, Q1 : 0.942155063152, Q2 : 0.043944645673, Q3 : -0.141314715147, Q4 : 0.300737112761}
2019-04-14 15:56:27.91: SIM {TimeUS : 59934350, Roll : -0.12, Pitch : -17.05, Yaw : 35.41, Alt : 49.2999992371, Lat : 49.28369, Lng : -123.1148935, Q1 : 0.94213360548, Q2 : 0.0440928637981, Q3 : -0.141542345285, Q4 : 0.300675749779}
2019-04-14 15:56:28.01: SIM {TimeUS : 60034310, Roll : -0.09, Pitch : -17.08, Yaw : 35.37, Alt : 49.2999992371, Lat : 49.2836931, Lng : -123.1148901, Q1 : 0.942200124264, Q2 : 0.0443106293678, Q3 : -0.141773030162, Q4 : 0.300326436758}
2019-04-14 15:56:28.11: SIM {TimeUS : 60134270, Roll : -0.08, Pitch : -17.11, Yaw : 35.3, Alt : 49.2999992371, Lat : 49.2836962, Lng : -123.1148867, Q1 : 0.942338466644, Q2 : 0.0444575101137, Q3 : -0.142019748688, Q4 : 0.299753397703}
2019-04-14 15:56:28.21: SIM {TimeUS : 60234230, Roll : -0.06, Pitch : -17.14, Yaw : 35.21, Alt : 49.2999992371, Lat : 49.2836995, Lng : -123.1148832, Q1 : 0.942534387112, Q2 : 0.0445372723043, Q3 : -0.142216011882, Q4 : 0.299031734467}
2019-04-14 15:56:28.31: SIM {TimeUS : 60334190, Roll : -0.04, Pitch : -17.16, Yaw : 35.11, Alt : 49.2999992371, Lat : 49.2837027, Lng : -123.1148798, Q1 : 0.942747712135, Q2 : 0.0446630232036, Q3 : -0.142395198345, Q4 : 0.298254281282}
2019-04-14 15:56:28.41: SIM {TimeUS : 60434150, Roll : 0.0, Pitch : -17.19, Yaw : 35.02, Alt : 49.2999992371, Lat : 49.2837059, Lng : -123.1148763, Q1 : 0.942933440208, Q2 : 0.0450031496584, Q3 : -0.142600879073, Q4 : 0.297516942024}
2019-04-14 15:56:28.51: SIM {TimeUS : 60534110, Roll : 0.06, Pitch : -17.23, Yaw : 34.93, Alt : 49.2999992371, Lat : 49.283709, Lng : -123.1148728, Q1 : 0.943085193634, Q2 : 0.0454880520701, Q3 : -0.14276099205, Q4 : 0.296884655952}
2019-04-14 15:56:28.61: SIM {TimeUS : 60634070, Roll : 0.12, Pitch : -17.26, Yaw : 34.86, Alt : 49.2999992371, Lat : 49.2837123, Lng : -123.1148693, Q1 : 0.943194031715, Q2 : 0.0460199452937, Q3 : -0.142911359668, Q4 : 0.296384245157}
2019-04-14 15:56:28.71: SIM {TimeUS : 60734030, Roll : 0.18, Pitch : -17.31, Yaw : 34.81, Alt : 49.3100013733, Lat : 49.2837156, Lng : -123.1148658, Q1 : 0.943245172501, Q2 : 0.0465717017651, Q3 : -0.143129706383, Q4 : 0.296029567719}
2019-04-14 15:56:28.82: SIM {TimeUS : 60834823, Roll : 0.21, Pitch : -17.34, Yaw : 34.78, Alt : 49.3100013733, Lat : 49.2837187, Lng : -123.1148623, Q1 : 0.943268716335, Q2 : 0.0468795746565, Q3 : -0.143353298306, Q4 : 0.295797884464}
2019-04-14 15:56:28.91: SIM {TimeUS : 60934783, Roll : 0.2, Pitch : -17.35, Yaw : 34.77, Alt : 49.3100013733, Lat : 49.2837221, Lng : -123.1148587, Q1 : 0.943295896053, Q2 : 0.0467791184783, Q3 : -0.143475323915, Q4 : 0.295667767525}
2019-04-14 15:56:29.01: SIM {TimeUS : 61034743, Roll : 0.15, Pitch : -17.36, Yaw : 34.77, Alt : 49.3100013733, Lat : 49.2837253, Lng : -123.1148552, Q1 : 0.943306028843, Q2 : 0.0464230440557, Q3 : -0.143628463149, Q4 : 0.295617073774}
2019-04-14 15:56:29.11: SIM {TimeUS : 61134703, Roll : 0.12, Pitch : -17.36, Yaw : 34.78, Alt : 49.3100013733, Lat : 49.2837287, Lng : -123.1148516, Q1 : 0.94329726696, Q2 : 0.0461040660739, Q3 : -0.143715471029, Q4 : 0.295652776957}
2019-04-14 15:56:29.21: SIM {TimeUS : 61234663, Roll : 0.09, Pitch : -17.38, Yaw : 34.8, Alt : 49.3100013733, Lat : 49.283732, Lng : -123.114848, Q1 : 0.943243980408, Q2 : 0.0459720306098, Q3 : -0.143926978111, Q4 : 0.295740485191}
2019-04-14 15:56:29.31: SIM {TimeUS : 61334623, Roll : 0.1, Pitch : -17.41, Yaw : 34.81, Alt : 49.3100013733, Lat : 49.2837352, Lng : -123.1148445, Q1 : 0.94314956665, Q2 : 0.0461750887334, Q3 : -0.144212976098, Q4 : 0.295870542526}
2019-04-14 15:56:29.41: SIM {TimeUS : 61434583, Roll : 0.12, Pitch : -17.47, Yaw : 34.83, Alt : 49.3100013733, Lat : 49.2837386, Lng : -123.1148409, Q1 : 0.943035006523, Q2 : 0.0465010292828, Q3 : -0.144640341401, Q4 : 0.29597607255}
2019-04-14 15:56:29.51: SIM {TimeUS : 61534543, Roll : 0.13, Pitch : -17.5, Yaw : 34.83, Alt : 49.3100013733, Lat : 49.2837418, Lng : -123.1148373, Q1 : 0.942973613739, Q2 : 0.0466422997415, Q3 : -0.144890338182, Q4 : 0.296027123928}
2019-04-14 15:56:29.61: SIM {TimeUS : 61634503, Roll : 0.13, Pitch : -17.5, Yaw : 34.83, Alt : 49.3100013733, Lat : 49.2837452, Lng : -123.1148337, Q1 : 0.942974090576, Q2 : 0.0466581396759, Q3 : -0.144873470068, Q4 : 0.296031355858}
2019-04-14 15:56:29.71: SIM {TimeUS : 61734463, Roll : 0.12, Pitch : -17.51, Yaw : 34.82, Alt : 49.3199996948, Lat : 49.2837485, Lng : -123.11483, Q1 : 0.942991793156, Q2 : 0.0466200448573, Q3 : -0.144913524389, Q4 : 0.295961380005}
2019-04-14 15:56:29.81: SIM {TimeUS : 61834423, Roll : 0.11, Pitch : -17.53, Yaw : 34.81, Alt : 49.3199996948, Lat : 49.2837519, Lng : -123.1148264, Q1 : 0.943000078201, Q2 : 0.0465626716614, Q3 : -0.145173624158, Q4 : 0.295816630125}
2019-04-14 15:56:29.91: SIM {TimeUS : 61934383, Roll : 0.11, Pitch : -17.56, Yaw : 34.79, Alt : 49.3199996948, Lat : 49.2837552, Lng : -123.1148228, Q1 : 0.943012714386, Q2 : 0.04658639431, Q3 : -0.145391896367, Q4 : 0.295665234327}
2019-04-14 15:56:30.01: SIM {TimeUS : 62034343, Roll : 0.11, Pitch : -17.58, Yaw : 34.77, Alt : 49.3199996948, Lat : 49.2837586, Lng : -123.1148191, Q1 : 0.943032085896, Q2 : 0.0466364584863, Q3 : -0.145589739084, Q4 : 0.295498222113}
2019-04-14 15:56:30.11: SIM {TimeUS : 62134303, Roll : 0.12, Pitch : -17.6, Yaw : 34.75, Alt : 49.3199996948, Lat : 49.2837619, Lng : -123.1148155, Q1 : 0.943061351776, Q2 : 0.0467072576284, Q3 : -0.1457259655, Q4 : 0.295326530933}
2019-04-14 15:56:30.21: SIM {TimeUS : 62234263, Roll : 0.13, Pitch : -17.62, Yaw : 34.73, Alt : 49.3199996948, Lat : 49.2837654, Lng : -123.1148118, Q1 : 0.943094134331, Q2 : 0.0468546971679, Q3 : -0.14585056901, Q4 : 0.295136719942}
2019-04-14 15:56:30.31: SIM {TimeUS : 62334223, Roll : 0.15, Pitch : -17.62, Yaw : 34.7, Alt : 49.3199996948, Lat : 49.2837688, Lng : -123.1148082, Q1 : 0.943147003651, Q2 : 0.047000862658, Q3 : -0.145847469568, Q4 : 0.29494613409}
2019-04-14 15:56:30.41: SIM {TimeUS : 62434183, Roll : 0.18, Pitch : -17.63, Yaw : 34.68, Alt : 49.3199996948, Lat : 49.2837721, Lng : -123.1148045, Q1 : 0.943195581436, Q2 : 0.0471725352108, Q3 : -0.145840123296, Q4 : 0.294766962528}
2019-04-14 15:56:30.51: SIM {TimeUS : 62534143, Roll : 0.2, Pitch : -17.64, Yaw : 34.65, Alt : 49.3199996948, Lat : 49.2837756, Lng : -123.1148008, Q1 : 0.943223834038, Q2 : 0.0473872944713, Q3 : -0.145902782679, Q4 : 0.29461106658}
2019-04-14 15:56:30.61: SIM {TimeUS : 62634103, Roll : 0.2, Pitch : -17.68, Yaw : 34.64, Alt : 49.3199996948, Lat : 49.2837789, Lng : -123.1147971, Q1 : 0.943227052689, Q2 : 0.0474702715874, Q3 : -0.146186843514, Q4 : 0.294446527958}
2019-04-14 15:56:30.71: SIM {TimeUS : 62734063, Roll : 0.18, Pitch : -17.72, Yaw : 34.62, Alt : 49.3199996948, Lat : 49.2837824, Lng : -123.1147934, Q1 : 0.943222820759, Q2 : 0.0473839305341, Q3 : -0.146589025855, Q4 : 0.294273883104}
2019-04-14 15:56:30.81: SIM {TimeUS : 62834023, Roll : 0.16, Pitch : -17.76, Yaw : 34.61, Alt : 49.3199996948, Lat : 49.2837857, Lng : -123.1147897, Q1 : 0.943209409714, Q2 : 0.0473013371229, Q3 : -0.147021397948, Q4 : 0.294114530087}
2019-04-14 15:56:30.91: SIM {TimeUS : 62934816, Roll : 0.16, Pitch : -17.79, Yaw : 34.59, Alt : 49.3199996948, Lat : 49.2837892, Lng : -123.114786, Q1 : 0.943198800087, Q2 : 0.0473638512194, Q3 : -0.147287234664, Q4 : 0.294005334377}
2019-04-14 15:56:31.01: SIM {TimeUS : 63034776, Roll : 0.17, Pitch : -17.8, Yaw : 34.58, Alt : 49.3199996948, Lat : 49.2837927, Lng : -123.1147822, Q1 : 0.943210780621, Q2 : 0.0474636033177, Q3 : -0.147340118885, Q4 : 0.29392439127}
2019-04-14 15:56:31.11: SIM {TimeUS : 63134736, Roll : 0.19, Pitch : -17.78, Yaw : 34.57, Alt : 49.3199996948, Lat : 49.2837962, Lng : -123.1147786, Q1 : 0.943258941174, Q2 : 0.047514654696, Q3 : -0.147136479616, Q4 : 0.293863594532}
2019-04-14 15:56:31.21: SIM {TimeUS : 63234696, Roll : 0.18, Pitch : -17.77, Yaw : 34.56, Alt : 49.3300018311, Lat : 49.2837995, Lng : -123.1147748, Q1 : 0.943301916122, Q2 : 0.0474457256496, Q3 : -0.147008851171, Q4 : 0.29380056262}
2019-04-14 15:56:31.31: SIM {TimeUS : 63334656, Roll : 0.18, Pitch : -17.75, Yaw : 34.56, Alt : 49.3300018311, Lat : 49.2838031, Lng : -123.1147711, Q1 : 0.943335533142, Q2 : 0.047393836081, Q3 : -0.146918177605, Q4 : 0.293746381998}
2019-04-14 15:56:31.41: SIM {TimeUS : 63434616, Roll : 0.18, Pitch : -17.75, Yaw : 34.55, Alt : 49.3300018311, Lat : 49.2838066, Lng : -123.1147673, Q1 : 0.943366765976, Q2 : 0.0473665520549, Q3 : -0.146844521165, Q4 : 0.293687433004}
2019-04-14 15:56:31.51: SIM {TimeUS : 63534576, Roll : 0.18, Pitch : -17.76, Yaw : 34.54, Alt : 49.3300018311, Lat : 49.2838099, Lng : -123.1147636, Q1 : 0.943375945091, Q2 : 0.0473600663245, Q3 : -0.146945595741, Q4 : 0.293608307838}
2019-04-14 15:56:31.61: SIM {TimeUS : 63634536, Roll : 0.18, Pitch : -17.78, Yaw : 34.53, Alt : 49.3300018311, Lat : 49.2838135, Lng : -123.1147597, Q1 : 0.943371772766, Q2 : 0.0474290661514, Q3 : -0.147115424275, Q4 : 0.293525516987}
2019-04-14 15:56:31.71: SIM {TimeUS : 63734496, Roll : 0.18, Pitch : -17.82, Yaw : 34.52, Alt : 49.3300018311, Lat : 49.283817, Lng : -123.1147561, Q1 : 0.943350613117, Q2 : 0.0474732667208, Q3 : -0.147440940142, Q4 : 0.293423146009}
2019-04-14 15:56:31.81: SIM {TimeUS : 63834456, Roll : 0.17, Pitch : -17.86, Yaw : 34.51, Alt : 49.3300018311, Lat : 49.2838205, Lng : -123.1147523, Q1 : 0.943318843842, Q2 : 0.0475362353027, Q3 : -0.147842034698, Q4 : 0.293313205242}
2019-04-14 15:56:31.91: SIM {TimeUS : 63934416, Roll : 0.18, Pitch : -17.9, Yaw : 34.5, Alt : 49.3300018311, Lat : 49.2838238, Lng : -123.1147485, Q1 : 0.943295121193, Q2 : 0.0476403422654, Q3 : -0.148163855076, Q4 : 0.293210148811}
2019-04-14 15:56:32.01: SIM {TimeUS : 64034376, Roll : 0.17, Pitch : -17.93, Yaw : 34.49, Alt : 49.3300018311, Lat : 49.2838274, Lng : -123.1147448, Q1 : 0.943286001682, Q2 : 0.0476605668664, Q3 : -0.148449659348, Q4 : 0.293091535568}
2019-04-14 15:56:32.11: SIM {TimeUS : 64134336, Roll : 0.16, Pitch : -17.95, Yaw : 34.48, Alt : 49.3300018311, Lat : 49.2838309, Lng : -123.114741, Q1 : 0.943296432495, Q2 : 0.0476101376116, Q3 : -0.148633301258, Q4 : 0.292973071337}
2019-04-14 15:56:32.21: SIM {TimeUS : 64234296, Roll : 0.17, Pitch : -17.94, Yaw : 34.46, Alt : 49.3300018311, Lat : 49.2838343, Lng : -123.1147372, Q1 : 0.943334281445, Q2 : 0.0476512312889, Q3 : -0.14854490757, Q4 : 0.292889475822}
2019-04-14 15:56:32.31: SIM {TimeUS : 64334256, Roll : 0.19, Pitch : -17.95, Yaw : 34.45, Alt : 49.3300018311, Lat : 49.2838378, Lng : -123.1147334, Q1 : 0.943354845047, Q2 : 0.0478301160038, Q3 : -0.148514345288, Q4 : 0.292809545994}
2019-04-14 15:56:32.41: SIM {TimeUS : 64434216, Roll : 0.2, Pitch : -17.96, Yaw : 34.44, Alt : 49.3300018311, Lat : 49.2838414, Lng : -123.1147297, Q1 : 0.943369090557, Q2 : 0.0479129701853, Q3 : -0.148611679673, Q4 : 0.292700618505}
2019-04-14 15:56:32.51: SIM {TimeUS : 64534176, Roll : 0.21, Pitch : -17.97, Yaw : 34.42, Alt : 49.3300018311, Lat : 49.283845, Lng : -123.1147259, Q1 : 0.943389475346, Q2 : 0.0479627139866, Q3 : -0.148686021566, Q4 : 0.292589098215}
2019-04-14 15:56:32.61: SIM {TimeUS : 64634136, Roll : 0.21, Pitch : -17.97, Yaw : 34.41, Alt : 49.3400001526, Lat : 49.2838485, Lng : -123.1147221, Q1 : 0.943424582481, Q2 : 0.0479976646602, Q3 : -0.148639261723, Q4 : 0.292493790388}
2019-04-14 15:56:32.71: SIM {TimeUS : 64734096, Roll : 0.22, Pitch : -17.96, Yaw : 34.4, Alt : 49.3400001526, Lat : 49.2838519, Lng : -123.1147183, Q1 : 0.943462908268, Q2 : 0.0479914173484, Q3 : -0.148578301072, Q4 : 0.292402178049}
2019-04-14 15:56:32.81: SIM {TimeUS : 64834056, Roll : 0.2, Pitch : -17.97, Yaw : 34.39, Alt : 49.3400001526, Lat : 49.2838554, Lng : -123.1147145, Q1 : 0.943479299545, Q2 : 0.0478627793491, Q3 : -0.14874561131, Q4 : 0.292285352945}
2019-04-14 15:56:32.92: SIM {TimeUS : 64934849, Roll : 0.17, Pitch : -18.01, Yaw : 34.38, Alt : 49.3400001526, Lat : 49.2838591, Lng : -123.1147106, Q1 : 0.943473339081, Q2 : 0.0477053187788, Q3 : -0.14908260107, Q4 : 0.292158633471}
2019-04-14 15:56:33.01: SIM {TimeUS : 65034809, Roll : 0.16, Pitch : -18.01, Yaw : 34.37, Alt : 49.3400001526, Lat : 49.2838626, Lng : -123.1147068, Q1 : 0.943492114544, Q2 : 0.0476157553494, Q3 : -0.149159908295, Q4 : 0.29207316041}
2019-04-14 15:56:33.11: SIM {TimeUS : 65134769, Roll : 0.17, Pitch : -18.0, Yaw : 34.36, Alt : 49.3400001526, Lat : 49.2838662, Lng : -123.114703, Q1 : 0.943527162075, Q2 : 0.0476489327848, Q3 : -0.149028867483, Q4 : 0.292021363974}
2019-04-14 15:56:33.21: SIM {TimeUS : 65234729, Roll : 0.18, Pitch : -17.99, Yaw : 34.35, Alt : 49.3400001526, Lat : 49.2838696, Lng : -123.1146992, Q1 : 0.943556308746, Q2 : 0.0477449856699, Q3 : -0.14890255034, Q4 : 0.291975915432}
2019-04-14 15:56:33.31: SIM {TimeUS : 65334689, Roll : 0.19, Pitch : -18.0, Yaw : 34.34, Alt : 49.3400001526, Lat : 49.2838732, Lng : -123.1146953, Q1 : 0.943562090397, Q2 : 0.0478135235608, Q3 : -0.148997291923, Q4 : 0.29189774394}
2019-04-14 15:56:33.41: SIM {TimeUS : 65434649, Roll : 0.18, Pitch : -18.02, Yaw : 34.33, Alt : 49.3400001526, Lat : 49.2838767, Lng : -123.1146915, Q1 : 0.943563342094, Q2 : 0.047741830349, Q3 : -0.149224117398, Q4 : 0.291789472103}
2019-04-14 15:56:33.51: SIM {TimeUS : 65534609, Roll : 0.15, Pitch : -18.05, Yaw : 34.32, Alt : 49.3400001526, Lat : 49.2838804, Lng : -123.1146877, Q1 : 0.943564832211, Q2 : 0.0475944504142, Q3 : -0.149489939213, Q4 : 0.291672587395}
2019-04-14 15:56:33.61: SIM {TimeUS : 65634569, Roll : 0.14, Pitch : -18.06, Yaw : 34.31, Alt : 49.3400001526, Lat : 49.2838839, Lng : -123.1146839, Q1 : 0.943571448326, Q2 : 0.0475396849215, Q3 : -0.149665728211, Q4 : 0.291569948196}
2019-04-14 15:56:33.71: SIM {TimeUS : 65734529, Roll : 0.15, Pitch : -18.08, Yaw : 34.3, Alt : 49.3400001526, Lat : 49.2838875, Lng : -123.1146801, Q1 : 0.943572223186, Q2 : 0.0476306118071, Q3 : -0.149804443121, Q4 : 0.291481494904}
2019-04-14 15:56:33.81: SIM {TimeUS : 65834489, Roll : 0.16, Pitch : -18.1, Yaw : 34.29, Alt : 49.3400001526, Lat : 49.2838909, Lng : -123.1146762, Q1 : 0.943568766117, Q2 : 0.0477843396366, Q3 : -0.149922117591, Q4 : 0.291407167912}
