2019-04-14 16:20:14.20: SIM {TimeUS : 40816167, Roll : 0.0, Pitch : 0.0, Yaw : 0.0, Alt : 30.1000003815, Lat : 49.28357, Lng : -123.11502, Q1 : 1.0, Q2 : 0.0, Q3 : 0.0, Q4 : 0.0}
2019-04-14 16:20:14.31: SIM {TimeUS : 40935286, Roll : 0.0, Pitch : 0.0, Yaw : 0.0, Alt : 30.1000003815, Lat : 49.28357, Lng : -123.11502, Q1 : 1.0, Q2 : 0.0, Q3 : 0.0, Q4 : 0.0}
2019-04-14 16:20:14.41: SIM {TimeUS : 41035246, Roll : 0.0, Pitch : 0.0, Yaw : 0.0, Alt : 30.1000003815, Lat : 49.28357, Lng : -123.11502, Q1 : 1.0, Q2 : 0.0, Q3 : 0.0, Q4 : 0.0}
2019-04-14 16:20:14.51: SIM {TimeUS : 41135206, Roll : 0.0, Pitch : 0.0, Yaw : 0.0, Alt : 30.1000003815, Lat : 49.28357, Lng : -123.11502, Q1 : 1.0, Q2 : 0.0, Q3 : 0.0, Q4 : 0.0}
2019-04-14 16:20:14.61: SIM {TimeUS : 41235166, Roll : 0.0, Pitch : 0.0, Yaw : 0.0, Alt : 30.1000003815, Lat : 49.28357, Lng : -123.11502, Q1 : 1.0, Q2 : 0.0, Q3 : 0.0, Q4 : 0.0}
2019-04-14 16:20:14.71: SIM {TimeUS : 41335126, Roll : 0.0, Pitch : 0.0, Yaw : 0.0, Alt : 30.1000003815, Lat : 49.28357, Lng : -123.11502, Q1 : 1.0, Q2 : 0.0, Q3 : 0.0, Q4 : 0.0}
2019-04-14 16:20:14.81: SIM {TimeUS : 41435086, Roll : 0.0, Pitch : 0.0, Yaw : 0.0, Alt : 30.1000003815, Lat : 49.28357, Lng : -123.11502, Q1 : 1.0, Q2 : 0.0, Q3 : 0.0, Q4 : 0.0}
2019-04-14 16:20:14.91: SIM {TimeUS : 41535046, Roll : 0.0, Pitch : 0.0, Yaw : 0.0, Alt : 30.1000003815, Lat : 49.28357, Lng : -123.11502, Q1 : 1.0, Q2 : 0.0, Q3 : 0.0, Q4 : 0.0}
2019-04-14 16:20:15.01: SIM {TimeUS : 41635006, Roll : 0.0, Pitch : 0.0, Yaw : 0.0, Alt : 30.1000003815, Lat : 49.28357, Lng : -123.11502, Q1 : 1.0, Q2 : 0.0, Q3 : 0.0, Q4 : 0.0}
2019-04-14 16:20:15.11: SIM {TimeUS : 41734966, Roll : 0.0, Pitch : 0.0, Yaw : 0.0, Alt : 30.1000003815, Lat : 49.28357, Lng : -123.11502, Q1 : 1.0, Q2 : 0.0, Q3 : 0.0, Q4 : 0.0}
2019-04-14 16:20:15.21: SIM {TimeUS : 41834926, Roll : 0.0, Pitch : 0.0, Yaw : 0.0, Alt : 30.1000003815, Lat : 49.28357, Lng : -123.11502, Q1 : 1.0, Q2 : 0.0, Q3 : 0.0, Q4 : 0.0}
2019-04-14 16:20:15.31: SIM {TimeUS : 41934886, Roll : 0.0, Pitch : 0.0, Yaw : 0.0, Alt : 30.1000003815, Lat : 49.28357, Lng : -123.11502, Q1 : 1.0, Q2 : 0.0, Q3 : 0.0, Q4 : 0.0}
2019-04-14 16:20:15.41: SIM {TimeUS : 42034846, Roll : 0.0, Pitch : 0.0, Yaw : 0.0, Alt : 30.1000003815, Lat : 49.28357, Lng : -123.11502, Q1 : 1.0, Q2 : 0.0, Q3 : 0.0, Q4 : 0.0}
2019-04-14 16:20:15.51: SIM {TimeUS : 42134806, Roll : 0.0, Pitch : 0.0, Yaw : 0.0, Alt : 30.1000003815, Lat : 49.28357, Lng : -123.11502, Q1 : 1.0, Q2 : 0.0, Q3 : 0.0, Q4 : 0.0}
2019-04-14 16:20:15.61: SIM {TimeUS : 42234766, Roll : 0.0, Pitch : 0.0, Yaw : 0.0, Alt : 30.1000003815, Lat : 49.28357, Lng : -123.11502, Q1 : 1.0, Q2 : 0.0, Q3 : 0.0, Q4 : 0.0}
2019-04-14 16:20:15.71: SIM {TimeUS : 42334726, Roll : 0.0, Pitch : 0.0, Yaw : 0.0, Alt : 30.1000003815, Lat : 49.28357, Lng : -123.11502, Q1 : 1.0, Q2 : 0.0, Q3 : 0.0, Q4 : 0.0}
2019-04-14 16:20:15.81: SIM {TimeUS : 42434686, Roll : 0.0, Pitch : 0.0, Yaw : 0.0, Alt : 30.1000003815, Lat : 49.28357, Lng : -123.11502, Q1 : 1.0, Q2 : 0.0, Q3 : 0.0, Q4 : 0.0}
2019-04-14 16:20:15.91: SIM {TimeUS : 42534646, Roll : 0.0, Pitch : 0.0, Yaw : 0.0, Alt : 30.1000003815, Lat : 49.28357, Lng : -123.11502, Q1 : 1.0, Q2 : 0.0, Q3 : 0.0, Q4 : 0.0}
2019-04-14 16:20:16.01: SIM {TimeUS : 42634606, Roll : 0.0, Pitch : 0.0, Yaw : 0.0, Alt : 30.1000003815, Lat : 49.28357, Lng : -123.11502, Q1 : 1.0, Q2 : 0.0, Q3 : 0.0, Q4 : 0.0}
2019-04-14 16:20:16.11: SIM {TimeUS : 42734566, Roll : 0.0, Pitch : 0.0, Yaw : 0.0, Alt : 30.1000003815, Lat : 49.28357, Lng : -123.11502, Q1 : 1.0, Q2 : 0.0, Q3 : 0.0, Q4 : 0.0}
2019-04-14 16:20:16.21: SIM {TimeUS : 42834526, Roll : 0.0, Pitch : 0.0, Yaw : 0.0, Alt : 30.1000003815, Lat : 49.28357, Lng : -123.11502, Q1 : 1.0, Q2 : 0.0, Q3 : 0.0, Q4 : 0.0}
2019-04-14 16:20:16.31: SIM {TimeUS : 42935319, Roll : 0.0, Pitch : 0.0, Yaw : 0.0, Alt : 30.1000003815, Lat : 49.28357, Lng : -123.11502, Q1 : 1.0, Q2 : 0.0, Q3 : 0.0, Q4 : 0.0}
2019-04-14 16:20:16.41: SIM {TimeUS : 43035279, Roll : 0.0, Pitch : 0.0, Yaw : 0.0, Alt : 30.1000003815, Lat : 49.28357, Lng : -123.11502, Q1 : 1.0, Q2 : 0.0, Q3 : 0.0, Q4 : 0.0}
2019-04-14 16:20:16.51: SIM {TimeUS : 43135239, Roll : 0.0, Pitch : 0.0, Yaw : 360.0, Alt : 30.1000003815, Lat : 49.28357, Lng : -123.11502, Q1 : 1.0, Q2 : 0.0, Q3 : 0.0, Q4 : -1.30378364355e-11}
2019-04-14 16:20:16.61: SIM {TimeUS : 43235199, Roll : 0.0, Pitch : 0.0, Yaw : 360.0, Alt : 30.1000003815, Lat : 49.28357, Lng : -123.11502, Q1 : 1.0, Q2 : 0.0, Q3 : 0.0, Q4 : -1.61347042393e-08}
2019-04-14 16:20:16.71: SIM {TimeUS : 43335159, Roll : 0.0, Pitch : 0.0, Yaw : 359.99, Alt : 30.1000003815, Lat : 49.28357, Lng : -123.11502, Q1 : 1.0, Q2 : 0.0, Q3 : 0.0, Q4 : -2.17456857854e-07}
2019-04-14 16:20:16.81: SIM {TimeUS : 43435119, Roll : 0.0, Pitch : 0.0, Yaw : 359.99, Alt : 30.1000003815, Lat : 49.28357, Lng : -123.11502, Q1 : 1.0, Q2 : 0.0, Q3 : 0.0, Q4 : -4.08245227845e-07}
2019-04-14 16:20:16.91: SIM {TimeUS : 43535079, Roll : 0.0, Pitch : 0.0, Yaw : 359.99, Alt : 30.1000003815, Lat : 49.28357, Lng : -123.11502, Q1 : 1.0, Q2 : 0.0, Q3 : 0.0, Q4 : -6.20802381945e-07}
2019-04-14 16:20:17.01: SIM {TimeUS : 43635039, Roll : 0.0, Pitch : 0.0, Yaw : 359.99, Alt : 30.1000003815, Lat : 49.28357, Lng : -123.11502, Q1 : 1.0, Q2 : 0.0, Q3 : 0.0, Q4 : -8.22876188522e-07}
2019-04-14 16:20:17.11: SIM {TimeUS : 43734999, Roll : 0.0, Pitch : 0.0, Yaw : 359.99, Alt : 30.1000003815, Lat : 49.28357, Lng : -123.11502, Q1 : 1.0, Q2 : 0.0, Q3 : 0.0, Q4 : -9.95500158751e-07}
2019-04-14 16:20:17.21: SIM {TimeUS : 43834959, Roll : 0.0, Pitch : 0.0, Yaw : 359.99, Alt : 30.1000003815, Lat : 49.28357, Lng : -123.11502, Q1 : 1.0, Q2 : 0.0, Q3 : 0.0, Q4 : -1.17972990665e-06}
2019-04-14 16:20:17.31: SIM {TimeUS : 43934919, Roll : 0.0, Pitch : 0.0, Yaw : 359.99, Alt : 30.1000003815, Lat : 49.28357, Lng : -123.11502, Q1 : 1.0, Q2 : 0.0, Q3 : 0.0, Q4 : -1.3805429262e-06}
2019-04-14 16:20:17.41: SIM {TimeUS : 44034879, Roll : 0.0, Pitch : 0.0, Yaw : 359.99, Alt : 30.1200008392, Lat : 49.28357, Lng : -123.11502, Q1 : 1.0, Q2 : 0.0, Q3 : 0.0, Q4 : -1.55610359798e-06}
2019-04-14 16:20:17.51: SIM {TimeUS : 44134839, Roll : 0.0, Pitch : 0.0, Yaw : 359.99, Alt : 30.1499996185, Lat : 49.28357, Lng : -123.11502, Q1 : 1.0, Q2 : 0.0, Q3 : 0.0, Q4 : -1.81880204764e-06}
2019-04-14 16:20:17.61: SIM {TimeUS : 44234799, Roll : 0.0, Pitch : 0.0, Yaw : 359.99, Alt : 30.1800003052, Lat : 49.28357, Lng : -123.11502, Q1 : 1.0, Q2 : 0.0, Q3 : 0.0, Q4 : -2.06184176932e-06}
2019-04-14 16:20:17.71: SIM {TimeUS : 44334759, Roll : 0.0, Pitch : 0.0, Yaw : 359.99, Alt : 30.2099990845, Lat : 49.28357, Lng : -123.11502, Q1 : 1.0, Q2 : -7.32536864234e-06, Q3 : -7.5440798355e-06, Q4 : -2.18642730943e-06}
2019-04-14 16:20:17.81: SIM {TimeUS : 44434719, Roll : -0.16, Pitch : -0.16, Yaw : 359.99, Alt : 30.2700004578, Lat : 49.28357, Lng : -123.11502, Q1 : 0.999998033047, Q2 : -0.00141816399992, Q3 : -0.00140721607022, Q4 : -1.70366056409e-05}
2019-04-14 16:20:17.91: SIM {TimeUS : 44534679, Roll : -0.47, Pitch : -0.41, Yaw : 359.99, Alt : 30.3899993896, Lat : 49.28357, Lng : -123.11502, Q1 : 0.99998497963, Q2 : -0.00414405949414, Q3 : -0.00358851370402, Q4 : -6.15807148279e-05}
2019-04-14 16:20:18.01: SIM {TimeUS : 44634639, Roll : -0.76, Pitch : -0.6, Yaw : 359.98, Alt : 30.5400009155, Lat : 49.28357, Lng : -123.11502, Q1 : 0.999963998795, Q2 : -0.00665355753154, Q3 : -0.00526213133708, Q4 : -0.000126299506519}
2019-04-14 16:20:18.11: SIM {TimeUS : 44734599, Roll : -0.88, Pitch : -0.68, Yaw : 359.98, Alt : 30.7000007629, Lat : 49.28357, Lng : -123.11502, Q1 : 0.999951839447, Q2 : -0.00776489730924, Q3 : -0.00599567685276, Q4 : -0.000203363757464}
2019-04-14 16:20:18.21: SIM {TimeUS : 44834559, Roll : -0.83, Pitch : -0.65, Yaw : 359.97, Alt : 30.8500003815, Lat : 49.28357, Lng : -123.11502, Q1 : 0.999957203865, Q2 : -0.00726203294471, Q3 : -0.00572445150465, Q4 : -0.000286050431896}
2019-04-14 16:20:18.31: SIM {TimeUS : 44934519, Roll : -0.64, Pitch : -0.53, Yaw : 359.96, Alt : 31.0100002289, Lat : 49.28357, Lng : -123.1150201, Q1 : 0.999973356724, Q2 : -0.0056023048237, Q3 : -0.00466762250289, Q4 : -0.00036048021866}
2019-04-14 16:20:18.41: SIM {TimeUS : 45035312, Roll : -0.38, Pitch : -0.36, Yaw : 359.95, Alt : 31.1599998474, Lat : 49.2835701, Lng : -123.1150202, Q1 : 0.999989151955, Q2 : -0.00337982247584, Q3 : -0.00318261329085, Q4 : -0.00042024202412}
2019-04-14 16:20:18.51: SIM {TimeUS : 45135272, Roll : -0.14, Pitch : -0.19, Yaw : 359.94, Alt : 31.3299999237, Lat : 49.2835701, Lng : -123.1150203, Q1 : 0.999997675419, Q2 : -0.00129770499188, Q3 : -0.00167582964059, Q4 : -0.000465475808596}
2019-04-14 16:20:18.61: SIM {TimeUS : 45235232, Roll : 0.01, Pitch : -0.04, Yaw : 359.94, Alt : 31.5, Lat : 49.2835702, Lng : -123.1150203, Q1 : 0.999999761581, Q2 : 0.000127206731122, Q3 : -0.000381978199584, Q4 : -0.000497546046972}
2019-04-14 16:20:18.71: SIM {TimeUS : 45335192, Roll : 0.08, Pitch : 0.06, Yaw : 359.94, Alt : 31.6700000763, Lat : 49.2835702, Lng : -123.1150204, Q1 : 0.999999463558, Q2 : 0.000750593375415, Q3 : 0.000524264352862, Q4 : -0.0005176893319}
2019-04-14 16:20:18.81: SIM {TimeUS : 45435152, Roll : 0.07, Pitch : 0.11, Yaw : 359.93, Alt : 31.8500003815, Lat : 49.2835703, Lng : -123.1150205, Q1 : 0.99999910593, Q2 : 0.0006699685473, Q3 : 0.000998934963718, Q4 : -0.000525761279278}
2019-04-14 16:20:18.91: SIM {TimeUS : 45535112, Roll : 0.05, Pitch : 0.13, Yaw : 359.93, Alt : 32.0400009155, Lat : 49.2835703, Lng : -123.1150205, Q1 : 0.999998986721, Q2 : 0.000475239154184, Q3 : 0.00121361983474, Q4 : -0.000536414969247}
2019-04-14 16:20:19.01: SIM {TimeUS : 45635072, Roll : 0.04, Pitch : 0.14, Yaw : 359.93, Alt : 32.2200012207, Lat : 49.2835703, Lng : -123.1150206, Q1 : 0.999998986721, Q2 : 0.0003793532087, Q3 : 0.00125425925944, Q4 : -0.000538559688721}
2019-04-14 16:20:19.11: SIM {TimeUS : 45735032, Roll : 0.03, Pitch : 0.14, Yaw : 359.93, Alt : 32.4199981689, Lat : 49.2835703, Lng : -123.1150206, Q1 : 0.999998986721, Q2 : 0.00033989030635, Q3 : 0.00127321935724, Q4 : -0.000536279694643}
2019-04-14 16:20:19.21: SIM {TimeUS : 45834992, Roll : 0.05, Pitch : 0.16, Yaw : 359.94, Alt : 32.6100006104, Lat : 49.2835703, Lng : -123.1150207, Q1 : 0.999998748302, Q2 : 0.000483533745864, Q3 : 0.0014021913521, Q4 : -0.000521404086612}
2019-04-14 16:20:19.31: SIM {TimeUS : 45934952, Roll : 0.08, Pitch : 0.14, Yaw : 359.94, Alt : 32.8100013733, Lat : 49.2835703, Lng : -123.1150207, Q1 : 0.999998748302, Q2 : 0.00075923698023, Q3 : 0.00130118918605, Q4 : -0.000504316936713}
2019-04-14 16:20:19.41: SIM {TimeUS : 46034912, Roll : 0.12, Pitch : 0.12, Yaw : 359.94, Alt : 33.0099983215, Lat : 49.2835704, Lng : -123.1150207, Q1 : 0.999998748302, Q2 : 0.00108168879524, Q3 : 0.00105502293445, Q4 : -0.000487060373416}
2019-04-14 16:20:19.51: SIM {TimeUS : 46134872, Roll : 0.15, Pitch : 0.1, Yaw : 359.94, Alt : 33.2099990845, Lat : 49.2835704, Lng : -123.1150208, Q1 : 0.999998509884, Q2 : 0.0013765366748, Q3 : 0.000906358996872, Q4 : -0.000472724728752}
2019-04-14 16:20:19.61: SIM {TimeUS : 46234832, Roll : 0.18, Pitch : 0.1, Yaw : 359.94, Alt : 33.4099998474, Lat : 49.2835704, Lng : -123.1150208, Q1 : 0.999998271465, Q2 : 0.00157311290968, Q3 : 0.000896878365893, Q4 : -0.000456433888758}
2019-04-14 16:20:19.71: SIM {TimeUS : 46334792, Roll : 0.19, Pitch : 0.11, Yaw : 359.95, Alt : 33.6199989319, Lat : 49.2835704, Lng : -123.1150208, Q1 : 0.999997973442, Q2 : 0.00169236736838, Q3 : 0.00103347469121, Q4 : -0.000437073176727}
2019-04-14 16:20:19.81: SIM {TimeUS : 46434752, Roll : 0.18, Pitch : 0.12, Yaw : 359.95, Alt : 33.8300018311, Lat : 49.2835704, Lng : -123.1150208, Q1 : 0.999997973442, Q2 : 0.0016318942653, Q3 : 0.00109447108116, Q4 : -0.000425377977081}
2019-04-14 16:20:19.91: SIM {TimeUS : 46534712, Roll : 0.16, Pitch : 0.12, Yaw : 359.95, Alt : 34.0400009155, Lat : 49.2835704, Lng : -123.1150208, Q1 : 0.999998271465, Q2 : 0.00142554275226, Q3 : 0.00110635953024, Q4 : -0.000414594338508}
2019-04-14 16:20:20.01: SIM {TimeUS : 46634672, Roll : 0.13, Pitch : 0.12, Yaw : 359.95, Alt : 34.25, Lat : 49.2835704, Lng : -123.1150208, Q1 : 0.999998569489, Q2 : 0.00115734443534, Q3 : 0.00113005121239, Q4 : -0.000412500812672}
2019-04-14 16:20:20.11: SIM {TimeUS : 46734632, Roll : 0.1, Pitch : 0.12, Yaw : 359.95, Alt : 34.4599990845, Lat : 49.2835704, Lng : -123.1150208, Q1 : 0.999998927116, Q2 : 0.000910724105779, Q3 : 0.00110051175579, Q4 : -0.00041611524648}
2019-04-14 16:20:20.21: SIM {TimeUS : 46834592, Roll : 0.09, Pitch : 0.08, Yaw : 359.94, Alt : 34.6699981689, Lat : 49.2835704, Lng : -123.1150208, Q1 : 0.999999284744, Q2 : 0.000799596717115, Q3 : 0.000771989638451, Q4 : -0.000441013864474}
2019-04-14 16:20:20.31: SIM {TimeUS : 46934552, Roll : 0.08, Pitch : 0.05, Yaw : 359.94, Alt : 34.8899993896, Lat : 49.2835704, Lng : -123.1150208, Q1 : 0.999999523163, Q2 : 0.000752446008846, Q3 : 0.00044759051525, Q4 : -0.000485760363517}
2019-04-14 16:20:20.41: SIM {TimeUS : 47034512, Roll : 0.06, Pitch : 0.02, Yaw : 359.93, Alt : 35.0999984741, Lat : 49.2835704, Lng : -123.1150208, Q1 : 0.999999642372, Q2 : 0.000605899840593, Q3 : 0.000235105850152, Q4 : -0.000532762496732}
2019-04-14 16:20:20.51: SIM {TimeUS : 47135305, Roll : 0.05, Pitch : 0.02, Yaw : 359.93, Alt : 35.3199996948, Lat : 49.2835704, Lng : -123.1150207, Q1 : 0.999999701977, Q2 : 0.000485888449475, Q3 : 0.000175968321855, Q4 : -0.000577304745093}
2019-04-14 16:20:20.61: SIM {TimeUS : 47235265, Roll : 0.05, Pitch : 0.01, Yaw : 359.92, Alt : 35.5400009155, Lat : 49.2835704, Lng : -123.1150207, Q1 : 0.999999701977, Q2 : 0.000447238475317, Q3 : 0.000164086159202, Q4 : -0.000616478617303}
2019-04-14 16:20:20.71: SIM {TimeUS : 47335225, Roll : 0.02, Pitch : 0.0, Yaw : 359.92, Alt : 35.7599983215, Lat : 49.2835704, Lng : -123.1150207, Q1 : 0.999999761581, Q2 : 0.00024913623929, Q3 : -1.4972722056e-05, Q4 : -0.000656179676298}
2019-04-14 16:20:20.81: SIM {TimeUS : 47435185, Roll : 0.0, Pitch : -0.03, Yaw : 359.92, Alt : 35.9799995422, Lat : 49.2835704, Lng : -123.1150207, Q1 : 0.999999701977, Q2 : -5.49714422959e-05, Q3 : -0.000305413530441, Q4 : -0.000692384899594}
2019-04-14 16:20:20.91: SIM {TimeUS : 47535145, Roll : -0.04, Pitch : -0.05, Yaw : 359.91, Alt : 36.2000007629, Lat : 49.2835704, Lng : -123.1150207, Q1 : 0.999999523163, Q2 : -0.000383018283173, Q3 : -0.000515223713592, Q4 : -0.000728245533537}
2019-04-14 16:20:21.01: SIM {TimeUS : 47635105, Roll : -0.07, Pitch : -0.07, Yaw : 359.91, Alt : 36.4199981689, Lat : 49.2835704, Lng : -123.1150207, Q1 : 0.999999284744, Q2 : -0.000660251243971, Q3 : -0.00062854657881, Q4 : -0.000760629714932}
2019-04-14 16:20:21.11: SIM {TimeUS : 47735065, Roll : -0.08, Pitch : -0.07, Yaw : 359.91, Alt : 36.6399993896, Lat : 49.2835704, Lng : -123.1150206, Q1 : 0.99999922514, Q2 : -0.000701930432115, Q3 : -0.000617557321675, Q4 : -0.000784593285061}
2019-04-14 16:20:21.21: SIM {TimeUS : 47835025, Roll : -0.08, Pitch : -0.06, Yaw : 359.9, Alt : 36.8699989319, Lat : 49.2835704, Lng : -123.1150206, Q1 : 0.999999284744, Q2 : -0.000698796880897, Q3 : -0.000586623151321, Q4 : -0.000805229006801}
2019-04-14 16:20:21.31: SIM {TimeUS : 47934985, Roll : -0.07, Pitch : -0.05, Yaw : 359.9, Alt : 37.0900001526, Lat : 49.2835704, Lng : -123.1150206, Q1 : 0.999999344349, Q2 : -0.000647710228804, Q3 : -0.000461999617983, Q4 : -0.000820631510578}
2019-04-14 16:20:21.41: SIM {TimeUS : 48034945, Roll : -0.06, Pitch : -0.04, Yaw : 359.9, Alt : 37.3199996948, Lat : 49.2835704, Lng : -123.1150206, Q1 : 0.999999403954, Q2 : -0.000566108035855, Q3 : -0.000391007604776, Q4 : -0.000827210547868}
2019-04-14 16:20:21.51: SIM {TimeUS : 48134905, Roll : -0.07, Pitch : -0.04, Yaw : 359.9, Alt : 37.5400009155, Lat : 49.2835704, Lng : -123.1150206, Q1 : 0.999999344349, Q2 : -0.000629302870948, Q3 : -0.000405904458603, Q4 : -0.000835632730741}
2019-04-14 16:20:21.61: SIM {TimeUS : 48234865, Roll : -0.08, Pitch : -0.03, Yaw : 359.9, Alt : 37.7700004578, Lat : 49.2835704, Lng : -123.1150206, Q1 : 0.999999344349, Q2 : -0.000715599162504, Q3 : -0.000281626184005, Q4 : -0.000844714115374}
2019-04-14 16:20:21.71: SIM {TimeUS : 48334825, Roll : -0.1, Pitch : -0.01, Yaw : 359.9, Alt : 37.9900016785, Lat : 49.2835704, Lng : -123.1150206, Q1 : 0.99999922514, Q2 : -0.000908667570911, Q3 : -0.00011038017692, Q4 : -0.0008525524172}
2019-04-14 16:20:21.81: SIM {TimeUS : 48434785, Roll : -0.1, Pitch : 0.0, Yaw : 359.9, Alt : 38.2200012207, Lat : 49.2835704, Lng : -123.1150206, Q1 : 0.99999922514, Q2 : -0.000910120666958, Q3 : 2.18119039346e-05, Q4 : -0.000854594807606}
2019-04-14 16:20:21.91: SIM {TimeUS : 48534745, Roll : -0.08, Pitch : 0.03, Yaw : 359.9, Alt : 38.4500007629, Lat : 49.2835704, Lng : -123.1150206, Q1 : 0.999999344349, Q2 : -0.000700060627423, Q3 : 0.000292205048027, Q4 : -0.000857101287693}
2019-04-14 16:20:22.01: SIM {TimeUS : 48634705, Roll : -0.05, Pitch : 0.03, Yaw : 359.9, Alt : 38.6800003052, Lat : 49.2835704, Lng : -123.1150206, Q1 : 0.999999463558, Q2 : -0.00045937957475, Q3 : 0.000276131293504, Q4 : -0.000868577393703}
2019-04-14 16:20:22.11: SIM {TimeUS : 48734665, Roll : -0.01, Pitch : 0.02, Yaw : 359.89, Alt : 38.9099998474, Lat : 49.2835704, Lng : -123.1150206, Q1 : 0.999999582767, Q2 : -0.000172018815647, Q3 : 0.000181484996574, Q4 : -0.000881317420863}
2019-04-14 16:20:22.21: SIM {TimeUS : 48834625, Roll : 0.01, Pitch : 0.03, Yaw : 359.89, Alt : 39.1399993896, Lat : 49.2835704, Lng : -123.1150206, Q1 : 0.999999582767, Q2 : 0.000147023878526, Q3 : 0.000290917552775, Q4 : -0.000895129633136}
2019-04-14 16:20:22.31: SIM {TimeUS : 48934585, Roll : 0.05, Pitch : 0.05, Yaw : 359.89, Alt : 39.3600006104, Lat : 49.2835704, Lng : -123.1150206, Q1 : 0.999999344349, Q2 : 0.000446007412393, Q3 : 0.000519906287082, Q4 : -0.000917751982342}
2019-04-14 16:20:22.41: SIM {TimeUS : 49034545, Roll : 0.07, Pitch : 0.08, Yaw : 359.89, Alt : 39.5999984741, Lat : 49.2835704, Lng : -123.1150206, Q1 : 0.999999046326, Q2 : 0.00065192457987, Q3 : 0.000741247320548, Q4 : -0.000947917578742}
2019-04-14 16:20:22.51: SIM {TimeUS : 49134505, Roll : 0.06, Pitch : 0.1, Yaw : 359.88, Alt : 39.8300018311, Lat : 49.2835706, Lng : -123.1150206, Q1 : 0.999998927116, Q2 : 0.00056399294408, Q3 : 0.000949493376538, Q4 : -0.000975346774794}
2019-04-14 16:20:22.61: SIM {TimeUS : 49235298, Roll : 0.01, Pitch : 0.12, Yaw : 359.88, Alt : 40.0600013733, Lat : 49.2835706, Lng : -123.1150206, Q1 : 0.999998867512, Q2 : 0.000150304607814, Q3 : 0.00112806435209, Q4 : -0.00101947691292}
2019-04-14 16:20:22.71: SIM {TimeUS : 49335258, Roll : -0.01, Pitch : 0.11, Yaw : 359.87, Alt : 40.2900009155, Lat : 49.2835706, Lng : -123.1150206, Q1 : 0.999998867512, Q2 : -0.000164482495165, Q3 : 0.0010391115211, Q4 : -0.00105632632039}
2019-04-14 16:20:22.81: SIM {TimeUS : 49435218, Roll : -0.04, Pitch : 0.08, Yaw : 359.87, Alt : 40.5200004578, Lat : 49.2835706, Lng : -123.1150206, Q1 : 0.999999046326, Q2 : -0.000377530959668, Q3 : 0.00076906074537, Q4 : -0.00109408330172}
2019-04-14 16:20:22.91: SIM {TimeUS : 49535178, Roll : -0.05, Pitch : 0.06, Yaw : 359.87, Alt : 40.75, Lat : 49.2835706, Lng : -123.1150206, Q1 : 0.99999910593, Q2 : -0.000458516296931, Q3 : 0.000595914723817, Q4 : -0.00113021687139}
2019-04-14 16:20:23.01: SIM {TimeUS : 49635138, Roll : -0.03, Pitch : 0.08, Yaw : 359.86, Alt : 40.9900016785, Lat : 49.2835706, Lng : -123.1150206, Q1 : 0.999999046326, Q2 : -0.000344673724612, Q3 : 0.000703284400515, Q4 : -0.00116900773719}
2019-04-14 16:20:23.11: SIM {TimeUS : 49735098, Roll : 0.0, Pitch : 0.11, Yaw : 359.86, Alt : 41.2200012207, Lat : 49.2835706, Lng : -123.1150206, Q1 : 0.999998807907, Q2 : 4.15464382968e-05, Q3 : 0.000989322783425, Q4 : -0.0011993177468}
2019-04-14 16:20:23.21: SIM {TimeUS : 49835058, Roll : 0.05, Pitch : 0.13, Yaw : 359.85, Alt : 41.4500007629, Lat : 49.2835706, Lng : -123.1150207, Q1 : 0.999998390675, Q2 : 0.000488650868647, Q3 : 0.00119732064195, Q4 : -0.00122890598141}
2019-04-14 16:20:23.31: SIM {TimeUS : 49935018, Roll : 0.08, Pitch : 0.11, Yaw : 359.85, Alt : 41.6899986267, Lat : 49.2835706, Lng : -123.1150207, Q1 : 0.999998450279, Q2 : 0.000762867974117, Q3 : 0.00100548600312, Q4 : -0.00125624856446}
2019-04-14 16:20:23.41: SIM {TimeUS : 50034978, Roll : 0.08, Pitch : 0.07, Yaw : 359.85, Alt : 41.9199981689, Lat : 49.2835706, Lng : -123.1150207, Q1 : 0.999998688698, Q2 : 0.000757202506065, Q3 : 0.000634888070635, Q4 : -0.00128258438781}
2019-04-14 16:20:23.51: SIM {TimeUS : 50134938, Roll : 0.05, Pitch : 0.04, Yaw : 359.85, Alt : 42.1500015259, Lat : 49.2835706, Lng : -123.1150207, Q1 : 0.999998986721, Q2 : 0.000442771910457, Q3 : 0.000351755850716, Q4 : -0.00130178441759}
2019-04-14 16:20:23.61: SIM {TimeUS : 50234898, Roll : 0.0, Pitch : 0.03, Yaw : 359.84, Alt : 42.3899993896, Lat : 49.2835706, Lng : -123.1150207, Q1 : 0.99999910593, Q2 : -2.03622148547e-05, Q3 : 0.000298175640637, Q4 : -0.00131581304595}
2019-04-14 16:20:23.71: SIM {TimeUS : 50334858, Roll : -0.03, Pitch : 0.06, Yaw : 359.84, Alt : 42.6199989319, Lat : 49.2835706, Lng : -123.1150207, Q1 : 0.999998927116, Q2 : -0.000312482181471, Q3 : 0.000541956687812, Q4 : -0.00132259284146}
2019-04-14 16:20:23.81: SIM {TimeUS : 50434818, Roll : -0.04, Pitch : 0.08, Yaw : 359.84, Alt : 42.8600006104, Lat : 49.2835704, Lng : -123.1150206, Q1 : 0.999998807907, Q2 : -0.000424462166848, Q3 : 0.000716020178515, Q4 : -0.00132659100927}
2019-04-14 16:20:23.91: SIM {TimeUS : 50534778, Roll : -0.04, Pitch : 0.07, Yaw : 359.84, Alt : 43.0900001526, Lat : 49.2835704, Lng : -123.1150206, Q1 : 0.999998807907, Q2 : -0.000382160244044, Q3 : 0.000694766407833, Q4 : -0.0013334385585}
2019-04-14 16:20:24.01: SIM {TimeUS : 50634738, Roll : -0.04, Pitch : 0.06, Yaw : 359.84, Alt : 43.3300018311, Lat : 49.2835704, Lng : -123.1150206, Q1 : 0.999998867512, Q2 : -0.000394235714339, Q3 : 0.000575474870857, Q4 : -0.00134340988006}
2019-04-14 16:20:24.11: SIM {TimeUS : 50734698, Roll : -0.03, Pitch : 0.04, Yaw : 359.84, Alt : 43.5600013733, Lat : 49.2835704, Lng : -123.1150206, Q1 : 0.999998927116, Q2 : -0.000323131971527, Q3 : 0.000426242535468, Q4 : -0.00135820789728}
2019-04-14 16:20:24.21: SIM {TimeUS : 50834658, Roll : -0.01, Pitch : 0.04, Yaw : 359.84, Alt : 43.7999992371, Lat : 49.2835704, Lng : -123.1150206, Q1 : 0.999998986721, Q2 : -0.000165865654708, Q3 : 0.000360667501809, Q4 : -0.00138121750206}
2019-04-14 16:20:24.31: SIM {TimeUS : 50934618, Roll : 0.0, Pitch : 0.04, Yaw : 359.83, Alt : 44.0299987793, Lat : 49.2835704, Lng : -123.1150206, Q1 : 0.999998927116, Q2 : -6.3009931182e-05, Q3 : 0.00037477578735, Q4 : -0.00140567321796}
2019-04-14 16:20:24.41: SIM {TimeUS : 51034578, Roll : -0.01, Pitch : 0.02, Yaw : 359.83, Alt : 44.2700004578, Lat : 49.2835704, Lng : -123.1150206, Q1 : 0.999998927116, Q2 : -9.85936931102e-05, Q3 : 0.000208501049201, Q4 : -0.00143095536623}
2019-04-14 16:20:24.51: SIM {TimeUS : 51134538, Roll : -0.02, Pitch : 0.0, Yaw : 359.83, Alt : 44.5, Lat : 49.2835704, Lng : -123.1150206, Q1 : 0.999998927116, Q2 : -0.000181327530299, Q3 : -8.68713177624e-05, Q4 : -0.00146199588198}
2019-04-14 16:20:24.61: SIM {TimeUS : 51234498, Roll : -0.02, Pitch : -0.02, Yaw : 359.82, Alt : 44.7400016785, Lat : 49.2835704, Lng : -123.1150206, Q1 : 0.999998807907, Q2 : -0.0002348167327, Q3 : -0.000243746937485, Q4 : -0.00149415701162}
2019-04-14 16:20:24.71: SIM {TimeUS : 51335291, Roll : -0.02, Pitch : -0.04, Yaw : 359.82, Alt : 44.9799995422, Lat : 49.2835704, Lng : -123.1150206, Q1 : 0.999998748302, Q2 : -0.000229100871366, Q3 : -0.000361190468539, Q4 : -0.00152736203745}
2019-04-14 16:20:24.81: SIM {TimeUS : 51435251, Roll : -0.02, Pitch : -0.04, Yaw : 359.82, Alt : 45.2099990845, Lat : 49.2835704, Lng : -123.1150206, Q1 : 0.999998688698, Q2 : -0.000259292311966, Q3 : -0.000394318572944, Q4 : -0.00155960139818}
2019-04-14 16:20:24.91: SIM {TimeUS : 51535211, Roll : -0.04, Pitch : -0.03, Yaw : 359.81, Alt : 45.4500007629, Lat : 49.2835704, Lng : -123.1150206, Q1 : 0.999998569489, Q2 : -0.00042154971743, Q3 : -0.000333428091835, Q4 : -0.00159543810878}
2019-04-14 16:20:25.01: SIM {TimeUS : 51635171, Roll : -0.07, Pitch : -0.03, Yaw : 359.81, Alt : 45.6800003052, Lat : 49.2835704, Lng : -123.1150206, Q1 : 0.999998390675, Q2 : -0.000698579882737, Q3 : -0.000276630860753, Q4 : -0.00163250428159}
2019-04-14 16:20:25.11: SIM {TimeUS : 51735131, Roll : -0.1, Pitch : -0.02, Yaw : 359.8, Alt : 45.9199981689, Lat : 49.2835703, Lng : -123.1150206, Q1 : 0.999998152256, Q2 : -0.000907297420781, Q3 : -0.000212857921724, Q4 : -0.00166739686392}
2019-04-14 16:20:25.21: SIM {TimeUS : 51835091, Roll : -0.1, Pitch : 0.0, Yaw : 359.8, Alt : 46.1500015259, Lat : 49.2835703, Lng : -123.1150206, Q1 : 0.999998092651, Q2 : -0.000957679527346, Q3 : -6.78531068843e-05, Q4 : -0.00169675960205}
2019-04-14 16:20:25.31: SIM {TimeUS : 51935051, Roll : -0.09, Pitch : 0.01, Yaw : 359.8, Alt : 46.3699989319, Lat : 49.2835704, Lng : -123.1150206, Q1 : 0.999998152256, Q2 : -0.000844128197059, Q3 : 0.000166170546436, Q4 : -0.00171904673334}
2019-04-14 16:20:25.41: SIM {TimeUS : 52035011, Roll : -0.07, Pitch : 0.03, Yaw : 359.8, Alt : 46.5900001526, Lat : 49.2835704, Lng : -123.1150206, Q1 : 0.999998211861, Q2 : -0.000617720652372, Q3 : 0.000312046700856, Q4 : -0.00174024619628}
2019-04-14 16:20:25.51: SIM {TimeUS : 52134971, Roll : -0.04, Pitch : 0.03, Yaw : 359.79, Alt : 46.8100013733, Lat : 49.2835704, Lng : -123.1150206, Q1 : 0.99999833107, Q2 : -0.000421290285885, Q3 : 0.00029620694113, Q4 : -0.0017607845366}
2019-04-14 16:20:25.61: SIM {TimeUS : 52234931, Roll : -0.03, Pitch : 0.01, Yaw : 359.79, Alt : 47.0200004578, Lat : 49.2835704, Lng : -123.1150206, Q1 : 0.99999833107, Q2 : -0.000324447726598, Q3 : 0.000144564241054, Q4 : -0.0017792340368}
2019-04-14 16:20:25.71: SIM {TimeUS : 52334891, Roll : -0.01, Pitch : -0.01, Yaw : 359.79, Alt : 47.2200012207, Lat : 49.2835703, Lng : -123.1150206, Q1 : 0.99999833107, Q2 : -0.000166873403941, Q3 : -0.000138706498547, Q4 : -0.00180003140122}
2019-04-14 16:20:25.81: SIM {TimeUS : 52434851, Roll : 0.0, Pitch : -0.05, Yaw : 359.79, Alt : 47.4199981689, Lat : 49.2835703, Lng : -123.1150206, Q1 : 0.999998271465, Q2 : 4.20721189585e-05, Q3 : -0.000440091855126, Q4 : -0.00182025891263}
2019-04-14 16:20:25.91: SIM {TimeUS : 52534811, Roll : 0.01, Pitch : -0.07, Yaw : 359.78, Alt : 47.5999984741, Lat : 49.2835703, Lng : -123.1150206, Q1 : 0.999998092651, Q2 : 0.000133926107083, Q3 : -0.000663211452775, Q4 : -0.00184485060163}
2019-04-14 16:20:26.01: SIM {TimeUS : 52634771, Roll : 0.02, Pitch : -0.11, Yaw : 359.78, Alt : 47.7799987793, Lat : 49.2835703, Lng : -123.1150206, Q1 : 0.999997735023, Q2 : 0.000201700138859, Q3 : -0.000977190095, Q4 : -0.0018713765312}
2019-04-14 16:20:26.11: SIM {TimeUS : 52734731, Roll : 0.04, Pitch : -0.12, Yaw : 359.78, Alt : 47.9399986267, Lat : 49.2835703, Lng : -123.1150206, Q1 : 0.999997496605, Q2 : 0.000424970785389, Q3 : -0.00110536511056, Q4 : -0.00189697463065}
2019-04-14 16:20:26.21: SIM {TimeUS : 52834691, Roll : 0.07, Pitch : -0.11, Yaw : 359.77, Alt : 48.0999984741, Lat : 49.2835703, Lng : -123.1150206, Q1 : 0.999997437, Q2 : 0.000651777372696, Q3 : -0.00102438020986, Q4 : -0.00192004651763}
2019-04-14 16:20:26.31: SIM {TimeUS : 52934651, Roll : 0.09, Pitch : -0.09, Yaw : 359.77, Alt : 48.2400016785, Lat : 49.2835704, Lng : -123.1150206, Q1 : 0.999997437, Q2 : 0.000792652950622, Q3 : -0.00083671376342, Q4 : -0.00193994457368}
2019-04-14 16:20:26.41: SIM {TimeUS : 53034611, Roll : 0.08, Pitch : -0.06, Yaw : 359.77, Alt : 48.3600006104, Lat : 49.2835704, Lng : -123.1150206, Q1 : 0.999997615814, Q2 : 0.000763004587498, Q3 : -0.000601205218118, Q4 : -0.0019617904909}
2019-04-14 16:20:26.51: SIM {TimeUS : 53134571, Roll : 0.07, Pitch : -0.04, Yaw : 359.77, Alt : 48.4799995422, Lat : 49.2835704, Lng : -123.1150206, Q1 : 0.999997735023, Q2 : 0.000694043177646, Q3 : -0.000427052989835, Q4 : -0.00198552524671}
2019-04-14 16:20:26.61: SIM {TimeUS : 53234531, Roll : 0.06, Pitch : -0.05, Yaw : 359.76, Alt : 48.5900001526, Lat : 49.2835704, Lng : -123.1150206, Q1 : 0.999997735023, Q2 : 0.000574808218516, Q3 : -0.00044731789967, Q4 : -0.00201121624559}
2019-04-14 16:20:26.71: SIM {TimeUS : 53335324, Roll : 0.04, Pitch : -0.05, Yaw : 359.76, Alt : 48.6800003052, Lat : 49.2835704, Lng : -123.1150206, Q1 : 0.999997735023, Q2 : 0.000353741779691, Q3 : -0.000462241529021, Q4 : -0.00204325839877}
2019-04-14 16:20:26.81: SIM {TimeUS : 53435284, Roll : 0.01, Pitch : -0.04, Yaw : 359.76, Alt : 48.7599983215, Lat : 49.2835704, Lng : -123.1150206, Q1 : 0.999997735023, Q2 : 0.000163989403518, Q3 : -0.0003830473579, Q4 : -0.00207574106753}
2019-04-14 16:20:26.91: SIM {TimeUS : 53535244, Roll : 0.0, Pitch : -0.02, Yaw : 359.75, Alt : 48.8300018311, Lat : 49.2835704, Lng : -123.1150206, Q1 : 0.999997735023, Q2 : 1.00193392427e-05, Q3 : -0.000231852376601, Q4 : -0.00210763211362}
2019-04-14 16:20:27.01: SIM {TimeUS : 53635204, Roll : 0.0, Pitch : 0.0, Yaw : 359.75, Alt : 48.8899993896, Lat : 49.2835704, Lng : -123.1150206, Q1 : 0.999997735023, Q2 : -6.3823776145e-05, Q3 : 8.10293499853e-07, Q4 : -0.00213564955629}
2019-04-14 16:20:27.11: SIM {TimeUS : 53735164, Roll : 0.0, Pitch : 0.03, Yaw : 359.75, Alt : 48.9399986267, Lat : 49.2835704, Lng : -123.1150206, Q1 : 0.999997615814, Q2 : 5.60790213058e-05, Q3 : 0.000304011249682, Q4 : -0.00216247793287}
2019-04-14 16:20:27.21: SIM {TimeUS : 53835124, Roll : 0.03, Pitch : 0.04, Yaw : 359.74, Alt : 48.9799995422, Lat : 49.2835704, Lng : -123.1150206, Q1 : 0.999997496605, Q2 : 0.00032716448186, Q3 : 0.000401342840632, Q4 : -0.00218992261216}
2019-04-14 16:20:27.31: SIM {TimeUS : 53935084, Roll : 0.12, Pitch : -0.07, Yaw : 359.74, Alt : 49.0200004578, Lat : 49.2835704, Lng : -123.1150206, Q1 : 0.999996781349, Q2 : 0.00108603527769, Q3 : -0.000614027027041, Q4 : -0.0022181479726}
2019-04-14 16:20:27.41: SIM {TimeUS : 54035044, Roll : 0.32, Pitch : -0.38, Yaw : 359.74, Alt : 49.0499992371, Lat : 49.2835704, Lng : -123.1150206, Q1 : 0.999987721443, Q2 : 0.00283254450187, Q3 : -0.00339468033053, Q4 : -0.00223749270663}
2019-04-14 16:20:27.51: SIM {TimeUS : 54135004, Roll : 0.66, Pitch : -0.94, Yaw : 359.73, Alt : 49.0800018311, Lat : 49.2835704, Lng : -123.1150206, Q1 : 0.999947011471, Q2 : 0.00576369976625, Q3 : -0.00822863262147, Q4 : -0.00224561197683}
2019-04-14 16:20:27.61: SIM {TimeUS : 54234964, Roll : 1.14, Pitch : -1.68, Yaw : 359.72, Alt : 49.1100006104, Lat : 49.2835706, Lng : -123.1150206, Q1 : 0.999839484692, Q2 : 0.00991340819746, Q3 : -0.0147579815239, Q4 : -0.00223256438039}
2019-04-14 16:20:27.71: SIM {TimeUS : 54334924, Roll : 1.7, Pitch : -2.53, Yaw : 359.71, Alt : 49.1300010681, Lat : 49.2835706, Lng : -123.1150205, Q1 : 0.999641001225, Q2 : 0.0148610258475, Q3 : -0.0221855510026, Q4 : -0.00219075754285}
2019-04-14 16:20:27.81: SIM {TimeUS : 54434884, Roll : 2.29, Pitch : -3.38, Yaw : 359.69, Alt : 49.1500015259, Lat : 49.2835707, Lng : -123.1150204, Q1 : 0.999361813068, Q2 : 0.0198963396251, Q3 : -0.0295933503658, Q4 : -0.00209745508619}
2019-04-14 16:20:27.91: SIM {TimeUS : 54534844, Roll : 2.78, Pitch : -4.09, Yaw : 359.67, Alt : 49.1599998474, Lat : 49.2835708, Lng : -123.1150203, Q1 : 0.999063789845, Q2 : 0.0241726711392, Q3 : -0.0358262062073, Q4 : -0.00194384052884}
2019-04-14 16:20:28.01: SIM {TimeUS : 54634804, Roll : 3.15, Pitch : -4.62, Yaw : 359.67, Alt : 49.1699981689, Lat : 49.2835709, Lng : -123.1150201, Q1 : 0.998805820942, Q2 : 0.0273575074971, Q3 : -0.0404422283173, Q4 : -0.00172612874303}
2019-04-14 16:20:28.11: SIM {TimeUS : 54734764, Roll : 3.4, Pitch : -5.02, Yaw : 359.68, Alt : 49.1899986267, Lat : 49.2835712, Lng : -123.11502, Q1 : 0.998596668243, Q2 : 0.0295826382935, Q3 : -0.0439019724727, Q4 : -0.00147745129652}
2019-04-14 16:20:28.21: SIM {TimeUS : 54834724, Roll : 3.62, Pitch : -5.34, Yaw : 359.69, Alt : 49.2000007629, Lat : 49.2835715, Lng : -123.1150197, Q1 : 0.998413264751, Q2 : 0.0314385034144, Q3 : -0.0467027649283, Q4 : -0.00121533533093}
2019-04-14 16:20:28.31: SIM {TimeUS : 54934684, Roll : 3.83, Pitch : -5.63, Yaw : 359.7, Alt : 49.2099990845, Lat : 49.2835719, Lng : -123.1150193, Q1 : 0.998232603073, Q2 : 0.0333144441247, Q3 : -0.0492020696402, Q4 : -0.000944072904531}
2019-04-14 16:20:28.41: SIM {TimeUS : 55034644, Roll : 4.05, Pitch : -5.91, Yaw : 359.71, Alt : 49.2099990845, Lat : 49.2835722, Lng : -123.1150189, Q1 : 0.998043894768, Q2 : 0.0352045707405, Q3 : -0.0516587905586, Q4 : -0.000682817015331}
2019-04-14 16:20:28.51: SIM {TimeUS : 55134604, Roll : 4.26, Pitch : -6.22, Yaw : 359.71, Alt : 49.2200012207, Lat : 49.2835727, Lng : -123.1150184, Q1 : 0.997835874557, Q2 : 0.0370630733669, Q3 : -0.0543112643063, Q4 : -0.000447724829428}
2019-04-14 16:20:28.61: SIM {TimeUS : 55234564, Roll : 4.44, Pitch : -6.5, Yaw : 359.71, Alt : 49.2299995422, Lat : 49.2835733, Lng : -123.1150178, Q1 : 0.997641921043, Q2 : 0.0385946556926, Q3 : -0.0567544326186, Q4 : -0.00024357237271}
2019-04-14 16:20:28.71: SIM {TimeUS : 55334524, Roll : 4.58, Pitch : -6.71, Yaw : 359.72, Alt : 49.2299995422, Lat : 49.2835739, Lng : -123.1150172, Q1 : 0.997490465641, Q2 : 0.0397558696568, Q3 : -0.0585855916142, Q4 : -5.91610223637e-05}
2019-04-14 16:20:28.81: SIM {TimeUS : 55435317, Roll : 4.67, Pitch : -6.85, Yaw : 359.73, Alt : 49.2400016785, Lat : 49.2835745, Lng : -123.1150165, Q1 : 0.997385203838, Q2 : 0.0405559390783, Q3 : -0.0598163194954, Q4 : 9.34324416448e-05}
2019-04-14 16:20:28.91: SIM {TimeUS : 55535277, Roll : 4.73, Pitch : -6.96, Yaw : 359.73, Alt : 49.2400016785, Lat : 49.2835752, Lng : -123.1150157, Q1 : 0.997304022312, Q2 : 0.0411109179258, Q3 : -0.0607833974063, Q4 : 0.000197734829271}
2019-04-14 16:20:29.01: SIM {TimeUS : 55635237, Roll : 4.8, Pitch : -7.05, Yaw : 359.73, Alt : 49.25, Lat : 49.2835761, Lng : -123.1150149, Q1 : 0.997228324413, Q2 : 0.041720289737, Q3 : -0.0616044253111, Q4 : 0.000275623664493}
2019-04-14 16:20:29.11: SIM {TimeUS : 55735197, Roll : 4.94, Pitch : -7.17, Yaw : 359.73, Alt : 49.25, Lat : 49.2835769, Lng : -123.1150139, Q1 : 0.997114360332, Q2 : 0.0429495759308, Q3 : -0.0625956356525, Q4 : 0.000394596951082}
2019-04-14 16:20:29.21: SIM {TimeUS : 55835157, Roll : 5.31, Pitch : -7.23, Yaw : 359.91, Alt : 49.2599983215, Lat : 49.2835777, Lng : -123.1150131, Q1 : 0.996933281422, Q2 : 0.0462398715317, Q3 : -0.0630975589156, Q4 : 0.00215911003761}
2019-04-14 16:20:29.31: SIM {TimeUS : 55935117, Roll : 5.93, Pitch : -7.25, Yaw : 0.84, Alt : 49.2599983215, Lat : 49.2835788, Lng : -123.1150121, Q1 : 0.996608555317, Q2 : 0.05209344998, Q3 : -0.06281555444, Q4 : 0.0105822458863}
2019-04-14 16:20:29.41: SIM {TimeUS : 56035077, Roll : 6.52, Pitch : -7.42, Yaw : 3.16, Alt : 49.2599983215, Lat : 49.2835798, Lng : -123.115011, Q1 : 0.995800971985, Q2 : 0.0585540831089, Q3 : -0.0630764588714, Q4 : 0.0311970468611}
2019-04-14 16:20:29.51: SIM {TimeUS : 56135037, Roll : 6.76, Pitch : -7.94, Yaw : 7.09, Alt : 49.2599983215, Lat : 49.2835807, Lng : -123.1150098, Q1 : 0.993697106838, Q2 : 0.0629903003573, Q3 : -0.0654066056013, Q4 : 0.0657291933894}
2019-04-14 16:20:29.61: SIM {TimeUS : 56234997, Roll : 6.4, Pitch : -8.81, Yaw : 12.52, Alt : 49.2599983215, Lat : 49.2835818, Lng : -123.1150084, Q1 : 0.989078879356, Q2 : 0.0637497827411, Q3 : -0.0702009424567, Q4 : 0.112830430269}
2019-04-14 16:20:29.71: SIM {TimeUS : 56334957, Roll : 5.19, Pitch : -9.9, Yaw : 19.14, Alt : 49.2599983215, Lat : 49.283583, Lng : -123.1150072, Q1 : 0.980743288994, Q2 : 0.0588601119816, Q3 : -0.077506609261, Q4 : 0.169324487448}
2019-04-14 16:20:29.81: SIM {TimeUS : 56434917, Roll : 2.98, Pitch : -10.97, Yaw : 26.32, Alt : 49.2700004578, Lat : 49.2835842, Lng : -123.1150057, Q1 : 0.968376398087, Q2 : 0.0469832196832, Q3 : -0.0871671587229, Q4 : 0.229001268744}
2019-04-14 16:20:29.91: SIM {TimeUS : 56534877, Roll : 0.13, Pitch : -11.79, Yaw : 33.27, Alt : 49.2700004578, Lat : 49.2835854, Lng : -123.1150041, Q1 : 0.953044652939, Q2 : 0.0305127203465, Q3 : -0.0980898290873, Q4 : 0.284874051809}
2019-04-14 16:20:30.01: SIM {TimeUS : 56634837, Roll : -2.74, Pitch : -12.24, Yaw : 39.24, Alt : 49.2700004578, Lat : 49.2835867, Lng : -123.1150025, Q1 : 0.937141656876, Q2 : 0.0134239643812, Q3 : -0.108452923596, Q4 : 0.331395983696}
2019-04-14 16:20:30.11: SIM {TimeUS : 56734797, Roll : -5.02, Pitch : -12.42, Yaw : 43.69, Alt : 49.2700004578, Lat : 49.2835879, Lng : -123.1150009, Q1 : 0.923592269421, Q2 : -0.000223942799494, Q3 : -0.116585835814, Q4 : 0.365219086409}
2019-04-14 16:20:30.21: SIM {TimeUS : 56834757, Roll : -6.38, Pitch : -12.49, Yaw : 46.4, Alt : 49.2700004578, Lat : 49.2835895, Lng : -123.1149992, Q1 : 0.914635062218, Q2 : -0.00807122886181, Q3 : -0.121637269855, Q4 : 0.385463297367}
2019-04-14 16:20:30.31: SIM {TimeUS : 56934717, Roll : -6.76, Pitch : -12.57, Yaw : 47.44, Alt : 49.2700004578, Lat : 49.283591, Lng : -123.1149976, Q1 : 0.911001384258, Q2 : -0.00972059462219, Q3 : -0.123722143471, Q4 : 0.393287271261}
2019-04-14 16:20:30.41: SIM {TimeUS : 57034677, Roll : -6.32, Pitch : -12.8, Yaw : 47.09, Alt : 49.2700004578, Lat : 49.2835928, Lng : -123.1149959, Q1 : 0.912085056305, Q2 : -0.00581150734797, Q3 : -0.123947679996, Q4 : 0.390773683786}
2019-04-14 16:20:30.51: SIM {TimeUS : 57134637, Roll : -5.28, Pitch : -13.21, Yaw : 45.66, Alt : 49.2700004578, Lat : 49.2835946, Lng : -123.1149942, Q1 : 0.916590154171, Q2 : 0.00239235209301, Q3 : -0.123754560947, Q4 : 0.380186259747}
2019-04-14 16:20:30.61: SIM {TimeUS : 57234597, Roll : -3.88, Pitch : -13.79, Yaw : 43.48, Alt : 49.2700004578, Lat : 49.2835964, Lng : -123.1149925, Q1 : 0.923112571239, Q2 : 0.0131717929617, Q3 : -0.123948581517, Q4 : 0.36376708746}
2019-04-14 16:20:30.71: SIM {TimeUS : 57334557, Roll : -2.32, Pitch : -14.4, Yaw : 40.84, Alt : 49.2700004578, Lat : 49.2835983, Lng : -123.1149908, Q1 : 0.93043845892, Q2 : 0.024884250015, Q3 : -0.124493129551, Q4 : 0.343753606081}
2019-04-14 16:20:30.81: SIM {TimeUS : 57434517, Roll : -0.76, Pitch : -14.94, Yaw : 38.05, Alt : 49.2799987793, Lat : 49.2836004, Lng : -123.114989, Q1 : 0.937581241131, Q2 : 0.036122970283, Q3 : -0.125143766403, Q4 : 0.322452455759}
2019-04-14 16:20:30.91: SIM {TimeUS : 57535310, Roll : 0.64, Pitch : -15.33, Yaw : 35.41, Alt : 49.2799987793, Lat : 49.2836025, Lng : -123.114987, Q1 : 0.943866312504, Q2 : 0.0459308363497, Q3 : -0.125425100327, Q4 : 0.302118122578}
2019-04-14 16:20:31.01: SIM {TimeUS : 57635270, Roll : 1.77, Pitch : -15.53, Yaw : 33.21, Alt : 49.2799987793, Lat : 49.2836045, Lng : -123.114985, Q1 : 0.948778510094, Q2 : 0.0533545389771, Q3 : -0.12511998415, Q4 : 0.285162359476}
2019-04-14 16:20:31.11: SIM {TimeUS : 57735230, Roll : 2.54, Pitch : -15.58, Yaw : 31.62, Alt : 49.2799987793, Lat : 49.2836068, Lng : -123.1149829, Q1 : 0.952212750912, Q2 : 0.0581093616784, Q3 : -0.124469131231, Q4 : 0.272803336382}
2019-04-14 16:20:31.21: SIM {TimeUS : 57835190, Roll : 2.93, Pitch : -15.57, Yaw : 30.71, Alt : 49.2799987793, Lat : 49.283609, Lng : -123.1149807, Q1 : 0.954165041447, Q2 : 0.0603291764855, Q3 : -0.123896919191, Q4 : 0.265667051077}
2019-04-14 16:20:31.31: SIM {TimeUS : 57935150, Roll : 2.95, Pitch : -15.57, Yaw : 30.46, Alt : 49.2799987793, Lat : 49.2836112, Lng : -123.1149783, Q1 : 0.954723596573, Q2 : 0.0602144673467, Q3 : -0.124026052654, Q4 : 0.263618290424}
2019-04-14 16:20:31.41: SIM {TimeUS : 58035110, Roll : 2.63, Pitch : -15.63, Yaw : 30.79, Alt : 49.2799987793, Lat : 49.2836135, Lng : -123.1149759, Q1 : 0.954068899155, Q2 : 0.0580637305975, Q3 : -0.125057399273, Q4 : 0.265973448753}
2019-04-14 16:20:31.51: SIM {TimeUS : 58135070, Roll : 2.05, Pitch : -15.74, Yaw : 31.55, Alt : 49.2799987793, Lat : 49.2836159, Lng : -123.1149734, Q1 : 0.952426433563, Q2 : 0.0543624050915, Q3 : -0.126970812678, Q4 : 0.271674603224}
2019-04-14 16:20:31.61: SIM {TimeUS : 58235030, Roll : 1.33, Pitch : -15.87, Yaw : 32.6, Alt : 49.2799987793, Lat : 49.2836183, Lng : -123.1149708, Q1 : 0.950095295906, Q2 : 0.049831867218, Q3 : -0.129260525107, Q4 : 0.27951285243}
2019-04-14 16:20:31.71: SIM {TimeUS : 58334990, Roll : 0.59, Pitch : -15.98, Yaw : 33.76, Alt : 49.2799987793, Lat : 49.2836207, Lng : -123.1149682, Q1 : 0.947383344173, Q2 : 0.0453446209431, Q3 : -0.131562039256, Q4 : 0.28827098012}
2019-04-14 16:20:31.81: SIM {TimeUS : 58434950, Roll : -0.09, Pitch : -16.08, Yaw : 34.89, Alt : 49.2799987793, Lat : 49.2836231, Lng : -123.1149655, Q1 : 0.944632768631, Q2 : 0.0412066988647, Q3 : -0.133740127087, Q4 : 0.2967903018}
2019-04-14 16:20:31.91: SIM {TimeUS : 58534910, Roll : -0.64, Pitch : -16.17, Yaw : 35.88, Alt : 49.2799987793, Lat : 49.2836256, Lng : -123.1149627, Q1 : 0.94214785099, Q2 : 0.0379940643907, Q3 : -0.135539487004, Q4 : 0.304208636284}
2019-04-14 16:20:32.01: SIM {TimeUS : 58634870, Roll : -1.01, Pitch : -16.21, Yaw : 36.63, Alt : 49.2799987793, Lat : 49.2836281, Lng : -123.1149599, Q1 : 0.940194010735, Q2 : 0.0359965786338, Q3 : -0.136664539576, Q4 : 0.309939175844}
2019-04-14 16:20:32.11: SIM {TimeUS : 58734830, Roll : -1.21, Pitch : -16.24, Yaw : 37.11, Alt : 49.2799987793, Lat : 49.2836308, Lng : -123.1149571, Q1 : 0.938923418522, Q2 : 0.0350320339203, Q3 : -0.137251034379, Q4 : 0.31362041831}
2019-04-14 16:20:32.21: SIM {TimeUS : 58834790, Roll : -1.25, Pitch : -16.27, Yaw : 37.31, Alt : 49.2799987793, Lat : 49.2836335, Lng : -123.1149543, Q1 : 0.938348770142, Q2 : 0.0350128598511, Q3 : -0.137578383088, Q4 : 0.315194934607}
2019-04-14 16:20:32.31: SIM {TimeUS : 58934750, Roll : -1.16, Pitch : -16.32, Yaw : 37.26, Alt : 49.2799987793, Lat : 49.2836361, Lng : -123.1149514, Q1 : 0.938408792019, Q2 : 0.0358327105641, Q3 : -0.137726947665, Q4 : 0.31485915184}
2019-04-14 16:20:32.41: SIM {TimeUS : 59034710, Roll : -0.96, Pitch : -16.39, Yaw : 37.0, Alt : 49.2799987793, Lat : 49.2836389, Lng : -123.1149485, Q1 : 0.938967823982, Q2 : 0.0373390205204, Q3 : -0.137816563249, Q4 : 0.312972486019}
2019-04-14 16:20:32.51: SIM {TimeUS : 59134670, Roll : -0.69, Pitch : -16.45, Yaw : 36.61, Alt : 49.2799987793, Lat : 49.2836416, Lng : -123.1149455, Q1 : 0.939879715443, Q2 : 0.0392191484571, Q3 : -0.137777402997, Q4 : 0.31000867486}
2019-04-14 16:20:32.61: SIM {TimeUS : 59234630, Roll : -0.39, Pitch : -16.51, Yaw : 36.13, Alt : 49.2799987793, Lat : 49.2836445, Lng : -123.1149426, Q1 : 0.94097006321, Q2 : 0.0412793010473, Q3 : -0.137642592192, Q4 : 0.306473344564}
2019-04-14 16:20:32.71: SIM {TimeUS : 59334590, Roll : -0.09, Pitch : -16.57, Yaw : 35.65, Alt : 49.2900009155, Lat : 49.2836473, Lng : -123.1149396, Q1 : 0.942082822323, Q2 : 0.0433103255928, Q3 : -0.137439951301, Q4 : 0.302843928337}
2019-04-14 16:20:32.81: SIM {TimeUS : 59434550, Roll : 0.16, Pitch : -16.6, Yaw : 35.21, Alt : 49.2900009155, Lat : 49.2836501, Lng : -123.1149365, Q1 : 0.943091869354, Q2 : 0.0450698286295, Q3 : -0.13722422719, Q4 : 0.299526244402}
2019-04-14 16:20:32.91: SIM {TimeUS : 59534510, Roll : 0.38, Pitch : -16.63, Yaw : 34.85, Alt : 49.2900009155, Lat : 49.283653, Lng : -123.1149335, Q1 : 0.943902015686, Q2 : 0.0464819967747, Q3 : -0.13705162704, Q4 : 0.296825259924}
2019-04-14 16:20:33.01: SIM {TimeUS : 59635303, Roll : 0.52, Pitch : -16.66, Yaw : 34.6, Alt : 49.2900009155, Lat : 49.283656, Lng : -123.1149303, Q1 : 0.944460749626, Q2 : 0.047456972301, Q3 : -0.137008622289, Q4 : 0.294907391071}
2019-04-14 16:20:33.11: SIM {TimeUS : 59735263, Roll : 0.58, Pitch : -16.69, Yaw : 34.46, Alt : 49.2900009155, Lat : 49.2836589, Lng : -123.1149272, Q1 : 0.944756627083, Q2 : 0.0478506311774, Q3 : -0.137130975723, Q4 : 0.293837308884}
2019-04-14 16:20:33.21: SIM {TimeUS : 59835223, Roll : 0.56, Pitch : -16.71, Yaw : 34.43, Alt : 49.2900009155, Lat : 49.2836619, Lng : -123.1149239, Q1 : 0.9448107481, Q2 : 0.0477160066366, Q3 : -0.137402445078, Q4 : 0.293558359146}
2019-04-14 16:20:33.31: SIM {TimeUS : 59935183, Roll : 0.49, Pitch : -16.75, Yaw : 34.49, Alt : 49.2900009155, Lat : 49.2836647, Lng : -123.1149208, Q1 : 0.944636404514, Q2 : 0.0472881756723, Q3 : -0.137904137373, Q4 : 0.293952971697}
2019-04-14 16:20:33.41: SIM {TimeUS : 60035143, Roll : 0.37, Pitch : -16.81, Yaw : 34.62, Alt : 49.2900009155, Lat : 49.2836677, Lng : -123.1149176, Q1 : 0.944291651249, Q2 : 0.0466074943542, Q3 : -0.138601183891, Q4 : 0.294840335846}
2019-04-14 16:20:33.51: SIM {TimeUS : 60135103, Roll : 0.21, Pitch : -16.86, Yaw : 34.79, Alt : 49.2900009155, Lat : 49.2836707, Lng : -123.1149143, Q1 : 0.943863451481, Q2 : 0.0456418022513, Q3 : -0.139352396131, Q4 : 0.296005904675}
2019-04-14 16:20:33.61: SIM {TimeUS : 60235063, Roll : 0.06, Pitch : -16.9, Yaw : 34.97, Alt : 49.2900009155, Lat : 49.2836738, Lng : -123.114911, Q1 : 0.943411827087, Q2 : 0.0446791350842, Q3 : -0.139998197556, Q4 : 0.297285139561}
2019-04-14 16:20:33.71: SIM {TimeUS : 60335023, Roll : -0.07, Pitch : -16.93, Yaw : 35.13, Alt : 49.2900009155, Lat : 49.2836768, Lng : -123.1149077, Q1 : 0.94298940897, Q2 : 0.0438529476523, Q3 : -0.140531435609, Q4 : 0.298494249582}
2019-04-14 16:20:33.81: SIM {TimeUS : 60434983, Roll : -0.15, Pitch : -16.96, Yaw : 35.27, Alt : 49.2900009155, Lat : 49.2836799, Lng : -123.1149043, Q1 : 0.942618250847, Q2 : 0.0433924943209, Q3 : -0.141018852592, Q4 : 0.299502432346}
2019-04-14 16:20:33.91: SIM {TimeUS : 60534943, Roll : -0.2, Pitch : -17.0, Yaw : 35.37, Alt : 49.2999992371, Lat : 49.2836831, Lng : -123.114901, Q1 : 0.942332983017, Q2 : 0.0432669818401, Q3 : -0.141432270408, Q4 : 0.300222247839}
2019-04-14 16:20:34.01: SIM {TimeUS : 60634903, Roll : -0.2, Pitch : -17.05, Yaw : 35.42, Alt : 49.2999992371, Lat : 49.2836862, Lng : -123.1148976, Q1 : 0.942144274712, Q2 : 0.0434499457479, Q3 : -0.141787141562, Q4 : 0.30062058568}
2019-04-14 16:20:34.11: SIM {TimeUS : 60734863, Roll : -0.16, Pitch : -17.09, Yaw : 35.42, Alt : 49.2999992371, Lat : 49.2836893, Lng : -123.1148942, Q1 : 0.942063331604, Q2 : 0.0439077243209, Q3 : -0.142047479749, Q4 : 0.300684720278}
2019-04-14 16:20:34.21: SIM {TimeUS : 60834823, Roll : -0.12, Pitch : -17.13, Yaw : 35.39, Alt : 49.2999992371, Lat : 49.2836924, Lng : -123.1148908, Q1 : 0.94210588932, Q2 : 0.04426664114, Q3 : -0.142212122679, Q4 : 0.300420850515}
2019-04-14 16:20:34.31: SIM {TimeUS : 60934783, Roll : -0.09, Pitch : -17.13, Yaw : 35.32, Alt : 49.2999992371, Lat : 49.2836955, Lng : -123.1148874, Q1 : 0.942255318165, Q2 : 0.0444728024304, Q3 : -0.14222471416, Q4 : 0.299915403128}
2019-04-14 16:20:34.41: SIM {TimeUS : 61034743, Roll : -0.06, Pitch : -17.14, Yaw : 35.24, Alt : 49.2999992371, Lat : 49.2836987, Lng : -123.114884, Q1 : 0.942459225655, Q2 : 0.0446168035269, Q3 : -0.14222638309, Q4 : 0.29925185442}
2019-04-14 16:20:34.51: SIM {TimeUS : 61134703, Roll : 0.0, Pitch : -17.15, Yaw : 35.14, Alt : 49.2999992371, Lat : 49.283702, Lng : -123.1148806, Q1 : 0.94267141819, Q2 : 0.0449586845934, Q3 : -0.142207145691, Q4 : 0.298540502787}
2019-04-14 16:20:34.61: SIM {TimeUS : 61234663, Roll : 0.05, Pitch : -17.16, Yaw : 35.05, Alt : 49.2999992371, Lat : 49.2837052, Lng : -123.1148771, Q1 : 0.942871689796, Q2 : 0.0453865602612, Q3 : -0.142205774784, Q4 : 0.297843337059}
2019-04-14 16:20:34.71: SIM {TimeUS : 61334623, Roll : 0.12, Pitch : -17.2, Yaw : 34.96, Alt : 49.2999992371, Lat : 49.2837083, Lng : -123.1148736, Q1 : 0.94301879406, Q2 : 0.0459576770663, Q3 : -0.142346546054, Q4 : 0.297221958637}
2019-04-14 16:20:34.81: SIM {TimeUS : 61434583, Roll : 0.18, Pitch : -17.26, Yaw : 34.9, Alt : 49.2999992371, Lat : 49.2837115, Lng : -123.1148701, Q1 : 0.943096935749, Q2 : 0.046515583992, Q3 : -0.142724767327, Q4 : 0.29670548439}
2019-04-14 16:20:34.91: SIM {TimeUS : 61534543, Roll : 0.21, Pitch : -17.3, Yaw : 34.84, Alt : 49.3100013733, Lat : 49.2837148, Lng : -123.1148666, Q1 : 0.943168103695, Q2 : 0.0468118935823, Q3 : -0.14297439158, Q4 : 0.296312212944}
2019-04-14 16:20:35.01: SIM {TimeUS : 61634503, Roll : 0.23, Pitch : -17.3, Yaw : 34.81, Alt : 49.3100013733, Lat : 49.283718, Lng : -123.1148631, Q1 : 0.943239212036, Q2 : 0.0469299331307, Q3 : -0.142981231213, Q4 : 0.296063840389}
2019-04-14 16:20:35.11: SIM {TimeUS : 61735296, Roll : 0.22, Pitch : -17.32, Yaw : 34.8, Alt : 49.3100013733, Lat : 49.2837214, Lng : -123.1148596, Q1 : 0.943263113499, Q2 : 0.046918194741, Q3 : -0.14309746027, Q4 : 0.295933127403}
2019-04-14 16:20:35.21: SIM {TimeUS : 61835256, Roll : 0.19, Pitch : -17.34, Yaw : 34.8, Alt : 49.3100013733, Lat : 49.2837247, Lng : -123.114856, Q1 : 0.943250179291, Q2 : 0.0466694608331, Q3 : -0.143382012844, Q4 : 0.295876145363}
2019-04-14 16:20:35.31: SIM {TimeUS : 61935216, Roll : 0.15, Pitch : -17.36, Yaw : 34.81, Alt : 49.3100013733, Lat : 49.2837278, Lng : -123.1148525, Q1 : 0.9432092309, Q2 : 0.0464748628438, Q3 : -0.143660783768, Q4 : 0.295902192593}
2019-04-14 16:20:35.41: SIM {TimeUS : 62035176, Roll : 0.12, Pitch : -17.39, Yaw : 34.82, Alt : 49.3100013733, Lat : 49.2837312, Lng : -123.1148489, Q1 : 0.943149268627, Q2 : 0.0463085733354, Q3 : -0.143937394023, Q4 : 0.295984864235}
2019-04-14 16:20:35.51: SIM {TimeUS : 62135136, Roll : 0.1, Pitch : -17.41, Yaw : 34.84, Alt : 49.3100013733, Lat : 49.2837344, Lng : -123.1148453, Q1 : 0.943080961704, Q2 : 0.0462297126651, Q3 : -0.144178360701, Q4 : 0.296097576618}
2019-04-14 16:20:35.61: SIM {TimeUS : 62235096, Roll : 0.1, Pitch : -17.44, Yaw : 34.86, Alt : 49.3100013733, Lat : 49.2837378, Lng : -123.1148417, Q1 : 0.943009972572, Q2 : 0.046244289726, Q3 : -0.144401341677, Q4 : 0.296212613583}
2019-04-14 16:20:35.71: SIM {TimeUS : 62335056, Roll : 0.1, Pitch : -17.46, Yaw : 34.87, Alt : 49.3100013733, Lat : 49.2837411, Lng : -123.1148381, Q1 : 0.942954480648, Q2 : 0.0463197305799, Q3 : -0.144570335746, Q4 : 0.296295076609}
2019-04-14 16:20:35.81: SIM {TimeUS : 62435016, Roll : 0.11, Pitch : -17.48, Yaw : 34.87, Alt : 49.3100013733, Lat : 49.2837445, Lng : -123.1148345, Q1 : 0.942916572094, Q2 : 0.046473942697, Q3 : -0.144721567631, Q4 : 0.296317785978}
2019-04-14 16:20:35.91: SIM {TimeUS : 62534976, Roll : 0.12, Pitch : -17.51, Yaw : 34.86, Alt : 49.3100013733, Lat : 49.2837478, Lng : -123.1148309, Q1 : 0.942888796329, Q2 : 0.0466633662581, Q3 : -0.144942000508, Q4 : 0.296268582344}
2019-04-14 16:20:36.01: SIM {TimeUS : 62634936, Roll : 0.12, Pitch : -17.55, Yaw : 34.85, Alt : 49.3100013733, Lat : 49.2837512, Lng : -123.1148272, Q1 : 0.942879796028, Q2 : 0.0467405878007, Q3 : -0.1452691257, Q4 : 0.29612493515}
2019-04-14 16:20:36.11: SIM {TimeUS : 62734896, Roll : 0.1, Pitch : -17.59, Yaw : 34.83, Alt : 49.3199996948, Lat : 49.2837545, Lng : -123.1148237, Q1 : 0.942889511585, Q2 : 0.0466643646359, Q3 : -0.145671665668, Q4 : 0.295908153057}
2019-04-14 16:20:36.21: SIM {TimeUS : 62834856, Roll : 0.1, Pitch : -17.63, Yaw : 34.8, Alt : 49.3199996948, Lat : 49.2837579, Lng : -123.11482, Q1 : 0.94290792942, Q2 : 0.0466998741031, Q3 : -0.146023139358, Q4 : 0.295670479536}
2019-04-14 16:20:36.31: SIM {TimeUS : 62934816, Roll : 0.12, Pitch : -17.66, Yaw : 34.77, Alt : 49.3199996948, Lat : 49.2837612, Lng : -123.1148164, Q1 : 0.942938089371, Q2 : 0.046946529299, Q3 : -0.146188318729, Q4 : 0.295453578234}
2019-04-14 16:20:36.41: SIM {TimeUS : 63034776, Roll : 0.16, Pitch : -17.66, Yaw : 34.74, Alt : 49.3199996948, Lat : 49.2837647, Lng : -123.1148126, Q1 : 0.942999780178, Q2 : 0.0471762157977, Q3 : -0.146101102233, Q4 : 0.295263081789}
2019-04-14 16:20:36.51: SIM {TimeUS : 63134736, Roll : 0.19, Pitch : -17.64, Yaw : 34.72, Alt : 49.3199996948, Lat : 49.283768, Lng : -123.114809, Q1 : 0.943082809448, Q2 : 0.0473263338208, Q3 : -0.145855933428, Q4 : 0.295095145702}
2019-04-14 16:20:36.61: SIM {TimeUS : 63234696, Roll : 0.19, Pitch : -17.62, Yaw : 34.69, Alt : 49.3199996948, Lat : 49.2837715, Lng : -123.1148054, Q1 : 0.943166971207, Q2 : 0.0472574308515, Q3 : -0.145708993077, Q4 : 0.294909745455}
2019-04-14 16:20:36.71: SIM {TimeUS : 63334656, Roll : 0.18, Pitch : -17.6, Yaw : 34.67, Alt : 49.3199996948, Lat : 49.2837749, Lng : -123.1148017, Q1 : 0.943246424198, Q2 : 0.0471055880189, Q3 : -0.145618885756, Q4 : 0.294724345207}
2019-04-14 16:20:36.81: SIM {TimeUS : 63434616, Roll : 0.17, Pitch : -17.59, Yaw : 34.65, Alt : 49.3199996948, Lat : 49.2837782, Lng : -123.114798, Q1 : 0.943320393562, Q2 : 0.0469566248357, Q3 : -0.145539358258, Q4 : 0.294550538063}
2019-04-14 16:20:36.91: SIM {TimeUS : 63534576, Roll : 0.15, Pitch : -17.6, Yaw : 34.63, Alt : 49.3199996948, Lat : 49.2837817, Lng : -123.1147943, Q1 : 0.943348705769, Q2 : 0.0468841530383, Q3 : -0.145721107721, Q4 : 0.294381380081}
2019-04-14 16:20:37.01: SIM {TimeUS : 63634536, Roll : 0.15, Pitch : -17.65, Yaw : 34.62, Alt : 49.3199996948, Lat : 49.283785, Lng : -123.1147906, Q1 : 0.943330168724, Q2 : 0.0469597838819, Q3 : -0.146085292101, Q4 : 0.294248312712}
2019-04-14 16:20:37.11: SIM {TimeUS : 63734496, Roll : 0.14, Pitch : -17.7, Yaw : 34.61, Alt : 49.3199996948, Lat : 49.2837885, Lng : -123.1147869, Q1 : 0.943288087845, Q2 : 0.0469933897257, Q3 : -0.146588623524, Q4 : 0.294127553701}
2019-04-14 16:20:37.21: SIM {TimeUS : 63835289, Roll : 0.14, Pitch : -17.77, Yaw : 34.6, Alt : 49.3199996948, Lat : 49.283792, Lng : -123.1147831, Q1 : 0.943234622478, Q2 : 0.0471091605723, Q3 : -0.147098317742, Q4 : 0.29402589798}
2019-04-14 16:20:37.31: SIM {TimeUS : 63935249, Roll : 0.15, Pitch : -17.79, Yaw : 34.59, Alt : 49.3199996948, Lat : 49.2837953, Lng : -123.1147794, Q1 : 0.943218588829, Q2 : 0.0472413264215, Q3 : -0.14728090167, Q4 : 0.293964833021}
2019-04-14 16:20:37.41: SIM {TimeUS : 64035209, Roll : 0.15, Pitch : -17.81, Yaw : 34.58, Alt : 49.3199996948, Lat : 49.2837989, Lng : -123.1147757, Q1 : 0.943206310272, Q2 : 0.0473186038435, Q3 : -0.147472888231, Q4 : 0.293895453215}
2019-04-14 16:20:37.51: SIM {TimeUS : 64135169, Roll : 0.14, Pitch : -17.83, Yaw : 34.57, Alt : 49.3300018311, Lat : 49.2838023, Lng : -123.1147719, Q1 : 0.943215370178, Q2 : 0.0472728982568, Q3 : -0.147614583373, Q4 : 0.293802559376}
2019-04-14 16:20:37.61: SIM {TimeUS : 64235129, Roll : 0.14, Pitch : -17.82, Yaw : 34.56, Alt : 49.3300018311, Lat : 49.2838057, Lng : -123.1147682, Q1 : 0.943254470825, Q2 : 0.0472574345767, Q3 : -0.147531360388, Q4 : 0.293721437454}
2019-04-14 16:20:37.71: SIM {TimeUS : 64335089, Roll : 0.16, Pitch : -17.83, Yaw : 34.55, Alt : 49.3300018311, Lat : 49.2838092, Lng : -123.1147644, Q1 : 0.94326633215, Q2 : 0.0473856218159, Q3 : -0.147575348616, Q4 : 0.293640553951}
2019-04-14 16:20:37.81: SIM {TimeUS : 64435049, Roll : 0.17, Pitch : -17.85, Yaw : 34.54, Alt : 49.3300018311, Lat : 49.2838127, Lng : -123.1147607, Q1 : 0.943264961243, Q2 : 0.0475197397172, Q3 : -0.147744223475, Q4 : 0.293538451195}
2019-04-14 16:20:37.91: SIM {TimeUS : 64535009, Roll : 0.18, Pitch : -17.87, Yaw : 34.53, Alt : 49.3300018311, Lat : 49.2838161, Lng : -123.1147569, Q1 : 0.943269908428, Q2 : 0.047625053674, Q3 : -0.147883653641, Q4 : 0.293435066938}
2019-04-14 16:20:38.01: SIM {TimeUS : 64634969, Roll : 0.19, Pitch : -17.87, Yaw : 34.51, Alt : 49.3300018311, Lat : 49.2838196, Lng : -123.1147532, Q1 : 0.943300426006, Q2 : 0.047727253288, Q3 : -0.147848755121, Q4 : 0.293338000774}
2019-04-14 16:20:38.11: SIM {TimeUS : 64734929, Roll : 0.2, Pitch : -17.87, Yaw : 34.5, Alt : 49.3300018311, Lat : 49.2838232, Lng : -123.1147494, Q1 : 0.943327665329, Q2 : 0.0477712526917, Q3 : -0.147884353995, Q4 : 0.293225288391}
2019-04-14 16:20:38.21: SIM {TimeUS : 64834889, Roll : 0.19, Pitch : -17.89, Yaw : 34.48, Alt : 49.3300018311, Lat : 49.2838267, Lng : -123.1147456, Q1 : 0.94334423542, Q2 : 0.0477101765573, Q3 : -0.148069620132, Q4 : 0.293088495731}
2019-04-14 16:20:38.31: SIM {TimeUS : 64934849, Roll : 0.16, Pitch : -17.93, Yaw : 34.47, Alt : 49.3300018311, Lat : 49.2838302, Lng : -123.1147419, Q1 : 0.943344056606, Q2 : 0.0475478880107, Q3 : -0.148441404104, Q4 : 0.292927205563}
2019-04-14 16:20:38.41: SIM {TimeUS : 65034809, Roll : 0.14, Pitch : -17.94, Yaw : 34.46, Alt : 49.3300018311, Lat : 49.2838336, Lng : -123.1147381, Q1 : 0.943373501301, Q2 : 0.0473969914019, Q3 : -0.148559182882, Q4 : 0.292797058821}
2019-04-14 16:20:38.51: SIM {TimeUS : 65134769, Roll : 0.14, Pitch : -17.93, Yaw : 34.45, Alt : 49.3300018311, Lat : 49.2838372, Lng : -123.1147343, Q1 : 0.943416178226, Q2 : 0.047370031476, Q3 : -0.148485049605, Q4 : 0.292701542377}
2019-04-14 16:20:38.61: SIM {TimeUS : 65234729, Roll : 0.17, Pitch : -17.92, Yaw : 34.43, Alt : 49.3300018311, Lat : 49.2838407, Lng : -123.1147305, Q1 : 0.943449258804, Q2 : 0.0475181788206, Q3 : -0.148370712996, Q4 : 0.292628794909}
2019-04-14 16:20:38.71: SIM {TimeUS : 65334689, Roll : 0.18, Pitch : -17.93, Yaw : 34.42, Alt : 49.3300018311, Lat : 49.2838442, Lng : -123.1147267, Q1 : 0.943465650082, Q2 : 0.0476488284767, Q3 : -0.148407772183, Q4 : 0.292536020279}
2019-04-14 16:20:38.81: SIM {TimeUS : 65434649, Roll : 0.17, Pitch : -17.95, Yaw : 34.41, Alt : 49.3300018311, Lat : 49.2838476, Lng : -123.1147229, Q1 : 0.943472385406, Q2 : 0.0476330928504, Q3 : -0.148600399494, Q4 : 0.292419075966}
2019-04-14 16:20:38.91: SIM {TimeUS : 65534609, Roll : 0.15, Pitch : -17.97, Yaw : 34.4, Alt : 49.3400001526, Lat : 49.2838512, Lng : -123.114719, Q1 : 0.943486094475, Q2 : 0.0474500507116, Q3 : -0.148841276765, Q4 : 0.292281985283}
2019-04-14 16:20:39.01: SIM {TimeUS : 65634569, Roll : 0.13, Pitch : -17.99, Yaw : 34.38, Alt : 49.3400001526, Lat : 49.2838548, Lng : -123.1147153, Q1 : 0.943495452404, Q2 : 0.0473648160696, Q3 : -0.149041026831, Q4 : 0.292163729668}
2019-04-14 16:20:39.11: SIM {TimeUS : 65734529, Roll : 0.14, Pitch : -18.01, Yaw : 34.37, Alt : 49.3400001526, Lat : 49.2838583, Lng : -123.1147115, Q1 : 0.943498730659, Q2 : 0.0474644303322, Q3 : -0.149172469974, Q4 : 0.292070031166}
2019-04-14 16:20:39.21: SIM {TimeUS : 65835322, Roll : 0.16, Pitch : -18.02, Yaw : 34.36, Alt : 49.3400001526, Lat : 49.2838619, Lng : -123.1147077, Q1 : 0.94350284338, Q2 : 0.0476076044142, Q3 : -0.149260669947, Q4 : 0.291988402605}
2019-04-14 16:20:39.31: SIM {TimeUS : 65935282, Roll : 0.18, Pitch : -18.03, Yaw : 34.35, Alt : 49.3400001526, Lat : 49.2838653, Lng : -123.1147039, Q1 : 0.943505525589, Q2 : 0.0478072501719, Q3 : -0.14928150177, Q4 : 0.291936308146}
2019-04-14 16:20:39.41: SIM {TimeUS : 66035242, Roll : 0.19, Pitch : -18.05, Yaw : 34.34, Alt : 49.3400001526, Lat : 49.2838689, Lng : -123.1147001, Q1 : 0.943502306938, Q2 : 0.0479052253067, Q3 : -0.149382710457, Q4 : 0.29187899828}
2019-04-14 16:20:39.51: SIM {TimeUS : 66135202, Roll : 0.19, Pitch : -18.06, Yaw : 34.34, Alt : 49.3400001526, Lat : 49.2838725, Lng : -123.1146963, Q1 : 0.943491458893, Q2 : 0.0480051599443, Q3 : -0.149526566267, Q4 : 0.291823804379}
2019-04-14 16:20:39.61: SIM {TimeUS : 66235162, Roll : 0.21, Pitch : -18.08, Yaw : 34.33, Alt : 49.3400001526, Lat : 49.2838761, Lng : -123.1146924, Q1 : 0.943481981754, Q2 : 0.0481315366924, Q3 : -0.149635374546, Q4 : 0.291777908802}
2019-04-14 16:20:39.71: SIM {TimeUS : 66335122, Roll : 0.23, Pitch : -18.09, Yaw : 34.32, Alt : 49.3400001526, Lat : 49.2838796, Lng : -123.1146886, Q1 : 0.943472146988, Q2 : 0.0483464077115, Q3 : -0.149667978287, Q4 : 0.291757524014}
2019-04-14 16:20:39.81: SIM {TimeUS : 66435082, Roll : 0.27, Pitch : -18.1, Yaw : 34.32, Alt : 49.3400001526, Lat : 49.2838832, Lng : -123.1146848, Q1 : 0.943454802036, Q2 : 0.0486614778638, Q3 : -0.149672850966, Q4 : 0.291758835316}
2019-04-14 16:20:39.91: SIM {TimeUS : 66535042, Roll : 0.27, Pitch : -18.1, Yaw : 34.32, Alt : 49.3400001526, Lat : 49.2838866, Lng : -123.114681, Q1 : 0.943467378616, Q2 : 0.0486672185361, Q3 : -0.1496450454, Q4 : 0.291731327772}
2019-04-14 16:20:40.01: SIM {TimeUS : 66635002, Roll : 0.24, Pitch : -18.11, Yaw : 34.31, Alt : 49.3400001526, Lat : 49.2838902, Lng : -123.1146772, Q1 : 0.943477809429, Q2 : 0.0484904907644, Q3 : -0.149778082967, Q4 : 0.29165866971}
2019-04-14 16:20:40.11: SIM {TimeUS : 66734962, Roll : 0.22, Pitch : -18.13, Yaw : 34.31, Alt : 49.3499984741, Lat : 49.2838938, Lng : -123.1146733, Q1 : 0.943468511105, Q2 : 0.0483217202127, Q3 : -0.150060892105, Q4 : 0.291571587324}
