2019-04-14 15:52:06.90: SIM {TimeUS : 40716207, Roll : 0.0, Pitch : 0.0, Yaw : 0.0, Alt : 30.1000003815, Lat : 49.28357, Lng : -123.11502, Q1 : 1.0, Q2 : 0.0, Q3 : 0.0, Q4 : 0.0}
2019-04-14 15:52:07.01: SIM {TimeUS : 40835326, Roll : 0.0, Pitch : 0.0, Yaw : 0.0, Alt : 30.1000003815, Lat : 49.28357, Lng : -123.11502, Q1 : 1.0, Q2 : 0.0, Q3 : 0.0, Q4 : 0.0}
2019-04-14 15:52:07.11: SIM {TimeUS : 40935286, Roll : 0.0, Pitch : 0.0, Yaw : 0.0, Alt : 30.1000003815, Lat : 49.28357, Lng : -123.11502, Q1 : 1.0, Q2 : 0.0, Q3 : 0.0, Q4 : 0.0}
2019-04-14 15:52:07.21: SIM {TimeUS : 41035246, Roll : 0.0, Pitch : 0.0, Yaw : 0.0, Alt : 30.1000003815, Lat : 49.28357, Lng : -123.11502, Q1 : 1.0, Q2 : 0.0, Q3 : 0.0, Q4 : 0.0}
2019-04-14 15:52:07.31: SIM {TimeUS : 41135206, Roll : 0.0, Pitch : 0.0, Yaw : 0.0, Alt : 30.1000003815, Lat : 49.28357, Lng : -123.11502, Q1 : 1.0, Q2 : 0.0, Q3 : 0.0, Q4 : 0.0}
2019-04-14 15:52:07.41: SIM {TimeUS : 41235166, Roll : 0.0, Pitch : 0.0, Yaw : 0.0, Alt : 30.1000003815, Lat : 49.28357, Lng : -123.11502, Q1 : 1.0, Q2 : 0.0, Q3 : 0.0, Q4 : 0.0}
2019-04-14 15:52:07.51: SIM {TimeUS : 41335126, Roll : 0.0, Pitch : 0.0, Yaw : 0.0, Alt : 30.1000003815, Lat : 49.28357, Lng : -123.11502, Q1 : 1.0, Q2 : 0.0, Q3 : 0.0, Q4 : 0.0}
2019-04-14 15:52:07.61: SIM {TimeUS : 41435086, Roll : 0.0, Pitch : 0.0, Yaw : 0.0, Alt : 30.1000003815, Lat : 49.28357, Lng : -123.11502, Q1 : 1.0, Q2 : 0.0, Q3 : 0.0, Q4 : 0.0}
2019-04-14 15:52:07.71: SIM {TimeUS : 41535046, Roll : 0.0, Pitch : 0.0, Yaw : 0.0, Alt : 30.1000003815, Lat : 49.28357, Lng : -123.11502, Q1 : 1.0, Q2 : 0.0, Q3 : 0.0, Q4 : 0.0}
2019-04-14 15:52:07.81: SIM {TimeUS : 41635006, Roll : 0.0, Pitch : 0.0, Yaw : 0.0, Alt : 30.1000003815, Lat : 49.28357, Lng : -123.11502, Q1 : 1.0, Q2 : 0.0, Q3 : 0.0, Q4 : 0.0}
2019-04-14 15:52:07.91: SIM {TimeUS : 41734966, Roll : 0.0, Pitch : 0.0, Yaw : 0.0, Alt : 30.1000003815, Lat : 49.28357, Lng : -123.11502, Q1 : 1.0, Q2 : 0.0, Q3 : 0.0, Q4 : 0.0}
2019-04-14 15:52:08.01: SIM {TimeUS : 41834926, Roll : 0.0, Pitch : 0.0, Yaw : 0.0, Alt : 30.1000003815, Lat : 49.28357, Lng : -123.11502, Q1 : 1.0, Q2 : 0.0, Q3 : 0.0, Q4 : 0.0}
2019-04-14 15:52:08.11: SIM {TimeUS : 41934886, Roll : 0.0, Pitch : 0.0, Yaw : 0.0, Alt : 30.1000003815, Lat : 49.28357, Lng : -123.11502, Q1 : 1.0, Q2 : 0.0, Q3 : 0.0, Q4 : 0.0}
2019-04-14 15:52:08.21: SIM {TimeUS : 42034846, Roll : 0.0, Pitch : 0.0, Yaw : 0.0, Alt : 30.1000003815, Lat : 49.28357, Lng : -123.11502, Q1 : 1.0, Q2 : 0.0, Q3 : 0.0, Q4 : 0.0}
2019-04-14 15:52:08.31: SIM {TimeUS : 42134806, Roll : 0.0, Pitch : 0.0, Yaw : 0.0, Alt : 30.1000003815, Lat : 49.28357, Lng : -123.11502, Q1 : 1.0, Q2 : 0.0, Q3 : 0.0, Q4 : 0.0}
2019-04-14 15:52:08.41: SIM {TimeUS : 42234766, Roll : 0.0, Pitch : 0.0, Yaw : 0.0, Alt : 30.1000003815, Lat : 49.28357, Lng : -123.11502, Q1 : 1.0, Q2 : 0.0, Q3 : 0.0, Q4 : 0.0}
2019-04-14 15:52:08.51: SIM {TimeUS : 42334726, Roll : 0.0, Pitch : 0.0, Yaw : 0.0, Alt : 30.1000003815, Lat : 49.28357, Lng : -123.11502, Q1 : 1.0, Q2 : 0.0, Q3 : 0.0, Q4 : 0.0}
2019-04-14 15:52:08.61: SIM {TimeUS : 42434686, Roll : 0.0, Pitch : 0.0, Yaw : 0.0, Alt : 30.1000003815, Lat : 49.28357, Lng : -123.11502, Q1 : 1.0, Q2 : 0.0, Q3 : 0.0, Q4 : 0.0}
2019-04-14 15:52:08.71: SIM {TimeUS : 42534646, Roll : 0.0, Pitch : 0.0, Yaw : 0.0, Alt : 30.1000003815, Lat : 49.28357, Lng : -123.11502, Q1 : 1.0, Q2 : 0.0, Q3 : 0.0, Q4 : 0.0}
2019-04-14 15:52:08.81: SIM {TimeUS : 42634606, Roll : 0.0, Pitch : 0.0, Yaw : 0.0, Alt : 30.1000003815, Lat : 49.28357, Lng : -123.11502, Q1 : 1.0, Q2 : 0.0, Q3 : 0.0, Q4 : 0.0}
2019-04-14 15:52:08.91: SIM {TimeUS : 42734566, Roll : 0.0, Pitch : 0.0, Yaw : 0.0, Alt : 30.1000003815, Lat : 49.28357, Lng : -123.11502, Q1 : 1.0, Q2 : 0.0, Q3 : 0.0, Q4 : 0.0}
2019-04-14 15:52:09.02: SIM {TimeUS : 42835359, Roll : 0.0, Pitch : 0.0, Yaw : 0.0, Alt : 30.1000003815, Lat : 49.28357, Lng : -123.11502, Q1 : 1.0, Q2 : 0.0, Q3 : 0.0, Q4 : 0.0}
2019-04-14 15:52:09.11: SIM {TimeUS : 42935319, Roll : 0.0, Pitch : 0.0, Yaw : 0.0, Alt : 30.1000003815, Lat : 49.28357, Lng : -123.11502, Q1 : 1.0, Q2 : 0.0, Q3 : 0.0, Q4 : 0.0}
2019-04-14 15:52:09.21: SIM {TimeUS : 43035279, Roll : 0.0, Pitch : 0.0, Yaw : 0.0, Alt : 30.1000003815, Lat : 49.28357, Lng : -123.11502, Q1 : 1.0, Q2 : 0.0, Q3 : 0.0, Q4 : 6.45378759115e-12}
2019-04-14 15:52:09.31: SIM {TimeUS : 43135239, Roll : 0.0, Pitch : 0.0, Yaw : 0.0, Alt : 30.1000003815, Lat : 49.28357, Lng : -123.11502, Q1 : 1.0, Q2 : 0.0, Q3 : 0.0, Q4 : 1.04344363011e-11}
2019-04-14 15:52:09.41: SIM {TimeUS : 43235199, Roll : 0.0, Pitch : 0.0, Yaw : 360.0, Alt : 30.1000003815, Lat : 49.28357, Lng : -123.11502, Q1 : 1.0, Q2 : 0.0, Q3 : 0.0, Q4 : -9.69060778289e-08}
2019-04-14 15:52:09.51: SIM {TimeUS : 43335159, Roll : 0.0, Pitch : 0.0, Yaw : 359.99, Alt : 30.1000003815, Lat : 49.28357, Lng : -123.11502, Q1 : 1.0, Q2 : 0.0, Q3 : 0.0, Q4 : -2.25341551641e-07}
2019-04-14 15:52:09.61: SIM {TimeUS : 43435119, Roll : 0.0, Pitch : 0.0, Yaw : 359.99, Alt : 30.1000003815, Lat : 49.28357, Lng : -123.11502, Q1 : 1.0, Q2 : 0.0, Q3 : 0.0, Q4 : -4.23996226573e-07}
2019-04-14 15:52:09.71: SIM {TimeUS : 43535079, Roll : 0.0, Pitch : 0.0, Yaw : 359.99, Alt : 30.1000003815, Lat : 49.28357, Lng : -123.11502, Q1 : 1.0, Q2 : 0.0, Q3 : 0.0, Q4 : -6.12486019236e-07}
2019-04-14 15:52:09.81: SIM {TimeUS : 43635039, Roll : 0.0, Pitch : 0.0, Yaw : 359.99, Alt : 30.1000003815, Lat : 49.28357, Lng : -123.11502, Q1 : 1.0, Q2 : 0.0, Q3 : 0.0, Q4 : -8.06499429018e-07}
2019-04-14 15:52:09.91: SIM {TimeUS : 43734999, Roll : 0.0, Pitch : 0.0, Yaw : 359.99, Alt : 30.1000003815, Lat : 49.28357, Lng : -123.11502, Q1 : 1.0, Q2 : 0.0, Q3 : 0.0, Q4 : -9.62753915701e-07}
2019-04-14 15:52:10.01: SIM {TimeUS : 43834959, Roll : 0.0, Pitch : 0.0, Yaw : 359.99, Alt : 30.1000003815, Lat : 49.28357, Lng : -123.11502, Q1 : 1.0, Q2 : 0.0, Q3 : 0.0, Q4 : -1.11466522412e-06}
2019-04-14 15:52:10.11: SIM {TimeUS : 43934919, Roll : 0.0, Pitch : 0.0, Yaw : 359.99, Alt : 30.1100006104, Lat : 49.28357, Lng : -123.11502, Q1 : 1.0, Q2 : 0.0, Q3 : 0.0, Q4 : -1.30720718516e-06}
2019-04-14 15:52:10.21: SIM {TimeUS : 44034879, Roll : 0.0, Pitch : 0.0, Yaw : 359.99, Alt : 30.1299991608, Lat : 49.28357, Lng : -123.11502, Q1 : 1.0, Q2 : 0.0, Q3 : 0.0, Q4 : -1.54749056946e-06}
2019-04-14 15:52:10.31: SIM {TimeUS : 44134839, Roll : 0.0, Pitch : 0.0, Yaw : 359.99, Alt : 30.1599998474, Lat : 49.28357, Lng : -123.11502, Q1 : 1.0, Q2 : 0.0, Q3 : 0.0, Q4 : -1.81010852884e-06}
2019-04-14 15:52:10.41: SIM {TimeUS : 44234799, Roll : 0.0, Pitch : 0.0, Yaw : 359.99, Alt : 30.1900005341, Lat : 49.28357, Lng : -123.11502, Q1 : 1.0, Q2 : 0.0, Q3 : 0.0, Q4 : -2.03701301871e-06}
2019-04-14 15:52:10.51: SIM {TimeUS : 44334759, Roll : -0.03, Pitch : -0.03, Yaw : 359.99, Alt : 30.2299995422, Lat : 49.28357, Lng : -123.11502, Q1 : 0.999999940395, Q2 : -0.00028190203011, Q3 : -0.000267907016678, Q4 : -3.7008912841e-06}
2019-04-14 15:52:10.61: SIM {TimeUS : 44434719, Roll : -0.25, Pitch : -0.26, Yaw : 359.99, Alt : 30.2999992371, Lat : 49.28357, Lng : -123.11502, Q1 : 0.999994874001, Q2 : -0.00222795945592, Q3 : -0.00229430082254, Q4 : -2.60361539404e-05}
2019-04-14 15:52:10.71: SIM {TimeUS : 44534679, Roll : -0.54, Pitch : -0.53, Yaw : 359.99, Alt : 30.4400005341, Lat : 49.28357, Lng : -123.11502, Q1 : 0.999977827072, Q2 : -0.00475533446297, Q3 : -0.00466719456017, Q4 : -8.06669777376e-05}
2019-04-14 15:52:10.81: SIM {TimeUS : 44634639, Roll : -0.76, Pitch : -0.7, Yaw : 359.98, Alt : 30.5900001526, Lat : 49.28357, Lng : -123.11502, Q1 : 0.999958634377, Q2 : -0.00669257156551, Q3 : -0.00615832768381, Q4 : -0.000154281398864}
2019-04-14 15:52:10.91: SIM {TimeUS : 44734599, Roll : -0.83, Pitch : -0.73, Yaw : 359.97, Alt : 30.75, Lat : 49.28357, Lng : -123.11502, Q1 : 0.999952852726, Q2 : -0.00724781677127, Q3 : -0.00645475229248, Q4 : -0.000233553771977}
2019-04-14 15:52:11.01: SIM {TimeUS : 44834559, Roll : -0.74, Pitch : -0.65, Yaw : 359.96, Alt : 30.9099998474, Lat : 49.28357, Lng : -123.1150201, Q1 : 0.999962747097, Q2 : -0.00646498473361, Q3 : -0.00571107445285, Q4 : -0.000316711055348}
2019-04-14 15:52:11.12: SIM {TimeUS : 44935352, Roll : -0.54, Pitch : -0.48, Yaw : 359.95, Alt : 31.0599994659, Lat : 49.2835701, Lng : -123.1150201, Q1 : 0.999979615211, Q2 : -0.00475080311298, Q3 : -0.00425434391946, Q4 : -0.000389829656342}
2019-04-14 15:52:11.21: SIM {TimeUS : 45035312, Roll : -0.3, Pitch : -0.29, Yaw : 359.94, Alt : 31.2199993134, Lat : 49.2835701, Lng : -123.1150202, Q1 : 0.999993145466, Q2 : -0.00266668200493, Q3 : -0.00254260003567, Q4 : -0.000450536899734}
2019-04-14 15:52:11.31: SIM {TimeUS : 45135272, Roll : -0.09, Pitch : -0.11, Yaw : 359.94, Alt : 31.3799991608, Lat : 49.2835702, Lng : -123.1150203, Q1 : 0.999999046326, Q2 : -0.000796283537056, Q3 : -0.00104150630068, Q4 : -0.000492798280902}
2019-04-14 15:52:11.41: SIM {TimeUS : 45235232, Roll : 0.04, Pitch : 0.0, Yaw : 359.94, Alt : 31.5599994659, Lat : 49.2835702, Lng : -123.1150204, Q1 : 0.999999821186, Q2 : 0.000400000688387, Q3 : 7.56813897169e-05, Q4 : -0.000521177309565}
2019-04-14 15:52:11.51: SIM {TimeUS : 45335192, Roll : 0.09, Pitch : 0.08, Yaw : 359.93, Alt : 31.7299995422, Lat : 49.2835702, Lng : -123.1150204, Q1 : 0.999999284744, Q2 : 0.000816936721094, Q3 : 0.000705703103449, Q4 : -0.000537243729923}
2019-04-14 15:52:11.61: SIM {TimeUS : 45435152, Roll : 0.07, Pitch : 0.1, Yaw : 359.93, Alt : 31.9099998474, Lat : 49.2835703, Lng : -123.1150205, Q1 : 0.99999922514, Q2 : 0.000667313288432, Q3 : 0.000882458756678, Q4 : -0.000538434891496}
2019-04-14 15:52:11.71: SIM {TimeUS : 45535112, Roll : 0.06, Pitch : 0.1, Yaw : 359.94, Alt : 32.0999984741, Lat : 49.2835703, Lng : -123.1150206, Q1 : 0.999999284744, Q2 : 0.000531066616531, Q3 : 0.000955873518251, Q4 : -0.000518171465956}
2019-04-14 15:52:11.81: SIM {TimeUS : 45635072, Roll : 0.05, Pitch : 0.11, Yaw : 359.94, Alt : 32.2900009155, Lat : 49.2835703, Lng : -123.1150206, Q1 : 0.999999284744, Q2 : 0.000488036952447, Q3 : 0.000994237838313, Q4 : -0.000495539745316}
2019-04-14 15:52:11.91: SIM {TimeUS : 45735032, Roll : 0.05, Pitch : 0.11, Yaw : 359.94, Alt : 32.4799995422, Lat : 49.2835703, Lng : -123.1150206, Q1 : 0.99999922514, Q2 : 0.000480085873278, Q3 : 0.00103932479396, Q4 : -0.000476597546367}
2019-04-14 15:52:12.01: SIM {TimeUS : 45834992, Roll : 0.06, Pitch : 0.13, Yaw : 359.94, Alt : 32.6800003052, Lat : 49.2835703, Lng : -123.1150207, Q1 : 0.999999046326, Q2 : 0.000533048994839, Q3 : 0.00120809208602, Q4 : -0.000466722005513}
2019-04-14 15:52:12.11: SIM {TimeUS : 45934952, Roll : 0.08, Pitch : 0.14, Yaw : 359.94, Alt : 32.8699989319, Lat : 49.2835703, Lng : -123.1150207, Q1 : 0.999998867512, Q2 : 0.000732584041543, Q3 : 0.00124175497331, Q4 : -0.000460639916128}
2019-04-14 15:52:12.21: SIM {TimeUS : 46034912, Roll : 0.11, Pitch : 0.13, Yaw : 359.94, Alt : 33.0699996948, Lat : 49.2835704, Lng : -123.1150207, Q1 : 0.999998688698, Q2 : 0.00102160451934, Q3 : 0.00115244893823, Q4 : -0.000458367605461}
2019-04-14 15:52:12.31: SIM {TimeUS : 46134872, Roll : 0.14, Pitch : 0.12, Yaw : 359.94, Alt : 33.2799987793, Lat : 49.2835704, Lng : -123.1150208, Q1 : 0.999998450279, Q2 : 0.00130706012715, Q3 : 0.00109032785986, Q4 : -0.000456436071545}
2019-04-14 15:52:12.41: SIM {TimeUS : 46234832, Roll : 0.17, Pitch : 0.13, Yaw : 359.94, Alt : 33.4799995422, Lat : 49.2835704, Lng : -123.1150208, Q1 : 0.999998152256, Q2 : 0.00149518973194, Q3 : 0.00113396183588, Q4 : -0.000453823333373}
2019-04-14 15:52:12.51: SIM {TimeUS : 46334792, Roll : 0.19, Pitch : 0.14, Yaw : 359.94, Alt : 33.6899986267, Lat : 49.2835704, Lng : -123.1150208, Q1 : 0.999997735023, Q2 : 0.00167448876891, Q3 : 0.00123564747628, Q4 : -0.000456665700767}
2019-04-14 15:52:12.61: SIM {TimeUS : 46434752, Roll : 0.19, Pitch : 0.13, Yaw : 359.94, Alt : 33.9000015259, Lat : 49.2835704, Lng : -123.1150208, Q1 : 0.999997794628, Q2 : 0.00168172782287, Q3 : 0.00119076843839, Q4 : -0.000458557100501}
2019-04-14 15:52:12.71: SIM {TimeUS : 46534712, Roll : 0.17, Pitch : 0.12, Yaw : 359.94, Alt : 34.1100006104, Lat : 49.2835704, Lng : -123.1150208, Q1 : 0.999998152256, Q2 : 0.00151841156185, Q3 : 0.00111626996659, Q4 : -0.000457733374787}
2019-04-14 15:52:12.81: SIM {TimeUS : 46634672, Roll : 0.14, Pitch : 0.12, Yaw : 359.94, Alt : 34.3199996948, Lat : 49.2835704, Lng : -123.1150208, Q1 : 0.999998569489, Q2 : 0.00124484486878, Q3 : 0.00104874523822, Q4 : -0.000468154234113}
2019-04-14 15:52:12.91: SIM {TimeUS : 46734632, Roll : 0.11, Pitch : 0.11, Yaw : 359.94, Alt : 34.5299987793, Lat : 49.2835704, Lng : -123.1150208, Q1 : 0.999998927116, Q2 : 0.000976446433924, Q3 : 0.00096433039289, Q4 : -0.000481224560644}
2019-04-14 15:52:13.01: SIM {TimeUS : 46834592, Roll : 0.08, Pitch : 0.07, Yaw : 359.94, Alt : 34.7400016785, Lat : 49.2835704, Lng : -123.1150208, Q1 : 0.999999344349, Q2 : 0.000782894494478, Q3 : 0.00063089717878, Q4 : -0.000507278949954}
2019-04-14 15:52:13.11: SIM {TimeUS : 46934552, Roll : 0.07, Pitch : 0.03, Yaw : 359.93, Alt : 34.9599990845, Lat : 49.2835704, Lng : -123.1150208, Q1 : 0.999999582767, Q2 : 0.000645220163278, Q3 : 0.00031408527866, Q4 : -0.000542896217667}
2019-04-14 15:52:13.22: SIM {TimeUS : 47035345, Roll : 0.05, Pitch : 0.01, Yaw : 359.93, Alt : 35.1800003052, Lat : 49.2835704, Lng : -123.1150207, Q1 : 0.999999701977, Q2 : 0.000470624800073, Q3 : 0.000156403490109, Q4 : -0.000586123089306}
2019-04-14 15:52:13.31: SIM {TimeUS : 47135305, Roll : 0.04, Pitch : 0.01, Yaw : 359.92, Alt : 35.3899993896, Lat : 49.2835704, Lng : -123.1150207, Q1 : 0.999999761581, Q2 : 0.000357514974894, Q3 : 0.000130659915158, Q4 : -0.000625315180514}
2019-04-14 15:52:13.41: SIM {TimeUS : 47235265, Roll : 0.04, Pitch : 0.01, Yaw : 359.92, Alt : 35.6100006104, Lat : 49.2835704, Lng : -123.1150207, Q1 : 0.999999701977, Q2 : 0.000349782552803, Q3 : 0.000151079744683, Q4 : -0.000659054436255}
2019-04-14 15:52:13.51: SIM {TimeUS : 47335225, Roll : 0.01, Pitch : 0.0, Yaw : 359.92, Alt : 35.8300018311, Lat : 49.2835704, Lng : -123.1150207, Q1 : 0.999999761581, Q2 : 0.00016953649174, Q3 : -3.02576372633e-05, Q4 : -0.000684586295392}
2019-04-14 15:52:13.61: SIM {TimeUS : 47435185, Roll : -0.01, Pitch : -0.03, Yaw : 359.91, Alt : 36.0499992371, Lat : 49.2835704, Lng : -123.1150207, Q1 : 0.999999701977, Q2 : -0.000169388062204, Q3 : -0.000340687052812, Q4 : -0.000707620871253}
2019-04-14 15:52:13.71: SIM {TimeUS : 47535145, Roll : -0.05, Pitch : -0.05, Yaw : 359.91, Alt : 36.2700004578, Lat : 49.2835704, Lng : -123.1150207, Q1 : 0.999999463558, Q2 : -0.00051427091239, Q3 : -0.000522121787071, Q4 : -0.000736278074328}
2019-04-14 15:52:13.81: SIM {TimeUS : 47635105, Roll : -0.08, Pitch : -0.07, Yaw : 359.91, Alt : 36.5, Lat : 49.2835704, Lng : -123.1150207, Q1 : 0.99999922514, Q2 : -0.000784974428825, Q3 : -0.00063653010875, Q4 : -0.000766501296312}
2019-04-14 15:52:13.91: SIM {TimeUS : 47735065, Roll : -0.09, Pitch : -0.07, Yaw : 359.9, Alt : 36.7200012207, Lat : 49.2835704, Lng : -123.1150206, Q1 : 0.999999165535, Q2 : -0.000796374166384, Q3 : -0.000686603947543, Q4 : -0.00079125846969}
2019-04-14 15:52:14.01: SIM {TimeUS : 47835025, Roll : -0.08, Pitch : -0.07, Yaw : 359.9, Alt : 36.9399986267, Lat : 49.2835704, Lng : -123.1150206, Q1 : 0.999999165535, Q2 : -0.000730927626137, Q3 : -0.000677147589158, Q4 : -0.000816968618892}
2019-04-14 15:52:14.11: SIM {TimeUS : 47934985, Roll : -0.07, Pitch : -0.06, Yaw : 359.9, Alt : 37.1699981689, Lat : 49.2835704, Lng : -123.1150206, Q1 : 0.999999344349, Q2 : -0.00062864884967, Q3 : -0.000529952230863, Q4 : -0.000839570711832}
2019-04-14 15:52:14.21: SIM {TimeUS : 48034945, Roll : -0.05, Pitch : -0.04, Yaw : 359.9, Alt : 37.3899993896, Lat : 49.2835704, Lng : -123.1150206, Q1 : 0.999999403954, Q2 : -0.00051349477144, Q3 : -0.000421352771809, Q4 : -0.000855185848195}
2019-04-14 15:52:14.31: SIM {TimeUS : 48134905, Roll : -0.06, Pitch : -0.04, Yaw : 359.9, Alt : 37.6199989319, Lat : 49.2835704, Lng : -123.1150206, Q1 : 0.999999403954, Q2 : -0.000550362514332, Q3 : -0.000420476630097, Q4 : -0.000867290829774}
2019-04-14 15:52:14.41: SIM {TimeUS : 48234865, Roll : -0.07, Pitch : -0.02, Yaw : 359.89, Alt : 37.8400001526, Lat : 49.2835704, Lng : -123.1150206, Q1 : 0.999999403954, Q2 : -0.000638647994492, Q3 : -0.000253037724178, Q4 : -0.000877345912158}
2019-04-14 15:52:14.51: SIM {TimeUS : 48334825, Roll : -0.09, Pitch : 0.0, Yaw : 359.89, Alt : 38.0699996948, Lat : 49.2835704, Lng : -123.1150206, Q1 : 0.99999922514, Q2 : -0.000840974098537, Q3 : -5.12963779329e-05, Q4 : -0.000889047340024}
2019-04-14 15:52:14.61: SIM {TimeUS : 48434785, Roll : -0.09, Pitch : 0.01, Yaw : 359.89, Alt : 38.2999992371, Lat : 49.2835704, Lng : -123.1150206, Q1 : 0.99999922514, Q2 : -0.00085185962962, Q3 : 9.93882931652e-05, Q4 : -0.000891388976015}
2019-04-14 15:52:14.71: SIM {TimeUS : 48534745, Roll : -0.07, Pitch : 0.03, Yaw : 359.89, Alt : 38.5200004578, Lat : 49.2835704, Lng : -123.1150206, Q1 : 0.999999344349, Q2 : -0.000660837686155, Q3 : 0.000332346680807, Q4 : -0.000894382421393}
2019-04-14 15:52:14.81: SIM {TimeUS : 48634705, Roll : -0.05, Pitch : 0.03, Yaw : 359.89, Alt : 38.75, Lat : 49.2835704, Lng : -123.1150206, Q1 : 0.999999463558, Q2 : -0.000444352859631, Q3 : 0.000272793986369, Q4 : -0.000903549022041}
2019-04-14 15:52:14.91: SIM {TimeUS : 48734665, Roll : -0.01, Pitch : 0.01, Yaw : 359.89, Alt : 38.9799995422, Lat : 49.2835704, Lng : -123.1150206, Q1 : 0.999999582767, Q2 : -0.000171898325789, Q3 : 0.000146745951497, Q4 : -0.000913903233595}
2019-04-14 15:52:15.01: SIM {TimeUS : 48834625, Roll : 0.01, Pitch : 0.02, Yaw : 359.89, Alt : 39.2099990845, Lat : 49.2835704, Lng : -123.1150206, Q1 : 0.999999523163, Q2 : 0.00015608749527, Q3 : 0.000259129272308, Q4 : -0.000928724533878}
2019-04-14 15:52:15.11: SIM {TimeUS : 48934585, Roll : 0.05, Pitch : 0.06, Yaw : 359.89, Alt : 39.4399986267, Lat : 49.2835706, Lng : -123.1150206, Q1 : 0.999999284744, Q2 : 0.000482274102978, Q3 : 0.00052629376296, Q4 : -0.000950975576416}
2019-04-14 15:52:15.21: SIM {TimeUS : 49034545, Roll : 0.08, Pitch : 0.09, Yaw : 359.88, Alt : 39.6699981689, Lat : 49.2835706, Lng : -123.1150206, Q1 : 0.999998927116, Q2 : 0.000716125883628, Q3 : 0.000804119335953, Q4 : -0.000981407472864}
2019-04-14 15:52:15.32: SIM {TimeUS : 49135338, Roll : 0.07, Pitch : 0.12, Yaw : 359.88, Alt : 39.9000015259, Lat : 49.2835706, Lng : -123.1150206, Q1 : 0.999998748302, Q2 : 0.0006363374996, Q3 : 0.00106433907058, Q4 : -0.00100695888977}
2019-04-14 15:52:15.41: SIM {TimeUS : 49235298, Roll : 0.02, Pitch : 0.14, Yaw : 359.87, Alt : 40.1300010681, Lat : 49.2835706, Lng : -123.1150206, Q1 : 0.999998629093, Q2 : 0.000235530576902, Q3 : 0.00126921024639, Q4 : -0.00105151254684}
2019-04-14 15:52:15.51: SIM {TimeUS : 49335258, Roll : -0.01, Pitch : 0.14, Yaw : 359.87, Alt : 40.3699989319, Lat : 49.2835706, Lng : -123.1150206, Q1 : 0.999998629093, Q2 : -0.000109156797407, Q3 : 0.00123460160103, Q4 : -0.00108240905683}
2019-04-14 15:52:15.61: SIM {TimeUS : 49435218, Roll : -0.04, Pitch : 0.11, Yaw : 359.87, Alt : 40.5999984741, Lat : 49.2835706, Lng : -123.1150206, Q1 : 0.999998867512, Q2 : -0.000349245674442, Q3 : 0.000988055369817, Q4 : -0.00110616500024}
2019-04-14 15:52:15.71: SIM {TimeUS : 49535178, Roll : -0.04, Pitch : 0.09, Yaw : 359.87, Alt : 40.8300018311, Lat : 49.2835706, Lng : -123.1150206, Q1 : 0.999998927116, Q2 : -0.000434118555859, Q3 : 0.000806364405435, Q4 : -0.00112819869537}
2019-04-14 15:52:15.81: SIM {TimeUS : 49635138, Roll : -0.03, Pitch : 0.1, Yaw : 359.86, Alt : 41.0600013733, Lat : 49.2835706, Lng : -123.1150206, Q1 : 0.999998867512, Q2 : -0.000339982885635, Q3 : 0.000873702461831, Q4 : -0.00115505489521}
2019-04-14 15:52:15.91: SIM {TimeUS : 49735098, Roll : 0.0, Pitch : 0.12, Yaw : 359.86, Alt : 41.2999992371, Lat : 49.2835706, Lng : -123.1150206, Q1 : 0.999998688698, Q2 : 9.96251401375e-06, Q3 : 0.00111360137817, Q4 : -0.00118834536988}
2019-04-14 15:52:16.01: SIM {TimeUS : 49835058, Roll : 0.05, Pitch : 0.14, Yaw : 359.85, Alt : 41.5299987793, Lat : 49.2835706, Lng : -123.1150206, Q1 : 0.99999833107, Q2 : 0.000448752602097, Q3 : 0.00127502460964, Q4 : -0.00122427043971}
2019-04-14 15:52:16.11: SIM {TimeUS : 49935018, Roll : 0.08, Pitch : 0.12, Yaw : 359.85, Alt : 41.7599983215, Lat : 49.2835706, Lng : -123.1150207, Q1 : 0.99999833107, Q2 : 0.000760072492994, Q3 : 0.00107868446503, Q4 : -0.00126195000485}
2019-04-14 15:52:16.21: SIM {TimeUS : 50034978, Roll : 0.09, Pitch : 0.08, Yaw : 359.85, Alt : 42.0, Lat : 49.2835706, Lng : -123.1150207, Q1 : 0.999998569489, Q2 : 0.0008125618333, Q3 : 0.000721356831491, Q4 : -0.00129311881028}
2019-04-14 15:52:16.31: SIM {TimeUS : 50134938, Roll : 0.05, Pitch : 0.05, Yaw : 359.84, Alt : 42.2299995422, Lat : 49.2835706, Lng : -123.1150207, Q1 : 0.999998927116, Q2 : 0.000524164002854, Q3 : 0.000466527795652, Q4 : -0.00131402886473}
2019-04-14 15:52:16.41: SIM {TimeUS : 50234898, Roll : 0.0, Pitch : 0.04, Yaw : 359.84, Alt : 42.4599990845, Lat : 49.2835706, Lng : -123.1150206, Q1 : 0.999999046326, Q2 : 7.5501811807e-05, Q3 : 0.000408543011872, Q4 : -0.00132818426937}
2019-04-14 15:52:16.51: SIM {TimeUS : 50334858, Roll : -0.03, Pitch : 0.07, Yaw : 359.84, Alt : 42.7000007629, Lat : 49.2835706, Lng : -123.1150206, Q1 : 0.999998867512, Q2 : -0.000268690579105, Q3 : 0.000629424350336, Q4 : -0.00132992619183}
2019-04-14 15:52:16.61: SIM {TimeUS : 50434818, Roll : -0.05, Pitch : 0.09, Yaw : 359.84, Alt : 42.9300003052, Lat : 49.2835704, Lng : -123.1150206, Q1 : 0.999998688698, Q2 : -0.000446130812634, Q3 : 0.000791323778685, Q4 : -0.00132883014157}
2019-04-14 15:52:16.71: SIM {TimeUS : 50534778, Roll : -0.04, Pitch : 0.08, Yaw : 359.84, Alt : 43.1699981689, Lat : 49.2835704, Lng : -123.1150206, Q1 : 0.999998748302, Q2 : -0.000429963547504, Q3 : 0.000740991556086, Q4 : -0.00133333983831}
2019-04-14 15:52:16.81: SIM {TimeUS : 50634738, Roll : -0.05, Pitch : 0.07, Yaw : 359.84, Alt : 43.4000015259, Lat : 49.2835704, Lng : -123.1150206, Q1 : 0.999998748302, Q2 : -0.000467728474177, Q3 : 0.000624013890047, Q4 : -0.00135195197072}
2019-04-14 15:52:16.91: SIM {TimeUS : 50734698, Roll : -0.04, Pitch : 0.05, Yaw : 359.84, Alt : 43.6399993896, Lat : 49.2835704, Lng : -123.1150206, Q1 : 0.999998867512, Q2 : -0.000412202760344, Q3 : 0.000479887676192, Q4 : -0.0013727924088}
2019-04-14 15:52:17.01: SIM {TimeUS : 50834658, Roll : -0.02, Pitch : 0.04, Yaw : 359.83, Alt : 43.8699989319, Lat : 49.2835704, Lng : -123.1150206, Q1 : 0.999998927116, Q2 : -0.00024160616158, Q3 : 0.000388147105696, Q4 : -0.00139939517248}
2019-04-14 15:52:17.11: SIM {TimeUS : 50934618, Roll : -0.01, Pitch : 0.04, Yaw : 359.83, Alt : 44.1100006104, Lat : 49.2835704, Lng : -123.1150206, Q1 : 0.999998927116, Q2 : -0.000117435680295, Q3 : 0.000354714575224, Q4 : -0.00142947572749}
2019-04-14 15:52:17.21: SIM {TimeUS : 51034578, Roll : -0.01, Pitch : 0.02, Yaw : 359.83, Alt : 44.3499984741, Lat : 49.2835704, Lng : -123.1150206, Q1 : 0.999998927116, Q2 : -0.000120361779409, Q3 : 0.000175970402779, Q4 : -0.00145819212776}
2019-04-14 15:52:17.31: SIM {TimeUS : 51134538, Roll : -0.02, Pitch : -0.01, Yaw : 359.82, Alt : 44.5800018311, Lat : 49.2835704, Lng : -123.1150206, Q1 : 0.999998867512, Q2 : -0.000200877082534, Q3 : -0.000134702262585, Q4 : -0.00148991961032}
2019-04-14 15:52:17.41: SIM {TimeUS : 51235331, Roll : -0.02, Pitch : -0.03, Yaw : 359.82, Alt : 44.8199996948, Lat : 49.2835704, Lng : -123.1150206, Q1 : 0.999998748302, Q2 : -0.000232814083574, Q3 : -0.000328450463712, Q4 : -0.00152544141747}
2019-04-14 15:52:17.51: SIM {TimeUS : 51335291, Roll : -0.02, Pitch : -0.05, Yaw : 359.82, Alt : 45.0600013733, Lat : 49.2835704, Lng : -123.1150206, Q1 : 0.999998688698, Q2 : -0.00019517383771, Q3 : -0.000438153219875, Q4 : -0.00156176066957}
2019-04-14 15:52:17.61: SIM {TimeUS : 51435251, Roll : -0.02, Pitch : -0.05, Yaw : 359.81, Alt : 45.2900009155, Lat : 49.2835703, Lng : -123.1150206, Q1 : 0.999998629093, Q2 : -0.000228213510127, Q3 : -0.000467350357212, Q4 : -0.00159393076319}
2019-04-14 15:52:17.71: SIM {TimeUS : 51535211, Roll : -0.04, Pitch : -0.04, Yaw : 359.81, Alt : 45.5299987793, Lat : 49.2835703, Lng : -123.1150206, Q1 : 0.999998509884, Q2 : -0.000414759240812, Q3 : -0.00038256769767, Q4 : -0.00163147924468}
2019-04-14 15:52:17.81: SIM {TimeUS : 51635171, Roll : -0.08, Pitch : -0.03, Yaw : 359.8, Alt : 45.7599983215, Lat : 49.2835703, Lng : -123.1150206, Q1 : 0.99999833107, Q2 : -0.000703123921994, Q3 : -0.000287227157969, Q4 : -0.00167013600003}
2019-04-14 15:52:17.91: SIM {TimeUS : 51735131, Roll : -0.1, Pitch : -0.02, Yaw : 359.8, Alt : 45.9900016785, Lat : 49.2835703, Lng : -123.1150206, Q1 : 0.999998152256, Q2 : -0.000894847151358, Q3 : -0.000229971323279, Q4 : -0.00170863897074}
2019-04-14 15:52:18.01: SIM {TimeUS : 51835091, Roll : -0.1, Pitch : -0.01, Yaw : 359.8, Alt : 46.2200012207, Lat : 49.2835703, Lng : -123.1150205, Q1 : 0.999998033047, Q2 : -0.000932954368182, Q3 : -0.000111527580884, Q4 : -0.00174429395702}
2019-04-14 15:52:18.11: SIM {TimeUS : 51935051, Roll : -0.09, Pitch : 0.0, Yaw : 359.79, Alt : 46.4500007629, Lat : 49.2835703, Lng : -123.1150205, Q1 : 0.999998092651, Q2 : -0.000820894900244, Q3 : 7.67904348322e-05, Q4 : -0.00177357590292}
2019-04-14 15:52:18.21: SIM {TimeUS : 52035011, Roll : -0.06, Pitch : 0.01, Yaw : 359.79, Alt : 46.6699981689, Lat : 49.2835703, Lng : -123.1150206, Q1 : 0.999998211861, Q2 : -0.000599108636379, Q3 : 0.000160532130394, Q4 : -0.00179791625123}
2019-04-14 15:52:18.31: SIM {TimeUS : 52134971, Roll : -0.04, Pitch : 0.01, Yaw : 359.79, Alt : 46.8800010681, Lat : 49.2835703, Lng : -123.1150206, Q1 : 0.999998271465, Q2 : -0.000409212196246, Q3 : 8.96599376574e-05, Q4 : -0.00181877019349}
2019-04-14 15:52:18.41: SIM {TimeUS : 52234931, Roll : -0.03, Pitch : 0.0, Yaw : 359.78, Alt : 47.0900001526, Lat : 49.2835703, Lng : -123.1150206, Q1 : 0.999998271465, Q2 : -0.000308309041429, Q3 : -7.41616240703e-05, Q4 : -0.00183605053462}
2019-04-14 15:52:18.51: SIM {TimeUS : 52334891, Roll : -0.01, Pitch : -0.03, Yaw : 359.78, Alt : 47.2900009155, Lat : 49.2835703, Lng : -123.1150206, Q1 : 0.999998211861, Q2 : -0.000169597871718, Q3 : -0.000331843242748, Q4 : -0.00185080524534}
2019-04-14 15:52:18.61: SIM {TimeUS : 52434851, Roll : 0.0, Pitch : -0.06, Yaw : 359.78, Alt : 47.4799995422, Lat : 49.2835703, Lng : -123.1150206, Q1 : 0.999998092651, Q2 : 2.67826976597e-06, Q3 : -0.000551357981749, Q4 : -0.00186165922787}
2019-04-14 15:52:18.71: SIM {TimeUS : 52534811, Roll : 0.01, Pitch : -0.09, Yaw : 359.78, Alt : 47.6599998474, Lat : 49.2835703, Lng : -123.1150206, Q1 : 0.999997913837, Q2 : 8.75768309925e-05, Q3 : -0.000838459585793, Q4 : -0.00186799571384}
2019-04-14 15:52:18.81: SIM {TimeUS : 52634771, Roll : 0.01, Pitch : -0.13, Yaw : 359.78, Alt : 47.8400001526, Lat : 49.2835703, Lng : -123.1150206, Q1 : 0.99999755621, Q2 : 0.00013756773842, Q3 : -0.00115832709707, Q4 : -0.00187455059495}
2019-04-14 15:52:18.91: SIM {TimeUS : 52734731, Roll : 0.04, Pitch : -0.14, Yaw : 359.78, Alt : 48.0, Lat : 49.2835703, Lng : -123.1150206, Q1 : 0.999997377396, Q2 : 0.000372890237486, Q3 : -0.00125368323643, Q4 : -0.00188851368148}
2019-04-14 15:52:19.01: SIM {TimeUS : 52834691, Roll : 0.06, Pitch : -0.13, Yaw : 359.78, Alt : 48.1399993896, Lat : 49.2835703, Lng : -123.1150206, Q1 : 0.999997317791, Q2 : 0.000591625052039, Q3 : -0.00115138676483, Q4 : -0.00190777413081}
2019-04-14 15:52:19.11: SIM {TimeUS : 52934651, Roll : 0.08, Pitch : -0.1, Yaw : 359.77, Alt : 48.2799987793, Lat : 49.2835703, Lng : -123.1150206, Q1 : 0.999997437, Q2 : 0.000732796732336, Q3 : -0.000931386544835, Q4 : -0.00193409726489}
2019-04-14 15:52:19.21: SIM {TimeUS : 53034611, Roll : 0.08, Pitch : -0.07, Yaw : 359.77, Alt : 48.4099998474, Lat : 49.2835703, Lng : -123.1150206, Q1 : 0.99999755621, Q2 : 0.000709330022801, Q3 : -0.000699279655237, Q4 : -0.0019688506145}
2019-04-14 15:52:19.31: SIM {TimeUS : 53134571, Roll : 0.07, Pitch : -0.06, Yaw : 359.76, Alt : 48.5200004578, Lat : 49.2835704, Lng : -123.1150206, Q1 : 0.999997615814, Q2 : 0.000677258067299, Q3 : -0.000537257292308, Q4 : -0.00200986466371}
2019-04-14 15:52:19.42: SIM {TimeUS : 53235364, Roll : 0.06, Pitch : -0.06, Yaw : 359.76, Alt : 48.6199989319, Lat : 49.2835704, Lng : -123.1150206, Q1 : 0.99999755621, Q2 : 0.000572284683585, Q3 : -0.000536948733497, Q4 : -0.00205258000642}
2019-04-14 15:52:19.51: SIM {TimeUS : 53335324, Roll : 0.03, Pitch : -0.05, Yaw : 359.75, Alt : 48.7099990845, Lat : 49.2835704, Lng : -123.1150206, Q1 : 0.999997615814, Q2 : 0.000313664437272, Q3 : -0.00051502045244, Q4 : -0.00209859223105}
2019-04-14 15:52:19.61: SIM {TimeUS : 53435284, Roll : 0.02, Pitch : -0.04, Yaw : 359.75, Alt : 48.7799987793, Lat : 49.2835704, Lng : -123.1150206, Q1 : 0.999997615814, Q2 : 0.000174568223883, Q3 : -0.000388471584301, Q4 : -0.00213686865754}
2019-04-14 15:52:19.71: SIM {TimeUS : 53535244, Roll : 0.0, Pitch : -0.03, Yaw : 359.75, Alt : 48.8499984741, Lat : 49.2835704, Lng : -123.1150206, Q1 : 0.999997615814, Q2 : 5.9018657339e-05, Q3 : -0.0002685431391, Q4 : -0.00216979789548}
2019-04-14 15:52:19.81: SIM {TimeUS : 53635204, Roll : 0.0, Pitch : 0.0, Yaw : 359.74, Alt : 48.9099998474, Lat : 49.2835704, Lng : -123.1150206, Q1 : 0.99999755621, Q2 : 2.08570122595e-06, Q3 : -6.96275164955e-05, Q4 : -0.00219709682278}
2019-04-14 15:52:19.91: SIM {TimeUS : 53735164, Roll : 0.01, Pitch : 0.02, Yaw : 359.74, Alt : 48.9599990845, Lat : 49.2835704, Lng : -123.1150206, Q1 : 0.999997496605, Q2 : 0.000166993573657, Q3 : 0.000208900324651, Q4 : -0.00222034053877}
2019-04-14 15:52:20.01: SIM {TimeUS : 53835124, Roll : 0.06, Pitch : 0.01, Yaw : 359.74, Alt : 49.0, Lat : 49.2835704, Lng : -123.1150206, Q1 : 0.999997317791, Q2 : 0.000574582489207, Q3 : 0.000145711092046, Q4 : -0.00224084872752}
2019-04-14 15:52:20.11: SIM {TimeUS : 53935084, Roll : 0.18, Pitch : -0.14, Yaw : 359.74, Alt : 49.0299987793, Lat : 49.2835704, Lng : -123.1150206, Q1 : 0.999995291233, Q2 : 0.00163363199681, Q3 : -0.00127930333838, Q4 : -0.00226059695706}
2019-04-14 15:52:20.21: SIM {TimeUS : 54035044, Roll : 0.43, Pitch : -0.52, Yaw : 359.73, Alt : 49.0600013733, Lat : 49.2835704, Lng : -123.1150206, Q1 : 0.999979496002, Q2 : 0.00379466195591, Q3 : -0.0046332385391, Q4 : -0.00227809348144}
2019-04-14 15:52:20.31: SIM {TimeUS : 54135004, Roll : 0.81, Pitch : -1.15, Yaw : 359.72, Alt : 49.0900001526, Lat : 49.2835704, Lng : -123.1150206, Q1 : 0.999921143055, Q2 : 0.00712001603097, Q3 : -0.0100855492055, Q4 : -0.00228660833091}
2019-04-14 15:52:20.41: SIM {TimeUS : 54234964, Roll : 1.33, Pitch : -1.94, Yaw : 359.71, Alt : 49.1100006104, Lat : 49.2835706, Lng : -123.1150205, Q1 : 0.999785363674, Q2 : 0.0115664154291, Q3 : -0.0170388389379, Q4 : -0.00227288762107}
2019-04-14 15:52:20.51: SIM {TimeUS : 54334924, Roll : 1.92, Pitch : -2.81, Yaw : 359.7, Alt : 49.1300010681, Lat : 49.2835706, Lng : -123.1150205, Q1 : 0.999556064606, Q2 : 0.0166884679347, Q3 : -0.0245826393366, Q4 : -0.00220505148172}
2019-04-14 15:52:20.61: SIM {TimeUS : 54434884, Roll : 2.48, Pitch : -3.62, Yaw : 359.68, Alt : 49.1500015259, Lat : 49.2835707, Lng : -123.1150204, Q1 : 0.999263226986, Q2 : 0.0215629097074, Q3 : -0.0316818803549, Q4 : -0.00207228120416}
2019-04-14 15:52:20.71: SIM {TimeUS : 54534844, Roll : 2.93, Pitch : -4.27, Yaw : 359.67, Alt : 49.1699981689, Lat : 49.2835709, Lng : -123.1150202, Q1 : 0.998973608017, Q2 : 0.0254967473447, Q3 : -0.0373930037022, Q4 : -0.00187579903286}
2019-04-14 15:52:20.81: SIM {TimeUS : 54634804, Roll : 3.25, Pitch : -4.74, Yaw : 359.67, Alt : 49.1800003052, Lat : 49.283571, Lng : -123.11502, Q1 : 0.998736977577, Q2 : 0.0282742790878, Q3 : -0.0415011495352, Q4 : -0.00163656519726}
2019-04-14 15:52:20.91: SIM {TimeUS : 54734764, Roll : 3.48, Pitch : -5.1, Yaw : 359.68, Alt : 49.1899986267, Lat : 49.2835713, Lng : -123.1150199, Q1 : 0.998546898365, Q2 : 0.0302536990494, Q3 : -0.0445748791099, Q4 : -0.00138314941432}
2019-04-14 15:52:21.01: SIM {TimeUS : 54834724, Roll : 3.68, Pitch : -5.4, Yaw : 359.69, Alt : 49.2000007629, Lat : 49.2835715, Lng : -123.1150195, Q1 : 0.998370707035, Q2 : 0.0319862514734, Q3 : -0.0472403541207, Q4 : -0.00111868919339}
2019-04-14 15:52:21.11: SIM {TimeUS : 54934684, Roll : 3.89, Pitch : -5.7, Yaw : 359.7, Alt : 49.2099990845, Lat : 49.283572, Lng : -123.1150191, Q1 : 0.998187959194, Q2 : 0.0337944626808, Q3 : -0.0497792996466, Q4 : -0.000852270401083}
2019-04-14 15:52:21.21: SIM {TimeUS : 55034644, Roll : 4.1, Pitch : -5.99, Yaw : 359.71, Alt : 49.2200012207, Lat : 49.2835725, Lng : -123.1150187, Q1 : 0.997992873192, Q2 : 0.0356404520571, Q3 : -0.0523415468633, Q4 : -0.000598920392804}
2019-04-14 15:52:21.31: SIM {TimeUS : 55134604, Roll : 4.3, Pitch : -6.29, Yaw : 359.72, Alt : 49.2200012207, Lat : 49.2835728, Lng : -123.1150182, Q1 : 0.997785925865, Q2 : 0.0373923629522, Q3 : -0.0549991168082, Q4 : -0.000372451264411}
2019-04-14 15:52:21.41: SIM {TimeUS : 55234564, Roll : 4.46, Pitch : -6.57, Yaw : 359.72, Alt : 49.2299995422, Lat : 49.2835734, Lng : -123.1150175, Q1 : 0.99759799242, Q2 : 0.0387911647558, Q3 : -0.0573891624808, Q4 : -0.000182548013981}
2019-04-14 15:52:21.52: SIM {TimeUS : 55335357, Roll : 4.59, Pitch : -6.77, Yaw : 359.72, Alt : 49.2400016785, Lat : 49.283574, Lng : -123.1150169, Q1 : 0.997451305389, Q2 : 0.0399068966508, Q3 : -0.0591468885541, Q4 : -7.35699040888e-06}
2019-04-14 15:52:21.61: SIM {TimeUS : 55435317, Roll : 4.68, Pitch : -6.9, Yaw : 359.73, Alt : 49.2400016785, Lat : 49.2835747, Lng : -123.1150162, Q1 : 0.997350752354, Q2 : 0.0406856127083, Q3 : -0.0603012666106, Q4 : 0.000125838647364}
2019-04-14 15:52:21.71: SIM {TimeUS : 55535277, Roll : 4.75, Pitch : -7.01, Yaw : 359.73, Alt : 49.25, Lat : 49.2835756, Lng : -123.1150154, Q1 : 0.997272789478, Q2 : 0.0412755869329, Q3 : -0.0611828379333, Q4 : 0.000213209394133}
2019-04-14 15:52:21.81: SIM {TimeUS : 55635237, Roll : 4.83, Pitch : -7.11, Yaw : 359.73, Alt : 49.25, Lat : 49.2835764, Lng : -123.1150146, Q1 : 0.997189283371, Q2 : 0.0419626235962, Q3 : -0.062069516629, Q4 : 0.000276350678178}
2019-04-14 15:52:21.91: SIM {TimeUS : 55735197, Roll : 5.02, Pitch : -7.22, Yaw : 359.74, Alt : 49.25, Lat : 49.2835771, Lng : -123.1150137, Q1 : 0.997057914734, Q2 : 0.0436404533684, Q3 : -0.0630136951804, Q4 : 0.000545852351934}
2019-04-14 15:52:22.01: SIM {TimeUS : 55835157, Roll : 5.48, Pitch : -7.26, Yaw : 0.07, Alt : 49.2599983215, Lat : 49.2835781, Lng : -123.1150127, Q1 : 0.996847808361, Q2 : 0.0477900803089, Q3 : -0.0632239505649, Q4 : 0.00365960784256}
2019-04-14 15:52:22.11: SIM {TimeUS : 55935117, Roll : 6.14, Pitch : -7.29, Yaw : 1.36, Alt : 49.2599983215, Lat : 49.2835791, Lng : -123.1150117, Q1 : 0.996431827545, Q2 : 0.0542165711522, Q3 : -0.0628576502204, Q4 : 0.01526979357}
2019-04-14 15:52:22.21: SIM {TimeUS : 56035077, Roll : 6.65, Pitch : -7.54, Yaw : 4.16, Alt : 49.2599983215, Lat : 49.28358, Lng : -123.1150106, Q1 : 0.995348095894, Q2 : 0.0602997988462, Q3 : -0.0635699257255, Q4 : 0.0400620438159}
2019-04-14 15:52:22.31: SIM {TimeUS : 56135037, Roll : 6.73, Pitch : -8.17, Yaw : 8.57, Alt : 49.2599983215, Lat : 49.2835812, Lng : -123.1150094, Q1 : 0.992641806602, Q2 : 0.0637046471238, Q3 : -0.06654907763, Q4 : 0.0785818099976}
2019-04-14 15:52:22.41: SIM {TimeUS : 56234997, Roll : 6.15, Pitch : -9.11, Yaw : 14.39, Alt : 49.2599983215, Lat : 49.2835823, Lng : -123.1150081, Q1 : 0.987020850182, Q2 : 0.0630309507251, Q3 : -0.0720425620675, Q4 : 0.128944918513}
2019-04-14 15:52:22.51: SIM {TimeUS : 56334957, Roll : 4.63, Pitch : -10.23, Yaw : 21.26, Alt : 49.2700004578, Lat : 49.2835834, Lng : -123.1150067, Q1 : 0.977452874184, Q2 : 0.0560097508132, Q3 : -0.0801361575723, Q4 : 0.187154948711}
2019-04-14 15:52:22.61: SIM {TimeUS : 56434917, Roll : 2.16, Pitch : -11.24, Yaw : 28.45, Alt : 49.2700004578, Lat : 49.2835846, Lng : -123.1150052, Q1 : 0.964027404785, Q2 : 0.0423267744482, Q3 : -0.0903591066599, Q4 : 0.246363356709}
2019-04-14 15:52:22.71: SIM {TimeUS : 56534877, Roll : -0.76, Pitch : -11.96, Yaw : 35.18, Alt : 49.2700004578, Lat : 49.2835858, Lng : -123.1150036, Q1 : 0.948231041431, Q2 : 0.0251403301954, Q3 : -0.101390101016, Q4 : 0.299909859896}
2019-04-14 15:52:22.81: SIM {TimeUS : 56634837, Roll : -3.51, Pitch : -12.32, Yaw : 40.74, Alt : 49.2700004578, Lat : 49.2835871, Lng : -123.1150019, Q1 : 0.932734549046, Q2 : 0.00873770657927, Q3 : -0.111235290766, Q4 : 0.342865347862}
2019-04-14 15:52:22.91: SIM {TimeUS : 56734797, Roll : -5.53, Pitch : -12.44, Yaw : 44.68, Alt : 49.2700004578, Lat : 49.2835885, Lng : -123.1150003, Q1 : 0.920393288136, Q2 : -0.00323767890222, Q3 : -0.118405550718, Q4 : 0.372620284557}
2019-04-14 15:52:23.01: SIM {TimeUS : 56834757, Roll : -6.57, Pitch : -12.5, Yaw : 46.87, Alt : 49.2700004578, Lat : 49.2835899, Lng : -123.1149987, Q1 : 0.913021802902, Q2 : -0.00906597916037, Q3 : -0.122457802296, Q4 : 0.388989806175}
2019-04-14 15:52:23.11: SIM {TimeUS : 56934717, Roll : -6.68, Pitch : -12.62, Yaw : 47.46, Alt : 49.2700004578, Lat : 49.2835916, Lng : -123.114997, Q1 : 0.91089874506, Q2 : -0.00889292918146, Q3 : -0.12385854125, Q4 : 0.393501609564}
2019-04-14 15:52:23.21: SIM {TimeUS : 57034677, Roll : -6.04, Pitch : -12.9, Yaw : 46.76, Alt : 49.2700004578, Lat : 49.2835934, Lng : -123.1149953, Q1 : 0.913146495819, Q2 : -0.00353380315937, Q3 : -0.123823493719, Q4 : 0.388353943825}
2019-04-14 15:52:23.31: SIM {TimeUS : 57134637, Roll : -4.87, Pitch : -13.37, Yaw : 45.08, Alt : 49.2700004578, Lat : 49.2835952, Lng : -123.1149937, Q1 : 0.918386101723, Q2 : 0.00560929952189, Q3 : -0.123683705926, Q4 : 0.37581628561}
2019-04-14 15:52:23.41: SIM {TimeUS : 57234597, Roll : -3.4, Pitch : -13.97, Yaw : 42.73, Alt : 49.2700004578, Lat : 49.283597, Lng : -123.1149919, Q1 : 0.925255537033, Q2 : 0.0167979635298, Q3 : -0.123983696103, Q4 : 0.358117371798}
2019-04-14 15:52:23.51: SIM {TimeUS : 57334557, Roll : -1.83, Pitch : -14.57, Yaw : 40.02, Alt : 49.2700004578, Lat : 49.2835989, Lng : -123.1149902, Q1 : 0.93260872364, Q2 : 0.0284654796124, Q3 : -0.124575436115, Q4 : 0.337508022785}
2019-04-14 15:52:23.62: SIM {TimeUS : 57435350, Roll : -0.3, Pitch : -15.07, Yaw : 37.23, Alt : 49.2799987793, Lat : 49.2836011, Lng : -123.1149883, Q1 : 0.939589202404, Q2 : 0.0393926240504, Q3 : -0.125141963363, Q4 : 0.316164344549}
2019-04-14 15:52:23.71: SIM {TimeUS : 57535310, Roll : 1.02, Pitch : -15.39, Yaw : 34.71, Alt : 49.2799987793, Lat : 49.2836031, Lng : -123.1149864, Q1 : 0.945453703403, Q2 : 0.0484274476767, Q3 : -0.125220403075, Q4 : 0.296802848577}
2019-04-14 15:52:23.81: SIM {TimeUS : 57635270, Roll : 2.04, Pitch : -15.55, Yaw : 32.69, Alt : 49.2799987793, Lat : 49.2836053, Lng : -123.1149843, Q1 : 0.949926435947, Q2 : 0.0550095662475, Q3 : -0.124829620123, Q4 : 0.281125187874}
2019-04-14 15:52:23.91: SIM {TimeUS : 57735230, Roll : 2.68, Pitch : -15.58, Yaw : 31.3, Alt : 49.2799987793, Lat : 49.2836074, Lng : -123.1149822, Q1 : 0.952908813953, Q2 : 0.0589114464819, Q3 : -0.12423029542, Q4 : 0.270298272371}
2019-04-14 15:52:24.01: SIM {TimeUS : 57835190, Roll : 2.95, Pitch : -15.56, Yaw : 30.59, Alt : 49.2799987793, Lat : 49.2836097, Lng : -123.1149799, Q1 : 0.954431772232, Q2 : 0.0603356026113, Q3 : -0.123874790967, Q4 : 0.264716237783}
2019-04-14 15:52:24.11: SIM {TimeUS : 57935150, Roll : 2.86, Pitch : -15.58, Yaw : 30.53, Alt : 49.2799987793, Lat : 49.283612, Lng : -123.1149776, Q1 : 0.954612255096, Q2 : 0.0595502182841, Q3 : -0.124246582389, Q4 : 0.264068096876}
2019-04-14 15:52:24.21: SIM {TimeUS : 58035110, Roll : 2.46, Pitch : -15.65, Yaw : 31.0, Alt : 49.2799987793, Lat : 49.2836142, Lng : -123.1149751, Q1 : 0.953640878201, Q2 : 0.0569576360285, Q3 : -0.125492960215, Q4 : 0.267537623644}
2019-04-14 15:52:24.31: SIM {TimeUS : 58135070, Roll : 1.85, Pitch : -15.77, Yaw : 31.86, Alt : 49.2799987793, Lat : 49.2836165, Lng : -123.1149725, Q1 : 0.951758682728, Q2 : 0.0530490465462, Q3 : -0.127565518022, Q4 : 0.273985981941}
2019-04-14 15:52:24.41: SIM {TimeUS : 58235030, Roll : 1.11, Pitch : -15.9, Yaw : 32.95, Alt : 49.2799987793, Lat : 49.2836189, Lng : -123.11497, Q1 : 0.949283897877, Q2 : 0.0484881401062, Q3 : -0.129917219281, Q4 : 0.282188802958}
2019-04-14 15:52:24.51: SIM {TimeUS : 58334990, Roll : 0.39, Pitch : -16.01, Yaw : 34.11, Alt : 49.2799987793, Lat : 49.2836214, Lng : -123.1149673, Q1 : 0.946532189846, Q2 : 0.0440995581448, Q3 : -0.132199436426, Q4 : 0.290955960751}
2019-04-14 15:52:24.61: SIM {TimeUS : 58434950, Roll : -0.26, Pitch : -16.1, Yaw : 35.21, Alt : 49.2799987793, Lat : 49.2836238, Lng : -123.1149646, Q1 : 0.943845272064, Q2 : 0.0401654429734, Q3 : -0.134261250496, Q4 : 0.299193650484}
2019-04-14 15:52:24.71: SIM {TimeUS : 58534910, Roll : -0.77, Pitch : -16.18, Yaw : 36.13, Alt : 49.2799987793, Lat : 49.2836264, Lng : -123.1149618, Q1 : 0.941503882408, Q2 : 0.0372532941401, Q3 : -0.135910078883, Q4 : 0.306122690439}
2019-04-14 15:52:24.81: SIM {TimeUS : 58634870, Roll : -1.09, Pitch : -16.22, Yaw : 36.8, Alt : 49.2799987793, Lat : 49.283629, Lng : -123.114959, Q1 : 0.939751565456, Q2 : 0.0355845876038, Q3 : -0.136855825782, Q4 : 0.311241328716}
2019-04-14 15:52:24.91: SIM {TimeUS : 58734830, Roll : -1.22, Pitch : -16.23, Yaw : 37.19, Alt : 49.2799987793, Lat : 49.2836316, Lng : -123.1149562, Q1 : 0.938705563545, Q2 : 0.0349749363959, Q3 : -0.137231960893, Q4 : 0.31428655982}
2019-04-14 15:52:25.01: SIM {TimeUS : 58834790, Roll : -1.22, Pitch : -16.26, Yaw : 37.31, Alt : 49.2799987793, Lat : 49.2836342, Lng : -123.1149533, Q1 : 0.938339412212, Q2 : 0.0352317243814, Q3 : -0.137449041009, Q4 : 0.315254867077}
2019-04-14 15:52:25.11: SIM {TimeUS : 58934750, Roll : -1.09, Pitch : -16.32, Yaw : 37.19, Alt : 49.2799987793, Lat : 49.283637, Lng : -123.1149504, Q1 : 0.938563764095, Q2 : 0.0362814106047, Q3 : -0.137582913041, Q4 : 0.314408361912}
2019-04-14 15:52:25.21: SIM {TimeUS : 59034710, Roll : -0.88, Pitch : -16.4, Yaw : 36.89, Alt : 49.2799987793, Lat : 49.2836397, Lng : -123.1149475, Q1 : 0.939233183861, Q2 : 0.0379197858274, Q3 : -0.137731850147, Q4 : 0.312142550945}
2019-04-14 15:52:25.31: SIM {TimeUS : 59134670, Roll : -0.61, Pitch : -16.47, Yaw : 36.46, Alt : 49.2799987793, Lat : 49.2836425, Lng : -123.1149446, Q1 : 0.940208613873, Q2 : 0.0398179665208, Q3 : -0.137746363878, Q4 : 0.30894702673}
2019-04-14 15:52:25.41: SIM {TimeUS : 59234630, Roll : -0.31, Pitch : -16.53, Yaw : 35.98, Alt : 49.2799987793, Lat : 49.2836452, Lng : -123.1149416, Q1 : 0.941317558289, Q2 : 0.0418365746737, Q3 : -0.137634932995, Q4 : 0.305331885815}
2019-04-14 15:52:25.51: SIM {TimeUS : 59334590, Roll : -0.02, Pitch : -16.59, Yaw : 35.51, Alt : 49.2900009155, Lat : 49.2836481, Lng : -123.1149385, Q1 : 0.942406177521, Q2 : 0.0437736809254, Q3 : -0.137470111251, Q4 : 0.301755726337}
2019-04-14 15:52:25.61: SIM {TimeUS : 59434550, Roll : 0.22, Pitch : -16.62, Yaw : 35.09, Alt : 49.2900009155, Lat : 49.2836511, Lng : -123.1149356, Q1 : 0.943359732628, Q2 : 0.0454365611076, Q3 : -0.13728992641, Q4 : 0.298595845699}
2019-04-14 15:52:25.72: SIM {TimeUS : 59535343, Roll : 0.41, Pitch : -16.65, Yaw : 34.76, Alt : 49.2900009155, Lat : 49.283654, Lng : -123.1149325, Q1 : 0.944104850292, Q2 : 0.0467203967273, Q3 : -0.137156635523, Q4 : 0.296093374491}
2019-04-14 15:52:25.81: SIM {TimeUS : 59635303, Roll : 0.54, Pitch : -16.68, Yaw : 34.54, Alt : 49.2900009155, Lat : 49.2836568, Lng : -123.1149293, Q1 : 0.944586753845, Q2 : 0.0475488491356, Q3 : -0.137121289968, Q4 : 0.294436305761}
2019-04-14 15:52:25.91: SIM {TimeUS : 59735263, Roll : 0.59, Pitch : -16.69, Yaw : 34.44, Alt : 49.2900009155, Lat : 49.2836597, Lng : -123.1149262, Q1 : 0.944814860821, Q2 : 0.047870233655, Q3 : -0.137192681432, Q4 : 0.293617993593}
2019-04-14 15:52:26.01: SIM {TimeUS : 59835223, Roll : 0.56, Pitch : -16.73, Yaw : 34.43, Alt : 49.2900009155, Lat : 49.2836627, Lng : -123.114923, Q1 : 0.944790065289, Q2 : 0.0477289967239, Q3 : -0.137524843216, Q4 : 0.29356533289}
2019-04-14 15:52:26.11: SIM {TimeUS : 59935183, Roll : 0.48, Pitch : -16.77, Yaw : 34.52, Alt : 49.2900009155, Lat : 49.2836657, Lng : -123.1149198, Q1 : 0.944558680058, Q2 : 0.047276686877, Q3 : -0.138057991862, Q4 : 0.294132322073}
2019-04-14 15:52:26.21: SIM {TimeUS : 60035143, Roll : 0.35, Pitch : -16.82, Yaw : 34.66, Alt : 49.2900009155, Lat : 49.2836688, Lng : -123.1149165, Q1 : 0.944189608097, Q2 : 0.0465318858624, Q3 : -0.138723403215, Q4 : 0.295121312141}
2019-04-14 15:52:26.31: SIM {TimeUS : 60135103, Roll : 0.19, Pitch : -16.86, Yaw : 34.83, Alt : 49.2900009155, Lat : 49.2836718, Lng : -123.1149133, Q1 : 0.943755626678, Q2 : 0.0455116443336, Q3 : -0.139419838786, Q4 : 0.296337962151}
2019-04-14 15:52:26.41: SIM {TimeUS : 60235063, Roll : 0.03, Pitch : -16.89, Yaw : 35.01, Alt : 49.2900009155, Lat : 49.2836748, Lng : -123.1149099, Q1 : 0.943319499493, Q2 : 0.0444909594953, Q3 : -0.139980331063, Q4 : 0.297614514828}
2019-04-14 15:52:26.51: SIM {TimeUS : 60335023, Roll : -0.1, Pitch : -16.92, Yaw : 35.17, Alt : 49.2900009155, Lat : 49.2836779, Lng : -123.1149066, Q1 : 0.942918002605, Q2 : 0.0435841567814, Q3 : -0.140523254871, Q4 : 0.298763006926}
2019-04-14 15:52:26.61: SIM {TimeUS : 60434983, Roll : -0.2, Pitch : -16.96, Yaw : 35.3, Alt : 49.2900009155, Lat : 49.2836809, Lng : -123.1149033, Q1 : 0.942568182945, Q2 : 0.0430689007044, Q3 : -0.141063421965, Q4 : 0.299685537815}
2019-04-14 15:52:26.71: SIM {TimeUS : 60534943, Roll : -0.24, Pitch : -17.01, Yaw : 35.38, Alt : 49.2999992371, Lat : 49.283684, Lng : -123.1148999, Q1 : 0.942303478718, Q2 : 0.0429680868983, Q3 : -0.141563624144, Q4 : 0.30029591918}
2019-04-14 15:52:26.81: SIM {TimeUS : 60634903, Roll : -0.22, Pitch : -17.07, Yaw : 35.42, Alt : 49.2999992371, Lat : 49.283687, Lng : -123.1148966, Q1 : 0.942139625549, Q2 : 0.0432822927833, Q3 : -0.141985923052, Q4 : 0.300565332174}
2019-04-14 15:52:26.91: SIM {TimeUS : 60734863, Roll : -0.16, Pitch : -17.12, Yaw : 35.4, Alt : 49.2999992371, Lat : 49.2836902, Lng : -123.1148932, Q1 : 0.942081987858, Q2 : 0.0439031496644, Q3 : -0.142283752561, Q4 : 0.300515204668}
2019-04-14 15:52:27.01: SIM {TimeUS : 60834823, Roll : -0.1, Pitch : -17.16, Yaw : 35.35, Alt : 49.2999992371, Lat : 49.2836934, Lng : -123.1148898, Q1 : 0.942149937153, Q2 : 0.0444092787802, Q3 : -0.142433136702, Q4 : 0.300156831741}
2019-04-14 15:52:27.11: SIM {TimeUS : 60934783, Roll : -0.06, Pitch : -17.17, Yaw : 35.28, Alt : 49.2999992371, Lat : 49.2836966, Lng : -123.1148863, Q1 : 0.942319691181, Q2 : 0.0446902662516, Q3 : -0.142454877496, Q4 : 0.299571484327}
2019-04-14 15:52:27.21: SIM {TimeUS : 61034743, Roll : -0.03, Pitch : -17.17, Yaw : 35.18, Alt : 49.2999992371, Lat : 49.2836997, Lng : -123.1148829, Q1 : 0.942545473576, Q2 : 0.0448798164725, Q3 : -0.142398610711, Q4 : 0.298858642578}
2019-04-14 15:52:27.31: SIM {TimeUS : 61134703, Roll : 0.02, Pitch : -17.17, Yaw : 35.09, Alt : 49.2999992371, Lat : 49.2837028, Lng : -123.1148795, Q1 : 0.942777395248, Q2 : 0.0452051199973, Q3 : -0.142316892743, Q4 : 0.298116087914}
2019-04-14 15:52:27.41: SIM {TimeUS : 61234663, Roll : 0.07, Pitch : -17.18, Yaw : 34.99, Alt : 49.2999992371, Lat : 49.283706, Lng : -123.114876, Q1 : 0.942986369133, Q2 : 0.0455640554428, Q3 : -0.14233237505, Q4 : 0.297392100096}
2019-04-14 15:52:27.51: SIM {TimeUS : 61334623, Roll : 0.13, Pitch : -17.22, Yaw : 34.91, Alt : 49.2999992371, Lat : 49.2837094, Lng : -123.1148725, Q1 : 0.943135023117, Q2 : 0.0460483841598, Q3 : -0.14250998199, Q4 : 0.296760499477}
2019-04-14 15:52:27.61: SIM {TimeUS : 61434583, Roll : 0.18, Pitch : -17.28, Yaw : 34.84, Alt : 49.3100013733, Lat : 49.2837126, Lng : -123.114869, Q1 : 0.94321167469, Q2 : 0.0465528331697, Q3 : -0.142886340618, Q4 : 0.296256810427}
2019-04-14 15:52:27.71: SIM {TimeUS : 61534543, Roll : 0.21, Pitch : -17.32, Yaw : 34.79, Alt : 49.3100013733, Lat : 49.2837157, Lng : -123.1148655, Q1 : 0.943274378777, Q2 : 0.046817895025, Q3 : -0.143135324121, Q4 : 0.295894891024}
2019-04-14 15:52:27.82: SIM {TimeUS : 61635336, Roll : 0.22, Pitch : -17.31, Yaw : 34.77, Alt : 49.3100013733, Lat : 49.2837191, Lng : -123.1148619, Q1 : 0.943340182304, Q2 : 0.0468717031181, Q3 : -0.143087491393, Q4 : 0.29569965601}
2019-04-14 15:52:27.91: SIM {TimeUS : 61735296, Roll : 0.22, Pitch : -17.32, Yaw : 34.76, Alt : 49.3100013733, Lat : 49.2837223, Lng : -123.1148585, Q1 : 0.943353712559, Q2 : 0.0468364544213, Q3 : -0.143141791224, Q4 : 0.295635968447}
2019-04-14 15:52:28.01: SIM {TimeUS : 61835256, Roll : 0.18, Pitch : -17.34, Yaw : 34.77, Alt : 49.3100013733, Lat : 49.2837257, Lng : -123.1148549, Q1 : 0.943318665028, Q2 : 0.0466159507632, Q3 : -0.143433764577, Q4 : 0.295640945435}
2019-04-14 15:52:28.11: SIM {TimeUS : 61935216, Roll : 0.15, Pitch : -17.37, Yaw : 34.78, Alt : 49.3100013733, Lat : 49.283729, Lng : -123.1148513, Q1 : 0.943257212639, Q2 : 0.0464281998575, Q3 : -0.143737718463, Q4 : 0.295719027519}
2019-04-14 15:52:28.21: SIM {TimeUS : 62035176, Roll : 0.12, Pitch : -17.4, Yaw : 34.8, Alt : 49.3100013733, Lat : 49.2837321, Lng : -123.1148478, Q1 : 0.94318407774, Q2 : 0.0462871082127, Q3 : -0.144024118781, Q4 : 0.295834958553}
2019-04-14 15:52:28.31: SIM {TimeUS : 62135136, Roll : 0.1, Pitch : -17.42, Yaw : 34.82, Alt : 49.3100013733, Lat : 49.2837356, Lng : -123.1148442, Q1 : 0.943113803864, Q2 : 0.0462014786899, Q3 : -0.144255936146, Q4 : 0.295959472656}
2019-04-14 15:52:28.41: SIM {TimeUS : 62235096, Roll : 0.09, Pitch : -17.45, Yaw : 34.84, Alt : 49.3100013733, Lat : 49.2837388, Lng : -123.1148406, Q1 : 0.943041503429, Q2 : 0.0462301373482, Q3 : -0.144479230046, Q4 : 0.296076387167}
2019-04-14 15:52:28.51: SIM {TimeUS : 62335056, Roll : 0.1, Pitch : -17.46, Yaw : 34.85, Alt : 49.3100013733, Lat : 49.2837422, Lng : -123.114837, Q1 : 0.942993342876, Q2 : 0.0463018678129, Q3 : -0.144613862038, Q4 : 0.296152800322}
2019-04-14 15:52:28.61: SIM {TimeUS : 62435016, Roll : 0.11, Pitch : -17.48, Yaw : 34.85, Alt : 49.3100013733, Lat : 49.2837454, Lng : -123.1148334, Q1 : 0.942963600159, Q2 : 0.0464330092072, Q3 : -0.144745618105, Q4 : 0.296162843704}
2019-04-14 15:52:28.71: SIM {TimeUS : 62534976, Roll : 0.12, Pitch : -17.51, Yaw : 34.84, Alt : 49.3100013733, Lat : 49.2837489, Lng : -123.1148298, Q1 : 0.942941367626, Q2 : 0.0466354712844, Q3 : -0.144953161478, Q4 : 0.296100139618}
2019-04-14 15:52:28.81: SIM {TimeUS : 62634936, Roll : 0.12, Pitch : -17.55, Yaw : 34.82, Alt : 49.3199996948, Lat : 49.2837521, Lng : -123.1148262, Q1 : 0.94293230772, Q2 : 0.0467368327081, Q3 : -0.145301416516, Q4 : 0.295942366123}
2019-04-14 15:52:28.91: SIM {TimeUS : 62734896, Roll : 0.1, Pitch : -17.6, Yaw : 34.8, Alt : 49.3199996948, Lat : 49.2837556, Lng : -123.1148225, Q1 : 0.942941427231, Q2 : 0.0466725490987, Q3 : -0.145735919476, Q4 : 0.29570966959}
2019-04-14 15:52:29.01: SIM {TimeUS : 62834856, Roll : 0.1, Pitch : -17.65, Yaw : 34.77, Alt : 49.3199996948, Lat : 49.2837588, Lng : -123.1148189, Q1 : 0.94295758009, Q2 : 0.0467060655355, Q3 : -0.146140068769, Q4 : 0.295453220606}
2019-04-14 15:52:29.11: SIM {TimeUS : 62934816, Roll : 0.12, Pitch : -17.67, Yaw : 34.74, Alt : 49.3199996948, Lat : 49.2837623, Lng : -123.1148152, Q1 : 0.942987799644, Q2 : 0.0469524003565, Q3 : -0.146328642964, Q4 : 0.295224428177}
2019-04-14 15:52:29.21: SIM {TimeUS : 63034776, Roll : 0.16, Pitch : -17.67, Yaw : 34.71, Alt : 49.3199996948, Lat : 49.2837656, Lng : -123.1148116, Q1 : 0.943052470684, Q2 : 0.0471782274544, Q3 : -0.146237954497, Q4 : 0.295026630163}
2019-04-14 15:52:29.31: SIM {TimeUS : 63134736, Roll : 0.19, Pitch : -17.65, Yaw : 34.69, Alt : 49.3199996948, Lat : 49.2837691, Lng : -123.1148079, Q1 : 0.943138360977, Q2 : 0.0473359450698, Q3 : -0.145976483822, Q4 : 0.294856399298}
2019-04-14 15:52:29.41: SIM {TimeUS : 63234696, Roll : 0.19, Pitch : -17.63, Yaw : 34.66, Alt : 49.3199996948, Lat : 49.2837725, Lng : -123.1148042, Q1 : 0.943222939968, Q2 : 0.0472760647535, Q3 : -0.145816400647, Q4 : 0.294674485922}
2019-04-14 15:52:29.51: SIM {TimeUS : 63334656, Roll : 0.18, Pitch : -17.62, Yaw : 34.64, Alt : 49.3199996948, Lat : 49.2837758, Lng : -123.1148005, Q1 : 0.943296134472, Q2 : 0.0471721179783, Q3 : -0.14572969079, Q4 : 0.294499784708}
2019-04-14 15:52:29.61: SIM {TimeUS : 63434616, Roll : 0.18, Pitch : -17.6, Yaw : 34.62, Alt : 49.3199996948, Lat : 49.2837793, Lng : -123.1147968, Q1 : 0.943361878395, Q2 : 0.0470690019429, Q3 : -0.145655140281, Q4 : 0.294342398643}
2019-04-14 15:52:29.71: SIM {TimeUS : 63534576, Roll : 0.17, Pitch : -17.62, Yaw : 34.61, Alt : 49.3199996948, Lat : 49.2837828, Lng : -123.1147931, Q1 : 0.943386673927, Q2 : 0.0470270738006, Q3 : -0.145807042718, Q4 : 0.294194459915}
2019-04-14 15:52:29.81: SIM {TimeUS : 63634536, Roll : 0.17, Pitch : -17.66, Yaw : 34.6, Alt : 49.3199996948, Lat : 49.2837861, Lng : -123.1147894, Q1 : 0.943372189999, Q2 : 0.0470668040216, Q3 : -0.146132320166, Q4 : 0.294073045254}
2019-04-14 15:52:29.91: SIM {TimeUS : 63735329, Roll : 0.15, Pitch : -17.71, Yaw : 34.59, Alt : 49.3199996948, Lat : 49.2837896, Lng : -123.1147857, Q1 : 0.943331301212, Q2 : 0.0470755584538, Q3 : -0.146610975266, Q4 : 0.293964624405}
2019-04-14 15:52:30.01: SIM {TimeUS : 63835289, Roll : 0.15, Pitch : -17.77, Yaw : 34.58, Alt : 49.3199996948, Lat : 49.283793, Lng : -123.114782, Q1 : 0.94327712059, Q2 : 0.0471754670143, Q3 : -0.147095769644, Q4 : 0.29388025403}
2019-04-14 15:52:30.11: SIM {TimeUS : 63935249, Roll : 0.15, Pitch : -17.8, Yaw : 34.57, Alt : 49.3199996948, Lat : 49.2837965, Lng : -123.1147782, Q1 : 0.943253099918, Q2 : 0.0472840256989, Q3 : -0.147328898311, Q4 : 0.293823182583}
2019-04-14 15:52:30.21: SIM {TimeUS : 64035209, Roll : 0.15, Pitch : -17.82, Yaw : 34.57, Alt : 49.3300018311, Lat : 49.2838, Lng : -123.1147745, Q1 : 0.943243324757, Q2 : 0.0473348610103, Q3 : -0.147500306368, Q4 : 0.293760359287}
2019-04-14 15:52:30.31: SIM {TimeUS : 64135169, Roll : 0.15, Pitch : -17.83, Yaw : 34.56, Alt : 49.3300018311, Lat : 49.2838033, Lng : -123.1147707, Q1 : 0.943249464035, Q2 : 0.0473139435053, Q3 : -0.14760877192, Q4 : 0.29368942976}
2019-04-14 15:52:30.41: SIM {TimeUS : 64235129, Roll : 0.16, Pitch : -17.82, Yaw : 34.55, Alt : 49.3300018311, Lat : 49.2838068, Lng : -123.114767, Q1 : 0.94328135252, Q2 : 0.0473523698747, Q3 : -0.14750315249, Q4 : 0.293633967638}
2019-04-14 15:52:30.51: SIM {TimeUS : 64335089, Roll : 0.18, Pitch : -17.83, Yaw : 34.54, Alt : 49.3300018311, Lat : 49.2838104, Lng : -123.1147633, Q1 : 0.943288981915, Q2 : 0.0475029237568, Q3 : -0.147531524301, Q4 : 0.293570876122}
2019-04-14 15:52:30.61: SIM {TimeUS : 64435049, Roll : 0.19, Pitch : -17.85, Yaw : 34.53, Alt : 49.3300018311, Lat : 49.2838138, Lng : -123.1147595, Q1 : 0.943283855915, Q2 : 0.0476407557726, Q3 : -0.147695928812, Q4 : 0.293482244015}
2019-04-14 15:52:30.71: SIM {TimeUS : 64535009, Roll : 0.19, Pitch : -17.87, Yaw : 34.52, Alt : 49.3300018311, Lat : 49.2838172, Lng : -123.1147558, Q1 : 0.943288445473, Q2 : 0.0477349385619, Q3 : -0.147821336985, Q4 : 0.293389111757}
2019-04-14 15:52:30.81: SIM {TimeUS : 64634969, Roll : 0.21, Pitch : -17.86, Yaw : 34.5, Alt : 49.3300018311, Lat : 49.2838208, Lng : -123.114752, Q1 : 0.943321764469, Q2 : 0.0478036925197, Q3 : -0.147778466344, Q4 : 0.293292373419}
2019-04-14 15:52:30.91: SIM {TimeUS : 64734929, Roll : 0.21, Pitch : -17.87, Yaw : 34.49, Alt : 49.3300018311, Lat : 49.2838243, Lng : -123.1147482, Q1 : 0.943352460861, Q2 : 0.0478110946715, Q3 : -0.147816374898, Q4 : 0.293173253536}
2019-04-14 15:52:31.01: SIM {TimeUS : 64834889, Roll : 0.19, Pitch : -17.88, Yaw : 34.47, Alt : 49.3300018311, Lat : 49.2838278, Lng : -123.1147445, Q1 : 0.94337695837, Q2 : 0.0477072522044, Q3 : -0.147993385792, Q4 : 0.293022125959}
2019-04-14 15:52:31.11: SIM {TimeUS : 64934849, Roll : 0.16, Pitch : -17.92, Yaw : 34.46, Alt : 49.3300018311, Lat : 49.2838312, Lng : -123.1147407, Q1 : 0.943378388882, Q2 : 0.047540795058, Q3 : -0.148386269808, Q4 : 0.292845755816}
2019-04-14 15:52:31.21: SIM {TimeUS : 65034809, Roll : 0.15, Pitch : -17.93, Yaw : 34.45, Alt : 49.3300018311, Lat : 49.2838348, Lng : -123.1147369, Q1 : 0.943404436111, Q2 : 0.0474277585745, Q3 : -0.148534461856, Q4 : 0.292704999447}
2019-04-14 15:52:31.31: SIM {TimeUS : 65134769, Roll : 0.15, Pitch : -17.93, Yaw : 34.43, Alt : 49.3300018311, Lat : 49.2838383, Lng : -123.1147331, Q1 : 0.943445920944, Q2 : 0.0474441275001, Q3 : -0.148462057114, Q4 : 0.29260545969}
2019-04-14 15:52:31.41: SIM {TimeUS : 65234729, Roll : 0.18, Pitch : -17.92, Yaw : 34.42, Alt : 49.3300018311, Lat : 49.2838418, Lng : -123.1147293, Q1 : 0.943479061127, Q2 : 0.0476012155414, Q3 : -0.148348346353, Q4 : 0.292530685663}
2019-04-14 15:52:31.51: SIM {TimeUS : 65334689, Roll : 0.19, Pitch : -17.93, Yaw : 34.41, Alt : 49.3300018311, Lat : 49.2838452, Lng : -123.1147256, Q1 : 0.943497657776, Q2 : 0.0477142520249, Q3 : -0.148370295763, Q4 : 0.292441010475}
2019-04-14 15:52:31.61: SIM {TimeUS : 65434649, Roll : 0.18, Pitch : -17.94, Yaw : 34.4, Alt : 49.3300018311, Lat : 49.2838488, Lng : -123.1147218, Q1 : 0.94350618124, Q2 : 0.0476735532284, Q3 : -0.148540273309, Q4 : 0.292333930731}
2019-04-14 15:52:31.71: SIM {TimeUS : 65534609, Roll : 0.16, Pitch : -17.96, Yaw : 34.39, Alt : 49.3400001526, Lat : 49.2838524, Lng : -123.114718, Q1 : 0.943513035774, Q2 : 0.0475549250841, Q3 : -0.148758754134, Q4 : 0.292219996452}
2019-04-14 15:52:31.81: SIM {TimeUS : 65634569, Roll : 0.15, Pitch : -17.98, Yaw : 34.38, Alt : 49.3400001526, Lat : 49.2838559, Lng : -123.1147141, Q1 : 0.943513631821, Q2 : 0.0475109517574, Q3 : -0.148958489299, Q4 : 0.292123347521}
2019-04-14 15:52:31.92: SIM {TimeUS : 65735362, Roll : 0.16, Pitch : -18.0, Yaw : 34.37, Alt : 49.3400001526, Lat : 49.2838595, Lng : -123.1147103, Q1 : 0.943513631821, Q2 : 0.0475940071046, Q3 : -0.149089083076, Q4 : 0.29204338789}
2019-04-14 15:52:32.01: SIM {TimeUS : 65835322, Roll : 0.17, Pitch : -18.01, Yaw : 34.36, Alt : 49.3400001526, Lat : 49.2838629, Lng : -123.1147065, Q1 : 0.943517327309, Q2 : 0.0477044582367, Q3 : -0.149161279202, Q4 : 0.291976422071}
2019-04-14 15:52:32.11: SIM {TimeUS : 65935282, Roll : 0.19, Pitch : -18.03, Yaw : 34.35, Alt : 49.3400001526, Lat : 49.2838664, Lng : -123.1147027, Q1 : 0.943513035774, Q2 : 0.0478606410325, Q3 : -0.149240896106, Q4 : 0.291924148798}
2019-04-14 15:52:32.21: SIM {TimeUS : 66035242, Roll : 0.19, Pitch : -18.05, Yaw : 34.34, Alt : 49.3400001526, Lat : 49.28387, Lng : -123.1146989, Q1 : 0.943500220776, Q2 : 0.047955237329, Q3 : -0.149406850338, Q4 : 0.291865170002}
2019-04-14 15:52:32.31: SIM {TimeUS : 66135202, Roll : 0.2, Pitch : -18.07, Yaw : 34.34, Alt : 49.3400001526, Lat : 49.2838736, Lng : -123.1146951, Q1 : 0.943481445312, Q2 : 0.0480676926672, Q3 : -0.149596139789, Q4 : 0.291810303926}
2019-04-14 15:52:32.41: SIM {TimeUS : 66235162, Roll : 0.21, Pitch : -18.09, Yaw : 34.33, Alt : 49.3400001526, Lat : 49.2838772, Lng : -123.1146912, Q1 : 0.943468630314, Q2 : 0.0481840074062, Q3 : -0.149741366506, Q4 : 0.291758030653}
2019-04-14 15:52:32.51: SIM {TimeUS : 66335122, Roll : 0.23, Pitch : -18.1, Yaw : 34.32, Alt : 49.3400001526, Lat : 49.2838807, Lng : -123.1146874, Q1 : 0.943463206291, Q2 : 0.0483822822571, Q3 : -0.149772956967, Q4 : 0.291726559401}
2019-04-14 15:52:32.61: SIM {TimeUS : 66435082, Roll : 0.26, Pitch : -18.11, Yaw : 34.32, Alt : 49.3400001526, Lat : 49.2838842, Lng : -123.1146836, Q1 : 0.943455696106, Q2 : 0.0486727952957, Q3 : -0.149737417698, Q4 : 0.291720807552}
2019-04-14 15:52:32.71: SIM {TimeUS : 66535042, Roll : 0.27, Pitch : -18.1, Yaw : 34.31, Alt : 49.3400001526, Lat : 49.2838877, Lng : -123.1146798, Q1 : 0.94348192215, Q2 : 0.0486511923373, Q3 : -0.149655595422, Q4 : 0.291681528091}
2019-04-14 15:52:32.81: SIM {TimeUS : 66635002, Roll : 0.24, Pitch : -18.1, Yaw : 34.3, Alt : 49.3400001526, Lat : 49.2838913, Lng : -123.1146759, Q1 : 0.943504571915, Q2 : 0.0484456345439, Q3 : -0.149745002389, Q4 : 0.29159668088}
