2019-04-14 18:23:27.60: SIM {TimeUS : 40416327, Roll : 0.0, Pitch : 0.0, Yaw : 0.0, Alt : 30.1000003815, Lat : 49.28357, Lng : -123.11502, Q1 : 1.0, Q2 : 0.0, Q3 : 0.0, Q4 : 0.0}
2019-04-14 18:23:27.71: SIM {TimeUS : 40535446, Roll : 0.0, Pitch : 0.0, Yaw : 0.0, Alt : 30.1000003815, Lat : 49.28357, Lng : -123.11502, Q1 : 1.0, Q2 : 0.0, Q3 : 0.0, Q4 : 0.0}
2019-04-14 18:23:27.81: SIM {TimeUS : 40635406, Roll : 0.0, Pitch : 0.0, Yaw : 0.0, Alt : 30.1000003815, Lat : 49.28357, Lng : -123.11502, Q1 : 1.0, Q2 : 0.0, Q3 : 0.0, Q4 : 0.0}
2019-04-14 18:23:27.91: SIM {TimeUS : 40735366, Roll : 0.0, Pitch : 0.0, Yaw : 0.0, Alt : 30.1000003815, Lat : 49.28357, Lng : -123.11502, Q1 : 1.0, Q2 : 0.0, Q3 : 0.0, Q4 : 0.0}
2019-04-14 18:23:28.01: SIM {TimeUS : 40835326, Roll : 0.0, Pitch : 0.0, Yaw : 0.0, Alt : 30.1000003815, Lat : 49.28357, Lng : -123.11502, Q1 : 1.0, Q2 : 0.0, Q3 : 0.0, Q4 : 0.0}
2019-04-14 18:23:28.11: SIM {TimeUS : 40935286, Roll : 0.0, Pitch : 0.0, Yaw : 0.0, Alt : 30.1000003815, Lat : 49.28357, Lng : -123.11502, Q1 : 1.0, Q2 : 0.0, Q3 : 0.0, Q4 : 0.0}
2019-04-14 18:23:28.21: SIM {TimeUS : 41035246, Roll : 0.0, Pitch : 0.0, Yaw : 0.0, Alt : 30.1000003815, Lat : 49.28357, Lng : -123.11502, Q1 : 1.0, Q2 : 0.0, Q3 : 0.0, Q4 : 0.0}
2019-04-14 18:23:28.31: SIM {TimeUS : 41135206, Roll : 0.0, Pitch : 0.0, Yaw : 0.0, Alt : 30.1000003815, Lat : 49.28357, Lng : -123.11502, Q1 : 1.0, Q2 : 0.0, Q3 : 0.0, Q4 : 0.0}
2019-04-14 18:23:28.41: SIM {TimeUS : 41235166, Roll : 0.0, Pitch : 0.0, Yaw : 0.0, Alt : 30.1000003815, Lat : 49.28357, Lng : -123.11502, Q1 : 1.0, Q2 : 0.0, Q3 : 0.0, Q4 : 0.0}
2019-04-14 18:23:28.51: SIM {TimeUS : 41335126, Roll : 0.0, Pitch : 0.0, Yaw : 0.0, Alt : 30.1000003815, Lat : 49.28357, Lng : -123.11502, Q1 : 1.0, Q2 : 0.0, Q3 : 0.0, Q4 : 0.0}
2019-04-14 18:23:28.61: SIM {TimeUS : 41435086, Roll : 0.0, Pitch : 0.0, Yaw : 0.0, Alt : 30.1000003815, Lat : 49.28357, Lng : -123.11502, Q1 : 1.0, Q2 : 0.0, Q3 : 0.0, Q4 : 0.0}
2019-04-14 18:23:28.71: SIM {TimeUS : 41535046, Roll : 0.0, Pitch : 0.0, Yaw : 0.0, Alt : 30.1000003815, Lat : 49.28357, Lng : -123.11502, Q1 : 1.0, Q2 : 0.0, Q3 : 0.0, Q4 : 0.0}
2019-04-14 18:23:28.81: SIM {TimeUS : 41635006, Roll : 0.0, Pitch : 0.0, Yaw : 0.0, Alt : 30.1000003815, Lat : 49.28357, Lng : -123.11502, Q1 : 1.0, Q2 : 0.0, Q3 : 0.0, Q4 : 0.0}
2019-04-14 18:23:28.91: SIM {TimeUS : 41734966, Roll : 0.0, Pitch : 0.0, Yaw : 0.0, Alt : 30.1000003815, Lat : 49.28357, Lng : -123.11502, Q1 : 1.0, Q2 : 0.0, Q3 : 0.0, Q4 : 0.0}
2019-04-14 18:23:29.01: SIM {TimeUS : 41834926, Roll : 0.0, Pitch : 0.0, Yaw : 0.0, Alt : 30.1000003815, Lat : 49.28357, Lng : -123.11502, Q1 : 1.0, Q2 : 0.0, Q3 : 0.0, Q4 : 0.0}
2019-04-14 18:23:29.11: SIM {TimeUS : 41934886, Roll : 0.0, Pitch : 0.0, Yaw : 0.0, Alt : 30.1000003815, Lat : 49.28357, Lng : -123.11502, Q1 : 1.0, Q2 : 0.0, Q3 : 0.0, Q4 : 0.0}
2019-04-14 18:23:29.21: SIM {TimeUS : 42034846, Roll : 0.0, Pitch : 0.0, Yaw : 0.0, Alt : 30.1000003815, Lat : 49.28357, Lng : -123.11502, Q1 : 1.0, Q2 : 0.0, Q3 : 0.0, Q4 : 0.0}
2019-04-14 18:23:29.31: SIM {TimeUS : 42134806, Roll : 0.0, Pitch : 0.0, Yaw : 0.0, Alt : 30.1000003815, Lat : 49.28357, Lng : -123.11502, Q1 : 1.0, Q2 : 0.0, Q3 : 0.0, Q4 : 0.0}
2019-04-14 18:23:29.41: SIM {TimeUS : 42234766, Roll : 0.0, Pitch : 0.0, Yaw : 0.0, Alt : 30.1000003815, Lat : 49.28357, Lng : -123.11502, Q1 : 1.0, Q2 : 0.0, Q3 : 0.0, Q4 : 0.0}
2019-04-14 18:23:29.51: SIM {TimeUS : 42334726, Roll : 0.0, Pitch : 0.0, Yaw : 0.0, Alt : 30.1000003815, Lat : 49.28357, Lng : -123.11502, Q1 : 1.0, Q2 : 0.0, Q3 : 0.0, Q4 : 0.0}
2019-04-14 18:23:29.61: SIM {TimeUS : 42434686, Roll : 0.0, Pitch : 0.0, Yaw : 0.0, Alt : 30.1000003815, Lat : 49.28357, Lng : -123.11502, Q1 : 1.0, Q2 : 0.0, Q3 : 0.0, Q4 : 0.0}
2019-04-14 18:23:29.71: SIM {TimeUS : 42535479, Roll : 0.0, Pitch : 0.0, Yaw : 0.0, Alt : 30.1000003815, Lat : 49.28357, Lng : -123.11502, Q1 : 1.0, Q2 : 0.0, Q3 : 0.0, Q4 : 0.0}
2019-04-14 18:23:29.81: SIM {TimeUS : 42635439, Roll : 0.0, Pitch : 0.0, Yaw : 0.0, Alt : 30.1000003815, Lat : 49.28357, Lng : -123.11502, Q1 : 1.0, Q2 : 0.0, Q3 : 0.0, Q4 : 0.0}
2019-04-14 18:23:29.91: SIM {TimeUS : 42735399, Roll : 0.0, Pitch : 0.0, Yaw : 0.0, Alt : 30.1000003815, Lat : 49.28357, Lng : -123.11502, Q1 : 1.0, Q2 : 0.0, Q3 : 0.0, Q4 : 7.39073472561e-12}
2019-04-14 18:23:30.01: SIM {TimeUS : 42835359, Roll : 0.0, Pitch : 0.0, Yaw : 0.0, Alt : 30.1000003815, Lat : 49.28357, Lng : -123.11502, Q1 : 1.0, Q2 : 0.0, Q3 : 0.0, Q4 : 1.15506416931e-10}
2019-04-14 18:23:30.11: SIM {TimeUS : 42935319, Roll : 0.0, Pitch : 0.0, Yaw : 360.0, Alt : 30.1000003815, Lat : 49.28357, Lng : -123.11502, Q1 : 1.0, Q2 : 0.0, Q3 : 0.0, Q4 : -1.05012851748e-07}
2019-04-14 18:23:30.21: SIM {TimeUS : 43035279, Roll : 0.0, Pitch : 0.0, Yaw : 359.99, Alt : 30.1000003815, Lat : 49.28357, Lng : -123.11502, Q1 : 1.0, Q2 : 0.0, Q3 : 0.0, Q4 : -2.76464362514e-07}
2019-04-14 18:23:30.31: SIM {TimeUS : 43135239, Roll : 0.0, Pitch : 0.0, Yaw : 359.99, Alt : 30.1000003815, Lat : 49.28357, Lng : -123.11502, Q1 : 1.0, Q2 : 0.0, Q3 : 0.0, Q4 : -4.53608379303e-07}
2019-04-14 18:23:30.41: SIM {TimeUS : 43235199, Roll : 0.0, Pitch : 0.0, Yaw : 359.99, Alt : 30.1000003815, Lat : 49.28357, Lng : -123.11502, Q1 : 1.0, Q2 : 0.0, Q3 : 0.0, Q4 : -6.54826862956e-07}
2019-04-14 18:23:30.51: SIM {TimeUS : 43335159, Roll : 0.0, Pitch : 0.0, Yaw : 359.99, Alt : 30.1000003815, Lat : 49.28357, Lng : -123.11502, Q1 : 1.0, Q2 : 0.0, Q3 : 0.0, Q4 : -8.23092591418e-07}
2019-04-14 18:23:30.61: SIM {TimeUS : 43435119, Roll : 0.0, Pitch : 0.0, Yaw : 359.99, Alt : 30.1000003815, Lat : 49.28357, Lng : -123.11502, Q1 : 1.0, Q2 : 0.0, Q3 : 0.0, Q4 : -1.02801573121e-06}
2019-04-14 18:23:30.71: SIM {TimeUS : 43535079, Roll : 0.0, Pitch : 0.0, Yaw : 359.99, Alt : 30.1000003815, Lat : 49.28357, Lng : -123.11502, Q1 : 1.0, Q2 : 0.0, Q3 : 0.0, Q4 : -1.22589403873e-06}
2019-04-14 18:23:30.81: SIM {TimeUS : 43635039, Roll : 0.0, Pitch : 0.0, Yaw : 359.99, Alt : 30.1100006104, Lat : 49.28357, Lng : -123.11502, Q1 : 1.0, Q2 : 0.0, Q3 : 0.0, Q4 : -1.420006015e-06}
2019-04-14 18:23:30.91: SIM {TimeUS : 43734999, Roll : 0.0, Pitch : 0.0, Yaw : 359.99, Alt : 30.1299991608, Lat : 49.28357, Lng : -123.11502, Q1 : 1.0, Q2 : 0.0, Q3 : 0.0, Q4 : -1.66384984368e-06}
2019-04-14 18:23:31.01: SIM {TimeUS : 43834959, Roll : 0.0, Pitch : 0.0, Yaw : 359.99, Alt : 30.1599998474, Lat : 49.28357, Lng : -123.11502, Q1 : 1.0, Q2 : 0.0, Q3 : 0.0, Q4 : -1.89620118363e-06}
2019-04-14 18:23:31.11: SIM {TimeUS : 43934919, Roll : 0.0, Pitch : 0.0, Yaw : 359.99, Alt : 30.1900005341, Lat : 49.28357, Lng : -123.11502, Q1 : 1.0, Q2 : 0.0, Q3 : 0.0, Q4 : -2.11915289583e-06}
2019-04-14 18:23:31.21: SIM {TimeUS : 44034879, Roll : -0.03, Pitch : -0.03, Yaw : 359.99, Alt : 30.2299995422, Lat : 49.28357, Lng : -123.11502, Q1 : 0.999999940395, Q2 : -0.000322392123053, Q3 : -0.000284631707473, Q4 : -4.89993681185e-06}
2019-04-14 18:23:31.31: SIM {TimeUS : 44134839, Roll : -0.3, Pitch : -0.26, Yaw : 359.99, Alt : 30.3099994659, Lat : 49.28357, Lng : -123.11502, Q1 : 0.999993741512, Q2 : -0.00264267204329, Q3 : -0.00234834849834, Q4 : -2.93469056487e-05}
2019-04-14 18:23:31.41: SIM {TimeUS : 44234799, Roll : -0.63, Pitch : -0.55, Yaw : 359.99, Alt : 30.4400005341, Lat : 49.28357, Lng : -123.11502, Q1 : 0.999972701073, Q2 : -0.00556956790388, Q3 : -0.00486149685457, Q4 : -8.0730416812e-05}
2019-04-14 18:23:31.51: SIM {TimeUS : 44334759, Roll : -0.85, Pitch : -0.74, Yaw : 359.98, Alt : 30.5900001526, Lat : 49.28357, Lng : -123.11502, Q1 : 0.999950706959, Q2 : -0.00750259356573, Q3 : -0.00650757877156, Q4 : -0.000154968714924}
2019-04-14 18:23:31.61: SIM {TimeUS : 44434719, Roll : -0.88, Pitch : -0.79, Yaw : 359.97, Alt : 30.75, Lat : 49.28357, Lng : -123.11502, Q1 : 0.999946296215, Q2 : -0.00773223210126, Q3 : -0.00689290510491, Q4 : -0.000244497496169}
2019-04-14 18:23:31.71: SIM {TimeUS : 44534679, Roll : -0.75, Pitch : -0.68, Yaw : 359.96, Alt : 30.9099998474, Lat : 49.28357, Lng : -123.1150201, Q1 : 0.999960064888, Q2 : -0.00662625581026, Q3 : -0.00599285773933, Q4 : -0.000338699348504}
2019-04-14 18:23:31.81: SIM {TimeUS : 44635472, Roll : -0.55, Pitch : -0.49, Yaw : 359.95, Alt : 31.0599994659, Lat : 49.2835701, Lng : -123.1150201, Q1 : 0.999978899956, Q2 : -0.00484424736351, Q3 : -0.00430657947436, Q4 : -0.000419832183979}
2019-04-14 18:23:31.91: SIM {TimeUS : 44735432, Roll : -0.32, Pitch : -0.28, Yaw : 359.94, Alt : 31.2199993134, Lat : 49.2835701, Lng : -123.1150202, Q1 : 0.999992728233, Q2 : -0.00285154185258, Q3 : -0.00249123666435, Q4 : -0.000481237453641}
2019-04-14 18:23:32.01: SIM {TimeUS : 44835392, Roll : -0.12, Pitch : -0.11, Yaw : 359.93, Alt : 31.3899993896, Lat : 49.2835702, Lng : -123.1150203, Q1 : 0.999998748302, Q2 : -0.00110969180241, Q3 : -0.000989389722236, Q4 : -0.000526451331098}
2019-04-14 18:23:32.11: SIM {TimeUS : 44935352, Roll : 0.0, Pitch : 0.0, Yaw : 359.93, Alt : 31.5599994659, Lat : 49.2835702, Lng : -123.1150204, Q1 : 0.999999880791, Q2 : 7.95804444351e-05, Q3 : -1.19829237519e-05, Q4 : -0.000552211364266}
2019-04-14 18:23:32.21: SIM {TimeUS : 45035312, Roll : 0.08, Pitch : 0.04, Yaw : 359.93, Alt : 31.7299995422, Lat : 49.2835702, Lng : -123.1150205, Q1 : 0.999999523163, Q2 : 0.000720798969269, Q3 : 0.000373075512471, Q4 : -0.000559169158805}
2019-04-14 18:23:32.31: SIM {TimeUS : 45135272, Roll : 0.1, Pitch : 0.04, Yaw : 359.93, Alt : 31.9099998474, Lat : 49.2835703, Lng : -123.1150205, Q1 : 0.999999403954, Q2 : 0.00092329189647, Q3 : 0.000361843005521, Q4 : -0.000542372232303}
2019-04-14 18:23:32.41: SIM {TimeUS : 45235232, Roll : 0.1, Pitch : 0.03, Yaw : 359.93, Alt : 32.0999984741, Lat : 49.2835703, Lng : -123.1150206, Q1 : 0.999999463558, Q2 : 0.000887383590452, Q3 : 0.000293534336379, Q4 : -0.000524318485986}
2019-04-14 18:23:32.51: SIM {TimeUS : 45335192, Roll : 0.08, Pitch : 0.03, Yaw : 359.94, Alt : 32.2900009155, Lat : 49.2835703, Lng : -123.1150207, Q1 : 0.999999523163, Q2 : 0.000756814726628, Q3 : 0.000307631882606, Q4 : -0.000507212826051}
2019-04-14 18:23:32.61: SIM {TimeUS : 45435152, Roll : 0.06, Pitch : 0.06, Yaw : 359.94, Alt : 32.4799995422, Lat : 49.2835703, Lng : -123.1150207, Q1 : 0.999999582767, Q2 : 0.000577141181566, Q3 : 0.000526442483533, Q4 : -0.000500324647874}
2019-04-14 18:23:32.71: SIM {TimeUS : 45535112, Roll : 0.07, Pitch : 0.1, Yaw : 359.94, Alt : 32.6800003052, Lat : 49.2835703, Lng : -123.1150207, Q1 : 0.99999922514, Q2 : 0.000647193461191, Q3 : 0.000932254944928, Q4 : -0.000486911187181}
2019-04-14 18:23:32.81: SIM {TimeUS : 45635072, Roll : 0.1, Pitch : 0.14, Yaw : 359.94, Alt : 32.8699989319, Lat : 49.2835704, Lng : -123.1150208, Q1 : 0.999998688698, Q2 : 0.000916211574804, Q3 : 0.00123953446746, Q4 : -0.000469983468065}
2019-04-14 18:23:32.91: SIM {TimeUS : 45735032, Roll : 0.13, Pitch : 0.17, Yaw : 359.94, Alt : 33.0699996948, Lat : 49.2835704, Lng : -123.1150208, Q1 : 0.999998033047, Q2 : 0.0011808401905, Q3 : 0.00154076272156, Q4 : -0.000454288412584}
2019-04-14 18:23:33.01: SIM {TimeUS : 45834992, Roll : 0.15, Pitch : 0.2, Yaw : 359.94, Alt : 33.2799987793, Lat : 49.2835704, Lng : -123.1150208, Q1 : 0.999997496605, Q2 : 0.00131484982558, Q3 : 0.00176120898686, Q4 : -0.000448272010544}
2019-04-14 18:23:33.11: SIM {TimeUS : 45934952, Roll : 0.16, Pitch : 0.18, Yaw : 359.94, Alt : 33.4799995422, Lat : 49.2835704, Lng : -123.1150208, Q1 : 0.999997675419, Q2 : 0.00139880890492, Q3 : 0.00158650183585, Q4 : -0.000452863954706}
2019-04-14 18:23:33.21: SIM {TimeUS : 46034912, Roll : 0.16, Pitch : 0.14, Yaw : 359.94, Alt : 33.6899986267, Lat : 49.2835704, Lng : -123.1150209, Q1 : 0.999998152256, Q2 : 0.00142385635991, Q3 : 0.00122384168208, Q4 : -0.000472485204227}
2019-04-14 18:23:33.31: SIM {TimeUS : 46134872, Roll : 0.15, Pitch : 0.11, Yaw : 359.94, Alt : 33.9000015259, Lat : 49.2835704, Lng : -123.1150209, Q1 : 0.999998450279, Q2 : 0.00137139100116, Q3 : 0.000984636251815, Q4 : -0.000496429915074}
2019-04-14 18:23:33.41: SIM {TimeUS : 46234832, Roll : 0.15, Pitch : 0.09, Yaw : 359.93, Alt : 34.1100006104, Lat : 49.2835704, Lng : -123.1150209, Q1 : 0.999998629093, Q2 : 0.00132444757037, Q3 : 0.000867907307111, Q4 : -0.000528870732524}
2019-04-14 18:23:33.51: SIM {TimeUS : 46334792, Roll : 0.15, Pitch : 0.09, Yaw : 359.93, Alt : 34.3199996948, Lat : 49.2835704, Lng : -123.1150209, Q1 : 0.999998569489, Q2 : 0.00132311636116, Q3 : 0.000855801219586, Q4 : -0.000564764719456}
2019-04-14 18:23:33.61: SIM {TimeUS : 46434752, Roll : 0.14, Pitch : 0.08, Yaw : 359.93, Alt : 34.5299987793, Lat : 49.2835704, Lng : -123.1150209, Q1 : 0.999998807907, Q2 : 0.00123480928596, Q3 : 0.000747834856156, Q4 : -0.000592653348576}
2019-04-14 18:23:33.71: SIM {TimeUS : 46534712, Roll : 0.12, Pitch : 0.07, Yaw : 359.92, Alt : 34.7400016785, Lat : 49.2835704, Lng : -123.1150208, Q1 : 0.999999046326, Q2 : 0.00105271593202, Q3 : 0.000653564406093, Q4 : -0.000616943347268}
2019-04-14 18:23:33.81: SIM {TimeUS : 46634672, Roll : 0.09, Pitch : 0.06, Yaw : 359.92, Alt : 34.9599990845, Lat : 49.2835704, Lng : -123.1150208, Q1 : 0.999999284744, Q2 : 0.000836668536067, Q3 : 0.000599264225457, Q4 : -0.000640356331132}
2019-04-14 18:23:33.91: SIM {TimeUS : 46735465, Roll : 0.06, Pitch : 0.06, Yaw : 359.92, Alt : 35.1800003052, Lat : 49.2835704, Lng : -123.1150208, Q1 : 0.999999463558, Q2 : 0.000598271435592, Q3 : 0.000551234290469, Q4 : -0.000662341481075}
2019-04-14 18:23:34.01: SIM {TimeUS : 46835425, Roll : 0.05, Pitch : 0.02, Yaw : 359.92, Alt : 35.3899993896, Lat : 49.2835704, Lng : -123.1150208, Q1 : 0.999999642372, Q2 : 0.000455863366369, Q3 : 0.000261490204139, Q4 : -0.000674863229506}
2019-04-14 18:23:34.11: SIM {TimeUS : 46935385, Roll : 0.04, Pitch : 0.0, Yaw : 359.92, Alt : 35.6100006104, Lat : 49.2835704, Lng : -123.1150208, Q1 : 0.999999701977, Q2 : 0.000367203028873, Q3 : 2.34788712987e-05, Q4 : -0.000690030166879}
2019-04-14 18:23:34.21: SIM {TimeUS : 47035345, Roll : 0.01, Pitch : 0.0, Yaw : 359.91, Alt : 35.8300018311, Lat : 49.2835704, Lng : -123.1150208, Q1 : 0.999999761581, Q2 : 0.000170537401573, Q3 : -4.64739969175e-05, Q4 : -0.00071042845957}
2019-04-14 18:23:34.31: SIM {TimeUS : 47135305, Roll : 0.01, Pitch : 0.0, Yaw : 359.91, Alt : 36.0499992371, Lat : 49.2835704, Lng : -123.1150207, Q1 : 0.999999761581, Q2 : 0.000122533878312, Q3 : -2.77222752629e-05, Q4 : -0.000724714773241}
2019-04-14 18:23:34.41: SIM {TimeUS : 47235265, Roll : 0.02, Pitch : 0.0, Yaw : 359.91, Alt : 36.2700004578, Lat : 49.2835704, Lng : -123.1150207, Q1 : 0.999999701977, Q2 : 0.000178459769813, Q3 : -1.18359821499e-05, Q4 : -0.000740081304684}
2019-04-14 18:23:34.51: SIM {TimeUS : 47335225, Roll : 0.0, Pitch : -0.01, Yaw : 359.91, Alt : 36.4900016785, Lat : 49.2835704, Lng : -123.1150207, Q1 : 0.999999701977, Q2 : 5.73527831875e-05, Q3 : -0.000155724323122, Q4 : -0.000754847074859}
2019-04-14 18:23:34.61: SIM {TimeUS : 47435185, Roll : -0.02, Pitch : -0.05, Yaw : 359.91, Alt : 36.7200012207, Lat : 49.2835704, Lng : -123.1150207, Q1 : 0.999999582767, Q2 : -0.000242928843363, Q3 : -0.000454704131698, Q4 : -0.000778031477239}
2019-04-14 18:23:34.71: SIM {TimeUS : 47535145, Roll : -0.06, Pitch : -0.08, Yaw : 359.9, Alt : 36.9399986267, Lat : 49.2835704, Lng : -123.1150207, Q1 : 0.999999284744, Q2 : -0.000607441703323, Q3 : -0.000700596079696, Q4 : -0.000807861913927}
2019-04-14 18:23:34.81: SIM {TimeUS : 47635105, Roll : -0.11, Pitch : -0.1, Yaw : 359.9, Alt : 37.1699981689, Lat : 49.2835704, Lng : -123.1150207, Q1 : 0.999998748302, Q2 : -0.000965482264291, Q3 : -0.000899952487089, Q4 : -0.000840148306452}
2019-04-14 18:23:34.91: SIM {TimeUS : 47735065, Roll : -0.12, Pitch : -0.1, Yaw : 359.89, Alt : 37.3899993896, Lat : 49.2835704, Lng : -123.1150207, Q1 : 0.999998569489, Q2 : -0.00110320793465, Q3 : -0.000934147567023, Q4 : -0.000878536491655}
2019-04-14 18:23:35.01: SIM {TimeUS : 47835025, Roll : -0.12, Pitch : -0.08, Yaw : 359.89, Alt : 37.6199989319, Lat : 49.2835704, Lng : -123.1150206, Q1 : 0.999998748302, Q2 : -0.00105102232192, Q3 : -0.000782791699748, Q4 : -0.000916153541766}
2019-04-14 18:23:35.11: SIM {TimeUS : 47934985, Roll : -0.09, Pitch : -0.05, Yaw : 359.89, Alt : 37.8400001526, Lat : 49.2835704, Lng : -123.1150206, Q1 : 0.99999910593, Q2 : -0.000858249375597, Q3 : -0.000482020404888, Q4 : -0.000946407846641}
2019-04-14 18:23:35.21: SIM {TimeUS : 48034945, Roll : -0.07, Pitch : -0.03, Yaw : 359.88, Alt : 38.0699996948, Lat : 49.2835704, Lng : -123.1150206, Q1 : 0.999999284744, Q2 : -0.000649291730952, Q3 : -0.000281091866782, Q4 : -0.000975545146503}
2019-04-14 18:23:35.31: SIM {TimeUS : 48134905, Roll : -0.06, Pitch : -0.03, Yaw : 359.88, Alt : 38.2999992371, Lat : 49.2835706, Lng : -123.1150206, Q1 : 0.999999284744, Q2 : -0.000584042456467, Q3 : -0.000271230965154, Q4 : -0.0010038560722}
2019-04-14 18:23:35.41: SIM {TimeUS : 48234865, Roll : -0.07, Pitch : -0.01, Yaw : 359.88, Alt : 38.5200004578, Lat : 49.2835706, Lng : -123.1150206, Q1 : 0.999999284744, Q2 : -0.000641054590233, Q3 : -0.000164501092513, Q4 : -0.00101701379754}
2019-04-14 18:23:35.51: SIM {TimeUS : 48334825, Roll : -0.09, Pitch : 0.0, Yaw : 359.88, Alt : 38.75, Lat : 49.2835706, Lng : -123.1150206, Q1 : 0.999999165535, Q2 : -0.000810876314063, Q3 : -3.15621764457e-05, Q4 : -0.00102345703635}
2019-04-14 18:23:35.61: SIM {TimeUS : 48434785, Roll : -0.09, Pitch : 0.01, Yaw : 359.88, Alt : 38.9799995422, Lat : 49.2835706, Lng : -123.1150206, Q1 : 0.99999910593, Q2 : -0.000825723109301, Q3 : 9.23452389543e-05, Q4 : -0.0010272054933}
2019-04-14 18:23:35.71: SIM {TimeUS : 48534745, Roll : -0.07, Pitch : 0.03, Yaw : 359.88, Alt : 39.2099990845, Lat : 49.2835706, Lng : -123.1150206, Q1 : 0.99999922514, Q2 : -0.000672331196256, Q3 : 0.000304279819829, Q4 : -0.00102873158175}
2019-04-14 18:23:35.81: SIM {TimeUS : 48634705, Roll : -0.05, Pitch : 0.04, Yaw : 359.88, Alt : 39.4399986267, Lat : 49.2835706, Lng : -123.1150206, Q1 : 0.999999284744, Q2 : -0.000476535526104, Q3 : 0.00036617970909, Q4 : -0.00102549954318}
2019-04-14 18:23:35.91: SIM {TimeUS : 48734665, Roll : -0.02, Pitch : 0.04, Yaw : 359.88, Alt : 39.6699981689, Lat : 49.2835706, Lng : -123.1150207, Q1 : 0.999999344349, Q2 : -0.000220611065743, Q3 : 0.000414908252424, Q4 : -0.00102370907553}
2019-04-14 18:23:36.01: SIM {TimeUS : 48835458, Roll : 0.01, Pitch : 0.07, Yaw : 359.88, Alt : 39.9000015259, Lat : 49.2835706, Lng : -123.1150207, Q1 : 0.99999922514, Q2 : 0.00013803326874, Q3 : 0.00068870279938, Q4 : -0.00102127098944}
2019-04-14 18:23:36.11: SIM {TimeUS : 48935418, Roll : 0.05, Pitch : 0.12, Yaw : 359.88, Alt : 40.1399993896, Lat : 49.2835706, Lng : -123.1150207, Q1 : 0.999998807907, Q2 : 0.000504805357195, Q3 : 0.00105433294084, Q4 : -0.00102689641062}
2019-04-14 18:23:36.21: SIM {TimeUS : 49035378, Roll : 0.08, Pitch : 0.15, Yaw : 359.88, Alt : 40.3699989319, Lat : 49.2835706, Lng : -123.1150207, Q1 : 0.999998211861, Q2 : 0.000774540589191, Q3 : 0.00138343009166, Q4 : -0.0010432866402}
2019-04-14 18:23:36.31: SIM {TimeUS : 49135338, Roll : 0.08, Pitch : 0.18, Yaw : 359.87, Alt : 40.5999984741, Lat : 49.2835706, Lng : -123.1150207, Q1 : 0.999997854233, Q2 : 0.000701663666405, Q3 : 0.0016547027044, Q4 : -0.00105292256922}
2019-04-14 18:23:36.41: SIM {TimeUS : 49235298, Roll : 0.03, Pitch : 0.2, Yaw : 359.87, Alt : 40.8300018311, Lat : 49.2835706, Lng : -123.1150207, Q1 : 0.999997735023, Q2 : 0.000282980501652, Q3 : 0.00180948653724, Q4 : -0.00107911799569}
2019-04-14 18:23:36.51: SIM {TimeUS : 49335258, Roll : -0.01, Pitch : 0.2, Yaw : 359.87, Alt : 41.0600013733, Lat : 49.2835706, Lng : -123.1150207, Q1 : 0.999997735023, Q2 : -0.000106708459498, Q3 : 0.00181567261461, Q4 : -0.00110840098932}
2019-04-14 18:23:36.61: SIM {TimeUS : 49435218, Roll : -0.03, Pitch : 0.17, Yaw : 359.86, Alt : 41.2999992371, Lat : 49.2835706, Lng : -123.1150207, Q1 : 0.999998092651, Q2 : -0.000305537017994, Q3 : 0.00154884031508, Q4 : -0.001139015425}
2019-04-14 18:23:36.71: SIM {TimeUS : 49535178, Roll : -0.04, Pitch : 0.13, Yaw : 359.86, Alt : 41.5299987793, Lat : 49.2835706, Lng : -123.1150207, Q1 : 0.999998509884, Q2 : -0.000350385438651, Q3 : 0.00119239592459, Q4 : -0.00117864774074}
2019-04-14 18:23:36.81: SIM {TimeUS : 49635138, Roll : -0.02, Pitch : 0.12, Yaw : 359.85, Alt : 41.7599983215, Lat : 49.2835706, Lng : -123.1150207, Q1 : 0.999998629093, Q2 : -0.000205735588679, Q3 : 0.00109053088818, Q4 : -0.00122262758669}
2019-04-14 18:23:36.91: SIM {TimeUS : 49735098, Roll : 0.01, Pitch : 0.13, Yaw : 359.85, Alt : 42.0, Lat : 49.2835706, Lng : -123.1150207, Q1 : 0.999998509884, Q2 : 0.000159400020493, Q3 : 0.00116531539243, Q4 : -0.00126934458967}
2019-04-14 18:23:37.01: SIM {TimeUS : 49835058, Roll : 0.07, Pitch : 0.13, Yaw : 359.84, Alt : 42.2299995422, Lat : 49.2835706, Lng : -123.1150207, Q1 : 0.999998211861, Q2 : 0.000618476013187, Q3 : 0.00120557891205, Q4 : -0.00131502747536}
2019-04-14 18:23:37.11: SIM {TimeUS : 49935018, Roll : 0.1, Pitch : 0.11, Yaw : 359.84, Alt : 42.4700012207, Lat : 49.2835706, Lng : -123.1150207, Q1 : 0.999998152256, Q2 : 0.000944039144088, Q3 : 0.00100516481325, Q4 : -0.00136176496744}
2019-04-14 18:23:37.21: SIM {TimeUS : 50034978, Roll : 0.11, Pitch : 0.08, Yaw : 359.83, Alt : 42.7000007629, Lat : 49.2835706, Lng : -123.1150207, Q1 : 0.999998271465, Q2 : 0.000965354323853, Q3 : 0.000714162888471, Q4 : -0.00140703900252}
2019-04-14 18:23:37.31: SIM {TimeUS : 50134938, Roll : 0.07, Pitch : 0.05, Yaw : 359.83, Alt : 42.9399986267, Lat : 49.2835706, Lng : -123.1150207, Q1 : 0.999998629093, Q2 : 0.000646481232252, Q3 : 0.000510316283908, Q4 : -0.00143907906022}
2019-04-14 18:23:37.41: SIM {TimeUS : 50234898, Roll : 0.01, Pitch : 0.05, Yaw : 359.83, Alt : 43.1699981689, Lat : 49.2835704, Lng : -123.1150207, Q1 : 0.999998807907, Q2 : 0.000172219995875, Q3 : 0.000473794993013, Q4 : -0.00146451371256}
2019-04-14 18:23:37.51: SIM {TimeUS : 50334858, Roll : -0.02, Pitch : 0.07, Yaw : 359.83, Alt : 43.4099998474, Lat : 49.2835704, Lng : -123.1150207, Q1 : 0.999998688698, Q2 : -0.000183330164873, Q3 : 0.000649619672913, Q4 : -0.0014834565809}
2019-04-14 18:23:37.61: SIM {TimeUS : 50434818, Roll : -0.04, Pitch : 0.08, Yaw : 359.82, Alt : 43.6399993896, Lat : 49.2835704, Lng : -123.1150207, Q1 : 0.999998509884, Q2 : -0.000360144709703, Q3 : 0.000738318369258, Q4 : -0.00150074041449}
2019-04-14 18:23:37.71: SIM {TimeUS : 50534778, Roll : -0.04, Pitch : 0.06, Yaw : 359.82, Alt : 43.8800010681, Lat : 49.2835704, Lng : -123.1150207, Q1 : 0.999998569489, Q2 : -0.000357515440555, Q3 : 0.000606356363278, Q4 : -0.00151991599705}
2019-04-14 18:23:37.81: SIM {TimeUS : 50634738, Roll : -0.05, Pitch : 0.04, Yaw : 359.82, Alt : 44.1100006104, Lat : 49.2835704, Lng : -123.1150207, Q1 : 0.999998629093, Q2 : -0.000436564878328, Q3 : 0.000422348792199, Q4 : -0.00154359336011}
2019-04-14 18:23:37.91: SIM {TimeUS : 50734698, Roll : -0.04, Pitch : 0.02, Yaw : 359.82, Alt : 44.3499984741, Lat : 49.2835704, Lng : -123.1150206, Q1 : 0.999998688698, Q2 : -0.000427790917456, Q3 : 0.000240917463088, Q4 : -0.00156548433006}
2019-04-14 18:23:38.01: SIM {TimeUS : 50834658, Roll : -0.03, Pitch : 0.02, Yaw : 359.81, Alt : 44.5800018311, Lat : 49.2835704, Lng : -123.1150206, Q1 : 0.999998688698, Q2 : -0.00029638959677, Q3 : 0.000189587110071, Q4 : -0.00159013911616}
2019-04-14 18:23:38.11: SIM {TimeUS : 50935451, Roll : -0.02, Pitch : 0.02, Yaw : 359.81, Alt : 44.8199996948, Lat : 49.2835704, Lng : -123.1150206, Q1 : 0.999998629093, Q2 : -0.000184757780517, Q3 : 0.000219327674131, Q4 : -0.00161523534916}
2019-04-14 18:23:38.21: SIM {TimeUS : 51035411, Roll : -0.01, Pitch : 0.02, Yaw : 359.81, Alt : 45.0600013733, Lat : 49.2835703, Lng : -123.1150206, Q1 : 0.999998629093, Q2 : -0.000121720433526, Q3 : 0.000178023576154, Q4 : -0.00164000096265}
2019-04-14 18:23:38.31: SIM {TimeUS : 51135371, Roll : -0.01, Pitch : 0.0, Yaw : 359.8, Alt : 45.2900009155, Lat : 49.2835703, Lng : -123.1150206, Q1 : 0.999998629093, Q2 : -0.000136857575853, Q3 : -7.33344932087e-05, Q4 : -0.0016603555996}
2019-04-14 18:23:38.41: SIM {TimeUS : 51235331, Roll : -0.02, Pitch : -0.03, Yaw : 359.8, Alt : 45.5299987793, Lat : 49.2835703, Lng : -123.1150206, Q1 : 0.999998509884, Q2 : -0.000186869510799, Q3 : -0.00032716957503, Q4 : -0.00167829927523}
2019-04-14 18:23:38.51: SIM {TimeUS : 51335291, Roll : -0.02, Pitch : -0.05, Yaw : 359.8, Alt : 45.7599983215, Lat : 49.2835703, Lng : -123.1150206, Q1 : 0.999998450279, Q2 : -0.000197601446416, Q3 : -0.000479050329886, Q4 : -0.00169676239602}
2019-04-14 18:23:38.61: SIM {TimeUS : 51435251, Roll : -0.03, Pitch : -0.05, Yaw : 359.8, Alt : 46.0, Lat : 49.2835703, Lng : -123.1150206, Q1 : 0.99999833107, Q2 : -0.000282526976662, Q3 : -0.000511078338604, Q4 : -0.00171237345785}
2019-04-14 18:23:38.71: SIM {TimeUS : 51535211, Roll : -0.05, Pitch : -0.04, Yaw : 359.8, Alt : 46.2200012207, Lat : 49.2835703, Lng : -123.1150206, Q1 : 0.999998271465, Q2 : -0.000503500399645, Q3 : -0.000430956366472, Q4 : -0.00172921270132}
2019-04-14 18:23:38.81: SIM {TimeUS : 51635171, Roll : -0.09, Pitch : -0.04, Yaw : 359.79, Alt : 46.4500007629, Lat : 49.2835703, Lng : -123.1150206, Q1 : 0.999998092651, Q2 : -0.000822539033834, Q3 : -0.000351578608388, Q4 : -0.00174717034679}
2019-04-14 18:23:38.91: SIM {TimeUS : 51735131, Roll : -0.11, Pitch : -0.03, Yaw : 359.79, Alt : 46.6699981689, Lat : 49.2835703, Lng : -123.1150206, Q1 : 0.999997854233, Q2 : -0.00102502817754, Q3 : -0.000303808890749, Q4 : -0.00176685431506}
2019-04-14 18:23:39.01: SIM {TimeUS : 51835091, Roll : -0.12, Pitch : -0.02, Yaw : 359.79, Alt : 46.8800010681, Lat : 49.2835703, Lng : -123.1150206, Q1 : 0.999997794628, Q2 : -0.00107842055149, Q3 : -0.000183870462934, Q4 : -0.00178796518594}
2019-04-14 18:23:39.11: SIM {TimeUS : 51935051, Roll : -0.11, Pitch : 0.0, Yaw : 359.79, Alt : 47.0900001526, Lat : 49.2835703, Lng : -123.1150206, Q1 : 0.999997913837, Q2 : -0.000962392950896, Q3 : 1.39234034577e-05, Q4 : -0.00181087828241}
2019-04-14 18:23:39.21: SIM {TimeUS : 52035011, Roll : -0.08, Pitch : 0.01, Yaw : 359.78, Alt : 47.2900009155, Lat : 49.2835703, Lng : -123.1150206, Q1 : 0.999998033047, Q2 : -0.000729650259018, Q3 : 0.000102307873021, Q4 : -0.00184159202036}
2019-04-14 18:23:39.31: SIM {TimeUS : 52134971, Roll : -0.06, Pitch : 0.0, Yaw : 359.78, Alt : 47.4799995422, Lat : 49.2835703, Lng : -123.1150206, Q1 : 0.999998092651, Q2 : -0.000525375187863, Q3 : 4.92370345455e-05, Q4 : -0.00187775224913}
2019-04-14 18:23:39.41: SIM {TimeUS : 52234931, Roll : -0.05, Pitch : -0.01, Yaw : 359.78, Alt : 47.6699981689, Lat : 49.2835703, Lng : -123.1150206, Q1 : 0.999998033047, Q2 : -0.00048429419985, Q3 : -0.000112430585432, Q4 : -0.00191691284999}
2019-04-14 18:23:39.51: SIM {TimeUS : 52334891, Roll : -0.05, Pitch : -0.04, Yaw : 359.77, Alt : 47.8400001526, Lat : 49.2835703, Lng : -123.1150206, Q1 : 0.999997913837, Q2 : -0.000506454030983, Q3 : -0.000410477136029, Q4 : -0.00195185595658}
2019-04-14 18:23:39.61: SIM {TimeUS : 52434851, Roll : -0.04, Pitch : -0.07, Yaw : 359.77, Alt : 48.0, Lat : 49.2835703, Lng : -123.1150206, Q1 : 0.999997735023, Q2 : -0.000412574416259, Q3 : -0.000685352424625, Q4 : -0.00198412011378}
2019-04-14 18:23:39.71: SIM {TimeUS : 52534811, Roll : -0.03, Pitch : -0.1, Yaw : 359.76, Alt : 48.1399993896, Lat : 49.2835703, Lng : -123.1150206, Q1 : 0.999997496605, Q2 : -0.000303636887111, Q3 : -0.000918612582609, Q4 : -0.00201197923161}
2019-04-14 18:23:39.81: SIM {TimeUS : 52634771, Roll : -0.03, Pitch : -0.11, Yaw : 359.76, Alt : 48.2799987793, Lat : 49.2835703, Lng : -123.1150206, Q1 : 0.999997377396, Q2 : -0.000303644192172, Q3 : -0.00103376654442, Q4 : -0.00203510257415}
2019-04-14 18:23:39.91: SIM {TimeUS : 52734731, Roll : 0.0, Pitch : -0.1, Yaw : 359.76, Alt : 48.4099998474, Lat : 49.2835703, Lng : -123.1150206, Q1 : 0.999997437, Q2 : -6.74317998346e-05, Q3 : -0.000955198192969, Q4 : -0.00205736351199}
2019-04-14 18:23:40.01: SIM {TimeUS : 52834691, Roll : 0.02, Pitch : -0.08, Yaw : 359.76, Alt : 48.5200004578, Lat : 49.2835703, Lng : -123.1150206, Q1 : 0.99999755621, Q2 : 0.000258822168689, Q3 : -0.00074752495857, Q4 : -0.00207400228828}
2019-04-14 18:23:40.11: SIM {TimeUS : 52935484, Roll : 0.05, Pitch : -0.05, Yaw : 359.76, Alt : 48.6199989319, Lat : 49.2835703, Lng : -123.1150206, Q1 : 0.99999755621, Q2 : 0.000519516644999, Q3 : -0.000482676434331, Q4 : -0.00208920193836}
2019-04-14 18:23:40.21: SIM {TimeUS : 53035444, Roll : 0.07, Pitch : -0.02, Yaw : 359.75, Alt : 48.7099990845, Lat : 49.2835703, Lng : -123.1150206, Q1 : 0.99999755621, Q2 : 0.000620633247308, Q3 : -0.000251422752626, Q4 : -0.00210572755896}
2019-04-14 18:23:40.31: SIM {TimeUS : 53135404, Roll : 0.07, Pitch : -0.01, Yaw : 359.75, Alt : 48.7799987793, Lat : 49.2835703, Lng : -123.1150207, Q1 : 0.99999755621, Q2 : 0.000649115012493, Q3 : -0.000144173856825, Q4 : -0.00212311372161}
2019-04-14 18:23:40.41: SIM {TimeUS : 53235364, Roll : 0.06, Pitch : -0.02, Yaw : 359.75, Alt : 48.8499984741, Lat : 49.2835703, Lng : -123.1150207, Q1 : 0.999997496605, Q2 : 0.000585191242862, Q3 : -0.000256145489402, Q4 : -0.00215517007746}
2019-04-14 18:23:40.51: SIM {TimeUS : 53335324, Roll : 0.03, Pitch : -0.03, Yaw : 359.74, Alt : 48.9099998474, Lat : 49.2835703, Lng : -123.1150207, Q1 : 0.999997496605, Q2 : 0.000332196475938, Q3 : -0.000317036843626, Q4 : -0.002186964266}
2019-04-14 18:23:40.61: SIM {TimeUS : 53435284, Roll : 0.01, Pitch : -0.03, Yaw : 359.74, Alt : 48.9599990845, Lat : 49.2835703, Lng : -123.1150207, Q1 : 0.999997496605, Q2 : 0.000119279400678, Q3 : -0.000264056812739, Q4 : -0.00221664551646}
2019-04-14 18:23:40.71: SIM {TimeUS : 53535244, Roll : 0.0, Pitch : -0.03, Yaw : 359.74, Alt : 49.0, Lat : 49.2835703, Lng : -123.1150207, Q1 : 0.999997437, Q2 : 3.65040141332e-05, Q3 : -0.000311971321935, Q4 : -0.00224453979172}
2019-04-14 18:23:40.81: SIM {TimeUS : 53635204, Roll : 0.07, Pitch : -0.12, Yaw : 359.73, Alt : 49.0299987793, Lat : 49.2835703, Lng : -123.1150207, Q1 : 0.999996602535, Q2 : 0.000638984784018, Q3 : -0.00110981962644, Q4 : -0.00226938934065}
2019-04-14 18:23:40.91: SIM {TimeUS : 53735164, Roll : 0.3, Pitch : -0.4, Yaw : 359.73, Alt : 49.0699996948, Lat : 49.2835703, Lng : -123.1150207, Q1 : 0.999987661839, Q2 : 0.00265276036225, Q3 : -0.00352320610546, Q4 : -0.00229096435942}
2019-04-14 18:23:41.01: SIM {TimeUS : 53835124, Roll : 0.69, Pitch : -0.91, Yaw : 359.72, Alt : 49.0900001526, Lat : 49.2835704, Lng : -123.1150207, Q1 : 0.999946892262, Q2 : 0.00608176365495, Q3 : -0.00799552164972, Q4 : -0.00230845389888}
2019-04-14 18:23:41.11: SIM {TimeUS : 53935084, Roll : 1.21, Pitch : -1.64, Yaw : 359.71, Alt : 49.1100006104, Lat : 49.2835704, Lng : -123.1150207, Q1 : 0.999838888645, Q2 : 0.0105443634093, Q3 : -0.0143415210769, Q4 : -0.00231487955898}
2019-04-14 18:23:41.21: SIM {TimeUS : 54035044, Roll : 1.78, Pitch : -2.49, Yaw : 359.69, Alt : 49.1300010681, Lat : 49.2835704, Lng : -123.1150206, Q1 : 0.999637901783, Q2 : 0.0155467381701, Q3 : -0.0218437928706, Q4 : -0.00228774501011}
2019-04-14 18:23:41.31: SIM {TimeUS : 54135004, Roll : 2.34, Pitch : -3.37, Yaw : 359.67, Alt : 49.1500015259, Lat : 49.2835706, Lng : -123.1150205, Q1 : 0.999354660511, Q2 : 0.0203906204551, Q3 : -0.029491411522, Q4 : -0.00220053223893}
2019-04-14 18:23:41.41: SIM {TimeUS : 54234964, Roll : 2.81, Pitch : -4.11, Yaw : 359.66, Alt : 49.1699981689, Lat : 49.2835707, Lng : -123.1150204, Q1 : 0.999050080776, Q2 : 0.0244779083878, Q3 : -0.0359943509102, Q4 : -0.00204451032914}
2019-04-14 18:23:41.51: SIM {TimeUS : 54334924, Roll : 3.17, Pitch : -4.66, Yaw : 359.66, Alt : 49.1800003052, Lat : 49.2835709, Lng : -123.1150202, Q1 : 0.998787164688, Q2 : 0.0276002567261, Q3 : -0.0407338738441, Q4 : -0.00182564149145}
2019-04-14 18:23:41.61: SIM {TimeUS : 54434884, Roll : 3.44, Pitch : -5.05, Yaw : 359.66, Alt : 49.1899986267, Lat : 49.2835712, Lng : -123.11502, Q1 : 0.998575270176, Q2 : 0.0299240108579, Q3 : -0.0441539026797, Q4 : -0.00156604696531}
2019-04-14 18:23:41.71: SIM {TimeUS : 54534844, Roll : 3.65, Pitch : -5.34, Yaw : 359.68, Alt : 49.2000007629, Lat : 49.2835715, Lng : -123.1150198, Q1 : 0.998404026031, Q2 : 0.0317479409277, Q3 : -0.0466893464327, Q4 : -0.0012792001944}
2019-04-14 18:23:41.81: SIM {TimeUS : 54634804, Roll : 3.84, Pitch : -5.6, Yaw : 359.69, Alt : 49.2099990845, Lat : 49.2835718, Lng : -123.1150194, Q1 : 0.998241603374, Q2 : 0.0333533473313, Q3 : -0.0489925704896, Q4 : -0.000995245762169}
2019-04-14 18:23:41.91: SIM {TimeUS : 54734764, Roll : 4.04, Pitch : -5.91, Yaw : 359.7, Alt : 49.2200012207, Lat : 49.2835721, Lng : -123.115019, Q1 : 0.998048663139, Q2 : 0.0351166501641, Q3 : -0.0516253262758, Q4 : -0.00072167016333}
2019-04-14 18:23:42.01: SIM {TimeUS : 54834724, Roll : 4.26, Pitch : -6.24, Yaw : 359.71, Alt : 49.2200012207, Lat : 49.2835727, Lng : -123.1150185, Q1 : 0.997826159, Q2 : 0.0370159037411, Q3 : -0.0545214191079, Q4 : -0.000466774188681}
2019-04-14 18:23:42.11: SIM {TimeUS : 54934684, Roll : 4.48, Pitch : -6.54, Yaw : 359.71, Alt : 49.2299995422, Lat : 49.2835733, Lng : -123.1150179, Q1 : 0.997607171535, Q2 : 0.038884293288, Q3 : -0.0571651756763, Q4 : -0.00022811263625}
2019-04-14 18:23:42.21: SIM {TimeUS : 55035477, Roll : 4.63, Pitch : -6.76, Yaw : 359.72, Alt : 49.2400016785, Lat : 49.2835739, Lng : -123.1150173, Q1 : 0.997442662716, Q2 : 0.0402225516737, Q3 : -0.0590783581138, Q4 : -1.65383444255e-05}
2019-04-14 18:23:42.31: SIM {TimeUS : 55135437, Roll : 4.72, Pitch : -6.91, Yaw : 359.72, Alt : 49.2400016785, Lat : 49.2835745, Lng : -123.1150166, Q1 : 0.997330665588, Q2 : 0.0410443097353, Q3 : -0.0603896304965, Q4 : 0.000139407988172}
2019-04-14 18:23:42.41: SIM {TimeUS : 55235397, Roll : 4.77, Pitch : -7.03, Yaw : 359.73, Alt : 49.2400016785, Lat : 49.2835752, Lng : -123.1150158, Q1 : 0.997254312038, Q2 : 0.0414681769907, Q3 : -0.0613534227014, Q4 : 0.000237444328377}
2019-04-14 18:23:42.51: SIM {TimeUS : 55335357, Roll : 4.83, Pitch : -7.11, Yaw : 359.73, Alt : 49.25, Lat : 49.2835759, Lng : -123.115015, Q1 : 0.997187256813, Q2 : 0.0419364161789, Q3 : -0.0621199458838, Q4 : 0.000301586202113}
2019-04-14 18:23:42.61: SIM {TimeUS : 55435317, Roll : 4.94, Pitch : -7.2, Yaw : 359.73, Alt : 49.25, Lat : 49.2835769, Lng : -123.1150141, Q1 : 0.997099220753, Q2 : 0.0428933240473, Q3 : -0.0628742054105, Q4 : 0.000419047719333}
2019-04-14 18:23:42.71: SIM {TimeUS : 55535277, Roll : 5.29, Pitch : -7.25, Yaw : 359.94, Alt : 49.2599983215, Lat : 49.2835777, Lng : -123.1150131, Q1 : 0.996935486794, Q2 : 0.0460537485778, Q3 : -0.0631884485483, Q4 : 0.00244107935578}
2019-04-14 18:23:42.81: SIM {TimeUS : 55635237, Roll : 5.91, Pitch : -7.27, Yaw : 0.95, Alt : 49.2599983215, Lat : 49.2835787, Lng : -123.1150121, Q1 : 0.996596455574, Q2 : 0.0519966557622, Q3 : -0.0629094019532, Q4 : 0.0115868262947}
2019-04-14 18:23:42.91: SIM {TimeUS : 55735197, Roll : 6.52, Pitch : -7.48, Yaw : 3.39, Alt : 49.2599983215, Lat : 49.2835797, Lng : -123.115011, Q1 : 0.995706677437, Q2 : 0.0586664006114, Q3 : -0.0634198784828, Q4 : 0.0332326069474}
2019-04-14 18:23:43.01: SIM {TimeUS : 55835157, Roll : 6.75, Pitch : -8.01, Yaw : 7.44, Alt : 49.2599983215, Lat : 49.2835807, Lng : -123.1150099, Q1 : 0.99344843626, Q2 : 0.0632018744946, Q3 : -0.0658353045583, Q4 : 0.068785212934}
2019-04-14 18:23:43.11: SIM {TimeUS : 55935117, Roll : 6.36, Pitch : -8.86, Yaw : 12.97, Alt : 49.2599983215, Lat : 49.2835818, Lng : -123.1150086, Q1 : 0.9886084795, Q2 : 0.0637336373329, Q3 : -0.0704492107034, Q4 : 0.116739921272}
2019-04-14 18:23:43.21: SIM {TimeUS : 56035077, Roll : 5.08, Pitch : -9.91, Yaw : 19.66, Alt : 49.2599983215, Lat : 49.283583, Lng : -123.1150072, Q1 : 0.980007708073, Q2 : 0.0582706481218, Q3 : -0.0775329470634, Q4 : 0.173718258739}
2019-04-14 18:23:43.31: SIM {TimeUS : 56135037, Roll : 2.8, Pitch : -10.95, Yaw : 26.84, Alt : 49.2700004578, Lat : 49.2835842, Lng : -123.1150057, Q1 : 0.967403411865, Q2 : 0.0458687059581, Q3 : -0.0871788337827, Q4 : 0.233295142651}
2019-04-14 18:23:43.41: SIM {TimeUS : 56234997, Roll : -0.07, Pitch : -11.76, Yaw : 33.73, Alt : 49.2700004578, Lat : 49.2835854, Lng : -123.1150042, Q1 : 0.951959609985, Q2 : 0.0291253849864, Q3 : -0.0982520505786, Q4 : 0.28856754303}
2019-04-14 18:23:43.51: SIM {TimeUS : 56334957, Roll : -2.94, Pitch : -12.22, Yaw : 39.6, Alt : 49.2700004578, Lat : 49.2835867, Lng : -123.1150025, Q1 : 0.93614512682, Q2 : 0.0120318373665, Q3 : -0.108767405152, Q4 : 0.334151446819}
2019-04-14 18:23:43.61: SIM {TimeUS : 56434917, Roll : -5.19, Pitch : -12.39, Yaw : 43.92, Alt : 49.2700004578, Lat : 49.2835879, Lng : -123.1150009, Q1 : 0.922890007496, Q2 : -0.00143564888276, Q3 : -0.116835214198, Q4 : 0.366908162832}
2019-04-14 18:23:43.71: SIM {TimeUS : 56534877, Roll : -6.47, Pitch : -12.45, Yaw : 46.5, Alt : 49.2700004578, Lat : 49.2835895, Lng : -123.1149993, Q1 : 0.914325535297, Q2 : -0.00879217125475, Q3 : -0.121664687991, Q4 : 0.386172622442}
2019-04-14 18:23:43.81: SIM {TimeUS : 56634837, Roll : -6.76, Pitch : -12.56, Yaw : 47.43, Alt : 49.2700004578, Lat : 49.283591, Lng : -123.1149976, Q1 : 0.911060452461, Q2 : -0.00974599644542, Q3 : -0.123595379293, Q4 : 0.393189668655}
2019-04-14 18:23:43.91: SIM {TimeUS : 56734797, Roll : -6.23, Pitch : -12.82, Yaw : 46.99, Alt : 49.2700004578, Lat : 49.2835928, Lng : -123.114996, Q1 : 0.912416517735, Q2 : -0.00507185980678, Q3 : -0.12383762747, Q4 : 0.39004445076}
2019-04-14 18:23:44.01: SIM {TimeUS : 56834757, Roll : -5.12, Pitch : -13.29, Yaw : 45.5, Alt : 49.2700004578, Lat : 49.2835946, Lng : -123.1149943, Q1 : 0.917074322701, Q2 : 0.00372051401064, Q3 : -0.12380720675, Q4 : 0.378988921642}
2019-04-14 18:23:44.11: SIM {TimeUS : 56934717, Roll : -3.7, Pitch : -13.88, Yaw : 43.28, Alt : 49.2700004578, Lat : 49.2835964, Lng : -123.1149926, Q1 : 0.923654139042, Q2 : 0.0147577440366, Q3 : -0.124137446284, Q4 : 0.362263888121}
2019-04-14 18:23:44.21: SIM {TimeUS : 57034677, Roll : -2.13, Pitch : -14.49, Yaw : 40.62, Alt : 49.2700004578, Lat : 49.2835983, Lng : -123.1149908, Q1 : 0.93096023798, Q2 : 0.0264925807714, Q3 : -0.12472999841, Q4 : 0.342130988836}
2019-04-14 18:23:44.31: SIM {TimeUS : 57135470, Roll : -0.57, Pitch : -15.01, Yaw : 37.82, Alt : 49.2799987793, Lat : 49.2836004, Lng : -123.114989, Q1 : 0.938095867634, Q2 : 0.0376874245703, Q3 : -0.125212594867, Q4 : 0.320745378733}
2019-04-14 18:23:44.41: SIM {TimeUS : 57235430, Roll : 0.8, Pitch : -15.35, Yaw : 35.23, Alt : 49.2799987793, Lat : 49.2836025, Lng : -123.1149871, Q1 : 0.944249153137, Q2 : 0.0470370389521, Q3 : -0.125191748142, Q4 : 0.300845563412}
2019-04-14 18:23:44.51: SIM {TimeUS : 57335390, Roll : 1.88, Pitch : -15.5, Yaw : 33.09, Alt : 49.2799987793, Lat : 49.2836045, Lng : -123.1149851, Q1 : 0.949062526226, Q2 : 0.0540540777147, Q3 : -0.124672107399, Q4 : 0.28428041935}
2019-04-14 18:23:44.61: SIM {TimeUS : 57435350, Roll : 2.59, Pitch : -15.55, Yaw : 31.56, Alt : 49.2799987793, Lat : 49.2836068, Lng : -123.1149829, Q1 : 0.952369749546, Q2 : 0.0584147050977, Q3 : -0.124101556838, Q4 : 0.272357136011}
2019-04-14 18:23:44.71: SIM {TimeUS : 57535310, Roll : 2.91, Pitch : -15.55, Yaw : 30.71, Alt : 49.2799987793, Lat : 49.283609, Lng : -123.1149807, Q1 : 0.954196870327, Q2 : 0.0601369477808, Q3 : -0.123809739947, Q4 : 0.265637010336}
2019-04-14 18:23:44.81: SIM {TimeUS : 57635270, Roll : 2.85, Pitch : -15.56, Yaw : 30.51, Alt : 49.2799987793, Lat : 49.2836112, Lng : -123.1149784, Q1 : 0.954666376114, Q2 : 0.0594871453941, Q3 : -0.124105118215, Q4 : 0.263953387737}
2019-04-14 18:23:44.91: SIM {TimeUS : 57735230, Roll : 2.49, Pitch : -15.61, Yaw : 30.88, Alt : 49.2799987793, Lat : 49.2836135, Lng : -123.1149759, Q1 : 0.953949511051, Q2 : 0.0569722279906, Q3 : -0.125118181109, Q4 : 0.266608178616}
2019-04-14 18:23:45.01: SIM {TimeUS : 57835190, Roll : 1.92, Pitch : -15.69, Yaw : 31.67, Alt : 49.2799987793, Lat : 49.2836159, Lng : -123.1149734, Q1 : 0.952259898186, Q2 : 0.0533093772829, Q3 : -0.126809641719, Q4 : 0.272540897131}
2019-04-14 18:23:45.11: SIM {TimeUS : 57935150, Roll : 1.24, Pitch : -15.83, Yaw : 32.73, Alt : 49.2799987793, Lat : 49.2836183, Lng : -123.1149708, Q1 : 0.949857473373, Q2 : 0.0491424463689, Q3 : -0.129124283791, Q4 : 0.280504524708}
2019-04-14 18:23:45.21: SIM {TimeUS : 58035110, Roll : 0.53, Pitch : -15.98, Yaw : 33.89, Alt : 49.2799987793, Lat : 49.2836207, Lng : -123.1149682, Q1 : 0.947085618973, Q2 : 0.0449671186507, Q3 : -0.131677895784, Q4 : 0.289253562689}
2019-04-14 18:23:45.31: SIM {TimeUS : 58135070, Roll : -0.13, Pitch : -16.13, Yaw : 35.01, Alt : 49.2799987793, Lat : 49.2836232, Lng : -123.1149655, Q1 : 0.944299995899, Q2 : 0.0411134362221, Q3 : -0.134175941348, Q4 : 0.297664314508}
2019-04-14 18:23:45.41: SIM {TimeUS : 58235030, Roll : -0.69, Pitch : -16.22, Yaw : 35.97, Alt : 49.2799987793, Lat : 49.2836256, Lng : -123.1149627, Q1 : 0.941858530045, Q2 : 0.0378887839615, Q3 : -0.136053770781, Q4 : 0.304887413979}
2019-04-14 18:23:45.51: SIM {TimeUS : 58334990, Roll : -1.06, Pitch : -16.26, Yaw : 36.69, Alt : 49.2799987793, Lat : 49.2836281, Lng : -123.1149599, Q1 : 0.939982652664, Q2 : 0.0357849411666, Q3 : -0.137177169323, Q4 : 0.310378074646}
2019-04-14 18:23:45.61: SIM {TimeUS : 58434950, Roll : -1.27, Pitch : -16.28, Yaw : 37.14, Alt : 49.2799987793, Lat : 49.2836309, Lng : -123.1149571, Q1 : 0.938797831535, Q2 : 0.0346934869885, Q3 : -0.137762948871, Q4 : 0.313809394836}
2019-04-14 18:23:45.71: SIM {TimeUS : 58534910, Roll : -1.29, Pitch : -16.31, Yaw : 37.32, Alt : 49.2799987793, Lat : 49.2836335, Lng : -123.1149543, Q1 : 0.938299119473, Q2 : 0.0348090752959, Q3 : -0.137964814901, Q4 : 0.315196573734}
2019-04-14 18:23:45.81: SIM {TimeUS : 58634870, Roll : -1.13, Pitch : -16.32, Yaw : 37.24, Alt : 49.2799987793, Lat : 49.2836361, Lng : -123.1149514, Q1 : 0.93844050169, Q2 : 0.036011017859, Q3 : -0.137678906322, Q4 : 0.31476521492}
2019-04-14 18:23:45.91: SIM {TimeUS : 58734830, Roll : -0.88, Pitch : -16.34, Yaw : 36.97, Alt : 49.2799987793, Lat : 49.2836389, Lng : -123.1149485, Q1 : 0.939084887505, Q2 : 0.0378018803895, Q3 : -0.137211292982, Q4 : 0.312831789255}
2019-04-14 18:23:46.01: SIM {TimeUS : 58834790, Roll : -0.59, Pitch : -16.38, Yaw : 36.56, Alt : 49.2799987793, Lat : 49.2836416, Lng : -123.1149456, Q1 : 0.940037965775, Q2 : 0.039790764451, Q3 : -0.136938452721, Q4 : 0.309827774763}
2019-04-14 18:23:46.11: SIM {TimeUS : 58934750, Roll : -0.3, Pitch : -16.45, Yaw : 36.09, Alt : 49.2799987793, Lat : 49.2836445, Lng : -123.1149426, Q1 : 0.94112610817, Q2 : 0.0417960360646, Q3 : -0.136878415942, Q4 : 0.306266337633}
2019-04-14 18:23:46.21: SIM {TimeUS : 59034710, Roll : -0.03, Pitch : -16.53, Yaw : 35.61, Alt : 49.2799987793, Lat : 49.2836474, Lng : -123.1149396, Q1 : 0.942193984985, Q2 : 0.0436816364527, Q3 : -0.137022614479, Q4 : 0.302633851767}
2019-04-14 18:23:46.31: SIM {TimeUS : 59134670, Roll : 0.18, Pitch : -16.6, Yaw : 35.18, Alt : 49.2900009155, Lat : 49.2836501, Lng : -123.1149365, Q1 : 0.94315469265, Q2 : 0.0452113375068, Q3 : -0.137143597007, Q4 : 0.299343943596}
2019-04-14 18:23:46.41: SIM {TimeUS : 59235463, Roll : 0.36, Pitch : -16.65, Yaw : 34.84, Alt : 49.2900009155, Lat : 49.283653, Lng : -123.1149334, Q1 : 0.943921685219, Q2 : 0.0464130192995, Q3 : -0.137247085571, Q4 : 0.29668328166}
2019-04-14 18:23:46.51: SIM {TimeUS : 59335423, Roll : 0.48, Pitch : -16.69, Yaw : 34.6, Alt : 49.2900009155, Lat : 49.283656, Lng : -123.1149303, Q1 : 0.944445133209, Q2 : 0.0471669510007, Q3 : -0.137328729033, Q4 : 0.2948551476}
2019-04-14 18:23:46.61: SIM {TimeUS : 59435383, Roll : 0.53, Pitch : -16.71, Yaw : 34.48, Alt : 49.2900009155, Lat : 49.283659, Lng : -123.1149272, Q1 : 0.944710075855, Q2 : 0.0475130565464, Q3 : -0.137481912971, Q4 : 0.293877601624}
2019-04-14 18:23:46.71: SIM {TimeUS : 59535343, Roll : 0.53, Pitch : -16.74, Yaw : 34.46, Alt : 49.2900009155, Lat : 49.2836619, Lng : -123.1149239, Q1 : 0.944728553295, Q2 : 0.0475586391985, Q3 : -0.137709885836, Q4 : 0.293704211712}
2019-04-14 18:23:46.81: SIM {TimeUS : 59635303, Roll : 0.47, Pitch : -16.77, Yaw : 34.52, Alt : 49.2900009155, Lat : 49.2836649, Lng : -123.1149208, Q1 : 0.944544732571, Q2 : 0.047215167433, Q3 : -0.138082578778, Q4 : 0.294175505638}
2019-04-14 18:23:46.91: SIM {TimeUS : 59735263, Roll : 0.37, Pitch : -16.8, Yaw : 34.65, Alt : 49.2900009155, Lat : 49.2836679, Lng : -123.1149176, Q1 : 0.944221496582, Q2 : 0.046611238271, Q3 : -0.138489350677, Q4 : 0.295116811991}
2019-04-14 18:23:47.01: SIM {TimeUS : 59835223, Roll : 0.25, Pitch : -16.82, Yaw : 34.82, Alt : 49.2900009155, Lat : 49.2836709, Lng : -123.1149143, Q1 : 0.943809568882, Q2 : 0.0458591282368, Q3 : -0.138953343034, Q4 : 0.296331614256}
2019-04-14 18:23:47.11: SIM {TimeUS : 59935183, Roll : 0.12, Pitch : -16.87, Yaw : 35.0, Alt : 49.2900009155, Lat : 49.2836738, Lng : -123.114911, Q1 : 0.943343818188, Q2 : 0.0451868958771, Q3 : -0.139581471682, Q4 : 0.297619849443}
2019-04-14 18:23:47.21: SIM {TimeUS : 60035143, Roll : 0.01, Pitch : -16.92, Yaw : 35.16, Alt : 49.2900009155, Lat : 49.283677, Lng : -123.1149077, Q1 : 0.942898452282, Q2 : 0.044569388032, Q3 : -0.140260159969, Q4 : 0.298803031445}
2019-04-14 18:23:47.31: SIM {TimeUS : 60135103, Roll : -0.1, Pitch : -16.97, Yaw : 35.29, Alt : 49.2900009155, Lat : 49.2836799, Lng : -123.1149043, Q1 : 0.942535817623, Q2 : 0.0439149811864, Q3 : -0.140885695815, Q4 : 0.299748212099}
2019-04-14 18:23:47.41: SIM {TimeUS : 60235063, Roll : -0.19, Pitch : -17.01, Yaw : 35.39, Alt : 49.2900009155, Lat : 49.2836831, Lng : -123.114901, Q1 : 0.942279577255, Q2 : 0.0433925129473, Q3 : -0.141403511167, Q4 : 0.300385266542}
2019-04-14 18:23:47.51: SIM {TimeUS : 60335023, Roll : -0.25, Pitch : -17.04, Yaw : 35.43, Alt : 49.2999992371, Lat : 49.2836862, Lng : -123.1148976, Q1 : 0.942140698433, Q2 : 0.0430334657431, Q3 : -0.141829758883, Q4 : 0.300671577454}
2019-04-14 18:23:47.61: SIM {TimeUS : 60434983, Roll : -0.25, Pitch : -17.07, Yaw : 35.43, Alt : 49.2999992371, Lat : 49.2836893, Lng : -123.1148942, Q1 : 0.942103862762, Q2 : 0.0430669188499, Q3 : -0.142097651958, Q4 : 0.300655633211}
2019-04-14 18:23:47.71: SIM {TimeUS : 60534943, Roll : -0.21, Pitch : -17.1, Yaw : 35.39, Alt : 49.2999992371, Lat : 49.2836925, Lng : -123.1148908, Q1 : 0.942165076733, Q2 : 0.0434360690415, Q3 : -0.142198875546, Q4 : 0.300362735987}
2019-04-14 18:23:47.81: SIM {TimeUS : 60634903, Roll : -0.14, Pitch : -17.12, Yaw : 35.32, Alt : 49.2999992371, Lat : 49.2836955, Lng : -123.1148874, Q1 : 0.942291259766, Q2 : 0.0440137460828, Q3 : -0.142265871167, Q4 : 0.299850642681}
2019-04-14 18:23:47.91: SIM {TimeUS : 60734863, Roll : -0.05, Pitch : -17.16, Yaw : 35.23, Alt : 49.2999992371, Lat : 49.2836987, Lng : -123.114884, Q1 : 0.942447066307, Q2 : 0.0446807406843, Q3 : -0.14241322875, Q4 : 0.299191713333}
2019-04-14 18:23:48.01: SIM {TimeUS : 60834823, Roll : 0.01, Pitch : -17.2, Yaw : 35.13, Alt : 49.2999992371, Lat : 49.283702, Lng : -123.1148805, Q1 : 0.942624509335, Q2 : 0.0453045666218, Q3 : -0.142571225762, Q4 : 0.298462718725}
2019-04-14 18:23:48.11: SIM {TimeUS : 60934783, Roll : 0.07, Pitch : -17.23, Yaw : 35.03, Alt : 49.2999992371, Lat : 49.2837052, Lng : -123.1148771, Q1 : 0.942822396755, Q2 : 0.0457013733685, Q3 : -0.14269323647, Q4 : 0.297717809677}
2019-04-14 18:23:48.21: SIM {TimeUS : 61034743, Roll : 0.1, Pitch : -17.24, Yaw : 34.95, Alt : 49.2999992371, Lat : 49.2837083, Lng : -123.1148736, Q1 : 0.943021655083, Q2 : 0.0458668097854, Q3 : -0.142768725753, Q4 : 0.29702436924}
2019-04-14 18:23:48.31: SIM {TimeUS : 61134703, Roll : 0.13, Pitch : -17.25, Yaw : 34.87, Alt : 49.3100013733, Lat : 49.2837115, Lng : -123.1148701, Q1 : 0.943187296391, Q2 : 0.0460720546544, Q3 : -0.142754688859, Q4 : 0.296472966671}
2019-04-14 18:23:48.41: SIM {TimeUS : 61234663, Roll : 0.16, Pitch : -17.26, Yaw : 34.82, Alt : 49.3100013733, Lat : 49.2837149, Lng : -123.1148666, Q1 : 0.943292677402, Q2 : 0.0463250167668, Q3 : -0.142807528377, Q4 : 0.296072661877}
2019-04-14 18:23:48.51: SIM {TimeUS : 61335456, Roll : 0.2, Pitch : -17.3, Yaw : 34.79, Alt : 49.3100013733, Lat : 49.2837181, Lng : -123.1148631, Q1 : 0.943320214748, Q2 : 0.0466656982899, Q3 : -0.14301751554, Q4 : 0.295829981565}
2019-04-14 18:23:48.61: SIM {TimeUS : 61435416, Roll : 0.22, Pitch : -17.35, Yaw : 34.77, Alt : 49.3100013733, Lat : 49.2837214, Lng : -123.1148595, Q1 : 0.943279981613, Q2 : 0.0469677783549, Q3 : -0.143397301435, Q4 : 0.295726448298}
2019-04-14 18:23:48.71: SIM {TimeUS : 61535376, Roll : 0.22, Pitch : -17.38, Yaw : 34.78, Alt : 49.3100013733, Lat : 49.2837247, Lng : -123.114856, Q1 : 0.943239152431, Q2 : 0.0470308624208, Q3 : -0.143629774451, Q4 : 0.295733988285}
2019-04-14 18:23:48.81: SIM {TimeUS : 61635336, Roll : 0.2, Pitch : -17.38, Yaw : 34.79, Alt : 49.3100013733, Lat : 49.2837279, Lng : -123.1148524, Q1 : 0.943215966225, Q2 : 0.0468708500266, Q3 : -0.143673345447, Q4 : 0.295812100172}
2019-04-14 18:23:48.91: SIM {TimeUS : 61735296, Roll : 0.16, Pitch : -17.38, Yaw : 34.81, Alt : 49.3100013733, Lat : 49.2837313, Lng : -123.1148489, Q1 : 0.943175196648, Q2 : 0.0466120988131, Q3 : -0.143790975213, Q4 : 0.295925736427}
2019-04-14 18:23:49.01: SIM {TimeUS : 61835256, Roll : 0.12, Pitch : -17.41, Yaw : 34.83, Alt : 49.3100013733, Lat : 49.2837345, Lng : -123.1148453, Q1 : 0.943109810352, Q2 : 0.0463636517525, Q3 : -0.144079178572, Q4 : 0.296032786369}
2019-04-14 18:23:49.11: SIM {TimeUS : 61935216, Roll : 0.11, Pitch : -17.43, Yaw : 34.84, Alt : 49.3100013733, Lat : 49.2837379, Lng : -123.1148417, Q1 : 0.94305062294, Q2 : 0.0462870299816, Q3 : -0.144288018346, Q4 : 0.296131908894}
2019-04-14 18:23:49.21: SIM {TimeUS : 62035176, Roll : 0.09, Pitch : -17.45, Yaw : 34.85, Alt : 49.3100013733, Lat : 49.2837411, Lng : -123.1148381, Q1 : 0.942998707294, Q2 : 0.0462702177465, Q3 : -0.144544482231, Q4 : 0.296174615622}
2019-04-14 18:23:49.31: SIM {TimeUS : 62135136, Roll : 0.09, Pitch : -17.48, Yaw : 34.85, Alt : 49.3100013733, Lat : 49.2837445, Lng : -123.1148345, Q1 : 0.942969024181, Q2 : 0.0462855771184, Q3 : -0.144768163562, Q4 : 0.296157389879}
2019-04-14 18:23:49.41: SIM {TimeUS : 62235096, Roll : 0.09, Pitch : -17.51, Yaw : 34.85, Alt : 49.3100013733, Lat : 49.2837478, Lng : -123.1148309, Q1 : 0.942947745323, Q2 : 0.0463801249862, Q3 : -0.1449778229, Q4 : 0.296107828617}
2019-04-14 18:23:49.51: SIM {TimeUS : 62335056, Roll : 0.1, Pitch : -17.52, Yaw : 34.84, Alt : 49.3199996948, Lat : 49.2837512, Lng : -123.1148272, Q1 : 0.942950487137, Q2 : 0.0464844405651, Q3 : -0.145104065537, Q4 : 0.296020925045}
2019-04-14 18:23:49.61: SIM {TimeUS : 62435016, Roll : 0.12, Pitch : -17.55, Yaw : 34.82, Alt : 49.3199996948, Lat : 49.2837545, Lng : -123.1148236, Q1 : 0.942961275578, Q2 : 0.0466627590358, Q3 : -0.145248576999, Q4 : 0.295887619257}
2019-04-14 18:23:49.71: SIM {TimeUS : 62534976, Roll : 0.14, Pitch : -17.57, Yaw : 34.79, Alt : 49.3199996948, Lat : 49.283758, Lng : -123.11482, Q1 : 0.942976236343, Q2 : 0.0468953028321, Q3 : -0.145429164171, Q4 : 0.295714497566}
2019-04-14 18:23:49.81: SIM {TimeUS : 62634936, Roll : 0.15, Pitch : -17.61, Yaw : 34.77, Alt : 49.3199996948, Lat : 49.2837612, Lng : -123.1148163, Q1 : 0.942995011806, Q2 : 0.0470325313509, Q3 : -0.145746216178, Q4 : 0.295476615429}
2019-04-14 18:23:49.91: SIM {TimeUS : 62734896, Roll : 0.14, Pitch : -17.65, Yaw : 34.74, Alt : 49.3199996948, Lat : 49.2837647, Lng : -123.1148126, Q1 : 0.943024218082, Q2 : 0.0470171906054, Q3 : -0.146111965179, Q4 : 0.295205235481}
2019-04-14 18:23:50.01: SIM {TimeUS : 62834856, Roll : 0.13, Pitch : -17.69, Yaw : 34.71, Alt : 49.3199996948, Lat : 49.283768, Lng : -123.114809, Q1 : 0.943053543568, Q2 : 0.046974811703, Q3 : -0.146504551172, Q4 : 0.294923394918}
2019-04-14 18:23:50.11: SIM {TimeUS : 62934816, Roll : 0.13, Pitch : -17.72, Yaw : 34.68, Alt : 49.3199996948, Lat : 49.2837715, Lng : -123.1148053, Q1 : 0.94309347868, Q2 : 0.0470311008394, Q3 : -0.146716028452, Q4 : 0.294681638479}
2019-04-14 18:23:50.21: SIM {TimeUS : 63034776, Roll : 0.14, Pitch : -17.72, Yaw : 34.65, Alt : 49.3199996948, Lat : 49.2837749, Lng : -123.1148017, Q1 : 0.943157672882, Q2 : 0.0470778495073, Q3 : -0.146688207984, Q4 : 0.294482409954}
2019-04-14 18:23:50.31: SIM {TimeUS : 63134736, Roll : 0.16, Pitch : -17.7, Yaw : 34.63, Alt : 49.3199996948, Lat : 49.2837782, Lng : -123.114798, Q1 : 0.943235814571, Q2 : 0.0471266880631, Q3 : -0.146492779255, Q4 : 0.294321447611}
2019-04-14 18:23:50.41: SIM {TimeUS : 63234696, Roll : 0.16, Pitch : -17.68, Yaw : 34.61, Alt : 49.3199996948, Lat : 49.2837817, Lng : -123.1147943, Q1 : 0.943302333355, Q2 : 0.0470790676773, Q3 : -0.146363243461, Q4 : 0.294180452824}
2019-04-14 18:23:50.51: SIM {TimeUS : 63334656, Roll : 0.16, Pitch : -17.67, Yaw : 34.6, Alt : 49.3199996948, Lat : 49.2837851, Lng : -123.1147906, Q1 : 0.943356633186, Q2 : 0.0470520667732, Q3 : -0.1462649405, Q4 : 0.29405939579}
2019-04-14 18:23:50.61: SIM {TimeUS : 63435449, Roll : 0.17, Pitch : -17.66, Yaw : 34.58, Alt : 49.3199996948, Lat : 49.2837886, Lng : -123.1147868, Q1 : 0.943399369717, Q2 : 0.0470550954342, Q3 : -0.146162465215, Q4 : 0.293972790241}
2019-04-14 18:23:50.71: SIM {TimeUS : 63535409, Roll : 0.17, Pitch : -17.67, Yaw : 34.57, Alt : 49.3199996948, Lat : 49.2837921, Lng : -123.1147831, Q1 : 0.943405687809, Q2 : 0.0470774099231, Q3 : -0.146269127727, Q4 : 0.293895870447}
2019-04-14 18:23:50.81: SIM {TimeUS : 63635369, Roll : 0.17, Pitch : -17.7, Yaw : 34.57, Alt : 49.3199996948, Lat : 49.2837954, Lng : -123.1147794, Q1 : 0.943390905857, Q2 : 0.0471473149955, Q3 : -0.146480962634, Q4 : 0.293826550245}
2019-04-14 18:23:50.91: SIM {TimeUS : 63735329, Roll : 0.16, Pitch : -17.75, Yaw : 34.56, Alt : 49.3199996948, Lat : 49.2837989, Lng : -123.1147756, Q1 : 0.943344652653, Q2 : 0.0471685454249, Q3 : -0.146947130561, Q4 : 0.293738931417}
2019-04-14 18:23:51.01: SIM {TimeUS : 63835289, Roll : 0.15, Pitch : -17.81, Yaw : 34.55, Alt : 49.3300018311, Lat : 49.2838024, Lng : -123.1147719, Q1 : 0.943292438984, Q2 : 0.0472498908639, Q3 : -0.147421136498, Q4 : 0.293656080961}
2019-04-14 18:23:51.11: SIM {TimeUS : 63935249, Roll : 0.16, Pitch : -17.84, Yaw : 34.55, Alt : 49.3300018311, Lat : 49.2838059, Lng : -123.1147682, Q1 : 0.943260490894, Q2 : 0.0473995134234, Q3 : -0.147691085935, Q4 : 0.293598949909}
2019-04-14 18:23:51.21: SIM {TimeUS : 64035209, Roll : 0.16, Pitch : -17.87, Yaw : 34.54, Alt : 49.3300018311, Lat : 49.2838092, Lng : -123.1147644, Q1 : 0.943243682384, Q2 : 0.0474546961486, Q3 : -0.147915616632, Q4 : 0.29353094101}
2019-04-14 18:23:51.31: SIM {TimeUS : 64135169, Roll : 0.15, Pitch : -17.89, Yaw : 34.53, Alt : 49.3300018311, Lat : 49.2838128, Lng : -123.1147607, Q1 : 0.943243443966, Q2 : 0.0474308170378, Q3 : -0.148081585765, Q4 : 0.293451875448}
2019-04-14 18:23:51.41: SIM {TimeUS : 64235129, Roll : 0.16, Pitch : -17.88, Yaw : 34.52, Alt : 49.3300018311, Lat : 49.2838163, Lng : -123.1147569, Q1 : 0.943270981312, Q2 : 0.0474855564535, Q3 : -0.14799490571, Q4 : 0.293398112059}
2019-04-14 18:23:51.51: SIM {TimeUS : 64335089, Roll : 0.18, Pitch : -17.88, Yaw : 34.51, Alt : 49.3300018311, Lat : 49.2838197, Lng : -123.1147532, Q1 : 0.943281888962, Q2 : 0.047683659941, Q3 : -0.147972583771, Q4 : 0.2933421731}
2019-04-14 18:23:51.61: SIM {TimeUS : 64435049, Roll : 0.2, Pitch : -17.9, Yaw : 34.5, Alt : 49.3300018311, Lat : 49.2838232, Lng : -123.1147494, Q1 : 0.943286418915, Q2 : 0.0478100515902, Q3 : -0.148073688149, Q4 : 0.293256103992}
2019-04-14 18:23:51.71: SIM {TimeUS : 64535009, Roll : 0.2, Pitch : -17.91, Yaw : 34.49, Alt : 49.3300018311, Lat : 49.2838268, Lng : -123.1147456, Q1 : 0.943300783634, Q2 : 0.0478749573231, Q3 : -0.148146480322, Q4 : 0.293162405491}
2019-04-14 18:23:51.81: SIM {TimeUS : 64634969, Roll : 0.21, Pitch : -17.9, Yaw : 34.48, Alt : 49.3300018311, Lat : 49.2838303, Lng : -123.1147419, Q1 : 0.943343818188, Q2 : 0.0478643029928, Q3 : -0.148072272539, Q4 : 0.293063312769}
2019-04-14 18:23:51.91: SIM {TimeUS : 64734929, Roll : 0.2, Pitch : -17.9, Yaw : 34.46, Alt : 49.3300018311, Lat : 49.2838337, Lng : -123.1147381, Q1 : 0.9433837533, Q2 : 0.0478086844087, Q3 : -0.148074164987, Q4 : 0.292942881584}
2019-04-14 18:23:52.01: SIM {TimeUS : 64834889, Roll : 0.18, Pitch : -17.91, Yaw : 34.45, Alt : 49.3300018311, Lat : 49.2838372, Lng : -123.1147343, Q1 : 0.943405926228, Q2 : 0.0476729497313, Q3 : -0.148271247745, Q4 : 0.292793810368}
2019-04-14 18:23:52.11: SIM {TimeUS : 64934849, Roll : 0.15, Pitch : -17.95, Yaw : 34.44, Alt : 49.3300018311, Lat : 49.2838408, Lng : -123.1147305, Q1 : 0.943408071995, Q2 : 0.0474881157279, Q3 : -0.148655176163, Q4 : 0.292622178793}
2019-04-14 18:23:52.21: SIM {TimeUS : 65034809, Roll : 0.14, Pitch : -17.96, Yaw : 34.42, Alt : 49.3300018311, Lat : 49.2838443, Lng : -123.1147267, Q1 : 0.943438589573, Q2 : 0.0473741292953, Q3 : -0.148767635226, Q4 : 0.292484968901}
2019-04-14 18:23:52.31: SIM {TimeUS : 65134769, Roll : 0.15, Pitch : -17.95, Yaw : 34.41, Alt : 49.3300018311, Lat : 49.2838477, Lng : -123.1147229, Q1 : 0.94348102808, Q2 : 0.0474243722856, Q3 : -0.148660361767, Q4 : 0.292394667864}
2019-04-14 18:23:52.41: SIM {TimeUS : 65234729, Roll : 0.17, Pitch : -17.94, Yaw : 34.4, Alt : 49.3300018311, Lat : 49.2838512, Lng : -123.114719, Q1 : 0.94351541996, Q2 : 0.0475677102804, Q3 : -0.148541226983, Q4 : 0.292320907116}
2019-04-14 18:23:52.51: SIM {TimeUS : 65334689, Roll : 0.19, Pitch : -17.95, Yaw : 34.38, Alt : 49.3400001526, Lat : 49.2838548, Lng : -123.1147153, Q1 : 0.943527519703, Q2 : 0.0476965047419, Q3 : -0.148594498634, Q4 : 0.29223382473}
2019-04-14 18:23:52.61: SIM {TimeUS : 65435482, Roll : 0.18, Pitch : -17.97, Yaw : 34.37, Alt : 49.3400001526, Lat : 49.2838584, Lng : -123.1147115, Q1 : 0.943530976772, Q2 : 0.0476895533502, Q3 : -0.148765593767, Q4 : 0.29213654995}
2019-04-14 18:23:52.71: SIM {TimeUS : 65535442, Roll : 0.16, Pitch : -17.99, Yaw : 34.36, Alt : 49.3400001526, Lat : 49.283862, Lng : -123.1147077, Q1 : 0.943537473679, Q2 : 0.0475632548332, Q3 : -0.148969620466, Q4 : 0.292032212019}
2019-04-14 18:23:52.81: SIM {TimeUS : 65635402, Roll : 0.15, Pitch : -18.0, Yaw : 34.36, Alt : 49.3400001526, Lat : 49.2838655, Lng : -123.1147039, Q1 : 0.94354134798, Q2 : 0.0474965944886, Q3 : -0.149136036634, Q4 : 0.291945725679}
2019-04-14 18:23:52.91: SIM {TimeUS : 65735362, Roll : 0.16, Pitch : -18.02, Yaw : 34.35, Alt : 49.3400001526, Lat : 49.2838689, Lng : -123.1147, Q1 : 0.943535149097, Q2 : 0.0475965328515, Q3 : -0.149282053113, Q4 : 0.29187476635}
2019-04-14 18:23:53.01: SIM {TimeUS : 65835322, Roll : 0.17, Pitch : -18.04, Yaw : 34.34, Alt : 49.3400001526, Lat : 49.2838725, Lng : -123.1146962, Q1 : 0.943530797958, Q2 : 0.047718629241, Q3 : -0.149388238788, Q4 : 0.291814655066}
2019-04-14 18:23:53.11: SIM {TimeUS : 65935282, Roll : 0.19, Pitch : -18.05, Yaw : 34.33, Alt : 49.3400001526, Lat : 49.2838761, Lng : -123.1146924, Q1 : 0.943522453308, Q2 : 0.0479001104832, Q3 : -0.149455577135, Q4 : 0.291777402163}
2019-04-14 18:23:53.21: SIM {TimeUS : 66035242, Roll : 0.2, Pitch : -18.07, Yaw : 34.33, Alt : 49.3400001526, Lat : 49.2838797, Lng : -123.1146886, Q1 : 0.943509936333, Q2 : 0.0480419769883, Q3 : -0.149576097727, Q4 : 0.291732817888}
2019-04-14 18:23:53.31: SIM {TimeUS : 66135202, Roll : 0.21, Pitch : -18.09, Yaw : 34.32, Alt : 49.3400001526, Lat : 49.2838832, Lng : -123.1146848, Q1 : 0.943494081497, Q2 : 0.0482007227838, Q3 : -0.149705156684, Q4 : 0.291691571474}
2019-04-14 18:23:53.41: SIM {TimeUS : 66235162, Roll : 0.23, Pitch : -18.11, Yaw : 34.31, Alt : 49.3400001526, Lat : 49.2838868, Lng : -123.114681, Q1 : 0.943478345871, Q2 : 0.048382692039, Q3 : -0.14981149137, Q4 : 0.291657686234}
2019-04-14 18:23:53.51: SIM {TimeUS : 66335122, Roll : 0.26, Pitch : -18.12, Yaw : 34.31, Alt : 49.3400001526, Lat : 49.2838904, Lng : -123.1146771, Q1 : 0.943467736244, Q2 : 0.0486282408237, Q3 : -0.149823978543, Q4 : 0.29164481163}
