2019-04-14 18:35:53.90: SIM {TimeUS : 40316367, Roll : 0.0, Pitch : 0.0, Yaw : 0.0, Alt : 30.1000003815, Lat : 49.28357, Lng : -123.11502, Q1 : 1.0, Q2 : 0.0, Q3 : 0.0, Q4 : 0.0}
2019-04-14 18:35:54.01: SIM {TimeUS : 40435486, Roll : 0.0, Pitch : 0.0, Yaw : 0.0, Alt : 30.1000003815, Lat : 49.28357, Lng : -123.11502, Q1 : 1.0, Q2 : 0.0, Q3 : 0.0, Q4 : 0.0}
2019-04-14 18:35:54.11: SIM {TimeUS : 40535446, Roll : 0.0, Pitch : 0.0, Yaw : 0.0, Alt : 30.1000003815, Lat : 49.28357, Lng : -123.11502, Q1 : 1.0, Q2 : 0.0, Q3 : 0.0, Q4 : 0.0}
2019-04-14 18:35:54.21: SIM {TimeUS : 40635406, Roll : 0.0, Pitch : 0.0, Yaw : 0.0, Alt : 30.1000003815, Lat : 49.28357, Lng : -123.11502, Q1 : 1.0, Q2 : 0.0, Q3 : 0.0, Q4 : 0.0}
2019-04-14 18:35:54.31: SIM {TimeUS : 40735366, Roll : 0.0, Pitch : 0.0, Yaw : 0.0, Alt : 30.1000003815, Lat : 49.28357, Lng : -123.11502, Q1 : 1.0, Q2 : 0.0, Q3 : 0.0, Q4 : 0.0}
2019-04-14 18:35:54.41: SIM {TimeUS : 40835326, Roll : 0.0, Pitch : 0.0, Yaw : 0.0, Alt : 30.1000003815, Lat : 49.28357, Lng : -123.11502, Q1 : 1.0, Q2 : 0.0, Q3 : 0.0, Q4 : 0.0}
2019-04-14 18:35:54.51: SIM {TimeUS : 40935286, Roll : 0.0, Pitch : 0.0, Yaw : 0.0, Alt : 30.1000003815, Lat : 49.28357, Lng : -123.11502, Q1 : 1.0, Q2 : 0.0, Q3 : 0.0, Q4 : 0.0}
2019-04-14 18:35:54.61: SIM {TimeUS : 41035246, Roll : 0.0, Pitch : 0.0, Yaw : 0.0, Alt : 30.1000003815, Lat : 49.28357, Lng : -123.11502, Q1 : 1.0, Q2 : 0.0, Q3 : 0.0, Q4 : 0.0}
2019-04-14 18:35:54.71: SIM {TimeUS : 41135206, Roll : 0.0, Pitch : 0.0, Yaw : 0.0, Alt : 30.1000003815, Lat : 49.28357, Lng : -123.11502, Q1 : 1.0, Q2 : 0.0, Q3 : 0.0, Q4 : 0.0}
2019-04-14 18:35:54.81: SIM {TimeUS : 41235166, Roll : 0.0, Pitch : 0.0, Yaw : 0.0, Alt : 30.1000003815, Lat : 49.28357, Lng : -123.11502, Q1 : 1.0, Q2 : 0.0, Q3 : 0.0, Q4 : 0.0}
2019-04-14 18:35:54.91: SIM {TimeUS : 41335126, Roll : 0.0, Pitch : 0.0, Yaw : 0.0, Alt : 30.1000003815, Lat : 49.28357, Lng : -123.11502, Q1 : 1.0, Q2 : 0.0, Q3 : 0.0, Q4 : 0.0}
2019-04-14 18:35:55.01: SIM {TimeUS : 41435086, Roll : 0.0, Pitch : 0.0, Yaw : 0.0, Alt : 30.1000003815, Lat : 49.28357, Lng : -123.11502, Q1 : 1.0, Q2 : 0.0, Q3 : 0.0, Q4 : 0.0}
2019-04-14 18:35:55.11: SIM {TimeUS : 41535046, Roll : 0.0, Pitch : 0.0, Yaw : 0.0, Alt : 30.1000003815, Lat : 49.28357, Lng : -123.11502, Q1 : 1.0, Q2 : 0.0, Q3 : 0.0, Q4 : 0.0}
2019-04-14 18:35:55.21: SIM {TimeUS : 41635006, Roll : 0.0, Pitch : 0.0, Yaw : 0.0, Alt : 30.1000003815, Lat : 49.28357, Lng : -123.11502, Q1 : 1.0, Q2 : 0.0, Q3 : 0.0, Q4 : 0.0}
2019-04-14 18:35:55.31: SIM {TimeUS : 41734966, Roll : 0.0, Pitch : 0.0, Yaw : 0.0, Alt : 30.1000003815, Lat : 49.28357, Lng : -123.11502, Q1 : 1.0, Q2 : 0.0, Q3 : 0.0, Q4 : 0.0}
2019-04-14 18:35:55.41: SIM {TimeUS : 41834926, Roll : 0.0, Pitch : 0.0, Yaw : 0.0, Alt : 30.1000003815, Lat : 49.28357, Lng : -123.11502, Q1 : 1.0, Q2 : 0.0, Q3 : 0.0, Q4 : 0.0}
2019-04-14 18:35:55.51: SIM {TimeUS : 41934886, Roll : 0.0, Pitch : 0.0, Yaw : 0.0, Alt : 30.1000003815, Lat : 49.28357, Lng : -123.11502, Q1 : 1.0, Q2 : 0.0, Q3 : 0.0, Q4 : 0.0}
2019-04-14 18:35:55.61: SIM {TimeUS : 42034846, Roll : 0.0, Pitch : 0.0, Yaw : 0.0, Alt : 30.1000003815, Lat : 49.28357, Lng : -123.11502, Q1 : 1.0, Q2 : 0.0, Q3 : 0.0, Q4 : 0.0}
2019-04-14 18:35:55.71: SIM {TimeUS : 42134806, Roll : 0.0, Pitch : 0.0, Yaw : 0.0, Alt : 30.1000003815, Lat : 49.28357, Lng : -123.11502, Q1 : 1.0, Q2 : 0.0, Q3 : 0.0, Q4 : 0.0}
2019-04-14 18:35:55.81: SIM {TimeUS : 42234766, Roll : 0.0, Pitch : 0.0, Yaw : 0.0, Alt : 30.1000003815, Lat : 49.28357, Lng : -123.11502, Q1 : 1.0, Q2 : 0.0, Q3 : 0.0, Q4 : 0.0}
2019-04-14 18:35:55.91: SIM {TimeUS : 42334726, Roll : 0.0, Pitch : 0.0, Yaw : 0.0, Alt : 30.1000003815, Lat : 49.28357, Lng : -123.11502, Q1 : 1.0, Q2 : 0.0, Q3 : 0.0, Q4 : 0.0}
2019-04-14 18:35:56.02: SIM {TimeUS : 42435519, Roll : 0.0, Pitch : 0.0, Yaw : 0.0, Alt : 30.1000003815, Lat : 49.28357, Lng : -123.11502, Q1 : 1.0, Q2 : 0.0, Q3 : 0.0, Q4 : 0.0}
2019-04-14 18:35:56.11: SIM {TimeUS : 42535479, Roll : 0.0, Pitch : 0.0, Yaw : 0.0, Alt : 30.1000003815, Lat : 49.28357, Lng : -123.11502, Q1 : 1.0, Q2 : 0.0, Q3 : 0.0, Q4 : 0.0}
2019-04-14 18:35:56.21: SIM {TimeUS : 42635439, Roll : 0.0, Pitch : 0.0, Yaw : 360.0, Alt : 30.1000003815, Lat : 49.28357, Lng : -123.11502, Q1 : 1.0, Q2 : 0.0, Q3 : 0.0, Q4 : -7.26646824309e-12}
2019-04-14 18:35:56.31: SIM {TimeUS : 42735399, Roll : 0.0, Pitch : 0.0, Yaw : 0.0, Alt : 30.1000003815, Lat : 49.28357, Lng : -123.11502, Q1 : 1.0, Q2 : 0.0, Q3 : 0.0, Q4 : 2.12949782807e-10}
2019-04-14 18:35:56.41: SIM {TimeUS : 42835359, Roll : 0.0, Pitch : 0.0, Yaw : 360.0, Alt : 30.1000003815, Lat : 49.28357, Lng : -123.11502, Q1 : 1.0, Q2 : 0.0, Q3 : 0.0, Q4 : -1.12301528077e-07}
2019-04-14 18:35:56.51: SIM {TimeUS : 42935319, Roll : 0.0, Pitch : 0.0, Yaw : 359.99, Alt : 30.1000003815, Lat : 49.28357, Lng : -123.11502, Q1 : 1.0, Q2 : 0.0, Q3 : 0.0, Q4 : -2.5017791927e-07}
2019-04-14 18:35:56.61: SIM {TimeUS : 43035279, Roll : 0.0, Pitch : 0.0, Yaw : 359.99, Alt : 30.1000003815, Lat : 49.28357, Lng : -123.11502, Q1 : 1.0, Q2 : 0.0, Q3 : 0.0, Q4 : -4.62443352944e-07}
2019-04-14 18:35:56.71: SIM {TimeUS : 43135239, Roll : 0.0, Pitch : 0.0, Yaw : 359.99, Alt : 30.1000003815, Lat : 49.28357, Lng : -123.11502, Q1 : 1.0, Q2 : 0.0, Q3 : 0.0, Q4 : -6.87931276389e-07}
2019-04-14 18:35:56.81: SIM {TimeUS : 43235199, Roll : 0.0, Pitch : 0.0, Yaw : 359.99, Alt : 30.1000003815, Lat : 49.28357, Lng : -123.11502, Q1 : 1.0, Q2 : 0.0, Q3 : 0.0, Q4 : -8.72898510806e-07}
2019-04-14 18:35:56.91: SIM {TimeUS : 43335159, Roll : 0.0, Pitch : 0.0, Yaw : 359.99, Alt : 30.1000003815, Lat : 49.28357, Lng : -123.11502, Q1 : 1.0, Q2 : 0.0, Q3 : 0.0, Q4 : -1.04098205611e-06}
2019-04-14 18:35:57.01: SIM {TimeUS : 43435119, Roll : 0.0, Pitch : 0.0, Yaw : 359.99, Alt : 30.1000003815, Lat : 49.28357, Lng : -123.11502, Q1 : 1.0, Q2 : 0.0, Q3 : 0.0, Q4 : -1.26152758639e-06}
2019-04-14 18:35:57.11: SIM {TimeUS : 43535079, Roll : 0.0, Pitch : 0.0, Yaw : 359.99, Alt : 30.1100006104, Lat : 49.28357, Lng : -123.11502, Q1 : 1.0, Q2 : 0.0, Q3 : 0.0, Q4 : -1.47582227328e-06}
2019-04-14 18:35:57.21: SIM {TimeUS : 43635039, Roll : 0.0, Pitch : 0.0, Yaw : 359.99, Alt : 30.1299991608, Lat : 49.28357, Lng : -123.11502, Q1 : 1.0, Q2 : 0.0, Q3 : 0.0, Q4 : -1.72647241925e-06}
2019-04-14 18:35:57.31: SIM {TimeUS : 43734999, Roll : 0.0, Pitch : 0.0, Yaw : 359.99, Alt : 30.1599998474, Lat : 49.28357, Lng : -123.11502, Q1 : 1.0, Q2 : 0.0, Q3 : 0.0, Q4 : -1.98605584956e-06}
2019-04-14 18:35:57.41: SIM {TimeUS : 43834959, Roll : 0.0, Pitch : 0.0, Yaw : 359.99, Alt : 30.1900005341, Lat : 49.28357, Lng : -123.11502, Q1 : 1.0, Q2 : 0.0, Q3 : 0.0, Q4 : -2.21023560698e-06}
2019-04-14 18:35:57.51: SIM {TimeUS : 43934919, Roll : -0.03, Pitch : -0.03, Yaw : 359.99, Alt : 30.2299995422, Lat : 49.28357, Lng : -123.11502, Q1 : 0.999999940395, Q2 : -0.000321156956488, Q3 : -0.000291508622468, Q4 : -5.24404504176e-06}
2019-04-14 18:35:57.61: SIM {TimeUS : 44034879, Roll : -0.28, Pitch : -0.26, Yaw : 359.99, Alt : 30.3099994659, Lat : 49.28357, Lng : -123.11502, Q1 : 0.999994277954, Q2 : -0.00249600806274, Q3 : -0.00227586086839, Q4 : -2.96447451547e-05}
2019-04-14 18:35:57.71: SIM {TimeUS : 44134839, Roll : -0.59, Pitch : -0.54, Yaw : 359.99, Alt : 30.4400005341, Lat : 49.28357, Lng : -123.11502, Q1 : 0.999975323677, Q2 : -0.00519302254543, Q3 : -0.00473719788715, Q4 : -8.39475178509e-05}
2019-04-14 18:35:57.81: SIM {TimeUS : 44234799, Roll : -0.81, Pitch : -0.72, Yaw : 359.98, Alt : 30.6000003815, Lat : 49.28357, Lng : -123.11502, Q1 : 0.999954521656, Q2 : -0.00710356701165, Q3 : -0.00636437814683, Q4 : -0.000159513234394}
2019-04-14 18:35:57.91: SIM {TimeUS : 44334759, Roll : -0.86, Pitch : -0.76, Yaw : 359.97, Alt : 30.75, Lat : 49.28357, Lng : -123.11502, Q1 : 0.999948978424, Q2 : -0.00757018709555, Q3 : -0.00668196100742, Q4 : -0.000242415262619}
2019-04-14 18:35:58.01: SIM {TimeUS : 44434719, Roll : -0.75, Pitch : -0.68, Yaw : 359.96, Alt : 30.9099998474, Lat : 49.28357, Lng : -123.1150201, Q1 : 0.999960660934, Q2 : -0.00657363189384, Q3 : -0.00594847323373, Q4 : -0.000331080140313}
2019-04-14 18:35:58.12: SIM {TimeUS : 44535512, Roll : -0.54, Pitch : -0.5, Yaw : 359.95, Alt : 31.0599994659, Lat : 49.2835701, Lng : -123.1150202, Q1 : 0.999979019165, Q2 : -0.00471997214481, Q3 : -0.00441226037219, Q4 : -0.000413780100644}
2019-04-14 18:35:58.21: SIM {TimeUS : 44635472, Roll : -0.31, Pitch : -0.29, Yaw : 359.94, Alt : 31.2199993134, Lat : 49.2835701, Lng : -123.1150202, Q1 : 0.999992728233, Q2 : -0.00277647515759, Q3 : -0.00256776483729, Q4 : -0.000475875975098}
2019-04-14 18:35:58.31: SIM {TimeUS : 44735432, Roll : -0.12, Pitch : -0.11, Yaw : 359.94, Alt : 31.3899993896, Lat : 49.2835702, Lng : -123.1150203, Q1 : 0.999998748302, Q2 : -0.00111510895658, Q3 : -0.00101261946838, Q4 : -0.000522873888258}
2019-04-14 18:35:58.41: SIM {TimeUS : 44835392, Roll : 0.0, Pitch : 0.0, Yaw : 359.93, Alt : 31.5599994659, Lat : 49.2835702, Lng : -123.1150204, Q1 : 0.999999821186, Q2 : 2.34171529883e-05, Q3 : 4.43067619926e-06, Q4 : -0.000554180238396}
2019-04-14 18:35:58.51: SIM {TimeUS : 44935352, Roll : 0.07, Pitch : 0.05, Yaw : 359.93, Alt : 31.7299995422, Lat : 49.2835703, Lng : -123.1150205, Q1 : 0.999999582767, Q2 : 0.00061883678427, Q3 : 0.000437792914454, Q4 : -0.000570736010559}
2019-04-14 18:35:58.61: SIM {TimeUS : 45035312, Roll : 0.09, Pitch : 0.05, Yaw : 359.93, Alt : 31.9200000763, Lat : 49.2835703, Lng : -123.1150205, Q1 : 0.999999344349, Q2 : 0.000856579863466, Q3 : 0.000471420673421, Q4 : -0.000572984106839}
2019-04-14 18:35:58.71: SIM {TimeUS : 45135272, Roll : 0.1, Pitch : 0.03, Yaw : 359.93, Alt : 32.0999984741, Lat : 49.2835703, Lng : -123.1150206, Q1 : 0.999999344349, Q2 : 0.000912204268388, Q3 : 0.000343180290656, Q4 : -0.000557830091566}
2019-04-14 18:35:58.81: SIM {TimeUS : 45235232, Roll : 0.09, Pitch : 0.03, Yaw : 359.93, Alt : 32.2900009155, Lat : 49.2835703, Lng : -123.1150207, Q1 : 0.999999463558, Q2 : 0.000858768587932, Q3 : 0.000306369911414, Q4 : -0.000532319885679}
2019-04-14 18:35:58.91: SIM {TimeUS : 45335192, Roll : 0.08, Pitch : 0.05, Yaw : 359.94, Alt : 32.4799995422, Lat : 49.2835703, Lng : -123.1150207, Q1 : 0.999999463558, Q2 : 0.000739884155337, Q3 : 0.000494905689266, Q4 : -0.00049195747124}
2019-04-14 18:35:59.01: SIM {TimeUS : 45435152, Roll : 0.06, Pitch : 0.08, Yaw : 359.94, Alt : 32.6800003052, Lat : 49.2835703, Lng : -123.1150207, Q1 : 0.999999463558, Q2 : 0.000588028458878, Q3 : 0.000742199656088, Q4 : -0.000455506611615}
2019-04-14 18:35:59.11: SIM {TimeUS : 45535112, Roll : 0.08, Pitch : 0.13, Yaw : 359.95, Alt : 32.8800010681, Lat : 49.2835704, Lng : -123.1150208, Q1 : 0.999998927116, Q2 : 0.000741085852496, Q3 : 0.00116219988558, Q4 : -0.000434897257946}
2019-04-14 18:35:59.21: SIM {TimeUS : 45635072, Roll : 0.12, Pitch : 0.17, Yaw : 359.95, Alt : 33.0800018311, Lat : 49.2835704, Lng : -123.1150208, Q1 : 0.999998092651, Q2 : 0.0011104864534, Q3 : 0.00152997719124, Q4 : -0.000426591781434}
2019-04-14 18:35:59.31: SIM {TimeUS : 45735032, Roll : 0.15, Pitch : 0.19, Yaw : 359.95, Alt : 33.2799987793, Lat : 49.2835704, Lng : -123.1150208, Q1 : 0.99999755621, Q2 : 0.00134517415427, Q3 : 0.00171989225782, Q4 : -0.000437919778051}
2019-04-14 18:35:59.41: SIM {TimeUS : 45834992, Roll : 0.16, Pitch : 0.21, Yaw : 359.94, Alt : 33.4900016785, Lat : 49.2835704, Lng : -123.1150208, Q1 : 0.999997138977, Q2 : 0.00144111074042, Q3 : 0.00187339028344, Q4 : -0.000456225185189}
2019-04-14 18:35:59.51: SIM {TimeUS : 45934952, Roll : 0.16, Pitch : 0.19, Yaw : 359.94, Alt : 33.6899986267, Lat : 49.2835704, Lng : -123.1150209, Q1 : 0.999997437, Q2 : 0.00143794284668, Q3 : 0.0016616176581, Q4 : -0.000494936830364}
2019-04-14 18:35:59.61: SIM {TimeUS : 46034912, Roll : 0.15, Pitch : 0.14, Yaw : 359.93, Alt : 33.9000015259, Lat : 49.2835704, Lng : -123.1150209, Q1 : 0.999998092651, Q2 : 0.00135156186298, Q3 : 0.00129112938885, Q4 : -0.000534611055627}
2019-04-14 18:35:59.71: SIM {TimeUS : 46134872, Roll : 0.13, Pitch : 0.11, Yaw : 359.93, Alt : 34.1100006104, Lat : 49.2835704, Lng : -123.1150209, Q1 : 0.999998688698, Q2 : 0.00115668319631, Q3 : 0.00100375781767, Q4 : -0.000576604448725}
2019-04-14 18:35:59.81: SIM {TimeUS : 46234832, Roll : 0.11, Pitch : 0.09, Yaw : 359.93, Alt : 34.3199996948, Lat : 49.2835704, Lng : -123.1150209, Q1 : 0.999998986721, Q2 : 0.00103817961644, Q3 : 0.00079513003584, Q4 : -0.000610725546721}
2019-04-14 18:35:59.91: SIM {TimeUS : 46334792, Roll : 0.11, Pitch : 0.08, Yaw : 359.92, Alt : 34.5299987793, Lat : 49.2835704, Lng : -123.1150209, Q1 : 0.999998986721, Q2 : 0.00101817259565, Q3 : 0.000750652397983, Q4 : -0.000640063954052}
2019-04-14 18:36:00.01: SIM {TimeUS : 46434752, Roll : 0.1, Pitch : 0.06, Yaw : 359.92, Alt : 34.75, Lat : 49.2835704, Lng : -123.1150208, Q1 : 0.999999165535, Q2 : 0.000929750618525, Q3 : 0.000600523722824, Q4 : -0.000656602380332}
2019-04-14 18:36:00.11: SIM {TimeUS : 46534712, Roll : 0.08, Pitch : 0.05, Yaw : 359.92, Alt : 34.9599990845, Lat : 49.2835704, Lng : -123.1150208, Q1 : 0.999999344349, Q2 : 0.000774398155045, Q3 : 0.000475628097774, Q4 : -0.000668654451147}
2019-04-14 18:36:00.22: SIM {TimeUS : 46635505, Roll : 0.06, Pitch : 0.05, Yaw : 359.92, Alt : 35.1800003052, Lat : 49.2835704, Lng : -123.1150208, Q1 : 0.999999463558, Q2 : 0.00059249746846, Q3 : 0.000438877992565, Q4 : -0.000680469325744}
2019-04-14 18:36:00.31: SIM {TimeUS : 46735465, Roll : 0.04, Pitch : 0.04, Yaw : 359.92, Alt : 35.4000015259, Lat : 49.2835704, Lng : -123.1150208, Q1 : 0.999999582767, Q2 : 0.000395948183723, Q3 : 0.000430020445492, Q4 : -0.00068999681389}
2019-04-14 18:36:00.41: SIM {TimeUS : 46835425, Roll : 0.03, Pitch : 0.01, Yaw : 359.92, Alt : 35.6199989319, Lat : 49.2835704, Lng : -123.1150208, Q1 : 0.999999701977, Q2 : 0.000293387129204, Q3 : 0.00015999111929, Q4 : -0.000697540002875}
2019-04-14 18:36:00.51: SIM {TimeUS : 46935385, Roll : 0.02, Pitch : 0.0, Yaw : 359.91, Alt : 35.8400001526, Lat : 49.2835704, Lng : -123.1150208, Q1 : 0.999999761581, Q2 : 0.000209446370718, Q3 : -7.59719114285e-05, Q4 : -0.000707703118678}
2019-04-14 18:36:00.61: SIM {TimeUS : 47035345, Roll : 0.0, Pitch : -0.01, Yaw : 359.91, Alt : 36.0600013733, Lat : 49.2835704, Lng : -123.1150207, Q1 : 0.999999701977, Q2 : 2.80223912341e-06, Q3 : -0.000167955513461, Q4 : -0.000724142766558}
2019-04-14 18:36:00.71: SIM {TimeUS : 47135305, Roll : 0.0, Pitch : -0.01, Yaw : 359.91, Alt : 36.2799987793, Lat : 49.2835704, Lng : -123.1150207, Q1 : 0.999999701977, Q2 : -5.42812340427e-05, Q3 : -0.00017249060329, Q4 : -0.000740017625503}
2019-04-14 18:36:00.81: SIM {TimeUS : 47235265, Roll : 0.0, Pitch : -0.01, Yaw : 359.91, Alt : 36.5, Lat : 49.2835704, Lng : -123.1150207, Q1 : 0.999999701977, Q2 : 1.29522923089e-05, Q3 : -0.000152434149641, Q4 : -0.000754190667067}
2019-04-14 18:36:00.91: SIM {TimeUS : 47335225, Roll : 0.0, Pitch : -0.02, Yaw : 359.91, Alt : 36.7200012207, Lat : 49.2835704, Lng : -123.1150207, Q1 : 0.999999642372, Q2 : -6.5187610744e-05, Q3 : -0.000238779975916, Q4 : -0.000769041944295}
2019-04-14 18:36:01.01: SIM {TimeUS : 47435185, Roll : -0.03, Pitch : -0.05, Yaw : 359.9, Alt : 36.9500007629, Lat : 49.2835704, Lng : -123.1150207, Q1 : 0.999999523163, Q2 : -0.000321443920257, Q3 : -0.000473293301184, Q4 : -0.000794162682723}
2019-04-14 18:36:01.11: SIM {TimeUS : 47535145, Roll : -0.07, Pitch : -0.07, Yaw : 359.9, Alt : 37.1699981689, Lat : 49.2835704, Lng : -123.1150207, Q1 : 0.99999922514, Q2 : -0.000636265904177, Q3 : -0.000688508909661, Q4 : -0.000828541000374}
2019-04-14 18:36:01.21: SIM {TimeUS : 47635105, Roll : -0.1, Pitch : -0.09, Yaw : 359.9, Alt : 37.3899993896, Lat : 49.2835704, Lng : -123.1150207, Q1 : 0.999998807907, Q2 : -0.000943222257774, Q3 : -0.000869979965501, Q4 : -0.000863908266183}
2019-04-14 18:36:01.31: SIM {TimeUS : 47735065, Roll : -0.11, Pitch : -0.1, Yaw : 359.89, Alt : 37.6199989319, Lat : 49.2835704, Lng : -123.1150207, Q1 : 0.999998688698, Q2 : -0.00101265159901, Q3 : -0.000905451597646, Q4 : -0.000899854581803}
2019-04-14 18:36:01.41: SIM {TimeUS : 47835025, Roll : -0.1, Pitch : -0.08, Yaw : 359.89, Alt : 37.8499984741, Lat : 49.2835704, Lng : -123.1150207, Q1 : 0.999998807907, Q2 : -0.000941964623053, Q3 : -0.000763704651035, Q4 : -0.000934364739805}
2019-04-14 18:36:01.51: SIM {TimeUS : 47934985, Roll : -0.09, Pitch : -0.05, Yaw : 359.88, Alt : 38.0699996948, Lat : 49.2835704, Lng : -123.1150206, Q1 : 0.99999910593, Q2 : -0.000810196856037, Q3 : -0.000448409933597, Q4 : -0.000964252802078}
2019-04-14 18:36:01.61: SIM {TimeUS : 48034945, Roll : -0.07, Pitch : -0.02, Yaw : 359.88, Alt : 38.2999992371, Lat : 49.2835704, Lng : -123.1150206, Q1 : 0.999999284744, Q2 : -0.000635230040643, Q3 : -0.000221913811401, Q4 : -0.00099877815228}
2019-04-14 18:36:01.71: SIM {TimeUS : 48134905, Roll : -0.06, Pitch : -0.02, Yaw : 359.88, Alt : 38.5299987793, Lat : 49.2835704, Lng : -123.1150206, Q1 : 0.999999284744, Q2 : -0.000558605417609, Q3 : -0.000221988215344, Q4 : -0.00103857647628}
2019-04-14 18:36:01.81: SIM {TimeUS : 48234865, Roll : -0.06, Pitch : -0.01, Yaw : 359.87, Alt : 38.7599983215, Lat : 49.2835706, Lng : -123.1150206, Q1 : 0.999999284744, Q2 : -0.000560221436899, Q3 : -0.000131650886033, Q4 : -0.00106090691406}
2019-04-14 18:36:01.91: SIM {TimeUS : 48334825, Roll : -0.07, Pitch : 0.0, Yaw : 359.87, Alt : 38.9900016785, Lat : 49.2835706, Lng : -123.1150206, Q1 : 0.999999165535, Q2 : -0.000681855599396, Q3 : 8.97443351278e-06, Q4 : -0.00107284612022}
2019-04-14 18:36:02.01: SIM {TimeUS : 48434785, Roll : -0.07, Pitch : 0.01, Yaw : 359.87, Alt : 39.2200012207, Lat : 49.2835706, Lng : -123.1150206, Q1 : 0.99999922514, Q2 : -0.000652496120892, Q3 : 0.000126401617308, Q4 : -0.00107757968362}
2019-04-14 18:36:02.11: SIM {TimeUS : 48534745, Roll : -0.05, Pitch : 0.03, Yaw : 359.87, Alt : 39.4399986267, Lat : 49.2835706, Lng : -123.1150207, Q1 : 0.99999922514, Q2 : -0.000505709904246, Q3 : 0.000345877022482, Q4 : -0.00107924744952}
2019-04-14 18:36:02.21: SIM {TimeUS : 48634705, Roll : -0.03, Pitch : 0.04, Yaw : 359.87, Alt : 39.6800003052, Lat : 49.2835706, Lng : -123.1150207, Q1 : 0.999999284744, Q2 : -0.000326142413542, Q3 : 0.000360177655239, Q4 : -0.00107406044845}
2019-04-14 18:36:02.32: SIM {TimeUS : 48735498, Roll : -0.01, Pitch : 0.03, Yaw : 359.87, Alt : 39.9099998474, Lat : 49.2835706, Lng : -123.1150207, Q1 : 0.999999403954, Q2 : -0.000105883758806, Q3 : 0.000314256467391, Q4 : -0.00106903014239}
2019-04-14 18:36:02.41: SIM {TimeUS : 48835458, Roll : 0.02, Pitch : 0.05, Yaw : 359.87, Alt : 40.1399993896, Lat : 49.2835706, Lng : -123.1150207, Q1 : 0.999999284744, Q2 : 0.000214738523937, Q3 : 0.000495594693348, Q4 : -0.00106067233719}
2019-04-14 18:36:02.51: SIM {TimeUS : 48935418, Roll : 0.06, Pitch : 0.09, Yaw : 359.87, Alt : 40.3699989319, Lat : 49.2835706, Lng : -123.1150207, Q1 : 0.999998927116, Q2 : 0.000563668087125, Q3 : 0.000868143513799, Q4 : -0.00106401287485}
2019-04-14 18:36:02.61: SIM {TimeUS : 49035378, Roll : 0.09, Pitch : 0.14, Yaw : 359.87, Alt : 40.5999984741, Lat : 49.2835706, Lng : -123.1150207, Q1 : 0.999998271465, Q2 : 0.000845010799821, Q3 : 0.00127569073811, Q4 : -0.00108151091263}
2019-04-14 18:36:02.71: SIM {TimeUS : 49135338, Roll : 0.09, Pitch : 0.18, Yaw : 359.87, Alt : 40.8300018311, Lat : 49.2835706, Lng : -123.1150207, Q1 : 0.999997675419, Q2 : 0.000806545256637, Q3 : 0.00165304506663, Q4 : -0.00109840615187}
2019-04-14 18:36:02.81: SIM {TimeUS : 49235298, Roll : 0.04, Pitch : 0.21, Yaw : 359.86, Alt : 41.0699996948, Lat : 49.2835706, Lng : -123.1150207, Q1 : 0.999997496605, Q2 : 0.000405923055951, Q3 : 0.00188901263755, Q4 : -0.00113728817087}
2019-04-14 18:36:02.91: SIM {TimeUS : 49335258, Roll : 0.0, Pitch : 0.21, Yaw : 359.86, Alt : 41.2999992371, Lat : 49.2835706, Lng : -123.1150207, Q1 : 0.999997496605, Q2 : 1.25017995742e-05, Q3 : 0.00191255495884, Q4 : -0.00117209448945}
2019-04-14 18:36:03.01: SIM {TimeUS : 49435218, Roll : -0.02, Pitch : 0.18, Yaw : 359.86, Alt : 41.5299987793, Lat : 49.2835706, Lng : -123.1150207, Q1 : 0.999997973442, Q2 : -0.000191887782421, Q3 : 0.00159875978716, Q4 : -0.00119890330825}
2019-04-14 18:36:03.11: SIM {TimeUS : 49535178, Roll : -0.02, Pitch : 0.13, Yaw : 359.85, Alt : 41.7700004578, Lat : 49.2835706, Lng : -123.1150207, Q1 : 0.999998509884, Q2 : -0.00024237636535, Q3 : 0.00120520812925, Q4 : -0.00123000924941}
2019-04-14 18:36:03.21: SIM {TimeUS : 49635138, Roll : -0.01, Pitch : 0.12, Yaw : 359.85, Alt : 42.0, Lat : 49.2835706, Lng : -123.1150207, Q1 : 0.999998629093, Q2 : -0.000137181283208, Q3 : 0.00108769512735, Q4 : -0.00126575527247}
2019-04-14 18:36:03.31: SIM {TimeUS : 49735098, Roll : 0.02, Pitch : 0.13, Yaw : 359.85, Alt : 42.2299995422, Lat : 49.2835706, Lng : -123.1150207, Q1 : 0.999998450279, Q2 : 0.000189179307199, Q3 : 0.00115435814951, Q4 : -0.00130548269954}
2019-04-14 18:36:03.41: SIM {TimeUS : 49835058, Roll : 0.06, Pitch : 0.13, Yaw : 359.84, Alt : 42.4700012207, Lat : 49.2835706, Lng : -123.1150207, Q1 : 0.999998211861, Q2 : 0.000605010078289, Q3 : 0.00120093824808, Q4 : -0.00134736543987}
2019-04-14 18:36:03.51: SIM {TimeUS : 49935018, Roll : 0.1, Pitch : 0.11, Yaw : 359.84, Alt : 42.7000007629, Lat : 49.2835706, Lng : -123.1150207, Q1 : 0.999998092651, Q2 : 0.000913912721444, Q3 : 0.00104313052725, Q4 : -0.00139215262607}
2019-04-14 18:36:03.61: SIM {TimeUS : 50034978, Roll : 0.1, Pitch : 0.09, Yaw : 359.83, Alt : 42.9399986267, Lat : 49.2835706, Lng : -123.1150207, Q1 : 0.999998211861, Q2 : 0.000943116901908, Q3 : 0.000808779674117, Q4 : -0.00143386377022}
2019-04-14 18:36:03.71: SIM {TimeUS : 50134938, Roll : 0.07, Pitch : 0.07, Yaw : 359.83, Alt : 43.1699981689, Lat : 49.2835706, Lng : -123.1150207, Q1 : 0.999998509884, Q2 : 0.000622827676125, Q3 : 0.000650176021736, Q4 : -0.00145825988147}
2019-04-14 18:36:03.81: SIM {TimeUS : 50234898, Roll : 0.01, Pitch : 0.06, Yaw : 359.83, Alt : 43.4099998474, Lat : 49.2835704, Lng : -123.1150207, Q1 : 0.999998748302, Q2 : 0.000141623750096, Q3 : 0.000597807171289, Q4 : -0.00147941324394}
2019-04-14 18:36:03.91: SIM {TimeUS : 50334858, Roll : -0.02, Pitch : 0.08, Yaw : 359.82, Alt : 43.6399993896, Lat : 49.2835704, Lng : -123.1150207, Q1 : 0.999998569489, Q2 : -0.000206115335459, Q3 : 0.000717174320016, Q4 : -0.00149925169535}
2019-04-14 18:36:04.01: SIM {TimeUS : 50434818, Roll : -0.04, Pitch : 0.08, Yaw : 359.82, Alt : 43.8800010681, Lat : 49.2835704, Lng : -123.1150207, Q1 : 0.999998509884, Q2 : -0.00037534229341, Q3 : 0.000772010884248, Q4 : -0.00151591340546}
2019-04-14 18:36:04.11: SIM {TimeUS : 50534778, Roll : -0.03, Pitch : 0.07, Yaw : 359.82, Alt : 44.1100006104, Lat : 49.2835704, Lng : -123.1150206, Q1 : 0.999998569489, Q2 : -0.000345895328792, Q3 : 0.000643117702566, Q4 : -0.00153194589075}
2019-04-14 18:36:04.21: SIM {TimeUS : 50634738, Roll : -0.04, Pitch : 0.05, Yaw : 359.82, Alt : 44.3499984741, Lat : 49.2835704, Lng : -123.1150206, Q1 : 0.999998629093, Q2 : -0.000385415944038, Q3 : 0.000457219226519, Q4 : -0.00155001971871}
2019-04-14 18:36:04.31: SIM {TimeUS : 50734698, Roll : -0.04, Pitch : 0.02, Yaw : 359.82, Alt : 44.5900001526, Lat : 49.2835704, Lng : -123.1150206, Q1 : 0.999998688698, Q2 : -0.000371410133084, Q3 : 0.000254465587204, Q4 : -0.00157004792709}
2019-04-14 18:36:04.41: SIM {TimeUS : 50835491, Roll : -0.03, Pitch : 0.0, Yaw : 359.81, Alt : 44.8199996948, Lat : 49.2835704, Lng : -123.1150206, Q1 : 0.999998688698, Q2 : -0.000303380074911, Q3 : 8.26467803563e-05, Q4 : -0.00159481156152}
2019-04-14 18:36:04.51: SIM {TimeUS : 50935451, Roll : -0.03, Pitch : 0.0, Yaw : 359.81, Alt : 45.0600013733, Lat : 49.2835704, Lng : -123.1150206, Q1 : 0.999998629093, Q2 : -0.000278606137726, Q3 : -1.24543503262e-05, Q4 : -0.00161932292394}
2019-04-14 18:36:04.61: SIM {TimeUS : 51035411, Roll : -0.03, Pitch : 0.0, Yaw : 359.81, Alt : 45.2999992371, Lat : 49.2835703, Lng : -123.1150206, Q1 : 0.999998629093, Q2 : -0.000273048965028, Q3 : -6.03923363087e-05, Q4 : -0.00164434604812}
2019-04-14 18:36:04.71: SIM {TimeUS : 51135371, Roll : -0.03, Pitch : -0.02, Yaw : 359.8, Alt : 45.5299987793, Lat : 49.2835703, Lng : -123.1150206, Q1 : 0.999998509884, Q2 : -0.000264055968728, Q3 : -0.000255314080277, Q4 : -0.00167080771644}
2019-04-14 18:36:04.81: SIM {TimeUS : 51235331, Roll : -0.02, Pitch : -0.04, Yaw : 359.8, Alt : 45.7700004578, Lat : 49.2835703, Lng : -123.1150206, Q1 : 0.999998450279, Q2 : -0.00023818120826, Q3 : -0.000358306366252, Q4 : -0.00169670197647}
2019-04-14 18:36:04.91: SIM {TimeUS : 51335291, Roll : -0.01, Pitch : -0.04, Yaw : 359.8, Alt : 46.0, Lat : 49.2835703, Lng : -123.1150206, Q1 : 0.999998450279, Q2 : -0.000167177902767, Q3 : -0.000389401830034, Q4 : -0.00172441161703}
2019-04-14 18:36:05.01: SIM {TimeUS : 51435251, Roll : -0.02, Pitch : -0.04, Yaw : 359.79, Alt : 46.2299995422, Lat : 49.2835703, Lng : -123.1150206, Q1 : 0.999998390675, Q2 : -0.000209325080505, Q3 : -0.000387006934034, Q4 : -0.00175089098047}
2019-04-14 18:36:05.11: SIM {TimeUS : 51535211, Roll : -0.04, Pitch : -0.04, Yaw : 359.79, Alt : 46.4500007629, Lat : 49.2835703, Lng : -123.1150206, Q1 : 0.999998271465, Q2 : -0.000412596331444, Q3 : -0.000350868882379, Q4 : -0.00178025313653}
2019-04-14 18:36:05.21: SIM {TimeUS : 51635171, Roll : -0.08, Pitch : -0.04, Yaw : 359.79, Alt : 46.6699981689, Lat : 49.2835703, Lng : -123.1150206, Q1 : 0.999998033047, Q2 : -0.000730234372895, Q3 : -0.000378676020773, Q4 : -0.00181162985973}
2019-04-14 18:36:05.31: SIM {TimeUS : 51735131, Roll : -0.1, Pitch : -0.04, Yaw : 359.78, Alt : 46.8800010681, Lat : 49.2835703, Lng : -123.1150205, Q1 : 0.999997794628, Q2 : -0.000950482091866, Q3 : -0.000415373215219, Q4 : -0.00183968234342}
2019-04-14 18:36:05.41: SIM {TimeUS : 51835091, Roll : -0.11, Pitch : -0.03, Yaw : 359.78, Alt : 47.0900001526, Lat : 49.2835703, Lng : -123.1150205, Q1 : 0.999997675419, Q2 : -0.00100555561949, Q3 : -0.000337137200404, Q4 : -0.00186497380491}
2019-04-14 18:36:05.51: SIM {TimeUS : 51935051, Roll : -0.1, Pitch : -0.01, Yaw : 359.78, Alt : 47.2900009155, Lat : 49.2835703, Lng : -123.1150205, Q1 : 0.999997794628, Q2 : -0.000901593244635, Q3 : -9.50203757384e-05, Q4 : -0.0018899141578}
2019-04-14 18:36:05.61: SIM {TimeUS : 52035011, Roll : -0.07, Pitch : 0.01, Yaw : 359.78, Alt : 47.4900016785, Lat : 49.2835703, Lng : -123.1150205, Q1 : 0.999997913837, Q2 : -0.000694360001944, Q3 : 0.000103904123534, Q4 : -0.00191376358271}
2019-04-14 18:36:05.71: SIM {TimeUS : 52134971, Roll : -0.06, Pitch : 0.01, Yaw : 359.77, Alt : 47.6699981689, Lat : 49.2835703, Lng : -123.1150206, Q1 : 0.999997913837, Q2 : -0.000609903479926, Q3 : 0.000106475017674, Q4 : -0.00194125517737}
2019-04-14 18:36:05.81: SIM {TimeUS : 52234931, Roll : -0.08, Pitch : 0.0, Yaw : 359.77, Alt : 47.8400001526, Lat : 49.2835703, Lng : -123.1150206, Q1 : 0.999997794628, Q2 : -0.00070074677933, Q3 : -7.15265632607e-05, Q4 : -0.00197138474323}
2019-04-14 18:36:05.91: SIM {TimeUS : 52334891, Roll : -0.08, Pitch : -0.03, Yaw : 359.77, Alt : 48.0, Lat : 49.2835703, Lng : -123.1150206, Q1 : 0.999997735023, Q2 : -0.000714883615728, Q3 : -0.000321707222611, Q4 : -0.00199745944701}
2019-04-14 18:36:06.01: SIM {TimeUS : 52434851, Roll : -0.06, Pitch : -0.06, Yaw : 359.76, Alt : 48.1500015259, Lat : 49.2835703, Lng : -123.1150206, Q1 : 0.999997615814, Q2 : -0.000594373617787, Q3 : -0.000531529542059, Q4 : -0.0020231755916}
2019-04-14 18:36:06.11: SIM {TimeUS : 52534811, Roll : -0.05, Pitch : -0.08, Yaw : 359.76, Alt : 48.2799987793, Lat : 49.2835703, Lng : -123.1150206, Q1 : 0.99999755621, Q2 : -0.000504564086441, Q3 : -0.000710703665391, Q4 : -0.00204942608252}
2019-04-14 18:36:06.21: SIM {TimeUS : 52634771, Roll : -0.05, Pitch : -0.09, Yaw : 359.76, Alt : 48.4099998474, Lat : 49.2835703, Lng : -123.1150206, Q1 : 0.999997377396, Q2 : -0.000484881398734, Q3 : -0.000841161468998, Q4 : -0.00207396340556}
2019-04-14 18:36:06.31: SIM {TimeUS : 52734731, Roll : -0.02, Pitch : -0.09, Yaw : 359.75, Alt : 48.5200004578, Lat : 49.2835703, Lng : -123.1150206, Q1 : 0.999997496605, Q2 : -0.000212075305171, Q3 : -0.000799349159934, Q4 : -0.00209882319905}
2019-04-14 18:36:06.42: SIM {TimeUS : 52835524, Roll : 0.01, Pitch : -0.07, Yaw : 359.75, Alt : 48.6199989319, Lat : 49.2835703, Lng : -123.1150206, Q1 : 0.99999755621, Q2 : 0.00014524551807, Q3 : -0.000621698854957, Q4 : -0.00212251278572}
2019-04-14 18:36:06.51: SIM {TimeUS : 52935484, Roll : 0.04, Pitch : -0.04, Yaw : 359.75, Alt : 48.7099990845, Lat : 49.2835703, Lng : -123.1150206, Q1 : 0.999997496605, Q2 : 0.000434764369857, Q3 : -0.000421658623964, Q4 : -0.00214759842493}
2019-04-14 18:36:06.61: SIM {TimeUS : 53035444, Roll : 0.06, Pitch : -0.02, Yaw : 359.75, Alt : 48.7799987793, Lat : 49.2835703, Lng : -123.1150206, Q1 : 0.999997437, Q2 : 0.000529547280166, Q3 : -0.00022458517924, Q4 : -0.00217316485941}
2019-04-14 18:36:06.71: SIM {TimeUS : 53135404, Roll : 0.07, Pitch : -0.01, Yaw : 359.74, Alt : 48.8499984741, Lat : 49.2835703, Lng : -123.1150206, Q1 : 0.999997377396, Q2 : 0.000618412450422, Q3 : -0.000128375191707, Q4 : -0.00220102001913}
2019-04-14 18:36:06.81: SIM {TimeUS : 53235364, Roll : 0.06, Pitch : -0.02, Yaw : 359.74, Alt : 48.9099998474, Lat : 49.2835703, Lng : -123.1150206, Q1 : 0.999997317791, Q2 : 0.000586576818023, Q3 : -0.000229866898735, Q4 : -0.00223282072693}
2019-04-14 18:36:06.91: SIM {TimeUS : 53335324, Roll : 0.04, Pitch : -0.03, Yaw : 359.74, Alt : 48.9599990845, Lat : 49.2835703, Lng : -123.1150207, Q1 : 0.999997317791, Q2 : 0.000387066567782, Q3 : -0.000341665727319, Q4 : -0.00226592086256}
2019-04-14 18:36:07.01: SIM {TimeUS : 53435284, Roll : 0.06, Pitch : -0.08, Yaw : 359.73, Alt : 49.0, Lat : 49.2835703, Lng : -123.1150207, Q1 : 0.999996900558, Q2 : 0.000533296843059, Q3 : -0.000785961863585, Q4 : -0.00229597906582}
2019-04-14 18:36:07.11: SIM {TimeUS : 53535244, Roll : 0.19, Pitch : -0.29, Yaw : 359.73, Alt : 49.0400009155, Lat : 49.2835703, Lng : -123.1150207, Q1 : 0.99999243021, Q2 : 0.00170329457615, Q3 : -0.00261892331764, Q4 : -0.00232661678456}
2019-04-14 18:36:07.21: SIM {TimeUS : 53635204, Roll : 0.49, Pitch : -0.72, Yaw : 359.72, Alt : 49.0699996948, Lat : 49.2835703, Lng : -123.1150207, Q1 : 0.999967634678, Q2 : 0.00433838553727, Q3 : -0.00635733269155, Q4 : -0.00235255458392}
2019-04-14 18:36:07.31: SIM {TimeUS : 53735164, Roll : 0.96, Pitch : -1.35, Yaw : 359.71, Alt : 49.0900001526, Lat : 49.2835704, Lng : -123.1150206, Q1 : 0.999891400337, Q2 : 0.00843386631459, Q3 : -0.0118555277586, Q4 : -0.0023549082689}
2019-04-14 18:36:07.41: SIM {TimeUS : 53835124, Roll : 1.55, Pitch : -2.14, Yaw : 359.7, Alt : 49.1199989319, Lat : 49.2835704, Lng : -123.1150206, Q1 : 0.999729812145, Q2 : 0.0135244112462, Q3 : -0.0187622457743, Q4 : -0.00232466729358}
2019-04-14 18:36:07.51: SIM {TimeUS : 53935084, Roll : 2.17, Pitch : -3.01, Yaw : 359.68, Alt : 49.1399993896, Lat : 49.2835706, Lng : -123.1150206, Q1 : 0.999471902847, Q2 : 0.0188582669944, Q3 : -0.0263679586351, Q4 : -0.00225258665159}
2019-04-14 18:36:07.61: SIM {TimeUS : 54035044, Roll : 2.69, Pitch : -3.8, Yaw : 359.66, Alt : 49.1500015259, Lat : 49.2835707, Lng : -123.1150204, Q1 : 0.999168276787, Q2 : 0.0234471503645, Q3 : -0.0332943461835, Q4 : -0.00212500267662}
2019-04-14 18:36:07.71: SIM {TimeUS : 54135004, Roll : 3.09, Pitch : -4.44, Yaw : 359.65, Alt : 49.1699981689, Lat : 49.2835708, Lng : -123.1150203, Q1 : 0.998882949352, Q2 : 0.0268521942198, Q3 : -0.0388345420361, Q4 : -0.00193693372421}
2019-04-14 18:36:07.81: SIM {TimeUS : 54234964, Roll : 3.37, Pitch : -4.91, Yaw : 359.66, Alt : 49.1800003052, Lat : 49.2835709, Lng : -123.1150201, Q1 : 0.998648405075, Q2 : 0.0292834248394, Q3 : -0.0429073683918, Q4 : -0.00169611535966}
2019-04-14 18:36:07.91: SIM {TimeUS : 54334924, Roll : 3.58, Pitch : -5.24, Yaw : 359.67, Alt : 49.1899986267, Lat : 49.2835713, Lng : -123.1150199, Q1 : 0.998461604118, Q2 : 0.0311406534165, Q3 : -0.0458558164537, Q4 : -0.00141799089033}
2019-04-14 18:36:08.01: SIM {TimeUS : 54434884, Roll : 3.78, Pitch : -5.53, Yaw : 359.68, Alt : 49.2000007629, Lat : 49.2835716, Lng : -123.1150195, Q1 : 0.99829185009, Q2 : 0.0328340828419, Q3 : -0.0483122318983, Q4 : -0.00112277898006}
2019-04-14 18:36:08.11: SIM {TimeUS : 54534844, Roll : 3.97, Pitch : -5.8, Yaw : 359.7, Alt : 49.2099990845, Lat : 49.283572, Lng : -123.1150191, Q1 : 0.998115360737, Q2 : 0.0345385037363, Q3 : -0.0507160909474, Q4 : -0.000837131694425}
2019-04-14 18:36:08.21: SIM {TimeUS : 54634804, Roll : 4.19, Pitch : -6.11, Yaw : 359.71, Alt : 49.2200012207, Lat : 49.2835725, Lng : -123.1150187, Q1 : 0.997908353806, Q2 : 0.0364126376808, Q3 : -0.0534105710685, Q4 : -0.00056743453024}
2019-04-14 18:36:08.31: SIM {TimeUS : 54734764, Roll : 4.39, Pitch : -6.43, Yaw : 359.71, Alt : 49.2200012207, Lat : 49.2835729, Lng : -123.1150181, Q1 : 0.997693419456, Q2 : 0.0381250306964, Q3 : -0.0561617985368, Q4 : -0.000333676027367}
2019-04-14 18:36:08.41: SIM {TimeUS : 54834724, Roll : 4.56, Pitch : -6.69, Yaw : 359.71, Alt : 49.2299995422, Lat : 49.2835735, Lng : -123.1150175, Q1 : 0.997503757477, Q2 : 0.0395880527794, Q3 : -0.0584722906351, Q4 : -0.000119482167065}
2019-04-14 18:36:08.52: SIM {TimeUS : 54935517, Roll : 4.7, Pitch : -6.89, Yaw : 359.72, Alt : 49.2400016785, Lat : 49.2835741, Lng : -123.1150168, Q1 : 0.99735468626, Q2 : 0.0408257618546, Q3 : -0.0601407960057, Q4 : 7.53492568037e-05}
2019-04-14 18:36:08.61: SIM {TimeUS : 55035477, Roll : 4.79, Pitch : -6.99, Yaw : 359.73, Alt : 49.2400016785, Lat : 49.283575, Lng : -123.1150161, Q1 : 0.997265696526, Q2 : 0.0415881462395, Q3 : -0.0610866509378, Q4 : 0.000232233622228}
2019-04-14 18:36:08.71: SIM {TimeUS : 55135437, Roll : 4.84, Pitch : -7.07, Yaw : 359.73, Alt : 49.25, Lat : 49.2835757, Lng : -123.1150153, Q1 : 0.997202038765, Q2 : 0.0420777089894, Q3 : -0.061785262078, Q4 : 0.000331279356033}
2019-04-14 18:36:08.81: SIM {TimeUS : 55235397, Roll : 4.9, Pitch : -7.18, Yaw : 359.73, Alt : 49.25, Lat : 49.2835764, Lng : -123.1150144, Q1 : 0.997125089169, Q2 : 0.0425656922162, Q3 : -0.0626869946718, Q4 : 0.000375326693757}
2019-04-14 18:36:08.91: SIM {TimeUS : 55335357, Roll : 5.14, Pitch : -7.25, Yaw : 359.81, Alt : 49.25, Lat : 49.2835774, Lng : -123.1150135, Q1 : 0.996993124485, Q2 : 0.0446666516364, Q3 : -0.0633102208376, Q4 : 0.00120950932615}
2019-04-14 18:36:09.01: SIM {TimeUS : 55435317, Roll : 5.66, Pitch : -7.27, Yaw : 0.43, Alt : 49.2599983215, Lat : 49.2835782, Lng : -123.1150125, Q1 : 0.996747851372, Q2 : 0.0495822541416, Q3 : -0.0631453618407, Q4 : 0.00692668557167}
2019-04-14 18:36:09.11: SIM {TimeUS : 55535277, Roll : 6.3, Pitch : -7.37, Yaw : 2.29, Alt : 49.2599983215, Lat : 49.2835793, Lng : -123.1150115, Q1 : 0.99615252018, Q2 : 0.0561220347881, Q3 : -0.0630929991603, Q4 : 0.0234457552433}
2019-04-14 18:36:09.21: SIM {TimeUS : 55635237, Roll : 6.68, Pitch : -7.77, Yaw : 5.74, Alt : 49.2599983215, Lat : 49.2835804, Lng : -123.1150103, Q1 : 0.994551241398, Q2 : 0.0614982806146, Q3 : -0.0647096782923, Q4 : 0.053837351501}
2019-04-14 18:36:09.31: SIM {TimeUS : 55735197, Roll : 6.55, Pitch : -8.53, Yaw : 10.74, Alt : 49.2599983215, Lat : 49.2835813, Lng : -123.1150091, Q1 : 0.990829825401, Q2 : 0.0637242794037, Q3 : -0.0685930103064, Q4 : 0.0974192470312}
2019-04-14 18:36:09.41: SIM {TimeUS : 55835157, Roll : 5.66, Pitch : -9.53, Yaw : 17.05, Alt : 49.2599983215, Lat : 49.2835824, Lng : -123.1150077, Q1 : 0.983713805676, Q2 : 0.0610461458564, Q3 : -0.074792124331, Q4 : 0.151613384485}
2019-04-14 18:36:09.51: SIM {TimeUS : 55935117, Roll : 3.75, Pitch : -10.6, Yaw : 24.14, Alt : 49.2700004578, Lat : 49.2835837, Lng : -123.1150063, Q1 : 0.972548425198, Q2 : 0.0512519739568, Q3 : -0.0834847912192, Q4 : 0.211076065898}
2019-04-14 18:36:09.61: SIM {TimeUS : 56035077, Roll : 1.04, Pitch : -11.47, Yaw : 31.22, Alt : 49.2700004578, Lat : 49.2835849, Lng : -123.1150047, Q1 : 0.957983076572, Q2 : 0.0356571488082, Q3 : -0.0938458740711, Q4 : 0.268681883812}
2019-04-14 18:36:09.71: SIM {TimeUS : 56135037, Roll : -1.89, Pitch : -12.02, Yaw : 37.54, Alt : 49.2700004578, Lat : 49.2835861, Lng : -123.1150031, Q1 : 0.942017138004, Q2 : 0.0181520413607, Q3 : -0.104422397912, Q4 : 0.318386763334}
2019-04-14 18:36:09.81: SIM {TimeUS : 56234997, Roll : -4.4, Pitch : -12.27, Yaw : 42.48, Alt : 49.2700004578, Lat : 49.2835874, Lng : -123.1150015, Q1 : 0.927506685257, Q2 : 0.0030774793122, Q3 : -0.113471277058, Q4 : 0.35615465045}
2019-04-14 18:36:09.91: SIM {TimeUS : 56334957, Roll : -6.07, Pitch : -12.38, Yaw : 45.71, Alt : 49.2700004578, Lat : 49.2835889, Lng : -123.1149999, Q1 : 0.917029857635, Q2 : -0.00671837897971, Q3 : -0.119715064764, Q4 : 0.380367487669}
2019-04-14 18:36:10.01: SIM {TimeUS : 56434917, Roll : -6.75, Pitch : -12.48, Yaw : 47.23, Alt : 49.2700004578, Lat : 49.2835904, Lng : -123.1149981, Q1 : 0.911799490452, Q2 : -0.0102029331028, Q3 : -0.122903190553, Q4 : 0.391678988934}
2019-04-14 18:36:10.11: SIM {TimeUS : 56534877, Roll : -6.53, Pitch : -12.7, Yaw : 47.26, Alt : 49.2700004578, Lat : 49.2835921, Lng : -123.1149966, Q1 : 0.911550760269, Q2 : -0.0075909299776, Q3 : -0.123862095177, Q4 : 0.392015039921}
2019-04-14 18:36:10.21: SIM {TimeUS : 56634837, Roll : -5.62, Pitch : -13.09, Yaw : 46.13, Alt : 49.2700004578, Lat : 49.2835939, Lng : -123.1149949, Q1 : 0.91514223814, Q2 : -0.000219361070776, Q3 : -0.123902201653, Q4 : 0.383618175983}
2019-04-14 18:36:10.31: SIM {TimeUS : 56734797, Roll : -4.27, Pitch : -13.66, Yaw : 44.14, Alt : 49.2700004578, Lat : 49.2835957, Lng : -123.1149932, Q1 : 0.921148359776, Q2 : 0.0103294840083, Q3 : -0.124113447964, Q4 : 0.368747621775}
2019-04-14 18:36:10.41: SIM {TimeUS : 56834757, Roll : -2.71, Pitch : -14.31, Yaw : 41.61, Alt : 49.2799987793, Lat : 49.2835976, Lng : -123.1149914, Q1 : 0.928279459476, Q2 : 0.0222664605826, Q3 : -0.124750427902, Q4 : 0.349626690149}
2019-04-14 18:36:10.51: SIM {TimeUS : 56934717, Roll : -1.12, Pitch : -14.88, Yaw : 38.84, Alt : 49.2799987793, Lat : 49.2835995, Lng : -123.1149897, Q1 : 0.935524582863, Q2 : 0.0338542833924, Q3 : -0.12537150085, Q4 : 0.32852640748}
2019-04-14 18:36:10.62: SIM {TimeUS : 57035510, Roll : 0.35, Pitch : -15.28, Yaw : 36.12, Alt : 49.2799987793, Lat : 49.2836017, Lng : -123.1149878, Q1 : 0.942131280899, Q2 : 0.0441511496902, Q3 : -0.125522762537, Q4 : 0.307706534863}
2019-04-14 18:36:10.71: SIM {TimeUS : 57135470, Roll : 1.56, Pitch : -15.5, Yaw : 33.79, Alt : 49.2799987793, Lat : 49.2836037, Lng : -123.1149859, Q1 : 0.947464644909, Q2 : 0.0521698854864, Q3 : -0.125076130033, Q4 : 0.289732635021}
2019-04-14 18:36:10.81: SIM {TimeUS : 57235430, Roll : 2.42, Pitch : -15.56, Yaw : 32.02, Alt : 49.2799987793, Lat : 49.2836059, Lng : -123.1149838, Q1 : 0.951345980167, Q2 : 0.0574909299612, Q3 : -0.124310009181, Q4 : 0.276012003422}
2019-04-14 18:36:10.91: SIM {TimeUS : 57335390, Roll : 2.88, Pitch : -15.54, Yaw : 30.92, Alt : 49.2799987793, Lat : 49.283608, Lng : -123.1149816, Q1 : 0.953730642796, Q2 : 0.0601211637259, Q3 : -0.123646728694, Q4 : 0.267385005951}
2019-04-14 18:36:11.01: SIM {TimeUS : 57435350, Roll : 2.95, Pitch : -15.53, Yaw : 30.5, Alt : 49.2799987793, Lat : 49.2836104, Lng : -123.1149792, Q1 : 0.954692065716, Q2 : 0.0601969137788, Q3 : -0.123651370406, Q4 : 0.263912439346}
2019-04-14 18:36:11.11: SIM {TimeUS : 57535310, Roll : 2.68, Pitch : -15.57, Yaw : 30.67, Alt : 49.2799987793, Lat : 49.2836127, Lng : -123.1149768, Q1 : 0.954382896423, Q2 : 0.05821165815, Q3 : -0.124458745122, Q4 : 0.265093713999}
2019-04-14 18:36:11.21: SIM {TimeUS : 57635270, Roll : 2.15, Pitch : -15.65, Yaw : 31.33, Alt : 49.2799987793, Lat : 49.283615, Lng : -123.1149744, Q1 : 0.95301425457, Q2 : 0.0547164864838, Q3 : -0.12604740262, Q4 : 0.269966721535}
2019-04-14 18:36:11.31: SIM {TimeUS : 57735230, Roll : 1.46, Pitch : -15.76, Yaw : 32.31, Alt : 49.2799987793, Lat : 49.2836172, Lng : -123.1149718, Q1 : 0.950848519802, Q2 : 0.0503701008856, Q3 : -0.12820494175, Q4 : 0.277332603931}
2019-04-14 18:36:11.41: SIM {TimeUS : 57835190, Roll : 0.74, Pitch : -15.9, Yaw : 33.46, Alt : 49.2799987793, Lat : 49.2836196, Lng : -123.1149692, Q1 : 0.948188006878, Q2 : 0.045960623771, Q3 : -0.130608171225, Q4 : 0.285952091217}
2019-04-14 18:36:11.51: SIM {TimeUS : 57935150, Roll : 0.06, Pitch : -16.04, Yaw : 34.61, Alt : 49.2799987793, Lat : 49.2836221, Lng : -123.1149665, Q1 : 0.945363938808, Q2 : 0.0420375205576, Q3 : -0.133056938648, Q4 : 0.294645160437}
2019-04-14 18:36:11.61: SIM {TimeUS : 58035110, Roll : -0.51, Pitch : -16.16, Yaw : 35.64, Alt : 49.2799987793, Lat : 49.2836247, Lng : -123.1149638, Q1 : 0.942727446556, Q2 : 0.0388315878808, Q3 : -0.135243788362, Q4 : 0.302433848381}
2019-04-14 18:36:11.71: SIM {TimeUS : 58135070, Roll : -0.95, Pitch : -16.27, Yaw : 36.46, Alt : 49.2799987793, Lat : 49.2836272, Lng : -123.114961, Q1 : 0.940564036369, Q2 : 0.0364581681788, Q3 : -0.136991098523, Q4 : 0.308615446091}
2019-04-14 18:36:11.81: SIM {TimeUS : 58235030, Roll : -1.22, Pitch : -16.32, Yaw : 37.02, Alt : 49.2799987793, Lat : 49.2836298, Lng : -123.1149582, Q1 : 0.939086973667, Q2 : 0.0350230671465, Q3 : -0.137995168567, Q4 : 0.312804073095}
2019-04-14 18:36:11.91: SIM {TimeUS : 58334990, Roll : -1.3, Pitch : -16.33, Yaw : 37.29, Alt : 49.2799987793, Lat : 49.2836323, Lng : -123.1149554, Q1 : 0.938360214233, Q2 : 0.03469382599, Q3 : -0.138204455376, Q4 : 0.314922183752}
2019-04-14 18:36:12.01: SIM {TimeUS : 58434950, Roll : -1.25, Pitch : -16.33, Yaw : 37.3, Alt : 49.2799987793, Lat : 49.2836351, Lng : -123.1149525, Q1 : 0.938314735889, Q2 : 0.0351997613907, Q3 : -0.138086229563, Q4 : 0.315053462982}
2019-04-14 18:36:12.11: SIM {TimeUS : 58534910, Roll : -1.04, Pitch : -16.36, Yaw : 37.09, Alt : 49.2799987793, Lat : 49.2836378, Lng : -123.1149496, Q1 : 0.938799798489, Q2 : 0.0366684347391, Q3 : -0.137791529298, Q4 : 0.313566327095}
2019-04-14 18:36:12.21: SIM {TimeUS : 58634870, Roll : -0.74, Pitch : -16.38, Yaw : 36.72, Alt : 49.2799987793, Lat : 49.2836406, Lng : -123.1149467, Q1 : 0.939672231674, Q2 : 0.038809902966, Q3 : -0.137292891741, Q4 : 0.310902804136}
2019-04-14 18:36:12.31: SIM {TimeUS : 58734830, Roll : -0.4, Pitch : -16.41, Yaw : 36.26, Alt : 49.2799987793, Lat : 49.2836433, Lng : -123.1149437, Q1 : 0.940758883953, Q2 : 0.041107699275, Q3 : -0.136800631881, Q4 : 0.307519853115}
2019-04-14 18:36:12.41: SIM {TimeUS : 58834790, Roll : -0.09, Pitch : -16.47, Yaw : 35.77, Alt : 49.2799987793, Lat : 49.2836462, Lng : -123.1149408, Q1 : 0.941878259182, Q2 : 0.0432411320508, Q3 : -0.136568427086, Q4 : 0.303882688284}
2019-04-14 18:36:12.51: SIM {TimeUS : 58934750, Roll : 0.16, Pitch : -16.54, Yaw : 35.32, Alt : 49.2799987793, Lat : 49.2836491, Lng : -123.1149377, Q1 : 0.942897081375, Q2 : 0.0449880920351, Q3 : -0.136648342013, Q4 : 0.300413668156}
2019-04-14 18:36:12.61: SIM {TimeUS : 59034710, Roll : 0.35, Pitch : -16.62, Yaw : 34.93, Alt : 49.2900009155, Lat : 49.2836519, Lng : -123.1149347, Q1 : 0.943720340729, Q2 : 0.0462828166783, Q3 : -0.136993199587, Q4 : 0.297460496426}
2019-04-14 18:36:12.72: SIM {TimeUS : 59135503, Roll : 0.46, Pitch : -16.68, Yaw : 34.65, Alt : 49.2900009155, Lat : 49.2836548, Lng : -123.1149315, Q1 : 0.944333732128, Q2 : 0.0470433086157, Q3 : -0.137305632234, Q4 : 0.295242190361}
2019-04-14 18:36:12.81: SIM {TimeUS : 59235463, Roll : 0.51, Pitch : -16.73, Yaw : 34.48, Alt : 49.2900009155, Lat : 49.2836578, Lng : -123.1149284, Q1 : 0.94468909502, Q2 : 0.0473701693118, Q3 : -0.137629076838, Q4 : 0.293899476528}
2019-04-14 18:36:12.91: SIM {TimeUS : 59335423, Roll : 0.51, Pitch : -16.75, Yaw : 34.42, Alt : 49.2900009155, Lat : 49.2836607, Lng : -123.1149251, Q1 : 0.944810330868, Q2 : 0.0473936647177, Q3 : -0.13783480227, Q4 : 0.293409049511}
2019-04-14 18:36:13.01: SIM {TimeUS : 59435383, Roll : 0.48, Pitch : -16.77, Yaw : 34.46, Alt : 49.2900009155, Lat : 49.2836637, Lng : -123.114922, Q1 : 0.944705545902, Q2 : 0.0472059771419, Q3 : -0.138067767024, Q4 : 0.293667107821}
2019-04-14 18:36:13.11: SIM {TimeUS : 59535343, Roll : 0.4, Pitch : -16.79, Yaw : 34.57, Alt : 49.2900009155, Lat : 49.2836667, Lng : -123.1149188, Q1 : 0.944422483444, Q2 : 0.0467734150589, Q3 : -0.138407364488, Q4 : 0.294485658407}
2019-04-14 18:36:13.21: SIM {TimeUS : 59635303, Roll : 0.3, Pitch : -16.82, Yaw : 34.73, Alt : 49.2900009155, Lat : 49.2836697, Lng : -123.1149156, Q1 : 0.944019496441, Q2 : 0.0461641177535, Q3 : -0.138868734241, Q4 : 0.295654475689}
2019-04-14 18:36:13.31: SIM {TimeUS : 59735263, Roll : 0.18, Pitch : -16.85, Yaw : 34.91, Alt : 49.2900009155, Lat : 49.2836726, Lng : -123.1149123, Q1 : 0.943568229675, Q2 : 0.0454706884921, Q3 : -0.13935624063, Q4 : 0.296970248222}
2019-04-14 18:36:13.41: SIM {TimeUS : 59835223, Roll : 0.06, Pitch : -16.89, Yaw : 35.08, Alt : 49.2900009155, Lat : 49.2836758, Lng : -123.114909, Q1 : 0.943114995956, Q2 : 0.0448076017201, Q3 : -0.139900520444, Q4 : 0.298251986504}
2019-04-14 18:36:13.51: SIM {TimeUS : 59935183, Roll : -0.03, Pitch : -16.93, Yaw : 35.23, Alt : 49.2900009155, Lat : 49.2836787, Lng : -123.1149056, Q1 : 0.942704737186, Q2 : 0.0442799963057, Q3 : -0.140475913882, Q4 : 0.299355238676}
2019-04-14 18:36:13.61: SIM {TimeUS : 60035143, Roll : -0.11, Pitch : -16.98, Yaw : 35.35, Alt : 49.2900009155, Lat : 49.2836819, Lng : -123.1149023, Q1 : 0.942374706268, Q2 : 0.0438902303576, Q3 : -0.141048654914, Q4 : 0.300181388855}
2019-04-14 18:36:13.71: SIM {TimeUS : 60135103, Roll : -0.18, Pitch : -17.02, Yaw : 35.42, Alt : 49.2999992371, Lat : 49.283685, Lng : -123.1148989, Q1 : 0.942173838615, Q2 : 0.0435393676162, Q3 : -0.141500294209, Q4 : 0.300650149584}
2019-04-14 18:36:13.81: SIM {TimeUS : 60235063, Roll : -0.21, Pitch : -17.04, Yaw : 35.44, Alt : 49.2999992371, Lat : 49.2836881, Lng : -123.1148955, Q1 : 0.942108750343, Q2 : 0.0433333031833, Q3 : -0.141732543707, Q4 : 0.300774425268}
2019-04-14 18:36:13.91: SIM {TimeUS : 60335023, Roll : -0.22, Pitch : -17.05, Yaw : 35.42, Alt : 49.2999992371, Lat : 49.2836913, Lng : -123.1148921, Q1 : 0.942155301571, Q2 : 0.0432643294334, Q3 : -0.141878977418, Q4 : 0.300569444895}
2019-04-14 18:36:14.01: SIM {TimeUS : 60434983, Roll : -0.18, Pitch : -17.08, Yaw : 35.36, Alt : 49.2999992371, Lat : 49.2836943, Lng : -123.1148887, Q1 : 0.942259252071, Q2 : 0.0435684174299, Q3 : -0.142048686743, Q4 : 0.300119012594}
2019-04-14 18:36:14.11: SIM {TimeUS : 60534943, Roll : -0.12, Pitch : -17.12, Yaw : 35.27, Alt : 49.2999992371, Lat : 49.2836975, Lng : -123.1148853, Q1 : 0.942411363125, Q2 : 0.0441184230149, Q3 : -0.142206400633, Q4 : 0.299485772848}
2019-04-14 18:36:14.21: SIM {TimeUS : 60634903, Roll : -0.04, Pitch : -17.17, Yaw : 35.17, Alt : 49.2999992371, Lat : 49.2837008, Lng : -123.1148819, Q1 : 0.94258004427, Q2 : 0.0447857715189, Q3 : -0.142434835434, Q4 : 0.298746347427}
2019-04-14 18:36:14.31: SIM {TimeUS : 60734863, Roll : 0.04, Pitch : -17.22, Yaw : 35.07, Alt : 49.2999992371, Lat : 49.2837039, Lng : -123.1148784, Q1 : 0.942743718624, Q2 : 0.0454715900123, Q3 : -0.142704635859, Q4 : 0.297996640205}
2019-04-14 18:36:14.41: SIM {TimeUS : 60834823, Roll : 0.1, Pitch : -17.26, Yaw : 34.98, Alt : 49.2999992371, Lat : 49.2837071, Lng : -123.1148749, Q1 : 0.942910671234, Q2 : 0.0460159741342, Q3 : -0.142872214317, Q4 : 0.297303825617}
2019-04-14 18:36:14.51: SIM {TimeUS : 60934783, Roll : 0.15, Pitch : -17.28, Yaw : 34.9, Alt : 49.2999992371, Lat : 49.2837103, Lng : -123.1148715, Q1 : 0.943069577217, Q2 : 0.0463193207979, Q3 : -0.142948672175, Q4 : 0.296715319157}
2019-04-14 18:36:14.61: SIM {TimeUS : 61034743, Roll : 0.16, Pitch : -17.29, Yaw : 34.84, Alt : 49.3100013733, Lat : 49.2837136, Lng : -123.114868, Q1 : 0.943198740482, Q2 : 0.0463999137282, Q3 : -0.143033117056, Q4 : 0.296251028776}
2019-04-14 18:36:14.71: SIM {TimeUS : 61134703, Roll : 0.17, Pitch : -17.3, Yaw : 34.8, Alt : 49.3100013733, Lat : 49.2837168, Lng : -123.1148643, Q1 : 0.943292975426, Q2 : 0.0464176163077, Q3 : -0.143074527383, Q4 : 0.295928180218}
2019-04-14 18:36:14.82: SIM {TimeUS : 61235496, Roll : 0.17, Pitch : -17.3, Yaw : 34.78, Alt : 49.3100013733, Lat : 49.28372, Lng : -123.1148609, Q1 : 0.943345308304, Q2 : 0.0464332923293, Q3 : -0.14312466979, Q4 : 0.295734584332}
2019-04-14 18:36:14.91: SIM {TimeUS : 61335456, Roll : 0.19, Pitch : -17.32, Yaw : 34.77, Alt : 49.3100013733, Lat : 49.2837234, Lng : -123.1148574, Q1 : 0.943336129189, Q2 : 0.046586535871, Q3 : -0.143273085356, Q4 : 0.295667827129}
2019-04-14 18:36:15.01: SIM {TimeUS : 61435416, Roll : 0.19, Pitch : -17.38, Yaw : 34.77, Alt : 49.3100013733, Lat : 49.2837266, Lng : -123.1148538, Q1 : 0.943258523941, Q2 : 0.046770401299, Q3 : -0.143680438399, Q4 : 0.295688837767}
2019-04-14 18:36:15.11: SIM {TimeUS : 61535376, Roll : 0.18, Pitch : -17.41, Yaw : 34.79, Alt : 49.3100013733, Lat : 49.28373, Lng : -123.1148502, Q1 : 0.943188488483, Q2 : 0.0468044243753, Q3 : -0.143956452608, Q4 : 0.295772373676}
2019-04-14 18:36:15.21: SIM {TimeUS : 61635336, Roll : 0.17, Pitch : -17.41, Yaw : 34.8, Alt : 49.3100013733, Lat : 49.2837332, Lng : -123.1148467, Q1 : 0.943152189255, Q2 : 0.0467078536749, Q3 : -0.143975168467, Q4 : 0.295894414186}
2019-04-14 18:36:15.31: SIM {TimeUS : 61735296, Roll : 0.14, Pitch : -17.42, Yaw : 34.82, Alt : 49.3100013733, Lat : 49.2837366, Lng : -123.114843, Q1 : 0.94310438633, Q2 : 0.0465088449419, Q3 : -0.1441449821, Q4 : 0.295995503664}
2019-04-14 18:36:15.41: SIM {TimeUS : 61835256, Roll : 0.1, Pitch : -17.45, Yaw : 34.84, Alt : 49.3100013733, Lat : 49.2837399, Lng : -123.1148394, Q1 : 0.943044364452, Q2 : 0.0462856963277, Q3 : -0.144490107894, Q4 : 0.296053439379}
2019-04-14 18:36:15.51: SIM {TimeUS : 61935216, Roll : 0.08, Pitch : -17.48, Yaw : 34.84, Alt : 49.3100013733, Lat : 49.2837431, Lng : -123.1148359, Q1 : 0.942991495132, Q2 : 0.0462221056223, Q3 : -0.144805639982, Q4 : 0.296077460051}
2019-04-14 18:36:15.61: SIM {TimeUS : 62035176, Roll : 0.07, Pitch : -17.51, Yaw : 34.84, Alt : 49.3100013733, Lat : 49.2837466, Lng : -123.1148323, Q1 : 0.942958950996, Q2 : 0.0462037436664, Q3 : -0.145098790526, Q4 : 0.296040475368}
2019-04-14 18:36:15.71: SIM {TimeUS : 62135136, Roll : 0.06, Pitch : -17.54, Yaw : 34.83, Alt : 49.3100013733, Lat : 49.2837498, Lng : -123.1148287, Q1 : 0.942953288555, Q2 : 0.0462155044079, Q3 : -0.145321875811, Q4 : 0.295947432518}
2019-04-14 18:36:15.81: SIM {TimeUS : 62235096, Roll : 0.07, Pitch : -17.56, Yaw : 34.82, Alt : 49.3199996948, Lat : 49.2837533, Lng : -123.114825, Q1 : 0.942969858646, Q2 : 0.0462833531201, Q3 : -0.145490899682, Q4 : 0.295800864697}
2019-04-14 18:36:15.91: SIM {TimeUS : 62335056, Roll : 0.09, Pitch : -17.57, Yaw : 34.79, Alt : 49.3199996948, Lat : 49.2837565, Lng : -123.1148214, Q1 : 0.943011701107, Q2 : 0.0464236922562, Q3 : -0.145509213209, Q4 : 0.295636445284}
2019-04-14 18:36:16.01: SIM {TimeUS : 62435016, Roll : 0.12, Pitch : -17.57, Yaw : 34.77, Alt : 49.3199996948, Lat : 49.28376, Lng : -123.1148177, Q1 : 0.943048834801, Q2 : 0.0466893948615, Q3 : -0.145494550467, Q4 : 0.295483231544}
2019-04-14 18:36:16.11: SIM {TimeUS : 62534976, Roll : 0.15, Pitch : -17.59, Yaw : 34.74, Alt : 49.3199996948, Lat : 49.2837634, Lng : -123.1148141, Q1 : 0.943073987961, Q2 : 0.0469965524971, Q3 : -0.145586833358, Q4 : 0.295308858156}
2019-04-14 18:36:16.21: SIM {TimeUS : 62634936, Roll : 0.17, Pitch : -17.63, Yaw : 34.72, Alt : 49.3199996948, Lat : 49.2837667, Lng : -123.1148104, Q1 : 0.943088412285, Q2 : 0.0471670180559, Q3 : -0.145896404982, Q4 : 0.295082569122}
2019-04-14 18:36:16.31: SIM {TimeUS : 62734896, Roll : 0.17, Pitch : -17.68, Yaw : 34.69, Alt : 49.3199996948, Lat : 49.2837702, Lng : -123.1148068, Q1 : 0.943103373051, Q2 : 0.0472283400595, Q3 : -0.146273970604, Q4 : 0.294837981462}
2019-04-14 18:36:16.41: SIM {TimeUS : 62834856, Roll : 0.16, Pitch : -17.71, Yaw : 34.66, Alt : 49.3199996948, Lat : 49.2837735, Lng : -123.1148031, Q1 : 0.943126916885, Q2 : 0.0472358614206, Q3 : -0.146599948406, Q4 : 0.294599533081}
2019-04-14 18:36:16.51: SIM {TimeUS : 62934816, Roll : 0.17, Pitch : -17.74, Yaw : 34.64, Alt : 49.3199996948, Lat : 49.283777, Lng : -123.1147994, Q1 : 0.943157911301, Q2 : 0.0473375357687, Q3 : -0.146757036448, Q4 : 0.294405728579}
2019-04-14 18:36:16.61: SIM {TimeUS : 63034776, Roll : 0.18, Pitch : -17.73, Yaw : 34.62, Alt : 49.3199996948, Lat : 49.2837804, Lng : -123.1147956, Q1 : 0.943210542202, Q2 : 0.0473798774183, Q3 : -0.146731629968, Q4 : 0.29424276948}
2019-04-14 18:36:16.71: SIM {TimeUS : 63134736, Roll : 0.19, Pitch : -17.72, Yaw : 34.6, Alt : 49.3199996948, Lat : 49.2837837, Lng : -123.114792, Q1 : 0.943275630474, Q2 : 0.0473958365619, Q3 : -0.146574035287, Q4 : 0.29411008954}
2019-04-14 18:36:16.81: SIM {TimeUS : 63234696, Roll : 0.18, Pitch : -17.7, Yaw : 34.59, Alt : 49.3199996948, Lat : 49.2837872, Lng : -123.1147883, Q1 : 0.943328022957, Q2 : 0.047297950834, Q3 : -0.146490976214, Q4 : 0.293999195099}
2019-04-14 18:36:16.91: SIM {TimeUS : 63335489, Roll : 0.18, Pitch : -17.69, Yaw : 34.58, Alt : 49.3199996948, Lat : 49.2837907, Lng : -123.1147846, Q1 : 0.943372189999, Q2 : 0.0472201257944, Q3 : -0.146411031485, Q4 : 0.293909788132}
2019-04-14 18:36:17.01: SIM {TimeUS : 63435449, Roll : 0.18, Pitch : -17.68, Yaw : 34.57, Alt : 49.3199996948, Lat : 49.2837941, Lng : -123.1147808, Q1 : 0.943404972553, Q2 : 0.0471802316606, Q3 : -0.146317929029, Q4 : 0.293857306242}
2019-04-14 18:36:17.11: SIM {TimeUS : 63535409, Roll : 0.17, Pitch : -17.7, Yaw : 34.56, Alt : 49.3199996948, Lat : 49.2837976, Lng : -123.1147771, Q1 : 0.943400323391, Q2 : 0.0471676923335, Q3 : -0.146456941962, Q4 : 0.293805062771}
2019-04-14 18:36:17.21: SIM {TimeUS : 63635369, Roll : 0.17, Pitch : -17.72, Yaw : 34.56, Alt : 49.3199996948, Lat : 49.2838011, Lng : -123.1147734, Q1 : 0.94338029623, Q2 : 0.0472098551691, Q3 : -0.14666724205, Q4 : 0.293757617474}
2019-04-14 18:36:17.31: SIM {TimeUS : 63735329, Roll : 0.16, Pitch : -17.77, Yaw : 34.56, Alt : 49.3300018311, Lat : 49.2838044, Lng : -123.1147696, Q1 : 0.943333268166, Q2 : 0.0472639165819, Q3 : -0.14708404243, Q4 : 0.29369148612}
2019-04-14 18:36:17.41: SIM {TimeUS : 63835289, Roll : 0.16, Pitch : -17.82, Yaw : 34.55, Alt : 49.3300018311, Lat : 49.283808, Lng : -123.1147659, Q1 : 0.943280637264, Q2 : 0.0473593845963, Q3 : -0.147533774376, Q4 : 0.293619781733}
2019-04-14 18:36:17.51: SIM {TimeUS : 63935249, Roll : 0.16, Pitch : -17.86, Yaw : 34.54, Alt : 49.3300018311, Lat : 49.2838114, Lng : -123.1147621, Q1 : 0.943249046803, Q2 : 0.0474870838225, Q3 : -0.147819563746, Q4 : 0.293556898832}
2019-04-14 18:36:17.61: SIM {TimeUS : 64035209, Roll : 0.16, Pitch : -17.89, Yaw : 34.53, Alt : 49.3300018311, Lat : 49.2838148, Lng : -123.1147584, Q1 : 0.943229138851, Q2 : 0.0475438050926, Q3 : -0.148087158799, Q4 : 0.293476760387}
2019-04-14 18:36:17.71: SIM {TimeUS : 64135169, Roll : 0.16, Pitch : -17.91, Yaw : 34.53, Alt : 49.3300018311, Lat : 49.2838184, Lng : -123.1147546, Q1 : 0.943230688572, Q2 : 0.0475475788116, Q3 : -0.148246064782, Q4 : 0.293390899897}
2019-04-14 18:36:17.81: SIM {TimeUS : 64235129, Roll : 0.17, Pitch : -17.9, Yaw : 34.52, Alt : 49.3300018311, Lat : 49.2838219, Lng : -123.1147509, Q1 : 0.943266510963, Q2 : 0.0476236455142, Q3 : -0.148117110133, Q4 : 0.293328583241}
2019-04-14 18:36:17.91: SIM {TimeUS : 64335089, Roll : 0.2, Pitch : -17.9, Yaw : 34.5, Alt : 49.3300018311, Lat : 49.2838254, Lng : -123.1147471, Q1 : 0.943289577961, Q2 : 0.0478015132248, Q3 : -0.148070335388, Q4 : 0.293248981237}
2019-04-14 18:36:18.01: SIM {TimeUS : 64435049, Roll : 0.21, Pitch : -17.91, Yaw : 34.49, Alt : 49.3300018311, Lat : 49.2838288, Lng : -123.1147433, Q1 : 0.943303406239, Q2 : 0.0479103848338, Q3 : -0.148154631257, Q4 : 0.293144106865}
2019-04-14 18:36:18.11: SIM {TimeUS : 64535009, Roll : 0.22, Pitch : -17.92, Yaw : 34.47, Alt : 49.3300018311, Lat : 49.2838323, Lng : -123.1147395, Q1 : 0.943322122097, Q2 : 0.0479960516095, Q3 : -0.148211628199, Q4 : 0.293041169643}
2019-04-14 18:36:18.21: SIM {TimeUS : 64634969, Roll : 0.23, Pitch : -17.91, Yaw : 34.46, Alt : 49.3300018311, Lat : 49.2838359, Lng : -123.1147358, Q1 : 0.94335860014, Q2 : 0.0480423271656, Q3 : -0.148154690862, Q4 : 0.292944788933}
2019-04-14 18:36:18.31: SIM {TimeUS : 64734929, Roll : 0.23, Pitch : -17.92, Yaw : 34.45, Alt : 49.3300018311, Lat : 49.2838394, Lng : -123.114732, Q1 : 0.943392276764, Q2 : 0.0480245761573, Q3 : -0.148170024157, Q4 : 0.292831480503}
2019-04-14 18:36:18.41: SIM {TimeUS : 64834889, Roll : 0.2, Pitch : -17.93, Yaw : 34.43, Alt : 49.3300018311, Lat : 49.2838428, Lng : -123.1147281, Q1 : 0.943411171436, Q2 : 0.0478535182774, Q3 : -0.148400008678, Q4 : 0.29268220067}
2019-04-14 18:36:18.51: SIM {TimeUS : 64934849, Roll : 0.16, Pitch : -17.97, Yaw : 34.42, Alt : 49.3300018311, Lat : 49.2838463, Lng : -123.1147244, Q1 : 0.943407833576, Q2 : 0.0476282015443, Q3 : -0.148827493191, Q4 : 0.292512565851}
2019-04-14 18:36:18.61: SIM {TimeUS : 65034809, Roll : 0.14, Pitch : -17.98, Yaw : 34.41, Alt : 49.3300018311, Lat : 49.2838499, Lng : -123.1147206, Q1 : 0.943434715271, Q2 : 0.0474785715342, Q3 : -0.148956090212, Q4 : 0.292384833097}
2019-04-14 18:36:18.71: SIM {TimeUS : 65134769, Roll : 0.16, Pitch : -17.98, Yaw : 34.4, Alt : 49.3300018311, Lat : 49.2838535, Lng : -123.1147168, Q1 : 0.943467438221, Q2 : 0.0475320741534, Q3 : -0.148867532611, Q4 : 0.292315512896}
2019-04-14 18:36:18.81: SIM {TimeUS : 65234729, Roll : 0.17, Pitch : -17.97, Yaw : 34.39, Alt : 49.3400001526, Lat : 49.283857, Lng : -123.114713, Q1 : 0.943496823311, Q2 : 0.0476529709995, Q3 : -0.148746371269, Q4 : 0.292262673378}
2019-04-14 18:36:18.92: SIM {TimeUS : 65335522, Roll : 0.19, Pitch : -17.98, Yaw : 34.38, Alt : 49.3400001526, Lat : 49.2838606, Lng : -123.1147091, Q1 : 0.943506062031, Q2 : 0.0477764084935, Q3 : -0.148789003491, Q4 : 0.292190998793}
2019-04-14 18:36:19.01: SIM {TimeUS : 65435482, Roll : 0.18, Pitch : -17.99, Yaw : 34.37, Alt : 49.3400001526, Lat : 49.283864, Lng : -123.1147053, Q1 : 0.943516850471, Q2 : 0.0477188043296, Q3 : -0.148929238319, Q4 : 0.292094111443}
2019-04-14 18:36:19.11: SIM {TimeUS : 65535442, Roll : 0.15, Pitch : -18.0, Yaw : 34.36, Alt : 49.3400001526, Lat : 49.2838676, Lng : -123.1147015, Q1 : 0.943528592587, Q2 : 0.0475422255695, Q3 : -0.149130091071, Q4 : 0.291982531548}
2019-04-14 18:36:19.21: SIM {TimeUS : 65635402, Roll : 0.14, Pitch : -18.02, Yaw : 34.35, Alt : 49.3400001526, Lat : 49.2838712, Lng : -123.1146977, Q1 : 0.943536818027, Q2 : 0.0474561415613, Q3 : -0.149307340384, Q4 : 0.291879206896}
2019-04-14 18:36:19.31: SIM {TimeUS : 65735362, Roll : 0.15, Pitch : -18.04, Yaw : 34.34, Alt : 49.3400001526, Lat : 49.2838747, Lng : -123.1146939, Q1 : 0.943534016609, Q2 : 0.0475545860827, Q3 : -0.149462118745, Q4 : 0.291793227196}
2019-04-14 18:36:19.41: SIM {TimeUS : 65835322, Roll : 0.16, Pitch : -18.06, Yaw : 34.33, Alt : 49.3400001526, Lat : 49.2838783, Lng : -123.1146901, Q1 : 0.943530976772, Q2 : 0.0477042607963, Q3 : -0.149581044912, Q4 : 0.291717708111}
2019-04-14 18:36:19.51: SIM {TimeUS : 65935282, Roll : 0.19, Pitch : -18.07, Yaw : 34.32, Alt : 49.3400001526, Lat : 49.2838817, Lng : -123.1146862, Q1 : 0.943527042866, Q2 : 0.0479552708566, Q3 : -0.149606481194, Q4 : 0.291676104069}
2019-04-14 18:36:19.61: SIM {TimeUS : 66035242, Roll : 0.2, Pitch : -18.09, Yaw : 34.31, Alt : 49.3400001526, Lat : 49.2838853, Lng : -123.1146824, Q1 : 0.943519949913, Q2 : 0.0480721183121, Q3 : -0.149726107717, Q4 : 0.291618317366}
2019-04-14 18:36:19.71: SIM {TimeUS : 66135202, Roll : 0.21, Pitch : -18.11, Yaw : 34.31, Alt : 49.3400001526, Lat : 49.2838889, Lng : -123.1146786, Q1 : 0.943512916565, Q2 : 0.048174276948, Q3 : -0.149851739407, Q4 : 0.291559815407}
2019-04-14 18:36:19.81: SIM {TimeUS : 66235162, Roll : 0.22, Pitch : -18.12, Yaw : 34.3, Alt : 49.3400001526, Lat : 49.2838925, Lng : -123.1146748, Q1 : 0.943504214287, Q2 : 0.0483225546777, Q3 : -0.149946510792, Q4 : 0.291514694691}
