2019-04-14 18:44:11.20: SIM {TimeUS : 40616247, Roll : 0.0, Pitch : 0.0, Yaw : 0.0, Alt : 30.1000003815, Lat : 49.28357, Lng : -123.11502, Q1 : 1.0, Q2 : 0.0, Q3 : 0.0, Q4 : 0.0}
2019-04-14 18:44:11.31: SIM {TimeUS : 40735366, Roll : 0.0, Pitch : 0.0, Yaw : 0.0, Alt : 30.1000003815, Lat : 49.28357, Lng : -123.11502, Q1 : 1.0, Q2 : 0.0, Q3 : 0.0, Q4 : 0.0}
2019-04-14 18:44:11.41: SIM {TimeUS : 40835326, Roll : 0.0, Pitch : 0.0, Yaw : 0.0, Alt : 30.1000003815, Lat : 49.28357, Lng : -123.11502, Q1 : 1.0, Q2 : 0.0, Q3 : 0.0, Q4 : 0.0}
2019-04-14 18:44:11.51: SIM {TimeUS : 40935286, Roll : 0.0, Pitch : 0.0, Yaw : 0.0, Alt : 30.1000003815, Lat : 49.28357, Lng : -123.11502, Q1 : 1.0, Q2 : 0.0, Q3 : 0.0, Q4 : 0.0}
2019-04-14 18:44:11.61: SIM {TimeUS : 41035246, Roll : 0.0, Pitch : 0.0, Yaw : 0.0, Alt : 30.1000003815, Lat : 49.28357, Lng : -123.11502, Q1 : 1.0, Q2 : 0.0, Q3 : 0.0, Q4 : 0.0}
2019-04-14 18:44:11.71: SIM {TimeUS : 41135206, Roll : 0.0, Pitch : 0.0, Yaw : 0.0, Alt : 30.1000003815, Lat : 49.28357, Lng : -123.11502, Q1 : 1.0, Q2 : 0.0, Q3 : 0.0, Q4 : 0.0}
2019-04-14 18:44:11.81: SIM {TimeUS : 41235166, Roll : 0.0, Pitch : 0.0, Yaw : 0.0, Alt : 30.1000003815, Lat : 49.28357, Lng : -123.11502, Q1 : 1.0, Q2 : 0.0, Q3 : 0.0, Q4 : 0.0}
2019-04-14 18:44:11.91: SIM {TimeUS : 41335126, Roll : 0.0, Pitch : 0.0, Yaw : 0.0, Alt : 30.1000003815, Lat : 49.28357, Lng : -123.11502, Q1 : 1.0, Q2 : 0.0, Q3 : 0.0, Q4 : 0.0}
2019-04-14 18:44:12.01: SIM {TimeUS : 41435086, Roll : 0.0, Pitch : 0.0, Yaw : 0.0, Alt : 30.1000003815, Lat : 49.28357, Lng : -123.11502, Q1 : 1.0, Q2 : 0.0, Q3 : 0.0, Q4 : 0.0}
2019-04-14 18:44:12.11: SIM {TimeUS : 41535046, Roll : 0.0, Pitch : 0.0, Yaw : 0.0, Alt : 30.1000003815, Lat : 49.28357, Lng : -123.11502, Q1 : 1.0, Q2 : 0.0, Q3 : 0.0, Q4 : 0.0}
2019-04-14 18:44:12.21: SIM {TimeUS : 41635006, Roll : 0.0, Pitch : 0.0, Yaw : 0.0, Alt : 30.1000003815, Lat : 49.28357, Lng : -123.11502, Q1 : 1.0, Q2 : 0.0, Q3 : 0.0, Q4 : 0.0}
2019-04-14 18:44:12.31: SIM {TimeUS : 41734966, Roll : 0.0, Pitch : 0.0, Yaw : 0.0, Alt : 30.1000003815, Lat : 49.28357, Lng : -123.11502, Q1 : 1.0, Q2 : 0.0, Q3 : 0.0, Q4 : 0.0}
2019-04-14 18:44:12.41: SIM {TimeUS : 41834926, Roll : 0.0, Pitch : 0.0, Yaw : 0.0, Alt : 30.1000003815, Lat : 49.28357, Lng : -123.11502, Q1 : 1.0, Q2 : 0.0, Q3 : 0.0, Q4 : 0.0}
2019-04-14 18:44:12.51: SIM {TimeUS : 41934886, Roll : 0.0, Pitch : 0.0, Yaw : 0.0, Alt : 30.1000003815, Lat : 49.28357, Lng : -123.11502, Q1 : 1.0, Q2 : 0.0, Q3 : 0.0, Q4 : 0.0}
2019-04-14 18:44:12.61: SIM {TimeUS : 42034846, Roll : 0.0, Pitch : 0.0, Yaw : 0.0, Alt : 30.1000003815, Lat : 49.28357, Lng : -123.11502, Q1 : 1.0, Q2 : 0.0, Q3 : 0.0, Q4 : 0.0}
2019-04-14 18:44:12.71: SIM {TimeUS : 42134806, Roll : 0.0, Pitch : 0.0, Yaw : 0.0, Alt : 30.1000003815, Lat : 49.28357, Lng : -123.11502, Q1 : 1.0, Q2 : 0.0, Q3 : 0.0, Q4 : 0.0}
2019-04-14 18:44:12.81: SIM {TimeUS : 42234766, Roll : 0.0, Pitch : 0.0, Yaw : 0.0, Alt : 30.1000003815, Lat : 49.28357, Lng : -123.11502, Q1 : 1.0, Q2 : 0.0, Q3 : 0.0, Q4 : 0.0}
2019-04-14 18:44:12.91: SIM {TimeUS : 42334726, Roll : 0.0, Pitch : 0.0, Yaw : 0.0, Alt : 30.1000003815, Lat : 49.28357, Lng : -123.11502, Q1 : 1.0, Q2 : 0.0, Q3 : 0.0, Q4 : 0.0}
2019-04-14 18:44:13.01: SIM {TimeUS : 42434686, Roll : 0.0, Pitch : 0.0, Yaw : 0.0, Alt : 30.1000003815, Lat : 49.28357, Lng : -123.11502, Q1 : 1.0, Q2 : 0.0, Q3 : 0.0, Q4 : 0.0}
2019-04-14 18:44:13.11: SIM {TimeUS : 42534646, Roll : 0.0, Pitch : 0.0, Yaw : 0.0, Alt : 30.1000003815, Lat : 49.28357, Lng : -123.11502, Q1 : 1.0, Q2 : 0.0, Q3 : 0.0, Q4 : 0.0}
2019-04-14 18:44:13.21: SIM {TimeUS : 42634606, Roll : 0.0, Pitch : 0.0, Yaw : 0.0, Alt : 30.1000003815, Lat : 49.28357, Lng : -123.11502, Q1 : 1.0, Q2 : 0.0, Q3 : 0.0, Q4 : 0.0}
2019-04-14 18:44:13.31: SIM {TimeUS : 42735399, Roll : 0.0, Pitch : 0.0, Yaw : 0.0, Alt : 30.1000003815, Lat : 49.28357, Lng : -123.11502, Q1 : 1.0, Q2 : 0.0, Q3 : 0.0, Q4 : 0.0}
2019-04-14 18:44:13.41: SIM {TimeUS : 42835359, Roll : 0.0, Pitch : 0.0, Yaw : 0.0, Alt : 30.1000003815, Lat : 49.28357, Lng : -123.11502, Q1 : 1.0, Q2 : 0.0, Q3 : 0.0, Q4 : 0.0}
2019-04-14 18:44:13.51: SIM {TimeUS : 42935319, Roll : 0.0, Pitch : 0.0, Yaw : 360.0, Alt : 30.1000003815, Lat : 49.28357, Lng : -123.11502, Q1 : 1.0, Q2 : 0.0, Q3 : 0.0, Q4 : -2.34232576911e-12}
2019-04-14 18:44:13.61: SIM {TimeUS : 43035279, Roll : 0.0, Pitch : 0.0, Yaw : 360.0, Alt : 30.1000003815, Lat : 49.28357, Lng : -123.11502, Q1 : 1.0, Q2 : 0.0, Q3 : 0.0, Q4 : -1.59578156245e-10}
2019-04-14 18:44:13.71: SIM {TimeUS : 43135239, Roll : 0.0, Pitch : 0.0, Yaw : 360.0, Alt : 30.1000003815, Lat : 49.28357, Lng : -123.11502, Q1 : 1.0, Q2 : 0.0, Q3 : 0.0, Q4 : -8.89988100994e-08}
2019-04-14 18:44:13.81: SIM {TimeUS : 43235199, Roll : 0.0, Pitch : 0.0, Yaw : 359.99, Alt : 30.1000003815, Lat : 49.28357, Lng : -123.11502, Q1 : 1.0, Q2 : 0.0, Q3 : 0.0, Q4 : -2.25867694326e-07}
2019-04-14 18:44:13.91: SIM {TimeUS : 43335159, Roll : 0.0, Pitch : 0.0, Yaw : 359.99, Alt : 30.1000003815, Lat : 49.28357, Lng : -123.11502, Q1 : 1.0, Q2 : 0.0, Q3 : 0.0, Q4 : -3.86421646681e-07}
2019-04-14 18:44:14.01: SIM {TimeUS : 43435119, Roll : 0.0, Pitch : 0.0, Yaw : 359.99, Alt : 30.1000003815, Lat : 49.28357, Lng : -123.11502, Q1 : 1.0, Q2 : 0.0, Q3 : 0.0, Q4 : -5.9255933138e-07}
2019-04-14 18:44:14.11: SIM {TimeUS : 43535079, Roll : 0.0, Pitch : 0.0, Yaw : 359.99, Alt : 30.1000003815, Lat : 49.28357, Lng : -123.11502, Q1 : 1.0, Q2 : 0.0, Q3 : 0.0, Q4 : -7.97640495875e-07}
2019-04-14 18:44:14.21: SIM {TimeUS : 43635039, Roll : 0.0, Pitch : 0.0, Yaw : 359.99, Alt : 30.1000003815, Lat : 49.28357, Lng : -123.11502, Q1 : 1.0, Q2 : 0.0, Q3 : 0.0, Q4 : -9.83619088402e-07}
2019-04-14 18:44:14.31: SIM {TimeUS : 43734999, Roll : 0.0, Pitch : 0.0, Yaw : 359.99, Alt : 30.1000003815, Lat : 49.28357, Lng : -123.11502, Q1 : 1.0, Q2 : 0.0, Q3 : 0.0, Q4 : -1.16363355573e-06}
2019-04-14 18:44:14.41: SIM {TimeUS : 43834959, Roll : 0.0, Pitch : 0.0, Yaw : 359.99, Alt : 30.1100006104, Lat : 49.28357, Lng : -123.11502, Q1 : 1.0, Q2 : 0.0, Q3 : 0.0, Q4 : -1.34775746119e-06}
2019-04-14 18:44:14.51: SIM {TimeUS : 43934919, Roll : 0.0, Pitch : 0.0, Yaw : 359.99, Alt : 30.1299991608, Lat : 49.28357, Lng : -123.11502, Q1 : 1.0, Q2 : 0.0, Q3 : 0.0, Q4 : -1.49932532167e-06}
2019-04-14 18:44:14.61: SIM {TimeUS : 44034879, Roll : 0.0, Pitch : 0.0, Yaw : 359.99, Alt : 30.1599998474, Lat : 49.28357, Lng : -123.11502, Q1 : 1.0, Q2 : 0.0, Q3 : 0.0, Q4 : -1.73192461261e-06}
2019-04-14 18:44:14.71: SIM {TimeUS : 44134839, Roll : 0.0, Pitch : 0.0, Yaw : 359.99, Alt : 30.1900005341, Lat : 49.28357, Lng : -123.11502, Q1 : 1.0, Q2 : 0.0, Q3 : 0.0, Q4 : -1.92971901924e-06}
2019-04-14 18:44:14.81: SIM {TimeUS : 44234799, Roll : -0.03, Pitch : -0.03, Yaw : 359.99, Alt : 30.2299995422, Lat : 49.28357, Lng : -123.11502, Q1 : 0.999999880791, Q2 : -0.000323128915625, Q3 : -0.00027705411776, Q4 : -4.43817179985e-06}
2019-04-14 18:44:14.91: SIM {TimeUS : 44334759, Roll : -0.29, Pitch : -0.25, Yaw : 359.99, Alt : 30.3099994659, Lat : 49.28357, Lng : -123.11502, Q1 : 0.999994277954, Q2 : -0.00258251908235, Q3 : -0.00219007767737, Q4 : -2.89772033284e-05}
2019-04-14 18:44:15.01: SIM {TimeUS : 44434719, Roll : -0.58, Pitch : -0.53, Yaw : 359.99, Alt : 30.4400005341, Lat : 49.28357, Lng : -123.11502, Q1 : 0.999976217747, Q2 : -0.00507854903117, Q3 : -0.00467240437865, Q4 : -7.841642946e-05}
2019-04-14 18:44:15.11: SIM {TimeUS : 44534679, Roll : -0.76, Pitch : -0.72, Yaw : 359.98, Alt : 30.5900001526, Lat : 49.28357, Lng : -123.11502, Q1 : 0.999957442284, Q2 : -0.00668888306245, Q3 : -0.00635128095746, Q4 : -0.000149257772136}
2019-04-14 18:44:15.21: SIM {TimeUS : 44634639, Roll : -0.81, Pitch : -0.77, Yaw : 359.97, Alt : 30.75, Lat : 49.28357, Lng : -123.11502, Q1 : 0.999951779842, Q2 : -0.00715160788968, Q3 : -0.0067257466726, Q4 : -0.000230166813708}
2019-04-14 18:44:15.31: SIM {TimeUS : 44734599, Roll : -0.73, Pitch : -0.68, Yaw : 359.96, Alt : 30.9099998474, Lat : 49.28357, Lng : -123.1150201, Q1 : 0.999961495399, Q2 : -0.00641251308843, Q3 : -0.00597978616133, Q4 : -0.00030983943725}
2019-04-14 18:44:15.41: SIM {TimeUS : 44835392, Roll : -0.54, Pitch : -0.51, Yaw : 359.95, Alt : 31.0599994659, Lat : 49.2835701, Lng : -123.1150202, Q1 : 0.999978542328, Q2 : -0.00478323036805, Q3 : -0.00446374062449, Q4 : -0.000382237951271}
2019-04-14 18:44:15.51: SIM {TimeUS : 44935352, Roll : -0.32, Pitch : -0.3, Yaw : 359.94, Alt : 31.2199993134, Lat : 49.2835701, Lng : -123.1150202, Q1 : 0.999992370605, Q2 : -0.0028245174326, Q3 : -0.00265716155991, Q4 : -0.000444278004579}
2019-04-14 18:44:15.61: SIM {TimeUS : 45035312, Roll : -0.11, Pitch : -0.12, Yaw : 359.94, Alt : 31.3799991608, Lat : 49.2835702, Lng : -123.1150203, Q1 : 0.999998748302, Q2 : -0.00100662419572, Q3 : -0.00109406467527, Q4 : -0.000492894556373}
2019-04-14 18:44:15.71: SIM {TimeUS : 45135272, Roll : 0.03, Pitch : 0.0, Yaw : 359.93, Alt : 31.5599994659, Lat : 49.2835702, Lng : -123.1150204, Q1 : 0.999999821186, Q2 : 0.000297699909424, Q3 : -4.40310905105e-05, Q4 : -0.000528451695573}
2019-04-14 18:44:15.81: SIM {TimeUS : 45235232, Roll : 0.1, Pitch : 0.05, Yaw : 359.93, Alt : 31.7299995422, Lat : 49.2835703, Lng : -123.1150205, Q1 : 0.999999344349, Q2 : 0.000873703043908, Q3 : 0.00051357090706, Q4 : -0.000546325114556}
2019-04-14 18:44:15.91: SIM {TimeUS : 45335192, Roll : 0.1, Pitch : 0.07, Yaw : 359.93, Alt : 31.9099998474, Lat : 49.2835703, Lng : -123.1150205, Q1 : 0.99999922514, Q2 : 0.00089370663045, Q3 : 0.000690170680173, Q4 : -0.000557774386834}
2019-04-14 18:44:16.01: SIM {TimeUS : 45435152, Roll : 0.07, Pitch : 0.08, Yaw : 359.93, Alt : 32.0999984741, Lat : 49.2835703, Lng : -123.1150206, Q1 : 0.999999344349, Q2 : 0.000673750415444, Q3 : 0.000743744429201, Q4 : -0.000555448117666}
2019-04-14 18:44:16.11: SIM {TimeUS : 45535112, Roll : 0.06, Pitch : 0.09, Yaw : 359.93, Alt : 32.2900009155, Lat : 49.2835703, Lng : -123.1150206, Q1 : 0.999999284744, Q2 : 0.000579841725994, Q3 : 0.000868037750479, Q4 : -0.000531976169441}
2019-04-14 18:44:16.21: SIM {TimeUS : 45635072, Roll : 0.07, Pitch : 0.1, Yaw : 359.94, Alt : 32.4799995422, Lat : 49.2835703, Lng : -123.1150207, Q1 : 0.99999922514, Q2 : 0.000637979828753, Q3 : 0.000941780570429, Q4 : -0.00050300633302}
2019-04-14 18:44:16.31: SIM {TimeUS : 45735032, Roll : 0.08, Pitch : 0.12, Yaw : 359.94, Alt : 32.6699981689, Lat : 49.2835703, Lng : -123.1150207, Q1 : 0.999999046326, Q2 : 0.000754522625357, Q3 : 0.00105647766031, Q4 : -0.000470529863378}
2019-04-14 18:44:16.41: SIM {TimeUS : 45834992, Roll : 0.1, Pitch : 0.14, Yaw : 359.94, Alt : 32.8699989319, Lat : 49.2835704, Lng : -123.1150208, Q1 : 0.999998629093, Q2 : 0.000896798272151, Q3 : 0.00129989359993, Q4 : -0.000439853989519}
2019-04-14 18:44:16.51: SIM {TimeUS : 45934952, Roll : 0.12, Pitch : 0.14, Yaw : 359.95, Alt : 33.0699996948, Lat : 49.2835704, Lng : -123.1150208, Q1 : 0.999998450279, Q2 : 0.00110060535371, Q3 : 0.00130437663756, Q4 : -0.000420537777245}
2019-04-14 18:44:16.61: SIM {TimeUS : 46034912, Roll : 0.14, Pitch : 0.13, Yaw : 359.95, Alt : 33.2700004578, Lat : 49.2835704, Lng : -123.1150208, Q1 : 0.99999833107, Q2 : 0.00129996694159, Q3 : 0.00121866015252, Q4 : -0.000396150251618}
2019-04-14 18:44:16.71: SIM {TimeUS : 46134872, Roll : 0.16, Pitch : 0.13, Yaw : 359.95, Alt : 33.4799995422, Lat : 49.2835704, Lng : -123.1150208, Q1 : 0.999998271465, Q2 : 0.00143643922638, Q3 : 0.00113538955338, Q4 : -0.000378954369808}
2019-04-14 18:44:16.81: SIM {TimeUS : 46234832, Roll : 0.16, Pitch : 0.13, Yaw : 359.95, Alt : 33.6899986267, Lat : 49.2835704, Lng : -123.1150208, Q1 : 0.999998152256, Q2 : 0.00148000509944, Q3 : 0.00118696456775, Q4 : -0.000389430584619}
2019-04-14 18:44:16.91: SIM {TimeUS : 46334792, Roll : 0.17, Pitch : 0.14, Yaw : 359.95, Alt : 33.8899993896, Lat : 49.2835704, Lng : -123.1150208, Q1 : 0.999997913837, Q2 : 0.00152944086585, Q3 : 0.00128948572092, Q4 : -0.000417259463575}
2019-04-14 18:44:17.01: SIM {TimeUS : 46434752, Roll : 0.16, Pitch : 0.13, Yaw : 359.94, Alt : 34.0999984741, Lat : 49.2835704, Lng : -123.1150208, Q1 : 0.999998092651, Q2 : 0.00144998426549, Q3 : 0.00122068147175, Q4 : -0.000448979699286}
2019-04-14 18:44:17.11: SIM {TimeUS : 46534712, Roll : 0.14, Pitch : 0.12, Yaw : 359.94, Alt : 34.3100013733, Lat : 49.2835704, Lng : -123.1150208, Q1 : 0.999998450279, Q2 : 0.00127658399288, Q3 : 0.0011140863644, Q4 : -0.000481731549371}
2019-04-14 18:44:17.21: SIM {TimeUS : 46634672, Roll : 0.11, Pitch : 0.11, Yaw : 359.94, Alt : 34.5299987793, Lat : 49.2835704, Lng : -123.1150208, Q1 : 0.999998807907, Q2 : 0.00104318244848, Q3 : 0.00100124452729, Q4 : -0.000516239961144}
2019-04-14 18:44:17.31: SIM {TimeUS : 46734632, Roll : 0.08, Pitch : 0.1, Yaw : 359.93, Alt : 34.7400016785, Lat : 49.2835704, Lng : -123.1150208, Q1 : 0.999999165535, Q2 : 0.000764398893807, Q3 : 0.000880960782524, Q4 : -0.000552838377189}
2019-04-14 18:44:17.41: SIM {TimeUS : 46834592, Roll : 0.06, Pitch : 0.06, Yaw : 359.93, Alt : 34.9599990845, Lat : 49.2835704, Lng : -123.1150208, Q1 : 0.999999523163, Q2 : 0.000596742203925, Q3 : 0.000537619867828, Q4 : -0.000594690849539}
2019-04-14 18:44:17.51: SIM {TimeUS : 46935385, Roll : 0.05, Pitch : 0.02, Yaw : 359.92, Alt : 35.1699981689, Lat : 49.2835704, Lng : -123.1150208, Q1 : 0.999999642372, Q2 : 0.000507666321937, Q3 : 0.000220033878577, Q4 : -0.000632127863355}
2019-04-14 18:44:17.61: SIM {TimeUS : 47035345, Roll : 0.03, Pitch : 0.0, Yaw : 359.92, Alt : 35.3899993896, Lat : 49.2835704, Lng : -123.1150208, Q1 : 0.999999701977, Q2 : 0.000317215977702, Q3 : 4.34016837971e-05, Q4 : -0.000667028129101}
2019-04-14 18:44:17.71: SIM {TimeUS : 47135305, Roll : 0.02, Pitch : 0.0, Yaw : 359.92, Alt : 35.6100006104, Lat : 49.2835704, Lng : -123.1150208, Q1 : 0.999999761581, Q2 : 0.000199751884793, Q3 : 9.5355690064e-06, Q4 : -0.000697661831509}
2019-04-14 18:44:17.81: SIM {TimeUS : 47235265, Roll : 0.02, Pitch : 0.0, Yaw : 359.91, Alt : 35.8300018311, Lat : 49.2835704, Lng : -123.1150207, Q1 : 0.999999701977, Q2 : 0.000187253550394, Q3 : 1.59555511345e-05, Q4 : -0.000730534316972}
2019-04-14 18:44:17.91: SIM {TimeUS : 47335225, Roll : 0.0, Pitch : -0.01, Yaw : 359.91, Alt : 36.0499992371, Lat : 49.2835704, Lng : -123.1150207, Q1 : 0.999999701977, Q2 : 3.62554214917e-06, Q3 : -0.000133078938234, Q4 : -0.000753172265831}
2019-04-14 18:44:18.01: SIM {TimeUS : 47435185, Roll : -0.03, Pitch : -0.04, Yaw : 359.91, Alt : 36.2700004578, Lat : 49.2835704, Lng : -123.1150207, Q1 : 0.999999582767, Q2 : -0.00031594466418, Q3 : -0.000403530575568, Q4 : -0.000766189943533}
2019-04-14 18:44:18.11: SIM {TimeUS : 47535145, Roll : -0.06, Pitch : -0.06, Yaw : 359.91, Alt : 36.4900016785, Lat : 49.2835704, Lng : -123.1150207, Q1 : 0.999999344349, Q2 : -0.000590245879721, Q3 : -0.000563477864489, Q4 : -0.000777212670073}
2019-04-14 18:44:18.21: SIM {TimeUS : 47635105, Roll : -0.09, Pitch : -0.07, Yaw : 359.9, Alt : 36.7099990845, Lat : 49.2835704, Lng : -123.1150207, Q1 : 0.99999910593, Q2 : -0.000836989493109, Q3 : -0.000678373849951, Q4 : -0.000788080098573}
2019-04-14 18:44:18.31: SIM {TimeUS : 47735065, Roll : -0.09, Pitch : -0.08, Yaw : 359.9, Alt : 36.9399986267, Lat : 49.2835704, Lng : -123.1150207, Q1 : 0.999999046326, Q2 : -0.000855191145092, Q3 : -0.000703941041138, Q4 : -0.000803825736511}
2019-04-14 18:44:18.41: SIM {TimeUS : 47835025, Roll : -0.09, Pitch : -0.07, Yaw : 359.9, Alt : 37.1599998474, Lat : 49.2835704, Lng : -123.1150207, Q1 : 0.99999910593, Q2 : -0.000812964979559, Q3 : -0.000630195310805, Q4 : -0.000828240008559}
2019-04-14 18:44:18.51: SIM {TimeUS : 47934985, Roll : -0.08, Pitch : -0.05, Yaw : 359.9, Alt : 37.3899993896, Lat : 49.2835704, Lng : -123.1150207, Q1 : 0.999999284744, Q2 : -0.000698790943716, Q3 : -0.000442393793492, Q4 : -0.000854112498928}
2019-04-14 18:44:18.61: SIM {TimeUS : 48034945, Roll : -0.06, Pitch : -0.03, Yaw : 359.89, Alt : 37.6100006104, Lat : 49.2835704, Lng : -123.1150206, Q1 : 0.999999403954, Q2 : -0.000570089090616, Q3 : -0.000310468836688, Q4 : -0.000876115343999}
2019-04-14 18:44:18.71: SIM {TimeUS : 48134905, Roll : -0.06, Pitch : -0.03, Yaw : 359.89, Alt : 37.8400001526, Lat : 49.2835704, Lng : -123.1150206, Q1 : 0.999999344349, Q2 : -0.000581297150347, Q3 : -0.000315117533319, Q4 : -0.000894152675755}
2019-04-14 18:44:18.81: SIM {TimeUS : 48234865, Roll : -0.07, Pitch : -0.02, Yaw : 359.89, Alt : 38.0699996948, Lat : 49.2835704, Lng : -123.1150206, Q1 : 0.999999344349, Q2 : -0.000672131311148, Q3 : -0.000209382909816, Q4 : -0.000905504159164}
2019-04-14 18:44:18.91: SIM {TimeUS : 48334825, Roll : -0.09, Pitch : 0.0, Yaw : 359.89, Alt : 38.2900009155, Lat : 49.2835704, Lng : -123.1150206, Q1 : 0.99999922514, Q2 : -0.000866906251758, Q3 : -6.60886798869e-05, Q4 : -0.000914045900572}
2019-04-14 18:44:19.01: SIM {TimeUS : 48434785, Roll : -0.1, Pitch : 0.0, Yaw : 359.89, Alt : 38.5200004578, Lat : 49.2835704, Lng : -123.1150206, Q1 : 0.99999922514, Q2 : -0.000874317425769, Q3 : 5.86024179938e-05, Q4 : -0.000917182653211}
2019-04-14 18:44:19.11: SIM {TimeUS : 48534745, Roll : -0.07, Pitch : 0.03, Yaw : 359.89, Alt : 38.75, Lat : 49.2835706, Lng : -123.1150206, Q1 : 0.999999284744, Q2 : -0.000695179740433, Q3 : 0.000277461716905, Q4 : -0.000926593726035}
2019-04-14 18:44:19.21: SIM {TimeUS : 48634705, Roll : -0.05, Pitch : 0.02, Yaw : 359.89, Alt : 38.9799995422, Lat : 49.2835706, Lng : -123.1150207, Q1 : 0.999999403954, Q2 : -0.000463300180854, Q3 : 0.000256473198533, Q4 : -0.000936081982218}
2019-04-14 18:44:19.31: SIM {TimeUS : 48734665, Roll : -0.02, Pitch : 0.02, Yaw : 359.89, Alt : 39.2099990845, Lat : 49.2835706, Lng : -123.1150207, Q1 : 0.999999523163, Q2 : -0.000188659061678, Q3 : 0.000186071149074, Q4 : -0.000946486135945}
2019-04-14 18:44:19.41: SIM {TimeUS : 48834625, Roll : 0.01, Pitch : 0.03, Yaw : 359.89, Alt : 39.4399986267, Lat : 49.2835706, Lng : -123.1150207, Q1 : 0.999999463558, Q2 : 0.000128835570649, Q3 : 0.00032333668787, Q4 : -0.000956737028901}
2019-04-14 18:44:19.51: SIM {TimeUS : 48934585, Roll : 0.05, Pitch : 0.06, Yaw : 359.88, Alt : 39.6699981689, Lat : 49.2835706, Lng : -123.1150207, Q1 : 0.99999922514, Q2 : 0.000455657951534, Q3 : 0.000610025716014, Q4 : -0.000973518646788}
2019-04-14 18:44:19.61: SIM {TimeUS : 49035378, Roll : 0.08, Pitch : 0.1, Yaw : 359.88, Alt : 39.9000015259, Lat : 49.2835706, Lng : -123.1150207, Q1 : 0.999998867512, Q2 : 0.000711506232619, Q3 : 0.000884741544724, Q4 : -0.000997136346996}
2019-04-14 18:44:19.71: SIM {TimeUS : 49135338, Roll : 0.07, Pitch : 0.13, Yaw : 359.88, Alt : 40.1300010681, Lat : 49.2835706, Lng : -123.1150207, Q1 : 0.999998629093, Q2 : 0.000633969262708, Q3 : 0.00114407297224, Q4 : -0.00102444377262}
2019-04-14 18:44:19.81: SIM {TimeUS : 49235298, Roll : 0.02, Pitch : 0.15, Yaw : 359.87, Alt : 40.3600006104, Lat : 49.2835706, Lng : -123.1150207, Q1 : 0.999998450279, Q2 : 0.000217313659959, Q3 : 0.00138739251997, Q4 : -0.00106719718315}
2019-04-14 18:44:19.91: SIM {TimeUS : 49335258, Roll : -0.01, Pitch : 0.17, Yaw : 359.87, Alt : 40.5999984741, Lat : 49.2835706, Lng : -123.1150207, Q1 : 0.999998271465, Q2 : -0.000149095780216, Q3 : 0.00150751555339, Q4 : -0.00110313715413}
2019-04-14 18:44:20.01: SIM {TimeUS : 49435218, Roll : -0.04, Pitch : 0.15, Yaw : 359.87, Alt : 40.8300018311, Lat : 49.2835706, Lng : -123.1150207, Q1 : 0.99999833107, Q2 : -0.000365632178728, Q3 : 0.00136534962803, Q4 : -0.00112916552462}
2019-04-14 18:44:20.11: SIM {TimeUS : 49535178, Roll : -0.04, Pitch : 0.13, Yaw : 359.86, Alt : 41.0600013733, Lat : 49.2835706, Lng : -123.1150207, Q1 : 0.999998569489, Q2 : -0.000420065276558, Q3 : 0.00118431285955, Q4 : -0.00115981185809}
2019-04-14 18:44:20.21: SIM {TimeUS : 49635138, Roll : -0.03, Pitch : 0.13, Yaw : 359.86, Alt : 41.2900009155, Lat : 49.2835706, Lng : -123.1150207, Q1 : 0.999998569489, Q2 : -0.000298431463307, Q3 : 0.00118403101806, Q4 : -0.00120014895219}
2019-04-14 18:44:20.31: SIM {TimeUS : 49735098, Roll : 0.0, Pitch : 0.15, Yaw : 359.85, Alt : 41.5299987793, Lat : 49.2835706, Lng : -123.1150207, Q1 : 0.999998390675, Q2 : 7.21344549675e-05, Q3 : 0.0013122522505, Q4 : -0.00124958425295}
2019-04-14 18:44:20.41: SIM {TimeUS : 49835058, Roll : 0.06, Pitch : 0.15, Yaw : 359.85, Alt : 41.7599983215, Lat : 49.2835706, Lng : -123.1150207, Q1 : 0.999998092651, Q2 : 0.00053030840354, Q3 : 0.0013661357807, Q4 : -0.00129914900754}
2019-04-14 18:44:20.51: SIM {TimeUS : 49935018, Roll : 0.09, Pitch : 0.12, Yaw : 359.84, Alt : 41.9900016785, Lat : 49.2835706, Lng : -123.1150207, Q1 : 0.999998152256, Q2 : 0.000866072194185, Q3 : 0.00108923076186, Q4 : -0.00133966386784}
2019-04-14 18:44:20.61: SIM {TimeUS : 50034978, Roll : 0.1, Pitch : 0.07, Yaw : 359.84, Alt : 42.2299995422, Lat : 49.2835706, Lng : -123.1150207, Q1 : 0.999998390675, Q2 : 0.000912613759283, Q3 : 0.000688430096488, Q4 : -0.00137257226743}
2019-04-14 18:44:20.71: SIM {TimeUS : 50134938, Roll : 0.06, Pitch : 0.04, Yaw : 359.84, Alt : 42.4599990845, Lat : 49.2835706, Lng : -123.1150207, Q1 : 0.999998748302, Q2 : 0.000587036891375, Q3 : 0.00042199541349, Q4 : -0.0013895049924}
2019-04-14 18:44:20.81: SIM {TimeUS : 50234898, Roll : 0.01, Pitch : 0.04, Yaw : 359.83, Alt : 42.7000007629, Lat : 49.2835706, Lng : -123.1150207, Q1 : 0.999998927116, Q2 : 9.92731293081e-05, Q3 : 0.000387992709875, Q4 : -0.0013998169452}
2019-04-14 18:44:20.91: SIM {TimeUS : 50334858, Roll : -0.02, Pitch : 0.06, Yaw : 359.83, Alt : 42.9300003052, Lat : 49.2835704, Lng : -123.1150207, Q1 : 0.999998807907, Q2 : -0.000242591049755, Q3 : 0.00060861260863, Q4 : -0.0014033842599}
2019-04-14 18:44:21.01: SIM {TimeUS : 50434818, Roll : -0.04, Pitch : 0.08, Yaw : 359.83, Alt : 43.1699981689, Lat : 49.2835704, Lng : -123.1150207, Q1 : 0.999998629093, Q2 : -0.000418288022047, Q3 : 0.000744268065318, Q4 : -0.00140505994204}
2019-04-14 18:44:21.11: SIM {TimeUS : 50534778, Roll : -0.05, Pitch : 0.07, Yaw : 359.83, Alt : 43.4000015259, Lat : 49.2835704, Lng : -123.1150207, Q1 : 0.999998688698, Q2 : -0.000435496971477, Q3 : 0.000675195478834, Q4 : -0.00140937278047}
2019-04-14 18:44:21.21: SIM {TimeUS : 50634738, Roll : -0.05, Pitch : 0.06, Yaw : 359.83, Alt : 43.6399993896, Lat : 49.2835704, Lng : -123.1150207, Q1 : 0.999998748302, Q2 : -0.000493594852742, Q3 : 0.000536694074981, Q4 : -0.00142194901127}
2019-04-14 18:44:21.31: SIM {TimeUS : 50734698, Roll : -0.05, Pitch : 0.04, Yaw : 359.83, Alt : 43.8699989319, Lat : 49.2835704, Lng : -123.1150207, Q1 : 0.999998748302, Q2 : -0.000446775899036, Q3 : 0.000408650055761, Q4 : -0.00144053553231}
2019-04-14 18:44:21.41: SIM {TimeUS : 50834658, Roll : -0.03, Pitch : 0.03, Yaw : 359.83, Alt : 44.1100006104, Lat : 49.2835704, Lng : -123.1150207, Q1 : 0.999998867512, Q2 : -0.00028937557363, Q3 : 0.000349318666849, Q4 : -0.00146739394404}
2019-04-14 18:44:21.51: SIM {TimeUS : 50934618, Roll : -0.01, Pitch : 0.03, Yaw : 359.82, Alt : 44.3400001526, Lat : 49.2835704, Lng : -123.1150207, Q1 : 0.999998807907, Q2 : -0.000172502550413, Q3 : 0.000331960502081, Q4 : -0.00149797089398}
2019-04-14 18:44:21.61: SIM {TimeUS : 51034578, Roll : -0.02, Pitch : 0.01, Yaw : 359.82, Alt : 44.5800018311, Lat : 49.2835704, Lng : -123.1150206, Q1 : 0.999998807907, Q2 : -0.000201922885026, Q3 : 0.000171580424649, Q4 : -0.0015271641314}
2019-04-14 18:44:21.71: SIM {TimeUS : 51135371, Roll : -0.03, Pitch : -0.01, Yaw : 359.82, Alt : 44.8199996948, Lat : 49.2835704, Lng : -123.1150206, Q1 : 0.999998748302, Q2 : -0.000262641726295, Q3 : -0.000149570507347, Q4 : -0.00155912793707}
2019-04-14 18:44:21.81: SIM {TimeUS : 51235331, Roll : -0.03, Pitch : -0.04, Yaw : 359.81, Alt : 45.0600013733, Lat : 49.2835703, Lng : -123.1150206, Q1 : 0.999998629093, Q2 : -0.00027892718208, Q3 : -0.000355129333911, Q4 : -0.00159330910537}
2019-04-14 18:44:21.91: SIM {TimeUS : 51335291, Roll : -0.01, Pitch : -0.04, Yaw : 359.81, Alt : 45.2900009155, Lat : 49.2835703, Lng : -123.1150206, Q1 : 0.999998569489, Q2 : -0.000151259475388, Q3 : -0.000418753974373, Q4 : -0.00163070915733}
2019-04-14 18:44:22.01: SIM {TimeUS : 51435251, Roll : -0.01, Pitch : -0.05, Yaw : 359.8, Alt : 45.5299987793, Lat : 49.2835703, Lng : -123.1150206, Q1 : 0.999998509884, Q2 : -0.000163407748914, Q3 : -0.000442691991339, Q4 : -0.00167061842512}
2019-04-14 18:44:22.11: SIM {TimeUS : 51535211, Roll : -0.03, Pitch : -0.04, Yaw : 359.8, Alt : 45.7599983215, Lat : 49.2835703, Lng : -123.1150206, Q1 : 0.999998390675, Q2 : -0.000348724803189, Q3 : -0.000375885108951, Q4 : -0.00170761696063}
2019-04-14 18:44:22.21: SIM {TimeUS : 51635171, Roll : -0.07, Pitch : -0.03, Yaw : 359.8, Alt : 45.9900016785, Lat : 49.2835703, Lng : -123.1150206, Q1 : 0.999998211861, Q2 : -0.000682323006913, Q3 : -0.000329036236508, Q4 : -0.00174078450073}
2019-04-14 18:44:22.31: SIM {TimeUS : 51735131, Roll : -0.1, Pitch : -0.03, Yaw : 359.79, Alt : 46.2200012207, Lat : 49.2835703, Lng : -123.1150206, Q1 : 0.999997973442, Q2 : -0.00094234693097, Q3 : -0.000284879555693, Q4 : -0.00177042768337}
2019-04-14 18:44:22.41: SIM {TimeUS : 51835091, Roll : -0.11, Pitch : -0.02, Yaw : 359.79, Alt : 46.4500007629, Lat : 49.2835703, Lng : -123.1150206, Q1 : 0.999997854233, Q2 : -0.00103003589902, Q3 : -0.000189521349967, Q4 : -0.00179431552533}
2019-04-14 18:44:22.51: SIM {TimeUS : 51935051, Roll : -0.1, Pitch : 0.0, Yaw : 359.79, Alt : 46.6699981689, Lat : 49.2835703, Lng : -123.1150206, Q1 : 0.999997913837, Q2 : -0.000953657028731, Q3 : 4.34244975622e-06, Q4 : -0.00181378424168}
2019-04-14 18:44:22.61: SIM {TimeUS : 52035011, Roll : -0.08, Pitch : 0.01, Yaw : 359.78, Alt : 46.8800010681, Lat : 49.2835703, Lng : -123.1150206, Q1 : 0.999998033047, Q2 : -0.000764968222938, Q3 : 0.00011975706002, Q4 : -0.00183308881242}
2019-04-14 18:44:22.71: SIM {TimeUS : 52134971, Roll : -0.06, Pitch : 0.01, Yaw : 359.78, Alt : 47.0900001526, Lat : 49.2835703, Lng : -123.1150206, Q1 : 0.999998152256, Q2 : -0.000549271993805, Q3 : 0.000103131977085, Q4 : -0.00184764305595}
2019-04-14 18:44:22.81: SIM {TimeUS : 52234931, Roll : -0.05, Pitch : 0.0, Yaw : 359.78, Alt : 47.2900009155, Lat : 49.2835703, Lng : -123.1150206, Q1 : 0.999998152256, Q2 : -0.000440433504991, Q3 : -1.23958880067e-05, Q4 : -0.0018591992557}
2019-04-14 18:44:22.91: SIM {TimeUS : 52334891, Roll : -0.03, Pitch : -0.02, Yaw : 359.78, Alt : 47.4799995422, Lat : 49.2835703, Lng : -123.1150206, Q1 : 0.999998152256, Q2 : -0.000304116023472, Q3 : -0.00024141803442, Q4 : -0.00187351100612}
2019-04-14 18:44:23.01: SIM {TimeUS : 52434851, Roll : -0.01, Pitch : -0.06, Yaw : 359.78, Alt : 47.6599998474, Lat : 49.2835703, Lng : -123.1150206, Q1 : 0.999998033047, Q2 : -0.000161953372299, Q3 : -0.000566515082028, Q4 : -0.00188789330423}
2019-04-14 18:44:23.11: SIM {TimeUS : 52534811, Roll : -0.02, Pitch : -0.11, Yaw : 359.78, Alt : 47.8300018311, Lat : 49.2835703, Lng : -123.1150206, Q1 : 0.999997675419, Q2 : -0.000206880897167, Q3 : -0.000976214127149, Q4 : -0.00190656422637}
2019-04-14 18:44:23.21: SIM {TimeUS : 52634771, Roll : -0.03, Pitch : -0.14, Yaw : 359.77, Alt : 47.9900016785, Lat : 49.2835703, Lng : -123.1150207, Q1 : 0.999997258186, Q2 : -0.000305006600684, Q3 : -0.00128844147548, Q4 : -0.00192832713947}
2019-04-14 18:44:23.31: SIM {TimeUS : 52734731, Roll : -0.01, Pitch : -0.14, Yaw : 359.77, Alt : 48.1399993896, Lat : 49.2835703, Lng : -123.1150207, Q1 : 0.999997258186, Q2 : -0.000109496082587, Q3 : -0.00128681585193, Q4 : -0.00194984069094}
2019-04-14 18:44:23.41: SIM {TimeUS : 52834691, Roll : 0.02, Pitch : -0.12, Yaw : 359.77, Alt : 48.2799987793, Lat : 49.2835703, Lng : -123.1150207, Q1 : 0.999997437, Q2 : 0.000214171857806, Q3 : -0.00108395889401, Q4 : -0.00197268649936}
2019-04-14 18:44:23.51: SIM {TimeUS : 52934651, Roll : 0.05, Pitch : -0.08, Yaw : 359.77, Alt : 48.4000015259, Lat : 49.2835703, Lng : -123.1150207, Q1 : 0.99999755621, Q2 : 0.000477826950373, Q3 : -0.000781045877375, Q4 : -0.00199898821302}
2019-04-14 18:44:23.61: SIM {TimeUS : 53034611, Roll : 0.06, Pitch : -0.05, Yaw : 359.76, Alt : 48.5200004578, Lat : 49.2835703, Lng : -123.1150207, Q1 : 0.999997675419, Q2 : 0.000590167532209, Q3 : -0.00046921428293, Q4 : -0.00202630646527}
2019-04-14 18:44:23.71: SIM {TimeUS : 53135404, Roll : 0.07, Pitch : -0.03, Yaw : 359.76, Alt : 48.6199989319, Lat : 49.2835703, Lng : -123.1150207, Q1 : 0.999997615814, Q2 : 0.000657585042063, Q3 : -0.000289535353659, Q4 : -0.00205643032677}
2019-04-14 18:44:23.81: SIM {TimeUS : 53235364, Roll : 0.06, Pitch : -0.03, Yaw : 359.75, Alt : 48.7000007629, Lat : 49.2835703, Lng : -123.1150207, Q1 : 0.999997615814, Q2 : 0.000599393097218, Q3 : -0.000319105514791, Q4 : -0.00209545297548}
2019-04-14 18:44:23.91: SIM {TimeUS : 53335324, Roll : 0.04, Pitch : -0.04, Yaw : 359.75, Alt : 48.7799987793, Lat : 49.2835704, Lng : -123.1150207, Q1 : 0.999997615814, Q2 : 0.000385526567698, Q3 : -0.000364874809748, Q4 : -0.0021302991081}
2019-04-14 18:44:24.01: SIM {TimeUS : 53435284, Roll : 0.02, Pitch : -0.03, Yaw : 359.75, Alt : 48.8499984741, Lat : 49.2835704, Lng : -123.1150207, Q1 : 0.999997615814, Q2 : 0.000217560664169, Q3 : -0.000312613381539, Q4 : -0.00216005649418}
2019-04-14 18:44:24.11: SIM {TimeUS : 53535244, Roll : 0.01, Pitch : -0.03, Yaw : 359.74, Alt : 48.9099998474, Lat : 49.2835704, Lng : -123.1150207, Q1 : 0.99999755621, Q2 : 0.000110713132017, Q3 : -0.000300878309645, Q4 : -0.00218815542758}
2019-04-14 18:44:24.21: SIM {TimeUS : 53635204, Roll : 0.0, Pitch : -0.01, Yaw : 359.74, Alt : 48.9599990845, Lat : 49.2835704, Lng : -123.1150207, Q1 : 0.99999755621, Q2 : 8.00998968771e-05, Q3 : -0.000172052663402, Q4 : -0.00221774703823}
2019-04-14 18:44:24.31: SIM {TimeUS : 53735164, Roll : 0.03, Pitch : 0.0, Yaw : 359.74, Alt : 49.0, Lat : 49.2835704, Lng : -123.1150207, Q1 : 0.999997437, Q2 : 0.000324922177242, Q3 : -6.71540037729e-05, Q4 : -0.00224273162894}
2019-04-14 18:44:24.41: SIM {TimeUS : 53835124, Roll : 0.14, Pitch : -0.1, Yaw : 359.73, Alt : 49.0299987793, Lat : 49.2835704, Lng : -123.1150207, Q1 : 0.999996125698, Q2 : 0.00128586299252, Q3 : -0.000945291714743, Q4 : -0.00227315770462}
2019-04-14 18:44:24.51: SIM {TimeUS : 53935084, Roll : 0.38, Pitch : -0.43, Yaw : 359.73, Alt : 49.0600013733, Lat : 49.2835704, Lng : -123.1150207, Q1 : 0.999984443188, Q2 : 0.00333752552979, Q3 : -0.00383497332223, Q4 : -0.00229476881213}
2019-04-14 18:44:24.61: SIM {TimeUS : 54035044, Roll : 0.75, Pitch : -1.0, Yaw : 359.72, Alt : 49.0900001526, Lat : 49.2835704, Lng : -123.1150207, Q1 : 0.999937474728, Q2 : 0.00657643517479, Q3 : -0.00875047128648, Q4 : -0.0023057826329}
2019-04-14 18:44:24.71: SIM {TimeUS : 54135004, Roll : 1.24, Pitch : -1.76, Yaw : 359.71, Alt : 49.1100006104, Lat : 49.2835704, Lng : -123.1150207, Q1 : 0.999819517136, Q2 : 0.0108094634488, Q3 : -0.0154539495707, Q4 : -0.00229288707487}
2019-04-14 18:44:24.81: SIM {TimeUS : 54234964, Roll : 1.81, Pitch : -2.64, Yaw : 359.7, Alt : 49.1300010681, Lat : 49.2835706, Lng : -123.1150206, Q1 : 0.999605536461, Q2 : 0.0157392639667, Q3 : -0.0231536012143, Q4 : -0.0022433209233}
2019-04-14 18:44:24.91: SIM {TimeUS : 54334924, Roll : 2.38, Pitch : -3.49, Yaw : 359.68, Alt : 49.1500015259, Lat : 49.2835707, Lng : -123.1150206, Q1 : 0.999317646027, Q2 : 0.0207182578743, Q3 : -0.0305040422827, Q4 : -0.00213157595135}
2019-04-14 18:44:25.01: SIM {TimeUS : 54434884, Roll : 2.86, Pitch : -4.18, Yaw : 359.67, Alt : 49.1699981689, Lat : 49.2835708, Lng : -123.1150204, Q1 : 0.999018132687, Q2 : 0.0248650182039, Q3 : -0.0366159565747, Q4 : -0.00195574667305}
2019-04-14 18:44:25.11: SIM {TimeUS : 54534844, Roll : 3.22, Pitch : -4.7, Yaw : 359.66, Alt : 49.1800003052, Lat : 49.2835709, Lng : -123.1150202, Q1 : 0.998763501644, Q2 : 0.027958534658, Q3 : -0.0410713553429, Q4 : -0.00172791921068}
2019-04-14 18:44:25.21: SIM {TimeUS : 54634804, Roll : 3.46, Pitch : -5.05, Yaw : 359.67, Alt : 49.1899986267, Lat : 49.2835713, Lng : -123.11502, Q1 : 0.998569369316, Q2 : 0.0300716068596, Q3 : -0.0441900268197, Q4 : -0.00148164632265}
2019-04-14 18:44:25.31: SIM {TimeUS : 54734764, Roll : 3.64, Pitch : -5.35, Yaw : 359.68, Alt : 49.2000007629, Lat : 49.2835715, Lng : -123.1150198, Q1 : 0.998403191566, Q2 : 0.0316682569683, Q3 : -0.0467625819147, Q4 : -0.00123382313177}
2019-04-14 18:44:25.41: SIM {TimeUS : 54834724, Roll : 3.84, Pitch : -5.64, Yaw : 359.69, Alt : 49.2099990845, Lat : 49.2835719, Lng : -123.1150194, Q1 : 0.998226046562, Q2 : 0.033345181495, Q3 : -0.0493151880801, Q4 : -0.000983301200904}
2019-04-14 18:44:25.51: SIM {TimeUS : 54934684, Roll : 4.07, Pitch : -5.95, Yaw : 359.7, Alt : 49.2200012207, Lat : 49.2835722, Lng : -123.1150189, Q1 : 0.998020589352, Q2 : 0.0353521853685, Q3 : -0.0520060174167, Q4 : -0.000728648679797}
2019-04-14 18:44:25.61: SIM {TimeUS : 55034644, Roll : 4.3, Pitch : -6.25, Yaw : 359.7, Alt : 49.2200012207, Lat : 49.2835727, Lng : -123.1150184, Q1 : 0.997810006142, Q2 : 0.0373447164893, Q3 : -0.0545925088227, Q4 : -0.000479872716824}
2019-04-14 18:44:25.71: SIM {TimeUS : 55134604, Roll : 4.49, Pitch : -6.51, Yaw : 359.71, Alt : 49.2299995422, Lat : 49.2835733, Lng : -123.1150178, Q1 : 0.997620582581, Q2 : 0.0390251427889, Q3 : -0.056834988296, Q4 : -0.000248480326263}
2019-04-14 18:44:25.81: SIM {TimeUS : 55235397, Roll : 4.62, Pitch : -6.72, Yaw : 359.72, Alt : 49.2400016785, Lat : 49.2835739, Lng : -123.1150172, Q1 : 0.997468829155, Q2 : 0.0401736199856, Q3 : -0.0586684979498, Q4 : -5.812276504e-05}
2019-04-14 18:44:25.91: SIM {TimeUS : 55335357, Roll : 4.72, Pitch : -6.86, Yaw : 359.72, Alt : 49.2400016785, Lat : 49.2835746, Lng : -123.1150165, Q1 : 0.997360885143, Q2 : 0.0409852601588, Q3 : -0.0599291026592, Q4 : 8.76094054547e-05}
2019-04-14 18:44:26.01: SIM {TimeUS : 55435317, Roll : 4.78, Pitch : -6.96, Yaw : 359.73, Alt : 49.25, Lat : 49.2835753, Lng : -123.1150157, Q1 : 0.997286915779, Q2 : 0.0415401346982, Q3 : -0.060771714896, Q4 : 0.0002007867879}
2019-04-14 18:44:26.11: SIM {TimeUS : 55535277, Roll : 4.84, Pitch : -7.06, Yaw : 359.73, Alt : 49.25, Lat : 49.2835762, Lng : -123.1150149, Q1 : 0.997212588787, Q2 : 0.0420173183084, Q3 : -0.0616565868258, Q4 : 0.000282847962808}
2019-04-14 18:44:26.21: SIM {TimeUS : 55635237, Roll : 4.96, Pitch : -7.18, Yaw : 359.73, Alt : 49.25, Lat : 49.283577, Lng : -123.1150139, Q1 : 0.997099339962, Q2 : 0.0431074239314, Q3 : -0.062725007534, Q4 : 0.000439038180048}
2019-04-14 18:44:26.31: SIM {TimeUS : 55735197, Roll : 5.35, Pitch : -7.25, Yaw : 359.97, Alt : 49.2599983215, Lat : 49.2835779, Lng : -123.115013, Q1 : 0.996906042099, Q2 : 0.046643089503, Q3 : -0.063210092485, Q4 : 0.00270649604499}
2019-04-14 18:44:26.41: SIM {TimeUS : 55835157, Roll : 6.0, Pitch : -7.28, Yaw : 1.04, Alt : 49.2599983215, Lat : 49.2835788, Lng : -123.115012, Q1 : 0.996538817883, Q2 : 0.0528607591987, Q3 : -0.0629474669695, Q4 : 0.0124018080533}
2019-04-14 18:44:26.51: SIM {TimeUS : 55935117, Roll : 6.58, Pitch : -7.48, Yaw : 3.56, Alt : 49.2599983215, Lat : 49.2835799, Lng : -123.1150109, Q1 : 0.995618462563, Q2 : 0.0593195222318, Q3 : -0.0633822232485, Q4 : 0.0347523987293}
2019-04-14 18:44:26.61: SIM {TimeUS : 56035077, Roll : 6.75, Pitch : -8.02, Yaw : 7.69, Alt : 49.2599983215, Lat : 49.2835808, Lng : -123.1150098, Q1 : 0.993288099766, Q2 : 0.0633697286248, Q3 : -0.065769508481, Q4 : 0.0709744393826}
2019-04-14 18:44:26.71: SIM {TimeUS : 56135037, Roll : 6.31, Pitch : -8.9, Yaw : 13.29, Alt : 49.2599983215, Lat : 49.2835819, Lng : -123.1150084, Q1 : 0.98828458786, Q2 : 0.0634938552976, Q3 : -0.0706275701523, Q4 : 0.119473062456}
2019-04-14 18:44:26.81: SIM {TimeUS : 56234997, Roll : 4.98, Pitch : -10.0, Yaw : 20.02, Alt : 49.2700004578, Lat : 49.2835831, Lng : -123.1150071, Q1 : 0.979437232018, Q2 : 0.0577752441168, Q3 : -0.0782334506512, Q4 : 0.176760464907}
2019-04-14 18:44:26.91: SIM {TimeUS : 56334957, Roll : 2.65, Pitch : -11.07, Yaw : 27.22, Alt : 49.2700004578, Lat : 49.2835843, Lng : -123.1150056, Q1 : 0.966599524021, Q2 : 0.0451422557235, Q3 : -0.0882935523987, Q4 : 0.236329913139}
2019-04-14 18:44:27.01: SIM {TimeUS : 56434917, Roll : -0.25, Pitch : -11.85, Yaw : 34.08, Alt : 49.2700004578, Lat : 49.2835855, Lng : -123.115004, Q1 : 0.951032996178, Q2 : 0.0281863249838, Q3 : -0.0993635132909, Q4 : 0.291322410107}
2019-04-14 18:44:27.11: SIM {TimeUS : 56534877, Roll : -3.08, Pitch : -12.28, Yaw : 39.9, Alt : 49.2700004578, Lat : 49.2835867, Lng : -123.1150024, Q1 : 0.935230374336, Q2 : 0.0112909404561, Q3 : -0.10966143012, Q4 : 0.336438775063}
2019-04-14 18:44:27.21: SIM {TimeUS : 56634837, Roll : -5.27, Pitch : -12.43, Yaw : 44.15, Alt : 49.2700004578, Lat : 49.2835881, Lng : -123.1150007, Q1 : 0.922127783298, Q2 : -0.001723584719, Q3 : -0.117417044938, Q4 : 0.36863347888}
2019-04-14 18:44:27.31: SIM {TimeUS : 56734797, Roll : -6.49, Pitch : -12.48, Yaw : 46.64, Alt : 49.2700004578, Lat : 49.2835897, Lng : -123.1149991, Q1 : 0.913804113865, Q2 : -0.00870640389621, Q3 : -0.121962107718, Q4 : 0.387313276529}
2019-04-14 18:44:27.41: SIM {TimeUS : 56834757, Roll : -6.74, Pitch : -12.59, Yaw : 47.5, Alt : 49.2700004578, Lat : 49.2835913, Lng : -123.1149974, Q1 : 0.910780847073, Q2 : -0.00940589699894, Q3 : -0.123799838126, Q4 : 0.393780887127}
2019-04-14 18:44:27.51: SIM {TimeUS : 56934717, Roll : -6.21, Pitch : -12.86, Yaw : 47.0, Alt : 49.2700004578, Lat : 49.2835929, Lng : -123.1149958, Q1 : 0.912346661091, Q2 : -0.0047970674932, Q3 : -0.124046042562, Q4 : 0.390145033598}
2019-04-14 18:44:27.61: SIM {TimeUS : 57034677, Roll : -5.12, Pitch : -13.31, Yaw : 45.46, Alt : 49.2700004578, Lat : 49.2835947, Lng : -123.1149941, Q1 : 0.917176544666, Q2 : 0.00381384929642, Q3 : -0.123934842646, Q4 : 0.378698825836}
2019-04-14 18:44:27.71: SIM {TimeUS : 57134637, Roll : -3.68, Pitch : -13.89, Yaw : 43.21, Alt : 49.2700004578, Lat : 49.2835966, Lng : -123.1149924, Q1 : 0.923871278763, Q2 : 0.0148110678419, Q3 : -0.124180532992, Q4 : 0.361692816019}
2019-04-14 18:44:27.81: SIM {TimeUS : 57234597, Roll : -2.12, Pitch : -14.5, Yaw : 40.53, Alt : 49.2700004578, Lat : 49.2835986, Lng : -123.1149906, Q1 : 0.931239843369, Q2 : 0.0264942739159, Q3 : -0.124753773212, Q4 : 0.341360360384}
2019-04-14 18:44:27.91: SIM {TimeUS : 57335390, Roll : -0.56, Pitch : -15.01, Yaw : 37.71, Alt : 49.2799987793, Lat : 49.2836007, Lng : -123.1149888, Q1 : 0.938396453857, Q2 : 0.0376461297274, Q3 : -0.125214770436, Q4 : 0.319868981838}
2019-04-14 18:44:28.01: SIM {TimeUS : 57435350, Roll : 0.81, Pitch : -15.36, Yaw : 35.12, Alt : 49.2799987793, Lat : 49.2836026, Lng : -123.1149869, Q1 : 0.944515168667, Q2 : 0.0470320358872, Q3 : -0.125324204564, Q4 : 0.299955040216}
2019-04-14 18:44:28.11: SIM {TimeUS : 57535310, Roll : 1.89, Pitch : -15.54, Yaw : 32.99, Alt : 49.2799987793, Lat : 49.2836049, Lng : -123.1149847, Q1 : 0.949265599251, Q2 : 0.0541069209576, Q3 : -0.124982148409, Q4 : 0.283454924822}
2019-04-14 18:44:28.21: SIM {TimeUS : 57635270, Roll : 2.6, Pitch : -15.59, Yaw : 31.47, Alt : 49.2799987793, Lat : 49.2836069, Lng : -123.1149827, Q1 : 0.952519953251, Q2 : 0.0584859885275, Q3 : -0.124442815781, Q4 : 0.271659940481}
2019-04-14 18:44:28.31: SIM {TimeUS : 57735230, Roll : 2.91, Pitch : -15.59, Yaw : 30.64, Alt : 49.2799987793, Lat : 49.2836092, Lng : -123.1149805, Q1 : 0.954309046268, Q2 : 0.060169428587, Q3 : -0.124109581113, Q4 : 0.265086263418}
2019-04-14 18:44:28.41: SIM {TimeUS : 57835190, Roll : 2.87, Pitch : -15.59, Yaw : 30.47, Alt : 49.2799987793, Lat : 49.2836115, Lng : -123.114978, Q1 : 0.954735577106, Q2 : 0.0596102029085, Q3 : -0.124313741922, Q4 : 0.263576716185}
2019-04-14 18:44:28.51: SIM {TimeUS : 57935150, Roll : 2.53, Pitch : -15.64, Yaw : 30.85, Alt : 49.2799987793, Lat : 49.2836138, Lng : -123.1149756, Q1 : 0.953956484795, Q2 : 0.0573057420552, Q3 : -0.125361815095, Q4 : 0.266397327185}
2019-04-14 18:44:28.61: SIM {TimeUS : 58035110, Roll : 1.96, Pitch : -15.75, Yaw : 31.66, Alt : 49.2799987793, Lat : 49.2836162, Lng : -123.1149731, Q1 : 0.952211141586, Q2 : 0.0537165552378, Q3 : -0.127210751176, Q4 : 0.272444397211}
2019-04-14 18:44:28.71: SIM {TimeUS : 58135070, Roll : 1.25, Pitch : -15.9, Yaw : 32.72, Alt : 49.2799987793, Lat : 49.2836184, Lng : -123.1149705, Q1 : 0.949789524078, Q2 : 0.0493500977755, Q3 : -0.129663750529, Q4 : 0.280449271202}
2019-04-14 18:44:28.81: SIM {TimeUS : 58235030, Roll : 0.5, Pitch : -16.03, Yaw : 33.89, Alt : 49.2799987793, Lat : 49.2836209, Lng : -123.1149679, Q1 : 0.947047710419, Q2 : 0.0448500402272, Q3 : -0.132108420134, Q4 : 0.289199829102}
2019-04-14 18:44:28.91: SIM {TimeUS : 58334990, Roll : -0.15, Pitch : -16.12, Yaw : 35.0, Alt : 49.2799987793, Lat : 49.2836233, Lng : -123.1149652, Q1 : 0.944316864014, Q2 : 0.0409075431526, Q3 : -0.134203508496, Q4 : 0.297626823187}
2019-04-14 18:44:29.01: SIM {TimeUS : 58434950, Roll : -0.7, Pitch : -16.19, Yaw : 35.96, Alt : 49.2799987793, Lat : 49.283626, Lng : -123.1149624, Q1 : 0.941904902458, Q2 : 0.0376922152936, Q3 : -0.135899558663, Q4 : 0.304837346077}
2019-04-14 18:44:29.11: SIM {TimeUS : 58534910, Roll : -1.07, Pitch : -16.25, Yaw : 36.68, Alt : 49.2799987793, Lat : 49.2836285, Lng : -123.1149596, Q1 : 0.940031647682, Q2 : 0.0356358103454, Q3 : -0.1371011585, Q4 : 0.310280442238}
2019-04-14 18:44:29.21: SIM {TimeUS : 58634870, Roll : -1.24, Pitch : -16.27, Yaw : 37.12, Alt : 49.2799987793, Lat : 49.2836311, Lng : -123.1149567, Q1 : 0.938860476017, Q2 : 0.0348330065608, Q3 : -0.137567356229, Q4 : 0.313692420721}
2019-04-14 18:44:29.31: SIM {TimeUS : 58734830, Roll : -1.24, Pitch : -16.27, Yaw : 37.29, Alt : 49.2799987793, Lat : 49.2836337, Lng : -123.114954, Q1 : 0.938393950462, Q2 : 0.0350656732917, Q3 : -0.137594848871, Q4 : 0.315047502518}
2019-04-14 18:44:29.41: SIM {TimeUS : 58834790, Roll : -1.12, Pitch : -16.31, Yaw : 37.21, Alt : 49.2799987793, Lat : 49.2836365, Lng : -123.1149511, Q1 : 0.938534021378, Q2 : 0.0360721051693, Q3 : -0.137558862567, Q4 : 0.31453192234}
2019-04-14 18:44:29.51: SIM {TimeUS : 58934750, Roll : -0.9, Pitch : -16.37, Yaw : 36.94, Alt : 49.2799987793, Lat : 49.2836393, Lng : -123.1149482, Q1 : 0.939147949219, Q2 : 0.037667915225, Q3 : -0.137525722384, Q4 : 0.312520384789}
2019-04-14 18:44:29.61: SIM {TimeUS : 59034710, Roll : -0.63, Pitch : -16.44, Yaw : 36.53, Alt : 49.2799987793, Lat : 49.283642, Lng : -123.1149452, Q1 : 0.940067946911, Q2 : 0.0396315529943, Q3 : -0.137564972043, Q4 : 0.309479415417}
2019-04-14 18:44:29.71: SIM {TimeUS : 59134670, Roll : -0.34, Pitch : -16.51, Yaw : 36.06, Alt : 49.2799987793, Lat : 49.2836448, Lng : -123.1149423, Q1 : 0.941152334213, Q2 : 0.0416208691895, Q3 : -0.137532904744, Q4 : 0.30591621995}
2019-04-14 18:44:29.81: SIM {TimeUS : 59234630, Roll : -0.06, Pitch : -16.57, Yaw : 35.58, Alt : 49.2900009155, Lat : 49.2836476, Lng : -123.1149393, Q1 : 0.942242443562, Q2 : 0.0435266308486, Q3 : -0.137439712882, Q4 : 0.302316069603}
2019-04-14 18:44:29.91: SIM {TimeUS : 59334590, Roll : 0.18, Pitch : -16.62, Yaw : 35.15, Alt : 49.2900009155, Lat : 49.2836505, Lng : -123.1149362, Q1 : 0.943215668201, Q2 : 0.0451805107296, Q3 : -0.137338846922, Q4 : 0.299066781998}
2019-04-14 18:44:30.01: SIM {TimeUS : 59435383, Roll : 0.37, Pitch : -16.66, Yaw : 34.81, Alt : 49.2900009155, Lat : 49.2836534, Lng : -123.114933, Q1 : 0.943989753723, Q2 : 0.0464574433863, Q3 : -0.137307405472, Q4 : 0.296431720257}
2019-04-14 18:44:30.11: SIM {TimeUS : 59535343, Roll : 0.51, Pitch : -16.69, Yaw : 34.57, Alt : 49.2900009155, Lat : 49.2836564, Lng : -123.11493, Q1 : 0.944511592388, Q2 : 0.0473471656442, Q3 : -0.137282252312, Q4 : 0.294634789228}
2019-04-14 18:44:30.21: SIM {TimeUS : 59635303, Roll : 0.56, Pitch : -16.71, Yaw : 34.44, Alt : 49.2900009155, Lat : 49.2836592, Lng : -123.1149269, Q1 : 0.94478136301, Q2 : 0.047723878175, Q3 : -0.137377858162, Q4 : 0.293663024902}
2019-04-14 18:44:30.31: SIM {TimeUS : 59735263, Roll : 0.55, Pitch : -16.73, Yaw : 34.43, Alt : 49.2900009155, Lat : 49.2836622, Lng : -123.1149237, Q1 : 0.9448158741, Q2 : 0.0476572103798, Q3 : -0.137545391917, Q4 : 0.293484300375}
2019-04-14 18:44:30.41: SIM {TimeUS : 59835223, Roll : 0.49, Pitch : -16.75, Yaw : 34.49, Alt : 49.2900009155, Lat : 49.2836651, Lng : -123.1149205, Q1 : 0.944634914398, Q2 : 0.0472831390798, Q3 : -0.137884363532, Q4 : 0.293967813253}
2019-04-14 18:44:30.51: SIM {TimeUS : 59935183, Roll : 0.39, Pitch : -16.79, Yaw : 34.63, Alt : 49.2900009155, Lat : 49.2836682, Lng : -123.1149172, Q1 : 0.944283604622, Q2 : 0.046728938818, Q3 : -0.138444334269, Q4 : 0.294920355082}
2019-04-14 18:44:30.61: SIM {TimeUS : 60035143, Roll : 0.26, Pitch : -16.84, Yaw : 34.8, Alt : 49.2900009155, Lat : 49.2836712, Lng : -123.1149139, Q1 : 0.943840026855, Q2 : 0.0459804199636, Q3 : -0.139119952917, Q4 : 0.296137571335}
2019-04-14 18:44:30.71: SIM {TimeUS : 60135103, Roll : 0.11, Pitch : -16.89, Yaw : 34.98, Alt : 49.2900009155, Lat : 49.2836743, Lng : -123.1149107, Q1 : 0.943376421928, Q2 : 0.0450712293386, Q3 : -0.139809846878, Q4 : 0.297426909208}
2019-04-14 18:44:30.81: SIM {TimeUS : 60235063, Roll : -0.03, Pitch : -16.92, Yaw : 35.15, Alt : 49.2900009155, Lat : 49.2836773, Lng : -123.1149073, Q1 : 0.942954182625, Q2 : 0.0441642738879, Q3 : -0.140368282795, Q4 : 0.29863640666}
2019-04-14 18:44:30.91: SIM {TimeUS : 60335023, Roll : -0.15, Pitch : -16.95, Yaw : 35.28, Alt : 49.2900009155, Lat : 49.2836803, Lng : -123.114904, Q1 : 0.942602455616, Q2 : 0.0434426777065, Q3 : -0.140866205096, Q4 : 0.299616515636}
2019-04-14 18:44:31.01: SIM {TimeUS : 60434983, Roll : -0.21, Pitch : -16.99, Yaw : 35.38, Alt : 49.2999992371, Lat : 49.2836834, Lng : -123.1149006, Q1 : 0.942324280739, Q2 : 0.0431304983795, Q3 : -0.141367018223, Q4 : 0.300299972296}
2019-04-14 18:44:31.11: SIM {TimeUS : 60534943, Roll : -0.24, Pitch : -17.04, Yaw : 35.43, Alt : 49.2999992371, Lat : 49.2836865, Lng : -123.1148973, Q1 : 0.942151963711, Q2 : 0.0430957451463, Q3 : -0.141794800758, Q4 : 0.300643712282}
2019-04-14 18:44:31.21: SIM {TimeUS : 60634903, Roll : -0.21, Pitch : -17.09, Yaw : 35.43, Alt : 49.2999992371, Lat : 49.2836896, Lng : -123.1148939, Q1 : 0.942080318928, Q2 : 0.0434168502688, Q3 : -0.142138510942, Q4 : 0.300659924746}
2019-04-14 18:44:31.31: SIM {TimeUS : 60734863, Roll : -0.15, Pitch : -17.14, Yaw : 35.39, Alt : 49.2999992371, Lat : 49.2836929, Lng : -123.1148905, Q1 : 0.942101418972, Q2 : 0.0439976379275, Q3 : -0.142382413149, Q4 : 0.300393760204}
2019-04-14 18:44:31.41: SIM {TimeUS : 60834823, Roll : -0.08, Pitch : -17.17, Yaw : 35.32, Alt : 49.2999992371, Lat : 49.283696, Lng : -123.1148871, Q1 : 0.942214131355, Q2 : 0.044583119452, Q3 : -0.14251871407, Q4 : 0.299888789654}
2019-04-14 18:44:31.51: SIM {TimeUS : 60934783, Roll : -0.02, Pitch : -17.2, Yaw : 35.23, Alt : 49.2999992371, Lat : 49.2836992, Lng : -123.1148836, Q1 : 0.942393004894, Q2 : 0.0450451076031, Q3 : -0.142612040043, Q4 : 0.299212664366}
2019-04-14 18:44:31.61: SIM {TimeUS : 61034743, Roll : 0.01, Pitch : -17.21, Yaw : 35.13, Alt : 49.2999992371, Lat : 49.2837023, Lng : -123.1148801, Q1 : 0.942622125149, Q2 : 0.0452841594815, Q3 : -0.142637565732, Q4 : 0.298441708088}
2019-04-14 18:44:31.71: SIM {TimeUS : 61134703, Roll : 0.05, Pitch : -17.21, Yaw : 35.03, Alt : 49.2999992371, Lat : 49.2837056, Lng : -123.1148767, Q1 : 0.942861378193, Q2 : 0.0455218814313, Q3 : -0.142534941435, Q4 : 0.297697842121}
2019-04-14 18:44:31.81: SIM {TimeUS : 61234663, Roll : 0.1, Pitch : -17.2, Yaw : 34.95, Alt : 49.2999992371, Lat : 49.2837088, Lng : -123.1148732, Q1 : 0.94307076931, Q2 : 0.0457616336644, Q3 : -0.14244531095, Q4 : 0.297039985657}
2019-04-14 18:44:31.91: SIM {TimeUS : 61334623, Roll : 0.15, Pitch : -17.23, Yaw : 34.87, Alt : 49.3100013733, Lat : 49.283712, Lng : -123.1148697, Q1 : 0.943196356297, Q2 : 0.0461703576148, Q3 : -0.142584472895, Q4 : 0.296510785818}
2019-04-14 18:44:32.01: SIM {TimeUS : 61434583, Roll : 0.19, Pitch : -17.29, Yaw : 34.82, Alt : 49.3100013733, Lat : 49.2837153, Lng : -123.1148662, Q1 : 0.94324606657, Q2 : 0.0466309823096, Q3 : -0.142912939191, Q4 : 0.296122193336}
2019-04-14 18:44:32.11: SIM {TimeUS : 61535376, Roll : 0.22, Pitch : -17.32, Yaw : 34.79, Alt : 49.3100013733, Lat : 49.2837186, Lng : -123.1148627, Q1 : 0.943283081055, Q2 : 0.0468479990959, Q3 : -0.143117502332, Q4 : 0.295871049166}
2019-04-14 18:44:32.21: SIM {TimeUS : 61635336, Roll : 0.22, Pitch : -17.31, Yaw : 34.78, Alt : 49.3100013733, Lat : 49.2837217, Lng : -123.1148592, Q1 : 0.94331818819, Q2 : 0.0468505956233, Q3 : -0.143104612827, Q4 : 0.295765072107}
2019-04-14 18:44:32.31: SIM {TimeUS : 61735296, Roll : 0.21, Pitch : -17.32, Yaw : 34.78, Alt : 49.3100013733, Lat : 49.2837251, Lng : -123.1148556, Q1 : 0.943306446075, Q2 : 0.0468120649457, Q3 : -0.143197134137, Q4 : 0.2957637012}
2019-04-14 18:44:32.41: SIM {TimeUS : 61835256, Roll : 0.18, Pitch : -17.35, Yaw : 34.79, Alt : 49.3100013733, Lat : 49.2837284, Lng : -123.1148521, Q1 : 0.943256258965, Q2 : 0.0466123707592, Q3 : -0.143510252237, Q4 : 0.295803457499}
2019-04-14 18:44:32.51: SIM {TimeUS : 61935216, Roll : 0.14, Pitch : -17.38, Yaw : 34.81, Alt : 49.3100013733, Lat : 49.2837317, Lng : -123.1148485, Q1 : 0.943182826042, Q2 : 0.0464468486607, Q3 : -0.143836736679, Q4 : 0.295905023813}
2019-04-14 18:44:32.61: SIM {TimeUS : 62035176, Roll : 0.11, Pitch : -17.41, Yaw : 34.83, Alt : 49.3100013733, Lat : 49.283735, Lng : -123.1148449, Q1 : 0.943106234074, Q2 : 0.0462969690561, Q3 : -0.144160121679, Q4 : 0.296015411615}
2019-04-14 18:44:32.71: SIM {TimeUS : 62135136, Roll : 0.09, Pitch : -17.44, Yaw : 34.84, Alt : 49.3100013733, Lat : 49.2837382, Lng : -123.1148413, Q1 : 0.943044960499, Q2 : 0.0461869500577, Q3 : -0.144409358501, Q4 : 0.296106249094}
2019-04-14 18:44:32.81: SIM {TimeUS : 62235096, Roll : 0.09, Pitch : -17.46, Yaw : 34.85, Alt : 49.3100013733, Lat : 49.2837416, Lng : -123.1148377, Q1 : 0.942987918854, Q2 : 0.046237103641, Q3 : -0.144610270858, Q4 : 0.296181946993}
2019-04-14 18:44:32.91: SIM {TimeUS : 62335056, Roll : 0.09, Pitch : -17.47, Yaw : 34.86, Alt : 49.3100013733, Lat : 49.2837448, Lng : -123.1148341, Q1 : 0.942958295345, Q2 : 0.0463249124587, Q3 : -0.144713953137, Q4 : 0.296212106943}
2019-04-14 18:44:33.01: SIM {TimeUS : 62435016, Roll : 0.11, Pitch : -17.49, Yaw : 34.85, Alt : 49.3100013733, Lat : 49.2837483, Lng : -123.1148305, Q1 : 0.942942321301, Q2 : 0.0464921593666, Q3 : -0.144818723202, Q4 : 0.296185493469}
2019-04-14 18:44:33.11: SIM {TimeUS : 62534976, Roll : 0.13, Pitch : -17.52, Yaw : 34.84, Alt : 49.3199996948, Lat : 49.2837515, Lng : -123.1148269, Q1 : 0.942930519581, Q2 : 0.0467271991074, Q3 : -0.145014882088, Q4 : 0.296089977026}
2019-04-14 18:44:33.21: SIM {TimeUS : 62634936, Roll : 0.14, Pitch : -17.56, Yaw : 34.82, Alt : 49.3199996948, Lat : 49.283755, Lng : -123.1148233, Q1 : 0.942927956581, Q2 : 0.0468832328916, Q3 : -0.145352676511, Q4 : 0.295907855034}
2019-04-14 18:44:33.31: SIM {TimeUS : 62734896, Roll : 0.12, Pitch : -17.61, Yaw : 34.79, Alt : 49.3199996948, Lat : 49.2837583, Lng : -123.1148196, Q1 : 0.94294244051, Q2 : 0.0468470975757, Q3 : -0.145768582821, Q4 : 0.295662730932}
2019-04-14 18:44:33.41: SIM {TimeUS : 62834856, Roll : 0.12, Pitch : -17.65, Yaw : 34.76, Alt : 49.3199996948, Lat : 49.2837617, Lng : -123.114816, Q1 : 0.942963719368, Q2 : 0.0468653105199, Q3 : -0.146153360605, Q4 : 0.2954018116}
2019-04-14 18:44:33.51: SIM {TimeUS : 62934816, Roll : 0.14, Pitch : -17.68, Yaw : 34.73, Alt : 49.3199996948, Lat : 49.283765, Lng : -123.1148123, Q1 : 0.942996025085, Q2 : 0.0470600761473, Q3 : -0.146357432008, Q4 : 0.295166730881}
2019-04-14 18:44:33.61: SIM {TimeUS : 63034776, Roll : 0.16, Pitch : -17.68, Yaw : 34.71, Alt : 49.3199996948, Lat : 49.2837685, Lng : -123.1148086, Q1 : 0.943057835102, Q2 : 0.0472235754132, Q3 : -0.1463008672, Q4 : 0.294971048832}
2019-04-14 18:44:33.71: SIM {TimeUS : 63134736, Roll : 0.18, Pitch : -17.66, Yaw : 34.68, Alt : 49.3199996948, Lat : 49.2837719, Lng : -123.114805, Q1 : 0.943142175674, Q2 : 0.0473281107843, Q3 : -0.146055817604, Q4 : 0.294806063175}
2019-04-14 18:44:33.81: SIM {TimeUS : 63234696, Roll : 0.19, Pitch : -17.64, Yaw : 34.66, Alt : 49.3199996948, Lat : 49.2837752, Lng : -123.1148013, Q1 : 0.94322347641, Q2 : 0.0472648143768, Q3 : -0.145898774266, Q4 : 0.294633805752}
2019-04-14 18:44:33.91: SIM {TimeUS : 63334656, Roll : 0.19, Pitch : -17.63, Yaw : 34.64, Alt : 49.3199996948, Lat : 49.2837787, Lng : -123.1147976, Q1 : 0.943285107613, Q2 : 0.0472041070461, Q3 : -0.145838364959, Q4 : 0.294476062059}
2019-04-14 18:44:34.01: SIM {TimeUS : 63434616, Roll : 0.19, Pitch : -17.62, Yaw : 34.62, Alt : 49.3199996948, Lat : 49.283782, Lng : -123.1147939, Q1 : 0.943338215351, Q2 : 0.0471635647118, Q3 : -0.14577537775, Q4 : 0.294343590736}
2019-04-14 18:44:34.11: SIM {TimeUS : 63534576, Roll : 0.18, Pitch : -17.64, Yaw : 34.61, Alt : 49.3199996948, Lat : 49.2837855, Lng : -123.1147901, Q1 : 0.943354010582, Q2 : 0.0471357256174, Q3 : -0.145949110389, Q4 : 0.29421132803}
2019-04-14 18:44:34.21: SIM {TimeUS : 63635369, Roll : 0.17, Pitch : -17.67, Yaw : 34.6, Alt : 49.3199996948, Lat : 49.283789, Lng : -123.1147864, Q1 : 0.943342924118, Q2 : 0.0471332520247, Q3 : -0.146260350943, Q4 : 0.294092655182}
2019-04-14 18:44:34.31: SIM {TimeUS : 63735329, Roll : 0.15, Pitch : -17.72, Yaw : 34.59, Alt : 49.3199996948, Lat : 49.2837924, Lng : -123.1147827, Q1 : 0.943308949471, Q2 : 0.0470615699887, Q3 : -0.14673641324, Q4 : 0.293975949287}
2019-04-14 18:44:34.41: SIM {TimeUS : 63835289, Roll : 0.14, Pitch : -17.78, Yaw : 34.58, Alt : 49.3199996948, Lat : 49.2837959, Lng : -123.114779, Q1 : 0.943258047104, Q2 : 0.0471147708595, Q3 : -0.147237449884, Q4 : 0.293880343437}
2019-04-14 18:44:34.51: SIM {TimeUS : 63935249, Roll : 0.14, Pitch : -17.81, Yaw : 34.58, Alt : 49.3300018311, Lat : 49.2837994, Lng : -123.1147752, Q1 : 0.943232357502, Q2 : 0.0472148954868, Q3 : -0.147500827909, Q4 : 0.293814539909}
2019-04-14 18:44:34.61: SIM {TimeUS : 64035209, Roll : 0.14, Pitch : -17.84, Yaw : 34.57, Alt : 49.3300018311, Lat : 49.2838027, Lng : -123.1147715, Q1 : 0.943217098713, Q2 : 0.0472729466856, Q3 : -0.147724419832, Q4 : 0.293741941452}
2019-04-14 18:44:34.71: SIM {TimeUS : 64135169, Roll : 0.14, Pitch : -17.85, Yaw : 34.56, Alt : 49.3300018311, Lat : 49.2838062, Lng : -123.1147678, Q1 : 0.943223357201, Q2 : 0.0472675710917, Q3 : -0.147844612598, Q4 : 0.293662309647}
2019-04-14 18:44:34.81: SIM {TimeUS : 64235129, Roll : 0.15, Pitch : -17.84, Yaw : 34.55, Alt : 49.3300018311, Lat : 49.2838097, Lng : -123.114764, Q1 : 0.943258047104, Q2 : 0.0473397560418, Q3 : -0.14769077301, Q4 : 0.293616592884}
2019-04-14 18:44:34.91: SIM {TimeUS : 64335089, Roll : 0.17, Pitch : -17.85, Yaw : 34.54, Alt : 49.3300018311, Lat : 49.2838132, Lng : -123.1147603, Q1 : 0.943265020847, Q2 : 0.0475428514183, Q3 : -0.147685319185, Q4 : 0.293563991785}
2019-04-14 18:44:35.01: SIM {TimeUS : 64435049, Roll : 0.18, Pitch : -17.87, Yaw : 34.53, Alt : 49.3300018311, Lat : 49.2838166, Lng : -123.1147565, Q1 : 0.943260073662, Q2 : 0.0476631075144, Q3 : -0.147848203778, Q4 : 0.293478429317}
2019-04-14 18:44:35.11: SIM {TimeUS : 64535009, Roll : 0.18, Pitch : -17.88, Yaw : 34.52, Alt : 49.3300018311, Lat : 49.2838202, Lng : -123.1147528, Q1 : 0.943266510963, Q2 : 0.0476982668042, Q3 : -0.147991687059, Q4 : 0.293379753828}
2019-04-14 18:44:35.21: SIM {TimeUS : 64634969, Roll : 0.19, Pitch : -17.88, Yaw : 34.51, Alt : 49.3300018311, Lat : 49.2838237, Lng : -123.114749, Q1 : 0.943300962448, Q2 : 0.0477085746825, Q3 : -0.147982522845, Q4 : 0.293271809816}
2019-04-14 18:44:35.31: SIM {TimeUS : 64734929, Roll : 0.19, Pitch : -17.89, Yaw : 34.49, Alt : 49.3300018311, Lat : 49.2838272, Lng : -123.1147451, Q1 : 0.943335473537, Q2 : 0.0476928092539, Q3 : -0.148002117872, Q4 : 0.293153434992}
2019-04-14 18:44:35.41: SIM {TimeUS : 64834889, Roll : 0.18, Pitch : -17.9, Yaw : 34.48, Alt : 49.3300018311, Lat : 49.2838305, Lng : -123.1147414, Q1 : 0.943354845047, Q2 : 0.0476262904704, Q3 : -0.148185878992, Q4 : 0.293009072542}
2019-04-14 18:44:35.51: SIM {TimeUS : 64934849, Roll : 0.15, Pitch : -17.94, Yaw : 34.46, Alt : 49.3300018311, Lat : 49.2838341, Lng : -123.1147377, Q1 : 0.943360090256, Q2 : 0.0475044585764, Q3 : -0.148534432054, Q4 : 0.292835503817}
2019-04-14 18:44:35.61: SIM {TimeUS : 65034809, Roll : 0.14, Pitch : -17.94, Yaw : 34.44, Alt : 49.3300018311, Lat : 49.2838377, Lng : -123.1147339, Q1 : 0.943397283554, Q2 : 0.0473947636783, Q3 : -0.14862164855, Q4 : 0.292689144611}
2019-04-14 18:44:35.71: SIM {TimeUS : 65134769, Roll : 0.15, Pitch : -17.93, Yaw : 34.43, Alt : 49.3300018311, Lat : 49.2838412, Lng : -123.1147301, Q1 : 0.943446278572, Q2 : 0.0474242642522, Q3 : -0.148513630033, Q4 : 0.2925812006}
2019-04-14 18:44:35.81: SIM {TimeUS : 65234729, Roll : 0.17, Pitch : -17.92, Yaw : 34.41, Alt : 49.3300018311, Lat : 49.2838446, Lng : -123.1147263, Q1 : 0.943485498428, Q2 : 0.0475849844515, Q3 : -0.14838822186, Q4 : 0.292492389679}
2019-04-14 18:44:35.91: SIM {TimeUS : 65334689, Roll : 0.19, Pitch : -17.93, Yaw : 34.4, Alt : 49.3300018311, Lat : 49.2838481, Lng : -123.1147225, Q1 : 0.94351130724, Q2 : 0.0476943105459, Q3 : -0.148403555155, Q4 : 0.292383342981}
2019-04-14 18:44:36.01: SIM {TimeUS : 65434649, Roll : 0.18, Pitch : -17.95, Yaw : 34.39, Alt : 49.3400001526, Lat : 49.2838517, Lng : -123.1147187, Q1 : 0.943525969982, Q2 : 0.047650385648, Q3 : -0.148573800921, Q4 : 0.292256861925}
2019-04-14 18:44:36.11: SIM {TimeUS : 65534609, Roll : 0.16, Pitch : -17.97, Yaw : 34.37, Alt : 49.3400001526, Lat : 49.2838553, Lng : -123.1147149, Q1 : 0.943536877632, Q2 : 0.0475262254477, Q3 : -0.148796871305, Q4 : 0.292128294706}
2019-04-14 18:44:36.21: SIM {TimeUS : 65635402, Roll : 0.15, Pitch : -17.99, Yaw : 34.36, Alt : 49.3400001526, Lat : 49.2838588, Lng : -123.1147111, Q1 : 0.943539917469, Q2 : 0.0474683381617, Q3 : -0.149012863636, Q4 : 0.292017668486}
2019-04-14 18:44:36.31: SIM {TimeUS : 65735362, Roll : 0.16, Pitch : -18.01, Yaw : 34.35, Alt : 49.3400001526, Lat : 49.2838623, Lng : -123.1147073, Q1 : 0.943538784981, Q2 : 0.047559581697, Q3 : -0.149145826697, Q4 : 0.291938692331}
2019-04-14 18:44:36.41: SIM {TimeUS : 65835322, Roll : 0.17, Pitch : -18.02, Yaw : 34.35, Alt : 49.3400001526, Lat : 49.2838658, Lng : -123.1147035, Q1 : 0.943540990353, Q2 : 0.0476664192975, Q3 : -0.149223297834, Q4 : 0.291874587536}
2019-04-14 18:44:36.51: SIM {TimeUS : 65935282, Roll : 0.19, Pitch : -18.03, Yaw : 34.34, Alt : 49.3400001526, Lat : 49.2838694, Lng : -123.1146996, Q1 : 0.943527340889, Q2 : 0.0478804819286, Q3 : -0.149291932583, Q4 : 0.291848540306}
2019-04-14 18:44:36.61: SIM {TimeUS : 66035242, Roll : 0.2, Pitch : -18.06, Yaw : 34.33, Alt : 49.3400001526, Lat : 49.283873, Lng : -123.1146958, Q1 : 0.943504989147, Q2 : 0.0480082519352, Q3 : -0.149462401867, Q4 : 0.291812568903}
2019-04-14 18:44:36.71: SIM {TimeUS : 66135202, Roll : 0.21, Pitch : -18.08, Yaw : 34.33, Alt : 49.3400001526, Lat : 49.2838765, Lng : -123.114692, Q1 : 0.943481981754, Q2 : 0.0481401197612, Q3 : -0.149632439017, Q4 : 0.291777938604}
2019-04-14 18:44:36.81: SIM {TimeUS : 66235162, Roll : 0.22, Pitch : -18.1, Yaw : 34.33, Alt : 49.3400001526, Lat : 49.2838801, Lng : -123.1146882, Q1 : 0.943471193314, Q2 : 0.0482684262097, Q3 : -0.149725049734, Q4 : 0.291744172573}
2019-04-14 18:44:36.91: SIM {TimeUS : 66335122, Roll : 0.24, Pitch : -18.1, Yaw : 34.32, Alt : 49.3400001526, Lat : 49.2838835, Lng : -123.1146843, Q1 : 0.943466603756, Q2 : 0.0484602116048, Q3 : -0.149726822972, Q4 : 0.291726320982}
2019-04-14 18:44:37.01: SIM {TimeUS : 66435082, Roll : 0.27, Pitch : -18.11, Yaw : 34.31, Alt : 49.3400001526, Lat : 49.2838871, Lng : -123.1146805, Q1 : 0.943458259106, Q2 : 0.0487199015915, Q3 : -0.149709448218, Q4 : 0.291719049215}
2019-04-14 18:44:37.11: SIM {TimeUS : 66535042, Roll : 0.27, Pitch : -18.11, Yaw : 34.31, Alt : 49.3400001526, Lat : 49.2838907, Lng : -123.1146767, Q1 : 0.943476676941, Q2 : 0.0486685447395, Q3 : -0.149689123034, Q4 : 0.29167842865}
