2019-04-14 18:10:46.90: SIM {TimeUS : 40716207, Roll : 0.0, Pitch : 0.0, Yaw : 0.0, Alt : 30.1000003815, Lat : 49.28357, Lng : -123.11502, Q1 : 1.0, Q2 : 0.0, Q3 : 0.0, Q4 : 0.0}
2019-04-14 18:10:47.01: SIM {TimeUS : 40835326, Roll : 0.0, Pitch : 0.0, Yaw : 0.0, Alt : 30.1000003815, Lat : 49.28357, Lng : -123.11502, Q1 : 1.0, Q2 : 0.0, Q3 : 0.0, Q4 : 0.0}
2019-04-14 18:10:47.11: SIM {TimeUS : 40935286, Roll : 0.0, Pitch : 0.0, Yaw : 0.0, Alt : 30.1000003815, Lat : 49.28357, Lng : -123.11502, Q1 : 1.0, Q2 : 0.0, Q3 : 0.0, Q4 : 0.0}
2019-04-14 18:10:47.21: SIM {TimeUS : 41035246, Roll : 0.0, Pitch : 0.0, Yaw : 0.0, Alt : 30.1000003815, Lat : 49.28357, Lng : -123.11502, Q1 : 1.0, Q2 : 0.0, Q3 : 0.0, Q4 : 0.0}
2019-04-14 18:10:47.31: SIM {TimeUS : 41135206, Roll : 0.0, Pitch : 0.0, Yaw : 0.0, Alt : 30.1000003815, Lat : 49.28357, Lng : -123.11502, Q1 : 1.0, Q2 : 0.0, Q3 : 0.0, Q4 : 0.0}
2019-04-14 18:10:47.41: SIM {TimeUS : 41235166, Roll : 0.0, Pitch : 0.0, Yaw : 0.0, Alt : 30.1000003815, Lat : 49.28357, Lng : -123.11502, Q1 : 1.0, Q2 : 0.0, Q3 : 0.0, Q4 : 0.0}
2019-04-14 18:10:47.51: SIM {TimeUS : 41335126, Roll : 0.0, Pitch : 0.0, Yaw : 0.0, Alt : 30.1000003815, Lat : 49.28357, Lng : -123.11502, Q1 : 1.0, Q2 : 0.0, Q3 : 0.0, Q4 : 0.0}
2019-04-14 18:10:47.61: SIM {TimeUS : 41435086, Roll : 0.0, Pitch : 0.0, Yaw : 0.0, Alt : 30.1000003815, Lat : 49.28357, Lng : -123.11502, Q1 : 1.0, Q2 : 0.0, Q3 : 0.0, Q4 : 0.0}
2019-04-14 18:10:47.71: SIM {TimeUS : 41535046, Roll : 0.0, Pitch : 0.0, Yaw : 0.0, Alt : 30.1000003815, Lat : 49.28357, Lng : -123.11502, Q1 : 1.0, Q2 : 0.0, Q3 : 0.0, Q4 : 0.0}
2019-04-14 18:10:47.81: SIM {TimeUS : 41635006, Roll : 0.0, Pitch : 0.0, Yaw : 0.0, Alt : 30.1000003815, Lat : 49.28357, Lng : -123.11502, Q1 : 1.0, Q2 : 0.0, Q3 : 0.0, Q4 : 0.0}
2019-04-14 18:10:47.91: SIM {TimeUS : 41734966, Roll : 0.0, Pitch : 0.0, Yaw : 0.0, Alt : 30.1000003815, Lat : 49.28357, Lng : -123.11502, Q1 : 1.0, Q2 : 0.0, Q3 : 0.0, Q4 : 0.0}
2019-04-14 18:10:48.01: SIM {TimeUS : 41834926, Roll : 0.0, Pitch : 0.0, Yaw : 0.0, Alt : 30.1000003815, Lat : 49.28357, Lng : -123.11502, Q1 : 1.0, Q2 : 0.0, Q3 : 0.0, Q4 : 0.0}
2019-04-14 18:10:48.11: SIM {TimeUS : 41934886, Roll : 0.0, Pitch : 0.0, Yaw : 0.0, Alt : 30.1000003815, Lat : 49.28357, Lng : -123.11502, Q1 : 1.0, Q2 : 0.0, Q3 : 0.0, Q4 : 0.0}
2019-04-14 18:10:48.21: SIM {TimeUS : 42034846, Roll : 0.0, Pitch : 0.0, Yaw : 0.0, Alt : 30.1000003815, Lat : 49.28357, Lng : -123.11502, Q1 : 1.0, Q2 : 0.0, Q3 : 0.0, Q4 : 0.0}
2019-04-14 18:10:48.31: SIM {TimeUS : 42134806, Roll : 0.0, Pitch : 0.0, Yaw : 0.0, Alt : 30.1000003815, Lat : 49.28357, Lng : -123.11502, Q1 : 1.0, Q2 : 0.0, Q3 : 0.0, Q4 : 0.0}
2019-04-14 18:10:48.41: SIM {TimeUS : 42234766, Roll : 0.0, Pitch : 0.0, Yaw : 0.0, Alt : 30.1000003815, Lat : 49.28357, Lng : -123.11502, Q1 : 1.0, Q2 : 0.0, Q3 : 0.0, Q4 : 0.0}
2019-04-14 18:10:48.51: SIM {TimeUS : 42334726, Roll : 0.0, Pitch : 0.0, Yaw : 0.0, Alt : 30.1000003815, Lat : 49.28357, Lng : -123.11502, Q1 : 1.0, Q2 : 0.0, Q3 : 0.0, Q4 : 0.0}
2019-04-14 18:10:48.61: SIM {TimeUS : 42434686, Roll : 0.0, Pitch : 0.0, Yaw : 0.0, Alt : 30.1000003815, Lat : 49.28357, Lng : -123.11502, Q1 : 1.0, Q2 : 0.0, Q3 : 0.0, Q4 : 0.0}
2019-04-14 18:10:48.71: SIM {TimeUS : 42534646, Roll : 0.0, Pitch : 0.0, Yaw : 0.0, Alt : 30.1000003815, Lat : 49.28357, Lng : -123.11502, Q1 : 1.0, Q2 : 0.0, Q3 : 0.0, Q4 : 0.0}
2019-04-14 18:10:48.81: SIM {TimeUS : 42634606, Roll : 0.0, Pitch : 0.0, Yaw : 0.0, Alt : 30.1000003815, Lat : 49.28357, Lng : -123.11502, Q1 : 1.0, Q2 : 0.0, Q3 : 0.0, Q4 : 0.0}
2019-04-14 18:10:48.91: SIM {TimeUS : 42734566, Roll : 0.0, Pitch : 0.0, Yaw : 0.0, Alt : 30.1000003815, Lat : 49.28357, Lng : -123.11502, Q1 : 1.0, Q2 : 0.0, Q3 : 0.0, Q4 : 0.0}
2019-04-14 18:10:49.02: SIM {TimeUS : 42835359, Roll : 0.0, Pitch : 0.0, Yaw : 0.0, Alt : 30.1000003815, Lat : 49.28357, Lng : -123.11502, Q1 : 1.0, Q2 : 0.0, Q3 : 0.0, Q4 : 0.0}
2019-04-14 18:10:49.11: SIM {TimeUS : 42935319, Roll : 0.0, Pitch : 0.0, Yaw : 0.0, Alt : 30.1000003815, Lat : 49.28357, Lng : -123.11502, Q1 : 1.0, Q2 : 0.0, Q3 : 0.0, Q4 : 0.0}
2019-04-14 18:10:49.21: SIM {TimeUS : 43035279, Roll : 0.0, Pitch : 0.0, Yaw : 360.0, Alt : 30.1000003815, Lat : 49.28357, Lng : -123.11502, Q1 : 1.0, Q2 : 0.0, Q3 : 0.0, Q4 : -7.94657811776e-11}
2019-04-14 18:10:49.31: SIM {TimeUS : 43135239, Roll : 0.0, Pitch : 0.0, Yaw : 360.0, Alt : 30.1000003815, Lat : 49.28357, Lng : -123.11502, Q1 : 1.0, Q2 : 0.0, Q3 : 0.0, Q4 : -2.43134365974e-08}
2019-04-14 18:10:49.41: SIM {TimeUS : 43235199, Roll : 0.0, Pitch : 0.0, Yaw : 359.99, Alt : 30.1000003815, Lat : 49.28357, Lng : -123.11502, Q1 : 1.0, Q2 : 0.0, Q3 : 0.0, Q4 : -1.85398846497e-07}
2019-04-14 18:10:49.51: SIM {TimeUS : 43335159, Roll : 0.0, Pitch : 0.0, Yaw : 359.99, Alt : 30.1000003815, Lat : 49.28357, Lng : -123.11502, Q1 : 1.0, Q2 : 0.0, Q3 : 0.0, Q4 : -3.21791588931e-07}
2019-04-14 18:10:49.61: SIM {TimeUS : 43435119, Roll : 0.0, Pitch : 0.0, Yaw : 359.99, Alt : 30.1000003815, Lat : 49.28357, Lng : -123.11502, Q1 : 1.0, Q2 : 0.0, Q3 : 0.0, Q4 : -4.87772581437e-07}
2019-04-14 18:10:49.71: SIM {TimeUS : 43535079, Roll : 0.0, Pitch : 0.0, Yaw : 359.99, Alt : 30.1000003815, Lat : 49.28357, Lng : -123.11502, Q1 : 1.0, Q2 : 0.0, Q3 : 0.0, Q4 : -6.76547131206e-07}
2019-04-14 18:10:49.81: SIM {TimeUS : 43635039, Roll : 0.0, Pitch : 0.0, Yaw : 359.99, Alt : 30.1000003815, Lat : 49.28357, Lng : -123.11502, Q1 : 1.0, Q2 : 0.0, Q3 : 0.0, Q4 : -8.78656749137e-07}
2019-04-14 18:10:49.91: SIM {TimeUS : 43734999, Roll : 0.0, Pitch : 0.0, Yaw : 359.99, Alt : 30.1000003815, Lat : 49.28357, Lng : -123.11502, Q1 : 1.0, Q2 : 0.0, Q3 : 0.0, Q4 : -1.11532028768e-06}
2019-04-14 18:10:50.01: SIM {TimeUS : 43834959, Roll : 0.0, Pitch : 0.0, Yaw : 359.99, Alt : 30.1000003815, Lat : 49.28357, Lng : -123.11502, Q1 : 1.0, Q2 : 0.0, Q3 : 0.0, Q4 : -1.31562637762e-06}
2019-04-14 18:10:50.11: SIM {TimeUS : 43934919, Roll : 0.0, Pitch : 0.0, Yaw : 359.99, Alt : 30.1200008392, Lat : 49.28357, Lng : -123.11502, Q1 : 1.0, Q2 : 0.0, Q3 : 0.0, Q4 : -1.50778123498e-06}
2019-04-14 18:10:50.21: SIM {TimeUS : 44034879, Roll : 0.0, Pitch : 0.0, Yaw : 359.99, Alt : 30.1499996185, Lat : 49.28357, Lng : -123.11502, Q1 : 1.0, Q2 : 0.0, Q3 : 0.0, Q4 : -1.69986935816e-06}
2019-04-14 18:10:50.31: SIM {TimeUS : 44134839, Roll : 0.0, Pitch : 0.0, Yaw : 359.99, Alt : 30.1800003052, Lat : 49.28357, Lng : -123.11502, Q1 : 1.0, Q2 : 0.0, Q3 : 0.0, Q4 : -1.91389631254e-06}
2019-04-14 18:10:50.41: SIM {TimeUS : 44234799, Roll : 0.0, Pitch : 0.0, Yaw : 359.99, Alt : 30.2099990845, Lat : 49.28357, Lng : -123.11502, Q1 : 1.0, Q2 : -5.64826041227e-06, Q3 : -4.94225696457e-06, Q4 : -2.23375036512e-06}
2019-04-14 18:10:50.51: SIM {TimeUS : 44334759, Roll : -0.17, Pitch : -0.15, Yaw : 359.99, Alt : 30.2700004578, Lat : 49.28357, Lng : -123.11502, Q1 : 0.999997854233, Q2 : -0.00156602927018, Q3 : -0.00137825054117, Q4 : -1.90890841623e-05}
2019-04-14 18:10:50.61: SIM {TimeUS : 44434719, Roll : -0.46, Pitch : -0.45, Yaw : 359.99, Alt : 30.3899993896, Lat : 49.28357, Lng : -123.11502, Q1 : 0.999984145164, Q2 : -0.00402624858543, Q3 : -0.00394152011722, Q4 : -6.22823790764e-05}
2019-04-14 18:10:50.71: SIM {TimeUS : 44534679, Roll : -0.68, Pitch : -0.68, Yaw : 359.98, Alt : 30.5400009155, Lat : 49.28357, Lng : -123.11502, Q1 : 0.999963819981, Q2 : -0.00601754337549, Q3 : -0.006019028835, Q4 : -0.00012665707618}
2019-04-14 18:10:50.81: SIM {TimeUS : 44634639, Roll : -0.8, Pitch : -0.78, Yaw : 359.98, Alt : 30.7000007629, Lat : 49.28357, Lng : -123.11502, Q1 : 0.999951899052, Q2 : -0.00702297268435, Q3 : -0.00684204231948, Q4 : -0.000208362107514}
2019-04-14 18:10:50.91: SIM {TimeUS : 44734599, Roll : -0.77, Pitch : -0.74, Yaw : 359.97, Alt : 30.8500003815, Lat : 49.28357, Lng : -123.1150201, Q1 : 0.999956071377, Q2 : -0.00677088042721, Q3 : -0.0064688497223, Q4 : -0.000296275538858}
2019-04-14 18:10:51.01: SIM {TimeUS : 44834559, Roll : -0.62, Pitch : -0.59, Yaw : 359.95, Alt : 31.0100002289, Lat : 49.28357, Lng : -123.1150201, Q1 : 0.999971628189, Q2 : -0.00548082636669, Q3 : -0.00515131885186, Q4 : -0.000377477233997}
2019-04-14 18:10:51.12: SIM {TimeUS : 44935352, Roll : -0.41, Pitch : -0.38, Yaw : 359.95, Alt : 31.1599998474, Lat : 49.2835701, Lng : -123.1150202, Q1 : 0.999987781048, Q2 : -0.00359827117063, Q3 : -0.00335417268798, Q4 : -0.000444079225417}
2019-04-14 18:10:51.21: SIM {TimeUS : 45035312, Roll : -0.19, Pitch : -0.19, Yaw : 359.94, Alt : 31.3199996948, Lat : 49.2835701, Lng : -123.1150203, Q1 : 0.999997079372, Q2 : -0.00166334758978, Q3 : -0.00167602067813, Q4 : -0.000495765125379}
2019-04-14 18:10:51.31: SIM {TimeUS : 45135272, Roll : -0.01, Pitch : -0.04, Yaw : 359.93, Alt : 31.4899997711, Lat : 49.2835702, Lng : -123.1150204, Q1 : 0.999999761581, Q2 : -0.000119385003927, Q3 : -0.000404528051149, Q4 : -0.000531147641595}
2019-04-14 18:10:51.41: SIM {TimeUS : 45235232, Roll : 0.08, Pitch : 0.04, Yaw : 359.93, Alt : 31.6700000763, Lat : 49.2835702, Lng : -123.1150204, Q1 : 0.999999463558, Q2 : 0.000734845583793, Q3 : 0.000431385094998, Q4 : -0.000549883407075}
2019-04-14 18:10:51.51: SIM {TimeUS : 45335192, Roll : 0.11, Pitch : 0.09, Yaw : 359.93, Alt : 31.8400001526, Lat : 49.2835703, Lng : -123.1150205, Q1 : 0.999999046326, Q2 : 0.000984337297268, Q3 : 0.000800048292149, Q4 : -0.000561651831958}
2019-04-14 18:10:51.61: SIM {TimeUS : 45435152, Roll : 0.09, Pitch : 0.09, Yaw : 359.93, Alt : 32.0299987793, Lat : 49.2835703, Lng : -123.1150206, Q1 : 0.999999165535, Q2 : 0.000790720572695, Q3 : 0.000857686914969, Q4 : -0.000566517235711}
2019-04-14 18:10:51.71: SIM {TimeUS : 45535112, Roll : 0.07, Pitch : 0.1, Yaw : 359.93, Alt : 32.2099990845, Lat : 49.2835703, Lng : -123.1150206, Q1 : 0.999999165535, Q2 : 0.000672449939884, Q3 : 0.000940242840443, Q4 : -0.000552963640075}
2019-04-14 18:10:51.81: SIM {TimeUS : 45635072, Roll : 0.08, Pitch : 0.11, Yaw : 359.93, Alt : 32.4000015259, Lat : 49.2835703, Lng : -123.1150207, Q1 : 0.999999046326, Q2 : 0.000724799232557, Q3 : 0.00103262998164, Q4 : -0.000533553829882}
2019-04-14 18:10:51.91: SIM {TimeUS : 45735032, Roll : 0.09, Pitch : 0.13, Yaw : 359.94, Alt : 32.5999984741, Lat : 49.2835703, Lng : -123.1150207, Q1 : 0.999998807907, Q2 : 0.000847891962621, Q3 : 0.00117421196774, Q4 : -0.000504184747115}
2019-04-14 18:10:52.01: SIM {TimeUS : 45834992, Roll : 0.1, Pitch : 0.15, Yaw : 359.94, Alt : 32.7900009155, Lat : 49.2835704, Lng : -123.1150207, Q1 : 0.999998569489, Q2 : 0.000927255314309, Q3 : 0.00135000247974, Q4 : -0.000473342923215}
2019-04-14 18:10:52.11: SIM {TimeUS : 45934952, Roll : 0.11, Pitch : 0.15, Yaw : 359.94, Alt : 32.9900016785, Lat : 49.2835704, Lng : -123.1150208, Q1 : 0.999998450279, Q2 : 0.00102861516643, Q3 : 0.00135632557794, Q4 : -0.000445618759841}
2019-04-14 18:10:52.21: SIM {TimeUS : 46034912, Roll : 0.12, Pitch : 0.14, Yaw : 359.95, Alt : 33.1899986267, Lat : 49.2835704, Lng : -123.1150208, Q1 : 0.999998509884, Q2 : 0.00111016118899, Q3 : 0.00127247790806, Q4 : -0.000422757933848}
2019-04-14 18:10:52.31: SIM {TimeUS : 46134872, Roll : 0.13, Pitch : 0.13, Yaw : 359.95, Alt : 33.4000015259, Lat : 49.2835704, Lng : -123.1150208, Q1 : 0.999998509884, Q2 : 0.00117356970441, Q3 : 0.00117943540681, Q4 : -0.000402961188229}
2019-04-14 18:10:52.41: SIM {TimeUS : 46234832, Roll : 0.13, Pitch : 0.13, Yaw : 359.95, Alt : 33.5999984741, Lat : 49.2835704, Lng : -123.1150208, Q1 : 0.999998569489, Q2 : 0.00119987351354, Q3 : 0.00114919699263, Q4 : -0.000385108724004}
2019-04-14 18:10:52.51: SIM {TimeUS : 46334792, Roll : 0.15, Pitch : 0.13, Yaw : 359.95, Alt : 33.8100013733, Lat : 49.2835704, Lng : -123.1150208, Q1 : 0.99999833107, Q2 : 0.00131769233849, Q3 : 0.00119748280849, Q4 : -0.000377603922971}
2019-04-14 18:10:52.61: SIM {TimeUS : 46434752, Roll : 0.15, Pitch : 0.13, Yaw : 359.95, Alt : 34.0200004578, Lat : 49.2835704, Lng : -123.1150208, Q1 : 0.999998271465, Q2 : 0.00137980910949, Q3 : 0.00117740442511, Q4 : -0.000376828829758}
2019-04-14 18:10:52.71: SIM {TimeUS : 46534712, Roll : 0.15, Pitch : 0.12, Yaw : 359.95, Alt : 34.2299995422, Lat : 49.2835704, Lng : -123.1150208, Q1 : 0.999998509884, Q2 : 0.00131362723187, Q3 : 0.00106460601091, Q4 : -0.000389846594771}
2019-04-14 18:10:52.81: SIM {TimeUS : 46634672, Roll : 0.13, Pitch : 0.11, Yaw : 359.95, Alt : 34.4399986267, Lat : 49.2835704, Lng : -123.1150208, Q1 : 0.999998748302, Q2 : 0.00117606145795, Q3 : 0.000970373337623, Q4 : -0.000412083812989}
2019-04-14 18:10:52.91: SIM {TimeUS : 46734632, Roll : 0.1, Pitch : 0.1, Yaw : 359.94, Alt : 34.6599998474, Lat : 49.2835704, Lng : -123.1150208, Q1 : 0.999999046326, Q2 : 0.000936384138186, Q3 : 0.000894149241503, Q4 : -0.000448849314125}
2019-04-14 18:10:53.01: SIM {TimeUS : 46834592, Roll : 0.08, Pitch : 0.06, Yaw : 359.94, Alt : 34.8699989319, Lat : 49.2835704, Lng : -123.1150208, Q1 : 0.999999403954, Q2 : 0.000720234762412, Q3 : 0.00058360240655, Q4 : -0.000498247158248}
2019-04-14 18:10:53.11: SIM {TimeUS : 46934552, Roll : 0.06, Pitch : 0.03, Yaw : 359.93, Alt : 35.0900001526, Lat : 49.2835704, Lng : -123.1150208, Q1 : 0.999999642372, Q2 : 0.000535087950993, Q3 : 0.000306202156935, Q4 : -0.000557636085432}
2019-04-14 18:10:53.22: SIM {TimeUS : 47035345, Roll : 0.03, Pitch : 0.02, Yaw : 359.92, Alt : 35.2999992371, Lat : 49.2835704, Lng : -123.1150208, Q1 : 0.999999761581, Q2 : 0.000267395604169, Q3 : 0.000198541791178, Q4 : -0.000622091116384}
2019-04-14 18:10:53.31: SIM {TimeUS : 47135305, Roll : 0.01, Pitch : 0.01, Yaw : 359.92, Alt : 35.5200004578, Lat : 49.2835704, Lng : -123.1150208, Q1 : 0.999999761581, Q2 : 0.00014933948114, Q3 : 0.000164882236277, Q4 : -0.00067772512557}
2019-04-14 18:10:53.41: SIM {TimeUS : 47235265, Roll : 0.01, Pitch : 0.01, Yaw : 359.91, Alt : 35.7400016785, Lat : 49.2835704, Lng : -123.1150207, Q1 : 0.999999701977, Q2 : 0.000167421254446, Q3 : 0.000113235873869, Q4 : -0.000729663181119}
2019-04-14 18:10:53.51: SIM {TimeUS : 47335225, Roll : 0.0, Pitch : -0.01, Yaw : 359.91, Alt : 35.9599990845, Lat : 49.2835704, Lng : -123.1150207, Q1 : 0.999999701977, Q2 : 5.22423288203e-05, Q3 : -0.000126793471281, Q4 : -0.000768175697885}
2019-04-14 18:10:53.61: SIM {TimeUS : 47435185, Roll : -0.02, Pitch : -0.05, Yaw : 359.9, Alt : 36.1800003052, Lat : 49.2835704, Lng : -123.1150207, Q1 : 0.999999582767, Q2 : -0.000188202247955, Q3 : -0.000464160140837, Q4 : -0.000792422215454}
2019-04-14 18:10:53.71: SIM {TimeUS : 47535145, Roll : -0.05, Pitch : -0.07, Yaw : 359.9, Alt : 36.4000015259, Lat : 49.2835704, Lng : -123.1150207, Q1 : 0.999999344349, Q2 : -0.00047246683971, Q3 : -0.000635668053292, Q4 : -0.000804595358204}
2019-04-14 18:10:53.81: SIM {TimeUS : 47635105, Roll : -0.08, Pitch : -0.08, Yaw : 359.9, Alt : 36.6300010681, Lat : 49.2835704, Lng : -123.1150207, Q1 : 0.99999910593, Q2 : -0.000751324405428, Q3 : -0.00075656210538, Q4 : -0.000814629194792}
2019-04-14 18:10:53.91: SIM {TimeUS : 47735065, Roll : -0.09, Pitch : -0.08, Yaw : 359.9, Alt : 36.8499984741, Lat : 49.2835704, Lng : -123.1150207, Q1 : 0.999999046326, Q2 : -0.000821532798, Q3 : -0.000759885180742, Q4 : -0.000821795605589}
2019-04-14 18:10:54.01: SIM {TimeUS : 47835025, Roll : -0.08, Pitch : -0.07, Yaw : 359.9, Alt : 37.0699996948, Lat : 49.2835704, Lng : -123.1150207, Q1 : 0.99999910593, Q2 : -0.000785388052464, Q3 : -0.000676154915709, Q4 : -0.000827832438517}
2019-04-14 18:10:54.11: SIM {TimeUS : 47934985, Roll : -0.07, Pitch : -0.05, Yaw : 359.9, Alt : 37.2999992371, Lat : 49.2835704, Lng : -123.1150207, Q1 : 0.999999284744, Q2 : -0.000670316629112, Q3 : -0.000476773187984, Q4 : -0.000835209153593}
2019-04-14 18:10:54.21: SIM {TimeUS : 48034945, Roll : -0.06, Pitch : -0.03, Yaw : 359.9, Alt : 37.5200004578, Lat : 49.2835704, Lng : -123.1150207, Q1 : 0.999999403954, Q2 : -0.000546481111087, Q3 : -0.000343524239725, Q4 : -0.000841060944367}
2019-04-14 18:10:54.31: SIM {TimeUS : 48134905, Roll : -0.06, Pitch : -0.04, Yaw : 359.9, Alt : 37.75, Lat : 49.2835704, Lng : -123.1150206, Q1 : 0.999999403954, Q2 : -0.000596688478254, Q3 : -0.000382352794986, Q4 : -0.000847413029987}
2019-04-14 18:10:54.41: SIM {TimeUS : 48234865, Roll : -0.08, Pitch : -0.03, Yaw : 359.9, Alt : 37.9799995422, Lat : 49.2835704, Lng : -123.1150206, Q1 : 0.999999344349, Q2 : -0.000708240899257, Q3 : -0.00028990386636, Q4 : -0.000862873450387}
2019-04-14 18:10:54.51: SIM {TimeUS : 48334825, Roll : -0.1, Pitch : -0.01, Yaw : 359.89, Alt : 38.2000007629, Lat : 49.2835704, Lng : -123.1150206, Q1 : 0.99999922514, Q2 : -0.000888635579031, Q3 : -0.000161859410582, Q4 : -0.000887640169822}
2019-04-14 18:10:54.61: SIM {TimeUS : 48434785, Roll : -0.1, Pitch : 0.0, Yaw : 359.89, Alt : 38.4300003052, Lat : 49.2835704, Lng : -123.1150206, Q1 : 0.99999922514, Q2 : -0.000880663050339, Q3 : -4.26331025665e-05, Q4 : -0.000905700027943}
2019-04-14 18:10:54.71: SIM {TimeUS : 48534745, Roll : -0.07, Pitch : 0.02, Yaw : 359.89, Alt : 38.6599998474, Lat : 49.2835704, Lng : -123.1150206, Q1 : 0.999999284744, Q2 : -0.000677276868373, Q3 : 0.000205048592761, Q4 : -0.000922711624298}
2019-04-14 18:10:54.81: SIM {TimeUS : 48634705, Roll : -0.05, Pitch : 0.02, Yaw : 359.89, Alt : 38.8899993896, Lat : 49.2835706, Lng : -123.1150207, Q1 : 0.999999403954, Q2 : -0.000458526192233, Q3 : 0.000220863090362, Q4 : -0.00093408866087}
2019-04-14 18:10:54.91: SIM {TimeUS : 48734665, Roll : -0.02, Pitch : 0.02, Yaw : 359.89, Alt : 39.1199989319, Lat : 49.2835706, Lng : -123.1150207, Q1 : 0.999999523163, Q2 : -0.000212541606743, Q3 : 0.000187997356988, Q4 : -0.00094423815608}
2019-04-14 18:10:55.01: SIM {TimeUS : 48834625, Roll : 0.01, Pitch : 0.03, Yaw : 359.89, Alt : 39.3499984741, Lat : 49.2835706, Lng : -123.1150207, Q1 : 0.999999463558, Q2 : 9.6707684861e-05, Q3 : 0.000344183499692, Q4 : -0.000952029542532}
2019-04-14 18:10:55.11: SIM {TimeUS : 48934585, Roll : 0.05, Pitch : 0.07, Yaw : 359.88, Alt : 39.5800018311, Lat : 49.2835706, Lng : -123.1150207, Q1 : 0.99999922514, Q2 : 0.000464786950033, Q3 : 0.00064333510818, Q4 : -0.000965405546594}
2019-04-14 18:10:55.21: SIM {TimeUS : 49034545, Roll : 0.08, Pitch : 0.1, Yaw : 359.88, Alt : 39.8100013733, Lat : 49.2835706, Lng : -123.1150207, Q1 : 0.999998807907, Q2 : 0.000735732319299, Q3 : 0.000948739878368, Q4 : -0.000984455109574}
2019-04-14 18:10:55.32: SIM {TimeUS : 49135338, Roll : 0.07, Pitch : 0.14, Yaw : 359.88, Alt : 40.0400009155, Lat : 49.2835706, Lng : -123.1150207, Q1 : 0.999998569489, Q2 : 0.000655307900161, Q3 : 0.0012269517174, Q4 : -0.000994947971776}
2019-04-14 18:10:55.41: SIM {TimeUS : 49235298, Roll : 0.02, Pitch : 0.16, Yaw : 359.88, Alt : 40.2700004578, Lat : 49.2835706, Lng : -123.1150207, Q1 : 0.999998390675, Q2 : 0.000256245664787, Q3 : 0.00146361044608, Q4 : -0.00102369999513}
2019-04-14 18:10:55.51: SIM {TimeUS : 49335258, Roll : 0.0, Pitch : 0.17, Yaw : 359.88, Alt : 40.5099983215, Lat : 49.2835706, Lng : -123.1150207, Q1 : 0.999998211861, Q2 : -7.69321413827e-05, Q3 : 0.0015640144702, Q4 : -0.00104658887722}
2019-04-14 18:10:55.61: SIM {TimeUS : 49435218, Roll : -0.03, Pitch : 0.15, Yaw : 359.87, Alt : 40.7400016785, Lat : 49.2835706, Lng : -123.1150207, Q1 : 0.999998450279, Q2 : -0.000276800798019, Q3 : 0.00138559076004, Q4 : -0.00106732174754}
2019-04-14 18:10:55.71: SIM {TimeUS : 49535178, Roll : -0.04, Pitch : 0.12, Yaw : 359.87, Alt : 40.9700012207, Lat : 49.2835706, Lng : -123.1150207, Q1 : 0.999998688698, Q2 : -0.000349710928276, Q3 : 0.00112929614261, Q4 : -0.00109754421283}
2019-04-14 18:10:55.81: SIM {TimeUS : 49635138, Roll : -0.02, Pitch : 0.12, Yaw : 359.86, Alt : 41.2000007629, Lat : 49.2835706, Lng : -123.1150207, Q1 : 0.999998748302, Q2 : -0.000255854829447, Q3 : 0.00108796101995, Q4 : -0.00113795651123}
2019-04-14 18:10:55.91: SIM {TimeUS : 49735098, Roll : 0.0, Pitch : 0.13, Yaw : 359.86, Alt : 41.4399986267, Lat : 49.2835706, Lng : -123.1150207, Q1 : 0.999998569489, Q2 : 6.25184475211e-05, Q3 : 0.00120387726929, Q4 : -0.0011831932934}
2019-04-14 18:10:56.01: SIM {TimeUS : 49835058, Roll : 0.05, Pitch : 0.14, Yaw : 359.85, Alt : 41.6699981689, Lat : 49.2835706, Lng : -123.1150207, Q1 : 0.99999833107, Q2 : 0.000494190375321, Q3 : 0.00125972507522, Q4 : -0.00123041996267}
2019-04-14 18:10:56.11: SIM {TimeUS : 49935018, Roll : 0.09, Pitch : 0.11, Yaw : 359.85, Alt : 41.9099998474, Lat : 49.2835706, Lng : -123.1150207, Q1 : 0.99999833107, Q2 : 0.000818129105028, Q3 : 0.00103902665433, Q4 : -0.00127709796652}
2019-04-14 18:10:56.21: SIM {TimeUS : 50034978, Roll : 0.1, Pitch : 0.08, Yaw : 359.84, Alt : 42.1399993896, Lat : 49.2835706, Lng : -123.1150207, Q1 : 0.999998450279, Q2 : 0.000884325010702, Q3 : 0.000727697333787, Q4 : -0.00132025731727}
2019-04-14 18:10:56.31: SIM {TimeUS : 50134938, Roll : 0.06, Pitch : 0.05, Yaw : 359.84, Alt : 42.3699989319, Lat : 49.2835706, Lng : -123.1150207, Q1 : 0.999998807907, Q2 : 0.000606802292168, Q3 : 0.00051499606343, Q4 : -0.00134941493161}
2019-04-14 18:10:56.41: SIM {TimeUS : 50234898, Roll : 0.01, Pitch : 0.05, Yaw : 359.84, Alt : 42.6100006104, Lat : 49.2835706, Lng : -123.1150207, Q1 : 0.999998927116, Q2 : 0.000149812360178, Q3 : 0.000469830352813, Q4 : -0.00136619189288}
2019-04-14 18:10:56.51: SIM {TimeUS : 50334858, Roll : -0.02, Pitch : 0.07, Yaw : 359.84, Alt : 42.8400001526, Lat : 49.2835704, Lng : -123.1150207, Q1 : 0.999998807907, Q2 : -0.000208089331863, Q3 : 0.000648033164907, Q4 : -0.00137357623316}
2019-04-14 18:10:56.61: SIM {TimeUS : 50434818, Roll : -0.04, Pitch : 0.08, Yaw : 359.84, Alt : 43.0800018311, Lat : 49.2835704, Lng : -123.1150207, Q1 : 0.999998688698, Q2 : -0.000405682047131, Q3 : 0.000758232083172, Q4 : -0.00137888011523}
2019-04-14 18:10:56.71: SIM {TimeUS : 50534778, Roll : -0.04, Pitch : 0.07, Yaw : 359.84, Alt : 43.3100013733, Lat : 49.2835704, Lng : -123.1150207, Q1 : 0.999998748302, Q2 : -0.000428381317761, Q3 : 0.000671660527587, Q4 : -0.00138598203193}
2019-04-14 18:10:56.81: SIM {TimeUS : 50634738, Roll : -0.05, Pitch : 0.05, Yaw : 359.84, Alt : 43.5499992371, Lat : 49.2835704, Lng : -123.1150207, Q1 : 0.999998807907, Q2 : -0.000506732380018, Q3 : 0.000493100960739, Q4 : -0.00139402621426}
2019-04-14 18:10:56.91: SIM {TimeUS : 50734698, Roll : -0.05, Pitch : 0.03, Yaw : 359.83, Alt : 43.7799987793, Lat : 49.2835704, Lng : -123.1150207, Q1 : 0.999998807907, Q2 : -0.00050036306493, Q3 : 0.000336164142936, Q4 : -0.00140577647835}
2019-04-14 18:10:57.01: SIM {TimeUS : 50834658, Roll : -0.03, Pitch : 0.03, Yaw : 359.83, Alt : 44.0200004578, Lat : 49.2835704, Lng : -123.1150207, Q1 : 0.999998867512, Q2 : -0.000347520806827, Q3 : 0.000290958065307, Q4 : -0.00142348045483}
2019-04-14 18:10:57.11: SIM {TimeUS : 50934618, Roll : -0.02, Pitch : 0.03, Yaw : 359.83, Alt : 44.2599983215, Lat : 49.2835704, Lng : -123.1150206, Q1 : 0.999998927116, Q2 : -0.000202643306693, Q3 : 0.000303429493215, Q4 : -0.00144361972343}
2019-04-14 18:10:57.21: SIM {TimeUS : 51034578, Roll : -0.02, Pitch : 0.02, Yaw : 359.83, Alt : 44.4900016785, Lat : 49.2835704, Lng : -123.1150206, Q1 : 0.999998927116, Q2 : -0.000198950336198, Q3 : 0.000179862880032, Q4 : -0.0014646591153}
2019-04-14 18:10:57.31: SIM {TimeUS : 51134538, Roll : -0.02, Pitch : 0.0, Yaw : 359.82, Alt : 44.7299995422, Lat : 49.2835704, Lng : -123.1150206, Q1 : 0.999998867512, Q2 : -0.000229857105296, Q3 : -6.72390669934e-05, Q4 : -0.00148693565279}
2019-04-14 18:10:57.41: SIM {TimeUS : 51235331, Roll : -0.02, Pitch : -0.03, Yaw : 359.82, Alt : 44.9700012207, Lat : 49.2835703, Lng : -123.1150206, Q1 : 0.999998807907, Q2 : -0.000224550662097, Q3 : -0.000271509605227, Q4 : -0.00151667650789}
2019-04-14 18:10:57.51: SIM {TimeUS : 51335291, Roll : -0.01, Pitch : -0.04, Yaw : 359.82, Alt : 45.2000007629, Lat : 49.2835703, Lng : -123.1150206, Q1 : 0.999998748302, Q2 : -0.000132828616188, Q3 : -0.000377183489036, Q4 : -0.00154956616461}
2019-04-14 18:10:57.61: SIM {TimeUS : 51435251, Roll : -0.01, Pitch : -0.04, Yaw : 359.81, Alt : 45.4399986267, Lat : 49.2835703, Lng : -123.1150206, Q1 : 0.999998629093, Q2 : -0.000163694494404, Q3 : -0.00039494750672, Q4 : -0.00158523372374}
2019-04-14 18:10:57.71: SIM {TimeUS : 51535211, Roll : -0.04, Pitch : -0.04, Yaw : 359.81, Alt : 45.6699981689, Lat : 49.2835703, Lng : -123.1150206, Q1 : 0.999998509884, Q2 : -0.000387439999031, Q3 : -0.000357046723366, Q4 : -0.00162587687373}
2019-04-14 18:10:57.81: SIM {TimeUS : 51635171, Roll : -0.08, Pitch : -0.03, Yaw : 359.8, Alt : 45.9099998474, Lat : 49.2835703, Lng : -123.1150206, Q1 : 0.99999833107, Q2 : -0.000722497119568, Q3 : -0.000321277650073, Q4 : -0.0016652403865}
2019-04-14 18:10:57.91: SIM {TimeUS : 51735131, Roll : -0.1, Pitch : -0.03, Yaw : 359.8, Alt : 46.1399993896, Lat : 49.2835703, Lng : -123.1150206, Q1 : 0.999998033047, Q2 : -0.000955254188739, Q3 : -0.000282079767203, Q4 : -0.00170516141225}
2019-04-14 18:10:58.01: SIM {TimeUS : 51835091, Roll : -0.11, Pitch : -0.01, Yaw : 359.8, Alt : 46.3600006104, Lat : 49.2835703, Lng : -123.1150206, Q1 : 0.999997973442, Q2 : -0.00102468859404, Q3 : -0.00015076326963, Q4 : -0.00174181698821}
2019-04-14 18:10:58.11: SIM {TimeUS : 51935051, Roll : -0.1, Pitch : 0.0, Yaw : 359.79, Alt : 46.5800018311, Lat : 49.2835703, Lng : -123.1150206, Q1 : 0.999997973442, Q2 : -0.000941996520851, Q3 : 6.86737621436e-05, Q4 : -0.00177693169098}
2019-04-14 18:10:58.21: SIM {TimeUS : 52035011, Roll : -0.08, Pitch : 0.01, Yaw : 359.79, Alt : 46.7999992371, Lat : 49.2835703, Lng : -123.1150206, Q1 : 0.999998092651, Q2 : -0.000749981787521, Q3 : 0.000162550903042, Q4 : -0.00180869665928}
2019-04-14 18:10:58.31: SIM {TimeUS : 52134971, Roll : -0.06, Pitch : 0.01, Yaw : 359.78, Alt : 47.0099983215, Lat : 49.2835703, Lng : -123.1150206, Q1 : 0.999998152256, Q2 : -0.000579576357268, Q3 : 8.92065072549e-05, Q4 : -0.00183407240547}
2019-04-14 18:10:58.41: SIM {TimeUS : 52234931, Roll : -0.05, Pitch : 0.0, Yaw : 359.78, Alt : 47.2200012207, Lat : 49.2835703, Lng : -123.1150206, Q1 : 0.999998152256, Q2 : -0.000489239755552, Q3 : -7.90295671322e-05, Q4 : -0.0018576887669}
2019-04-14 18:10:58.51: SIM {TimeUS : 52334891, Roll : -0.04, Pitch : -0.03, Yaw : 359.78, Alt : 47.4099998474, Lat : 49.2835703, Lng : -123.1150206, Q1 : 0.999998152256, Q2 : -0.000362985389074, Q3 : -0.000322855019476, Q4 : -0.00187618483324}
2019-04-14 18:10:58.61: SIM {TimeUS : 52434851, Roll : -0.01, Pitch : -0.06, Yaw : 359.78, Alt : 47.5999984741, Lat : 49.2835703, Lng : -123.1150206, Q1 : 0.999998033047, Q2 : -0.00016548691201, Q3 : -0.000563011912163, Q4 : -0.00189476669766}
2019-04-14 18:10:58.71: SIM {TimeUS : 52534811, Roll : -0.02, Pitch : -0.11, Yaw : 359.78, Alt : 47.7700004578, Lat : 49.2835703, Lng : -123.1150206, Q1 : 0.999997675419, Q2 : -0.000182430696441, Q3 : -0.000970910710748, Q4 : -0.00191018998157}
2019-04-14 18:10:58.81: SIM {TimeUS : 52634771, Roll : -0.03, Pitch : -0.14, Yaw : 359.77, Alt : 47.9399986267, Lat : 49.2835703, Lng : -123.1150206, Q1 : 0.999997258186, Q2 : -0.000285188725684, Q3 : -0.00129562511574, Q4 : -0.00192408228759}
2019-04-14 18:10:58.91: SIM {TimeUS : 52734731, Roll : 0.0, Pitch : -0.15, Yaw : 359.77, Alt : 48.0900001526, Lat : 49.2835703, Lng : -123.1150207, Q1 : 0.999997258186, Q2 : -8.10755955172e-05, Q3 : -0.00131844531279, Q4 : -0.00194353377447}
2019-04-14 18:10:59.01: SIM {TimeUS : 52834691, Roll : 0.02, Pitch : -0.12, Yaw : 359.77, Alt : 48.2299995422, Lat : 49.2835703, Lng : -123.1150207, Q1 : 0.999997437, Q2 : 0.000251198129263, Q3 : -0.00112404499669, Q4 : -0.00196403567679}
2019-04-14 18:10:59.11: SIM {TimeUS : 52934651, Roll : 0.06, Pitch : -0.09, Yaw : 359.77, Alt : 48.3600006104, Lat : 49.2835703, Lng : -123.1150207, Q1 : 0.99999755621, Q2 : 0.000535660539754, Q3 : -0.000834681850392, Q4 : -0.00198535737582}
2019-04-14 18:10:59.21: SIM {TimeUS : 53034611, Roll : 0.07, Pitch : -0.06, Yaw : 359.76, Alt : 48.4799995422, Lat : 49.2835703, Lng : -123.1150207, Q1 : 0.999997675419, Q2 : 0.000615227210801, Q3 : -0.000529545475729, Q4 : -0.00200959295034}
2019-04-14 18:10:59.31: SIM {TimeUS : 53134571, Roll : 0.07, Pitch : -0.04, Yaw : 359.76, Alt : 48.5800018311, Lat : 49.2835703, Lng : -123.1150207, Q1 : 0.999997675419, Q2 : 0.000638086057734, Q3 : -0.000358367105946, Q4 : -0.00203727046028}
2019-04-14 18:10:59.42: SIM {TimeUS : 53235364, Roll : 0.05, Pitch : -0.04, Yaw : 359.76, Alt : 48.6699981689, Lat : 49.2835703, Lng : -123.1150207, Q1 : 0.999997615814, Q2 : 0.00051535788225, Q3 : -0.000436894129962, Q4 : -0.00207397551276}
2019-04-14 18:10:59.51: SIM {TimeUS : 53335324, Roll : 0.03, Pitch : -0.04, Yaw : 359.75, Alt : 48.75, Lat : 49.2835704, Lng : -123.1150207, Q1 : 0.999997615814, Q2 : 0.000303018663544, Q3 : -0.000426305545261, Q4 : -0.00210966449231}
2019-04-14 18:10:59.61: SIM {TimeUS : 53435284, Roll : 0.01, Pitch : -0.03, Yaw : 359.75, Alt : 48.8199996948, Lat : 49.2835704, Lng : -123.1150207, Q1 : 0.999997615814, Q2 : 0.000168954313267, Q3 : -0.000325420318404, Q4 : -0.00214366870932}
2019-04-14 18:10:59.71: SIM {TimeUS : 53535244, Roll : 0.01, Pitch : -0.02, Yaw : 359.75, Alt : 48.8800010681, Lat : 49.2835704, Lng : -123.1150207, Q1 : 0.999997615814, Q2 : 0.000134870759211, Q3 : -0.000224381961743, Q4 : -0.00217500561848}
2019-04-14 18:10:59.81: SIM {TimeUS : 53635204, Roll : 0.05, Pitch : -0.05, Yaw : 359.74, Alt : 48.9399986267, Lat : 49.2835704, Lng : -123.1150207, Q1 : 0.999997317791, Q2 : 0.000479082053062, Q3 : -0.000523317838088, Q4 : -0.00220368965529}
2019-04-14 18:10:59.91: SIM {TimeUS : 53735164, Roll : 0.22, Pitch : -0.25, Yaw : 359.74, Alt : 48.9799995422, Lat : 49.2835704, Lng : -123.1150207, Q1 : 0.999993026257, Q2 : 0.00200036168098, Q3 : -0.0022154385224, Q4 : -0.00223013036884}
2019-04-14 18:11:00.01: SIM {TimeUS : 53835124, Roll : 0.56, Pitch : -0.68, Yaw : 359.73, Alt : 49.0200004578, Lat : 49.2835704, Lng : -123.1150207, Q1 : 0.999967634678, Q2 : 0.004892016761, Q3 : -0.00597853958607, Q4 : -0.00224950909615}
2019-04-14 18:11:00.11: SIM {TimeUS : 53935084, Roll : 1.02, Pitch : -1.35, Yaw : 359.72, Alt : 49.0499992371, Lat : 49.2835704, Lng : -123.1150207, Q1 : 0.999887466431, Q2 : 0.0089574623853, Q3 : -0.011818356812, Q4 : -0.00225787376985}
2019-04-14 18:11:00.21: SIM {TimeUS : 54035044, Roll : 1.57, Pitch : -2.18, Yaw : 359.71, Alt : 49.0800018311, Lat : 49.2835706, Lng : -123.1150207, Q1 : 0.999721467495, Q2 : 0.0137188360095, Q3 : -0.0190723557025, Q4 : -0.00223916978575}
2019-04-14 18:11:00.31: SIM {TimeUS : 54135004, Roll : 2.14, Pitch : -3.07, Yaw : 359.69, Alt : 49.0999984741, Lat : 49.2835706, Lng : -123.1150206, Q1 : 0.999462485313, Q2 : 0.0186673942953, Q3 : -0.0268623679876, Q4 : -0.00217146705836}
2019-04-14 18:11:00.41: SIM {TimeUS : 54234964, Roll : 2.66, Pitch : -3.87, Yaw : 359.67, Alt : 49.1300010681, Lat : 49.2835707, Lng : -123.1150205, Q1 : 0.99915766716, Q2 : 0.0231270063668, Q3 : -0.0338388420641, Q4 : -0.0020365640521}
2019-04-14 18:11:00.51: SIM {TimeUS : 54334924, Roll : 3.07, Pitch : -4.47, Yaw : 359.66, Alt : 49.1399993896, Lat : 49.2835709, Lng : -123.1150203, Q1 : 0.998878061771, Q2 : 0.0266600698233, Q3 : -0.039095595479, Q4 : -0.00183853285853}
2019-04-14 18:11:00.61: SIM {TimeUS : 54434884, Roll : 3.36, Pitch : -4.9, Yaw : 359.67, Alt : 49.1599998474, Lat : 49.283571, Lng : -123.1150201, Q1 : 0.998652935028, Q2 : 0.0292405225337, Q3 : -0.0428339019418, Q4 : -0.0015958675649}
2019-04-14 18:11:00.71: SIM {TimeUS : 54534844, Roll : 3.59, Pitch : -5.22, Yaw : 359.68, Alt : 49.1699981689, Lat : 49.2835714, Lng : -123.1150199, Q1 : 0.998470664024, Q2 : 0.0312094781548, Q3 : -0.0456128753722, Q4 : -0.00131944264285}
2019-04-14 18:11:00.81: SIM {TimeUS : 54634804, Roll : 3.78, Pitch : -5.5, Yaw : 359.69, Alt : 49.1800003052, Lat : 49.2835716, Lng : -123.1150196, Q1 : 0.998302698135, Q2 : 0.0328662209213, Q3 : -0.0480668693781, Q4 : -0.0010390059324}
2019-04-14 18:11:00.91: SIM {TimeUS : 54734764, Roll : 3.98, Pitch : -5.81, Yaw : 359.7, Alt : 49.1899986267, Lat : 49.2835721, Lng : -123.1150192, Q1 : 0.998113155365, Q2 : 0.0345545560122, Q3 : -0.0507494434714, Q4 : -0.000775087974034}
2019-04-14 18:11:01.01: SIM {TimeUS : 54834724, Roll : 4.19, Pitch : -6.14, Yaw : 359.71, Alt : 49.2000007629, Lat : 49.2835726, Lng : -123.1150187, Q1 : 0.997894823551, Q2 : 0.0363875366747, Q3 : -0.0536806844175, Q4 : -0.000518922344781}
2019-04-14 18:11:01.11: SIM {TimeUS : 54934684, Roll : 4.41, Pitch : -6.46, Yaw : 359.72, Alt : 49.2099990845, Lat : 49.2835731, Lng : -123.1150181, Q1 : 0.997672438622, Q2 : 0.0382995791733, Q3 : -0.0564162395895, Q4 : -0.000264561153017}
2019-04-14 18:11:01.21: SIM {TimeUS : 55034644, Roll : 4.58, Pitch : -6.7, Yaw : 359.72, Alt : 49.2200012207, Lat : 49.2835737, Lng : -123.1150175, Q1 : 0.997496128082, Q2 : 0.0397621802986, Q3 : -0.0584839321673, Q4 : -4.52241729363e-05}
2019-04-14 18:11:01.31: SIM {TimeUS : 55134604, Roll : 4.69, Pitch : -6.87, Yaw : 359.73, Alt : 49.2299995422, Lat : 49.2835743, Lng : -123.1150168, Q1 : 0.997366011143, Q2 : 0.040764618665, Q3 : -0.0599947161973, Q4 : 0.000127008956042}
2019-04-14 18:11:01.41: SIM {TimeUS : 55234564, Roll : 4.76, Pitch : -6.99, Yaw : 359.73, Alt : 49.2299995422, Lat : 49.283575, Lng : -123.1150161, Q1 : 0.997276902199, Q2 : 0.0413571335375, Q3 : -0.0610600598156, Q4 : 0.000251213466981}
2019-04-14 18:11:01.52: SIM {TimeUS : 55335357, Roll : 4.82, Pitch : -7.08, Yaw : 359.74, Alt : 49.2400016785, Lat : 49.2835758, Lng : -123.1150153, Q1 : 0.997208416462, Q2 : 0.0418300926685, Q3 : -0.0618509985507, Q4 : 0.000340624479577}
2019-04-14 18:11:01.61: SIM {TimeUS : 55435317, Roll : 4.88, Pitch : -7.17, Yaw : 359.73, Alt : 49.2400016785, Lat : 49.2835765, Lng : -123.1150144, Q1 : 0.997136712074, Q2 : 0.0424119159579, Q3 : -0.0626050829887, Q4 : 0.000401029072236}
2019-04-14 18:11:01.71: SIM {TimeUS : 55535277, Roll : 5.12, Pitch : -7.24, Yaw : 359.81, Alt : 49.25, Lat : 49.2835775, Lng : -123.1150135, Q1 : 0.997008383274, Q2 : 0.0444843657315, Q3 : -0.0631984621286, Q4 : 0.0011923017446}
2019-04-14 18:11:01.81: SIM {TimeUS : 55635237, Roll : 5.64, Pitch : -7.26, Yaw : 0.41, Alt : 49.25, Lat : 49.2835783, Lng : -123.1150125, Q1 : 0.9967623353, Q2 : 0.0493727661669, Q3 : -0.0631015971303, Q4 : 0.00673811184242}
2019-04-14 18:11:01.91: SIM {TimeUS : 55735197, Roll : 6.31, Pitch : -7.36, Yaw : 2.23, Alt : 49.25, Lat : 49.2835794, Lng : -123.1150115, Q1 : 0.996161520481, Q2 : 0.0561732426286, Q3 : -0.0630788058043, Q4 : 0.022974440828}
2019-04-14 18:11:02.01: SIM {TimeUS : 55835157, Roll : 6.72, Pitch : -7.76, Yaw : 5.64, Alt : 49.2599983215, Lat : 49.2835804, Lng : -123.1150103, Q1 : 0.994582056999, Q2 : 0.0617921613157, Q3 : -0.0646176934242, Q4 : 0.0530366189778}
2019-04-14 18:11:02.11: SIM {TimeUS : 55935117, Roll : 6.6, Pitch : -8.49, Yaw : 10.61, Alt : 49.2599983215, Lat : 49.2835814, Lng : -123.1150091, Q1 : 0.990936875343, Q2 : 0.0640332326293, Q3 : -0.0683150067925, Q4 : 0.0963168814778}
2019-04-14 18:11:02.21: SIM {TimeUS : 56035077, Roll : 5.71, Pitch : -9.48, Yaw : 16.89, Alt : 49.2599983215, Lat : 49.2835825, Lng : -123.1150077, Q1 : 0.983934342861, Q2 : 0.0612836293876, Q3 : -0.074357971549, Q4 : 0.150294393301}
2019-04-14 18:11:02.31: SIM {TimeUS : 56135037, Roll : 3.81, Pitch : -10.56, Yaw : 23.97, Alt : 49.2599983215, Lat : 49.2835837, Lng : -123.1150063, Q1 : 0.972859084606, Q2 : 0.0515302270651, Q3 : -0.083139680326, Q4 : 0.209708631039}
2019-04-14 18:11:02.41: SIM {TimeUS : 56234997, Roll : 1.1, Pitch : -11.49, Yaw : 31.07, Alt : 49.2599983215, Lat : 49.2835849, Lng : -123.1150048, Q1 : 0.958309412003, Q2 : 0.0361073762178, Q3 : -0.0938932821155, Q4 : 0.267438590527}
2019-04-14 18:11:02.51: SIM {TimeUS : 56334957, Roll : -1.84, Pitch : -12.09, Yaw : 37.42, Alt : 49.2700004578, Lat : 49.2835861, Lng : -123.1150032, Q1 : 0.9422955513, Q2 : 0.0186008028686, Q3 : -0.104877009988, Q4 : 0.317386239767}
2019-04-14 18:11:02.61: SIM {TimeUS : 56434917, Roll : -4.39, Pitch : -12.35, Yaw : 42.4, Alt : 49.2700004578, Lat : 49.2835876, Lng : -123.1150015, Q1 : 0.927698016167, Q2 : 0.00331672420725, Q3 : -0.114049822092, Q4 : 0.355468809605}
2019-04-14 18:11:02.71: SIM {TimeUS : 56534877, Roll : -6.07, Pitch : -12.44, Yaw : 45.68, Alt : 49.2700004578, Lat : 49.283589, Lng : -123.1149999, Q1 : 0.917102754116, Q2 : -0.00654624495655, Q3 : -0.120178841054, Q4 : 0.380048424006}
2019-04-14 18:11:02.81: SIM {TimeUS : 56634837, Roll : -6.74, Pitch : -12.51, Yaw : 47.24, Alt : 49.2700004578, Lat : 49.2835904, Lng : -123.1149981, Q1 : 0.911747217178, Q2 : -0.00998680107296, Q3 : -0.123165726662, Q4 : 0.391723781824}
2019-04-14 18:11:02.91: SIM {TimeUS : 56734797, Roll : -6.51, Pitch : -12.71, Yaw : 47.31, Alt : 49.2700004578, Lat : 49.2835922, Lng : -123.1149966, Q1 : 0.911394178867, Q2 : -0.00739620951936, Q3 : -0.123945951462, Q4 : 0.392356187105}
2019-04-14 18:11:03.01: SIM {TimeUS : 56834757, Roll : -5.61, Pitch : -13.1, Yaw : 46.2, Alt : 49.2700004578, Lat : 49.2835939, Lng : -123.1149949, Q1 : 0.914902806282, Q2 : -7.75064836489e-05, Q3 : -0.123949274421, Q4 : 0.38417378068}
2019-04-14 18:11:03.11: SIM {TimeUS : 56934717, Roll : -4.3, Pitch : -13.65, Yaw : 44.23, Alt : 49.2700004578, Lat : 49.2835958, Lng : -123.1149932, Q1 : 0.920878767967, Q2 : 0.0101834628731, Q3 : -0.124086491764, Q4 : 0.369433581829}
2019-04-14 18:11:03.21: SIM {TimeUS : 57034677, Roll : -2.77, Pitch : -14.26, Yaw : 41.71, Alt : 49.2700004578, Lat : 49.2835976, Lng : -123.1149914, Q1 : 0.928031563759, Q2 : 0.0217736288905, Q3 : -0.124544486403, Q4 : 0.350388407707}
2019-04-14 18:11:03.31: SIM {TimeUS : 57134637, Roll : -1.19, Pitch : -14.82, Yaw : 38.94, Alt : 49.2700004578, Lat : 49.2835996, Lng : -123.1149897, Q1 : 0.935309112072, Q2 : 0.0332304090261, Q3 : -0.125080510974, Q4 : 0.329313725233}
2019-04-14 18:11:03.41: SIM {TimeUS : 57234597, Roll : 0.26, Pitch : -15.23, Yaw : 36.24, Alt : 49.2799987793, Lat : 49.2836017, Lng : -123.1149878, Q1 : 0.941902637482, Q2 : 0.0433828905225, Q3 : -0.125310331583, Q4 : 0.308601081371}
2019-04-14 18:11:03.51: SIM {TimeUS : 57334557, Roll : 1.47, Pitch : -15.47, Yaw : 33.89, Alt : 49.2799987793, Lat : 49.2836038, Lng : -123.1149859, Q1 : 0.947278678417, Q2 : 0.0514626987278, Q3 : -0.125042974949, Q4 : 0.290480613708}
2019-04-14 18:11:03.62: SIM {TimeUS : 57435350, Roll : 2.35, Pitch : -15.57, Yaw : 32.09, Alt : 49.2799987793, Lat : 49.283606, Lng : -123.1149838, Q1 : 0.9512129426, Q2 : 0.056992251426, Q3 : -0.124555356801, Q4 : 0.276463150978}
2019-04-14 18:11:03.71: SIM {TimeUS : 57535310, Roll : 2.83, Pitch : -15.58, Yaw : 30.96, Alt : 49.2799987793, Lat : 49.2836081, Lng : -123.1149816, Q1 : 0.953619003296, Q2 : 0.0597834922373, Q3 : -0.124084219337, Q4 : 0.267656296492}
2019-04-14 18:11:03.81: SIM {TimeUS : 57635270, Roll : 2.92, Pitch : -15.57, Yaw : 30.52, Alt : 49.2799987793, Lat : 49.2836104, Lng : -123.1149792, Q1 : 0.9546200037, Q2 : 0.0600251369178, Q3 : -0.124044522643, Q4 : 0.264027655125}
2019-04-14 18:11:03.91: SIM {TimeUS : 57735230, Roll : 2.67, Pitch : -15.59, Yaw : 30.67, Alt : 49.2799987793, Lat : 49.2836127, Lng : -123.1149768, Q1 : 0.954365432262, Q2 : 0.0581757389009, Q3 : -0.124652788043, Q4 : 0.265073508024}
2019-04-14 18:11:04.01: SIM {TimeUS : 57835190, Roll : 2.18, Pitch : -15.65, Yaw : 31.31, Alt : 49.2799987793, Lat : 49.2836151, Lng : -123.1149744, Q1 : 0.953035593033, Q2 : 0.0549496039748, Q3 : -0.126022994518, Q4 : 0.269855588675}
2019-04-14 18:11:04.11: SIM {TimeUS : 57935150, Roll : 1.54, Pitch : -15.78, Yaw : 32.28, Alt : 49.2799987793, Lat : 49.2836174, Lng : -123.1149718, Q1 : 0.950872242451, Q2 : 0.0509599409997, Q3 : -0.128161534667, Q4 : 0.277163743973}
2019-04-14 18:11:04.21: SIM {TimeUS : 58035110, Roll : 0.82, Pitch : -15.93, Yaw : 33.42, Alt : 49.2799987793, Lat : 49.2836197, Lng : -123.1149692, Q1 : 0.948204159737, Q2 : 0.0467178709805, Q3 : -0.130705729127, Q4 : 0.285731226206}
2019-04-14 18:11:04.31: SIM {TimeUS : 58135070, Roll : 0.12, Pitch : -16.08, Yaw : 34.57, Alt : 49.2799987793, Lat : 49.2836223, Lng : -123.1149665, Q1 : 0.945386052132, Q2 : 0.0426429919899, Q3 : -0.133285075426, Q4 : 0.294383823872}
2019-04-14 18:11:04.41: SIM {TimeUS : 58235030, Roll : -0.48, Pitch : -16.19, Yaw : 35.61, Alt : 49.2799987793, Lat : 49.2836248, Lng : -123.1149637, Q1 : 0.942785739899, Q2 : 0.0390940979123, Q3 : -0.135356560349, Q4 : 0.30216768384}
2019-04-14 18:11:04.51: SIM {TimeUS : 58334990, Roll : -0.92, Pitch : -16.24, Yaw : 36.43, Alt : 49.2799987793, Lat : 49.2836273, Lng : -123.114961, Q1 : 0.940664887428, Q2 : 0.0365689098835, Q3 : -0.136721089482, Q4 : 0.308414876461}
2019-04-14 18:11:04.61: SIM {TimeUS : 58434950, Roll : -1.2, Pitch : -16.27, Yaw : 37.0, Alt : 49.2799987793, Lat : 49.2836299, Lng : -123.1149582, Q1 : 0.939195990562, Q2 : 0.0350376851857, Q3 : -0.137522220612, Q4 : 0.312683492899}
2019-04-14 18:11:04.71: SIM {TimeUS : 58534910, Roll : -1.29, Pitch : -16.29, Yaw : 37.28, Alt : 49.2799987793, Lat : 49.2836324, Lng : -123.1149553, Q1 : 0.938425540924, Q2 : 0.0346814282238, Q3 : -0.137887403369, Q4 : 0.314867854118}
2019-04-14 18:11:04.81: SIM {TimeUS : 58634870, Roll : -1.21, Pitch : -16.31, Yaw : 37.29, Alt : 49.2799987793, Lat : 49.2836352, Lng : -123.1149525, Q1 : 0.938336610794, Q2 : 0.0354496650398, Q3 : -0.137740895152, Q4 : 0.315111339092}
2019-04-14 18:11:04.91: SIM {TimeUS : 58734830, Roll : -1.0, Pitch : -16.32, Yaw : 37.09, Alt : 49.2799987793, Lat : 49.2836378, Lng : -123.1149496, Q1 : 0.938811838627, Q2 : 0.0369354151189, Q3 : -0.137357503176, Q4 : 0.313689291477}
2019-04-14 18:11:05.01: SIM {TimeUS : 58834790, Roll : -0.74, Pitch : -16.36, Yaw : 36.73, Alt : 49.2799987793, Lat : 49.2836407, Lng : -123.1149466, Q1 : 0.939664840698, Q2 : 0.0387770496309, Q3 : -0.137116193771, Q4 : 0.311007201672}
2019-04-14 18:11:05.11: SIM {TimeUS : 58934750, Roll : -0.45, Pitch : -16.43, Yaw : 36.27, Alt : 49.2799987793, Lat : 49.2836434, Lng : -123.1149437, Q1 : 0.940713703632, Q2 : 0.0408074632287, Q3 : -0.137079954147, Q4 : 0.307573646307}
2019-04-14 18:11:05.21: SIM {TimeUS : 59034710, Roll : -0.16, Pitch : -16.52, Yaw : 35.78, Alt : 49.2799987793, Lat : 49.2836463, Lng : -123.1149407, Q1 : 0.941804289818, Q2 : 0.0428099445999, Q3 : -0.137209057808, Q4 : 0.303884297609}
2019-04-14 18:11:05.31: SIM {TimeUS : 59134670, Roll : 0.08, Pitch : -16.59, Yaw : 35.33, Alt : 49.2799987793, Lat : 49.2836492, Lng : -123.1149377, Q1 : 0.942832767963, Q2 : 0.0445015951991, Q3 : -0.137306213379, Q4 : 0.300388127565}
2019-04-14 18:11:05.41: SIM {TimeUS : 59234630, Roll : 0.29, Pitch : -16.65, Yaw : 34.94, Alt : 49.2799987793, Lat : 49.2836519, Lng : -123.1149346, Q1 : 0.943692922592, Q2 : 0.0458846017718, Q3 : -0.137372687459, Q4 : 0.297434091568}
2019-04-14 18:11:05.51: SIM {TimeUS : 59334590, Roll : 0.44, Pitch : -16.69, Yaw : 34.65, Alt : 49.2900009155, Lat : 49.2836548, Lng : -123.1149315, Q1 : 0.944323837757, Q2 : 0.0469125956297, Q3 : -0.137407943606, Q4 : 0.295246988535}
2019-04-14 18:11:05.61: SIM {TimeUS : 59434550, Roll : 0.53, Pitch : -16.72, Yaw : 34.48, Alt : 49.2900009155, Lat : 49.2836578, Lng : -123.1149284, Q1 : 0.944700419903, Q2 : 0.0474727936089, Q3 : -0.137511372566, Q4 : 0.293901473284}
2019-04-14 18:11:05.72: SIM {TimeUS : 59535343, Roll : 0.55, Pitch : -16.74, Yaw : 34.41, Alt : 49.2900009155, Lat : 49.2836608, Lng : -123.1149251, Q1 : 0.944833099842, Q2 : 0.0476134456694, Q3 : -0.137648701668, Q4 : 0.293387502432}
2019-04-14 18:11:05.81: SIM {TimeUS : 59635303, Roll : 0.52, Pitch : -16.76, Yaw : 34.45, Alt : 49.2900009155, Lat : 49.2836638, Lng : -123.114922, Q1 : 0.944730818272, Q2 : 0.0475168004632, Q3 : -0.137868717313, Q4 : 0.293629020452}
2019-04-14 18:11:05.91: SIM {TimeUS : 59735263, Roll : 0.44, Pitch : -16.78, Yaw : 34.56, Alt : 49.2900009155, Lat : 49.2836668, Lng : -123.1149188, Q1 : 0.944456577301, Q2 : 0.0470348745584, Q3 : -0.138203427196, Q4 : 0.294430553913}
2019-04-14 18:11:06.01: SIM {TimeUS : 59835223, Roll : 0.32, Pitch : -16.81, Yaw : 34.72, Alt : 49.2900009155, Lat : 49.2836698, Lng : -123.1149155, Q1 : 0.944052994251, Q2 : 0.0463383570313, Q3 : -0.138711318374, Q4 : 0.295594274998}
2019-04-14 18:11:06.11: SIM {TimeUS : 59935183, Roll : 0.19, Pitch : -16.85, Yaw : 34.9, Alt : 49.2900009155, Lat : 49.2836728, Lng : -123.1149122, Q1 : 0.943584620953, Q2 : 0.045572206378, Q3 : -0.139322459698, Q4 : 0.296918392181}
2019-04-14 18:11:06.21: SIM {TimeUS : 60035143, Roll : 0.06, Pitch : -16.9, Yaw : 35.08, Alt : 49.2900009155, Lat : 49.2836759, Lng : -123.1149089, Q1 : 0.943111717701, Q2 : 0.0448134839535, Q3 : -0.139997258782, Q4 : 0.298216104507}
2019-04-14 18:11:06.31: SIM {TimeUS : 60135103, Roll : -0.06, Pitch : -16.94, Yaw : 35.24, Alt : 49.2900009155, Lat : 49.2836789, Lng : -123.1149056, Q1 : 0.942704498768, Q2 : 0.0440484136343, Q3 : -0.14061717689, Q4 : 0.299323886633}
2019-04-14 18:11:06.41: SIM {TimeUS : 60235063, Roll : -0.17, Pitch : -16.98, Yaw : 35.35, Alt : 49.2900009155, Lat : 49.283682, Lng : -123.1149022, Q1 : 0.942395687103, Q2 : 0.0434130206704, Q3 : -0.14115254581, Q4 : 0.300135999918}
2019-04-14 18:11:06.51: SIM {TimeUS : 60335023, Roll : -0.25, Pitch : -17.01, Yaw : 35.42, Alt : 49.2900009155, Lat : 49.2836851, Lng : -123.1148989, Q1 : 0.942204892635, Q2 : 0.0429584644735, Q3 : -0.141603067517, Q4 : 0.300587981939}
2019-04-14 18:11:06.61: SIM {TimeUS : 60434983, Roll : -0.26, Pitch : -17.05, Yaw : 35.44, Alt : 49.2900009155, Lat : 49.2836882, Lng : -123.1148955, Q1 : 0.942114651203, Q2 : 0.0429723933339, Q3 : -0.141938835382, Q4 : 0.300710350275}
2019-04-14 18:11:06.71: SIM {TimeUS : 60534943, Roll : -0.22, Pitch : -17.09, Yaw : 35.41, Alt : 49.2999992371, Lat : 49.2836913, Lng : -123.1148921, Q1 : 0.942126333714, Q2 : 0.0433274395764, Q3 : -0.142161279917, Q4 : 0.300517708063}
2019-04-14 18:11:06.81: SIM {TimeUS : 60634903, Roll : -0.15, Pitch : -17.12, Yaw : 35.35, Alt : 49.2999992371, Lat : 49.2836944, Lng : -123.1148887, Q1 : 0.942217051983, Q2 : 0.0439352951944, Q3 : -0.142290562391, Q4 : 0.300083518028}
2019-04-14 18:11:06.91: SIM {TimeUS : 60734863, Roll : -0.06, Pitch : -17.16, Yaw : 35.27, Alt : 49.2999992371, Lat : 49.2836977, Lng : -123.1148853, Q1 : 0.942358970642, Q2 : 0.0446681715548, Q3 : -0.142387732863, Q4 : 0.299482941628}
2019-04-14 18:11:07.01: SIM {TimeUS : 60834823, Roll : 0.01, Pitch : -17.19, Yaw : 35.17, Alt : 49.2999992371, Lat : 49.2837009, Lng : -123.1148818, Q1 : 0.942544162273, Q2 : 0.0453081317246, Q3 : -0.142440319061, Q4 : 0.298778325319}
2019-04-14 18:11:07.11: SIM {TimeUS : 60934783, Roll : 0.07, Pitch : -17.21, Yaw : 35.07, Alt : 49.2999992371, Lat : 49.283704, Lng : -123.1148784, Q1 : 0.942748427391, Q2 : 0.0457105636597, Q3 : -0.14251960814, Q4 : 0.298033773899}
2019-04-14 18:11:07.21: SIM {TimeUS : 61034743, Roll : 0.1, Pitch : -17.22, Yaw : 34.98, Alt : 49.2999992371, Lat : 49.2837072, Lng : -123.1148749, Q1 : 0.942956030369, Q2 : 0.0458839535713, Q3 : -0.142561972141, Q4 : 0.297329157591}
2019-04-14 18:11:07.31: SIM {TimeUS : 61134703, Roll : 0.13, Pitch : -17.23, Yaw : 34.9, Alt : 49.2999992371, Lat : 49.2837105, Lng : -123.1148714, Q1 : 0.943136274815, Q2 : 0.0460309498012, Q3 : -0.142563983798, Q4 : 0.296733260155}
2019-04-14 18:11:07.41: SIM {TimeUS : 61234663, Roll : 0.15, Pitch : -17.24, Yaw : 34.84, Alt : 49.2999992371, Lat : 49.2837137, Lng : -123.1148679, Q1 : 0.94326210022, Q2 : 0.0462001003325, Q3 : -0.142655998468, Q4 : 0.296262472868}
2019-04-14 18:11:07.51: SIM {TimeUS : 61334623, Roll : 0.18, Pitch : -17.28, Yaw : 34.8, Alt : 49.2999992371, Lat : 49.2837169, Lng : -123.1148643, Q1 : 0.943305194378, Q2 : 0.0465073361993, Q3 : -0.142916321754, Q4 : 0.295951515436}
2019-04-14 18:11:07.61: SIM {TimeUS : 61434583, Roll : 0.21, Pitch : -17.34, Yaw : 34.78, Alt : 49.3100013733, Lat : 49.2837202, Lng : -123.1148609, Q1 : 0.943281173706, Q2 : 0.0468350611627, Q3 : -0.143324926496, Q4 : 0.295778781176}
2019-04-14 18:11:07.71: SIM {TimeUS : 61534543, Roll : 0.21, Pitch : -17.37, Yaw : 34.78, Alt : 49.3100013733, Lat : 49.2837235, Lng : -123.1148573, Q1 : 0.943251848221, Q2 : 0.0469117574394, Q3 : -0.143598258495, Q4 : 0.295727729797}
2019-04-14 18:11:07.82: SIM {TimeUS : 61635336, Roll : 0.2, Pitch : -17.37, Yaw : 34.79, Alt : 49.3100013733, Lat : 49.2837267, Lng : -123.1148538, Q1 : 0.943236112595, Q2 : 0.0468100458384, Q3 : -0.143625587225, Q4 : 0.295780599117}
2019-04-14 18:11:07.91: SIM {TimeUS : 61735296, Roll : 0.17, Pitch : -17.37, Yaw : 34.8, Alt : 49.3100013733, Lat : 49.2837301, Lng : -123.1148502, Q1 : 0.943200945854, Q2 : 0.0466406010091, Q3 : -0.143698483706, Q4 : 0.295884072781}
2019-04-14 18:11:08.01: SIM {TimeUS : 61835256, Roll : 0.14, Pitch : -17.39, Yaw : 34.82, Alt : 49.3100013733, Lat : 49.2837333, Lng : -123.1148466, Q1 : 0.943143665791, Q2 : 0.0464421957731, Q3 : -0.143923595548, Q4 : 0.295988500118}
2019-04-14 18:11:08.11: SIM {TimeUS : 61935216, Roll : 0.12, Pitch : -17.41, Yaw : 34.84, Alt : 49.3100013733, Lat : 49.2837367, Lng : -123.114843, Q1 : 0.943082213402, Q2 : 0.0463547110558, Q3 : -0.144142955542, Q4 : 0.296091198921}
2019-04-14 18:11:08.21: SIM {TimeUS : 62035176, Roll : 0.1, Pitch : -17.45, Yaw : 34.85, Alt : 49.3100013733, Lat : 49.2837399, Lng : -123.1148394, Q1 : 0.94301867485, Q2 : 0.0463043935597, Q3 : -0.144469052553, Q4 : 0.296142488718}
2019-04-14 18:11:08.31: SIM {TimeUS : 62135136, Roll : 0.09, Pitch : -17.47, Yaw : 34.85, Alt : 49.3100013733, Lat : 49.2837433, Lng : -123.1148358, Q1 : 0.942981719971, Q2 : 0.046262871474, Q3 : -0.144725263119, Q4 : 0.296141535044}
2019-04-14 18:11:08.41: SIM {TimeUS : 62235096, Roll : 0.08, Pitch : -17.5, Yaw : 34.85, Alt : 49.3100013733, Lat : 49.2837466, Lng : -123.1148322, Q1 : 0.942952573299, Q2 : 0.0463057868183, Q3 : -0.144959062338, Q4 : 0.296113461256}
2019-04-14 18:11:08.51: SIM {TimeUS : 62335056, Roll : 0.09, Pitch : -17.51, Yaw : 34.84, Alt : 49.3100013733, Lat : 49.28375, Lng : -123.1148286, Q1 : 0.942955613136, Q2 : 0.0463693402708, Q3 : -0.145057961345, Q4 : 0.296045303345}
2019-04-14 18:11:08.61: SIM {TimeUS : 62435016, Roll : 0.11, Pitch : -17.53, Yaw : 34.82, Alt : 49.3100013733, Lat : 49.2837533, Lng : -123.114825, Q1 : 0.94296848774, Q2 : 0.0465366020799, Q3 : -0.145146965981, Q4 : 0.295934319496}
2019-04-14 18:11:08.71: SIM {TimeUS : 62534976, Roll : 0.13, Pitch : -17.55, Yaw : 34.8, Alt : 49.3100013733, Lat : 49.2837567, Lng : -123.1148213, Q1 : 0.942984044552, Q2 : 0.0467404276133, Q3 : -0.145309433341, Q4 : 0.295772910118}
2019-04-14 18:11:08.81: SIM {TimeUS : 62634936, Roll : 0.13, Pitch : -17.6, Yaw : 34.78, Alt : 49.3199996948, Lat : 49.28376, Lng : -123.1148177, Q1 : 0.942998230457, Q2 : 0.0468730144203, Q3 : -0.145640030503, Q4 : 0.295543968678}
2019-04-14 18:11:08.91: SIM {TimeUS : 62734896, Roll : 0.13, Pitch : -17.64, Yaw : 34.75, Alt : 49.3199996948, Lat : 49.2837635, Lng : -123.114814, Q1 : 0.943021535873, Q2 : 0.0468736737967, Q3 : -0.146032199264, Q4 : 0.295275896788}
2019-04-14 18:11:09.01: SIM {TimeUS : 62834856, Roll : 0.12, Pitch : -17.68, Yaw : 34.72, Alt : 49.3199996948, Lat : 49.2837668, Lng : -123.1148104, Q1 : 0.943044364452, Q2 : 0.0468917749822, Q3 : -0.146434992552, Q4 : 0.295000553131}
2019-04-14 18:11:09.11: SIM {TimeUS : 62934816, Roll : 0.13, Pitch : -17.71, Yaw : 34.69, Alt : 49.3199996948, Lat : 49.2837703, Lng : -123.1148067, Q1 : 0.943078160286, Q2 : 0.0470500588417, Q3 : -0.146650120616, Q4 : 0.294760286808}
2019-04-14 18:11:09.21: SIM {TimeUS : 63034776, Roll : 0.15, Pitch : -17.72, Yaw : 34.66, Alt : 49.3199996948, Lat : 49.2837737, Lng : -123.114803, Q1 : 0.943138659, Q2 : 0.0471665523946, Q3 : -0.146635517478, Q4 : 0.294555276632}
2019-04-14 18:11:09.31: SIM {TimeUS : 63134736, Roll : 0.17, Pitch : -17.7, Yaw : 34.63, Alt : 49.3199996948, Lat : 49.283777, Lng : -123.1147994, Q1 : 0.943217873573, Q2 : 0.0472172871232, Q3 : -0.146460413933, Q4 : 0.294380515814}
2019-04-14 18:11:09.41: SIM {TimeUS : 63234696, Roll : 0.17, Pitch : -17.68, Yaw : 34.62, Alt : 49.3199996948, Lat : 49.2837805, Lng : -123.1147956, Q1 : 0.94328546524, Q2 : 0.0471495874226, Q3 : -0.146347805858, Q4 : 0.294230848551}
2019-04-14 18:11:09.51: SIM {TimeUS : 63334656, Roll : 0.16, Pitch : -17.67, Yaw : 34.6, Alt : 49.3199996948, Lat : 49.2837838, Lng : -123.114792, Q1 : 0.943345308304, Q2 : 0.0470706485212, Q3 : -0.146249964833, Q4 : 0.294100314379}
2019-04-14 18:11:09.61: SIM {TimeUS : 63434616, Roll : 0.17, Pitch : -17.65, Yaw : 34.59, Alt : 49.3199996948, Lat : 49.2837873, Lng : -123.1147882, Q1 : 0.943392336369, Q2 : 0.0470703095198, Q3 : -0.14611171186, Q4 : 0.294018059969}
2019-04-14 18:11:09.71: SIM {TimeUS : 63534576, Roll : 0.17, Pitch : -17.66, Yaw : 34.58, Alt : 49.3199996948, Lat : 49.2837908, Lng : -123.1147845, Q1 : 0.943402588367, Q2 : 0.0470942035317, Q3 : -0.14618344605, Q4 : 0.293945878744}
2019-04-14 18:11:09.81: SIM {TimeUS : 63634536, Roll : 0.17, Pitch : -17.69, Yaw : 34.57, Alt : 49.3199996948, Lat : 49.2837941, Lng : -123.1147808, Q1 : 0.943386137486, Q2 : 0.0471631549299, Q3 : -0.146399915218, Q4 : 0.293879806995}
2019-04-14 18:11:09.91: SIM {TimeUS : 63735329, Roll : 0.16, Pitch : -17.74, Yaw : 34.57, Alt : 49.3199996948, Lat : 49.2837977, Lng : -123.114777, Q1 : 0.943339943886, Q2 : 0.0471673384309, Q3 : -0.146868690848, Q4 : 0.293793410063}
2019-04-14 18:11:10.01: SIM {TimeUS : 63835289, Roll : 0.15, Pitch : -17.8, Yaw : 34.56, Alt : 49.3199996948, Lat : 49.2838012, Lng : -123.1147733, Q1 : 0.943288862705, Q2 : 0.0472584106028, Q3 : -0.14732632041, Q4 : 0.293713718653}
2019-04-14 18:11:10.11: SIM {TimeUS : 63935249, Roll : 0.16, Pitch : -17.83, Yaw : 34.55, Alt : 49.3300018311, Lat : 49.2838045, Lng : -123.1147696, Q1 : 0.943264842033, Q2 : 0.0473714210093, Q3 : -0.147580683231, Q4 : 0.293644934893}
2019-04-14 18:11:10.21: SIM {TimeUS : 64035209, Roll : 0.15, Pitch : -17.86, Yaw : 34.55, Alt : 49.3300018311, Lat : 49.283808, Lng : -123.1147658, Q1 : 0.943246424198, Q2 : 0.0474077239633, Q3 : -0.147838965058, Q4 : 0.293568372726}
2019-04-14 18:11:10.31: SIM {TimeUS : 64135169, Roll : 0.15, Pitch : -17.87, Yaw : 34.54, Alt : 49.3300018311, Lat : 49.2838115, Lng : -123.1147621, Q1 : 0.943247258663, Q2 : 0.0473722331226, Q3 : -0.148001566529, Q4 : 0.293489456177}
2019-04-14 18:11:10.41: SIM {TimeUS : 64235129, Roll : 0.16, Pitch : -17.86, Yaw : 34.53, Alt : 49.3300018311, Lat : 49.283815, Lng : -123.1147583, Q1 : 0.943277299404, Q2 : 0.0474245771766, Q3 : -0.147900477052, Q4 : 0.293435394764}
2019-04-14 18:11:10.51: SIM {TimeUS : 64335089, Roll : 0.18, Pitch : -17.87, Yaw : 34.52, Alt : 49.3300018311, Lat : 49.2838184, Lng : -123.1147546, Q1 : 0.943288803101, Q2 : 0.0476297289133, Q3 : -0.147863835096, Q4 : 0.293383687735}
2019-04-14 18:11:10.61: SIM {TimeUS : 64435049, Roll : 0.2, Pitch : -17.88, Yaw : 34.51, Alt : 49.3300018311, Lat : 49.283822, Lng : -123.1147508, Q1 : 0.943288505077, Q2 : 0.0477955453098, Q3 : -0.147961899638, Q4 : 0.293308109045}
2019-04-14 18:11:10.71: SIM {TimeUS : 64535009, Roll : 0.21, Pitch : -17.9, Yaw : 34.5, Alt : 49.3300018311, Lat : 49.2838255, Lng : -123.114747, Q1 : 0.943297207355, Q2 : 0.0478856153786, Q3 : -0.148046582937, Q4 : 0.293222665787}
2019-04-14 18:11:10.81: SIM {TimeUS : 64634969, Roll : 0.21, Pitch : -17.89, Yaw : 34.48, Alt : 49.3300018311, Lat : 49.283829, Lng : -123.1147433, Q1 : 0.943330824375, Q2 : 0.0479238517582, Q3 : -0.14799657464, Q4 : 0.293133556843}
2019-04-14 18:11:10.91: SIM {TimeUS : 64734929, Roll : 0.21, Pitch : -17.89, Yaw : 34.47, Alt : 49.3300018311, Lat : 49.2838324, Lng : -123.1147395, Q1 : 0.943364500999, Q2 : 0.0479003489017, Q3 : -0.148005083203, Q4 : 0.293024718761}
2019-04-14 18:11:11.01: SIM {TimeUS : 64834889, Roll : 0.19, Pitch : -17.91, Yaw : 34.46, Alt : 49.3300018311, Lat : 49.283836, Lng : -123.1147357, Q1 : 0.943382322788, Q2 : 0.0477732494473, Q3 : -0.148210003972, Q4 : 0.292884469032}
2019-04-14 18:11:11.11: SIM {TimeUS : 64934849, Roll : 0.16, Pitch : -17.95, Yaw : 34.45, Alt : 49.3300018311, Lat : 49.2838395, Lng : -123.1147319, Q1 : 0.943381726742, Q2 : 0.0475901700556, Q3 : -0.148591458797, Q4 : 0.292722851038}
2019-04-14 18:11:11.21: SIM {TimeUS : 65034809, Roll : 0.15, Pitch : -17.96, Yaw : 34.43, Alt : 49.3300018311, Lat : 49.283843, Lng : -123.1147281, Q1 : 0.943409144878, Q2 : 0.0474780425429, Q3 : -0.148705109954, Q4 : 0.29259505868}
2019-04-14 18:11:11.31: SIM {TimeUS : 65134769, Roll : 0.16, Pitch : -17.95, Yaw : 34.42, Alt : 49.3300018311, Lat : 49.2838464, Lng : -123.1147243, Q1 : 0.94344741106, Q2 : 0.0475177690387, Q3 : -0.14861355722, Q4 : 0.292511790991}
2019-04-14 18:11:11.41: SIM {TimeUS : 65234729, Roll : 0.18, Pitch : -17.94, Yaw : 34.41, Alt : 49.3300018311, Lat : 49.28385, Lng : -123.1147206, Q1 : 0.943478345871, Q2 : 0.0476741828024, Q3 : -0.148496419191, Q4 : 0.292445898056}
2019-04-14 18:11:11.51: SIM {TimeUS : 65334689, Roll : 0.2, Pitch : -17.95, Yaw : 34.4, Alt : 49.3300018311, Lat : 49.2838536, Lng : -123.1147168, Q1 : 0.943493843079, Q2 : 0.0478075928986, Q3 : -0.148519575596, Q4 : 0.292362481356}
2019-04-14 18:11:11.61: SIM {TimeUS : 65434649, Roll : 0.19, Pitch : -17.96, Yaw : 34.39, Alt : 49.3400001526, Lat : 49.2838571, Lng : -123.1147129, Q1 : 0.943503499031, Q2 : 0.0477612577379, Q3 : -0.148690804839, Q4 : 0.292251735926}
2019-04-14 18:11:11.71: SIM {TimeUS : 65534609, Roll : 0.16, Pitch : -17.98, Yaw : 34.37, Alt : 49.3400001526, Lat : 49.2838606, Lng : -123.1147091, Q1 : 0.943517923355, Q2 : 0.0475689396262, Q3 : -0.148910328746, Q4 : 0.292124629021}
2019-04-14 18:11:11.81: SIM {TimeUS : 65634569, Roll : 0.14, Pitch : -18.0, Yaw : 34.36, Alt : 49.3400001526, Lat : 49.2838641, Lng : -123.1147053, Q1 : 0.943531036377, Q2 : 0.0474512055516, Q3 : -0.149090066552, Q4 : 0.292009890079}
2019-04-14 18:11:11.92: SIM {TimeUS : 65735362, Roll : 0.15, Pitch : -18.02, Yaw : 34.35, Alt : 49.3400001526, Lat : 49.2838676, Lng : -123.1147015, Q1 : 0.943533062935, Q2 : 0.047516528517, Q3 : -0.149242654443, Q4 : 0.291914820671}
2019-04-14 18:11:12.01: SIM {TimeUS : 65835322, Roll : 0.16, Pitch : -18.03, Yaw : 34.34, Alt : 49.3400001526, Lat : 49.2838713, Lng : -123.1146977, Q1 : 0.943537890911, Q2 : 0.0476186648011, Q3 : -0.149336561561, Q4 : 0.291834354401}
2019-04-14 18:11:12.11: SIM {TimeUS : 65935282, Roll : 0.18, Pitch : -18.04, Yaw : 34.33, Alt : 49.3400001526, Lat : 49.2838748, Lng : -123.1146938, Q1 : 0.943533778191, Q2 : 0.0478302463889, Q3 : -0.149375393987, Q4 : 0.291793227196}
2019-04-14 18:11:12.21: SIM {TimeUS : 66035242, Roll : 0.2, Pitch : -18.06, Yaw : 34.33, Alt : 49.3400001526, Lat : 49.2838784, Lng : -123.11469, Q1 : 0.94352042675, Q2 : 0.0479998774827, Q3 : -0.149487778544, Q4 : 0.2917509377}
2019-04-14 18:11:12.31: SIM {TimeUS : 66135202, Roll : 0.21, Pitch : -18.08, Yaw : 34.32, Alt : 49.3400001526, Lat : 49.2838819, Lng : -123.1146862, Q1 : 0.943504691124, Q2 : 0.0481776110828, Q3 : -0.149608045816, Q4 : 0.291710883379}
2019-04-14 18:11:12.41: SIM {TimeUS : 66235162, Roll : 0.23, Pitch : -18.1, Yaw : 34.32, Alt : 49.3400001526, Lat : 49.2838854, Lng : -123.1146824, Q1 : 0.943487823009, Q2 : 0.0483589358628, Q3 : -0.149722322822, Q4 : 0.291676789522}
2019-04-14 18:11:12.51: SIM {TimeUS : 66335122, Roll : 0.25, Pitch : -18.11, Yaw : 34.31, Alt : 49.3400001526, Lat : 49.2838889, Lng : -123.1146786, Q1 : 0.943472266197, Q2 : 0.048576362431, Q3 : -0.149784803391, Q4 : 0.291658878326}
2019-04-14 18:11:12.61: SIM {TimeUS : 66435082, Roll : 0.28, Pitch : -18.13, Yaw : 34.3, Alt : 49.3400001526, Lat : 49.2838925, Lng : -123.1146747, Q1 : 0.943460047245, Q2 : 0.0487890839577, Q3 : -0.149832382798, Q4 : 0.29163864255}
2019-04-14 18:11:12.71: SIM {TimeUS : 66535042, Roll : 0.27, Pitch : -18.12, Yaw : 34.3, Alt : 49.3400001526, Lat : 49.2838962, Lng : -123.1146709, Q1 : 0.943486452103, Q2 : 0.0486797317863, Q3 : -0.149808228016, Q4 : 0.291583746672}
2019-04-14 18:11:12.81: SIM {TimeUS : 66635002, Roll : 0.23, Pitch : -18.12, Yaw : 34.29, Alt : 49.3499984741, Lat : 49.2838997, Lng : -123.1146671, Q1 : 0.943506538868, Q2 : 0.0484254918993, Q3 : -0.149935930967, Q4 : 0.291495501995}
