2019-04-14 16:44:52.30: SIM {TimeUS : 40716207, Roll : 0.0, Pitch : 0.0, Yaw : 0.0, Alt : 30.1000003815, Lat : 49.28357, Lng : -123.11502, Q1 : 1.0, Q2 : 0.0, Q3 : 0.0, Q4 : 0.0}
2019-04-14 16:44:52.41: SIM {TimeUS : 40835326, Roll : 0.0, Pitch : 0.0, Yaw : 0.0, Alt : 30.1000003815, Lat : 49.28357, Lng : -123.11502, Q1 : 1.0, Q2 : 0.0, Q3 : 0.0, Q4 : 0.0}
2019-04-14 16:44:52.51: SIM {TimeUS : 40935286, Roll : 0.0, Pitch : 0.0, Yaw : 0.0, Alt : 30.1000003815, Lat : 49.28357, Lng : -123.11502, Q1 : 1.0, Q2 : 0.0, Q3 : 0.0, Q4 : 0.0}
2019-04-14 16:44:52.61: SIM {TimeUS : 41035246, Roll : 0.0, Pitch : 0.0, Yaw : 0.0, Alt : 30.1000003815, Lat : 49.28357, Lng : -123.11502, Q1 : 1.0, Q2 : 0.0, Q3 : 0.0, Q4 : 0.0}
2019-04-14 16:44:52.71: SIM {TimeUS : 41135206, Roll : 0.0, Pitch : 0.0, Yaw : 0.0, Alt : 30.1000003815, Lat : 49.28357, Lng : -123.11502, Q1 : 1.0, Q2 : 0.0, Q3 : 0.0, Q4 : 0.0}
2019-04-14 16:44:52.81: SIM {TimeUS : 41235166, Roll : 0.0, Pitch : 0.0, Yaw : 0.0, Alt : 30.1000003815, Lat : 49.28357, Lng : -123.11502, Q1 : 1.0, Q2 : 0.0, Q3 : 0.0, Q4 : 0.0}
2019-04-14 16:44:52.91: SIM {TimeUS : 41335126, Roll : 0.0, Pitch : 0.0, Yaw : 0.0, Alt : 30.1000003815, Lat : 49.28357, Lng : -123.11502, Q1 : 1.0, Q2 : 0.0, Q3 : 0.0, Q4 : 0.0}
2019-04-14 16:44:53.01: SIM {TimeUS : 41435086, Roll : 0.0, Pitch : 0.0, Yaw : 0.0, Alt : 30.1000003815, Lat : 49.28357, Lng : -123.11502, Q1 : 1.0, Q2 : 0.0, Q3 : 0.0, Q4 : 0.0}
2019-04-14 16:44:53.11: SIM {TimeUS : 41535046, Roll : 0.0, Pitch : 0.0, Yaw : 0.0, Alt : 30.1000003815, Lat : 49.28357, Lng : -123.11502, Q1 : 1.0, Q2 : 0.0, Q3 : 0.0, Q4 : 0.0}
2019-04-14 16:44:53.21: SIM {TimeUS : 41635006, Roll : 0.0, Pitch : 0.0, Yaw : 0.0, Alt : 30.1000003815, Lat : 49.28357, Lng : -123.11502, Q1 : 1.0, Q2 : 0.0, Q3 : 0.0, Q4 : 0.0}
2019-04-14 16:44:53.31: SIM {TimeUS : 41734966, Roll : 0.0, Pitch : 0.0, Yaw : 0.0, Alt : 30.1000003815, Lat : 49.28357, Lng : -123.11502, Q1 : 1.0, Q2 : 0.0, Q3 : 0.0, Q4 : 0.0}
2019-04-14 16:44:53.41: SIM {TimeUS : 41834926, Roll : 0.0, Pitch : 0.0, Yaw : 0.0, Alt : 30.1000003815, Lat : 49.28357, Lng : -123.11502, Q1 : 1.0, Q2 : 0.0, Q3 : 0.0, Q4 : 0.0}
2019-04-14 16:44:53.51: SIM {TimeUS : 41934886, Roll : 0.0, Pitch : 0.0, Yaw : 0.0, Alt : 30.1000003815, Lat : 49.28357, Lng : -123.11502, Q1 : 1.0, Q2 : 0.0, Q3 : 0.0, Q4 : 0.0}
2019-04-14 16:44:53.61: SIM {TimeUS : 42034846, Roll : 0.0, Pitch : 0.0, Yaw : 0.0, Alt : 30.1000003815, Lat : 49.28357, Lng : -123.11502, Q1 : 1.0, Q2 : 0.0, Q3 : 0.0, Q4 : 0.0}
2019-04-14 16:44:53.71: SIM {TimeUS : 42134806, Roll : 0.0, Pitch : 0.0, Yaw : 0.0, Alt : 30.1000003815, Lat : 49.28357, Lng : -123.11502, Q1 : 1.0, Q2 : 0.0, Q3 : 0.0, Q4 : 0.0}
2019-04-14 16:44:53.81: SIM {TimeUS : 42234766, Roll : 0.0, Pitch : 0.0, Yaw : 0.0, Alt : 30.1000003815, Lat : 49.28357, Lng : -123.11502, Q1 : 1.0, Q2 : 0.0, Q3 : 0.0, Q4 : 0.0}
2019-04-14 16:44:53.91: SIM {TimeUS : 42334726, Roll : 0.0, Pitch : 0.0, Yaw : 0.0, Alt : 30.1000003815, Lat : 49.28357, Lng : -123.11502, Q1 : 1.0, Q2 : 0.0, Q3 : 0.0, Q4 : 0.0}
2019-04-14 16:44:54.01: SIM {TimeUS : 42434686, Roll : 0.0, Pitch : 0.0, Yaw : 0.0, Alt : 30.1000003815, Lat : 49.28357, Lng : -123.11502, Q1 : 1.0, Q2 : 0.0, Q3 : 0.0, Q4 : 0.0}
2019-04-14 16:44:54.11: SIM {TimeUS : 42534646, Roll : 0.0, Pitch : 0.0, Yaw : 0.0, Alt : 30.1000003815, Lat : 49.28357, Lng : -123.11502, Q1 : 1.0, Q2 : 0.0, Q3 : 0.0, Q4 : 0.0}
2019-04-14 16:44:54.21: SIM {TimeUS : 42634606, Roll : 0.0, Pitch : 0.0, Yaw : 0.0, Alt : 30.1000003815, Lat : 49.28357, Lng : -123.11502, Q1 : 1.0, Q2 : 0.0, Q3 : 0.0, Q4 : 0.0}
2019-04-14 16:44:54.31: SIM {TimeUS : 42734566, Roll : 0.0, Pitch : 0.0, Yaw : 0.0, Alt : 30.1000003815, Lat : 49.28357, Lng : -123.11502, Q1 : 1.0, Q2 : 0.0, Q3 : 0.0, Q4 : 0.0}
2019-04-14 16:44:54.42: SIM {TimeUS : 42835359, Roll : 0.0, Pitch : 0.0, Yaw : 0.0, Alt : 30.1000003815, Lat : 49.28357, Lng : -123.11502, Q1 : 1.0, Q2 : 0.0, Q3 : 0.0, Q4 : 0.0}
2019-04-14 16:44:54.51: SIM {TimeUS : 42935319, Roll : 0.0, Pitch : 0.0, Yaw : 0.0, Alt : 30.1000003815, Lat : 49.28357, Lng : -123.11502, Q1 : 1.0, Q2 : 0.0, Q3 : 0.0, Q4 : 0.0}
2019-04-14 16:44:54.61: SIM {TimeUS : 43035279, Roll : 0.0, Pitch : 0.0, Yaw : 360.0, Alt : 30.1000003815, Lat : 49.28357, Lng : -123.11502, Q1 : 1.0, Q2 : 0.0, Q3 : 0.0, Q4 : -7.94657811776e-11}
2019-04-14 16:44:54.71: SIM {TimeUS : 43135239, Roll : 0.0, Pitch : 0.0, Yaw : 360.0, Alt : 30.1000003815, Lat : 49.28357, Lng : -123.11502, Q1 : 1.0, Q2 : 0.0, Q3 : 0.0, Q4 : -2.43134365974e-08}
2019-04-14 16:44:54.81: SIM {TimeUS : 43235199, Roll : 0.0, Pitch : 0.0, Yaw : 359.99, Alt : 30.1000003815, Lat : 49.28357, Lng : -123.11502, Q1 : 1.0, Q2 : 0.0, Q3 : 0.0, Q4 : -1.77324835704e-07}
2019-04-14 16:44:54.91: SIM {TimeUS : 43335159, Roll : 0.0, Pitch : 0.0, Yaw : 359.99, Alt : 30.1000003815, Lat : 49.28357, Lng : -123.11502, Q1 : 1.0, Q2 : 0.0, Q3 : 0.0, Q4 : -3.21791020497e-07}
2019-04-14 16:44:55.01: SIM {TimeUS : 43435119, Roll : 0.0, Pitch : 0.0, Yaw : 359.99, Alt : 30.1000003815, Lat : 49.28357, Lng : -123.11502, Q1 : 1.0, Q2 : 0.0, Q3 : 0.0, Q4 : -5.03919011408e-07}
2019-04-14 16:44:55.11: SIM {TimeUS : 43535079, Roll : 0.0, Pitch : 0.0, Yaw : 359.99, Alt : 30.1000003815, Lat : 49.28357, Lng : -123.11502, Q1 : 1.0, Q2 : 0.0, Q3 : 0.0, Q4 : -7.16915394605e-07}
2019-04-14 16:44:55.21: SIM {TimeUS : 43635039, Roll : 0.0, Pitch : 0.0, Yaw : 359.99, Alt : 30.1000003815, Lat : 49.28357, Lng : -123.11502, Q1 : 1.0, Q2 : 0.0, Q3 : 0.0, Q4 : -9.02877729914e-07}
2019-04-14 16:44:55.31: SIM {TimeUS : 43734999, Roll : 0.0, Pitch : 0.0, Yaw : 359.99, Alt : 30.1000003815, Lat : 49.28357, Lng : -123.11502, Q1 : 1.0, Q2 : 0.0, Q3 : 0.0, Q4 : -1.15568968795e-06}
2019-04-14 16:44:55.41: SIM {TimeUS : 43834959, Roll : 0.0, Pitch : 0.0, Yaw : 359.99, Alt : 30.1000003815, Lat : 49.28357, Lng : -123.11502, Q1 : 1.0, Q2 : 0.0, Q3 : 0.0, Q4 : -1.33984929107e-06}
2019-04-14 16:44:55.51: SIM {TimeUS : 43934919, Roll : 0.0, Pitch : 0.0, Yaw : 359.99, Alt : 30.1200008392, Lat : 49.28357, Lng : -123.11502, Q1 : 1.0, Q2 : 0.0, Q3 : 0.0, Q4 : -1.5400768234e-06}
2019-04-14 16:44:55.61: SIM {TimeUS : 44034879, Roll : 0.0, Pitch : 0.0, Yaw : 359.99, Alt : 30.1499996185, Lat : 49.28357, Lng : -123.11502, Q1 : 1.0, Q2 : 0.0, Q3 : 0.0, Q4 : -1.75638444944e-06}
2019-04-14 16:44:55.71: SIM {TimeUS : 44134839, Roll : 0.0, Pitch : 0.0, Yaw : 359.99, Alt : 30.1800003052, Lat : 49.28357, Lng : -123.11502, Q1 : 1.0, Q2 : 0.0, Q3 : 0.0, Q4 : -1.97041572392e-06}
2019-04-14 16:44:55.81: SIM {TimeUS : 44234799, Roll : 0.0, Pitch : 0.0, Yaw : 359.99, Alt : 30.2099990845, Lat : 49.28357, Lng : -123.11502, Q1 : 1.0, Q2 : -5.64826132177e-06, Q3 : -4.94225696457e-06, Q4 : -2.26604834097e-06}
2019-04-14 16:44:55.91: SIM {TimeUS : 44334759, Roll : -0.17, Pitch : -0.15, Yaw : 359.99, Alt : 30.2700004578, Lat : 49.28357, Lng : -123.11502, Q1 : 0.999997794628, Q2 : -0.00156723405235, Q3 : -0.00138915493153, Q4 : -1.87464047485e-05}
2019-04-14 16:44:56.01: SIM {TimeUS : 44434719, Roll : -0.46, Pitch : -0.45, Yaw : 359.99, Alt : 30.3899993896, Lat : 49.28357, Lng : -123.11502, Q1 : 0.999983966351, Q2 : -0.00403989059851, Q3 : -0.00396654801443, Q4 : -6.38887067907e-05}
2019-04-14 16:44:56.11: SIM {TimeUS : 44534679, Roll : -0.69, Pitch : -0.69, Yaw : 359.98, Alt : 30.5400009155, Lat : 49.28357, Lng : -123.11502, Q1 : 0.999963462353, Q2 : -0.00604204554111, Q3 : -0.00605393294245, Q4 : -0.000126953425934}
2019-04-14 16:44:56.21: SIM {TimeUS : 44634639, Roll : -0.8, Pitch : -0.78, Yaw : 359.98, Alt : 30.7000007629, Lat : 49.28357, Lng : -123.11502, Q1 : 0.999951779842, Q2 : -0.00703866640106, Q3 : -0.00684772757813, Q4 : -0.000209064761293}
2019-04-14 16:44:56.31: SIM {TimeUS : 44734599, Roll : -0.77, Pitch : -0.74, Yaw : 359.97, Alt : 30.8500003815, Lat : 49.28357, Lng : -123.1150201, Q1 : 0.999956130981, Q2 : -0.00677524274215, Q3 : -0.0064576594159, Q4 : -0.000297704013065}
2019-04-14 16:44:56.41: SIM {TimeUS : 44834559, Roll : -0.62, Pitch : -0.58, Yaw : 359.96, Alt : 31.0100002289, Lat : 49.28357, Lng : -123.1150201, Q1 : 0.999971807003, Q2 : -0.00546139711514, Q3 : -0.00513770664111, Q4 : -0.000376407784643}
2019-04-14 16:44:56.52: SIM {TimeUS : 44935352, Roll : -0.4, Pitch : -0.38, Yaw : 359.95, Alt : 31.1599998474, Lat : 49.2835701, Lng : -123.1150202, Q1 : 0.999987900257, Q2 : -0.0035781278275, Q3 : -0.00335077755153, Q4 : -0.000438228889834}
2019-04-14 16:44:56.61: SIM {TimeUS : 45035312, Roll : -0.18, Pitch : -0.19, Yaw : 359.94, Alt : 31.3199996948, Lat : 49.2835701, Lng : -123.1150203, Q1 : 0.999997138977, Q2 : -0.0016425952781, Q3 : -0.00168283295352, Q4 : -0.000484149291879}
2019-04-14 16:44:56.71: SIM {TimeUS : 45135272, Roll : -0.01, Pitch : -0.04, Yaw : 359.94, Alt : 31.4899997711, Lat : 49.2835702, Lng : -123.1150204, Q1 : 0.999999761581, Q2 : -0.000108717511466, Q3 : -0.000414719426772, Q4 : -0.000514512241352}
2019-04-14 16:44:56.81: SIM {TimeUS : 45235232, Roll : 0.08, Pitch : 0.04, Yaw : 359.93, Alt : 31.6700000763, Lat : 49.2835702, Lng : -123.1150204, Q1 : 0.999999523163, Q2 : 0.00072525156429, Q3 : 0.000413979316363, Q4 : -0.00052894797409}
2019-04-14 16:44:56.91: SIM {TimeUS : 45335192, Roll : 0.1, Pitch : 0.08, Yaw : 359.93, Alt : 31.8400001526, Lat : 49.2835703, Lng : -123.1150205, Q1 : 0.99999910593, Q2 : 0.000953731185291, Q3 : 0.000783141353168, Q4 : -0.000537665910088}
2019-04-14 16:44:57.01: SIM {TimeUS : 45435152, Roll : 0.08, Pitch : 0.09, Yaw : 359.93, Alt : 32.0299987793, Lat : 49.2835703, Lng : -123.1150206, Q1 : 0.99999922514, Q2 : 0.000754698994569, Q3 : 0.000844473775942, Q4 : -0.00054325198289}
2019-04-14 16:44:57.11: SIM {TimeUS : 45535112, Roll : 0.07, Pitch : 0.1, Yaw : 359.93, Alt : 32.2099990845, Lat : 49.2835703, Lng : -123.1150206, Q1 : 0.99999922514, Q2 : 0.000636143609881, Q3 : 0.000950898858719, Q4 : -0.000533820537385}
2019-04-14 16:44:57.21: SIM {TimeUS : 45635072, Roll : 0.07, Pitch : 0.12, Yaw : 359.94, Alt : 32.4000015259, Lat : 49.2835703, Lng : -123.1150207, Q1 : 0.99999910593, Q2 : 0.000696418515872, Q3 : 0.00105027714744, Q4 : -0.00051821564557}
2019-04-14 16:44:57.31: SIM {TimeUS : 45735032, Roll : 0.09, Pitch : 0.13, Yaw : 359.94, Alt : 32.5999984741, Lat : 49.2835703, Lng : -123.1150207, Q1 : 0.999998867512, Q2 : 0.000839891959913, Q3 : 0.00116971123498, Q4 : -0.000487084180349}
2019-04-14 16:44:57.41: SIM {TimeUS : 45834992, Roll : 0.1, Pitch : 0.15, Yaw : 359.94, Alt : 32.7900009155, Lat : 49.2835704, Lng : -123.1150207, Q1 : 0.999998629093, Q2 : 0.000933213508688, Q3 : 0.00131732935552, Q4 : -0.000453677057521}
2019-04-14 16:44:57.51: SIM {TimeUS : 45934952, Roll : 0.12, Pitch : 0.15, Yaw : 359.95, Alt : 32.9900016785, Lat : 49.2835704, Lng : -123.1150208, Q1 : 0.999998509884, Q2 : 0.00105524458922, Q3 : 0.00131831748877, Q4 : -0.000422990560764}
2019-04-14 16:44:57.61: SIM {TimeUS : 46034912, Roll : 0.13, Pitch : 0.14, Yaw : 359.95, Alt : 33.1899986267, Lat : 49.2835704, Lng : -123.1150208, Q1 : 0.999998509884, Q2 : 0.00114520720672, Q3 : 0.00124202435836, Q4 : -0.000397332303692}
2019-04-14 16:44:57.71: SIM {TimeUS : 46134872, Roll : 0.13, Pitch : 0.13, Yaw : 359.95, Alt : 33.4000015259, Lat : 49.2835704, Lng : -123.1150208, Q1 : 0.999998569489, Q2 : 0.00119570957031, Q3 : 0.00116178009193, Q4 : -0.000378204480512}
2019-04-14 16:44:57.81: SIM {TimeUS : 46234832, Roll : 0.13, Pitch : 0.12, Yaw : 359.95, Alt : 33.5999984741, Lat : 49.2835704, Lng : -123.1150208, Q1 : 0.999998569489, Q2 : 0.00120664539281, Q3 : 0.00112085626461, Q4 : -0.000363599159755}
2019-04-14 16:44:57.91: SIM {TimeUS : 46334792, Roll : 0.15, Pitch : 0.13, Yaw : 359.95, Alt : 33.8100013733, Lat : 49.2835704, Lng : -123.1150208, Q1 : 0.999998390675, Q2 : 0.00131418299861, Q3 : 0.0011542912107, Q4 : -0.000363130820915}
2019-04-14 16:44:58.01: SIM {TimeUS : 46434752, Roll : 0.15, Pitch : 0.13, Yaw : 359.95, Alt : 34.0200004578, Lat : 49.2835704, Lng : -123.1150208, Q1 : 0.99999833107, Q2 : 0.00136443879455, Q3 : 0.00114223523997, Q4 : -0.000369912188035}
2019-04-14 16:44:58.11: SIM {TimeUS : 46534712, Roll : 0.14, Pitch : 0.11, Yaw : 359.95, Alt : 34.2299995422, Lat : 49.2835704, Lng : -123.1150208, Q1 : 0.999998569489, Q2 : 0.00128049647901, Q3 : 0.00104477198329, Q4 : -0.000390033586882}
2019-04-14 16:44:58.21: SIM {TimeUS : 46634672, Roll : 0.12, Pitch : 0.11, Yaw : 359.95, Alt : 34.4399986267, Lat : 49.2835704, Lng : -123.1150208, Q1 : 0.999998807907, Q2 : 0.00113189115655, Q3 : 0.000979940639809, Q4 : -0.000418414390879}
2019-04-14 16:44:58.31: SIM {TimeUS : 46734632, Roll : 0.1, Pitch : 0.1, Yaw : 359.94, Alt : 34.6599998474, Lat : 49.2835704, Lng : -123.1150208, Q1 : 0.999999046326, Q2 : 0.000898670288734, Q3 : 0.000934142852202, Q4 : -0.000461240182631}
2019-04-14 16:44:58.41: SIM {TimeUS : 46834592, Roll : 0.08, Pitch : 0.07, Yaw : 359.94, Alt : 34.8699989319, Lat : 49.2835704, Lng : -123.1150208, Q1 : 0.999999403954, Q2 : 0.000724361336324, Q3 : 0.000653999566566, Q4 : -0.000513927720021}
2019-04-14 16:44:58.51: SIM {TimeUS : 46934552, Roll : 0.06, Pitch : 0.04, Yaw : 359.93, Alt : 35.0900001526, Lat : 49.2835704, Lng : -123.1150208, Q1 : 0.999999582767, Q2 : 0.000585030938964, Q3 : 0.000370755646145, Q4 : -0.000571559474338}
2019-04-14 16:44:58.62: SIM {TimeUS : 47035345, Roll : 0.03, Pitch : 0.02, Yaw : 359.92, Alt : 35.3100013733, Lat : 49.2835704, Lng : -123.1150208, Q1 : 0.999999761581, Q2 : 0.000329835951561, Q3 : 0.000212257247767, Q4 : -0.000625365588348}
2019-04-14 16:44:58.71: SIM {TimeUS : 47135305, Roll : 0.02, Pitch : 0.01, Yaw : 359.92, Alt : 35.5200004578, Lat : 49.2835704, Lng : -123.1150208, Q1 : 0.999999761581, Q2 : 0.000215533058508, Q3 : 0.000162643089425, Q4 : -0.000671853602398}
2019-04-14 16:44:58.81: SIM {TimeUS : 47235265, Roll : 0.02, Pitch : 0.01, Yaw : 359.91, Alt : 35.7400016785, Lat : 49.2835704, Lng : -123.1150207, Q1 : 0.999999701977, Q2 : 0.000231810787227, Q3 : 0.000131853521452, Q4 : -0.000714142981451}
2019-04-14 16:44:58.91: SIM {TimeUS : 47335225, Roll : 0.01, Pitch : -0.01, Yaw : 359.91, Alt : 35.9599990845, Lat : 49.2835704, Lng : -123.1150207, Q1 : 0.999999701977, Q2 : 8.93930409802e-05, Q3 : -0.000100677527371, Q4 : -0.00074698147364}
2019-04-14 16:44:59.01: SIM {TimeUS : 47435185, Roll : -0.02, Pitch : -0.05, Yaw : 359.91, Alt : 36.1800003052, Lat : 49.2835704, Lng : -123.1150207, Q1 : 0.999999582767, Q2 : -0.000206977376365, Q3 : -0.000452114851214, Q4 : -0.000771778053604}
2019-04-14 16:44:59.11: SIM {TimeUS : 47535145, Roll : -0.05, Pitch : -0.07, Yaw : 359.9, Alt : 36.4000015259, Lat : 49.2835704, Lng : -123.1150207, Q1 : 0.999999344349, Q2 : -0.000515140360221, Q3 : -0.000652766320854, Q4 : -0.000792529259343}
2019-04-14 16:44:59.21: SIM {TimeUS : 47635105, Roll : -0.09, Pitch : -0.09, Yaw : 359.9, Alt : 36.6300010681, Lat : 49.2835704, Lng : -123.1150207, Q1 : 0.999999046326, Q2 : -0.000805189891253, Q3 : -0.00079696328612, Q4 : -0.000811447564047}
2019-04-14 16:44:59.31: SIM {TimeUS : 47735065, Roll : -0.09, Pitch : -0.08, Yaw : 359.9, Alt : 36.8499984741, Lat : 49.2835704, Lng : -123.1150207, Q1 : 0.999998986721, Q2 : -0.000860967149492, Q3 : -0.000781088485382, Q4 : -0.000825269962661}
2019-04-14 16:44:59.41: SIM {TimeUS : 47835025, Roll : -0.08, Pitch : -0.07, Yaw : 359.9, Alt : 37.0699996948, Lat : 49.2835704, Lng : -123.1150207, Q1 : 0.99999910593, Q2 : -0.000777579494752, Q3 : -0.000665670610033, Q4 : -0.000838994979858}
2019-04-14 16:44:59.51: SIM {TimeUS : 47934985, Roll : -0.07, Pitch : -0.05, Yaw : 359.9, Alt : 37.2999992371, Lat : 49.2835704, Lng : -123.1150207, Q1 : 0.999999344349, Q2 : -0.00062055257149, Q3 : -0.000461468909634, Q4 : -0.000850913114846}
2019-04-14 16:44:59.61: SIM {TimeUS : 48034945, Roll : -0.05, Pitch : -0.03, Yaw : 359.9, Alt : 37.5200004578, Lat : 49.2835704, Lng : -123.1150207, Q1 : 0.999999463558, Q2 : -0.000468582235044, Q3 : -0.000324964814354, Q4 : -0.00085790688172}
2019-04-14 16:44:59.71: SIM {TimeUS : 48134905, Roll : -0.06, Pitch : -0.04, Yaw : 359.9, Alt : 37.75, Lat : 49.2835704, Lng : -123.1150206, Q1 : 0.999999403954, Q2 : -0.000538882391993, Q3 : -0.000349984475179, Q4 : -0.000862174259964}
2019-04-14 16:44:59.81: SIM {TimeUS : 48234865, Roll : -0.07, Pitch : -0.03, Yaw : 359.89, Alt : 37.9799995422, Lat : 49.2835704, Lng : -123.1150206, Q1 : 0.999999344349, Q2 : -0.00069647282362, Q3 : -0.000285907473881, Q4 : -0.000876221398357}
2019-04-14 16:44:59.91: SIM {TimeUS : 48334825, Roll : -0.1, Pitch : -0.01, Yaw : 359.89, Alt : 38.2000007629, Lat : 49.2835704, Lng : -123.1150206, Q1 : 0.999999165535, Q2 : -0.000905836292077, Q3 : -0.000162942276802, Q4 : -0.000896079174709}
2019-04-14 16:45:00.01: SIM {TimeUS : 48434785, Roll : -0.1, Pitch : 0.0, Yaw : 359.89, Alt : 38.4300003052, Lat : 49.2835704, Lng : -123.1150206, Q1 : 0.999999165535, Q2 : -0.000922103761695, Q3 : -3.77160031348e-05, Q4 : -0.000913964293431}
2019-04-14 16:45:00.11: SIM {TimeUS : 48534745, Roll : -0.08, Pitch : 0.02, Yaw : 359.89, Alt : 38.6599998474, Lat : 49.2835706, Lng : -123.1150206, Q1 : 0.999999284744, Q2 : -0.000700401084032, Q3 : 0.000195599073777, Q4 : -0.000934614043217}
2019-04-14 16:45:00.21: SIM {TimeUS : 48634705, Roll : -0.05, Pitch : 0.02, Yaw : 359.89, Alt : 38.8899993896, Lat : 49.2835706, Lng : -123.1150207, Q1 : 0.999999463558, Q2 : -0.000471064617159, Q3 : 0.000196248161956, Q4 : -0.000943325867411}
2019-04-14 16:45:00.31: SIM {TimeUS : 48734665, Roll : -0.02, Pitch : 0.01, Yaw : 359.89, Alt : 39.1199989319, Lat : 49.2835706, Lng : -123.1150207, Q1 : 0.999999523163, Q2 : -0.000217865439481, Q3 : 0.000159451970831, Q4 : -0.000948862289079}
2019-04-14 16:45:00.41: SIM {TimeUS : 48834625, Roll : 0.01, Pitch : 0.03, Yaw : 359.89, Alt : 39.3499984741, Lat : 49.2835706, Lng : -123.1150207, Q1 : 0.999999463558, Q2 : 9.91919732769e-05, Q3 : 0.000331251183525, Q4 : -0.000954595801886}
2019-04-14 16:45:00.51: SIM {TimeUS : 48934585, Roll : 0.05, Pitch : 0.07, Yaw : 359.88, Alt : 39.5800018311, Lat : 49.2835706, Lng : -123.1150207, Q1 : 0.99999922514, Q2 : 0.0004514567554, Q3 : 0.000627537956461, Q4 : -0.000969634391367}
2019-04-14 16:45:00.61: SIM {TimeUS : 49034545, Roll : 0.07, Pitch : 0.1, Yaw : 359.88, Alt : 39.8100013733, Lat : 49.2835706, Lng : -123.1150207, Q1 : 0.999998867512, Q2 : 0.000694723392371, Q3 : 0.000935899908654, Q4 : -0.00099350977689}
2019-04-14 16:45:00.72: SIM {TimeUS : 49135338, Roll : 0.06, Pitch : 0.13, Yaw : 359.88, Alt : 40.0400009155, Lat : 49.2835706, Lng : -123.1150207, Q1 : 0.999998569489, Q2 : 0.00061018258566, Q3 : 0.00119631027337, Q4 : -0.00101439538412}
2019-04-14 16:45:00.81: SIM {TimeUS : 49235298, Roll : 0.02, Pitch : 0.16, Yaw : 359.87, Alt : 40.2700004578, Lat : 49.2835706, Lng : -123.1150207, Q1 : 0.999998450279, Q2 : 0.000214700878132, Q3 : 0.00140402570833, Q4 : -0.00105478730984}
2019-04-14 16:45:00.91: SIM {TimeUS : 49335258, Roll : -0.01, Pitch : 0.16, Yaw : 359.87, Alt : 40.5099983215, Lat : 49.2835706, Lng : -123.1150207, Q1 : 0.99999833107, Q2 : -0.000132204339025, Q3 : 0.00148362817708, Q4 : -0.00108913565055}
2019-04-14 16:45:01.01: SIM {TimeUS : 49435218, Roll : -0.03, Pitch : 0.15, Yaw : 359.87, Alt : 40.7400016785, Lat : 49.2835706, Lng : -123.1150207, Q1 : 0.999998450279, Q2 : -0.00032458914211, Q3 : 0.00133384624496, Q4 : -0.00111041136552}
2019-04-14 16:45:01.11: SIM {TimeUS : 49535178, Roll : -0.04, Pitch : 0.12, Yaw : 359.86, Alt : 40.9700012207, Lat : 49.2835706, Lng : -123.1150207, Q1 : 0.999998629093, Q2 : -0.000353454466676, Q3 : 0.00112853839528, Q4 : -0.00113666674588}
2019-04-14 16:45:01.21: SIM {TimeUS : 49635138, Roll : -0.02, Pitch : 0.12, Yaw : 359.86, Alt : 41.2000007629, Lat : 49.2835706, Lng : -123.1150207, Q1 : 0.999998688698, Q2 : -0.000221749767661, Q3 : 0.00110553298146, Q4 : -0.00116455589887}
2019-04-14 16:45:01.31: SIM {TimeUS : 49735098, Roll : 0.01, Pitch : 0.14, Yaw : 359.86, Alt : 41.4399986267, Lat : 49.2835706, Lng : -123.1150207, Q1 : 0.999998509884, Q2 : 0.000136685266625, Q3 : 0.00123159878422, Q4 : -0.00119815708604}
2019-04-14 16:45:01.41: SIM {TimeUS : 49835058, Roll : 0.06, Pitch : 0.14, Yaw : 359.85, Alt : 41.6699981689, Lat : 49.2835706, Lng : -123.1150207, Q1 : 0.999998271465, Q2 : 0.000582487264182, Q3 : 0.00128671142738, Q4 : -0.00123301986605}
2019-04-14 16:45:01.51: SIM {TimeUS : 49935018, Roll : 0.1, Pitch : 0.12, Yaw : 359.85, Alt : 41.9099998474, Lat : 49.2835706, Lng : -123.1150207, Q1 : 0.999998211861, Q2 : 0.000895249540918, Q3 : 0.00106168910861, Q4 : -0.00126992398873}
2019-04-14 16:45:01.61: SIM {TimeUS : 50034978, Roll : 0.1, Pitch : 0.08, Yaw : 359.85, Alt : 42.1399993896, Lat : 49.2835706, Lng : -123.1150207, Q1 : 0.999998450279, Q2 : 0.000897601537872, Q3 : 0.000747202779166, Q4 : -0.00130787550006}
2019-04-14 16:45:01.71: SIM {TimeUS : 50134938, Roll : 0.06, Pitch : 0.06, Yaw : 359.84, Alt : 42.3699989319, Lat : 49.2835706, Lng : -123.1150207, Q1 : 0.999998807907, Q2 : 0.000562029774301, Q3 : 0.00052360619884, Q4 : -0.00133193447255}
2019-04-14 16:45:01.81: SIM {TimeUS : 50234898, Roll : 0.0, Pitch : 0.05, Yaw : 359.84, Alt : 42.6100006104, Lat : 49.2835706, Lng : -123.1150207, Q1 : 0.999998986721, Q2 : 8.23350637802e-05, Q3 : 0.000453376502264, Q4 : -0.00134735112078}
2019-04-14 16:45:01.91: SIM {TimeUS : 50334858, Roll : -0.02, Pitch : 0.07, Yaw : 359.84, Alt : 42.8400001526, Lat : 49.2835706, Lng : -123.1150207, Q1 : 0.999998867512, Q2 : -0.000256169878412, Q3 : 0.000612660951447, Q4 : -0.00135632127058}
2019-04-14 16:45:02.01: SIM {TimeUS : 50434818, Roll : -0.05, Pitch : 0.08, Yaw : 359.84, Alt : 43.0800018311, Lat : 49.2835704, Lng : -123.1150207, Q1 : 0.999998748302, Q2 : -0.00043685833225, Q3 : 0.000716061505955, Q4 : -0.00136340339668}
2019-04-14 16:45:02.11: SIM {TimeUS : 50534778, Roll : -0.05, Pitch : 0.07, Yaw : 359.84, Alt : 43.3100013733, Lat : 49.2835704, Lng : -123.1150207, Q1 : 0.999998748302, Q2 : -0.000450658408226, Q3 : 0.000649564201012, Q4 : -0.00136998237576}
2019-04-14 16:45:02.21: SIM {TimeUS : 50634738, Roll : -0.05, Pitch : 0.05, Yaw : 359.84, Alt : 43.5499992371, Lat : 49.2835704, Lng : -123.1150207, Q1 : 0.999998807907, Q2 : -0.00051639409503, Q3 : 0.00051938497927, Q4 : -0.00138135976158}
2019-04-14 16:45:02.31: SIM {TimeUS : 50734698, Roll : -0.05, Pitch : 0.04, Yaw : 359.84, Alt : 43.7799987793, Lat : 49.2835704, Lng : -123.1150207, Q1 : 0.999998807907, Q2 : -0.000487724668346, Q3 : 0.000376692303689, Q4 : -0.0013956099283}
2019-04-14 16:45:02.41: SIM {TimeUS : 50834658, Roll : -0.03, Pitch : 0.03, Yaw : 359.83, Alt : 44.0200004578, Lat : 49.2835704, Lng : -123.1150207, Q1 : 0.999998867512, Q2 : -0.000320574908983, Q3 : 0.000303513603285, Q4 : -0.00142002501525}
2019-04-14 16:45:02.51: SIM {TimeUS : 50934618, Roll : -0.02, Pitch : 0.03, Yaw : 359.83, Alt : 44.2599983215, Lat : 49.2835704, Lng : -123.1150206, Q1 : 0.999998927116, Q2 : -0.000176698507858, Q3 : 0.000282310240436, Q4 : -0.00144863605965}
2019-04-14 16:45:02.61: SIM {TimeUS : 51034578, Roll : -0.02, Pitch : 0.01, Yaw : 359.83, Alt : 44.4900016785, Lat : 49.2835704, Lng : -123.1150206, Q1 : 0.999998867512, Q2 : -0.00020404838142, Q3 : 0.000140960110002, Q4 : -0.00147811230272}
2019-04-14 16:45:02.71: SIM {TimeUS : 51134538, Roll : -0.02, Pitch : -0.01, Yaw : 359.82, Alt : 44.7299995422, Lat : 49.2835704, Lng : -123.1150206, Q1 : 0.999998807907, Q2 : -0.000258124229731, Q3 : -0.000121834709716, Q4 : -0.00150660739746}
2019-04-14 16:45:02.81: SIM {TimeUS : 51235331, Roll : -0.02, Pitch : -0.03, Yaw : 359.82, Alt : 44.9700012207, Lat : 49.2835704, Lng : -123.1150206, Q1 : 0.999998748302, Q2 : -0.000248253549216, Q3 : -0.000331793271471, Q4 : -0.00153844233137}
2019-04-14 16:45:02.91: SIM {TimeUS : 51335291, Roll : -0.01, Pitch : -0.05, Yaw : 359.82, Alt : 45.2000007629, Lat : 49.2835703, Lng : -123.1150206, Q1 : 0.999998629093, Q2 : -0.000163185948622, Q3 : -0.000440225674538, Q4 : -0.00157046772074}
2019-04-14 16:45:03.01: SIM {TimeUS : 51435251, Roll : -0.02, Pitch : -0.05, Yaw : 359.81, Alt : 45.4399986267, Lat : 49.2835703, Lng : -123.1150206, Q1 : 0.999998569489, Q2 : -0.000194354375708, Q3 : -0.000447947357316, Q4 : -0.00160434353165}
2019-04-14 16:45:03.11: SIM {TimeUS : 51535211, Roll : -0.04, Pitch : -0.04, Yaw : 359.81, Alt : 45.6699981689, Lat : 49.2835703, Lng : -123.1150206, Q1 : 0.999998509884, Q2 : -0.000421118136728, Q3 : -0.000384698621929, Q4 : -0.00163967593107}
2019-04-14 16:45:03.21: SIM {TimeUS : 51635171, Roll : -0.08, Pitch : -0.03, Yaw : 359.8, Alt : 45.9099998474, Lat : 49.2835703, Lng : -123.1150206, Q1 : 0.999998271465, Q2 : -0.000752520398237, Q3 : -0.000310970179271, Q4 : -0.00167345593218}
2019-04-14 16:45:03.31: SIM {TimeUS : 51735131, Roll : -0.11, Pitch : -0.02, Yaw : 359.8, Alt : 46.1399993896, Lat : 49.2835703, Lng : -123.1150206, Q1 : 0.999998033047, Q2 : -0.00099450792186, Q3 : -0.000234738661675, Q4 : -0.00170802732464}
2019-04-14 16:45:03.41: SIM {TimeUS : 51835091, Roll : -0.12, Pitch : -0.01, Yaw : 359.8, Alt : 46.3600006104, Lat : 49.2835703, Lng : -123.1150206, Q1 : 0.999997913837, Q2 : -0.00104795966763, Q3 : -0.000114545538963, Q4 : -0.00174192863051}
2019-04-14 16:45:03.51: SIM {TimeUS : 51935051, Roll : -0.1, Pitch : 0.0, Yaw : 359.79, Alt : 46.5800018311, Lat : 49.2835703, Lng : -123.1150206, Q1 : 0.999997973442, Q2 : -0.000943926803302, Q3 : 7.28776358301e-05, Q4 : -0.00177335110493}
2019-04-14 16:45:03.61: SIM {TimeUS : 52035011, Roll : -0.08, Pitch : 0.01, Yaw : 359.79, Alt : 46.7999992371, Lat : 49.2835703, Lng : -123.1150206, Q1 : 0.999998092651, Q2 : -0.000719377247151, Q3 : 0.000148466890096, Q4 : -0.00180121546146}
2019-04-14 16:45:03.71: SIM {TimeUS : 52134971, Roll : -0.06, Pitch : 0.0, Yaw : 359.79, Alt : 47.0099983215, Lat : 49.2835703, Lng : -123.1150206, Q1 : 0.999998211861, Q2 : -0.000536345760338, Q3 : 8.32697551232e-05, Q4 : -0.00182498968206}
2019-04-14 16:45:03.81: SIM {TimeUS : 52234931, Roll : -0.05, Pitch : 0.0, Yaw : 359.78, Alt : 47.2200012207, Lat : 49.2835703, Lng : -123.1150206, Q1 : 0.999998152256, Q2 : -0.000465069548227, Q3 : -5.95478195464e-05, Q4 : -0.00184717250522}
2019-04-14 16:45:03.91: SIM {TimeUS : 52334891, Roll : -0.03, Pitch : -0.03, Yaw : 359.78, Alt : 47.4099998474, Lat : 49.2835703, Lng : -123.1150206, Q1 : 0.999998152256, Q2 : -0.000314055621857, Q3 : -0.000292328331852, Q4 : -0.00186645588838}
2019-04-14 16:45:04.01: SIM {TimeUS : 52434851, Roll : -0.01, Pitch : -0.06, Yaw : 359.78, Alt : 47.5999984741, Lat : 49.2835703, Lng : -123.1150206, Q1 : 0.999998092651, Q2 : -0.000108544991235, Q3 : -0.000527350232005, Q4 : -0.00188230234198}
2019-04-14 16:45:04.11: SIM {TimeUS : 52534811, Roll : -0.01, Pitch : -0.1, Yaw : 359.78, Alt : 47.7700004578, Lat : 49.2835703, Lng : -123.1150206, Q1 : 0.999997794628, Q2 : -9.05217966647e-05, Q3 : -0.00091587897623, Q4 : -0.00189843820408}
2019-04-14 16:45:04.21: SIM {TimeUS : 52634771, Roll : -0.02, Pitch : -0.14, Yaw : 359.78, Alt : 47.9399986267, Lat : 49.2835703, Lng : -123.1150207, Q1 : 0.999997377396, Q2 : -0.000178719346877, Q3 : -0.00124334532302, Q4 : -0.0019172008615}
2019-04-14 16:45:04.31: SIM {TimeUS : 52734731, Roll : 0.0, Pitch : -0.15, Yaw : 359.77, Alt : 48.0900001526, Lat : 49.2835703, Lng : -123.1150207, Q1 : 0.999997258186, Q2 : -4.22357288699e-06, Q3 : -0.00131078308914, Q4 : -0.00193728855811}
2019-04-14 16:45:04.41: SIM {TimeUS : 52834691, Roll : 0.03, Pitch : -0.13, Yaw : 359.77, Alt : 48.2299995422, Lat : 49.2835703, Lng : -123.1150207, Q1 : 0.999997377396, Q2 : 0.000293641351163, Q3 : -0.0011623299215, Q4 : -0.00196061795577}
2019-04-14 16:45:04.51: SIM {TimeUS : 52934651, Roll : 0.06, Pitch : -0.1, Yaw : 359.77, Alt : 48.3600006104, Lat : 49.2835703, Lng : -123.1150207, Q1 : 0.999997437, Q2 : 0.000535736966413, Q3 : -0.000909624854103, Q4 : -0.00198606587946}
2019-04-14 16:45:04.61: SIM {TimeUS : 53034611, Roll : 0.07, Pitch : -0.07, Yaw : 359.76, Alt : 48.4799995422, Lat : 49.2835703, Lng : -123.1150207, Q1 : 0.999997615814, Q2 : 0.000620678765699, Q3 : -0.000612460076809, Q4 : -0.00201315921731}
2019-04-14 16:45:04.71: SIM {TimeUS : 53134571, Roll : 0.07, Pitch : -0.04, Yaw : 359.76, Alt : 48.5800018311, Lat : 49.2835704, Lng : -123.1150207, Q1 : 0.99999755621, Q2 : 0.000679482182022, Q3 : -0.000418283219915, Q4 : -0.00204519252293}
2019-04-14 16:45:04.82: SIM {TimeUS : 53235364, Roll : 0.06, Pitch : -0.05, Yaw : 359.76, Alt : 48.6699981689, Lat : 49.2835704, Lng : -123.1150207, Q1 : 0.99999755621, Q2 : 0.000568766670767, Q3 : -0.000478952424601, Q4 : -0.00208397745155}
2019-04-14 16:45:04.91: SIM {TimeUS : 53335324, Roll : 0.04, Pitch : -0.05, Yaw : 359.75, Alt : 48.75, Lat : 49.2835704, Lng : -123.1150207, Q1 : 0.999997615814, Q2 : 0.000366372521967, Q3 : -0.000465560762677, Q4 : -0.00212159217335}
2019-04-14 16:45:05.01: SIM {TimeUS : 53435284, Roll : 0.02, Pitch : -0.04, Yaw : 359.75, Alt : 48.8199996948, Lat : 49.2835704, Lng : -123.1150207, Q1 : 0.99999755621, Q2 : 0.000237808693782, Q3 : -0.00037298630923, Q4 : -0.00215576589108}
2019-04-14 16:45:05.11: SIM {TimeUS : 53535244, Roll : 0.01, Pitch : -0.03, Yaw : 359.74, Alt : 48.8800010681, Lat : 49.2835704, Lng : -123.1150207, Q1 : 0.99999755621, Q2 : 0.000114214934001, Q3 : -0.000274727906799, Q4 : -0.00218774494715}
2019-04-14 16:45:05.21: SIM {TimeUS : 53635204, Roll : 0.0, Pitch : 0.0, Yaw : 359.74, Alt : 48.9399986267, Lat : 49.2835704, Lng : -123.1150207, Q1 : 0.99999755621, Q2 : 7.1804432082e-05, Q3 : -7.98267356004e-05, Q4 : -0.00221232580952}
2019-04-14 16:45:05.31: SIM {TimeUS : 53735164, Roll : 0.03, Pitch : 0.01, Yaw : 359.74, Alt : 48.9799995422, Lat : 49.2835704, Lng : -123.1150207, Q1 : 0.999997437, Q2 : 0.000288066948997, Q3 : 0.000122025689052, Q4 : -0.0022324596066}
2019-04-14 16:45:05.41: SIM {TimeUS : 53835124, Roll : 0.12, Pitch : -0.06, Yaw : 359.74, Alt : 49.0200004578, Lat : 49.2835704, Lng : -123.1150207, Q1 : 0.99999666214, Q2 : 0.00112278806046, Q3 : -0.000566474918742, Q4 : -0.00224915100262}
2019-04-14 16:45:05.51: SIM {TimeUS : 53935084, Roll : 0.34, Pitch : -0.35, Yaw : 359.73, Alt : 49.0499992371, Lat : 49.2835704, Lng : -123.1150207, Q1 : 0.999988019466, Q2 : 0.00299299904145, Q3 : -0.00313551002182, Q4 : -0.00226479046978}
2019-04-14 16:45:05.61: SIM {TimeUS : 54035044, Roll : 0.69, Pitch : -0.89, Yaw : 359.73, Alt : 49.0800018311, Lat : 49.2835704, Lng : -123.1150207, Q1 : 0.999948501587, Q2 : 0.00606991676614, Q3 : -0.00780791742727, Q4 : -0.00227099424228}
2019-04-14 16:45:05.71: SIM {TimeUS : 54135004, Roll : 1.16, Pitch : -1.64, Yaw : 359.72, Alt : 49.1100006104, Lat : 49.2835706, Lng : -123.1150207, Q1 : 0.999842762947, Q2 : 0.0101590501145, Q3 : -0.0143547691405, Q4 : -0.00226773438044}
2019-04-14 16:45:05.81: SIM {TimeUS : 54234964, Roll : 1.73, Pitch : -2.51, Yaw : 359.7, Alt : 49.1300010681, Lat : 49.2835706, Lng : -123.1150206, Q1 : 0.999642908573, Q2 : 0.0150605840608, Q3 : -0.0219618994743, Q4 : -0.00222757016309}
2019-04-14 16:45:05.91: SIM {TimeUS : 54334924, Roll : 2.3, Pitch : -3.35, Yaw : 359.68, Alt : 49.1399993896, Lat : 49.2835707, Lng : -123.1150206, Q1 : 0.999366402626, Q2 : 0.0200176890939, Q3 : -0.029353922233, Q4 : -0.00212752539665}
2019-04-14 16:45:06.01: SIM {TimeUS : 54434884, Roll : 2.79, Pitch : -4.07, Yaw : 359.67, Alt : 49.1599998474, Lat : 49.2835708, Lng : -123.1150204, Q1 : 0.999068439007, Q2 : 0.0242775697261, Q3 : -0.0356238856912, Q4 : -0.00196070969105}
2019-04-14 16:45:06.11: SIM {TimeUS : 54534844, Roll : 3.16, Pitch : -4.61, Yaw : 359.67, Alt : 49.1699981689, Lat : 49.2835709, Lng : -123.1150202, Q1 : 0.998806595802, Q2 : 0.0275072772056, Q3 : -0.0403201431036, Q4 : -0.00173287012149}
2019-04-14 16:45:06.21: SIM {TimeUS : 54634804, Roll : 3.42, Pitch : -4.99, Yaw : 359.68, Alt : 49.1800003052, Lat : 49.2835712, Lng : -123.11502, Q1 : 0.998603105545, Q2 : 0.0297616049647, Q3 : -0.0436341017485, Q4 : -0.0014723475324}
2019-04-14 16:45:06.31: SIM {TimeUS : 54734764, Roll : 3.62, Pitch : -5.3, Yaw : 359.69, Alt : 49.2000007629, Lat : 49.2835715, Lng : -123.1150198, Q1 : 0.998427450657, Q2 : 0.0314898826182, Q3 : -0.0463630370796, Q4 : -0.00120202451944}
2019-04-14 16:45:06.41: SIM {TimeUS : 54834724, Roll : 3.82, Pitch : -5.6, Yaw : 359.7, Alt : 49.2000007629, Lat : 49.2835719, Lng : -123.1150194, Q1 : 0.998246788979, Q2 : 0.0331979393959, Q3 : -0.0489941164851, Q4 : -0.000931971881073}
2019-04-14 16:45:06.51: SIM {TimeUS : 54934684, Roll : 4.04, Pitch : -5.92, Yaw : 359.71, Alt : 49.2099990845, Lat : 49.2835722, Lng : -123.115019, Q1 : 0.998043358326, Q2 : 0.0351304784417, Q3 : -0.0517189353704, Q4 : -0.000667443557177}
2019-04-14 16:45:06.61: SIM {TimeUS : 55034644, Roll : 4.27, Pitch : -6.22, Yaw : 359.71, Alt : 49.2200012207, Lat : 49.2835727, Lng : -123.1150185, Q1 : 0.997832119465, Q2 : 0.0370824933052, Q3 : -0.0543677918613, Q4 : -0.000418382405769}
2019-04-14 16:45:06.71: SIM {TimeUS : 55134604, Roll : 4.46, Pitch : -6.49, Yaw : 359.72, Alt : 49.2299995422, Lat : 49.2835733, Lng : -123.1150179, Q1 : 0.997636675835, Q2 : 0.0387530066073, Q3 : -0.056738961488, Q4 : -0.000194196167286}
2019-04-14 16:45:06.81: SIM {TimeUS : 55234564, Roll : 4.59, Pitch : -6.72, Yaw : 359.72, Alt : 49.2299995422, Lat : 49.2835739, Lng : -123.1150173, Q1 : 0.99747979641, Q2 : 0.0398841798306, Q3 : -0.0586798228323, Q4 : -1.30302605612e-05}
2019-04-14 16:45:06.92: SIM {TimeUS : 55335357, Roll : 4.69, Pitch : -6.88, Yaw : 359.73, Alt : 49.2400016785, Lat : 49.2835745, Lng : -123.1150166, Q1 : 0.997363328934, Q2 : 0.0407309792936, Q3 : -0.0600614100695, Q4 : 0.000134988149512}
2019-04-14 16:45:07.01: SIM {TimeUS : 55435317, Roll : 4.75, Pitch : -6.98, Yaw : 359.73, Alt : 49.2400016785, Lat : 49.2835752, Lng : -123.1150158, Q1 : 0.997285246849, Q2 : 0.0413035936654, Q3 : -0.0609599947929, Q4 : 0.000252656725934}
2019-04-14 16:45:07.11: SIM {TimeUS : 55535277, Roll : 4.81, Pitch : -7.07, Yaw : 359.74, Alt : 49.25, Lat : 49.2835761, Lng : -123.115015, Q1 : 0.997214794159, Q2 : 0.0418026968837, Q3 : -0.0617666617036, Q4 : 0.000337092060363}
2019-04-14 16:45:07.21: SIM {TimeUS : 55635237, Roll : 4.93, Pitch : -7.19, Yaw : 359.74, Alt : 49.25, Lat : 49.2835769, Lng : -123.1150141, Q1 : 0.997109830379, Q2 : 0.0427962988615, Q3 : -0.0627714246511, Q4 : 0.000447411264759}
2019-04-14 16:45:07.31: SIM {TimeUS : 55735197, Roll : 5.29, Pitch : -7.25, Yaw : 359.91, Alt : 49.2599983215, Lat : 49.2835777, Lng : -123.1150132, Q1 : 0.996930360794, Q2 : 0.0460673719645, Q3 : -0.063267275691, Q4 : 0.00220542564057}
2019-04-14 16:45:07.41: SIM {TimeUS : 55835157, Roll : 5.92, Pitch : -7.27, Yaw : 0.84, Alt : 49.2599983215, Lat : 49.2835788, Lng : -123.1150122, Q1 : 0.996602535248, Q2 : 0.0520465001464, Q3 : -0.0629448965192, Q4 : 0.0106102405116}
2019-04-14 16:45:07.51: SIM {TimeUS : 55935117, Roll : 6.52, Pitch : -7.43, Yaw : 3.16, Alt : 49.2599983215, Lat : 49.2835798, Lng : -123.1150111, Q1 : 0.995792090893, Q2 : 0.0585931390524, Q3 : -0.0631797835231, Q4 : 0.0311967749149}
2019-04-14 16:45:07.61: SIM {TimeUS : 56035077, Roll : 6.76, Pitch : -7.93, Yaw : 7.09, Alt : 49.2599983215, Lat : 49.2835807, Lng : -123.1150099, Q1 : 0.993705451488, Q2 : 0.0629809200764, Q3 : -0.065310113132, Q4 : 0.0657075494528}
2019-04-14 16:45:07.71: SIM {TimeUS : 56135037, Roll : 6.39, Pitch : -8.78, Yaw : 12.51, Alt : 49.2599983215, Lat : 49.2835818, Lng : -123.1150086, Q1 : 0.989112555981, Q2 : 0.0636199712753, Q3 : -0.0699206590652, Q4 : 0.112782970071}
2019-04-14 16:45:07.81: SIM {TimeUS : 56234997, Roll : 5.18, Pitch : -9.86, Yaw : 19.13, Alt : 49.2599983215, Lat : 49.283583, Lng : -123.1150072, Q1 : 0.980787456036, Q2 : 0.058714106679, Q3 : -0.0772498622537, Q4 : 0.169236749411}
2019-04-14 16:45:07.91: SIM {TimeUS : 56334957, Roll : 2.96, Pitch : -10.95, Yaw : 26.3, Alt : 49.2700004578, Lat : 49.2835842, Lng : -123.1150058, Q1 : 0.968428075314, Q2 : 0.0468057394028, Q3 : -0.0870642960072, Q4 : 0.228858247399}
2019-04-14 16:45:08.01: SIM {TimeUS : 56434917, Roll : 0.1, Pitch : -11.77, Yaw : 33.24, Alt : 49.2700004578, Lat : 49.2835854, Lng : -123.1150042, Q1 : 0.953118443489, Q2 : 0.0301886275411, Q3 : -0.0980472713709, Q4 : 0.284676402807}
2019-04-14 16:45:08.11: SIM {TimeUS : 56534877, Roll : -2.77, Pitch : -12.24, Yaw : 39.21, Alt : 49.2700004578, Lat : 49.2835867, Lng : -123.1150026, Q1 : 0.93722474575, Q2 : 0.0131338313222, Q3 : -0.108489498496, Q4 : 0.331160634756}
2019-04-14 16:45:08.21: SIM {TimeUS : 56634837, Roll : -5.04, Pitch : -12.41, Yaw : 43.66, Alt : 49.2700004578, Lat : 49.2835879, Lng : -123.115001, Q1 : 0.923691809177, Q2 : -0.000457770744106, Q3 : -0.116578385234, Q4 : 0.364969491959}
2019-04-14 16:45:08.31: SIM {TimeUS : 56734797, Roll : -6.38, Pitch : -12.47, Yaw : 46.37, Alt : 49.2700004578, Lat : 49.2835895, Lng : -123.1149993, Q1 : 0.914753198624, Q2 : -0.00816502422094, Q3 : -0.121482685208, Q4 : 0.385229587555}
2019-04-14 16:45:08.41: SIM {TimeUS : 56834757, Roll : -6.73, Pitch : -12.57, Yaw : 47.41, Alt : 49.2700004578, Lat : 49.283591, Lng : -123.1149977, Q1 : 0.911112964153, Q2 : -0.00953967031091, Q3 : -0.123579256237, Q4 : 0.39307808876}
2019-04-14 16:45:08.51: SIM {TimeUS : 56934717, Roll : -6.28, Pitch : -12.81, Yaw : 47.06, Alt : 49.2700004578, Lat : 49.2835928, Lng : -123.114996, Q1 : 0.912180483341, Q2 : -0.00547476438805, Q3 : -0.123899966478, Q4 : 0.39057084918}
2019-04-14 16:45:08.61: SIM {TimeUS : 57034677, Roll : -5.24, Pitch : -13.23, Yaw : 45.64, Alt : 49.2700004578, Lat : 49.2835946, Lng : -123.1149943, Q1 : 0.916669070721, Q2 : 0.0027516791597, Q3 : -0.123736903071, Q4 : 0.379999220371}
2019-04-14 16:45:08.71: SIM {TimeUS : 57134637, Roll : -3.84, Pitch : -13.8, Yaw : 43.46, Alt : 49.2700004578, Lat : 49.2835964, Lng : -123.1149926, Q1 : 0.923169493675, Q2 : 0.0135359354317, Q3 : -0.123926766217, Q4 : 0.363616794348}
2019-04-14 16:45:08.81: SIM {TimeUS : 57234597, Roll : -2.28, Pitch : -14.41, Yaw : 40.83, Alt : 49.2700004578, Lat : 49.2835983, Lng : -123.1149909, Q1 : 0.9304702878, Q2 : 0.0251876823604, Q3 : -0.12448888272, Q4 : 0.343646913767}
2019-04-14 16:45:08.91: SIM {TimeUS : 57334557, Roll : -0.73, Pitch : -14.94, Yaw : 38.04, Alt : 49.2799987793, Lat : 49.2836004, Lng : -123.1149891, Q1 : 0.937601804733, Q2 : 0.036350466311, Q3 : -0.125032246113, Q4 : 0.322410345078}
2019-04-14 16:45:09.02: SIM {TimeUS : 57435350, Roll : 0.66, Pitch : -15.32, Yaw : 35.4, Alt : 49.2799987793, Lat : 49.2836025, Lng : -123.1149871, Q1 : 0.943877637386, Q2 : 0.0460179075599, Q3 : -0.125294044614, Q4 : 0.302123636007}
2019-04-14 16:45:09.11: SIM {TimeUS : 57535310, Roll : 1.77, Pitch : -15.52, Yaw : 33.21, Alt : 49.2799987793, Lat : 49.2836045, Lng : -123.1149851, Q1 : 0.948779821396, Q2 : 0.0533235967159, Q3 : -0.125027805567, Q4 : 0.285204142332}
2019-04-14 16:45:09.21: SIM {TimeUS : 57635270, Roll : 2.52, Pitch : -15.58, Yaw : 31.63, Alt : 49.2799987793, Lat : 49.2836068, Lng : -123.114983, Q1 : 0.952206671238, Q2 : 0.0579791888595, Q3 : -0.124454542994, Q4 : 0.272858828306}
2019-04-14 16:45:09.31: SIM {TimeUS : 57735230, Roll : 2.88, Pitch : -15.57, Yaw : 30.72, Alt : 49.2799987793, Lat : 49.283609, Lng : -123.1149808, Q1 : 0.954163432121, Q2 : 0.0599438026547, Q3 : -0.124022483826, Q4 : 0.265701621771}
2019-04-14 16:45:09.41: SIM {TimeUS : 57835190, Roll : 2.88, Pitch : -15.56, Yaw : 30.47, Alt : 49.2799987793, Lat : 49.2836111, Lng : -123.1149785, Q1 : 0.954745948315, Q2 : 0.0596356987953, Q3 : -0.12408914417, Q4 : 0.263639301062}
2019-04-14 16:45:09.51: SIM {TimeUS : 57935150, Roll : 2.57, Pitch : -15.61, Yaw : 30.8, Alt : 49.2799987793, Lat : 49.2836135, Lng : -123.114976, Q1 : 0.954100728035, Q2 : 0.0575266331434, Q3 : -0.125022530556, Q4 : 0.265992134809}
2019-04-14 16:45:09.61: SIM {TimeUS : 58035110, Roll : 2.03, Pitch : -15.71, Yaw : 31.56, Alt : 49.2799987793, Lat : 49.2836159, Lng : -123.1149735, Q1 : 0.952457487583, Q2 : 0.0540952943265, Q3 : -0.126795962453, Q4 : 0.271700680256}
2019-04-14 16:45:09.71: SIM {TimeUS : 58135070, Roll : 1.33, Pitch : -15.86, Yaw : 32.6, Alt : 49.2799987793, Lat : 49.2836182, Lng : -123.1149709, Q1 : 0.950101613998, Q2 : 0.0498362146318, Q3 : -0.12920551002, Q4 : 0.279516071081}
2019-04-14 16:45:09.81: SIM {TimeUS : 58235030, Roll : 0.6, Pitch : -15.99, Yaw : 33.75, Alt : 49.2799987793, Lat : 49.2836207, Lng : -123.1149683, Q1 : 0.947388768196, Q2 : 0.0453737899661, Q3 : -0.131615504622, Q4 : 0.288223981857}
2019-04-14 16:45:09.91: SIM {TimeUS : 58334990, Roll : -0.07, Pitch : -16.09, Yaw : 34.88, Alt : 49.2799987793, Lat : 49.2836231, Lng : -123.1149656, Q1 : 0.944646477699, Q2 : 0.0413762405515, Q3 : -0.133723065257, Q4 : 0.296730905771}
2019-04-14 16:45:10.01: SIM {TimeUS : 58434950, Roll : -0.63, Pitch : -16.16, Yaw : 35.86, Alt : 49.2799987793, Lat : 49.2836256, Lng : -123.1149628, Q1 : 0.942183673382, Q2 : 0.038057602942, Q3 : -0.135485321283, Q4 : 0.304113954306}
2019-04-14 16:45:10.11: SIM {TimeUS : 58534910, Roll : -1.02, Pitch : -16.22, Yaw : 36.61, Alt : 49.2799987793, Lat : 49.2836281, Lng : -123.1149601, Q1 : 0.940233290195, Q2 : 0.0358874723315, Q3 : -0.136748284101, Q4 : 0.30979564786}
2019-04-14 16:45:10.21: SIM {TimeUS : 58634870, Roll : -1.21, Pitch : -16.25, Yaw : 37.09, Alt : 49.2799987793, Lat : 49.2836308, Lng : -123.1149572, Q1 : 0.938957571983, Q2 : 0.0350084155798, Q3 : -0.137382298708, Q4 : 0.313463330269}
2019-04-14 16:45:10.31: SIM {TimeUS : 58734830, Roll : -1.23, Pitch : -16.27, Yaw : 37.29, Alt : 49.2799987793, Lat : 49.2836335, Lng : -123.1149543, Q1 : 0.938398778439, Q2 : 0.0351271368563, Q3 : -0.137521013618, Q4 : 0.315058410168}
2019-04-14 16:45:10.41: SIM {TimeUS : 58834790, Roll : -1.13, Pitch : -16.3, Yaw : 37.24, Alt : 49.2799987793, Lat : 49.283636, Lng : -123.1149515, Q1 : 0.938472807407, Q2 : 0.0359999425709, Q3 : -0.137538060546, Q4 : 0.314731806517}
2019-04-14 16:45:10.51: SIM {TimeUS : 58934750, Roll : -0.93, Pitch : -16.36, Yaw : 36.98, Alt : 49.2799987793, Lat : 49.2836389, Lng : -123.1149486, Q1 : 0.939044356346, Q2 : 0.0374887138605, Q3 : -0.137518197298, Q4 : 0.31285610795}
2019-04-14 16:45:10.61: SIM {TimeUS : 59034710, Roll : -0.66, Pitch : -16.43, Yaw : 36.59, Alt : 49.2799987793, Lat : 49.2836415, Lng : -123.1149457, Q1 : 0.939940333366, Q2 : 0.0393991209567, Q3 : -0.137543678284, Q4 : 0.309905737638}
2019-04-14 16:45:10.71: SIM {TimeUS : 59134670, Roll : -0.38, Pitch : -16.5, Yaw : 36.12, Alt : 49.2799987793, Lat : 49.2836444, Lng : -123.1149427, Q1 : 0.941025316715, Q2 : 0.0413574390113, Q3 : -0.137455075979, Q4 : 0.30637717247}
2019-04-14 16:45:10.81: SIM {TimeUS : 59234630, Roll : -0.09, Pitch : -16.55, Yaw : 35.64, Alt : 49.2900009155, Lat : 49.2836473, Lng : -123.1149397, Q1 : 0.942130148411, Q2 : 0.0432901866734, Q3 : -0.137305051088, Q4 : 0.302760720253}
2019-04-14 16:45:10.91: SIM {TimeUS : 59334590, Roll : 0.16, Pitch : -16.59, Yaw : 35.2, Alt : 49.2900009155, Lat : 49.28365, Lng : -123.1149367, Q1 : 0.943126797676, Q2 : 0.0450222752988, Q3 : -0.137152120471, Q4 : 0.299456447363}
2019-04-14 16:45:11.01: SIM {TimeUS : 59434550, Roll : 0.36, Pitch : -16.63, Yaw : 34.85, Alt : 49.2900009155, Lat : 49.283653, Lng : -123.1149336, Q1 : 0.943929314613, Q2 : 0.0463495440781, Q3 : -0.137048646808, Q4 : 0.296760588884}
2019-04-14 16:45:11.12: SIM {TimeUS : 59535343, Roll : 0.51, Pitch : -16.66, Yaw : 34.6, Alt : 49.2900009155, Lat : 49.283656, Lng : -123.1149305, Q1 : 0.944480001926, Q2 : 0.047314286232, Q3 : -0.137046828866, Q4 : 0.294850766659}
2019-04-14 16:45:11.21: SIM {TimeUS : 59635303, Roll : 0.57, Pitch : -16.69, Yaw : 34.46, Alt : 49.2900009155, Lat : 49.2836589, Lng : -123.1149273, Q1 : 0.944768190384, Q2 : 0.0477735288441, Q3 : -0.137176111341, Q4 : 0.293791562319}
2019-04-14 16:45:11.31: SIM {TimeUS : 59735263, Roll : 0.57, Pitch : -16.72, Yaw : 34.43, Alt : 49.2900009155, Lat : 49.2836618, Lng : -123.1149242, Q1 : 0.944813549519, Q2 : 0.0477659069002, Q3 : -0.137410596013, Q4 : 0.293537318707}
2019-04-14 16:45:11.41: SIM {TimeUS : 59835223, Roll : 0.51, Pitch : -16.74, Yaw : 34.49, Alt : 49.2900009155, Lat : 49.2836647, Lng : -123.114921, Q1 : 0.944649040699, Q2 : 0.0474090240896, Q3 : -0.137762337923, Q4 : 0.293959438801}
2019-04-14 16:45:11.51: SIM {TimeUS : 59935183, Roll : 0.41, Pitch : -16.79, Yaw : 34.62, Alt : 49.2900009155, Lat : 49.2836677, Lng : -123.1149177, Q1 : 0.944302976131, Q2 : 0.0468848571181, Q3 : -0.13835658133, Q4 : 0.294874995947}
2019-04-14 16:45:11.61: SIM {TimeUS : 60035143, Roll : 0.28, Pitch : -16.85, Yaw : 34.78, Alt : 49.2900009155, Lat : 49.2836707, Lng : -123.1149145, Q1 : 0.94385778904, Q2 : 0.0461436584592, Q3 : -0.139085799456, Q4 : 0.296071618795}
2019-04-14 16:45:11.71: SIM {TimeUS : 60135103, Roll : 0.12, Pitch : -16.89, Yaw : 34.97, Alt : 49.2900009155, Lat : 49.2836737, Lng : -123.1149112, Q1 : 0.94339209795, Q2 : 0.0451672635972, Q3 : -0.139829903841, Q4 : 0.297353088856}
2019-04-14 16:45:11.81: SIM {TimeUS : 60235063, Roll : -0.03, Pitch : -16.93, Yaw : 35.14, Alt : 49.2900009155, Lat : 49.2836768, Lng : -123.1149078, Q1 : 0.942963063717, Q2 : 0.0441879592836, Q3 : -0.140438243747, Q4 : 0.298571884632}
2019-04-14 16:45:11.91: SIM {TimeUS : 60335023, Roll : -0.15, Pitch : -16.96, Yaw : 35.28, Alt : 49.2900009155, Lat : 49.2836798, Lng : -123.1149045, Q1 : 0.942603290081, Q2 : 0.0434430353343, Q3 : -0.140945807099, Q4 : 0.299576401711}
2019-04-14 16:45:12.01: SIM {TimeUS : 60434983, Roll : -0.21, Pitch : -17.0, Yaw : 35.38, Alt : 49.2999992371, Lat : 49.2836829, Lng : -123.1149012, Q1 : 0.942322790623, Q2 : 0.043116632849, Q3 : -0.141395509243, Q4 : 0.300293385983}
2019-04-14 16:45:12.11: SIM {TimeUS : 60534943, Roll : -0.24, Pitch : -17.04, Yaw : 35.43, Alt : 49.2999992371, Lat : 49.2836861, Lng : -123.1148978, Q1 : 0.942146837711, Q2 : 0.0430880971253, Q3 : -0.141768991947, Q4 : 0.30067306757}
2019-04-14 16:45:12.21: SIM {TimeUS : 60634903, Roll : -0.22, Pitch : -17.08, Yaw : 35.44, Alt : 49.2999992371, Lat : 49.2836892, Lng : -123.1148944, Q1 : 0.942073643208, Q2 : 0.0433995015919, Q3 : -0.142064914107, Q4 : 0.30071786046}
2019-04-14 16:45:12.31: SIM {TimeUS : 60734863, Roll : -0.15, Pitch : -17.12, Yaw : 35.4, Alt : 49.2999992371, Lat : 49.2836924, Lng : -123.114891, Q1 : 0.942090690136, Q2 : 0.0439908802509, Q3 : -0.142288342118, Q4 : 0.30047300458}
2019-04-14 16:45:12.41: SIM {TimeUS : 60834823, Roll : -0.08, Pitch : -17.16, Yaw : 35.33, Alt : 49.2999992371, Lat : 49.2836955, Lng : -123.1148876, Q1 : 0.942199528217, Q2 : 0.0445876568556, Q3 : -0.14241412282, Q4 : 0.299983769655}
2019-04-14 16:45:12.51: SIM {TimeUS : 60934783, Roll : -0.02, Pitch : -17.18, Yaw : 35.24, Alt : 49.2999992371, Lat : 49.2836986, Lng : -123.1148842, Q1 : 0.942376494408, Q2 : 0.0450529977679, Q3 : -0.14249394834, Q4 : 0.29931974411}
2019-04-14 16:45:12.61: SIM {TimeUS : 61034743, Roll : 0.02, Pitch : -17.2, Yaw : 35.14, Alt : 49.2999992371, Lat : 49.2837018, Lng : -123.1148807, Q1 : 0.942600786686, Q2 : 0.0453164763749, Q3 : -0.14250844717, Q4 : 0.298565864563}
2019-04-14 16:45:12.71: SIM {TimeUS : 61134703, Roll : 0.06, Pitch : -17.19, Yaw : 35.05, Alt : 49.2999992371, Lat : 49.2837051, Lng : -123.1148772, Q1 : 0.942833483219, Q2 : 0.0455765090883, Q3 : -0.14241489768, Q4 : 0.29783526063}
2019-04-14 16:45:12.81: SIM {TimeUS : 61234663, Roll : 0.1, Pitch : -17.19, Yaw : 34.96, Alt : 49.2999992371, Lat : 49.2837083, Lng : -123.1148738, Q1 : 0.943039357662, Q2 : 0.0458094365895, Q3 : -0.142341151834, Q4 : 0.297182351351}
2019-04-14 16:45:12.91: SIM {TimeUS : 61334623, Roll : 0.15, Pitch : -17.23, Yaw : 34.89, Alt : 49.3100013733, Lat : 49.2837114, Lng : -123.1148703, Q1 : 0.943157970905, Q2 : 0.0462021566927, Q3 : -0.142539307475, Q4 : 0.296649634838}
2019-04-14 16:45:13.01: SIM {TimeUS : 61434583, Roll : 0.19, Pitch : -17.29, Yaw : 34.84, Alt : 49.3100013733, Lat : 49.2837148, Lng : -123.1148668, Q1 : 0.943199634552, Q2 : 0.0466570220888, Q3 : -0.142933025956, Q4 : 0.296256184578}
2019-04-14 16:45:13.11: SIM {TimeUS : 61534543, Roll : 0.21, Pitch : -17.32, Yaw : 34.81, Alt : 49.3100013733, Lat : 49.283718, Lng : -123.1148633, Q1 : 0.943235814571, Q2 : 0.0468659214675, Q3 : -0.143159538507, Q4 : 0.295998424292}
2019-04-14 16:45:13.22: SIM {TimeUS : 61635336, Roll : 0.22, Pitch : -17.32, Yaw : 34.79, Alt : 49.3100013733, Lat : 49.2837212, Lng : -123.1148597, Q1 : 0.943270802498, Q2 : 0.0468625128269, Q3 : -0.143180042505, Q4 : 0.295877754688}
2019-04-14 16:45:13.31: SIM {TimeUS : 61735296, Roll : 0.21, Pitch : -17.33, Yaw : 34.79, Alt : 49.3100013733, Lat : 49.2837246, Lng : -123.1148562, Q1 : 0.943267643452, Q2 : 0.046790368855, Q3 : -0.1432621032, Q4 : 0.295859485865}
2019-04-14 16:45:13.41: SIM {TimeUS : 61835256, Roll : 0.17, Pitch : -17.36, Yaw : 34.8, Alt : 49.3100013733, Lat : 49.2837278, Lng : -123.1148526, Q1 : 0.943220496178, Q2 : 0.0465906523168, Q3 : -0.14358407259, Q4 : 0.295885235071}
2019-04-14 16:45:13.51: SIM {TimeUS : 61935216, Roll : 0.14, Pitch : -17.39, Yaw : 34.82, Alt : 49.3100013733, Lat : 49.2837312, Lng : -123.114849, Q1 : 0.943148493767, Q2 : 0.046447455883, Q3 : -0.143910318613, Q4 : 0.295978724957}
2019-04-14 16:45:13.61: SIM {TimeUS : 62035176, Roll : 0.11, Pitch : -17.42, Yaw : 34.84, Alt : 49.3100013733, Lat : 49.2837344, Lng : -123.1148455, Q1 : 0.943073093891, Q2 : 0.046333309263, Q3 : -0.144226431847, Q4 : 0.296083003283}
2019-04-14 16:45:13.71: SIM {TimeUS : 62135136, Roll : 0.09, Pitch : -17.44, Yaw : 34.85, Alt : 49.3100013733, Lat : 49.2837378, Lng : -123.1148418, Q1 : 0.943017661572, Q2 : 0.0462473221123, Q3 : -0.144452437758, Q4 : 0.296162724495}
2019-04-14 16:45:13.81: SIM {TimeUS : 62235096, Roll : 0.09, Pitch : -17.46, Yaw : 34.86, Alt : 49.3100013733, Lat : 49.2837411, Lng : -123.1148383, Q1 : 0.9429666996, Q2 : 0.046297993511, Q3 : -0.14463198185, Q4 : 0.296229630709}
2019-04-14 16:45:13.91: SIM {TimeUS : 62335056, Roll : 0.1, Pitch : -17.48, Yaw : 34.86, Alt : 49.3100013733, Lat : 49.2837443, Lng : -123.1148347, Q1 : 0.94294077158, Q2 : 0.046379391104, Q3 : -0.14471668005, Q4 : 0.29625800252}
2019-04-14 16:45:14.01: SIM {TimeUS : 62435016, Roll : 0.11, Pitch : -17.49, Yaw : 34.86, Alt : 49.3100013733, Lat : 49.2837478, Lng : -123.1148311, Q1 : 0.942928552628, Q2 : 0.0465239621699, Q3 : -0.144817650318, Q4 : 0.29622477293}
2019-04-14 16:45:14.11: SIM {TimeUS : 62534976, Roll : 0.13, Pitch : -17.52, Yaw : 34.84, Alt : 49.3100013733, Lat : 49.283751, Lng : -123.1148274, Q1 : 0.942926228046, Q2 : 0.0466957502067, Q3 : -0.144994169474, Q4 : 0.296118766069}
2019-04-14 16:45:14.21: SIM {TimeUS : 62634936, Roll : 0.13, Pitch : -17.56, Yaw : 34.82, Alt : 49.3199996948, Lat : 49.2837545, Lng : -123.1148238, Q1 : 0.942931830883, Q2 : 0.0467753782868, Q3 : -0.145334780216, Q4 : 0.295921236277}
2019-04-14 16:45:14.31: SIM {TimeUS : 62734896, Roll : 0.11, Pitch : -17.6, Yaw : 34.79, Alt : 49.3199996948, Lat : 49.2837577, Lng : -123.1148202, Q1 : 0.94295245409, Q2 : 0.0466788932681, Q3 : -0.145772844553, Q4 : 0.295655339956}
2019-04-14 16:45:14.41: SIM {TimeUS : 62834856, Roll : 0.1, Pitch : -17.65, Yaw : 34.76, Alt : 49.3199996948, Lat : 49.2837612, Lng : -123.1148165, Q1 : 0.942978560925, Q2 : 0.0466813482344, Q3 : -0.146170988679, Q4 : 0.295374900103}
2019-04-14 16:45:14.51: SIM {TimeUS : 62934816, Roll : 0.12, Pitch : -17.68, Yaw : 34.73, Alt : 49.3199996948, Lat : 49.2837646, Lng : -123.1148129, Q1 : 0.943014323711, Q2 : 0.0469082035124, Q3 : -0.146376177669, Q4 : 0.29512321949}
2019-04-14 16:45:14.61: SIM {TimeUS : 63034776, Roll : 0.15, Pitch : -17.68, Yaw : 34.7, Alt : 49.3199996948, Lat : 49.2837679, Lng : -123.1148092, Q1 : 0.94307410717, Q2 : 0.0471215695143, Q3 : -0.146361276507, Q4 : 0.294905334711}
2019-04-14 16:45:14.71: SIM {TimeUS : 63134736, Roll : 0.17, Pitch : -17.67, Yaw : 34.67, Alt : 49.3199996948, Lat : 49.2837714, Lng : -123.1148055, Q1 : 0.94315880537, Q2 : 0.0472508855164, Q3 : -0.14614982903, Q4 : 0.294718533754}
2019-04-14 16:45:14.81: SIM {TimeUS : 63234696, Roll : 0.18, Pitch : -17.65, Yaw : 34.65, Alt : 49.3199996948, Lat : 49.2837747, Lng : -123.1148018, Q1 : 0.943241417408, Q2 : 0.047186139971, Q3 : -0.146019652486, Q4 : 0.294529110193}
2019-04-14 16:45:14.91: SIM {TimeUS : 63334656, Roll : 0.17, Pitch : -17.63, Yaw : 34.63, Alt : 49.3199996948, Lat : 49.2837782, Lng : -123.114798, Q1 : 0.943317770958, Q2 : 0.0470943562686, Q3 : -0.145901888609, Q4 : 0.294357478619}
2019-04-14 16:45:15.01: SIM {TimeUS : 63434616, Roll : 0.17, Pitch : -17.62, Yaw : 34.61, Alt : 49.3199996948, Lat : 49.2837816, Lng : -123.1147944, Q1 : 0.943383693695, Q2 : 0.0470428727567, Q3 : -0.145776569843, Q4 : 0.294216543436}
2019-04-14 16:45:15.11: SIM {TimeUS : 63534576, Roll : 0.17, Pitch : -17.63, Yaw : 34.6, Alt : 49.3199996948, Lat : 49.2837849, Lng : -123.1147907, Q1 : 0.943401694298, Q2 : 0.0470358245075, Q3 : -0.145916253328, Q4 : 0.294090777636}
2019-04-14 16:45:15.21: SIM {TimeUS : 63634536, Roll : 0.17, Pitch : -17.67, Yaw : 34.59, Alt : 49.3199996948, Lat : 49.2837885, Lng : -123.114787, Q1 : 0.943378508091, Q2 : 0.0470849722624, Q3 : -0.146266043186, Q4 : 0.293983489275}
2019-04-14 16:45:15.31: SIM {TimeUS : 63735329, Roll : 0.15, Pitch : -17.73, Yaw : 34.58, Alt : 49.3199996948, Lat : 49.2837919, Lng : -123.1147833, Q1 : 0.943329036236, Q2 : 0.0470864474773, Q3 : -0.146785318851, Q4 : 0.293883115053}
2019-04-14 16:45:15.41: SIM {TimeUS : 63835289, Roll : 0.14, Pitch : -17.79, Yaw : 34.57, Alt : 49.3199996948, Lat : 49.2837953, Lng : -123.1147795, Q1 : 0.943275630474, Q2 : 0.0471793711185, Q3 : -0.147265449166, Q4 : 0.293799459934}
2019-04-14 16:45:15.51: SIM {TimeUS : 63935249, Roll : 0.15, Pitch : -17.81, Yaw : 34.56, Alt : 49.3300018311, Lat : 49.2837988, Lng : -123.1147758, Q1 : 0.943254470825, Q2 : 0.0473008826375, Q3 : -0.147480130196, Q4 : 0.293740034103}
2019-04-14 16:45:15.61: SIM {TimeUS : 64035209, Roll : 0.15, Pitch : -17.84, Yaw : 34.56, Alt : 49.3300018311, Lat : 49.2838023, Lng : -123.1147721, Q1 : 0.943241000175, Q2 : 0.0473831370473, Q3 : -0.147673398256, Q4 : 0.293673068285}
2019-04-14 16:45:15.71: SIM {TimeUS : 64135169, Roll : 0.15, Pitch : -17.85, Yaw : 34.55, Alt : 49.3300018311, Lat : 49.2838056, Lng : -123.1147683, Q1 : 0.943248271942, Q2 : 0.0473717488348, Q3 : -0.14777725935, Q4 : 0.293599277735}
2019-04-14 16:45:15.81: SIM {TimeUS : 64235129, Roll : 0.16, Pitch : -17.84, Yaw : 34.54, Alt : 49.3300018311, Lat : 49.2838092, Lng : -123.1147646, Q1 : 0.943283975124, Q2 : 0.0473862141371, Q3 : -0.147654503584, Q4 : 0.293543934822}
2019-04-14 16:45:15.91: SIM {TimeUS : 64335089, Roll : 0.17, Pitch : -17.84, Yaw : 34.53, Alt : 49.3300018311, Lat : 49.2838127, Lng : -123.1147608, Q1 : 0.943292975426, Q2 : 0.047526884824, Q3 : -0.147675722837, Q4 : 0.293481677771}
2019-04-14 16:45:16.01: SIM {TimeUS : 64435049, Roll : 0.18, Pitch : -17.86, Yaw : 34.52, Alt : 49.3300018311, Lat : 49.2838161, Lng : -123.1147571, Q1 : 0.94328892231, Q2 : 0.0476450100541, Q3 : -0.147826313972, Q4 : 0.293399572372}
2019-04-14 16:45:16.11: SIM {TimeUS : 64535009, Roll : 0.19, Pitch : -17.88, Yaw : 34.51, Alt : 49.3300018311, Lat : 49.2838196, Lng : -123.1147533, Q1 : 0.943292438984, Q2 : 0.0477292835712, Q3 : -0.147947341204, Q4 : 0.293313592672}
2019-04-14 16:45:16.21: SIM {TimeUS : 64634969, Roll : 0.2, Pitch : -17.88, Yaw : 34.5, Alt : 49.3300018311, Lat : 49.2838231, Lng : -123.1147496, Q1 : 0.943322181702, Q2 : 0.0477855354548, Q3 : -0.147925421596, Q4 : 0.293219953775}
2019-04-14 16:45:16.31: SIM {TimeUS : 64734929, Roll : 0.2, Pitch : -17.88, Yaw : 34.48, Alt : 49.3300018311, Lat : 49.2838266, Lng : -123.1147458, Q1 : 0.943352460861, Q2 : 0.0477802865207, Q3 : -0.147948026657, Q4 : 0.293111920357}
2019-04-14 16:45:16.41: SIM {TimeUS : 64834889, Roll : 0.19, Pitch : -17.9, Yaw : 34.47, Alt : 49.3300018311, Lat : 49.28383, Lng : -123.114742, Q1 : 0.943370997906, Q2 : 0.0476907044649, Q3 : -0.148132175207, Q4 : 0.292973667383}
2019-04-14 16:45:16.51: SIM {TimeUS : 64934849, Roll : 0.16, Pitch : -17.94, Yaw : 34.46, Alt : 49.3300018311, Lat : 49.2838336, Lng : -123.1147382, Q1 : 0.943372964859, Q2 : 0.0475299805403, Q3 : -0.148503571749, Q4 : 0.292805433273}
2019-04-14 16:45:16.61: SIM {TimeUS : 65034809, Roll : 0.15, Pitch : -17.94, Yaw : 34.44, Alt : 49.3300018311, Lat : 49.2838371, Lng : -123.1147345, Q1 : 0.943404912949, Q2 : 0.0474228300154, Q3 : -0.14860291779, Q4 : 0.292669594288}
2019-04-14 16:45:16.71: SIM {TimeUS : 65134769, Roll : 0.15, Pitch : -17.93, Yaw : 34.43, Alt : 49.3300018311, Lat : 49.2838406, Lng : -123.1147307, Q1 : 0.943451166153, Q2 : 0.0474422797561, Q3 : -0.148499414325, Q4 : 0.292569845915}
2019-04-14 16:45:16.81: SIM {TimeUS : 65234729, Roll : 0.17, Pitch : -17.92, Yaw : 34.41, Alt : 49.3300018311, Lat : 49.2838442, Lng : -123.1147269, Q1 : 0.943493247032, Q2 : 0.0475633442402, Q3 : -0.148354232311, Q4 : 0.292488127947}
2019-04-14 16:45:16.91: SIM {TimeUS : 65334689, Roll : 0.19, Pitch : -17.93, Yaw : 34.4, Alt : 49.3300018311, Lat : 49.2838476, Lng : -123.1147231, Q1 : 0.943514764309, Q2 : 0.0476568341255, Q3 : -0.148382589221, Q4 : 0.292389035225}
2019-04-14 16:45:17.01: SIM {TimeUS : 65434649, Roll : 0.17, Pitch : -17.95, Yaw : 34.39, Alt : 49.3400001526, Lat : 49.2838512, Lng : -123.1147193, Q1 : 0.943522393703, Q2 : 0.0476042963564, Q3 : -0.148597612977, Q4 : 0.292263686657}
2019-04-14 16:45:17.11: SIM {TimeUS : 65534609, Roll : 0.15, Pitch : -17.97, Yaw : 34.38, Alt : 49.3400001526, Lat : 49.2838547, Lng : -123.1147155, Q1 : 0.943531990051, Q2 : 0.047446295619, Q3 : -0.148864492774, Q4 : 0.292122721672}
2019-04-14 16:45:17.21: SIM {TimeUS : 65634569, Roll : 0.14, Pitch : -18.0, Yaw : 34.36, Alt : 49.3400001526, Lat : 49.2838583, Lng : -123.1147117, Q1 : 0.943536758423, Q2 : 0.0473891980946, Q3 : -0.149093493819, Q4 : 0.291999638081}
2019-04-14 16:45:17.32: SIM {TimeUS : 65735362, Roll : 0.14, Pitch : -18.02, Yaw : 34.35, Alt : 49.3400001526, Lat : 49.2838617, Lng : -123.1147078, Q1 : 0.943537116051, Q2 : 0.0474573001266, Q3 : -0.149270936847, Q4 : 0.291896790266}
2019-04-14 16:45:17.41: SIM {TimeUS : 65835322, Roll : 0.15, Pitch : -18.03, Yaw : 34.34, Alt : 49.3400001526, Lat : 49.2838653, Lng : -123.114704, Q1 : 0.943542480469, Q2 : 0.0475880205631, Q3 : -0.149354934692, Q4 : 0.291815251112}
2019-04-14 16:45:17.51: SIM {TimeUS : 65935282, Roll : 0.18, Pitch : -18.04, Yaw : 34.33, Alt : 49.3400001526, Lat : 49.2838688, Lng : -123.1147002, Q1 : 0.943544089794, Q2 : 0.0478181019425, Q3 : -0.14932821691, Q4 : 0.291786015034}
2019-04-14 16:45:17.61: SIM {TimeUS : 66035242, Roll : 0.2, Pitch : -18.05, Yaw : 34.33, Alt : 49.3400001526, Lat : 49.2838724, Lng : -123.1146964, Q1 : 0.943533420563, Q2 : 0.0479776188731, Q3 : -0.149379014969, Q4 : 0.291768342257}
2019-04-14 16:45:17.71: SIM {TimeUS : 66135202, Roll : 0.21, Pitch : -18.06, Yaw : 34.32, Alt : 49.3400001526, Lat : 49.283876, Lng : -123.1146926, Q1 : 0.943517804146, Q2 : 0.048108112067, Q3 : -0.14948554337, Q4 : 0.291742801666}
2019-04-14 16:45:17.81: SIM {TimeUS : 66235162, Roll : 0.22, Pitch : -18.08, Yaw : 34.32, Alt : 49.3400001526, Lat : 49.2838795, Lng : -123.1146888, Q1 : 0.943502366543, Q2 : 0.0482469648123, Q3 : -0.149581700563, Q4 : 0.291720509529}
2019-04-14 16:45:17.91: SIM {TimeUS : 66335122, Roll : 0.24, Pitch : -18.09, Yaw : 34.32, Alt : 49.3400001526, Lat : 49.2838831, Lng : -123.114685, Q1 : 0.943487167358, Q2 : 0.048454336822, Q3 : -0.149620980024, Q4 : 0.291715204716}
2019-04-14 16:45:18.01: SIM {TimeUS : 66435082, Roll : 0.28, Pitch : -18.1, Yaw : 34.31, Alt : 49.3400001526, Lat : 49.2838866, Lng : -123.1146811, Q1 : 0.943462967873, Q2 : 0.0487387701869, Q3 : -0.149664327502, Q4 : 0.291723787785}
2019-04-14 16:45:18.11: SIM {TimeUS : 66535042, Roll : 0.27, Pitch : -18.11, Yaw : 34.31, Alt : 49.3400001526, Lat : 49.2838901, Lng : -123.1146773, Q1 : 0.943469166756, Q2 : 0.048727452755, Q3 : -0.149677053094, Q4 : 0.291699111462}
2019-04-14 16:45:18.21: SIM {TimeUS : 66635002, Roll : 0.25, Pitch : -18.12, Yaw : 34.31, Alt : 49.3400001526, Lat : 49.2838938, Lng : -123.1146735, Q1 : 0.943478226662, Q2 : 0.0485143698752, Q3 : -0.149834051728, Q4 : 0.291624844074}
