2019-04-14 18:44:29.60: SIM {TimeUS : 40616247, Roll : 0.0, Pitch : 0.0, Yaw : 0.0, Alt : 30.1000003815, Lat : 49.28357, Lng : -123.11502, Q1 : 1.0, Q2 : 0.0, Q3 : 0.0, Q4 : 0.0}
2019-04-14 18:44:29.71: SIM {TimeUS : 40735366, Roll : 0.0, Pitch : 0.0, Yaw : 0.0, Alt : 30.1000003815, Lat : 49.28357, Lng : -123.11502, Q1 : 1.0, Q2 : 0.0, Q3 : 0.0, Q4 : 0.0}
2019-04-14 18:44:29.81: SIM {TimeUS : 40835326, Roll : 0.0, Pitch : 0.0, Yaw : 0.0, Alt : 30.1000003815, Lat : 49.28357, Lng : -123.11502, Q1 : 1.0, Q2 : 0.0, Q3 : 0.0, Q4 : 0.0}
2019-04-14 18:44:29.91: SIM {TimeUS : 40935286, Roll : 0.0, Pitch : 0.0, Yaw : 0.0, Alt : 30.1000003815, Lat : 49.28357, Lng : -123.11502, Q1 : 1.0, Q2 : 0.0, Q3 : 0.0, Q4 : 0.0}
2019-04-14 18:44:30.01: SIM {TimeUS : 41035246, Roll : 0.0, Pitch : 0.0, Yaw : 0.0, Alt : 30.1000003815, Lat : 49.28357, Lng : -123.11502, Q1 : 1.0, Q2 : 0.0, Q3 : 0.0, Q4 : 0.0}
2019-04-14 18:44:30.11: SIM {TimeUS : 41135206, Roll : 0.0, Pitch : 0.0, Yaw : 0.0, Alt : 30.1000003815, Lat : 49.28357, Lng : -123.11502, Q1 : 1.0, Q2 : 0.0, Q3 : 0.0, Q4 : 0.0}
2019-04-14 18:44:30.21: SIM {TimeUS : 41235166, Roll : 0.0, Pitch : 0.0, Yaw : 0.0, Alt : 30.1000003815, Lat : 49.28357, Lng : -123.11502, Q1 : 1.0, Q2 : 0.0, Q3 : 0.0, Q4 : 0.0}
2019-04-14 18:44:30.31: SIM {TimeUS : 41335126, Roll : 0.0, Pitch : 0.0, Yaw : 0.0, Alt : 30.1000003815, Lat : 49.28357, Lng : -123.11502, Q1 : 1.0, Q2 : 0.0, Q3 : 0.0, Q4 : 0.0}
2019-04-14 18:44:30.41: SIM {TimeUS : 41435086, Roll : 0.0, Pitch : 0.0, Yaw : 0.0, Alt : 30.1000003815, Lat : 49.28357, Lng : -123.11502, Q1 : 1.0, Q2 : 0.0, Q3 : 0.0, Q4 : 0.0}
2019-04-14 18:44:30.51: SIM {TimeUS : 41535046, Roll : 0.0, Pitch : 0.0, Yaw : 0.0, Alt : 30.1000003815, Lat : 49.28357, Lng : -123.11502, Q1 : 1.0, Q2 : 0.0, Q3 : 0.0, Q4 : 0.0}
2019-04-14 18:44:30.61: SIM {TimeUS : 41635006, Roll : 0.0, Pitch : 0.0, Yaw : 0.0, Alt : 30.1000003815, Lat : 49.28357, Lng : -123.11502, Q1 : 1.0, Q2 : 0.0, Q3 : 0.0, Q4 : 0.0}
2019-04-14 18:44:30.71: SIM {TimeUS : 41734966, Roll : 0.0, Pitch : 0.0, Yaw : 0.0, Alt : 30.1000003815, Lat : 49.28357, Lng : -123.11502, Q1 : 1.0, Q2 : 0.0, Q3 : 0.0, Q4 : 0.0}
2019-04-14 18:44:30.81: SIM {TimeUS : 41834926, Roll : 0.0, Pitch : 0.0, Yaw : 0.0, Alt : 30.1000003815, Lat : 49.28357, Lng : -123.11502, Q1 : 1.0, Q2 : 0.0, Q3 : 0.0, Q4 : 0.0}
2019-04-14 18:44:30.91: SIM {TimeUS : 41934886, Roll : 0.0, Pitch : 0.0, Yaw : 0.0, Alt : 30.1000003815, Lat : 49.28357, Lng : -123.11502, Q1 : 1.0, Q2 : 0.0, Q3 : 0.0, Q4 : 0.0}
2019-04-14 18:44:31.01: SIM {TimeUS : 42034846, Roll : 0.0, Pitch : 0.0, Yaw : 0.0, Alt : 30.1000003815, Lat : 49.28357, Lng : -123.11502, Q1 : 1.0, Q2 : 0.0, Q3 : 0.0, Q4 : 0.0}
2019-04-14 18:44:31.11: SIM {TimeUS : 42134806, Roll : 0.0, Pitch : 0.0, Yaw : 0.0, Alt : 30.1000003815, Lat : 49.28357, Lng : -123.11502, Q1 : 1.0, Q2 : 0.0, Q3 : 0.0, Q4 : 0.0}
2019-04-14 18:44:31.21: SIM {TimeUS : 42234766, Roll : 0.0, Pitch : 0.0, Yaw : 0.0, Alt : 30.1000003815, Lat : 49.28357, Lng : -123.11502, Q1 : 1.0, Q2 : 0.0, Q3 : 0.0, Q4 : 0.0}
2019-04-14 18:44:31.31: SIM {TimeUS : 42334726, Roll : 0.0, Pitch : 0.0, Yaw : 0.0, Alt : 30.1000003815, Lat : 49.28357, Lng : -123.11502, Q1 : 1.0, Q2 : 0.0, Q3 : 0.0, Q4 : 0.0}
2019-04-14 18:44:31.41: SIM {TimeUS : 42434686, Roll : 0.0, Pitch : 0.0, Yaw : 0.0, Alt : 30.1000003815, Lat : 49.28357, Lng : -123.11502, Q1 : 1.0, Q2 : 0.0, Q3 : 0.0, Q4 : 0.0}
2019-04-14 18:44:31.51: SIM {TimeUS : 42534646, Roll : 0.0, Pitch : 0.0, Yaw : 0.0, Alt : 30.1000003815, Lat : 49.28357, Lng : -123.11502, Q1 : 1.0, Q2 : 0.0, Q3 : 0.0, Q4 : 0.0}
2019-04-14 18:44:31.61: SIM {TimeUS : 42634606, Roll : 0.0, Pitch : 0.0, Yaw : 0.0, Alt : 30.1000003815, Lat : 49.28357, Lng : -123.11502, Q1 : 1.0, Q2 : 0.0, Q3 : 0.0, Q4 : 0.0}
2019-04-14 18:44:31.71: SIM {TimeUS : 42735399, Roll : 0.0, Pitch : 0.0, Yaw : 0.0, Alt : 30.1000003815, Lat : 49.28357, Lng : -123.11502, Q1 : 1.0, Q2 : 0.0, Q3 : 0.0, Q4 : 0.0}
2019-04-14 18:44:31.81: SIM {TimeUS : 42835359, Roll : 0.0, Pitch : 0.0, Yaw : 0.0, Alt : 30.1000003815, Lat : 49.28357, Lng : -123.11502, Q1 : 1.0, Q2 : 0.0, Q3 : 0.0, Q4 : 0.0}
2019-04-14 18:44:31.91: SIM {TimeUS : 42935319, Roll : 0.0, Pitch : 0.0, Yaw : 0.0, Alt : 30.1000003815, Lat : 49.28357, Lng : -123.11502, Q1 : 1.0, Q2 : 0.0, Q3 : 0.0, Q4 : 4.3591046571e-12}
2019-04-14 18:44:32.01: SIM {TimeUS : 43035279, Roll : 0.0, Pitch : 0.0, Yaw : 360.0, Alt : 30.1000003815, Lat : 49.28357, Lng : -123.11502, Q1 : 1.0, Q2 : 0.0, Q3 : 0.0, Q4 : -1.64088351795e-08}
2019-04-14 18:44:32.11: SIM {TimeUS : 43135239, Roll : 0.0, Pitch : 0.0, Yaw : 360.0, Alt : 30.1000003815, Lat : 49.28357, Lng : -123.11502, Q1 : 1.0, Q2 : 0.0, Q3 : 0.0, Q4 : -1.69658036953e-07}
2019-04-14 18:44:32.21: SIM {TimeUS : 43235199, Roll : 0.0, Pitch : 0.0, Yaw : 359.99, Alt : 30.1000003815, Lat : 49.28357, Lng : -123.11502, Q1 : 1.0, Q2 : 0.0, Q3 : 0.0, Q4 : -3.30653108449e-07}
2019-04-14 18:44:32.31: SIM {TimeUS : 43335159, Roll : 0.0, Pitch : 0.0, Yaw : 359.99, Alt : 30.1000003815, Lat : 49.28357, Lng : -123.11502, Q1 : 1.0, Q2 : 0.0, Q3 : 0.0, Q4 : -4.91108437473e-07}
2019-04-14 18:44:32.41: SIM {TimeUS : 43435119, Roll : 0.0, Pitch : 0.0, Yaw : 359.99, Alt : 30.1000003815, Lat : 49.28357, Lng : -123.11502, Q1 : 1.0, Q2 : 0.0, Q3 : 0.0, Q4 : -6.72684620895e-07}
2019-04-14 18:44:32.51: SIM {TimeUS : 43535079, Roll : 0.0, Pitch : 0.0, Yaw : 359.99, Alt : 30.1000003815, Lat : 49.28357, Lng : -123.11502, Q1 : 1.0, Q2 : 0.0, Q3 : 0.0, Q4 : -8.78037951679e-07}
2019-04-14 18:44:32.61: SIM {TimeUS : 43635039, Roll : 0.0, Pitch : 0.0, Yaw : 359.99, Alt : 30.1000003815, Lat : 49.28357, Lng : -123.11502, Q1 : 1.0, Q2 : 0.0, Q3 : 0.0, Q4 : -1.07212804323e-06}
2019-04-14 18:44:32.71: SIM {TimeUS : 43734999, Roll : 0.0, Pitch : 0.0, Yaw : 359.99, Alt : 30.1000003815, Lat : 49.28357, Lng : -123.11502, Q1 : 1.0, Q2 : 0.0, Q3 : 0.0, Q4 : -1.26001521039e-06}
2019-04-14 18:44:32.81: SIM {TimeUS : 43834959, Roll : 0.0, Pitch : 0.0, Yaw : 359.99, Alt : 30.1200008392, Lat : 49.28357, Lng : -123.11502, Q1 : 1.0, Q2 : 0.0, Q3 : 0.0, Q4 : -1.40371378166e-06}
2019-04-14 18:44:32.91: SIM {TimeUS : 43934919, Roll : 0.0, Pitch : 0.0, Yaw : 359.99, Alt : 30.1399993896, Lat : 49.28357, Lng : -123.11502, Q1 : 1.0, Q2 : 0.0, Q3 : 0.0, Q4 : -1.61951754762e-06}
2019-04-14 18:44:33.01: SIM {TimeUS : 44034879, Roll : 0.0, Pitch : 0.0, Yaw : 359.99, Alt : 30.1700000763, Lat : 49.28357, Lng : -123.11502, Q1 : 1.0, Q2 : 0.0, Q3 : 0.0, Q4 : -1.82006795058e-06}
2019-04-14 18:44:33.11: SIM {TimeUS : 44134839, Roll : 0.0, Pitch : 0.0, Yaw : 359.99, Alt : 30.2099990845, Lat : 49.28357, Lng : -123.11502, Q1 : 1.0, Q2 : 0.0, Q3 : 0.0, Q4 : -2.07424909604e-06}
2019-04-14 18:44:33.21: SIM {TimeUS : 44234799, Roll : -0.06, Pitch : -0.04, Yaw : 359.99, Alt : 30.2700004578, Lat : 49.28357, Lng : -123.11502, Q1 : 0.999999761581, Q2 : -0.000567114679143, Q3 : -0.000417662435211, Q4 : -1.48268845805e-05}
2019-04-14 18:44:33.31: SIM {TimeUS : 44334759, Roll : -0.18, Pitch : -0.12, Yaw : 359.99, Alt : 30.3799991608, Lat : 49.28357, Lng : -123.11502, Q1 : 0.999998092651, Q2 : -0.00162867817562, Q3 : -0.00109974085353, Q4 : -5.2690244047e-05}
2019-04-14 18:44:33.41: SIM {TimeUS : 44434719, Roll : -0.27, Pitch : -0.2, Yaw : 359.98, Alt : 30.5300006866, Lat : 49.28357, Lng : -123.11502, Q1 : 0.999995470047, Q2 : -0.00239094346762, Q3 : -0.00181300600525, Q4 : -0.000115891605674}
2019-04-14 18:44:33.51: SIM {TimeUS : 44534679, Roll : -0.31, Pitch : -0.25, Yaw : 359.97, Alt : 30.6900005341, Lat : 49.28357, Lng : -123.11502, Q1 : 0.999993741512, Q2 : -0.00275053037331, Q3 : -0.0022154035978, Q4 : -0.000191798899323}
2019-04-14 18:44:33.61: SIM {TimeUS : 44634639, Roll : -0.32, Pitch : -0.25, Yaw : 359.96, Alt : 30.8400001526, Lat : 49.28357, Lng : -123.11502, Q1 : 0.999993562698, Q2 : -0.00279643363319, Q3 : -0.00223947456107, Q4 : -0.000277869781712}
2019-04-14 18:44:33.71: SIM {TimeUS : 44734599, Roll : -0.27, Pitch : -0.22, Yaw : 359.95, Alt : 31.0, Lat : 49.28357, Lng : -123.11502, Q1 : 0.999995112419, Q2 : -0.00240091048181, Q3 : -0.00197715545073, Q4 : -0.000357769196853}
2019-04-14 18:44:33.81: SIM {TimeUS : 44835392, Roll : -0.19, Pitch : -0.17, Yaw : 359.95, Alt : 31.1499996185, Lat : 49.28357, Lng : -123.11502, Q1 : 0.999997317791, Q2 : -0.00168836605735, Q3 : -0.00150430656504, Q4 : -0.000427350954851}
2019-04-14 18:44:33.91: SIM {TimeUS : 44935352, Roll : -0.1, Pitch : -0.11, Yaw : 359.94, Alt : 31.3199996948, Lat : 49.28357, Lng : -123.1150201, Q1 : 0.999999046326, Q2 : -0.000878241145983, Q3 : -0.000964357401244, Q4 : -0.000482449802803}
2019-04-14 18:44:34.01: SIM {TimeUS : 45035312, Roll : -0.02, Pitch : -0.05, Yaw : 359.94, Alt : 31.4799995422, Lat : 49.28357, Lng : -123.1150201, Q1 : 0.999999701977, Q2 : -0.000207952325582, Q3 : -0.000507380987983, Q4 : -0.000521641632076}
2019-04-14 18:44:34.11: SIM {TimeUS : 45135272, Roll : 0.02, Pitch : -0.02, Yaw : 359.93, Alt : 31.6599998474, Lat : 49.28357, Lng : -123.1150201, Q1 : 0.999999821186, Q2 : 0.000236695588683, Q3 : -0.000185829965631, Q4 : -0.000539722503163}
2019-04-14 18:44:34.21: SIM {TimeUS : 45235232, Roll : 0.04, Pitch : 0.01, Yaw : 359.93, Alt : 31.8400001526, Lat : 49.2835701, Lng : -123.1150202, Q1 : 0.999999761581, Q2 : 0.000355589814717, Q3 : 9.84120197245e-05, Q4 : -0.000540673732758}
2019-04-14 18:44:34.31: SIM {TimeUS : 45335192, Roll : 0.03, Pitch : 0.03, Yaw : 359.93, Alt : 32.0200004578, Lat : 49.2835701, Lng : -123.1150202, Q1 : 0.999999761581, Q2 : 0.000291854259558, Q3 : 0.000338981772074, Q4 : -0.000537972664461}
2019-04-14 18:44:34.41: SIM {TimeUS : 45435152, Roll : 0.01, Pitch : 0.06, Yaw : 359.93, Alt : 32.2099990845, Lat : 49.2835701, Lng : -123.1150202, Q1 : 0.999999701977, Q2 : 0.000105606392026, Q3 : 0.000538379710633, Q4 : -0.000526581599843}
2019-04-14 18:44:34.51: SIM {TimeUS : 45535112, Roll : 0.0, Pitch : 0.07, Yaw : 359.94, Alt : 32.4000015259, Lat : 49.2835701, Lng : -123.1150202, Q1 : 0.999999642372, Q2 : -7.88201396063e-06, Q3 : 0.000679882941768, Q4 : -0.000503917632159}
2019-04-14 18:44:34.61: SIM {TimeUS : 45635072, Roll : 0.0, Pitch : 0.07, Yaw : 359.94, Alt : 32.5999984741, Lat : 49.2835701, Lng : -123.1150202, Q1 : 0.999999701977, Q2 : 6.34541429463e-05, Q3 : 0.000650880450848, Q4 : -0.000483534735395}
2019-04-14 18:44:34.71: SIM {TimeUS : 45735032, Roll : 0.01, Pitch : 0.06, Yaw : 359.94, Alt : 32.7900009155, Lat : 49.2835701, Lng : -123.1150202, Q1 : 0.999999701977, Q2 : 0.000141771044582, Q3 : 0.000598603335675, Q4 : -0.000465679884655}
2019-04-14 18:44:34.81: SIM {TimeUS : 45834992, Roll : 0.02, Pitch : 0.06, Yaw : 359.94, Alt : 32.9900016785, Lat : 49.2835701, Lng : -123.1150203, Q1 : 0.999999701977, Q2 : 0.000194926542463, Q3 : 0.0006059880252, Q4 : -0.000451993517345}
2019-04-14 18:44:34.91: SIM {TimeUS : 45934952, Roll : 0.03, Pitch : 0.05, Yaw : 359.94, Alt : 33.1899986267, Lat : 49.2835701, Lng : -123.1150203, Q1 : 0.999999761581, Q2 : 0.000278494844679, Q3 : 0.000486467324663, Q4 : -0.000441889103968}
2019-04-14 18:44:35.01: SIM {TimeUS : 46034912, Roll : 0.03, Pitch : 0.03, Yaw : 359.94, Alt : 33.4000015259, Lat : 49.2835702, Lng : -123.1150203, Q1 : 0.999999821186, Q2 : 0.000337486271746, Q3 : 0.00026416988112, Q4 : -0.000452205422334}
2019-04-14 18:44:35.11: SIM {TimeUS : 46134872, Roll : 0.03, Pitch : 0.02, Yaw : 359.94, Alt : 33.5999984741, Lat : 49.2835702, Lng : -123.1150203, Q1 : 0.999999821186, Q2 : 0.000328409601934, Q3 : 0.00023870448058, Q4 : -0.000459975592094}
2019-04-14 18:44:35.21: SIM {TimeUS : 46234832, Roll : 0.04, Pitch : 0.03, Yaw : 359.94, Alt : 33.8100013733, Lat : 49.2835702, Lng : -123.1150203, Q1 : 0.999999761581, Q2 : 0.000352253729943, Q3 : 0.000323853513692, Q4 : -0.000475674518384}
2019-04-14 18:44:35.31: SIM {TimeUS : 46334792, Roll : 0.05, Pitch : 0.05, Yaw : 359.94, Alt : 34.0200004578, Lat : 49.2835702, Lng : -123.1150203, Q1 : 0.999999701977, Q2 : 0.000446568854386, Q3 : 0.000456263398519, Q4 : -0.000497167988215}
2019-04-14 18:44:35.41: SIM {TimeUS : 46434752, Roll : 0.05, Pitch : 0.04, Yaw : 359.94, Alt : 34.2299995422, Lat : 49.2835702, Lng : -123.1150203, Q1 : 0.999999701977, Q2 : 0.000454827852082, Q3 : 0.000412105611758, Q4 : -0.000517206208315}
2019-04-14 18:44:35.51: SIM {TimeUS : 46534712, Roll : 0.04, Pitch : 0.03, Yaw : 359.93, Alt : 34.4399986267, Lat : 49.2835702, Lng : -123.1150203, Q1 : 0.999999761581, Q2 : 0.000359400262823, Q3 : 0.000344983825926, Q4 : -0.000535997096449}
2019-04-14 18:44:35.61: SIM {TimeUS : 46634672, Roll : 0.02, Pitch : 0.03, Yaw : 359.93, Alt : 34.6599998474, Lat : 49.2835702, Lng : -123.1150203, Q1 : 0.999999761581, Q2 : 0.000223388880841, Q3 : 0.000317478406942, Q4 : -0.000559562293347}
2019-04-14 18:44:35.71: SIM {TimeUS : 46734632, Roll : 0.0, Pitch : 0.03, Yaw : 359.93, Alt : 34.8699989319, Lat : 49.2835702, Lng : -123.1150203, Q1 : 0.999999761581, Q2 : 5.58205429115e-05, Q3 : 0.000348803034285, Q4 : -0.000575794489123}
2019-04-14 18:44:35.81: SIM {TimeUS : 46834592, Roll : 0.0, Pitch : 0.01, Yaw : 359.93, Alt : 35.0900001526, Lat : 49.2835702, Lng : -123.1150203, Q1 : 0.999999821186, Q2 : -4.73041291116e-05, Q3 : 0.000139237643452, Q4 : -0.000590109382756}
2019-04-14 18:44:35.91: SIM {TimeUS : 46935385, Roll : -0.01, Pitch : 0.0, Yaw : 359.93, Alt : 35.3100013733, Lat : 49.2835702, Lng : -123.1150203, Q1 : 0.999999821186, Q2 : -9.16313729249e-05, Q3 : -4.97992587043e-05, Q4 : -0.000610063958447}
2019-04-14 18:44:36.01: SIM {TimeUS : 47035345, Roll : -0.02, Pitch : -0.01, Yaw : 359.92, Alt : 35.5299987793, Lat : 49.2835702, Lng : -123.1150203, Q1 : 0.999999761581, Q2 : -0.000217832362978, Q3 : -0.000136919406941, Q4 : -0.000630029418971}
2019-04-14 18:44:36.11: SIM {TimeUS : 47135305, Roll : -0.03, Pitch : -0.01, Yaw : 359.92, Alt : 35.7400016785, Lat : 49.2835702, Lng : -123.1150203, Q1 : 0.999999701977, Q2 : -0.000279662199318, Q3 : -0.000108331776573, Q4 : -0.000649094290566}
2019-04-14 18:44:36.21: SIM {TimeUS : 47235265, Roll : -0.02, Pitch : 0.0, Yaw : 359.92, Alt : 35.9599990845, Lat : 49.2835702, Lng : -123.1150203, Q1 : 0.999999761581, Q2 : -0.000228006363614, Q3 : -5.60866392334e-05, Q4 : -0.0006730047171}
2019-04-14 18:44:36.31: SIM {TimeUS : 47335225, Roll : -0.04, Pitch : -0.02, Yaw : 359.91, Alt : 36.1800003052, Lat : 49.2835702, Lng : -123.1150203, Q1 : 0.999999701977, Q2 : -0.000351264607161, Q3 : -0.000187860496226, Q4 : -0.000698622316122}
2019-04-14 18:44:36.41: SIM {TimeUS : 47435185, Roll : -0.06, Pitch : -0.05, Yaw : 359.91, Alt : 36.4099998474, Lat : 49.2835702, Lng : -123.1150203, Q1 : 0.999999463558, Q2 : -0.000607629772276, Q3 : -0.00045880136895, Q4 : -0.000724467507098}
2019-04-14 18:44:36.51: SIM {TimeUS : 47535145, Roll : -0.09, Pitch : -0.07, Yaw : 359.91, Alt : 36.6300010681, Lat : 49.2835702, Lng : -123.1150203, Q1 : 0.999999165535, Q2 : -0.000867412891239, Q3 : -0.000618794641923, Q4 : -0.000750133884139}
2019-04-14 18:44:36.61: SIM {TimeUS : 47635105, Roll : -0.12, Pitch : -0.08, Yaw : 359.91, Alt : 36.8499984741, Lat : 49.2835702, Lng : -123.1150203, Q1 : 0.999998807907, Q2 : -0.00110087380745, Q3 : -0.000747961865272, Q4 : -0.000776136061177}
2019-04-14 18:44:36.71: SIM {TimeUS : 47735065, Roll : -0.12, Pitch : -0.08, Yaw : 359.9, Alt : 37.0800018311, Lat : 49.2835702, Lng : -123.1150203, Q1 : 0.999998807907, Q2 : -0.00107947026845, Q3 : -0.000759867019951, Q4 : -0.000801918213256}
2019-04-14 18:44:36.81: SIM {TimeUS : 47835025, Roll : -0.1, Pitch : -0.07, Yaw : 359.9, Alt : 37.2999992371, Lat : 49.2835702, Lng : -123.1150203, Q1 : 0.999998986721, Q2 : -0.000931069429498, Q3 : -0.000655121810269, Q4 : -0.000831797427963}
2019-04-14 18:44:36.91: SIM {TimeUS : 47934985, Roll : -0.08, Pitch : -0.04, Yaw : 359.9, Alt : 37.5200004578, Lat : 49.2835702, Lng : -123.1150203, Q1 : 0.999999284744, Q2 : -0.000734628585633, Q3 : -0.000431656982983, Q4 : -0.000864446570631}
2019-04-14 18:44:37.01: SIM {TimeUS : 48034945, Roll : -0.06, Pitch : -0.03, Yaw : 359.89, Alt : 37.75, Lat : 49.2835702, Lng : -123.1150203, Q1 : 0.999999403954, Q2 : -0.000540793756954, Q3 : -0.000272863340797, Q4 : -0.000891430012416}
2019-04-14 18:44:37.11: SIM {TimeUS : 48134905, Roll : -0.06, Pitch : -0.03, Yaw : 359.89, Alt : 37.9799995422, Lat : 49.2835702, Lng : -123.1150203, Q1 : 0.999999403954, Q2 : -0.000547166680917, Q3 : -0.00028969332925, Q4 : -0.000914072268642}
2019-04-14 18:44:37.21: SIM {TimeUS : 48234865, Roll : -0.07, Pitch : -0.02, Yaw : 359.89, Alt : 38.2000007629, Lat : 49.2835702, Lng : -123.1150203, Q1 : 0.999999344349, Q2 : -0.000649100169539, Q3 : -0.00020283019694, Q4 : -0.000931589514948}
2019-04-14 18:44:37.31: SIM {TimeUS : 48334825, Roll : -0.09, Pitch : -0.01, Yaw : 359.89, Alt : 38.4300003052, Lat : 49.2835702, Lng : -123.1150203, Q1 : 0.999999165535, Q2 : -0.000854123267345, Q3 : -0.000109535110823, Q4 : -0.000947482301854}
2019-04-14 18:44:37.41: SIM {TimeUS : 48434785, Roll : -0.1, Pitch : 0.0, Yaw : 359.89, Alt : 38.6599998474, Lat : 49.2835702, Lng : -123.1150203, Q1 : 0.99999910593, Q2 : -0.000909777008928, Q3 : -1.57708127517e-05, Q4 : -0.000959752185736}
2019-04-14 18:44:37.51: SIM {TimeUS : 48534745, Roll : -0.08, Pitch : 0.02, Yaw : 359.88, Alt : 38.8899993896, Lat : 49.2835702, Lng : -123.1150203, Q1 : 0.999999284744, Q2 : -0.000716563954484, Q3 : 0.000239208660787, Q4 : -0.000972307869233}
2019-04-14 18:44:37.61: SIM {TimeUS : 48634705, Roll : -0.05, Pitch : 0.02, Yaw : 359.88, Alt : 39.1199989319, Lat : 49.2835702, Lng : -123.1150203, Q1 : 0.999999403954, Q2 : -0.00047140289098, Q3 : 0.000241230416577, Q4 : -0.000978497904725}
2019-04-14 18:44:37.71: SIM {TimeUS : 48734665, Roll : -0.02, Pitch : 0.01, Yaw : 359.88, Alt : 39.3499984741, Lat : 49.2835703, Lng : -123.1150204, Q1 : 0.999999463558, Q2 : -0.000218758039409, Q3 : 0.000172655127244, Q4 : -0.000980280688964}
2019-04-14 18:44:37.81: SIM {TimeUS : 48834625, Roll : 0.01, Pitch : 0.03, Yaw : 359.88, Alt : 39.5800018311, Lat : 49.2835703, Lng : -123.1150204, Q1 : 0.999999463558, Q2 : 0.00011581362196, Q3 : 0.000317013560561, Q4 : -0.000982480240054}
2019-04-14 18:44:37.91: SIM {TimeUS : 48934585, Roll : 0.05, Pitch : 0.06, Yaw : 359.88, Alt : 39.8100013733, Lat : 49.2835703, Lng : -123.1150204, Q1 : 0.99999922514, Q2 : 0.000472009705845, Q3 : 0.000600437051617, Q4 : -0.000993963913061}
2019-04-14 18:44:38.01: SIM {TimeUS : 49035378, Roll : 0.08, Pitch : 0.09, Yaw : 359.88, Alt : 40.0400009155, Lat : 49.2835703, Lng : -123.1150204, Q1 : 0.999998807907, Q2 : 0.000779108377174, Q3 : 0.000841115950607, Q4 : -0.00101305637509}
2019-04-14 18:44:38.11: SIM {TimeUS : 49135338, Roll : 0.08, Pitch : 0.12, Yaw : 359.88, Alt : 40.2700004578, Lat : 49.2835703, Lng : -123.1150204, Q1 : 0.999998688698, Q2 : 0.000727711070795, Q3 : 0.00104651879519, Q4 : -0.00103933992796}
2019-04-14 18:44:38.21: SIM {TimeUS : 49235298, Roll : 0.03, Pitch : 0.14, Yaw : 359.87, Alt : 40.5, Lat : 49.2835703, Lng : -123.1150204, Q1 : 0.999998629093, Q2 : 0.000333772273734, Q3 : 0.0012249678839, Q4 : -0.00108490884304}
2019-04-14 18:44:38.31: SIM {TimeUS : 49335258, Roll : 0.0, Pitch : 0.14, Yaw : 359.87, Alt : 40.7400016785, Lat : 49.2835703, Lng : -123.1150204, Q1 : 0.999998569489, Q2 : -4.03949961765e-05, Q3 : 0.00127634336241, Q4 : -0.0011217999272}
2019-04-14 18:44:38.41: SIM {TimeUS : 49435218, Roll : -0.03, Pitch : 0.12, Yaw : 359.86, Alt : 40.9700012207, Lat : 49.2835703, Lng : -123.1150204, Q1 : 0.999998688698, Q2 : -0.000299078732496, Q3 : 0.00111208588351, Q4 : -0.00114932958968}
2019-04-14 18:44:38.51: SIM {TimeUS : 49535178, Roll : -0.04, Pitch : 0.1, Yaw : 359.86, Alt : 41.2000007629, Lat : 49.2835703, Lng : -123.1150204, Q1 : 0.999998748302, Q2 : -0.000412275607232, Q3 : 0.000938677112572, Q4 : -0.00118087581359}
2019-04-14 18:44:38.61: SIM {TimeUS : 49635138, Roll : -0.03, Pitch : 0.1, Yaw : 359.86, Alt : 41.4399986267, Lat : 49.2835703, Lng : -123.1150204, Q1 : 0.999998748302, Q2 : -0.000312599673634, Q3 : 0.000921715109143, Q4 : -0.00121589505579}
2019-04-14 18:44:38.71: SIM {TimeUS : 49735098, Roll : 0.0, Pitch : 0.12, Yaw : 359.85, Alt : 41.6699981689, Lat : 49.2835703, Lng : -123.1150205, Q1 : 0.999998629093, Q2 : 5.69955918763e-05, Q3 : 0.001062543015, Q4 : -0.00125914381351}
2019-04-14 18:44:38.81: SIM {TimeUS : 49835058, Roll : 0.05, Pitch : 0.12, Yaw : 359.85, Alt : 41.9000015259, Lat : 49.2835703, Lng : -123.1150205, Q1 : 0.999998390675, Q2 : 0.000513802922796, Q3 : 0.00111671572085, Q4 : -0.00130412378348}
2019-04-14 18:44:38.91: SIM {TimeUS : 49935018, Roll : 0.09, Pitch : 0.09, Yaw : 359.84, Alt : 42.1399993896, Lat : 49.2835703, Lng : -123.1150205, Q1 : 0.999998450279, Q2 : 0.00084704667097, Q3 : 0.000811082893051, Q4 : -0.00134461047128}
2019-04-14 18:44:39.01: SIM {TimeUS : 50034978, Roll : 0.09, Pitch : 0.04, Yaw : 359.84, Alt : 42.3699989319, Lat : 49.2835703, Lng : -123.1150205, Q1 : 0.999998629093, Q2 : 0.000866832910106, Q3 : 0.000376003124984, Q4 : -0.00137673364952}
2019-04-14 18:44:39.11: SIM {TimeUS : 50134938, Roll : 0.05, Pitch : 0.0, Yaw : 359.84, Alt : 42.5999984741, Lat : 49.2835703, Lng : -123.1150205, Q1 : 0.999998867512, Q2 : 0.000515966443345, Q3 : 7.71459308453e-05, Q4 : -0.00139618082903}
2019-04-14 18:44:39.21: SIM {TimeUS : 50234898, Roll : 0.0, Pitch : 0.0, Yaw : 359.83, Alt : 42.8400001526, Lat : 49.2835703, Lng : -123.1150205, Q1 : 0.999998986721, Q2 : 2.2339516363e-05, Q3 : 3.49640831701e-05, Q4 : -0.00140575855039}
2019-04-14 18:44:39.31: SIM {TimeUS : 50334858, Roll : -0.03, Pitch : 0.03, Yaw : 359.83, Alt : 43.0699996948, Lat : 49.2835703, Lng : -123.1150205, Q1 : 0.999998927116, Q2 : -0.000306607485982, Q3 : 0.00029328049277, Q4 : -0.00140662316699}
2019-04-14 18:44:39.41: SIM {TimeUS : 50434818, Roll : -0.05, Pitch : 0.05, Yaw : 359.83, Alt : 43.3100013733, Lat : 49.2835703, Lng : -123.1150205, Q1 : 0.999998807907, Q2 : -0.000463439006126, Q3 : 0.000466913974378, Q4 : -0.0014035232598}
2019-04-14 18:44:39.51: SIM {TimeUS : 50534778, Roll : -0.04, Pitch : 0.04, Yaw : 359.83, Alt : 43.5400009155, Lat : 49.2835703, Lng : -123.1150205, Q1 : 0.999998807907, Q2 : -0.000421621283749, Q3 : 0.000420862837927, Q4 : -0.00140591408126}
2019-04-14 18:44:39.61: SIM {TimeUS : 50634738, Roll : -0.04, Pitch : 0.03, Yaw : 359.83, Alt : 43.7799987793, Lat : 49.2835703, Lng : -123.1150204, Q1 : 0.999998867512, Q2 : -0.000426155340392, Q3 : 0.000305345281959, Q4 : -0.00142126902938}
2019-04-14 18:44:39.71: SIM {TimeUS : 50734698, Roll : -0.04, Pitch : 0.01, Yaw : 359.83, Alt : 44.0099983215, Lat : 49.2835703, Lng : -123.1150204, Q1 : 0.999998867512, Q2 : -0.000364142877515, Q3 : 0.000173361811903, Q4 : -0.00144126359373}
2019-04-14 18:44:39.81: SIM {TimeUS : 50834658, Roll : -0.02, Pitch : 0.01, Yaw : 359.83, Alt : 44.25, Lat : 49.2835703, Lng : -123.1150204, Q1 : 0.999998927116, Q2 : -0.000205214193556, Q3 : 0.00014918508532, Q4 : -0.00146621186286}
2019-04-14 18:44:39.91: SIM {TimeUS : 50934618, Roll : -0.01, Pitch : 0.02, Yaw : 359.82, Alt : 44.4900016785, Lat : 49.2835703, Lng : -123.1150204, Q1 : 0.999998867512, Q2 : -0.000110597036837, Q3 : 0.000215339954593, Q4 : -0.00149108527694}
2019-04-14 18:44:40.01: SIM {TimeUS : 51034578, Roll : -0.01, Pitch : 0.01, Yaw : 359.82, Alt : 44.7200012207, Lat : 49.2835703, Lng : -123.1150204, Q1 : 0.999998807907, Q2 : -0.000158907801961, Q3 : 0.000164467361174, Q4 : -0.00151301547885}
2019-04-14 18:44:40.11: SIM {TimeUS : 51135371, Roll : -0.02, Pitch : 0.0, Yaw : 359.82, Alt : 44.9599990845, Lat : 49.2835702, Lng : -123.1150204, Q1 : 0.999998807907, Q2 : -0.000226168704103, Q3 : -2.06773129321e-05, Q4 : -0.00153386616148}
2019-04-14 18:44:40.21: SIM {TimeUS : 51235331, Roll : -0.03, Pitch : -0.01, Yaw : 359.82, Alt : 45.2000007629, Lat : 49.2835702, Lng : -123.1150204, Q1 : 0.999998748302, Q2 : -0.000282252440229, Q3 : -0.000137506111059, Q4 : -0.00155740824994}
2019-04-14 18:44:40.31: SIM {TimeUS : 51335291, Roll : -0.02, Pitch : -0.01, Yaw : 359.81, Alt : 45.4300003052, Lat : 49.2835702, Lng : -123.1150204, Q1 : 0.999998688698, Q2 : -0.000242554146098, Q3 : -0.000163790435181, Q4 : -0.00158210308291}
2019-04-14 18:44:40.41: SIM {TimeUS : 51435251, Roll : -0.03, Pitch : -0.01, Yaw : 359.81, Alt : 45.6699981689, Lat : 49.2835702, Lng : -123.1150204, Q1 : 0.999998629093, Q2 : -0.000275986705674, Q3 : -0.000123693142086, Q4 : -0.00160944054369}
2019-04-14 18:44:40.51: SIM {TimeUS : 51535211, Roll : -0.05, Pitch : 0.0, Yaw : 359.81, Alt : 45.9000015259, Lat : 49.2835702, Lng : -123.1150204, Q1 : 0.999998569489, Q2 : -0.000464552169433, Q3 : -2.5999825084e-05, Q4 : -0.00164220365696}
2019-04-14 18:44:40.61: SIM {TimeUS : 51635171, Roll : -0.08, Pitch : 0.0, Yaw : 359.8, Alt : 46.1300010681, Lat : 49.2835702, Lng : -123.1150204, Q1 : 0.999998271465, Q2 : -0.000747935962863, Q3 : 4.16449838667e-05, Q4 : -0.00168238126207}
2019-04-14 18:44:40.71: SIM {TimeUS : 51735131, Roll : -0.1, Pitch : 0.0, Yaw : 359.8, Alt : 46.3600006104, Lat : 49.2835702, Lng : -123.1150204, Q1 : 0.999998092651, Q2 : -0.000935038551688, Q3 : 6.028534699e-05, Q4 : -0.001722827903}
2019-04-14 18:44:40.81: SIM {TimeUS : 51835091, Roll : -0.11, Pitch : 0.01, Yaw : 359.79, Alt : 46.5800018311, Lat : 49.2835702, Lng : -123.1150204, Q1 : 0.999997973442, Q2 : -0.000962393125519, Q3 : 0.000130040338263, Q4 : -0.00176133168861}
2019-04-14 18:44:40.91: SIM {TimeUS : 51935051, Roll : -0.09, Pitch : 0.03, Yaw : 359.79, Alt : 46.7999992371, Lat : 49.2835702, Lng : -123.1150204, Q1 : 0.999997973442, Q2 : -0.000856001046486, Q3 : 0.000273692014161, Q4 : -0.00179607491009}
2019-04-14 18:44:41.01: SIM {TimeUS : 52035011, Roll : -0.07, Pitch : 0.03, Yaw : 359.79, Alt : 47.0099983215, Lat : 49.2835702, Lng : -123.1150204, Q1 : 0.999998092651, Q2 : -0.000668595195748, Q3 : 0.000343708205037, Q4 : -0.0018249116838}
2019-04-14 18:44:41.11: SIM {TimeUS : 52134971, Roll : -0.05, Pitch : 0.03, Yaw : 359.78, Alt : 47.2099990845, Lat : 49.2835702, Lng : -123.1150204, Q1 : 0.999998152256, Q2 : -0.000509193749167, Q3 : 0.000298387225484, Q4 : -0.00184851174708}
2019-04-14 18:44:41.21: SIM {TimeUS : 52234931, Roll : -0.04, Pitch : 0.02, Yaw : 359.78, Alt : 47.4099998474, Lat : 49.2835702, Lng : -123.1150204, Q1 : 0.999998152256, Q2 : -0.000422524171881, Q3 : 0.000184887510841, Q4 : -0.00187319936231}
2019-04-14 18:44:41.31: SIM {TimeUS : 52334891, Roll : -0.03, Pitch : 0.0, Yaw : 359.78, Alt : 47.5900001526, Lat : 49.2835702, Lng : -123.1150204, Q1 : 0.999998152256, Q2 : -0.000281938235275, Q3 : -3.27683555952e-05, Q4 : -0.00189623120241}
2019-04-14 18:44:41.41: SIM {TimeUS : 52434851, Roll : -0.02, Pitch : -0.03, Yaw : 359.78, Alt : 47.7700004578, Lat : 49.2835702, Lng : -123.1150204, Q1 : 0.999998092651, Q2 : -0.000196420529392, Q3 : -0.000282177468762, Q4 : -0.001916464651}
2019-04-14 18:44:41.51: SIM {TimeUS : 52534811, Roll : -0.02, Pitch : -0.06, Yaw : 359.77, Alt : 47.9300003052, Lat : 49.2835702, Lng : -123.1150204, Q1 : 0.999997973442, Q2 : -0.000185379089089, Q3 : -0.000541367800906, Q4 : -0.00193476071581}
2019-04-14 18:44:41.61: SIM {TimeUS : 52634771, Roll : -0.02, Pitch : -0.08, Yaw : 359.77, Alt : 48.0900001526, Lat : 49.2835702, Lng : -123.1150204, Q1 : 0.999997794628, Q2 : -0.000227971133427, Q3 : -0.000756085792091, Q4 : -0.00195260776673}
2019-04-14 18:44:41.71: SIM {TimeUS : 52734731, Roll : 0.0, Pitch : -0.08, Yaw : 359.77, Alt : 48.2299995422, Lat : 49.2835702, Lng : -123.1150204, Q1 : 0.999997735023, Q2 : -1.18539437608e-05, Q3 : -0.000765337492339, Q4 : -0.0019687616732}
2019-04-14 18:44:41.81: SIM {TimeUS : 52834691, Roll : 0.03, Pitch : -0.07, Yaw : 359.77, Alt : 48.3600006104, Lat : 49.2835702, Lng : -123.1150205, Q1 : 0.999997794628, Q2 : 0.000304277258692, Q3 : -0.00062862993218, Q4 : -0.00198657182045}
2019-04-14 18:44:41.91: SIM {TimeUS : 52934651, Roll : 0.06, Pitch : -0.04, Yaw : 359.76, Alt : 48.4700012207, Lat : 49.2835702, Lng : -123.1150205, Q1 : 0.999997735023, Q2 : 0.00056956516346, Q3 : -0.000414852111135, Q4 : -0.00200855406001}
2019-04-14 18:44:42.01: SIM {TimeUS : 53034611, Roll : 0.07, Pitch : -0.02, Yaw : 359.76, Alt : 48.5800018311, Lat : 49.2835702, Lng : -123.1150205, Q1 : 0.999997735023, Q2 : 0.000650784932077, Q3 : -0.00019117150805, Q4 : -0.00203179218806}
2019-04-14 18:44:42.11: SIM {TimeUS : 53135404, Roll : 0.07, Pitch : 0.0, Yaw : 359.76, Alt : 48.6699981689, Lat : 49.2835702, Lng : -123.1150205, Q1 : 0.999997615814, Q2 : 0.000694161106367, Q3 : -5.20547037013e-05, Q4 : -0.00206397403963}
2019-04-14 18:44:42.21: SIM {TimeUS : 53235364, Roll : 0.06, Pitch : -0.01, Yaw : 359.75, Alt : 48.75, Lat : 49.2835702, Lng : -123.1150205, Q1 : 0.99999755621, Q2 : 0.00059918675106, Q3 : -0.000138157236506, Q4 : -0.00210661208257}
2019-04-14 18:44:42.31: SIM {TimeUS : 53335324, Roll : 0.04, Pitch : -0.02, Yaw : 359.75, Alt : 48.8199996948, Lat : 49.2835702, Lng : -123.1150205, Q1 : 0.999997615814, Q2 : 0.000402042118367, Q3 : -0.000199417656404, Q4 : -0.00214433856308}
2019-04-14 18:44:42.41: SIM {TimeUS : 53435284, Roll : 0.03, Pitch : -0.01, Yaw : 359.75, Alt : 48.8800010681, Lat : 49.2835702, Lng : -123.1150205, Q1 : 0.999997615814, Q2 : 0.000265243521426, Q3 : -0.000125542414025, Q4 : -0.00217999797314}
2019-04-14 18:44:42.51: SIM {TimeUS : 53535244, Roll : 0.01, Pitch : 0.0, Yaw : 359.74, Alt : 48.9399986267, Lat : 49.2835702, Lng : -123.1150205, Q1 : 0.99999755621, Q2 : 0.000126753031509, Q3 : -2.71084791166e-05, Q4 : -0.00221213162877}
2019-04-14 18:44:42.61: SIM {TimeUS : 53635204, Roll : 0.01, Pitch : 0.0, Yaw : 359.74, Alt : 48.9799995422, Lat : 49.2835702, Lng : -123.1150205, Q1 : 0.999997496605, Q2 : 0.000124512749608, Q3 : 6.54674440739e-05, Q4 : -0.00224137469195}
2019-04-14 18:44:42.71: SIM {TimeUS : 53735164, Roll : 0.12, Pitch : -0.05, Yaw : 359.74, Alt : 49.0200004578, Lat : 49.2835702, Lng : -123.1150205, Q1 : 0.999996781349, Q2 : 0.00108434446156, Q3 : -0.000440437434008, Q4 : -0.00226277951151}
2019-04-14 18:44:42.81: SIM {TimeUS : 53835124, Roll : 0.41, Pitch : -0.27, Yaw : 359.73, Alt : 49.0499992371, Lat : 49.2835702, Lng : -123.1150205, Q1 : 0.999987840652, Q2 : 0.00362585368566, Q3 : -0.00243708561175, Q4 : -0.00227864901535}
2019-04-14 18:44:42.91: SIM {TimeUS : 53935084, Roll : 0.89, Pitch : -0.72, Yaw : 359.73, Alt : 49.0800018311, Lat : 49.2835702, Lng : -123.1150205, Q1 : 0.999946475029, Q2 : 0.00782449077815, Q3 : -0.00637305947021, Q4 : -0.00228847656399}
2019-04-14 18:44:43.01: SIM {TimeUS : 54035044, Roll : 1.52, Pitch : -1.35, Yaw : 359.72, Alt : 49.1100006104, Lat : 49.2835702, Lng : -123.1150205, Q1 : 0.999839186668, Q2 : 0.0132932616398, Q3 : -0.0118187488988, Q4 : -0.0022801856976}
2019-04-14 18:44:43.11: SIM {TimeUS : 54135004, Roll : 2.24, Pitch : -2.09, Yaw : 359.7, Alt : 49.1300010681, Lat : 49.2835703, Lng : -123.1150204, Q1 : 0.999638557434, Q2 : 0.0195571929216, Q3 : -0.0183104295284, Q4 : -0.00224064383656}
2019-04-14 18:44:43.21: SIM {TimeUS : 54234964, Roll : 2.98, Pitch : -2.82, Yaw : 359.68, Alt : 49.1399993896, Lat : 49.2835703, Lng : -123.1150203, Q1 : 0.99935489893, Q2 : 0.025941522792, Q3 : -0.0247454084456, Q4 : -0.00213295454159}
2019-04-14 18:44:43.31: SIM {TimeUS : 54334924, Roll : 3.61, Pitch : -3.43, Yaw : 359.66, Alt : 49.1599998474, Lat : 49.2835704, Lng : -123.1150201, Q1 : 0.999053478241, Q2 : 0.0314169377089, Q3 : -0.0300205983222, Q4 : -0.00195206701756}
2019-04-14 18:44:43.41: SIM {TimeUS : 54434884, Roll : 4.09, Pitch : -3.88, Yaw : 359.66, Alt : 49.1699981689, Lat : 49.2835706, Lng : -123.11502, Q1 : 0.998787641525, Q2 : 0.0355784855783, Q3 : -0.0339778847992, Q4 : -0.00171656557359}
2019-04-14 18:44:43.51: SIM {TimeUS : 54534844, Roll : 4.44, Pitch : -4.2, Yaw : 359.67, Alt : 49.1800003052, Lat : 49.2835708, Lng : -123.1150197, Q1 : 0.998577356339, Q2 : 0.0386270657182, Q3 : -0.036730658263, Q4 : -0.00143217097502}
2019-04-14 18:44:43.61: SIM {TimeUS : 54634804, Roll : 4.7, Pitch : -4.43, Yaw : 359.68, Alt : 49.2000007629, Lat : 49.2835709, Lng : -123.1150193, Q1 : 0.998407423496, Q2 : 0.0409297086298, Q3 : -0.0388087518513, Q4 : -0.00113728211727}
2019-04-14 18:44:43.71: SIM {TimeUS : 54734764, Roll : 4.94, Pitch : -4.67, Yaw : 359.69, Alt : 49.2000007629, Lat : 49.2835713, Lng : -123.1150188, Q1 : 0.99823731184, Q2 : 0.0430134274065, Q3 : -0.0408827252686, Q4 : -0.00085724843666}
2019-04-14 18:44:43.81: SIM {TimeUS : 54834724, Roll : 5.22, Pitch : -4.95, Yaw : 359.7, Alt : 49.2099990845, Lat : 49.2835716, Lng : -123.1150182, Q1 : 0.998029530048, Q2 : 0.0454057604074, Q3 : -0.0433019548655, Q4 : -0.000583139830269}
2019-04-14 18:44:43.91: SIM {TimeUS : 54934684, Roll : 5.51, Pitch : -5.24, Yaw : 359.71, Alt : 49.2200012207, Lat : 49.2835721, Lng : -123.1150175, Q1 : 0.997796237469, Q2 : 0.0479844473302, Q3 : -0.0458265542984, Q4 : -0.000308177812258}
2019-04-14 18:44:44.01: SIM {TimeUS : 55034644, Roll : 5.76, Pitch : -5.48, Yaw : 359.71, Alt : 49.2299995422, Lat : 49.2835725, Lng : -123.1150169, Q1 : 0.997594118118, Q2 : 0.0501219443977, Q3 : -0.0478936359286, Q4 : -5.33781858394e-05}
2019-04-14 18:44:44.11: SIM {TimeUS : 55134604, Roll : 5.94, Pitch : -5.65, Yaw : 359.72, Alt : 49.2299995422, Lat : 49.2835729, Lng : -123.115016, Q1 : 0.997439026833, Q2 : 0.0516944862902, Q3 : -0.0494272038341, Q4 : 0.000157721529831}
2019-04-14 18:44:44.21: SIM {TimeUS : 55235397, Roll : 6.05, Pitch : -5.78, Yaw : 359.73, Alt : 49.2400016785, Lat : 49.2835735, Lng : -123.1150151, Q1 : 0.997335851192, Q2 : 0.0526582561433, Q3 : -0.0504803285003, Q4 : 0.000327912071953}
2019-04-14 18:44:44.31: SIM {TimeUS : 55335357, Roll : 6.13, Pitch : -5.85, Yaw : 359.73, Alt : 49.2400016785, Lat : 49.2835741, Lng : -123.1150141, Q1 : 0.997265994549, Q2 : 0.0533434972167, Q3 : -0.0511351451278, Q4 : 0.00046643477981}
2019-04-14 18:44:44.41: SIM {TimeUS : 55435317, Roll : 6.2, Pitch : -5.91, Yaw : 359.74, Alt : 49.25, Lat : 49.2835747, Lng : -123.1150131, Q1 : 0.997205138206, Q2 : 0.0539635457098, Q3 : -0.0516679771245, Q4 : 0.000546755327377}
2019-04-14 18:44:44.51: SIM {TimeUS : 55535277, Roll : 6.35, Pitch : -5.98, Yaw : 359.75, Alt : 49.25, Lat : 49.2835756, Lng : -123.1150119, Q1 : 0.997104585171, Q2 : 0.0552807226777, Q3 : -0.0522107966244, Q4 : 0.000722370867152}
2019-04-14 18:44:44.61: SIM {TimeUS : 55635237, Roll : 6.76, Pitch : -5.93, Yaw : 0.02, Alt : 49.2599983215, Lat : 49.2835763, Lng : -123.1150107, Q1 : 0.996920466423, Q2 : 0.0589371435344, Q3 : -0.0516240783036, Q4 : 0.00330878747627}
2019-04-14 18:44:44.71: SIM {TimeUS : 55735197, Roll : 7.42, Pitch : -5.81, Yaw : 1.21, Alt : 49.2599983215, Lat : 49.283577, Lng : -123.1150094, Q1 : 0.996524393559, Q2 : 0.0652255341411, Q3 : -0.0499411448836, Q4 : 0.0138096259907}
2019-04-14 18:44:44.81: SIM {TimeUS : 55835157, Roll : 8.04, Pitch : -5.93, Yaw : 3.86, Alt : 49.2599983215, Lat : 49.2835779, Lng : -123.115008, Q1 : 0.995507895947, Q2 : 0.0717964097857, Q3 : -0.0492258779705, Q4 : 0.0372311584651}
2019-04-14 18:44:44.91: SIM {TimeUS : 55935117, Roll : 8.31, Pitch : -6.47, Yaw : 8.11, Alt : 49.2599983215, Lat : 49.2835788, Lng : -123.1150065, Q1 : 0.9929921031, Q2 : 0.0761994123459, Q3 : -0.0510719306767, Q4 : 0.0745119526982}
2019-04-14 18:44:45.01: SIM {TimeUS : 56035077, Roll : 8.02, Pitch : -7.45, Yaw : 13.78, Alt : 49.2599983215, Lat : 49.2835795, Lng : -123.1150049, Q1 : 0.987700283527, Q2 : 0.0770940482616, Q3 : -0.0559938922524, Q4 : 0.123972915113}
2019-04-14 18:44:45.11: SIM {TimeUS : 56135037, Roll : 7.07, Pitch : -8.75, Yaw : 20.63, Alt : 49.2599983215, Lat : 49.2835805, Lng : -123.1150032, Q1 : 0.978243529797, Q2 : 0.0741719231009, Q3 : -0.0639289692044, Q4 : 0.182896867394}
2019-04-14 18:44:45.21: SIM {TimeUS : 56234997, Roll : 5.47, Pitch : -10.17, Yaw : 28.4, Alt : 49.2700004578, Lat : 49.2835814, Lng : -123.1150014, Q1 : 0.963465631008, Q2 : 0.0678221732378, Q3 : -0.0742332488298, Q4 : 0.248240888119}
2019-04-14 18:44:45.31: SIM {TimeUS : 56334957, Roll : 3.07, Pitch : -11.48, Yaw : 36.72, Alt : 49.2700004578, Lat : 49.2835824, Lng : -123.1149993, Q1 : 0.943131625652, Q2 : 0.0567994900048, Q3 : -0.0864977687597, Q4 : 0.315903007984}
2019-04-14 18:44:45.41: SIM {TimeUS : 56434917, Roll : -0.01, Pitch : -12.38, Yaw : 44.85, Alt : 49.2700004578, Lat : 49.2835835, Lng : -123.1149974, Q1 : 0.918964326382, Q2 : 0.0410146787763, Q3 : -0.0997657105327, Q4 : 0.379300892353}
2019-04-14 18:44:45.51: SIM {TimeUS : 56534877, Roll : -3.19, Pitch : -12.78, Yaw : 51.91, Alt : 49.2700004578, Lat : 49.2835844, Lng : -123.1149952, Q1 : 0.894530296326, Q2 : 0.0237686727196, Q3 : -0.112175486982, Q4 : 0.432050019503}
2019-04-14 18:44:45.61: SIM {TimeUS : 56634837, Roll : -5.8, Pitch : -12.77, Yaw : 57.23, Alt : 49.2700004578, Lat : 49.2835856, Lng : -123.1149931, Q1 : 0.873970925808, Q2 : 0.00903711095452, Q3 : -0.121654272079, Q4 : 0.470418304205}
2019-04-14 18:44:45.71: SIM {TimeUS : 56734797, Roll : -7.4, Pitch : -12.62, Yaw : 60.53, Alt : 49.2700004578, Lat : 49.283587, Lng : -123.1149909, Q1 : 0.860238611698, Q2 : -0.0001627716847, Q3 : -0.127097636461, Q4 : 0.493797272444}
2019-04-14 18:44:45.81: SIM {TimeUS : 56834757, Roll : -7.93, Pitch : -12.54, Yaw : 61.93, Alt : 49.2700004578, Lat : 49.2835884, Lng : -123.1149887, Q1 : 0.854165375233, Q2 : -0.00286272610538, Q3 : -0.128832474351, Q4 : 0.503781199455}
2019-04-14 18:44:45.91: SIM {TimeUS : 56934717, Roll : -7.54, Pitch : -12.67, Yaw : 61.75, Alt : 49.2700004578, Lat : 49.2835898, Lng : -123.1149864, Q1 : 0.854914069176, Q2 : 0.00042145329644, Q3 : -0.128098636866, Q4 : 0.502705216408}
2019-04-14 18:44:46.01: SIM {TimeUS : 57034677, Roll : -6.46, Pitch : -13.05, Yaw : 60.33, Alt : 49.2700004578, Lat : 49.2835915, Lng : -123.1149841, Q1 : 0.860797584057, Q2 : 0.00862425751984, Q3 : -0.126317247748, Q4 : 0.492947459221}
2019-04-14 18:44:46.11: SIM {TimeUS : 57134637, Roll : -4.93, Pitch : -13.64, Yaw : 58.03, Alt : 49.2700004578, Lat : 49.2835932, Lng : -123.1149818, Q1 : 0.869949877262, Q2 : 0.0202017389238, Q3 : -0.12449991703, Q4 : 0.476737737656}
2019-04-14 18:44:46.21: SIM {TimeUS : 57234597, Roll : -3.17, Pitch : -14.31, Yaw : 55.16, Alt : 49.2700004578, Lat : 49.2835949, Lng : -123.1149794, Q1 : 0.880682766438, Q2 : 0.033320106566, Q3 : -0.123137198389, Q4 : 0.456207066774}
2019-04-14 18:44:46.31: SIM {TimeUS : 57335390, Roll : -1.35, Pitch : -14.94, Yaw : 52.01, Alt : 49.2799987793, Lat : 49.2835966, Lng : -123.1149768, Q1 : 0.891705334187, Q2 : 0.0465079247952, Q3 : -0.122031539679, Q4 : 0.433366954327}
2019-04-14 18:44:46.41: SIM {TimeUS : 57435350, Roll : 0.32, Pitch : -15.42, Yaw : 48.95, Alt : 49.2799987793, Lat : 49.2835986, Lng : -123.1149743, Q1 : 0.901722192764, Q2 : 0.0581369176507, Q3 : -0.120967842638, Q4 : 0.410954922438}
2019-04-14 18:44:46.51: SIM {TimeUS : 57535310, Roll : 1.72, Pitch : -15.69, Yaw : 46.28, Alt : 49.2799987793, Lat : 49.2836004, Lng : -123.1149716, Q1 : 0.910015106201, Q2 : 0.0673961639404, Q3 : -0.119646117091, Q4 : 0.391171514988}
2019-04-14 18:44:46.61: SIM {TimeUS : 57635270, Roll : 2.74, Pitch : -15.78, Yaw : 44.22, Alt : 49.2799987793, Lat : 49.2836023, Lng : -123.1149687, Q1 : 0.916157782078, Q2 : 0.0736571848392, Q3 : -0.118204586208, Q4 : 0.375842094421}
2019-04-14 18:44:46.71: SIM {TimeUS : 57735230, Roll : 3.32, Pitch : -15.75, Yaw : 42.92, Alt : 49.2799987793, Lat : 49.2836043, Lng : -123.1149658, Q1 : 0.920028805733, Q2 : 0.0768440067768, Q3 : -0.117010347545, Q4 : 0.365992695093}
2019-04-14 18:44:46.81: SIM {TimeUS : 57835190, Roll : 3.46, Pitch : -15.7, Yaw : 42.38, Alt : 49.2799987793, Lat : 49.2836062, Lng : -123.1149627, Q1 : 0.921704173088, Q2 : 0.077306330204, Q3 : -0.116503693163, Q4 : 0.36181768775}
2019-04-14 18:44:46.91: SIM {TimeUS : 57935150, Roll : 3.21, Pitch : -15.71, Yaw : 42.53, Alt : 49.2799987793, Lat : 49.2836081, Lng : -123.1149595, Q1 : 0.921390235424, Q2 : 0.0754848048091, Q3 : -0.117220789194, Q4 : 0.36276909709}
2019-04-14 18:44:47.01: SIM {TimeUS : 58035110, Roll : 2.65, Pitch : -15.78, Yaw : 43.23, Alt : 49.2799987793, Lat : 49.2836102, Lng : -123.1149562, Q1 : 0.919423639774, Q2 : 0.0719468668103, Q3 : -0.119160063565, Q4 : 0.36781078577}
2019-04-14 18:44:47.11: SIM {TimeUS : 58135070, Roll : 1.88, Pitch : -15.92, Yaw : 44.32, Alt : 49.2799987793, Lat : 49.2836122, Lng : -123.1149528, Q1 : 0.916222214699, Q2 : 0.067311450839, Q3 : -0.122092649341, Q4 : 0.375632017851}
2019-04-14 18:44:47.21: SIM {TimeUS : 58235030, Roll : 1.02, Pitch : -16.05, Yaw : 45.6, Alt : 49.2799987793, Lat : 49.2836141, Lng : -123.1149494, Q1 : 0.912290692329, Q2 : 0.0622798465192, Q3 : -0.125306770205, Q4 : 0.384896337986}
2019-04-14 18:44:47.31: SIM {TimeUS : 58334990, Roll : 0.21, Pitch : -16.17, Yaw : 46.91, Alt : 49.2799987793, Lat : 49.2836162, Lng : -123.1149459, Q1 : 0.908131480217, Q2 : 0.0576654039323, Q3 : -0.128304570913, Q4 : 0.394347429276}
2019-04-14 18:44:47.41: SIM {TimeUS : 58434950, Roll : -0.49, Pitch : -16.26, Yaw : 48.1, Alt : 49.2799987793, Lat : 49.2836183, Lng : -123.1149423, Q1 : 0.904248476028, Q2 : 0.0537011139095, Q3 : -0.130898296833, Q4 : 0.402885258198}
2019-04-14 18:44:47.51: SIM {TimeUS : 58534910, Roll : -1.02, Pitch : -16.32, Yaw : 49.05, Alt : 49.2799987793, Lat : 49.2836205, Lng : -123.1149385, Q1 : 0.901030600071, Q2 : 0.0509107559919, Q3 : -0.13280762732, Q4 : 0.409773260355}
2019-04-14 18:44:47.61: SIM {TimeUS : 58634870, Roll : -1.31, Pitch : -16.35, Yaw : 49.71, Alt : 49.2799987793, Lat : 49.2836226, Lng : -123.114935, Q1 : 0.898757636547, Q2 : 0.049482550472, Q3 : -0.133817315102, Q4 : 0.414583027363}
2019-04-14 18:44:47.71: SIM {TimeUS : 58734830, Roll : -1.4, Pitch : -16.36, Yaw : 50.05, Alt : 49.2799987793, Lat : 49.2836249, Lng : -123.1149312, Q1 : 0.897553563118, Q2 : 0.0491856522858, Q3 : -0.134094491601, Q4 : 0.417129486799}
2019-04-14 18:44:47.81: SIM {TimeUS : 58834790, Roll : -1.35, Pitch : -16.38, Yaw : 50.09, Alt : 49.2799987793, Lat : 49.2836272, Lng : -123.1149275, Q1 : 0.897355973721, Q2 : 0.0497667230666, Q3 : -0.134052172303, Q4 : 0.417499125004}
2019-04-14 18:44:47.91: SIM {TimeUS : 58934750, Roll : -1.16, Pitch : -16.43, Yaw : 49.88, Alt : 49.2900009155, Lat : 49.2836293, Lng : -123.1149237, Q1 : 0.897998452187, Q2 : 0.0511261373758, Q3 : -0.133821368217, Q4 : 0.416024953127}
2019-04-14 18:44:48.01: SIM {TimeUS : 59034710, Roll : -0.89, Pitch : -16.5, Yaw : 49.48, Alt : 49.2900009155, Lat : 49.2836317, Lng : -123.1149199, Q1 : 0.899241030216, Q2 : 0.0530517213047, Q3 : -0.133553802967, Q4 : 0.413176089525}
2019-04-14 18:44:48.11: SIM {TimeUS : 59134670, Roll : -0.57, Pitch : -16.56, Yaw : 48.97, Alt : 49.2900009155, Lat : 49.2836341, Lng : -123.114916, Q1 : 0.900851070881, Q2 : 0.0551910847425, Q3 : -0.133172675967, Q4 : 0.409495234489}
2019-04-14 18:44:48.21: SIM {TimeUS : 59234630, Roll : -0.24, Pitch : -16.62, Yaw : 48.42, Alt : 49.2900009155, Lat : 49.2836365, Lng : -123.1149121, Q1 : 0.902573645115, Q2 : 0.0574029833078, Q3 : -0.132714435458, Q4 : 0.405527591705}
2019-04-14 18:44:48.31: SIM {TimeUS : 59334590, Roll : 0.07, Pitch : -16.67, Yaw : 47.9, Alt : 49.2900009155, Lat : 49.2836389, Lng : -123.1149081, Q1 : 0.904198288918, Q2 : 0.059438932687, Q3 : -0.132264897227, Q4 : 0.401744365692}
2019-04-14 18:44:48.41: SIM {TimeUS : 59435383, Roll : 0.33, Pitch : -16.71, Yaw : 47.45, Alt : 49.2900009155, Lat : 49.2836413, Lng : -123.1149041, Q1 : 0.905583620071, Q2 : 0.0611059181392, Q3 : -0.131878376007, Q4 : 0.398487687111}
2019-04-14 18:44:48.51: SIM {TimeUS : 59535343, Roll : 0.52, Pitch : -16.73, Yaw : 47.12, Alt : 49.2900009155, Lat : 49.2836437, Lng : -123.1149001, Q1 : 0.906608462334, Q2 : 0.0623205006123, Q3 : -0.131556496024, Q4 : 0.396068364382}
2019-04-14 18:44:48.61: SIM {TimeUS : 59635303, Roll : 0.63, Pitch : -16.75, Yaw : 46.91, Alt : 49.2900009155, Lat : 49.2836462, Lng : -123.1148959, Q1 : 0.907229721546, Q2 : 0.0630247369409, Q3 : -0.131439626217, Q4 : 0.394570380449}
2019-04-14 18:44:48.71: SIM {TimeUS : 59735263, Roll : 0.65, Pitch : -16.77, Yaw : 46.83, Alt : 49.2900009155, Lat : 49.2836487, Lng : -123.1148919, Q1 : 0.907465457916, Q2 : 0.06316729635, Q3 : -0.131573721766, Q4 : 0.393960267305}
2019-04-14 18:44:48.81: SIM {TimeUS : 59835223, Roll : 0.6, Pitch : -16.79, Yaw : 46.86, Alt : 49.2900009155, Lat : 49.2836511, Lng : -123.1148877, Q1 : 0.907351195812, Q2 : 0.0628850236535, Q3 : -0.131945580244, Q4 : 0.394144266844}
2019-04-14 18:44:48.91: SIM {TimeUS : 59935183, Roll : 0.49, Pitch : -16.84, Yaw : 46.98, Alt : 49.2900009155, Lat : 49.2836536, Lng : -123.1148835, Q1 : 0.906947553158, Q2 : 0.0623356811702, Q3 : -0.132616072893, Q4 : 0.39493471384}
2019-04-14 18:44:49.01: SIM {TimeUS : 60035143, Roll : 0.34, Pitch : -16.9, Yaw : 47.16, Alt : 49.2900009155, Lat : 49.283656, Lng : -123.1148793, Q1 : 0.906360268593, Q2 : 0.0615459904075, Q3 : -0.133475214243, Q4 : 0.396115541458}
2019-04-14 18:44:49.11: SIM {TimeUS : 60135103, Roll : 0.17, Pitch : -16.95, Yaw : 47.36, Alt : 49.2900009155, Lat : 49.2836585, Lng : -123.1148751, Q1 : 0.905701100826, Q2 : 0.0605744048953, Q3 : -0.134391009808, Q4 : 0.397461086512}
2019-04-14 18:44:49.21: SIM {TimeUS : 60235063, Roll : 0.0, Pitch : -16.99, Yaw : 47.55, Alt : 49.2999992371, Lat : 49.283661, Lng : -123.1148708, Q1 : 0.905070662498, Q2 : 0.0595177523792, Q3 : -0.135205939412, Q4 : 0.39877820015}
2019-04-14 18:44:49.31: SIM {TimeUS : 60335023, Roll : -0.15, Pitch : -17.01, Yaw : 47.72, Alt : 49.2999992371, Lat : 49.2836637, Lng : -123.1148665, Q1 : 0.904530763626, Q2 : 0.0586007498205, Q3 : -0.135879352689, Q4 : 0.39990863204}
2019-04-14 18:44:49.41: SIM {TimeUS : 60434983, Roll : -0.25, Pitch : -17.05, Yaw : 47.85, Alt : 49.2999992371, Lat : 49.2836662, Lng : -123.1148621, Q1 : 0.904100954533, Q2 : 0.0581384599209, Q3 : -0.136413455009, Q4 : 0.400765269995}
2019-04-14 18:44:49.51: SIM {TimeUS : 60534943, Roll : -0.28, Pitch : -17.08, Yaw : 47.92, Alt : 49.2999992371, Lat : 49.2836688, Lng : -123.1148578, Q1 : 0.903819918633, Q2 : 0.0580640733242, Q3 : -0.136763483286, Q4 : 0.401290267706}
2019-04-14 18:44:49.61: SIM {TimeUS : 60634903, Roll : -0.26, Pitch : -17.12, Yaw : 47.94, Alt : 49.2999992371, Lat : 49.2836713, Lng : -123.1148534, Q1 : 0.903687417507, Q2 : 0.0584116354585, Q3 : -0.136954367161, Q4 : 0.401473104954}
2019-04-14 18:44:49.71: SIM {TimeUS : 60734863, Roll : -0.19, Pitch : -17.16, Yaw : 47.92, Alt : 49.2999992371, Lat : 49.283674, Lng : -123.114849, Q1 : 0.90369784832, Q2 : 0.0590774528682, Q3 : -0.137044072151, Q4 : 0.401321589947}
2019-04-14 18:44:49.81: SIM {TimeUS : 60834823, Roll : -0.12, Pitch : -17.19, Yaw : 47.85, Alt : 49.2999992371, Lat : 49.2836766, Lng : -123.1148446, Q1 : 0.90385055542, Q2 : 0.0596687868237, Q3 : -0.137118339539, Q4 : 0.400864571333}
2019-04-14 18:44:49.91: SIM {TimeUS : 60934783, Roll : -0.06, Pitch : -17.21, Yaw : 47.76, Alt : 49.2999992371, Lat : 49.2836792, Lng : -123.1148402, Q1 : 0.90412569046, Q2 : 0.0600390397012, Q3 : -0.1370857656, Q4 : 0.400199383497}
2019-04-14 18:44:50.01: SIM {TimeUS : 61034743, Roll : -0.02, Pitch : -17.22, Yaw : 47.65, Alt : 49.2999992371, Lat : 49.2836819, Lng : -123.1148358, Q1 : 0.904459059238, Q2 : 0.060315951705, Q3 : -0.137032076716, Q4 : 0.399422138929}
2019-04-14 18:44:50.11: SIM {TimeUS : 61134703, Roll : 0.03, Pitch : -17.22, Yaw : 47.54, Alt : 49.3100013733, Lat : 49.2836846, Lng : -123.1148313, Q1 : 0.904798805714, Q2 : 0.0606239102781, Q3 : -0.136955365539, Q4 : 0.398631542921}
2019-04-14 18:44:50.21: SIM {TimeUS : 61234663, Roll : 0.07, Pitch : -17.24, Yaw : 47.44, Alt : 49.3100013733, Lat : 49.2836871, Lng : -123.1148268, Q1 : 0.905100703239, Q2 : 0.0609445236623, Q3 : -0.136985599995, Q4 : 0.397886246443}
2019-04-14 18:44:50.31: SIM {TimeUS : 61334623, Roll : 0.12, Pitch : -17.28, Yaw : 47.36, Alt : 49.3100013733, Lat : 49.2836899, Lng : -123.1148223, Q1 : 0.905325472355, Q2 : 0.0613839961588, Q3 : -0.137174412608, Q4 : 0.397241771221}
2019-04-14 18:44:50.41: SIM {TimeUS : 61434583, Roll : 0.17, Pitch : -17.34, Yaw : 47.29, Alt : 49.3100013733, Lat : 49.2836925, Lng : -123.1148178, Q1 : 0.905466794968, Q2 : 0.0618635080755, Q3 : -0.137520924211, Q4 : 0.396725088358}
2019-04-14 18:44:50.51: SIM {TimeUS : 61535376, Roll : 0.2, Pitch : -17.37, Yaw : 47.24, Alt : 49.3100013733, Lat : 49.2836953, Lng : -123.1148132, Q1 : 0.905576229095, Q2 : 0.0621254891157, Q3 : -0.137724980712, Q4 : 0.396363377571}
2019-04-14 18:44:50.61: SIM {TimeUS : 61635336, Roll : 0.2, Pitch : -17.37, Yaw : 47.22, Alt : 49.3100013733, Lat : 49.283698, Lng : -123.1148087, Q1 : 0.905664563179, Q2 : 0.0621238537133, Q3 : -0.137689873576, Q4 : 0.39617395401}
2019-04-14 18:44:50.71: SIM {TimeUS : 61735296, Roll : 0.19, Pitch : -17.38, Yaw : 47.21, Alt : 49.3100013733, Lat : 49.2837007, Lng : -123.1148041, Q1 : 0.90568959713, Q2 : 0.0620325803757, Q3 : -0.137795910239, Q4 : 0.396094173193}
2019-04-14 18:44:50.81: SIM {TimeUS : 61835256, Roll : 0.15, Pitch : -17.4, Yaw : 47.22, Alt : 49.3100013733, Lat : 49.2837034, Lng : -123.1147996, Q1 : 0.905651032925, Q2 : 0.0618728473783, Q3 : -0.138111442327, Q4 : 0.396097391844}
2019-04-14 18:44:50.91: SIM {TimeUS : 61935216, Roll : 0.12, Pitch : -17.43, Yaw : 47.23, Alt : 49.3100013733, Lat : 49.283706, Lng : -123.114795, Q1 : 0.905574023724, Q2 : 0.0617537908256, Q3 : -0.138442218304, Q4 : 0.396176576614}
2019-04-14 18:44:51.01: SIM {TimeUS : 62035176, Roll : 0.1, Pitch : -17.46, Yaw : 47.25, Alt : 49.3100013733, Lat : 49.2837089, Lng : -123.1147904, Q1 : 0.90547978878, Q2 : 0.0616890415549, Q3 : -0.138728484511, Q4 : 0.396301984787}
2019-04-14 18:44:51.11: SIM {TimeUS : 62135136, Roll : 0.08, Pitch : -17.48, Yaw : 47.27, Alt : 49.3100013733, Lat : 49.2837115, Lng : -123.1147858, Q1 : 0.905396938324, Q2 : 0.0616376027465, Q3 : -0.138962343335, Q4 : 0.39641726017}
2019-04-14 18:44:51.21: SIM {TimeUS : 62235096, Roll : 0.07, Pitch : -17.5, Yaw : 47.29, Alt : 49.3100013733, Lat : 49.2837144, Lng : -123.114781, Q1 : 0.905323386192, Q2 : 0.0616488046944, Q3 : -0.13916260004, Q4 : 0.39651325345}
2019-04-14 18:44:51.31: SIM {TimeUS : 62335056, Roll : 0.07, Pitch : -17.52, Yaw : 47.3, Alt : 49.3199996948, Lat : 49.283717, Lng : -123.1147765, Q1 : 0.905278861523, Q2 : 0.0617139525712, Q3 : -0.139244586229, Q4 : 0.396576076746}
2019-04-14 18:44:51.41: SIM {TimeUS : 62435016, Roll : 0.09, Pitch : -17.54, Yaw : 47.3, Alt : 49.3199996948, Lat : 49.2837199, Lng : -123.1147719, Q1 : 0.905245065689, Q2 : 0.0619149655104, Q3 : -0.13938587904, Q4 : 0.396572202444}
2019-04-14 18:44:51.51: SIM {TimeUS : 62534976, Roll : 0.11, Pitch : -17.57, Yaw : 47.28, Alt : 49.3199996948, Lat : 49.2837227, Lng : -123.1147672, Q1 : 0.905236780643, Q2 : 0.0621660724282, Q3 : -0.139547884464, Q4 : 0.39649489522}
2019-04-14 18:44:51.61: SIM {TimeUS : 62634936, Roll : 0.12, Pitch : -17.6, Yaw : 47.26, Alt : 49.3199996948, Lat : 49.2837253, Lng : -123.1147625, Q1 : 0.905258834362, Q2 : 0.062339194119, Q3 : -0.139797046781, Q4 : 0.396329462528}
2019-04-14 18:44:51.71: SIM {TimeUS : 62734896, Roll : 0.1, Pitch : -17.65, Yaw : 47.24, Alt : 49.3199996948, Lat : 49.2837282, Lng : -123.1147579, Q1 : 0.90530526638, Q2 : 0.0623314529657, Q3 : -0.140209659934, Q4 : 0.396078884602}
2019-04-14 18:44:51.81: SIM {TimeUS : 62834856, Roll : 0.09, Pitch : -17.69, Yaw : 47.21, Alt : 49.3199996948, Lat : 49.2837309, Lng : -123.1147532, Q1 : 0.905360639095, Q2 : 0.0623757466674, Q3 : -0.140603855252, Q4 : 0.395805448294}
2019-04-14 18:44:51.91: SIM {TimeUS : 62934816, Roll : 0.11, Pitch : -17.72, Yaw : 47.18, Alt : 49.3199996948, Lat : 49.2837338, Lng : -123.1147485, Q1 : 0.905422329903, Q2 : 0.0625969469547, Q3 : -0.140798076987, Q4 : 0.39556029439}
2019-04-14 18:44:52.01: SIM {TimeUS : 63034776, Roll : 0.14, Pitch : -17.73, Yaw : 47.15, Alt : 49.3199996948, Lat : 49.2837366, Lng : -123.1147438, Q1 : 0.905511975288, Q2 : 0.0627448260784, Q3 : -0.140762493014, Q4 : 0.395344257355}
2019-04-14 18:44:52.11: SIM {TimeUS : 63134736, Roll : 0.15, Pitch : -17.71, Yaw : 47.12, Alt : 49.3199996948, Lat : 49.2837393, Lng : -123.114739, Q1 : 0.9056224823, Q2 : 0.0627957731485, Q3 : -0.140565469861, Q4 : 0.395153164864}
2019-04-14 18:44:52.21: SIM {TimeUS : 63234696, Roll : 0.16, Pitch : -17.69, Yaw : 47.09, Alt : 49.3199996948, Lat : 49.2837423, Lng : -123.1147343, Q1 : 0.905727446079, Q2 : 0.0627143159509, Q3 : -0.140424981713, Q4 : 0.394975304604}
2019-04-14 18:44:52.31: SIM {TimeUS : 63334656, Roll : 0.15, Pitch : -17.67, Yaw : 47.07, Alt : 49.3199996948, Lat : 49.2837451, Lng : -123.1147295, Q1 : 0.905825018883, Q2 : 0.0626134946942, Q3 : -0.140294134617, Q4 : 0.394814133644}
2019-04-14 18:44:52.41: SIM {TimeUS : 63434616, Roll : 0.16, Pitch : -17.65, Yaw : 47.05, Alt : 49.3199996948, Lat : 49.2837478, Lng : -123.1147248, Q1 : 0.905898153782, Q2 : 0.0625887513161, Q3 : -0.140160024166, Q4 : 0.394697904587}
2019-04-14 18:44:52.51: SIM {TimeUS : 63534576, Roll : 0.16, Pitch : -17.67, Yaw : 47.04, Alt : 49.3199996948, Lat : 49.2837508, Lng : -123.11472, Q1 : 0.905927836895, Q2 : 0.062638066709, Q3 : -0.140244886279, Q4 : 0.39459168911}
2019-04-14 18:44:52.61: SIM {TimeUS : 63635369, Roll : 0.17, Pitch : -17.69, Yaw : 47.03, Alt : 49.3199996948, Lat : 49.2837536, Lng : -123.1147152, Q1 : 0.905928313732, Q2 : 0.0627585053444, Q3 : -0.140458211303, Q4 : 0.394495606422}
2019-04-14 18:44:52.71: SIM {TimeUS : 63735329, Roll : 0.16, Pitch : -17.74, Yaw : 47.02, Alt : 49.3199996948, Lat : 49.2837564, Lng : -123.1147104, Q1 : 0.905903220177, Q2 : 0.0628396868706, Q3 : -0.140873715281, Q4 : 0.394392102957}
2019-04-14 18:44:52.81: SIM {TimeUS : 63835289, Roll : 0.15, Pitch : -17.8, Yaw : 47.02, Alt : 49.3300018311, Lat : 49.2837593, Lng : -123.1147056, Q1 : 0.905858933926, Q2 : 0.062967531383, Q3 : -0.141362026334, Q4 : 0.394298732281}
2019-04-14 18:44:52.91: SIM {TimeUS : 63935249, Roll : 0.15, Pitch : -17.83, Yaw : 47.01, Alt : 49.3300018311, Lat : 49.2837622, Lng : -123.1147009, Q1 : 0.9058355093, Q2 : 0.063090339303, Q3 : -0.141603767872, Q4 : 0.394246131182}
2019-04-14 18:44:53.01: SIM {TimeUS : 64035209, Roll : 0.15, Pitch : -17.86, Yaw : 47.01, Alt : 49.3300018311, Lat : 49.2837649, Lng : -123.1146961, Q1 : 0.905819177628, Q2 : 0.0631427392364, Q3 : -0.141845166683, Q4 : 0.39418849349}
2019-04-14 18:44:53.11: SIM {TimeUS : 64135169, Roll : 0.14, Pitch : -17.87, Yaw : 47.0, Alt : 49.3300018311, Lat : 49.2837679, Lng : -123.1146913, Q1 : 0.905823647976, Q2 : 0.0631194636226, Q3 : -0.141994580626, Q4 : 0.394128143787}
2019-04-14 18:44:53.21: SIM {TimeUS : 64235129, Roll : 0.15, Pitch : -17.87, Yaw : 46.99, Alt : 49.3300018311, Lat : 49.2837708, Lng : -123.1146864, Q1 : 0.905850231647, Q2 : 0.0631382092834, Q3 : -0.141924396157, Q4 : 0.394089281559}
2019-04-14 18:44:53.31: SIM {TimeUS : 64335089, Roll : 0.16, Pitch : -17.88, Yaw : 46.99, Alt : 49.3300018311, Lat : 49.2837735, Lng : -123.1146816, Q1 : 0.905858635902, Q2 : 0.0632935315371, Q3 : -0.14193931222, Q4 : 0.394039720297}
2019-04-14 18:44:53.41: SIM {TimeUS : 64435049, Roll : 0.18, Pitch : -17.89, Yaw : 46.98, Alt : 49.3300018311, Lat : 49.2837764, Lng : -123.1146768, Q1 : 0.905861496925, Q2 : 0.0634315684438, Q3 : -0.142055019736, Q4 : 0.393969267607}
2019-04-14 18:44:53.51: SIM {TimeUS : 64535009, Roll : 0.19, Pitch : -17.91, Yaw : 46.97, Alt : 49.3300018311, Lat : 49.2837794, Lng : -123.114672, Q1 : 0.905871391296, Q2 : 0.0635533109307, Q3 : -0.142131194472, Q4 : 0.393899381161}
2019-04-14 18:44:53.61: SIM {TimeUS : 64634969, Roll : 0.19, Pitch : -17.91, Yaw : 46.95, Alt : 49.3300018311, Lat : 49.2837823, Lng : -123.1146671, Q1 : 0.905910313129, Q2 : 0.0635951608419, Q3 : -0.142088383436, Q4 : 0.393818557262}
2019-04-14 18:44:53.71: SIM {TimeUS : 64734929, Roll : 0.19, Pitch : -17.9, Yaw : 46.94, Alt : 49.3300018311, Lat : 49.2837851, Lng : -123.1146623, Q1 : 0.905958712101, Q2 : 0.0635466650128, Q3 : -0.142105385661, Q4 : 0.393708884716}
2019-04-14 18:44:53.81: SIM {TimeUS : 64834889, Roll : 0.17, Pitch : -17.92, Yaw : 46.93, Alt : 49.3300018311, Lat : 49.283788, Lng : -123.1146574, Q1 : 0.905998170376, Q2 : 0.0634118840098, Q3 : -0.142335936427, Q4 : 0.393556594849}
2019-04-14 18:44:53.91: SIM {TimeUS : 64934849, Roll : 0.14, Pitch : -17.96, Yaw : 46.91, Alt : 49.3300018311, Lat : 49.2837909, Lng : -123.1146526, Q1 : 0.906023979187, Q2 : 0.0632606595755, Q3 : -0.142743259668, Q4 : 0.393373936415}
2019-04-14 18:44:54.01: SIM {TimeUS : 65034809, Roll : 0.13, Pitch : -17.97, Yaw : 46.89, Alt : 49.3300018311, Lat : 49.2837938, Lng : -123.1146477, Q1 : 0.906076014042, Q2 : 0.0632003769279, Q3 : -0.142841041088, Q4 : 0.393228203058}
2019-04-14 18:44:54.11: SIM {TimeUS : 65134769, Roll : 0.14, Pitch : -17.96, Yaw : 46.88, Alt : 49.3300018311, Lat : 49.2837966, Lng : -123.1146429, Q1 : 0.906139433384, Q2 : 0.0632520616055, Q3 : -0.142705112696, Q4 : 0.393123179674}
2019-04-14 18:44:54.21: SIM {TimeUS : 65234729, Roll : 0.17, Pitch : -17.94, Yaw : 46.86, Alt : 49.3300018311, Lat : 49.2837996, Lng : -123.114638, Q1 : 0.906195282936, Q2 : 0.0633960291743, Q3 : -0.142524719238, Q4 : 0.393036574125}
2019-04-14 18:44:54.31: SIM {TimeUS : 65334689, Roll : 0.18, Pitch : -17.95, Yaw : 46.85, Alt : 49.3400001526, Lat : 49.2838025, Lng : -123.1146331, Q1 : 0.906228661537, Q2 : 0.0635370910168, Q3 : -0.142544686794, Q4 : 0.392929643393}
2019-04-14 18:44:54.41: SIM {TimeUS : 65434649, Roll : 0.17, Pitch : -17.97, Yaw : 46.83, Alt : 49.3400001526, Lat : 49.2838055, Lng : -123.1146282, Q1 : 0.906260669231, Q2 : 0.0634876489639, Q3 : -0.142704233527, Q4 : 0.392805874348}
2019-04-14 18:44:54.51: SIM {TimeUS : 65534609, Roll : 0.15, Pitch : -17.98, Yaw : 46.82, Alt : 49.3400001526, Lat : 49.2838084, Lng : -123.1146233, Q1 : 0.906289041042, Q2 : 0.0633364543319, Q3 : -0.142943531275, Q4 : 0.392677813768}
2019-04-14 18:44:54.61: SIM {TimeUS : 65635402, Roll : 0.13, Pitch : -18.01, Yaw : 46.81, Alt : 49.3400001526, Lat : 49.2838112, Lng : -123.1146184, Q1 : 0.906301617622, Q2 : 0.0632673129439, Q3 : -0.143183901906, Q4 : 0.392572283745}
2019-04-14 18:44:54.71: SIM {TimeUS : 65735362, Roll : 0.13, Pitch : -18.03, Yaw : 46.8, Alt : 49.3400001526, Lat : 49.2838142, Lng : -123.1146135, Q1 : 0.906306147575, Q2 : 0.0633549168706, Q3 : -0.143336296082, Q4 : 0.392492085695}
2019-04-14 18:44:54.81: SIM {TimeUS : 65835322, Roll : 0.15, Pitch : -18.04, Yaw : 46.8, Alt : 49.3400001526, Lat : 49.2838171, Lng : -123.1146086, Q1 : 0.906310021877, Q2 : 0.0634848847985, Q3 : -0.1434212327, Q4 : 0.392431110144}
2019-04-14 18:44:54.91: SIM {TimeUS : 65935282, Roll : 0.17, Pitch : -18.06, Yaw : 46.79, Alt : 49.3400001526, Lat : 49.2838201, Lng : -123.1146037, Q1 : 0.906299412251, Q2 : 0.063728235662, Q3 : -0.143440455198, Q4 : 0.392409175634}
2019-04-14 18:44:55.01: SIM {TimeUS : 66035242, Roll : 0.19, Pitch : -18.07, Yaw : 46.78, Alt : 49.3400001526, Lat : 49.283823, Lng : -123.1145988, Q1 : 0.906288087368, Q2 : 0.0638952329755, Q3 : -0.143522813916, Q4 : 0.39237806201}
2019-04-14 18:44:55.11: SIM {TimeUS : 66135202, Roll : 0.2, Pitch : -18.09, Yaw : 46.78, Alt : 49.3400001526, Lat : 49.283826, Lng : -123.1145939, Q1 : 0.906276226044, Q2 : 0.0640416666865, Q3 : -0.143633589149, Q4 : 0.392341047525}
2019-04-14 18:44:55.21: SIM {TimeUS : 66235162, Roll : 0.21, Pitch : -18.11, Yaw : 46.77, Alt : 49.3400001526, Lat : 49.2838288, Lng : -123.114589, Q1 : 0.906262159348, Q2 : 0.0642170161009, Q3 : -0.14372125268, Q4 : 0.392312794924}
2019-04-14 18:44:55.31: SIM {TimeUS : 66335122, Roll : 0.24, Pitch : -18.12, Yaw : 46.77, Alt : 49.3400001526, Lat : 49.2838318, Lng : -123.114584, Q1 : 0.906245946884, Q2 : 0.0644609183073, Q3 : -0.143739998341, Q4 : 0.392303436995}
2019-04-14 18:44:55.41: SIM {TimeUS : 66435082, Roll : 0.27, Pitch : -18.14, Yaw : 46.77, Alt : 49.3400001526, Lat : 49.2838348, Lng : -123.1145792, Q1 : 0.906228482723, Q2 : 0.0647085383534, Q3 : -0.143770128489, Q4 : 0.392291873693}
2019-04-14 18:44:55.51: SIM {TimeUS : 66535042, Roll : 0.26, Pitch : -18.13, Yaw : 46.76, Alt : 49.3499984741, Lat : 49.2838378, Lng : -123.1145743, Q1 : 0.90625411272, Q2 : 0.06461892277, Q3 : -0.143749281764, Q4 : 0.392255097628}
