2019-04-14 16:24:18.20: SIM {TimeUS : 40816167, Roll : 0.0, Pitch : 0.0, Yaw : 0.0, Alt : 30.1000003815, Lat : 49.28357, Lng : -123.11502, Q1 : 1.0, Q2 : 0.0, Q3 : 0.0, Q4 : 0.0}
2019-04-14 16:24:18.31: SIM {TimeUS : 40935286, Roll : 0.0, Pitch : 0.0, Yaw : 0.0, Alt : 30.1000003815, Lat : 49.28357, Lng : -123.11502, Q1 : 1.0, Q2 : 0.0, Q3 : 0.0, Q4 : 0.0}
2019-04-14 16:24:18.41: SIM {TimeUS : 41035246, Roll : 0.0, Pitch : 0.0, Yaw : 0.0, Alt : 30.1000003815, Lat : 49.28357, Lng : -123.11502, Q1 : 1.0, Q2 : 0.0, Q3 : 0.0, Q4 : 0.0}
2019-04-14 16:24:18.51: SIM {TimeUS : 41135206, Roll : 0.0, Pitch : 0.0, Yaw : 0.0, Alt : 30.1000003815, Lat : 49.28357, Lng : -123.11502, Q1 : 1.0, Q2 : 0.0, Q3 : 0.0, Q4 : 0.0}
2019-04-14 16:24:18.61: SIM {TimeUS : 41235166, Roll : 0.0, Pitch : 0.0, Yaw : 0.0, Alt : 30.1000003815, Lat : 49.28357, Lng : -123.11502, Q1 : 1.0, Q2 : 0.0, Q3 : 0.0, Q4 : 0.0}
2019-04-14 16:24:18.71: SIM {TimeUS : 41335126, Roll : 0.0, Pitch : 0.0, Yaw : 0.0, Alt : 30.1000003815, Lat : 49.28357, Lng : -123.11502, Q1 : 1.0, Q2 : 0.0, Q3 : 0.0, Q4 : 0.0}
2019-04-14 16:24:18.81: SIM {TimeUS : 41435086, Roll : 0.0, Pitch : 0.0, Yaw : 0.0, Alt : 30.1000003815, Lat : 49.28357, Lng : -123.11502, Q1 : 1.0, Q2 : 0.0, Q3 : 0.0, Q4 : 0.0}
2019-04-14 16:24:18.91: SIM {TimeUS : 41535046, Roll : 0.0, Pitch : 0.0, Yaw : 0.0, Alt : 30.1000003815, Lat : 49.28357, Lng : -123.11502, Q1 : 1.0, Q2 : 0.0, Q3 : 0.0, Q4 : 0.0}
2019-04-14 16:24:19.01: SIM {TimeUS : 41635006, Roll : 0.0, Pitch : 0.0, Yaw : 0.0, Alt : 30.1000003815, Lat : 49.28357, Lng : -123.11502, Q1 : 1.0, Q2 : 0.0, Q3 : 0.0, Q4 : 0.0}
2019-04-14 16:24:19.11: SIM {TimeUS : 41734966, Roll : 0.0, Pitch : 0.0, Yaw : 0.0, Alt : 30.1000003815, Lat : 49.28357, Lng : -123.11502, Q1 : 1.0, Q2 : 0.0, Q3 : 0.0, Q4 : 0.0}
2019-04-14 16:24:19.21: SIM {TimeUS : 41834926, Roll : 0.0, Pitch : 0.0, Yaw : 0.0, Alt : 30.1000003815, Lat : 49.28357, Lng : -123.11502, Q1 : 1.0, Q2 : 0.0, Q3 : 0.0, Q4 : 0.0}
2019-04-14 16:24:19.31: SIM {TimeUS : 41934886, Roll : 0.0, Pitch : 0.0, Yaw : 0.0, Alt : 30.1000003815, Lat : 49.28357, Lng : -123.11502, Q1 : 1.0, Q2 : 0.0, Q3 : 0.0, Q4 : 0.0}
2019-04-14 16:24:19.41: SIM {TimeUS : 42034846, Roll : 0.0, Pitch : 0.0, Yaw : 0.0, Alt : 30.1000003815, Lat : 49.28357, Lng : -123.11502, Q1 : 1.0, Q2 : 0.0, Q3 : 0.0, Q4 : 0.0}
2019-04-14 16:24:19.51: SIM {TimeUS : 42134806, Roll : 0.0, Pitch : 0.0, Yaw : 0.0, Alt : 30.1000003815, Lat : 49.28357, Lng : -123.11502, Q1 : 1.0, Q2 : 0.0, Q3 : 0.0, Q4 : 0.0}
2019-04-14 16:24:19.61: SIM {TimeUS : 42234766, Roll : 0.0, Pitch : 0.0, Yaw : 0.0, Alt : 30.1000003815, Lat : 49.28357, Lng : -123.11502, Q1 : 1.0, Q2 : 0.0, Q3 : 0.0, Q4 : 0.0}
2019-04-14 16:24:19.71: SIM {TimeUS : 42334726, Roll : 0.0, Pitch : 0.0, Yaw : 0.0, Alt : 30.1000003815, Lat : 49.28357, Lng : -123.11502, Q1 : 1.0, Q2 : 0.0, Q3 : 0.0, Q4 : 0.0}
2019-04-14 16:24:19.81: SIM {TimeUS : 42434686, Roll : 0.0, Pitch : 0.0, Yaw : 0.0, Alt : 30.1000003815, Lat : 49.28357, Lng : -123.11502, Q1 : 1.0, Q2 : 0.0, Q3 : 0.0, Q4 : 0.0}
2019-04-14 16:24:19.91: SIM {TimeUS : 42534646, Roll : 0.0, Pitch : 0.0, Yaw : 0.0, Alt : 30.1000003815, Lat : 49.28357, Lng : -123.11502, Q1 : 1.0, Q2 : 0.0, Q3 : 0.0, Q4 : 0.0}
2019-04-14 16:24:20.01: SIM {TimeUS : 42634606, Roll : 0.0, Pitch : 0.0, Yaw : 0.0, Alt : 30.1000003815, Lat : 49.28357, Lng : -123.11502, Q1 : 1.0, Q2 : 0.0, Q3 : 0.0, Q4 : 0.0}
2019-04-14 16:24:20.11: SIM {TimeUS : 42734566, Roll : 0.0, Pitch : 0.0, Yaw : 0.0, Alt : 30.1000003815, Lat : 49.28357, Lng : -123.11502, Q1 : 1.0, Q2 : 0.0, Q3 : 0.0, Q4 : 0.0}
2019-04-14 16:24:20.21: SIM {TimeUS : 42834526, Roll : 0.0, Pitch : 0.0, Yaw : 0.0, Alt : 30.1000003815, Lat : 49.28357, Lng : -123.11502, Q1 : 1.0, Q2 : 0.0, Q3 : 0.0, Q4 : 0.0}
2019-04-14 16:24:20.31: SIM {TimeUS : 42935319, Roll : 0.0, Pitch : 0.0, Yaw : 0.0, Alt : 30.1000003815, Lat : 49.28357, Lng : -123.11502, Q1 : 1.0, Q2 : 0.0, Q3 : 0.0, Q4 : 0.0}
2019-04-14 16:24:20.41: SIM {TimeUS : 43035279, Roll : 0.0, Pitch : 0.0, Yaw : 0.0, Alt : 30.1000003815, Lat : 49.28357, Lng : -123.11502, Q1 : 1.0, Q2 : 0.0, Q3 : 0.0, Q4 : 0.0}
2019-04-14 16:24:20.51: SIM {TimeUS : 43135239, Roll : 0.0, Pitch : 0.0, Yaw : 360.0, Alt : 30.1000003815, Lat : 49.28357, Lng : -123.11502, Q1 : 1.0, Q2 : 0.0, Q3 : 0.0, Q4 : -1.30378364355e-11}
2019-04-14 16:24:20.61: SIM {TimeUS : 43235199, Roll : 0.0, Pitch : 0.0, Yaw : 360.0, Alt : 30.1000003815, Lat : 49.28357, Lng : -123.11502, Q1 : 1.0, Q2 : 0.0, Q3 : 0.0, Q4 : -1.61347042393e-08}
2019-04-14 16:24:20.71: SIM {TimeUS : 43335159, Roll : 0.0, Pitch : 0.0, Yaw : 359.99, Alt : 30.1000003815, Lat : 49.28357, Lng : -123.11502, Q1 : 1.0, Q2 : 0.0, Q3 : 0.0, Q4 : -2.17456857854e-07}
2019-04-14 16:24:20.81: SIM {TimeUS : 43435119, Roll : 0.0, Pitch : 0.0, Yaw : 359.99, Alt : 30.1000003815, Lat : 49.28357, Lng : -123.11502, Q1 : 1.0, Q2 : 0.0, Q3 : 0.0, Q4 : -4.08245227845e-07}
2019-04-14 16:24:20.91: SIM {TimeUS : 43535079, Roll : 0.0, Pitch : 0.0, Yaw : 359.99, Alt : 30.1000003815, Lat : 49.28357, Lng : -123.11502, Q1 : 1.0, Q2 : 0.0, Q3 : 0.0, Q4 : -6.20802381945e-07}
2019-04-14 16:24:21.01: SIM {TimeUS : 43635039, Roll : 0.0, Pitch : 0.0, Yaw : 359.99, Alt : 30.1000003815, Lat : 49.28357, Lng : -123.11502, Q1 : 1.0, Q2 : 0.0, Q3 : 0.0, Q4 : -8.22876188522e-07}
2019-04-14 16:24:21.11: SIM {TimeUS : 43734999, Roll : 0.0, Pitch : 0.0, Yaw : 359.99, Alt : 30.1000003815, Lat : 49.28357, Lng : -123.11502, Q1 : 1.0, Q2 : 0.0, Q3 : 0.0, Q4 : -9.95500158751e-07}
2019-04-14 16:24:21.21: SIM {TimeUS : 43834959, Roll : 0.0, Pitch : 0.0, Yaw : 359.99, Alt : 30.1000003815, Lat : 49.28357, Lng : -123.11502, Q1 : 1.0, Q2 : 0.0, Q3 : 0.0, Q4 : -1.17972990665e-06}
2019-04-14 16:24:21.31: SIM {TimeUS : 43934919, Roll : 0.0, Pitch : 0.0, Yaw : 359.99, Alt : 30.1000003815, Lat : 49.28357, Lng : -123.11502, Q1 : 1.0, Q2 : 0.0, Q3 : 0.0, Q4 : -1.3805429262e-06}
2019-04-14 16:24:21.41: SIM {TimeUS : 44034879, Roll : 0.0, Pitch : 0.0, Yaw : 359.99, Alt : 30.1200008392, Lat : 49.28357, Lng : -123.11502, Q1 : 1.0, Q2 : 0.0, Q3 : 0.0, Q4 : -1.55610359798e-06}
2019-04-14 16:24:21.51: SIM {TimeUS : 44134839, Roll : 0.0, Pitch : 0.0, Yaw : 359.99, Alt : 30.1499996185, Lat : 49.28357, Lng : -123.11502, Q1 : 1.0, Q2 : 0.0, Q3 : 0.0, Q4 : -1.81880204764e-06}
2019-04-14 16:24:21.61: SIM {TimeUS : 44234799, Roll : 0.0, Pitch : 0.0, Yaw : 359.99, Alt : 30.1800003052, Lat : 49.28357, Lng : -123.11502, Q1 : 1.0, Q2 : 0.0, Q3 : 0.0, Q4 : -2.06184176932e-06}
2019-04-14 16:24:21.71: SIM {TimeUS : 44334759, Roll : 0.0, Pitch : 0.0, Yaw : 359.99, Alt : 30.2099990845, Lat : 49.28357, Lng : -123.11502, Q1 : 1.0, Q2 : -7.32536864234e-06, Q3 : -7.5440798355e-06, Q4 : -2.18642730943e-06}
2019-04-14 16:24:21.81: SIM {TimeUS : 44434719, Roll : -0.16, Pitch : -0.16, Yaw : 359.99, Alt : 30.2700004578, Lat : 49.28357, Lng : -123.11502, Q1 : 0.999998033047, Q2 : -0.00141816399992, Q3 : -0.00140721607022, Q4 : -1.70366056409e-05}
2019-04-14 16:24:21.91: SIM {TimeUS : 44534679, Roll : -0.47, Pitch : -0.41, Yaw : 359.99, Alt : 30.3899993896, Lat : 49.28357, Lng : -123.11502, Q1 : 0.99998497963, Q2 : -0.00414405949414, Q3 : -0.00358851370402, Q4 : -6.15807148279e-05}
2019-04-14 16:24:22.01: SIM {TimeUS : 44634639, Roll : -0.76, Pitch : -0.6, Yaw : 359.98, Alt : 30.5400009155, Lat : 49.28357, Lng : -123.11502, Q1 : 0.999963998795, Q2 : -0.00665355753154, Q3 : -0.00526213133708, Q4 : -0.000126299506519}
2019-04-14 16:24:22.11: SIM {TimeUS : 44734599, Roll : -0.88, Pitch : -0.68, Yaw : 359.98, Alt : 30.7000007629, Lat : 49.28357, Lng : -123.11502, Q1 : 0.999951839447, Q2 : -0.00776489730924, Q3 : -0.00599567685276, Q4 : -0.000203363757464}
2019-04-14 16:24:22.21: SIM {TimeUS : 44834559, Roll : -0.83, Pitch : -0.65, Yaw : 359.97, Alt : 30.8500003815, Lat : 49.28357, Lng : -123.11502, Q1 : 0.999957203865, Q2 : -0.00726203294471, Q3 : -0.00572445150465, Q4 : -0.000286050431896}
2019-04-14 16:24:22.31: SIM {TimeUS : 44934519, Roll : -0.64, Pitch : -0.53, Yaw : 359.96, Alt : 31.0100002289, Lat : 49.28357, Lng : -123.1150201, Q1 : 0.999973356724, Q2 : -0.0056023048237, Q3 : -0.00466762250289, Q4 : -0.00036048021866}
2019-04-14 16:24:22.41: SIM {TimeUS : 45035312, Roll : -0.38, Pitch : -0.36, Yaw : 359.95, Alt : 31.1599998474, Lat : 49.2835701, Lng : -123.1150202, Q1 : 0.999989151955, Q2 : -0.00337982247584, Q3 : -0.00318261329085, Q4 : -0.00042024202412}
2019-04-14 16:24:22.51: SIM {TimeUS : 45135272, Roll : -0.14, Pitch : -0.19, Yaw : 359.94, Alt : 31.3299999237, Lat : 49.2835701, Lng : -123.1150203, Q1 : 0.999997675419, Q2 : -0.00129770499188, Q3 : -0.00167582964059, Q4 : -0.000465475808596}
2019-04-14 16:24:22.61: SIM {TimeUS : 45235232, Roll : 0.01, Pitch : -0.04, Yaw : 359.94, Alt : 31.5, Lat : 49.2835702, Lng : -123.1150203, Q1 : 0.999999761581, Q2 : 0.000127206731122, Q3 : -0.000381978199584, Q4 : -0.000497546046972}
2019-04-14 16:24:22.71: SIM {TimeUS : 45335192, Roll : 0.08, Pitch : 0.06, Yaw : 359.94, Alt : 31.6700000763, Lat : 49.2835702, Lng : -123.1150204, Q1 : 0.999999463558, Q2 : 0.000750593375415, Q3 : 0.000524264352862, Q4 : -0.0005176893319}
2019-04-14 16:24:22.81: SIM {TimeUS : 45435152, Roll : 0.07, Pitch : 0.11, Yaw : 359.93, Alt : 31.8500003815, Lat : 49.2835703, Lng : -123.1150205, Q1 : 0.99999910593, Q2 : 0.0006699685473, Q3 : 0.000998934963718, Q4 : -0.000525761279278}
2019-04-14 16:24:22.91: SIM {TimeUS : 45535112, Roll : 0.05, Pitch : 0.13, Yaw : 359.93, Alt : 32.0400009155, Lat : 49.2835703, Lng : -123.1150205, Q1 : 0.999998986721, Q2 : 0.000475239154184, Q3 : 0.00121361983474, Q4 : -0.000536414969247}
2019-04-14 16:24:23.01: SIM {TimeUS : 45635072, Roll : 0.04, Pitch : 0.14, Yaw : 359.93, Alt : 32.2200012207, Lat : 49.2835703, Lng : -123.1150206, Q1 : 0.999998986721, Q2 : 0.0003793532087, Q3 : 0.00125425925944, Q4 : -0.000538559688721}
2019-04-14 16:24:23.11: SIM {TimeUS : 45735032, Roll : 0.03, Pitch : 0.14, Yaw : 359.93, Alt : 32.4199981689, Lat : 49.2835703, Lng : -123.1150206, Q1 : 0.999998986721, Q2 : 0.00033989030635, Q3 : 0.00127321935724, Q4 : -0.000536279694643}
2019-04-14 16:24:23.21: SIM {TimeUS : 45834992, Roll : 0.05, Pitch : 0.16, Yaw : 359.94, Alt : 32.6100006104, Lat : 49.2835703, Lng : -123.1150207, Q1 : 0.999998748302, Q2 : 0.000483533745864, Q3 : 0.0014021913521, Q4 : -0.000521404086612}
2019-04-14 16:24:23.31: SIM {TimeUS : 45934952, Roll : 0.08, Pitch : 0.14, Yaw : 359.94, Alt : 32.8100013733, Lat : 49.2835703, Lng : -123.1150207, Q1 : 0.999998748302, Q2 : 0.00075923698023, Q3 : 0.00130118918605, Q4 : -0.000504316936713}
2019-04-14 16:24:23.41: SIM {TimeUS : 46034912, Roll : 0.12, Pitch : 0.12, Yaw : 359.94, Alt : 33.0099983215, Lat : 49.2835704, Lng : -123.1150207, Q1 : 0.999998748302, Q2 : 0.00108168879524, Q3 : 0.00105502293445, Q4 : -0.000487060373416}
2019-04-14 16:24:23.51: SIM {TimeUS : 46134872, Roll : 0.15, Pitch : 0.1, Yaw : 359.94, Alt : 33.2099990845, Lat : 49.2835704, Lng : -123.1150208, Q1 : 0.999998509884, Q2 : 0.0013765366748, Q3 : 0.000906358996872, Q4 : -0.000472724728752}
2019-04-14 16:24:23.61: SIM {TimeUS : 46234832, Roll : 0.18, Pitch : 0.1, Yaw : 359.94, Alt : 33.4099998474, Lat : 49.2835704, Lng : -123.1150208, Q1 : 0.999998271465, Q2 : 0.00157311290968, Q3 : 0.000896878365893, Q4 : -0.000456433888758}
2019-04-14 16:24:23.71: SIM {TimeUS : 46334792, Roll : 0.19, Pitch : 0.11, Yaw : 359.95, Alt : 33.6199989319, Lat : 49.2835704, Lng : -123.1150208, Q1 : 0.999997973442, Q2 : 0.00169236736838, Q3 : 0.00103347469121, Q4 : -0.000437073176727}
2019-04-14 16:24:23.81: SIM {TimeUS : 46434752, Roll : 0.18, Pitch : 0.12, Yaw : 359.95, Alt : 33.8300018311, Lat : 49.2835704, Lng : -123.1150208, Q1 : 0.999997973442, Q2 : 0.0016318942653, Q3 : 0.00109447108116, Q4 : -0.000425377977081}
2019-04-14 16:24:23.91: SIM {TimeUS : 46534712, Roll : 0.16, Pitch : 0.12, Yaw : 359.95, Alt : 34.0400009155, Lat : 49.2835704, Lng : -123.1150208, Q1 : 0.999998271465, Q2 : 0.00142554275226, Q3 : 0.00110635953024, Q4 : -0.000414594338508}
2019-04-14 16:24:24.01: SIM {TimeUS : 46634672, Roll : 0.13, Pitch : 0.12, Yaw : 359.95, Alt : 34.25, Lat : 49.2835704, Lng : -123.1150208, Q1 : 0.999998569489, Q2 : 0.00115734443534, Q3 : 0.00113005121239, Q4 : -0.000412500812672}
2019-04-14 16:24:24.11: SIM {TimeUS : 46734632, Roll : 0.1, Pitch : 0.12, Yaw : 359.95, Alt : 34.4599990845, Lat : 49.2835704, Lng : -123.1150208, Q1 : 0.999998927116, Q2 : 0.000910724105779, Q3 : 0.00110051175579, Q4 : -0.00041611524648}
2019-04-14 16:24:24.21: SIM {TimeUS : 46834592, Roll : 0.09, Pitch : 0.08, Yaw : 359.94, Alt : 34.6699981689, Lat : 49.2835704, Lng : -123.1150208, Q1 : 0.999999284744, Q2 : 0.000799596717115, Q3 : 0.000771989638451, Q4 : -0.000441013864474}
2019-04-14 16:24:24.31: SIM {TimeUS : 46934552, Roll : 0.08, Pitch : 0.05, Yaw : 359.94, Alt : 34.8899993896, Lat : 49.2835704, Lng : -123.1150208, Q1 : 0.999999523163, Q2 : 0.000752446008846, Q3 : 0.00044759051525, Q4 : -0.000485760363517}
2019-04-14 16:24:24.41: SIM {TimeUS : 47034512, Roll : 0.06, Pitch : 0.02, Yaw : 359.93, Alt : 35.0999984741, Lat : 49.2835704, Lng : -123.1150208, Q1 : 0.999999642372, Q2 : 0.000605899840593, Q3 : 0.000235105850152, Q4 : -0.000532762496732}
2019-04-14 16:24:24.51: SIM {TimeUS : 47135305, Roll : 0.05, Pitch : 0.02, Yaw : 359.93, Alt : 35.3199996948, Lat : 49.2835704, Lng : -123.1150207, Q1 : 0.999999701977, Q2 : 0.000485888449475, Q3 : 0.000175968321855, Q4 : -0.000577304745093}
2019-04-14 16:24:24.61: SIM {TimeUS : 47235265, Roll : 0.05, Pitch : 0.01, Yaw : 359.92, Alt : 35.5400009155, Lat : 49.2835704, Lng : -123.1150207, Q1 : 0.999999701977, Q2 : 0.000447238475317, Q3 : 0.000164086159202, Q4 : -0.000616478617303}
2019-04-14 16:24:24.71: SIM {TimeUS : 47335225, Roll : 0.02, Pitch : 0.0, Yaw : 359.92, Alt : 35.7599983215, Lat : 49.2835704, Lng : -123.1150207, Q1 : 0.999999761581, Q2 : 0.00024913623929, Q3 : -1.4972722056e-05, Q4 : -0.000656179676298}
2019-04-14 16:24:24.81: SIM {TimeUS : 47435185, Roll : 0.0, Pitch : -0.03, Yaw : 359.92, Alt : 35.9799995422, Lat : 49.2835704, Lng : -123.1150207, Q1 : 0.999999701977, Q2 : -5.49714422959e-05, Q3 : -0.000305413530441, Q4 : -0.000692384899594}
2019-04-14 16:24:24.91: SIM {TimeUS : 47535145, Roll : -0.04, Pitch : -0.05, Yaw : 359.91, Alt : 36.2000007629, Lat : 49.2835704, Lng : -123.1150207, Q1 : 0.999999523163, Q2 : -0.000383018283173, Q3 : -0.000515223713592, Q4 : -0.000728245533537}
2019-04-14 16:24:25.01: SIM {TimeUS : 47635105, Roll : -0.07, Pitch : -0.07, Yaw : 359.91, Alt : 36.4199981689, Lat : 49.2835704, Lng : -123.1150207, Q1 : 0.999999284744, Q2 : -0.000660251243971, Q3 : -0.00062854657881, Q4 : -0.000760629714932}
2019-04-14 16:24:25.11: SIM {TimeUS : 47735065, Roll : -0.08, Pitch : -0.07, Yaw : 359.91, Alt : 36.6399993896, Lat : 49.2835704, Lng : -123.1150206, Q1 : 0.99999922514, Q2 : -0.000701930432115, Q3 : -0.000617557321675, Q4 : -0.000784593285061}
2019-04-14 16:24:25.21: SIM {TimeUS : 47835025, Roll : -0.08, Pitch : -0.06, Yaw : 359.9, Alt : 36.8699989319, Lat : 49.2835704, Lng : -123.1150206, Q1 : 0.999999284744, Q2 : -0.000698796880897, Q3 : -0.000586623151321, Q4 : -0.000805229006801}
2019-04-14 16:24:25.31: SIM {TimeUS : 47934985, Roll : -0.07, Pitch : -0.05, Yaw : 359.9, Alt : 37.0900001526, Lat : 49.2835704, Lng : -123.1150206, Q1 : 0.999999344349, Q2 : -0.000647710228804, Q3 : -0.000461999617983, Q4 : -0.000820631510578}
2019-04-14 16:24:25.41: SIM {TimeUS : 48034945, Roll : -0.06, Pitch : -0.04, Yaw : 359.9, Alt : 37.3199996948, Lat : 49.2835704, Lng : -123.1150206, Q1 : 0.999999403954, Q2 : -0.000566108035855, Q3 : -0.000391007604776, Q4 : -0.000827210547868}
2019-04-14 16:24:25.51: SIM {TimeUS : 48134905, Roll : -0.07, Pitch : -0.04, Yaw : 359.9, Alt : 37.5400009155, Lat : 49.2835704, Lng : -123.1150206, Q1 : 0.999999344349, Q2 : -0.000629302870948, Q3 : -0.000405904458603, Q4 : -0.000835632730741}
2019-04-14 16:24:25.61: SIM {TimeUS : 48234865, Roll : -0.08, Pitch : -0.03, Yaw : 359.9, Alt : 37.7700004578, Lat : 49.2835704, Lng : -123.1150206, Q1 : 0.999999344349, Q2 : -0.000715599162504, Q3 : -0.000281626184005, Q4 : -0.000844714115374}
2019-04-14 16:24:25.71: SIM {TimeUS : 48334825, Roll : -0.1, Pitch : -0.01, Yaw : 359.9, Alt : 37.9900016785, Lat : 49.2835704, Lng : -123.1150206, Q1 : 0.99999922514, Q2 : -0.000908667570911, Q3 : -0.00011038017692, Q4 : -0.0008525524172}
2019-04-14 16:24:25.81: SIM {TimeUS : 48434785, Roll : -0.1, Pitch : 0.0, Yaw : 359.9, Alt : 38.2200012207, Lat : 49.2835704, Lng : -123.1150206, Q1 : 0.99999922514, Q2 : -0.000910120666958, Q3 : 2.18119039346e-05, Q4 : -0.000854594807606}
2019-04-14 16:24:25.91: SIM {TimeUS : 48534745, Roll : -0.08, Pitch : 0.03, Yaw : 359.9, Alt : 38.4500007629, Lat : 49.2835704, Lng : -123.1150206, Q1 : 0.999999344349, Q2 : -0.000700060627423, Q3 : 0.000292205048027, Q4 : -0.000857101287693}
2019-04-14 16:24:26.01: SIM {TimeUS : 48634705, Roll : -0.05, Pitch : 0.03, Yaw : 359.9, Alt : 38.6800003052, Lat : 49.2835704, Lng : -123.1150206, Q1 : 0.999999463558, Q2 : -0.00045937957475, Q3 : 0.000276131293504, Q4 : -0.000868577393703}
2019-04-14 16:24:26.11: SIM {TimeUS : 48734665, Roll : -0.01, Pitch : 0.02, Yaw : 359.89, Alt : 38.9099998474, Lat : 49.2835704, Lng : -123.1150206, Q1 : 0.999999582767, Q2 : -0.000172018815647, Q3 : 0.000181484996574, Q4 : -0.000881317420863}
2019-04-14 16:24:26.21: SIM {TimeUS : 48834625, Roll : 0.01, Pitch : 0.03, Yaw : 359.89, Alt : 39.1399993896, Lat : 49.2835704, Lng : -123.1150206, Q1 : 0.999999582767, Q2 : 0.000147023878526, Q3 : 0.000290917552775, Q4 : -0.000895129633136}
2019-04-14 16:24:26.31: SIM {TimeUS : 48934585, Roll : 0.05, Pitch : 0.05, Yaw : 359.89, Alt : 39.3600006104, Lat : 49.2835704, Lng : -123.1150206, Q1 : 0.999999344349, Q2 : 0.000446007412393, Q3 : 0.000519906287082, Q4 : -0.000917751982342}
2019-04-14 16:24:26.41: SIM {TimeUS : 49034545, Roll : 0.07, Pitch : 0.08, Yaw : 359.89, Alt : 39.5999984741, Lat : 49.2835704, Lng : -123.1150206, Q1 : 0.999999046326, Q2 : 0.00065192457987, Q3 : 0.000741247320548, Q4 : -0.000947917578742}
2019-04-14 16:24:26.51: SIM {TimeUS : 49134505, Roll : 0.06, Pitch : 0.1, Yaw : 359.88, Alt : 39.8300018311, Lat : 49.2835706, Lng : -123.1150206, Q1 : 0.999998927116, Q2 : 0.00056399294408, Q3 : 0.000949493376538, Q4 : -0.000975346774794}
2019-04-14 16:24:26.61: SIM {TimeUS : 49235298, Roll : 0.01, Pitch : 0.12, Yaw : 359.88, Alt : 40.0600013733, Lat : 49.2835706, Lng : -123.1150206, Q1 : 0.999998867512, Q2 : 0.000150304607814, Q3 : 0.00112806435209, Q4 : -0.00101947691292}
2019-04-14 16:24:26.71: SIM {TimeUS : 49335258, Roll : -0.01, Pitch : 0.11, Yaw : 359.87, Alt : 40.2900009155, Lat : 49.2835706, Lng : -123.1150206, Q1 : 0.999998867512, Q2 : -0.000164482495165, Q3 : 0.0010391115211, Q4 : -0.00105632632039}
2019-04-14 16:24:26.81: SIM {TimeUS : 49435218, Roll : -0.04, Pitch : 0.08, Yaw : 359.87, Alt : 40.5200004578, Lat : 49.2835706, Lng : -123.1150206, Q1 : 0.999999046326, Q2 : -0.000377530959668, Q3 : 0.00076906074537, Q4 : -0.00109408330172}
2019-04-14 16:24:26.91: SIM {TimeUS : 49535178, Roll : -0.05, Pitch : 0.06, Yaw : 359.87, Alt : 40.75, Lat : 49.2835706, Lng : -123.1150206, Q1 : 0.99999910593, Q2 : -0.000458516296931, Q3 : 0.000595914723817, Q4 : -0.00113021687139}
2019-04-14 16:24:27.01: SIM {TimeUS : 49635138, Roll : -0.03, Pitch : 0.08, Yaw : 359.86, Alt : 40.9900016785, Lat : 49.2835706, Lng : -123.1150206, Q1 : 0.999999046326, Q2 : -0.000344673724612, Q3 : 0.000703284400515, Q4 : -0.00116900773719}
2019-04-14 16:24:27.11: SIM {TimeUS : 49735098, Roll : 0.0, Pitch : 0.11, Yaw : 359.86, Alt : 41.2200012207, Lat : 49.2835706, Lng : -123.1150206, Q1 : 0.999998807907, Q2 : 4.15464382968e-05, Q3 : 0.000989322783425, Q4 : -0.0011993177468}
2019-04-14 16:24:27.21: SIM {TimeUS : 49835058, Roll : 0.05, Pitch : 0.13, Yaw : 359.85, Alt : 41.4500007629, Lat : 49.2835706, Lng : -123.1150207, Q1 : 0.999998390675, Q2 : 0.000488650868647, Q3 : 0.00119732064195, Q4 : -0.00122890598141}
2019-04-14 16:24:27.31: SIM {TimeUS : 49935018, Roll : 0.08, Pitch : 0.11, Yaw : 359.85, Alt : 41.6899986267, Lat : 49.2835706, Lng : -123.1150207, Q1 : 0.999998450279, Q2 : 0.000762867974117, Q3 : 0.00100548600312, Q4 : -0.00125624856446}
2019-04-14 16:24:27.41: SIM {TimeUS : 50034978, Roll : 0.08, Pitch : 0.07, Yaw : 359.85, Alt : 41.9199981689, Lat : 49.2835706, Lng : -123.1150207, Q1 : 0.999998688698, Q2 : 0.000757202506065, Q3 : 0.000634888070635, Q4 : -0.00128258438781}
2019-04-14 16:24:27.51: SIM {TimeUS : 50134938, Roll : 0.05, Pitch : 0.04, Yaw : 359.85, Alt : 42.1500015259, Lat : 49.2835706, Lng : -123.1150207, Q1 : 0.999998986721, Q2 : 0.000442771910457, Q3 : 0.000351755850716, Q4 : -0.00130178441759}
2019-04-14 16:24:27.61: SIM {TimeUS : 50234898, Roll : 0.0, Pitch : 0.03, Yaw : 359.84, Alt : 42.3899993896, Lat : 49.2835706, Lng : -123.1150207, Q1 : 0.99999910593, Q2 : -2.03622148547e-05, Q3 : 0.000298175640637, Q4 : -0.00131581304595}
2019-04-14 16:24:27.71: SIM {TimeUS : 50334858, Roll : -0.03, Pitch : 0.06, Yaw : 359.84, Alt : 42.6199989319, Lat : 49.2835706, Lng : -123.1150207, Q1 : 0.999998927116, Q2 : -0.000312482181471, Q3 : 0.000541956687812, Q4 : -0.00132259284146}
2019-04-14 16:24:27.81: SIM {TimeUS : 50434818, Roll : -0.04, Pitch : 0.08, Yaw : 359.84, Alt : 42.8600006104, Lat : 49.2835704, Lng : -123.1150206, Q1 : 0.999998807907, Q2 : -0.000424462166848, Q3 : 0.000716020178515, Q4 : -0.00132659100927}
2019-04-14 16:24:27.91: SIM {TimeUS : 50534778, Roll : -0.04, Pitch : 0.07, Yaw : 359.84, Alt : 43.0900001526, Lat : 49.2835704, Lng : -123.1150206, Q1 : 0.999998807907, Q2 : -0.000382160244044, Q3 : 0.000694766407833, Q4 : -0.0013334385585}
2019-04-14 16:24:28.01: SIM {TimeUS : 50634738, Roll : -0.04, Pitch : 0.06, Yaw : 359.84, Alt : 43.3300018311, Lat : 49.2835704, Lng : -123.1150206, Q1 : 0.999998867512, Q2 : -0.000394235714339, Q3 : 0.000575474870857, Q4 : -0.00134340988006}
2019-04-14 16:24:28.11: SIM {TimeUS : 50734698, Roll : -0.03, Pitch : 0.04, Yaw : 359.84, Alt : 43.5600013733, Lat : 49.2835704, Lng : -123.1150206, Q1 : 0.999998927116, Q2 : -0.000323131971527, Q3 : 0.000426242535468, Q4 : -0.00135820789728}
2019-04-14 16:24:28.21: SIM {TimeUS : 50834658, Roll : -0.01, Pitch : 0.04, Yaw : 359.84, Alt : 43.7999992371, Lat : 49.2835704, Lng : -123.1150206, Q1 : 0.999998986721, Q2 : -0.000165865654708, Q3 : 0.000360667501809, Q4 : -0.00138121750206}
2019-04-14 16:24:28.31: SIM {TimeUS : 50934618, Roll : 0.0, Pitch : 0.04, Yaw : 359.83, Alt : 44.0299987793, Lat : 49.2835704, Lng : -123.1150206, Q1 : 0.999998927116, Q2 : -6.3009931182e-05, Q3 : 0.00037477578735, Q4 : -0.00140567321796}
2019-04-14 16:24:28.41: SIM {TimeUS : 51034578, Roll : -0.01, Pitch : 0.02, Yaw : 359.83, Alt : 44.2700004578, Lat : 49.2835704, Lng : -123.1150206, Q1 : 0.999998927116, Q2 : -9.85936931102e-05, Q3 : 0.000208501049201, Q4 : -0.00143095536623}
2019-04-14 16:24:28.51: SIM {TimeUS : 51134538, Roll : -0.02, Pitch : 0.0, Yaw : 359.83, Alt : 44.5, Lat : 49.2835704, Lng : -123.1150206, Q1 : 0.999998927116, Q2 : -0.000181327530299, Q3 : -8.68713177624e-05, Q4 : -0.00146199588198}
2019-04-14 16:24:28.61: SIM {TimeUS : 51234498, Roll : -0.02, Pitch : -0.02, Yaw : 359.82, Alt : 44.7400016785, Lat : 49.2835704, Lng : -123.1150206, Q1 : 0.999998807907, Q2 : -0.0002348167327, Q3 : -0.000243746937485, Q4 : -0.00149415701162}
2019-04-14 16:24:28.71: SIM {TimeUS : 51335291, Roll : -0.02, Pitch : -0.04, Yaw : 359.82, Alt : 44.9799995422, Lat : 49.2835704, Lng : -123.1150206, Q1 : 0.999998748302, Q2 : -0.000229100871366, Q3 : -0.000361190468539, Q4 : -0.00152736203745}
2019-04-14 16:24:28.81: SIM {TimeUS : 51435251, Roll : -0.02, Pitch : -0.04, Yaw : 359.82, Alt : 45.2099990845, Lat : 49.2835704, Lng : -123.1150206, Q1 : 0.999998688698, Q2 : -0.000259292311966, Q3 : -0.000394318572944, Q4 : -0.00155960139818}
2019-04-14 16:24:28.91: SIM {TimeUS : 51535211, Roll : -0.04, Pitch : -0.03, Yaw : 359.81, Alt : 45.4500007629, Lat : 49.2835704, Lng : -123.1150206, Q1 : 0.999998569489, Q2 : -0.00042154971743, Q3 : -0.000333428091835, Q4 : -0.00159543810878}
2019-04-14 16:24:29.01: SIM {TimeUS : 51635171, Roll : -0.07, Pitch : -0.03, Yaw : 359.81, Alt : 45.6800003052, Lat : 49.2835704, Lng : -123.1150206, Q1 : 0.999998390675, Q2 : -0.000698579882737, Q3 : -0.000276630860753, Q4 : -0.00163250428159}
2019-04-14 16:24:29.11: SIM {TimeUS : 51735131, Roll : -0.1, Pitch : -0.02, Yaw : 359.8, Alt : 45.9199981689, Lat : 49.2835703, Lng : -123.1150206, Q1 : 0.999998152256, Q2 : -0.000907297420781, Q3 : -0.000212857921724, Q4 : -0.00166739686392}
2019-04-14 16:24:29.21: SIM {TimeUS : 51835091, Roll : -0.1, Pitch : 0.0, Yaw : 359.8, Alt : 46.1500015259, Lat : 49.2835703, Lng : -123.1150206, Q1 : 0.999998092651, Q2 : -0.000957679527346, Q3 : -6.78531068843e-05, Q4 : -0.00169675960205}
2019-04-14 16:24:29.31: SIM {TimeUS : 51935051, Roll : -0.09, Pitch : 0.01, Yaw : 359.8, Alt : 46.3699989319, Lat : 49.2835704, Lng : -123.1150206, Q1 : 0.999998152256, Q2 : -0.000844128197059, Q3 : 0.000166170546436, Q4 : -0.00171904673334}
2019-04-14 16:24:29.41: SIM {TimeUS : 52035011, Roll : -0.07, Pitch : 0.03, Yaw : 359.8, Alt : 46.5900001526, Lat : 49.2835704, Lng : -123.1150206, Q1 : 0.999998211861, Q2 : -0.000617720652372, Q3 : 0.000312046700856, Q4 : -0.00174024619628}
2019-04-14 16:24:29.51: SIM {TimeUS : 52134971, Roll : -0.04, Pitch : 0.03, Yaw : 359.79, Alt : 46.8100013733, Lat : 49.2835704, Lng : -123.1150206, Q1 : 0.99999833107, Q2 : -0.000421290285885, Q3 : 0.00029620694113, Q4 : -0.0017607845366}
2019-04-14 16:24:29.61: SIM {TimeUS : 52234931, Roll : -0.03, Pitch : 0.01, Yaw : 359.79, Alt : 47.0200004578, Lat : 49.2835704, Lng : -123.1150206, Q1 : 0.99999833107, Q2 : -0.000324447726598, Q3 : 0.000144564241054, Q4 : -0.0017792340368}
2019-04-14 16:24:29.71: SIM {TimeUS : 52334891, Roll : -0.01, Pitch : -0.01, Yaw : 359.79, Alt : 47.2200012207, Lat : 49.2835703, Lng : -123.1150206, Q1 : 0.99999833107, Q2 : -0.000166873403941, Q3 : -0.000138706498547, Q4 : -0.00180003140122}
2019-04-14 16:24:29.81: SIM {TimeUS : 52434851, Roll : 0.0, Pitch : -0.05, Yaw : 359.79, Alt : 47.4199981689, Lat : 49.2835703, Lng : -123.1150206, Q1 : 0.999998271465, Q2 : 4.20721189585e-05, Q3 : -0.000440091855126, Q4 : -0.00182025891263}
2019-04-14 16:24:29.91: SIM {TimeUS : 52534811, Roll : 0.01, Pitch : -0.07, Yaw : 359.78, Alt : 47.5999984741, Lat : 49.2835703, Lng : -123.1150206, Q1 : 0.999998092651, Q2 : 0.000133926107083, Q3 : -0.000663211452775, Q4 : -0.00184485060163}
2019-04-14 16:24:30.01: SIM {TimeUS : 52634771, Roll : 0.02, Pitch : -0.11, Yaw : 359.78, Alt : 47.7799987793, Lat : 49.2835703, Lng : -123.1150206, Q1 : 0.999997735023, Q2 : 0.000201700138859, Q3 : -0.000977190095, Q4 : -0.0018713765312}
2019-04-14 16:24:30.11: SIM {TimeUS : 52734731, Roll : 0.04, Pitch : -0.12, Yaw : 359.78, Alt : 47.9399986267, Lat : 49.2835703, Lng : -123.1150206, Q1 : 0.999997496605, Q2 : 0.000424970785389, Q3 : -0.00110536511056, Q4 : -0.00189697463065}
2019-04-14 16:24:30.21: SIM {TimeUS : 52834691, Roll : 0.07, Pitch : -0.11, Yaw : 359.77, Alt : 48.0999984741, Lat : 49.2835703, Lng : -123.1150206, Q1 : 0.999997437, Q2 : 0.000651777372696, Q3 : -0.00102438020986, Q4 : -0.00192004651763}
2019-04-14 16:24:30.31: SIM {TimeUS : 52934651, Roll : 0.09, Pitch : -0.09, Yaw : 359.77, Alt : 48.2400016785, Lat : 49.2835704, Lng : -123.1150206, Q1 : 0.999997437, Q2 : 0.000792652950622, Q3 : -0.00083671376342, Q4 : -0.00193994457368}
2019-04-14 16:24:30.41: SIM {TimeUS : 53034611, Roll : 0.08, Pitch : -0.06, Yaw : 359.77, Alt : 48.3600006104, Lat : 49.2835704, Lng : -123.1150206, Q1 : 0.999997615814, Q2 : 0.000763004587498, Q3 : -0.000601205218118, Q4 : -0.0019617904909}
2019-04-14 16:24:30.51: SIM {TimeUS : 53134571, Roll : 0.07, Pitch : -0.04, Yaw : 359.77, Alt : 48.4799995422, Lat : 49.2835704, Lng : -123.1150206, Q1 : 0.999997735023, Q2 : 0.000694043177646, Q3 : -0.000427052989835, Q4 : -0.00198552524671}
2019-04-14 16:24:30.61: SIM {TimeUS : 53234531, Roll : 0.06, Pitch : -0.05, Yaw : 359.76, Alt : 48.5900001526, Lat : 49.2835704, Lng : -123.1150206, Q1 : 0.999997735023, Q2 : 0.000574808218516, Q3 : -0.00044731789967, Q4 : -0.00201121624559}
2019-04-14 16:24:30.71: SIM {TimeUS : 53335324, Roll : 0.04, Pitch : -0.05, Yaw : 359.76, Alt : 48.6800003052, Lat : 49.2835704, Lng : -123.1150206, Q1 : 0.999997735023, Q2 : 0.000353741779691, Q3 : -0.000462241529021, Q4 : -0.00204325839877}
2019-04-14 16:24:30.81: SIM {TimeUS : 53435284, Roll : 0.01, Pitch : -0.04, Yaw : 359.76, Alt : 48.7599983215, Lat : 49.2835704, Lng : -123.1150206, Q1 : 0.999997735023, Q2 : 0.000163989403518, Q3 : -0.0003830473579, Q4 : -0.00207574106753}
2019-04-14 16:24:30.91: SIM {TimeUS : 53535244, Roll : 0.0, Pitch : -0.02, Yaw : 359.75, Alt : 48.8300018311, Lat : 49.2835704, Lng : -123.1150206, Q1 : 0.999997735023, Q2 : 1.00193392427e-05, Q3 : -0.000231852376601, Q4 : -0.00210763211362}
2019-04-14 16:24:31.01: SIM {TimeUS : 53635204, Roll : 0.0, Pitch : 0.0, Yaw : 359.75, Alt : 48.8899993896, Lat : 49.2835704, Lng : -123.1150206, Q1 : 0.999997735023, Q2 : -6.3823776145e-05, Q3 : 8.10293499853e-07, Q4 : -0.00213564955629}
2019-04-14 16:24:31.11: SIM {TimeUS : 53735164, Roll : 0.0, Pitch : 0.03, Yaw : 359.75, Alt : 48.9399986267, Lat : 49.2835704, Lng : -123.1150206, Q1 : 0.999997615814, Q2 : 5.60790213058e-05, Q3 : 0.000304011249682, Q4 : -0.00216247793287}
2019-04-14 16:24:31.21: SIM {TimeUS : 53835124, Roll : 0.03, Pitch : 0.04, Yaw : 359.74, Alt : 48.9799995422, Lat : 49.2835704, Lng : -123.1150206, Q1 : 0.999997437, Q2 : 0.000349955109414, Q3 : 0.00042182704783, Q4 : -0.00219056848437}
2019-04-14 16:24:31.31: SIM {TimeUS : 53935084, Roll : 0.15, Pitch : -0.04, Yaw : 359.74, Alt : 49.0200004578, Lat : 49.2835704, Lng : -123.1150206, Q1 : 0.999996602535, Q2 : 0.00131485715974, Q3 : -0.000433537818026, Q4 : -0.00221825344488}
2019-04-14 16:24:31.41: SIM {TimeUS : 54035044, Roll : 0.41, Pitch : -0.31, Yaw : 359.74, Alt : 49.0499992371, Lat : 49.2835704, Lng : -123.1150206, Q1 : 0.999987185001, Q2 : 0.0036021717824, Q3 : -0.00277442554943, Q4 : -0.00224222382531}
2019-04-14 16:24:31.51: SIM {TimeUS : 54135004, Roll : 0.86, Pitch : -0.78, Yaw : 359.73, Alt : 49.0800018311, Lat : 49.2835704, Lng : -123.1150206, Q1 : 0.999945282936, Q2 : 0.00752954045311, Q3 : -0.00689926976338, Q4 : -0.00226302957162}
2019-04-14 16:24:31.61: SIM {TimeUS : 54234964, Roll : 1.48, Pitch : -1.41, Yaw : 359.72, Alt : 49.1100006104, Lat : 49.2835706, Lng : -123.1150206, Q1 : 0.99983638525, Q2 : 0.0129610067233, Q3 : -0.012414499186, Q4 : -0.00226471503265}
2019-04-14 16:24:31.71: SIM {TimeUS : 54334924, Roll : 2.22, Pitch : -2.12, Yaw : 359.7, Alt : 49.1300010681, Lat : 49.2835706, Lng : -123.1150205, Q1 : 0.999636113644, Q2 : 0.0194061268121, Q3 : -0.018601918593, Q4 : -0.00222796341404}
2019-04-14 16:24:31.81: SIM {TimeUS : 54434884, Roll : 2.97, Pitch : -2.83, Yaw : 359.68, Alt : 49.1500015259, Lat : 49.2835707, Lng : -123.1150204, Q1 : 0.999355196953, Q2 : 0.0258905459195, Q3 : -0.0247870292515, Q4 : -0.00213472382165}
2019-04-14 16:24:31.91: SIM {TimeUS : 54534844, Roll : 3.61, Pitch : -3.42, Yaw : 359.66, Alt : 49.1599998474, Lat : 49.2835708, Lng : -123.1150202, Q1 : 0.99905526638, Q2 : 0.0314184874296, Q3 : -0.0299605466425, Q4 : -0.00196866504848}
2019-04-14 16:24:32.01: SIM {TimeUS : 54634804, Roll : 4.08, Pitch : -3.86, Yaw : 359.66, Alt : 49.1699981689, Lat : 49.2835709, Lng : -123.11502, Q1 : 0.998795568943, Q2 : 0.0355262570083, Q3 : -0.0337977521122, Q4 : -0.00174399244133}
2019-04-14 16:24:32.11: SIM {TimeUS : 54734764, Roll : 4.41, Pitch : -4.19, Yaw : 359.66, Alt : 49.1899986267, Lat : 49.283571, Lng : -123.1150198, Q1 : 0.998586237431, Q2 : 0.0384241342545, Q3 : -0.0366999432445, Q4 : -0.0014871628955}
2019-04-14 16:24:32.21: SIM {TimeUS : 54834724, Roll : 4.68, Pitch : -4.46, Yaw : 359.67, Alt : 49.2000007629, Lat : 49.2835714, Lng : -123.1150194, Q1 : 0.998405396938, Q2 : 0.0407711938024, Q3 : -0.0390249863267, Q4 : -0.00120324408635}
2019-04-14 16:24:32.31: SIM {TimeUS : 54934684, Roll : 4.95, Pitch : -4.7, Yaw : 359.69, Alt : 49.2099990845, Lat : 49.2835716, Lng : -123.1150189, Q1 : 0.998224377632, Q2 : 0.0430887416005, Q3 : -0.041117861867, Q4 : -0.000898312835488}
2019-04-14 16:24:32.41: SIM {TimeUS : 55034644, Roll : 5.22, Pitch : -4.93, Yaw : 359.7, Alt : 49.2099990845, Lat : 49.283572, Lng : -123.1150183, Q1 : 0.998034596443, Q2 : 0.045440480113, Q3 : -0.0431484282017, Q4 : -0.00059854175197}
2019-04-14 16:24:32.51: SIM {TimeUS : 55134604, Roll : 5.49, Pitch : -5.18, Yaw : 359.71, Alt : 49.2200012207, Lat : 49.2835724, Lng : -123.1150177, Q1 : 0.997831046581, Q2 : 0.04779760167, Q3 : -0.045260604471, Q4 : -0.000320410646964}
2019-04-14 16:24:32.61: SIM {TimeUS : 55234564, Roll : 5.72, Pitch : -5.4, Yaw : 359.72, Alt : 49.2299995422, Lat : 49.2835727, Lng : -123.1150169, Q1 : 0.997644245625, Q2 : 0.0497972071171, Q3 : -0.0471823997796, Q4 : -6.91699897288e-05}
2019-04-14 16:24:32.71: SIM {TimeUS : 55334524, Roll : 5.9, Pitch : -5.56, Yaw : 359.73, Alt : 49.2299995422, Lat : 49.2835733, Lng : -123.1150161, Q1 : 0.997496247292, Q2 : 0.0513517223299, Q3 : -0.0486226268113, Q4 : 0.000158648355864}
2019-04-14 16:24:32.81: SIM {TimeUS : 55435317, Roll : 6.03, Pitch : -5.68, Yaw : 359.73, Alt : 49.2400016785, Lat : 49.2835739, Lng : -123.1150151, Q1 : 0.997386336327, Q2 : 0.0524756610394, Q3 : -0.0496667400002, Q4 : 0.000333395204507}
2019-04-14 16:24:32.91: SIM {TimeUS : 55535277, Roll : 6.12, Pitch : -5.78, Yaw : 359.74, Alt : 49.2400016785, Lat : 49.2835745, Lng : -123.1150142, Q1 : 0.997303664684, Q2 : 0.0532633811235, Q3 : -0.0504806004465, Q4 : 0.000444626581157}
2019-04-14 16:24:33.01: SIM {TimeUS : 55635237, Roll : 6.22, Pitch : -5.85, Yaw : 359.74, Alt : 49.25, Lat : 49.2835751, Lng : -123.1150132, Q1 : 0.997223377228, Q2 : 0.0541145354509, Q3 : -0.0511551760137, Q4 : 0.00052100449102}
2019-04-14 16:24:33.11: SIM {TimeUS : 55735197, Roll : 6.41, Pitch : -5.93, Yaw : 359.74, Alt : 49.25, Lat : 49.2835758, Lng : -123.115012, Q1 : 0.997099995613, Q2 : 0.0557253733277, Q3 : -0.0518245995045, Q4 : 0.000686962739564}
2019-04-14 16:24:33.21: SIM {TimeUS : 55835157, Roll : 6.82, Pitch : -5.9, Yaw : 359.99, Alt : 49.2599983215, Lat : 49.2835765, Lng : -123.1150108, Q1 : 0.996903419495, Q2 : 0.0594396069646, Q3 : -0.0513932108879, Q4 : 0.00305702164769}
2019-04-14 16:24:33.31: SIM {TimeUS : 55935117, Roll : 7.45, Pitch : -5.78, Yaw : 1.11, Alt : 49.2599983215, Lat : 49.2835774, Lng : -123.1150095, Q1 : 0.996535718441, Q2 : 0.0654170289636, Q3 : -0.0496762432158, Q4 : 0.0130175976083}
2019-04-14 16:24:33.41: SIM {TimeUS : 56035077, Roll : 8.04, Pitch : -5.86, Yaw : 3.69, Alt : 49.2599983215, Lat : 49.2835782, Lng : -123.1150081, Q1 : 0.995594143867, Q2 : 0.0716580972075, Q3 : -0.0487855821848, Q4 : 0.0357412435114}
2019-04-14 16:24:33.51: SIM {TimeUS : 56135037, Roll : 8.3, Pitch : -6.4, Yaw : 7.86, Alt : 49.2599983215, Lat : 49.2835791, Lng : -123.1150066, Q1 : 0.993190348148, Q2 : 0.0759831890464, Q3 : -0.0506471395493, Q4 : 0.072348959744}
2019-04-14 16:24:33.61: SIM {TimeUS : 56234997, Roll : 8.04, Pitch : -7.4, Yaw : 13.47, Alt : 49.2599983215, Lat : 49.28358, Lng : -123.115005, Q1 : 0.988055109978, Q2 : 0.0770522803068, Q3 : -0.0557559169829, Q4 : 0.121249049902}
2019-04-14 16:24:33.71: SIM {TimeUS : 56334957, Roll : 7.12, Pitch : -8.71, Yaw : 20.27, Alt : 49.2700004578, Lat : 49.2835807, Lng : -123.1150033, Q1 : 0.978815197945, Q2 : 0.0743774101138, Q3 : -0.0637566298246, Q4 : 0.179788544774}
2019-04-14 16:24:33.81: SIM {TimeUS : 56434917, Roll : 5.56, Pitch : -10.13, Yaw : 28.01, Alt : 49.2700004578, Lat : 49.2835818, Lng : -123.1150014, Q1 : 0.964302301407, Q2 : 0.0682781636715, Q3 : -0.0738845393062, Q4 : 0.244949534535}
2019-04-14 16:24:33.91: SIM {TimeUS : 56534877, Roll : 3.23, Pitch : -11.44, Yaw : 36.32, Alt : 49.2700004578, Lat : 49.2835826, Lng : -123.1149995, Q1 : 0.944175541401, Q2 : 0.0577771998942, Q3 : -0.0859097614884, Q4 : 0.312752068043}
2019-04-14 16:24:34.01: SIM {TimeUS : 56634837, Roll : 0.2, Pitch : -12.37, Yaw : 44.5, Alt : 49.2700004578, Lat : 49.2835837, Lng : -123.1149974, Q1 : 0.920048058033, Q2 : 0.0424363687634, Q3 : -0.0990677848458, Q4 : 0.376691192389}
2019-04-14 16:24:34.11: SIM {TimeUS : 56734797, Roll : -2.98, Pitch : -12.79, Yaw : 51.66, Alt : 49.2700004578, Lat : 49.2835848, Lng : -123.1149953, Q1 : 0.89543390274, Q2 : 0.0252393335104, Q3 : -0.111549817026, Q4 : 0.430253148079}
2019-04-14 16:24:34.21: SIM {TimeUS : 56834757, Roll : -5.65, Pitch : -12.81, Yaw : 57.09, Alt : 49.2700004578, Lat : 49.283586, Lng : -123.1149932, Q1 : 0.874500930309, Q2 : 0.0101722851396, Q3 : -0.121312223375, Q4 : 0.469497621059}
2019-04-14 16:24:34.31: SIM {TimeUS : 56934717, Roll : -7.36, Pitch : -12.63, Yaw : 60.51, Alt : 49.2700004578, Lat : 49.2835873, Lng : -123.114991, Q1 : 0.860326945782, Q2 : 0.000182352945558, Q3 : -0.127050146461, Q4 : 0.493655532598}
2019-04-14 16:24:34.41: SIM {TimeUS : 57034677, Roll : -7.98, Pitch : -12.51, Yaw : 62.01, Alt : 49.2700004578, Lat : 49.2835885, Lng : -123.1149887, Q1 : 0.853857517242, Q2 : -0.00335424137302, Q3 : -0.128858819604, Q4 : 0.504293084145}
2019-04-14 16:24:34.51: SIM {TimeUS : 57134637, Roll : -7.65, Pitch : -12.6, Yaw : 61.89, Alt : 49.2700004578, Lat : 49.2835901, Lng : -123.1149864, Q1 : 0.854308366776, Q2 : -0.000550171534996, Q3 : -0.128054246306, Q4 : 0.503745019436}
2019-04-14 16:24:34.61: SIM {TimeUS : 57234597, Roll : -6.6, Pitch : -12.96, Yaw : 60.53, Alt : 49.2700004578, Lat : 49.2835916, Lng : -123.1149841, Q1 : 0.860017418861, Q2 : 0.00735988514498, Q3 : -0.126217782497, Q4 : 0.494353055954}
2019-04-14 16:24:34.71: SIM {TimeUS : 57334557, Roll : -5.09, Pitch : -13.54, Yaw : 58.26, Alt : 49.2700004578, Lat : 49.2835934, Lng : -123.1149818, Q1 : 0.869109213352, Q2 : 0.018811320886, Q3 : -0.124399736524, Q4 : 0.478351384401}
2019-04-14 16:24:34.81: SIM {TimeUS : 57434517, Roll : -3.34, Pitch : -14.24, Yaw : 55.4, Alt : 49.2799987793, Lat : 49.2835951, Lng : -123.1149794, Q1 : 0.879857838154, Q2 : 0.0320022366941, Q3 : -0.123164363205, Q4 : 0.457882761955}
2019-04-14 16:24:34.91: SIM {TimeUS : 57535310, Roll : -1.51, Pitch : -14.91, Yaw : 52.23, Alt : 49.2799987793, Lat : 49.2835969, Lng : -123.1149768, Q1 : 0.890955865383, Q2 : 0.0453734770417, Q3 : -0.122309468687, Q4 : 0.434947550297}
2019-04-14 16:24:35.01: SIM {TimeUS : 57635270, Roll : 0.18, Pitch : -15.42, Yaw : 49.14, Alt : 49.2799987793, Lat : 49.2835988, Lng : -123.1149743, Q1 : 0.901115596294, Q2 : 0.0572571083903, Q3 : -0.121350213885, Q4 : 0.412294179201}
2019-04-14 16:24:35.11: SIM {TimeUS : 57735230, Roll : 1.62, Pitch : -15.7, Yaw : 46.41, Alt : 49.2799987793, Lat : 49.2836007, Lng : -123.1149716, Q1 : 0.909595251083, Q2 : 0.0667612478137, Q3 : -0.119987264276, Q4 : 0.392151176929}
2019-04-14 16:24:35.21: SIM {TimeUS : 57835190, Roll : 2.7, Pitch : -15.79, Yaw : 44.3, Alt : 49.2799987793, Lat : 49.2836025, Lng : -123.1149688, Q1 : 0.915916740894, Q2 : 0.0734403952956, Q3 : -0.118365101516, Q4 : 0.376421093941}
2019-04-14 16:24:35.31: SIM {TimeUS : 57935150, Roll : 3.34, Pitch : -15.78, Yaw : 42.94, Alt : 49.2799987793, Lat : 49.2836044, Lng : -123.1149659, Q1 : 0.919927656651, Q2 : 0.0771258845925, Q3 : -0.11710973829, Q4 : 0.366155803204}
2019-04-14 16:24:35.41: SIM {TimeUS : 58035110, Roll : 3.52, Pitch : -15.74, Yaw : 42.35, Alt : 49.2799987793, Lat : 49.2836063, Lng : -123.1149628, Q1 : 0.92173397541, Q2 : 0.077856965363, Q3 : -0.116649448872, Q4 : 0.361576706171}
2019-04-14 16:24:35.51: SIM {TimeUS : 58135070, Roll : 3.28, Pitch : -15.74, Yaw : 42.45, Alt : 49.2799987793, Lat : 49.2836084, Lng : -123.1149596, Q1 : 0.921556890011, Q2 : 0.0760312005877, Q3 : -0.117348723114, Q4 : 0.362189739943}
2019-04-14 16:24:35.61: SIM {TimeUS : 58235030, Roll : 2.71, Pitch : -15.78, Yaw : 43.13, Alt : 49.2799987793, Lat : 49.2836104, Lng : -123.1149563, Q1 : 0.919725358486, Q2 : 0.0723048523068, Q3 : -0.119059309363, Q4 : 0.367018014193}
2019-04-14 16:24:35.71: SIM {TimeUS : 58334990, Roll : 1.95, Pitch : -15.87, Yaw : 44.2, Alt : 49.2799987793, Lat : 49.2836123, Lng : -123.1149529, Q1 : 0.916620314121, Q2 : 0.0676204487681, Q3 : -0.121551930904, Q4 : 0.374779671431}
2019-04-14 16:24:35.81: SIM {TimeUS : 58434950, Roll : 1.09, Pitch : -15.99, Yaw : 45.48, Alt : 49.2799987793, Lat : 49.2836144, Lng : -123.1149495, Q1 : 0.912719070911, Q2 : 0.0625288635492, Q3 : -0.124636098742, Q4 : 0.384057074785}
2019-04-14 16:24:35.91: SIM {TimeUS : 58534910, Roll : 0.27, Pitch : -16.12, Yaw : 46.8, Alt : 49.2799987793, Lat : 49.2836165, Lng : -123.114946, Q1 : 0.908518791199, Q2 : 0.0578760541975, Q3 : -0.127809122205, Q4 : 0.393584579229}
2019-04-14 16:24:36.01: SIM {TimeUS : 58634870, Roll : -0.42, Pitch : -16.22, Yaw : 48.01, Alt : 49.2799987793, Lat : 49.2836185, Lng : -123.1149424, Q1 : 0.904551446438, Q2 : 0.0541067905724, Q3 : -0.130425587296, Q4 : 0.402303755283}
2019-04-14 16:24:36.11: SIM {TimeUS : 58734830, Roll : -0.94, Pitch : -16.29, Yaw : 48.99, Alt : 49.2799987793, Lat : 49.2836207, Lng : -123.1149388, Q1 : 0.901250958443, Q2 : 0.0513168312609, Q3 : -0.132326647639, Q4 : 0.409393429756}
2019-04-14 16:24:36.21: SIM {TimeUS : 58834790, Roll : -1.29, Pitch : -16.34, Yaw : 49.68, Alt : 49.2799987793, Lat : 49.2836229, Lng : -123.1149351, Q1 : 0.898879051208, Q2 : 0.0495878271759, Q3 : -0.133666038513, Q4 : 0.414356052876}
2019-04-14 16:24:36.31: SIM {TimeUS : 58934750, Roll : -1.44, Pitch : -16.39, Yaw : 50.05, Alt : 49.2799987793, Lat : 49.283625, Lng : -123.1149314, Q1 : 0.89755576849, Q2 : 0.0489815473557, Q3 : -0.134455084801, Q4 : 0.417032808065}
2019-04-14 16:24:36.41: SIM {TimeUS : 59034710, Roll : -1.42, Pitch : -16.45, Yaw : 50.11, Alt : 49.2900009155, Lat : 49.2836274, Lng : -123.1149276, Q1 : 0.897249698639, Q2 : 0.0494559854269, Q3 : -0.1347938627, Q4 : 0.417525678873}
2019-04-14 16:24:36.51: SIM {TimeUS : 59134670, Roll : -1.25, Pitch : -16.49, Yaw : 49.91, Alt : 49.2900009155, Lat : 49.2836296, Lng : -123.1149238, Q1 : 0.897838592529, Q2 : 0.0507067069411, Q3 : -0.13463178277, Q4 : 0.416159838438}
2019-04-14 16:24:36.61: SIM {TimeUS : 59234630, Roll : -0.97, Pitch : -16.53, Yaw : 49.52, Alt : 49.2900009155, Lat : 49.283632, Lng : -123.11492, Q1 : 0.899082064629, Q2 : 0.0525875426829, Q3 : -0.134136199951, Q4 : 0.413392603397}
2019-04-14 16:24:36.71: SIM {TimeUS : 59334590, Roll : -0.63, Pitch : -16.58, Yaw : 49.01, Alt : 49.2900009155, Lat : 49.2836342, Lng : -123.114916, Q1 : 0.900711655617, Q2 : 0.0548323616385, Q3 : -0.133479982615, Q4 : 0.409749954939}
2019-04-14 16:24:36.81: SIM {TimeUS : 59434550, Roll : -0.27, Pitch : -16.62, Yaw : 48.45, Alt : 49.2900009155, Lat : 49.2836366, Lng : -123.1149122, Q1 : 0.902469813824, Q2 : 0.0571778975427, Q3 : -0.132776096463, Q4 : 0.405770152807}
2019-04-14 16:24:36.91: SIM {TimeUS : 59534510, Roll : 0.07, Pitch : -16.65, Yaw : 47.92, Alt : 49.2900009155, Lat : 49.283639, Lng : -123.1149083, Q1 : 0.904142260551, Q2 : 0.059374500066, Q3 : -0.132098525763, Q4 : 0.401934593916}
2019-04-14 16:24:37.01: SIM {TimeUS : 59635303, Roll : 0.35, Pitch : -16.69, Yaw : 47.46, Alt : 49.2900009155, Lat : 49.2836414, Lng : -123.1149042, Q1 : 0.905565917492, Q2 : 0.0612321272492, Q3 : -0.131630584598, Q4 : 0.398590534925}
2019-04-14 16:24:37.11: SIM {TimeUS : 59735263, Roll : 0.55, Pitch : -16.72, Yaw : 47.11, Alt : 49.2900009155, Lat : 49.2836439, Lng : -123.1149002, Q1 : 0.906631350517, Q2 : 0.0624656639993, Q3 : -0.13138191402, Q4 : 0.39605101943}
2019-04-14 16:24:37.21: SIM {TimeUS : 59835223, Roll : 0.65, Pitch : -16.74, Yaw : 46.89, Alt : 49.2900009155, Lat : 49.2836463, Lng : -123.1148961, Q1 : 0.907295763493, Q2 : 0.0631119012833, Q3 : -0.131371349096, Q4 : 0.394427329302}
2019-04-14 16:24:37.31: SIM {TimeUS : 59935183, Roll : 0.66, Pitch : -16.78, Yaw : 46.8, Alt : 49.2900009155, Lat : 49.2836488, Lng : -123.114892, Q1 : 0.907548248768, Q2 : 0.0632765740156, Q3 : -0.131659328938, Q4 : 0.393723338842}
2019-04-14 16:24:37.41: SIM {TimeUS : 60035143, Roll : 0.6, Pitch : -16.82, Yaw : 46.83, Alt : 49.2900009155, Lat : 49.2836512, Lng : -123.1148879, Q1 : 0.907443940639, Q2 : 0.0629498139024, Q3 : -0.132202729583, Q4 : 0.393834084272}
2019-04-14 16:24:37.51: SIM {TimeUS : 60135103, Roll : 0.46, Pitch : -16.86, Yaw : 46.94, Alt : 49.2900009155, Lat : 49.2836537, Lng : -123.1148837, Q1 : 0.907071828842, Q2 : 0.0621328279376, Q3 : -0.132904753089, Q4 : 0.394584089518}
2019-04-14 16:24:37.61: SIM {TimeUS : 60235063, Roll : 0.29, Pitch : -16.88, Yaw : 47.12, Alt : 49.2900009155, Lat : 49.2836562, Lng : -123.1148794, Q1 : 0.906528353691, Q2 : 0.0610188022256, Q3 : -0.133606106043, Q4 : 0.395768195391}
2019-04-14 16:24:37.71: SIM {TimeUS : 60335023, Roll : 0.1, Pitch : -16.92, Yaw : 47.33, Alt : 49.2999992371, Lat : 49.2836588, Lng : -123.1148752, Q1 : 0.905874848366, Q2 : 0.0599409490824, Q3 : -0.134408965707, Q4 : 0.397155016661}
2019-04-14 16:24:37.81: SIM {TimeUS : 60434983, Roll : -0.03, Pitch : -16.97, Yaw : 47.53, Alt : 49.2999992371, Lat : 49.2836614, Lng : -123.1148709, Q1 : 0.90519374609, Q2 : 0.0591675229371, Q3 : -0.135190501809, Q4 : 0.398556143045}
2019-04-14 16:24:37.91: SIM {TimeUS : 60534943, Roll : -0.13, Pitch : -17.02, Yaw : 47.7, Alt : 49.2999992371, Lat : 49.2836639, Lng : -123.1148666, Q1 : 0.904571950436, Q2 : 0.0587647520006, Q3 : -0.135853007436, Q4 : 0.399800300598}
2019-04-14 16:24:38.01: SIM {TimeUS : 60634903, Roll : -0.19, Pitch : -17.07, Yaw : 47.84, Alt : 49.2999992371, Lat : 49.2836664, Lng : -123.1148623, Q1 : 0.904078483582, Q2 : 0.058660466224, Q3 : -0.136354222894, Q4 : 0.400760024786}
2019-04-14 16:24:38.11: SIM {TimeUS : 60734863, Roll : -0.2, Pitch : -17.11, Yaw : 47.92, Alt : 49.2999992371, Lat : 49.2836689, Lng : -123.1148579, Q1 : 0.903752684593, Q2 : 0.0588046051562, Q3 : -0.13668268919, Q4 : 0.401361346245}
2019-04-14 16:24:38.21: SIM {TimeUS : 60834823, Roll : -0.19, Pitch : -17.14, Yaw : 47.95, Alt : 49.2999992371, Lat : 49.2836716, Lng : -123.1148536, Q1 : 0.903610408306, Q2 : 0.0589942224324, Q3 : -0.136892452836, Q4 : 0.40158239007}
2019-04-14 16:24:38.31: SIM {TimeUS : 60934783, Roll : -0.18, Pitch : -17.16, Yaw : 47.93, Alt : 49.2999992371, Lat : 49.2836742, Lng : -123.1148492, Q1 : 0.903646826744, Q2 : 0.0591364763677, Q3 : -0.136993080378, Q4 : 0.401445180178}
2019-04-14 16:24:38.41: SIM {TimeUS : 61034743, Roll : -0.16, Pitch : -17.17, Yaw : 47.87, Alt : 49.2999992371, Lat : 49.2836767, Lng : -123.1148448, Q1 : 0.903825879097, Q2 : 0.059251844883, Q3 : -0.13706433773, Q4 : 0.401000499725}
2019-04-14 16:24:38.51: SIM {TimeUS : 61134703, Roll : -0.12, Pitch : -17.18, Yaw : 47.78, Alt : 49.2999992371, Lat : 49.2836795, Lng : -123.1148404, Q1 : 0.904097676277, Q2 : 0.059561625123, Q3 : -0.137023389339, Q4 : 0.400355398655}
2019-04-14 16:24:38.61: SIM {TimeUS : 61234663, Roll : -0.04, Pitch : -17.2, Yaw : 47.68, Alt : 49.2999992371, Lat : 49.2836821, Lng : -123.1148359, Q1 : 0.904412031174, Q2 : 0.0600515455008, Q3 : -0.136958688498, Q4 : 0.399593532085}
2019-04-14 16:24:38.71: SIM {TimeUS : 61334623, Roll : 0.04, Pitch : -17.24, Yaw : 47.57, Alt : 49.3100013733, Lat : 49.2836847, Lng : -123.1148315, Q1 : 0.904701769352, Q2 : 0.0607884339988, Q3 : -0.13702018559, Q4 : 0.398804426193}
2019-04-14 16:24:38.81: SIM {TimeUS : 61434583, Roll : 0.12, Pitch : -17.3, Yaw : 47.46, Alt : 49.3100013733, Lat : 49.2836874, Lng : -123.114827, Q1 : 0.904953300953, Q2 : 0.0615196339786, Q3 : -0.137251600623, Q4 : 0.398041188717}
2019-04-14 16:24:38.91: SIM {TimeUS : 61534543, Roll : 0.17, Pitch : -17.33, Yaw : 47.37, Alt : 49.3100013733, Lat : 49.2836901, Lng : -123.1148225, Q1 : 0.905195891857, Q2 : 0.0619510821998, Q3 : -0.137362524867, Q4 : 0.397383987904}
2019-04-14 16:24:39.01: SIM {TimeUS : 61634503, Roll : 0.21, Pitch : -17.33, Yaw : 47.3, Alt : 49.3100013733, Lat : 49.2836928, Lng : -123.114818, Q1 : 0.905409216881, Q2 : 0.0621498785913, Q3 : -0.137286067009, Q4 : 0.396893054247}
2019-04-14 16:24:39.11: SIM {TimeUS : 61735296, Roll : 0.21, Pitch : -17.33, Yaw : 47.26, Alt : 49.3100013733, Lat : 49.2836955, Lng : -123.1148134, Q1 : 0.905556917191, Q2 : 0.0621361471713, Q3 : -0.13735178113, Q4 : 0.396535336971}
2019-04-14 16:24:39.21: SIM {TimeUS : 61835256, Roll : 0.19, Pitch : -17.36, Yaw : 47.23, Alt : 49.3100013733, Lat : 49.2836981, Lng : -123.1148089, Q1 : 0.905620932579, Q2 : 0.0620478205383, Q3 : -0.137615412474, Q4 : 0.39631152153}
2019-04-14 16:24:39.31: SIM {TimeUS : 61935216, Roll : 0.18, Pitch : -17.38, Yaw : 47.23, Alt : 49.3100013733, Lat : 49.2837009, Lng : -123.1148043, Q1 : 0.905624866486, Q2 : 0.0619924478233, Q3 : -0.137878000736, Q4 : 0.396219909191}
2019-04-14 16:24:39.41: SIM {TimeUS : 62035176, Roll : 0.16, Pitch : -17.42, Yaw : 47.23, Alt : 49.3100013733, Lat : 49.2837035, Lng : -123.1147997, Q1 : 0.90557795763, Q2 : 0.0619464591146, Q3 : -0.138194829226, Q4 : 0.396224021912}
2019-04-14 16:24:39.51: SIM {TimeUS : 62135136, Roll : 0.14, Pitch : -17.44, Yaw : 47.25, Alt : 49.3100013733, Lat : 49.2837064, Lng : -123.1147951, Q1 : 0.905510723591, Q2 : 0.0619037300348, Q3 : -0.138446435332, Q4 : 0.396296441555}
2019-04-14 16:24:39.61: SIM {TimeUS : 62235096, Roll : 0.12, Pitch : -17.47, Yaw : 47.26, Alt : 49.3100013733, Lat : 49.283709, Lng : -123.1147905, Q1 : 0.90543371439, Q2 : 0.0618796944618, Q3 : -0.138707742095, Q4 : 0.396384775639}
2019-04-14 16:24:39.71: SIM {TimeUS : 62335056, Roll : 0.11, Pitch : -17.48, Yaw : 47.28, Alt : 49.3100013733, Lat : 49.2837118, Lng : -123.1147859, Q1 : 0.905367076397, Q2 : 0.0618869699538, Q3 : -0.138862684369, Q4 : 0.396481543779}
2019-04-14 16:24:39.81: SIM {TimeUS : 62435016, Roll : 0.12, Pitch : -17.5, Yaw : 47.29, Alt : 49.3100013733, Lat : 49.2837145, Lng : -123.1147813, Q1 : 0.905311822891, Q2 : 0.0619968101382, Q3 : -0.138959303498, Q4 : 0.396556735039}
2019-04-14 16:24:39.91: SIM {TimeUS : 62534976, Roll : 0.13, Pitch : -17.51, Yaw : 47.29, Alt : 49.3199996948, Lat : 49.2837173, Lng : -123.1147767, Q1 : 0.905270755291, Q2 : 0.0621442049742, Q3 : -0.139043286443, Q4 : 0.396597951651}
2019-04-14 16:24:40.01: SIM {TimeUS : 62634936, Roll : 0.13, Pitch : -17.55, Yaw : 47.29, Alt : 49.3199996948, Lat : 49.28372, Lng : -123.1147719, Q1 : 0.905241191387, Q2 : 0.0622372850776, Q3 : -0.139300748706, Q4 : 0.396560549736}
2019-04-14 16:24:40.11: SIM {TimeUS : 62734896, Roll : 0.1, Pitch : -17.59, Yaw : 47.28, Alt : 49.3199996948, Lat : 49.2837229, Lng : -123.1147673, Q1 : 0.90523648262, Q2 : 0.0621378868818, Q3 : -0.139709413052, Q4 : 0.396443039179}
2019-04-14 16:24:40.21: SIM {TimeUS : 62834856, Roll : 0.08, Pitch : -17.63, Yaw : 47.27, Alt : 49.3199996948, Lat : 49.2837257, Lng : -123.1147627, Q1 : 0.905245304108, Q2 : 0.0620874725282, Q3 : -0.140135347843, Q4 : 0.396280437708}
2019-04-14 16:24:40.31: SIM {TimeUS : 62934816, Roll : 0.08, Pitch : -17.66, Yaw : 47.25, Alt : 49.3199996948, Lat : 49.2837284, Lng : -123.114758, Q1 : 0.905265688896, Q2 : 0.0622464641929, Q3 : -0.140393257141, Q4 : 0.396117597818}
2019-04-14 16:24:40.41: SIM {TimeUS : 63034776, Roll : 0.11, Pitch : -17.68, Yaw : 47.22, Alt : 49.3199996948, Lat : 49.2837312, Lng : -123.1147533, Q1 : 0.905318140984, Q2 : 0.0625003427267, Q3 : -0.140398129821, Q4 : 0.395956009626}
2019-04-14 16:24:40.51: SIM {TimeUS : 63134736, Roll : 0.15, Pitch : -17.67, Yaw : 47.2, Alt : 49.3199996948, Lat : 49.2837339, Lng : -123.1147486, Q1 : 0.905399620533, Q2 : 0.0627108663321, Q3 : -0.140212520957, Q4 : 0.395802140236}
2019-04-14 16:24:40.61: SIM {TimeUS : 63234696, Roll : 0.16, Pitch : -17.65, Yaw : 47.17, Alt : 49.3199996948, Lat : 49.2837368, Lng : -123.1147439, Q1 : 0.905488669872, Q2 : 0.0627647638321, Q3 : -0.140089288354, Q4 : 0.395633608103}
2019-04-14 16:24:40.71: SIM {TimeUS : 63334656, Roll : 0.17, Pitch : -17.64, Yaw : 47.15, Alt : 49.3199996948, Lat : 49.2837397, Lng : -123.1147391, Q1 : 0.905583739281, Q2 : 0.0627191439271, Q3 : -0.139987081289, Q4 : 0.395459294319}
2019-04-14 16:24:40.81: SIM {TimeUS : 63434616, Roll : 0.16, Pitch : -17.62, Yaw : 47.13, Alt : 49.3199996948, Lat : 49.2837424, Lng : -123.1147344, Q1 : 0.905683994293, Q2 : 0.0625769048929, Q3 : -0.139889791608, Q4 : 0.395286679268}
2019-04-14 16:24:40.91: SIM {TimeUS : 63534576, Roll : 0.15, Pitch : -17.63, Yaw : 47.11, Alt : 49.3199996948, Lat : 49.2837453, Lng : -123.1147296, Q1 : 0.905750215054, Q2 : 0.0624677725136, Q3 : -0.140000969172, Q4 : 0.395112723112}
2019-04-14 16:24:41.01: SIM {TimeUS : 63634536, Roll : 0.14, Pitch : -17.66, Yaw : 47.09, Alt : 49.3199996948, Lat : 49.283748, Lng : -123.1147249, Q1 : 0.905783236027, Q2 : 0.0624433942139, Q3 : -0.140261188149, Q4 : 0.394948631525}
2019-04-14 16:24:41.11: SIM {TimeUS : 63734496, Roll : 0.12, Pitch : -17.71, Yaw : 47.08, Alt : 49.3199996948, Lat : 49.2837509, Lng : -123.1147201, Q1 : 0.905778884888, Q2 : 0.0624702274799, Q3 : -0.140733391047, Q4 : 0.394786268473}
2019-04-14 16:24:41.21: SIM {TimeUS : 63835289, Roll : 0.12, Pitch : -17.77, Yaw : 47.06, Alt : 49.3199996948, Lat : 49.2837538, Lng : -123.1147153, Q1 : 0.905752122402, Q2 : 0.0626471787691, Q3 : -0.141223236918, Q4 : 0.394644707441}
2019-04-14 16:24:41.31: SIM {TimeUS : 63935249, Roll : 0.13, Pitch : -17.8, Yaw : 47.05, Alt : 49.3300018311, Lat : 49.2837565, Lng : -123.1147105, Q1 : 0.905754387379, Q2 : 0.0628167614341, Q3 : -0.141406834126, Q4 : 0.394546717405}
2019-04-14 16:24:41.41: SIM {TimeUS : 64035209, Roll : 0.13, Pitch : -17.82, Yaw : 47.04, Alt : 49.3300018311, Lat : 49.2837594, Lng : -123.1147058, Q1 : 0.905763566494, Q2 : 0.0629158467054, Q3 : -0.141573354602, Q4 : 0.394450157881}
2019-04-14 16:24:41.51: SIM {TimeUS : 64135169, Roll : 0.13, Pitch : -17.83, Yaw : 47.03, Alt : 49.3300018311, Lat : 49.2837623, Lng : -123.114701, Q1 : 0.905786514282, Q2 : 0.062942802906, Q3 : -0.141675770283, Q4 : 0.394356489182}
2019-04-14 16:24:41.61: SIM {TimeUS : 64235129, Roll : 0.14, Pitch : -17.82, Yaw : 47.02, Alt : 49.3300018311, Lat : 49.2837652, Lng : -123.1146962, Q1 : 0.905825972557, Q2 : 0.0629986822605, Q3 : -0.141580030322, Q4 : 0.394291311502}
2019-04-14 16:24:41.71: SIM {TimeUS : 64335089, Roll : 0.16, Pitch : -17.83, Yaw : 47.01, Alt : 49.3300018311, Lat : 49.283768, Lng : -123.1146914, Q1 : 0.905843615532, Q2 : 0.0631642714143, Q3 : -0.141584455967, Q4 : 0.394222646952}
2019-04-14 16:24:41.81: SIM {TimeUS : 64435049, Roll : 0.17, Pitch : -17.86, Yaw : 46.99, Alt : 49.3300018311, Lat : 49.2837709, Lng : -123.1146866, Q1 : 0.905849277973, Q2 : 0.0632862001657, Q3 : -0.141758993268, Q4 : 0.394127339125}
2019-04-14 16:24:41.91: SIM {TimeUS : 64535009, Roll : 0.17, Pitch : -17.88, Yaw : 46.98, Alt : 49.3300018311, Lat : 49.2837738, Lng : -123.1146817, Q1 : 0.905861496925, Q2 : 0.0633602514863, Q3 : -0.141904860735, Q4 : 0.394034832716}
2019-04-14 16:24:42.01: SIM {TimeUS : 64634969, Roll : 0.18, Pitch : -17.87, Yaw : 46.97, Alt : 49.3300018311, Lat : 49.2837767, Lng : -123.1146769, Q1 : 0.90590184927, Q2 : 0.0634128451347, Q3 : -0.141857862473, Q4 : 0.393950521946}
2019-04-14 16:24:42.11: SIM {TimeUS : 64734929, Roll : 0.18, Pitch : -17.88, Yaw : 46.96, Alt : 49.3300018311, Lat : 49.2837795, Lng : -123.1146721, Q1 : 0.905942440033, Q2 : 0.0634115338326, Q3 : -0.14189735055, Q4 : 0.393843203783}
2019-04-14 16:24:42.21: SIM {TimeUS : 64834889, Roll : 0.16, Pitch : -17.9, Yaw : 46.94, Alt : 49.3300018311, Lat : 49.2837824, Lng : -123.1146672, Q1 : 0.905974328518, Q2 : 0.0633199512959, Q3 : -0.142128691077, Q4 : 0.393701136112}
2019-04-14 16:24:42.31: SIM {TimeUS : 64934849, Roll : 0.13, Pitch : -17.94, Yaw : 46.93, Alt : 49.3300018311, Lat : 49.2837853, Lng : -123.1146624, Q1 : 0.905991494656, Q2 : 0.0631857290864, Q3 : -0.142557740211, Q4 : 0.393528044224}
2019-04-14 16:24:42.41: SIM {TimeUS : 65034809, Roll : 0.12, Pitch : -17.95, Yaw : 46.91, Alt : 49.3300018311, Lat : 49.2837881, Lng : -123.1146576, Q1 : 0.906036674976, Q2 : 0.0630812421441, Q3 : -0.142712786794, Q4 : 0.393384456635}
2019-04-14 16:24:42.51: SIM {TimeUS : 65134769, Roll : 0.12, Pitch : -17.94, Yaw : 46.9, Alt : 49.3300018311, Lat : 49.283791, Lng : -123.1146527, Q1 : 0.906091272831, Q2 : 0.0630976930261, Q3 : -0.14263215661, Q4 : 0.393285363913}
2019-04-14 16:24:42.61: SIM {TimeUS : 65234729, Roll : 0.15, Pitch : -17.93, Yaw : 46.89, Alt : 49.3300018311, Lat : 49.283794, Lng : -123.1146478, Q1 : 0.906136929989, Q2 : 0.0632406547666, Q3 : -0.142485737801, Q4 : 0.393210381269}
2019-04-14 16:24:42.71: SIM {TimeUS : 65334689, Roll : 0.17, Pitch : -17.94, Yaw : 46.87, Alt : 49.3300018311, Lat : 49.2837969, Lng : -123.114643, Q1 : 0.906164705753, Q2 : 0.0633900612593, Q3 : -0.142503663898, Q4 : 0.393115639687}
2019-04-14 16:24:42.81: SIM {TimeUS : 65434649, Roll : 0.16, Pitch : -17.96, Yaw : 46.86, Alt : 49.3400001526, Lat : 49.2837998, Lng : -123.1146381, Q1 : 0.906188130379, Q2 : 0.0633756816387, Q3 : -0.14268900454, Q4 : 0.392996788025}
2019-04-14 16:24:42.91: SIM {TimeUS : 65534609, Roll : 0.14, Pitch : -17.98, Yaw : 46.85, Alt : 49.3400001526, Lat : 49.2838026, Lng : -123.1146332, Q1 : 0.906211435795, Q2 : 0.0632694140077, Q3 : -0.142945244908, Q4 : 0.392866939306}
2019-04-14 16:24:43.01: SIM {TimeUS : 65634569, Roll : 0.12, Pitch : -18.0, Yaw : 46.84, Alt : 49.3400001526, Lat : 49.2838056, Lng : -123.1146284, Q1 : 0.906227469444, Q2 : 0.0632278323174, Q3 : -0.143182367086, Q4 : 0.392750412226}
2019-04-14 16:24:43.11: SIM {TimeUS : 65734529, Roll : 0.13, Pitch : -18.03, Yaw : 46.83, Alt : 49.3400001526, Lat : 49.2838086, Lng : -123.1146235, Q1 : 0.906240224838, Q2 : 0.063302770257, Q3 : -0.143344804645, Q4 : 0.392649650574}
2019-04-14 16:24:43.21: SIM {TimeUS : 65835322, Roll : 0.13, Pitch : -18.04, Yaw : 46.81, Alt : 49.3400001526, Lat : 49.2838115, Lng : -123.1146185, Q1 : 0.906255125999, Q2 : 0.0634094625711, Q3 : -0.143437296152, Q4 : 0.39256426692}
2019-04-14 16:24:43.31: SIM {TimeUS : 65935282, Roll : 0.16, Pitch : -18.05, Yaw : 46.81, Alt : 49.3400001526, Lat : 49.2838144, Lng : -123.1146137, Q1 : 0.906263709068, Q2 : 0.0636183544993, Q3 : -0.143407583237, Q4 : 0.392521440983}
2019-04-14 16:24:43.41: SIM {TimeUS : 66035242, Roll : 0.18, Pitch : -18.06, Yaw : 46.8, Alt : 49.3400001526, Lat : 49.2838173, Lng : -123.1146088, Q1 : 0.906266987324, Q2 : 0.0637765154243, Q3 : -0.143432974815, Q4 : 0.392478942871}
2019-04-14 16:24:43.51: SIM {TimeUS : 66135202, Roll : 0.19, Pitch : -18.07, Yaw : 46.79, Alt : 49.3400001526, Lat : 49.2838202, Lng : -123.1146039, Q1 : 0.906264662743, Q2 : 0.0639357790351, Q3 : -0.143496096134, Q4 : 0.392435312271}
2019-04-14 16:24:43.61: SIM {TimeUS : 66235162, Roll : 0.21, Pitch : -18.08, Yaw : 46.78, Alt : 49.3400001526, Lat : 49.2838232, Lng : -123.114599, Q1 : 0.906261861324, Q2 : 0.064096994698, Q3 : -0.143550932407, Q4 : 0.392395406961}
2019-04-14 16:24:43.71: SIM {TimeUS : 66335122, Roll : 0.23, Pitch : -18.09, Yaw : 46.78, Alt : 49.3400001526, Lat : 49.2838262, Lng : -123.1145941, Q1 : 0.906256079674, Q2 : 0.0643157213926, Q3 : -0.143549412489, Q4 : 0.392373502254}
2019-04-14 16:24:43.81: SIM {TimeUS : 66435082, Roll : 0.26, Pitch : -18.11, Yaw : 46.77, Alt : 49.3400001526, Lat : 49.2838291, Lng : -123.1145892, Q1 : 0.90623742342, Q2 : 0.0645987391472, Q3 : -0.143558755517, Q4 : 0.392366737127}
2019-04-14 16:24:43.91: SIM {TimeUS : 66535042, Roll : 0.26, Pitch : -18.11, Yaw : 46.77, Alt : 49.3400001526, Lat : 49.2838319, Lng : -123.1145842, Q1 : 0.906249880791, Q2 : 0.0645614787936, Q3 : -0.143589437008, Q4 : 0.392332851887}
2019-04-14 16:24:44.01: SIM {TimeUS : 66635002, Roll : 0.23, Pitch : -18.12, Yaw : 46.77, Alt : 49.3400001526, Lat : 49.2838349, Lng : -123.1145793, Q1 : 0.906260669231, Q2 : 0.0643686950207, Q3 : -0.143793568015, Q4 : 0.392264872789}
2019-04-14 16:24:44.11: SIM {TimeUS : 66734962, Roll : 0.2, Pitch : -18.15, Yaw : 46.76, Alt : 49.3499984741, Lat : 49.2838378, Lng : -123.1145744, Q1 : 0.906253457069, Q2 : 0.0642366558313, Q3 : -0.144096925855, Q4 : 0.392191708088}
