2019-04-14 17:46:22.50: SIM {TimeUS : 40516287, Roll : 0.0, Pitch : 0.0, Yaw : 0.0, Alt : 30.1000003815, Lat : 49.28357, Lng : -123.11502, Q1 : 1.0, Q2 : 0.0, Q3 : 0.0, Q4 : 0.0}
2019-04-14 17:46:22.61: SIM {TimeUS : 40635406, Roll : 0.0, Pitch : 0.0, Yaw : 0.0, Alt : 30.1000003815, Lat : 49.28357, Lng : -123.11502, Q1 : 1.0, Q2 : 0.0, Q3 : 0.0, Q4 : 0.0}
2019-04-14 17:46:22.71: SIM {TimeUS : 40735366, Roll : 0.0, Pitch : 0.0, Yaw : 0.0, Alt : 30.1000003815, Lat : 49.28357, Lng : -123.11502, Q1 : 1.0, Q2 : 0.0, Q3 : 0.0, Q4 : 0.0}
2019-04-14 17:46:22.81: SIM {TimeUS : 40835326, Roll : 0.0, Pitch : 0.0, Yaw : 0.0, Alt : 30.1000003815, Lat : 49.28357, Lng : -123.11502, Q1 : 1.0, Q2 : 0.0, Q3 : 0.0, Q4 : 0.0}
2019-04-14 17:46:22.91: SIM {TimeUS : 40935286, Roll : 0.0, Pitch : 0.0, Yaw : 0.0, Alt : 30.1000003815, Lat : 49.28357, Lng : -123.11502, Q1 : 1.0, Q2 : 0.0, Q3 : 0.0, Q4 : 0.0}
2019-04-14 17:46:23.01: SIM {TimeUS : 41035246, Roll : 0.0, Pitch : 0.0, Yaw : 0.0, Alt : 30.1000003815, Lat : 49.28357, Lng : -123.11502, Q1 : 1.0, Q2 : 0.0, Q3 : 0.0, Q4 : 0.0}
2019-04-14 17:46:23.11: SIM {TimeUS : 41135206, Roll : 0.0, Pitch : 0.0, Yaw : 0.0, Alt : 30.1000003815, Lat : 49.28357, Lng : -123.11502, Q1 : 1.0, Q2 : 0.0, Q3 : 0.0, Q4 : 0.0}
2019-04-14 17:46:23.21: SIM {TimeUS : 41235166, Roll : 0.0, Pitch : 0.0, Yaw : 0.0, Alt : 30.1000003815, Lat : 49.28357, Lng : -123.11502, Q1 : 1.0, Q2 : 0.0, Q3 : 0.0, Q4 : 0.0}
2019-04-14 17:46:23.31: SIM {TimeUS : 41335126, Roll : 0.0, Pitch : 0.0, Yaw : 0.0, Alt : 30.1000003815, Lat : 49.28357, Lng : -123.11502, Q1 : 1.0, Q2 : 0.0, Q3 : 0.0, Q4 : 0.0}
2019-04-14 17:46:23.41: SIM {TimeUS : 41435086, Roll : 0.0, Pitch : 0.0, Yaw : 0.0, Alt : 30.1000003815, Lat : 49.28357, Lng : -123.11502, Q1 : 1.0, Q2 : 0.0, Q3 : 0.0, Q4 : 0.0}
2019-04-14 17:46:23.51: SIM {TimeUS : 41535046, Roll : 0.0, Pitch : 0.0, Yaw : 0.0, Alt : 30.1000003815, Lat : 49.28357, Lng : -123.11502, Q1 : 1.0, Q2 : 0.0, Q3 : 0.0, Q4 : 0.0}
2019-04-14 17:46:23.61: SIM {TimeUS : 41635006, Roll : 0.0, Pitch : 0.0, Yaw : 0.0, Alt : 30.1000003815, Lat : 49.28357, Lng : -123.11502, Q1 : 1.0, Q2 : 0.0, Q3 : 0.0, Q4 : 0.0}
2019-04-14 17:46:23.71: SIM {TimeUS : 41734966, Roll : 0.0, Pitch : 0.0, Yaw : 0.0, Alt : 30.1000003815, Lat : 49.28357, Lng : -123.11502, Q1 : 1.0, Q2 : 0.0, Q3 : 0.0, Q4 : 0.0}
2019-04-14 17:46:23.81: SIM {TimeUS : 41834926, Roll : 0.0, Pitch : 0.0, Yaw : 0.0, Alt : 30.1000003815, Lat : 49.28357, Lng : -123.11502, Q1 : 1.0, Q2 : 0.0, Q3 : 0.0, Q4 : 0.0}
2019-04-14 17:46:23.91: SIM {TimeUS : 41934886, Roll : 0.0, Pitch : 0.0, Yaw : 0.0, Alt : 30.1000003815, Lat : 49.28357, Lng : -123.11502, Q1 : 1.0, Q2 : 0.0, Q3 : 0.0, Q4 : 0.0}
2019-04-14 17:46:24.01: SIM {TimeUS : 42034846, Roll : 0.0, Pitch : 0.0, Yaw : 0.0, Alt : 30.1000003815, Lat : 49.28357, Lng : -123.11502, Q1 : 1.0, Q2 : 0.0, Q3 : 0.0, Q4 : 0.0}
2019-04-14 17:46:24.11: SIM {TimeUS : 42134806, Roll : 0.0, Pitch : 0.0, Yaw : 0.0, Alt : 30.1000003815, Lat : 49.28357, Lng : -123.11502, Q1 : 1.0, Q2 : 0.0, Q3 : 0.0, Q4 : 0.0}
2019-04-14 17:46:24.21: SIM {TimeUS : 42234766, Roll : 0.0, Pitch : 0.0, Yaw : 0.0, Alt : 30.1000003815, Lat : 49.28357, Lng : -123.11502, Q1 : 1.0, Q2 : 0.0, Q3 : 0.0, Q4 : 0.0}
2019-04-14 17:46:24.31: SIM {TimeUS : 42334726, Roll : 0.0, Pitch : 0.0, Yaw : 0.0, Alt : 30.1000003815, Lat : 49.28357, Lng : -123.11502, Q1 : 1.0, Q2 : 0.0, Q3 : 0.0, Q4 : 0.0}
2019-04-14 17:46:24.41: SIM {TimeUS : 42434686, Roll : 0.0, Pitch : 0.0, Yaw : 0.0, Alt : 30.1000003815, Lat : 49.28357, Lng : -123.11502, Q1 : 1.0, Q2 : 0.0, Q3 : 0.0, Q4 : 0.0}
2019-04-14 17:46:24.51: SIM {TimeUS : 42534646, Roll : 0.0, Pitch : 0.0, Yaw : 0.0, Alt : 30.1000003815, Lat : 49.28357, Lng : -123.11502, Q1 : 1.0, Q2 : 0.0, Q3 : 0.0, Q4 : 0.0}
2019-04-14 17:46:24.62: SIM {TimeUS : 42635439, Roll : 0.0, Pitch : 0.0, Yaw : 0.0, Alt : 30.1000003815, Lat : 49.28357, Lng : -123.11502, Q1 : 1.0, Q2 : 0.0, Q3 : 0.0, Q4 : 0.0}
2019-04-14 17:46:24.71: SIM {TimeUS : 42735399, Roll : 0.0, Pitch : 0.0, Yaw : 0.0, Alt : 30.1000003815, Lat : 49.28357, Lng : -123.11502, Q1 : 1.0, Q2 : 0.0, Q3 : 0.0, Q4 : 0.0}
2019-04-14 17:46:24.81: SIM {TimeUS : 42835359, Roll : 0.0, Pitch : 0.0, Yaw : 0.0, Alt : 30.1000003815, Lat : 49.28357, Lng : -123.11502, Q1 : 1.0, Q2 : 0.0, Q3 : 0.0, Q4 : 3.50114867653e-11}
2019-04-14 17:46:24.91: SIM {TimeUS : 42935319, Roll : 0.0, Pitch : 0.0, Yaw : 360.0, Alt : 30.1000003815, Lat : 49.28357, Lng : -123.11502, Q1 : 1.0, Q2 : 0.0, Q3 : 0.0, Q4 : -1.62090429967e-08}
2019-04-14 17:46:25.01: SIM {TimeUS : 43035279, Roll : 0.0, Pitch : 0.0, Yaw : 359.99, Alt : 30.1000003815, Lat : 49.28357, Lng : -123.11502, Q1 : 1.0, Q2 : 0.0, Q3 : 0.0, Q4 : -1.95501812073e-07}
2019-04-14 17:46:25.11: SIM {TimeUS : 43135239, Roll : 0.0, Pitch : 0.0, Yaw : 359.99, Alt : 30.1000003815, Lat : 49.28357, Lng : -123.11502, Q1 : 1.0, Q2 : 0.0, Q3 : 0.0, Q4 : -3.64607529946e-07}
2019-04-14 17:46:25.21: SIM {TimeUS : 43235199, Roll : 0.0, Pitch : 0.0, Yaw : 359.99, Alt : 30.1000003815, Lat : 49.28357, Lng : -123.11502, Q1 : 1.0, Q2 : 0.0, Q3 : 0.0, Q4 : -5.41639167295e-07}
2019-04-14 17:46:25.31: SIM {TimeUS : 43335159, Roll : 0.0, Pitch : 0.0, Yaw : 359.99, Alt : 30.1000003815, Lat : 49.28357, Lng : -123.11502, Q1 : 1.0, Q2 : 0.0, Q3 : 0.0, Q4 : -7.0996912882e-07}
2019-04-14 17:46:25.41: SIM {TimeUS : 43435119, Roll : 0.0, Pitch : 0.0, Yaw : 359.99, Alt : 30.1000003815, Lat : 49.28357, Lng : -123.11502, Q1 : 1.0, Q2 : 0.0, Q3 : 0.0, Q4 : -8.98957807749e-07}
2019-04-14 17:46:25.51: SIM {TimeUS : 43535079, Roll : 0.0, Pitch : 0.0, Yaw : 359.99, Alt : 30.1000003815, Lat : 49.28357, Lng : -123.11502, Q1 : 1.0, Q2 : 0.0, Q3 : 0.0, Q4 : -1.13708040317e-06}
2019-04-14 17:46:25.61: SIM {TimeUS : 43635039, Roll : 0.0, Pitch : 0.0, Yaw : 359.99, Alt : 30.1000003815, Lat : 49.28357, Lng : -123.11502, Q1 : 1.0, Q2 : 0.0, Q3 : 0.0, Q4 : -1.33118703616e-06}
2019-04-14 17:46:25.71: SIM {TimeUS : 43734999, Roll : 0.0, Pitch : 0.0, Yaw : 359.99, Alt : 30.1200008392, Lat : 49.28357, Lng : -123.11502, Q1 : 1.0, Q2 : 0.0, Q3 : 0.0, Q4 : -1.51865594944e-06}
2019-04-14 17:46:25.81: SIM {TimeUS : 43834959, Roll : 0.0, Pitch : 0.0, Yaw : 359.99, Alt : 30.1399993896, Lat : 49.28357, Lng : -123.11502, Q1 : 1.0, Q2 : 0.0, Q3 : 0.0, Q4 : -1.75104548816e-06}
2019-04-14 17:46:25.91: SIM {TimeUS : 43934919, Roll : 0.0, Pitch : 0.0, Yaw : 359.99, Alt : 30.1800003052, Lat : 49.28357, Lng : -123.11502, Q1 : 1.0, Q2 : 0.0, Q3 : 0.0, Q4 : -1.97422446035e-06}
2019-04-14 17:46:26.01: SIM {TimeUS : 44034879, Roll : 0.0, Pitch : 0.0, Yaw : 359.99, Alt : 30.2099990845, Lat : 49.28357, Lng : -123.11502, Q1 : 1.0, Q2 : -8.27413714433e-06, Q3 : -7.33499518901e-06, Q4 : -2.24586756303e-06}
2019-04-14 17:46:26.11: SIM {TimeUS : 44134839, Roll : -0.19, Pitch : -0.17, Yaw : 359.99, Alt : 30.2700004578, Lat : 49.28357, Lng : -123.11502, Q1 : 0.999997437, Q2 : -0.00170202029403, Q3 : -0.00150149513502, Q4 : -1.46433767441e-05}
2019-04-14 17:46:26.21: SIM {TimeUS : 44234799, Roll : -0.53, Pitch : -0.45, Yaw : 359.99, Alt : 30.3899993896, Lat : 49.28357, Lng : -123.11502, Q1 : 0.999981343746, Q2 : -0.00465207919478, Q3 : -0.00396549375728, Q4 : -5.4422114772e-05}
2019-04-14 17:46:26.31: SIM {TimeUS : 44334759, Roll : -0.8, Pitch : -0.67, Yaw : 359.99, Alt : 30.5400009155, Lat : 49.28357, Lng : -123.11502, Q1 : 0.999957978725, Q2 : -0.00700032152236, Q3 : -0.00591397564858, Q4 : -0.000122593482956}
2019-04-14 17:46:26.41: SIM {TimeUS : 44434719, Roll : -0.88, Pitch : -0.77, Yaw : 359.98, Alt : 30.7000007629, Lat : 49.28357, Lng : -123.11502, Q1 : 0.99994713068, Q2 : -0.00772770866752, Q3 : -0.00677719060332, Q4 : -0.000207930002944}
2019-04-14 17:46:26.51: SIM {TimeUS : 44534679, Roll : -0.8, Pitch : -0.72, Yaw : 359.97, Alt : 30.8500003815, Lat : 49.28357, Lng : -123.1150201, Q1 : 0.999955296516, Q2 : -0.00700448825955, Q3 : -0.00634666485712, Q4 : -0.00030160145252}
2019-04-14 17:46:26.61: SIM {TimeUS : 44634639, Roll : -0.62, Pitch : -0.56, Yaw : 359.95, Alt : 31.0100002289, Lat : 49.28357, Lng : -123.1150201, Q1 : 0.999972641468, Q2 : -0.0054760267958, Q3 : -0.00495544774458, Q4 : -0.000387275445974}
2019-04-14 17:46:26.72: SIM {TimeUS : 44735432, Roll : -0.4, Pitch : -0.36, Yaw : 359.94, Alt : 31.1599998474, Lat : 49.2835701, Lng : -123.1150202, Q1 : 0.999988734722, Q2 : -0.00351361278445, Q3 : -0.00315735535696, Q4 : -0.000457830290543}
2019-04-14 17:46:26.81: SIM {TimeUS : 44835392, Roll : -0.18, Pitch : -0.17, Yaw : 359.94, Alt : 31.3199996948, Lat : 49.2835701, Lng : -123.1150203, Q1 : 0.999997377396, Q2 : -0.00165004411247, Q3 : -0.00149555457756, Q4 : -0.000509662379045}
2019-04-14 17:46:26.91: SIM {TimeUS : 44935352, Roll : -0.02, Pitch : -0.03, Yaw : 359.93, Alt : 31.4899997711, Lat : 49.2835702, Lng : -123.1150204, Q1 : 0.999999761581, Q2 : -0.000259858585196, Q3 : -0.000281866057776, Q4 : -0.000542294466868}
2019-04-14 17:46:27.01: SIM {TimeUS : 45035312, Roll : 0.06, Pitch : 0.03, Yaw : 359.93, Alt : 31.6700000763, Lat : 49.2835702, Lng : -123.1150204, Q1 : 0.999999642372, Q2 : 0.000573176657781, Q3 : 0.000307789130602, Q4 : -0.000553085061256}
2019-04-14 17:46:27.11: SIM {TimeUS : 45135272, Roll : 0.1, Pitch : 0.05, Yaw : 359.93, Alt : 31.8500003815, Lat : 49.2835703, Lng : -123.1150205, Q1 : 0.999999344349, Q2 : 0.000890221912414, Q3 : 0.000482259638375, Q4 : -0.000540894689038}
2019-04-14 17:46:27.21: SIM {TimeUS : 45235232, Roll : 0.09, Pitch : 0.05, Yaw : 359.94, Alt : 32.0299987793, Lat : 49.2835703, Lng : -123.1150206, Q1 : 0.999999463558, Q2 : 0.000785828626249, Q3 : 0.000484413147205, Q4 : -0.000521278299857}
2019-04-14 17:46:27.31: SIM {TimeUS : 45335192, Roll : 0.07, Pitch : 0.05, Yaw : 359.94, Alt : 32.2200012207, Lat : 49.2835703, Lng : -123.1150206, Q1 : 0.999999523163, Q2 : 0.000622943392955, Q3 : 0.000520974572282, Q4 : -0.00049921910977}
2019-04-14 17:46:27.41: SIM {TimeUS : 45435152, Roll : 0.05, Pitch : 0.07, Yaw : 359.94, Alt : 32.4099998474, Lat : 49.2835703, Lng : -123.1150207, Q1 : 0.999999582767, Q2 : 0.000462821772089, Q3 : 0.000663879152853, Q4 : -0.000476489192806}
2019-04-14 17:46:27.51: SIM {TimeUS : 45535112, Roll : 0.06, Pitch : 0.1, Yaw : 359.94, Alt : 32.5999984741, Lat : 49.2835703, Lng : -123.1150207, Q1 : 0.999999284744, Q2 : 0.00059287546901, Q3 : 0.000944136700127, Q4 : -0.000457917893073}
2019-04-14 17:46:27.61: SIM {TimeUS : 45635072, Roll : 0.1, Pitch : 0.13, Yaw : 359.94, Alt : 32.7999992371, Lat : 49.2835703, Lng : -123.1150208, Q1 : 0.999998748302, Q2 : 0.000921746715903, Q3 : 0.00121341878548, Q4 : -0.000445999583462}
2019-04-14 17:46:27.71: SIM {TimeUS : 45735032, Roll : 0.13, Pitch : 0.16, Yaw : 359.94, Alt : 33.0, Lat : 49.2835704, Lng : -123.1150208, Q1 : 0.999998152256, Q2 : 0.00121246755589, Q3 : 0.00141546654049, Q4 : -0.000441001844592}
2019-04-14 17:46:27.81: SIM {TimeUS : 45834992, Roll : 0.15, Pitch : 0.18, Yaw : 359.94, Alt : 33.2000007629, Lat : 49.2835704, Lng : -123.1150208, Q1 : 0.999997675419, Q2 : 0.00138821848668, Q3 : 0.001593377674, Q4 : -0.000439779221779}
2019-04-14 17:46:27.91: SIM {TimeUS : 45934952, Roll : 0.16, Pitch : 0.17, Yaw : 359.94, Alt : 33.4000015259, Lat : 49.2835704, Lng : -123.1150208, Q1 : 0.999997675419, Q2 : 0.00147813512012, Q3 : 0.0015226432588, Q4 : -0.000439872907009}
2019-04-14 17:46:28.01: SIM {TimeUS : 46034912, Roll : 0.16, Pitch : 0.13, Yaw : 359.94, Alt : 33.6100006104, Lat : 49.2835704, Lng : -123.1150209, Q1 : 0.999998152256, Q2 : 0.00146351149306, Q3 : 0.0011865805136, Q4 : -0.000455744506326}
2019-04-14 17:46:28.11: SIM {TimeUS : 46134872, Roll : 0.16, Pitch : 0.11, Yaw : 359.94, Alt : 33.8199996948, Lat : 49.2835704, Lng : -123.1150209, Q1 : 0.999998450279, Q2 : 0.00140169914812, Q3 : 0.000970177643467, Q4 : -0.000474801490782}
2019-04-14 17:46:28.21: SIM {TimeUS : 46234832, Roll : 0.15, Pitch : 0.1, Yaw : 359.94, Alt : 34.0200004578, Lat : 49.2835704, Lng : -123.1150209, Q1 : 0.999998509884, Q2 : 0.00134240812622, Q3 : 0.000929548288696, Q4 : -0.000502613605931}
2019-04-14 17:46:28.31: SIM {TimeUS : 46334792, Roll : 0.15, Pitch : 0.11, Yaw : 359.93, Alt : 34.2299995422, Lat : 49.2835704, Lng : -123.1150209, Q1 : 0.999998450279, Q2 : 0.00133282272145, Q3 : 0.000996092217974, Q4 : -0.000531665689778}
2019-04-14 17:46:28.41: SIM {TimeUS : 46434752, Roll : 0.14, Pitch : 0.1, Yaw : 359.93, Alt : 34.4500007629, Lat : 49.2835704, Lng : -123.1150209, Q1 : 0.999998629093, Q2 : 0.0012553561246, Q3 : 0.00090138084488, Q4 : -0.000554710219149}
2019-04-14 17:46:28.51: SIM {TimeUS : 46534712, Roll : 0.12, Pitch : 0.08, Yaw : 359.93, Alt : 34.6599998474, Lat : 49.2835704, Lng : -123.1150209, Q1 : 0.999998986721, Q2 : 0.00106474768836, Q3 : 0.000745811907109, Q4 : -0.000575464975554}
2019-04-14 17:46:28.61: SIM {TimeUS : 46634672, Roll : 0.09, Pitch : 0.07, Yaw : 359.93, Alt : 34.8800010681, Lat : 49.2835704, Lng : -123.1150208, Q1 : 0.999999284744, Q2 : 0.000850154901855, Q3 : 0.0006478036521, Q4 : -0.000596527359448}
2019-04-14 17:46:28.71: SIM {TimeUS : 46734632, Roll : 0.07, Pitch : 0.06, Yaw : 359.92, Alt : 35.0900001526, Lat : 49.2835704, Lng : -123.1150208, Q1 : 0.999999463558, Q2 : 0.00063085090369, Q3 : 0.000565944297705, Q4 : -0.000620160833932}
2019-04-14 17:46:28.82: SIM {TimeUS : 46835425, Roll : 0.05, Pitch : 0.03, Yaw : 359.92, Alt : 35.3100013733, Lat : 49.2835704, Lng : -123.1150208, Q1 : 0.999999642372, Q2 : 0.000514566490892, Q3 : 0.00026247522328, Q4 : -0.000641211750917}
2019-04-14 17:46:28.91: SIM {TimeUS : 46935385, Roll : 0.04, Pitch : 0.0, Yaw : 359.92, Alt : 35.5299987793, Lat : 49.2835704, Lng : -123.1150208, Q1 : 0.999999701977, Q2 : 0.00043219293002, Q3 : 3.35659060511e-05, Q4 : -0.000662938982714}
2019-04-14 17:46:29.01: SIM {TimeUS : 47035345, Roll : 0.02, Pitch : 0.0, Yaw : 359.92, Alt : 35.75, Lat : 49.2835704, Lng : -123.1150208, Q1 : 0.999999761581, Q2 : 0.000232859441894, Q3 : -4.89443991682e-05, Q4 : -0.000688920088578}
2019-04-14 17:46:29.11: SIM {TimeUS : 47135305, Roll : 0.01, Pitch : 0.0, Yaw : 359.91, Alt : 35.9700012207, Lat : 49.2835704, Lng : -123.1150208, Q1 : 0.999999761581, Q2 : 0.000166422090842, Q3 : -3.70757406927e-05, Q4 : -0.00070778693771}
2019-04-14 17:46:29.21: SIM {TimeUS : 47235265, Roll : 0.02, Pitch : 0.0, Yaw : 359.91, Alt : 36.1899986267, Lat : 49.2835704, Lng : -123.1150207, Q1 : 0.999999701977, Q2 : 0.000193516403669, Q3 : -2.79754131043e-05, Q4 : -0.000726553495042}
2019-04-14 17:46:29.31: SIM {TimeUS : 47335225, Roll : 0.0, Pitch : -0.02, Yaw : 359.91, Alt : 36.4099998474, Lat : 49.2835704, Lng : -123.1150207, Q1 : 0.999999701977, Q2 : 4.47671191068e-05, Q3 : -0.000174612912815, Q4 : -0.000743169221096}
2019-04-14 17:46:29.41: SIM {TimeUS : 47435185, Roll : -0.03, Pitch : -0.05, Yaw : 359.91, Alt : 36.6300010681, Lat : 49.2835704, Lng : -123.1150207, Q1 : 0.999999523163, Q2 : -0.000283337489236, Q3 : -0.00049525371287, Q4 : -0.00076615542639}
2019-04-14 17:46:29.51: SIM {TimeUS : 47535145, Roll : -0.07, Pitch : -0.08, Yaw : 359.9, Alt : 36.8499984741, Lat : 49.2835704, Lng : -123.1150207, Q1 : 0.99999922514, Q2 : -0.000663494865876, Q3 : -0.000726270314772, Q4 : -0.0007967298734}
2019-04-14 17:46:29.61: SIM {TimeUS : 47635105, Roll : -0.11, Pitch : -0.1, Yaw : 359.9, Alt : 37.0800018311, Lat : 49.2835704, Lng : -123.1150207, Q1 : 0.999998748302, Q2 : -0.00102177343797, Q3 : -0.00091462576529, Q4 : -0.000827645708341}
2019-04-14 17:46:29.71: SIM {TimeUS : 47735065, Roll : -0.13, Pitch : -0.11, Yaw : 359.9, Alt : 37.2999992371, Lat : 49.2835704, Lng : -123.1150207, Q1 : 0.999998509884, Q2 : -0.00113703415263, Q3 : -0.000960796431173, Q4 : -0.000862119661178}
2019-04-14 17:46:29.81: SIM {TimeUS : 47835025, Roll : -0.12, Pitch : -0.09, Yaw : 359.89, Alt : 37.5299987793, Lat : 49.2835704, Lng : -123.1150207, Q1 : 0.999998688698, Q2 : -0.00106769520789, Q3 : -0.000844599213451, Q4 : -0.00089680752717}
2019-04-14 17:46:29.91: SIM {TimeUS : 47934985, Roll : -0.1, Pitch : -0.06, Yaw : 359.89, Alt : 37.75, Lat : 49.2835704, Lng : -123.1150206, Q1 : 0.999999046326, Q2 : -0.000881434476469, Q3 : -0.00055404601153, Q4 : -0.000927363580558}
2019-04-14 17:46:30.01: SIM {TimeUS : 48034945, Roll : -0.07, Pitch : -0.03, Yaw : 359.89, Alt : 37.9799995422, Lat : 49.2835704, Lng : -123.1150206, Q1 : 0.999999284744, Q2 : -0.000691611901857, Q3 : -0.000316301418934, Q4 : -0.000957908632699}
2019-04-14 17:46:30.11: SIM {TimeUS : 48134905, Roll : -0.07, Pitch : -0.03, Yaw : 359.88, Alt : 38.2099990845, Lat : 49.2835704, Lng : -123.1150206, Q1 : 0.999999284744, Q2 : -0.000649721827358, Q3 : -0.00028006566572, Q4 : -0.000986621598713}
2019-04-14 17:46:30.21: SIM {TimeUS : 48234865, Roll : -0.07, Pitch : -0.02, Yaw : 359.88, Alt : 38.4399986267, Lat : 49.2835706, Lng : -123.1150206, Q1 : 0.99999922514, Q2 : -0.000679749820847, Q3 : -0.000173967491719, Q4 : -0.00100522907451}
2019-04-14 17:46:30.31: SIM {TimeUS : 48334825, Roll : -0.09, Pitch : 0.0, Yaw : 359.88, Alt : 38.6699981689, Lat : 49.2835706, Lng : -123.1150206, Q1 : 0.999999165535, Q2 : -0.000833488651551, Q3 : -4.57288297184e-05, Q4 : -0.00101884326432}
2019-04-14 17:46:30.41: SIM {TimeUS : 48434785, Roll : -0.09, Pitch : 0.0, Yaw : 359.88, Alt : 38.8899993896, Lat : 49.2835706, Lng : -123.1150206, Q1 : 0.99999910593, Q2 : -0.000830315926578, Q3 : 6.58426870359e-05, Q4 : -0.00102500442881}
2019-04-14 17:46:30.51: SIM {TimeUS : 48534745, Roll : -0.07, Pitch : 0.03, Yaw : 359.88, Alt : 39.1199989319, Lat : 49.2835706, Lng : -123.1150206, Q1 : 0.99999922514, Q2 : -0.000658873759676, Q3 : 0.000280544772977, Q4 : -0.00102908897679}
2019-04-14 17:46:30.61: SIM {TimeUS : 48634705, Roll : -0.05, Pitch : 0.03, Yaw : 359.88, Alt : 39.3499984741, Lat : 49.2835706, Lng : -123.1150207, Q1 : 0.999999284744, Q2 : -0.000469386170153, Q3 : 0.000325655913912, Q4 : -0.00102840038016}
2019-04-14 17:46:30.71: SIM {TimeUS : 48734665, Roll : -0.02, Pitch : 0.04, Yaw : 359.88, Alt : 39.5800018311, Lat : 49.2835706, Lng : -123.1150207, Q1 : 0.999999403954, Q2 : -0.000219732159167, Q3 : 0.000355396245141, Q4 : -0.00103071809281}
2019-04-14 17:46:30.81: SIM {TimeUS : 48834625, Roll : 0.01, Pitch : 0.07, Yaw : 359.88, Alt : 39.8100013733, Lat : 49.2835706, Lng : -123.1150207, Q1 : 0.999999284744, Q2 : 0.000110662433144, Q3 : 0.000628525798675, Q4 : -0.00103130703792}
2019-04-14 17:46:30.92: SIM {TimeUS : 48935418, Roll : 0.05, Pitch : 0.11, Yaw : 359.88, Alt : 40.0499992371, Lat : 49.2835706, Lng : -123.1150207, Q1 : 0.999998807907, Q2 : 0.000487619370688, Q3 : 0.00103913119528, Q4 : -0.00104001793079}
2019-04-14 17:46:31.01: SIM {TimeUS : 49035378, Roll : 0.08, Pitch : 0.15, Yaw : 359.87, Alt : 40.2799987793, Lat : 49.2835706, Lng : -123.1150207, Q1 : 0.999998211861, Q2 : 0.000741150055546, Q3 : 0.00139080965891, Q4 : -0.00105787976645}
2019-04-14 17:46:31.11: SIM {TimeUS : 49135338, Roll : 0.07, Pitch : 0.19, Yaw : 359.87, Alt : 40.5099983215, Lat : 49.2835706, Lng : -123.1150207, Q1 : 0.999997794628, Q2 : 0.000678553944454, Q3 : 0.00166863575578, Q4 : -0.00106766610406}
2019-04-14 17:46:31.21: SIM {TimeUS : 49235298, Roll : 0.03, Pitch : 0.2, Yaw : 359.87, Alt : 40.7400016785, Lat : 49.2835706, Lng : -123.1150207, Q1 : 0.999997735023, Q2 : 0.000299018778605, Q3 : 0.0018188880058, Q4 : -0.00108797405846}
2019-04-14 17:46:31.31: SIM {TimeUS : 49335258, Roll : 0.0, Pitch : 0.2, Yaw : 359.87, Alt : 40.9799995422, Lat : 49.2835706, Lng : -123.1150207, Q1 : 0.999997735023, Q2 : -8.1094338384e-05, Q3 : 0.00182187091559, Q4 : -0.00110720749944}
2019-04-14 17:46:31.41: SIM {TimeUS : 49435218, Roll : -0.02, Pitch : 0.17, Yaw : 359.87, Alt : 41.2099990845, Lat : 49.2835706, Lng : -123.1150207, Q1 : 0.999998211861, Q2 : -0.000258347688941, Q3 : 0.00150991219562, Q4 : -0.00112477573566}
2019-04-14 17:46:31.51: SIM {TimeUS : 49535178, Roll : -0.03, Pitch : 0.12, Yaw : 359.86, Alt : 41.4399986267, Lat : 49.2835706, Lng : -123.1150207, Q1 : 0.999998688698, Q2 : -0.000285072223051, Q3 : 0.00111683143768, Q4 : -0.00114604143891}
2019-04-14 17:46:31.61: SIM {TimeUS : 49635138, Roll : -0.02, Pitch : 0.11, Yaw : 359.86, Alt : 41.6800003052, Lat : 49.2835706, Lng : -123.1150207, Q1 : 0.999998807907, Q2 : -0.0001955627813, Q3 : 0.000993618974462, Q4 : -0.00117812398821}
2019-04-14 17:46:31.71: SIM {TimeUS : 49735098, Roll : 0.01, Pitch : 0.12, Yaw : 359.86, Alt : 41.9099998474, Lat : 49.2835706, Lng : -123.1150207, Q1 : 0.999998688698, Q2 : 0.000117186289572, Q3 : 0.00106141669676, Q4 : -0.00121951568872}
2019-04-14 17:46:31.81: SIM {TimeUS : 49835058, Roll : 0.06, Pitch : 0.12, Yaw : 359.85, Alt : 42.1399993896, Lat : 49.2835706, Lng : -123.1150207, Q1 : 0.999998390675, Q2 : 0.000581494299695, Q3 : 0.0011191185331, Q4 : -0.00125875801314}
2019-04-14 17:46:31.91: SIM {TimeUS : 49935018, Roll : 0.1, Pitch : 0.11, Yaw : 359.85, Alt : 42.3800010681, Lat : 49.2835706, Lng : -123.1150207, Q1 : 0.999998211861, Q2 : 0.000936075637583, Q3 : 0.000983456033282, Q4 : -0.00130283623002}
2019-04-14 17:46:32.01: SIM {TimeUS : 50034978, Roll : 0.11, Pitch : 0.09, Yaw : 359.84, Alt : 42.6100006104, Lat : 49.2835706, Lng : -123.1150207, Q1 : 0.99999833107, Q2 : 0.00096567813307, Q3 : 0.000796672597062, Q4 : -0.00134794064797}
2019-04-14 17:46:32.11: SIM {TimeUS : 50134938, Roll : 0.07, Pitch : 0.07, Yaw : 359.84, Alt : 42.8499984741, Lat : 49.2835706, Lng : -123.1150207, Q1 : 0.999998629093, Q2 : 0.000615719414782, Q3 : 0.000668638618663, Q4 : -0.0013729443308}
2019-04-14 17:46:32.21: SIM {TimeUS : 50234898, Roll : 0.0, Pitch : 0.06, Yaw : 359.84, Alt : 43.0800018311, Lat : 49.2835706, Lng : -123.1150207, Q1 : 0.999998867512, Q2 : 8.69923533173e-05, Q3 : 0.000599492748734, Q4 : -0.00138836191036}
2019-04-14 17:46:32.31: SIM {TimeUS : 50334858, Roll : -0.03, Pitch : 0.07, Yaw : 359.83, Alt : 43.3199996948, Lat : 49.2835704, Lng : -123.1150207, Q1 : 0.999998748302, Q2 : -0.000272265606327, Q3 : 0.00066578789847, Q4 : -0.00140474329237}
2019-04-14 17:46:32.41: SIM {TimeUS : 50434818, Roll : -0.05, Pitch : 0.07, Yaw : 359.83, Alt : 43.5499992371, Lat : 49.2835704, Lng : -123.1150207, Q1 : 0.999998688698, Q2 : -0.000436640810221, Q3 : 0.000665515719447, Q4 : -0.00142022664659}
2019-04-14 17:46:32.51: SIM {TimeUS : 50534778, Roll : -0.04, Pitch : 0.06, Yaw : 359.83, Alt : 43.7900009155, Lat : 49.2835704, Lng : -123.1150207, Q1 : 0.999998748302, Q2 : -0.000388636748539, Q3 : 0.0005327227409, Q4 : -0.00143167667557}
2019-04-14 17:46:32.61: SIM {TimeUS : 50634738, Roll : -0.04, Pitch : 0.04, Yaw : 359.83, Alt : 44.0200004578, Lat : 49.2835704, Lng : -123.1150207, Q1 : 0.999998807907, Q2 : -0.00039293221198, Q3 : 0.000358389486792, Q4 : -0.0014476084616}
2019-04-14 17:46:32.71: SIM {TimeUS : 50734698, Roll : -0.03, Pitch : 0.02, Yaw : 359.83, Alt : 44.2599983215, Lat : 49.2835704, Lng : -123.1150207, Q1 : 0.999998867512, Q2 : -0.000341762584867, Q3 : 0.000194866981474, Q4 : -0.00146737811156}
2019-04-14 17:46:32.81: SIM {TimeUS : 50834658, Roll : -0.02, Pitch : 0.02, Yaw : 359.82, Alt : 44.5, Lat : 49.2835704, Lng : -123.1150207, Q1 : 0.999998867512, Q2 : -0.00020729683456, Q3 : 0.000180340750376, Q4 : -0.0014970570337}
2019-04-14 17:46:32.91: SIM {TimeUS : 50934618, Roll : -0.01, Pitch : 0.02, Yaw : 359.82, Alt : 44.7299995422, Lat : 49.2835704, Lng : -123.1150206, Q1 : 0.999998807907, Q2 : -0.000140569522046, Q3 : 0.000208920493606, Q4 : -0.00152568682097}
2019-04-14 17:46:33.01: SIM {TimeUS : 51035411, Roll : -0.02, Pitch : 0.01, Yaw : 359.82, Alt : 44.9700012207, Lat : 49.2835704, Lng : -123.1150206, Q1 : 0.999998748302, Q2 : -0.000197379747988, Q3 : 0.00012751336908, Q4 : -0.00155902502593}
2019-04-14 17:46:33.11: SIM {TimeUS : 51135371, Roll : -0.02, Pitch : -0.01, Yaw : 359.81, Alt : 45.2099990845, Lat : 49.2835703, Lng : -123.1150206, Q1 : 0.999998688698, Q2 : -0.000255383638432, Q3 : -0.000129169333377, Q4 : -0.00158970593475}
2019-04-14 17:46:33.21: SIM {TimeUS : 51235331, Roll : -0.03, Pitch : -0.03, Yaw : 359.81, Alt : 45.4399986267, Lat : 49.2835703, Lng : -123.1150206, Q1 : 0.999998569489, Q2 : -0.000283449946437, Q3 : -0.000314843753586, Q4 : -0.00162280024961}
2019-04-14 17:46:33.31: SIM {TimeUS : 51335291, Roll : -0.02, Pitch : -0.05, Yaw : 359.81, Alt : 45.6800003052, Lat : 49.2835703, Lng : -123.1150206, Q1 : 0.999998509884, Q2 : -0.000229425160796, Q3 : -0.000449293554993, Q4 : -0.00165574310813}
2019-04-14 17:46:33.41: SIM {TimeUS : 51435251, Roll : -0.02, Pitch : -0.05, Yaw : 359.8, Alt : 45.9099998474, Lat : 49.2835703, Lng : -123.1150206, Q1 : 0.999998450279, Q2 : -0.000233202139498, Q3 : -0.00049820431741, Q4 : -0.00168223050423}
2019-04-14 17:46:33.51: SIM {TimeUS : 51535211, Roll : -0.04, Pitch : -0.04, Yaw : 359.8, Alt : 46.1399993896, Lat : 49.2835703, Lng : -123.1150206, Q1 : 0.999998390675, Q2 : -0.000415031361626, Q3 : -0.000423082470661, Q4 : -0.00170901708771}
2019-04-14 17:46:33.61: SIM {TimeUS : 51635171, Roll : -0.08, Pitch : -0.03, Yaw : 359.8, Alt : 46.3699989319, Lat : 49.2835703, Lng : -123.1150206, Q1 : 0.999998152256, Q2 : -0.000734581437428, Q3 : -0.000347165041603, Q4 : -0.00173795409501}
2019-04-14 17:46:33.71: SIM {TimeUS : 51735131, Roll : -0.11, Pitch : -0.03, Yaw : 359.79, Alt : 46.5900001526, Lat : 49.2835703, Lng : -123.1150206, Q1 : 0.999997913837, Q2 : -0.000975308415946, Q3 : -0.000295185571304, Q4 : -0.00176694744732}
2019-04-14 17:46:33.81: SIM {TimeUS : 51835091, Roll : -0.12, Pitch : -0.02, Yaw : 359.79, Alt : 46.7999992371, Lat : 49.2835703, Lng : -123.1150206, Q1 : 0.999997794628, Q2 : -0.00104964547791, Q3 : -0.00018902910233, Q4 : -0.0017955978401}
2019-04-14 17:46:33.91: SIM {TimeUS : 51935051, Roll : -0.1, Pitch : 0.0, Yaw : 359.79, Alt : 47.0200004578, Lat : 49.2835703, Lng : -123.1150206, Q1 : 0.999997854233, Q2 : -0.000955232942943, Q3 : -9.94788842945e-06, Q4 : -0.00182417687029}
2019-04-14 17:46:34.01: SIM {TimeUS : 52035011, Roll : -0.08, Pitch : 0.0, Yaw : 359.78, Alt : 47.2200012207, Lat : 49.2835703, Lng : -123.1150206, Q1 : 0.999998033047, Q2 : -0.000741471361835, Q3 : 8.23034206405e-05, Q4 : -0.00185446627438}
2019-04-14 17:46:34.11: SIM {TimeUS : 52134971, Roll : -0.06, Pitch : 0.0, Yaw : 359.78, Alt : 47.4099998474, Lat : 49.2835703, Lng : -123.1150206, Q1 : 0.999998092651, Q2 : -0.000535032246262, Q3 : 4.51207451988e-05, Q4 : -0.00188613205682}
2019-04-14 17:46:34.21: SIM {TimeUS : 52234931, Roll : -0.04, Pitch : -0.01, Yaw : 359.78, Alt : 47.5999984741, Lat : 49.2835703, Lng : -123.1150206, Q1 : 0.999998033047, Q2 : -0.000417465111241, Q3 : -0.000128729632706, Q4 : -0.00191671517678}
2019-04-14 17:46:34.31: SIM {TimeUS : 52334891, Roll : -0.05, Pitch : -0.05, Yaw : 359.77, Alt : 47.7700004578, Lat : 49.2835703, Lng : -123.1150206, Q1 : 0.999997913837, Q2 : -0.0004429621913, Q3 : -0.000452533422504, Q4 : -0.00194620864931}
2019-04-14 17:46:34.41: SIM {TimeUS : 52434851, Roll : -0.04, Pitch : -0.08, Yaw : 359.77, Alt : 47.9399986267, Lat : 49.2835703, Lng : -123.1150206, Q1 : 0.999997735023, Q2 : -0.000369402812794, Q3 : -0.000722315046005, Q4 : -0.00197547534481}
2019-04-14 17:46:34.51: SIM {TimeUS : 52534811, Roll : -0.03, Pitch : -0.1, Yaw : 359.77, Alt : 48.0900001526, Lat : 49.2835703, Lng : -123.1150206, Q1 : 0.999997496605, Q2 : -0.000308037502691, Q3 : -0.00092677451903, Q4 : -0.00200233934447}
2019-04-14 17:46:34.61: SIM {TimeUS : 52634771, Roll : -0.03, Pitch : -0.12, Yaw : 359.76, Alt : 48.2299995422, Lat : 49.2835703, Lng : -123.1150206, Q1 : 0.999997317791, Q2 : -0.000309314986225, Q3 : -0.00105159287341, Q4 : -0.00202379305847}
2019-04-14 17:46:34.71: SIM {TimeUS : 52734731, Roll : 0.0, Pitch : -0.11, Yaw : 359.76, Alt : 48.3600006104, Lat : 49.2835703, Lng : -123.1150206, Q1 : 0.999997437, Q2 : -6.7298860813e-05, Q3 : -0.000986845931038, Q4 : -0.00204314733855}
2019-04-14 17:46:34.81: SIM {TimeUS : 52834691, Roll : 0.03, Pitch : -0.09, Yaw : 359.76, Alt : 48.4799995422, Lat : 49.2835703, Lng : -123.1150207, Q1 : 0.999997496605, Q2 : 0.000270284130238, Q3 : -0.000800739508122, Q4 : -0.00206226762384}
2019-04-14 17:46:34.91: SIM {TimeUS : 52934651, Roll : 0.05, Pitch : -0.06, Yaw : 359.76, Alt : 48.5800018311, Lat : 49.2835703, Lng : -123.1150207, Q1 : 0.99999755621, Q2 : 0.000506382028107, Q3 : -0.000548836716916, Q4 : -0.00208224961534}
2019-04-14 17:46:35.02: SIM {TimeUS : 53035444, Roll : 0.06, Pitch : -0.03, Yaw : 359.75, Alt : 48.6699981689, Lat : 49.2835703, Lng : -123.1150207, Q1 : 0.99999755621, Q2 : 0.000556093931664, Q3 : -0.000327535759425, Q4 : -0.00210224231705}
2019-04-14 17:46:35.11: SIM {TimeUS : 53135404, Roll : 0.06, Pitch : -0.03, Yaw : 359.75, Alt : 48.75, Lat : 49.2835703, Lng : -123.1150207, Q1 : 0.99999755621, Q2 : 0.000596593599766, Q3 : -0.000264086236712, Q4 : -0.00212402828038}
2019-04-14 17:46:35.21: SIM {TimeUS : 53235364, Roll : 0.05, Pitch : -0.04, Yaw : 359.75, Alt : 48.8199996948, Lat : 49.2835703, Lng : -123.1150207, Q1 : 0.999997496605, Q2 : 0.000512112979777, Q3 : -0.000380999030313, Q4 : -0.00214747129939}
2019-04-14 17:46:35.31: SIM {TimeUS : 53335324, Roll : 0.08, Pitch : -0.09, Yaw : 359.75, Alt : 48.8800010681, Lat : 49.2835703, Lng : -123.1150207, Q1 : 0.999997019768, Q2 : 0.000755879154895, Q3 : -0.000848289113492, Q4 : -0.00216782279313}
2019-04-14 17:46:35.41: SIM {TimeUS : 53435284, Roll : 0.26, Pitch : -0.27, Yaw : 359.74, Alt : 48.9399986267, Lat : 49.2835704, Lng : -123.1150207, Q1 : 0.999992072582, Q2 : 0.00233368272893, Q3 : -0.00237230001949, Q4 : -0.00218336330727}
2019-04-14 17:46:35.51: SIM {TimeUS : 53535244, Roll : 0.65, Pitch : -0.62, Yaw : 359.74, Alt : 48.9799995422, Lat : 49.2835704, Lng : -123.1150207, Q1 : 0.99996638298, Q2 : 0.00569158466533, Q3 : -0.00547324633226, Q4 : -0.00219333893619}
2019-04-14 17:46:35.61: SIM {TimeUS : 53635204, Roll : 1.23, Pitch : -1.14, Yaw : 359.73, Alt : 49.0200004578, Lat : 49.2835704, Lng : -123.1150207, Q1 : 0.999889492989, Q2 : 0.0107704261318, Q3 : -0.0100103989244, Q4 : -0.00219211075455}
2019-04-14 17:46:35.71: SIM {TimeUS : 53735164, Roll : 1.97, Pitch : -1.78, Yaw : 359.72, Alt : 49.0499992371, Lat : 49.2835704, Lng : -123.1150206, Q1 : 0.999727725983, Q2 : 0.0172248482704, Q3 : -0.0155904255807, Q4 : -0.00216347398236}
2019-04-14 17:46:35.81: SIM {TimeUS : 53835124, Roll : 2.77, Pitch : -2.47, Yaw : 359.7, Alt : 49.0800018311, Lat : 49.2835706, Lng : -123.1150205, Q1 : 0.99947142601, Q2 : 0.0241435077041, Q3 : -0.0216698944569, Q4 : -0.00209343503229}
2019-04-14 17:46:35.91: SIM {TimeUS : 53935084, Roll : 3.48, Pitch : -3.13, Yaw : 359.67, Alt : 49.0999984741, Lat : 49.2835707, Lng : -123.1150204, Q1 : 0.99916189909, Q2 : 0.0303061529994, Q3 : -0.0274442564696, Q4 : -0.00196488015354}
2019-04-14 17:46:36.01: SIM {TimeUS : 54035044, Roll : 4.02, Pitch : -3.66, Yaw : 359.66, Alt : 49.1300010681, Lat : 49.2835708, Lng : -123.1150202, Q1 : 0.998872876167, Q2 : 0.0349664203823, Q3 : -0.0320489741862, Q4 : -0.00177549116779}
2019-04-14 17:46:36.11: SIM {TimeUS : 54135004, Roll : 4.38, Pitch : -4.06, Yaw : 359.66, Alt : 49.1399993896, Lat : 49.2835709, Lng : -123.11502, Q1 : 0.99863666296, Q2 : 0.0381712578237, Q3 : -0.0355719327927, Q4 : -0.00154130882584}
2019-04-14 17:46:36.21: SIM {TimeUS : 54234964, Roll : 4.66, Pitch : -4.37, Yaw : 359.67, Alt : 49.1599998474, Lat : 49.2835712, Lng : -123.1150197, Q1 : 0.998444616795, Q2 : 0.0405560843647, Q3 : -0.0382357463241, Q4 : -0.00126924738288}
2019-04-14 17:46:36.31: SIM {TimeUS : 54334924, Roll : 4.91, Pitch : -4.61, Yaw : 359.69, Alt : 49.1699981689, Lat : 49.2835715, Lng : -123.1150192, Q1 : 0.998270690441, Q2 : 0.0427481681108, Q3 : -0.0403397157788, Q4 : -0.000963226717431}
2019-04-14 17:46:36.41: SIM {TimeUS : 54434884, Roll : 5.17, Pitch : -4.85, Yaw : 359.7, Alt : 49.1800003052, Lat : 49.2835718, Lng : -123.1150187, Q1 : 0.998085916042, Q2 : 0.0450018718839, Q3 : -0.0424141995609, Q4 : -0.000655886658933}
2019-04-14 17:46:36.51: SIM {TimeUS : 54534844, Roll : 5.45, Pitch : -5.1, Yaw : 359.71, Alt : 49.1899986267, Lat : 49.2835721, Lng : -123.1150181, Q1 : 0.997879385948, Q2 : 0.0474458001554, Q3 : -0.0445594452322, Q4 : -0.000358938472345}
2019-04-14 17:46:36.61: SIM {TimeUS : 54634804, Roll : 5.7, Pitch : -5.33, Yaw : 359.72, Alt : 49.2000007629, Lat : 49.2835726, Lng : -123.1150174, Q1 : 0.997682213783, Q2 : 0.049616701901, Q3 : -0.0465661771595, Q4 : -8.91715026228e-05}
2019-04-14 17:46:36.71: SIM {TimeUS : 54734764, Roll : 5.9, Pitch : -5.53, Yaw : 359.73, Alt : 49.2099990845, Lat : 49.2835731, Lng : -123.1150166, Q1 : 0.997512221336, Q2 : 0.0513063818216, Q3 : -0.0483427867293, Q4 : 0.000138211238664}
2019-04-14 17:46:36.81: SIM {TimeUS : 54834724, Roll : 6.05, Pitch : -5.7, Yaw : 359.73, Alt : 49.2200012207, Lat : 49.2835735, Lng : -123.1150157, Q1 : 0.997369468212, Q2 : 0.0526334419847, Q3 : -0.0498372837901, Q4 : 0.000317778496537}
2019-04-14 17:46:36.91: SIM {TimeUS : 54934684, Roll : 6.18, Pitch : -5.83, Yaw : 359.73, Alt : 49.2299995422, Lat : 49.2835741, Lng : -123.1150147, Q1 : 0.997254669666, Q2 : 0.0537431016564, Q3 : -0.0509377792478, Q4 : 0.000465913122753}
2019-04-14 17:46:37.01: SIM {TimeUS : 55034644, Roll : 6.27, Pitch : -5.91, Yaw : 359.74, Alt : 49.2299995422, Lat : 49.2835749, Lng : -123.1150137, Q1 : 0.997175216675, Q2 : 0.0545527786016, Q3 : -0.0516264587641, Q4 : 0.000588614784647}
2019-04-14 17:46:37.12: SIM {TimeUS : 55135437, Roll : 6.38, Pitch : -5.98, Yaw : 359.74, Alt : 49.2400016785, Lat : 49.2835755, Lng : -123.1150126, Q1 : 0.997090876102, Q2 : 0.0555018596351, Q3 : -0.0522389262915, Q4 : 0.000690793211106}
2019-04-14 17:46:37.21: SIM {TimeUS : 55235397, Roll : 6.65, Pitch : -5.98, Yaw : 359.86, Alt : 49.2400016785, Lat : 49.2835763, Lng : -123.1150114, Q1 : 0.996957480907, Q2 : 0.0578904300928, Q3 : -0.0521632023156, Q4 : 0.00186987931374}
2019-04-14 17:46:37.31: SIM {TimeUS : 55335357, Roll : 7.18, Pitch : -5.86, Yaw : 0.62, Alt : 49.25, Lat : 49.283577, Lng : -123.1150101, Q1 : 0.996699094772, Q2 : 0.0628334283829, Q3 : -0.0506743863225, Q4 : 0.00866504851729}
2019-04-14 17:46:37.41: SIM {TimeUS : 55435317, Roll : 7.79, Pitch : -5.84, Yaw : 2.69, Alt : 49.25, Lat : 49.2835777, Lng : -123.1150088, Q1 : 0.996032714844, Q2 : 0.0690743774176, Q3 : -0.0492338500917, Q4 : 0.0269004665315}
2019-04-14 17:46:37.51: SIM {TimeUS : 55535277, Roll : 8.18, Pitch : -6.21, Yaw : 6.35, Alt : 49.25, Lat : 49.2835787, Lng : -123.1150072, Q1 : 0.994237244129, Q2 : 0.0741484835744, Q3 : -0.0500461682677, Q4 : 0.0590738542378}
2019-04-14 17:46:37.61: SIM {TimeUS : 55635237, Roll : 8.11, Pitch : -7.05, Yaw : 11.51, Alt : 49.25, Lat : 49.2835795, Lng : -123.1150057, Q1 : 0.990142405033, Q2 : 0.0764228776097, Q3 : -0.0539475902915, Q4 : 0.104245729744}
2019-04-14 17:46:37.71: SIM {TimeUS : 55735197, Roll : 7.44, Pitch : -8.25, Yaw : 17.96, Alt : 49.2599983215, Lat : 49.2835804, Lng : -123.115004, Q1 : 0.982365608215, Q2 : 0.0752143859863, Q3 : -0.0608679279685, Q4 : 0.159986585379}
2019-04-14 17:46:37.81: SIM {TimeUS : 55835157, Roll : 6.13, Pitch : -9.64, Yaw : 25.42, Alt : 49.2599983215, Lat : 49.2835813, Lng : -123.1150022, Q1 : 0.969658315182, Q2 : 0.0704784169793, Q3 : -0.0701373070478, Q4 : 0.223330125213}
2019-04-14 17:46:37.91: SIM {TimeUS : 55935117, Roll : 4.09, Pitch : -10.97, Yaw : 33.6, Alt : 49.2599983215, Lat : 49.2835823, Lng : -123.1150003, Q1 : 0.951325893402, Q2 : 0.0616576224566, Q3 : -0.0811959505081, Q4 : 0.290834367275}
2019-04-14 17:46:38.01: SIM {TimeUS : 56035077, Roll : 1.24, Pitch : -12.0, Yaw : 41.9, Alt : 49.2599983215, Lat : 49.2835832, Lng : -123.1149983, Q1 : 0.928279340267, Q2 : 0.0474898889661, Q3 : -0.0938004925847, Q4 : 0.356712311506}
2019-04-14 17:46:38.11: SIM {TimeUS : 56135037, Roll : -1.97, Pitch : -12.57, Yaw : 49.46, Alt : 49.2700004578, Lat : 49.2835843, Lng : -123.1149962, Q1 : 0.903471112251, Q2 : 0.0302732493728, Q3 : -0.106596335769, Q4 : 0.414078086615}
2019-04-14 17:46:38.21: SIM {TimeUS : 56234997, Roll : -4.86, Pitch : -12.7, Yaw : 55.48, Alt : 49.2700004578, Lat : 49.2835855, Lng : -123.1149941, Q1 : 0.881003141403, Q2 : 0.0141171272844, Q3 : -0.117484107614, Q4 : 0.458073824644}
2019-04-14 17:46:38.31: SIM {TimeUS : 56334957, Roll : -6.9, Pitch : -12.6, Yaw : 59.54, Alt : 49.2700004578, Lat : 49.2835867, Lng : -123.1149919, Q1 : 0.864471197128, Q2 : 0.00242588901892, Q3 : -0.12485896796, Q4 : 0.486922949553}
2019-04-14 17:46:38.41: SIM {TimeUS : 56434917, Roll : -7.87, Pitch : -12.49, Yaw : 61.62, Alt : 49.2700004578, Lat : 49.283588, Lng : -123.1149896, Q1 : 0.855538785458, Q2 : -0.00299704843201, Q3 : -0.128207728267, Q4 : 0.501604557037}
2019-04-14 17:46:38.51: SIM {TimeUS : 56534877, Roll : -7.8, Pitch : -12.56, Yaw : 61.99, Alt : 49.2700004578, Lat : 49.2835895, Lng : -123.1149874, Q1 : 0.853891789913, Q2 : -0.00181044125929, Q3 : -0.128413662314, Q4 : 0.504356443882}
2019-04-14 17:46:38.61: SIM {TimeUS : 56634837, Roll : -6.94, Pitch : -12.87, Yaw : 61.0, Alt : 49.2700004578, Lat : 49.283591, Lng : -123.1149851, Q1 : 0.858064413071, Q2 : 0.00494420714676, Q3 : -0.127017855644, Q4 : 0.49756154418}
2019-04-14 17:46:38.71: SIM {TimeUS : 56734797, Roll : -5.53, Pitch : -13.43, Yaw : 58.99, Alt : 49.2700004578, Lat : 49.2835927, Lng : -123.1149828, Q1 : 0.866197228432, Q2 : 0.0157857183367, Q3 : -0.125267192721, Q4 : 0.483488738537}
2019-04-14 17:46:38.81: SIM {TimeUS : 56834757, Roll : -3.8, Pitch : -14.11, Yaw : 56.29, Alt : 49.2700004578, Lat : 49.2835944, Lng : -123.1149804, Q1 : 0.876503586769, Q2 : 0.0288680531085, Q3 : -0.12385687232, Q4 : 0.464292496443}
2019-04-14 17:46:38.91: SIM {TimeUS : 56934717, Roll : -1.98, Pitch : -14.79, Yaw : 53.22, Alt : 49.2700004578, Lat : 49.2835962, Lng : -123.114978, Q1 : 0.887500286102, Q2 : 0.0422674752772, Q3 : -0.12279882282, Q4 : 0.442127972841}
2019-04-14 17:46:39.01: SIM {TimeUS : 57034677, Roll : -0.23, Pitch : -15.32, Yaw : 50.09, Alt : 49.2799987793, Lat : 49.283598, Lng : -123.1149755, Q1 : 0.897991418839, Q2 : 0.0546011701226, Q3 : -0.121667779982, Q4 : 0.4193174541}
2019-04-14 17:46:39.11: SIM {TimeUS : 57134637, Roll : 1.29, Pitch : -15.64, Yaw : 47.23, Alt : 49.2799987793, Lat : 49.2835999, Lng : -123.1149728, Q1 : 0.90703445673, Q2 : 0.0647656023502, Q3 : -0.120252482593, Q4 : 0.398288011551}
2019-04-14 17:46:39.22: SIM {TimeUS : 57235430, Roll : 2.46, Pitch : -15.76, Yaw : 44.91, Alt : 49.2799987793, Lat : 49.2836018, Lng : -123.11497, Q1 : 0.914101600647, Q2 : 0.072066321969, Q3 : -0.1186131984, Q4 : 0.380992978811}
2019-04-14 17:46:39.31: SIM {TimeUS : 57335390, Roll : 3.19, Pitch : -15.75, Yaw : 43.32, Alt : 49.2799987793, Lat : 49.2836037, Lng : -123.1149671, Q1 : 0.918843388557, Q2 : 0.0761978775263, Q3 : -0.117103822529, Q4 : 0.369062870741}
2019-04-14 17:46:39.41: SIM {TimeUS : 57435350, Roll : 3.45, Pitch : -15.7, Yaw : 42.5, Alt : 49.2799987793, Lat : 49.2836056, Lng : -123.1149641, Q1 : 0.921333372593, Q2 : 0.0773370489478, Q3 : -0.116404041648, Q4 : 0.362786412239}
2019-04-14 17:46:39.51: SIM {TimeUS : 57535310, Roll : 3.3, Pitch : -15.67, Yaw : 42.41, Alt : 49.2799987793, Lat : 49.2836075, Lng : -123.1149609, Q1 : 0.921746969223, Q2 : 0.0759956538677, Q3 : -0.116763316095, Q4 : 0.36190277338}
2019-04-14 17:46:39.61: SIM {TimeUS : 57635270, Roll : 2.81, Pitch : -15.71, Yaw : 42.93, Alt : 49.2799987793, Lat : 49.2836096, Lng : -123.1149577, Q1 : 0.920380115509, Q2 : 0.0727043300867, Q3 : -0.11828315258, Q4 : 0.365545660257}
2019-04-14 17:46:39.71: SIM {TimeUS : 57735230, Roll : 2.09, Pitch : -15.81, Yaw : 43.89, Alt : 49.2799987793, Lat : 49.2836116, Lng : -123.1149543, Q1 : 0.917607426643, Q2 : 0.0682323276997, Q3 : -0.120761372149, Q4 : 0.37250187993}
2019-04-14 17:46:39.81: SIM {TimeUS : 57835190, Roll : 1.27, Pitch : -15.94, Yaw : 45.12, Alt : 49.2799987793, Lat : 49.2836135, Lng : -123.1149509, Q1 : 0.913876593113, Q2 : 0.0634068995714, Q3 : -0.123846560717, Q4 : 0.381406903267}
2019-04-14 17:46:39.91: SIM {TimeUS : 57935150, Roll : 0.46, Pitch : -16.1, Yaw : 46.44, Alt : 49.2799987793, Lat : 49.2836156, Lng : -123.1149474, Q1 : 0.90969222784, Q2 : 0.0588993318379, Q3 : -0.127150699496, Q4 : 0.390926659107}
2019-04-14 17:46:40.01: SIM {TimeUS : 58035110, Roll : -0.26, Pitch : -16.24, Yaw : 47.68, Alt : 49.2799987793, Lat : 49.2836177, Lng : -123.1149438, Q1 : 0.905596852303, Q2 : 0.0550116784871, Q3 : -0.130196884274, Q4 : 0.399896025658}
2019-04-14 17:46:40.11: SIM {TimeUS : 58135070, Roll : -0.86, Pitch : -16.36, Yaw : 48.73, Alt : 49.2799987793, Lat : 49.2836197, Lng : -123.1149402, Q1 : 0.902054667473, Q2 : 0.0519274137914, Q3 : -0.13270278275, Q4 : 0.407419830561}
2019-04-14 17:46:40.21: SIM {TimeUS : 58235030, Roll : -1.27, Pitch : -16.41, Yaw : 49.5, Alt : 49.2799987793, Lat : 49.283622, Lng : -123.1149366, Q1 : 0.899421155453, Q2 : 0.0497952774167, Q3 : -0.13425950706, Q4 : 0.412960618734}
2019-04-14 17:46:40.31: SIM {TimeUS : 58334990, Roll : -1.46, Pitch : -16.42, Yaw : 49.95, Alt : 49.2799987793, Lat : 49.2836242, Lng : -123.1149329, Q1 : 0.897855043411, Q2 : 0.0488901250064, Q3 : -0.134806901217, Q4 : 0.416285037994}
2019-04-14 17:46:40.41: SIM {TimeUS : 58434950, Roll : -1.46, Pitch : -16.42, Yaw : 50.1, Alt : 49.2799987793, Lat : 49.2836263, Lng : -123.1149291, Q1 : 0.897347569466, Q2 : 0.0490182414651, Q3 : -0.134754106402, Q4 : 0.417379826307}
2019-04-14 17:46:40.51: SIM {TimeUS : 58534910, Roll : -1.29, Pitch : -16.43, Yaw : 49.96, Alt : 49.2799987793, Lat : 49.2836287, Lng : -123.1149253, Q1 : 0.897741138935, Q2 : 0.0502706579864, Q3 : -0.13429056108, Q4 : 0.416532993317}
2019-04-14 17:46:40.61: SIM {TimeUS : 58634870, Roll : -0.98, Pitch : -16.45, Yaw : 49.62, Alt : 49.2799987793, Lat : 49.283631, Lng : -123.1149215, Q1 : 0.898833215237, Q2 : 0.0523522794247, Q3 : -0.133446604013, Q4 : 0.414186120033}
2019-04-14 17:46:40.71: SIM {TimeUS : 58734830, Roll : -0.61, Pitch : -16.47, Yaw : 49.14, Alt : 49.2799987793, Lat : 49.2836334, Lng : -123.1149177, Q1 : 0.900372803211, Q2 : 0.0547238327563, Q3 : -0.132538989186, Q4 : 0.410813242197}
2019-04-14 17:46:40.81: SIM {TimeUS : 58834790, Roll : -0.26, Pitch : -16.52, Yaw : 48.59, Alt : 49.2799987793, Lat : 49.2836357, Lng : -123.1149138, Q1 : 0.9020870924, Q2 : 0.057030595839, Q3 : -0.131927922368, Q4 : 0.406916975975}
2019-04-14 17:46:40.91: SIM {TimeUS : 58934750, Roll : 0.03, Pitch : -16.59, Yaw : 48.06, Alt : 49.2799987793, Lat : 49.2836381, Lng : -123.1149098, Q1 : 0.90375071764, Q2 : 0.0590804740787, Q3 : -0.131662636995, Q4 : 0.403000205755}
2019-04-14 17:46:41.01: SIM {TimeUS : 59034710, Roll : 0.28, Pitch : -16.67, Yaw : 47.58, Alt : 49.2900009155, Lat : 49.2836405, Lng : -123.1149059, Q1 : 0.905183374882, Q2 : 0.0607930272818, Q3 : -0.131706669927, Q4 : 0.399500489235}
2019-04-14 17:46:41.11: SIM {TimeUS : 59134670, Roll : 0.46, Pitch : -16.74, Yaw : 47.21, Alt : 49.2900009155, Lat : 49.283643, Lng : -123.1149018, Q1 : 0.906306326389, Q2 : 0.0619699135423, Q3 : -0.131824821234, Q4 : 0.396725147963}
2019-04-14 17:46:41.21: SIM {TimeUS : 59234630, Roll : 0.56, Pitch : -16.78, Yaw : 46.96, Alt : 49.2900009155, Lat : 49.2836454, Lng : -123.1148978, Q1 : 0.907062888145, Q2 : 0.0626165121794, Q3 : -0.131944686174, Q4 : 0.394850283861}
2019-04-14 17:46:41.32: SIM {TimeUS : 59335423, Roll : 0.59, Pitch : -16.82, Yaw : 46.84, Alt : 49.2900009155, Lat : 49.2836479, Lng : -123.1148935, Q1 : 0.907427847385, Q2 : 0.0628569871187, Q3 : -0.132158711553, Q4 : 0.39390078187}
2019-04-14 17:46:41.41: SIM {TimeUS : 59435383, Roll : 0.56, Pitch : -16.83, Yaw : 46.83, Alt : 49.2900009155, Lat : 49.2836503, Lng : -123.1148895, Q1 : 0.907443225384, Q2 : 0.0626659616828, Q3 : -0.132370516658, Q4 : 0.393824607134}
2019-04-14 17:46:41.51: SIM {TimeUS : 59535343, Roll : 0.49, Pitch : -16.84, Yaw : 46.92, Alt : 49.2900009155, Lat : 49.2836528, Lng : -123.1148853, Q1 : 0.907160282135, Q2 : 0.0622079782188, Q3 : -0.13268892467, Q4 : 0.394441485405}
2019-04-14 17:46:41.61: SIM {TimeUS : 59635303, Roll : 0.37, Pitch : -16.87, Yaw : 47.08, Alt : 49.2900009155, Lat : 49.2836553, Lng : -123.1148811, Q1 : 0.906657099724, Q2 : 0.0615352652967, Q3 : -0.133201554418, Q4 : 0.395529687405}
2019-04-14 17:46:41.71: SIM {TimeUS : 59735263, Roll : 0.23, Pitch : -16.89, Yaw : 47.27, Alt : 49.2900009155, Lat : 49.2836578, Lng : -123.1148769, Q1 : 0.906030654907, Q2 : 0.0607431456447, Q3 : -0.133812353015, Q4 : 0.396879166365}
2019-04-14 17:46:41.81: SIM {TimeUS : 59835223, Roll : 0.09, Pitch : -16.93, Yaw : 47.47, Alt : 49.2900009155, Lat : 49.2836603, Lng : -123.1148726, Q1 : 0.905377984047, Q2 : 0.0599895194173, Q3 : -0.134441196918, Q4 : 0.398268193007}
2019-04-14 17:46:41.91: SIM {TimeUS : 59935183, Roll : -0.03, Pitch : -16.97, Yaw : 47.65, Alt : 49.2900009155, Lat : 49.2836628, Lng : -123.1148683, Q1 : 0.904768764973, Q2 : 0.0593568384647, Q3 : -0.135107308626, Q4 : 0.399520069361}
2019-04-14 17:46:42.01: SIM {TimeUS : 60035143, Roll : -0.13, Pitch : -17.02, Yaw : 47.79, Alt : 49.2900009155, Lat : 49.2836653, Lng : -123.114864, Q1 : 0.904255270958, Q2 : 0.0588898696005, Q3 : -0.135855227709, Q4 : 0.400496900082}
2019-04-14 17:46:42.11: SIM {TimeUS : 60135103, Roll : -0.22, Pitch : -17.07, Yaw : 47.89, Alt : 49.2900009155, Lat : 49.283668, Lng : -123.1148597, Q1 : 0.90391010046, Q2 : 0.0584921464324, Q3 : -0.136462420225, Q4 : 0.401127457619}
2019-04-14 17:46:42.21: SIM {TimeUS : 60235063, Roll : -0.26, Pitch : -17.1, Yaw : 47.93, Alt : 49.2999992371, Lat : 49.2836706, Lng : -123.1148552, Q1 : 0.903746545315, Q2 : 0.0582867525518, Q3 : -0.136832073331, Q4 : 0.401399880648}
2019-04-14 17:46:42.31: SIM {TimeUS : 60335023, Roll : -0.28, Pitch : -17.12, Yaw : 47.93, Alt : 49.2999992371, Lat : 49.2836731, Lng : -123.1148509, Q1 : 0.9037514925, Q2 : 0.0582302510738, Q3 : -0.137061014771, Q4 : 0.401318848133}
2019-04-14 17:46:42.41: SIM {TimeUS : 60434983, Roll : -0.24, Pitch : -17.15, Yaw : 47.88, Alt : 49.2999992371, Lat : 49.2836758, Lng : -123.1148465, Q1 : 0.903870284557, Q2 : 0.0585662126541, Q3 : -0.137198373675, Q4 : 0.400955289602}
2019-04-14 17:46:42.51: SIM {TimeUS : 60534943, Roll : -0.17, Pitch : -17.19, Yaw : 47.79, Alt : 49.2999992371, Lat : 49.2836784, Lng : -123.1148421, Q1 : 0.904081404209, Q2 : 0.0591362603009, Q3 : -0.137264117599, Q4 : 0.400372713804}
2019-04-14 17:46:42.61: SIM {TimeUS : 60634903, Roll : -0.08, Pitch : -17.22, Yaw : 47.69, Alt : 49.2999992371, Lat : 49.283681, Lng : -123.1148377, Q1 : 0.904345631599, Q2 : 0.05989164114, Q3 : -0.137281864882, Q4 : 0.39965698123}
2019-04-14 17:46:42.71: SIM {TimeUS : 60734863, Roll : 0.01, Pitch : -17.26, Yaw : 47.58, Alt : 49.2999992371, Lat : 49.2836837, Lng : -123.1148332, Q1 : 0.904631257057, Q2 : 0.0606607943773, Q3 : -0.137286245823, Q4 : 0.398892313242}
2019-04-14 17:46:42.81: SIM {TimeUS : 60834823, Roll : 0.09, Pitch : -17.29, Yaw : 47.48, Alt : 49.2999992371, Lat : 49.2836864, Lng : -123.1148288, Q1 : 0.904922485352, Q2 : 0.0612607188523, Q3 : -0.137284860015, Q4 : 0.398139744997}
2019-04-14 17:46:42.91: SIM {TimeUS : 60934783, Roll : 0.14, Pitch : -17.3, Yaw : 47.39, Alt : 49.2999992371, Lat : 49.283689, Lng : -123.1148243, Q1 : 0.905201375484, Q2 : 0.0615867525339, Q3 : -0.137239947915, Q4 : 0.397470444441}
2019-04-14 17:46:43.01: SIM {TimeUS : 61034743, Roll : 0.16, Pitch : -17.31, Yaw : 47.31, Alt : 49.3100013733, Lat : 49.2836917, Lng : -123.1148198, Q1 : 0.905425906181, Q2 : 0.0617011673748, Q3 : -0.137320563197, Q4 : 0.39691311121}
2019-04-14 17:46:43.11: SIM {TimeUS : 61134703, Roll : 0.17, Pitch : -17.32, Yaw : 47.26, Alt : 49.3100013733, Lat : 49.2836943, Lng : -123.1148152, Q1 : 0.905584275723, Q2 : 0.0617667809129, Q3 : -0.137407436967, Q4 : 0.396511316299}
2019-04-14 17:46:43.21: SIM {TimeUS : 61234663, Roll : 0.17, Pitch : -17.34, Yaw : 47.23, Alt : 49.3100013733, Lat : 49.2836971, Lng : -123.1148107, Q1 : 0.905664861202, Q2 : 0.0618140436709, Q3 : -0.137533783913, Q4 : 0.396275907755}
2019-04-14 17:46:43.31: SIM {TimeUS : 61334623, Roll : 0.19, Pitch : -17.37, Yaw : 47.22, Alt : 49.3100013733, Lat : 49.2836998, Lng : -123.1148062, Q1 : 0.905651628971, Q2 : 0.0620105452836, Q3 : -0.137752339244, Q4 : 0.396199643612}
2019-04-14 17:46:43.42: SIM {TimeUS : 61435416, Roll : 0.19, Pitch : -17.42, Yaw : 47.23, Alt : 49.3100013733, Lat : 49.2837026, Lng : -123.1148015, Q1 : 0.905569732189, Q2 : 0.0622184723616, Q3 : -0.138135612011, Q4 : 0.396220773458}
2019-04-14 17:46:43.51: SIM {TimeUS : 61535376, Roll : 0.18, Pitch : -17.44, Yaw : 47.24, Alt : 49.3100013733, Lat : 49.2837053, Lng : -123.114797, Q1 : 0.905491292477, Q2 : 0.062257502228, Q3 : -0.138332799077, Q4 : 0.39632499218}
2019-04-14 17:46:43.61: SIM {TimeUS : 61635336, Roll : 0.16, Pitch : -17.44, Yaw : 47.26, Alt : 49.3100013733, Lat : 49.283708, Lng : -123.1147924, Q1 : 0.905439317226, Q2 : 0.0621255859733, Q3 : -0.138327211142, Q4 : 0.396466493607}
2019-04-14 17:46:43.71: SIM {TimeUS : 61735296, Roll : 0.13, Pitch : -17.45, Yaw : 47.28, Alt : 49.3100013733, Lat : 49.2837107, Lng : -123.1147877, Q1 : 0.90536904335, Q2 : 0.0619274377823, Q3 : -0.138524964452, Q4 : 0.396588921547}
2019-04-14 17:46:43.81: SIM {TimeUS : 61835256, Roll : 0.09, Pitch : -17.48, Yaw : 47.3, Alt : 49.3100013733, Lat : 49.2837135, Lng : -123.1147831, Q1 : 0.905294537544, Q2 : 0.0617263913155, Q3 : -0.138893380761, Q4 : 0.396661400795}
2019-04-14 17:46:43.91: SIM {TimeUS : 61935216, Roll : 0.07, Pitch : -17.51, Yaw : 47.31, Alt : 49.3100013733, Lat : 49.2837162, Lng : -123.1147785, Q1 : 0.905227303505, Q2 : 0.0616958141327, Q3 : -0.13920918107, Q4 : 0.396709024906}
2019-04-14 17:46:44.01: SIM {TimeUS : 62035176, Roll : 0.06, Pitch : -17.54, Yaw : 47.32, Alt : 49.3100013733, Lat : 49.283719, Lng : -123.1147739, Q1 : 0.905193984509, Q2 : 0.0616843402386, Q3 : -0.139482736588, Q4 : 0.396690666676}
2019-04-14 17:46:44.11: SIM {TimeUS : 62135136, Roll : 0.05, Pitch : -17.56, Yaw : 47.31, Alt : 49.3100013733, Lat : 49.2837217, Lng : -123.1147692, Q1 : 0.905203998089, Q2 : 0.0617154873908, Q3 : -0.139624103904, Q4 : 0.396613240242}
2019-04-14 17:46:44.21: SIM {TimeUS : 62235096, Roll : 0.06, Pitch : -17.57, Yaw : 47.29, Alt : 49.3199996948, Lat : 49.2837246, Lng : -123.1147645, Q1 : 0.905240833759, Q2 : 0.061816945672, Q3 : -0.13972851634, Q4 : 0.396476596594}
2019-04-14 17:46:44.31: SIM {TimeUS : 62335056, Roll : 0.08, Pitch : -17.58, Yaw : 47.27, Alt : 49.3199996948, Lat : 49.2837272, Lng : -123.1147599, Q1 : 0.905298650265, Q2 : 0.0619747415185, Q3 : -0.13976226747, Q4 : 0.396308004856}
2019-04-14 17:46:44.41: SIM {TimeUS : 62435016, Roll : 0.11, Pitch : -17.6, Yaw : 47.24, Alt : 49.3199996948, Lat : 49.2837301, Lng : -123.1147552, Q1 : 0.90534901619, Q2 : 0.0622353181243, Q3 : -0.139791622758, Q4 : 0.3961417377}
2019-04-14 17:46:44.51: SIM {TimeUS : 62534976, Roll : 0.14, Pitch : -17.63, Yaw : 47.21, Alt : 49.3199996948, Lat : 49.2837328, Lng : -123.1147505, Q1 : 0.90538918972, Q2 : 0.062543451786, Q3 : -0.139935493469, Q4 : 0.395950466394}
2019-04-14 17:46:44.61: SIM {TimeUS : 62634936, Roll : 0.15, Pitch : -17.67, Yaw : 47.19, Alt : 49.3199996948, Lat : 49.2837357, Lng : -123.1147458, Q1 : 0.905431628227, Q2 : 0.0627291798592, Q3 : -0.140242755413, Q4 : 0.395715326071}
2019-04-14 17:46:44.71: SIM {TimeUS : 62734896, Roll : 0.15, Pitch : -17.71, Yaw : 47.16, Alt : 49.3199996948, Lat : 49.2837385, Lng : -123.1147411, Q1 : 0.905473172665, Q2 : 0.0628391057253, Q3 : -0.14060638845, Q4 : 0.395473748446}
2019-04-14 17:46:44.81: SIM {TimeUS : 62834856, Roll : 0.14, Pitch : -17.75, Yaw : 47.13, Alt : 49.3199996948, Lat : 49.2837412, Lng : -123.1147363, Q1 : 0.90551418066, Q2 : 0.0629015788436, Q3 : -0.140962526202, Q4 : 0.395242959261}
2019-04-14 17:46:44.91: SIM {TimeUS : 62934816, Roll : 0.15, Pitch : -17.78, Yaw : 47.11, Alt : 49.3199996948, Lat : 49.2837442, Lng : -123.1147316, Q1 : 0.905552208424, Q2 : 0.0630367174745, Q3 : -0.141190603375, Q4 : 0.395052909851}
2019-04-14 17:46:45.01: SIM {TimeUS : 63034776, Roll : 0.17, Pitch : -17.79, Yaw : 47.09, Alt : 49.3199996948, Lat : 49.283747, Lng : -123.1147269, Q1 : 0.90560823679, Q2 : 0.0631530806422, Q3 : -0.141195625067, Q4 : 0.394904047251}
2019-04-14 17:46:45.11: SIM {TimeUS : 63134736, Roll : 0.18, Pitch : -17.77, Yaw : 47.07, Alt : 49.3199996948, Lat : 49.2837497, Lng : -123.1147221, Q1 : 0.905685067177, Q2 : 0.0631781518459, Q3 : -0.141014412045, Q4 : 0.394788533449}
2019-04-14 17:46:45.21: SIM {TimeUS : 63234696, Roll : 0.18, Pitch : -17.75, Yaw : 47.06, Alt : 49.3199996948, Lat : 49.2837527, Lng : -123.1147173, Q1 : 0.905754804611, Q2 : 0.0630582943559, Q3 : -0.140875130892, Q4 : 0.394697457552}
2019-04-14 17:46:45.31: SIM {TimeUS : 63334656, Roll : 0.17, Pitch : -17.73, Yaw : 47.05, Alt : 49.3199996948, Lat : 49.2837555, Lng : -123.1147126, Q1 : 0.905812144279, Q2 : 0.0629238709807, Q3 : -0.140763998032, Q4 : 0.394626945257}
2019-04-14 17:46:45.41: SIM {TimeUS : 63434616, Roll : 0.16, Pitch : -17.72, Yaw : 47.04, Alt : 49.3199996948, Lat : 49.2837582, Lng : -123.1147078, Q1 : 0.905852437019, Q2 : 0.0628129392862, Q3 : -0.140679880977, Q4 : 0.394582152367}
2019-04-14 17:46:45.51: SIM {TimeUS : 63535409, Roll : 0.15, Pitch : -17.73, Yaw : 47.04, Alt : 49.3199996948, Lat : 49.2837612, Lng : -123.1147029, Q1 : 0.905859768391, Q2 : 0.0627629011869, Q3 : -0.140796646476, Q4 : 0.39453163743}
2019-04-14 17:46:45.61: SIM {TimeUS : 63635369, Roll : 0.15, Pitch : -17.75, Yaw : 47.04, Alt : 49.3199996948, Lat : 49.2837641, Lng : -123.1146981, Q1 : 0.905853390694, Q2 : 0.0627856552601, Q3 : -0.140957862139, Q4 : 0.394485145807}
2019-04-14 17:46:45.71: SIM {TimeUS : 63735329, Roll : 0.14, Pitch : -17.79, Yaw : 47.03, Alt : 49.3300018311, Lat : 49.2837668, Lng : -123.1146933, Q1 : 0.905822336674, Q2 : 0.0628491565585, Q3 : -0.141327559948, Q4 : 0.394414007664}
2019-04-14 17:46:45.81: SIM {TimeUS : 63835289, Roll : 0.13, Pitch : -17.84, Yaw : 47.02, Alt : 49.3300018311, Lat : 49.2837697, Lng : -123.1146885, Q1 : 0.90578597784, Q2 : 0.0629766136408, Q3 : -0.141743272543, Q4 : 0.394327938557}
2019-04-14 17:46:45.91: SIM {TimeUS : 63935249, Roll : 0.14, Pitch : -17.88, Yaw : 47.01, Alt : 49.3300018311, Lat : 49.2837727, Lng : -123.1146837, Q1 : 0.905770361423, Q2 : 0.0631577596068, Q3 : -0.142012134194, Q4 : 0.394238203764}
2019-04-14 17:46:46.01: SIM {TimeUS : 64035209, Roll : 0.14, Pitch : -17.91, Yaw : 47.0, Alt : 49.3300018311, Lat : 49.2837755, Lng : -123.1146789, Q1 : 0.905769705772, Q2 : 0.0632545277476, Q3 : -0.14227245748, Q4 : 0.39413022995}
2019-04-14 17:46:46.11: SIM {TimeUS : 64135169, Roll : 0.14, Pitch : -17.93, Yaw : 46.99, Alt : 49.3300018311, Lat : 49.2837783, Lng : -123.114674, Q1 : 0.90579020977, Q2 : 0.0632588639855, Q3 : -0.14246147871, Q4 : 0.394014179707}
2019-04-14 17:46:46.21: SIM {TimeUS : 64235129, Roll : 0.15, Pitch : -17.92, Yaw : 46.98, Alt : 49.3300018311, Lat : 49.2837813, Lng : -123.1146692, Q1 : 0.905836760998, Q2 : 0.0633232817054, Q3 : -0.142381846905, Q4 : 0.393925577402}
2019-04-14 17:46:46.31: SIM {TimeUS : 64335089, Roll : 0.17, Pitch : -17.93, Yaw : 46.96, Alt : 49.3300018311, Lat : 49.2837842, Lng : -123.1146644, Q1 : 0.905874013901, Q2 : 0.0635083913803, Q3 : -0.142343565822, Q4 : 0.393823862076}
2019-04-14 17:46:46.41: SIM {TimeUS : 64435049, Roll : 0.18, Pitch : -17.94, Yaw : 46.94, Alt : 49.3300018311, Lat : 49.2837871, Lng : -123.1146594, Q1 : 0.905909180641, Q2 : 0.0636067837477, Q3 : -0.14243888855, Q4 : 0.393692672253}
2019-04-14 17:46:46.51: SIM {TimeUS : 64535009, Roll : 0.19, Pitch : -17.95, Yaw : 46.93, Alt : 49.3300018311, Lat : 49.2837899, Lng : -123.1146547, Q1 : 0.90595293045, Q2 : 0.0636810734868, Q3 : -0.142484217882, Q4 : 0.393563598394}
2019-04-14 17:46:46.61: SIM {TimeUS : 64634969, Roll : 0.2, Pitch : -17.95, Yaw : 46.91, Alt : 49.3300018311, Lat : 49.2837928, Lng : -123.1146498, Q1 : 0.906009554863, Q2 : 0.0637309402227, Q3 : -0.142420217395, Q4 : 0.393448174}
2019-04-14 17:46:46.71: SIM {TimeUS : 64734929, Roll : 0.2, Pitch : -17.95, Yaw : 46.89, Alt : 49.3300018311, Lat : 49.2837958, Lng : -123.114645, Q1 : 0.906064927578, Q2 : 0.0637367218733, Q3 : -0.14240321517, Q4 : 0.393325954676}
2019-04-14 17:46:46.81: SIM {TimeUS : 64834889, Roll : 0.19, Pitch : -17.96, Yaw : 46.88, Alt : 49.3300018311, Lat : 49.2837987, Lng : -123.1146401, Q1 : 0.906103134155, Q2 : 0.0636453703046, Q3 : -0.142597332597, Q4 : 0.393182337284}
2019-04-14 17:46:46.91: SIM {TimeUS : 64934849, Roll : 0.16, Pitch : -18.0, Yaw : 46.87, Alt : 49.3300018311, Lat : 49.2838015, Lng : -123.1146352, Q1 : 0.906117618084, Q2 : 0.0635130256414, Q3 : -0.142987251282, Q4 : 0.393028825521}
2019-04-14 17:46:47.01: SIM {TimeUS : 65034809, Roll : 0.14, Pitch : -18.0, Yaw : 46.86, Alt : 49.3300018311, Lat : 49.2838044, Lng : -123.1146302, Q1 : 0.906153798103, Q2 : 0.0633700489998, Q3 : -0.143112495542, Q4 : 0.392922908068}
2019-04-14 17:46:47.11: SIM {TimeUS : 65134769, Roll : 0.15, Pitch : -17.99, Yaw : 46.85, Alt : 49.3300018311, Lat : 49.2838074, Lng : -123.1146254, Q1 : 0.906194150448, Q2 : 0.0633766874671, Q3 : -0.142990916967, Q4 : 0.392872989178}
2019-04-14 17:46:47.21: SIM {TimeUS : 65234729, Roll : 0.16, Pitch : -17.98, Yaw : 46.84, Alt : 49.3300018311, Lat : 49.2838103, Lng : -123.1146206, Q1 : 0.906227171421, Q2 : 0.0634559988976, Q3 : -0.142838776112, Q4 : 0.392839431763}
2019-04-14 17:46:47.31: SIM {TimeUS : 65334689, Roll : 0.17, Pitch : -17.98, Yaw : 46.83, Alt : 49.3400001526, Lat : 49.2838133, Lng : -123.1146156, Q1 : 0.906239211559, Q2 : 0.0635635331273, Q3 : -0.142849415541, Q4 : 0.39279037714}
2019-04-14 17:46:47.41: SIM {TimeUS : 65434649, Roll : 0.17, Pitch : -18.0, Yaw : 46.83, Alt : 49.3400001526, Lat : 49.2838161, Lng : -123.1146108, Q1 : 0.906247854233, Q2 : 0.0635389015079, Q3 : -0.143020316958, Q4 : 0.392712235451}
2019-04-14 17:46:47.52: SIM {TimeUS : 65535442, Roll : 0.14, Pitch : -18.03, Yaw : 46.82, Alt : 49.3400001526, Lat : 49.283819, Lng : -123.1146058, Q1 : 0.906254410744, Q2 : 0.0634054839611, Q3 : -0.143300563097, Q4 : 0.39261636138}
2019-04-14 17:46:47.61: SIM {TimeUS : 65635402, Roll : 0.12, Pitch : -18.05, Yaw : 46.81, Alt : 49.3400001526, Lat : 49.283822, Lng : -123.1146009, Q1 : 0.906264424324, Q2 : 0.0633256286383, Q3 : -0.14352811873, Q4 : 0.392523139715}
2019-04-14 17:46:47.71: SIM {TimeUS : 65735362, Roll : 0.12, Pitch : -18.07, Yaw : 46.8, Alt : 49.3400001526, Lat : 49.283825, Lng : -123.114596, Q1 : 0.906270325184, Q2 : 0.0633773803711, Q3 : -0.143690884113, Q4 : 0.392441540956}
2019-04-14 17:46:47.81: SIM {TimeUS : 65835322, Roll : 0.13, Pitch : -18.08, Yaw : 46.79, Alt : 49.3400001526, Lat : 49.2838279, Lng : -123.1145911, Q1 : 0.906276643276, Q2 : 0.0634774714708, Q3 : -0.14379003644, Q4 : 0.392374485731}
2019-04-14 17:46:47.91: SIM {TimeUS : 65935282, Roll : 0.16, Pitch : -18.09, Yaw : 46.78, Alt : 49.3400001526, Lat : 49.2838309, Lng : -123.1145862, Q1 : 0.906286656857, Q2 : 0.0637095794082, Q3 : -0.143768519163, Q4 : 0.392321586609}
2019-04-14 17:46:48.01: SIM {TimeUS : 66035242, Roll : 0.17, Pitch : -18.11, Yaw : 46.77, Alt : 49.3400001526, Lat : 49.2838337, Lng : -123.1145813, Q1 : 0.906295657158, Q2 : 0.0638792067766, Q3 : -0.143857017159, Q4 : 0.392240703106}
2019-04-14 17:46:48.11: SIM {TimeUS : 66135202, Roll : 0.19, Pitch : -18.12, Yaw : 46.76, Alt : 49.3400001526, Lat : 49.2838367, Lng : -123.1145764, Q1 : 0.906303346157, Q2 : 0.0640437379479, Q3 : -0.143956661224, Q4 : 0.392159551382}
2019-04-14 17:46:48.21: SIM {TimeUS : 66235162, Roll : 0.21, Pitch : -18.14, Yaw : 46.75, Alt : 49.3400001526, Lat : 49.2838396, Lng : -123.1145715, Q1 : 0.906312644482, Q2 : 0.0642313063145, Q3 : -0.143999949098, Q4 : 0.392091542482}
2019-04-14 17:46:48.31: SIM {TimeUS : 66335122, Roll : 0.24, Pitch : -18.15, Yaw : 46.74, Alt : 49.3400001526, Lat : 49.2838427, Lng : -123.1145665, Q1 : 0.906316816807, Q2 : 0.0645185634494, Q3 : -0.14397226274, Q4 : 0.39204493165}
2019-04-14 17:46:48.41: SIM {TimeUS : 66435082, Roll : 0.27, Pitch : -18.16, Yaw : 46.73, Alt : 49.3400001526, Lat : 49.2838456, Lng : -123.1145615, Q1 : 0.90631788969, Q2 : 0.0647568404675, Q3 : -0.143982023001, Q4 : 0.391999542713}
