2019-04-14 18:16:02.10: SIM {TimeUS : 40516287, Roll : 0.0, Pitch : 0.0, Yaw : 0.0, Alt : 30.1000003815, Lat : 49.28357, Lng : -123.11502, Q1 : 1.0, Q2 : 0.0, Q3 : 0.0, Q4 : 0.0}
2019-04-14 18:16:02.21: SIM {TimeUS : 40635406, Roll : 0.0, Pitch : 0.0, Yaw : 0.0, Alt : 30.1000003815, Lat : 49.28357, Lng : -123.11502, Q1 : 1.0, Q2 : 0.0, Q3 : 0.0, Q4 : 0.0}
2019-04-14 18:16:02.31: SIM {TimeUS : 40735366, Roll : 0.0, Pitch : 0.0, Yaw : 0.0, Alt : 30.1000003815, Lat : 49.28357, Lng : -123.11502, Q1 : 1.0, Q2 : 0.0, Q3 : 0.0, Q4 : 0.0}
2019-04-14 18:16:02.41: SIM {TimeUS : 40835326, Roll : 0.0, Pitch : 0.0, Yaw : 0.0, Alt : 30.1000003815, Lat : 49.28357, Lng : -123.11502, Q1 : 1.0, Q2 : 0.0, Q3 : 0.0, Q4 : 0.0}
2019-04-14 18:16:02.51: SIM {TimeUS : 40935286, Roll : 0.0, Pitch : 0.0, Yaw : 0.0, Alt : 30.1000003815, Lat : 49.28357, Lng : -123.11502, Q1 : 1.0, Q2 : 0.0, Q3 : 0.0, Q4 : 0.0}
2019-04-14 18:16:02.61: SIM {TimeUS : 41035246, Roll : 0.0, Pitch : 0.0, Yaw : 0.0, Alt : 30.1000003815, Lat : 49.28357, Lng : -123.11502, Q1 : 1.0, Q2 : 0.0, Q3 : 0.0, Q4 : 0.0}
2019-04-14 18:16:02.71: SIM {TimeUS : 41135206, Roll : 0.0, Pitch : 0.0, Yaw : 0.0, Alt : 30.1000003815, Lat : 49.28357, Lng : -123.11502, Q1 : 1.0, Q2 : 0.0, Q3 : 0.0, Q4 : 0.0}
2019-04-14 18:16:02.81: SIM {TimeUS : 41235166, Roll : 0.0, Pitch : 0.0, Yaw : 0.0, Alt : 30.1000003815, Lat : 49.28357, Lng : -123.11502, Q1 : 1.0, Q2 : 0.0, Q3 : 0.0, Q4 : 0.0}
2019-04-14 18:16:02.91: SIM {TimeUS : 41335126, Roll : 0.0, Pitch : 0.0, Yaw : 0.0, Alt : 30.1000003815, Lat : 49.28357, Lng : -123.11502, Q1 : 1.0, Q2 : 0.0, Q3 : 0.0, Q4 : 0.0}
2019-04-14 18:16:03.01: SIM {TimeUS : 41435086, Roll : 0.0, Pitch : 0.0, Yaw : 0.0, Alt : 30.1000003815, Lat : 49.28357, Lng : -123.11502, Q1 : 1.0, Q2 : 0.0, Q3 : 0.0, Q4 : 0.0}
2019-04-14 18:16:03.11: SIM {TimeUS : 41535046, Roll : 0.0, Pitch : 0.0, Yaw : 0.0, Alt : 30.1000003815, Lat : 49.28357, Lng : -123.11502, Q1 : 1.0, Q2 : 0.0, Q3 : 0.0, Q4 : 0.0}
2019-04-14 18:16:03.21: SIM {TimeUS : 41635006, Roll : 0.0, Pitch : 0.0, Yaw : 0.0, Alt : 30.1000003815, Lat : 49.28357, Lng : -123.11502, Q1 : 1.0, Q2 : 0.0, Q3 : 0.0, Q4 : 0.0}
2019-04-14 18:16:03.31: SIM {TimeUS : 41734966, Roll : 0.0, Pitch : 0.0, Yaw : 0.0, Alt : 30.1000003815, Lat : 49.28357, Lng : -123.11502, Q1 : 1.0, Q2 : 0.0, Q3 : 0.0, Q4 : 0.0}
2019-04-14 18:16:03.41: SIM {TimeUS : 41834926, Roll : 0.0, Pitch : 0.0, Yaw : 0.0, Alt : 30.1000003815, Lat : 49.28357, Lng : -123.11502, Q1 : 1.0, Q2 : 0.0, Q3 : 0.0, Q4 : 0.0}
2019-04-14 18:16:03.51: SIM {TimeUS : 41934886, Roll : 0.0, Pitch : 0.0, Yaw : 0.0, Alt : 30.1000003815, Lat : 49.28357, Lng : -123.11502, Q1 : 1.0, Q2 : 0.0, Q3 : 0.0, Q4 : 0.0}
2019-04-14 18:16:03.61: SIM {TimeUS : 42034846, Roll : 0.0, Pitch : 0.0, Yaw : 0.0, Alt : 30.1000003815, Lat : 49.28357, Lng : -123.11502, Q1 : 1.0, Q2 : 0.0, Q3 : 0.0, Q4 : 0.0}
2019-04-14 18:16:03.71: SIM {TimeUS : 42134806, Roll : 0.0, Pitch : 0.0, Yaw : 0.0, Alt : 30.1000003815, Lat : 49.28357, Lng : -123.11502, Q1 : 1.0, Q2 : 0.0, Q3 : 0.0, Q4 : 0.0}
2019-04-14 18:16:03.81: SIM {TimeUS : 42234766, Roll : 0.0, Pitch : 0.0, Yaw : 0.0, Alt : 30.1000003815, Lat : 49.28357, Lng : -123.11502, Q1 : 1.0, Q2 : 0.0, Q3 : 0.0, Q4 : 0.0}
2019-04-14 18:16:03.91: SIM {TimeUS : 42334726, Roll : 0.0, Pitch : 0.0, Yaw : 0.0, Alt : 30.1000003815, Lat : 49.28357, Lng : -123.11502, Q1 : 1.0, Q2 : 0.0, Q3 : 0.0, Q4 : 0.0}
2019-04-14 18:16:04.01: SIM {TimeUS : 42434686, Roll : 0.0, Pitch : 0.0, Yaw : 0.0, Alt : 30.1000003815, Lat : 49.28357, Lng : -123.11502, Q1 : 1.0, Q2 : 0.0, Q3 : 0.0, Q4 : 0.0}
2019-04-14 18:16:04.11: SIM {TimeUS : 42534646, Roll : 0.0, Pitch : 0.0, Yaw : 0.0, Alt : 30.1000003815, Lat : 49.28357, Lng : -123.11502, Q1 : 1.0, Q2 : 0.0, Q3 : 0.0, Q4 : 0.0}
2019-04-14 18:16:04.22: SIM {TimeUS : 42635439, Roll : 0.0, Pitch : 0.0, Yaw : 0.0, Alt : 30.1000003815, Lat : 49.28357, Lng : -123.11502, Q1 : 1.0, Q2 : 0.0, Q3 : 0.0, Q4 : 0.0}
2019-04-14 18:16:04.31: SIM {TimeUS : 42735399, Roll : 0.0, Pitch : 0.0, Yaw : 0.0, Alt : 30.1000003815, Lat : 49.28357, Lng : -123.11502, Q1 : 1.0, Q2 : 0.0, Q3 : 0.0, Q4 : 0.0}
2019-04-14 18:16:04.41: SIM {TimeUS : 42835359, Roll : 0.0, Pitch : 0.0, Yaw : 360.0, Alt : 30.1000003815, Lat : 49.28357, Lng : -123.11502, Q1 : 1.0, Q2 : 0.0, Q3 : 0.0, Q4 : -2.77582514266e-12}
2019-04-14 18:16:04.51: SIM {TimeUS : 42935319, Roll : 0.0, Pitch : 0.0, Yaw : 360.0, Alt : 30.1000003815, Lat : 49.28357, Lng : -123.11502, Q1 : 1.0, Q2 : 0.0, Q3 : 0.0, Q4 : -1.29439896301e-11}
2019-04-14 18:16:04.61: SIM {TimeUS : 43035279, Roll : 0.0, Pitch : 0.0, Yaw : 360.0, Alt : 30.1000003815, Lat : 49.28357, Lng : -123.11502, Q1 : 1.0, Q2 : 0.0, Q3 : 0.0, Q4 : -9.74126805886e-08}
2019-04-14 18:16:04.71: SIM {TimeUS : 43135239, Roll : 0.0, Pitch : 0.0, Yaw : 359.99, Alt : 30.1000003815, Lat : 49.28357, Lng : -123.11502, Q1 : 1.0, Q2 : 0.0, Q3 : 0.0, Q4 : -2.58545242104e-07}
2019-04-14 18:16:04.81: SIM {TimeUS : 43235199, Roll : 0.0, Pitch : 0.0, Yaw : 359.99, Alt : 30.1000003815, Lat : 49.28357, Lng : -123.11502, Q1 : 1.0, Q2 : 0.0, Q3 : 0.0, Q4 : -4.27569830208e-07}
2019-04-14 18:16:04.91: SIM {TimeUS : 43335159, Roll : 0.0, Pitch : 0.0, Yaw : 359.99, Alt : 30.1000003815, Lat : 49.28357, Lng : -123.11502, Q1 : 1.0, Q2 : 0.0, Q3 : 0.0, Q4 : -6.12166161318e-07}
2019-04-14 18:16:05.01: SIM {TimeUS : 43435119, Roll : 0.0, Pitch : 0.0, Yaw : 359.99, Alt : 30.1000003815, Lat : 49.28357, Lng : -123.11502, Q1 : 1.0, Q2 : 0.0, Q3 : 0.0, Q4 : -8.01552175744e-07}
2019-04-14 18:16:05.11: SIM {TimeUS : 43535079, Roll : 0.0, Pitch : 0.0, Yaw : 359.99, Alt : 30.1000003815, Lat : 49.28357, Lng : -123.11502, Q1 : 1.0, Q2 : 0.0, Q3 : 0.0, Q4 : -1.01516752693e-06}
2019-04-14 18:16:05.21: SIM {TimeUS : 43635039, Roll : 0.0, Pitch : 0.0, Yaw : 359.99, Alt : 30.1000003815, Lat : 49.28357, Lng : -123.11502, Q1 : 1.0, Q2 : 0.0, Q3 : 0.0, Q4 : -1.22541848668e-06}
2019-04-14 18:16:05.31: SIM {TimeUS : 43734999, Roll : 0.0, Pitch : 0.0, Yaw : 359.99, Alt : 30.1100006104, Lat : 49.28357, Lng : -123.11502, Q1 : 1.0, Q2 : 0.0, Q3 : 0.0, Q4 : -1.43736303926e-06}
2019-04-14 18:16:05.41: SIM {TimeUS : 43834959, Roll : 0.0, Pitch : 0.0, Yaw : 359.99, Alt : 30.1299991608, Lat : 49.28357, Lng : -123.11502, Q1 : 1.0, Q2 : 0.0, Q3 : 0.0, Q4 : -1.58908824233e-06}
2019-04-14 18:16:05.51: SIM {TimeUS : 43934919, Roll : 0.0, Pitch : 0.0, Yaw : 359.99, Alt : 30.1599998474, Lat : 49.28357, Lng : -123.11502, Q1 : 1.0, Q2 : 0.0, Q3 : 0.0, Q4 : -1.78846585186e-06}
2019-04-14 18:16:05.61: SIM {TimeUS : 44034879, Roll : 0.0, Pitch : 0.0, Yaw : 359.99, Alt : 30.1900005341, Lat : 49.28357, Lng : -123.11502, Q1 : 1.0, Q2 : 0.0, Q3 : 0.0, Q4 : -1.98110092242e-06}
2019-04-14 18:16:05.71: SIM {TimeUS : 44134839, Roll : -0.03, Pitch : -0.03, Yaw : 359.99, Alt : 30.2299995422, Lat : 49.28357, Lng : -123.11502, Q1 : 0.999999880791, Q2 : -0.000338625599397, Q3 : -0.000275676400634, Q4 : -4.96811935591e-06}
2019-04-14 18:16:05.81: SIM {TimeUS : 44234799, Roll : -0.3, Pitch : -0.26, Yaw : 359.99, Alt : 30.3099994659, Lat : 49.28357, Lng : -123.11502, Q1 : 0.999993979931, Q2 : -0.00262779765762, Q3 : -0.00228233891539, Q4 : -3.12365482387e-05}
2019-04-14 18:16:05.91: SIM {TimeUS : 44334759, Roll : -0.6, Pitch : -0.54, Yaw : 359.99, Alt : 30.4400005341, Lat : 49.28357, Lng : -123.11502, Q1 : 0.999974668026, Q2 : -0.00531239015982, Q3 : -0.00473542138934, Q4 : -8.66811606102e-05}
2019-04-14 18:16:06.01: SIM {TimeUS : 44434719, Roll : -0.78, Pitch : -0.74, Yaw : 359.98, Alt : 30.5900001526, Lat : 49.28357, Lng : -123.11502, Q1 : 0.999955177307, Q2 : -0.00689099682495, Q3 : -0.00649482058361, Q4 : -0.000166707657627}
2019-04-14 18:16:06.11: SIM {TimeUS : 44534679, Roll : -0.81, Pitch : -0.78, Yaw : 359.97, Alt : 30.75, Lat : 49.28357, Lng : -123.11502, Q1 : 0.999950885773, Q2 : -0.00713219959289, Q3 : -0.00687855388969, Q4 : -0.000252071477007}
2019-04-14 18:16:06.21: SIM {TimeUS : 44634639, Roll : -0.72, Pitch : -0.68, Yaw : 359.96, Alt : 30.9099998474, Lat : 49.28357, Lng : -123.1150201, Q1 : 0.999961972237, Q2 : -0.00632230564952, Q3 : -0.00599919166416, Q4 : -0.000341207167367}
2019-04-14 18:16:06.32: SIM {TimeUS : 44735432, Roll : -0.54, Pitch : -0.5, Yaw : 359.95, Alt : 31.0599994659, Lat : 49.2835701, Lng : -123.1150202, Q1 : 0.999979019165, Q2 : -0.00475635752082, Q3 : -0.00437905779108, Q4 : -0.0004224323784}
2019-04-14 18:16:06.41: SIM {TimeUS : 44835392, Roll : -0.32, Pitch : -0.29, Yaw : 359.94, Alt : 31.2199993134, Lat : 49.2835701, Lng : -123.1150202, Q1 : 0.999992549419, Q2 : -0.0028678458184, Q3 : -0.00253561115824, Q4 : -0.000490635226015}
2019-04-14 18:16:06.51: SIM {TimeUS : 44935352, Roll : -0.12, Pitch : -0.11, Yaw : 359.93, Alt : 31.3899993896, Lat : 49.2835701, Lng : -123.1150203, Q1 : 0.999998748302, Q2 : -0.00113079615403, Q3 : -0.000968969252426, Q4 : -0.000544120848645}
2019-04-14 18:16:06.61: SIM {TimeUS : 45035312, Roll : 0.01, Pitch : 0.0, Yaw : 359.93, Alt : 31.5599994659, Lat : 49.2835702, Lng : -123.1150204, Q1 : 0.999999821186, Q2 : 0.000134378758958, Q3 : 1.07815067167e-05, Q4 : -0.000574881560169}
2019-04-14 18:16:06.71: SIM {TimeUS : 45135272, Roll : 0.09, Pitch : 0.04, Yaw : 359.93, Alt : 31.7299995422, Lat : 49.2835702, Lng : -123.1150205, Q1 : 0.999999403954, Q2 : 0.000831006793305, Q3 : 0.000417384057073, Q4 : -0.000584948109463}
2019-04-14 18:16:06.81: SIM {TimeUS : 45235232, Roll : 0.11, Pitch : 0.06, Yaw : 359.93, Alt : 31.9200000763, Lat : 49.2835703, Lng : -123.1150205, Q1 : 0.999999165535, Q2 : 0.000997947412543, Q3 : 0.00054721836932, Q4 : -0.000583214336075}
2019-04-14 18:16:06.91: SIM {TimeUS : 45335192, Roll : 0.1, Pitch : 0.07, Yaw : 359.93, Alt : 32.0999984741, Lat : 49.2835703, Lng : -123.1150206, Q1 : 0.99999922514, Q2 : 0.000880343024619, Q3 : 0.000641290098429, Q4 : -0.000577426864766}
2019-04-14 18:16:07.01: SIM {TimeUS : 45435152, Roll : 0.07, Pitch : 0.08, Yaw : 359.93, Alt : 32.2900009155, Lat : 49.2835703, Lng : -123.1150206, Q1 : 0.999999344349, Q2 : 0.000665091967676, Q3 : 0.000745003984775, Q4 : -0.000563292996958}
2019-04-14 18:16:07.11: SIM {TimeUS : 45535112, Roll : 0.06, Pitch : 0.1, Yaw : 359.93, Alt : 32.4799995422, Lat : 49.2835703, Lng : -123.1150207, Q1 : 0.999999284744, Q2 : 0.000601298583206, Q3 : 0.000899285718333, Q4 : -0.000546883384231}
2019-04-14 18:16:07.21: SIM {TimeUS : 45635072, Roll : 0.09, Pitch : 0.12, Yaw : 359.93, Alt : 32.6800003052, Lat : 49.2835703, Lng : -123.1150207, Q1 : 0.999998867512, Q2 : 0.000821097404696, Q3 : 0.00113308511209, Q4 : -0.000529299140908}
2019-04-14 18:16:07.31: SIM {TimeUS : 45735032, Roll : 0.12, Pitch : 0.15, Yaw : 359.94, Alt : 32.8800010681, Lat : 49.2835703, Lng : -123.1150208, Q1 : 0.99999833107, Q2 : 0.0010820380412, Q3 : 0.00136955897324, Q4 : -0.000509074947331}
2019-04-14 18:16:07.41: SIM {TimeUS : 45834992, Roll : 0.14, Pitch : 0.18, Yaw : 359.94, Alt : 33.0800018311, Lat : 49.2835704, Lng : -123.1150208, Q1 : 0.999997794628, Q2 : 0.00126318633556, Q3 : 0.00160814775154, Q4 : -0.000489649304654}
2019-04-14 18:16:07.51: SIM {TimeUS : 45934952, Roll : 0.15, Pitch : 0.18, Yaw : 359.94, Alt : 33.2799987793, Lat : 49.2835704, Lng : -123.1150208, Q1 : 0.999997675419, Q2 : 0.0013604281703, Q3 : 0.00160698965192, Q4 : -0.000468181358883}
2019-04-14 18:16:07.61: SIM {TimeUS : 46034912, Roll : 0.15, Pitch : 0.15, Yaw : 359.94, Alt : 33.4799995422, Lat : 49.2835704, Lng : -123.1150208, Q1 : 0.999998152256, Q2 : 0.0013556019403, Q3 : 0.00131645437796, Q4 : -0.000463793840026}
2019-04-14 18:16:07.71: SIM {TimeUS : 46134872, Roll : 0.14, Pitch : 0.13, Yaw : 359.94, Alt : 33.6899986267, Lat : 49.2835704, Lng : -123.1150208, Q1 : 0.999998390675, Q2 : 0.0013031011913, Q3 : 0.00116279465146, Q4 : -0.000458464055555}
2019-04-14 18:16:07.81: SIM {TimeUS : 46234832, Roll : 0.14, Pitch : 0.12, Yaw : 359.94, Alt : 33.9000015259, Lat : 49.2835704, Lng : -123.1150208, Q1 : 0.999998450279, Q2 : 0.00126898416784, Q3 : 0.00111571874004, Q4 : -0.000463224801933}
2019-04-14 18:16:07.91: SIM {TimeUS : 46334792, Roll : 0.15, Pitch : 0.13, Yaw : 359.94, Alt : 34.1100006104, Lat : 49.2835704, Lng : -123.1150208, Q1 : 0.99999833107, Q2 : 0.00132738472894, Q3 : 0.00114328495692, Q4 : -0.000479694048408}
2019-04-14 18:16:08.01: SIM {TimeUS : 46434752, Roll : 0.14, Pitch : 0.11, Yaw : 359.94, Alt : 34.3199996948, Lat : 49.2835704, Lng : -123.1150208, Q1 : 0.999998569489, Q2 : 0.00128563540056, Q3 : 0.000979337608442, Q4 : -0.000500541180372}
2019-04-14 18:16:08.11: SIM {TimeUS : 46534712, Roll : 0.12, Pitch : 0.09, Yaw : 359.94, Alt : 34.5299987793, Lat : 49.2835704, Lng : -123.1150208, Q1 : 0.999998927116, Q2 : 0.00112941279076, Q3 : 0.000799373083282, Q4 : -0.000521704321727}
2019-04-14 18:16:08.21: SIM {TimeUS : 46634672, Roll : 0.1, Pitch : 0.07, Yaw : 359.93, Alt : 34.75, Lat : 49.2835704, Lng : -123.1150208, Q1 : 0.99999922514, Q2 : 0.000880616367795, Q3 : 0.000667651591357, Q4 : -0.000551580626052}
2019-04-14 18:16:08.31: SIM {TimeUS : 46734632, Roll : 0.07, Pitch : 0.06, Yaw : 359.93, Alt : 34.9599990845, Lat : 49.2835704, Lng : -123.1150208, Q1 : 0.999999463558, Q2 : 0.000611396448221, Q3 : 0.000582316482905, Q4 : -0.000586785725318}
2019-04-14 18:16:08.42: SIM {TimeUS : 46835425, Roll : 0.05, Pitch : 0.03, Yaw : 359.92, Alt : 35.1800003052, Lat : 49.2835704, Lng : -123.1150208, Q1 : 0.999999701977, Q2 : 0.000447748956503, Q3 : 0.000287062692223, Q4 : -0.000627643486951}
2019-04-14 18:16:08.51: SIM {TimeUS : 46935385, Roll : 0.03, Pitch : 0.0, Yaw : 359.92, Alt : 35.4000015259, Lat : 49.2835704, Lng : -123.1150208, Q1 : 0.999999701977, Q2 : 0.000345609732904, Q3 : 6.42421873636e-05, Q4 : -0.000663798011374}
2019-04-14 18:16:08.61: SIM {TimeUS : 47035345, Roll : 0.01, Pitch : 0.0, Yaw : 359.92, Alt : 35.6100006104, Lat : 49.2835704, Lng : -123.1150208, Q1 : 0.999999761581, Q2 : 0.000120813281683, Q3 : -2.81835018541e-05, Q4 : -0.000694002665114}
2019-04-14 18:16:08.71: SIM {TimeUS : 47135305, Roll : 0.0, Pitch : 0.0, Yaw : 359.91, Alt : 35.8300018311, Lat : 49.2835704, Lng : -123.1150207, Q1 : 0.999999761581, Q2 : 5.31132791366e-05, Q3 : -7.48601087253e-06, Q4 : -0.000717722403351}
2019-04-14 18:16:08.81: SIM {TimeUS : 47235265, Roll : 0.01, Pitch : 0.0, Yaw : 359.91, Alt : 36.0499992371, Lat : 49.2835704, Lng : -123.1150207, Q1 : 0.999999701977, Q2 : 0.00010264350567, Q3 : 3.12570373353e-05, Q4 : -0.00073994952254}
2019-04-14 18:16:08.91: SIM {TimeUS : 47335225, Roll : 0.0, Pitch : -0.01, Yaw : 359.91, Alt : 36.2700004578, Lat : 49.2835704, Lng : -123.1150207, Q1 : 0.999999701977, Q2 : -7.86390319263e-06, Q3 : -0.000145166224684, Q4 : -0.000758740585297}
2019-04-14 18:16:09.01: SIM {TimeUS : 47435185, Roll : -0.03, Pitch : -0.05, Yaw : 359.91, Alt : 36.5, Lat : 49.2835704, Lng : -123.1150207, Q1 : 0.999999582767, Q2 : -0.000267452618573, Q3 : -0.000470298284199, Q4 : -0.000775918364525}
2019-04-14 18:16:09.11: SIM {TimeUS : 47535145, Roll : -0.06, Pitch : -0.07, Yaw : 359.9, Alt : 36.7200012207, Lat : 49.2835704, Lng : -123.1150207, Q1 : 0.999999284744, Q2 : -0.000588305352721, Q3 : -0.00068161834497, Q4 : -0.000793537590653}
2019-04-14 18:16:09.21: SIM {TimeUS : 47635105, Roll : -0.1, Pitch : -0.09, Yaw : 359.9, Alt : 36.9399986267, Lat : 49.2835704, Lng : -123.1150207, Q1 : 0.999998927116, Q2 : -0.000897600257304, Q3 : -0.000853772391565, Q4 : -0.000810434983578}
2019-04-14 18:16:09.31: SIM {TimeUS : 47735065, Roll : -0.1, Pitch : -0.09, Yaw : 359.9, Alt : 37.1699981689, Lat : 49.2835704, Lng : -123.1150207, Q1 : 0.999998807907, Q2 : -0.000959295080975, Q3 : -0.000855864258483, Q4 : -0.000834803970065}
2019-04-14 18:16:09.41: SIM {TimeUS : 47835025, Roll : -0.09, Pitch : -0.08, Yaw : 359.9, Alt : 37.3899993896, Lat : 49.2835704, Lng : -123.1150206, Q1 : 0.999999046326, Q2 : -0.000866793212481, Q3 : -0.000699395081028, Q4 : -0.000862848304678}
2019-04-14 18:16:09.51: SIM {TimeUS : 47934985, Roll : -0.08, Pitch : -0.04, Yaw : 359.89, Alt : 37.6199989319, Lat : 49.2835704, Lng : -123.1150206, Q1 : 0.99999922514, Q2 : -0.00073108606739, Q3 : -0.000417884381022, Q4 : -0.00089123606449}
2019-04-14 18:16:09.61: SIM {TimeUS : 48034945, Roll : -0.06, Pitch : -0.02, Yaw : 359.89, Alt : 37.8400001526, Lat : 49.2835704, Lng : -123.1150206, Q1 : 0.999999403954, Q2 : -0.000573544006329, Q3 : -0.000215628868318, Q4 : -0.000916270248126}
2019-04-14 18:16:09.71: SIM {TimeUS : 48134905, Roll : -0.06, Pitch : -0.02, Yaw : 359.89, Alt : 38.0699996948, Lat : 49.2835704, Lng : -123.1150206, Q1 : 0.999999403954, Q2 : -0.000552203739062, Q3 : -0.000215405088966, Q4 : -0.000938338693231}
2019-04-14 18:16:09.81: SIM {TimeUS : 48234865, Roll : -0.06, Pitch : -0.01, Yaw : 359.89, Alt : 38.2999992371, Lat : 49.2835704, Lng : -123.1150206, Q1 : 0.999999344349, Q2 : -0.000595244113356, Q3 : -0.000137950322824, Q4 : -0.000952250731643}
2019-04-14 18:16:09.91: SIM {TimeUS : 48334825, Roll : -0.08, Pitch : 0.0, Yaw : 359.89, Alt : 38.5299987793, Lat : 49.2835704, Lng : -123.1150206, Q1 : 0.999999284744, Q2 : -0.000760762137361, Q3 : -1.53909604705e-05, Q4 : -0.000958364340477}
2019-04-14 18:16:10.01: SIM {TimeUS : 48434785, Roll : -0.08, Pitch : 0.01, Yaw : 359.89, Alt : 38.75, Lat : 49.2835704, Lng : -123.1150206, Q1 : 0.999999284744, Q2 : -0.00075651780935, Q3 : 0.000103028200101, Q4 : -0.000956037314609}
2019-04-14 18:16:10.11: SIM {TimeUS : 48534745, Roll : -0.06, Pitch : 0.03, Yaw : 359.88, Alt : 38.9799995422, Lat : 49.2835704, Lng : -123.1150206, Q1 : 0.999999344349, Q2 : -0.000548859476112, Q3 : 0.000309334049234, Q4 : -0.000962598016486}
2019-04-14 18:16:10.21: SIM {TimeUS : 48634705, Roll : -0.03, Pitch : 0.03, Yaw : 359.88, Alt : 39.2099990845, Lat : 49.2835704, Lng : -123.1150206, Q1 : 0.999999463558, Q2 : -0.000319230253808, Q3 : 0.000295961042866, Q4 : -0.000969023443758}
2019-04-14 18:16:10.31: SIM {TimeUS : 48734665, Roll : 0.0, Pitch : 0.02, Yaw : 359.88, Alt : 39.4399986267, Lat : 49.2835706, Lng : -123.1150207, Q1 : 0.999999463558, Q2 : -6.6543907451e-05, Q3 : 0.000240829700488, Q4 : -0.000975501199719}
2019-04-14 18:16:10.41: SIM {TimeUS : 48834625, Roll : 0.02, Pitch : 0.04, Yaw : 359.88, Alt : 39.6699981689, Lat : 49.2835706, Lng : -123.1150207, Q1 : 0.999999403954, Q2 : 0.000223592141992, Q3 : 0.000393370864913, Q4 : -0.000982029014267}
2019-04-14 18:16:10.52: SIM {TimeUS : 48935418, Roll : 0.05, Pitch : 0.07, Yaw : 359.88, Alt : 39.9099998474, Lat : 49.2835706, Lng : -123.1150207, Q1 : 0.99999910593, Q2 : 0.000522046524566, Q3 : 0.000690379820298, Q4 : -0.000996803632006}
2019-04-14 18:16:10.61: SIM {TimeUS : 49035378, Roll : 0.08, Pitch : 0.1, Yaw : 359.88, Alt : 40.1399993896, Lat : 49.2835706, Lng : -123.1150207, Q1 : 0.999998748302, Q2 : 0.000742535630707, Q3 : 0.000951047404669, Q4 : -0.00101954943966}
2019-04-14 18:16:10.71: SIM {TimeUS : 49135338, Roll : 0.07, Pitch : 0.13, Yaw : 359.88, Alt : 40.3699989319, Lat : 49.2835706, Lng : -123.1150207, Q1 : 0.999998509884, Q2 : 0.000650792673696, Q3 : 0.00119377742521, Q4 : -0.00103720265906}
2019-04-14 18:16:10.81: SIM {TimeUS : 49235298, Roll : 0.02, Pitch : 0.15, Yaw : 359.87, Alt : 40.5999984741, Lat : 49.2835706, Lng : -123.1150207, Q1 : 0.999998450279, Q2 : 0.000224289120524, Q3 : 0.00136967538856, Q4 : -0.00107290199958}
2019-04-14 18:16:10.91: SIM {TimeUS : 49335258, Roll : -0.01, Pitch : 0.16, Yaw : 359.87, Alt : 40.8300018311, Lat : 49.2835706, Lng : -123.1150207, Q1 : 0.99999833107, Q2 : -0.000153572211275, Q3 : 0.00143610662781, Q4 : -0.00110819679685}
2019-04-14 18:16:11.01: SIM {TimeUS : 49435218, Roll : -0.04, Pitch : 0.14, Yaw : 359.86, Alt : 41.0600013733, Lat : 49.2835706, Lng : -123.1150207, Q1 : 0.999998450279, Q2 : -0.000356538337655, Q3 : 0.00130630016793, Q4 : -0.00114042090718}
2019-04-14 18:16:11.11: SIM {TimeUS : 49535178, Roll : -0.04, Pitch : 0.12, Yaw : 359.86, Alt : 41.2999992371, Lat : 49.2835706, Lng : -123.1150207, Q1 : 0.999998629093, Q2 : -0.000374343857402, Q3 : 0.00110587279778, Q4 : -0.00117771397345}
2019-04-14 18:16:11.21: SIM {TimeUS : 49635138, Roll : -0.02, Pitch : 0.12, Yaw : 359.86, Alt : 41.5299987793, Lat : 49.2835706, Lng : -123.1150207, Q1 : 0.999998629093, Q2 : -0.000223603230552, Q3 : 0.00110181828495, Q4 : -0.00122086307965}
2019-04-14 18:16:11.31: SIM {TimeUS : 49735098, Roll : 0.01, Pitch : 0.14, Yaw : 359.85, Alt : 41.7599983215, Lat : 49.2835706, Lng : -123.1150207, Q1 : 0.999998390675, Q2 : 0.000154072462465, Q3 : 0.00124723941553, Q4 : -0.00126946205273}
2019-04-14 18:16:11.41: SIM {TimeUS : 49835058, Roll : 0.07, Pitch : 0.15, Yaw : 359.84, Alt : 42.0, Lat : 49.2835706, Lng : -123.1150207, Q1 : 0.999998033047, Q2 : 0.000616437231656, Q3 : 0.00133809319232, Q4 : -0.00131885311566}
2019-04-14 18:16:11.51: SIM {TimeUS : 49935018, Roll : 0.1, Pitch : 0.13, Yaw : 359.84, Alt : 42.2299995422, Lat : 49.2835706, Lng : -123.1150207, Q1 : 0.999997973442, Q2 : 0.000948782544583, Q3 : 0.00113327614963, Q4 : -0.00136356393341}
2019-04-14 18:16:11.61: SIM {TimeUS : 50034978, Roll : 0.11, Pitch : 0.08, Yaw : 359.83, Alt : 42.4700012207, Lat : 49.2835706, Lng : -123.1150207, Q1 : 0.999998271465, Q2 : 0.000967824133113, Q3 : 0.000778703775723, Q4 : -0.00140007713344}
2019-04-14 18:16:11.71: SIM {TimeUS : 50134938, Roll : 0.07, Pitch : 0.06, Yaw : 359.83, Alt : 42.7000007629, Lat : 49.2835706, Lng : -123.1150207, Q1 : 0.999998629093, Q2 : 0.000635593896732, Q3 : 0.00055503443582, Q4 : -0.00141951779369}
2019-04-14 18:16:11.81: SIM {TimeUS : 50234898, Roll : 0.01, Pitch : 0.05, Yaw : 359.83, Alt : 42.9399986267, Lat : 49.2835704, Lng : -123.1150207, Q1 : 0.999998807907, Q2 : 0.00015404583246, Q3 : 0.000511896738317, Q4 : -0.00142961728852}
2019-04-14 18:16:11.91: SIM {TimeUS : 50334858, Roll : -0.02, Pitch : 0.08, Yaw : 359.83, Alt : 43.1699981689, Lat : 49.2835704, Lng : -123.1150207, Q1 : 0.999998688698, Q2 : -0.000197735585971, Q3 : 0.000738166680094, Q4 : -0.0014292220585}
2019-04-14 18:16:12.01: SIM {TimeUS : 50434818, Roll : -0.04, Pitch : 0.1, Yaw : 359.83, Alt : 43.4099998474, Lat : 49.2835704, Lng : -123.1150207, Q1 : 0.999998509884, Q2 : -0.000377348827897, Q3 : 0.000884487992153, Q4 : -0.00142619758844}
2019-04-14 18:16:12.11: SIM {TimeUS : 50534778, Roll : -0.04, Pitch : 0.09, Yaw : 359.83, Alt : 43.6399993896, Lat : 49.2835704, Lng : -123.1150206, Q1 : 0.999998569489, Q2 : -0.000367553060642, Q3 : 0.000809296674561, Q4 : -0.00142498826608}
2019-04-14 18:16:12.21: SIM {TimeUS : 50634738, Roll : -0.04, Pitch : 0.07, Yaw : 359.83, Alt : 43.8800010681, Lat : 49.2835704, Lng : -123.1150206, Q1 : 0.999998688698, Q2 : -0.000411606102716, Q3 : 0.00063891481841, Q4 : -0.00143515295349}
2019-04-14 18:16:12.31: SIM {TimeUS : 50734698, Roll : -0.04, Pitch : 0.04, Yaw : 359.83, Alt : 44.1100006104, Lat : 49.2835704, Lng : -123.1150206, Q1 : 0.999998807907, Q2 : -0.000360686710337, Q3 : 0.000426946062362, Q4 : -0.00144836865366}
2019-04-14 18:16:12.41: SIM {TimeUS : 50834658, Roll : -0.02, Pitch : 0.02, Yaw : 359.83, Alt : 44.3499984741, Lat : 49.2835704, Lng : -123.1150206, Q1 : 0.999998867512, Q2 : -0.000197437489987, Q3 : 0.000256280589383, Q4 : -0.00147074460983}
2019-04-14 18:16:12.51: SIM {TimeUS : 50934618, Roll : 0.0, Pitch : 0.01, Yaw : 359.82, Alt : 44.5800018311, Lat : 49.2835704, Lng : -123.1150206, Q1 : 0.999998867512, Q2 : -8.20993082016e-05, Q3 : 0.000146828475408, Q4 : -0.00149883201811}
2019-04-14 18:16:12.61: SIM {TimeUS : 51035411, Roll : -0.01, Pitch : 0.0, Yaw : 359.82, Alt : 44.8199996948, Lat : 49.2835703, Lng : -123.1150206, Q1 : 0.999998807907, Q2 : -0.000119033567898, Q3 : -6.32918527117e-05, Q4 : -0.00153012946248}
2019-04-14 18:16:12.71: SIM {TimeUS : 51135371, Roll : -0.02, Pitch : -0.04, Yaw : 359.82, Alt : 45.0600013733, Lat : 49.2835703, Lng : -123.1150206, Q1 : 0.999998688698, Q2 : -0.000191783590708, Q3 : -0.000360406353138, Q4 : -0.0015698496718}
2019-04-14 18:16:12.81: SIM {TimeUS : 51235331, Roll : -0.03, Pitch : -0.06, Yaw : 359.81, Alt : 45.2900009155, Lat : 49.2835703, Lng : -123.1150206, Q1 : 0.999998509884, Q2 : -0.000273978163023, Q3 : -0.000531976460479, Q4 : -0.00160910224076}
2019-04-14 18:16:12.91: SIM {TimeUS : 51335291, Roll : -0.03, Pitch : -0.06, Yaw : 359.81, Alt : 45.5299987793, Lat : 49.2835703, Lng : -123.1150206, Q1 : 0.999998450279, Q2 : -0.000276385078905, Q3 : -0.00053403142374, Q4 : -0.00164573185612}
2019-04-14 18:16:13.01: SIM {TimeUS : 51435251, Roll : -0.03, Pitch : -0.05, Yaw : 359.8, Alt : 45.7599983215, Lat : 49.2835703, Lng : -123.1150206, Q1 : 0.999998450279, Q2 : -0.000327458139509, Q3 : -0.000437004462583, Q4 : -0.00167965365108}
2019-04-14 18:16:13.11: SIM {TimeUS : 51535211, Roll : -0.05, Pitch : -0.03, Yaw : 359.8, Alt : 46.0, Lat : 49.2835703, Lng : -123.1150206, Q1 : 0.999998390675, Q2 : -0.000520025379956, Q3 : -0.000298929779092, Q4 : -0.00171068147756}
2019-04-14 18:16:13.21: SIM {TimeUS : 51635171, Roll : -0.09, Pitch : -0.02, Yaw : 359.8, Alt : 46.2200012207, Lat : 49.2835703, Lng : -123.1150206, Q1 : 0.999998152256, Q2 : -0.000821966328658, Q3 : -0.000212542247027, Q4 : -0.00173710868694}
2019-04-14 18:16:13.31: SIM {TimeUS : 51735131, Roll : -0.11, Pitch : -0.02, Yaw : 359.79, Alt : 46.4500007629, Lat : 49.2835703, Lng : -123.1150206, Q1 : 0.999997913837, Q2 : -0.00102494913153, Q3 : -0.000181851821253, Q4 : -0.0017580970889}
2019-04-14 18:16:13.41: SIM {TimeUS : 51835091, Roll : -0.12, Pitch : -0.01, Yaw : 359.79, Alt : 46.6699981689, Lat : 49.2835703, Lng : -123.1150206, Q1 : 0.999997854233, Q2 : -0.0010491394205, Q3 : -0.000102028956462, Q4 : -0.00177759199869}
2019-04-14 18:16:13.51: SIM {TimeUS : 51935051, Roll : -0.1, Pitch : 0.0, Yaw : 359.79, Alt : 46.8800010681, Lat : 49.2835703, Lng : -123.1150206, Q1 : 0.999997973442, Q2 : -0.000924183055758, Q3 : 5.5908869399e-05, Q4 : -0.00179844803642}
2019-04-14 18:16:13.61: SIM {TimeUS : 52035011, Roll : -0.08, Pitch : 0.01, Yaw : 359.79, Alt : 47.0900001526, Lat : 49.2835703, Lng : -123.1150206, Q1 : 0.999998092651, Q2 : -0.000708151666913, Q3 : 0.000131335560582, Q4 : -0.00182300712913}
2019-04-14 18:16:13.71: SIM {TimeUS : 52134971, Roll : -0.05, Pitch : 0.01, Yaw : 359.78, Alt : 47.2900009155, Lat : 49.2835703, Lng : -123.1150206, Q1 : 0.999998152256, Q2 : -0.000505294417962, Q3 : 0.000116051873192, Q4 : -0.00185230909847}
2019-04-14 18:16:13.81: SIM {TimeUS : 52234931, Roll : -0.04, Pitch : 0.0, Yaw : 359.78, Alt : 47.4799995422, Lat : 49.2835703, Lng : -123.1150206, Q1 : 0.999998152256, Q2 : -0.000411429384258, Q3 : -9.21005448618e-06, Q4 : -0.00188589154277}
2019-04-14 18:16:13.91: SIM {TimeUS : 52334891, Roll : -0.03, Pitch : -0.02, Yaw : 359.78, Alt : 47.6699981689, Lat : 49.2835703, Lng : -123.1150206, Q1 : 0.999998092651, Q2 : -0.000310225732392, Q3 : -0.000256676663412, Q4 : -0.00191380118486}
2019-04-14 18:16:14.01: SIM {TimeUS : 52434851, Roll : -0.02, Pitch : -0.06, Yaw : 359.77, Alt : 47.8400001526, Lat : 49.2835703, Lng : -123.1150206, Q1 : 0.999997973442, Q2 : -0.00025663638371, Q3 : -0.000528231263161, Q4 : -0.00193633092567}
2019-04-14 18:16:14.11: SIM {TimeUS : 52534811, Roll : -0.02, Pitch : -0.08, Yaw : 359.77, Alt : 48.0, Lat : 49.2835703, Lng : -123.1150206, Q1 : 0.999997735023, Q2 : -0.000250867451541, Q3 : -0.000777372391894, Q4 : -0.00195591221564}
2019-04-14 18:16:14.21: SIM {TimeUS : 52634771, Roll : -0.03, Pitch : -0.11, Yaw : 359.77, Alt : 48.1399993896, Lat : 49.2835703, Lng : -123.1150206, Q1 : 0.99999755621, Q2 : -0.000277407321846, Q3 : -0.000966926163528, Q4 : -0.00197524740361}
2019-04-14 18:16:14.31: SIM {TimeUS : 52734731, Roll : 0.0, Pitch : -0.1, Yaw : 359.77, Alt : 48.2799987793, Lat : 49.2835703, Lng : -123.1150206, Q1 : 0.99999755621, Q2 : -3.48920111719e-05, Q3 : -0.000951869646087, Q4 : -0.00199452205561}
2019-04-14 18:16:14.41: SIM {TimeUS : 52834691, Roll : 0.03, Pitch : -0.09, Yaw : 359.76, Alt : 48.4099998474, Lat : 49.2835703, Lng : -123.1150206, Q1 : 0.999997615814, Q2 : 0.000294479134027, Q3 : -0.000790539430454, Q4 : -0.00201576738618}
2019-04-14 18:16:14.51: SIM {TimeUS : 52934651, Roll : 0.06, Pitch : -0.06, Yaw : 359.76, Alt : 48.5200004578, Lat : 49.2835703, Lng : -123.1150206, Q1 : 0.999997615814, Q2 : 0.000579308718443, Q3 : -0.00055135198636, Q4 : -0.00203815917484}
2019-04-14 18:16:14.62: SIM {TimeUS : 53035444, Roll : 0.07, Pitch : -0.03, Yaw : 359.76, Alt : 48.6199989319, Lat : 49.2835703, Lng : -123.1150206, Q1 : 0.999997615814, Q2 : 0.000689317123033, Q3 : -0.000317562371492, Q4 : -0.00206337589771}
2019-04-14 18:16:14.71: SIM {TimeUS : 53135404, Roll : 0.08, Pitch : -0.02, Yaw : 359.76, Alt : 48.7099990845, Lat : 49.2835703, Lng : -123.1150206, Q1 : 0.999997496605, Q2 : 0.000734525325242, Q3 : -0.00021932987147, Q4 : -0.00209013256244}
2019-04-14 18:16:14.81: SIM {TimeUS : 53235364, Roll : 0.07, Pitch : -0.03, Yaw : 359.75, Alt : 48.7799987793, Lat : 49.2835703, Lng : -123.1150206, Q1 : 0.999997496605, Q2 : 0.000642063852865, Q3 : -0.000286716764094, Q4 : -0.0021229153499}
2019-04-14 18:16:14.91: SIM {TimeUS : 53335324, Roll : 0.04, Pitch : -0.03, Yaw : 359.75, Alt : 48.8499984741, Lat : 49.2835703, Lng : -123.1150206, Q1 : 0.99999755621, Q2 : 0.000379423698178, Q3 : -0.000294093304547, Q4 : -0.00215673400089}
2019-04-14 18:16:15.01: SIM {TimeUS : 53435284, Roll : 0.04, Pitch : -0.04, Yaw : 359.74, Alt : 48.9099998474, Lat : 49.2835703, Lng : -123.1150206, Q1 : 0.999997437, Q2 : 0.000392598478356, Q3 : -0.00042553426465, Q4 : -0.0021845670417}
2019-04-14 18:16:15.11: SIM {TimeUS : 53535244, Roll : 0.16, Pitch : -0.16, Yaw : 359.74, Alt : 48.9599990845, Lat : 49.2835703, Lng : -123.1150206, Q1 : 0.999995470047, Q2 : 0.00145409803372, Q3 : -0.0014608616475, Q4 : -0.00221573933959}
2019-04-14 18:16:15.21: SIM {TimeUS : 53635204, Roll : 0.48, Pitch : -0.45, Yaw : 359.74, Alt : 49.0, Lat : 49.2835703, Lng : -123.1150206, Q1 : 0.999980390072, Q2 : 0.00425506336614, Q3 : -0.00400764821097, Q4 : -0.00224379193969}
2019-04-14 18:16:15.31: SIM {TimeUS : 53735164, Roll : 1.03, Pitch : -0.92, Yaw : 359.73, Alt : 49.0299987793, Lat : 49.2835704, Lng : -123.1150206, Q1 : 0.999924361706, Q2 : 0.00899656955153, Q3 : -0.00807489268482, Q4 : -0.00226091779768}
2019-04-14 18:16:15.41: SIM {TimeUS : 53835124, Roll : 1.73, Pitch : -1.53, Yaw : 359.71, Alt : 49.0600013733, Lat : 49.2835704, Lng : -123.1150206, Q1 : 0.999792277813, Q2 : 0.015129047446, Q3 : -0.0134713035077, Q4 : -0.00225699064322}
2019-04-14 18:16:15.51: SIM {TimeUS : 53935084, Roll : 2.51, Pitch : -2.25, Yaw : 359.69, Alt : 49.0900001526, Lat : 49.2835704, Lng : -123.1150205, Q1 : 0.999562859535, Q2 : 0.0219026766717, Q3 : -0.0197364464402, Q4 : -0.00220509222709}
2019-04-14 18:16:15.61: SIM {TimeUS : 54035044, Roll : 3.23, Pitch : -2.95, Yaw : 359.67, Alt : 49.1100006104, Lat : 49.2835706, Lng : -123.1150204, Q1 : 0.999266386032, Q2 : 0.0281790755689, Q3 : -0.0258514881134, Q4 : -0.00208675907925}
2019-04-14 18:16:15.71: SIM {TimeUS : 54135004, Roll : 3.81, Pitch : -3.54, Yaw : 359.66, Alt : 49.1300010681, Lat : 49.2835707, Lng : -123.1150202, Q1 : 0.998966932297, Q2 : 0.0331602692604, Q3 : -0.0310130100697, Q4 : -0.0018972636899}
2019-04-14 18:16:15.81: SIM {TimeUS : 54234964, Roll : 4.22, Pitch : -3.99, Yaw : 359.66, Alt : 49.1500015259, Lat : 49.2835709, Lng : -123.11502, Q1 : 0.998712599277, Q2 : 0.0367729738355, Q3 : -0.0349034629762, Q4 : -0.00164923549164}
2019-04-14 18:16:15.91: SIM {TimeUS : 54334924, Roll : 4.53, Pitch : -4.3, Yaw : 359.67, Alt : 49.1699981689, Lat : 49.283571, Lng : -123.1150197, Q1 : 0.998511910439, Q2 : 0.0394533164799, Q3 : -0.037624489516, Q4 : -0.00134984974284}
2019-04-14 18:16:16.01: SIM {TimeUS : 54434884, Roll : 4.79, Pitch : -4.55, Yaw : 359.69, Alt : 49.1800003052, Lat : 49.2835714, Lng : -123.1150193, Q1 : 0.998337566853, Q2 : 0.0416838526726, Q3 : -0.0397936664522, Q4 : -0.00102957501076}
2019-04-14 18:16:16.11: SIM {TimeUS : 54534844, Roll : 5.04, Pitch : -4.78, Yaw : 359.7, Alt : 49.1899986267, Lat : 49.2835716, Lng : -123.1150188, Q1 : 0.998159587383, Q2 : 0.0438950955868, Q3 : -0.0418349429965, Q4 : -0.000709960004315}
2019-04-14 18:16:16.21: SIM {TimeUS : 54634804, Roll : 5.32, Pitch : -5.02, Yaw : 359.71, Alt : 49.2000007629, Lat : 49.283572, Lng : -123.1150182, Q1 : 0.997962832451, Q2 : 0.046301882714, Q3 : -0.0438883155584, Q4 : -0.000403372774599}
2019-04-14 18:16:16.31: SIM {TimeUS : 54734764, Roll : 5.59, Pitch : -5.27, Yaw : 359.72, Alt : 49.2099990845, Lat : 49.2835724, Lng : -123.1150175, Q1 : 0.997753381729, Q2 : 0.0486658662558, Q3 : -0.0460423789918, Q4 : -0.000129165200633}
2019-04-14 18:16:16.41: SIM {TimeUS : 54834724, Roll : 5.83, Pitch : -5.49, Yaw : 359.73, Alt : 49.2200012207, Lat : 49.2835728, Lng : -123.1150168, Q1 : 0.997557997704, Q2 : 0.0507499016821, Q3 : -0.0479845367372, Q4 : 0.0001214970398}
2019-04-14 18:16:16.51: SIM {TimeUS : 54934684, Roll : 6.02, Pitch : -5.66, Yaw : 359.74, Alt : 49.2200012207, Lat : 49.2835733, Lng : -123.1150159, Q1 : 0.997398197651, Q2 : 0.0524126365781, Q3 : -0.0494943335652, Q4 : 0.000337587989634}
2019-04-14 18:16:16.61: SIM {TimeUS : 55034644, Roll : 6.15, Pitch : -5.77, Yaw : 359.74, Alt : 49.2299995422, Lat : 49.2835739, Lng : -123.115015, Q1 : 0.99729257822, Q2 : 0.053489882499, Q3 : -0.0504590943456, Q4 : 0.000489839119837}
2019-04-14 18:16:16.72: SIM {TimeUS : 55135437, Roll : 6.24, Pitch : -5.86, Yaw : 359.74, Alt : 49.2400016785, Lat : 49.2835745, Lng : -123.1150139, Q1 : 0.997213721275, Q2 : 0.0542776957154, Q3 : -0.051170155406, Q4 : 0.000573436205741}
2019-04-14 18:16:16.81: SIM {TimeUS : 55235397, Roll : 6.31, Pitch : -5.93, Yaw : 359.74, Alt : 49.2400016785, Lat : 49.2835752, Lng : -123.1150129, Q1 : 0.997144758701, Q2 : 0.0548886097968, Q3 : -0.0518586672843, Q4 : 0.00059603882255}
2019-04-14 18:16:16.91: SIM {TimeUS : 55335357, Roll : 6.5, Pitch : -5.97, Yaw : 359.78, Alt : 49.2400016785, Lat : 49.2835759, Lng : -123.1150117, Q1 : 0.997036397457, Q2 : 0.0565917231143, Q3 : -0.0521035082638, Q4 : 0.00104774790816}
2019-04-14 18:16:17.01: SIM {TimeUS : 55435317, Roll : 6.96, Pitch : -5.87, Yaw : 0.25, Alt : 49.25, Lat : 49.2835768, Lng : -123.1150105, Q1 : 0.996834337711, Q2 : 0.0607463903725, Q3 : -0.0510184727609, Q4 : 0.00531676784158}
2019-04-14 18:16:17.11: SIM {TimeUS : 55535277, Roll : 7.59, Pitch : -5.78, Yaw : 1.83, Alt : 49.25, Lat : 49.2835776, Lng : -123.1150092, Q1 : 0.996351063251, Q2 : 0.0669508203864, Q3 : -0.0492898598313, Q4 : 0.0193045251071}
2019-04-14 18:16:17.21: SIM {TimeUS : 55635237, Roll : 8.11, Pitch : -6.02, Yaw : 4.97, Alt : 49.2599983215, Lat : 49.2835783, Lng : -123.1150077, Q1 : 0.99501979351, Q2 : 0.0728253498673, Q3 : -0.0492830164731, Q4 : 0.0469396710396}
2019-04-14 18:16:17.31: SIM {TimeUS : 55735197, Roll : 8.24, Pitch : -6.71, Yaw : 9.67, Alt : 49.2599983215, Lat : 49.2835792, Lng : -123.1150062, Q1 : 0.991798639297, Q2 : 0.0764573737979, Q3 : -0.0521847493947, Q4 : 0.0881276428699}
2019-04-14 18:16:17.41: SIM {TimeUS : 55835157, Roll : 7.8, Pitch : -7.82, Yaw : 15.72, Alt : 49.2599983215, Lat : 49.28358, Lng : -123.1150046, Q1 : 0.985368967056, Q2 : 0.0765404999256, Q3 : -0.0581092871726, Q4 : 0.140758171678}
2019-04-14 18:16:17.51: SIM {TimeUS : 55935117, Roll : 6.68, Pitch : -9.16, Yaw : 22.88, Alt : 49.2599983215, Lat : 49.283581, Lng : -123.1150028, Q1 : 0.974409937859, Q2 : 0.0727458372712, Q3 : -0.066611148417, Q4 : 0.201980859041}
2019-04-14 18:16:17.61: SIM {TimeUS : 56035077, Roll : 4.87, Pitch : -10.52, Yaw : 30.88, Alt : 49.2599983215, Lat : 49.2835819, Lng : -123.1150009, Q1 : 0.957935214043, Q2 : 0.0652335137129, Q3 : -0.0770898908377, Q4 : 0.268629670143}
2019-04-14 18:16:17.71: SIM {TimeUS : 56135037, Roll : 2.24, Pitch : -11.71, Yaw : 39.23, Alt : 49.2599983215, Lat : 49.2835829, Lng : -123.1149989, Q1 : 0.936170816422, Q2 : 0.0526405163109, Q3 : -0.0895549431443, Q4 : 0.335846811533}
2019-04-14 18:16:17.81: SIM {TimeUS : 56234997, Roll : -0.93, Pitch : -12.47, Yaw : 47.14, Alt : 49.2700004578, Lat : 49.283584, Lng : -123.1149969, Q1 : 0.911450564861, Q2 : 0.0360671840608, Q3 : -0.102847509086, Q4 : 0.396710723639}
2019-04-14 18:16:17.91: SIM {TimeUS : 56334957, Roll : -4.02, Pitch : -12.75, Yaw : 53.74, Alt : 49.2700004578, Lat : 49.283585, Lng : -123.1149947, Q1 : 0.887706696987, Q2 : 0.0190385635942, Q3 : -0.114801958203, Q4 : 0.445460289717}
2019-04-14 18:16:18.01: SIM {TimeUS : 56434917, Roll : -6.4, Pitch : -12.69, Yaw : 58.47, Alt : 49.2700004578, Lat : 49.2835862, Lng : -123.1149926, Q1 : 0.868914842606, Q2 : 0.00548163289204, Q3 : -0.123417392373, Q4 : 0.479296505451}
2019-04-14 18:16:18.11: SIM {TimeUS : 56534877, Roll : -7.7, Pitch : -12.55, Yaw : 61.19, Alt : 49.2700004578, Lat : 49.2835876, Lng : -123.1149903, Q1 : 0.857420146465, Q2 : -0.00196540728211, Q3 : -0.127941682935, Q4 : 0.498455405235}
2019-04-14 18:16:18.21: SIM {TimeUS : 56634837, Roll : -7.94, Pitch : -12.54, Yaw : 62.08, Alt : 49.2700004578, Lat : 49.283589, Lng : -123.1149881, Q1 : 0.85350048542, Q2 : -0.00283588049933, Q3 : -0.128882527351, Q4 : 0.504894256592}
2019-04-14 18:16:18.31: SIM {TimeUS : 56734797, Roll : -7.3, Pitch : -12.76, Yaw : 61.49, Alt : 49.2700004578, Lat : 49.2835904, Lng : -123.1149858, Q1 : 0.855968117714, Q2 : 0.00230477191508, Q3 : -0.127735957503, Q4 : 0.5009958148}
2019-04-14 18:16:18.41: SIM {TimeUS : 56834757, Roll : -6.04, Pitch : -13.24, Yaw : 59.78, Alt : 49.2700004578, Lat : 49.2835921, Lng : -123.1149835, Q1 : 0.863020777702, Q2 : 0.0119974464178, Q3 : -0.125959828496, Q4 : 0.489065736532}
2019-04-14 18:16:18.51: SIM {TimeUS : 56934717, Roll : -4.41, Pitch : -13.88, Yaw : 57.27, Alt : 49.2700004578, Lat : 49.2835938, Lng : -123.1149812, Q1 : 0.872831046581, Q2 : 0.0243392903358, Q3 : -0.124328166246, Q4 : 0.471291929483}
2019-04-14 18:16:18.61: SIM {TimeUS : 57034677, Roll : -2.61, Pitch : -14.55, Yaw : 54.28, Alt : 49.2700004578, Lat : 49.2835956, Lng : -123.1149788, Q1 : 0.883790075779, Q2 : 0.0376686640084, Q3 : -0.123014494777, Q4 : 0.449848473072}
2019-04-14 18:16:18.71: SIM {TimeUS : 57134637, Roll : -0.81, Pitch : -15.13, Yaw : 51.13, Alt : 49.2799987793, Lat : 49.2835974, Lng : -123.1149762, Q1 : 0.89459747076, Q2 : 0.0504710152745, Q3 : -0.121845938265, Q4 : 0.426967948675}
2019-04-14 18:16:18.82: SIM {TimeUS : 57235430, Roll : 0.81, Pitch : -15.53, Yaw : 48.12, Alt : 49.2799987793, Lat : 49.2835993, Lng : -123.1149736, Q1 : 0.904297411442, Q2 : 0.0615282990038, Q3 : -0.120522394776, Q4 : 0.40488871932}
2019-04-14 18:16:18.91: SIM {TimeUS : 57335390, Roll : 2.11, Pitch : -15.71, Yaw : 45.61, Alt : 49.2799987793, Lat : 49.2836012, Lng : -123.1149709, Q1 : 0.912025094032, Q2 : 0.0698259919882, Q3 : -0.11892670393, Q4 : 0.386252492666}
2019-04-14 18:16:19.01: SIM {TimeUS : 57435350, Roll : 2.98, Pitch : -15.75, Yaw : 43.77, Alt : 49.2799987793, Lat : 49.2836031, Lng : -123.114968, Q1 : 0.91752320528, Q2 : 0.0750227719545, Q3 : -0.117483347654, Q4 : 0.37245196104}
2019-04-14 18:16:19.11: SIM {TimeUS : 57535310, Roll : 3.41, Pitch : -15.72, Yaw : 42.69, Alt : 49.2799987793, Lat : 49.2836049, Lng : -123.114965, Q1 : 0.920736730099, Q2 : 0.0772240534425, Q3 : -0.116598464549, Q4 : 0.364259779453}
2019-04-14 18:16:19.21: SIM {TimeUS : 57635270, Roll : 3.39, Pitch : -15.69, Yaw : 42.37, Alt : 49.2799987793, Lat : 49.2836068, Lng : -123.1149619, Q1 : 0.921812772751, Q2 : 0.0766983777285, Q3 : -0.116614632308, Q4 : 0.361634671688}
2019-04-14 18:16:19.31: SIM {TimeUS : 57735230, Roll : 3.01, Pitch : -15.7, Yaw : 42.7, Alt : 49.2799987793, Lat : 49.2836089, Lng : -123.1149587, Q1 : 0.921005666256, Q2 : 0.0740244314075, Q3 : -0.117681927979, Q4 : 0.363895446062}
2019-04-14 18:16:19.41: SIM {TimeUS : 57835190, Roll : 2.38, Pitch : -15.77, Yaw : 43.53, Alt : 49.2799987793, Lat : 49.2836109, Lng : -123.1149554, Q1 : 0.918649375439, Q2 : 0.0700015723705, Q3 : -0.119775108993, Q4 : 0.369914889336}
2019-04-14 18:16:19.51: SIM {TimeUS : 57935150, Roll : 1.59, Pitch : -15.9, Yaw : 44.69, Alt : 49.2799987793, Lat : 49.2836128, Lng : -123.114952, Q1 : 0.915165126324, Q2 : 0.0653455778956, Q3 : -0.122751221061, Q4 : 0.378331720829}
2019-04-14 18:16:19.61: SIM {TimeUS : 58035110, Roll : 0.75, Pitch : -16.07, Yaw : 46.0, Alt : 49.2799987793, Lat : 49.2836148, Lng : -123.1149485, Q1 : 0.911067605019, Q2 : 0.0606500692666, Q3 : -0.126107722521, Q4 : 0.387781113386}
2019-04-14 18:16:19.71: SIM {TimeUS : 58135070, Roll : -0.03, Pitch : -16.22, Yaw : 47.29, Alt : 49.2799987793, Lat : 49.283617, Lng : -123.1149449, Q1 : 0.906890451908, Q2 : 0.0563489831984, Q3 : -0.129408240318, Q4 : 0.397023975849}
2019-04-14 18:16:19.81: SIM {TimeUS : 58235030, Roll : -0.69, Pitch : -16.33, Yaw : 48.41, Alt : 49.2799987793, Lat : 49.283619, Lng : -123.1149413, Q1 : 0.903151571751, Q2 : 0.0527666136622, Q3 : -0.131998434663, Q4 : 0.405104100704}
2019-04-14 18:16:19.91: SIM {TimeUS : 58334990, Roll : -1.15, Pitch : -16.37, Yaw : 49.28, Alt : 49.2799987793, Lat : 49.2836212, Lng : -123.1149377, Q1 : 0.90021276474, Q2 : 0.0503227636218, Q3 : -0.133624017239, Q4 : 0.411374807358}
2019-04-14 18:16:20.01: SIM {TimeUS : 58434950, Roll : -1.41, Pitch : -16.39, Yaw : 49.84, Alt : 49.2799987793, Lat : 49.2836233, Lng : -123.114934, Q1 : 0.898285984993, Q2 : 0.0489856153727, Q3 : -0.134483829141, Q4 : 0.415447741747}
2019-04-14 18:16:20.11: SIM {TimeUS : 58534910, Roll : -1.47, Pitch : -16.41, Yaw : 50.08, Alt : 49.2799987793, Lat : 49.2836256, Lng : -123.1149303, Q1 : 0.897409260273, Q2 : 0.0488880500197, Q3 : -0.134721487761, Q4 : 0.417272984982}
2019-04-14 18:16:20.21: SIM {TimeUS : 58634870, Roll : -1.33, Pitch : -16.41, Yaw : 50.04, Alt : 49.2799987793, Lat : 49.2836279, Lng : -123.1149265, Q1 : 0.897518098354, Q2 : 0.0499131307006, Q3 : -0.134273558855, Q4 : 0.417061805725}
2019-04-14 18:16:20.31: SIM {TimeUS : 58734830, Roll : -1.07, Pitch : -16.42, Yaw : 49.75, Alt : 49.2799987793, Lat : 49.2836302, Lng : -123.1149227, Q1 : 0.898418188095, Q2 : 0.0516577474773, Q3 : -0.133510500193, Q4 : 0.4151519835}
2019-04-14 18:16:20.41: SIM {TimeUS : 58834790, Roll : -0.76, Pitch : -16.46, Yaw : 49.31, Alt : 49.2799987793, Lat : 49.2836326, Lng : -123.1149189, Q1 : 0.899836182594, Q2 : 0.0537613518536, Q3 : -0.132888033986, Q4 : 0.41200158}
2019-04-14 18:16:20.51: SIM {TimeUS : 58934750, Roll : -0.42, Pitch : -16.53, Yaw : 48.77, Alt : 49.2900009155, Lat : 49.2836348, Lng : -123.114915, Q1 : 0.901510059834, Q2 : 0.0560174696147, Q3 : -0.132464915514, Q4 : 0.408160150051}
2019-04-14 18:16:20.61: SIM {TimeUS : 59034710, Roll : -0.1, Pitch : -16.61, Yaw : 48.22, Alt : 49.2900009155, Lat : 49.2836372, Lng : -123.1149111, Q1 : 0.903202235699, Q2 : 0.0582090169191, Q3 : -0.132265552878, Q4 : 0.404157489538}
2019-04-14 18:16:20.71: SIM {TimeUS : 59134670, Roll : 0.16, Pitch : -16.68, Yaw : 47.72, Alt : 49.2900009155, Lat : 49.2836396, Lng : -123.1149071, Q1 : 0.904753029346, Q2 : 0.0600413866341, Q3 : -0.132105305791, Q4 : 0.400456279516}
2019-04-14 18:16:20.81: SIM {TimeUS : 59234630, Roll : 0.38, Pitch : -16.73, Yaw : 47.31, Alt : 49.2900009155, Lat : 49.283642, Lng : -123.1149031, Q1 : 0.906017422676, Q2 : 0.0614593848586, Q3 : -0.131984710693, Q4 : 0.39741063118}
2019-04-14 18:16:20.92: SIM {TimeUS : 59335423, Roll : 0.53, Pitch : -16.78, Yaw : 47.01, Alt : 49.2900009155, Lat : 49.2836445, Lng : -123.114899, Q1 : 0.906914412975, Q2 : 0.0624217987061, Q3 : -0.131969973445, Q4 : 0.395213514566}
2019-04-14 18:16:21.01: SIM {TimeUS : 59435383, Roll : 0.6, Pitch : -16.8, Yaw : 46.85, Alt : 49.2900009155, Lat : 49.2836469, Lng : -123.1148949, Q1 : 0.907410860062, Q2 : 0.062876701355, Q3 : -0.132027894258, Q4 : 0.393980592489}
2019-04-14 18:16:21.11: SIM {TimeUS : 59535343, Roll : 0.6, Pitch : -16.81, Yaw : 46.8, Alt : 49.2900009155, Lat : 49.2836494, Lng : -123.1148908, Q1 : 0.907538115978, Q2 : 0.0629104748368, Q3 : -0.132124707103, Q4 : 0.393649578094}
2019-04-14 18:16:21.21: SIM {TimeUS : 59635303, Roll : 0.54, Pitch : -16.83, Yaw : 46.86, Alt : 49.2900009155, Lat : 49.2836519, Lng : -123.1148866, Q1 : 0.907338738441, Q2 : 0.0625684633851, Q3 : -0.132445886731, Q4 : 0.39405554533}
2019-04-14 18:16:21.31: SIM {TimeUS : 59735263, Roll : 0.44, Pitch : -16.85, Yaw : 47.0, Alt : 49.2900009155, Lat : 49.2836545, Lng : -123.1148824, Q1 : 0.906892955303, Q2 : 0.0619509741664, Q3 : -0.132899314165, Q4 : 0.39502543211}
2019-04-14 18:16:21.41: SIM {TimeUS : 59835223, Roll : 0.3, Pitch : -16.88, Yaw : 47.19, Alt : 49.2900009155, Lat : 49.283657, Lng : -123.1148782, Q1 : 0.906288027763, Q2 : 0.0611802190542, Q3 : -0.133503511548, Q4 : 0.39632794261}
2019-04-14 18:16:21.51: SIM {TimeUS : 59935183, Roll : 0.15, Pitch : -16.92, Yaw : 47.4, Alt : 49.2900009155, Lat : 49.2836595, Lng : -123.114874, Q1 : 0.905606329441, Q2 : 0.060412812978, Q3 : -0.134225577116, Q4 : 0.397757470608}
2019-04-14 18:16:21.61: SIM {TimeUS : 60035143, Roll : 0.02, Pitch : -16.97, Yaw : 47.59, Alt : 49.2900009155, Lat : 49.283662, Lng : -123.1148697, Q1 : 0.904942214489, Q2 : 0.0597202889621, Q3 : -0.134986698627, Q4 : 0.399113714695}
2019-04-14 18:16:21.71: SIM {TimeUS : 60135103, Roll : -0.11, Pitch : -17.01, Yaw : 47.75, Alt : 49.2900009155, Lat : 49.2836645, Lng : -123.1148654, Q1 : 0.904389858246, Q2 : 0.0590153001249, Q3 : -0.135678395629, Q4 : 0.400234311819}
2019-04-14 18:16:21.81: SIM {TimeUS : 60235063, Roll : -0.21, Pitch : -17.04, Yaw : 47.87, Alt : 49.2999992371, Lat : 49.283667, Lng : -123.114861, Q1 : 0.903996407986, Q2 : 0.0584033429623, Q3 : -0.136204153299, Q4 : 0.401033639908}
2019-04-14 18:16:21.91: SIM {TimeUS : 60335023, Roll : -0.28, Pitch : -17.07, Yaw : 47.94, Alt : 49.2999992371, Lat : 49.2836697, Lng : -123.1148567, Q1 : 0.90376073122, Q2 : 0.058031629771, Q3 : -0.136665180326, Q4 : 0.401461780071}
2019-04-14 18:16:22.01: SIM {TimeUS : 60434983, Roll : -0.3, Pitch : -17.11, Yaw : 47.95, Alt : 49.2999992371, Lat : 49.2836723, Lng : -123.1148523, Q1 : 0.903670728207, Q2 : 0.0580943487585, Q3 : -0.13703648746, Q4 : 0.401528656483}
2019-04-14 18:16:22.11: SIM {TimeUS : 60534943, Roll : -0.27, Pitch : -17.16, Yaw : 47.92, Alt : 49.2999992371, Lat : 49.2836749, Lng : -123.1148479, Q1 : 0.903722465038, Q2 : 0.0584613606334, Q3 : -0.137325748801, Q4 : 0.401260018349}
2019-04-14 18:16:22.21: SIM {TimeUS : 60634903, Roll : -0.19, Pitch : -17.2, Yaw : 47.84, Alt : 49.2999992371, Lat : 49.2836774, Lng : -123.1148435, Q1 : 0.903893947601, Q2 : 0.0591118745506, Q3 : -0.137444496155, Q4 : 0.400737583637}
2019-04-14 18:16:22.31: SIM {TimeUS : 60734863, Roll : -0.1, Pitch : -17.24, Yaw : 47.74, Alt : 49.2999992371, Lat : 49.2836802, Lng : -123.1148391, Q1 : 0.904150605202, Q2 : 0.059887278825, Q3 : -0.137456119061, Q4 : 0.400038808584}
2019-04-14 18:16:22.41: SIM {TimeUS : 60834823, Roll : -0.01, Pitch : -17.27, Yaw : 47.63, Alt : 49.2999992371, Lat : 49.2836828, Lng : -123.1148346, Q1 : 0.904465377331, Q2 : 0.0605536922812, Q3 : -0.137453258038, Q4 : 0.399226993322}
2019-04-14 18:16:22.51: SIM {TimeUS : 60934783, Roll : 0.04, Pitch : -17.29, Yaw : 47.52, Alt : 49.2999992371, Lat : 49.2836855, Lng : -123.1148302, Q1 : 0.904806256294, Q2 : 0.0609724745154, Q3 : -0.137454047799, Q4 : 0.398389726877}
2019-04-14 18:16:22.61: SIM {TimeUS : 61034743, Roll : 0.08, Pitch : -17.3, Yaw : 47.41, Alt : 49.2999992371, Lat : 49.2836882, Lng : -123.1148257, Q1 : 0.905147075653, Q2 : 0.0611200518906, Q3 : -0.137430295348, Q4 : 0.397600352764}
2019-04-14 18:16:22.71: SIM {TimeUS : 61134703, Roll : 0.12, Pitch : -17.3, Yaw : 47.32, Alt : 49.3100013733, Lat : 49.2836907, Lng : -123.1148212, Q1 : 0.905428946018, Q2 : 0.0613298378885, Q3 : -0.137354463339, Q4 : 0.396951943636}
2019-04-14 18:16:22.81: SIM {TimeUS : 61234663, Roll : 0.15, Pitch : -17.31, Yaw : 47.26, Alt : 49.3100013733, Lat : 49.2836935, Lng : -123.1148166, Q1 : 0.9056199193, Q2 : 0.0616008602083, Q3 : -0.137362748384, Q4 : 0.396471172571}
2019-04-14 18:16:22.91: SIM {TimeUS : 61334623, Roll : 0.19, Pitch : -17.35, Yaw : 47.22, Alt : 49.3100013733, Lat : 49.2836961, Lng : -123.1148121, Q1 : 0.90569716692, Q2 : 0.0619833767414, Q3 : -0.13753965497, Q4 : 0.396173655987}
2019-04-14 18:16:23.02: SIM {TimeUS : 61435416, Roll : 0.22, Pitch : -17.4, Yaw : 47.2, Alt : 49.3100013733, Lat : 49.283699, Lng : -123.1148075, Q1 : 0.905680716038, Q2 : 0.0623346306384, Q3 : -0.137899369001, Q4 : 0.396031111479}
2019-04-14 18:16:23.11: SIM {TimeUS : 61535376, Roll : 0.21, Pitch : -17.43, Yaw : 47.2, Alt : 49.3100013733, Lat : 49.2837016, Lng : -123.114803, Q1 : 0.905642211437, Q2 : 0.0624077990651, Q3 : -0.13816717267, Q4 : 0.396014332771}
2019-04-14 18:16:23.21: SIM {TimeUS : 61635336, Roll : 0.19, Pitch : -17.43, Yaw : 47.21, Alt : 49.3100013733, Lat : 49.2837044, Lng : -123.1147984, Q1 : 0.905605733395, Q2 : 0.0622571222484, Q3 : -0.138216719031, Q4 : 0.396104156971}
2019-04-14 18:16:23.31: SIM {TimeUS : 61735296, Roll : 0.16, Pitch : -17.43, Yaw : 47.24, Alt : 49.3100013733, Lat : 49.2837071, Lng : -123.1147938, Q1 : 0.905543386936, Q2 : 0.0620519556105, Q3 : -0.138317406178, Q4 : 0.39624363184}
2019-04-14 18:16:23.41: SIM {TimeUS : 61835256, Roll : 0.12, Pitch : -17.45, Yaw : 47.26, Alt : 49.3100013733, Lat : 49.2837099, Lng : -123.1147892, Q1 : 0.905460298061, Q2 : 0.0618068724871, Q3 : -0.138610675931, Q4 : 0.396369427443}
2019-04-14 18:16:23.51: SIM {TimeUS : 61935216, Roll : 0.09, Pitch : -17.47, Yaw : 47.28, Alt : 49.3100013733, Lat : 49.2837126, Lng : -123.1147846, Q1 : 0.905378699303, Q2 : 0.0616703033447, Q3 : -0.138869300485, Q4 : 0.396486461163}
2019-04-14 18:16:23.61: SIM {TimeUS : 62035176, Roll : 0.06, Pitch : -17.5, Yaw : 47.29, Alt : 49.3100013733, Lat : 49.2837154, Lng : -123.1147798, Q1 : 0.905317723751, Q2 : 0.0615793764591, Q3 : -0.139150366187, Q4 : 0.396541297436}
2019-04-14 18:16:23.71: SIM {TimeUS : 62135136, Roll : 0.05, Pitch : -17.52, Yaw : 47.3, Alt : 49.3100013733, Lat : 49.283718, Lng : -123.1147753, Q1 : 0.905284404755, Q2 : 0.0615604110062, Q3 : -0.139380440116, Q4 : 0.396539479494}
2019-04-14 18:16:23.81: SIM {TimeUS : 62235096, Roll : 0.06, Pitch : -17.55, Yaw : 47.29, Alt : 49.3100013733, Lat : 49.2837209, Lng : -123.1147706, Q1 : 0.905269861221, Q2 : 0.0617011003196, Q3 : -0.139563202858, Q4 : 0.396486490965}
2019-04-14 18:16:23.91: SIM {TimeUS : 62335056, Roll : 0.08, Pitch : -17.56, Yaw : 47.28, Alt : 49.3199996948, Lat : 49.2837236, Lng : -123.114766, Q1 : 0.90528857708, Q2 : 0.0618950054049, Q3 : -0.139596611261, Q4 : 0.396401882172}
2019-04-14 18:16:24.01: SIM {TimeUS : 62435016, Roll : 0.11, Pitch : -17.58, Yaw : 47.26, Alt : 49.3199996948, Lat : 49.2837264, Lng : -123.1147613, Q1 : 0.905311644077, Q2 : 0.0621751844883, Q3 : -0.139628142118, Q4 : 0.396294146776}
2019-04-14 18:16:24.11: SIM {TimeUS : 62534976, Roll : 0.14, Pitch : -17.6, Yaw : 47.24, Alt : 49.3199996948, Lat : 49.2837291, Lng : -123.1147566, Q1 : 0.905344069004, Q2 : 0.0624744556844, Q3 : -0.139711484313, Q4 : 0.396143645048}
2019-04-14 18:16:24.21: SIM {TimeUS : 62634936, Roll : 0.15, Pitch : -17.64, Yaw : 47.21, Alt : 49.3199996948, Lat : 49.283732, Lng : -123.1147518, Q1 : 0.905385613441, Q2 : 0.062658675015, Q3 : -0.139966458082, Q4 : 0.395929515362}
2019-04-14 18:16:24.31: SIM {TimeUS : 62734896, Roll : 0.15, Pitch : -17.68, Yaw : 47.18, Alt : 49.3199996948, Lat : 49.2837348, Lng : -123.1147472, Q1 : 0.905430138111, Q2 : 0.0627447590232, Q3 : -0.140307486057, Q4 : 0.395693331957}
2019-04-14 18:16:24.41: SIM {TimeUS : 62834856, Roll : 0.14, Pitch : -17.72, Yaw : 47.16, Alt : 49.3199996948, Lat : 49.2837375, Lng : -123.1147425, Q1 : 0.905479133129, Q2 : 0.0627796053886, Q3 : -0.140672445297, Q4 : 0.395446002483}
2019-04-14 18:16:24.51: SIM {TimeUS : 62934816, Roll : 0.15, Pitch : -17.75, Yaw : 47.13, Alt : 49.3199996948, Lat : 49.2837404, Lng : -123.1147378, Q1 : 0.905531585217, Q2 : 0.0629012361169, Q3 : -0.140891179442, Q4 : 0.395228654146}
2019-04-14 18:16:24.61: SIM {TimeUS : 63034776, Roll : 0.16, Pitch : -17.75, Yaw : 47.1, Alt : 49.3199996948, Lat : 49.2837433, Lng : -123.1147331, Q1 : 0.905603468418, Q2 : 0.0629600062966, Q3 : -0.140940546989, Q4 : 0.395036906004}
2019-04-14 18:16:24.71: SIM {TimeUS : 63134736, Roll : 0.17, Pitch : -17.74, Yaw : 47.08, Alt : 49.3199996948, Lat : 49.283746, Lng : -123.1147283, Q1 : 0.905687332153, Q2 : 0.0629806220531, Q3 : -0.140804991126, Q4 : 0.394889712334}
2019-04-14 18:16:24.81: SIM {TimeUS : 63234696, Roll : 0.16, Pitch : -17.72, Yaw : 47.07, Alt : 49.3199996948, Lat : 49.2837489, Lng : -123.1147236, Q1 : 0.905763089657, Q2 : 0.0628773346543, Q3 : -0.140696555376, Q4 : 0.394771039486}
2019-04-14 18:16:24.91: SIM {TimeUS : 63334656, Roll : 0.16, Pitch : -17.71, Yaw : 47.06, Alt : 49.3199996948, Lat : 49.2837518, Lng : -123.1147188, Q1 : 0.905828237534, Q2 : 0.0627785995603, Q3 : -0.140589132905, Q4 : 0.39467549324}
2019-04-14 18:16:25.01: SIM {TimeUS : 63434616, Roll : 0.16, Pitch : -17.69, Yaw : 47.05, Alt : 49.3199996948, Lat : 49.2837545, Lng : -123.114714, Q1 : 0.905872941017, Q2 : 0.0627275779843, Q3 : -0.140465021133, Q4 : 0.39462518692}
2019-04-14 18:16:25.11: SIM {TimeUS : 63535409, Roll : 0.16, Pitch : -17.7, Yaw : 47.04, Alt : 49.3199996948, Lat : 49.2837575, Lng : -123.1147092, Q1 : 0.905885994434, Q2 : 0.0627140924335, Q3 : -0.140533268452, Q4 : 0.394573062658}
2019-04-14 18:16:25.21: SIM {TimeUS : 63635369, Roll : 0.16, Pitch : -17.72, Yaw : 47.04, Alt : 49.3199996948, Lat : 49.2837603, Lng : -123.1147044, Q1 : 0.905884623528, Q2 : 0.0627448111773, Q3 : -0.140671595931, Q4 : 0.394522041082}
2019-04-14 18:16:25.31: SIM {TimeUS : 63735329, Roll : 0.14, Pitch : -17.76, Yaw : 47.03, Alt : 49.3199996948, Lat : 49.2837631, Lng : -123.1146996, Q1 : 0.905849397182, Q2 : 0.0627979785204, Q3 : -0.141100972891, Q4 : 0.394441157579}
2019-04-14 18:16:25.41: SIM {TimeUS : 63835289, Roll : 0.14, Pitch : -17.82, Yaw : 47.03, Alt : 49.3300018311, Lat : 49.283766, Lng : -123.1146948, Q1 : 0.905804336071, Q2 : 0.0629330724478, Q3 : -0.141567915678, Q4 : 0.394355744123}
2019-04-14 18:16:25.51: SIM {TimeUS : 63935249, Roll : 0.14, Pitch : -17.86, Yaw : 47.02, Alt : 49.3300018311, Lat : 49.2837689, Lng : -123.11469, Q1 : 0.905780494213, Q2 : 0.0630913227797, Q3 : -0.141891434789, Q4 : 0.39426907897}
2019-04-14 18:16:25.61: SIM {TimeUS : 64035209, Roll : 0.14, Pitch : -17.9, Yaw : 47.01, Alt : 49.3300018311, Lat : 49.2837716, Lng : -123.1146852, Q1 : 0.905775427818, Q2 : 0.0631799995899, Q3 : -0.14218531549, Q4 : 0.394160598516}
2019-04-14 18:16:25.71: SIM {TimeUS : 64135169, Roll : 0.13, Pitch : -17.92, Yaw : 46.99, Alt : 49.3300018311, Lat : 49.2837746, Lng : -123.1146804, Q1 : 0.905791640282, Q2 : 0.0632146373391, Q3 : -0.142365574837, Q4 : 0.3940525949}
2019-04-14 18:16:25.81: SIM {TimeUS : 64235129, Roll : 0.15, Pitch : -17.91, Yaw : 46.98, Alt : 49.3300018311, Lat : 49.2837775, Lng : -123.1146756, Q1 : 0.905834674835, Q2 : 0.0632982254028, Q3 : -0.142264589667, Q4 : 0.39397674799}
2019-04-14 18:16:25.91: SIM {TimeUS : 64335089, Roll : 0.17, Pitch : -17.91, Yaw : 46.97, Alt : 49.3300018311, Lat : 49.2837804, Lng : -123.1146707, Q1 : 0.905868828297, Q2 : 0.0634744316339, Q3 : -0.142229840159, Q4 : 0.393882334232}
2019-04-14 18:16:26.01: SIM {TimeUS : 64435049, Roll : 0.18, Pitch : -17.93, Yaw : 46.95, Alt : 49.3300018311, Lat : 49.2837832, Lng : -123.1146659, Q1 : 0.905902802944, Q2 : 0.0635660067201, Q3 : -0.142306089401, Q4 : 0.393761843443}
2019-04-14 18:16:26.11: SIM {TimeUS : 64535009, Roll : 0.19, Pitch : -17.94, Yaw : 46.94, Alt : 49.3300018311, Lat : 49.2837861, Lng : -123.114661, Q1 : 0.905941724777, Q2 : 0.0636427178979, Q3 : -0.142361491919, Q4 : 0.393639922142}
2019-04-14 18:16:26.21: SIM {TimeUS : 64634969, Roll : 0.19, Pitch : -17.93, Yaw : 46.92, Alt : 49.3300018311, Lat : 49.283789, Lng : -123.1146562, Q1 : 0.905993640423, Q2 : 0.0636565461755, Q3 : -0.142335280776, Q4 : 0.393527686596}
2019-04-14 18:16:26.31: SIM {TimeUS : 64734929, Roll : 0.2, Pitch : -17.93, Yaw : 46.91, Alt : 49.3300018311, Lat : 49.2837919, Lng : -123.1146513, Q1 : 0.906043767929, Q2 : 0.0636422783136, Q3 : -0.142345607281, Q4 : 0.393410861492}
2019-04-14 18:16:26.41: SIM {TimeUS : 64834889, Roll : 0.18, Pitch : -17.95, Yaw : 46.89, Alt : 49.3300018311, Lat : 49.2837947, Lng : -123.1146465, Q1 : 0.906078696251, Q2 : 0.0635361820459, Q3 : -0.142554417253, Q4 : 0.393271863461}
2019-04-14 18:16:26.51: SIM {TimeUS : 64934849, Roll : 0.15, Pitch : -17.99, Yaw : 46.88, Alt : 49.3300018311, Lat : 49.2837977, Lng : -123.1146416, Q1 : 0.906091749668, Q2 : 0.0634166225791, Q3 : -0.142942115664, Q4 : 0.393120378256}
2019-04-14 18:16:26.61: SIM {TimeUS : 65034809, Roll : 0.13, Pitch : -17.99, Yaw : 46.87, Alt : 49.3300018311, Lat : 49.2838007, Lng : -123.1146367, Q1 : 0.906130492687, Q2 : 0.0633118674159, Q3 : -0.143021196127, Q4 : 0.393019169569}
2019-04-14 18:16:26.71: SIM {TimeUS : 65134769, Roll : 0.15, Pitch : -17.98, Yaw : 46.86, Alt : 49.3300018311, Lat : 49.2838036, Lng : -123.1146319, Q1 : 0.906175076962, Q2 : 0.0633488968015, Q3 : -0.14287404716, Q4 : 0.392963945866}
2019-04-14 18:16:26.81: SIM {TimeUS : 65234729, Roll : 0.17, Pitch : -17.97, Yaw : 46.85, Alt : 49.3300018311, Lat : 49.2838065, Lng : -123.114627, Q1 : 0.906212389469, Q2 : 0.0634777471423, Q3 : -0.142702877522, Q4 : 0.392919301987}
2019-04-14 18:16:26.91: SIM {TimeUS : 65334689, Roll : 0.18, Pitch : -17.98, Yaw : 46.84, Alt : 49.3400001526, Lat : 49.2838093, Lng : -123.1146221, Q1 : 0.906225144863, Q2 : 0.0636050701141, Q3 : -0.142757177353, Q4 : 0.39284953475}
2019-04-14 18:16:27.01: SIM {TimeUS : 65434649, Roll : 0.18, Pitch : -18.0, Yaw : 46.83, Alt : 49.3400001526, Lat : 49.2838123, Lng : -123.1146172, Q1 : 0.906229376793, Q2 : 0.0636148154736, Q3 : -0.142977684736, Q4 : 0.392758131027}
2019-04-14 18:16:27.12: SIM {TimeUS : 65535442, Roll : 0.15, Pitch : -18.03, Yaw : 46.82, Alt : 49.3400001526, Lat : 49.2838153, Lng : -123.1146123, Q1 : 0.90623909235, Q2 : 0.0634662434459, Q3 : -0.1432839185, Q4 : 0.392648100853}
2019-04-14 18:16:27.21: SIM {TimeUS : 65635402, Roll : 0.13, Pitch : -18.05, Yaw : 46.81, Alt : 49.3400001526, Lat : 49.2838182, Lng : -123.1146074, Q1 : 0.906254649162, Q2 : 0.0633868873119, Q3 : -0.14349450171, Q4 : 0.392548084259}
2019-04-14 18:16:27.31: SIM {TimeUS : 65735362, Roll : 0.13, Pitch : -18.06, Yaw : 46.8, Alt : 49.3400001526, Lat : 49.2838211, Lng : -123.1146025, Q1 : 0.906266510487, Q2 : 0.0634391605854, Q3 : -0.143634811044, Q4 : 0.392460942268}
2019-04-14 18:16:27.41: SIM {TimeUS : 65835322, Roll : 0.14, Pitch : -18.08, Yaw : 46.79, Alt : 49.3400001526, Lat : 49.283824, Lng : -123.1145976, Q1 : 0.906278729439, Q2 : 0.0635255873203, Q3 : -0.143721133471, Q4 : 0.392387121916}
2019-04-14 18:16:27.51: SIM {TimeUS : 65935282, Roll : 0.16, Pitch : -18.08, Yaw : 46.78, Alt : 49.3400001526, Lat : 49.2838269, Lng : -123.1145927, Q1 : 0.906290829182, Q2 : 0.0637255832553, Q3 : -0.143702745438, Q4 : 0.392333477736}
2019-04-14 18:16:27.61: SIM {TimeUS : 66035242, Roll : 0.18, Pitch : -18.1, Yaw : 46.77, Alt : 49.3400001526, Lat : 49.2838299, Lng : -123.1145877, Q1 : 0.906301438808, Q2 : 0.0638742372394, Q3 : -0.143759697676, Q4 : 0.392263948917}
2019-04-14 18:16:27.71: SIM {TimeUS : 66135202, Roll : 0.19, Pitch : -18.11, Yaw : 46.76, Alt : 49.3400001526, Lat : 49.2838329, Lng : -123.1145828, Q1 : 0.906307935715, Q2 : 0.0640358179808, Q3 : -0.143833085895, Q4 : 0.392195731401}
2019-04-14 18:16:27.81: SIM {TimeUS : 66235162, Roll : 0.21, Pitch : -18.13, Yaw : 46.75, Alt : 49.3400001526, Lat : 49.2838358, Lng : -123.1145779, Q1 : 0.906308293343, Q2 : 0.0642442181706, Q3 : -0.143884629011, Q4 : 0.392141878605}
2019-04-14 18:16:27.91: SIM {TimeUS : 66335122, Roll : 0.25, Pitch : -18.14, Yaw : 46.75, Alt : 49.3400001526, Lat : 49.2838388, Lng : -123.114573, Q1 : 0.906302511692, Q2 : 0.0645552128553, Q3 : -0.143854647875, Q4 : 0.392115116119}
2019-04-14 18:16:28.01: SIM {TimeUS : 66435082, Roll : 0.28, Pitch : -18.15, Yaw : 46.74, Alt : 49.3400001526, Lat : 49.2838416, Lng : -123.1145681, Q1 : 0.906294107437, Q2 : 0.0648271590471, Q3 : -0.143855258822, Q4 : 0.392089366913}
