2019-04-14 16:43:07.10: SIM {TimeUS : 40716207, Roll : 0.0, Pitch : 0.0, Yaw : 0.0, Alt : 30.1000003815, Lat : 49.28357, Lng : -123.11502, Q1 : 1.0, Q2 : 0.0, Q3 : 0.0, Q4 : 0.0}
2019-04-14 16:43:07.21: SIM {TimeUS : 40835326, Roll : 0.0, Pitch : 0.0, Yaw : 0.0, Alt : 30.1000003815, Lat : 49.28357, Lng : -123.11502, Q1 : 1.0, Q2 : 0.0, Q3 : 0.0, Q4 : 0.0}
2019-04-14 16:43:07.31: SIM {TimeUS : 40935286, Roll : 0.0, Pitch : 0.0, Yaw : 0.0, Alt : 30.1000003815, Lat : 49.28357, Lng : -123.11502, Q1 : 1.0, Q2 : 0.0, Q3 : 0.0, Q4 : 0.0}
2019-04-14 16:43:07.41: SIM {TimeUS : 41035246, Roll : 0.0, Pitch : 0.0, Yaw : 0.0, Alt : 30.1000003815, Lat : 49.28357, Lng : -123.11502, Q1 : 1.0, Q2 : 0.0, Q3 : 0.0, Q4 : 0.0}
2019-04-14 16:43:07.51: SIM {TimeUS : 41135206, Roll : 0.0, Pitch : 0.0, Yaw : 0.0, Alt : 30.1000003815, Lat : 49.28357, Lng : -123.11502, Q1 : 1.0, Q2 : 0.0, Q3 : 0.0, Q4 : 0.0}
2019-04-14 16:43:07.61: SIM {TimeUS : 41235166, Roll : 0.0, Pitch : 0.0, Yaw : 0.0, Alt : 30.1000003815, Lat : 49.28357, Lng : -123.11502, Q1 : 1.0, Q2 : 0.0, Q3 : 0.0, Q4 : 0.0}
2019-04-14 16:43:07.71: SIM {TimeUS : 41335126, Roll : 0.0, Pitch : 0.0, Yaw : 0.0, Alt : 30.1000003815, Lat : 49.28357, Lng : -123.11502, Q1 : 1.0, Q2 : 0.0, Q3 : 0.0, Q4 : 0.0}
2019-04-14 16:43:07.81: SIM {TimeUS : 41435086, Roll : 0.0, Pitch : 0.0, Yaw : 0.0, Alt : 30.1000003815, Lat : 49.28357, Lng : -123.11502, Q1 : 1.0, Q2 : 0.0, Q3 : 0.0, Q4 : 0.0}
2019-04-14 16:43:07.91: SIM {TimeUS : 41535046, Roll : 0.0, Pitch : 0.0, Yaw : 0.0, Alt : 30.1000003815, Lat : 49.28357, Lng : -123.11502, Q1 : 1.0, Q2 : 0.0, Q3 : 0.0, Q4 : 0.0}
2019-04-14 16:43:08.01: SIM {TimeUS : 41635006, Roll : 0.0, Pitch : 0.0, Yaw : 0.0, Alt : 30.1000003815, Lat : 49.28357, Lng : -123.11502, Q1 : 1.0, Q2 : 0.0, Q3 : 0.0, Q4 : 0.0}
2019-04-14 16:43:08.11: SIM {TimeUS : 41734966, Roll : 0.0, Pitch : 0.0, Yaw : 0.0, Alt : 30.1000003815, Lat : 49.28357, Lng : -123.11502, Q1 : 1.0, Q2 : 0.0, Q3 : 0.0, Q4 : 0.0}
2019-04-14 16:43:08.21: SIM {TimeUS : 41834926, Roll : 0.0, Pitch : 0.0, Yaw : 0.0, Alt : 30.1000003815, Lat : 49.28357, Lng : -123.11502, Q1 : 1.0, Q2 : 0.0, Q3 : 0.0, Q4 : 0.0}
2019-04-14 16:43:08.31: SIM {TimeUS : 41934886, Roll : 0.0, Pitch : 0.0, Yaw : 0.0, Alt : 30.1000003815, Lat : 49.28357, Lng : -123.11502, Q1 : 1.0, Q2 : 0.0, Q3 : 0.0, Q4 : 0.0}
2019-04-14 16:43:08.41: SIM {TimeUS : 42034846, Roll : 0.0, Pitch : 0.0, Yaw : 0.0, Alt : 30.1000003815, Lat : 49.28357, Lng : -123.11502, Q1 : 1.0, Q2 : 0.0, Q3 : 0.0, Q4 : 0.0}
2019-04-14 16:43:08.51: SIM {TimeUS : 42134806, Roll : 0.0, Pitch : 0.0, Yaw : 0.0, Alt : 30.1000003815, Lat : 49.28357, Lng : -123.11502, Q1 : 1.0, Q2 : 0.0, Q3 : 0.0, Q4 : 0.0}
2019-04-14 16:43:08.61: SIM {TimeUS : 42234766, Roll : 0.0, Pitch : 0.0, Yaw : 0.0, Alt : 30.1000003815, Lat : 49.28357, Lng : -123.11502, Q1 : 1.0, Q2 : 0.0, Q3 : 0.0, Q4 : 0.0}
2019-04-14 16:43:08.71: SIM {TimeUS : 42334726, Roll : 0.0, Pitch : 0.0, Yaw : 0.0, Alt : 30.1000003815, Lat : 49.28357, Lng : -123.11502, Q1 : 1.0, Q2 : 0.0, Q3 : 0.0, Q4 : 0.0}
2019-04-14 16:43:08.81: SIM {TimeUS : 42434686, Roll : 0.0, Pitch : 0.0, Yaw : 0.0, Alt : 30.1000003815, Lat : 49.28357, Lng : -123.11502, Q1 : 1.0, Q2 : 0.0, Q3 : 0.0, Q4 : 0.0}
2019-04-14 16:43:08.91: SIM {TimeUS : 42534646, Roll : 0.0, Pitch : 0.0, Yaw : 0.0, Alt : 30.1000003815, Lat : 49.28357, Lng : -123.11502, Q1 : 1.0, Q2 : 0.0, Q3 : 0.0, Q4 : 0.0}
2019-04-14 16:43:09.01: SIM {TimeUS : 42634606, Roll : 0.0, Pitch : 0.0, Yaw : 0.0, Alt : 30.1000003815, Lat : 49.28357, Lng : -123.11502, Q1 : 1.0, Q2 : 0.0, Q3 : 0.0, Q4 : 0.0}
2019-04-14 16:43:09.11: SIM {TimeUS : 42734566, Roll : 0.0, Pitch : 0.0, Yaw : 0.0, Alt : 30.1000003815, Lat : 49.28357, Lng : -123.11502, Q1 : 1.0, Q2 : 0.0, Q3 : 0.0, Q4 : 0.0}
2019-04-14 16:43:09.22: SIM {TimeUS : 42835359, Roll : 0.0, Pitch : 0.0, Yaw : 0.0, Alt : 30.1000003815, Lat : 49.28357, Lng : -123.11502, Q1 : 1.0, Q2 : 0.0, Q3 : 0.0, Q4 : 0.0}
2019-04-14 16:43:09.31: SIM {TimeUS : 42935319, Roll : 0.0, Pitch : 0.0, Yaw : 0.0, Alt : 30.1000003815, Lat : 49.28357, Lng : -123.11502, Q1 : 1.0, Q2 : 0.0, Q3 : 0.0, Q4 : 0.0}
2019-04-14 16:43:09.41: SIM {TimeUS : 43035279, Roll : 0.0, Pitch : 0.0, Yaw : 0.0, Alt : 30.1000003815, Lat : 49.28357, Lng : -123.11502, Q1 : 1.0, Q2 : 0.0, Q3 : 0.0, Q4 : 0.0}
2019-04-14 16:43:09.51: SIM {TimeUS : 43135239, Roll : 0.0, Pitch : 0.0, Yaw : 360.0, Alt : 30.1000003815, Lat : 49.28357, Lng : -123.11502, Q1 : 1.0, Q2 : 0.0, Q3 : 0.0, Q4 : -1.38622091236e-11}
2019-04-14 16:43:09.61: SIM {TimeUS : 43235199, Roll : 0.0, Pitch : 0.0, Yaw : 360.0, Alt : 30.1000003815, Lat : 49.28357, Lng : -123.11502, Q1 : 1.0, Q2 : 0.0, Q3 : 0.0, Q4 : -8.07499844768e-08}
2019-04-14 16:43:09.71: SIM {TimeUS : 43335159, Roll : 0.0, Pitch : 0.0, Yaw : 359.99, Alt : 30.1000003815, Lat : 49.28357, Lng : -123.11502, Q1 : 1.0, Q2 : 0.0, Q3 : 0.0, Q4 : -2.33510675685e-07}
2019-04-14 16:43:09.81: SIM {TimeUS : 43435119, Roll : 0.0, Pitch : 0.0, Yaw : 359.99, Alt : 30.1000003815, Lat : 49.28357, Lng : -123.11502, Q1 : 1.0, Q2 : 0.0, Q3 : 0.0, Q4 : -4.16109173784e-07}
2019-04-14 16:43:09.91: SIM {TimeUS : 43535079, Roll : 0.0, Pitch : 0.0, Yaw : 359.99, Alt : 30.1000003815, Lat : 49.28357, Lng : -123.11502, Q1 : 1.0, Q2 : 0.0, Q3 : 0.0, Q4 : -6.20680964403e-07}
2019-04-14 16:43:10.01: SIM {TimeUS : 43635039, Roll : 0.0, Pitch : 0.0, Yaw : 359.99, Alt : 30.1000003815, Lat : 49.28357, Lng : -123.11502, Q1 : 1.0, Q2 : 0.0, Q3 : 0.0, Q4 : -8.4698280034e-07}
2019-04-14 16:43:10.11: SIM {TimeUS : 43734999, Roll : 0.0, Pitch : 0.0, Yaw : 359.99, Alt : 30.1000003815, Lat : 49.28357, Lng : -123.11502, Q1 : 1.0, Q2 : 0.0, Q3 : 0.0, Q4 : -1.03563081666e-06}
2019-04-14 16:43:10.21: SIM {TimeUS : 43834959, Roll : 0.0, Pitch : 0.0, Yaw : 359.99, Alt : 30.1000003815, Lat : 49.28357, Lng : -123.11502, Q1 : 1.0, Q2 : 0.0, Q3 : 0.0, Q4 : -1.25214103264e-06}
2019-04-14 16:43:10.31: SIM {TimeUS : 43934919, Roll : 0.0, Pitch : 0.0, Yaw : 359.99, Alt : 30.1100006104, Lat : 49.28357, Lng : -123.11502, Q1 : 1.0, Q2 : 0.0, Q3 : 0.0, Q4 : -1.40440101859e-06}
2019-04-14 16:43:10.41: SIM {TimeUS : 44034879, Roll : 0.0, Pitch : 0.0, Yaw : 359.99, Alt : 30.1299991608, Lat : 49.28357, Lng : -123.11502, Q1 : 1.0, Q2 : 0.0, Q3 : 0.0, Q4 : -1.62847948104e-06}
2019-04-14 16:43:10.51: SIM {TimeUS : 44134839, Roll : 0.0, Pitch : 0.0, Yaw : 359.99, Alt : 30.1499996185, Lat : 49.28357, Lng : -123.11502, Q1 : 1.0, Q2 : 0.0, Q3 : 0.0, Q4 : -1.83461861525e-06}
2019-04-14 16:43:10.61: SIM {TimeUS : 44234799, Roll : 0.0, Pitch : 0.0, Yaw : 359.99, Alt : 30.1800003052, Lat : 49.28357, Lng : -123.11502, Q1 : 1.0, Q2 : 0.0, Q3 : 0.0, Q4 : -2.0615179892e-06}
2019-04-14 16:43:10.71: SIM {TimeUS : 44334759, Roll : -0.01, Pitch : -0.01, Yaw : 359.99, Alt : 30.2199993134, Lat : 49.28357, Lng : -123.11502, Q1 : 1.0, Q2 : -0.000118346797535, Q3 : -0.000117008283269, Q4 : -2.73223326985e-06}
2019-04-14 16:43:10.81: SIM {TimeUS : 44434719, Roll : -0.21, Pitch : -0.22, Yaw : 359.99, Alt : 30.2900009155, Lat : 49.28357, Lng : -123.11502, Q1 : 0.999996364117, Q2 : -0.00188029219862, Q3 : -0.00194060150534, Q4 : -1.69861414179e-05}
2019-04-14 16:43:10.91: SIM {TimeUS : 44534679, Roll : -0.52, Pitch : -0.48, Yaw : 359.99, Alt : 30.4099998474, Lat : 49.28357, Lng : -123.11502, Q1 : 0.999980568886, Q2 : -0.00454030511901, Q3 : -0.00426742434502, Q4 : -5.81434942433e-05}
2019-04-14 16:43:11.01: SIM {TimeUS : 44634639, Roll : -0.77, Pitch : -0.67, Yaw : 359.99, Alt : 30.5699996948, Lat : 49.28357, Lng : -123.11502, Q1 : 0.999960005283, Q2 : -0.00675358343869, Q3 : -0.00585955334827, Q4 : -0.000123106845422}
2019-04-14 16:43:11.11: SIM {TimeUS : 44734599, Roll : -0.86, Pitch : -0.72, Yaw : 359.98, Alt : 30.7299995422, Lat : 49.28357, Lng : -123.11502, Q1 : 0.999951422215, Q2 : -0.00754716945812, Q3 : -0.00633679749444, Q4 : -0.000201524278964}
2019-04-14 16:43:11.21: SIM {TimeUS : 44834559, Roll : -0.78, Pitch : -0.66, Yaw : 359.97, Alt : 30.8799991608, Lat : 49.28357, Lng : -123.1150201, Q1 : 0.999959528446, Q2 : -0.0068766027689, Q3 : -0.00579761620611, Q4 : -0.000274837308098}
2019-04-14 16:43:11.32: SIM {TimeUS : 44935352, Roll : -0.58, Pitch : -0.51, Yaw : 359.96, Alt : 31.0400009155, Lat : 49.2835701, Lng : -123.1150201, Q1 : 0.999976754189, Q2 : -0.00514991348609, Q3 : -0.00446238135919, Q4 : -0.000339508726029}
2019-04-14 16:43:11.41: SIM {TimeUS : 45035312, Roll : -0.33, Pitch : -0.32, Yaw : 359.95, Alt : 31.2000007629, Lat : 49.2835701, Lng : -123.1150202, Q1 : 0.999991714954, Q2 : -0.00294705177657, Q3 : -0.00279493932612, Q4 : -0.000392775953515}
2019-04-14 16:43:11.51: SIM {TimeUS : 45135272, Roll : -0.1, Pitch : -0.14, Yaw : 359.95, Alt : 31.3600006104, Lat : 49.2835701, Lng : -123.1150203, Q1 : 0.999998688698, Q2 : -0.00093356607249, Q3 : -0.00125626334921, Q4 : -0.000432306842413}
2019-04-14 16:43:11.61: SIM {TimeUS : 45235232, Roll : 0.04, Pitch : 0.0, Yaw : 359.94, Alt : 31.5300006866, Lat : 49.2835702, Lng : -123.1150204, Q1 : 0.999999821186, Q2 : 0.00035902223317, Q3 : -6.91168315825e-05, Q4 : -0.000459229224361}
2019-04-14 16:43:11.71: SIM {TimeUS : 45335192, Roll : 0.09, Pitch : 0.07, Yaw : 359.94, Alt : 31.7099990845, Lat : 49.2835702, Lng : -123.1150204, Q1 : 0.999999284744, Q2 : 0.000859920924995, Q3 : 0.00068833923433, Q4 : -0.000478186673718}
2019-04-14 16:43:11.81: SIM {TimeUS : 45435152, Roll : 0.08, Pitch : 0.11, Yaw : 359.94, Alt : 31.8899993896, Lat : 49.2835703, Lng : -123.1150205, Q1 : 0.99999910593, Q2 : 0.000721168005839, Q3 : 0.000999201554805, Q4 : -0.000490797334351}
2019-04-14 16:43:11.91: SIM {TimeUS : 45535112, Roll : 0.06, Pitch : 0.12, Yaw : 359.94, Alt : 32.0699996948, Lat : 49.2835703, Lng : -123.1150205, Q1 : 0.999999165535, Q2 : 0.000542094232515, Q3 : 0.00107320141979, Q4 : -0.000498915091157}
2019-04-14 16:43:12.01: SIM {TimeUS : 45635072, Roll : 0.04, Pitch : 0.12, Yaw : 359.94, Alt : 32.2599983215, Lat : 49.2835703, Lng : -123.1150206, Q1 : 0.999999165535, Q2 : 0.000435774360085, Q3 : 0.00109657947905, Q4 : -0.000505801348481}
2019-04-14 16:43:12.11: SIM {TimeUS : 45735032, Roll : 0.04, Pitch : 0.12, Yaw : 359.94, Alt : 32.4500007629, Lat : 49.2835703, Lng : -123.1150206, Q1 : 0.999999165535, Q2 : 0.000354850461008, Q3 : 0.00112709461246, Q4 : -0.000512509548571}
2019-04-14 16:43:12.21: SIM {TimeUS : 45834992, Roll : 0.05, Pitch : 0.14, Yaw : 359.94, Alt : 32.6500015259, Lat : 49.2835703, Lng : -123.1150207, Q1 : 0.999998927116, Q2 : 0.000490623118822, Q3 : 0.00127748260275, Q4 : -0.000512234924827}
2019-04-14 16:43:12.31: SIM {TimeUS : 45934952, Roll : 0.08, Pitch : 0.14, Yaw : 359.94, Alt : 32.8400001526, Lat : 49.2835703, Lng : -123.1150207, Q1 : 0.999998807907, Q2 : 0.000781040173024, Q3 : 0.00125674612354, Q4 : -0.000507702352479}
2019-04-14 16:43:12.41: SIM {TimeUS : 46034912, Roll : 0.12, Pitch : 0.12, Yaw : 359.94, Alt : 33.0400009155, Lat : 49.2835704, Lng : -123.1150207, Q1 : 0.999998629093, Q2 : 0.00113499921281, Q3 : 0.00109142193105, Q4 : -0.000503656337969}
2019-04-14 16:43:12.51: SIM {TimeUS : 46134872, Roll : 0.17, Pitch : 0.11, Yaw : 359.94, Alt : 33.25, Lat : 49.2835704, Lng : -123.1150208, Q1 : 0.99999833107, Q2 : 0.00148851936683, Q3 : 0.000971317640506, Q4 : -0.000498142791912}
2019-04-14 16:43:12.61: SIM {TimeUS : 46234832, Roll : 0.19, Pitch : 0.11, Yaw : 359.94, Alt : 33.4500007629, Lat : 49.2835704, Lng : -123.1150208, Q1 : 0.999997973442, Q2 : 0.00170188676566, Q3 : 0.000985286780633, Q4 : -0.000492985069286}
2019-04-14 16:43:12.71: SIM {TimeUS : 46334792, Roll : 0.2, Pitch : 0.12, Yaw : 359.94, Alt : 33.6599998474, Lat : 49.2835704, Lng : -123.1150208, Q1 : 0.999997615814, Q2 : 0.00181508867536, Q3 : 0.00111127458513, Q4 : -0.000486848992296}
2019-04-14 16:43:12.81: SIM {TimeUS : 46434752, Roll : 0.19, Pitch : 0.13, Yaw : 359.94, Alt : 33.8699989319, Lat : 49.2835704, Lng : -123.1150208, Q1 : 0.999997735023, Q2 : 0.00171760760713, Q3 : 0.00115792499855, Q4 : -0.000485280936118}
2019-04-14 16:43:12.91: SIM {TimeUS : 46534712, Roll : 0.16, Pitch : 0.13, Yaw : 359.94, Alt : 34.0800018311, Lat : 49.2835704, Lng : -123.1150208, Q1 : 0.999998152256, Q2 : 0.0014495748328, Q3 : 0.00115616561379, Q4 : -0.000478759757243}
2019-04-14 16:43:13.01: SIM {TimeUS : 46634672, Roll : 0.13, Pitch : 0.13, Yaw : 359.94, Alt : 34.2900009155, Lat : 49.2835704, Lng : -123.1150208, Q1 : 0.999998569489, Q2 : 0.00113530224189, Q3 : 0.00115476711653, Q4 : -0.000474871281767}
2019-04-14 16:43:13.11: SIM {TimeUS : 46734632, Roll : 0.09, Pitch : 0.12, Yaw : 359.94, Alt : 34.5, Lat : 49.2835704, Lng : -123.1150208, Q1 : 0.999998927116, Q2 : 0.000852909230161, Q3 : 0.00111274258234, Q4 : -0.000472814892419}
2019-04-14 16:43:13.21: SIM {TimeUS : 46834592, Roll : 0.08, Pitch : 0.08, Yaw : 359.94, Alt : 34.7099990845, Lat : 49.2835704, Lng : -123.1150208, Q1 : 0.999999284744, Q2 : 0.000746922509279, Q3 : 0.000772593601141, Q4 : -0.000485531694721}
2019-04-14 16:43:13.31: SIM {TimeUS : 46934552, Roll : 0.08, Pitch : 0.05, Yaw : 359.94, Alt : 34.9300003052, Lat : 49.2835704, Lng : -123.1150208, Q1 : 0.999999523163, Q2 : 0.00070512748789, Q3 : 0.000444785226136, Q4 : -0.000515908352099}
2019-04-14 16:43:13.42: SIM {TimeUS : 47035345, Roll : 0.06, Pitch : 0.03, Yaw : 359.93, Alt : 35.1500015259, Lat : 49.2835704, Lng : -123.1150207, Q1 : 0.999999642372, Q2 : 0.000562295492273, Q3 : 0.000265207199845, Q4 : -0.000549582939129}
2019-04-14 16:43:13.51: SIM {TimeUS : 47135305, Roll : 0.04, Pitch : 0.02, Yaw : 359.93, Alt : 35.3600006104, Lat : 49.2835704, Lng : -123.1150207, Q1 : 0.999999701977, Q2 : 0.000435472524259, Q3 : 0.000208810408367, Q4 : -0.000581370375585}
2019-04-14 16:43:13.61: SIM {TimeUS : 47235265, Roll : 0.04, Pitch : 0.02, Yaw : 359.92, Alt : 35.5800018311, Lat : 49.2835704, Lng : -123.1150207, Q1 : 0.999999701977, Q2 : 0.000418917479692, Q3 : 0.000197394474526, Q4 : -0.000614427903201}
2019-04-14 16:43:13.71: SIM {TimeUS : 47335225, Roll : 0.02, Pitch : 0.0, Yaw : 359.92, Alt : 35.7999992371, Lat : 49.2835704, Lng : -123.1150207, Q1 : 0.999999761581, Q2 : 0.000240502820816, Q3 : -1.20815975606e-05, Q4 : -0.000648964021821}
2019-04-14 16:43:13.81: SIM {TimeUS : 47435185, Roll : 0.0, Pitch : -0.03, Yaw : 359.92, Alt : 36.0200004578, Lat : 49.2835704, Lng : -123.1150207, Q1 : 0.999999701977, Q2 : -5.41322660865e-05, Q3 : -0.000335375079885, Q4 : -0.000680246914271}
2019-04-14 16:43:13.91: SIM {TimeUS : 47535145, Roll : -0.04, Pitch : -0.06, Yaw : 359.91, Alt : 36.2400016785, Lat : 49.2835704, Lng : -123.1150207, Q1 : 0.999999523163, Q2 : -0.000385390769225, Q3 : -0.000552293553483, Q4 : -0.000715022441}
2019-04-14 16:43:14.01: SIM {TimeUS : 47635105, Roll : -0.07, Pitch : -0.07, Yaw : 359.91, Alt : 36.4599990845, Lat : 49.2835704, Lng : -123.1150206, Q1 : 0.999999284744, Q2 : -0.000669862725772, Q3 : -0.000663427403197, Q4 : -0.000747189973481}
2019-04-14 16:43:14.11: SIM {TimeUS : 47735065, Roll : -0.08, Pitch : -0.07, Yaw : 359.91, Alt : 36.6899986267, Lat : 49.2835704, Lng : -123.1150206, Q1 : 0.99999922514, Q2 : -0.00074360682629, Q3 : -0.000663964601699, Q4 : -0.000771608261857}
2019-04-14 16:43:14.21: SIM {TimeUS : 47835025, Roll : -0.08, Pitch : -0.06, Yaw : 359.9, Alt : 36.9099998474, Lat : 49.2835704, Lng : -123.1150206, Q1 : 0.99999922514, Q2 : -0.000754838110879, Q3 : -0.000605470617302, Q4 : -0.000790596357547}
2019-04-14 16:43:14.31: SIM {TimeUS : 47934985, Roll : -0.08, Pitch : -0.05, Yaw : 359.9, Alt : 37.1300010681, Lat : 49.2835704, Lng : -123.1150206, Q1 : 0.999999284744, Q2 : -0.00071270839544, Q3 : -0.000459723611129, Q4 : -0.000810015772004}
2019-04-14 16:43:14.41: SIM {TimeUS : 48034945, Roll : -0.07, Pitch : -0.04, Yaw : 359.9, Alt : 37.3600006104, Lat : 49.2835704, Lng : -123.1150206, Q1 : 0.999999403954, Q2 : -0.000632087350823, Q3 : -0.000375691102818, Q4 : -0.000822192407213}
2019-04-14 16:43:14.51: SIM {TimeUS : 48134905, Roll : -0.07, Pitch : -0.04, Yaw : 359.9, Alt : 37.5800018311, Lat : 49.2835704, Lng : -123.1150206, Q1 : 0.999999344349, Q2 : -0.000698074349202, Q3 : -0.000416436436353, Q4 : -0.000833387835883}
2019-04-14 16:43:14.61: SIM {TimeUS : 48234865, Roll : -0.08, Pitch : -0.03, Yaw : 359.9, Alt : 37.8100013733, Lat : 49.2835704, Lng : -123.1150206, Q1 : 0.999999284744, Q2 : -0.000782403396443, Q3 : -0.000304725312162, Q4 : -0.000847948715091}
2019-04-14 16:43:14.71: SIM {TimeUS : 48334825, Roll : -0.11, Pitch : -0.01, Yaw : 359.9, Alt : 38.0400009155, Lat : 49.2835704, Lng : -123.1150206, Q1 : 0.999999165535, Q2 : -0.000963609374594, Q3 : -0.00014493681374, Q4 : -0.000864333764184}
2019-04-14 16:43:14.81: SIM {TimeUS : 48434785, Roll : -0.11, Pitch : 0.0, Yaw : 359.89, Alt : 38.2599983215, Lat : 49.2835704, Lng : -123.1150206, Q1 : 0.99999910593, Q2 : -0.000974742579274, Q3 : -1.60024119396e-05, Q4 : -0.000873674231116}
2019-04-14 16:43:14.91: SIM {TimeUS : 48534745, Roll : -0.08, Pitch : 0.02, Yaw : 359.89, Alt : 38.4900016785, Lat : 49.2835704, Lng : -123.1150206, Q1 : 0.999999284744, Q2 : -0.000753275409807, Q3 : 0.000248906610068, Q4 : -0.000884637527633}
2019-04-14 16:43:15.01: SIM {TimeUS : 48634705, Roll : -0.06, Pitch : 0.02, Yaw : 359.89, Alt : 38.7200012207, Lat : 49.2835704, Lng : -123.1150206, Q1 : 0.999999403954, Q2 : -0.00052434252575, Q3 : 0.000238937645918, Q4 : -0.000895389879588}
2019-04-14 16:43:15.11: SIM {TimeUS : 48734665, Roll : -0.03, Pitch : 0.01, Yaw : 359.89, Alt : 38.9500007629, Lat : 49.2835704, Lng : -123.1150206, Q1 : 0.999999582767, Q2 : -0.000263258058112, Q3 : 0.000156203663209, Q4 : -0.000904864049517}
2019-04-14 16:43:15.21: SIM {TimeUS : 48834625, Roll : 0.0, Pitch : 0.03, Yaw : 359.89, Alt : 39.1800003052, Lat : 49.2835704, Lng : -123.1150206, Q1 : 0.999999582767, Q2 : 7.97077154857e-05, Q3 : 0.000264913658611, Q4 : -0.000914183910936}
2019-04-14 16:43:15.31: SIM {TimeUS : 48934585, Roll : 0.04, Pitch : 0.05, Yaw : 359.89, Alt : 39.4099998474, Lat : 49.2835704, Lng : -123.1150206, Q1 : 0.999999344349, Q2 : 0.000426251586759, Q3 : 0.000490276550408, Q4 : -0.0009286836721}
2019-04-14 16:43:15.41: SIM {TimeUS : 49034545, Roll : 0.07, Pitch : 0.08, Yaw : 359.89, Alt : 39.6399993896, Lat : 49.2835706, Lng : -123.1150206, Q1 : 0.999999046326, Q2 : 0.000691680645104, Q3 : 0.000734137953259, Q4 : -0.000950473593548}
2019-04-14 16:43:15.52: SIM {TimeUS : 49135338, Roll : 0.07, Pitch : 0.1, Yaw : 359.88, Alt : 39.8699989319, Lat : 49.2835706, Lng : -123.1150206, Q1 : 0.999998867512, Q2 : 0.000617774785496, Q3 : 0.000959075929131, Q4 : -0.000968631124124}
2019-04-14 16:43:15.61: SIM {TimeUS : 49235298, Roll : 0.02, Pitch : 0.13, Yaw : 359.88, Alt : 40.0999984741, Lat : 49.2835706, Lng : -123.1150206, Q1 : 0.999998807907, Q2 : 0.000217196415178, Q3 : 0.00114975241013, Q4 : -0.00100504141301}
2019-04-14 16:43:15.71: SIM {TimeUS : 49335258, Roll : -0.01, Pitch : 0.13, Yaw : 359.88, Alt : 40.3300018311, Lat : 49.2835706, Lng : -123.1150206, Q1 : 0.999998807907, Q2 : -9.97976676445e-05, Q3 : 0.0011364412494, Q4 : -0.00103270157706}
2019-04-14 16:43:15.81: SIM {TimeUS : 49435218, Roll : -0.04, Pitch : 0.1, Yaw : 359.87, Alt : 40.5699996948, Lat : 49.2835706, Lng : -123.1150206, Q1 : 0.999998927116, Q2 : -0.000349920039298, Q3 : 0.00094122387236, Q4 : -0.00105851073749}
2019-04-14 16:43:15.91: SIM {TimeUS : 49535178, Roll : -0.05, Pitch : 0.09, Yaw : 359.87, Alt : 40.7999992371, Lat : 49.2835706, Lng : -123.1150206, Q1 : 0.999998986721, Q2 : -0.000449890590971, Q3 : 0.000811582780443, Q4 : -0.00108663213905}
2019-04-14 16:43:16.01: SIM {TimeUS : 49635138, Roll : -0.03, Pitch : 0.1, Yaw : 359.87, Alt : 41.0299987793, Lat : 49.2835706, Lng : -123.1150206, Q1 : 0.999998867512, Q2 : -0.000342862069374, Q3 : 0.000915736658499, Q4 : -0.00112250389066}
2019-04-14 16:43:16.11: SIM {TimeUS : 49735098, Roll : 0.0, Pitch : 0.13, Yaw : 359.86, Alt : 41.2599983215, Lat : 49.2835706, Lng : -123.1150206, Q1 : 0.999998629093, Q2 : 4.90344973514e-05, Q3 : 0.0011620571604, Q4 : -0.00116166158114}
2019-04-14 16:43:16.21: SIM {TimeUS : 49835058, Roll : 0.05, Pitch : 0.15, Yaw : 359.86, Alt : 41.5, Lat : 49.2835706, Lng : -123.1150206, Q1 : 0.999998271465, Q2 : 0.000517804990523, Q3 : 0.00132047268562, Q4 : -0.00120353652164}
2019-04-14 16:43:16.31: SIM {TimeUS : 49935018, Roll : 0.09, Pitch : 0.12, Yaw : 359.85, Alt : 41.7299995422, Lat : 49.2835706, Lng : -123.1150207, Q1 : 0.99999833107, Q2 : 0.000825625436846, Q3 : 0.00109064253047, Q4 : -0.00124820601195}
2019-04-14 16:43:16.41: SIM {TimeUS : 50034978, Roll : 0.09, Pitch : 0.07, Yaw : 359.85, Alt : 41.9599990845, Lat : 49.2835706, Lng : -123.1150207, Q1 : 0.999998629093, Q2 : 0.000819602690171, Q3 : 0.000679337303154, Q4 : -0.00129155337345}
2019-04-14 16:43:16.51: SIM {TimeUS : 50134938, Roll : 0.05, Pitch : 0.04, Yaw : 359.84, Alt : 42.2000007629, Lat : 49.2835706, Lng : -123.1150207, Q1 : 0.999998927116, Q2 : 0.000483738287585, Q3 : 0.000385719176847, Q4 : -0.0013301539002}
2019-04-14 16:43:16.61: SIM {TimeUS : 50234898, Roll : 0.0, Pitch : 0.03, Yaw : 359.84, Alt : 42.4300003052, Lat : 49.2835706, Lng : -123.1150206, Q1 : 0.999998986721, Q2 : -3.48010871676e-06, Q3 : 0.000315386598231, Q4 : -0.0013574011391}
2019-04-14 16:43:16.71: SIM {TimeUS : 50334858, Roll : -0.03, Pitch : 0.06, Yaw : 359.84, Alt : 42.6699981689, Lat : 49.2835704, Lng : -123.1150206, Q1 : 0.999998807907, Q2 : -0.000335071148584, Q3 : 0.000566997390706, Q4 : -0.00137271848507}
2019-04-14 16:43:16.81: SIM {TimeUS : 50434818, Roll : -0.05, Pitch : 0.09, Yaw : 359.84, Alt : 42.9000015259, Lat : 49.2835704, Lng : -123.1150206, Q1 : 0.999998629093, Q2 : -0.00050019507762, Q3 : 0.000788215373177, Q4 : -0.00138141959906}
2019-04-14 16:43:16.91: SIM {TimeUS : 50534778, Roll : -0.05, Pitch : 0.08, Yaw : 359.84, Alt : 43.1399993896, Lat : 49.2835704, Lng : -123.1150206, Q1 : 0.999998629093, Q2 : -0.000471967854537, Q3 : 0.000762784387916, Q4 : -0.00138421496376}
2019-04-14 16:43:17.01: SIM {TimeUS : 50634738, Roll : -0.05, Pitch : 0.07, Yaw : 359.84, Alt : 43.3699989319, Lat : 49.2835704, Lng : -123.1150206, Q1 : 0.999998688698, Q2 : -0.000497089873534, Q3 : 0.000661256897729, Q4 : -0.00139006576501}
2019-04-14 16:43:17.11: SIM {TimeUS : 50734698, Roll : -0.05, Pitch : 0.05, Yaw : 359.83, Alt : 43.6100006104, Lat : 49.2835704, Lng : -123.1150206, Q1 : 0.999998807907, Q2 : -0.000442038581241, Q3 : 0.000491979066283, Q4 : -0.00139669294003}
2019-04-14 16:43:17.21: SIM {TimeUS : 50834658, Roll : -0.02, Pitch : 0.04, Yaw : 359.83, Alt : 43.8400001526, Lat : 49.2835704, Lng : -123.1150206, Q1 : 0.999998927116, Q2 : -0.000249123491812, Q3 : 0.00035280600423, Q4 : -0.00140749069396}
2019-04-14 16:43:17.31: SIM {TimeUS : 50934618, Roll : 0.0, Pitch : 0.03, Yaw : 359.83, Alt : 44.0800018311, Lat : 49.2835704, Lng : -123.1150206, Q1 : 0.999998986721, Q2 : -8.37440748001e-05, Q3 : 0.000272215955192, Q4 : -0.00141732697375}
2019-04-14 16:43:17.41: SIM {TimeUS : 51034578, Roll : 0.0, Pitch : 0.01, Yaw : 359.83, Alt : 44.3100013733, Lat : 49.2835704, Lng : -123.1150206, Q1 : 0.999998986721, Q2 : -8.36385661387e-05, Q3 : 0.00010725424363, Q4 : -0.00142960785888}
2019-04-14 16:43:17.51: SIM {TimeUS : 51134538, Roll : -0.01, Pitch : -0.01, Yaw : 359.83, Alt : 44.5499992371, Lat : 49.2835704, Lng : -123.1150206, Q1 : 0.999998927116, Q2 : -0.000158282549819, Q3 : -0.000163036107551, Q4 : -0.00144987727981}
2019-04-14 16:43:17.61: SIM {TimeUS : 51235331, Roll : -0.02, Pitch : -0.03, Yaw : 359.82, Alt : 44.7900009155, Lat : 49.2835704, Lng : -123.1150206, Q1 : 0.999998807907, Q2 : -0.000220742804231, Q3 : -0.000328797614202, Q4 : -0.0014838258503}
2019-04-14 16:43:17.71: SIM {TimeUS : 51335291, Roll : -0.02, Pitch : -0.04, Yaw : 359.82, Alt : 45.0200004578, Lat : 49.2835704, Lng : -123.1150206, Q1 : 0.999998688698, Q2 : -0.000252727186307, Q3 : -0.000393113383325, Q4 : -0.00152490090113}
2019-04-14 16:43:17.81: SIM {TimeUS : 51435251, Roll : -0.03, Pitch : -0.04, Yaw : 359.82, Alt : 45.2599983215, Lat : 49.2835703, Lng : -123.1150206, Q1 : 0.999998629093, Q2 : -0.000315023033181, Q3 : -0.000386335945223, Q4 : -0.00156013353262}
2019-04-14 16:43:17.91: SIM {TimeUS : 51535211, Roll : -0.04, Pitch : -0.03, Yaw : 359.81, Alt : 45.4900016785, Lat : 49.2835703, Lng : -123.1150206, Q1 : 0.999998569489, Q2 : -0.000436317786807, Q3 : -0.000316382502206, Q4 : -0.00159384007566}
2019-04-14 16:43:18.01: SIM {TimeUS : 51635171, Roll : -0.07, Pitch : -0.03, Yaw : 359.81, Alt : 45.7299995422, Lat : 49.2835703, Lng : -123.1150206, Q1 : 0.999998450279, Q2 : -0.000652048096526, Q3 : -0.000281883199932, Q4 : -0.00162611389533}
2019-04-14 16:43:18.11: SIM {TimeUS : 51735131, Roll : -0.09, Pitch : -0.03, Yaw : 359.81, Alt : 45.9599990845, Lat : 49.2835703, Lng : -123.1150206, Q1 : 0.999998271465, Q2 : -0.000805501709692, Q3 : -0.000292390730465, Q4 : -0.00165774812922}
2019-04-14 16:43:18.21: SIM {TimeUS : 51835091, Roll : -0.09, Pitch : -0.02, Yaw : 359.8, Alt : 46.1899986267, Lat : 49.2835703, Lng : -123.1150206, Q1 : 0.999998211861, Q2 : -0.000845335889608, Q3 : -0.000214481726289, Q4 : -0.00168731389567}
2019-04-14 16:43:18.31: SIM {TimeUS : 51935051, Roll : -0.08, Pitch : 0.0, Yaw : 359.8, Alt : 46.4199981689, Lat : 49.2835703, Lng : -123.1150206, Q1 : 0.999998271465, Q2 : -0.000744791410398, Q3 : 4.32996148447e-06, Q4 : -0.00171380653046}
2019-04-14 16:43:18.41: SIM {TimeUS : 52035011, Roll : -0.06, Pitch : 0.01, Yaw : 359.8, Alt : 46.6399993896, Lat : 49.2835703, Lng : -123.1150206, Q1 : 0.99999833107, Q2 : -0.000552865443751, Q3 : 0.0001369559468, Q4 : -0.00173728412483}
2019-04-14 16:43:18.51: SIM {TimeUS : 52134971, Roll : -0.04, Pitch : 0.01, Yaw : 359.79, Alt : 46.8499984741, Lat : 49.2835703, Lng : -123.1150206, Q1 : 0.999998390675, Q2 : -0.00039030786138, Q3 : 0.000106535255327, Q4 : -0.00175799359567}
2019-04-14 16:43:18.61: SIM {TimeUS : 52234931, Roll : -0.03, Pitch : 0.0, Yaw : 359.79, Alt : 47.0600013733, Lat : 49.2835703, Lng : -123.1150206, Q1 : 0.999998390675, Q2 : -0.000315188110108, Q3 : -5.922379205e-05, Q4 : -0.00177972088568}
2019-04-14 16:43:18.71: SIM {TimeUS : 52334891, Roll : -0.02, Pitch : -0.03, Yaw : 359.79, Alt : 47.2599983215, Lat : 49.2835703, Lng : -123.1150206, Q1 : 0.999998271465, Q2 : -0.000190418577404, Q3 : -0.000333009811584, Q4 : -0.0018021032447}
2019-04-14 16:43:18.81: SIM {TimeUS : 52434851, Roll : 0.0, Pitch : -0.06, Yaw : 359.79, Alt : 47.4500007629, Lat : 49.2835703, Lng : -123.1150206, Q1 : 0.999998152256, Q2 : 1.02005435565e-06, Q3 : -0.000572291726712, Q4 : -0.0018274061149}
2019-04-14 16:43:18.91: SIM {TimeUS : 52534811, Roll : 0.01, Pitch : -0.09, Yaw : 359.78, Alt : 47.6399993896, Lat : 49.2835703, Lng : -123.1150206, Q1 : 0.999997913837, Q2 : 9.24924897845e-05, Q3 : -0.000816495798063, Q4 : -0.00185213575605}
2019-04-14 16:43:19.01: SIM {TimeUS : 52634771, Roll : 0.01, Pitch : -0.13, Yaw : 359.78, Alt : 47.8100013733, Lat : 49.2835703, Lng : -123.1150206, Q1 : 0.99999755621, Q2 : 0.000138767776662, Q3 : -0.00115719949827, Q4 : -0.00187819509301}
2019-04-14 16:43:19.11: SIM {TimeUS : 52734731, Roll : 0.04, Pitch : -0.14, Yaw : 359.78, Alt : 47.9700012207, Lat : 49.2835703, Lng : -123.1150206, Q1 : 0.999997258186, Q2 : 0.000387192994822, Q3 : -0.00130751787219, Q4 : -0.00190778786782}
2019-04-14 16:43:19.21: SIM {TimeUS : 52834691, Roll : 0.07, Pitch : -0.14, Yaw : 359.77, Alt : 48.1199989319, Lat : 49.2835703, Lng : -123.1150206, Q1 : 0.999997138977, Q2 : 0.000645841937512, Q3 : -0.00123847101349, Q4 : -0.0019346869085}
2019-04-14 16:43:19.31: SIM {TimeUS : 52934651, Roll : 0.09, Pitch : -0.11, Yaw : 359.77, Alt : 48.2599983215, Lat : 49.2835703, Lng : -123.1150206, Q1 : 0.999997258186, Q2 : 0.000785922980867, Q3 : -0.00101127917878, Q4 : -0.00195698975585}
2019-04-14 16:43:19.41: SIM {TimeUS : 53034611, Roll : 0.08, Pitch : -0.08, Yaw : 359.77, Alt : 48.3899993896, Lat : 49.2835704, Lng : -123.1150206, Q1 : 0.999997496605, Q2 : 0.000747292418964, Q3 : -0.000718718918506, Q4 : -0.00197744951583}
2019-04-14 16:43:19.51: SIM {TimeUS : 53134571, Roll : 0.07, Pitch : -0.05, Yaw : 359.77, Alt : 48.5, Lat : 49.2835704, Lng : -123.1150206, Q1 : 0.999997615814, Q2 : 0.000694640912116, Q3 : -0.000497499131598, Q4 : -0.00199824851006}
2019-04-14 16:43:19.62: SIM {TimeUS : 53235364, Roll : 0.06, Pitch : -0.05, Yaw : 359.76, Alt : 48.5999984741, Lat : 49.2835704, Lng : -123.1150206, Q1 : 0.999997675419, Q2 : 0.000560043379664, Q3 : -0.000486318691401, Q4 : -0.00202221679501}
2019-04-14 16:43:19.71: SIM {TimeUS : 53335324, Roll : 0.03, Pitch : -0.05, Yaw : 359.76, Alt : 48.6899986267, Lat : 49.2835704, Lng : -123.1150206, Q1 : 0.999997735023, Q2 : 0.000306588830426, Q3 : -0.000474321393995, Q4 : -0.00205461867154}
2019-04-14 16:43:19.81: SIM {TimeUS : 53435284, Roll : 0.01, Pitch : -0.03, Yaw : 359.76, Alt : 48.7700004578, Lat : 49.2835704, Lng : -123.1150206, Q1 : 0.999997735023, Q2 : 0.000132699729875, Q3 : -0.000344584143022, Q4 : -0.0020862238016}
2019-04-14 16:43:19.91: SIM {TimeUS : 53535244, Roll : 0.0, Pitch : -0.01, Yaw : 359.75, Alt : 48.8400001526, Lat : 49.2835704, Lng : -123.1150206, Q1 : 0.999997735023, Q2 : 3.46875617652e-06, Q3 : -0.000163374628755, Q4 : -0.00211416161619}
2019-04-14 16:43:20.01: SIM {TimeUS : 53635204, Roll : 0.0, Pitch : 0.0, Yaw : 359.75, Alt : 48.9000015259, Lat : 49.2835704, Lng : -123.1150206, Q1 : 0.999997675419, Q2 : -6.07372094237e-05, Q3 : 6.77166317473e-05, Q4 : -0.00214303494431}
2019-04-14 16:43:20.11: SIM {TimeUS : 53735164, Roll : 0.01, Pitch : 0.04, Yaw : 359.75, Alt : 48.9500007629, Lat : 49.2835704, Lng : -123.1150206, Q1 : 0.999997615814, Q2 : 0.00010716359975, Q3 : 0.000375377421733, Q4 : -0.00216452870518}
2019-04-14 16:43:20.21: SIM {TimeUS : 53835124, Roll : 0.04, Pitch : 0.05, Yaw : 359.74, Alt : 48.9900016785, Lat : 49.2835704, Lng : -123.1150206, Q1 : 0.999997437, Q2 : 0.000424357160227, Q3 : 0.000471465056762, Q4 : -0.00219012843445}
2019-04-14 16:43:20.31: SIM {TimeUS : 53935084, Roll : 0.15, Pitch : -0.04, Yaw : 359.74, Alt : 49.0299987793, Lat : 49.2835704, Lng : -123.1150206, Q1 : 0.999996483326, Q2 : 0.00139235227834, Q3 : -0.00038696359843, Q4 : -0.0022093821317}
2019-04-14 16:43:20.41: SIM {TimeUS : 54035044, Roll : 0.42, Pitch : -0.31, Yaw : 359.74, Alt : 49.0600013733, Lat : 49.2835704, Lng : -123.1150206, Q1 : 0.999987006187, Q2 : 0.00367709062994, Q3 : -0.00273436983116, Q4 : -0.00223030685447}
2019-04-14 16:43:20.51: SIM {TimeUS : 54135004, Roll : 0.86, Pitch : -0.78, Yaw : 359.73, Alt : 49.0900001526, Lat : 49.2835704, Lng : -123.1150206, Q1 : 0.999945580959, Q2 : 0.00753832608461, Q3 : -0.00685151480138, Q4 : -0.00224218028598}
2019-04-14 16:43:20.61: SIM {TimeUS : 54234964, Roll : 1.48, Pitch : -1.41, Yaw : 359.72, Alt : 49.1100006104, Lat : 49.2835706, Lng : -123.1150206, Q1 : 0.99983727932, Q2 : 0.0129541466013, Q3 : -0.0123545443639, Q4 : -0.00223384983838}
2019-04-14 16:43:20.71: SIM {TimeUS : 54334924, Roll : 2.23, Pitch : -2.12, Yaw : 359.7, Alt : 49.1300010681, Lat : 49.2835706, Lng : -123.1150205, Q1 : 0.999636292458, Q2 : 0.0194509886205, Q3 : -0.0185518208891, Q4 : -0.00218162522651}
2019-04-14 16:43:20.81: SIM {TimeUS : 54434884, Roll : 2.98, Pitch : -2.82, Yaw : 359.68, Alt : 49.1500015259, Lat : 49.2835707, Lng : -123.1150204, Q1 : 0.999355494976, Q2 : 0.0259799491614, Q3 : -0.0246866419911, Q4 : -0.00207133917138}
2019-04-14 16:43:20.91: SIM {TimeUS : 54534844, Roll : 3.62, Pitch : -3.41, Yaw : 359.67, Alt : 49.1599998474, Lat : 49.2835708, Lng : -123.1150202, Q1 : 0.999055683613, Q2 : 0.031525734812, Q3 : -0.0298387240618, Q4 : -0.00189802516252}
2019-04-14 16:43:21.01: SIM {TimeUS : 54634804, Roll : 4.09, Pitch : -3.85, Yaw : 359.66, Alt : 49.1800003052, Lat : 49.2835709, Lng : -123.11502, Q1 : 0.998796463013, Q2 : 0.0356126241386, Q3 : -0.0336825847626, Q4 : -0.00167970976327}
2019-04-14 16:43:21.11: SIM {TimeUS : 54734764, Roll : 4.42, Pitch : -4.17, Yaw : 359.67, Alt : 49.1899986267, Lat : 49.283571, Lng : -123.1150197, Q1 : 0.998591899872, Q2 : 0.0384509898722, Q3 : -0.0365191735327, Q4 : -0.00143476913217}
2019-04-14 16:43:21.21: SIM {TimeUS : 54834724, Roll : 4.68, Pitch : -4.43, Yaw : 359.68, Alt : 49.2000007629, Lat : 49.2835714, Lng : -123.1150194, Q1 : 0.998413980007, Q2 : 0.0407685227692, Q3 : -0.0388089194894, Q4 : -0.00115692592226}
2019-04-14 16:43:21.31: SIM {TimeUS : 54934684, Roll : 4.95, Pitch : -4.67, Yaw : 359.69, Alt : 49.2099990845, Lat : 49.2835716, Lng : -123.1150189, Q1 : 0.998236298561, Q2 : 0.0430667512119, Q3 : -0.0408510677516, Q4 : -0.000862335495185}
2019-04-14 16:43:21.41: SIM {TimeUS : 55034644, Roll : 5.22, Pitch : -4.9, Yaw : 359.71, Alt : 49.2099990845, Lat : 49.283572, Lng : -123.1150183, Q1 : 0.998048424721, Q2 : 0.04540553689, Q3 : -0.0428652837873, Q4 : -0.000575558107812}
2019-04-14 16:43:21.51: SIM {TimeUS : 55134604, Roll : 5.49, Pitch : -5.14, Yaw : 359.71, Alt : 49.2200012207, Lat : 49.2835724, Lng : -123.1150177, Q1 : 0.997845828533, Q2 : 0.0477680489421, Q3 : -0.0449648462236, Q4 : -0.000303120526951}
2019-04-14 16:43:21.61: SIM {TimeUS : 55234564, Roll : 5.72, Pitch : -5.37, Yaw : 359.72, Alt : 49.2299995422, Lat : 49.2835728, Lng : -123.1150169, Q1 : 0.99765753746, Q2 : 0.0497637465596, Q3 : -0.0469362363219, Q4 : -6.05114728387e-05}
2019-04-14 16:43:21.72: SIM {TimeUS : 55335357, Roll : 5.9, Pitch : -5.55, Yaw : 359.73, Alt : 49.2299995422, Lat : 49.2835733, Lng : -123.1150161, Q1 : 0.997503101826, Q2 : 0.0513364188373, Q3 : -0.0484993718565, Q4 : 0.000153546017827}
2019-04-14 16:43:21.81: SIM {TimeUS : 55435317, Roll : 6.03, Pitch : -5.67, Yaw : 359.73, Alt : 49.2400016785, Lat : 49.2835739, Lng : -123.1150151, Q1 : 0.997392416, Q2 : 0.0524362102151, Q3 : -0.0495853349566, Q4 : 0.000316976103932}
2019-04-14 16:43:21.91: SIM {TimeUS : 55535277, Roll : 6.12, Pitch : -5.77, Yaw : 359.73, Alt : 49.2400016785, Lat : 49.2835745, Lng : -123.1150142, Q1 : 0.997307419777, Q2 : 0.0532126836479, Q3 : -0.0504592172801, Q4 : 0.000420851167291}
2019-04-14 16:43:22.01: SIM {TimeUS : 55635237, Roll : 6.22, Pitch : -5.86, Yaw : 359.73, Alt : 49.25, Lat : 49.2835751, Lng : -123.1150131, Q1 : 0.997222721577, Q2 : 0.0540885962546, Q3 : -0.0511954985559, Q4 : 0.000497682834975}
2019-04-14 16:43:22.11: SIM {TimeUS : 55735197, Roll : 6.4, Pitch : -5.94, Yaw : 359.74, Alt : 49.25, Lat : 49.2835758, Lng : -123.115012, Q1 : 0.997098267078, Q2 : 0.0557060055435, Q3 : -0.0518795959651, Q4 : 0.000669547705911}
2019-04-14 16:43:22.21: SIM {TimeUS : 55835157, Roll : 6.82, Pitch : -5.9, Yaw : 359.99, Alt : 49.2599983215, Lat : 49.2835765, Lng : -123.1150108, Q1 : 0.996902108192, Q2 : 0.0594213455915, Q3 : -0.0514391437173, Q4 : 0.00304606906138}
2019-04-14 16:43:22.31: SIM {TimeUS : 55935117, Roll : 7.45, Pitch : -5.78, Yaw : 1.11, Alt : 49.2599983215, Lat : 49.2835774, Lng : -123.1150095, Q1 : 0.996534585953, Q2 : 0.0654025971889, Q3 : -0.0497202500701, Q4 : 0.01301115565}
2019-04-14 16:43:22.41: SIM {TimeUS : 56035077, Roll : 8.04, Pitch : -5.87, Yaw : 3.69, Alt : 49.2599983215, Lat : 49.2835782, Lng : -123.1150081, Q1 : 0.99559366703, Q2 : 0.0716420859098, Q3 : -0.0488227158785, Q4 : 0.035735078156}
2019-04-14 16:43:22.51: SIM {TimeUS : 56135037, Roll : 8.3, Pitch : -6.41, Yaw : 7.86, Alt : 49.2599983215, Lat : 49.2835791, Lng : -123.1150066, Q1 : 0.993192017078, Q2 : 0.0759531408548, Q3 : -0.0506789013743, Q4 : 0.0723356679082}
2019-04-14 16:43:22.61: SIM {TimeUS : 56234997, Roll : 8.03, Pitch : -7.4, Yaw : 13.46, Alt : 49.2599983215, Lat : 49.28358, Lng : -123.115005, Q1 : 0.988059639931, Q2 : 0.0770140066743, Q3 : -0.0557803809643, Q4 : 0.121225379407}
2019-04-14 16:43:22.71: SIM {TimeUS : 56334957, Roll : 7.12, Pitch : -8.71, Yaw : 20.26, Alt : 49.2599983215, Lat : 49.2835807, Lng : -123.1150033, Q1 : 0.978823840618, Q2 : 0.0743276104331, Q3 : -0.0637773349881, Q4 : 0.179754570127}
2019-04-14 16:43:22.81: SIM {TimeUS : 56434917, Roll : 5.56, Pitch : -10.13, Yaw : 28.0, Alt : 49.2700004578, Lat : 49.2835818, Lng : -123.1150014, Q1 : 0.964316010475, Q2 : 0.0682245343924, Q3 : -0.0738898068666, Q4 : 0.244908839464}
2019-04-14 16:43:22.91: SIM {TimeUS : 56534877, Roll : 3.23, Pitch : -11.43, Yaw : 36.32, Alt : 49.2700004578, Lat : 49.2835826, Lng : -123.1149995, Q1 : 0.944190204144, Q2 : 0.0577724911273, Q3 : -0.0858764648438, Q4 : 0.312717795372}
2019-04-14 16:43:23.01: SIM {TimeUS : 56634837, Roll : 0.2, Pitch : -12.36, Yaw : 44.5, Alt : 49.2700004578, Lat : 49.2835837, Lng : -123.1149974, Q1 : 0.920060276985, Q2 : 0.0424646884203, Q3 : -0.0990219786763, Q4 : 0.376670330763}
2019-04-14 16:43:23.11: SIM {TimeUS : 56734797, Roll : -2.98, Pitch : -12.79, Yaw : 51.66, Alt : 49.2700004578, Lat : 49.2835848, Lng : -123.1149953, Q1 : 0.895443439484, Q2 : 0.0252557434142, Q3 : -0.111492313445, Q4 : 0.430247247219}
2019-04-14 16:43:23.21: SIM {TimeUS : 56834757, Roll : -5.65, Pitch : -12.8, Yaw : 57.09, Alt : 49.2700004578, Lat : 49.283586, Lng : -123.1149932, Q1 : 0.874502420425, Q2 : 0.010154007934, Q3 : -0.121281005442, Q4 : 0.469503253698}
2019-04-14 16:43:23.31: SIM {TimeUS : 56934717, Roll : -7.37, Pitch : -12.63, Yaw : 60.51, Alt : 49.2700004578, Lat : 49.2835873, Lng : -123.1149909, Q1 : 0.860321223736, Q2 : 0.000118108233437, Q3 : -0.127046063542, Q4 : 0.493666559458}
2019-04-14 16:43:23.41: SIM {TimeUS : 57034677, Roll : -7.99, Pitch : -12.5, Yaw : 62.01, Alt : 49.2700004578, Lat : 49.2835885, Lng : -123.1149887, Q1 : 0.85384953022, Q2 : -0.0034450981766, Q3 : -0.128861680627, Q4 : 0.504305303097}
2019-04-14 16:43:23.51: SIM {TimeUS : 57134637, Roll : -7.66, Pitch : -12.6, Yaw : 61.9, Alt : 49.2700004578, Lat : 49.2835901, Lng : -123.1149864, Q1 : 0.854299128056, Q2 : -0.000632170587778, Q3 : -0.128079891205, Q4 : 0.503754019737}
2019-04-14 16:43:23.61: SIM {TimeUS : 57234597, Roll : -6.61, Pitch : -12.96, Yaw : 60.53, Alt : 49.2700004578, Lat : 49.2835916, Lng : -123.1149841, Q1 : 0.860006511211, Q2 : 0.00731334788725, Q3 : -0.126282393932, Q4 : 0.494356244802}
2019-04-14 16:43:23.71: SIM {TimeUS : 57334557, Roll : -5.1, Pitch : -13.54, Yaw : 58.26, Alt : 49.2700004578, Lat : 49.2835934, Lng : -123.1149818, Q1 : 0.869104623795, Q2 : 0.0187731925398, Q3 : -0.124451436102, Q4 : 0.47834777832}
2019-04-14 16:43:23.82: SIM {TimeUS : 57435350, Roll : -3.32, Pitch : -14.25, Yaw : 55.37, Alt : 49.2700004578, Lat : 49.2835951, Lng : -123.1149794, Q1 : 0.879948735237, Q2 : 0.0321146212518, Q3 : -0.123200699687, Q4 : 0.457690358162}
2019-04-14 16:43:23.91: SIM {TimeUS : 57535310, Roll : -1.51, Pitch : -14.91, Yaw : 52.23, Alt : 49.2799987793, Lat : 49.2835969, Lng : -123.1149768, Q1 : 0.89096814394, Q2 : 0.0453947633505, Q3 : -0.122297026217, Q4 : 0.434923559427}
2019-04-14 16:43:24.01: SIM {TimeUS : 57635270, Roll : 0.19, Pitch : -15.41, Yaw : 49.14, Alt : 49.2799987793, Lat : 49.2835988, Lng : -123.1149743, Q1 : 0.90113401413, Q2 : 0.0573072470725, Q3 : -0.121299833059, Q4 : 0.412261754274}
2019-04-14 16:43:24.11: SIM {TimeUS : 57735230, Roll : 1.63, Pitch : -15.7, Yaw : 46.41, Alt : 49.2799987793, Lat : 49.2836006, Lng : -123.1149716, Q1 : 0.909609377384, Q2 : 0.0668347105384, Q3 : -0.119960919023, Q4 : 0.392113864422}
2019-04-14 16:43:24.21: SIM {TimeUS : 57835190, Roll : 2.71, Pitch : -15.79, Yaw : 44.3, Alt : 49.2799987793, Lat : 49.2836025, Lng : -123.1149688, Q1 : 0.915926575661, Q2 : 0.0734958350658, Q3 : -0.118373975158, Q4 : 0.376383453608}
2019-04-14 16:43:24.31: SIM {TimeUS : 57935150, Roll : 3.34, Pitch : -15.78, Yaw : 42.93, Alt : 49.2799987793, Lat : 49.2836044, Lng : -123.1149658, Q1 : 0.919931411743, Q2 : 0.0771613642573, Q3 : -0.117173008621, Q4 : 0.366118580103}
2019-04-14 16:43:24.41: SIM {TimeUS : 58035110, Roll : 3.52, Pitch : -15.75, Yaw : 42.34, Alt : 49.2799987793, Lat : 49.2836063, Lng : -123.1149628, Q1 : 0.92173063755, Q2 : 0.0778967440128, Q3 : -0.1167492643, Q4 : 0.361544430256}
2019-04-14 16:43:24.51: SIM {TimeUS : 58135070, Roll : 3.28, Pitch : -15.75, Yaw : 42.45, Alt : 49.2799987793, Lat : 49.2836084, Lng : -123.1149596, Q1 : 0.921549677849, Q2 : 0.0760689601302, Q3 : -0.117459446192, Q4 : 0.362164378166}
2019-04-14 16:43:24.61: SIM {TimeUS : 58235030, Roll : 2.71, Pitch : -15.79, Yaw : 43.13, Alt : 49.2799987793, Lat : 49.2836104, Lng : -123.1149563, Q1 : 0.919718146324, Q2 : 0.0723412632942, Q3 : -0.119142711163, Q4 : 0.367001771927}
2019-04-14 16:43:24.71: SIM {TimeUS : 58334990, Roll : 1.95, Pitch : -15.87, Yaw : 44.2, Alt : 49.2799987793, Lat : 49.2836123, Lng : -123.1149529, Q1 : 0.916615068913, Q2 : 0.0676528960466, Q3 : -0.121593266726, Q4 : 0.374773293734}
2019-04-14 16:43:24.81: SIM {TimeUS : 58434950, Roll : 1.09, Pitch : -15.99, Yaw : 45.48, Alt : 49.2799987793, Lat : 49.2836144, Lng : -123.1149495, Q1 : 0.912718713284, Q2 : 0.0625438690186, Q3 : -0.124615840614, Q4 : 0.384062200785}
2019-04-14 16:43:24.91: SIM {TimeUS : 58534910, Roll : 0.27, Pitch : -16.12, Yaw : 46.8, Alt : 49.2799987793, Lat : 49.2836165, Lng : -123.114946, Q1 : 0.908522546291, Q2 : 0.0578543171287, Q3 : -0.127757787704, Q4 : 0.393595814705}
2019-04-14 16:43:25.01: SIM {TimeUS : 58634870, Roll : -0.42, Pitch : -16.22, Yaw : 48.01, Alt : 49.2799987793, Lat : 49.2836185, Lng : -123.1149424, Q1 : 0.904556035995, Q2 : 0.0540703050792, Q3 : -0.130360633135, Q4 : 0.402319401503}
2019-04-14 16:43:25.11: SIM {TimeUS : 58734830, Roll : -0.94, Pitch : -16.28, Yaw : 48.99, Alt : 49.2799987793, Lat : 49.2836207, Lng : -123.1149387, Q1 : 0.901250839233, Q2 : 0.0512889772654, Q3 : -0.132276013494, Q4 : 0.409413516521}
2019-04-14 16:43:25.21: SIM {TimeUS : 58834790, Roll : -1.29, Pitch : -16.34, Yaw : 49.68, Alt : 49.2799987793, Lat : 49.2836229, Lng : -123.1149351, Q1 : 0.898872554302, Q2 : 0.0495731532574, Q3 : -0.133646011353, Q4 : 0.414378255606}
2019-04-14 16:43:25.31: SIM {TimeUS : 58934750, Roll : -1.44, Pitch : -16.39, Yaw : 50.05, Alt : 49.2799987793, Lat : 49.283625, Lng : -123.1149313, Q1 : 0.897545814514, Q2 : 0.0489636994898, Q3 : -0.134476587176, Q4 : 0.417049258947}
2019-04-14 16:43:25.41: SIM {TimeUS : 59034710, Roll : -1.42, Pitch : -16.45, Yaw : 50.11, Alt : 49.2799987793, Lat : 49.2836273, Lng : -123.1149276, Q1 : 0.897239029408, Q2 : 0.0494499765337, Q3 : -0.134823411703, Q4 : 0.417539805174}
2019-04-14 16:43:25.51: SIM {TimeUS : 59134670, Roll : -1.25, Pitch : -16.49, Yaw : 49.92, Alt : 49.2900009155, Lat : 49.2836296, Lng : -123.1149238, Q1 : 0.897832214832, Q2 : 0.0506978593767, Q3 : -0.134643107653, Q4 : 0.416171044111}
2019-04-14 16:43:25.61: SIM {TimeUS : 59234630, Roll : -0.97, Pitch : -16.53, Yaw : 49.52, Alt : 49.2900009155, Lat : 49.283632, Lng : -123.11492, Q1 : 0.899078130722, Q2 : 0.0526014901698, Q3 : -0.134116202593, Q4 : 0.413405895233}
2019-04-14 16:43:25.71: SIM {TimeUS : 59334590, Roll : -0.63, Pitch : -16.58, Yaw : 49.01, Alt : 49.2900009155, Lat : 49.2836342, Lng : -123.114916, Q1 : 0.90070772171, Q2 : 0.0548573546112, Q3 : -0.133449062705, Q4 : 0.409765392542}
2019-04-14 16:43:25.81: SIM {TimeUS : 59434550, Roll : -0.26, Pitch : -16.61, Yaw : 48.45, Alt : 49.2900009155, Lat : 49.2836366, Lng : -123.1149122, Q1 : 0.902470529079, Q2 : 0.0571887455881, Q3 : -0.132728606462, Q4 : 0.405782699585}
2019-04-14 16:43:25.92: SIM {TimeUS : 59535343, Roll : 0.07, Pitch : -16.64, Yaw : 47.92, Alt : 49.2900009155, Lat : 49.283639, Lng : -123.1149081, Q1 : 0.904156684875, Q2 : 0.0594079121947, Q3 : -0.132039353251, Q4 : 0.401916712523}
2019-04-14 16:43:26.01: SIM {TimeUS : 59635303, Roll : 0.36, Pitch : -16.67, Yaw : 47.46, Alt : 49.2900009155, Lat : 49.2836414, Lng : -123.1149042, Q1 : 0.905574500561, Q2 : 0.0612503513694, Q3 : -0.131497830153, Q4 : 0.398612082005}
2019-04-14 16:43:26.11: SIM {TimeUS : 59735263, Roll : 0.56, Pitch : -16.7, Yaw : 47.11, Alt : 49.2900009155, Lat : 49.2836439, Lng : -123.1149002, Q1 : 0.906637728214, Q2 : 0.0625151097775, Q3 : -0.131224751472, Q4 : 0.396080762148}
2019-04-14 16:43:26.21: SIM {TimeUS : 59835223, Roll : 0.66, Pitch : -16.74, Yaw : 46.89, Alt : 49.2900009155, Lat : 49.2836463, Lng : -123.1148961, Q1 : 0.907290041447, Q2 : 0.0631983429193, Q3 : -0.131264820695, Q4 : 0.394462138414}
2019-04-14 16:43:26.31: SIM {TimeUS : 59935183, Roll : 0.67, Pitch : -16.78, Yaw : 46.8, Alt : 49.2900009155, Lat : 49.2836488, Lng : -123.114892, Q1 : 0.907534599304, Q2 : 0.0633363425732, Q3 : -0.131633594632, Q4 : 0.393753796816}
2019-04-14 16:43:26.41: SIM {TimeUS : 60035143, Roll : 0.6, Pitch : -16.83, Yaw : 46.83, Alt : 49.2900009155, Lat : 49.2836512, Lng : -123.1148878, Q1 : 0.907425999641, Q2 : 0.0629737004638, Q3 : -0.132245182991, Q4 : 0.393857330084}
2019-04-14 16:43:26.51: SIM {TimeUS : 60135103, Roll : 0.46, Pitch : -16.87, Yaw : 46.95, Alt : 49.2900009155, Lat : 49.2836537, Lng : -123.1148837, Q1 : 0.907049834728, Q2 : 0.0621397793293, Q3 : -0.133015662432, Q4 : 0.39459618926}
2019-04-14 16:43:26.61: SIM {TimeUS : 60235063, Roll : 0.28, Pitch : -16.89, Yaw : 47.12, Alt : 49.2900009155, Lat : 49.2836562, Lng : -123.1148794, Q1 : 0.906517386436, Q2 : 0.0609697960317, Q3 : -0.133709058166, Q4 : 0.39576613903}
2019-04-14 16:43:26.71: SIM {TimeUS : 60335023, Roll : 0.09, Pitch : -16.92, Yaw : 47.33, Alt : 49.2900009155, Lat : 49.2836588, Lng : -123.1148752, Q1 : 0.905876934528, Q2 : 0.059859238565, Q3 : -0.134452685714, Q4 : 0.397147774696}
2019-04-14 16:43:26.81: SIM {TimeUS : 60434983, Roll : -0.04, Pitch : -16.96, Yaw : 47.53, Alt : 49.2999992371, Lat : 49.2836613, Lng : -123.1148709, Q1 : 0.905202388763, Q2 : 0.0590812452137, Q3 : -0.135192811489, Q4 : 0.398548573256}
2019-04-14 16:43:26.91: SIM {TimeUS : 60534943, Roll : -0.14, Pitch : -17.01, Yaw : 47.7, Alt : 49.2999992371, Lat : 49.2836639, Lng : -123.1148666, Q1 : 0.904582321644, Q2 : 0.0586927011609, Q3 : -0.135828748345, Q4 : 0.399795651436}
2019-04-14 16:43:27.01: SIM {TimeUS : 60634903, Roll : -0.19, Pitch : -17.06, Yaw : 47.84, Alt : 49.2999992371, Lat : 49.2836664, Lng : -123.1148623, Q1 : 0.90408718586, Q2 : 0.0586272962391, Q3 : -0.136302754283, Q4 : 0.4007627666}
2019-04-14 16:43:27.11: SIM {TimeUS : 60734863, Roll : -0.19, Pitch : -17.11, Yaw : 47.92, Alt : 49.2999992371, Lat : 49.2836689, Lng : -123.1148579, Q1 : 0.90375238657, Q2 : 0.0588616095483, Q3 : -0.136631473899, Q4 : 0.401371121407}
2019-04-14 16:43:27.21: SIM {TimeUS : 60834823, Roll : -0.18, Pitch : -17.14, Yaw : 47.95, Alt : 49.2999992371, Lat : 49.2836716, Lng : -123.1148536, Q1 : 0.903603136539, Q2 : 0.059118270874, Q3 : -0.136848956347, Q4 : 0.401595324278}
2019-04-14 16:43:27.31: SIM {TimeUS : 60934783, Roll : -0.17, Pitch : -17.16, Yaw : 47.93, Alt : 49.2999992371, Lat : 49.2836742, Lng : -123.1148492, Q1 : 0.903644025326, Q2 : 0.0592477954924, Q3 : -0.136945098639, Q4 : 0.40145149827}
2019-04-14 16:43:27.41: SIM {TimeUS : 61034743, Roll : -0.16, Pitch : -17.17, Yaw : 47.87, Alt : 49.2999992371, Lat : 49.2836767, Lng : -123.1148448, Q1 : 0.903831362724, Q2 : 0.0593003965914, Q3 : -0.13702608645, Q4 : 0.400994032621}
2019-04-14 16:43:27.51: SIM {TimeUS : 61134703, Roll : -0.11, Pitch : -17.18, Yaw : 47.78, Alt : 49.2999992371, Lat : 49.2836795, Lng : -123.1148403, Q1 : 0.904110312462, Q2 : 0.0595499575138, Q3 : -0.136982694268, Q4 : 0.400342434645}
2019-04-14 16:43:27.61: SIM {TimeUS : 61234663, Roll : -0.05, Pitch : -17.19, Yaw : 47.67, Alt : 49.2999992371, Lat : 49.2836821, Lng : -123.1148359, Q1 : 0.904430150986, Q2 : 0.0599834099412, Q3 : -0.136917963624, Q4 : 0.39957678318}
2019-04-14 16:43:27.71: SIM {TimeUS : 61334623, Roll : 0.03, Pitch : -17.23, Yaw : 47.56, Alt : 49.3100013733, Lat : 49.2836847, Lng : -123.1148314, Q1 : 0.904723405838, Q2 : 0.0606873109937, Q3 : -0.136969774961, Q4 : 0.398788034916}
2019-04-14 16:43:27.81: SIM {TimeUS : 61434583, Roll : 0.11, Pitch : -17.28, Yaw : 47.46, Alt : 49.3100013733, Lat : 49.2836874, Lng : -123.114827, Q1 : 0.904978692532, Q2 : 0.0614017024636, Q3 : -0.137194305658, Q4 : 0.398021548986}
2019-04-14 16:43:27.91: SIM {TimeUS : 61534543, Roll : 0.17, Pitch : -17.32, Yaw : 47.37, Alt : 49.3100013733, Lat : 49.2836901, Lng : -123.1148225, Q1 : 0.905217528343, Q2 : 0.0618538558483, Q3 : -0.137329831719, Q4 : 0.39736109972}
2019-04-14 16:43:28.02: SIM {TimeUS : 61635336, Roll : 0.2, Pitch : -17.33, Yaw : 47.3, Alt : 49.3100013733, Lat : 49.2836928, Lng : -123.1148179, Q1 : 0.905432283878, Q2 : 0.0620551258326, Q3 : -0.137299060822, Q4 : 0.396850794554}
2019-04-14 16:43:28.11: SIM {TimeUS : 61735296, Roll : 0.21, Pitch : -17.33, Yaw : 47.25, Alt : 49.3100013733, Lat : 49.2836955, Lng : -123.1148134, Q1 : 0.905585765839, Q2 : 0.0620712116361, Q3 : -0.137331306934, Q4 : 0.396486759186}
2019-04-14 16:43:28.21: SIM {TimeUS : 61835256, Roll : 0.19, Pitch : -17.35, Yaw : 47.23, Alt : 49.3100013733, Lat : 49.2836981, Lng : -123.1148089, Q1 : 0.905654907227, Q2 : 0.0620170384645, Q3 : -0.137578085065, Q4 : 0.396251648664}
2019-04-14 16:43:28.31: SIM {TimeUS : 61935216, Roll : 0.18, Pitch : -17.38, Yaw : 47.22, Alt : 49.3100013733, Lat : 49.2837009, Lng : -123.1148043, Q1 : 0.905658304691, Q2 : 0.0619977787137, Q3 : -0.137847185135, Q4 : 0.396153330803}
2019-04-14 16:43:28.41: SIM {TimeUS : 62035176, Roll : 0.16, Pitch : -17.41, Yaw : 47.22, Alt : 49.3100013733, Lat : 49.2837035, Lng : -123.1147997, Q1 : 0.905609250069, Q2 : 0.0619756691158, Q3 : -0.138170212507, Q4 : 0.396156489849}
2019-04-14 16:43:28.51: SIM {TimeUS : 62135136, Roll : 0.14, Pitch : -17.44, Yaw : 47.24, Alt : 49.3100013733, Lat : 49.2837063, Lng : -123.1147951, Q1 : 0.905539810658, Q2 : 0.0619130954146, Q3 : -0.138445347548, Q4 : 0.396228820086}
2019-04-14 16:43:28.61: SIM {TimeUS : 62235096, Roll : 0.12, Pitch : -17.47, Yaw : 47.25, Alt : 49.3100013733, Lat : 49.283709, Lng : -123.1147905, Q1 : 0.905457735062, Q2 : 0.0618996024132, Q3 : -0.138710305095, Q4 : 0.396325945854}
2019-04-14 16:43:28.71: SIM {TimeUS : 62335056, Roll : 0.11, Pitch : -17.48, Yaw : 47.27, Alt : 49.3100013733, Lat : 49.2837118, Lng : -123.1147859, Q1 : 0.905384898186, Q2 : 0.0619069114327, Q3 : -0.138865366578, Q4 : 0.396436780691}
2019-04-14 16:43:28.81: SIM {TimeUS : 62435016, Roll : 0.12, Pitch : -17.5, Yaw : 47.28, Alt : 49.3100013733, Lat : 49.2837145, Lng : -123.1147813, Q1 : 0.905321717262, Q2 : 0.0620122216642, Q3 : -0.138970792294, Q4 : 0.396527677774}
2019-04-14 16:43:28.91: SIM {TimeUS : 62534976, Roll : 0.13, Pitch : -17.52, Yaw : 47.29, Alt : 49.3199996948, Lat : 49.2837173, Lng : -123.1147767, Q1 : 0.905274450779, Q2 : 0.0621482133865, Q3 : -0.139053851366, Q4 : 0.396585136652}
2019-04-14 16:43:29.01: SIM {TimeUS : 62634936, Roll : 0.12, Pitch : -17.55, Yaw : 47.29, Alt : 49.3199996948, Lat : 49.28372, Lng : -123.1147719, Q1 : 0.905237674713, Q2 : 0.06222403422, Q3 : -0.139317944646, Q4 : 0.39656457305}
2019-04-14 16:43:29.11: SIM {TimeUS : 62734896, Roll : 0.09, Pitch : -17.59, Yaw : 47.28, Alt : 49.3199996948, Lat : 49.2837229, Lng : -123.1147673, Q1 : 0.905228495598, Q2 : 0.0621045082808, Q3 : -0.139724090695, Q4 : 0.396461337805}
2019-04-14 16:43:29.21: SIM {TimeUS : 62834856, Roll : 0.07, Pitch : -17.63, Yaw : 47.27, Alt : 49.3199996948, Lat : 49.2837255, Lng : -123.1147627, Q1 : 0.905235588551, Q2 : 0.0620315670967, Q3 : -0.140150561929, Q4 : 0.396305978298}
2019-04-14 16:43:29.31: SIM {TimeUS : 62934816, Roll : 0.08, Pitch : -17.66, Yaw : 47.25, Alt : 49.3199996948, Lat : 49.2837284, Lng : -123.114758, Q1 : 0.905258595943, Q2 : 0.0621903538704, Q3 : -0.140366196632, Q4 : 0.396152228117}
2019-04-14 16:43:29.41: SIM {TimeUS : 63034776, Roll : 0.11, Pitch : -17.67, Yaw : 47.23, Alt : 49.3199996948, Lat : 49.2837312, Lng : -123.1147533, Q1 : 0.905309200287, Q2 : 0.0624573417008, Q3 : -0.140362307429, Q4 : 0.395995914936}
2019-04-14 16:43:29.51: SIM {TimeUS : 63134736, Roll : 0.14, Pitch : -17.66, Yaw : 47.2, Alt : 49.3199996948, Lat : 49.2837339, Lng : -123.1147486, Q1 : 0.905393302441, Q2 : 0.0626548826694, Q3 : -0.140197172761, Q4 : 0.395830899477}
2019-04-14 16:43:29.61: SIM {TimeUS : 63234696, Roll : 0.16, Pitch : -17.65, Yaw : 47.17, Alt : 49.3199996948, Lat : 49.2837368, Lng : -123.1147439, Q1 : 0.905488610268, Q2 : 0.0626924932003, Q3 : -0.14009784162, Q4 : 0.395642071962}
2019-04-14 16:43:29.71: SIM {TimeUS : 63334656, Roll : 0.16, Pitch : -17.64, Yaw : 47.15, Alt : 49.3199996948, Lat : 49.2837395, Lng : -123.1147391, Q1 : 0.905587792397, Q2 : 0.0626575425267, Q3 : -0.14001865685, Q4 : 0.395448595285}
2019-04-14 16:43:29.81: SIM {TimeUS : 63434616, Roll : 0.16, Pitch : -17.63, Yaw : 47.12, Alt : 49.3199996948, Lat : 49.2837424, Lng : -123.1147344, Q1 : 0.90569126606, Q2 : 0.0625492557883, Q3 : -0.139941781759, Q4 : 0.395255893469}
2019-04-14 16:43:29.91: SIM {TimeUS : 63534576, Roll : 0.15, Pitch : -17.64, Yaw : 47.1, Alt : 49.3199996948, Lat : 49.2837453, Lng : -123.1147297, Q1 : 0.905757963657, Q2 : 0.0624971017241, Q3 : -0.140066638589, Q4 : 0.395067065954}
2019-04-14 16:43:30.01: SIM {TimeUS : 63634536, Roll : 0.14, Pitch : -17.66, Yaw : 47.08, Alt : 49.3199996948, Lat : 49.283748, Lng : -123.1147249, Q1 : 0.905797898769, Q2 : 0.0625057145953, Q3 : -0.140279129148, Q4 : 0.394898742437}
2019-04-14 16:43:30.11: SIM {TimeUS : 63735329, Roll : 0.13, Pitch : -17.71, Yaw : 47.07, Alt : 49.3199996948, Lat : 49.2837509, Lng : -123.1147201, Q1 : 0.905803561211, Q2 : 0.0625205785036, Q3 : -0.140709832311, Q4 : 0.394730120897}
2019-04-14 16:43:30.21: SIM {TimeUS : 63835289, Roll : 0.12, Pitch : -17.77, Yaw : 47.05, Alt : 49.3199996948, Lat : 49.2837538, Lng : -123.1147153, Q1 : 0.905781924725, Q2 : 0.0626615509391, Q3 : -0.141181543469, Q4 : 0.394588977098}
2019-04-14 16:43:30.31: SIM {TimeUS : 63935249, Roll : 0.13, Pitch : -17.79, Yaw : 47.04, Alt : 49.3199996948, Lat : 49.2837565, Lng : -123.1147105, Q1 : 0.905781745911, Q2 : 0.0628261342645, Q3 : -0.141370266676, Q4 : 0.394495606422}
2019-04-14 16:43:30.41: SIM {TimeUS : 64035209, Roll : 0.13, Pitch : -17.82, Yaw : 47.03, Alt : 49.3300018311, Lat : 49.2837594, Lng : -123.1147058, Q1 : 0.90578854084, Q2 : 0.0629013851285, Q3 : -0.141548186541, Q4 : 0.394404143095}
2019-04-14 16:43:30.51: SIM {TimeUS : 64135169, Roll : 0.13, Pitch : -17.83, Yaw : 47.02, Alt : 49.3300018311, Lat : 49.2837623, Lng : -123.114701, Q1 : 0.905804872513, Q2 : 0.0629249513149, Q3 : -0.141671836376, Q4 : 0.394318550825}
2019-04-14 16:43:30.61: SIM {TimeUS : 64235129, Roll : 0.15, Pitch : -17.83, Yaw : 47.01, Alt : 49.3300018311, Lat : 49.2837652, Lng : -123.1146962, Q1 : 0.905833303928, Q2 : 0.0630168914795, Q3 : -0.14159783721, Q4 : 0.394265085459}
2019-04-14 16:43:30.71: SIM {TimeUS : 64335089, Roll : 0.16, Pitch : -17.84, Yaw : 47.0, Alt : 49.3300018311, Lat : 49.2837679, Lng : -123.1146914, Q1 : 0.905842959881, Q2 : 0.063180886209, Q3 : -0.14162646234, Q4 : 0.394206404686}
2019-04-14 16:43:30.81: SIM {TimeUS : 64435049, Roll : 0.17, Pitch : -17.86, Yaw : 46.99, Alt : 49.3300018311, Lat : 49.2837709, Lng : -123.1146866, Q1 : 0.905840396881, Q2 : 0.0633125528693, Q3 : -0.141796514392, Q4 : 0.394130021334}
2019-04-14 16:43:30.91: SIM {TimeUS : 64535009, Roll : 0.17, Pitch : -17.88, Yaw : 46.99, Alt : 49.3300018311, Lat : 49.2837738, Lng : -123.1146818, Q1 : 0.905848681927, Q2 : 0.063368961215, Q3 : -0.14194624126, Q4 : 0.39404797554}
2019-04-14 16:43:31.01: SIM {TimeUS : 64634969, Roll : 0.18, Pitch : -17.88, Yaw : 46.97, Alt : 49.3300018311, Lat : 49.2837767, Lng : -123.1146769, Q1 : 0.905886590481, Q2 : 0.0633915141225, Q3 : -0.141925632954, Q4 : 0.393964648247}
2019-04-14 16:43:31.11: SIM {TimeUS : 64734929, Roll : 0.18, Pitch : -17.88, Yaw : 46.96, Alt : 49.3300018311, Lat : 49.2837794, Lng : -123.1146721, Q1 : 0.905927598476, Q2 : 0.0633738636971, Q3 : -0.141942948103, Q4 : 0.393866956234}
2019-04-14 16:43:31.21: SIM {TimeUS : 64834889, Roll : 0.16, Pitch : -17.9, Yaw : 46.95, Alt : 49.3300018311, Lat : 49.2837824, Lng : -123.1146673, Q1 : 0.905957460403, Q2 : 0.0632998272777, Q3 : -0.142142996192, Q4 : 0.393738031387}
2019-04-14 16:43:31.31: SIM {TimeUS : 64934849, Roll : 0.13, Pitch : -17.94, Yaw : 46.94, Alt : 49.3300018311, Lat : 49.2837853, Lng : -123.1146624, Q1 : 0.905969500542, Q2 : 0.0632052868605, Q3 : -0.142571344972, Q4 : 0.393570482731}
2019-04-14 16:43:31.41: SIM {TimeUS : 65034809, Roll : 0.12, Pitch : -17.95, Yaw : 46.92, Alt : 49.3300018311, Lat : 49.2837881, Lng : -123.1146576, Q1 : 0.906011641026, Q2 : 0.0631371662021, Q3 : -0.142730399966, Q4 : 0.393426775932}
2019-04-14 16:43:31.51: SIM {TimeUS : 65134769, Roll : 0.13, Pitch : -17.95, Yaw : 46.9, Alt : 49.3300018311, Lat : 49.283791, Lng : -123.1146527, Q1 : 0.906064689159, Q2 : 0.063173122704, Q3 : -0.142665967345, Q4 : 0.393322229385}
2019-04-14 16:43:31.61: SIM {TimeUS : 65234729, Roll : 0.15, Pitch : -17.94, Yaw : 46.89, Alt : 49.3300018311, Lat : 49.283794, Lng : -123.1146479, Q1 : 0.906111598015, Q2 : 0.0633062496781, Q3 : -0.142542690039, Q4 : 0.393237411976}
2019-04-14 16:43:31.71: SIM {TimeUS : 65334689, Roll : 0.17, Pitch : -17.95, Yaw : 46.88, Alt : 49.3300018311, Lat : 49.2837969, Lng : -123.114643, Q1 : 0.906145334244, Q2 : 0.0634188577533, Q3 : -0.14254617691, Q4 : 0.393140286207}
2019-04-14 16:43:31.81: SIM {TimeUS : 65434649, Roll : 0.16, Pitch : -17.96, Yaw : 46.86, Alt : 49.3400001526, Lat : 49.2837998, Lng : -123.1146381, Q1 : 0.906168580055, Q2 : 0.0634133219719, Q3 : -0.142720133066, Q4 : 0.393024504185}
2019-04-14 16:43:31.91: SIM {TimeUS : 65534609, Roll : 0.14, Pitch : -17.98, Yaw : 46.85, Alt : 49.3400001526, Lat : 49.2838026, Lng : -123.1146332, Q1 : 0.90619802475, Q2 : 0.0632751211524, Q3 : -0.142951756716, Q4 : 0.392894655466}
2019-04-14 16:43:32.01: SIM {TimeUS : 65634569, Roll : 0.13, Pitch : -18.0, Yaw : 46.84, Alt : 49.3400001526, Lat : 49.2838056, Lng : -123.1146284, Q1 : 0.906222462654, Q2 : 0.0632277876139, Q3 : -0.143115118146, Q4 : 0.392786383629}
2019-04-14 16:43:32.12: SIM {TimeUS : 65735362, Roll : 0.13, Pitch : -18.02, Yaw : 46.83, Alt : 49.3400001526, Lat : 49.2838086, Lng : -123.1146234, Q1 : 0.906237781048, Q2 : 0.0633115321398, Q3 : -0.143248572946, Q4 : 0.392688989639}
2019-04-14 16:43:32.21: SIM {TimeUS : 65835322, Roll : 0.14, Pitch : -18.03, Yaw : 46.82, Alt : 49.3400001526, Lat : 49.2838115, Lng : -123.1146186, Q1 : 0.906253278255, Q2 : 0.0634153038263, Q3 : -0.143328368664, Q4 : 0.392607361078}
2019-04-14 16:43:32.31: SIM {TimeUS : 65935282, Roll : 0.16, Pitch : -18.04, Yaw : 46.81, Alt : 49.3400001526, Lat : 49.2838144, Lng : -123.1146137, Q1 : 0.906258046627, Q2 : 0.0636136457324, Q3 : -0.143339604139, Q4 : 0.392560213804}
2019-04-14 16:43:32.41: SIM {TimeUS : 66035242, Roll : 0.17, Pitch : -18.06, Yaw : 46.8, Alt : 49.3400001526, Lat : 49.2838173, Lng : -123.1146088, Q1 : 0.906254947186, Q2 : 0.0637409687042, Q3 : -0.14346113801, Q4 : 0.392502248287}
2019-04-14 16:43:32.51: SIM {TimeUS : 66135202, Roll : 0.18, Pitch : -18.08, Yaw : 46.8, Alt : 49.3400001526, Lat : 49.2838202, Lng : -123.1146039, Q1 : 0.906248152256, Q2 : 0.0638658851385, Q3 : -0.143607348204, Q4 : 0.392444163561}
2019-04-14 16:43:32.61: SIM {TimeUS : 66235162, Roll : 0.19, Pitch : -18.1, Yaw : 46.79, Alt : 49.3400001526, Lat : 49.2838232, Lng : -123.114599, Q1 : 0.906240820885, Q2 : 0.0640110597014, Q3 : -0.143727973104, Q4 : 0.392393261194}
2019-04-14 16:43:32.71: SIM {TimeUS : 66335122, Roll : 0.21, Pitch : -18.11, Yaw : 46.78, Alt : 49.3400001526, Lat : 49.2838262, Lng : -123.1145941, Q1 : 0.906240344048, Q2 : 0.0642165020108, Q3 : -0.143699258566, Q4 : 0.392371237278}
2019-04-14 16:43:32.81: SIM {TimeUS : 66435082, Roll : 0.25, Pitch : -18.11, Yaw : 46.78, Alt : 49.3400001526, Lat : 49.2838291, Lng : -123.1145892, Q1 : 0.906232655048, Q2 : 0.064498886466, Q3 : -0.143624648452, Q4 : 0.392370134592}
2019-04-14 16:43:32.91: SIM {TimeUS : 66535042, Roll : 0.25, Pitch : -18.1, Yaw : 46.77, Alt : 49.3400001526, Lat : 49.2838319, Lng : -123.1145843, Q1 : 0.906255662441, Q2 : 0.0644882768393, Q3 : -0.14357689023, Q4 : 0.392336070538}
2019-04-14 16:43:33.01: SIM {TimeUS : 66635002, Roll : 0.23, Pitch : -18.12, Yaw : 46.77, Alt : 49.3499984741, Lat : 49.2838349, Lng : -123.1145793, Q1 : 0.906271338463, Q2 : 0.0643358528614, Q3 : -0.143758803606, Q4 : 0.392258316278}
