2019-04-14 18:54:19.70: SIM {TimeUS : 40116447, Roll : 0.0, Pitch : 0.0, Yaw : 0.0, Alt : 30.1000003815, Lat : 49.28357, Lng : -123.11502, Q1 : 1.0, Q2 : 0.0, Q3 : 0.0, Q4 : 0.0}
2019-04-14 18:54:19.81: SIM {TimeUS : 40235566, Roll : 0.0, Pitch : 0.0, Yaw : 0.0, Alt : 30.1000003815, Lat : 49.28357, Lng : -123.11502, Q1 : 1.0, Q2 : 0.0, Q3 : 0.0, Q4 : 0.0}
2019-04-14 18:54:19.91: SIM {TimeUS : 40335526, Roll : 0.0, Pitch : 0.0, Yaw : 0.0, Alt : 30.1000003815, Lat : 49.28357, Lng : -123.11502, Q1 : 1.0, Q2 : 0.0, Q3 : 0.0, Q4 : 0.0}
2019-04-14 18:54:20.01: SIM {TimeUS : 40435486, Roll : 0.0, Pitch : 0.0, Yaw : 0.0, Alt : 30.1000003815, Lat : 49.28357, Lng : -123.11502, Q1 : 1.0, Q2 : 0.0, Q3 : 0.0, Q4 : 0.0}
2019-04-14 18:54:20.11: SIM {TimeUS : 40535446, Roll : 0.0, Pitch : 0.0, Yaw : 0.0, Alt : 30.1000003815, Lat : 49.28357, Lng : -123.11502, Q1 : 1.0, Q2 : 0.0, Q3 : 0.0, Q4 : 0.0}
2019-04-14 18:54:20.21: SIM {TimeUS : 40635406, Roll : 0.0, Pitch : 0.0, Yaw : 0.0, Alt : 30.1000003815, Lat : 49.28357, Lng : -123.11502, Q1 : 1.0, Q2 : 0.0, Q3 : 0.0, Q4 : 0.0}
2019-04-14 18:54:20.31: SIM {TimeUS : 40735366, Roll : 0.0, Pitch : 0.0, Yaw : 0.0, Alt : 30.1000003815, Lat : 49.28357, Lng : -123.11502, Q1 : 1.0, Q2 : 0.0, Q3 : 0.0, Q4 : 0.0}
2019-04-14 18:54:20.41: SIM {TimeUS : 40835326, Roll : 0.0, Pitch : 0.0, Yaw : 0.0, Alt : 30.1000003815, Lat : 49.28357, Lng : -123.11502, Q1 : 1.0, Q2 : 0.0, Q3 : 0.0, Q4 : 0.0}
2019-04-14 18:54:20.51: SIM {TimeUS : 40935286, Roll : 0.0, Pitch : 0.0, Yaw : 0.0, Alt : 30.1000003815, Lat : 49.28357, Lng : -123.11502, Q1 : 1.0, Q2 : 0.0, Q3 : 0.0, Q4 : 0.0}
2019-04-14 18:54:20.61: SIM {TimeUS : 41035246, Roll : 0.0, Pitch : 0.0, Yaw : 0.0, Alt : 30.1000003815, Lat : 49.28357, Lng : -123.11502, Q1 : 1.0, Q2 : 0.0, Q3 : 0.0, Q4 : 0.0}
2019-04-14 18:54:20.71: SIM {TimeUS : 41135206, Roll : 0.0, Pitch : 0.0, Yaw : 0.0, Alt : 30.1000003815, Lat : 49.28357, Lng : -123.11502, Q1 : 1.0, Q2 : 0.0, Q3 : 0.0, Q4 : 0.0}
2019-04-14 18:54:20.81: SIM {TimeUS : 41235166, Roll : 0.0, Pitch : 0.0, Yaw : 0.0, Alt : 30.1000003815, Lat : 49.28357, Lng : -123.11502, Q1 : 1.0, Q2 : 0.0, Q3 : 0.0, Q4 : 0.0}
2019-04-14 18:54:20.91: SIM {TimeUS : 41335126, Roll : 0.0, Pitch : 0.0, Yaw : 0.0, Alt : 30.1000003815, Lat : 49.28357, Lng : -123.11502, Q1 : 1.0, Q2 : 0.0, Q3 : 0.0, Q4 : 0.0}
2019-04-14 18:54:21.01: SIM {TimeUS : 41435086, Roll : 0.0, Pitch : 0.0, Yaw : 0.0, Alt : 30.1000003815, Lat : 49.28357, Lng : -123.11502, Q1 : 1.0, Q2 : 0.0, Q3 : 0.0, Q4 : 0.0}
2019-04-14 18:54:21.11: SIM {TimeUS : 41535046, Roll : 0.0, Pitch : 0.0, Yaw : 0.0, Alt : 30.1000003815, Lat : 49.28357, Lng : -123.11502, Q1 : 1.0, Q2 : 0.0, Q3 : 0.0, Q4 : 0.0}
2019-04-14 18:54:21.21: SIM {TimeUS : 41635006, Roll : 0.0, Pitch : 0.0, Yaw : 0.0, Alt : 30.1000003815, Lat : 49.28357, Lng : -123.11502, Q1 : 1.0, Q2 : 0.0, Q3 : 0.0, Q4 : 0.0}
2019-04-14 18:54:21.31: SIM {TimeUS : 41734966, Roll : 0.0, Pitch : 0.0, Yaw : 0.0, Alt : 30.1000003815, Lat : 49.28357, Lng : -123.11502, Q1 : 1.0, Q2 : 0.0, Q3 : 0.0, Q4 : 0.0}
2019-04-14 18:54:21.41: SIM {TimeUS : 41834926, Roll : 0.0, Pitch : 0.0, Yaw : 0.0, Alt : 30.1000003815, Lat : 49.28357, Lng : -123.11502, Q1 : 1.0, Q2 : 0.0, Q3 : 0.0, Q4 : 0.0}
2019-04-14 18:54:21.51: SIM {TimeUS : 41934886, Roll : 0.0, Pitch : 0.0, Yaw : 0.0, Alt : 30.1000003815, Lat : 49.28357, Lng : -123.11502, Q1 : 1.0, Q2 : 0.0, Q3 : 0.0, Q4 : 0.0}
2019-04-14 18:54:21.61: SIM {TimeUS : 42034846, Roll : 0.0, Pitch : 0.0, Yaw : 0.0, Alt : 30.1000003815, Lat : 49.28357, Lng : -123.11502, Q1 : 1.0, Q2 : 0.0, Q3 : 0.0, Q4 : 0.0}
2019-04-14 18:54:21.71: SIM {TimeUS : 42134806, Roll : 0.0, Pitch : 0.0, Yaw : 0.0, Alt : 30.1000003815, Lat : 49.28357, Lng : -123.11502, Q1 : 1.0, Q2 : 0.0, Q3 : 0.0, Q4 : 0.0}
2019-04-14 18:54:21.82: SIM {TimeUS : 42235599, Roll : 0.0, Pitch : 0.0, Yaw : 0.0, Alt : 30.1000003815, Lat : 49.28357, Lng : -123.11502, Q1 : 1.0, Q2 : 0.0, Q3 : 0.0, Q4 : 0.0}
2019-04-14 18:54:21.91: SIM {TimeUS : 42335559, Roll : 0.0, Pitch : 0.0, Yaw : 0.0, Alt : 30.1000003815, Lat : 49.28357, Lng : -123.11502, Q1 : 1.0, Q2 : 0.0, Q3 : 0.0, Q4 : 0.0}
2019-04-14 18:54:22.01: SIM {TimeUS : 42435519, Roll : 0.0, Pitch : 0.0, Yaw : 0.0, Alt : 30.1000003815, Lat : 49.28357, Lng : -123.11502, Q1 : 1.0, Q2 : 0.0, Q3 : 0.0, Q4 : 3.91291166135e-11}
2019-04-14 18:54:22.11: SIM {TimeUS : 42535479, Roll : 0.0, Pitch : 0.0, Yaw : 0.0, Alt : 30.1000003815, Lat : 49.28357, Lng : -123.11502, Q1 : 1.0, Q2 : 0.0, Q3 : 0.0, Q4 : 1.90754856355e-10}
2019-04-14 18:54:22.21: SIM {TimeUS : 42635439, Roll : 0.0, Pitch : 0.0, Yaw : 360.0, Alt : 30.1000003815, Lat : 49.28357, Lng : -123.11502, Q1 : 1.0, Q2 : 0.0, Q3 : 0.0, Q4 : -1.28813425704e-07}
2019-04-14 18:54:22.31: SIM {TimeUS : 42735399, Roll : 0.0, Pitch : 0.0, Yaw : 359.99, Alt : 30.1000003815, Lat : 49.28357, Lng : -123.11502, Q1 : 1.0, Q2 : 0.0, Q3 : 0.0, Q4 : -3.12917336487e-07}
2019-04-14 18:54:22.41: SIM {TimeUS : 42835359, Roll : 0.0, Pitch : 0.0, Yaw : 359.99, Alt : 30.1000003815, Lat : 49.28357, Lng : -123.11502, Q1 : 1.0, Q2 : 0.0, Q3 : 0.0, Q4 : -5.36761206149e-07}
2019-04-14 18:54:22.51: SIM {TimeUS : 42935319, Roll : 0.0, Pitch : 0.0, Yaw : 359.99, Alt : 30.1000003815, Lat : 49.28357, Lng : -123.11502, Q1 : 1.0, Q2 : 0.0, Q3 : 0.0, Q4 : -7.55853648116e-07}
2019-04-14 18:54:22.61: SIM {TimeUS : 43035279, Roll : 0.0, Pitch : 0.0, Yaw : 359.99, Alt : 30.1000003815, Lat : 49.28357, Lng : -123.11502, Q1 : 1.0, Q2 : 0.0, Q3 : 0.0, Q4 : -9.61064870353e-07}
2019-04-14 18:54:22.71: SIM {TimeUS : 43135239, Roll : 0.0, Pitch : 0.0, Yaw : 359.99, Alt : 30.1000003815, Lat : 49.28357, Lng : -123.11502, Q1 : 1.0, Q2 : 0.0, Q3 : 0.0, Q4 : -1.17824492918e-06}
2019-04-14 18:54:22.81: SIM {TimeUS : 43235199, Roll : 0.0, Pitch : 0.0, Yaw : 359.99, Alt : 30.1000003815, Lat : 49.28357, Lng : -123.11502, Q1 : 1.0, Q2 : 0.0, Q3 : 0.0, Q4 : -1.3952816289e-06}
2019-04-14 18:54:22.91: SIM {TimeUS : 43335159, Roll : 0.0, Pitch : 0.0, Yaw : 359.99, Alt : 30.1100006104, Lat : 49.28357, Lng : -123.11502, Q1 : 1.0, Q2 : 0.0, Q3 : 0.0, Q4 : -1.58726720656e-06}
2019-04-14 18:54:23.01: SIM {TimeUS : 43435119, Roll : 0.0, Pitch : 0.0, Yaw : 359.99, Alt : 30.1399993896, Lat : 49.28357, Lng : -123.11502, Q1 : 1.0, Q2 : 0.0, Q3 : 0.0, Q4 : -1.82306564511e-06}
2019-04-14 18:54:23.11: SIM {TimeUS : 43535079, Roll : 0.0, Pitch : 0.0, Yaw : 359.99, Alt : 30.1599998474, Lat : 49.28357, Lng : -123.11502, Q1 : 1.0, Q2 : 0.0, Q3 : 0.0, Q4 : -2.07033190236e-06}
2019-04-14 18:54:23.21: SIM {TimeUS : 43635039, Roll : 0.0, Pitch : 0.0, Yaw : 359.99, Alt : 30.2000007629, Lat : 49.28357, Lng : -123.11502, Q1 : 1.0, Q2 : 0.0, Q3 : 0.0, Q4 : -2.32104844144e-06}
2019-04-14 18:54:23.31: SIM {TimeUS : 43734999, Roll : -0.1, Pitch : -0.09, Yaw : 359.99, Alt : 30.25, Lat : 49.28357, Lng : -123.11502, Q1 : 0.999999284744, Q2 : -0.000875702651683, Q3 : -0.000835524522699, Q4 : -1.05636509034e-05}
2019-04-14 18:54:23.41: SIM {TimeUS : 43834959, Roll : -0.41, Pitch : -0.35, Yaw : 359.99, Alt : 30.3400001526, Lat : 49.28357, Lng : -123.11502, Q1 : 0.999988794327, Q2 : -0.00358264613897, Q3 : -0.00308649940416, Q4 : -4.72840765724e-05}
2019-04-14 18:54:23.51: SIM {TimeUS : 43934919, Roll : -0.71, Pitch : -0.57, Yaw : 359.99, Alt : 30.4899997711, Lat : 49.28357, Lng : -123.11502, Q1 : 0.99996805191, Q2 : -0.00625413423404, Q3 : -0.00497446861118, Q4 : -0.000108211570478}
2019-04-14 18:54:23.61: SIM {TimeUS : 44034879, Roll : -0.87, Pitch : -0.67, Yaw : 359.98, Alt : 30.6499996185, Lat : 49.28357, Lng : -123.11502, Q1 : 0.9999538064, Q2 : -0.00759963598102, Q3 : -0.00588449463248, Q4 : -0.000191525090486}
2019-04-14 18:54:23.71: SIM {TimeUS : 44134839, Roll : -0.85, Pitch : -0.66, Yaw : 359.97, Alt : 30.7999992371, Lat : 49.28357, Lng : -123.11502, Q1 : 0.999955356121, Q2 : -0.00747287739068, Q3 : -0.00577676901594, Q4 : -0.000277438317426}
2019-04-14 18:54:23.81: SIM {TimeUS : 44234799, Roll : -0.71, Pitch : -0.56, Yaw : 359.96, Alt : 30.9599990845, Lat : 49.2835701, Lng : -123.1150201, Q1 : 0.999968588352, Q2 : -0.00623509893194, Q3 : -0.00488821230829, Q4 : -0.00035477912752}
2019-04-14 18:54:23.92: SIM {TimeUS : 44335592, Roll : -0.49, Pitch : -0.4, Yaw : 359.95, Alt : 31.1100006104, Lat : 49.2835701, Lng : -123.1150202, Q1 : 0.999984323978, Q2 : -0.0043369140476, Q3 : -0.00352305849083, Q4 : -0.000427330378443}
2019-04-14 18:54:24.01: SIM {TimeUS : 44435552, Roll : -0.25, Pitch : -0.25, Yaw : 359.94, Alt : 31.2700004578, Lat : 49.2835701, Lng : -123.1150203, Q1 : 0.99999499321, Q2 : -0.00221017678268, Q3 : -0.00220189196989, Q4 : -0.000493599916808}
2019-04-14 18:54:24.11: SIM {TimeUS : 44535512, Roll : -0.05, Pitch : -0.11, Yaw : 359.93, Alt : 31.4400005341, Lat : 49.2835702, Lng : -123.1150204, Q1 : 0.99999922514, Q2 : -0.00050276966067, Q3 : -0.00102993194014, Q4 : -0.000545532850083}
2019-04-14 18:54:24.21: SIM {TimeUS : 44635472, Roll : 0.04, Pitch : -0.01, Yaw : 359.93, Alt : 31.6100006104, Lat : 49.2835702, Lng : -123.1150204, Q1 : 0.999999761581, Q2 : 0.00038256435073, Q3 : -0.000147581216879, Q4 : -0.000578402890824}
2019-04-14 18:54:24.31: SIM {TimeUS : 44735432, Roll : 0.07, Pitch : 0.03, Yaw : 359.93, Alt : 31.7900009155, Lat : 49.2835703, Lng : -123.1150205, Q1 : 0.999999582767, Q2 : 0.000655991898384, Q3 : 0.000311249517836, Q4 : -0.000599985360168}
2019-04-14 18:54:24.41: SIM {TimeUS : 44835392, Roll : 0.06, Pitch : 0.05, Yaw : 359.92, Alt : 31.9699993134, Lat : 49.2835703, Lng : -123.1150206, Q1 : 0.999999523163, Q2 : 0.000572040269617, Q3 : 0.000438553135609, Q4 : -0.000615294557065}
2019-04-14 18:54:24.51: SIM {TimeUS : 44935352, Roll : 0.05, Pitch : 0.04, Yaw : 359.92, Alt : 32.1599998474, Lat : 49.2835703, Lng : -123.1150206, Q1 : 0.999999642372, Q2 : 0.000466794881504, Q3 : 0.000390641187551, Q4 : -0.000615543918684}
2019-04-14 18:54:24.61: SIM {TimeUS : 45035312, Roll : 0.05, Pitch : 0.02, Yaw : 359.93, Alt : 32.3499984741, Lat : 49.2835703, Lng : -123.1150207, Q1 : 0.999999642372, Q2 : 0.000519541616086, Q3 : 0.000237943168031, Q4 : -0.000602958491072}
2019-04-14 18:54:24.71: SIM {TimeUS : 45135272, Roll : 0.08, Pitch : 0.02, Yaw : 359.93, Alt : 32.5400009155, Lat : 49.2835703, Lng : -123.1150207, Q1 : 0.999999582767, Q2 : 0.000712019798812, Q3 : 0.000183808355359, Q4 : -0.00059017946478}
2019-04-14 18:54:24.81: SIM {TimeUS : 45235232, Roll : 0.1, Pitch : 0.04, Yaw : 359.93, Alt : 32.7400016785, Lat : 49.2835703, Lng : -123.1150208, Q1 : 0.999999344349, Q2 : 0.000946372572798, Q3 : 0.000398983713239, Q4 : -0.000572896795347}
2019-04-14 18:54:24.91: SIM {TimeUS : 45335192, Roll : 0.13, Pitch : 0.1, Yaw : 359.93, Alt : 32.9399986267, Lat : 49.2835704, Lng : -123.1150208, Q1 : 0.999998748302, Q2 : 0.00117866543587, Q3 : 0.00087944889674, Q4 : -0.000568494433537}
2019-04-14 18:54:25.01: SIM {TimeUS : 45435152, Roll : 0.15, Pitch : 0.15, Yaw : 359.93, Alt : 33.1399993896, Lat : 49.2835704, Lng : -123.1150208, Q1 : 0.999998033047, Q2 : 0.00134434725624, Q3 : 0.00136373552959, Q4 : -0.000568886869587}
2019-04-14 18:54:25.11: SIM {TimeUS : 45535112, Roll : 0.17, Pitch : 0.19, Yaw : 359.93, Alt : 33.3400001526, Lat : 49.2835704, Lng : -123.1150209, Q1 : 0.999997198582, Q2 : 0.00151680060662, Q3 : 0.00172710441984, Q4 : -0.000569432682823}
2019-04-14 18:54:25.21: SIM {TimeUS : 45635072, Roll : 0.19, Pitch : 0.21, Yaw : 359.93, Alt : 33.5499992371, Lat : 49.2835704, Lng : -123.1150209, Q1 : 0.999996721745, Q2 : 0.00167701288592, Q3 : 0.0018569722306, Q4 : -0.000571140262764}
2019-04-14 18:54:25.31: SIM {TimeUS : 45735032, Roll : 0.2, Pitch : 0.21, Yaw : 359.93, Alt : 33.75, Lat : 49.2835704, Lng : -123.1150209, Q1 : 0.999996602535, Q2 : 0.00175864051562, Q3 : 0.00185053574387, Q4 : -0.000568366260268}
2019-04-14 18:54:25.41: SIM {TimeUS : 45834992, Roll : 0.18, Pitch : 0.2, Yaw : 359.93, Alt : 33.9599990845, Lat : 49.2835706, Lng : -123.1150209, Q1 : 0.999996960163, Q2 : 0.00163296912797, Q3 : 0.00175042403862, Q4 : -0.000571352080442}
2019-04-14 18:54:25.51: SIM {TimeUS : 45934952, Roll : 0.16, Pitch : 0.15, Yaw : 359.93, Alt : 34.1699981689, Lat : 49.2835706, Lng : -123.1150209, Q1 : 0.999997854233, Q2 : 0.00144311983604, Q3 : 0.00138174311724, Q4 : -0.000580980966333}
2019-04-14 18:54:25.61: SIM {TimeUS : 46034912, Roll : 0.13, Pitch : 0.1, Yaw : 359.93, Alt : 34.3800010681, Lat : 49.2835706, Lng : -123.1150209, Q1 : 0.999998748302, Q2 : 0.00119269627612, Q3 : 0.000886213267222, Q4 : -0.000579536077566}
2019-04-14 18:54:25.71: SIM {TimeUS : 46134872, Roll : 0.1, Pitch : 0.06, Yaw : 359.93, Alt : 34.5999984741, Lat : 49.2835706, Lng : -123.1150209, Q1 : 0.999999284744, Q2 : 0.00088925298769, Q3 : 0.000554790080059, Q4 : -0.00058592291316}
2019-04-14 18:54:25.81: SIM {TimeUS : 46234832, Roll : 0.07, Pitch : 0.04, Yaw : 359.93, Alt : 34.8100013733, Lat : 49.2835706, Lng : -123.1150209, Q1 : 0.999999523163, Q2 : 0.000686066865455, Q3 : 0.000432380620623, Q4 : -0.000604869506788}
2019-04-14 18:54:25.91: SIM {TimeUS : 46334792, Roll : 0.07, Pitch : 0.05, Yaw : 359.92, Alt : 35.0299987793, Lat : 49.2835706, Lng : -123.1150209, Q1 : 0.999999463558, Q2 : 0.000640480662696, Q3 : 0.000480670540128, Q4 : -0.000633049116004}
2019-04-14 18:54:26.02: SIM {TimeUS : 46435585, Roll : 0.06, Pitch : 0.05, Yaw : 359.92, Alt : 35.2400016785, Lat : 49.2835706, Lng : -123.1150208, Q1 : 0.999999523163, Q2 : 0.000576165795792, Q3 : 0.000450201216154, Q4 : -0.000658580975141}
2019-04-14 18:54:26.11: SIM {TimeUS : 46535545, Roll : 0.05, Pitch : 0.04, Yaw : 359.92, Alt : 35.4599990845, Lat : 49.2835706, Lng : -123.1150208, Q1 : 0.999999582767, Q2 : 0.000447286089184, Q3 : 0.000403117679525, Q4 : -0.000682922371197}
2019-04-14 18:54:26.21: SIM {TimeUS : 46635505, Roll : 0.03, Pitch : 0.05, Yaw : 359.91, Alt : 35.6800003052, Lat : 49.2835706, Lng : -123.1150208, Q1 : 0.999999582767, Q2 : 0.000295358942822, Q3 : 0.000443076511147, Q4 : -0.000707448634785}
2019-04-14 18:54:26.31: SIM {TimeUS : 46735465, Roll : 0.01, Pitch : 0.06, Yaw : 359.91, Alt : 35.9000015259, Lat : 49.2835704, Lng : -123.1150208, Q1 : 0.999999582767, Q2 : 0.000149541621795, Q3 : 0.000577274418902, Q4 : -0.000735486333724}
2019-04-14 18:54:26.41: SIM {TimeUS : 46835425, Roll : 0.0, Pitch : 0.06, Yaw : 359.91, Alt : 36.1199989319, Lat : 49.2835704, Lng : -123.1150208, Q1 : 0.999999582767, Q2 : 8.41424116516e-06, Q3 : 0.000568863819353, Q4 : -0.000751145009417}
2019-04-14 18:54:26.51: SIM {TimeUS : 46935385, Roll : 0.0, Pitch : 0.05, Yaw : 359.91, Alt : 36.3400001526, Lat : 49.2835704, Lng : -123.1150207, Q1 : 0.999999582767, Q2 : -7.88128891145e-05, Q3 : 0.000476823741337, Q4 : -0.000769264588598}
2019-04-14 18:54:26.61: SIM {TimeUS : 47035345, Roll : -0.01, Pitch : 0.04, Yaw : 359.9, Alt : 36.5600013733, Lat : 49.2835704, Lng : -123.1150207, Q1 : 0.999999582767, Q2 : -0.000170263359905, Q3 : 0.000369974615751, Q4 : -0.000795185449533}
2019-04-14 18:54:26.71: SIM {TimeUS : 47135305, Roll : -0.02, Pitch : 0.03, Yaw : 359.9, Alt : 36.7900009155, Lat : 49.2835704, Lng : -123.1150207, Q1 : 0.999999582767, Q2 : -0.000245077128056, Q3 : 0.000289240822894, Q4 : -0.00083114777226}
2019-04-14 18:54:26.81: SIM {TimeUS : 47235265, Roll : -0.01, Pitch : 0.01, Yaw : 359.9, Alt : 37.0099983215, Lat : 49.2835704, Lng : -123.1150207, Q1 : 0.999999582767, Q2 : -0.000159234725288, Q3 : 0.000150792126078, Q4 : -0.000868775474373}
2019-04-14 18:54:26.91: SIM {TimeUS : 47335225, Roll : -0.01, Pitch : 0.0, Yaw : 359.89, Alt : 37.2299995422, Lat : 49.2835704, Lng : -123.1150207, Q1 : 0.999999582767, Q2 : -0.00016602933465, Q3 : -5.74441364734e-05, Q4 : -0.000899477628991}
2019-04-14 18:54:27.01: SIM {TimeUS : 47435185, Roll : -0.03, Pitch : -0.04, Yaw : 359.89, Alt : 37.4599990845, Lat : 49.2835704, Lng : -123.1150207, Q1 : 0.999999463558, Q2 : -0.000311146781314, Q3 : -0.000370490393834, Q4 : -0.000923601794057}
2019-04-14 18:54:27.11: SIM {TimeUS : 47535145, Roll : -0.06, Pitch : -0.07, Yaw : 359.89, Alt : 37.6899986267, Lat : 49.2835704, Lng : -123.1150207, Q1 : 0.999999165535, Q2 : -0.000563615583815, Q3 : -0.000656492833514, Q4 : -0.000950061890762}
2019-04-14 18:54:27.21: SIM {TimeUS : 47635105, Roll : -0.09, Pitch : -0.09, Yaw : 359.88, Alt : 37.9099998474, Lat : 49.2835704, Lng : -123.1150207, Q1 : 0.999998807907, Q2 : -0.000846554175951, Q3 : -0.000819653214421, Q4 : -0.000970232766122}
2019-04-14 18:54:27.31: SIM {TimeUS : 47735065, Roll : -0.11, Pitch : -0.1, Yaw : 359.88, Alt : 38.1399993896, Lat : 49.2835704, Lng : -123.1150206, Q1 : 0.999998509884, Q2 : -0.00104566826485, Q3 : -0.000935240415856, Q4 : -0.000989782274701}
2019-04-14 18:54:27.41: SIM {TimeUS : 47835025, Roll : -0.12, Pitch : -0.1, Yaw : 359.88, Alt : 38.3699989319, Lat : 49.2835704, Lng : -123.1150206, Q1 : 0.999998450279, Q2 : -0.00111572875176, Q3 : -0.000928385939915, Q4 : -0.00100662058685}
2019-04-14 18:54:27.51: SIM {TimeUS : 47934985, Roll : -0.11, Pitch : -0.08, Yaw : 359.88, Alt : 38.5999984741, Lat : 49.2835704, Lng : -123.1150206, Q1 : 0.999998748302, Q2 : -0.000999609590508, Q3 : -0.000716685666703, Q4 : -0.00102000404149}
2019-04-14 18:54:27.61: SIM {TimeUS : 48034945, Roll : -0.08, Pitch : -0.06, Yaw : 359.88, Alt : 38.8199996948, Lat : 49.2835704, Lng : -123.1150206, Q1 : 0.999998986721, Q2 : -0.000758574868087, Q3 : -0.000608543108683, Q4 : -0.00103319494519}
2019-04-14 18:54:27.71: SIM {TimeUS : 48134905, Roll : -0.06, Pitch : -0.06, Yaw : 359.87, Alt : 39.0499992371, Lat : 49.2835704, Lng : -123.1150206, Q1 : 0.99999910593, Q2 : -0.000608814472798, Q3 : -0.000556950340979, Q4 : -0.00105632445775}
2019-04-14 18:54:27.81: SIM {TimeUS : 48234865, Roll : -0.06, Pitch : -0.03, Yaw : 359.87, Alt : 39.2799987793, Lat : 49.2835704, Lng : -123.1150206, Q1 : 0.99999922514, Q2 : -0.000534987077117, Q3 : -0.0003447541676, Q4 : -0.00107059872244}
2019-04-14 18:54:27.91: SIM {TimeUS : 48334825, Roll : -0.07, Pitch : 0.0, Yaw : 359.87, Alt : 39.5099983215, Lat : 49.2835704, Lng : -123.1150206, Q1 : 0.99999922514, Q2 : -0.000656992662698, Q3 : -4.37410271843e-05, Q4 : -0.00108106539119}
2019-04-14 18:54:28.01: SIM {TimeUS : 48434785, Roll : -0.07, Pitch : 0.02, Yaw : 359.87, Alt : 39.7400016785, Lat : 49.2835704, Lng : -123.1150206, Q1 : 0.999999165535, Q2 : -0.000662903650664, Q3 : 0.00020260947349, Q4 : -0.00109532405622}
2019-04-14 18:54:28.12: SIM {TimeUS : 48535578, Roll : -0.05, Pitch : 0.05, Yaw : 359.87, Alt : 39.9799995422, Lat : 49.2835704, Lng : -123.1150206, Q1 : 0.99999910593, Q2 : -0.000490830861963, Q3 : 0.000522945891134, Q4 : -0.00111925124656}
2019-04-14 18:54:28.21: SIM {TimeUS : 48635538, Roll : -0.02, Pitch : 0.06, Yaw : 359.86, Alt : 40.2099990845, Lat : 49.2835704, Lng : -123.1150207, Q1 : 0.999999165535, Q2 : -0.000255267048487, Q3 : 0.00055574066937, Q4 : -0.00114058912732}
2019-04-14 18:54:28.31: SIM {TimeUS : 48735498, Roll : 0.0, Pitch : 0.05, Yaw : 359.86, Alt : 40.4399986267, Lat : 49.2835704, Lng : -123.1150207, Q1 : 0.99999922514, Q2 : 1.46572583617e-05, Q3 : 0.00050090480363, Q4 : -0.00115801929496}
2019-04-14 18:54:28.41: SIM {TimeUS : 48835458, Roll : 0.03, Pitch : 0.06, Yaw : 359.86, Alt : 40.6699981689, Lat : 49.2835704, Lng : -123.1150207, Q1 : 0.99999910593, Q2 : 0.00034225199488, Q3 : 0.000601858191658, Q4 : -0.00117726053577}
2019-04-14 18:54:28.51: SIM {TimeUS : 48935418, Roll : 0.08, Pitch : 0.09, Yaw : 359.86, Alt : 40.9000015259, Lat : 49.2835704, Lng : -123.1150207, Q1 : 0.999998629093, Q2 : 0.000745519064367, Q3 : 0.000851588905789, Q4 : -0.00120529241394}
2019-04-14 18:54:28.61: SIM {TimeUS : 49035378, Roll : 0.1, Pitch : 0.12, Yaw : 359.85, Alt : 41.1399993896, Lat : 49.2835706, Lng : -123.1150207, Q1 : 0.999998152256, Q2 : 0.000950102461502, Q3 : 0.00111143290997, Q4 : -0.00123632571194}
2019-04-14 18:54:28.71: SIM {TimeUS : 49135338, Roll : 0.09, Pitch : 0.14, Yaw : 359.85, Alt : 41.3699989319, Lat : 49.2835706, Lng : -123.1150207, Q1 : 0.999998033047, Q2 : 0.00080004852498, Q3 : 0.00129976077005, Q4 : -0.00125626451336}
2019-04-14 18:54:28.81: SIM {TimeUS : 49235298, Roll : 0.03, Pitch : 0.15, Yaw : 359.85, Alt : 41.5999984741, Lat : 49.2835706, Lng : -123.1150207, Q1 : 0.999998152256, Q2 : 0.000342154118698, Q3 : 0.00138302438427, Q4 : -0.00127462763339}
2019-04-14 18:54:28.91: SIM {TimeUS : 49335258, Roll : 0.0, Pitch : 0.15, Yaw : 359.85, Alt : 41.8400001526, Lat : 49.2835706, Lng : -123.1150207, Q1 : 0.999998211861, Q2 : -8.34435268189e-05, Q3 : 0.00137289881241, Q4 : -0.00129477062728}
2019-04-14 18:54:29.01: SIM {TimeUS : 49435218, Roll : -0.02, Pitch : 0.12, Yaw : 359.84, Alt : 42.0699996948, Lat : 49.2835706, Lng : -123.1150207, Q1 : 0.999998509884, Q2 : -0.000236256164499, Q3 : 0.00111567310523, Q4 : -0.00131115491968}
2019-04-14 18:54:29.11: SIM {TimeUS : 49535178, Roll : -0.02, Pitch : 0.09, Yaw : 359.84, Alt : 42.3100013733, Lat : 49.2835706, Lng : -123.1150207, Q1 : 0.999998748302, Q2 : -0.000223251510761, Q3 : 0.000809139106423, Q4 : -0.00132602604572}
2019-04-14 18:54:29.21: SIM {TimeUS : 49635138, Roll : -0.01, Pitch : 0.09, Yaw : 359.84, Alt : 42.5400009155, Lat : 49.2835706, Lng : -123.1150207, Q1 : 0.999998748302, Q2 : -9.1741560027e-05, Q3 : 0.000818443717435, Q4 : -0.00135038571898}
2019-04-14 18:54:29.31: SIM {TimeUS : 49735098, Roll : 0.02, Pitch : 0.11, Yaw : 359.84, Alt : 42.7799987793, Lat : 49.2835706, Lng : -123.1150207, Q1 : 0.999998509884, Q2 : 0.000260127679212, Q3 : 0.00100696680602, Q4 : -0.00139072397724}
2019-04-14 18:54:29.41: SIM {TimeUS : 49835058, Roll : 0.08, Pitch : 0.13, Yaw : 359.83, Alt : 43.0099983215, Lat : 49.2835706, Lng : -123.1150207, Q1 : 0.999997973442, Q2 : 0.000747085083276, Q3 : 0.00121598842088, Q4 : -0.00142865465023}
2019-04-14 18:54:29.51: SIM {TimeUS : 49935018, Roll : 0.12, Pitch : 0.13, Yaw : 359.83, Alt : 43.25, Lat : 49.2835704, Lng : -123.1150207, Q1 : 0.999997675419, Q2 : 0.00108250370249, Q3 : 0.0011721214978, Q4 : -0.00146808649879}
2019-04-14 18:54:29.61: SIM {TimeUS : 50034978, Roll : 0.12, Pitch : 0.11, Yaw : 359.82, Alt : 43.4799995422, Lat : 49.2835704, Lng : -123.1150207, Q1 : 0.999997735023, Q2 : 0.00107701518573, Q3 : 0.00101995456498, Q4 : -0.00150121643674}
2019-04-14 18:54:29.71: SIM {TimeUS : 50134938, Roll : 0.07, Pitch : 0.09, Yaw : 359.82, Alt : 43.7200012207, Lat : 49.2835704, Lng : -123.1150207, Q1 : 0.999998271465, Q2 : 0.000691470515449, Q3 : 0.000860607950017, Q4 : -0.00150676071644}
2019-04-14 18:54:29.81: SIM {TimeUS : 50234898, Roll : 0.01, Pitch : 0.08, Yaw : 359.82, Alt : 43.9500007629, Lat : 49.2835704, Lng : -123.1150207, Q1 : 0.999998569489, Q2 : 0.000147964121425, Q3 : 0.00075721880421, Q4 : -0.00150705839042}
2019-04-14 18:54:29.91: SIM {TimeUS : 50334858, Roll : -0.02, Pitch : 0.08, Yaw : 359.82, Alt : 44.1899986267, Lat : 49.2835704, Lng : -123.1150207, Q1 : 0.999998509884, Q2 : -0.000222212445806, Q3 : 0.00076081888983, Q4 : -0.00151607498992}
2019-04-14 18:54:30.01: SIM {TimeUS : 50434818, Roll : -0.04, Pitch : 0.08, Yaw : 359.82, Alt : 44.4199981689, Lat : 49.2835704, Lng : -123.1150206, Q1 : 0.999998509884, Q2 : -0.00039732773439, Q3 : 0.000704609265085, Q4 : -0.00152950920165}
2019-04-14 18:54:30.11: SIM {TimeUS : 50534778, Roll : -0.03, Pitch : 0.05, Yaw : 359.82, Alt : 44.6599998474, Lat : 49.2835704, Lng : -123.1150206, Q1 : 0.999998629093, Q2 : -0.000336521945428, Q3 : 0.000517603824846, Q4 : -0.00154764321633}
2019-04-14 18:54:30.21: SIM {TimeUS : 50635571, Roll : -0.03, Pitch : 0.03, Yaw : 359.81, Alt : 44.9000015259, Lat : 49.2835704, Lng : -123.1150206, Q1 : 0.999998629093, Q2 : -0.000340565457009, Q3 : 0.000298140163068, Q4 : -0.00157831457909}
2019-04-14 18:54:30.31: SIM {TimeUS : 50735531, Roll : -0.02, Pitch : 0.01, Yaw : 359.81, Alt : 45.1300010681, Lat : 49.2835704, Lng : -123.1150206, Q1 : 0.999998629093, Q2 : -0.000244921102421, Q3 : 0.0001442412904, Q4 : -0.00161447387654}
2019-04-14 18:54:30.41: SIM {TimeUS : 50835491, Roll : 0.0, Pitch : 0.0, Yaw : 359.81, Alt : 45.3699989319, Lat : 49.2835703, Lng : -123.1150206, Q1 : 0.999998629093, Q2 : -7.9289493442e-05, Q3 : 4.30216314271e-05, Q4 : -0.00165171909612}
2019-04-14 18:54:30.51: SIM {TimeUS : 50935451, Roll : 0.0, Pitch : 0.0, Yaw : 359.8, Alt : 45.5999984741, Lat : 49.2835703, Lng : -123.1150206, Q1 : 0.999998569489, Q2 : -4.19788011641e-05, Q3 : 1.18949801617e-05, Q4 : -0.00168877386022}
2019-04-14 18:54:30.61: SIM {TimeUS : 51035411, Roll : -0.01, Pitch : 0.0, Yaw : 359.8, Alt : 45.8400001526, Lat : 49.2835703, Lng : -123.1150206, Q1 : 0.999998509884, Q2 : -0.000116506867926, Q3 : -4.38150236732e-05, Q4 : -0.00172877218574}
2019-04-14 18:54:30.71: SIM {TimeUS : 51135371, Roll : -0.02, Pitch : -0.02, Yaw : 359.79, Alt : 46.0699996948, Lat : 49.2835703, Lng : -123.1150206, Q1 : 0.999998390675, Q2 : -0.000204365191166, Q3 : -0.000213792663999, Q4 : -0.00177094514947}
2019-04-14 18:54:30.81: SIM {TimeUS : 51235331, Roll : -0.02, Pitch : -0.03, Yaw : 359.79, Alt : 46.2999992371, Lat : 49.2835703, Lng : -123.1150206, Q1 : 0.999998271465, Q2 : -0.000252050434938, Q3 : -0.000326410372509, Q4 : -0.00180832552724}
2019-04-14 18:54:30.91: SIM {TimeUS : 51335291, Roll : -0.02, Pitch : -0.04, Yaw : 359.78, Alt : 46.5200004578, Lat : 49.2835703, Lng : -123.1150205, Q1 : 0.999998211861, Q2 : -0.000241060508415, Q3 : -0.000386980129406, Q4 : -0.00184082763735}
2019-04-14 18:54:31.01: SIM {TimeUS : 51435251, Roll : -0.03, Pitch : -0.04, Yaw : 359.78, Alt : 46.7400016785, Lat : 49.2835703, Lng : -123.1150205, Q1 : 0.999998152256, Q2 : -0.000298677274259, Q3 : -0.000404155987781, Q4 : -0.0018719334621}
2019-04-14 18:54:31.11: SIM {TimeUS : 51535211, Roll : -0.05, Pitch : -0.04, Yaw : 359.78, Alt : 46.9500007629, Lat : 49.2835703, Lng : -123.1150205, Q1 : 0.999998033047, Q2 : -0.00047591899056, Q3 : -0.000377815944375, Q4 : -0.00190077594016}
2019-04-14 18:54:31.21: SIM {TimeUS : 51635171, Roll : -0.08, Pitch : -0.04, Yaw : 359.77, Alt : 47.1599998474, Lat : 49.2835703, Lng : -123.1150205, Q1 : 0.999997794628, Q2 : -0.000738182396162, Q3 : -0.000356339354767, Q4 : -0.00192667986266}
2019-04-14 18:54:31.31: SIM {TimeUS : 51735131, Roll : -0.1, Pitch : -0.04, Yaw : 359.77, Alt : 47.3499984741, Lat : 49.2835703, Lng : -123.1150205, Q1 : 0.99999755621, Q2 : -0.000952220521867, Q3 : -0.000353754789103, Q4 : -0.00195111043286}
2019-04-14 18:54:31.41: SIM {TimeUS : 51835091, Roll : -0.11, Pitch : -0.02, Yaw : 359.77, Alt : 47.5400009155, Lat : 49.2835703, Lng : -123.1150205, Q1 : 0.999997496605, Q2 : -0.00102009100374, Q3 : -0.000245007075137, Q4 : -0.00197105878033}
2019-04-14 18:54:31.51: SIM {TimeUS : 51935051, Roll : -0.13, Pitch : -0.02, Yaw : 359.77, Alt : 47.7200012207, Lat : 49.2835703, Lng : -123.1150205, Q1 : 0.999997258186, Q2 : -0.00121409201529, Q3 : -0.000250404700637, Q4 : -0.00199152831919}
2019-04-14 18:54:31.61: SIM {TimeUS : 52035011, Roll : -0.15, Pitch : -0.04, Yaw : 359.76, Alt : 47.8899993896, Lat : 49.2835703, Lng : -123.1150205, Q1 : 0.999996960163, Q2 : -0.00137817091309, Q3 : -0.000404628051911, Q4 : -0.00201373267919}
2019-04-14 18:54:31.71: SIM {TimeUS : 52134971, Roll : -0.15, Pitch : -0.05, Yaw : 359.76, Alt : 48.0499992371, Lat : 49.2835703, Lng : -123.1150205, Q1 : 0.999996840954, Q2 : -0.00138299143873, Q3 : -0.000494088686537, Q4 : -0.00203674053773}
2019-04-14 18:54:31.81: SIM {TimeUS : 52234931, Roll : -0.14, Pitch : -0.05, Yaw : 359.76, Alt : 48.1899986267, Lat : 49.2835703, Lng : -123.1150205, Q1 : 0.999996960163, Q2 : -0.00126198132057, Q3 : -0.000517947541084, Q4 : -0.00206328369677}
2019-04-14 18:54:31.91: SIM {TimeUS : 52334891, Roll : -0.11, Pitch : -0.06, Yaw : 359.76, Alt : 48.3199996948, Lat : 49.2835703, Lng : -123.1150205, Q1 : 0.999997198582, Q2 : -0.000995696522295, Q3 : -0.000535857048817, Q4 : -0.00208856654353}
2019-04-14 18:54:32.01: SIM {TimeUS : 52434851, Roll : -0.07, Pitch : -0.06, Yaw : 359.75, Alt : 48.4399986267, Lat : 49.2835703, Lng : -123.1150205, Q1 : 0.999997437, Q2 : -0.000615475873929, Q3 : -0.000568643386941, Q4 : -0.0021131078247}
2019-04-14 18:54:32.11: SIM {TimeUS : 52534811, Roll : -0.04, Pitch : -0.07, Yaw : 359.75, Alt : 48.5499992371, Lat : 49.2835703, Lng : -123.1150205, Q1 : 0.999997437, Q2 : -0.000373735063476, Q3 : -0.00061928195646, Q4 : -0.00213770847768}
2019-04-14 18:54:32.22: SIM {TimeUS : 52635604, Roll : -0.03, Pitch : -0.07, Yaw : 359.75, Alt : 48.6500015259, Lat : 49.2835703, Lng : -123.1150206, Q1 : 0.999997377396, Q2 : -0.000280787033262, Q3 : -0.000672524911352, Q4 : -0.00216273660772}
2019-04-14 18:54:32.31: SIM {TimeUS : 52735564, Roll : -0.01, Pitch : -0.07, Yaw : 359.74, Alt : 48.7299995422, Lat : 49.2835703, Lng : -123.1150206, Q1 : 0.999997377396, Q2 : -0.000107392108475, Q3 : -0.000623907777481, Q4 : -0.00218964205123}
2019-04-14 18:54:32.41: SIM {TimeUS : 52835524, Roll : 0.01, Pitch : -0.05, Yaw : 359.74, Alt : 48.7999992371, Lat : 49.2835703, Lng : -123.1150206, Q1 : 0.999997437, Q2 : 0.000135161695653, Q3 : -0.000466015917482, Q4 : -0.00221859104931}
2019-04-14 18:54:32.51: SIM {TimeUS : 52935484, Roll : 0.03, Pitch : -0.03, Yaw : 359.74, Alt : 48.8699989319, Lat : 49.2835703, Lng : -123.1150206, Q1 : 0.999997377396, Q2 : 0.000340034050168, Q3 : -0.000271142314887, Q4 : -0.0022506120149}
2019-04-14 18:54:32.61: SIM {TimeUS : 53035444, Roll : 0.07, Pitch : -0.03, Yaw : 359.73, Alt : 48.9199981689, Lat : 49.2835703, Lng : -123.1150206, Q1 : 0.999997198582, Q2 : 0.000624051492196, Q3 : -0.000284126523184, Q4 : -0.00227877846919}
2019-04-14 18:54:32.71: SIM {TimeUS : 53135404, Roll : 0.21, Pitch : -0.14, Yaw : 359.73, Alt : 48.9700012207, Lat : 49.2835703, Lng : -123.1150206, Q1 : 0.999994754791, Q2 : 0.00188117322978, Q3 : -0.0012822978897, Q4 : -0.00230236211792}
2019-04-14 18:54:32.81: SIM {TimeUS : 53235364, Roll : 0.53, Pitch : -0.45, Yaw : 359.73, Alt : 49.0099983215, Lat : 49.2835703, Lng : -123.1150206, Q1 : 0.999978423119, Q2 : 0.00467085465789, Q3 : -0.00399647653103, Q4 : -0.00231839180924}
2019-04-14 18:54:32.91: SIM {TimeUS : 53335324, Roll : 1.04, Pitch : -0.94, Yaw : 359.72, Alt : 49.0400009155, Lat : 49.2835703, Lng : -123.1150206, Q1 : 0.999921739101, Q2 : 0.00906389392912, Q3 : -0.00830487348139, Q4 : -0.00232579559088}
2019-04-14 18:54:33.01: SIM {TimeUS : 53435284, Roll : 1.7, Pitch : -1.57, Yaw : 359.71, Alt : 49.0699996948, Lat : 49.2835704, Lng : -123.1150206, Q1 : 0.999791622162, Q2 : 0.0148643292487, Q3 : -0.0137990536168, Q4 : -0.00230841012672}
2019-04-14 18:54:33.11: SIM {TimeUS : 53535244, Roll : 2.46, Pitch : -2.28, Yaw : 359.69, Alt : 49.0999984741, Lat : 49.2835704, Lng : -123.1150205, Q1 : 0.999568760395, Q2 : 0.0214216671884, Q3 : -0.0199591536075, Q4 : -0.0022504508961}
2019-04-14 18:54:33.21: SIM {TimeUS : 53635204, Roll : 3.18, Pitch : -2.94, Yaw : 359.67, Alt : 49.1199989319, Lat : 49.2835706, Lng : -123.1150204, Q1 : 0.999282181263, Q2 : 0.0277220439166, Q3 : -0.0257309116423, Q4 : -0.00213014171459}
2019-04-14 18:54:33.31: SIM {TimeUS : 53735164, Roll : 3.79, Pitch : -3.46, Yaw : 359.66, Alt : 49.1399993896, Lat : 49.2835707, Lng : -123.1150202, Q1 : 0.998991310596, Q2 : 0.0330400131643, Q3 : -0.0303483102471, Q4 : -0.00193940196186}
2019-04-14 18:54:33.41: SIM {TimeUS : 53835124, Roll : 4.26, Pitch : -3.85, Yaw : 359.66, Alt : 49.1599998474, Lat : 49.2835709, Lng : -123.11502, Q1 : 0.998739302158, Q2 : 0.0371145382524, Q3 : -0.0337560847402, Q4 : -0.00169791374356}
2019-04-14 18:54:33.51: SIM {TimeUS : 53935084, Roll : 4.6, Pitch : -4.17, Yaw : 359.66, Alt : 49.1699981689, Lat : 49.283571, Lng : -123.1150198, Q1 : 0.998530983925, Q2 : 0.0400411635637, Q3 : -0.0364758633077, Q4 : -0.00143570406362}
2019-04-14 18:54:33.61: SIM {TimeUS : 54035044, Roll : 4.86, Pitch : -4.42, Yaw : 359.67, Alt : 49.1800003052, Lat : 49.2835713, Lng : -123.1150193, Q1 : 0.998354911804, Q2 : 0.042273670435, Q3 : -0.0387179926038, Q4 : -0.00117275642697}
2019-04-14 18:54:33.71: SIM {TimeUS : 54135004, Roll : 5.09, Pitch : -4.69, Yaw : 359.68, Alt : 49.1899986267, Lat : 49.2835715, Lng : -123.1150189, Q1 : 0.998175263405, Q2 : 0.044308077544, Q3 : -0.0410137064755, Q4 : -0.000923796906136}
2019-04-14 18:54:33.81: SIM {TimeUS : 54234964, Roll : 5.35, Pitch : -4.98, Yaw : 359.68, Alt : 49.2000007629, Lat : 49.283572, Lng : -123.1150183, Q1 : 0.997967422009, Q2 : 0.0465314164758, Q3 : -0.0435364544392, Q4 : -0.000679123215377}
2019-04-14 18:54:33.91: SIM {TimeUS : 54334924, Roll : 5.62, Pitch : -5.26, Yaw : 359.69, Alt : 49.2099990845, Lat : 49.2835724, Lng : -123.1150175, Q1 : 0.997747600079, Q2 : 0.0488508418202, Q3 : -0.0459688156843, Q4 : -0.000428554631071}
2019-04-14 18:54:34.01: SIM {TimeUS : 54434884, Roll : 5.85, Pitch : -5.49, Yaw : 359.69, Alt : 49.2200012207, Lat : 49.2835728, Lng : -123.1150169, Q1 : 0.997551977634, Q2 : 0.0508859679103, Q3 : -0.0479656197131, Q4 : -0.000175240682438}
2019-04-14 18:54:34.11: SIM {TimeUS : 54534844, Roll : 6.03, Pitch : -5.65, Yaw : 359.7, Alt : 49.2299995422, Lat : 49.2835733, Lng : -123.115016, Q1 : 0.997404515743, Q2 : 0.0524143502116, Q3 : -0.0493650436401, Q4 : 5.96474674239e-05}
2019-04-14 18:54:34.21: SIM {TimeUS : 54634804, Roll : 6.14, Pitch : -5.75, Yaw : 359.72, Alt : 49.2299995422, Lat : 49.2835739, Lng : -123.1150151, Q1 : 0.997305870056, Q2 : 0.0534112118185, Q3 : -0.0502811335027, Q4 : 0.00026666073245}
2019-04-14 18:54:34.32: SIM {TimeUS : 54735597, Roll : 6.23, Pitch : -5.84, Yaw : 359.72, Alt : 49.2400016785, Lat : 49.2835745, Lng : -123.1150141, Q1 : 0.997225046158, Q2 : 0.0541633665562, Q3 : -0.0510729029775, Q4 : 0.000419182120822}
2019-04-14 18:54:34.41: SIM {TimeUS : 54835557, Roll : 6.32, Pitch : -5.94, Yaw : 359.73, Alt : 49.2400016785, Lat : 49.2835751, Lng : -123.115013, Q1 : 0.997141242027, Q2 : 0.0549306981266, Q3 : -0.0518814325333, Q4 : 0.000527740397956}
2019-04-14 18:54:34.51: SIM {TimeUS : 54935517, Roll : 6.53, Pitch : -5.99, Yaw : 359.77, Alt : 49.25, Lat : 49.2835758, Lng : -123.1150118, Q1 : 0.997014164925, Q2 : 0.0567891858518, Q3 : -0.0523139797151, Q4 : 0.00102621037513}
2019-04-14 18:54:34.61: SIM {TimeUS : 55035477, Roll : 6.99, Pitch : -5.9, Yaw : 0.23, Alt : 49.25, Lat : 49.2835767, Lng : -123.1150106, Q1 : 0.996803879738, Q2 : 0.0610042922199, Q3 : -0.0513162016869, Q4 : 0.0052053485997}
2019-04-14 18:54:34.71: SIM {TimeUS : 55135437, Roll : 7.63, Pitch : -5.81, Yaw : 1.78, Alt : 49.25, Lat : 49.2835775, Lng : -123.1150093, Q1 : 0.996323764324, Q2 : 0.0672418475151, Q3 : -0.049587789923, Q4 : 0.0189360212535}
2019-04-14 18:54:34.81: SIM {TimeUS : 55235397, Roll : 8.13, Pitch : -6.04, Yaw : 4.88, Alt : 49.25, Lat : 49.2835782, Lng : -123.1150078, Q1 : 0.995029330254, Q2 : 0.073014728725, Q3 : -0.0494851395488, Q4 : 0.0462244898081}
2019-04-14 18:54:34.91: SIM {TimeUS : 55335357, Roll : 8.24, Pitch : -6.7, Yaw : 9.54, Alt : 49.2599983215, Lat : 49.2835792, Lng : -123.1150063, Q1 : 0.991896688938, Q2 : 0.0764117240906, Q3 : -0.0521594956517, Q4 : 0.0870724916458}
2019-04-14 18:54:35.01: SIM {TimeUS : 55435317, Roll : 7.78, Pitch : -7.77, Yaw : 15.57, Alt : 49.2599983215, Lat : 49.28358, Lng : -123.1150047, Q1 : 0.985597729683, Q2 : 0.076236911118, Q3 : -0.0578712597489, Q4 : 0.139412999153}
2019-04-14 18:54:35.11: SIM {TimeUS : 55535277, Roll : 6.65, Pitch : -9.11, Yaw : 22.7, Alt : 49.2599983215, Lat : 49.2835808, Lng : -123.1150029, Q1 : 0.97478467226, Q2 : 0.0723069086671, Q3 : -0.0663573369384, Q4 : 0.200407624245}
2019-04-14 18:54:35.21: SIM {TimeUS : 55635237, Roll : 4.86, Pitch : -10.49, Yaw : 30.67, Alt : 49.2599983215, Lat : 49.2835818, Lng : -123.115001, Q1 : 0.958444476128, Q2 : 0.0649130940437, Q3 : -0.0769235044718, Q4 : 0.26693302393}
2019-04-14 18:54:35.31: SIM {TimeUS : 55735197, Roll : 2.28, Pitch : -11.68, Yaw : 39.03, Alt : 49.2599983215, Lat : 49.2835829, Lng : -123.114999, Q1 : 0.936765789986, Q2 : 0.0527180992067, Q3 : -0.0893253535032, Q4 : 0.334233045578}
2019-04-14 18:54:35.41: SIM {TimeUS : 55835157, Roll : -0.85, Pitch : -12.44, Yaw : 46.96, Alt : 49.2700004578, Lat : 49.2835838, Lng : -123.114997, Q1 : 0.912068843842, Q2 : 0.0363613851368, Q3 : -0.102385275066, Q4 : 0.395380288363}
2019-04-14 18:54:35.51: SIM {TimeUS : 55935117, Roll : -3.94, Pitch : -12.69, Yaw : 53.61, Alt : 49.2700004578, Lat : 49.2835849, Lng : -123.1149948, Q1 : 0.888259828091, Q2 : 0.0193276517093, Q3 : -0.114055357873, Q4 : 0.444536030293}
2019-04-14 18:54:35.61: SIM {TimeUS : 56035077, Roll : -6.32, Pitch : -12.6, Yaw : 58.38, Alt : 49.2700004578, Lat : 49.2835861, Lng : -123.1149926, Q1 : 0.869325101376, Q2 : 0.00559131801128, Q3 : -0.122450001538, Q4 : 0.478799134493}
2019-04-14 18:54:35.71: SIM {TimeUS : 56135037, Roll : -7.66, Pitch : -12.44, Yaw : 61.15, Alt : 49.2700004578, Lat : 49.2835874, Lng : -123.1149904, Q1 : 0.857652723789, Q2 : -0.00217710412107, Q3 : -0.126921638846, Q4 : 0.498315215111}
2019-04-14 18:54:35.81: SIM {TimeUS : 56234997, Roll : -7.93, Pitch : -12.43, Yaw : 62.08, Alt : 49.2700004578, Lat : 49.2835889, Lng : -123.1149882, Q1 : 0.853549659252, Q2 : -0.00325593678281, Q3 : -0.128036826849, Q4 : 0.50502371788}
2019-04-14 18:54:35.91: SIM {TimeUS : 56334957, Roll : -7.35, Pitch : -12.67, Yaw : 61.53, Alt : 49.2700004578, Lat : 49.2835903, Lng : -123.1149859, Q1 : 0.855866134167, Q2 : 0.00161388190463, Q3 : -0.12728472054, Q4 : 0.501287579536}
2019-04-14 18:54:36.01: SIM {TimeUS : 56434917, Roll : -6.14, Pitch : -13.18, Yaw : 59.83, Alt : 49.2700004578, Lat : 49.283592, Lng : -123.1149835, Q1 : 0.862834095955, Q2 : 0.011039076373, Q3 : -0.125878825784, Q4 : 0.489438474178}
2019-04-14 18:54:36.11: SIM {TimeUS : 56534877, Roll : -4.52, Pitch : -13.85, Yaw : 57.33, Alt : 49.2700004578, Lat : 49.2835937, Lng : -123.1149813, Q1 : 0.872597336769, Q2 : 0.0234835855663, Q3 : -0.124551579356, Q4 : 0.471709012985}
2019-04-14 18:54:36.21: SIM {TimeUS : 56634837, Roll : -2.69, Pitch : -14.57, Yaw : 54.35, Alt : 49.2700004578, Lat : 49.2835954, Lng : -123.1149789, Q1 : 0.883539259434, Q2 : 0.0371344275773, Q3 : -0.123474143445, Q4 : 0.450259387493}
2019-04-14 18:54:36.31: SIM {TimeUS : 56734797, Roll : -0.86, Pitch : -15.19, Yaw : 51.19, Alt : 49.2799987793, Lat : 49.2835972, Lng : -123.1149764, Q1 : 0.894353210926, Q2 : 0.0503734797239, Q3 : -0.12243360281, Q4 : 0.427322983742}
2019-04-14 18:54:36.42: SIM {TimeUS : 56835590, Roll : 0.82, Pitch : -15.61, Yaw : 48.16, Alt : 49.2799987793, Lat : 49.283599, Lng : -123.1149738, Q1 : 0.904073596001, Q2 : 0.0619224235415, Q3 : -0.121150508523, Q4 : 0.405140936375}
2019-04-14 18:54:36.51: SIM {TimeUS : 56935550, Roll : 2.16, Pitch : -15.79, Yaw : 45.62, Alt : 49.2799987793, Lat : 49.283601, Lng : -123.114971, Q1 : 0.911857187748, Q2 : 0.0704998522997, Q3 : -0.119410067797, Q4 : 0.386377543211}
2019-04-14 18:54:36.61: SIM {TimeUS : 57035510, Roll : 3.07, Pitch : -15.79, Yaw : 43.76, Alt : 49.2799987793, Lat : 49.2836029, Lng : -123.1149682, Q1 : 0.917433798313, Q2 : 0.0758737549186, Q3 : -0.117578014731, Q4 : 0.372469842434}
2019-04-14 18:54:36.71: SIM {TimeUS : 57135470, Roll : 3.51, Pitch : -15.72, Yaw : 42.67, Alt : 49.2799987793, Lat : 49.2836048, Lng : -123.1149652, Q1 : 0.920736074448, Q2 : 0.0780558586121, Q3 : -0.11628511548, Q4 : 0.364184230566}
2019-04-14 18:54:36.81: SIM {TimeUS : 57235430, Roll : 3.49, Pitch : -15.66, Yaw : 42.33, Alt : 49.2799987793, Lat : 49.2836068, Lng : -123.1149621, Q1 : 0.921882450581, Q2 : 0.0773781314492, Q3 : -0.116130046546, Q4 : 0.361468106508}
2019-04-14 18:54:36.91: SIM {TimeUS : 57335390, Roll : 3.09, Pitch : -15.67, Yaw : 42.66, Alt : 49.2799987793, Lat : 49.2836087, Lng : -123.1149589, Q1 : 0.92112070322, Q2 : 0.0744824707508, Q3 : -0.117211855948, Q4 : 0.363662540913}
2019-04-14 18:54:37.01: SIM {TimeUS : 57435350, Roll : 2.41, Pitch : -15.75, Yaw : 43.49, Alt : 49.2799987793, Lat : 49.2836106, Lng : -123.1149555, Q1 : 0.918785691261, Q2 : 0.0701199993491, Q3 : -0.119538515806, Q4 : 0.369630396366}
2019-04-14 18:54:37.11: SIM {TimeUS : 57535310, Roll : 1.57, Pitch : -15.89, Yaw : 44.66, Alt : 49.2799987793, Lat : 49.2836127, Lng : -123.1149522, Q1 : 0.91530829668, Q2 : 0.0651200190187, Q3 : -0.122680358589, Q4 : 0.378047168255}
2019-04-14 18:54:37.21: SIM {TimeUS : 57635270, Roll : 0.7, Pitch : -16.04, Yaw : 45.98, Alt : 49.2799987793, Lat : 49.2836147, Lng : -123.1149487, Q1 : 0.911206185818, Q2 : 0.060130994767, Q3 : -0.126085430384, Q4 : 0.387543588877}
2019-04-14 18:54:37.31: SIM {TimeUS : 57735230, Roll : -0.09, Pitch : -16.17, Yaw : 47.27, Alt : 49.2799987793, Lat : 49.2836168, Lng : -123.1149451, Q1 : 0.907020747662, Q2 : 0.055683709681, Q3 : -0.129217237234, Q4 : 0.396882355213}
2019-04-14 18:54:37.41: SIM {TimeUS : 57835190, Roll : -0.73, Pitch : -16.27, Yaw : 48.41, Alt : 49.2799987793, Lat : 49.2836189, Lng : -123.1149415, Q1 : 0.903234541416, Q2 : 0.0522340498865, Q3 : -0.131728440523, Q4 : 0.405076026917}
2019-04-14 18:54:37.51: SIM {TimeUS : 57935150, Roll : -1.18, Pitch : -16.35, Yaw : 49.29, Alt : 49.2799987793, Lat : 49.2836211, Lng : -123.1149379, Q1 : 0.900212407112, Q2 : 0.0500200167298, Q3 : -0.133586376905, Q4 : 0.411424696445}
2019-04-14 18:54:37.61: SIM {TimeUS : 58035110, Roll : -1.43, Pitch : -16.42, Yaw : 49.86, Alt : 49.2799987793, Lat : 49.2836232, Lng : -123.1149342, Q1 : 0.898197889328, Q2 : 0.0489973463118, Q3 : -0.134748086333, Q4 : 0.415551155806}
2019-04-14 18:54:37.71: SIM {TimeUS : 58135070, Roll : -1.49, Pitch : -16.47, Yaw : 50.1, Alt : 49.2799987793, Lat : 49.2836255, Lng : -123.1149305, Q1 : 0.897265672684, Q2 : 0.0490030348301, Q3 : -0.135281652212, Q4 : 0.417387038469}
2019-04-14 18:54:37.81: SIM {TimeUS : 58235030, Roll : -1.38, Pitch : -16.5, Yaw : 50.06, Alt : 49.2799987793, Lat : 49.2836278, Lng : -123.1149267, Q1 : 0.897359907627, Q2 : 0.049858585, Q3 : -0.135097011924, Q4 : 0.417142897844}
2019-04-14 18:54:37.91: SIM {TimeUS : 58334990, Roll : -1.13, Pitch : -16.5, Yaw : 49.78, Alt : 49.2799987793, Lat : 49.28363, Lng : -123.1149229, Q1 : 0.898270606995, Q2 : 0.0515254400671, Q3 : -0.134340360761, Q4 : 0.415220081806}
2019-04-14 18:54:38.01: SIM {TimeUS : 58434950, Roll : -0.81, Pitch : -16.52, Yaw : 49.33, Alt : 49.2799987793, Lat : 49.2836323, Lng : -123.1149191, Q1 : 0.89972525835, Q2 : 0.0535807199776, Q3 : -0.133521869779, Q4 : 0.412062495947}
2019-04-14 18:54:38.11: SIM {TimeUS : 58534910, Roll : -0.45, Pitch : -16.55, Yaw : 48.79, Alt : 49.2900009155, Lat : 49.2836347, Lng : -123.1149152, Q1 : 0.901438653469, Q2 : 0.055941324681, Q3 : -0.132752045989, Q4 : 0.408235043287}
2019-04-14 18:54:38.21: SIM {TimeUS : 58634870, Roll : -0.07, Pitch : -16.58, Yaw : 48.23, Alt : 49.2900009155, Lat : 49.2836371, Lng : -123.1149113, Q1 : 0.903186738491, Q2 : 0.0583739243448, Q3 : -0.131909921765, Q4 : 0.404284566641}
2019-04-14 18:54:38.31: SIM {TimeUS : 58734830, Roll : 0.25, Pitch : -16.61, Yaw : 47.72, Alt : 49.2900009155, Lat : 49.2836396, Lng : -123.1149073, Q1 : 0.904780864716, Q2 : 0.0604274794459, Q3 : -0.131234169006, Q4 : 0.400621652603}
2019-04-14 18:54:38.41: SIM {TimeUS : 58834790, Roll : 0.47, Pitch : -16.65, Yaw : 47.31, Alt : 49.2900009155, Lat : 49.283642, Lng : -123.1149033, Q1 : 0.906071066856, Q2 : 0.0618948228657, Q3 : -0.130985096097, Q4 : 0.397551387548}
2019-04-14 18:54:38.52: SIM {TimeUS : 58935583, Roll : 0.6, Pitch : -16.7, Yaw : 47.0, Alt : 49.2900009155, Lat : 49.2836444, Lng : -123.1148992, Q1 : 0.906978309155, Q2 : 0.0627615973353, Q3 : -0.13110242784, Q4 : 0.395301818848}
2019-04-14 18:54:38.61: SIM {TimeUS : 59035543, Roll : 0.64, Pitch : -16.76, Yaw : 46.84, Alt : 49.2900009155, Lat : 49.2836469, Lng : -123.1148951, Q1 : 0.907461941242, Q2 : 0.0630541145802, Q3 : -0.131507620215, Q4 : 0.394008636475}
2019-04-14 18:54:38.71: SIM {TimeUS : 59135503, Roll : 0.6, Pitch : -16.8, Yaw : 46.8, Alt : 49.2900009155, Lat : 49.2836493, Lng : -123.114891, Q1 : 0.907568752766, Q2 : 0.0628390535712, Q3 : -0.13204357028, Q4 : 0.393617510796}
2019-04-14 18:54:38.81: SIM {TimeUS : 59235463, Roll : 0.51, Pitch : -16.85, Yaw : 46.86, Alt : 49.2900009155, Lat : 49.2836518, Lng : -123.1148868, Q1 : 0.907341718674, Q2 : 0.0623231902719, Q3 : -0.132702216506, Q4 : 0.394001245499}
2019-04-14 18:54:38.91: SIM {TimeUS : 59335423, Roll : 0.38, Pitch : -16.89, Yaw : 47.01, Alt : 49.2900009155, Lat : 49.2836542, Lng : -123.1148827, Q1 : 0.906863451004, Q2 : 0.0616418682039, Q3 : -0.133424818516, Q4 : 0.394964247942}
2019-04-14 18:54:39.01: SIM {TimeUS : 59435383, Roll : 0.24, Pitch : -16.93, Yaw : 47.2, Alt : 49.2900009155, Lat : 49.2836567, Lng : -123.1148784, Q1 : 0.906237363815, Q2 : 0.0608923062682, Q3 : -0.134085163474, Q4 : 0.396291732788}
2019-04-14 18:54:39.11: SIM {TimeUS : 59535343, Roll : 0.11, Pitch : -16.96, Yaw : 47.4, Alt : 49.2900009155, Lat : 49.2836592, Lng : -123.1148742, Q1 : 0.905565679073, Q2 : 0.0601590648293, Q3 : -0.13463999331, Q4 : 0.397748380899}
2019-04-14 18:54:39.21: SIM {TimeUS : 59635303, Roll : 0.0, Pitch : -16.98, Yaw : 47.6, Alt : 49.2900009155, Lat : 49.2836619, Lng : -123.1148698, Q1 : 0.90491694212, Q2 : 0.0595547668636, Q3 : -0.135176166892, Q4 : 0.399131536484}
2019-04-14 18:54:39.31: SIM {TimeUS : 59735263, Roll : -0.1, Pitch : -17.01, Yaw : 47.76, Alt : 49.2900009155, Lat : 49.2836644, Lng : -123.1148655, Q1 : 0.904362082481, Q2 : 0.0590943917632, Q3 : -0.135620161891, Q4 : 0.400305271149}
2019-04-14 18:54:39.41: SIM {TimeUS : 59835223, Roll : -0.16, Pitch : -17.03, Yaw : 47.88, Alt : 49.2900009155, Lat : 49.283667, Lng : -123.1148612, Q1 : 0.903961181641, Q2 : 0.0588025785983, Q3 : -0.135968059301, Q4 : 0.401134848595}
2019-04-14 18:54:39.51: SIM {TimeUS : 59935183, Roll : -0.19, Pitch : -17.06, Yaw : 47.94, Alt : 49.2999992371, Lat : 49.2836695, Lng : -123.1148569, Q1 : 0.903725147247, Q2 : 0.0587499141693, Q3 : -0.136279061437, Q4 : 0.40156853199}
2019-04-14 18:54:39.61: SIM {TimeUS : 60035143, Roll : -0.2, Pitch : -17.1, Yaw : 47.95, Alt : 49.2999992371, Lat : 49.2836722, Lng : -123.1148525, Q1 : 0.903651416302, Q2 : 0.0588570088148, Q3 : -0.136620685458, Q4 : 0.401602715254}
2019-04-14 18:54:39.71: SIM {TimeUS : 60135103, Roll : -0.19, Pitch : -17.14, Yaw : 47.91, Alt : 49.2999992371, Lat : 49.2836748, Lng : -123.1148481, Q1 : 0.903735458851, Q2 : 0.0589997135103, Q3 : -0.136926963925, Q4 : 0.40128827095}
2019-04-14 18:54:39.81: SIM {TimeUS : 60235063, Roll : -0.17, Pitch : -17.17, Yaw : 47.84, Alt : 49.2999992371, Lat : 49.2836773, Lng : -123.1148437, Q1 : 0.90395617485, Q2 : 0.0591329485178, Q3 : -0.137127563357, Q4 : 0.400702685118}
2019-04-14 18:54:39.91: SIM {TimeUS : 60335023, Roll : -0.14, Pitch : -17.19, Yaw : 47.74, Alt : 49.2999992371, Lat : 49.2836799, Lng : -123.1148393, Q1 : 0.904257774353, Q2 : 0.0593327358365, Q3 : -0.137248873711, Q4 : 0.399950355291}
2019-04-14 18:54:40.01: SIM {TimeUS : 60434983, Roll : -0.09, Pitch : -17.22, Yaw : 47.63, Alt : 49.2999992371, Lat : 49.2836827, Lng : -123.1148348, Q1 : 0.904573380947, Q2 : 0.0597671717405, Q3 : -0.137341827154, Q4 : 0.399139225483}
2019-04-14 18:54:40.11: SIM {TimeUS : 60534943, Roll : -0.02, Pitch : -17.26, Yaw : 47.52, Alt : 49.2999992371, Lat : 49.2836852, Lng : -123.1148304, Q1 : 0.904876828194, Q2 : 0.0603004656732, Q3 : -0.137425035238, Q4 : 0.398341804743}
2019-04-14 18:54:40.21: SIM {TimeUS : 60634903, Roll : 0.05, Pitch : -17.3, Yaw : 47.42, Alt : 49.2999992371, Lat : 49.283688, Lng : -123.1148259, Q1 : 0.905131220818, Q2 : 0.0609589479864, Q3 : -0.137518078089, Q4 : 0.397630870342}
2019-04-14 18:54:40.31: SIM {TimeUS : 60734863, Roll : 0.14, Pitch : -17.34, Yaw : 47.33, Alt : 49.2999992371, Lat : 49.2836907, Lng : -123.1148214, Q1 : 0.905331611633, Q2 : 0.0616781525314, Q3 : -0.137571454048, Q4 : 0.397044807673}
2019-04-14 18:54:40.41: SIM {TimeUS : 60834823, Roll : 0.2, Pitch : -17.37, Yaw : 47.27, Alt : 49.3100013733, Lat : 49.2836932, Lng : -123.1148169, Q1 : 0.905475854874, Q2 : 0.0621665194631, Q3 : -0.137715697289, Q4 : 0.396589547396}
2019-04-14 18:54:40.51: SIM {TimeUS : 60934783, Roll : 0.2, Pitch : -17.39, Yaw : 47.23, Alt : 49.3100013733, Lat : 49.283696, Lng : -123.1148123, Q1 : 0.90559387207, Q2 : 0.0621891319752, Q3 : -0.137852951884, Q4 : 0.396268665791}
2019-04-14 18:54:40.62: SIM {TimeUS : 61035576, Roll : 0.16, Pitch : -17.39, Yaw : 47.21, Alt : 49.3100013733, Lat : 49.2836987, Lng : -123.1148077, Q1 : 0.905671536922, Q2 : 0.0619156211615, Q3 : -0.138008981943, Q4 : 0.396079540253}
2019-04-14 18:54:40.71: SIM {TimeUS : 61135536, Roll : 0.15, Pitch : -17.38, Yaw : 47.21, Alt : 49.3100013733, Lat : 49.2837015, Lng : -123.1148032, Q1 : 0.9057046175, Q2 : 0.0617120191455, Q3 : -0.137949615717, Q4 : 0.396056413651}
2019-04-14 18:54:40.81: SIM {TimeUS : 61235496, Roll : 0.13, Pitch : -17.37, Yaw : 47.22, Alt : 49.3100013733, Lat : 49.2837041, Lng : -123.1147986, Q1 : 0.905681908131, Q2 : 0.0615652352571, Q3 : -0.137967020273, Q4 : 0.396125167608}
2019-04-14 18:54:40.91: SIM {TimeUS : 61335456, Roll : 0.12, Pitch : -17.41, Yaw : 47.24, Alt : 49.3100013733, Lat : 49.2837069, Lng : -123.114794, Q1 : 0.905582785606, Q2 : 0.0616509877145, Q3 : -0.138257950544, Q4 : 0.396236985922}
2019-04-14 18:54:41.01: SIM {TimeUS : 61435416, Roll : 0.12, Pitch : -17.48, Yaw : 47.26, Alt : 49.3100013733, Lat : 49.2837096, Lng : -123.1147894, Q1 : 0.905429661274, Q2 : 0.0619278661907, Q3 : -0.138785406947, Q4 : 0.396359354258}
2019-04-14 18:54:41.11: SIM {TimeUS : 61535376, Roll : 0.12, Pitch : -17.52, Yaw : 47.28, Alt : 49.3100013733, Lat : 49.2837124, Lng : -123.1147848, Q1 : 0.90531784296, Q2 : 0.0620587430894, Q3 : -0.139145046473, Q4 : 0.396468222141}
2019-04-14 18:54:41.21: SIM {TimeUS : 61635336, Roll : 0.11, Pitch : -17.53, Yaw : 47.29, Alt : 49.3100013733, Lat : 49.2837151, Lng : -123.1147801, Q1 : 0.90526509285, Q2 : 0.0620610080659, Q3 : -0.139231279492, Q4 : 0.396557956934}
2019-04-14 18:54:41.31: SIM {TimeUS : 61735296, Roll : 0.1, Pitch : -17.54, Yaw : 47.29, Alt : 49.3100013733, Lat : 49.2837179, Lng : -123.1147755, Q1 : 0.905242145061, Q2 : 0.0620041079819, Q3 : -0.139353588223, Q4 : 0.396576315165}
2019-04-14 18:54:41.41: SIM {TimeUS : 61835256, Roll : 0.08, Pitch : -17.56, Yaw : 47.29, Alt : 49.3100013733, Lat : 49.2837206, Lng : -123.1147709, Q1 : 0.90524405241, Q2 : 0.0618940331042, Q3 : -0.139579847455, Q4 : 0.396509498358}
2019-04-14 18:54:41.51: SIM {TimeUS : 61935216, Roll : 0.07, Pitch : -17.57, Yaw : 47.28, Alt : 49.3199996948, Lat : 49.2837235, Lng : -123.1147662, Q1 : 0.905268967152, Q2 : 0.0618990696967, Q3 : -0.139692410827, Q4 : 0.396412193775}
2019-04-14 18:54:41.61: SIM {TimeUS : 62035176, Roll : 0.07, Pitch : -17.59, Yaw : 47.26, Alt : 49.3199996948, Lat : 49.2837261, Lng : -123.1147615, Q1 : 0.905309677124, Q2 : 0.0619328431785, Q3 : -0.139818578959, Q4 : 0.396269530058}
2019-04-14 18:54:41.71: SIM {TimeUS : 62135136, Roll : 0.08, Pitch : -17.6, Yaw : 47.24, Alt : 49.3199996948, Lat : 49.283729, Lng : -123.1147568, Q1 : 0.905362725258, Q2 : 0.0620043613017, Q3 : -0.13989789784, Q4 : 0.396109044552}
2019-04-14 18:54:41.81: SIM {TimeUS : 62235096, Roll : 0.1, Pitch : -17.62, Yaw : 47.22, Alt : 49.3199996948, Lat : 49.2837318, Lng : -123.1147521, Q1 : 0.905420064926, Q2 : 0.0621719956398, Q3 : -0.140020549297, Q4 : 0.395908266306}
2019-04-14 18:54:41.91: SIM {TimeUS : 62335056, Roll : 0.12, Pitch : -17.63, Yaw : 47.19, Alt : 49.3199996948, Lat : 49.2837345, Lng : -123.1147474, Q1 : 0.905495405197, Q2 : 0.062338296324, Q3 : -0.140070214868, Q4 : 0.395692318678}
2019-04-14 18:54:42.01: SIM {TimeUS : 62435016, Roll : 0.14, Pitch : -17.65, Yaw : 47.16, Alt : 49.3199996948, Lat : 49.2837374, Lng : -123.1147427, Q1 : 0.905564129353, Q2 : 0.0625417530537, Q3 : -0.140108242631, Q4 : 0.395489394665}
2019-04-14 18:54:42.11: SIM {TimeUS : 62534976, Roll : 0.17, Pitch : -17.67, Yaw : 47.13, Alt : 49.3199996948, Lat : 49.2837401, Lng : -123.114738, Q1 : 0.905612468719, Q2 : 0.0628103166819, Q3 : -0.140214771032, Q4 : 0.395298331976}
2019-04-14 18:54:42.21: SIM {TimeUS : 62634936, Roll : 0.18, Pitch : -17.71, Yaw : 47.11, Alt : 49.3199996948, Lat : 49.283743, Lng : -123.1147333, Q1 : 0.905642926693, Q2 : 0.0629697069526, Q3 : -0.140517562628, Q4 : 0.395095616579}
2019-04-14 18:54:42.31: SIM {TimeUS : 62734896, Roll : 0.16, Pitch : -17.75, Yaw : 47.09, Alt : 49.3199996948, Lat : 49.2837459, Lng : -123.1147285, Q1 : 0.905669808388, Q2 : 0.0629820376635, Q3 : -0.140915736556, Q4 : 0.394890189171}
2019-04-14 18:54:42.41: SIM {TimeUS : 62834856, Roll : 0.15, Pitch : -17.8, Yaw : 47.07, Alt : 49.3199996948, Lat : 49.2837486, Lng : -123.1147238, Q1 : 0.905685186386, Q2 : 0.0630024895072, Q3 : -0.141321972013, Q4 : 0.394706368446}
2019-04-14 18:54:42.51: SIM {TimeUS : 62934816, Roll : 0.15, Pitch : -17.83, Yaw : 47.05, Alt : 49.3199996948, Lat : 49.2837515, Lng : -123.114719, Q1 : 0.90569537878, Q2 : 0.063125193119, Q3 : -0.141551613808, Q4 : 0.394581109285}
2019-04-14 18:54:42.61: SIM {TimeUS : 63034776, Roll : 0.18, Pitch : -17.83, Yaw : 47.04, Alt : 49.3199996948, Lat : 49.2837544, Lng : -123.1147143, Q1 : 0.905722618103, Q2 : 0.0633094757795, Q3 : -0.141526833177, Q4 : 0.394497990608}
2019-04-14 18:54:42.71: SIM {TimeUS : 63135569, Roll : 0.19, Pitch : -17.8, Yaw : 47.03, Alt : 49.3199996948, Lat : 49.2837573, Lng : -123.1147095, Q1 : 0.905793070793, Q2 : 0.0633043125272, Q3 : -0.141240626574, Q4 : 0.394439607859}
2019-04-14 18:54:42.81: SIM {TimeUS : 63235529, Roll : 0.18, Pitch : -17.77, Yaw : 47.02, Alt : 49.3199996948, Lat : 49.28376, Lng : -123.1147047, Q1 : 0.905863583088, Q2 : 0.0631278157234, Q3 : -0.141014307737, Q4 : 0.394386947155}
2019-04-14 18:54:42.91: SIM {TimeUS : 63335489, Roll : 0.17, Pitch : -17.75, Yaw : 47.01, Alt : 49.3199996948, Lat : 49.283763, Lng : -123.1146999, Q1 : 0.905918121338, Q2 : 0.0629243031144, Q3 : -0.140914723277, Q4 : 0.394329845905}
2019-04-14 18:54:43.01: SIM {TimeUS : 63435449, Roll : 0.15, Pitch : -17.75, Yaw : 47.01, Alt : 49.3300018311, Lat : 49.2837658, Lng : -123.1146951, Q1 : 0.905943036079, Q2 : 0.0628199800849, Q3 : -0.140979260206, Q4 : 0.394266009331}
2019-04-14 18:54:43.11: SIM {TimeUS : 63535409, Roll : 0.14, Pitch : -17.77, Yaw : 47.0, Alt : 49.3300018311, Lat : 49.2837686, Lng : -123.1146903, Q1 : 0.905948758125, Q2 : 0.0627850964665, Q3 : -0.141184687614, Q4 : 0.394184917212}
2019-04-14 18:54:43.21: SIM {TimeUS : 63635369, Roll : 0.14, Pitch : -17.8, Yaw : 46.99, Alt : 49.3300018311, Lat : 49.2837715, Lng : -123.1146854, Q1 : 0.905943453312, Q2 : 0.062859043479, Q3 : -0.141390219331, Q4 : 0.394111692905}
2019-04-14 18:54:43.31: SIM {TimeUS : 63735329, Roll : 0.14, Pitch : -17.83, Yaw : 46.98, Alt : 49.3300018311, Lat : 49.2837744, Lng : -123.1146806, Q1 : 0.905928611755, Q2 : 0.062936656177, Q3 : -0.141705721617, Q4 : 0.394020080566}
2019-04-14 18:54:43.41: SIM {TimeUS : 63835289, Roll : 0.13, Pitch : -17.88, Yaw : 46.97, Alt : 49.3300018311, Lat : 49.2837772, Lng : -123.1146758, Q1 : 0.905905485153, Q2 : 0.0630641952157, Q3 : -0.14208625257, Q4 : 0.393915742636}
2019-04-14 18:54:43.51: SIM {TimeUS : 63935249, Roll : 0.14, Pitch : -17.91, Yaw : 46.96, Alt : 49.3300018311, Lat : 49.2837801, Lng : -123.114671, Q1 : 0.905893445015, Q2 : 0.0632420256734, Q3 : -0.142331361771, Q4 : 0.393826514482}
2019-04-14 18:54:43.61: SIM {TimeUS : 64035209, Roll : 0.14, Pitch : -17.94, Yaw : 46.95, Alt : 49.3300018311, Lat : 49.2837831, Lng : -123.1146661, Q1 : 0.905899345875, Q2 : 0.0633065253496, Q3 : -0.142585545778, Q4 : 0.393710553646}
2019-04-14 18:54:43.71: SIM {TimeUS : 64135169, Roll : 0.14, Pitch : -17.96, Yaw : 46.94, Alt : 49.3300018311, Lat : 49.283786, Lng : -123.1146613, Q1 : 0.905924499035, Q2 : 0.0633202269673, Q3 : -0.142754212022, Q4 : 0.393589377403}
2019-04-14 18:54:43.81: SIM {TimeUS : 64235129, Roll : 0.15, Pitch : -17.96, Yaw : 46.92, Alt : 49.3300018311, Lat : 49.2837887, Lng : -123.1146564, Q1 : 0.90597563982, Q2 : 0.0633889660239, Q3 : -0.14265601337, Q4 : 0.393496155739}
2019-04-14 18:54:43.91: SIM {TimeUS : 64335089, Roll : 0.18, Pitch : -17.96, Yaw : 46.91, Alt : 49.3300018311, Lat : 49.2837916, Lng : -123.1146515, Q1 : 0.906012117863, Q2 : 0.0635775104165, Q3 : -0.142610147595, Q4 : 0.393398344517}
2019-04-14 18:54:44.01: SIM {TimeUS : 64435049, Roll : 0.19, Pitch : -17.97, Yaw : 46.89, Alt : 49.3300018311, Lat : 49.2837946, Lng : -123.1146467, Q1 : 0.906041741371, Q2 : 0.0637016668916, Q3 : -0.142691209912, Q4 : 0.393280684948}
2019-04-14 18:54:44.11: SIM {TimeUS : 64535009, Roll : 0.2, Pitch : -17.98, Yaw : 46.88, Alt : 49.3300018311, Lat : 49.2837976, Lng : -123.1146419, Q1 : 0.906076729298, Q2 : 0.0638087764382, Q3 : -0.142724946141, Q4 : 0.393170505762}
2019-04-14 18:54:44.21: SIM {TimeUS : 64634969, Roll : 0.21, Pitch : -17.97, Yaw : 46.86, Alt : 49.3300018311, Lat : 49.2838005, Lng : -123.1146369, Q1 : 0.90613001585, Q2 : 0.0638327747583, Q3 : -0.142622455955, Q4 : 0.393080919981}
2019-04-14 18:54:44.31: SIM {TimeUS : 64734929, Roll : 0.21, Pitch : -17.96, Yaw : 46.85, Alt : 49.3300018311, Lat : 49.2838033, Lng : -123.1146321, Q1 : 0.906178712845, Q2 : 0.0638138055801, Q3 : -0.142545714974, Q4 : 0.392999589443}
2019-04-14 18:54:44.41: SIM {TimeUS : 64834889, Roll : 0.19, Pitch : -17.98, Yaw : 46.84, Alt : 49.3300018311, Lat : 49.2838062, Lng : -123.1146272, Q1 : 0.906199872494, Q2 : 0.0637039616704, Q3 : -0.1427526474, Q4 : 0.392893522978}
2019-04-14 18:54:44.51: SIM {TimeUS : 64934849, Roll : 0.16, Pitch : -18.02, Yaw : 46.84, Alt : 49.3400001526, Lat : 49.2838092, Lng : -123.1146223, Q1 : 0.906192362309, Q2 : 0.0635980293155, Q3 : -0.143181562424, Q4 : 0.392771810293}
2019-04-14 18:54:44.61: SIM {TimeUS : 65034809, Roll : 0.15, Pitch : -18.03, Yaw : 46.83, Alt : 49.3400001526, Lat : 49.2838121, Lng : -123.1146175, Q1 : 0.906210899353, Q2 : 0.0634881705046, Q3 : -0.143337398767, Q4 : 0.392690062523}
2019-04-14 18:54:44.72: SIM {TimeUS : 65135602, Roll : 0.16, Pitch : -18.02, Yaw : 46.82, Alt : 49.3400001526, Lat : 49.2838151, Lng : -123.1146125, Q1 : 0.906247377396, Q2 : 0.0635151639581, Q3 : -0.143164947629, Q4 : 0.392664432526}
2019-04-14 18:54:44.81: SIM {TimeUS : 65235562, Roll : 0.18, Pitch : -18.0, Yaw : 46.82, Alt : 49.3400001526, Lat : 49.2838179, Lng : -123.1146076, Q1 : 0.906278669834, Q2 : 0.0636197775602, Q3 : -0.1429554075, Q4 : 0.392651587725}
2019-04-14 18:54:44.91: SIM {TimeUS : 65335522, Roll : 0.19, Pitch : -18.0, Yaw : 46.81, Alt : 49.3400001526, Lat : 49.2838208, Lng : -123.1146027, Q1 : 0.906298398972, Q2 : 0.0636832341552, Q3 : -0.142926976085, Q4 : 0.39260622859}
2019-04-14 18:54:45.01: SIM {TimeUS : 65435482, Roll : 0.18, Pitch : -18.01, Yaw : 46.8, Alt : 49.3400001526, Lat : 49.2838238, Lng : -123.1145978, Q1 : 0.906309008598, Q2 : 0.0636507123709, Q3 : -0.143083944917, Q4 : 0.392529666424}
2019-04-14 18:54:45.11: SIM {TimeUS : 65535442, Roll : 0.15, Pitch : -18.04, Yaw : 46.79, Alt : 49.3400001526, Lat : 49.2838268, Lng : -123.1145929, Q1 : 0.906318724155, Q2 : 0.063494361937, Q3 : -0.14338850975, Q4 : 0.392421483994}
2019-04-14 18:54:45.21: SIM {TimeUS : 65635402, Roll : 0.13, Pitch : -18.07, Yaw : 46.78, Alt : 49.3400001526, Lat : 49.2838297, Lng : -123.114588, Q1 : 0.906328856945, Q2 : 0.0634117051959, Q3 : -0.143679097295, Q4 : 0.392305135727}
2019-04-14 18:54:45.31: SIM {TimeUS : 65735362, Roll : 0.13, Pitch : -18.09, Yaw : 46.77, Alt : 49.3400001526, Lat : 49.2838327, Lng : -123.1145831, Q1 : 0.906332790852, Q2 : 0.0635017976165, Q3 : -0.143887922168, Q4 : 0.392204910517}
2019-04-14 18:54:45.41: SIM {TimeUS : 65835322, Roll : 0.14, Pitch : -18.11, Yaw : 46.76, Alt : 49.3400001526, Lat : 49.2838355, Lng : -123.1145782, Q1 : 0.906334519386, Q2 : 0.0636608079076, Q3 : -0.1440243572, Q4 : 0.392125040293}
2019-04-14 18:54:45.51: SIM {TimeUS : 65935282, Roll : 0.17, Pitch : -18.12, Yaw : 46.75, Alt : 49.3400001526, Lat : 49.2838385, Lng : -123.1145732, Q1 : 0.906343400478, Q2 : 0.0638937279582, Q3 : -0.144023552537, Q4 : 0.392066866159}
2019-04-14 18:54:45.61: SIM {TimeUS : 66035242, Roll : 0.18, Pitch : -18.14, Yaw : 46.74, Alt : 49.3400001526, Lat : 49.2838415, Lng : -123.1145682, Q1 : 0.906350493431, Q2 : 0.0640537440777, Q3 : -0.144105419517, Q4 : 0.391994357109}
