2019-04-14 15:33:39.20: SIM {TimeUS : 40816167, Roll : 0.0, Pitch : 0.0, Yaw : 0.0, Alt : 30.1000003815, Lat : 49.28357, Lng : -123.11502, Q1 : 1.0, Q2 : 0.0, Q3 : 0.0, Q4 : 0.0}
2019-04-14 15:33:39.31: SIM {TimeUS : 40935286, Roll : 0.0, Pitch : 0.0, Yaw : 0.0, Alt : 30.1000003815, Lat : 49.28357, Lng : -123.11502, Q1 : 1.0, Q2 : 0.0, Q3 : 0.0, Q4 : 0.0}
2019-04-14 15:33:39.41: SIM {TimeUS : 41035246, Roll : 0.0, Pitch : 0.0, Yaw : 0.0, Alt : 30.1000003815, Lat : 49.28357, Lng : -123.11502, Q1 : 1.0, Q2 : 0.0, Q3 : 0.0, Q4 : 0.0}
2019-04-14 15:33:39.51: SIM {TimeUS : 41135206, Roll : 0.0, Pitch : 0.0, Yaw : 0.0, Alt : 30.1000003815, Lat : 49.28357, Lng : -123.11502, Q1 : 1.0, Q2 : 0.0, Q3 : 0.0, Q4 : 0.0}
2019-04-14 15:33:39.61: SIM {TimeUS : 41235166, Roll : 0.0, Pitch : 0.0, Yaw : 0.0, Alt : 30.1000003815, Lat : 49.28357, Lng : -123.11502, Q1 : 1.0, Q2 : 0.0, Q3 : 0.0, Q4 : 0.0}
2019-04-14 15:33:39.71: SIM {TimeUS : 41335126, Roll : 0.0, Pitch : 0.0, Yaw : 0.0, Alt : 30.1000003815, Lat : 49.28357, Lng : -123.11502, Q1 : 1.0, Q2 : 0.0, Q3 : 0.0, Q4 : 0.0}
2019-04-14 15:33:39.81: SIM {TimeUS : 41435086, Roll : 0.0, Pitch : 0.0, Yaw : 0.0, Alt : 30.1000003815, Lat : 49.28357, Lng : -123.11502, Q1 : 1.0, Q2 : 0.0, Q3 : 0.0, Q4 : 0.0}
2019-04-14 15:33:39.91: SIM {TimeUS : 41535046, Roll : 0.0, Pitch : 0.0, Yaw : 0.0, Alt : 30.1000003815, Lat : 49.28357, Lng : -123.11502, Q1 : 1.0, Q2 : 0.0, Q3 : 0.0, Q4 : 0.0}
2019-04-14 15:33:40.01: SIM {TimeUS : 41635006, Roll : 0.0, Pitch : 0.0, Yaw : 0.0, Alt : 30.1000003815, Lat : 49.28357, Lng : -123.11502, Q1 : 1.0, Q2 : 0.0, Q3 : 0.0, Q4 : 0.0}
2019-04-14 15:33:40.11: SIM {TimeUS : 41734966, Roll : 0.0, Pitch : 0.0, Yaw : 0.0, Alt : 30.1000003815, Lat : 49.28357, Lng : -123.11502, Q1 : 1.0, Q2 : 0.0, Q3 : 0.0, Q4 : 0.0}
2019-04-14 15:33:40.21: SIM {TimeUS : 41834926, Roll : 0.0, Pitch : 0.0, Yaw : 0.0, Alt : 30.1000003815, Lat : 49.28357, Lng : -123.11502, Q1 : 1.0, Q2 : 0.0, Q3 : 0.0, Q4 : 0.0}
2019-04-14 15:33:40.31: SIM {TimeUS : 41934886, Roll : 0.0, Pitch : 0.0, Yaw : 0.0, Alt : 30.1000003815, Lat : 49.28357, Lng : -123.11502, Q1 : 1.0, Q2 : 0.0, Q3 : 0.0, Q4 : 0.0}
2019-04-14 15:33:40.41: SIM {TimeUS : 42034846, Roll : 0.0, Pitch : 0.0, Yaw : 0.0, Alt : 30.1000003815, Lat : 49.28357, Lng : -123.11502, Q1 : 1.0, Q2 : 0.0, Q3 : 0.0, Q4 : 0.0}
2019-04-14 15:33:40.51: SIM {TimeUS : 42134806, Roll : 0.0, Pitch : 0.0, Yaw : 0.0, Alt : 30.1000003815, Lat : 49.28357, Lng : -123.11502, Q1 : 1.0, Q2 : 0.0, Q3 : 0.0, Q4 : 0.0}
2019-04-14 15:33:40.61: SIM {TimeUS : 42234766, Roll : 0.0, Pitch : 0.0, Yaw : 0.0, Alt : 30.1000003815, Lat : 49.28357, Lng : -123.11502, Q1 : 1.0, Q2 : 0.0, Q3 : 0.0, Q4 : 0.0}
2019-04-14 15:33:40.71: SIM {TimeUS : 42334726, Roll : 0.0, Pitch : 0.0, Yaw : 0.0, Alt : 30.1000003815, Lat : 49.28357, Lng : -123.11502, Q1 : 1.0, Q2 : 0.0, Q3 : 0.0, Q4 : 0.0}
2019-04-14 15:33:40.81: SIM {TimeUS : 42434686, Roll : 0.0, Pitch : 0.0, Yaw : 0.0, Alt : 30.1000003815, Lat : 49.28357, Lng : -123.11502, Q1 : 1.0, Q2 : 0.0, Q3 : 0.0, Q4 : 0.0}
2019-04-14 15:33:40.91: SIM {TimeUS : 42534646, Roll : 0.0, Pitch : 0.0, Yaw : 0.0, Alt : 30.1000003815, Lat : 49.28357, Lng : -123.11502, Q1 : 1.0, Q2 : 0.0, Q3 : 0.0, Q4 : 0.0}
2019-04-14 15:33:41.01: SIM {TimeUS : 42634606, Roll : 0.0, Pitch : 0.0, Yaw : 0.0, Alt : 30.1000003815, Lat : 49.28357, Lng : -123.11502, Q1 : 1.0, Q2 : 0.0, Q3 : 0.0, Q4 : 0.0}
2019-04-14 15:33:41.11: SIM {TimeUS : 42734566, Roll : 0.0, Pitch : 0.0, Yaw : 0.0, Alt : 30.1000003815, Lat : 49.28357, Lng : -123.11502, Q1 : 1.0, Q2 : 0.0, Q3 : 0.0, Q4 : 0.0}
2019-04-14 15:33:41.21: SIM {TimeUS : 42834526, Roll : 0.0, Pitch : 0.0, Yaw : 0.0, Alt : 30.1000003815, Lat : 49.28357, Lng : -123.11502, Q1 : 1.0, Q2 : 0.0, Q3 : 0.0, Q4 : 0.0}
2019-04-14 15:33:41.31: SIM {TimeUS : 42935319, Roll : 0.0, Pitch : 0.0, Yaw : 0.0, Alt : 30.1000003815, Lat : 49.28357, Lng : -123.11502, Q1 : 1.0, Q2 : 0.0, Q3 : 0.0, Q4 : 0.0}
2019-04-14 15:33:41.41: SIM {TimeUS : 43035279, Roll : 0.0, Pitch : 0.0, Yaw : 0.0, Alt : 30.1000003815, Lat : 49.28357, Lng : -123.11502, Q1 : 1.0, Q2 : 0.0, Q3 : 0.0, Q4 : 0.0}
2019-04-14 15:33:41.51: SIM {TimeUS : 43135239, Roll : 0.0, Pitch : 0.0, Yaw : 360.0, Alt : 30.1000003815, Lat : 49.28357, Lng : -123.11502, Q1 : 1.0, Q2 : 0.0, Q3 : 0.0, Q4 : -5.76911088346e-12}
2019-04-14 15:33:41.61: SIM {TimeUS : 43235199, Roll : 0.0, Pitch : 0.0, Yaw : 0.0, Alt : 30.1000003815, Lat : 49.28357, Lng : -123.11502, Q1 : 1.0, Q2 : 0.0, Q3 : 0.0, Q4 : 1.67138317075e-11}
2019-04-14 15:33:41.71: SIM {TimeUS : 43335159, Roll : 0.0, Pitch : 0.0, Yaw : 360.0, Alt : 30.1000003815, Lat : 49.28357, Lng : -123.11502, Q1 : 1.0, Q2 : 0.0, Q3 : 0.0, Q4 : -9.67275255448e-08}
2019-04-14 15:33:41.81: SIM {TimeUS : 43435119, Roll : 0.0, Pitch : 0.0, Yaw : 359.99, Alt : 30.1000003815, Lat : 49.28357, Lng : -123.11502, Q1 : 1.0, Q2 : 0.0, Q3 : 0.0, Q4 : -2.55648444636e-07}
2019-04-14 15:33:41.91: SIM {TimeUS : 43535079, Roll : 0.0, Pitch : 0.0, Yaw : 359.99, Alt : 30.1000003815, Lat : 49.28357, Lng : -123.11502, Q1 : 1.0, Q2 : 0.0, Q3 : 0.0, Q4 : -4.0333785023e-07}
2019-04-14 15:33:42.01: SIM {TimeUS : 43635039, Roll : 0.0, Pitch : 0.0, Yaw : 359.99, Alt : 30.1000003815, Lat : 49.28357, Lng : -123.11502, Q1 : 1.0, Q2 : 0.0, Q3 : 0.0, Q4 : -6.29609814951e-07}
2019-04-14 15:33:42.11: SIM {TimeUS : 43734999, Roll : 0.0, Pitch : 0.0, Yaw : 359.99, Alt : 30.1000003815, Lat : 49.28357, Lng : -123.11502, Q1 : 1.0, Q2 : 0.0, Q3 : 0.0, Q4 : -8.0263265545e-07}
2019-04-14 15:33:42.21: SIM {TimeUS : 43834959, Roll : 0.0, Pitch : 0.0, Yaw : 359.99, Alt : 30.1000003815, Lat : 49.28357, Lng : -123.11502, Q1 : 1.0, Q2 : 0.0, Q3 : 0.0, Q4 : -9.62719468589e-07}
2019-04-14 15:33:42.31: SIM {TimeUS : 43934919, Roll : 0.0, Pitch : 0.0, Yaw : 359.99, Alt : 30.1000003815, Lat : 49.28357, Lng : -123.11502, Q1 : 1.0, Q2 : 0.0, Q3 : 0.0, Q4 : -1.20428239825e-06}
2019-04-14 15:33:42.41: SIM {TimeUS : 44034879, Roll : 0.0, Pitch : 0.0, Yaw : 359.99, Alt : 30.1100006104, Lat : 49.28357, Lng : -123.11502, Q1 : 1.0, Q2 : 0.0, Q3 : 0.0, Q4 : -1.42805185988e-06}
2019-04-14 15:33:42.51: SIM {TimeUS : 44134839, Roll : 0.0, Pitch : 0.0, Yaw : 359.99, Alt : 30.1299991608, Lat : 49.28357, Lng : -123.11502, Q1 : 1.0, Q2 : 0.0, Q3 : 0.0, Q4 : -1.61016384936e-06}
2019-04-14 15:33:42.61: SIM {TimeUS : 44234799, Roll : 0.0, Pitch : 0.0, Yaw : 359.99, Alt : 30.1499996185, Lat : 49.28357, Lng : -123.11502, Q1 : 1.0, Q2 : 0.0, Q3 : 0.0, Q4 : -1.85316901025e-06}
2019-04-14 15:33:42.71: SIM {TimeUS : 44334759, Roll : 0.0, Pitch : 0.0, Yaw : 359.99, Alt : 30.1900005341, Lat : 49.28357, Lng : -123.11502, Q1 : 1.0, Q2 : 0.0, Q3 : 0.0, Q4 : -2.01687339541e-06}
2019-04-14 15:33:42.81: SIM {TimeUS : 44434719, Roll : -0.02, Pitch : -0.02, Yaw : 359.99, Alt : 30.2299995422, Lat : 49.28357, Lng : -123.11502, Q1 : 0.999999940395, Q2 : -0.000260012893705, Q3 : -0.000253097881796, Q4 : -3.2687410112e-06}
2019-04-14 15:33:42.91: SIM {TimeUS : 44534679, Roll : -0.27, Pitch : -0.23, Yaw : 359.99, Alt : 30.2999992371, Lat : 49.28357, Lng : -123.11502, Q1 : 0.99999499321, Q2 : -0.00243157497607, Q3 : -0.00202836096287, Q4 : -2.58296458924e-05}
2019-04-14 15:33:43.01: SIM {TimeUS : 44634639, Roll : -0.6, Pitch : -0.48, Yaw : 359.99, Alt : 30.4400005341, Lat : 49.28357, Lng : -123.11502, Q1 : 0.99997729063, Q2 : -0.00526109943166, Q3 : -0.00421070400625, Q4 : -7.302184531e-05}
2019-04-14 15:33:43.11: SIM {TimeUS : 44734599, Roll : -0.81, Pitch : -0.66, Yaw : 359.98, Alt : 30.5900001526, Lat : 49.28357, Lng : -123.11502, Q1 : 0.999958097935, Q2 : -0.00709364004433, Q3 : -0.0057843499817, Q4 : -0.000137309587444}
2019-04-14 15:33:43.21: SIM {TimeUS : 44834559, Roll : -0.84, Pitch : -0.71, Yaw : 359.98, Alt : 30.75, Lat : 49.28357, Lng : -123.11502, Q1 : 0.999953150749, Q2 : -0.0073714600876, Q3 : -0.00626815576106, Q4 : -0.000208825862501}
2019-04-14 15:33:43.31: SIM {TimeUS : 44934519, Roll : -0.72, Pitch : -0.64, Yaw : 359.97, Alt : 30.9099998474, Lat : 49.28357, Lng : -123.1150201, Q1 : 0.999963998795, Q2 : -0.00631999922916, Q3 : -0.00565671361983, Q4 : -0.00027901129215}
2019-04-14 15:33:43.41: SIM {TimeUS : 45035312, Roll : -0.5, Pitch : -0.49, Yaw : 359.96, Alt : 31.0599994659, Lat : 49.2835701, Lng : -123.1150201, Q1 : 0.999980807304, Q2 : -0.00444349693134, Q3 : -0.00430608121678, Q4 : -0.000343647407135}
2019-04-14 15:33:43.51: SIM {TimeUS : 45135272, Roll : -0.27, Pitch : -0.29, Yaw : 359.95, Alt : 31.2199993134, Lat : 49.2835701, Lng : -123.1150202, Q1 : 0.999993681908, Q2 : -0.00238521327265, Q3 : -0.00260064774193, Q4 : -0.000395026698243}
2019-04-14 15:33:43.61: SIM {TimeUS : 45235232, Roll : -0.08, Pitch : -0.11, Yaw : 359.95, Alt : 31.3899993896, Lat : 49.2835702, Lng : -123.1150203, Q1 : 0.999999165535, Q2 : -0.000723203993402, Q3 : -0.00095966126537, Q4 : -0.000435676134657}
2019-04-14 15:33:43.71: SIM {TimeUS : 45335192, Roll : 0.02, Pitch : 0.02, Yaw : 359.94, Alt : 31.5599994659, Lat : 49.2835702, Lng : -123.1150203, Q1 : 0.999999821186, Q2 : 0.00025672162883, Q3 : 0.000260104279732, Q4 : -0.000470012921141}
2019-04-14 15:33:43.81: SIM {TimeUS : 45435152, Roll : 0.06, Pitch : 0.1, Yaw : 359.94, Alt : 31.7299995422, Lat : 49.2835702, Lng : -123.1150204, Q1 : 0.999999284744, Q2 : 0.000564725545701, Q3 : 0.000933340459596, Q4 : -0.000495451968163}
2019-04-14 15:33:43.91: SIM {TimeUS : 45535112, Roll : 0.07, Pitch : 0.14, Yaw : 359.94, Alt : 31.9099998474, Lat : 49.2835703, Lng : -123.1150205, Q1 : 0.999998927116, Q2 : 0.000671095447615, Q3 : 0.00122791307513, Q4 : -0.000497831555549}
2019-04-14 15:33:44.01: SIM {TimeUS : 45635072, Roll : 0.07, Pitch : 0.12, Yaw : 359.94, Alt : 32.0999984741, Lat : 49.2835703, Lng : -123.1150205, Q1 : 0.999999046326, Q2 : 0.000697815266903, Q3 : 0.00112648040522, Q4 : -0.000476362358313}
2019-04-14 15:33:44.11: SIM {TimeUS : 45735032, Roll : 0.07, Pitch : 0.11, Yaw : 359.94, Alt : 32.2900009155, Lat : 49.2835703, Lng : -123.1150206, Q1 : 0.999999165535, Q2 : 0.000696011353284, Q3 : 0.00100174208637, Q4 : -0.000451883272035}
2019-04-14 15:33:44.21: SIM {TimeUS : 45834992, Roll : 0.07, Pitch : 0.1, Yaw : 359.95, Alt : 32.4799995422, Lat : 49.2835703, Lng : -123.1150206, Q1 : 0.99999922514, Q2 : 0.000648501911201, Q3 : 0.000942615850363, Q4 : -0.000428197206929}
2019-04-14 15:33:44.31: SIM {TimeUS : 45934952, Roll : 0.08, Pitch : 0.09, Yaw : 359.95, Alt : 32.6699981689, Lat : 49.2835703, Lng : -123.1150207, Q1 : 0.999999344349, Q2 : 0.000711853674147, Q3 : 0.000794464780483, Q4 : -0.000414973212173}
2019-04-14 15:33:44.41: SIM {TimeUS : 46034912, Roll : 0.09, Pitch : 0.07, Yaw : 359.95, Alt : 32.8699989319, Lat : 49.2835703, Lng : -123.1150207, Q1 : 0.999999344349, Q2 : 0.000859324354678, Q3 : 0.000641848833766, Q4 : -0.000403561920393}
2019-04-14 15:33:44.51: SIM {TimeUS : 46134872, Roll : 0.11, Pitch : 0.08, Yaw : 359.95, Alt : 33.0699996948, Lat : 49.2835704, Lng : -123.1150207, Q1 : 0.99999910593, Q2 : 0.00100981467403, Q3 : 0.000756015011575, Q4 : -0.000399936980102}
2019-04-14 15:33:44.61: SIM {TimeUS : 46234832, Roll : 0.13, Pitch : 0.1, Yaw : 359.95, Alt : 33.2700004578, Lat : 49.2835704, Lng : -123.1150207, Q1 : 0.999998867512, Q2 : 0.00116346112918, Q3 : 0.000898942293134, Q4 : -0.000398859381676}
2019-04-14 15:33:44.71: SIM {TimeUS : 46334792, Roll : 0.15, Pitch : 0.12, Yaw : 359.95, Alt : 33.4799995422, Lat : 49.2835704, Lng : -123.1150208, Q1 : 0.999998450279, Q2 : 0.0013222435955, Q3 : 0.00109816330951, Q4 : -0.000404363323469}
2019-04-14 15:33:44.81: SIM {TimeUS : 46434752, Roll : 0.15, Pitch : 0.14, Yaw : 359.95, Alt : 33.6899986267, Lat : 49.2835704, Lng : -123.1150208, Q1 : 0.999998211861, Q2 : 0.00139523332473, Q3 : 0.00122337788343, Q4 : -0.000413869769545}
2019-04-14 15:33:44.91: SIM {TimeUS : 46534712, Roll : 0.14, Pitch : 0.13, Yaw : 359.95, Alt : 33.8899993896, Lat : 49.2835704, Lng : -123.1150208, Q1 : 0.99999833107, Q2 : 0.0012964628404, Q3 : 0.00121442880481, Q4 : -0.000428329425631}
2019-04-14 15:33:45.01: SIM {TimeUS : 46634672, Roll : 0.13, Pitch : 0.13, Yaw : 359.94, Alt : 34.0999984741, Lat : 49.2835704, Lng : -123.1150208, Q1 : 0.999998509884, Q2 : 0.00115760194603, Q3 : 0.00118230760563, Q4 : -0.000449742539786}
2019-04-14 15:33:45.11: SIM {TimeUS : 46734632, Roll : 0.11, Pitch : 0.12, Yaw : 359.94, Alt : 34.3199996948, Lat : 49.2835704, Lng : -123.1150208, Q1 : 0.999998807907, Q2 : 0.000969222164713, Q3 : 0.00111058808398, Q4 : -0.000476674409583}
2019-04-14 15:33:45.21: SIM {TimeUS : 46834592, Roll : 0.09, Pitch : 0.09, Yaw : 359.94, Alt : 34.5299987793, Lat : 49.2835704, Lng : -123.1150208, Q1 : 0.99999922514, Q2 : 0.000856096623465, Q3 : 0.00079199008178, Q4 : -0.000511186430231}
2019-04-14 15:33:45.31: SIM {TimeUS : 46934552, Roll : 0.08, Pitch : 0.05, Yaw : 359.93, Alt : 34.7400016785, Lat : 49.2835704, Lng : -123.1150208, Q1 : 0.999999403954, Q2 : 0.000785567739513, Q3 : 0.000488171208417, Q4 : -0.000549835385755}
2019-04-14 15:33:45.41: SIM {TimeUS : 47034512, Roll : 0.07, Pitch : 0.03, Yaw : 359.93, Alt : 34.9599990845, Lat : 49.2835704, Lng : -123.1150207, Q1 : 0.999999582767, Q2 : 0.000621122890152, Q3 : 0.000301048537949, Q4 : -0.000587751623243}
2019-04-14 15:33:45.51: SIM {TimeUS : 47135305, Roll : 0.05, Pitch : 0.02, Yaw : 359.92, Alt : 35.1800003052, Lat : 49.2835704, Lng : -123.1150207, Q1 : 0.999999642372, Q2 : 0.000507391232532, Q3 : 0.000248138356255, Q4 : -0.000621020561084}
2019-04-14 15:33:45.61: SIM {TimeUS : 47235265, Roll : 0.05, Pitch : 0.02, Yaw : 359.92, Alt : 35.3899993896, Lat : 49.2835704, Lng : -123.1150207, Q1 : 0.999999642372, Q2 : 0.000488433113787, Q3 : 0.000235516708926, Q4 : -0.000650140224025}
2019-04-14 15:33:45.71: SIM {TimeUS : 47335225, Roll : 0.03, Pitch : 0.0, Yaw : 359.92, Alt : 35.6100006104, Lat : 49.2835704, Lng : -123.1150207, Q1 : 0.999999761581, Q2 : 0.000298577360809, Q3 : 6.66595733492e-05, Q4 : -0.000676883326378}
2019-04-14 15:33:45.81: SIM {TimeUS : 47435185, Roll : 0.0, Pitch : -0.02, Yaw : 359.91, Alt : 35.8300018311, Lat : 49.2835704, Lng : -123.1150207, Q1 : 0.999999761581, Q2 : -4.30638501712e-05, Q3 : -0.000211555568967, Q4 : -0.00070080725709}
2019-04-14 15:33:45.91: SIM {TimeUS : 47535145, Roll : -0.04, Pitch : -0.04, Yaw : 359.91, Alt : 36.0499992371, Lat : 49.2835704, Lng : -123.1150207, Q1 : 0.999999582767, Q2 : -0.000409764121287, Q3 : -0.000415552553022, Q4 : -0.000725921418052}
2019-04-14 15:33:46.01: SIM {TimeUS : 47635105, Roll : -0.08, Pitch : -0.06, Yaw : 359.91, Alt : 36.2700004578, Lat : 49.2835704, Lng : -123.1150207, Q1 : 0.999999344349, Q2 : -0.00071029656101, Q3 : -0.000523827329744, Q4 : -0.000748011399992}
2019-04-14 15:33:46.11: SIM {TimeUS : 47735065, Roll : -0.08, Pitch : -0.06, Yaw : 359.91, Alt : 36.4900016785, Lat : 49.2835704, Lng : -123.1150206, Q1 : 0.999999284744, Q2 : -0.000750576553401, Q3 : -0.000568776740693, Q4 : -0.000761719653383}
2019-04-14 15:33:46.21: SIM {TimeUS : 47835025, Roll : -0.07, Pitch : -0.06, Yaw : 359.91, Alt : 36.7200012207, Lat : 49.2835704, Lng : -123.1150206, Q1 : 0.999999284744, Q2 : -0.000693294743542, Q3 : -0.000576527498197, Q4 : -0.000773132720497}
2019-04-14 15:33:46.31: SIM {TimeUS : 47934985, Roll : -0.06, Pitch : -0.05, Yaw : 359.9, Alt : 36.9399986267, Lat : 49.2835704, Lng : -123.1150206, Q1 : 0.999999403954, Q2 : -0.000571680895519, Q3 : -0.000461166404421, Q4 : -0.000788381381426}
2019-04-14 15:33:46.41: SIM {TimeUS : 48034945, Roll : -0.04, Pitch : -0.04, Yaw : 359.9, Alt : 37.1599998474, Lat : 49.2835704, Lng : -123.1150206, Q1 : 0.999999523163, Q2 : -0.00040916641592, Q3 : -0.000393767666537, Q4 : -0.00080375361722}
2019-04-14 15:33:46.51: SIM {TimeUS : 48134905, Roll : -0.05, Pitch : -0.04, Yaw : 359.9, Alt : 37.3899993896, Lat : 49.2835704, Lng : -123.1150206, Q1 : 0.999999463558, Q2 : -0.000444879377028, Q3 : -0.00041652424261, Q4 : -0.000815655221231}
2019-04-14 15:33:46.61: SIM {TimeUS : 48234865, Roll : -0.06, Pitch : -0.03, Yaw : 359.9, Alt : 37.6100006104, Lat : 49.2835704, Lng : -123.1150206, Q1 : 0.999999463558, Q2 : -0.000583004963119, Q3 : -0.00026506971335, Q4 : -0.000830996781588}
2019-04-14 15:33:46.71: SIM {TimeUS : 48334825, Roll : -0.09, Pitch : 0.0, Yaw : 359.9, Alt : 37.8400001526, Lat : 49.2835704, Lng : -123.1150206, Q1 : 0.999999344349, Q2 : -0.000828595308121, Q3 : -7.11637840141e-05, Q4 : -0.00085067935288}
2019-04-14 15:33:46.81: SIM {TimeUS : 48434785, Roll : -0.1, Pitch : 0.0, Yaw : 359.9, Alt : 38.0699996948, Lat : 49.2835704, Lng : -123.1150206, Q1 : 0.99999922514, Q2 : -0.000892971467692, Q3 : 8.10199635453e-05, Q4 : -0.000864067405928}
2019-04-14 15:33:46.91: SIM {TimeUS : 48534745, Roll : -0.08, Pitch : 0.03, Yaw : 359.89, Alt : 38.2900009155, Lat : 49.2835704, Lng : -123.1150206, Q1 : 0.999999284744, Q2 : -0.000720856653061, Q3 : 0.000335413555149, Q4 : -0.000879735685885}
2019-04-14 15:33:47.01: SIM {TimeUS : 48634705, Roll : -0.05, Pitch : 0.03, Yaw : 359.89, Alt : 38.5200004578, Lat : 49.2835704, Lng : -123.1150206, Q1 : 0.999999403954, Q2 : -0.000513792911079, Q3 : 0.000285998015897, Q4 : -0.000898268830497}
2019-04-14 15:33:47.11: SIM {TimeUS : 48734665, Roll : -0.02, Pitch : 0.01, Yaw : 359.89, Alt : 38.75, Lat : 49.2835704, Lng : -123.1150206, Q1 : 0.999999523163, Q2 : -0.000260541477473, Q3 : 0.000157569724252, Q4 : -0.000915740267374}
2019-04-14 15:33:47.21: SIM {TimeUS : 48834625, Roll : 0.0, Pitch : 0.02, Yaw : 359.89, Alt : 38.9799995422, Lat : 49.2835706, Lng : -123.1150206, Q1 : 0.999999523163, Q2 : 5.57984349143e-05, Q3 : 0.000235368876019, Q4 : -0.000934446579777}
2019-04-14 15:33:47.31: SIM {TimeUS : 48934585, Roll : 0.04, Pitch : 0.05, Yaw : 359.88, Alt : 39.2099990845, Lat : 49.2835706, Lng : -123.1150206, Q1 : 0.999999344349, Q2 : 0.000380761688575, Q3 : 0.000465982127935, Q4 : -0.000960305391345}
2019-04-14 15:33:47.41: SIM {TimeUS : 49034545, Roll : 0.07, Pitch : 0.07, Yaw : 359.88, Alt : 39.4399986267, Lat : 49.2835706, Lng : -123.1150206, Q1 : 0.999999046326, Q2 : 0.000642675615381, Q3 : 0.000693930021953, Q4 : -0.000989893218502}
2019-04-14 15:33:47.51: SIM {TimeUS : 49134505, Roll : 0.06, Pitch : 0.1, Yaw : 359.88, Alt : 39.6699981689, Lat : 49.2835706, Lng : -123.1150206, Q1 : 0.999998927116, Q2 : 0.00058296212228, Q3 : 0.000895286735613, Q4 : -0.00101411447395}
2019-04-14 15:33:47.61: SIM {TimeUS : 49235298, Roll : 0.02, Pitch : 0.12, Yaw : 359.87, Alt : 39.9000015259, Lat : 49.2835706, Lng : -123.1150206, Q1 : 0.999998807907, Q2 : 0.000190411505173, Q3 : 0.00107859109994, Q4 : -0.00105690967757}
2019-04-14 15:33:47.71: SIM {TimeUS : 49335258, Roll : -0.01, Pitch : 0.12, Yaw : 359.87, Alt : 40.1300010681, Lat : 49.2835706, Lng : -123.1150206, Q1 : 0.999998748302, Q2 : -0.000120511940622, Q3 : 0.00113260722719, Q4 : -0.00109271216206}
2019-04-14 15:33:47.81: SIM {TimeUS : 49435218, Roll : -0.04, Pitch : 0.11, Yaw : 359.87, Alt : 40.3600006104, Lat : 49.2835706, Lng : -123.1150206, Q1 : 0.999998748302, Q2 : -0.000361367565347, Q3 : 0.00103126349859, Q4 : -0.00112089305185}
2019-04-14 15:33:47.91: SIM {TimeUS : 49535178, Roll : -0.05, Pitch : 0.11, Yaw : 359.86, Alt : 40.5999984741, Lat : 49.2835706, Lng : -123.1150206, Q1 : 0.999998748302, Q2 : -0.000473115243949, Q3 : 0.00099113676697, Q4 : -0.0011518598767}
2019-04-14 15:33:48.01: SIM {TimeUS : 49635138, Roll : -0.04, Pitch : 0.13, Yaw : 359.86, Alt : 40.8300018311, Lat : 49.2835706, Lng : -123.1150206, Q1 : 0.999998569489, Q2 : -0.00036808103323, Q3 : 0.00116479210556, Q4 : -0.00118745781947}
2019-04-14 15:33:48.11: SIM {TimeUS : 49735098, Roll : 0.0, Pitch : 0.16, Yaw : 359.85, Alt : 41.0600013733, Lat : 49.2835706, Lng : -123.1150207, Q1 : 0.999998271465, Q2 : 2.04022053367e-05, Q3 : 0.00139948178548, Q4 : -0.00122539722361}
2019-04-14 15:33:48.21: SIM {TimeUS : 49835058, Roll : 0.05, Pitch : 0.17, Yaw : 359.85, Alt : 41.2999992371, Lat : 49.2835706, Lng : -123.1150207, Q1 : 0.999997973442, Q2 : 0.000477919413242, Q3 : 0.00149334874004, Q4 : -0.0012607142562}
2019-04-14 15:33:48.31: SIM {TimeUS : 49935018, Roll : 0.09, Pitch : 0.13, Yaw : 359.85, Alt : 41.5299987793, Lat : 49.2835706, Lng : -123.1150207, Q1 : 0.999998152256, Q2 : 0.000789826561231, Q3 : 0.0011836955091, Q4 : -0.00128983869217}
2019-04-14 15:33:48.41: SIM {TimeUS : 50034978, Roll : 0.09, Pitch : 0.08, Yaw : 359.84, Alt : 41.7599983215, Lat : 49.2835706, Lng : -123.1150207, Q1 : 0.999998569489, Q2 : 0.00079509941861, Q3 : 0.000705360027496, Q4 : -0.00131187262014}
2019-04-14 15:33:48.51: SIM {TimeUS : 50134938, Roll : 0.05, Pitch : 0.04, Yaw : 359.84, Alt : 42.0, Lat : 49.2835706, Lng : -123.1150207, Q1 : 0.999998927116, Q2 : 0.000485523894895, Q3 : 0.000370925699826, Q4 : -0.00132589193527}
2019-04-14 15:33:48.61: SIM {TimeUS : 50234898, Roll : 0.0, Pitch : 0.03, Yaw : 359.84, Alt : 42.2299995422, Lat : 49.2835706, Lng : -123.1150207, Q1 : 0.99999910593, Q2 : 2.81749016722e-05, Q3 : 0.00027064664755, Q4 : -0.00133073166944}
2019-04-14 15:33:48.71: SIM {TimeUS : 50334858, Roll : -0.03, Pitch : 0.05, Yaw : 359.84, Alt : 42.4599990845, Lat : 49.2835706, Lng : -123.1150207, Q1 : 0.999998986721, Q2 : -0.000261649751337, Q3 : 0.000479874230223, Q4 : -0.0013265212765}
2019-04-14 15:33:48.81: SIM {TimeUS : 50434818, Roll : -0.04, Pitch : 0.07, Yaw : 359.84, Alt : 42.7000007629, Lat : 49.2835704, Lng : -123.1150207, Q1 : 0.999998867512, Q2 : -0.000402745208703, Q3 : 0.000651189649943, Q4 : -0.00131985871121}
2019-04-14 15:33:48.91: SIM {TimeUS : 50534778, Roll : -0.04, Pitch : 0.07, Yaw : 359.84, Alt : 42.9300003052, Lat : 49.2835704, Lng : -123.1150206, Q1 : 0.999998867512, Q2 : -0.000391212961404, Q3 : 0.000629598973319, Q4 : -0.00131939002313}
2019-04-14 15:33:49.01: SIM {TimeUS : 50634738, Roll : -0.04, Pitch : 0.05, Yaw : 359.84, Alt : 43.1699981689, Lat : 49.2835704, Lng : -123.1150206, Q1 : 0.999998927116, Q2 : -0.000399274023948, Q3 : 0.00050027918769, Q4 : -0.00132682989351}
2019-04-14 15:33:49.11: SIM {TimeUS : 50734698, Roll : -0.03, Pitch : 0.04, Yaw : 359.84, Alt : 43.4000015259, Lat : 49.2835704, Lng : -123.1150206, Q1 : 0.999998986721, Q2 : -0.000324735563481, Q3 : 0.000380604265956, Q4 : -0.00134359928779}
2019-04-14 15:33:49.21: SIM {TimeUS : 50834658, Roll : -0.01, Pitch : 0.03, Yaw : 359.84, Alt : 43.6399993896, Lat : 49.2835704, Lng : -123.1150206, Q1 : 0.999998986721, Q2 : -0.000156214446179, Q3 : 0.000331243616529, Q4 : -0.00137232139241}
2019-04-14 15:33:49.31: SIM {TimeUS : 50934618, Roll : 0.0, Pitch : 0.03, Yaw : 359.83, Alt : 43.8699989319, Lat : 49.2835704, Lng : -123.1150206, Q1 : 0.999998986721, Q2 : -4.41068586952e-05, Q3 : 0.000317285797792, Q4 : -0.0014067501761}
2019-04-14 15:33:49.41: SIM {TimeUS : 51034578, Roll : 0.0, Pitch : 0.01, Yaw : 359.83, Alt : 44.1100006104, Lat : 49.2835704, Lng : -123.1150206, Q1 : 0.999998986721, Q2 : -5.66424823774e-05, Q3 : 0.0001584772981, Q4 : -0.0014365183888}
2019-04-14 15:33:49.51: SIM {TimeUS : 51134538, Roll : -0.01, Pitch : -0.01, Yaw : 359.83, Alt : 44.3499984741, Lat : 49.2835704, Lng : -123.1150206, Q1 : 0.999998927116, Q2 : -0.000123881400214, Q3 : -0.000149334271555, Q4 : -0.0014630072983}
2019-04-14 15:33:49.61: SIM {TimeUS : 51234498, Roll : -0.01, Pitch : -0.03, Yaw : 359.82, Alt : 44.5800018311, Lat : 49.2835704, Lng : -123.1150206, Q1 : 0.999998807907, Q2 : -0.000161443182151, Q3 : -0.000342861982062, Q4 : -0.00149606901687}
2019-04-14 15:33:49.71: SIM {TimeUS : 51335291, Roll : -0.01, Pitch : -0.05, Yaw : 359.82, Alt : 44.8199996948, Lat : 49.2835704, Lng : -123.1150206, Q1 : 0.999998688698, Q2 : -0.000157012982527, Q3 : -0.000441868032794, Q4 : -0.00153294205666}
2019-04-14 15:33:49.81: SIM {TimeUS : 51435251, Roll : -0.02, Pitch : -0.05, Yaw : 359.82, Alt : 45.0600013733, Lat : 49.2835703, Lng : -123.1150206, Q1 : 0.999998629093, Q2 : -0.000239079658058, Q3 : -0.000479069363791, Q4 : -0.00156655698083}
2019-04-14 15:33:49.91: SIM {TimeUS : 51535211, Roll : -0.05, Pitch : -0.04, Yaw : 359.81, Alt : 45.2900009155, Lat : 49.2835703, Lng : -123.1150206, Q1 : 0.999998509884, Q2 : -0.000492374703754, Q3 : -0.000410440174164, Q4 : -0.00159923033789}
2019-04-14 15:33:50.01: SIM {TimeUS : 51635171, Roll : -0.09, Pitch : -0.03, Yaw : 359.81, Alt : 45.5299987793, Lat : 49.2835703, Lng : -123.1150206, Q1 : 0.999998271465, Q2 : -0.000822360510938, Q3 : -0.00034063111525, Q4 : -0.00163383968174}
2019-04-14 15:33:50.11: SIM {TimeUS : 51735131, Roll : -0.11, Pitch : -0.03, Yaw : 359.8, Alt : 45.7599983215, Lat : 49.2835703, Lng : -123.1150206, Q1 : 0.999998033047, Q2 : -0.00102215923835, Q3 : -0.000273081299383, Q4 : -0.00167035544291}
2019-04-14 15:33:50.21: SIM {TimeUS : 51835091, Roll : -0.11, Pitch : -0.01, Yaw : 359.8, Alt : 45.9900016785, Lat : 49.2835703, Lng : -123.1150206, Q1 : 0.999997973442, Q2 : -0.00103384524118, Q3 : -0.000131286564283, Q4 : -0.00170674396213}
2019-04-14 15:33:50.31: SIM {TimeUS : 51935051, Roll : -0.1, Pitch : 0.01, Yaw : 359.8, Alt : 46.2200012207, Lat : 49.2835703, Lng : -123.1150206, Q1 : 0.999998092651, Q2 : -0.000881388376001, Q3 : 9.99895637506e-05, Q4 : -0.00173894152977}
2019-04-14 15:33:50.41: SIM {TimeUS : 52035011, Roll : -0.07, Pitch : 0.02, Yaw : 359.79, Alt : 46.4500007629, Lat : 49.2835703, Lng : -123.1150206, Q1 : 0.999998211861, Q2 : -0.000623069470748, Q3 : 0.000224383664317, Q4 : -0.00176693010144}
2019-04-14 15:33:50.51: SIM {TimeUS : 52134971, Roll : -0.04, Pitch : 0.01, Yaw : 359.79, Alt : 46.6699981689, Lat : 49.2835703, Lng : -123.1150206, Q1 : 0.99999833107, Q2 : -0.000409466651035, Q3 : 0.000170312676346, Q4 : -0.0017899973318}
2019-04-14 15:33:50.61: SIM {TimeUS : 52234931, Roll : -0.03, Pitch : 0.0, Yaw : 359.79, Alt : 46.8800010681, Lat : 49.2835703, Lng : -123.1150206, Q1 : 0.99999833107, Q2 : -0.000308573653456, Q3 : -1.81413834071e-05, Q4 : -0.00181050505489}
2019-04-14 15:33:50.71: SIM {TimeUS : 52334891, Roll : -0.01, Pitch : -0.03, Yaw : 359.79, Alt : 47.0900001526, Lat : 49.2835703, Lng : -123.1150206, Q1 : 0.999998271465, Q2 : -0.000159105504281, Q3 : -0.000306468980853, Q4 : -0.00182736350689}
2019-04-14 15:33:50.81: SIM {TimeUS : 52434851, Roll : 0.0, Pitch : -0.06, Yaw : 359.78, Alt : 47.2900009155, Lat : 49.2835703, Lng : -123.1150206, Q1 : 0.999998152256, Q2 : 2.0144840164e-05, Q3 : -0.000539389147889, Q4 : -0.00184320728295}
2019-04-14 15:33:50.91: SIM {TimeUS : 52534811, Roll : 0.01, Pitch : -0.08, Yaw : 359.78, Alt : 47.4799995422, Lat : 49.2835703, Lng : -123.1150206, Q1 : 0.999998033047, Q2 : 9.89726613625e-05, Q3 : -0.000729172024876, Q4 : -0.00186073861551}
2019-04-14 15:33:51.01: SIM {TimeUS : 52634771, Roll : 0.0, Pitch : -0.11, Yaw : 359.78, Alt : 47.6599998474, Lat : 49.2835703, Lng : -123.1150206, Q1 : 0.999997735023, Q2 : 6.99860975146e-05, Q3 : -0.000986802508123, Q4 : -0.00188172387425}
2019-04-14 15:33:51.11: SIM {TimeUS : 52734731, Roll : 0.02, Pitch : -0.14, Yaw : 359.78, Alt : 47.8400001526, Lat : 49.2835703, Lng : -123.1150206, Q1 : 0.999997377396, Q2 : 0.000179419861524, Q3 : -0.00124895432964, Q4 : -0.00190505490173}
2019-04-14 15:33:51.21: SIM {TimeUS : 52834691, Roll : 0.04, Pitch : -0.15, Yaw : 359.77, Alt : 48.0, Lat : 49.2835703, Lng : -123.1150206, Q1 : 0.999997198582, Q2 : 0.00037899450399, Q3 : -0.00133225764148, Q4 : -0.00192593294196}
2019-04-14 15:33:51.31: SIM {TimeUS : 52934651, Roll : 0.06, Pitch : -0.13, Yaw : 359.77, Alt : 48.1399993896, Lat : 49.2835704, Lng : -123.1150206, Q1 : 0.999997258186, Q2 : 0.000583695538808, Q3 : -0.00119187438395, Q4 : -0.00195008155424}
2019-04-14 15:33:51.41: SIM {TimeUS : 53034611, Roll : 0.08, Pitch : -0.1, Yaw : 359.77, Alt : 48.2799987793, Lat : 49.2835704, Lng : -123.1150206, Q1 : 0.999997377396, Q2 : 0.000696311879437, Q3 : -0.000942498561926, Q4 : -0.00197499059141}
2019-04-14 15:33:51.51: SIM {TimeUS : 53134571, Roll : 0.08, Pitch : -0.08, Yaw : 359.77, Alt : 48.4099998474, Lat : 49.2835704, Lng : -123.1150206, Q1 : 0.999997437, Q2 : 0.000778549001552, Q3 : -0.000720417010598, Q4 : -0.00200122897513}
2019-04-14 15:33:51.61: SIM {TimeUS : 53234531, Roll : 0.08, Pitch : -0.07, Yaw : 359.76, Alt : 48.5200004578, Lat : 49.2835704, Lng : -123.1150206, Q1 : 0.999997496605, Q2 : 0.000710543303285, Q3 : -0.000646227970719, Q4 : -0.00203105853871}
2019-04-14 15:33:51.71: SIM {TimeUS : 53335324, Roll : 0.05, Pitch : -0.06, Yaw : 359.76, Alt : 48.6199989319, Lat : 49.2835704, Lng : -123.1150206, Q1 : 0.999997615814, Q2 : 0.000491370854434, Q3 : -0.000558034924325, Q4 : -0.00206021149643}
2019-04-14 15:33:51.81: SIM {TimeUS : 53435284, Roll : 0.03, Pitch : -0.04, Yaw : 359.76, Alt : 48.7099990845, Lat : 49.2835704, Lng : -123.1150206, Q1 : 0.999997675419, Q2 : 0.000295443314826, Q3 : -0.000392121000914, Q4 : -0.00208523240872}
2019-04-14 15:33:51.91: SIM {TimeUS : 53535244, Roll : 0.01, Pitch : -0.02, Yaw : 359.75, Alt : 48.7799987793, Lat : 49.2835704, Lng : -123.1150206, Q1 : 0.999997794628, Q2 : 0.000113844456791, Q3 : -0.000209325749893, Q4 : -0.00210717320442}
2019-04-14 15:33:52.01: SIM {TimeUS : 53635204, Roll : 0.0, Pitch : 0.0, Yaw : 359.75, Alt : 48.8499984741, Lat : 49.2835704, Lng : -123.1150206, Q1 : 0.999997735023, Q2 : -1.59576520673e-05, Q3 : 2.2694672225e-05, Q4 : -0.00213189446367}
2019-04-14 15:33:52.11: SIM {TimeUS : 53735164, Roll : 0.01, Pitch : 0.03, Yaw : 359.75, Alt : 48.9099998474, Lat : 49.2835704, Lng : -123.1150206, Q1 : 0.999997615814, Q2 : 0.000103081736597, Q3 : 0.000328256894136, Q4 : -0.00216051051393}
2019-04-14 15:33:52.21: SIM {TimeUS : 53835124, Roll : 0.03, Pitch : 0.06, Yaw : 359.74, Alt : 48.9500007629, Lat : 49.2835704, Lng : -123.1150206, Q1 : 0.999997437, Q2 : 0.000320820690831, Q3 : 0.000525243987795, Q4 : -0.00218740385026}
2019-04-14 15:33:52.31: SIM {TimeUS : 53935084, Roll : 0.06, Pitch : 0.03, Yaw : 359.74, Alt : 49.0, Lat : 49.2835704, Lng : -123.1150206, Q1 : 0.999997377396, Q2 : 0.000529496232048, Q3 : 0.000316184741678, Q4 : -0.00221614609472}
2019-04-14 15:33:52.41: SIM {TimeUS : 54035044, Roll : 0.14, Pitch : -0.06, Yaw : 359.74, Alt : 49.0299987793, Lat : 49.2835704, Lng : -123.1150206, Q1 : 0.999996483326, Q2 : 0.00129093613941, Q3 : -0.000597613805439, Q4 : -0.00224284920841}
2019-04-14 15:33:52.51: SIM {TimeUS : 54135004, Roll : 0.39, Pitch : -0.34, Yaw : 359.73, Alt : 49.0600013733, Lat : 49.2835706, Lng : -123.1150206, Q1 : 0.999987065792, Q2 : 0.0034182947129, Q3 : -0.00300662848167, Q4 : -0.00226918887347}
2019-04-14 15:33:52.61: SIM {TimeUS : 54234964, Roll : 0.83, Pitch : -0.8, Yaw : 359.73, Alt : 49.0900001526, Lat : 49.2835706, Lng : -123.1150206, Q1 : 0.999945759773, Q2 : 0.00730437459424, Q3 : -0.00706351874396, Q4 : -0.00229123933241}
2019-04-14 15:33:52.71: SIM {TimeUS : 54334924, Roll : 1.46, Pitch : -1.41, Yaw : 359.71, Alt : 49.1100006104, Lat : 49.2835706, Lng : -123.1150206, Q1 : 0.999839425087, Q2 : 0.0127939721569, Q3 : -0.012337599881, Q4 : -0.00229125632904}
2019-04-14 15:33:52.81: SIM {TimeUS : 54434884, Roll : 2.2, Pitch : -2.11, Yaw : 359.7, Alt : 49.1300010681, Lat : 49.2835706, Lng : -123.1150205, Q1 : 0.999641180038, Q2 : 0.0192318148911, Q3 : -0.0185072626919, Q4 : -0.00225573242642}
2019-04-14 15:33:52.91: SIM {TimeUS : 54534844, Roll : 2.96, Pitch : -2.81, Yaw : 359.67, Alt : 49.1500015259, Lat : 49.2835707, Lng : -123.1150204, Q1 : 0.999361217022, Q2 : 0.0257881954312, Q3 : -0.0246481057256, Q4 : -0.00215851166286}
2019-04-14 15:33:53.01: SIM {TimeUS : 54634804, Roll : 3.59, Pitch : -3.39, Yaw : 359.66, Alt : 49.1599998474, Lat : 49.2835708, Lng : -123.1150202, Q1 : 0.999066472054, Q2 : 0.0312734059989, Q3 : -0.0297356136143, Q4 : -0.00199356349185}
2019-04-14 15:33:53.11: SIM {TimeUS : 54734764, Roll : 4.06, Pitch : -3.84, Yaw : 359.66, Alt : 49.1800003052, Lat : 49.2835709, Lng : -123.11502, Q1 : 0.998808264732, Q2 : 0.0353340506554, Q3 : -0.0336219966412, Q4 : -0.0017682085745}
2019-04-14 15:33:53.21: SIM {TimeUS : 54834724, Roll : 4.41, Pitch : -4.17, Yaw : 359.66, Alt : 49.1899986267, Lat : 49.2835712, Lng : -123.1150198, Q1 : 0.998594641685, Q2 : 0.0383664928377, Q3 : -0.0365301705897, Q4 : -0.00149848649744}
2019-04-14 15:33:53.31: SIM {TimeUS : 54934684, Roll : 4.69, Pitch : -4.43, Yaw : 359.67, Alt : 49.2000007629, Lat : 49.2835714, Lng : -123.1150194, Q1 : 0.998412907124, Q2 : 0.0408361852169, Q3 : -0.0387636460364, Q4 : -0.00120552419685}
2019-04-14 15:33:53.41: SIM {TimeUS : 55034644, Roll : 4.94, Pitch : -4.65, Yaw : 359.69, Alt : 49.2099990845, Lat : 49.2835716, Lng : -123.1150189, Q1 : 0.998246073723, Q2 : 0.04301347211, Q3 : -0.0406672768295, Q4 : -0.000908939517103}
2019-04-14 15:33:53.51: SIM {TimeUS : 55134604, Roll : 5.2, Pitch : -4.89, Yaw : 359.7, Alt : 49.2200012207, Lat : 49.283572, Lng : -123.1150183, Q1 : 0.998059093952, Q2 : 0.0452716462314, Q3 : -0.0427562147379, Q4 : -0.000632519542705}
2019-04-14 15:33:53.61: SIM {TimeUS : 55234564, Roll : 5.47, Pitch : -5.15, Yaw : 359.7, Alt : 49.2200012207, Lat : 49.2835724, Lng : -123.1150177, Q1 : 0.997853279114, Q2 : 0.0475545525551, Q3 : -0.045025318861, Q4 : -0.000384266197216}
2019-04-14 15:33:53.71: SIM {TimeUS : 55334524, Roll : 5.71, Pitch : -5.38, Yaw : 359.71, Alt : 49.2299995422, Lat : 49.2835728, Lng : -123.115017, Q1 : 0.997657239437, Q2 : 0.0497047528625, Q3 : -0.0470041185617, Q4 : -0.00014815229224}
2019-04-14 15:33:53.81: SIM {TimeUS : 55435317, Roll : 5.91, Pitch : -5.54, Yaw : 359.72, Alt : 49.2400016785, Lat : 49.2835733, Lng : -123.1150161, Q1 : 0.997501909733, Q2 : 0.0513969808817, Q3 : -0.0484596788883, Q4 : 6.85118357069e-05}
2019-04-14 15:33:53.91: SIM {TimeUS : 55535277, Roll : 6.04, Pitch : -5.66, Yaw : 359.72, Alt : 49.2400016785, Lat : 49.2835739, Lng : -123.1150151, Q1 : 0.997390627861, Q2 : 0.0525529794395, Q3 : -0.0494975745678, Q4 : 0.000245222065132}
2019-04-14 15:33:54.01: SIM {TimeUS : 55635237, Roll : 6.14, Pitch : -5.77, Yaw : 359.73, Alt : 49.25, Lat : 49.2835745, Lng : -123.1150142, Q1 : 0.997299432755, Q2 : 0.0534296818078, Q3 : -0.0503887310624, Q4 : 0.000372925074771}
2019-04-14 15:33:54.11: SIM {TimeUS : 55735197, Roll : 6.25, Pitch : -5.85, Yaw : 359.73, Alt : 49.25, Lat : 49.2835751, Lng : -123.1150132, Q1 : 0.997209489346, Q2 : 0.0543612316251, Q3 : -0.051166061312, Q4 : 0.000462073949166}
2019-04-14 15:33:54.21: SIM {TimeUS : 55835157, Roll : 6.42, Pitch : -5.94, Yaw : 359.73, Alt : 49.2599983215, Lat : 49.2835758, Lng : -123.115012, Q1 : 0.99709045887, Q2 : 0.0558193176985, Q3 : -0.0519083850086, Q4 : 0.00061711698072}
2019-04-14 15:33:54.31: SIM {TimeUS : 55935117, Roll : 6.79, Pitch : -5.9, Yaw : 359.97, Alt : 49.2599983215, Lat : 49.2835765, Lng : -123.1150108, Q1 : 0.996914207935, Q2 : 0.0592128261924, Q3 : -0.0514550581574, Q4 : 0.0028810761869}
2019-04-14 15:33:54.41: SIM {TimeUS : 56035077, Roll : 7.4, Pitch : -5.77, Yaw : 1.07, Alt : 49.2599983215, Lat : 49.2835774, Lng : -123.1150095, Q1 : 0.996572077274, Q2 : 0.0649263113737, Q3 : -0.0496994629502, Q4 : 0.0125943990424}
2019-04-14 15:33:54.51: SIM {TimeUS : 56135037, Roll : 7.98, Pitch : -5.87, Yaw : 3.61, Alt : 49.2599983215, Lat : 49.2835782, Lng : -123.1150082, Q1 : 0.995653629303, Q2 : 0.0711402744055, Q3 : -0.0488851256669, Q4 : 0.0349748805165}
2019-04-14 15:33:54.61: SIM {TimeUS : 56234997, Roll : 8.27, Pitch : -6.41, Yaw : 7.74, Alt : 49.2599983215, Lat : 49.2835791, Lng : -123.1150067, Q1 : 0.993288576603, Q2 : 0.0756431296468, Q3 : -0.0507739856839, Q4 : 0.0712601020932}
2019-04-14 15:33:54.71: SIM {TimeUS : 56334957, Roll : 8.03, Pitch : -7.39, Yaw : 13.31, Alt : 49.2700004578, Lat : 49.28358, Lng : -123.1150051, Q1 : 0.988231837749, Q2 : 0.0768747776747, Q3 : -0.0557616986334, Q4 : 0.119911521673}
2019-04-14 15:33:54.81: SIM {TimeUS : 56434917, Roll : 7.14, Pitch : -8.68, Yaw : 20.09, Alt : 49.2700004578, Lat : 49.2835808, Lng : -123.1150033, Q1 : 0.979100763798, Q2 : 0.0743897408247, Q3 : -0.0635744184256, Q4 : 0.178286910057}
2019-04-14 15:33:54.91: SIM {TimeUS : 56534877, Roll : 5.62, Pitch : -10.1, Yaw : 27.81, Alt : 49.2700004578, Lat : 49.2835818, Lng : -123.1150015, Q1 : 0.964708209038, Q2 : 0.0685465857387, Q3 : -0.0736334100366, Q4 : 0.243346661329}
2019-04-14 15:33:55.01: SIM {TimeUS : 56634837, Roll : 3.33, Pitch : -11.41, Yaw : 36.12, Alt : 49.2700004578, Lat : 49.2835828, Lng : -123.1149995, Q1 : 0.944702208042, Q2 : 0.0583050213754, Q3 : -0.085514344275, Q4 : 0.311167985201}
2019-04-14 15:33:55.11: SIM {TimeUS : 56734797, Roll : 0.31, Pitch : -12.35, Yaw : 44.32, Alt : 49.2700004578, Lat : 49.2835837, Lng : -123.1149975, Q1 : 0.920639812946, Q2 : 0.0431132018566, Q3 : -0.0985975414515, Q4 : 0.375289469957}
2019-04-14 15:33:55.21: SIM {TimeUS : 56834757, Roll : -2.88, Pitch : -12.78, Yaw : 51.5, Alt : 49.2700004578, Lat : 49.2835848, Lng : -123.1149954, Q1 : 0.895996332169, Q2 : 0.0258378051221, Q3 : -0.111116468906, Q4 : 0.429157435894}
2019-04-14 15:33:55.31: SIM {TimeUS : 56934717, Roll : -5.59, Pitch : -12.77, Yaw : 56.99, Alt : 49.2700004578, Lat : 49.283586, Lng : -123.1149932, Q1 : 0.874946057796, Q2 : 0.0104295760393, Q3 : -0.120816677809, Q4 : 0.468789875507}
2019-04-14 15:33:55.41: SIM {TimeUS : 57034677, Roll : -7.32, Pitch : -12.58, Yaw : 60.45, Alt : 49.2700004578, Lat : 49.2835873, Lng : -123.114991, Q1 : 0.860589385033, Q2 : 0.000200006310479, Q3 : -0.126448228955, Q4 : 0.493352562189}
2019-04-14 15:33:55.51: SIM {TimeUS : 57134637, Roll : -7.96, Pitch : -12.44, Yaw : 62.0, Alt : 49.2700004578, Lat : 49.2835885, Lng : -123.1149888, Q1 : 0.853918075562, Q2 : -0.00348385353573, Q3 : -0.128282904625, Q4 : 0.504336535931}
2019-04-14 15:33:55.61: SIM {TimeUS : 57234597, Roll : -7.66, Pitch : -12.54, Yaw : 61.93, Alt : 49.2700004578, Lat : 49.2835901, Lng : -123.1149865, Q1 : 0.854192256927, Q2 : -0.000879659724887, Q3 : -0.127624601126, Q4 : 0.504050433636}
2019-04-14 15:33:55.71: SIM {TimeUS : 57334557, Roll : -6.63, Pitch : -12.91, Yaw : 60.59, Alt : 49.2700004578, Lat : 49.2835916, Lng : -123.1149842, Q1 : 0.859769046307, Q2 : 0.00696363626048, Q3 : -0.125924527645, Q4 : 0.494865387678}
2019-04-14 15:33:55.81: SIM {TimeUS : 57434517, Roll : -5.14, Pitch : -13.51, Yaw : 58.35, Alt : 49.2700004578, Lat : 49.2835934, Lng : -123.1149819, Q1 : 0.86876398325, Q2 : 0.0183819402009, Q3 : -0.124382615089, Q4 : 0.478999167681}
2019-04-14 15:33:55.91: SIM {TimeUS : 57535310, Roll : -3.38, Pitch : -14.24, Yaw : 55.48, Alt : 49.2799987793, Lat : 49.2835951, Lng : -123.1149795, Q1 : 0.879561305046, Q2 : 0.031723741442, Q3 : -0.123301319778, Q4 : 0.458434581757}
2019-04-14 15:33:56.01: SIM {TimeUS : 57635270, Roll : -1.57, Pitch : -14.91, Yaw : 52.34, Alt : 49.2799987793, Lat : 49.2835969, Lng : -123.114977, Q1 : 0.890585124493, Q2 : 0.0450079664588, Q3 : -0.122462116182, Q4 : 0.435701102018}
2019-04-14 15:33:56.11: SIM {TimeUS : 57735230, Roll : 0.13, Pitch : -15.41, Yaw : 49.24, Alt : 49.2799987793, Lat : 49.2835988, Lng : -123.1149744, Q1 : 0.90079408884, Q2 : 0.0569685436785, Q3 : -0.121411092579, Q4 : 0.413018137217}
2019-04-14 15:33:56.21: SIM {TimeUS : 57835190, Roll : 1.61, Pitch : -15.69, Yaw : 46.5, Alt : 49.2799987793, Lat : 49.2836006, Lng : -123.1149717, Q1 : 0.909322857857, Q2 : 0.0667053312063, Q3 : -0.119959525764, Q4 : 0.392800331116}
2019-04-14 15:33:56.31: SIM {TimeUS : 57935150, Roll : 2.71, Pitch : -15.8, Yaw : 44.37, Alt : 49.2799987793, Lat : 49.2836025, Lng : -123.1149689, Q1 : 0.915684759617, Q2 : 0.0736309587955, Q3 : -0.118385717273, Q4 : 0.37694132328}
2019-04-14 15:33:56.41: SIM {TimeUS : 58035110, Roll : 3.36, Pitch : -15.79, Yaw : 42.98, Alt : 49.2799987793, Lat : 49.2836043, Lng : -123.114966, Q1 : 0.919756531715, Q2 : 0.0774170607328, Q3 : -0.117113918066, Q4 : 0.366522699594}
2019-04-14 15:33:56.51: SIM {TimeUS : 58135070, Roll : 3.54, Pitch : -15.75, Yaw : 42.37, Alt : 49.2799987793, Lat : 49.2836063, Lng : -123.1149629, Q1 : 0.921629071236, Q2 : 0.0781168341637, Q3 : -0.116673573852, Q4 : 0.361780256033}
2019-04-14 15:33:56.61: SIM {TimeUS : 58235030, Roll : 3.3, Pitch : -15.73, Yaw : 42.46, Alt : 49.2799987793, Lat : 49.2836083, Lng : -123.1149597, Q1 : 0.921529114246, Q2 : 0.076213285327, Q3 : -0.117179274559, Q4 : 0.362277060747}
2019-04-14 15:33:56.71: SIM {TimeUS : 58334990, Roll : 2.75, Pitch : -15.76, Yaw : 43.12, Alt : 49.2799987793, Lat : 49.2836103, Lng : -123.1149564, Q1 : 0.919744133949, Q2 : 0.0725549980998, Q3 : -0.118715077639, Q4 : 0.367033064365}
2019-04-14 15:33:56.81: SIM {TimeUS : 58434950, Roll : 1.98, Pitch : -15.84, Yaw : 44.19, Alt : 49.2799987793, Lat : 49.2836122, Lng : -123.1149531, Q1 : 0.916673123837, Q2 : 0.0677317976952, Q3 : -0.121278688312, Q4 : 0.374718993902}
2019-04-14 15:33:56.91: SIM {TimeUS : 58534910, Roll : 1.12, Pitch : -15.98, Yaw : 45.47, Alt : 49.2799987793, Lat : 49.2836144, Lng : -123.1149496, Q1 : 0.912762463093, Q2 : 0.0627237632871, Q3 : -0.124455265701, Q4 : 0.383980840445}
2019-04-14 15:33:57.01: SIM {TimeUS : 58634870, Roll : 0.31, Pitch : -16.1, Yaw : 46.79, Alt : 49.2799987793, Lat : 49.2836164, Lng : -123.1149461, Q1 : 0.908557772636, Q2 : 0.0581696368754, Q3 : -0.127499312162, Q4 : 0.393551796675}
2019-04-14 15:33:57.11: SIM {TimeUS : 58734830, Roll : -0.38, Pitch : -16.2, Yaw : 48.0, Alt : 49.2799987793, Lat : 49.2836184, Lng : -123.1149425, Q1 : 0.904580175877, Q2 : 0.0543028712273, Q3 : -0.130124241114, Q4 : 0.402310371399}
2019-04-14 15:33:57.21: SIM {TimeUS : 58834790, Roll : -0.94, Pitch : -16.28, Yaw : 48.99, Alt : 49.2799987793, Lat : 49.2836206, Lng : -123.1149389, Q1 : 0.901244163513, Q2 : 0.0513360463083, Q3 : -0.132279634476, Q4 : 0.409421116114}
2019-04-14 15:33:57.31: SIM {TimeUS : 58934750, Roll : -1.3, Pitch : -16.35, Yaw : 49.69, Alt : 49.2799987793, Lat : 49.2836227, Lng : -123.1149352, Q1 : 0.898841619492, Q2 : 0.0494933463633, Q3 : -0.133795276284, Q4 : 0.414406746626}
2019-04-14 15:33:57.41: SIM {TimeUS : 59034710, Roll : -1.47, Pitch : -16.41, Yaw : 50.06, Alt : 49.2900009155, Lat : 49.283625, Lng : -123.1149315, Q1 : 0.897496163845, Q2 : 0.0488507896662, Q3 : -0.134724155068, Q4 : 0.417089611292}
2019-04-14 15:33:57.51: SIM {TimeUS : 59134670, Roll : -1.46, Pitch : -16.45, Yaw : 50.12, Alt : 49.2900009155, Lat : 49.2836273, Lng : -123.1149277, Q1 : 0.897208869457, Q2 : 0.049186643213, Q3 : -0.134952694178, Q4 : 0.417593985796}
2019-04-14 15:33:57.61: SIM {TimeUS : 59234630, Roll : -1.28, Pitch : -16.48, Yaw : 49.93, Alt : 49.2900009155, Lat : 49.2836296, Lng : -123.1149239, Q1 : 0.897810816765, Q2 : 0.050465028733, Q3 : -0.134634315968, Q4 : 0.416248321533}
2019-04-14 15:33:57.71: SIM {TimeUS : 59334590, Roll : -0.98, Pitch : -16.51, Yaw : 49.54, Alt : 49.2900009155, Lat : 49.2836318, Lng : -123.1149201, Q1 : 0.89905577898, Q2 : 0.0524801537395, Q3 : -0.133995875716, Q4 : 0.413508921862}
2019-04-14 15:33:57.81: SIM {TimeUS : 59434550, Roll : -0.62, Pitch : -16.55, Yaw : 49.02, Alt : 49.2900009155, Lat : 49.2836341, Lng : -123.1149162, Q1 : 0.900682389736, Q2 : 0.0548616908491, Q3 : -0.133233755827, Q4 : 0.409890502691}
2019-04-14 15:33:57.91: SIM {TimeUS : 59534510, Roll : -0.24, Pitch : -16.59, Yaw : 48.47, Alt : 49.2900009155, Lat : 49.2836366, Lng : -123.1149123, Q1 : 0.902433931828, Q2 : 0.0573475770652, Q3 : -0.132451653481, Q4 : 0.405932128429}
2019-04-14 15:33:58.01: SIM {TimeUS : 59635303, Roll : 0.1, Pitch : -16.63, Yaw : 47.93, Alt : 49.2900009155, Lat : 49.283639, Lng : -123.1149084, Q1 : 0.904102861881, Q2 : 0.0596456751227, Q3 : -0.131832942367, Q4 : 0.402070254087}
2019-04-14 15:33:58.11: SIM {TimeUS : 59735263, Roll : 0.38, Pitch : -16.67, Yaw : 47.47, Alt : 49.2900009155, Lat : 49.2836414, Lng : -123.1149044, Q1 : 0.905521333218, Q2 : 0.0613816641271, Q3 : -0.131378367543, Q4 : 0.398751944304}
2019-04-14 15:33:58.21: SIM {TimeUS : 59835223, Roll : 0.56, Pitch : -16.7, Yaw : 47.13, Alt : 49.2900009155, Lat : 49.2836439, Lng : -123.1149002, Q1 : 0.906582653522, Q2 : 0.0625493451953, Q3 : -0.131219938397, Q4 : 0.396202981472}
2019-04-14 15:33:58.31: SIM {TimeUS : 59935183, Roll : 0.65, Pitch : -16.75, Yaw : 46.9, Alt : 49.2900009155, Lat : 49.2836463, Lng : -123.1148963, Q1 : 0.907245159149, Q2 : 0.0631312951446, Q3 : -0.131389424205, Q4 : 0.394534498453}
2019-04-14 15:33:58.41: SIM {TimeUS : 60035143, Roll : 0.64, Pitch : -16.8, Yaw : 46.81, Alt : 49.2900009155, Lat : 49.2836487, Lng : -123.1148922, Q1 : 0.907507240772, Q2 : 0.0631835982203, Q3 : -0.13187122345, Q4 : 0.393761962652}
2019-04-14 15:33:58.51: SIM {TimeUS : 60135103, Roll : 0.56, Pitch : -16.84, Yaw : 46.83, Alt : 49.2900009155, Lat : 49.2836511, Lng : -123.114888, Q1 : 0.90743547678, Q2 : 0.0626674368978, Q3 : -0.132511168718, Q4 : 0.393795013428}
2019-04-14 15:33:58.61: SIM {TimeUS : 60235063, Roll : 0.42, Pitch : -16.87, Yaw : 46.94, Alt : 49.2900009155, Lat : 49.2836536, Lng : -123.1148838, Q1 : 0.907099723816, Q2 : 0.0618023388088, Q3 : -0.133172050118, Q4 : 0.394481599331}
2019-04-14 15:33:58.71: SIM {TimeUS : 60335023, Roll : 0.25, Pitch : -16.9, Yaw : 47.11, Alt : 49.2900009155, Lat : 49.2836561, Lng : -123.1148796, Q1 : 0.906579077244, Q2 : 0.0607563070953, Q3 : -0.133843615651, Q4 : 0.395612210035}
2019-04-14 15:33:58.81: SIM {TimeUS : 60434983, Roll : 0.1, Pitch : -16.94, Yaw : 47.31, Alt : 49.2999992371, Lat : 49.2836586, Lng : -123.1148753, Q1 : 0.905924081802, Q2 : 0.0599606633186, Q3 : -0.134551733732, Q4 : 0.396991312504}
2019-04-14 15:33:58.91: SIM {TimeUS : 60534943, Roll : -0.01, Pitch : -16.98, Yaw : 47.51, Alt : 49.2999992371, Lat : 49.2836612, Lng : -123.114871, Q1 : 0.9052490592, Q2 : 0.0593287870288, Q3 : -0.135211735964, Q4 : 0.398399353027}
2019-04-14 15:33:59.01: SIM {TimeUS : 60634903, Roll : -0.11, Pitch : -17.02, Yaw : 47.68, Alt : 49.2999992371, Lat : 49.2836638, Lng : -123.1148668, Q1 : 0.90463244915, Q2 : 0.0589345358312, Q3 : -0.135787338018, Q4 : 0.39966070652}
2019-04-14 15:33:59.11: SIM {TimeUS : 60734863, Roll : -0.16, Pitch : -17.06, Yaw : 47.82, Alt : 49.2999992371, Lat : 49.2836663, Lng : -123.1148624, Q1 : 0.904137194157, Q2 : 0.0588662885129, Q3 : -0.136222630739, Q4 : 0.400642067194}
2019-04-14 15:33:59.21: SIM {TimeUS : 60834823, Roll : -0.18, Pitch : -17.1, Yaw : 47.9, Alt : 49.2999992371, Lat : 49.2836688, Lng : -123.1148581, Q1 : 0.903811573982, Q2 : 0.0588858425617, Q3 : -0.136588707566, Q4 : 0.40124887228}
2019-04-14 15:33:59.31: SIM {TimeUS : 60934783, Roll : -0.2, Pitch : -17.12, Yaw : 47.93, Alt : 49.2999992371, Lat : 49.2836714, Lng : -123.1148537, Q1 : 0.903684735298, Q2 : 0.0588697381318, Q3 : -0.136806890368, Q4 : 0.401462495327}
2019-04-14 15:33:59.41: SIM {TimeUS : 61034743, Roll : -0.2, Pitch : -17.15, Yaw : 47.91, Alt : 49.2999992371, Lat : 49.2836741, Lng : -123.1148493, Q1 : 0.90372133255, Q2 : 0.0589359924197, Q3 : -0.136982008815, Q4 : 0.401310682297}
2019-04-14 15:33:59.51: SIM {TimeUS : 61134703, Roll : -0.16, Pitch : -17.16, Yaw : 47.86, Alt : 49.2999992371, Lat : 49.2836767, Lng : -123.1148449, Q1 : 0.903887093067, Q2 : 0.0592173077166, Q3 : -0.137005582452, Q4 : 0.400887668133}
2019-04-14 15:33:59.61: SIM {TimeUS : 61234663, Roll : -0.11, Pitch : -17.18, Yaw : 47.77, Alt : 49.2999992371, Lat : 49.2836793, Lng : -123.1148405, Q1 : 0.904145777225, Q2 : 0.0596134960651, Q3 : -0.136959120631, Q4 : 0.400260955095}
2019-04-14 15:33:59.71: SIM {TimeUS : 61334623, Roll : -0.02, Pitch : -17.21, Yaw : 47.66, Alt : 49.3100013733, Lat : 49.283682, Lng : -123.1148361, Q1 : 0.904428720474, Q2 : 0.0602526850998, Q3 : -0.136978089809, Q4 : 0.399518847466}
2019-04-14 15:33:59.81: SIM {TimeUS : 61434583, Roll : 0.05, Pitch : -17.26, Yaw : 47.56, Alt : 49.3100013733, Lat : 49.2836846, Lng : -123.1148315, Q1 : 0.904691517353, Q2 : 0.060993399471, Q3 : -0.137184917927, Q4 : 0.398739695549}
2019-04-14 15:33:59.91: SIM {TimeUS : 61534543, Roll : 0.12, Pitch : -17.31, Yaw : 47.45, Alt : 49.3100013733, Lat : 49.2836872, Lng : -123.1148271, Q1 : 0.904963672161, Q2 : 0.0615275204182, Q3 : -0.137337133288, Q4 : 0.39798694849}
2019-04-14 15:34:00.01: SIM {TimeUS : 61634503, Roll : 0.17, Pitch : -17.31, Yaw : 47.37, Alt : 49.3100013733, Lat : 49.28369, Lng : -123.1148226, Q1 : 0.905238687992, Q2 : 0.0618557333946, Q3 : -0.137243494391, Q4 : 0.397342473269}
2019-04-14 15:34:00.11: SIM {TimeUS : 61735296, Roll : 0.2, Pitch : -17.31, Yaw : 47.3, Alt : 49.3100013733, Lat : 49.2836926, Lng : -123.1148181, Q1 : 0.905461668968, Q2 : 0.062018699944, Q3 : -0.137199655175, Q4 : 0.396823853254}
2019-04-14 15:34:00.21: SIM {TimeUS : 61835256, Roll : 0.2, Pitch : -17.33, Yaw : 47.25, Alt : 49.3100013733, Lat : 49.2836954, Lng : -123.1148136, Q1 : 0.905611693859, Q2 : 0.0619970187545, Q3 : -0.137378528714, Q4 : 0.3964227736}
2019-04-14 15:34:00.31: SIM {TimeUS : 61935216, Roll : 0.19, Pitch : -17.35, Yaw : 47.22, Alt : 49.3100013733, Lat : 49.283698, Lng : -123.114809, Q1 : 0.905686318874, Q2 : 0.0619594044983, Q3 : -0.137581318617, Q4 : 0.396187722683}
2019-04-14 15:34:00.41: SIM {TimeUS : 62035176, Roll : 0.17, Pitch : -17.38, Yaw : 47.21, Alt : 49.3100013733, Lat : 49.2837008, Lng : -123.1148045, Q1 : 0.905697405338, Q2 : 0.0618947669864, Q3 : -0.137844845653, Q4 : 0.396080881357}
2019-04-14 15:34:00.51: SIM {TimeUS : 62135136, Roll : 0.15, Pitch : -17.4, Yaw : 47.21, Alt : 49.3100013733, Lat : 49.2837034, Lng : -123.1147999, Q1 : 0.905664145947, Q2 : 0.0618362985551, Q3 : -0.138106644154, Q4 : 0.39607489109}
2019-04-14 15:34:00.61: SIM {TimeUS : 62235096, Roll : 0.14, Pitch : -17.43, Yaw : 47.23, Alt : 49.3100013733, Lat : 49.2837062, Lng : -123.1147953, Q1 : 0.905590951443, Q2 : 0.0618611574173, Q3 : -0.138381808996, Q4 : 0.396142274141}
2019-04-14 15:34:00.71: SIM {TimeUS : 62335056, Roll : 0.13, Pitch : -17.45, Yaw : 47.24, Alt : 49.3100013733, Lat : 49.2837089, Lng : -123.1147907, Q1 : 0.905517995358, Q2 : 0.0618465915322, Q3 : -0.13857576251, Q4 : 0.396243542433}
2019-04-14 15:34:00.81: SIM {TimeUS : 62435016, Roll : 0.12, Pitch : -17.48, Yaw : 47.26, Alt : 49.3100013733, Lat : 49.2837117, Lng : -123.1147861, Q1 : 0.90542858839, Q2 : 0.0619126148522, Q3 : -0.138807162642, Q4 : 0.396356493235}
2019-04-14 15:34:00.91: SIM {TimeUS : 62534976, Roll : 0.12, Pitch : -17.51, Yaw : 47.27, Alt : 49.3100013733, Lat : 49.2837144, Lng : -123.1147815, Q1 : 0.905344605446, Q2 : 0.062032725662, Q3 : -0.139012083411, Q4 : 0.396457731724}
2019-04-14 15:34:01.01: SIM {TimeUS : 62634936, Roll : 0.11, Pitch : -17.54, Yaw : 47.28, Alt : 49.3199996948, Lat : 49.2837172, Lng : -123.1147768, Q1 : 0.905274510384, Q2 : 0.0620999373496, Q3 : -0.139339312911, Q4 : 0.396492451429}
2019-04-14 15:34:01.11: SIM {TimeUS : 62734896, Roll : 0.08, Pitch : -17.59, Yaw : 47.28, Alt : 49.3199996948, Lat : 49.2837199, Lng : -123.1147722, Q1 : 0.905236363411, Q2 : 0.0619964040816, Q3 : -0.139778256416, Q4 : 0.396441161633}
2019-04-14 15:34:01.21: SIM {TimeUS : 62834856, Roll : 0.06, Pitch : -17.63, Yaw : 47.28, Alt : 49.3199996948, Lat : 49.2837228, Lng : -123.1147675, Q1 : 0.905217707157, Q2 : 0.0619514770806, Q3 : -0.140229597688, Q4 : 0.396331399679}
2019-04-14 15:34:01.31: SIM {TimeUS : 62934816, Roll : 0.06, Pitch : -17.66, Yaw : 47.26, Alt : 49.3199996948, Lat : 49.2837254, Lng : -123.1147629, Q1 : 0.905222475529, Q2 : 0.0621045008302, Q3 : -0.140474408865, Q4 : 0.396209865808}
2019-04-14 15:34:01.41: SIM {TimeUS : 63034776, Roll : 0.1, Pitch : -17.67, Yaw : 47.24, Alt : 49.3199996948, Lat : 49.2837283, Lng : -123.1147582, Q1 : 0.905277490616, Q2 : 0.0623496547341, Q3 : -0.140382423997, Q4 : 0.396078258753}
2019-04-14 15:34:01.51: SIM {TimeUS : 63134736, Roll : 0.13, Pitch : -17.64, Yaw : 47.21, Alt : 49.3199996948, Lat : 49.2837311, Lng : -123.1147535, Q1 : 0.905380487442, Q2 : 0.0625093579292, Q3 : -0.140081062913, Q4 : 0.395924329758}
2019-04-14 15:34:01.61: SIM {TimeUS : 63234696, Roll : 0.15, Pitch : -17.62, Yaw : 47.19, Alt : 49.3199996948, Lat : 49.2837338, Lng : -123.1147488, Q1 : 0.905491650105, Q2 : 0.0625331923366, Q3 : -0.139886319637, Q4 : 0.395735114813}
2019-04-14 15:34:01.71: SIM {TimeUS : 63334656, Roll : 0.14, Pitch : -17.61, Yaw : 47.16, Alt : 49.3199996948, Lat : 49.2837367, Lng : -123.1147439, Q1 : 0.905609548092, Q2 : 0.0624298974872, Q3 : -0.139792412519, Q4 : 0.395514905453}
2019-04-14 15:34:01.81: SIM {TimeUS : 63434616, Roll : 0.14, Pitch : -17.6, Yaw : 47.13, Alt : 49.3199996948, Lat : 49.2837394, Lng : -123.1147393, Q1 : 0.905723333359, Q2 : 0.0623161382973, Q3 : -0.139731958508, Q4 : 0.395293533802}
2019-04-14 15:34:01.91: SIM {TimeUS : 63534576, Roll : 0.13, Pitch : -17.61, Yaw : 47.1, Alt : 49.3199996948, Lat : 49.2837424, Lng : -123.1147346, Q1 : 0.905794799328, Q2 : 0.0623030439019, Q3 : -0.139904975891, Q4 : 0.395070552826}
2019-04-14 15:34:02.01: SIM {TimeUS : 63634536, Roll : 0.14, Pitch : -17.65, Yaw : 47.08, Alt : 49.3199996948, Lat : 49.2837452, Lng : -123.1147298, Q1 : 0.90582805872, Q2 : 0.0624165982008, Q3 : -0.140201568604, Q4 : 0.394871205091}
2019-04-14 15:34:02.11: SIM {TimeUS : 63734496, Roll : 0.13, Pitch : -17.7, Yaw : 47.06, Alt : 49.3199996948, Lat : 49.2837479, Lng : -123.1147251, Q1 : 0.905831515789, Q2 : 0.0625135451555, Q3 : -0.140650287271, Q4 : 0.394688308239}
2019-04-14 15:34:02.21: SIM {TimeUS : 63835289, Roll : 0.13, Pitch : -17.77, Yaw : 47.05, Alt : 49.3199996948, Lat : 49.2837509, Lng : -123.1147202, Q1 : 0.905799865723, Q2 : 0.0627343356609, Q3 : -0.141154810786, Q4 : 0.394545763731}
2019-04-14 15:34:02.31: SIM {TimeUS : 63935249, Roll : 0.15, Pitch : -17.79, Yaw : 47.04, Alt : 49.3199996948, Lat : 49.2837537, Lng : -123.1147155, Q1 : 0.905793726444, Q2 : 0.0629519596696, Q3 : -0.141320928931, Q4 : 0.394465774298}
2019-04-14 15:34:02.41: SIM {TimeUS : 64035209, Roll : 0.15, Pitch : -17.81, Yaw : 47.03, Alt : 49.3300018311, Lat : 49.2837564, Lng : -123.1147107, Q1 : 0.905797302723, Q2 : 0.0630547255278, Q3 : -0.141465857625, Q4 : 0.394389092922}
2019-04-14 15:34:02.51: SIM {TimeUS : 64135169, Roll : 0.15, Pitch : -17.82, Yaw : 47.02, Alt : 49.3300018311, Lat : 49.2837594, Lng : -123.114706, Q1 : 0.905813157558, Q2 : 0.0630585029721, Q3 : -0.141560032964, Q4 : 0.394318312407}
2019-04-14 15:34:02.61: SIM {TimeUS : 64235129, Roll : 0.16, Pitch : -17.81, Yaw : 47.01, Alt : 49.3300018311, Lat : 49.2837622, Lng : -123.1147012, Q1 : 0.905846953392, Q2 : 0.0630593150854, Q3 : -0.141436859965, Q4 : 0.394284725189}
2019-04-14 15:34:02.71: SIM {TimeUS : 64335089, Roll : 0.17, Pitch : -17.82, Yaw : 47.01, Alt : 49.3300018311, Lat : 49.283765, Lng : -123.1146964, Q1 : 0.905855178833, Q2 : 0.0631873011589, Q3 : -0.141421437263, Q4 : 0.394250899553}
2019-04-14 15:34:02.81: SIM {TimeUS : 64435049, Roll : 0.17, Pitch : -17.84, Yaw : 47.0, Alt : 49.3300018311, Lat : 49.2837679, Lng : -123.1146916, Q1 : 0.905852735043, Q2 : 0.0632579922676, Q3 : -0.141592636704, Q4 : 0.394183725119}
2019-04-14 15:34:02.91: SIM {TimeUS : 64535009, Roll : 0.17, Pitch : -17.85, Yaw : 46.99, Alt : 49.3300018311, Lat : 49.2837708, Lng : -123.1146868, Q1 : 0.905858635902, Q2 : 0.0632990971208, Q3 : -0.141738668084, Q4 : 0.394111096859}
2019-04-14 15:34:03.01: SIM {TimeUS : 64634969, Roll : 0.18, Pitch : -17.86, Yaw : 46.98, Alt : 49.3300018311, Lat : 49.2837737, Lng : -123.1146819, Q1 : 0.905887544155, Q2 : 0.0633352473378, Q3 : -0.141744703054, Q4 : 0.394036650658}
2019-04-14 15:34:03.11: SIM {TimeUS : 64734929, Roll : 0.18, Pitch : -17.87, Yaw : 46.97, Alt : 49.3300018311, Lat : 49.2837765, Lng : -123.1146771, Q1 : 0.905917823315, Q2 : 0.0633368715644, Q3 : -0.141828432679, Q4 : 0.393936574459}
2019-04-14 15:34:03.21: SIM {TimeUS : 64834889, Roll : 0.16, Pitch : -17.89, Yaw : 46.96, Alt : 49.3300018311, Lat : 49.2837794, Lng : -123.1146723, Q1 : 0.905942082405, Q2 : 0.0632781386375, Q3 : -0.142063930631, Q4 : 0.393805354834}
2019-04-14 15:34:03.31: SIM {TimeUS : 64934849, Roll : 0.14, Pitch : -17.93, Yaw : 46.94, Alt : 49.3300018311, Lat : 49.2837824, Lng : -123.1146673, Q1 : 0.905952811241, Q2 : 0.063219383359, Q3 : -0.142469495535, Q4 : 0.393643558025}
2019-04-14 15:34:03.41: SIM {TimeUS : 65034809, Roll : 0.13, Pitch : -17.94, Yaw : 46.93, Alt : 49.3300018311, Lat : 49.2837851, Lng : -123.1146626, Q1 : 0.905997276306, Q2 : 0.0631671696901, Q3 : -0.142587959766, Q4 : 0.393506765366}
2019-04-14 15:34:03.51: SIM {TimeUS : 65134769, Roll : 0.14, Pitch : -17.93, Yaw : 46.91, Alt : 49.3300018311, Lat : 49.283788, Lng : -123.1146577, Q1 : 0.906059145927, Q2 : 0.0631820857525, Q3 : -0.142478749156, Q4 : 0.393401443958}
2019-04-14 15:34:03.61: SIM {TimeUS : 65234729, Roll : 0.16, Pitch : -17.91, Yaw : 46.9, Alt : 49.3300018311, Lat : 49.283791, Lng : -123.1146529, Q1 : 0.906116724014, Q2 : 0.0632899403572, Q3 : -0.142304077744, Q4 : 0.393314659595}
2019-04-14 15:34:03.71: SIM {TimeUS : 65334689, Roll : 0.17, Pitch : -17.92, Yaw : 46.88, Alt : 49.3300018311, Lat : 49.2837939, Lng : -123.114648, Q1 : 0.906155824661, Q2 : 0.0633866563439, Q3 : -0.1423201859, Q4 : 0.393203228712}
2019-04-14 15:34:03.81: SIM {TimeUS : 65434649, Roll : 0.16, Pitch : -17.94, Yaw : 46.87, Alt : 49.3300018311, Lat : 49.2837968, Lng : -123.1146432, Q1 : 0.906182050705, Q2 : 0.0633672252297, Q3 : -0.142513006926, Q4 : 0.393076002598}
2019-04-14 15:34:03.91: SIM {TimeUS : 65534609, Roll : 0.14, Pitch : -17.96, Yaw : 46.86, Alt : 49.3400001526, Lat : 49.2837996, Lng : -123.1146383, Q1 : 0.906205296516, Q2 : 0.0632731243968, Q3 : -0.142780050635, Q4 : 0.392940700054}
2019-04-14 15:34:04.01: SIM {TimeUS : 65634569, Roll : 0.13, Pitch : -17.99, Yaw : 46.84, Alt : 49.3400001526, Lat : 49.2838025, Lng : -123.1146334, Q1 : 0.906219124794, Q2 : 0.0632703304291, Q3 : -0.143005803227, Q4 : 0.392827093601}
2019-04-14 15:34:04.11: SIM {TimeUS : 65734529, Roll : 0.14, Pitch : -18.01, Yaw : 46.83, Alt : 49.3400001526, Lat : 49.2838056, Lng : -123.1146285, Q1 : 0.906232893467, Q2 : 0.0633596926928, Q3 : -0.143131643534, Q4 : 0.392735093832}
2019-04-14 15:34:04.21: SIM {TimeUS : 65835322, Roll : 0.15, Pitch : -18.02, Yaw : 46.82, Alt : 49.3400001526, Lat : 49.2838085, Lng : -123.1146235, Q1 : 0.906248152256, Q2 : 0.0634747296572, Q3 : -0.143202960491, Q4 : 0.392655283213}
2019-04-14 15:34:04.31: SIM {TimeUS : 65935282, Roll : 0.17, Pitch : -18.03, Yaw : 46.81, Alt : 49.3400001526, Lat : 49.2838114, Lng : -123.1146187, Q1 : 0.906249523163, Q2 : 0.0636625289917, Q3 : -0.143241643906, Q4 : 0.392607599497}
2019-04-14 15:34:04.41: SIM {TimeUS : 66035242, Roll : 0.17, Pitch : -18.05, Yaw : 46.81, Alt : 49.3400001526, Lat : 49.2838142, Lng : -123.1146138, Q1 : 0.906247496605, Q2 : 0.0637490674853, Q3 : -0.143369451165, Q4 : 0.392551571131}
2019-04-14 15:34:04.51: SIM {TimeUS : 66135202, Roll : 0.18, Pitch : -18.07, Yaw : 46.8, Alt : 49.3400001526, Lat : 49.2838172, Lng : -123.114609, Q1 : 0.906244933605, Q2 : 0.0638358443975, Q3 : -0.14349347353, Q4 : 0.39249804616}
2019-04-14 15:34:04.61: SIM {TimeUS : 66235162, Roll : 0.19, Pitch : -18.08, Yaw : 46.8, Alt : 49.3400001526, Lat : 49.2838202, Lng : -123.1146041, Q1 : 0.906239569187, Q2 : 0.0639575496316, Q3 : -0.143589258194, Q4 : 0.392455637455}
2019-04-14 15:34:04.71: SIM {TimeUS : 66335122, Roll : 0.21, Pitch : -18.09, Yaw : 46.79, Alt : 49.3400001526, Lat : 49.2838231, Lng : -123.1145992, Q1 : 0.906227886677, Q2 : 0.0641882121563, Q3 : -0.143588736653, Q4 : 0.392445117235}
2019-04-14 15:34:04.81: SIM {TimeUS : 66435082, Roll : 0.25, Pitch : -18.1, Yaw : 46.79, Alt : 49.3400001526, Lat : 49.2838261, Lng : -123.1145943, Q1 : 0.906208157539, Q2 : 0.0645035281777, Q3 : -0.14355994761, Q4 : 0.392449468374}
2019-04-14 15:34:04.91: SIM {TimeUS : 66535042, Roll : 0.25, Pitch : -18.1, Yaw : 46.78, Alt : 49.3400001526, Lat : 49.283829, Lng : -123.1145894, Q1 : 0.90621894598, Q2 : 0.064536228776, Q3 : -0.143546685576, Q4 : 0.392424017191}
2019-04-14 15:34:05.01: SIM {TimeUS : 66635002, Roll : 0.23, Pitch : -18.11, Yaw : 46.78, Alt : 49.3400001526, Lat : 49.2838318, Lng : -123.1145844, Q1 : 0.906236827374, Q2 : 0.0643818303943, Q3 : -0.143703117967, Q4 : 0.392350882292}
2019-04-14 15:34:05.11: SIM {TimeUS : 66734962, Roll : 0.2, Pitch : -18.14, Yaw : 46.77, Alt : 49.3400001526, Lat : 49.2838348, Lng : -123.1145795, Q1 : 0.906242728233, Q2 : 0.064238935709, Q3 : -0.143976926804, Q4 : 0.392260283232}
