2019-04-14 17:07:16.80: SIM {TimeUS : 40016487, Roll : 0.0, Pitch : 0.0, Yaw : 0.0, Alt : 30.1000003815, Lat : 49.28357, Lng : -123.11502, Q1 : 1.0, Q2 : 0.0, Q3 : 0.0, Q4 : 0.0}
2019-04-14 17:07:16.91: SIM {TimeUS : 40135606, Roll : 0.0, Pitch : 0.0, Yaw : 0.0, Alt : 30.1000003815, Lat : 49.28357, Lng : -123.11502, Q1 : 1.0, Q2 : 0.0, Q3 : 0.0, Q4 : 0.0}
2019-04-14 17:07:17.01: SIM {TimeUS : 40235566, Roll : 0.0, Pitch : 0.0, Yaw : 0.0, Alt : 30.1000003815, Lat : 49.28357, Lng : -123.11502, Q1 : 1.0, Q2 : 0.0, Q3 : 0.0, Q4 : 0.0}
2019-04-14 17:07:17.11: SIM {TimeUS : 40335526, Roll : 0.0, Pitch : 0.0, Yaw : 0.0, Alt : 30.1000003815, Lat : 49.28357, Lng : -123.11502, Q1 : 1.0, Q2 : 0.0, Q3 : 0.0, Q4 : 0.0}
2019-04-14 17:07:17.21: SIM {TimeUS : 40435486, Roll : 0.0, Pitch : 0.0, Yaw : 0.0, Alt : 30.1000003815, Lat : 49.28357, Lng : -123.11502, Q1 : 1.0, Q2 : 0.0, Q3 : 0.0, Q4 : 0.0}
2019-04-14 17:07:17.31: SIM {TimeUS : 40535446, Roll : 0.0, Pitch : 0.0, Yaw : 0.0, Alt : 30.1000003815, Lat : 49.28357, Lng : -123.11502, Q1 : 1.0, Q2 : 0.0, Q3 : 0.0, Q4 : 0.0}
2019-04-14 17:07:17.41: SIM {TimeUS : 40635406, Roll : 0.0, Pitch : 0.0, Yaw : 0.0, Alt : 30.1000003815, Lat : 49.28357, Lng : -123.11502, Q1 : 1.0, Q2 : 0.0, Q3 : 0.0, Q4 : 0.0}
2019-04-14 17:07:17.51: SIM {TimeUS : 40735366, Roll : 0.0, Pitch : 0.0, Yaw : 0.0, Alt : 30.1000003815, Lat : 49.28357, Lng : -123.11502, Q1 : 1.0, Q2 : 0.0, Q3 : 0.0, Q4 : 0.0}
2019-04-14 17:07:17.61: SIM {TimeUS : 40835326, Roll : 0.0, Pitch : 0.0, Yaw : 0.0, Alt : 30.1000003815, Lat : 49.28357, Lng : -123.11502, Q1 : 1.0, Q2 : 0.0, Q3 : 0.0, Q4 : 0.0}
2019-04-14 17:07:17.71: SIM {TimeUS : 40935286, Roll : 0.0, Pitch : 0.0, Yaw : 0.0, Alt : 30.1000003815, Lat : 49.28357, Lng : -123.11502, Q1 : 1.0, Q2 : 0.0, Q3 : 0.0, Q4 : 0.0}
2019-04-14 17:07:17.81: SIM {TimeUS : 41035246, Roll : 0.0, Pitch : 0.0, Yaw : 0.0, Alt : 30.1000003815, Lat : 49.28357, Lng : -123.11502, Q1 : 1.0, Q2 : 0.0, Q3 : 0.0, Q4 : 0.0}
2019-04-14 17:07:17.91: SIM {TimeUS : 41135206, Roll : 0.0, Pitch : 0.0, Yaw : 0.0, Alt : 30.1000003815, Lat : 49.28357, Lng : -123.11502, Q1 : 1.0, Q2 : 0.0, Q3 : 0.0, Q4 : 0.0}
2019-04-14 17:07:18.01: SIM {TimeUS : 41235166, Roll : 0.0, Pitch : 0.0, Yaw : 0.0, Alt : 30.1000003815, Lat : 49.28357, Lng : -123.11502, Q1 : 1.0, Q2 : 0.0, Q3 : 0.0, Q4 : 0.0}
2019-04-14 17:07:18.11: SIM {TimeUS : 41335126, Roll : 0.0, Pitch : 0.0, Yaw : 0.0, Alt : 30.1000003815, Lat : 49.28357, Lng : -123.11502, Q1 : 1.0, Q2 : 0.0, Q3 : 0.0, Q4 : 0.0}
2019-04-14 17:07:18.21: SIM {TimeUS : 41435086, Roll : 0.0, Pitch : 0.0, Yaw : 0.0, Alt : 30.1000003815, Lat : 49.28357, Lng : -123.11502, Q1 : 1.0, Q2 : 0.0, Q3 : 0.0, Q4 : 0.0}
2019-04-14 17:07:18.31: SIM {TimeUS : 41535046, Roll : 0.0, Pitch : 0.0, Yaw : 0.0, Alt : 30.1000003815, Lat : 49.28357, Lng : -123.11502, Q1 : 1.0, Q2 : 0.0, Q3 : 0.0, Q4 : 0.0}
2019-04-14 17:07:18.41: SIM {TimeUS : 41635006, Roll : 0.0, Pitch : 0.0, Yaw : 0.0, Alt : 30.1000003815, Lat : 49.28357, Lng : -123.11502, Q1 : 1.0, Q2 : 0.0, Q3 : 0.0, Q4 : 0.0}
2019-04-14 17:07:18.51: SIM {TimeUS : 41734966, Roll : 0.0, Pitch : 0.0, Yaw : 0.0, Alt : 30.1000003815, Lat : 49.28357, Lng : -123.11502, Q1 : 1.0, Q2 : 0.0, Q3 : 0.0, Q4 : 0.0}
2019-04-14 17:07:18.61: SIM {TimeUS : 41834926, Roll : 0.0, Pitch : 0.0, Yaw : 0.0, Alt : 30.1000003815, Lat : 49.28357, Lng : -123.11502, Q1 : 1.0, Q2 : 0.0, Q3 : 0.0, Q4 : 0.0}
2019-04-14 17:07:18.71: SIM {TimeUS : 41934886, Roll : 0.0, Pitch : 0.0, Yaw : 0.0, Alt : 30.1000003815, Lat : 49.28357, Lng : -123.11502, Q1 : 1.0, Q2 : 0.0, Q3 : 0.0, Q4 : 0.0}
2019-04-14 17:07:18.81: SIM {TimeUS : 42034846, Roll : 0.0, Pitch : 0.0, Yaw : 0.0, Alt : 30.1000003815, Lat : 49.28357, Lng : -123.11502, Q1 : 1.0, Q2 : 0.0, Q3 : 0.0, Q4 : 0.0}
2019-04-14 17:07:18.91: SIM {TimeUS : 42135639, Roll : 0.0, Pitch : 0.0, Yaw : 0.0, Alt : 30.1000003815, Lat : 49.28357, Lng : -123.11502, Q1 : 1.0, Q2 : 0.0, Q3 : 0.0, Q4 : 0.0}
2019-04-14 17:07:19.01: SIM {TimeUS : 42235599, Roll : 0.0, Pitch : 0.0, Yaw : 0.0, Alt : 30.1000003815, Lat : 49.28357, Lng : -123.11502, Q1 : 1.0, Q2 : 0.0, Q3 : 0.0, Q4 : 0.0}
2019-04-14 17:07:19.11: SIM {TimeUS : 42335559, Roll : 0.0, Pitch : 0.0, Yaw : 360.0, Alt : 30.1000003815, Lat : 49.28357, Lng : -123.11502, Q1 : 1.0, Q2 : 0.0, Q3 : 0.0, Q4 : -7.07429687746e-12}
2019-04-14 17:07:19.21: SIM {TimeUS : 42435519, Roll : 0.0, Pitch : 0.0, Yaw : 0.0, Alt : 30.1000003815, Lat : 49.28357, Lng : -123.11502, Q1 : 1.0, Q2 : 0.0, Q3 : 0.0, Q4 : 1.12069374614e-10}
2019-04-14 17:07:19.31: SIM {TimeUS : 42535479, Roll : 0.0, Pitch : 0.0, Yaw : 360.0, Alt : 30.1000003815, Lat : 49.28357, Lng : -123.11502, Q1 : 1.0, Q2 : 0.0, Q3 : 0.0, Q4 : -1.20675963444e-07}
2019-04-14 17:07:19.41: SIM {TimeUS : 42635439, Roll : 0.0, Pitch : 0.0, Yaw : 359.99, Alt : 30.1000003815, Lat : 49.28357, Lng : -123.11502, Q1 : 1.0, Q2 : 0.0, Q3 : 0.0, Q4 : -2.82094617887e-07}
2019-04-14 17:07:19.51: SIM {TimeUS : 42735399, Roll : 0.0, Pitch : 0.0, Yaw : 359.99, Alt : 30.1000003815, Lat : 49.28357, Lng : -123.11502, Q1 : 1.0, Q2 : 0.0, Q3 : 0.0, Q4 : -4.66010732225e-07}
2019-04-14 17:07:19.61: SIM {TimeUS : 42835359, Roll : 0.0, Pitch : 0.0, Yaw : 359.99, Alt : 30.1000003815, Lat : 49.28357, Lng : -123.11502, Q1 : 1.0, Q2 : 0.0, Q3 : 0.0, Q4 : -6.33078286683e-07}
2019-04-14 17:07:19.71: SIM {TimeUS : 42935319, Roll : 0.0, Pitch : 0.0, Yaw : 359.99, Alt : 30.1000003815, Lat : 49.28357, Lng : -123.11502, Q1 : 1.0, Q2 : 0.0, Q3 : 0.0, Q4 : -8.11915867871e-07}
2019-04-14 17:07:19.81: SIM {TimeUS : 43035279, Roll : 0.0, Pitch : 0.0, Yaw : 359.99, Alt : 30.1000003815, Lat : 49.28357, Lng : -123.11502, Q1 : 1.0, Q2 : 0.0, Q3 : 0.0, Q4 : -1.0254997278e-06}
2019-04-14 17:07:19.91: SIM {TimeUS : 43135239, Roll : 0.0, Pitch : 0.0, Yaw : 359.99, Alt : 30.1000003815, Lat : 49.28357, Lng : -123.11502, Q1 : 1.0, Q2 : 0.0, Q3 : 0.0, Q4 : -1.20223739941e-06}
2019-04-14 17:07:20.01: SIM {TimeUS : 43235199, Roll : 0.0, Pitch : 0.0, Yaw : 359.99, Alt : 30.1100006104, Lat : 49.28357, Lng : -123.11502, Q1 : 1.0, Q2 : 0.0, Q3 : 0.0, Q4 : -1.40309134622e-06}
2019-04-14 17:07:20.11: SIM {TimeUS : 43335159, Roll : 0.0, Pitch : 0.0, Yaw : 359.99, Alt : 30.1299991608, Lat : 49.28357, Lng : -123.11502, Q1 : 1.0, Q2 : 0.0, Q3 : 0.0, Q4 : -1.62729259046e-06}
2019-04-14 17:07:20.21: SIM {TimeUS : 43435119, Roll : 0.0, Pitch : 0.0, Yaw : 359.99, Alt : 30.1499996185, Lat : 49.28357, Lng : -123.11502, Q1 : 1.0, Q2 : 0.0, Q3 : 0.0, Q4 : -1.86283170933e-06}
2019-04-14 17:07:20.31: SIM {TimeUS : 43535079, Roll : 0.0, Pitch : 0.0, Yaw : 359.99, Alt : 30.1900005341, Lat : 49.28357, Lng : -123.11502, Q1 : 1.0, Q2 : 0.0, Q3 : 0.0, Q4 : -2.1183680019e-06}
2019-04-14 17:07:20.41: SIM {TimeUS : 43635039, Roll : -0.02, Pitch : -0.02, Yaw : 359.99, Alt : 30.2299995422, Lat : 49.28357, Lng : -123.11502, Q1 : 0.999999940395, Q2 : -0.00024335780472, Q3 : -0.000250869052252, Q4 : -3.49993774762e-06}
2019-04-14 17:07:20.51: SIM {TimeUS : 43734999, Roll : -0.26, Pitch : -0.27, Yaw : 359.99, Alt : 30.2999992371, Lat : 49.28357, Lng : -123.11502, Q1 : 0.999994456768, Q2 : -0.00235152523965, Q3 : -0.0023649665527, Q4 : -3.16392979585e-05}
2019-04-14 17:07:20.61: SIM {TimeUS : 43834959, Roll : -0.59, Pitch : -0.54, Yaw : 359.99, Alt : 30.4300003052, Lat : 49.28357, Lng : -123.11502, Q1 : 0.999975502491, Q2 : -0.00516918022186, Q3 : -0.00472733750939, Q4 : -8.64526591613e-05}
2019-04-14 17:07:20.71: SIM {TimeUS : 43934919, Roll : -0.81, Pitch : -0.68, Yaw : 359.98, Alt : 30.5900001526, Lat : 49.28357, Lng : -123.11502, Q1 : 0.999956667423, Q2 : -0.0071537643671, Q3 : -0.00595359317958, Q4 : -0.000159045273904}
2019-04-14 17:07:20.81: SIM {TimeUS : 44034879, Roll : -0.86, Pitch : -0.68, Yaw : 359.97, Alt : 30.75, Lat : 49.28357, Lng : -123.11502, Q1 : 0.999953389168, Q2 : -0.00759094487876, Q3 : -0.00595722813159, Q4 : -0.000238472508499}
2019-04-14 17:07:20.91: SIM {TimeUS : 44134839, Roll : -0.76, Pitch : -0.58, Yaw : 359.96, Alt : 30.8999996185, Lat : 49.28357, Lng : -123.1150201, Q1 : 0.999964594841, Q2 : -0.00668421201408, Q3 : -0.00510138459504, Q4 : -0.000308659713482}
2019-04-14 17:07:21.01: SIM {TimeUS : 44235632, Roll : -0.57, Pitch : -0.42, Yaw : 359.95, Alt : 31.0599994659, Lat : 49.2835701, Lng : -123.1150202, Q1 : 0.999980449677, Q2 : -0.00499319192022, Q3 : -0.00375023414381, Q4 : -0.000373489077901}
2019-04-14 17:07:21.11: SIM {TimeUS : 44335592, Roll : -0.34, Pitch : -0.26, Yaw : 359.95, Alt : 31.2099990845, Lat : 49.2835701, Lng : -123.1150202, Q1 : 0.999992728233, Q2 : -0.00301944976673, Q3 : -0.0022990424186, Q4 : -0.000428712868597}
2019-04-14 17:07:21.21: SIM {TimeUS : 44435552, Roll : -0.12, Pitch : -0.13, Yaw : 359.94, Alt : 31.3799991608, Lat : 49.2835702, Lng : -123.1150203, Q1 : 0.999998569489, Q2 : -0.00109762372449, Q3 : -0.00120134803001, Q4 : -0.000473206484457}
2019-04-14 17:07:21.31: SIM {TimeUS : 44535512, Roll : 0.02, Pitch : -0.04, Yaw : 359.94, Alt : 31.5499992371, Lat : 49.2835702, Lng : -123.1150204, Q1 : 0.999999761581, Q2 : 0.000200893118745, Q3 : -0.00037209034781, Q4 : -0.000512057333253}
2019-04-14 17:07:21.41: SIM {TimeUS : 44635472, Roll : 0.08, Pitch : 0.01, Yaw : 359.93, Alt : 31.7299995422, Lat : 49.2835703, Lng : -123.1150205, Q1 : 0.999999582767, Q2 : 0.000701286597177, Q3 : 0.000163361313753, Q4 : -0.000541078567039}
2019-04-14 17:07:21.51: SIM {TimeUS : 44735432, Roll : 0.07, Pitch : 0.04, Yaw : 359.93, Alt : 31.9099998474, Lat : 49.2835703, Lng : -123.1150206, Q1 : 0.999999523163, Q2 : 0.000692306319252, Q3 : 0.000394110684283, Q4 : -0.000552747573238}
2019-04-14 17:07:21.61: SIM {TimeUS : 44835392, Roll : 0.05, Pitch : 0.04, Yaw : 359.93, Alt : 32.0900001526, Lat : 49.2835703, Lng : -123.1150206, Q1 : 0.999999642372, Q2 : 0.000513788952958, Q3 : 0.000421705917688, Q4 : -0.000558628933504}
2019-04-14 17:07:21.71: SIM {TimeUS : 44935352, Roll : 0.04, Pitch : 0.04, Yaw : 359.93, Alt : 32.2799987793, Lat : 49.2835703, Lng : -123.1150207, Q1 : 0.999999701977, Q2 : 0.000424761790782, Q3 : 0.0003929802333, Q4 : -0.000555572099984}
2019-04-14 17:07:21.81: SIM {TimeUS : 45035312, Roll : 0.06, Pitch : 0.04, Yaw : 359.93, Alt : 32.4700012207, Lat : 49.2835703, Lng : -123.1150207, Q1 : 0.999999642372, Q2 : 0.000574987032451, Q3 : 0.000389663648093, Q4 : -0.000541107961908}
2019-04-14 17:07:21.91: SIM {TimeUS : 45135272, Roll : 0.1, Pitch : 0.05, Yaw : 359.94, Alt : 32.6699981689, Lat : 49.2835703, Lng : -123.1150208, Q1 : 0.999999344349, Q2 : 0.000942405720707, Q3 : 0.000467850273708, Q4 : -0.000516655039974}
2019-04-14 17:07:22.01: SIM {TimeUS : 45235232, Roll : 0.14, Pitch : 0.07, Yaw : 359.94, Alt : 32.8699989319, Lat : 49.2835704, Lng : -123.1150208, Q1 : 0.999998867512, Q2 : 0.00125397916418, Q3 : 0.000680381723214, Q4 : -0.000494834559504}
2019-04-14 17:07:22.11: SIM {TimeUS : 45335192, Roll : 0.16, Pitch : 0.1, Yaw : 359.94, Alt : 33.0699996948, Lat : 49.2835704, Lng : -123.1150208, Q1 : 0.999998450279, Q2 : 0.00142937607598, Q3 : 0.000935460615437, Q4 : -0.000479295558762}
2019-04-14 17:07:22.21: SIM {TimeUS : 45435152, Roll : 0.15, Pitch : 0.14, Yaw : 359.94, Alt : 33.2700004578, Lat : 49.2835704, Lng : -123.1150209, Q1 : 0.999998152256, Q2 : 0.00136876991019, Q3 : 0.00124943128321, Q4 : -0.000479439477203}
2019-04-14 17:07:22.31: SIM {TimeUS : 45535112, Roll : 0.16, Pitch : 0.18, Yaw : 359.94, Alt : 33.4700012207, Lat : 49.2835704, Lng : -123.1150209, Q1 : 0.999997615814, Q2 : 0.00141900556628, Q3 : 0.00157792214304, Q4 : -0.000495093641803}
2019-04-14 17:07:22.41: SIM {TimeUS : 45635072, Roll : 0.17, Pitch : 0.19, Yaw : 359.94, Alt : 33.6800003052, Lat : 49.2835704, Lng : -123.1150209, Q1 : 0.999997198582, Q2 : 0.00152091530617, Q3 : 0.00173329981044, Q4 : -0.000510233279783}
2019-04-14 17:07:22.51: SIM {TimeUS : 45735032, Roll : 0.18, Pitch : 0.2, Yaw : 359.94, Alt : 33.8899993896, Lat : 49.2835704, Lng : -123.1150209, Q1 : 0.999997079372, Q2 : 0.00158022658434, Q3 : 0.00174643867649, Q4 : -0.000522395595908}
2019-04-14 17:07:22.61: SIM {TimeUS : 45834992, Roll : 0.16, Pitch : 0.19, Yaw : 359.93, Alt : 34.0999984741, Lat : 49.2835704, Lng : -123.1150209, Q1 : 0.999997437, Q2 : 0.00143040216062, Q3 : 0.00166346586775, Q4 : -0.000542064255569}
2019-04-14 17:07:22.71: SIM {TimeUS : 45934952, Roll : 0.14, Pitch : 0.14, Yaw : 359.93, Alt : 34.3100013733, Lat : 49.2835704, Lng : -123.1150209, Q1 : 0.999998211861, Q2 : 0.00125050835777, Q3 : 0.00129199493676, Q4 : -0.000559190462809}
2019-04-14 17:07:22.81: SIM {TimeUS : 46034912, Roll : 0.12, Pitch : 0.08, Yaw : 359.93, Alt : 34.5200004578, Lat : 49.2835704, Lng : -123.1150209, Q1 : 0.999998986721, Q2 : 0.00108980515506, Q3 : 0.000750061764847, Q4 : -0.000564564135857}
2019-04-14 17:07:22.91: SIM {TimeUS : 46134872, Roll : 0.1, Pitch : 0.04, Yaw : 359.93, Alt : 34.7299995422, Lat : 49.2835704, Lng : -123.1150209, Q1 : 0.999999344349, Q2 : 0.000915302545764, Q3 : 0.000400368269766, Q4 : -0.00058240146609}
2019-04-14 17:07:23.01: SIM {TimeUS : 46234832, Roll : 0.08, Pitch : 0.03, Yaw : 359.92, Alt : 34.9500007629, Lat : 49.2835704, Lng : -123.1150209, Q1 : 0.999999463558, Q2 : 0.000758755893912, Q3 : 0.000265657639829, Q4 : -0.000616776873358}
2019-04-14 17:07:23.11: SIM {TimeUS : 46335625, Roll : 0.08, Pitch : 0.03, Yaw : 359.92, Alt : 35.1699981689, Lat : 49.2835704, Lng : -123.1150208, Q1 : 0.999999463558, Q2 : 0.000753988453653, Q3 : 0.000311748532113, Q4 : -0.00066644558683}
2019-04-14 17:07:23.21: SIM {TimeUS : 46435585, Roll : 0.07, Pitch : 0.02, Yaw : 359.91, Alt : 35.3800010681, Lat : 49.2835704, Lng : -123.1150208, Q1 : 0.999999523163, Q2 : 0.000659967015963, Q3 : 0.000210216923733, Q4 : -0.000714004563633}
2019-04-14 17:07:23.31: SIM {TimeUS : 46535545, Roll : 0.05, Pitch : 0.01, Yaw : 359.91, Alt : 35.5999984741, Lat : 49.2835704, Lng : -123.1150208, Q1 : 0.999999642372, Q2 : 0.00044093397446, Q3 : 0.000110028566269, Q4 : -0.000753245607484}
2019-04-14 17:07:23.41: SIM {TimeUS : 46635505, Roll : 0.02, Pitch : 0.0, Yaw : 359.9, Alt : 35.8199996948, Lat : 49.2835704, Lng : -123.1150208, Q1 : 0.999999642372, Q2 : 0.00023956928635, Q3 : 7.66767770983e-05, Q4 : -0.000788855424616}
2019-04-14 17:07:23.51: SIM {TimeUS : 46735465, Roll : 0.01, Pitch : 0.01, Yaw : 359.9, Alt : 36.0400009155, Lat : 49.2835704, Lng : -123.1150208, Q1 : 0.999999642372, Q2 : 0.000100307152024, Q3 : 0.000157802351168, Q4 : -0.000821118650492}
2019-04-14 17:07:23.61: SIM {TimeUS : 46835425, Roll : 0.0, Pitch : 0.01, Yaw : 359.9, Alt : 36.2599983215, Lat : 49.2835704, Lng : -123.1150207, Q1 : 0.999999642372, Q2 : -3.50064365193e-05, Q3 : 0.000153975677676, Q4 : -0.000850352516863}
2019-04-14 17:07:23.71: SIM {TimeUS : 46935385, Roll : -0.01, Pitch : 0.01, Yaw : 359.89, Alt : 36.4799995422, Lat : 49.2835704, Lng : -123.1150207, Q1 : 0.999999582767, Q2 : -0.000148505321704, Q3 : 8.98966900422e-05, Q4 : -0.000879734172486}
2019-04-14 17:07:23.81: SIM {TimeUS : 47035345, Roll : -0.02, Pitch : 0.0, Yaw : 359.89, Alt : 36.7099990845, Lat : 49.2835704, Lng : -123.1150207, Q1 : 0.999999582767, Q2 : -0.000205702643143, Q3 : -2.29141587624e-05, Q4 : -0.000903060543351}
2019-04-14 17:07:23.91: SIM {TimeUS : 47135305, Roll : -0.01, Pitch : -0.01, Yaw : 359.89, Alt : 36.9300003052, Lat : 49.2835704, Lng : -123.1150207, Q1 : 0.999999582767, Q2 : -0.000155009023729, Q3 : -0.000154696113896, Q4 : -0.000918555946555}
2019-04-14 17:07:24.01: SIM {TimeUS : 47235265, Roll : 0.0, Pitch : -0.03, Yaw : 359.89, Alt : 37.1500015259, Lat : 49.2835704, Lng : -123.1150207, Q1 : 0.999999523163, Q2 : 2.19532303163e-05, Q3 : -0.000329575617798, Q4 : -0.000930083217099}
2019-04-14 17:07:24.11: SIM {TimeUS : 47335225, Roll : 0.0, Pitch : -0.06, Yaw : 359.89, Alt : 37.3800010681, Lat : 49.2835704, Lng : -123.1150207, Q1 : 0.999999403954, Q2 : 3.00635656458e-05, Q3 : -0.000534368504304, Q4 : -0.000933347502723}
2019-04-14 17:07:24.21: SIM {TimeUS : 47435185, Roll : -0.02, Pitch : -0.08, Yaw : 359.89, Alt : 37.5999984741, Lat : 49.2835704, Lng : -123.1150206, Q1 : 0.999999284744, Q2 : -0.000186636534636, Q3 : -0.000729841354769, Q4 : -0.000936018303037}
2019-04-14 17:07:24.31: SIM {TimeUS : 47535145, Roll : -0.05, Pitch : -0.09, Yaw : 359.89, Alt : 37.8300018311, Lat : 49.2835704, Lng : -123.1150206, Q1 : 0.99999910593, Q2 : -0.000515163177624, Q3 : -0.000797865912318, Q4 : -0.000942469807342}
2019-04-14 17:07:24.41: SIM {TimeUS : 47635105, Roll : -0.09, Pitch : -0.07, Yaw : 359.89, Alt : 38.0600013733, Lat : 49.2835704, Lng : -123.1150206, Q1 : 0.999998927116, Q2 : -0.000863800116349, Q3 : -0.000693865877111, Q4 : -0.000953064998612}
2019-04-14 17:07:24.51: SIM {TimeUS : 47735065, Roll : -0.12, Pitch : -0.06, Yaw : 359.88, Alt : 38.2799987793, Lat : 49.2835704, Lng : -123.1150206, Q1 : 0.999998748302, Q2 : -0.00111108319834, Q3 : -0.000553440535441, Q4 : -0.000965787039604}
2019-04-14 17:07:24.61: SIM {TimeUS : 47835025, Roll : -0.13, Pitch : -0.04, Yaw : 359.88, Alt : 38.5099983215, Lat : 49.2835704, Lng : -123.1150206, Q1 : 0.999998807907, Q2 : -0.00115882768296, Q3 : -0.000409268977819, Q4 : -0.000974100257736}
2019-04-14 17:07:24.71: SIM {TimeUS : 47934985, Roll : -0.11, Pitch : -0.02, Yaw : 359.88, Alt : 38.7400016785, Lat : 49.2835704, Lng : -123.1150206, Q1 : 0.999998986721, Q2 : -0.00100145454053, Q3 : -0.000230740959523, Q4 : -0.000990375410765}
2019-04-14 17:07:24.81: SIM {TimeUS : 48034945, Roll : -0.08, Pitch : -0.02, Yaw : 359.88, Alt : 38.9700012207, Lat : 49.2835704, Lng : -123.1150206, Q1 : 0.999999165535, Q2 : -0.000733538763598, Q3 : -0.000245814182563, Q4 : -0.00101447897032}
2019-04-14 17:07:24.91: SIM {TimeUS : 48134905, Roll : -0.06, Pitch : -0.03, Yaw : 359.87, Alt : 39.2000007629, Lat : 49.2835704, Lng : -123.1150206, Q1 : 0.99999922514, Q2 : -0.000556602084544, Q3 : -0.000321406754665, Q4 : -0.00104920356534}
2019-04-14 17:07:25.01: SIM {TimeUS : 48234865, Roll : -0.05, Pitch : -0.02, Yaw : 359.87, Alt : 39.4300003052, Lat : 49.2835706, Lng : -123.1150206, Q1 : 0.999999284744, Q2 : -0.000464756594738, Q3 : -0.000210893791518, Q4 : -0.00107528024819}
2019-04-14 17:07:25.11: SIM {TimeUS : 48334825, Roll : -0.06, Pitch : 0.0, Yaw : 359.87, Alt : 39.6599998474, Lat : 49.2835706, Lng : -123.1150206, Q1 : 0.99999922514, Q2 : -0.000573884812184, Q3 : 4.70489248983e-05, Q4 : -0.00109817588236}
2019-04-14 17:07:25.21: SIM {TimeUS : 48435618, Roll : -0.06, Pitch : 0.03, Yaw : 359.87, Alt : 39.8899993896, Lat : 49.2835706, Lng : -123.1150206, Q1 : 0.999999165535, Q2 : -0.000543280912098, Q3 : 0.000341961684171, Q4 : -0.0011261953041}
2019-04-14 17:07:25.31: SIM {TimeUS : 48535578, Roll : -0.04, Pitch : 0.07, Yaw : 359.86, Alt : 40.1199989319, Lat : 49.2835706, Lng : -123.1150206, Q1 : 0.999999046326, Q2 : -0.000382514990633, Q3 : 0.000690117652994, Q4 : -0.00115690683015}
2019-04-14 17:07:25.41: SIM {TimeUS : 48635538, Roll : -0.02, Pitch : 0.08, Yaw : 359.86, Alt : 40.3600006104, Lat : 49.2835706, Lng : -123.1150206, Q1 : 0.999998986721, Q2 : -0.000236444670008, Q3 : 0.000761771516409, Q4 : -0.00117963482626}
2019-04-14 17:07:25.51: SIM {TimeUS : 48735498, Roll : 0.0, Pitch : 0.08, Yaw : 359.86, Alt : 40.5900001526, Lat : 49.2835706, Lng : -123.1150206, Q1 : 0.999998986721, Q2 : -1.168181916e-05, Q3 : 0.00078407023102, Q4 : -0.00119690154679}
2019-04-14 17:07:25.61: SIM {TimeUS : 48835458, Roll : 0.03, Pitch : 0.11, Yaw : 359.86, Alt : 40.8199996948, Lat : 49.2835706, Lng : -123.1150206, Q1 : 0.999998748302, Q2 : 0.000293186836643, Q3 : 0.000962395046372, Q4 : -0.00121370411944}
2019-04-14 17:07:25.71: SIM {TimeUS : 48935418, Roll : 0.07, Pitch : 0.14, Yaw : 359.85, Alt : 41.0499992371, Lat : 49.2835706, Lng : -123.1150206, Q1 : 0.999998152256, Q2 : 0.000698232732248, Q3 : 0.00129825610202, Q4 : -0.00123644887935}
2019-04-14 17:07:25.81: SIM {TimeUS : 49035378, Roll : 0.1, Pitch : 0.18, Yaw : 359.85, Alt : 41.2900009155, Lat : 49.2835706, Lng : -123.1150206, Q1 : 0.999997437, Q2 : 0.000929449568503, Q3 : 0.00162766512949, Q4 : -0.00126160751097}
2019-04-14 17:07:25.91: SIM {TimeUS : 49135338, Roll : 0.09, Pitch : 0.21, Yaw : 359.85, Alt : 41.5200004578, Lat : 49.2835706, Lng : -123.1150206, Q1 : 0.999997138977, Q2 : 0.00079822022235, Q3 : 0.00184822711162, Q4 : -0.00127774977591}
2019-04-14 17:07:26.01: SIM {TimeUS : 49235298, Roll : 0.04, Pitch : 0.22, Yaw : 359.85, Alt : 41.75, Lat : 49.2835706, Lng : -123.1150206, Q1 : 0.999997198582, Q2 : 0.000380231038434, Q3 : 0.0019539904315, Q4 : -0.00129297946114}
2019-04-14 17:07:26.11: SIM {TimeUS : 49335258, Roll : 0.0, Pitch : 0.22, Yaw : 359.84, Alt : 41.9900016785, Lat : 49.2835706, Lng : -123.1150206, Q1 : 0.999997258186, Q2 : -3.81026220566e-05, Q3 : 0.00195271603297, Q4 : -0.00131069787312}
2019-04-14 17:07:26.21: SIM {TimeUS : 49435218, Roll : -0.02, Pitch : 0.18, Yaw : 359.84, Alt : 42.2200012207, Lat : 49.2835706, Lng : -123.1150206, Q1 : 0.999997735023, Q2 : -0.000208765064599, Q3 : 0.00165745802224, Q4 : -0.00132914609276}
2019-04-14 17:07:26.31: SIM {TimeUS : 49535178, Roll : -0.02, Pitch : 0.14, Yaw : 359.84, Alt : 42.4500007629, Lat : 49.2835706, Lng : -123.1150206, Q1 : 0.999998271465, Q2 : -0.000222306727665, Q3 : 0.0012732957257, Q4 : -0.00134585960768}
2019-04-14 17:07:26.41: SIM {TimeUS : 49635138, Roll : -0.01, Pitch : 0.13, Yaw : 359.84, Alt : 42.6899986267, Lat : 49.2835706, Lng : -123.1150206, Q1 : 0.999998390675, Q2 : -0.000136771501275, Q3 : 0.00116049568169, Q4 : -0.00136721006129}
2019-04-14 17:07:26.51: SIM {TimeUS : 49735098, Roll : 0.01, Pitch : 0.14, Yaw : 359.83, Alt : 42.9199981689, Lat : 49.2835706, Lng : -123.1150206, Q1 : 0.999998271465, Q2 : 0.00014073868806, Q3 : 0.00123563420493, Q4 : -0.00139705394395}
2019-04-14 17:07:26.61: SIM {TimeUS : 49835058, Roll : 0.06, Pitch : 0.15, Yaw : 359.83, Alt : 43.1599998474, Lat : 49.2835704, Lng : -123.1150206, Q1 : 0.999997973442, Q2 : 0.00058052118402, Q3 : 0.00133058347274, Q4 : -0.00142264633905}
2019-04-14 17:07:26.71: SIM {TimeUS : 49935018, Roll : 0.1, Pitch : 0.13, Yaw : 359.83, Alt : 43.3899993896, Lat : 49.2835704, Lng : -123.1150206, Q1 : 0.999997794628, Q2 : 0.000929079193156, Q3 : 0.00119999155868, Q4 : -0.00145283574238}
2019-04-14 17:07:26.81: SIM {TimeUS : 50034978, Roll : 0.1, Pitch : 0.11, Yaw : 359.83, Alt : 43.6300010681, Lat : 49.2835704, Lng : -123.1150206, Q1 : 0.999997973442, Q2 : 0.000959007011261, Q3 : 0.000981309218332, Q4 : -0.00148083746899}
2019-04-14 17:07:26.91: SIM {TimeUS : 50134938, Roll : 0.07, Pitch : 0.09, Yaw : 359.82, Alt : 43.8699989319, Lat : 49.2835704, Lng : -123.1150206, Q1 : 0.999998390675, Q2 : 0.000615583325271, Q3 : 0.00082404440036, Q4 : -0.00149108225014}
2019-04-14 17:07:27.01: SIM {TimeUS : 50234898, Roll : 0.01, Pitch : 0.08, Yaw : 359.82, Alt : 44.0999984741, Lat : 49.2835704, Lng : -123.1150206, Q1 : 0.999998629093, Q2 : 0.000127412291477, Q3 : 0.000707695318852, Q4 : -0.00149897788651}
2019-04-14 17:07:27.11: SIM {TimeUS : 50334858, Roll : -0.02, Pitch : 0.07, Yaw : 359.82, Alt : 44.3400001526, Lat : 49.2835704, Lng : -123.1150206, Q1 : 0.999998629093, Q2 : -0.000238751730649, Q3 : 0.000640527403448, Q4 : -0.00151307601482}
2019-04-14 17:07:27.21: SIM {TimeUS : 50434818, Roll : -0.04, Pitch : 0.05, Yaw : 359.82, Alt : 44.5699996948, Lat : 49.2835703, Lng : -123.1150206, Q1 : 0.999998629093, Q2 : -0.000425607082434, Q3 : 0.000462232274003, Q4 : -0.001535465708}
2019-04-14 17:07:27.31: SIM {TimeUS : 50535611, Roll : -0.04, Pitch : 0.01, Yaw : 359.82, Alt : 44.8100013733, Lat : 49.2835703, Lng : -123.1150206, Q1 : 0.999998688698, Q2 : -0.000404897728004, Q3 : 0.000160818555742, Q4 : -0.00156295020133}
2019-04-14 17:07:27.41: SIM {TimeUS : 50635571, Roll : -0.04, Pitch : 0.0, Yaw : 359.81, Alt : 45.0499992371, Lat : 49.2835703, Lng : -123.1150206, Q1 : 0.999998629093, Q2 : -0.00042716372991, Q3 : -7.39796523703e-05, Q4 : -0.00159410980996}
2019-04-14 17:07:27.51: SIM {TimeUS : 50735531, Roll : -0.04, Pitch : -0.02, Yaw : 359.81, Alt : 45.2799987793, Lat : 49.2835703, Lng : -123.1150205, Q1 : 0.999998569489, Q2 : -0.000394151487853, Q3 : -0.000206107040867, Q4 : -0.00163241103292}
2019-04-14 17:07:27.61: SIM {TimeUS : 50835491, Roll : -0.03, Pitch : -0.02, Yaw : 359.8, Alt : 45.5200004578, Lat : 49.2835703, Lng : -123.1150205, Q1 : 0.999998569489, Q2 : -0.000272389734164, Q3 : -0.000225954543566, Q4 : -0.00167262216564}
2019-04-14 17:07:27.71: SIM {TimeUS : 50935451, Roll : -0.02, Pitch : -0.01, Yaw : 359.8, Alt : 45.75, Lat : 49.2835703, Lng : -123.1150205, Q1 : 0.999998509884, Q2 : -0.000230436446145, Q3 : -0.000143854747876, Q4 : -0.00171553983819}
2019-04-14 17:07:27.81: SIM {TimeUS : 51035411, Roll : -0.02, Pitch : -0.01, Yaw : 359.79, Alt : 45.9799995422, Lat : 49.2835703, Lng : -123.1150205, Q1 : 0.999998390675, Q2 : -0.000252042256761, Q3 : -0.000131249646074, Q4 : -0.00176005042158}
2019-04-14 17:07:27.91: SIM {TimeUS : 51135371, Roll : -0.02, Pitch : -0.03, Yaw : 359.79, Alt : 46.2099990845, Lat : 49.2835703, Lng : -123.1150205, Q1 : 0.999998271465, Q2 : -0.000259384483797, Q3 : -0.000271084660199, Q4 : -0.00180561526213}
2019-04-14 17:07:28.01: SIM {TimeUS : 51235331, Roll : -0.02, Pitch : -0.04, Yaw : 359.78, Alt : 46.4399986267, Lat : 49.2835703, Lng : -123.1150205, Q1 : 0.999998211861, Q2 : -0.000232552076341, Q3 : -0.000375775649445, Q4 : -0.00184535211883}
2019-04-14 17:07:28.11: SIM {TimeUS : 51335291, Roll : -0.01, Pitch : -0.04, Yaw : 359.78, Alt : 46.6599998474, Lat : 49.2835703, Lng : -123.1150205, Q1 : 0.999998152256, Q2 : -0.000154223729623, Q3 : -0.000434447894804, Q4 : -0.00187747762538}
2019-04-14 17:07:28.21: SIM {TimeUS : 51435251, Roll : -0.02, Pitch : -0.05, Yaw : 359.78, Alt : 46.8699989319, Lat : 49.2835703, Lng : -123.1150205, Q1 : 0.999998033047, Q2 : -0.000204916068469, Q3 : -0.000456605601357, Q4 : -0.00190348958131}
2019-04-14 17:07:28.31: SIM {TimeUS : 51535211, Roll : -0.04, Pitch : -0.04, Yaw : 359.77, Alt : 47.0800018311, Lat : 49.2835703, Lng : -123.1150205, Q1 : 0.999997973442, Q2 : -0.000393558933865, Q3 : -0.000415736198192, Q4 : -0.00192720198538}
2019-04-14 17:07:28.41: SIM {TimeUS : 51635171, Roll : -0.08, Pitch : -0.04, Yaw : 359.77, Alt : 47.2799987793, Lat : 49.2835703, Lng : -123.1150205, Q1 : 0.999997794628, Q2 : -0.000703626719769, Q3 : -0.000372448907001, Q4 : -0.00194616860244}
2019-04-14 17:07:28.51: SIM {TimeUS : 51735131, Roll : -0.1, Pitch : -0.03, Yaw : 359.77, Alt : 47.4700012207, Lat : 49.2835703, Lng : -123.1150205, Q1 : 0.99999755621, Q2 : -0.000949396169744, Q3 : -0.000312161777401, Q4 : -0.00196196790785}
2019-04-14 17:07:28.61: SIM {TimeUS : 51835091, Roll : -0.13, Pitch : -0.03, Yaw : 359.77, Alt : 47.6599998474, Lat : 49.2835703, Lng : -123.1150205, Q1 : 0.999997377396, Q2 : -0.00115707411896, Q3 : -0.000261815846898, Q4 : -0.00197577197105}
2019-04-14 17:07:28.71: SIM {TimeUS : 51935051, Roll : -0.15, Pitch : -0.03, Yaw : 359.77, Alt : 47.8300018311, Lat : 49.2835703, Lng : -123.1150205, Q1 : 0.999997019768, Q2 : -0.00139689457137, Q3 : -0.000333563657477, Q4 : -0.0019894617144}
2019-04-14 17:07:28.81: SIM {TimeUS : 52035011, Roll : -0.16, Pitch : -0.04, Yaw : 359.77, Alt : 47.9900016785, Lat : 49.2835703, Lng : -123.1150205, Q1 : 0.999996960163, Q2 : -0.00141070480458, Q3 : -0.000353223964339, Q4 : -0.00200727023184}
2019-04-14 17:07:28.91: SIM {TimeUS : 52134971, Roll : -0.14, Pitch : -0.03, Yaw : 359.76, Alt : 48.1399993896, Lat : 49.2835703, Lng : -123.1150205, Q1 : 0.999997138977, Q2 : -0.00123936904129, Q3 : -0.000289594085189, Q4 : -0.00202828808688}
2019-04-14 17:07:29.01: SIM {TimeUS : 52234931, Roll : -0.11, Pitch : -0.02, Yaw : 359.76, Alt : 48.2700004578, Lat : 49.2835703, Lng : -123.1150205, Q1 : 0.999997317791, Q2 : -0.00103690265678, Q3 : -0.000235748288105, Q4 : -0.00205446942709}
2019-04-14 17:07:29.11: SIM {TimeUS : 52334891, Roll : -0.08, Pitch : -0.03, Yaw : 359.76, Alt : 48.4000015259, Lat : 49.2835703, Lng : -123.1150205, Q1 : 0.999997496605, Q2 : -0.000733628054149, Q3 : -0.000283796398435, Q4 : -0.00208558887243}
2019-04-14 17:07:29.21: SIM {TimeUS : 52434851, Roll : -0.04, Pitch : -0.04, Yaw : 359.75, Alt : 48.5099983215, Lat : 49.2835703, Lng : -123.1150205, Q1 : 0.999997615814, Q2 : -0.000372984533897, Q3 : -0.000380377023248, Q4 : -0.00211985013448}
2019-04-14 17:07:29.31: SIM {TimeUS : 52535644, Roll : -0.02, Pitch : -0.05, Yaw : 359.75, Alt : 48.6100006104, Lat : 49.2835703, Lng : -123.1150205, Q1 : 0.99999755621, Q2 : -0.000197987203137, Q3 : -0.000494625535794, Q4 : -0.0021557030268}
2019-04-14 17:07:29.41: SIM {TimeUS : 52635604, Roll : -0.02, Pitch : -0.06, Yaw : 359.75, Alt : 48.7000007629, Lat : 49.2835703, Lng : -123.1150205, Q1 : 0.999997437, Q2 : -0.000201133239898, Q3 : -0.000610404706094, Q4 : -0.00217748503201}
2019-04-14 17:07:29.51: SIM {TimeUS : 52735564, Roll : 0.0, Pitch : -0.06, Yaw : 359.74, Alt : 48.7799987793, Lat : 49.2835703, Lng : -123.1150205, Q1 : 0.999997437, Q2 : -4.79986993014e-05, Q3 : -0.000571177515667, Q4 : -0.00219633523375}
2019-04-14 17:07:29.61: SIM {TimeUS : 52835524, Roll : 0.02, Pitch : -0.04, Yaw : 359.74, Alt : 48.8499984741, Lat : 49.2835703, Lng : -123.1150206, Q1 : 0.999997437, Q2 : 0.000188014964806, Q3 : -0.000407500425354, Q4 : -0.00222249864601}
2019-04-14 17:07:29.71: SIM {TimeUS : 52935484, Roll : 0.04, Pitch : -0.02, Yaw : 359.74, Alt : 48.9000015259, Lat : 49.2835703, Lng : -123.1150206, Q1 : 0.999997377396, Q2 : 0.000418573676143, Q3 : -0.000207220509765, Q4 : -0.00225073168986}
2019-04-14 17:07:29.81: SIM {TimeUS : 53035444, Roll : 0.06, Pitch : 0.0, Yaw : 359.73, Alt : 48.9500007629, Lat : 49.2835703, Lng : -123.1150206, Q1 : 0.999997258186, Q2 : 0.000571563432459, Q3 : 3.3591089732e-07, Q4 : -0.00227888510562}
2019-04-14 17:07:29.91: SIM {TimeUS : 53135404, Roll : 0.07, Pitch : 0.01, Yaw : 359.73, Alt : 49.0, Lat : 49.2835703, Lng : -123.1150206, Q1 : 0.999997138977, Q2 : 0.000661871803459, Q3 : 0.00011050215835, Q4 : -0.0023057567887}
2019-04-14 17:07:30.01: SIM {TimeUS : 53235364, Roll : 0.06, Pitch : 0.0, Yaw : 359.73, Alt : 49.0299987793, Lat : 49.2835703, Lng : -123.1150206, Q1 : 0.999997079372, Q2 : 0.000607637106441, Q3 : -2.41173415816e-06, Q4 : -0.00234159477986}
2019-04-14 17:07:30.11: SIM {TimeUS : 53335324, Roll : 0.04, Pitch : -0.01, Yaw : 359.72, Alt : 49.0600013733, Lat : 49.2835703, Lng : -123.1150206, Q1 : 0.999997079372, Q2 : 0.000378355151042, Q3 : -0.000131166932988, Q4 : -0.00237627513707}
2019-04-14 17:07:30.21: SIM {TimeUS : 53435284, Roll : 0.01, Pitch : -0.01, Yaw : 359.72, Alt : 49.0900001526, Lat : 49.2835703, Lng : -123.1150206, Q1 : 0.999997079372, Q2 : 0.000173182939761, Q3 : -0.000142663280712, Q4 : -0.00241001695395}
2019-04-14 17:07:30.31: SIM {TimeUS : 53535244, Roll : 0.0, Pitch : 0.0, Yaw : 359.72, Alt : 49.1100006104, Lat : 49.2835703, Lng : -123.1150206, Q1 : 0.999997019768, Q2 : 2.29233173741e-05, Q3 : -8.72254604474e-05, Q4 : -0.0024393692147}
2019-04-14 17:07:30.41: SIM {TimeUS : 53635204, Roll : 0.0, Pitch : 0.0, Yaw : 359.71, Alt : 49.1300010681, Lat : 49.2835703, Lng : -123.1150206, Q1 : 0.999996960163, Q2 : 4.94680862175e-05, Q3 : 1.96596374735e-05, Q4 : -0.00246289581992}
2019-04-14 17:07:30.51: SIM {TimeUS : 53735164, Roll : 0.11, Pitch : -0.05, Yaw : 359.71, Alt : 49.1500015259, Lat : 49.2835703, Lng : -123.1150206, Q1 : 0.999996304512, Q2 : 0.000993827008642, Q3 : -0.000444285338745, Q4 : -0.00247881538235}
2019-04-14 17:07:30.61: SIM {TimeUS : 53835124, Roll : 0.4, Pitch : -0.27, Yaw : 359.71, Alt : 49.1699981689, Lat : 49.2835703, Lng : -123.1150206, Q1 : 0.999987840652, Q2 : 0.00350518501364, Q3 : -0.00241669686511, Q4 : -0.00249333656393}
2019-04-14 17:07:30.71: SIM {TimeUS : 53935084, Roll : 0.87, Pitch : -0.71, Yaw : 359.7, Alt : 49.1800003052, Lat : 49.2835703, Lng : -123.1150206, Q1 : 0.999947965145, Q2 : 0.00763050140813, Q3 : -0.00629327213392, Q4 : -0.00250572618097}
2019-04-14 17:07:30.81: SIM {TimeUS : 54035044, Roll : 1.49, Pitch : -1.32, Yaw : 359.69, Alt : 49.1899986267, Lat : 49.2835703, Lng : -123.1150206, Q1 : 0.999844014645, Q2 : 0.0130531657487, Q3 : -0.0116300294176, Q4 : -0.0025104850065}
2019-04-14 17:07:30.91: SIM {TimeUS : 54135004, Roll : 2.21, Pitch : -2.05, Yaw : 359.67, Alt : 49.2000007629, Lat : 49.2835703, Lng : -123.1150206, Q1 : 0.999649643898, Q2 : 0.0193016584963, Q3 : -0.0179419200867, Q4 : -0.00248079234734}
2019-04-14 17:07:31.01: SIM {TimeUS : 54234964, Roll : 2.94, Pitch : -2.77, Yaw : 359.65, Alt : 49.2099990845, Lat : 49.2835704, Lng : -123.1150204, Q1 : 0.999373733997, Q2 : 0.025624345988, Q3 : -0.0242850799114, Q4 : -0.00239755911753}
2019-04-14 17:07:31.11: SIM {TimeUS : 54334924, Roll : 3.57, Pitch : -3.38, Yaw : 359.63, Alt : 49.2200012207, Lat : 49.2835706, Lng : -123.1150203, Q1 : 0.999076008797, Q2 : 0.0310866553336, Q3 : -0.0295944195241, Q4 : -0.00224032532424}
2019-04-14 17:07:31.21: SIM {TimeUS : 54434884, Roll : 4.06, Pitch : -3.83, Yaw : 359.63, Alt : 49.2200012207, Lat : 49.2835708, Lng : -123.11502, Q1 : 0.998810172081, Q2 : 0.0352992638946, Q3 : -0.0335889682174, Q4 : -0.0020162279252}
2019-04-14 17:07:31.31: SIM {TimeUS : 54534844, Roll : 4.41, Pitch : -4.16, Yaw : 359.63, Alt : 49.2299995422, Lat : 49.2835709, Lng : -123.1150198, Q1 : 0.998596549034, Q2 : 0.0383974723518, Q3 : -0.0364352241158, Q4 : -0.00175584759563}
2019-04-14 17:07:31.41: SIM {TimeUS : 54635637, Roll : 4.69, Pitch : -4.41, Yaw : 359.64, Alt : 49.2400016785, Lat : 49.2835712, Lng : -123.1150194, Q1 : 0.998420894146, Q2 : 0.0408022925258, Q3 : -0.0385838076472, Q4 : -0.00147969229147}
2019-04-14 17:07:31.51: SIM {TimeUS : 54735597, Roll : 4.93, Pitch : -4.65, Yaw : 359.66, Alt : 49.2400016785, Lat : 49.2835715, Lng : -123.115019, Q1 : 0.998251438141, Q2 : 0.0428578555584, Q3 : -0.0406911186874, Q4 : -0.00121346290689}
2019-04-14 17:07:31.61: SIM {TimeUS : 54835557, Roll : 5.2, Pitch : -4.92, Yaw : 359.66, Alt : 49.25, Lat : 49.2835718, Lng : -123.1150184, Q1 : 0.99804764986, Q2 : 0.0451997108757, Q3 : -0.0430930703878, Q4 : -0.000946619780734}
2019-04-14 17:07:31.71: SIM {TimeUS : 54935517, Roll : 5.5, Pitch : -5.2, Yaw : 359.67, Alt : 49.25, Lat : 49.2835721, Lng : -123.1150178, Q1 : 0.997818470001, Q2 : 0.0478018783033, Q3 : -0.0455288589001, Q4 : -0.000661425758153}
2019-04-14 17:07:31.81: SIM {TimeUS : 55035477, Roll : 5.75, Pitch : -5.43, Yaw : 359.68, Alt : 49.25, Lat : 49.2835727, Lng : -123.115017, Q1 : 0.997619688511, Q2 : 0.049972563982, Q3 : -0.0475133322179, Q4 : -0.000382831523893}
2019-04-14 17:07:31.91: SIM {TimeUS : 55135437, Roll : 5.93, Pitch : -5.6, Yaw : 359.69, Alt : 49.2599983215, Lat : 49.2835732, Lng : -123.1150162, Q1 : 0.997468292713, Q2 : 0.0515372864902, Q3 : -0.0489989221096, Q4 : -0.000136780043249}
2019-04-14 17:07:32.01: SIM {TimeUS : 55235397, Roll : 6.04, Pitch : -5.73, Yaw : 359.7, Alt : 49.2599983215, Lat : 49.2835737, Lng : -123.1150153, Q1 : 0.997361779213, Q2 : 0.0525164529681, Q3 : -0.0501162707806, Q4 : 5.88189541304e-05}
2019-04-14 17:07:32.11: SIM {TimeUS : 55335357, Roll : 6.13, Pitch : -5.82, Yaw : 359.71, Alt : 49.2599983215, Lat : 49.2835743, Lng : -123.1150143, Q1 : 0.997279703617, Q2 : 0.053315795958, Q3 : -0.0508977733552, Q4 : 0.000204790543648}
2019-04-14 17:07:32.21: SIM {TimeUS : 55435317, Roll : 6.22, Pitch : -5.89, Yaw : 359.71, Alt : 49.2700004578, Lat : 49.283575, Lng : -123.1150133, Q1 : 0.997207283974, Q2 : 0.0540899969637, Q3 : -0.0514958202839, Q4 : 0.000299069739413}
2019-04-14 17:07:32.31: SIM {TimeUS : 55535277, Roll : 6.37, Pitch : -5.96, Yaw : 359.72, Alt : 49.2700004578, Lat : 49.2835757, Lng : -123.1150121, Q1 : 0.99710214138, Q2 : 0.0554457046092, Q3 : -0.0520857460797, Q4 : 0.00048163428437}
2019-04-14 17:07:32.41: SIM {TimeUS : 55635237, Roll : 6.77, Pitch : -5.92, Yaw : 359.98, Alt : 49.2700004578, Lat : 49.2835764, Lng : -123.1150109, Q1 : 0.996916472912, Q2 : 0.0590273998678, Q3 : -0.0516194812953, Q4 : 0.00296347262338}
2019-04-14 17:07:32.51: SIM {TimeUS : 55735197, Roll : 7.42, Pitch : -5.82, Yaw : 1.13, Alt : 49.2700004578, Lat : 49.2835771, Lng : -123.1150096, Q1 : 0.996531128883, Q2 : 0.0651848390698, Q3 : -0.050024010241, Q4 : 0.0131983552128}
2019-04-14 17:07:32.61: SIM {TimeUS : 55835157, Roll : 8.04, Pitch : -5.92, Yaw : 3.75, Alt : 49.2700004578, Lat : 49.283578, Lng : -123.1150082, Q1 : 0.995550334454, Q2 : 0.0716816037893, Q3 : -0.0492503382266, Q4 : 0.0362721420825}
2019-04-14 17:07:32.71: SIM {TimeUS : 55935117, Roll : 8.31, Pitch : -6.45, Yaw : 7.96, Alt : 49.2700004578, Lat : 49.2835788, Lng : -123.1150067, Q1 : 0.993099808693, Q2 : 0.0760988146067, Q3 : -0.0509986691177, Q4 : 0.0732182189822}
2019-04-14 17:07:32.81: SIM {TimeUS : 56035077, Roll : 8.03, Pitch : -7.41, Yaw : 13.6, Alt : 49.2700004578, Lat : 49.2835798, Lng : -123.1150051, Q1 : 0.987911701202, Q2 : 0.0770613625646, Q3 : -0.0557680465281, Q4 : 0.1224007532}
2019-04-14 17:07:32.91: SIM {TimeUS : 56135037, Roll : 7.1, Pitch : -8.69, Yaw : 20.43, Alt : 49.2700004578, Lat : 49.2835806, Lng : -123.1150034, Q1 : 0.978595972061, Q2 : 0.0742121785879, Q3 : -0.0635454580188, Q4 : 0.181120038033}
2019-04-14 17:07:33.01: SIM {TimeUS : 56234997, Roll : 5.52, Pitch : -10.11, Yaw : 28.18, Alt : 49.2700004578, Lat : 49.2835816, Lng : -123.1150016, Q1 : 0.963981389999, Q2 : 0.0679763779044, Q3 : -0.0737259984016, Q4 : 0.24634039402}
2019-04-14 17:07:33.11: SIM {TimeUS : 56334957, Roll : 3.15, Pitch : -11.42, Yaw : 36.49, Alt : 49.2799987793, Lat : 49.2835825, Lng : -123.1149996, Q1 : 0.943778514862, Q2 : 0.0571707710624, Q3 : -0.0859140306711, Q4 : 0.314057976007}
2019-04-14 17:07:33.21: SIM {TimeUS : 56434917, Roll : 0.08, Pitch : -12.34, Yaw : 44.65, Alt : 49.2799987793, Lat : 49.2835836, Lng : -123.1149976, Q1 : 0.919643342495, Q2 : 0.0415314212441, Q3 : -0.0991807952523, Q4 : 0.377749085426}
2019-04-14 17:07:33.31: SIM {TimeUS : 56534877, Roll : -3.1, Pitch : -12.76, Yaw : 51.76, Alt : 49.2799987793, Lat : 49.2835847, Lng : -123.1149955, Q1 : 0.895101308823, Q2 : 0.0243040118366, Q3 : -0.111689023674, Q4 : 0.430962353945}
2019-04-14 17:07:33.41: SIM {TimeUS : 56634837, Roll : -5.73, Pitch : -12.76, Yaw : 57.14, Alt : 49.2799987793, Lat : 49.2835858, Lng : -123.1149933, Q1 : 0.874318540096, Q2 : 0.00946840830147, Q3 : -0.121298678219, Q4 : 0.469855368137}
2019-04-14 17:07:33.51: SIM {TimeUS : 56735630, Roll : -7.38, Pitch : -12.6, Yaw : 60.53, Alt : 49.2799987793, Lat : 49.2835871, Lng : -123.1149911, Q1 : 0.860235452652, Q2 : -3.6082121369e-05, Q3 : -0.126893416047, Q4 : 0.493855267763}
2019-04-14 17:07:33.61: SIM {TimeUS : 56835590, Roll : -7.93, Pitch : -12.51, Yaw : 61.98, Alt : 49.2799987793, Lat : 49.2835885, Lng : -123.1149889, Q1 : 0.853989958763, Q2 : -0.00296083581634, Q3 : -0.128623068333, Q4 : 0.504131495953}
2019-04-14 17:07:33.71: SIM {TimeUS : 56935550, Roll : -7.56, Pitch : -12.63, Yaw : 61.82, Alt : 49.2799987793, Lat : 49.2835899, Lng : -123.1149866, Q1 : 0.854612052441, Q2 : 0.000162906144396, Q3 : -0.12784640491, Q4 : 0.503282785416}
2019-04-14 17:07:33.81: SIM {TimeUS : 57035510, Roll : -6.49, Pitch : -13.0, Yaw : 60.43, Alt : 49.2799987793, Lat : 49.2835916, Lng : -123.1149843, Q1 : 0.860416352749, Q2 : 0.00825158227235, Q3 : -0.126068532467, Q4 : 0.493682444096}
2019-04-14 17:07:33.91: SIM {TimeUS : 57135470, Roll : -4.98, Pitch : -13.59, Yaw : 58.14, Alt : 49.2799987793, Lat : 49.2835933, Lng : -123.114982, Q1 : 0.869529783726, Q2 : 0.0197680816054, Q3 : -0.124350361526, Q4 : 0.477560698986}
2019-04-14 17:07:34.01: SIM {TimeUS : 57235430, Roll : -3.23, Pitch : -14.28, Yaw : 55.28, Alt : 49.2799987793, Lat : 49.283595, Lng : -123.1149796, Q1 : 0.880264520645, Q2 : 0.0328999049962, Q3 : -0.123096711934, Q4 : 0.457054913044}
2019-04-14 17:07:34.11: SIM {TimeUS : 57335390, Roll : -1.42, Pitch : -14.92, Yaw : 52.15, Alt : 49.2799987793, Lat : 49.2835968, Lng : -123.1149771, Q1 : 0.891240119934, Q2 : 0.04601431638, Q3 : -0.122103750706, Q4 : 0.434355169535}
2019-04-14 17:07:34.21: SIM {TimeUS : 57435350, Roll : 0.25, Pitch : -15.42, Yaw : 49.07, Alt : 49.2799987793, Lat : 49.2835986, Lng : -123.1149745, Q1 : 0.901333510876, Q2 : 0.057734336704, Q3 : -0.121134243906, Q4 : 0.411814421415}
2019-04-14 17:07:34.31: SIM {TimeUS : 57535310, Roll : 1.67, Pitch : -15.7, Yaw : 46.37, Alt : 49.2799987793, Lat : 49.2836005, Lng : -123.1149718, Q1 : 0.909721851349, Q2 : 0.0671137943864, Q3 : -0.119855187833, Q4 : 0.391837567091}
2019-04-14 17:07:34.41: SIM {TimeUS : 57635270, Roll : 2.71, Pitch : -15.79, Yaw : 44.28, Alt : 49.2799987793, Lat : 49.2836024, Lng : -123.1149689, Q1 : 0.915964663029, Q2 : 0.0735227167606, Q3 : -0.11838015914, Q4 : 0.376283556223}
2019-04-14 17:07:34.51: SIM {TimeUS : 57735230, Roll : 3.31, Pitch : -15.76, Yaw : 42.95, Alt : 49.2799987793, Lat : 49.2836043, Lng : -123.114966, Q1 : 0.919930398464, Q2 : 0.0768452137709, Q3 : -0.117112308741, Q4 : 0.366207033396}
2019-04-14 17:07:34.61: SIM {TimeUS : 57835190, Roll : 3.47, Pitch : -15.71, Yaw : 42.38, Alt : 49.2900009155, Lat : 49.2836062, Lng : -123.114963, Q1 : 0.921691954136, Q2 : 0.0774086043239, Q3 : -0.116508282721, Q4 : 0.361825525761}
2019-04-14 17:07:34.71: SIM {TimeUS : 57935150, Roll : 3.24, Pitch : -15.7, Yaw : 42.51, Alt : 49.2900009155, Lat : 49.2836081, Lng : -123.1149598, Q1 : 0.921452045441, Q2 : 0.0756583213806, Q3 : -0.117106661201, Q4 : 0.362612754107}
2019-04-14 17:07:34.81: SIM {TimeUS : 58035110, Roll : 2.69, Pitch : -15.77, Yaw : 43.2, Alt : 49.2900009155, Lat : 49.2836102, Lng : -123.1149565, Q1 : 0.91953676939, Q2 : 0.0721763372421, Q3 : -0.118966303766, Q4 : 0.367545515299}
2019-04-14 17:07:34.91: SIM {TimeUS : 58135070, Roll : 1.92, Pitch : -15.9, Yaw : 44.27, Alt : 49.2900009155, Lat : 49.2836122, Lng : -123.1149531, Q1 : 0.9163646698, Q2 : 0.06756067276, Q3 : -0.121860593557, Q4 : 0.375315070152}
2019-04-14 17:07:35.01: SIM {TimeUS : 58235030, Roll : 1.06, Pitch : -16.04, Yaw : 45.55, Alt : 49.2900009155, Lat : 49.2836141, Lng : -123.1149497, Q1 : 0.912435948849, Q2 : 0.0625218972564, Q3 : -0.12512293458, Q4 : 0.384572386742}
2019-04-14 17:07:35.11: SIM {TimeUS : 58334990, Roll : 0.24, Pitch : -16.16, Yaw : 46.87, Alt : 49.2900009155, Lat : 49.2836163, Lng : -123.1149461, Q1 : 0.908264219761, Q2 : 0.0578542165458, Q3 : -0.128180757165, Q4 : 0.39405426383}
2019-04-14 17:07:35.21: SIM {TimeUS : 58434950, Roll : -0.47, Pitch : -16.25, Yaw : 48.06, Alt : 49.2900009155, Lat : 49.2836183, Lng : -123.1149425, Q1 : 0.904353618622, Q2 : 0.0538454577327, Q3 : -0.13081535697, Q4 : 0.402656883001}
2019-04-14 17:07:35.31: SIM {TimeUS : 58534910, Roll : -1.0, Pitch : -16.32, Yaw : 49.03, Alt : 49.2900009155, Lat : 49.2836205, Lng : -123.1149389, Q1 : 0.901095032692, Q2 : 0.0510266944766, Q3 : -0.132759064436, Q4 : 0.409632891417}
2019-04-14 17:07:35.41: SIM {TimeUS : 58634870, Roll : -1.3, Pitch : -16.35, Yaw : 49.7, Alt : 49.2900009155, Lat : 49.2836226, Lng : -123.1149352, Q1 : 0.898780405521, Q2 : 0.049521651119, Q3 : -0.133806377649, Q4 : 0.414532482624}
2019-04-14 17:07:35.51: SIM {TimeUS : 58734830, Roll : -1.41, Pitch : -16.36, Yaw : 50.06, Alt : 49.2900009155, Lat : 49.2836249, Lng : -123.1149315, Q1 : 0.897533774376, Q2 : 0.0491609238088, Q3 : -0.134126156569, Q4 : 0.417164802551}
2019-04-14 17:07:35.61: SIM {TimeUS : 58835623, Roll : -1.36, Pitch : -16.38, Yaw : 50.11, Alt : 49.2900009155, Lat : 49.2836272, Lng : -123.1149277, Q1 : 0.897305250168, Q2 : 0.0496755205095, Q3 : -0.134108290076, Q4 : 0.417601048946}
2019-04-14 17:07:35.71: SIM {TimeUS : 58935583, Roll : -1.18, Pitch : -16.42, Yaw : 49.9, Alt : 49.2900009155, Lat : 49.2836294, Lng : -123.1149239, Q1 : 0.897936582565, Q2 : 0.051002252847, Q3 : -0.133807823062, Q4 : 0.416178077459}
2019-04-14 17:07:35.81: SIM {TimeUS : 59035543, Roll : -0.9, Pitch : -16.48, Yaw : 49.5, Alt : 49.2900009155, Lat : 49.2836317, Lng : -123.1149201, Q1 : 0.899176478386, Q2 : 0.0529431551695, Q3 : -0.133435770869, Q4 : 0.413368672132}
2019-04-14 17:07:35.91: SIM {TimeUS : 59135503, Roll : -0.57, Pitch : -16.54, Yaw : 48.99, Alt : 49.2900009155, Lat : 49.2836341, Lng : -123.1149162, Q1 : 0.900785386562, Q2 : 0.0551282651722, Q3 : -0.132999360561, Q4 : 0.40970441699}
2019-04-14 17:07:36.01: SIM {TimeUS : 59235463, Roll : -0.23, Pitch : -16.6, Yaw : 48.44, Alt : 49.2900009155, Lat : 49.2836365, Lng : -123.1149123, Q1 : 0.902507245541, Q2 : 0.0573830157518, Q3 : -0.132541030645, Q4 : 0.405734837055}
2019-04-14 17:07:36.11: SIM {TimeUS : 59335423, Roll : 0.07, Pitch : -16.66, Yaw : 47.92, Alt : 49.2900009155, Lat : 49.2836389, Lng : -123.1149084, Q1 : 0.904134392738, Q2 : 0.0594471916556, Q3 : -0.132153704762, Q4 : 0.401923537254}
2019-04-14 17:07:36.21: SIM {TimeUS : 59435383, Roll : 0.33, Pitch : -16.71, Yaw : 47.47, Alt : 49.2900009155, Lat : 49.2836413, Lng : -123.1149044, Q1 : 0.905515134335, Q2 : 0.061115026474, Q3 : -0.131868496537, Q4 : 0.398645162582}
2019-04-14 17:07:36.31: SIM {TimeUS : 59535343, Roll : 0.52, Pitch : -16.74, Yaw : 47.13, Alt : 49.2900009155, Lat : 49.2836438, Lng : -123.1149002, Q1 : 0.906549215317, Q2 : 0.0623436830938, Q3 : -0.131648734212, Q4 : 0.396169632673}
2019-04-14 17:07:36.41: SIM {TimeUS : 59635303, Roll : 0.63, Pitch : -16.77, Yaw : 46.92, Alt : 49.2900009155, Lat : 49.2836462, Lng : -123.1148963, Q1 : 0.907180786133, Q2 : 0.0630750656128, Q3 : -0.131619811058, Q4 : 0.394614756107}
2019-04-14 17:07:36.51: SIM {TimeUS : 59735263, Roll : 0.65, Pitch : -16.79, Yaw : 46.83, Alt : 49.2900009155, Lat : 49.2836487, Lng : -123.1148922, Q1 : 0.907436132431, Q2 : 0.0632419958711, Q3 : -0.13173417747, Q4 : 0.393962204456}
2019-04-14 17:07:36.61: SIM {TimeUS : 59835223, Roll : 0.6, Pitch : -16.81, Yaw : 46.86, Alt : 49.2999992371, Lat : 49.2836511, Lng : -123.114888, Q1 : 0.907339453697, Q2 : 0.0629465654492, Q3 : -0.132082358003, Q4 : 0.39411559701}
2019-04-14 17:07:36.71: SIM {TimeUS : 59935183, Roll : 0.49, Pitch : -16.85, Yaw : 46.98, Alt : 49.2999992371, Lat : 49.2836536, Lng : -123.1148838, Q1 : 0.906957864761, Q2 : 0.0623143054545, Q3 : -0.132724031806, Q4 : 0.394878089428}
2019-04-14 17:07:36.81: SIM {TimeUS : 60035143, Roll : 0.34, Pitch : -16.9, Yaw : 47.15, Alt : 49.2999992371, Lat : 49.283656, Lng : -123.1148796, Q1 : 0.9063834548, Q2 : 0.0615172870457, Q3 : -0.133502364159, Q4 : 0.39605781436}
2019-04-14 17:07:36.91: SIM {TimeUS : 60135103, Roll : 0.17, Pitch : -16.94, Yaw : 47.35, Alt : 49.2999992371, Lat : 49.2836585, Lng : -123.1148753, Q1 : 0.905735075474, Q2 : 0.0605162940919, Q3 : -0.134341746569, Q4 : 0.397409230471}
2019-04-14 17:07:37.01: SIM {TimeUS : 60235063, Roll : 0.0, Pitch : -16.97, Yaw : 47.55, Alt : 49.2999992371, Lat : 49.2836612, Lng : -123.114871, Q1 : 0.905101060867, Q2 : 0.0595228299499, Q3 : -0.135078951716, Q4 : 0.398751616478}
2019-04-14 17:07:37.11: SIM {TimeUS : 60335023, Roll : -0.14, Pitch : -17.0, Yaw : 47.72, Alt : 49.2999992371, Lat : 49.2836637, Lng : -123.1148667, Q1 : 0.904548943043, Q2 : 0.0586614273489, Q3 : -0.135712787509, Q4 : 0.399915128946}
2019-04-14 17:07:37.21: SIM {TimeUS : 60434983, Roll : -0.23, Pitch : -17.03, Yaw : 47.85, Alt : 49.2999992371, Lat : 49.2836663, Lng : -123.1148624, Q1 : 0.904102742672, Q2 : 0.0582353249192, Q3 : -0.136240690947, Q4 : 0.40080589056}
2019-04-14 17:07:37.31: SIM {TimeUS : 60534943, Roll : -0.26, Pitch : -17.08, Yaw : 47.93, Alt : 49.2999992371, Lat : 49.2836688, Lng : -123.1148581, Q1 : 0.903797328472, Q2 : 0.0582017563283, Q3 : -0.13664714992, Q4 : 0.401360839605}
2019-04-14 17:07:37.41: SIM {TimeUS : 60634903, Roll : -0.25, Pitch : -17.12, Yaw : 47.95, Alt : 49.2999992371, Lat : 49.2836713, Lng : -123.1148537, Q1 : 0.903649866581, Q2 : 0.0585211068392, Q3 : -0.136895850301, Q4 : 0.401561707258}
2019-04-14 17:07:37.51: SIM {TimeUS : 60734863, Roll : -0.18, Pitch : -17.16, Yaw : 47.93, Alt : 49.2999992371, Lat : 49.283674, Lng : -123.1148493, Q1 : 0.903657615185, Q2 : 0.0591146610677, Q3 : -0.137019485235, Q4 : 0.401415109634}
2019-04-14 17:07:37.61: SIM {TimeUS : 60834823, Roll : -0.12, Pitch : -17.19, Yaw : 47.86, Alt : 49.3100013733, Lat : 49.2836766, Lng : -123.1148449, Q1 : 0.903813362122, Q2 : 0.0596509277821, Q3 : -0.13708460331, Q4 : 0.400962620974}
2019-04-14 17:07:37.71: SIM {TimeUS : 60935616, Roll : -0.07, Pitch : -17.21, Yaw : 47.77, Alt : 49.3100013733, Lat : 49.2836792, Lng : -123.1148404, Q1 : 0.904086649418, Q2 : 0.0599935241044, Q3 : -0.13708537817, Q4 : 0.400294572115}
2019-04-14 17:07:37.81: SIM {TimeUS : 61035576, Roll : -0.02, Pitch : -17.21, Yaw : 47.67, Alt : 49.3100013733, Lat : 49.2836819, Lng : -123.114836, Q1 : 0.904418647289, Q2 : 0.0602628290653, Q3 : -0.137031942606, Q4 : 0.399521678686}
2019-04-14 17:07:37.91: SIM {TimeUS : 61135536, Roll : 0.02, Pitch : -17.22, Yaw : 47.56, Alt : 49.3100013733, Lat : 49.2836846, Lng : -123.1148315, Q1 : 0.904755830765, Q2 : 0.0606110133231, Q3 : -0.136947289109, Q4 : 0.398733884096}
2019-04-14 17:07:38.01: SIM {TimeUS : 61235496, Roll : 0.07, Pitch : -17.24, Yaw : 47.46, Alt : 49.3100013733, Lat : 49.2836871, Lng : -123.1148271, Q1 : 0.905059635639, Q2 : 0.0609522089362, Q3 : -0.136968329549, Q4 : 0.397984415293}
2019-04-14 17:07:38.11: SIM {TimeUS : 61335456, Roll : 0.13, Pitch : -17.28, Yaw : 47.37, Alt : 49.3100013733, Lat : 49.2836899, Lng : -123.1148226, Q1 : 0.905282437801, Q2 : 0.0614129975438, Q3 : -0.137179404497, Q4 : 0.397333592176}
2019-04-14 17:07:38.21: SIM {TimeUS : 61435416, Roll : 0.17, Pitch : -17.35, Yaw : 47.3, Alt : 49.3100013733, Lat : 49.2836925, Lng : -123.1148181, Q1 : 0.905418515205, Q2 : 0.0619164854288, Q3 : -0.137582704425, Q4 : 0.396805673838}
2019-04-14 17:07:38.31: SIM {TimeUS : 61535376, Roll : 0.2, Pitch : -17.39, Yaw : 47.25, Alt : 49.3100013733, Lat : 49.2836953, Lng : -123.1148135, Q1 : 0.905527770519, Q2 : 0.0621788278222, Q3 : -0.137818947434, Q4 : 0.396433144808}
2019-04-14 17:07:38.41: SIM {TimeUS : 61635336, Roll : 0.21, Pitch : -17.38, Yaw : 47.23, Alt : 49.3100013733, Lat : 49.283698, Lng : -123.114809, Q1 : 0.905616104603, Q2 : 0.0622274130583, Q3 : -0.137763813138, Q4 : 0.396242797375}
2019-04-14 17:07:38.51: SIM {TimeUS : 61735296, Roll : 0.2, Pitch : -17.39, Yaw : 47.22, Alt : 49.3100013733, Lat : 49.2837007, Lng : -123.1148044, Q1 : 0.905646204948, Q2 : 0.0621487647295, Q3 : -0.137842163444, Q4 : 0.396159082651}
2019-04-14 17:07:38.61: SIM {TimeUS : 61835256, Roll : 0.16, Pitch : -17.41, Yaw : 47.22, Alt : 49.3199996948, Lat : 49.2837034, Lng : -123.1147999, Q1 : 0.905615866184, Q2 : 0.0619711838663, Q3 : -0.138158544898, Q4 : 0.396146088839}
2019-04-14 17:07:38.71: SIM {TimeUS : 61935216, Roll : 0.13, Pitch : -17.44, Yaw : 47.24, Alt : 49.3199996948, Lat : 49.283706, Lng : -123.1147953, Q1 : 0.905550003052, Q2 : 0.0618060752749, Q3 : -0.138488322496, Q4 : 0.396207213402}
2019-04-14 17:07:38.81: SIM {TimeUS : 62035176, Roll : 0.1, Pitch : -17.46, Yaw : 47.26, Alt : 49.3199996948, Lat : 49.2837089, Lng : -123.1147907, Q1 : 0.90546476841, Q2 : 0.0616941154003, Q3 : -0.138764664531, Q4 : 0.396322876215}
2019-04-14 17:07:38.91: SIM {TimeUS : 62135136, Roll : 0.08, Pitch : -17.48, Yaw : 47.28, Alt : 49.3199996948, Lat : 49.2837115, Lng : -123.114786, Q1 : 0.905388116837, Q2 : 0.06164733693, Q3 : -0.138946846128, Q4 : 0.396441429853}
2019-04-14 17:07:39.01: SIM {TimeUS : 62235096, Roll : 0.07, Pitch : -17.5, Yaw : 47.29, Alt : 49.3199996948, Lat : 49.2837144, Lng : -123.1147814, Q1 : 0.905315458775, Q2 : 0.0616711676121, Q3 : -0.139137715101, Q4 : 0.396536618471}
2019-04-14 17:07:39.11: SIM {TimeUS : 62335056, Roll : 0.08, Pitch : -17.51, Yaw : 47.3, Alt : 49.3199996948, Lat : 49.283717, Lng : -123.1147768, Q1 : 0.905268907547, Q2 : 0.0617630109191, Q3 : -0.139206379652, Q4 : 0.396604537964}
2019-04-14 17:07:39.21: SIM {TimeUS : 62435016, Roll : 0.1, Pitch : -17.54, Yaw : 47.3, Alt : 49.3199996948, Lat : 49.2837199, Lng : -123.1147721, Q1 : 0.90523737669, Q2 : 0.061963416636, Q3 : -0.139315038919, Q4 : 0.396607100964}
2019-04-14 17:07:39.31: SIM {TimeUS : 62534976, Roll : 0.12, Pitch : -17.57, Yaw : 47.29, Alt : 49.3199996948, Lat : 49.2837227, Lng : -123.1147675, Q1 : 0.905226051807, Q2 : 0.0622155368328, Q3 : -0.139493644238, Q4 : 0.396530598402}
2019-04-14 17:07:39.41: SIM {TimeUS : 62634936, Roll : 0.12, Pitch : -17.6, Yaw : 47.27, Alt : 49.3199996948, Lat : 49.2837253, Lng : -123.1147628, Q1 : 0.905243694782, Q2 : 0.0623769946396, Q3 : -0.139783471823, Q4 : 0.396363019943}
2019-04-14 17:07:39.51: SIM {TimeUS : 62734896, Roll : 0.1, Pitch : -17.65, Yaw : 47.24, Alt : 49.3199996948, Lat : 49.2837282, Lng : -123.1147581, Q1 : 0.905289292336, Q2 : 0.062323577702, Q3 : -0.140218243003, Q4 : 0.396113604307}
2019-04-14 17:07:39.61: SIM {TimeUS : 62834856, Roll : 0.09, Pitch : -17.69, Yaw : 47.21, Alt : 49.3199996948, Lat : 49.2837309, Lng : -123.1147534, Q1 : 0.905340313911, Q2 : 0.0623570084572, Q3 : -0.140634134412, Q4 : 0.395844131708}
2019-04-14 17:07:39.71: SIM {TimeUS : 62934816, Roll : 0.11, Pitch : -17.72, Yaw : 47.18, Alt : 49.3199996948, Lat : 49.2837338, Lng : -123.1147487, Q1 : 0.905403912067, Q2 : 0.062560275197, Q3 : -0.140816479921, Q4 : 0.39560174942}
2019-04-14 17:07:39.81: SIM {TimeUS : 63035609, Roll : 0.13, Pitch : -17.72, Yaw : 47.15, Alt : 49.3199996948, Lat : 49.2837366, Lng : -123.1147439, Q1 : 0.905496835709, Q2 : 0.0627176612616, Q3 : -0.140757739544, Q4 : 0.395384967327}
2019-04-14 17:07:39.91: SIM {TimeUS : 63135569, Roll : 0.15, Pitch : -17.7, Yaw : 47.12, Alt : 49.3199996948, Lat : 49.2837394, Lng : -123.1147393, Q1 : 0.905616343021, Q2 : 0.0627718046308, Q3 : -0.140495181084, Q4 : 0.395195960999}
2019-04-14 17:07:40.01: SIM {TimeUS : 63235529, Roll : 0.16, Pitch : -17.68, Yaw : 47.1, Alt : 49.3199996948, Lat : 49.2837423, Lng : -123.1147345, Q1 : 0.905725002289, Q2 : 0.0627075955272, Q3 : -0.140327513218, Q4 : 0.395016670227}
2019-04-14 17:07:40.11: SIM {TimeUS : 63335489, Roll : 0.16, Pitch : -17.66, Yaw : 47.07, Alt : 49.3300018311, Lat : 49.2837451, Lng : -123.1147298, Q1 : 0.905825197697, Q2 : 0.0626200884581, Q3 : -0.14018972218, Q4 : 0.394849717617}
2019-04-14 17:07:40.21: SIM {TimeUS : 63435449, Roll : 0.16, Pitch : -17.64, Yaw : 47.06, Alt : 49.3300018311, Lat : 49.2837478, Lng : -123.114725, Q1 : 0.905902922153, Q2 : 0.0625854283571, Q3 : -0.140059277415, Q4 : 0.394723206758}
2019-04-14 17:07:40.31: SIM {TimeUS : 63535409, Roll : 0.16, Pitch : -17.66, Yaw : 47.04, Alt : 49.3300018311, Lat : 49.2837508, Lng : -123.1147202, Q1 : 0.905933797359, Q2 : 0.0626183524728, Q3 : -0.140177890658, Q4 : 0.394604861736}
2019-04-14 17:07:40.41: SIM {TimeUS : 63635369, Roll : 0.17, Pitch : -17.69, Yaw : 47.03, Alt : 49.3300018311, Lat : 49.2837536, Lng : -123.1147155, Q1 : 0.905930995941, Q2 : 0.0627469271421, Q3 : -0.140436992049, Q4 : 0.394498854876}
2019-04-14 17:07:40.51: SIM {TimeUS : 63735329, Roll : 0.16, Pitch : -17.75, Yaw : 47.02, Alt : 49.3300018311, Lat : 49.2837563, Lng : -123.1147107, Q1 : 0.905898571014, Q2 : 0.0628242194653, Q3 : -0.140922442079, Q4 : 0.394387811422}
2019-04-14 17:07:40.61: SIM {TimeUS : 63835289, Roll : 0.14, Pitch : -17.8, Yaw : 47.02, Alt : 49.3300018311, Lat : 49.2837593, Lng : -123.1147059, Q1 : 0.9058547616, Q2 : 0.0629265457392, Q3 : -0.141432806849, Q4 : 0.394289433956}
2019-04-14 17:07:40.71: SIM {TimeUS : 63935249, Roll : 0.14, Pitch : -17.84, Yaw : 47.01, Alt : 49.3300018311, Lat : 49.283762, Lng : -123.1147011, Q1 : 0.90582960844, Q2 : 0.063039213419, Q3 : -0.141705438495, Q4 : 0.39423134923}
2019-04-14 17:07:40.81: SIM {TimeUS : 64035209, Roll : 0.14, Pitch : -17.87, Yaw : 47.01, Alt : 49.3300018311, Lat : 49.2837649, Lng : -123.1146963, Q1 : 0.905815660954, Q2 : 0.0630697533488, Q3 : -0.141955062747, Q4 : 0.394168674946}
2019-04-14 17:07:40.91: SIM {TimeUS : 64135169, Roll : 0.13, Pitch : -17.88, Yaw : 47.0, Alt : 49.3300018311, Lat : 49.2837679, Lng : -123.1146915, Q1 : 0.905820786953, Q2 : 0.0630572885275, Q3 : -0.142096996307, Q4 : 0.394107699394}
2019-04-14 17:07:41.01: SIM {TimeUS : 64235129, Roll : 0.14, Pitch : -17.87, Yaw : 46.99, Alt : 49.3300018311, Lat : 49.2837707, Lng : -123.1146867, Q1 : 0.905852615833, Q2 : 0.0631196349859, Q3 : -0.14195458591, Q4 : 0.394075959921}
2019-04-14 17:07:41.11: SIM {TimeUS : 64335089, Roll : 0.17, Pitch : -17.88, Yaw : 46.98, Alt : 49.3300018311, Lat : 49.2837735, Lng : -123.1146819, Q1 : 0.905863165855, Q2 : 0.063304670155, Q3 : -0.141940996051, Q4 : 0.394026935101}
2019-04-14 17:07:41.21: SIM {TimeUS : 64435049, Roll : 0.18, Pitch : -17.89, Yaw : 46.97, Alt : 49.3300018311, Lat : 49.2837764, Lng : -123.1146771, Q1 : 0.905867755413, Q2 : 0.063441991806, Q3 : -0.142055913806, Q4 : 0.393952935934}
2019-04-14 17:07:41.31: SIM {TimeUS : 64535009, Roll : 0.18, Pitch : -17.91, Yaw : 46.96, Alt : 49.3300018311, Lat : 49.2837794, Lng : -123.1146722, Q1 : 0.905881345272, Q2 : 0.063538596034, Q3 : -0.142136335373, Q4 : 0.393877029419}
2019-04-14 17:07:41.41: SIM {TimeUS : 64634969, Roll : 0.19, Pitch : -17.9, Yaw : 46.95, Alt : 49.3300018311, Lat : 49.2837822, Lng : -123.1146673, Q1 : 0.905925452709, Q2 : 0.0635623559356, Q3 : -0.142088726163, Q4 : 0.393788933754}
2019-04-14 17:07:41.51: SIM {TimeUS : 64734929, Roll : 0.19, Pitch : -17.9, Yaw : 46.94, Alt : 49.3400001526, Lat : 49.283785, Lng : -123.1146626, Q1 : 0.905976831913, Q2 : 0.0635249018669, Q3 : -0.142077803612, Q4 : 0.393680691719}
2019-04-14 17:07:41.61: SIM {TimeUS : 64834889, Roll : 0.17, Pitch : -17.92, Yaw : 46.92, Alt : 49.3400001526, Lat : 49.283788, Lng : -123.1146577, Q1 : 0.906017065048, Q2 : 0.0634103938937, Q3 : -0.142280891538, Q4 : 0.393533229828}
2019-04-14 17:07:41.71: SIM {TimeUS : 64934849, Roll : 0.14, Pitch : -17.95, Yaw : 46.91, Alt : 49.3400001526, Lat : 49.2837909, Lng : -123.1146529, Q1 : 0.906038880348, Q2 : 0.0632924214005, Q3 : -0.142676159739, Q4 : 0.393358826637}
2019-04-14 17:07:41.81: SIM {TimeUS : 65035642, Roll : 0.13, Pitch : -17.96, Yaw : 46.89, Alt : 49.3400001526, Lat : 49.2837938, Lng : -123.1146479, Q1 : 0.906089425087, Q2 : 0.0632204636931, Q3 : -0.142770022154, Q4 : 0.393219947815}
2019-04-14 17:07:41.91: SIM {TimeUS : 65135602, Roll : 0.15, Pitch : -17.95, Yaw : 46.88, Alt : 49.3400001526, Lat : 49.2837968, Lng : -123.1146431, Q1 : 0.906150758266, Q2 : 0.0632638335228, Q3 : -0.142608046532, Q4 : 0.393130302429}
2019-04-14 17:07:42.01: SIM {TimeUS : 65235562, Roll : 0.17, Pitch : -17.93, Yaw : 46.86, Alt : 49.3400001526, Lat : 49.2837996, Lng : -123.1146381, Q1 : 0.906207501888, Q2 : 0.063383884728, Q3 : -0.142387956381, Q4 : 0.393059939146}
2019-04-14 17:07:42.11: SIM {TimeUS : 65335522, Roll : 0.19, Pitch : -17.93, Yaw : 46.85, Alt : 49.3400001526, Lat : 49.2838025, Lng : -123.1146333, Q1 : 0.906240582466, Q2 : 0.0634867027402, Q3 : -0.142388626933, Q4 : 0.392966806889}
2019-04-14 17:07:42.21: SIM {TimeUS : 65435482, Roll : 0.17, Pitch : -17.96, Yaw : 46.84, Alt : 49.3400001526, Lat : 49.2838055, Lng : -123.1146285, Q1 : 0.906251907349, Q2 : 0.0634808689356, Q3 : -0.142644315958, Q4 : 0.392848938704}
2019-04-14 17:07:42.31: SIM {TimeUS : 65535442, Roll : 0.15, Pitch : -18.0, Yaw : 46.83, Alt : 49.3400001526, Lat : 49.2838084, Lng : -123.1146235, Q1 : 0.906260251999, Q2 : 0.0633571371436, Q3 : -0.143037006259, Q4 : 0.392706871033}
2019-04-14 17:07:42.41: SIM {TimeUS : 65635402, Roll : 0.13, Pitch : -18.03, Yaw : 46.82, Alt : 49.3400001526, Lat : 49.2838112, Lng : -123.1146187, Q1 : 0.906263411045, Q2 : 0.0633195862174, Q3 : -0.143364712596, Q4 : 0.392586022615}
2019-04-14 17:07:42.51: SIM {TimeUS : 65735362, Roll : 0.13, Pitch : -18.05, Yaw : 46.81, Alt : 49.3400001526, Lat : 49.2838141, Lng : -123.1146138, Q1 : 0.906268835068, Q2 : 0.0634087622166, Q3 : -0.143533527851, Q4 : 0.392497479916}
2019-04-14 17:07:42.61: SIM {TimeUS : 65835322, Roll : 0.14, Pitch : -18.07, Yaw : 46.8, Alt : 49.3400001526, Lat : 49.2838171, Lng : -123.1146089, Q1 : 0.90627515316, Q2 : 0.0635386556387, Q3 : -0.143633365631, Q4 : 0.392425388098}
2019-04-14 17:07:42.71: SIM {TimeUS : 65935282, Roll : 0.17, Pitch : -18.07, Yaw : 46.79, Alt : 49.3400001526, Lat : 49.2838201, Lng : -123.114604, Q1 : 0.906279563904, Q2 : 0.0637362524867, Q3 : -0.143604427576, Q4 : 0.392393738031}
