2019-04-14 18:30:16.70: SIM {TimeUS : 40516287, Roll : 0.0, Pitch : 0.0, Yaw : 0.0, Alt : 30.1000003815, Lat : 49.28357, Lng : -123.11502, Q1 : 1.0, Q2 : 0.0, Q3 : 0.0, Q4 : 0.0}
2019-04-14 18:30:16.81: SIM {TimeUS : 40635406, Roll : 0.0, Pitch : 0.0, Yaw : 0.0, Alt : 30.1000003815, Lat : 49.28357, Lng : -123.11502, Q1 : 1.0, Q2 : 0.0, Q3 : 0.0, Q4 : 0.0}
2019-04-14 18:30:16.91: SIM {TimeUS : 40735366, Roll : 0.0, Pitch : 0.0, Yaw : 0.0, Alt : 30.1000003815, Lat : 49.28357, Lng : -123.11502, Q1 : 1.0, Q2 : 0.0, Q3 : 0.0, Q4 : 0.0}
2019-04-14 18:30:17.01: SIM {TimeUS : 40835326, Roll : 0.0, Pitch : 0.0, Yaw : 0.0, Alt : 30.1000003815, Lat : 49.28357, Lng : -123.11502, Q1 : 1.0, Q2 : 0.0, Q3 : 0.0, Q4 : 0.0}
2019-04-14 18:30:17.11: SIM {TimeUS : 40935286, Roll : 0.0, Pitch : 0.0, Yaw : 0.0, Alt : 30.1000003815, Lat : 49.28357, Lng : -123.11502, Q1 : 1.0, Q2 : 0.0, Q3 : 0.0, Q4 : 0.0}
2019-04-14 18:30:17.21: SIM {TimeUS : 41035246, Roll : 0.0, Pitch : 0.0, Yaw : 0.0, Alt : 30.1000003815, Lat : 49.28357, Lng : -123.11502, Q1 : 1.0, Q2 : 0.0, Q3 : 0.0, Q4 : 0.0}
2019-04-14 18:30:17.31: SIM {TimeUS : 41135206, Roll : 0.0, Pitch : 0.0, Yaw : 0.0, Alt : 30.1000003815, Lat : 49.28357, Lng : -123.11502, Q1 : 1.0, Q2 : 0.0, Q3 : 0.0, Q4 : 0.0}
2019-04-14 18:30:17.41: SIM {TimeUS : 41235166, Roll : 0.0, Pitch : 0.0, Yaw : 0.0, Alt : 30.1000003815, Lat : 49.28357, Lng : -123.11502, Q1 : 1.0, Q2 : 0.0, Q3 : 0.0, Q4 : 0.0}
2019-04-14 18:30:17.51: SIM {TimeUS : 41335126, Roll : 0.0, Pitch : 0.0, Yaw : 0.0, Alt : 30.1000003815, Lat : 49.28357, Lng : -123.11502, Q1 : 1.0, Q2 : 0.0, Q3 : 0.0, Q4 : 0.0}
2019-04-14 18:30:17.61: SIM {TimeUS : 41435086, Roll : 0.0, Pitch : 0.0, Yaw : 0.0, Alt : 30.1000003815, Lat : 49.28357, Lng : -123.11502, Q1 : 1.0, Q2 : 0.0, Q3 : 0.0, Q4 : 0.0}
2019-04-14 18:30:17.71: SIM {TimeUS : 41535046, Roll : 0.0, Pitch : 0.0, Yaw : 0.0, Alt : 30.1000003815, Lat : 49.28357, Lng : -123.11502, Q1 : 1.0, Q2 : 0.0, Q3 : 0.0, Q4 : 0.0}
2019-04-14 18:30:17.81: SIM {TimeUS : 41635006, Roll : 0.0, Pitch : 0.0, Yaw : 0.0, Alt : 30.1000003815, Lat : 49.28357, Lng : -123.11502, Q1 : 1.0, Q2 : 0.0, Q3 : 0.0, Q4 : 0.0}
2019-04-14 18:30:17.91: SIM {TimeUS : 41734966, Roll : 0.0, Pitch : 0.0, Yaw : 0.0, Alt : 30.1000003815, Lat : 49.28357, Lng : -123.11502, Q1 : 1.0, Q2 : 0.0, Q3 : 0.0, Q4 : 0.0}
2019-04-14 18:30:18.01: SIM {TimeUS : 41834926, Roll : 0.0, Pitch : 0.0, Yaw : 0.0, Alt : 30.1000003815, Lat : 49.28357, Lng : -123.11502, Q1 : 1.0, Q2 : 0.0, Q3 : 0.0, Q4 : 0.0}
2019-04-14 18:30:18.11: SIM {TimeUS : 41934886, Roll : 0.0, Pitch : 0.0, Yaw : 0.0, Alt : 30.1000003815, Lat : 49.28357, Lng : -123.11502, Q1 : 1.0, Q2 : 0.0, Q3 : 0.0, Q4 : 0.0}
2019-04-14 18:30:18.21: SIM {TimeUS : 42034846, Roll : 0.0, Pitch : 0.0, Yaw : 0.0, Alt : 30.1000003815, Lat : 49.28357, Lng : -123.11502, Q1 : 1.0, Q2 : 0.0, Q3 : 0.0, Q4 : 0.0}
2019-04-14 18:30:18.31: SIM {TimeUS : 42134806, Roll : 0.0, Pitch : 0.0, Yaw : 0.0, Alt : 30.1000003815, Lat : 49.28357, Lng : -123.11502, Q1 : 1.0, Q2 : 0.0, Q3 : 0.0, Q4 : 0.0}
2019-04-14 18:30:18.41: SIM {TimeUS : 42234766, Roll : 0.0, Pitch : 0.0, Yaw : 0.0, Alt : 30.1000003815, Lat : 49.28357, Lng : -123.11502, Q1 : 1.0, Q2 : 0.0, Q3 : 0.0, Q4 : 0.0}
2019-04-14 18:30:18.51: SIM {TimeUS : 42334726, Roll : 0.0, Pitch : 0.0, Yaw : 0.0, Alt : 30.1000003815, Lat : 49.28357, Lng : -123.11502, Q1 : 1.0, Q2 : 0.0, Q3 : 0.0, Q4 : 0.0}
2019-04-14 18:30:18.61: SIM {TimeUS : 42434686, Roll : 0.0, Pitch : 0.0, Yaw : 0.0, Alt : 30.1000003815, Lat : 49.28357, Lng : -123.11502, Q1 : 1.0, Q2 : 0.0, Q3 : 0.0, Q4 : 0.0}
2019-04-14 18:30:18.71: SIM {TimeUS : 42534646, Roll : 0.0, Pitch : 0.0, Yaw : 0.0, Alt : 30.1000003815, Lat : 49.28357, Lng : -123.11502, Q1 : 1.0, Q2 : 0.0, Q3 : 0.0, Q4 : 0.0}
2019-04-14 18:30:18.82: SIM {TimeUS : 42635439, Roll : 0.0, Pitch : 0.0, Yaw : 0.0, Alt : 30.1000003815, Lat : 49.28357, Lng : -123.11502, Q1 : 1.0, Q2 : 0.0, Q3 : 0.0, Q4 : 0.0}
2019-04-14 18:30:18.91: SIM {TimeUS : 42735399, Roll : 0.0, Pitch : 0.0, Yaw : 0.0, Alt : 30.1000003815, Lat : 49.28357, Lng : -123.11502, Q1 : 1.0, Q2 : 0.0, Q3 : 0.0, Q4 : 0.0}
2019-04-14 18:30:19.01: SIM {TimeUS : 42835359, Roll : 0.0, Pitch : 0.0, Yaw : 0.0, Alt : 30.1000003815, Lat : 49.28357, Lng : -123.11502, Q1 : 1.0, Q2 : 0.0, Q3 : 0.0, Q4 : 2.04542945081e-11}
2019-04-14 18:30:19.11: SIM {TimeUS : 42935319, Roll : 0.0, Pitch : 0.0, Yaw : 360.0, Alt : 30.1000003815, Lat : 49.28357, Lng : -123.11502, Q1 : 1.0, Q2 : 0.0, Q3 : 0.0, Q4 : -2.45379706137e-11}
2019-04-14 18:30:19.21: SIM {TimeUS : 43035279, Roll : 0.0, Pitch : 0.0, Yaw : 360.0, Alt : 30.1000003815, Lat : 49.28357, Lng : -123.11502, Q1 : 1.0, Q2 : 0.0, Q3 : 0.0, Q4 : -1.46510501509e-07}
2019-04-14 18:30:19.31: SIM {TimeUS : 43135239, Roll : 0.0, Pitch : 0.0, Yaw : 359.99, Alt : 30.1000003815, Lat : 49.28357, Lng : -123.11502, Q1 : 1.0, Q2 : 0.0, Q3 : 0.0, Q4 : -3.15643490012e-07}
2019-04-14 18:30:19.41: SIM {TimeUS : 43235199, Roll : 0.0, Pitch : 0.0, Yaw : 359.99, Alt : 30.1000003815, Lat : 49.28357, Lng : -123.11502, Q1 : 1.0, Q2 : 0.0, Q3 : 0.0, Q4 : -4.84634938402e-07}
2019-04-14 18:30:19.51: SIM {TimeUS : 43335159, Roll : 0.0, Pitch : 0.0, Yaw : 359.99, Alt : 30.1000003815, Lat : 49.28357, Lng : -123.11502, Q1 : 1.0, Q2 : 0.0, Q3 : 0.0, Q4 : -6.9339574793e-07}
2019-04-14 18:30:19.61: SIM {TimeUS : 43435119, Roll : 0.0, Pitch : 0.0, Yaw : 359.99, Alt : 30.1000003815, Lat : 49.28357, Lng : -123.11502, Q1 : 1.0, Q2 : 0.0, Q3 : 0.0, Q4 : -8.98729524579e-07}
2019-04-14 18:30:19.71: SIM {TimeUS : 43535079, Roll : 0.0, Pitch : 0.0, Yaw : 359.99, Alt : 30.1000003815, Lat : 49.28357, Lng : -123.11502, Q1 : 1.0, Q2 : 0.0, Q3 : 0.0, Q4 : -1.11249687507e-06}
2019-04-14 18:30:19.81: SIM {TimeUS : 43635039, Roll : 0.0, Pitch : 0.0, Yaw : 359.99, Alt : 30.1000003815, Lat : 49.28357, Lng : -123.11502, Q1 : 1.0, Q2 : 0.0, Q3 : 0.0, Q4 : -1.3388980733e-06}
2019-04-14 18:30:19.91: SIM {TimeUS : 43734999, Roll : 0.0, Pitch : 0.0, Yaw : 359.99, Alt : 30.1100006104, Lat : 49.28357, Lng : -123.11502, Q1 : 1.0, Q2 : 0.0, Q3 : 0.0, Q4 : -1.52649749907e-06}
2019-04-14 18:30:20.01: SIM {TimeUS : 43834959, Roll : 0.0, Pitch : 0.0, Yaw : 359.99, Alt : 30.1399993896, Lat : 49.28357, Lng : -123.11502, Q1 : 1.0, Q2 : 0.0, Q3 : 0.0, Q4 : -1.71855435838e-06}
2019-04-14 18:30:20.11: SIM {TimeUS : 43934919, Roll : 0.0, Pitch : 0.0, Yaw : 359.99, Alt : 30.1599998474, Lat : 49.28357, Lng : -123.11502, Q1 : 1.0, Q2 : 0.0, Q3 : 0.0, Q4 : -1.89350089386e-06}
2019-04-14 18:30:20.21: SIM {TimeUS : 44034879, Roll : 0.0, Pitch : 0.0, Yaw : 359.99, Alt : 30.2000007629, Lat : 49.28357, Lng : -123.11502, Q1 : 1.0, Q2 : 0.0, Q3 : 0.0, Q4 : -2.08627102438e-06}
2019-04-14 18:30:20.31: SIM {TimeUS : 44134839, Roll : -0.1, Pitch : -0.09, Yaw : 359.99, Alt : 30.25, Lat : 49.28357, Lng : -123.11502, Q1 : 0.99999922514, Q2 : -0.000943715276662, Q3 : -0.000806375755928, Q4 : -9.50886351347e-06}
2019-04-14 18:30:20.41: SIM {TimeUS : 44234799, Roll : -0.42, Pitch : -0.36, Yaw : 359.99, Alt : 30.3400001526, Lat : 49.28357, Lng : -123.11502, Q1 : 0.99998819828, Q2 : -0.00367417372763, Q3 : -0.00317472661845, Q4 : -4.46714075224e-05}
2019-04-14 18:30:20.51: SIM {TimeUS : 44334759, Roll : -0.71, Pitch : -0.63, Yaw : 359.99, Alt : 30.4899997711, Lat : 49.28357, Lng : -123.11502, Q1 : 0.999965190887, Q2 : -0.00627472018823, Q3 : -0.00550490245223, Q4 : -0.000107530257083}
2019-04-14 18:30:20.61: SIM {TimeUS : 44434719, Roll : -0.85, Pitch : -0.78, Yaw : 359.98, Alt : 30.6499996185, Lat : 49.28357, Lng : -123.11502, Q1 : 0.999948561192, Q2 : -0.00747373420745, Q3 : -0.00685307430103, Q4 : -0.000191610481124}
2019-04-14 18:30:20.71: SIM {TimeUS : 44534679, Roll : -0.83, Pitch : -0.78, Yaw : 359.97, Alt : 30.7999992371, Lat : 49.28357, Lng : -123.11502, Q1 : 0.999950170517, Q2 : -0.00727749196813, Q3 : -0.00682463962585, Q4 : -0.000286685535684}
2019-04-14 18:30:20.81: SIM {TimeUS : 44634639, Roll : -0.69, Pitch : -0.64, Yaw : 359.96, Alt : 30.9599990845, Lat : 49.28357, Lng : -123.1150201, Q1 : 0.999965369701, Q2 : -0.00608410127461, Q3 : -0.00566237932071, Q4 : -0.000380844605388}
2019-04-14 18:30:20.92: SIM {TimeUS : 44735432, Roll : -0.48, Pitch : -0.44, Yaw : 359.94, Alt : 31.1100006104, Lat : 49.2835701, Lng : -123.1150202, Q1 : 0.999983549118, Q2 : -0.00421131262556, Q3 : -0.00386971398257, Q4 : -0.000460484763607}
2019-04-14 18:30:21.01: SIM {TimeUS : 44835392, Roll : -0.25, Pitch : -0.23, Yaw : 359.94, Alt : 31.2700004578, Lat : 49.2835701, Lng : -123.1150203, Q1 : 0.999995410442, Q2 : -0.00220278697088, Q3 : -0.00201155338436, Q4 : -0.000521375506651}
2019-04-14 18:30:21.11: SIM {TimeUS : 44935352, Roll : -0.06, Pitch : -0.06, Yaw : 359.93, Alt : 31.4400005341, Lat : 49.2835702, Lng : -123.1150203, Q1 : 0.999999523163, Q2 : -0.000579967803787, Q3 : -0.000567443319596, Q4 : -0.000560568703804}
2019-04-14 18:30:21.21: SIM {TimeUS : 45035312, Roll : 0.05, Pitch : 0.02, Yaw : 359.93, Alt : 31.6100006104, Lat : 49.2835702, Lng : -123.1150204, Q1 : 0.999999701977, Q2 : 0.000451585598057, Q3 : 0.000241945541347, Q4 : -0.000579782121349}
2019-04-14 18:30:21.31: SIM {TimeUS : 45135272, Roll : 0.1, Pitch : 0.05, Yaw : 359.93, Alt : 31.7900009155, Lat : 49.2835703, Lng : -123.1150205, Q1 : 0.999999284744, Q2 : 0.000928294670302, Q3 : 0.000476369517855, Q4 : -0.000585913890973}
2019-04-14 18:30:21.41: SIM {TimeUS : 45235232, Roll : 0.11, Pitch : 0.05, Yaw : 359.93, Alt : 31.9699993134, Lat : 49.2835703, Lng : -123.1150206, Q1 : 0.99999922514, Q2 : 0.000997373485006, Q3 : 0.000466935394797, Q4 : -0.000597569392994}
2019-04-14 18:30:21.51: SIM {TimeUS : 45335192, Roll : 0.09, Pitch : 0.05, Yaw : 359.93, Alt : 32.1599998474, Lat : 49.2835703, Lng : -123.1150206, Q1 : 0.999999344349, Q2 : 0.000834585691337, Q3 : 0.000468276091851, Q4 : -0.000598001119215}
2019-04-14 18:30:21.61: SIM {TimeUS : 45435152, Roll : 0.06, Pitch : 0.06, Yaw : 359.93, Alt : 32.3499984741, Lat : 49.2835703, Lng : -123.1150207, Q1 : 0.999999523163, Q2 : 0.000566219852772, Q3 : 0.000528880045749, Q4 : -0.000586913491134}
2019-04-14 18:30:21.71: SIM {TimeUS : 45535112, Roll : 0.05, Pitch : 0.08, Yaw : 359.93, Alt : 32.5400009155, Lat : 49.2835703, Lng : -123.1150207, Q1 : 0.999999403954, Q2 : 0.000512375088874, Q3 : 0.000756755936891, Q4 : -0.000570226053242}
2019-04-14 18:30:21.81: SIM {TimeUS : 45635072, Roll : 0.08, Pitch : 0.12, Yaw : 359.93, Alt : 32.7400016785, Lat : 49.2835703, Lng : -123.1150208, Q1 : 0.999998986721, Q2 : 0.000733799824957, Q3 : 0.00108646892477, Q4 : -0.00054509670008}
2019-04-14 18:30:21.91: SIM {TimeUS : 45735032, Roll : 0.11, Pitch : 0.16, Yaw : 359.94, Alt : 32.9399986267, Lat : 49.2835704, Lng : -123.1150208, Q1 : 0.99999833107, Q2 : 0.00104154727887, Q3 : 0.00140193733387, Q4 : -0.000514742860105}
2019-04-14 18:30:22.01: SIM {TimeUS : 45834992, Roll : 0.14, Pitch : 0.19, Yaw : 359.94, Alt : 33.1399993896, Lat : 49.2835704, Lng : -123.1150208, Q1 : 0.999997615814, Q2 : 0.00127139233518, Q3 : 0.00170171738137, Q4 : -0.000485942291562}
2019-04-14 18:30:22.11: SIM {TimeUS : 45934952, Roll : 0.16, Pitch : 0.19, Yaw : 359.94, Alt : 33.3400001526, Lat : 49.2835704, Lng : -123.1150208, Q1 : 0.999997377396, Q2 : 0.00142735941336, Q3 : 0.00171737268101, Q4 : -0.000453752378235}
2019-04-14 18:30:22.21: SIM {TimeUS : 46034912, Roll : 0.16, Pitch : 0.16, Yaw : 359.94, Alt : 33.5400009155, Lat : 49.2835704, Lng : -123.1150208, Q1 : 0.999997854233, Q2 : 0.00144761975389, Q3 : 0.00140725914389, Q4 : -0.000440632225946}
2019-04-14 18:30:22.31: SIM {TimeUS : 46134872, Roll : 0.15, Pitch : 0.13, Yaw : 359.94, Alt : 33.75, Lat : 49.2835704, Lng : -123.1150209, Q1 : 0.999998271465, Q2 : 0.00136431236751, Q3 : 0.0011619386496, Q4 : -0.000440531119239}
2019-04-14 18:30:22.41: SIM {TimeUS : 46234832, Roll : 0.15, Pitch : 0.12, Yaw : 359.94, Alt : 33.9599990845, Lat : 49.2835704, Lng : -123.1150209, Q1 : 0.999998450279, Q2 : 0.00131706870161, Q3 : 0.00106949231122, Q4 : -0.000464197044494}
2019-04-14 18:30:22.51: SIM {TimeUS : 46334792, Roll : 0.14, Pitch : 0.12, Yaw : 359.94, Alt : 34.1699981689, Lat : 49.2835704, Lng : -123.1150209, Q1 : 0.999998450279, Q2 : 0.00130755826831, Q3 : 0.00107668724377, Q4 : -0.000496539112646}
2019-04-14 18:30:22.61: SIM {TimeUS : 46434752, Roll : 0.13, Pitch : 0.1, Yaw : 359.94, Alt : 34.3800010681, Lat : 49.2835704, Lng : -123.1150209, Q1 : 0.999998748302, Q2 : 0.00119263434317, Q3 : 0.000925165251829, Q4 : -0.000522809743416}
2019-04-14 18:30:22.71: SIM {TimeUS : 46534712, Roll : 0.11, Pitch : 0.08, Yaw : 359.93, Alt : 34.5999984741, Lat : 49.2835704, Lng : -123.1150208, Q1 : 0.999999046326, Q2 : 0.000986850471236, Q3 : 0.000770506390836, Q4 : -0.00054603285389}
2019-04-14 18:30:22.81: SIM {TimeUS : 46634672, Roll : 0.08, Pitch : 0.07, Yaw : 359.93, Alt : 34.8100013733, Lat : 49.2835704, Lng : -123.1150208, Q1 : 0.999999344349, Q2 : 0.000757332833018, Q3 : 0.000661368772853, Q4 : -0.00057113962248}
2019-04-14 18:30:22.91: SIM {TimeUS : 46734632, Roll : 0.06, Pitch : 0.06, Yaw : 359.93, Alt : 35.0299987793, Lat : 49.2835704, Lng : -123.1150208, Q1 : 0.999999523163, Q2 : 0.000525719253346, Q3 : 0.000574383011553, Q4 : -0.000598399725277}
2019-04-14 18:30:23.02: SIM {TimeUS : 46835425, Roll : 0.04, Pitch : 0.03, Yaw : 359.92, Alt : 35.2400016785, Lat : 49.2835704, Lng : -123.1150208, Q1 : 0.999999701977, Q2 : 0.000425734149758, Q3 : 0.00029631666257, Q4 : -0.000621603161562}
2019-04-14 18:30:23.11: SIM {TimeUS : 46935385, Roll : 0.04, Pitch : 0.0, Yaw : 359.92, Alt : 35.4599990845, Lat : 49.2835704, Lng : -123.1150208, Q1 : 0.999999701977, Q2 : 0.000384908838896, Q3 : 5.58599676879e-05, Q4 : -0.00064573349664}
2019-04-14 18:30:23.21: SIM {TimeUS : 47035345, Roll : 0.02, Pitch : 0.0, Yaw : 359.92, Alt : 35.6800003052, Lat : 49.2835704, Lng : -123.1150208, Q1 : 0.999999761581, Q2 : 0.000214529165532, Q3 : -5.77065511607e-05, Q4 : -0.00067715178011}
2019-04-14 18:30:23.31: SIM {TimeUS : 47135305, Roll : 0.01, Pitch : 0.0, Yaw : 359.91, Alt : 35.9000015259, Lat : 49.2835704, Lng : -123.1150208, Q1 : 0.999999761581, Q2 : 0.000170923609403, Q3 : -6.6830056312e-05, Q4 : -0.000704143021721}
2019-04-14 18:30:23.41: SIM {TimeUS : 47235265, Roll : 0.02, Pitch : 0.0, Yaw : 359.91, Alt : 36.1199989319, Lat : 49.2835704, Lng : -123.1150207, Q1 : 0.999999701977, Q2 : 0.000214921266888, Q3 : -6.33561940049e-05, Q4 : -0.00072936702054}
2019-04-14 18:30:23.51: SIM {TimeUS : 47335225, Roll : 0.0, Pitch : -0.02, Yaw : 359.91, Alt : 36.3400001526, Lat : 49.2835704, Lng : -123.1150207, Q1 : 0.999999701977, Q2 : 8.66675254656e-05, Q3 : -0.00021821539849, Q4 : -0.000754917156883}
2019-04-14 18:30:23.61: SIM {TimeUS : 47435185, Roll : -0.02, Pitch : -0.06, Yaw : 359.91, Alt : 36.5600013733, Lat : 49.2835704, Lng : -123.1150207, Q1 : 0.999999523163, Q2 : -0.000213388702832, Q3 : -0.000529040466063, Q4 : -0.000779702793807}
2019-04-14 18:30:23.71: SIM {TimeUS : 47535145, Roll : -0.06, Pitch : -0.08, Yaw : 359.9, Alt : 36.7900009155, Lat : 49.2835704, Lng : -123.1150207, Q1 : 0.99999922514, Q2 : -0.000576672784518, Q3 : -0.000748402904719, Q4 : -0.000803194066975}
2019-04-14 18:30:23.81: SIM {TimeUS : 47635105, Roll : -0.1, Pitch : -0.1, Yaw : 359.9, Alt : 37.0099983215, Lat : 49.2835704, Lng : -123.1150207, Q1 : 0.999998807907, Q2 : -0.000927837158088, Q3 : -0.000905408058316, Q4 : -0.000829161785077}
2019-04-14 18:30:23.91: SIM {TimeUS : 47735065, Roll : -0.11, Pitch : -0.1, Yaw : 359.9, Alt : 37.2400016785, Lat : 49.2835704, Lng : -123.1150207, Q1 : 0.999998688698, Q2 : -0.00104501238093, Q3 : -0.000905408058316, Q4 : -0.000860643514898}
2019-04-14 18:30:24.01: SIM {TimeUS : 47835025, Roll : -0.11, Pitch : -0.08, Yaw : 359.89, Alt : 37.4599990845, Lat : 49.2835704, Lng : -123.1150207, Q1 : 0.999998807907, Q2 : -0.000980003736913, Q3 : -0.000765006407164, Q4 : -0.000892871175893}
2019-04-14 18:30:24.11: SIM {TimeUS : 47934985, Roll : -0.09, Pitch : -0.05, Yaw : 359.89, Alt : 37.6899986267, Lat : 49.2835704, Lng : -123.1150207, Q1 : 0.999999165535, Q2 : -0.000809448189102, Q3 : -0.000481261056848, Q4 : -0.000920741062146}
2019-04-14 18:30:24.21: SIM {TimeUS : 48034945, Roll : -0.07, Pitch : -0.03, Yaw : 359.89, Alt : 37.9099998474, Lat : 49.2835704, Lng : -123.1150207, Q1 : 0.999999284744, Q2 : -0.000626878580078, Q3 : -0.000271335273283, Q4 : -0.000948845059611}
2019-04-14 18:30:24.31: SIM {TimeUS : 48134905, Roll : -0.06, Pitch : -0.03, Yaw : 359.88, Alt : 38.1399993896, Lat : 49.2835704, Lng : -123.1150207, Q1 : 0.999999344349, Q2 : -0.000582424981985, Q3 : -0.000277173094219, Q4 : -0.000973970163614}
2019-04-14 18:30:24.41: SIM {TimeUS : 48234865, Roll : -0.06, Pitch : -0.02, Yaw : 359.88, Alt : 38.3699989319, Lat : 49.2835704, Lng : -123.1150207, Q1 : 0.999999344349, Q2 : -0.000607543450315, Q3 : -0.000188806268852, Q4 : -0.000986653845757}
2019-04-14 18:30:24.51: SIM {TimeUS : 48334825, Roll : -0.08, Pitch : 0.0, Yaw : 359.88, Alt : 38.5999984741, Lat : 49.2835706, Lng : -123.1150207, Q1 : 0.99999922514, Q2 : -0.000779626134317, Q3 : -4.99632697029e-05, Q4 : -0.000994250760414}
2019-04-14 18:30:24.61: SIM {TimeUS : 48434785, Roll : -0.08, Pitch : 0.0, Yaw : 359.88, Alt : 38.8199996948, Lat : 49.2835706, Lng : -123.1150207, Q1 : 0.999999165535, Q2 : -0.000782612303738, Q3 : 6.75222472637e-05, Q4 : -0.000997925642878}
2019-04-14 18:30:24.71: SIM {TimeUS : 48534745, Roll : -0.06, Pitch : 0.03, Yaw : 359.88, Alt : 39.0499992371, Lat : 49.2835706, Lng : -123.1150207, Q1 : 0.999999284744, Q2 : -0.000578930426855, Q3 : 0.000292966054985, Q4 : -0.00100803305395}
2019-04-14 18:30:24.81: SIM {TimeUS : 48634705, Roll : -0.04, Pitch : 0.03, Yaw : 359.88, Alt : 39.2799987793, Lat : 49.2835706, Lng : -123.1150207, Q1 : 0.999999403954, Q2 : -0.000349279813236, Q3 : 0.000291817006655, Q4 : -0.00101268664002}
2019-04-14 18:30:24.91: SIM {TimeUS : 48734665, Roll : 0.0, Pitch : 0.02, Yaw : 359.88, Alt : 39.5099983215, Lat : 49.2835706, Lng : -123.1150207, Q1 : 0.999999463558, Q2 : -7.79645051807e-05, Q3 : 0.000241984671447, Q4 : -0.00101845280733}
2019-04-14 18:30:25.01: SIM {TimeUS : 48834625, Roll : 0.03, Pitch : 0.05, Yaw : 359.88, Alt : 39.7400016785, Lat : 49.2835706, Lng : -123.1150207, Q1 : 0.999999344349, Q2 : 0.000262831919827, Q3 : 0.000436848116806, Q4 : -0.00102483713999}
2019-04-14 18:30:25.12: SIM {TimeUS : 48935418, Roll : 0.07, Pitch : 0.09, Yaw : 359.88, Alt : 39.9799995422, Lat : 49.2835706, Lng : -123.1150207, Q1 : 0.999998927116, Q2 : 0.000651277310681, Q3 : 0.000797097978648, Q4 : -0.00103746308014}
2019-04-14 18:30:25.21: SIM {TimeUS : 49035378, Roll : 0.1, Pitch : 0.13, Yaw : 359.87, Alt : 40.2099990845, Lat : 49.2835706, Lng : -123.1150207, Q1 : 0.99999833107, Q2 : 0.000912267365493, Q3 : 0.00115986936726, Q4 : -0.00105633540079}
2019-04-14 18:30:25.31: SIM {TimeUS : 49135338, Roll : 0.09, Pitch : 0.17, Yaw : 359.87, Alt : 40.4399986267, Lat : 49.2835706, Lng : -123.1150207, Q1 : 0.999997913837, Q2 : 0.000841603963636, Q3 : 0.0015037645353, Q4 : -0.00106743501965}
2019-04-14 18:30:25.41: SIM {TimeUS : 49235298, Roll : 0.04, Pitch : 0.2, Yaw : 359.87, Alt : 40.6699981689, Lat : 49.2835706, Lng : -123.1150207, Q1 : 0.999997794628, Q2 : 0.000412535242504, Q3 : 0.00175855320413, Q4 : -0.00109561893623}
2019-04-14 18:30:25.51: SIM {TimeUS : 49335258, Roll : 0.0, Pitch : 0.2, Yaw : 359.87, Alt : 40.9000015259, Lat : 49.2835706, Lng : -123.1150207, Q1 : 0.999997735023, Q2 : 8.90033152245e-06, Q3 : 0.00180700805504, Q4 : -0.00111691851635}
2019-04-14 18:30:25.61: SIM {TimeUS : 49435218, Roll : -0.02, Pitch : 0.17, Yaw : 359.87, Alt : 41.1399993896, Lat : 49.2835706, Lng : -123.1150207, Q1 : 0.999998152256, Q2 : -0.000209415651625, Q3 : 0.00152511824854, Q4 : -0.00113242585212}
2019-04-14 18:30:25.71: SIM {TimeUS : 49535178, Roll : -0.03, Pitch : 0.13, Yaw : 359.86, Alt : 41.3699989319, Lat : 49.2835706, Lng : -123.1150207, Q1 : 0.999998629093, Q2 : -0.000295392295811, Q3 : 0.00115305953659, Q4 : -0.00115665863268}
2019-04-14 18:30:25.81: SIM {TimeUS : 49635138, Roll : -0.02, Pitch : 0.11, Yaw : 359.86, Alt : 41.5999984741, Lat : 49.2835706, Lng : -123.1150207, Q1 : 0.999998748302, Q2 : -0.000215491440031, Q3 : 0.00104523997288, Q4 : -0.00119035330135}
2019-04-14 18:30:25.91: SIM {TimeUS : 49735098, Roll : 0.01, Pitch : 0.12, Yaw : 359.85, Alt : 41.8400001526, Lat : 49.2835706, Lng : -123.1150207, Q1 : 0.999998629093, Q2 : 9.76309893304e-05, Q3 : 0.0011098603718, Q4 : -0.00122837582603}
2019-04-14 18:30:26.01: SIM {TimeUS : 49835058, Roll : 0.06, Pitch : 0.13, Yaw : 359.85, Alt : 42.0699996948, Lat : 49.2835706, Lng : -123.1150207, Q1 : 0.99999833107, Q2 : 0.000541727524251, Q3 : 0.00116023293231, Q4 : -0.00126973632723}
2019-04-14 18:30:26.11: SIM {TimeUS : 49935018, Roll : 0.1, Pitch : 0.11, Yaw : 359.84, Alt : 42.3100013733, Lat : 49.2835706, Lng : -123.1150207, Q1 : 0.999998211861, Q2 : 0.000888530805241, Q3 : 0.00101047358476, Q4 : -0.00131863960996}
2019-04-14 18:30:26.21: SIM {TimeUS : 50034978, Roll : 0.1, Pitch : 0.08, Yaw : 359.84, Alt : 42.5400009155, Lat : 49.2835706, Lng : -123.1150207, Q1 : 0.999998390675, Q2 : 0.000899183796719, Q3 : 0.000780438422225, Q4 : -0.00136650411878}
2019-04-14 18:30:26.31: SIM {TimeUS : 50134938, Roll : 0.06, Pitch : 0.07, Yaw : 359.83, Alt : 42.7799987793, Lat : 49.2835706, Lng : -123.1150207, Q1 : 0.999998688698, Q2 : 0.000534447317477, Q3 : 0.000615739147179, Q4 : -0.00139720446896}
2019-04-14 18:30:26.41: SIM {TimeUS : 50234898, Roll : 0.0, Pitch : 0.06, Yaw : 359.83, Alt : 43.0099983215, Lat : 49.2835706, Lng : -123.1150207, Q1 : 0.999998867512, Q2 : 5.30221768713e-05, Q3 : 0.000556976709049, Q4 : -0.00141717900988}
2019-04-14 18:30:26.51: SIM {TimeUS : 50334858, Roll : -0.03, Pitch : 0.07, Yaw : 359.83, Alt : 43.25, Lat : 49.2835706, Lng : -123.1150207, Q1 : 0.999998748302, Q2 : -0.000281026470475, Q3 : 0.000674675276969, Q4 : -0.00143142801244}
2019-04-14 18:30:26.61: SIM {TimeUS : 50434818, Roll : -0.05, Pitch : 0.08, Yaw : 359.83, Alt : 43.4799995422, Lat : 49.2835704, Lng : -123.1150207, Q1 : 0.999998569489, Q2 : -0.000448711361969, Q3 : 0.000733531545848, Q4 : -0.00144197710324}
2019-04-14 18:30:26.71: SIM {TimeUS : 50534778, Roll : -0.04, Pitch : 0.07, Yaw : 359.83, Alt : 43.7200012207, Lat : 49.2835704, Lng : -123.1150207, Q1 : 0.999998688698, Q2 : -0.000425102509325, Q3 : 0.000616363016888, Q4 : -0.00145200605039}
2019-04-14 18:30:26.81: SIM {TimeUS : 50634738, Roll : -0.05, Pitch : 0.05, Yaw : 359.83, Alt : 43.9500007629, Lat : 49.2835704, Lng : -123.1150206, Q1 : 0.999998748302, Q2 : -0.000459409551695, Q3 : 0.000475728884339, Q4 : -0.00146832596511}
2019-04-14 18:30:26.91: SIM {TimeUS : 50734698, Roll : -0.04, Pitch : 0.03, Yaw : 359.82, Alt : 44.1899986267, Lat : 49.2835704, Lng : -123.1150206, Q1 : 0.999998748302, Q2 : -0.000418747076765, Q3 : 0.00032378436299, Q4 : -0.00148788746446}
2019-04-14 18:30:27.01: SIM {TimeUS : 50834658, Roll : -0.03, Pitch : 0.02, Yaw : 359.82, Alt : 44.4199981689, Lat : 49.2835704, Lng : -123.1150206, Q1 : 0.999998748302, Q2 : -0.000281104934402, Q3 : 0.00025652788463, Q4 : -0.00151486485265}
2019-04-14 18:30:27.11: SIM {TimeUS : 50934618, Roll : -0.02, Pitch : 0.02, Yaw : 359.82, Alt : 44.6599998474, Lat : 49.2835704, Lng : -123.1150206, Q1 : 0.999998807907, Q2 : -0.00019810750382, Q3 : 0.000236734136706, Q4 : -0.00154161220416}
2019-04-14 18:30:27.21: SIM {TimeUS : 51035411, Roll : -0.02, Pitch : 0.0, Yaw : 359.82, Alt : 44.9000015259, Lat : 49.2835704, Lng : -123.1150206, Q1 : 0.999998748302, Q2 : -0.000244339200435, Q3 : 4.68687503599e-05, Q4 : -0.00157088146079}
2019-04-14 18:30:27.31: SIM {TimeUS : 51135371, Roll : -0.03, Pitch : -0.02, Yaw : 359.81, Alt : 45.1300010681, Lat : 49.2835704, Lng : -123.1150206, Q1 : 0.999998629093, Q2 : -0.00031656093779, Q3 : -0.00023925890855, Q4 : -0.00160300603602}
2019-04-14 18:30:27.41: SIM {TimeUS : 51235331, Roll : -0.04, Pitch : -0.04, Yaw : 359.81, Alt : 45.3699989319, Lat : 49.2835703, Lng : -123.1150206, Q1 : 0.999998509884, Q2 : -0.000357234763214, Q3 : -0.000402160716476, Q4 : -0.00163786008488}
2019-04-14 18:30:27.51: SIM {TimeUS : 51335291, Roll : -0.03, Pitch : -0.05, Yaw : 359.8, Alt : 45.6100006104, Lat : 49.2835703, Lng : -123.1150206, Q1 : 0.999998390675, Q2 : -0.000338060723152, Q3 : -0.000492620514706, Q4 : -0.00167769158725}
2019-04-14 18:30:27.61: SIM {TimeUS : 51435251, Roll : -0.04, Pitch : -0.05, Yaw : 359.8, Alt : 45.8400001526, Lat : 49.2835703, Lng : -123.1150206, Q1 : 0.99999833107, Q2 : -0.000393529917346, Q3 : -0.000468150741654, Q4 : -0.00171040755231}
2019-04-14 18:30:27.71: SIM {TimeUS : 51535211, Roll : -0.06, Pitch : -0.04, Yaw : 359.8, Alt : 46.0699996948, Lat : 49.2835703, Lng : -123.1150206, Q1 : 0.999998271465, Q2 : -0.000561016961001, Q3 : -0.000372310227249, Q4 : -0.00173826143146}
2019-04-14 18:30:27.81: SIM {TimeUS : 51635171, Roll : -0.09, Pitch : -0.03, Yaw : 359.79, Alt : 46.2999992371, Lat : 49.2835703, Lng : -123.1150206, Q1 : 0.999998092651, Q2 : -0.000827693264, Q3 : -0.000297452876111, Q4 : -0.00176289258525}
2019-04-14 18:30:27.91: SIM {TimeUS : 51735131, Roll : -0.11, Pitch : -0.02, Yaw : 359.79, Alt : 46.5200004578, Lat : 49.2835703, Lng : -123.1150206, Q1 : 0.999997854233, Q2 : -0.00101471785456, Q3 : -0.000259748863755, Q4 : -0.00178820907604}
2019-04-14 18:30:28.01: SIM {TimeUS : 51835091, Roll : -0.12, Pitch : -0.01, Yaw : 359.79, Alt : 46.7400016785, Lat : 49.2835703, Lng : -123.1150206, Q1 : 0.999997794628, Q2 : -0.00105482200161, Q3 : -0.000163765987963, Q4 : -0.00180959026329}
2019-04-14 18:30:28.11: SIM {TimeUS : 51935051, Roll : -0.1, Pitch : 0.0, Yaw : 359.79, Alt : 46.9500007629, Lat : 49.2835703, Lng : -123.1150206, Q1 : 0.999997913837, Q2 : -0.000949858804233, Q3 : -4.82778204969e-06, Q4 : -0.00182732136454}
2019-04-14 18:30:28.21: SIM {TimeUS : 52035011, Roll : -0.08, Pitch : 0.0, Yaw : 359.78, Alt : 47.1599998474, Lat : 49.2835703, Lng : -123.1150206, Q1 : 0.999998033047, Q2 : -0.000747074140236, Q3 : 6.04432025284e-05, Q4 : -0.00184346700553}
2019-04-14 18:30:28.31: SIM {TimeUS : 52134971, Roll : -0.06, Pitch : 0.0, Yaw : 359.78, Alt : 47.3499984741, Lat : 49.2835703, Lng : -123.1150206, Q1 : 0.999998152256, Q2 : -0.000537146872375, Q3 : 3.39117432304e-05, Q4 : -0.00186019425746}
2019-04-14 18:30:28.41: SIM {TimeUS : 52234931, Roll : -0.05, Pitch : -0.01, Yaw : 359.78, Alt : 47.5400009155, Lat : 49.2835703, Lng : -123.1150206, Q1 : 0.999998152256, Q2 : -0.000436555186752, Q3 : -8.84360561031e-05, Q4 : -0.00188010698184}
2019-04-14 18:30:28.51: SIM {TimeUS : 52334891, Roll : -0.04, Pitch : -0.04, Yaw : 359.78, Alt : 47.7200012207, Lat : 49.2835703, Lng : -123.1150206, Q1 : 0.999998033047, Q2 : -0.000398658128688, Q3 : -0.000365852873074, Q4 : -0.00190211739391}
2019-04-14 18:30:28.61: SIM {TimeUS : 52434851, Roll : -0.03, Pitch : -0.07, Yaw : 359.77, Alt : 47.8899993896, Lat : 49.2835703, Lng : -123.1150206, Q1 : 0.999997913837, Q2 : -0.000313390395604, Q3 : -0.000614581280388, Q4 : -0.00192346097901}
2019-04-14 18:30:28.71: SIM {TimeUS : 52534811, Roll : -0.03, Pitch : -0.09, Yaw : 359.77, Alt : 48.0499992371, Lat : 49.2835703, Lng : -123.1150206, Q1 : 0.999997675419, Q2 : -0.000273027457297, Q3 : -0.000857065722812, Q4 : -0.00194670900237}
2019-04-14 18:30:28.81: SIM {TimeUS : 52634771, Roll : -0.03, Pitch : -0.11, Yaw : 359.77, Alt : 48.1899986267, Lat : 49.2835703, Lng : -123.1150206, Q1 : 0.999997496605, Q2 : -0.000288538489258, Q3 : -0.00103864073753, Q4 : -0.00197169557214}
2019-04-14 18:30:28.91: SIM {TimeUS : 52734731, Roll : 0.0, Pitch : -0.11, Yaw : 359.77, Alt : 48.3199996948, Lat : 49.2835703, Lng : -123.1150206, Q1 : 0.999997496605, Q2 : -7.94852385297e-05, Q3 : -0.00100521137938, Q4 : -0.00199414673261}
2019-04-14 18:30:29.01: SIM {TimeUS : 52834691, Roll : 0.02, Pitch : -0.09, Yaw : 359.76, Alt : 48.4399986267, Lat : 49.2835703, Lng : -123.1150206, Q1 : 0.99999755621, Q2 : 0.000204316806048, Q3 : -0.000871120078955, Q4 : -0.00201594247483}
2019-04-14 18:30:29.11: SIM {TimeUS : 52934651, Roll : 0.05, Pitch : -0.07, Yaw : 359.76, Alt : 48.5499992371, Lat : 49.2835703, Lng : -123.1150207, Q1 : 0.999997615814, Q2 : 0.000454533059383, Q3 : -0.000653366558254, Q4 : -0.00203859084286}
2019-04-14 18:30:29.22: SIM {TimeUS : 53035444, Roll : 0.06, Pitch : -0.04, Yaw : 359.76, Alt : 48.6500015259, Lat : 49.2835703, Lng : -123.1150207, Q1 : 0.999997615814, Q2 : 0.00054748862749, Q3 : -0.000424438039772, Q4 : -0.00206600385718}
2019-04-14 18:30:29.31: SIM {TimeUS : 53135404, Roll : 0.06, Pitch : -0.03, Yaw : 359.75, Alt : 48.7299995422, Lat : 49.2835703, Lng : -123.1150207, Q1 : 0.99999755621, Q2 : 0.000592680531554, Q3 : -0.000328178110067, Q4 : -0.00209824810736}
2019-04-14 18:30:29.41: SIM {TimeUS : 53235364, Roll : 0.06, Pitch : -0.04, Yaw : 359.75, Alt : 48.7999992371, Lat : 49.2835703, Lng : -123.1150207, Q1 : 0.999997496605, Q2 : 0.000535952800419, Q3 : -0.000402642472181, Q4 : -0.00213369191624}
2019-04-14 18:30:29.51: SIM {TimeUS : 53335324, Roll : 0.03, Pitch : -0.04, Yaw : 359.75, Alt : 48.8699989319, Lat : 49.2835703, Lng : -123.1150207, Q1 : 0.999997496605, Q2 : 0.000336713710567, Q3 : -0.000423937686719, Q4 : -0.00217156298459}
2019-04-14 18:30:29.61: SIM {TimeUS : 53435284, Roll : 0.02, Pitch : -0.04, Yaw : 359.74, Alt : 48.9199981689, Lat : 49.2835704, Lng : -123.1150207, Q1 : 0.999997496605, Q2 : 0.000186002464034, Q3 : -0.000350497546606, Q4 : -0.00221018260345}
2019-04-14 18:30:29.71: SIM {TimeUS : 53535244, Roll : 0.0, Pitch : -0.03, Yaw : 359.74, Alt : 48.9700012207, Lat : 49.2835704, Lng : -123.1150207, Q1 : 0.999997437, Q2 : 5.44742943021e-05, Q3 : -0.000273584708339, Q4 : -0.00224546552636}
2019-04-14 18:30:29.81: SIM {TimeUS : 53635204, Roll : 0.02, Pitch : -0.03, Yaw : 359.73, Alt : 49.0099983215, Lat : 49.2835704, Lng : -123.1150207, Q1 : 0.999997317791, Q2 : 0.000208373501664, Q3 : -0.000268620118732, Q4 : -0.00227844063193}
2019-04-14 18:30:29.91: SIM {TimeUS : 53735164, Roll : 0.18, Pitch : -0.12, Yaw : 359.73, Alt : 49.0400009155, Lat : 49.2835704, Lng : -123.1150207, Q1 : 0.999995410442, Q2 : 0.00161561125424, Q3 : -0.00110191258136, Q4 : -0.00231095752679}
2019-04-14 18:30:30.01: SIM {TimeUS : 53835124, Roll : 0.54, Pitch : -0.41, Yaw : 359.73, Alt : 49.0699996948, Lat : 49.2835704, Lng : -123.1150207, Q1 : 0.999979376793, Q2 : 0.00475707976148, Q3 : -0.00362501689233, Q4 : -0.0023325427901}
2019-04-14 18:30:30.11: SIM {TimeUS : 53935084, Roll : 1.09, Pitch : -0.91, Yaw : 359.72, Alt : 49.0999984741, Lat : 49.2835704, Lng : -123.1150207, Q1 : 0.99991941452, Q2 : 0.00953576341271, Q3 : -0.00804450921714, Q4 : -0.0023465831764}
2019-04-14 18:30:30.21: SIM {TimeUS : 54035044, Roll : 1.76, Pitch : -1.57, Yaw : 359.7, Alt : 49.1199989319, Lat : 49.2835704, Lng : -123.1150207, Q1 : 0.999783992767, Q2 : 0.0154080111533, Q3 : -0.0137531664222, Q4 : -0.00233919220045}
2019-04-14 18:30:30.31: SIM {TimeUS : 54135004, Roll : 2.5, Pitch : -2.31, Yaw : 359.68, Alt : 49.1399993896, Lat : 49.2835706, Lng : -123.1150206, Q1 : 0.99955612421, Q2 : 0.0217647720128, Q3 : -0.020212886855, Q4 : -0.00229047518224}
2019-04-14 18:30:30.41: SIM {TimeUS : 54234964, Roll : 3.2, Pitch : -3.0, Yaw : 359.66, Alt : 49.1500015259, Lat : 49.2835707, Lng : -123.1150205, Q1 : 0.999262690544, Q2 : 0.0278834365308, Q3 : -0.0263038091362, Q4 : -0.00216569355689}
2019-04-14 18:30:30.51: SIM {TimeUS : 54334924, Roll : 3.78, Pitch : -3.55, Yaw : 359.65, Alt : 49.1699981689, Lat : 49.2835708, Lng : -123.1150203, Q1 : 0.998972058296, Q2 : 0.0329065322876, Q3 : -0.0311164483428, Q4 : -0.00196609133855}
2019-04-14 18:30:30.61: SIM {TimeUS : 54434884, Roll : 4.21, Pitch : -3.96, Yaw : 359.65, Alt : 49.1800003052, Lat : 49.2835709, Lng : -123.11502, Q1 : 0.998724162579, Q2 : 0.0366433262825, Q3 : -0.0347045585513, Q4 : -0.00171175284777}
2019-04-14 18:30:30.71: SIM {TimeUS : 54534844, Roll : 4.53, Pitch : -4.26, Yaw : 359.66, Alt : 49.1899986267, Lat : 49.2835712, Lng : -123.1150198, Q1 : 0.998523831367, Q2 : 0.0394657365978, Q3 : -0.0372919775546, Q4 : -0.00140837370418}
2019-04-14 18:30:30.81: SIM {TimeUS : 54634804, Roll : 4.79, Pitch : -4.5, Yaw : 359.68, Alt : 49.2000007629, Lat : 49.2835714, Lng : -123.1150193, Q1 : 0.998355090618, Q2 : 0.0416715368629, Q3 : -0.0393618792295, Q4 : -0.0010901245987}
2019-04-14 18:30:30.91: SIM {TimeUS : 54734764, Roll : 5.03, Pitch : -4.75, Yaw : 359.69, Alt : 49.2099990845, Lat : 49.2835716, Lng : -123.1150188, Q1 : 0.998174667358, Q2 : 0.0438058637083, Q3 : -0.0415665023029, Q4 : -0.000791114522144}
2019-04-14 18:30:31.01: SIM {TimeUS : 54834724, Roll : 5.31, Pitch : -5.03, Yaw : 359.7, Alt : 49.2200012207, Lat : 49.2835721, Lng : -123.1150183, Q1 : 0.997963666916, Q2 : 0.0462077520788, Q3 : -0.043966434896, Q4 : -0.000505097617861}
2019-04-14 18:30:31.11: SIM {TimeUS : 54934684, Roll : 5.6, Pitch : -5.29, Yaw : 359.71, Alt : 49.2200012207, Lat : 49.2835725, Lng : -123.1150175, Q1 : 0.997741281986, Q2 : 0.0486833378673, Q3 : -0.0462836660445, Q4 : -0.000226275442401}
2019-04-14 18:30:31.21: SIM {TimeUS : 55034644, Roll : 5.83, Pitch : -5.49, Yaw : 359.72, Alt : 49.2299995422, Lat : 49.2835729, Lng : -123.1150168, Q1 : 0.99755859375, Q2 : 0.0507050640881, Q3 : -0.0480190739036, Q4 : 3.68666551367e-05}
2019-04-14 18:30:31.32: SIM {TimeUS : 55135437, Roll : 6.0, Pitch : -5.64, Yaw : 359.73, Alt : 49.2400016785, Lat : 49.2835734, Lng : -123.115016, Q1 : 0.997420907021, Q2 : 0.0521988645196, Q3 : -0.0492623411119, Q4 : 0.000243314483669}
2019-04-14 18:30:31.41: SIM {TimeUS : 55235397, Roll : 6.1, Pitch : -5.73, Yaw : 359.73, Alt : 49.2400016785, Lat : 49.283574, Lng : -123.115015, Q1 : 0.997331380844, Q2 : 0.0530856326222, Q3 : -0.0501184687018, Q4 : 0.000389231543522}
2019-04-14 18:30:31.51: SIM {TimeUS : 55335357, Roll : 6.18, Pitch : -5.81, Yaw : 359.74, Alt : 49.25, Lat : 49.2835746, Lng : -123.1150139, Q1 : 0.997261941433, Q2 : 0.0537738911808, Q3 : -0.0507614202797, Q4 : 0.00048396360944}
2019-04-14 18:30:31.61: SIM {TimeUS : 55435317, Roll : 6.27, Pitch : -5.88, Yaw : 359.73, Alt : 49.25, Lat : 49.2835753, Lng : -123.1150129, Q1 : 0.997187614441, Q2 : 0.0545278936625, Q3 : -0.0514138415456, Q4 : 0.000524887058418}
2019-04-14 18:30:31.71: SIM {TimeUS : 55535277, Roll : 6.48, Pitch : -5.94, Yaw : 359.77, Alt : 49.25, Lat : 49.2835761, Lng : -123.1150118, Q1 : 0.997060120106, Q2 : 0.0563992895186, Q3 : -0.0518578849733, Q4 : 0.000977516290732}
2019-04-14 18:30:31.81: SIM {TimeUS : 55635237, Roll : 6.96, Pitch : -5.87, Yaw : 0.24, Alt : 49.2599983215, Lat : 49.2835768, Lng : -123.1150105, Q1 : 0.996830701828, Q2 : 0.0607979744673, Q3 : -0.0510349310935, Q4 : 0.005257088691}
2019-04-14 18:30:31.91: SIM {TimeUS : 55735197, Roll : 7.64, Pitch : -5.8, Yaw : 1.82, Alt : 49.2599983215, Lat : 49.2835776, Lng : -123.1150092, Q1 : 0.996315360069, Q2 : 0.067369826138, Q3 : -0.0494517609477, Q4 : 0.0192767102271}
2019-04-14 18:30:32.01: SIM {TimeUS : 55835157, Roll : 8.18, Pitch : -6.03, Yaw : 4.96, Alt : 49.2599983215, Lat : 49.2835785, Lng : -123.1150078, Q1 : 0.994965553284, Q2 : 0.073494143784, Q3 : -0.0493866503239, Q4 : 0.0469377413392}
2019-04-14 18:30:32.11: SIM {TimeUS : 55935117, Roll : 8.3, Pitch : -6.71, Yaw : 9.66, Alt : 49.2599983215, Lat : 49.2835793, Lng : -123.1150062, Q1 : 0.991762578487, Q2 : 0.0769898816943, Q3 : -0.0520765036345, Q4 : 0.0881341695786}
2019-04-14 18:30:32.21: SIM {TimeUS : 56035077, Roll : 7.82, Pitch : -7.79, Yaw : 15.72, Alt : 49.2599983215, Lat : 49.2835801, Lng : -123.1150046, Q1 : 0.985370516777, Q2 : 0.0767288357019, Q3 : -0.0578231886029, Q4 : 0.140762865543}
2019-04-14 18:30:32.31: SIM {TimeUS : 56135037, Roll : 6.68, Pitch : -9.14, Yaw : 22.88, Alt : 49.2700004578, Lat : 49.2835811, Lng : -123.1150028, Q1 : 0.974427700043, Q2 : 0.0727061033249, Q3 : -0.0664684176445, Q4 : 0.201956495643}
2019-04-14 18:30:32.41: SIM {TimeUS : 56234997, Roll : 4.86, Pitch : -10.55, Yaw : 30.87, Alt : 49.2700004578, Lat : 49.2835819, Lng : -123.1150009, Q1 : 0.957932293415, Q2 : 0.0652145221829, Q3 : -0.0773448199034, Q4 : 0.268571317196}
2019-04-14 18:30:32.51: SIM {TimeUS : 56334957, Roll : 2.23, Pitch : -11.77, Yaw : 39.23, Alt : 49.2700004578, Lat : 49.283583, Lng : -123.114999, Q1 : 0.936131179333, Q2 : 0.0527176000178, Q3 : -0.0900957211852, Q4 : 0.335800677538}
2019-04-14 18:30:32.61: SIM {TimeUS : 56434917, Roll : -0.95, Pitch : -12.54, Yaw : 47.15, Alt : 49.2700004578, Lat : 49.283584, Lng : -123.1149969, Q1 : 0.91137701273, Q2 : 0.0360845960677, Q3 : -0.103420928121, Q4 : 0.396729141474}
2019-04-14 18:30:32.71: SIM {TimeUS : 56534877, Roll : -4.04, Pitch : -12.8, Yaw : 53.77, Alt : 49.2700004578, Lat : 49.283585, Lng : -123.1149948, Q1 : 0.887574791908, Q2 : 0.019134292379, Q3 : -0.115267537534, Q4 : 0.445598751307}
2019-04-14 18:30:32.81: SIM {TimeUS : 56634837, Roll : -6.39, Pitch : -12.73, Yaw : 58.51, Alt : 49.2700004578, Lat : 49.2835862, Lng : -123.1149926, Q1 : 0.868718504906, Q2 : 0.00572723196819, Q3 : -0.123700655997, Q4 : 0.479576438665}
2019-04-14 18:30:32.91: SIM {TimeUS : 56734797, Roll : -7.69, Pitch : -12.58, Yaw : 61.24, Alt : 49.2700004578, Lat : 49.2835877, Lng : -123.1149904, Q1 : 0.857175707817, Q2 : -0.00168371200562, Q3 : -0.128032281995, Q4 : 0.498853385448}
2019-04-14 18:30:33.01: SIM {TimeUS : 56834757, Roll : -7.93, Pitch : -12.55, Yaw : 62.15, Alt : 49.2700004578, Lat : 49.2835891, Lng : -123.1149881, Q1 : 0.853219628334, Q2 : -0.00257448665798, Q3 : -0.128913715482, Q4 : 0.505362153053}
2019-04-14 18:30:33.11: SIM {TimeUS : 56934717, Roll : -7.31, Pitch : -12.76, Yaw : 61.56, Alt : 49.2700004578, Lat : 49.2835905, Lng : -123.1149858, Q1 : 0.85568022728, Q2 : 0.00228778459132, Q3 : -0.127726659179, Q4 : 0.501489758492}
2019-04-14 18:30:33.21: SIM {TimeUS : 57034677, Roll : -6.07, Pitch : -13.2, Yaw : 59.85, Alt : 49.2700004578, Lat : 49.2835922, Lng : -123.1149835, Q1 : 0.862757027149, Q2 : 0.011646412313, Q3 : -0.125818908215, Q4 : 0.489575684071}
2019-04-14 18:30:33.31: SIM {TimeUS : 57134637, Roll : -4.45, Pitch : -13.83, Yaw : 57.34, Alt : 49.2700004578, Lat : 49.2835939, Lng : -123.1149812, Q1 : 0.872595250607, Q2 : 0.0238489266485, Q3 : -0.124104514718, Q4 : 0.471812278032}
2019-04-14 18:30:33.42: SIM {TimeUS : 57235430, Roll : -2.65, Pitch : -14.51, Yaw : 54.32, Alt : 49.2700004578, Lat : 49.2835957, Lng : -123.1149787, Q1 : 0.883681058884, Q2 : 0.0372063852847, Q3 : -0.122839301825, Q4 : 0.450148850679}
2019-04-14 18:30:33.51: SIM {TimeUS : 57335390, Roll : -0.86, Pitch : -15.09, Yaw : 51.16, Alt : 49.2799987793, Lat : 49.2835975, Lng : -123.1149762, Q1 : 0.894531190395, Q2 : 0.0499975085258, Q3 : -0.12172935158, Q4 : 0.427195668221}
2019-04-14 18:30:33.61: SIM {TimeUS : 57435350, Roll : 0.75, Pitch : -15.51, Yaw : 48.17, Alt : 49.2799987793, Lat : 49.2835994, Lng : -123.1149736, Q1 : 0.904186844826, Q2 : 0.0610425546765, Q3 : -0.12057197839, Q4 : 0.405194252729}
2019-04-14 18:30:33.71: SIM {TimeUS : 57535310, Roll : 2.06, Pitch : -15.73, Yaw : 45.64, Alt : 49.2799987793, Lat : 49.2836012, Lng : -123.1149708, Q1 : 0.911941885948, Q2 : 0.0695007964969, Q3 : -0.119216248393, Q4 : 0.386418402195}
2019-04-14 18:30:33.81: SIM {TimeUS : 57635270, Roll : 2.95, Pitch : -15.78, Yaw : 43.78, Alt : 49.2799987793, Lat : 49.2836031, Lng : -123.114968, Q1 : 0.917471885681, Q2 : 0.0749038159847, Q3 : -0.117837123573, Q4 : 0.372490555048}
2019-04-14 18:30:33.91: SIM {TimeUS : 57735230, Roll : 3.4, Pitch : -15.74, Yaw : 42.69, Alt : 49.2799987793, Lat : 49.283605, Lng : -123.114965, Q1 : 0.920729517937, Q2 : 0.0772730335593, Q3 : -0.116824239492, Q4 : 0.364195227623}
2019-04-14 18:30:34.01: SIM {TimeUS : 57835190, Roll : 3.43, Pitch : -15.7, Yaw : 42.35, Alt : 49.2799987793, Lat : 49.2836069, Lng : -123.1149619, Q1 : 0.921839058399, Q2 : 0.077007509768, Q3 : -0.116613037884, Q4 : 0.361502408981}
2019-04-14 18:30:34.11: SIM {TimeUS : 57935150, Roll : 3.08, Pitch : -15.72, Yaw : 42.67, Alt : 49.2799987793, Lat : 49.283609, Lng : -123.1149586, Q1 : 0.92103266716, Q2 : 0.0746300965548, Q3 : -0.117663666606, Q4 : 0.363709270954}
2019-04-14 18:30:34.21: SIM {TimeUS : 58035110, Roll : 2.46, Pitch : -15.81, Yaw : 43.49, Alt : 49.2799987793, Lat : 49.283611, Lng : -123.1149553, Q1 : 0.918673753738, Q2 : 0.0707286372781, Q3 : -0.119881473482, Q4 : 0.369681596756}
2019-04-14 18:30:34.31: SIM {TimeUS : 58135070, Roll : 1.65, Pitch : -15.96, Yaw : 44.65, Alt : 49.2799987793, Lat : 49.2836129, Lng : -123.1149519, Q1 : 0.915202498436, Q2 : 0.0659409761429, Q3 : -0.122982732952, Q4 : 0.378062784672}
2019-04-14 18:30:34.41: SIM {TimeUS : 58235030, Roll : 0.78, Pitch : -16.09, Yaw : 45.96, Alt : 49.2799987793, Lat : 49.283615, Lng : -123.1149484, Q1 : 0.911144316196, Q2 : 0.0609258785844, Q3 : -0.126252070069, Q4 : 0.387510716915}
2019-04-14 18:30:34.51: SIM {TimeUS : 58334990, Roll : 0.0, Pitch : -16.2, Yaw : 47.26, Alt : 49.2799987793, Lat : 49.2836171, Lng : -123.1149449, Q1 : 0.90700763464, Q2 : 0.0564318075776, Q3 : -0.129187941551, Q4 : 0.396816194057}
2019-04-14 18:30:34.61: SIM {TimeUS : 58434950, Roll : -0.68, Pitch : -16.28, Yaw : 48.39, Alt : 49.2799987793, Lat : 49.2836191, Lng : -123.1149413, Q1 : 0.903275728226, Q2 : 0.052689243108, Q3 : -0.131634503603, Q4 : 0.404955863953}
2019-04-14 18:30:34.71: SIM {TimeUS : 58534910, Roll : -1.15, Pitch : -16.34, Yaw : 49.26, Alt : 49.2799987793, Lat : 49.2836213, Lng : -123.1149376, Q1 : 0.900303423405, Q2 : 0.050188113004, Q3 : -0.133365944028, Q4 : 0.411276578903}
2019-04-14 18:30:34.81: SIM {TimeUS : 58634870, Roll : -1.39, Pitch : -16.36, Yaw : 49.83, Alt : 49.2799987793, Lat : 49.2836235, Lng : -123.1149339, Q1 : 0.898338377476, Q2 : 0.049054287374, Q3 : -0.134133338928, Q4 : 0.41543969512}
2019-04-14 18:30:34.91: SIM {TimeUS : 58734830, Roll : -1.43, Pitch : -16.36, Yaw : 50.08, Alt : 49.2799987793, Lat : 49.2836257, Lng : -123.1149302, Q1 : 0.897445321083, Q2 : 0.0490277335048, Q3 : -0.134196594357, Q4 : 0.417348206043}
2019-04-14 18:30:35.01: SIM {TimeUS : 58834790, Roll : -1.32, Pitch : -16.39, Yaw : 50.04, Alt : 49.2799987793, Lat : 49.283628, Lng : -123.1149263, Q1 : 0.897512078285, Q2 : 0.0499262884259, Q3 : -0.134006336331, Q4 : 0.417159169912}
2019-04-14 18:30:35.11: SIM {TimeUS : 58934750, Roll : -1.1, Pitch : -16.44, Yaw : 49.77, Alt : 49.2900009155, Lat : 49.2836303, Lng : -123.1149226, Q1 : 0.898350894451, Q2 : 0.0515502355993, Q3 : -0.133730739355, Q4 : 0.415240049362}
2019-04-14 18:30:35.21: SIM {TimeUS : 59034710, Roll : -0.8, Pitch : -16.52, Yaw : 49.33, Alt : 49.2900009155, Lat : 49.2836327, Lng : -123.1149188, Q1 : 0.89971858263, Q2 : 0.0536453612149, Q3 : -0.133480101824, Q4 : 0.412082254887}
2019-04-14 18:30:35.31: SIM {TimeUS : 59134670, Roll : -0.47, Pitch : -16.59, Yaw : 48.8, Alt : 49.2900009155, Lat : 49.2836349, Lng : -123.1149148, Q1 : 0.901385605335, Q2 : 0.055856667459, Q3 : -0.133136615157, Q4 : 0.408238500357}
2019-04-14 18:30:35.41: SIM {TimeUS : 59234630, Roll : -0.14, Pitch : -16.65, Yaw : 48.25, Alt : 49.2900009155, Lat : 49.2836373, Lng : -123.114911, Q1 : 0.903107762337, Q2 : 0.0580257810652, Q3 : -0.132719889283, Q4 : 0.404245972633}
2019-04-14 18:30:35.52: SIM {TimeUS : 59335423, Roll : 0.15, Pitch : -16.7, Yaw : 47.73, Alt : 49.2900009155, Lat : 49.2836397, Lng : -123.114907, Q1 : 0.90469622612, Q2 : 0.0599771104753, Q3 : -0.132294416428, Q4 : 0.400531738997}
2019-04-14 18:30:35.61: SIM {TimeUS : 59435383, Roll : 0.39, Pitch : -16.73, Yaw : 47.32, Alt : 49.2900009155, Lat : 49.2836422, Lng : -123.114903, Q1 : 0.905986249447, Q2 : 0.0615168511868, Q3 : -0.131922751665, Q4 : 0.397493362427}
2019-04-14 18:30:35.71: SIM {TimeUS : 59535343, Roll : 0.56, Pitch : -16.75, Yaw : 47.02, Alt : 49.2900009155, Lat : 49.2836446, Lng : -123.1148989, Q1 : 0.906910777092, Q2 : 0.0625611320138, Q3 : -0.131628975272, Q4 : 0.395313560963}
2019-04-14 18:30:35.81: SIM {TimeUS : 59635303, Roll : 0.64, Pitch : -16.76, Yaw : 46.85, Alt : 49.2900009155, Lat : 49.283647, Lng : -123.1148947, Q1 : 0.907429099083, Q2 : 0.0630602836609, Q3 : -0.131584763527, Q4 : 0.394057482481}
2019-04-14 18:30:35.91: SIM {TimeUS : 59735263, Roll : 0.64, Pitch : -16.79, Yaw : 46.8, Alt : 49.2900009155, Lat : 49.2836495, Lng : -123.1148907, Q1 : 0.907561600208, Q2 : 0.0630793571472, Q3 : -0.131791502237, Q4 : 0.393679976463}
2019-04-14 18:30:36.01: SIM {TimeUS : 59835223, Roll : 0.57, Pitch : -16.83, Yaw : 46.86, Alt : 49.2900009155, Lat : 49.2836521, Lng : -123.1148866, Q1 : 0.907354354858, Q2 : 0.0627271234989, Q3 : -0.13230779767, Q4 : 0.394040703773}
2019-04-14 18:30:36.11: SIM {TimeUS : 59935183, Roll : 0.45, Pitch : -16.87, Yaw : 46.99, Alt : 49.2900009155, Lat : 49.2836546, Lng : -123.1148824, Q1 : 0.906899929047, Q2 : 0.0620784014463, Q3 : -0.133000791073, Q4 : 0.394955188036}
2019-04-14 18:30:36.21: SIM {TimeUS : 60035143, Roll : 0.29, Pitch : -16.92, Yaw : 47.18, Alt : 49.2900009155, Lat : 49.2836571, Lng : -123.1148781, Q1 : 0.906290531158, Q2 : 0.0612340047956, Q3 : -0.133842512965, Q4 : 0.396199524403}
2019-04-14 18:30:36.31: SIM {TimeUS : 60135103, Roll : 0.12, Pitch : -16.96, Yaw : 47.38, Alt : 49.2999992371, Lat : 49.2836596, Lng : -123.1148739, Q1 : 0.905630171299, Q2 : 0.0602595210075, Q3 : -0.134671509266, Q4 : 0.397575676441}
2019-04-14 18:30:36.41: SIM {TimeUS : 60235063, Roll : -0.03, Pitch : -16.99, Yaw : 47.57, Alt : 49.2999992371, Lat : 49.2836621, Lng : -123.1148696, Q1 : 0.905008852482, Q2 : 0.0593048632145, Q3 : -0.135329976678, Q4 : 0.39890819788}
2019-04-14 18:30:36.51: SIM {TimeUS : 60335023, Roll : -0.17, Pitch : -17.01, Yaw : 47.74, Alt : 49.2999992371, Lat : 49.2836646, Lng : -123.1148653, Q1 : 0.904481232166, Q2 : 0.0585058778524, Q3 : -0.135908082128, Q4 : 0.400024801493}
2019-04-14 18:30:36.61: SIM {TimeUS : 60434983, Roll : -0.25, Pitch : -17.05, Yaw : 47.85, Alt : 49.2999992371, Lat : 49.2836671, Lng : -123.1148609, Q1 : 0.904069006443, Q2 : 0.0581495724618, Q3 : -0.136412918568, Q4 : 0.400835812092}
2019-04-14 18:30:36.71: SIM {TimeUS : 60534943, Roll : -0.28, Pitch : -17.09, Yaw : 47.92, Alt : 49.2999992371, Lat : 49.2836698, Lng : -123.1148566, Q1 : 0.903803288937, Q2 : 0.0581574849784, Q3 : -0.136825114489, Q4 : 0.401293218136}
2019-04-14 18:30:36.81: SIM {TimeUS : 60634903, Roll : -0.25, Pitch : -17.14, Yaw : 47.93, Alt : 49.2999992371, Lat : 49.2836724, Lng : -123.1148522, Q1 : 0.903694987297, Q2 : 0.0585181750357, Q3 : -0.137082159519, Q4 : 0.401396930218}
2019-04-14 18:30:36.91: SIM {TimeUS : 60734863, Roll : -0.19, Pitch : -17.18, Yaw : 47.9, Alt : 49.2999992371, Lat : 49.2836749, Lng : -123.1148478, Q1 : 0.903736114502, Q2 : 0.0591398626566, Q3 : -0.137213215232, Q4 : 0.401168346405}
2019-04-14 18:30:37.01: SIM {TimeUS : 60834823, Roll : -0.12, Pitch : -17.22, Yaw : 47.82, Alt : 49.2999992371, Lat : 49.2836777, Lng : -123.1148434, Q1 : 0.903916299343, Q2 : 0.0597313083708, Q3 : -0.137287840247, Q4 : 0.40064895153}
2019-04-14 18:30:37.11: SIM {TimeUS : 60934783, Roll : -0.06, Pitch : -17.23, Yaw : 47.72, Alt : 49.2999992371, Lat : 49.2836803, Lng : -123.114839, Q1 : 0.904208540916, Q2 : 0.0601464807987, Q3 : -0.137247100472, Q4 : 0.399940758944}
2019-04-14 18:30:37.21: SIM {TimeUS : 61034743, Roll : -0.01, Pitch : -17.24, Yaw : 47.62, Alt : 49.3100013733, Lat : 49.2836828, Lng : -123.1148345, Q1 : 0.904557228088, Q2 : 0.0603769384325, Q3 : -0.137207433581, Q4 : 0.399130284786}
2019-04-14 18:30:37.31: SIM {TimeUS : 61134703, Roll : 0.02, Pitch : -17.24, Yaw : 47.51, Alt : 49.3100013733, Lat : 49.2836856, Lng : -123.11483, Q1 : 0.904901623726, Q2 : 0.0606404095888, Q3 : -0.137140989304, Q4 : 0.398331671953}
2019-04-14 18:30:37.41: SIM {TimeUS : 61234663, Roll : 0.07, Pitch : -17.26, Yaw : 47.41, Alt : 49.3100013733, Lat : 49.2836882, Lng : -123.1148256, Q1 : 0.905196905136, Q2 : 0.060960624367, Q3 : -0.137160271406, Q4 : 0.397604644299}
2019-04-14 18:30:37.51: SIM {TimeUS : 61334623, Roll : 0.13, Pitch : -17.3, Yaw : 47.33, Alt : 49.3100013733, Lat : 49.2836908, Lng : -123.1148211, Q1 : 0.905402541161, Q2 : 0.0614815689623, Q3 : -0.137302458286, Q4 : 0.3970066607}
2019-04-14 18:30:37.62: SIM {TimeUS : 61435416, Roll : 0.19, Pitch : -17.36, Yaw : 47.26, Alt : 49.3100013733, Lat : 49.2836937, Lng : -123.1148165, Q1 : 0.905520677567, Q2 : 0.0620386488736, Q3 : -0.137625873089, Q4 : 0.396538197994}
2019-04-14 18:30:37.71: SIM {TimeUS : 61535376, Roll : 0.21, Pitch : -17.39, Yaw : 47.22, Alt : 49.3100013733, Lat : 49.2836963, Lng : -123.114812, Q1 : 0.905612409115, Q2 : 0.0622944682837, Q3 : -0.137794271111, Q4 : 0.396230190992}
2019-04-14 18:30:37.81: SIM {TimeUS : 61635336, Roll : 0.22, Pitch : -17.38, Yaw : 47.2, Alt : 49.3100013733, Lat : 49.2836991, Lng : -123.1148074, Q1 : 0.905683279037, Q2 : 0.062328338623, Q3 : -0.137685000896, Q4 : 0.396100819111}
2019-04-14 18:30:37.91: SIM {TimeUS : 61735296, Roll : 0.21, Pitch : -17.38, Yaw : 47.2, Alt : 49.3100013733, Lat : 49.2837017, Lng : -123.1148029, Q1 : 0.905692517757, Q2 : 0.0622265860438, Q3 : -0.137739539146, Q4 : 0.396076709032}
2019-04-14 18:30:38.01: SIM {TimeUS : 61835256, Roll : 0.17, Pitch : -17.4, Yaw : 47.22, Alt : 49.3100013733, Lat : 49.2837045, Lng : -123.1147983, Q1 : 0.905644059181, Q2 : 0.0620076730847, Q3 : -0.138045564294, Q4 : 0.396115332842}
2019-04-14 18:30:38.11: SIM {TimeUS : 61935216, Roll : 0.13, Pitch : -17.43, Yaw : 47.24, Alt : 49.3100013733, Lat : 49.2837071, Lng : -123.1147937, Q1 : 0.905557155609, Q2 : 0.0618224330246, Q3 : -0.138406664133, Q4 : 0.396216928959}
2019-04-14 18:30:38.21: SIM {TimeUS : 62035176, Roll : 0.1, Pitch : -17.46, Yaw : 47.26, Alt : 49.3100013733, Lat : 49.28371, Lng : -123.1147891, Q1 : 0.905452489853, Q2 : 0.0616821795702, Q3 : -0.138765901327, Q4 : 0.39635232091}
2019-04-14 18:30:38.31: SIM {TimeUS : 62135136, Roll : 0.07, Pitch : -17.49, Yaw : 47.28, Alt : 49.3100013733, Lat : 49.2837126, Lng : -123.1147845, Q1 : 0.905358910561, Q2 : 0.0616050437093, Q3 : -0.139063388109, Q4 : 0.396473765373}
2019-04-14 18:30:38.41: SIM {TimeUS : 62235096, Roll : 0.06, Pitch : -17.52, Yaw : 47.3, Alt : 49.3199996948, Lat : 49.2837155, Lng : -123.1147798, Q1 : 0.905277907848, Q2 : 0.0616390816867, Q3 : -0.139299064875, Q4 : 0.396570682526}
2019-04-14 18:30:38.51: SIM {TimeUS : 62335056, Roll : 0.07, Pitch : -17.53, Yaw : 47.31, Alt : 49.3199996948, Lat : 49.2837181, Lng : -123.1147752, Q1 : 0.905232310295, Q2 : 0.0617406927049, Q3 : -0.139377042651, Q4 : 0.39663156867}
2019-04-14 18:30:38.61: SIM {TimeUS : 62435016, Roll : 0.09, Pitch : -17.55, Yaw : 47.3, Alt : 49.3199996948, Lat : 49.283721, Lng : -123.1147705, Q1 : 0.905205965042, Q2 : 0.0619579590857, Q3 : -0.139483705163, Q4 : 0.396620333195}
2019-04-14 18:30:38.71: SIM {TimeUS : 62534976, Roll : 0.11, Pitch : -17.58, Yaw : 47.29, Alt : 49.3199996948, Lat : 49.2837238, Lng : -123.1147659, Q1 : 0.905209183693, Q2 : 0.06220221892, Q3 : -0.139611363411, Q4 : 0.396529823542}
2019-04-14 18:30:38.81: SIM {TimeUS : 62634936, Roll : 0.12, Pitch : -17.61, Yaw : 47.27, Alt : 49.3199996948, Lat : 49.2837265, Lng : -123.1147612, Q1 : 0.905239582062, Q2 : 0.0623779632151, Q3 : -0.139839634299, Q4 : 0.396352350712}
2019-04-14 18:30:38.91: SIM {TimeUS : 62734896, Roll : 0.1, Pitch : -17.65, Yaw : 47.24, Alt : 49.3199996948, Lat : 49.2837293, Lng : -123.1147565, Q1 : 0.905291259289, Q2 : 0.0623676516116, Q3 : -0.140241935849, Q4 : 0.396093636751}
2019-04-14 18:30:39.01: SIM {TimeUS : 62834856, Roll : 0.09, Pitch : -17.7, Yaw : 47.21, Alt : 49.3199996948, Lat : 49.283732, Lng : -123.1147518, Q1 : 0.905345976353, Q2 : 0.0624088235199, Q3 : -0.140673309565, Q4 : 0.395809054375}
2019-04-14 18:30:39.11: SIM {TimeUS : 62934816, Roll : 0.11, Pitch : -17.73, Yaw : 47.18, Alt : 49.3199996948, Lat : 49.2837349, Lng : -123.1147471, Q1 : 0.905410647392, Q2 : 0.0626044496894, Q3 : -0.140895754099, Q4 : 0.395551025867}
2019-04-14 18:30:39.21: SIM {TimeUS : 63034776, Roll : 0.13, Pitch : -17.74, Yaw : 47.14, Alt : 49.3199996948, Lat : 49.2837376, Lng : -123.1147424, Q1 : 0.905506968498, Q2 : 0.0627344995737, Q3 : -0.140866503119, Q4 : 0.395320355892}
2019-04-14 18:30:39.31: SIM {TimeUS : 63134736, Roll : 0.15, Pitch : -17.72, Yaw : 47.11, Alt : 49.3199996948, Lat : 49.2837405, Lng : -123.1147377, Q1 : 0.905624985695, Q2 : 0.0627634301782, Q3 : -0.140668511391, Q4 : 0.395115822554}
2019-04-14 18:30:39.41: SIM {TimeUS : 63234696, Roll : 0.15, Pitch : -17.7, Yaw : 47.09, Alt : 49.3199996948, Lat : 49.2837434, Lng : -123.1147329, Q1 : 0.905731081963, Q2 : 0.0627057105303, Q3 : -0.140510261059, Q4 : 0.394938141108}
2019-04-14 18:30:39.51: SIM {TimeUS : 63334656, Roll : 0.16, Pitch : -17.68, Yaw : 47.07, Alt : 49.3199996948, Lat : 49.2837461, Lng : -123.1147281, Q1 : 0.905822098255, Q2 : 0.062670044601, Q3 : -0.140358507633, Q4 : 0.394788891077}
2019-04-14 18:30:39.61: SIM {TimeUS : 63434616, Roll : 0.17, Pitch : -17.66, Yaw : 47.05, Alt : 49.3199996948, Lat : 49.283749, Lng : -123.1147234, Q1 : 0.90589171648, Q2 : 0.0626490116119, Q3 : -0.14020216465, Q4 : 0.394688099623}
2019-04-14 18:30:39.71: SIM {TimeUS : 63535409, Roll : 0.17, Pitch : -17.67, Yaw : 47.04, Alt : 49.3199996948, Lat : 49.2837519, Lng : -123.1147186, Q1 : 0.905921816826, Q2 : 0.062660522759, Q3 : -0.140261605382, Q4 : 0.394596040249}
2019-04-14 18:30:39.81: SIM {TimeUS : 63635369, Roll : 0.17, Pitch : -17.69, Yaw : 47.03, Alt : 49.3199996948, Lat : 49.2837547, Lng : -123.1147138, Q1 : 0.905924379826, Q2 : 0.0627530515194, Q3 : -0.140427395701, Q4 : 0.394516468048}
2019-04-14 18:30:39.91: SIM {TimeUS : 63735329, Roll : 0.16, Pitch : -17.74, Yaw : 47.03, Alt : 49.3300018311, Lat : 49.2837576, Lng : -123.1147091, Q1 : 0.905896604061, Q2 : 0.0628372952342, Q3 : -0.140819579363, Q4 : 0.394427031279}
2019-04-14 18:30:40.01: SIM {TimeUS : 63835289, Roll : 0.15, Pitch : -17.79, Yaw : 47.02, Alt : 49.3300018311, Lat : 49.2837604, Lng : -123.1147043, Q1 : 0.905850112438, Q2 : 0.0629572570324, Q3 : -0.141303494573, Q4 : 0.394341677427}
2019-04-14 18:30:40.11: SIM {TimeUS : 63935249, Roll : 0.15, Pitch : -17.83, Yaw : 47.02, Alt : 49.3300018311, Lat : 49.2837632, Lng : -123.1146995, Q1 : 0.905821740627, Q2 : 0.0630814284086, Q3 : -0.141575977206, Q4 : 0.394289255142}
2019-04-14 18:30:40.21: SIM {TimeUS : 64035209, Roll : 0.15, Pitch : -17.86, Yaw : 47.01, Alt : 49.3300018311, Lat : 49.2837661, Lng : -123.1146947, Q1 : 0.905800759792, Q2 : 0.063137717545, Q3 : -0.141853183508, Q4 : 0.394228726625}
2019-04-14 18:30:40.31: SIM {TimeUS : 64135169, Roll : 0.14, Pitch : -17.88, Yaw : 47.01, Alt : 49.3300018311, Lat : 49.283769, Lng : -123.1146898, Q1 : 0.905801475048, Q2 : 0.063130132854, Q3 : -0.142017826438, Q4 : 0.394169092178}
2019-04-14 18:30:40.41: SIM {TimeUS : 64235129, Roll : 0.15, Pitch : -17.86, Yaw : 47.0, Alt : 49.3300018311, Lat : 49.2837719, Lng : -123.1146851, Q1 : 0.905832231045, Q2 : 0.0631538257003, Q3 : -0.141890332103, Q4 : 0.394140541553}
2019-04-14 18:30:40.51: SIM {TimeUS : 64335089, Roll : 0.17, Pitch : -17.87, Yaw : 46.99, Alt : 49.3300018311, Lat : 49.2837747, Lng : -123.1146802, Q1 : 0.905845224857, Q2 : 0.0633018091321, Q3 : -0.141874432564, Q4 : 0.394092589617}
2019-04-14 18:30:40.61: SIM {TimeUS : 64435049, Roll : 0.17, Pitch : -17.89, Yaw : 46.98, Alt : 49.3300018311, Lat : 49.2837776, Lng : -123.1146754, Q1 : 0.905846893787, Q2 : 0.0634241402149, Q3 : -0.142020091414, Q4 : 0.394016623497}
2019-04-14 18:30:40.71: SIM {TimeUS : 64535009, Roll : 0.18, Pitch : -17.91, Yaw : 46.97, Alt : 49.3300018311, Lat : 49.2837805, Lng : -123.1146706, Q1 : 0.905857384205, Q2 : 0.0635146796703, Q3 : -0.14213077724, Q4 : 0.393938004971}
2019-04-14 18:30:40.81: SIM {TimeUS : 64634969, Roll : 0.2, Pitch : -17.9, Yaw : 46.96, Alt : 49.3300018311, Lat : 49.2837834, Lng : -123.1146657, Q1 : 0.905896127224, Q2 : 0.0635979175568, Q3 : -0.142060652375, Q4 : 0.393860697746}
2019-04-14 18:30:40.91: SIM {TimeUS : 64734929, Roll : 0.2, Pitch : -17.9, Yaw : 46.95, Alt : 49.3300018311, Lat : 49.2837862, Lng : -123.1146609, Q1 : 0.905944824219, Q2 : 0.0635915920138, Q3 : -0.142023161054, Q4 : 0.393763273954}
2019-04-14 18:30:41.01: SIM {TimeUS : 64834889, Roll : 0.18, Pitch : -17.91, Yaw : 46.93, Alt : 49.3300018311, Lat : 49.2837892, Lng : -123.114656, Q1 : 0.905982613564, Q2 : 0.0634752139449, Q3 : -0.142228350043, Q4 : 0.393621087074}
2019-04-14 18:30:41.11: SIM {TimeUS : 64934849, Roll : 0.14, Pitch : -17.95, Yaw : 46.92, Alt : 49.3300018311, Lat : 49.2837921, Lng : -123.1146512, Q1 : 0.906003952026, Q2 : 0.0633152127266, Q3 : -0.14265653491, Q4 : 0.393442690372}
2019-04-14 18:30:41.21: SIM {TimeUS : 65034809, Roll : 0.13, Pitch : -17.96, Yaw : 46.9, Alt : 49.3300018311, Lat : 49.283795, Lng : -123.1146463, Q1 : 0.906051933765, Q2 : 0.0631996616721, Q3 : -0.14278614521, Q4 : 0.393303781748}
2019-04-14 18:30:41.31: SIM {TimeUS : 65134769, Roll : 0.13, Pitch : -17.95, Yaw : 46.89, Alt : 49.3300018311, Lat : 49.2837978, Lng : -123.1146415, Q1 : 0.906106710434, Q2 : 0.0632097125053, Q3 : -0.142712637782, Q4 : 0.393202573061}
2019-04-14 18:30:41.41: SIM {TimeUS : 65234729, Roll : 0.16, Pitch : -17.95, Yaw : 46.88, Alt : 49.3400001526, Lat : 49.2838007, Lng : -123.1146366, Q1 : 0.906151115894, Q2 : 0.0633370354772, Q3 : -0.142608702183, Q4 : 0.393117457628}
2019-04-14 18:30:41.51: SIM {TimeUS : 65334689, Roll : 0.17, Pitch : -17.96, Yaw : 46.86, Alt : 49.3400001526, Lat : 49.2838037, Lng : -123.1146317, Q1 : 0.906180083752, Q2 : 0.0634625777602, Q3 : -0.142664372921, Q4 : 0.39301019907}
2019-04-14 18:30:41.61: SIM {TimeUS : 65434649, Roll : 0.16, Pitch : -17.98, Yaw : 46.85, Alt : 49.3400001526, Lat : 49.2838066, Lng : -123.1146268, Q1 : 0.906213521957, Q2 : 0.0634303689003, Q3 : -0.14282682538, Q4 : 0.392879396677}
2019-04-14 18:30:41.72: SIM {TimeUS : 65535442, Roll : 0.14, Pitch : -17.99, Yaw : 46.83, Alt : 49.3400001526, Lat : 49.2838096, Lng : -123.1146219, Q1 : 0.906247317791, Q2 : 0.063319452107, Q3 : -0.143033280969, Q4 : 0.39274418354}
2019-04-14 18:30:41.81: SIM {TimeUS : 65635402, Roll : 0.13, Pitch : -18.01, Yaw : 46.82, Alt : 49.3400001526, Lat : 49.2838124, Lng : -123.114617, Q1 : 0.906271874905, Q2 : 0.0632926225662, Q3 : -0.143196895719, Q4 : 0.392632126808}
2019-04-14 18:30:41.91: SIM {TimeUS : 65735362, Roll : 0.14, Pitch : -18.02, Yaw : 46.81, Alt : 49.3400001526, Lat : 49.2838153, Lng : -123.114612, Q1 : 0.906287550926, Q2 : 0.0633925050497, Q3 : -0.143293574452, Q4 : 0.392544597387}
2019-04-14 18:30:42.01: SIM {TimeUS : 65835322, Roll : 0.15, Pitch : -18.04, Yaw : 46.8, Alt : 49.3400001526, Lat : 49.2838183, Lng : -123.1146072, Q1 : 0.906300365925, Q2 : 0.0635183900595, Q3 : -0.14336374402, Q4 : 0.392469078302}
2019-04-14 18:30:42.11: SIM {TimeUS : 65935282, Roll : 0.17, Pitch : -18.05, Yaw : 46.79, Alt : 49.3400001526, Lat : 49.2838213, Lng : -123.1146023, Q1 : 0.906299710274, Q2 : 0.063711091876, Q3 : -0.143417522311, Q4 : 0.392419606447}
2019-04-14 18:30:42.21: SIM {TimeUS : 66035242, Roll : 0.18, Pitch : -18.07, Yaw : 46.78, Alt : 49.3400001526, Lat : 49.2838242, Lng : -123.1145974, Q1 : 0.906293749809, Q2 : 0.0638528689742, Q3 : -0.143561705947, Q4 : 0.392357677221}
2019-04-14 18:30:42.31: SIM {TimeUS : 66135202, Roll : 0.19, Pitch : -18.1, Yaw : 46.78, Alt : 49.3400001526, Lat : 49.283827, Lng : -123.1145925, Q1 : 0.906286478043, Q2 : 0.0640006139874, Q3 : -0.143703624606, Q4 : 0.392298400402}
2019-04-14 18:30:42.41: SIM {TimeUS : 66235162, Roll : 0.21, Pitch : -18.11, Yaw : 46.77, Alt : 49.3400001526, Lat : 49.28383, Lng : -123.1145876, Q1 : 0.906281292439, Q2 : 0.0641739368439, Q3 : -0.143788859248, Q4 : 0.3922508955}
2019-04-14 18:30:42.51: SIM {TimeUS : 66335122, Roll : 0.24, Pitch : -18.12, Yaw : 46.76, Alt : 49.3400001526, Lat : 49.2838329, Lng : -123.1145827, Q1 : 0.90627515316, Q2 : 0.0644245222211, Q3 : -0.143773213029, Q4 : 0.392229735851}
2019-04-14 18:30:42.61: SIM {TimeUS : 66435082, Roll : 0.27, Pitch : -18.13, Yaw : 46.76, Alt : 49.3499984741, Lat : 49.283836, Lng : -123.1145778, Q1 : 0.906264185905, Q2 : 0.0646902322769, Q3 : -0.143758863211, Q4 : 0.392216563225}
