2019-04-14 16:33:38.70: SIM {TimeUS : 40716207, Roll : 0.0, Pitch : 0.0, Yaw : 0.0, Alt : 30.1000003815, Lat : 49.28357, Lng : -123.11502, Q1 : 1.0, Q2 : 0.0, Q3 : 0.0, Q4 : 0.0}
2019-04-14 16:33:38.81: SIM {TimeUS : 40835326, Roll : 0.0, Pitch : 0.0, Yaw : 0.0, Alt : 30.1000003815, Lat : 49.28357, Lng : -123.11502, Q1 : 1.0, Q2 : 0.0, Q3 : 0.0, Q4 : 0.0}
2019-04-14 16:33:38.91: SIM {TimeUS : 40935286, Roll : 0.0, Pitch : 0.0, Yaw : 0.0, Alt : 30.1000003815, Lat : 49.28357, Lng : -123.11502, Q1 : 1.0, Q2 : 0.0, Q3 : 0.0, Q4 : 0.0}
2019-04-14 16:33:39.01: SIM {TimeUS : 41035246, Roll : 0.0, Pitch : 0.0, Yaw : 0.0, Alt : 30.1000003815, Lat : 49.28357, Lng : -123.11502, Q1 : 1.0, Q2 : 0.0, Q3 : 0.0, Q4 : 0.0}
2019-04-14 16:33:39.11: SIM {TimeUS : 41135206, Roll : 0.0, Pitch : 0.0, Yaw : 0.0, Alt : 30.1000003815, Lat : 49.28357, Lng : -123.11502, Q1 : 1.0, Q2 : 0.0, Q3 : 0.0, Q4 : 0.0}
2019-04-14 16:33:39.21: SIM {TimeUS : 41235166, Roll : 0.0, Pitch : 0.0, Yaw : 0.0, Alt : 30.1000003815, Lat : 49.28357, Lng : -123.11502, Q1 : 1.0, Q2 : 0.0, Q3 : 0.0, Q4 : 0.0}
2019-04-14 16:33:39.31: SIM {TimeUS : 41335126, Roll : 0.0, Pitch : 0.0, Yaw : 0.0, Alt : 30.1000003815, Lat : 49.28357, Lng : -123.11502, Q1 : 1.0, Q2 : 0.0, Q3 : 0.0, Q4 : 0.0}
2019-04-14 16:33:39.41: SIM {TimeUS : 41435086, Roll : 0.0, Pitch : 0.0, Yaw : 0.0, Alt : 30.1000003815, Lat : 49.28357, Lng : -123.11502, Q1 : 1.0, Q2 : 0.0, Q3 : 0.0, Q4 : 0.0}
2019-04-14 16:33:39.51: SIM {TimeUS : 41535046, Roll : 0.0, Pitch : 0.0, Yaw : 0.0, Alt : 30.1000003815, Lat : 49.28357, Lng : -123.11502, Q1 : 1.0, Q2 : 0.0, Q3 : 0.0, Q4 : 0.0}
2019-04-14 16:33:39.61: SIM {TimeUS : 41635006, Roll : 0.0, Pitch : 0.0, Yaw : 0.0, Alt : 30.1000003815, Lat : 49.28357, Lng : -123.11502, Q1 : 1.0, Q2 : 0.0, Q3 : 0.0, Q4 : 0.0}
2019-04-14 16:33:39.71: SIM {TimeUS : 41734966, Roll : 0.0, Pitch : 0.0, Yaw : 0.0, Alt : 30.1000003815, Lat : 49.28357, Lng : -123.11502, Q1 : 1.0, Q2 : 0.0, Q3 : 0.0, Q4 : 0.0}
2019-04-14 16:33:39.81: SIM {TimeUS : 41834926, Roll : 0.0, Pitch : 0.0, Yaw : 0.0, Alt : 30.1000003815, Lat : 49.28357, Lng : -123.11502, Q1 : 1.0, Q2 : 0.0, Q3 : 0.0, Q4 : 0.0}
2019-04-14 16:33:39.91: SIM {TimeUS : 41934886, Roll : 0.0, Pitch : 0.0, Yaw : 0.0, Alt : 30.1000003815, Lat : 49.28357, Lng : -123.11502, Q1 : 1.0, Q2 : 0.0, Q3 : 0.0, Q4 : 0.0}
2019-04-14 16:33:40.01: SIM {TimeUS : 42034846, Roll : 0.0, Pitch : 0.0, Yaw : 0.0, Alt : 30.1000003815, Lat : 49.28357, Lng : -123.11502, Q1 : 1.0, Q2 : 0.0, Q3 : 0.0, Q4 : 0.0}
2019-04-14 16:33:40.11: SIM {TimeUS : 42134806, Roll : 0.0, Pitch : 0.0, Yaw : 0.0, Alt : 30.1000003815, Lat : 49.28357, Lng : -123.11502, Q1 : 1.0, Q2 : 0.0, Q3 : 0.0, Q4 : 0.0}
2019-04-14 16:33:40.21: SIM {TimeUS : 42234766, Roll : 0.0, Pitch : 0.0, Yaw : 0.0, Alt : 30.1000003815, Lat : 49.28357, Lng : -123.11502, Q1 : 1.0, Q2 : 0.0, Q3 : 0.0, Q4 : 0.0}
2019-04-14 16:33:40.31: SIM {TimeUS : 42334726, Roll : 0.0, Pitch : 0.0, Yaw : 0.0, Alt : 30.1000003815, Lat : 49.28357, Lng : -123.11502, Q1 : 1.0, Q2 : 0.0, Q3 : 0.0, Q4 : 0.0}
2019-04-14 16:33:40.41: SIM {TimeUS : 42434686, Roll : 0.0, Pitch : 0.0, Yaw : 0.0, Alt : 30.1000003815, Lat : 49.28357, Lng : -123.11502, Q1 : 1.0, Q2 : 0.0, Q3 : 0.0, Q4 : 0.0}
2019-04-14 16:33:40.51: SIM {TimeUS : 42534646, Roll : 0.0, Pitch : 0.0, Yaw : 0.0, Alt : 30.1000003815, Lat : 49.28357, Lng : -123.11502, Q1 : 1.0, Q2 : 0.0, Q3 : 0.0, Q4 : 0.0}
2019-04-14 16:33:40.61: SIM {TimeUS : 42634606, Roll : 0.0, Pitch : 0.0, Yaw : 0.0, Alt : 30.1000003815, Lat : 49.28357, Lng : -123.11502, Q1 : 1.0, Q2 : 0.0, Q3 : 0.0, Q4 : 0.0}
2019-04-14 16:33:40.71: SIM {TimeUS : 42734566, Roll : 0.0, Pitch : 0.0, Yaw : 0.0, Alt : 30.1000003815, Lat : 49.28357, Lng : -123.11502, Q1 : 1.0, Q2 : 0.0, Q3 : 0.0, Q4 : 0.0}
2019-04-14 16:33:40.82: SIM {TimeUS : 42835359, Roll : 0.0, Pitch : 0.0, Yaw : 0.0, Alt : 30.1000003815, Lat : 49.28357, Lng : -123.11502, Q1 : 1.0, Q2 : 0.0, Q3 : 0.0, Q4 : 0.0}
2019-04-14 16:33:40.91: SIM {TimeUS : 42935319, Roll : 0.0, Pitch : 0.0, Yaw : 0.0, Alt : 30.1000003815, Lat : 49.28357, Lng : -123.11502, Q1 : 1.0, Q2 : 0.0, Q3 : 0.0, Q4 : 0.0}
2019-04-14 16:33:41.01: SIM {TimeUS : 43035279, Roll : 0.0, Pitch : 0.0, Yaw : 360.0, Alt : 30.1000003815, Lat : 49.28357, Lng : -123.11502, Q1 : 1.0, Q2 : 0.0, Q3 : 0.0, Q4 : -1.2311567564e-11}
2019-04-14 16:33:41.11: SIM {TimeUS : 43135239, Roll : 0.0, Pitch : 0.0, Yaw : 0.0, Alt : 30.1000003815, Lat : 49.28357, Lng : -123.11502, Q1 : 1.0, Q2 : 0.0, Q3 : 0.0, Q4 : 5.47755590885e-12}
2019-04-14 16:33:41.21: SIM {TimeUS : 43235199, Roll : 0.0, Pitch : 0.0, Yaw : 360.0, Alt : 30.1000003815, Lat : 49.28357, Lng : -123.11502, Q1 : 1.0, Q2 : 0.0, Q3 : 0.0, Q4 : -1.20905085055e-07}
2019-04-14 16:33:41.31: SIM {TimeUS : 43335159, Roll : 0.0, Pitch : 0.0, Yaw : 359.99, Alt : 30.1000003815, Lat : 49.28357, Lng : -123.11502, Q1 : 1.0, Q2 : 0.0, Q3 : 0.0, Q4 : -2.4927777531e-07}
2019-04-14 16:33:41.41: SIM {TimeUS : 43435119, Roll : 0.0, Pitch : 0.0, Yaw : 359.99, Alt : 30.1000003815, Lat : 49.28357, Lng : -123.11502, Q1 : 1.0, Q2 : 0.0, Q3 : 0.0, Q4 : -4.47744213261e-07}
2019-04-14 16:33:41.51: SIM {TimeUS : 43535079, Roll : 0.0, Pitch : 0.0, Yaw : 359.99, Alt : 30.1000003815, Lat : 49.28357, Lng : -123.11502, Q1 : 1.0, Q2 : 0.0, Q3 : 0.0, Q4 : -6.60601358504e-07}
2019-04-14 16:33:41.61: SIM {TimeUS : 43635039, Roll : 0.0, Pitch : 0.0, Yaw : 359.99, Alt : 30.1000003815, Lat : 49.28357, Lng : -123.11502, Q1 : 1.0, Q2 : 0.0, Q3 : 0.0, Q4 : -8.62700744619e-07}
2019-04-14 16:33:41.71: SIM {TimeUS : 43734999, Roll : 0.0, Pitch : 0.0, Yaw : 359.99, Alt : 30.1000003815, Lat : 49.28357, Lng : -123.11502, Q1 : 1.0, Q2 : 0.0, Q3 : 0.0, Q4 : -1.01069542779e-06}
2019-04-14 16:33:41.81: SIM {TimeUS : 43834959, Roll : 0.0, Pitch : 0.0, Yaw : 359.99, Alt : 30.1000003815, Lat : 49.28357, Lng : -123.11502, Q1 : 1.0, Q2 : 0.0, Q3 : 0.0, Q4 : -1.21102755202e-06}
2019-04-14 16:33:41.91: SIM {TimeUS : 43934919, Roll : 0.0, Pitch : 0.0, Yaw : 359.99, Alt : 30.1100006104, Lat : 49.28357, Lng : -123.11502, Q1 : 1.0, Q2 : 0.0, Q3 : 0.0, Q4 : -1.41952580179e-06}
2019-04-14 16:33:42.01: SIM {TimeUS : 44034879, Roll : 0.0, Pitch : 0.0, Yaw : 359.99, Alt : 30.1399993896, Lat : 49.28357, Lng : -123.11502, Q1 : 1.0, Q2 : 0.0, Q3 : 0.0, Q4 : -1.6195660919e-06}
2019-04-14 16:33:42.11: SIM {TimeUS : 44134839, Roll : 0.0, Pitch : 0.0, Yaw : 359.99, Alt : 30.1700000763, Lat : 49.28357, Lng : -123.11502, Q1 : 1.0, Q2 : 0.0, Q3 : 0.0, Q4 : -1.87403463769e-06}
2019-04-14 16:33:42.21: SIM {TimeUS : 44234799, Roll : 0.0, Pitch : 0.0, Yaw : 359.99, Alt : 30.2000007629, Lat : 49.28357, Lng : -123.11502, Q1 : 1.0, Q2 : 0.0, Q3 : 0.0, Q4 : -2.10903613151e-06}
2019-04-14 16:33:42.31: SIM {TimeUS : 44334759, Roll : -0.09, Pitch : -0.08, Yaw : 359.99, Alt : 30.25, Lat : 49.28357, Lng : -123.11502, Q1 : 0.999999403954, Q2 : -0.000806122086942, Q3 : -0.000764776254073, Q4 : -7.58801343181e-06}
2019-04-14 16:33:42.41: SIM {TimeUS : 44434719, Roll : -0.35, Pitch : -0.35, Yaw : 359.99, Alt : 30.3400001526, Lat : 49.28357, Lng : -123.11502, Q1 : 0.999990344048, Q2 : -0.00311320903711, Q3 : -0.00310628232546, Q4 : -3.48560752172e-05}
2019-04-14 16:33:42.51: SIM {TimeUS : 44534679, Roll : -0.62, Pitch : -0.61, Yaw : 359.99, Alt : 30.4899997711, Lat : 49.28357, Lng : -123.11502, Q1 : 0.999970853329, Q2 : -0.00545048294589, Q3 : -0.00534742092714, Q4 : -8.86107663973e-05}
2019-04-14 16:33:42.61: SIM {TimeUS : 44634639, Roll : -0.79, Pitch : -0.74, Yaw : 359.98, Alt : 30.6499996185, Lat : 49.28357, Lng : -123.11502, Q1 : 0.999954581261, Q2 : -0.00695509184152, Q3 : -0.00651871738955, Q4 : -0.000160790601512}
2019-04-14 16:33:42.71: SIM {TimeUS : 44734599, Roll : -0.81, Pitch : -0.74, Yaw : 359.97, Alt : 30.7999992371, Lat : 49.28357, Lng : -123.11502, Q1 : 0.999953329563, Q2 : -0.00711611332372, Q3 : -0.00652956962585, Q4 : -0.000248247873969}
2019-04-14 16:33:42.81: SIM {TimeUS : 44834559, Roll : -0.69, Pitch : -0.63, Yaw : 359.96, Alt : 30.9599990845, Lat : 49.28357, Lng : -123.1150201, Q1 : 0.99996638298, Q2 : -0.00606508832425, Q3 : -0.00550941005349, Q4 : -0.000335398828611}
2019-04-14 16:33:42.92: SIM {TimeUS : 44935352, Roll : -0.48, Pitch : -0.44, Yaw : 359.95, Alt : 31.1100006104, Lat : 49.2835701, Lng : -123.1150202, Q1 : 0.999983549118, Q2 : -0.00424309587106, Q3 : -0.00383895379491, Q4 : -0.000413172179833}
2019-04-14 16:33:43.01: SIM {TimeUS : 45035312, Roll : -0.25, Pitch : -0.24, Yaw : 359.94, Alt : 31.2700004578, Lat : 49.2835701, Lng : -123.1150202, Q1 : 0.999995231628, Q2 : -0.00218496401794, Q3 : -0.00211454113014, Q4 : -0.000472731044283}
2019-04-14 16:33:43.11: SIM {TimeUS : 45135272, Roll : -0.04, Pitch : -0.08, Yaw : 359.94, Alt : 31.4400005341, Lat : 49.2835702, Lng : -123.1150203, Q1 : 0.999999523163, Q2 : -0.000417555012973, Q3 : -0.000705585931428, Q4 : -0.000515062129125}
2019-04-14 16:33:43.21: SIM {TimeUS : 45235232, Roll : 0.07, Pitch : 0.03, Yaw : 359.93, Alt : 31.6100006104, Lat : 49.2835702, Lng : -123.1150204, Q1 : 0.999999582767, Q2 : 0.000656197720673, Q3 : 0.000286112684989, Q4 : -0.000538791180588}
2019-04-14 16:33:43.31: SIM {TimeUS : 45335192, Roll : 0.1, Pitch : 0.09, Yaw : 359.93, Alt : 31.7900009155, Lat : 49.2835703, Lng : -123.1150205, Q1 : 0.999999046326, Q2 : 0.00094295135932, Q3 : 0.000852378085256, Q4 : -0.000537156185601}
2019-04-14 16:33:43.41: SIM {TimeUS : 45435152, Roll : 0.08, Pitch : 0.11, Yaw : 359.93, Alt : 31.9699993134, Lat : 49.2835703, Lng : -123.1150205, Q1 : 0.999999046326, Q2 : 0.000737923604902, Q3 : 0.00102881388739, Q4 : -0.000526779738721}
2019-04-14 16:33:43.51: SIM {TimeUS : 45535112, Roll : 0.07, Pitch : 0.11, Yaw : 359.94, Alt : 32.1599998474, Lat : 49.2835703, Lng : -123.1150206, Q1 : 0.99999910593, Q2 : 0.000615897821262, Q3 : 0.00104339350946, Q4 : -0.000506071955897}
2019-04-14 16:33:43.61: SIM {TimeUS : 45635072, Roll : 0.07, Pitch : 0.11, Yaw : 359.94, Alt : 32.3499984741, Lat : 49.2835703, Lng : -123.1150206, Q1 : 0.999999165535, Q2 : 0.000636225042399, Q3 : 0.0010130769806, Q4 : -0.000487893237732}
2019-04-14 16:33:43.71: SIM {TimeUS : 45735032, Roll : 0.08, Pitch : 0.11, Yaw : 359.94, Alt : 32.5400009155, Lat : 49.2835703, Lng : -123.1150207, Q1 : 0.99999910593, Q2 : 0.000742723641451, Q3 : 0.00102955673356, Q4 : -0.000474753469462}
2019-04-14 16:33:43.81: SIM {TimeUS : 45834992, Roll : 0.1, Pitch : 0.13, Yaw : 359.94, Alt : 32.7299995422, Lat : 49.2835703, Lng : -123.1150207, Q1 : 0.999998807907, Q2 : 0.000877067504916, Q3 : 0.00117504538503, Q4 : -0.000468025595183}
2019-04-14 16:33:43.91: SIM {TimeUS : 45934952, Roll : 0.12, Pitch : 0.14, Yaw : 359.94, Alt : 32.9300003052, Lat : 49.2835704, Lng : -123.1150207, Q1 : 0.999998569489, Q2 : 0.00105665496085, Q3 : 0.00122402142733, Q4 : -0.000460067589302}
2019-04-14 16:33:44.01: SIM {TimeUS : 46034912, Roll : 0.13, Pitch : 0.13, Yaw : 359.94, Alt : 33.1300010681, Lat : 49.2835704, Lng : -123.1150208, Q1 : 0.999998450279, Q2 : 0.00120160810184, Q3 : 0.00117141136434, Q4 : -0.000456584151834}
2019-04-14 16:33:44.11: SIM {TimeUS : 46134872, Roll : 0.15, Pitch : 0.12, Yaw : 359.94, Alt : 33.3400001526, Lat : 49.2835704, Lng : -123.1150208, Q1 : 0.999998390675, Q2 : 0.00131455808878, Q3 : 0.0011166514596, Q4 : -0.000456325040432}
2019-04-14 16:33:44.21: SIM {TimeUS : 46234832, Roll : 0.15, Pitch : 0.12, Yaw : 359.94, Alt : 33.5400009155, Lat : 49.2835704, Lng : -123.1150208, Q1 : 0.99999833107, Q2 : 0.00136171816848, Q3 : 0.00113308464643, Q4 : -0.000455906207208}
2019-04-14 16:33:44.31: SIM {TimeUS : 46334792, Roll : 0.16, Pitch : 0.13, Yaw : 359.94, Alt : 33.75, Lat : 49.2835704, Lng : -123.1150208, Q1 : 0.999998152256, Q2 : 0.00143012381159, Q3 : 0.00121373636648, Q4 : -0.000456687033875}
2019-04-14 16:33:44.41: SIM {TimeUS : 46434752, Roll : 0.16, Pitch : 0.13, Yaw : 359.94, Alt : 33.9599990845, Lat : 49.2835704, Lng : -123.1150208, Q1 : 0.999998152256, Q2 : 0.00142155506182, Q3 : 0.00117720232811, Q4 : -0.000455487141153}
2019-04-14 16:33:44.51: SIM {TimeUS : 46534712, Roll : 0.14, Pitch : 0.12, Yaw : 359.94, Alt : 34.1699981689, Lat : 49.2835704, Lng : -123.1150208, Q1 : 0.999998450279, Q2 : 0.00128851342015, Q3 : 0.00108539126813, Q4 : -0.000455952074844}
2019-04-14 16:33:44.61: SIM {TimeUS : 46634672, Roll : 0.12, Pitch : 0.11, Yaw : 359.94, Alt : 34.3800010681, Lat : 49.2835704, Lng : -123.1150208, Q1 : 0.999998748302, Q2 : 0.00111250160262, Q3 : 0.00101134227589, Q4 : -0.000462533876998}
2019-04-14 16:33:44.71: SIM {TimeUS : 46734632, Roll : 0.1, Pitch : 0.1, Yaw : 359.94, Alt : 34.5900001526, Lat : 49.2835704, Lng : -123.1150208, Q1 : 0.999999046326, Q2 : 0.000893573043868, Q3 : 0.000925146043301, Q4 : -0.000480921153212}
2019-04-14 16:33:44.81: SIM {TimeUS : 46834592, Roll : 0.08, Pitch : 0.07, Yaw : 359.94, Alt : 34.8100013733, Lat : 49.2835704, Lng : -123.1150208, Q1 : 0.999999403954, Q2 : 0.000744875636883, Q3 : 0.000618738122284, Q4 : -0.000512626895215}
2019-04-14 16:33:44.91: SIM {TimeUS : 46934552, Roll : 0.06, Pitch : 0.03, Yaw : 359.93, Alt : 35.0200004578, Lat : 49.2835704, Lng : -123.1150208, Q1 : 0.999999582767, Q2 : 0.000602440908551, Q3 : 0.000336969969794, Q4 : -0.000551358330995}
2019-04-14 16:33:45.02: SIM {TimeUS : 47035345, Roll : 0.04, Pitch : 0.01, Yaw : 359.93, Alt : 35.2400016785, Lat : 49.2835704, Lng : -123.1150207, Q1 : 0.999999761581, Q2 : 0.000392373971408, Q3 : 0.000171315434272, Q4 : -0.000596767058596}
2019-04-14 16:33:45.11: SIM {TimeUS : 47135305, Roll : 0.03, Pitch : 0.01, Yaw : 359.92, Alt : 35.4599990845, Lat : 49.2835704, Lng : -123.1150207, Q1 : 0.999999761581, Q2 : 0.000295426987577, Q3 : 0.000125801860122, Q4 : -0.000638835539576}
2019-04-14 16:33:45.21: SIM {TimeUS : 47235265, Roll : 0.03, Pitch : 0.01, Yaw : 359.92, Alt : 35.6800003052, Lat : 49.2835704, Lng : -123.1150207, Q1 : 0.999999761581, Q2 : 0.00031293099164, Q3 : 0.000117616167699, Q4 : -0.000678493583109}
2019-04-14 16:33:45.31: SIM {TimeUS : 47335225, Roll : 0.01, Pitch : -0.01, Yaw : 359.91, Alt : 35.9000015259, Lat : 49.2835704, Lng : -123.1150207, Q1 : 0.999999761581, Q2 : 0.000138824005262, Q3 : -9.72767666099e-05, Q4 : -0.000713192683179}
2019-04-14 16:33:45.41: SIM {TimeUS : 47435185, Roll : -0.02, Pitch : -0.04, Yaw : 359.91, Alt : 36.1199989319, Lat : 49.2835704, Lng : -123.1150207, Q1 : 0.999999642372, Q2 : -0.000187144687516, Q3 : -0.000426344486186, Q4 : -0.000744146702345}
2019-04-14 16:33:45.51: SIM {TimeUS : 47535145, Roll : -0.06, Pitch : -0.06, Yaw : 359.91, Alt : 36.3400001526, Lat : 49.2835704, Lng : -123.1150207, Q1 : 0.999999344349, Q2 : -0.000542771362234, Q3 : -0.000608357775491, Q4 : -0.000773636682425}
2019-04-14 16:33:45.61: SIM {TimeUS : 47635105, Roll : -0.09, Pitch : -0.08, Yaw : 359.9, Alt : 36.5600013733, Lat : 49.2835704, Lng : -123.1150207, Q1 : 0.999999046326, Q2 : -0.00085231824778, Q3 : -0.000708187348209, Q4 : -0.000801212561782}
2019-04-14 16:33:45.71: SIM {TimeUS : 47735065, Roll : -0.1, Pitch : -0.08, Yaw : 359.9, Alt : 36.7799987793, Lat : 49.2835704, Lng : -123.1150206, Q1 : 0.999998986721, Q2 : -0.000894394412171, Q3 : -0.000699063180946, Q4 : -0.000825337832794}
2019-04-14 16:33:45.81: SIM {TimeUS : 47835025, Roll : -0.09, Pitch : -0.06, Yaw : 359.9, Alt : 37.0099983215, Lat : 49.2835704, Lng : -123.1150206, Q1 : 0.99999910593, Q2 : -0.000814969651401, Q3 : -0.000605333771091, Q4 : -0.000843263289426}
2019-04-14 16:33:45.91: SIM {TimeUS : 47934985, Roll : -0.07, Pitch : -0.05, Yaw : 359.9, Alt : 37.2299995422, Lat : 49.2835704, Lng : -123.1150206, Q1 : 0.999999344349, Q2 : -0.000642630096991, Q3 : -0.000440796779003, Q4 : -0.000855021062307}
2019-04-14 16:33:46.01: SIM {TimeUS : 48034945, Roll : -0.05, Pitch : -0.03, Yaw : 359.9, Alt : 37.4599990845, Lat : 49.2835704, Lng : -123.1150206, Q1 : 0.999999463558, Q2 : -0.000456270441646, Q3 : -0.00033379875822, Q4 : -0.000861941603944}
2019-04-14 16:33:46.11: SIM {TimeUS : 48134905, Roll : -0.05, Pitch : -0.03, Yaw : 359.9, Alt : 37.6800003052, Lat : 49.2835704, Lng : -123.1150206, Q1 : 0.999999463558, Q2 : -0.000482796895085, Q3 : -0.000343814259395, Q4 : -0.000866161775775}
2019-04-14 16:33:46.21: SIM {TimeUS : 48234865, Roll : -0.06, Pitch : -0.02, Yaw : 359.9, Alt : 37.9099998474, Lat : 49.2835704, Lng : -123.1150206, Q1 : 0.999999403954, Q2 : -0.000606928253546, Q3 : -0.00024907340412, Q4 : -0.000870647083502}
2019-04-14 16:33:46.31: SIM {TimeUS : 48334825, Roll : -0.09, Pitch : -0.01, Yaw : 359.89, Alt : 38.1399993896, Lat : 49.2835704, Lng : -123.1150206, Q1 : 0.99999922514, Q2 : -0.000846044451464, Q3 : -0.00011439237278, Q4 : -0.000879096041899}
2019-04-14 16:33:46.41: SIM {TimeUS : 48434785, Roll : -0.1, Pitch : 0.0, Yaw : 359.89, Alt : 38.3600006104, Lat : 49.2835704, Lng : -123.1150206, Q1 : 0.99999922514, Q2 : -0.000902858446352, Q3 : 1.5728030121e-05, Q4 : -0.000887070782483}
2019-04-14 16:33:46.51: SIM {TimeUS : 48534745, Roll : -0.08, Pitch : 0.02, Yaw : 359.89, Alt : 38.5900001526, Lat : 49.2835704, Lng : -123.1150206, Q1 : 0.999999284744, Q2 : -0.000708987412509, Q3 : 0.000252461584751, Q4 : -0.000900841609109}
2019-04-14 16:33:46.61: SIM {TimeUS : 48634705, Roll : -0.05, Pitch : 0.02, Yaw : 359.89, Alt : 38.8199996948, Lat : 49.2835704, Lng : -123.1150206, Q1 : 0.999999463558, Q2 : -0.000473663181765, Q3 : 0.000220112735406, Q4 : -0.000915070180781}
2019-04-14 16:33:46.71: SIM {TimeUS : 48734665, Roll : -0.02, Pitch : 0.01, Yaw : 359.89, Alt : 39.0499992371, Lat : 49.2835706, Lng : -123.1150206, Q1 : 0.999999523163, Q2 : -0.000199740577955, Q3 : 0.000126104467199, Q4 : -0.000928820460103}
2019-04-14 16:33:46.81: SIM {TimeUS : 48834625, Roll : 0.01, Pitch : 0.03, Yaw : 359.89, Alt : 39.2799987793, Lat : 49.2835706, Lng : -123.1150206, Q1 : 0.999999523163, Q2 : 0.000109576627437, Q3 : 0.000272650504485, Q4 : -0.000945036183111}
2019-04-14 16:33:46.91: SIM {TimeUS : 48934585, Roll : 0.05, Pitch : 0.06, Yaw : 359.88, Alt : 39.5099983215, Lat : 49.2835706, Lng : -123.1150206, Q1 : 0.999999284744, Q2 : 0.00045287879766, Q3 : 0.000567651179153, Q4 : -0.000969363434706}
2019-04-14 16:33:47.01: SIM {TimeUS : 49034545, Roll : 0.08, Pitch : 0.09, Yaw : 359.88, Alt : 39.7400016785, Lat : 49.2835706, Lng : -123.1150206, Q1 : 0.999998867512, Q2 : 0.000714959460311, Q3 : 0.000837985426188, Q4 : -0.000998410396278}
2019-04-14 16:33:47.12: SIM {TimeUS : 49135338, Roll : 0.07, Pitch : 0.12, Yaw : 359.88, Alt : 39.9700012207, Lat : 49.2835706, Lng : -123.1150206, Q1 : 0.999998688698, Q2 : 0.000637194141746, Q3 : 0.00105526088737, Q4 : -0.00101861765143}
2019-04-14 16:33:47.21: SIM {TimeUS : 49235298, Roll : 0.02, Pitch : 0.14, Yaw : 359.87, Alt : 40.2000007629, Lat : 49.2835706, Lng : -123.1150206, Q1 : 0.999998629093, Q2 : 0.000245478004217, Q3 : 0.00122463447042, Q4 : -0.00105855218135}
2019-04-14 16:33:47.31: SIM {TimeUS : 49335258, Roll : 0.0, Pitch : 0.14, Yaw : 359.87, Alt : 40.4399986267, Lat : 49.2835706, Lng : -123.1150206, Q1 : 0.999998629093, Q2 : -8.48479539854e-05, Q3 : 0.00126678671222, Q4 : -0.00109287083615}
2019-04-14 16:33:47.41: SIM {TimeUS : 49435218, Roll : -0.03, Pitch : 0.12, Yaw : 359.87, Alt : 40.6699981689, Lat : 49.2835706, Lng : -123.1150206, Q1 : 0.999998688698, Q2 : -0.000284791953163, Q3 : 0.00113320327364, Q4 : -0.00111766450573}
2019-04-14 16:33:47.51: SIM {TimeUS : 49535178, Roll : -0.04, Pitch : 0.11, Yaw : 359.86, Alt : 40.9000015259, Lat : 49.2835706, Lng : -123.1150206, Q1 : 0.999998748302, Q2 : -0.000377239834052, Q3 : 0.00102965708356, Q4 : -0.00114231382031}
2019-04-14 16:33:47.61: SIM {TimeUS : 49635138, Roll : -0.03, Pitch : 0.12, Yaw : 359.86, Alt : 41.1300010681, Lat : 49.2835706, Lng : -123.1150206, Q1 : 0.999998629093, Q2 : -0.000290386786219, Q3 : 0.00111709209159, Q4 : -0.00117301265709}
2019-04-14 16:33:47.71: SIM {TimeUS : 49735098, Roll : 0.0, Pitch : 0.15, Yaw : 359.86, Alt : 41.3699989319, Lat : 49.2835706, Lng : -123.1150207, Q1 : 0.999998390675, Q2 : 6.49174398859e-05, Q3 : 0.00131634227, Q4 : -0.00121386733372}
2019-04-14 16:33:47.81: SIM {TimeUS : 49835058, Roll : 0.05, Pitch : 0.16, Yaw : 359.85, Alt : 41.5999984741, Lat : 49.2835706, Lng : -123.1150207, Q1 : 0.999998092651, Q2 : 0.000500390538946, Q3 : 0.0014097118983, Q4 : -0.00125621038023}
2019-04-14 16:33:47.91: SIM {TimeUS : 49935018, Roll : 0.09, Pitch : 0.12, Yaw : 359.85, Alt : 41.8300018311, Lat : 49.2835706, Lng : -123.1150207, Q1 : 0.999998211861, Q2 : 0.000793762970716, Q3 : 0.00111399346497, Q4 : -0.00129462266341}
2019-04-14 16:33:48.01: SIM {TimeUS : 50034978, Roll : 0.09, Pitch : 0.07, Yaw : 359.84, Alt : 42.0699996948, Lat : 49.2835706, Lng : -123.1150207, Q1 : 0.999998569489, Q2 : 0.000811170903035, Q3 : 0.000667977612466, Q4 : -0.00132539216429}
2019-04-14 16:33:48.11: SIM {TimeUS : 50134938, Roll : 0.05, Pitch : 0.04, Yaw : 359.84, Alt : 42.2999992371, Lat : 49.2835706, Lng : -123.1150207, Q1 : 0.999998867512, Q2 : 0.000523523893207, Q3 : 0.00038232334191, Q4 : -0.00134683435317}
2019-04-14 16:33:48.21: SIM {TimeUS : 50234898, Roll : 0.0, Pitch : 0.03, Yaw : 359.84, Alt : 42.5400009155, Lat : 49.2835706, Lng : -123.1150207, Q1 : 0.999998986721, Q2 : 6.95005292073e-05, Q3 : 0.00030891384813, Q4 : -0.00135743618011}
2019-04-14 16:33:48.31: SIM {TimeUS : 50334858, Roll : -0.02, Pitch : 0.06, Yaw : 359.84, Alt : 42.7700004578, Lat : 49.2835706, Lng : -123.1150207, Q1 : 0.999998867512, Q2 : -0.000240081819356, Q3 : 0.000539893342648, Q4 : -0.00135918147862}
2019-04-14 16:33:48.41: SIM {TimeUS : 50434818, Roll : -0.04, Pitch : 0.08, Yaw : 359.84, Alt : 43.0099983215, Lat : 49.2835704, Lng : -123.1150206, Q1 : 0.999998748302, Q2 : -0.000389855966205, Q3 : 0.000732108019292, Q4 : -0.00135901977774}
2019-04-14 16:33:48.51: SIM {TimeUS : 50534778, Roll : -0.04, Pitch : 0.08, Yaw : 359.84, Alt : 43.2400016785, Lat : 49.2835704, Lng : -123.1150206, Q1 : 0.999998748302, Q2 : -0.000376499316189, Q3 : 0.000725879683159, Q4 : -0.00136275554541}
2019-04-14 16:33:48.61: SIM {TimeUS : 50634738, Roll : -0.04, Pitch : 0.07, Yaw : 359.84, Alt : 43.4799995422, Lat : 49.2835704, Lng : -123.1150206, Q1 : 0.999998807907, Q2 : -0.000404078833526, Q3 : 0.00064099766314, Q4 : -0.00137573294342}
2019-04-14 16:33:48.71: SIM {TimeUS : 50734698, Roll : -0.04, Pitch : 0.05, Yaw : 359.84, Alt : 43.7099990845, Lat : 49.2835704, Lng : -123.1150206, Q1 : 0.999998867512, Q2 : -0.000355194701115, Q3 : 0.000521362177096, Q4 : -0.00139177544042}
2019-04-14 16:33:48.81: SIM {TimeUS : 50834658, Roll : -0.02, Pitch : 0.05, Yaw : 359.83, Alt : 43.9500007629, Lat : 49.2835704, Lng : -123.1150206, Q1 : 0.999998927116, Q2 : -0.000184865362826, Q3 : 0.000437415321358, Q4 : -0.00140900304541}
2019-04-14 16:33:48.91: SIM {TimeUS : 50934618, Roll : 0.0, Pitch : 0.04, Yaw : 359.83, Alt : 44.1800003052, Lat : 49.2835704, Lng : -123.1150206, Q1 : 0.999998927116, Q2 : -6.67795538902e-05, Q3 : 0.000414359732531, Q4 : -0.00142549781594}
2019-04-14 16:33:49.01: SIM {TimeUS : 51034578, Roll : -0.01, Pitch : 0.03, Yaw : 359.83, Alt : 44.4199981689, Lat : 49.2835704, Lng : -123.1150206, Q1 : 0.999998927116, Q2 : -9.36412543524e-05, Q3 : 0.000275356054772, Q4 : -0.00144793221261}
2019-04-14 16:33:49.11: SIM {TimeUS : 51134538, Roll : -0.02, Pitch : 0.0, Yaw : 359.83, Alt : 44.6599998474, Lat : 49.2835704, Lng : -123.1150206, Q1 : 0.999998867512, Q2 : -0.000180232571438, Q3 : 2.48560490945e-06, Q4 : -0.00147368921898}
2019-04-14 16:33:49.21: SIM {TimeUS : 51235331, Roll : -0.02, Pitch : -0.02, Yaw : 359.82, Alt : 44.8899993896, Lat : 49.2835704, Lng : -123.1150206, Q1 : 0.999998807907, Q2 : -0.000254168873653, Q3 : -0.000217436710955, Q4 : -0.00150584301446}
2019-04-14 16:33:49.31: SIM {TimeUS : 51335291, Roll : -0.02, Pitch : -0.04, Yaw : 359.82, Alt : 45.1300010681, Lat : 49.2835704, Lng : -123.1150206, Q1 : 0.999998748302, Q2 : -0.000221631591558, Q3 : -0.000356057396857, Q4 : -0.00154201849364}
2019-04-14 16:33:49.41: SIM {TimeUS : 51435251, Roll : -0.02, Pitch : -0.04, Yaw : 359.81, Alt : 45.3699989319, Lat : 49.2835703, Lng : -123.1150206, Q1 : 0.999998688698, Q2 : -0.000254999060417, Q3 : -0.000383907026844, Q4 : -0.00157636613585}
2019-04-14 16:33:49.51: SIM {TimeUS : 51535211, Roll : -0.05, Pitch : -0.03, Yaw : 359.81, Alt : 45.5999984741, Lat : 49.2835703, Lng : -123.1150206, Q1 : 0.999998569489, Q2 : -0.000439778086729, Q3 : -0.000316027580993, Q4 : -0.00161535816733}
2019-04-14 16:33:49.61: SIM {TimeUS : 51635171, Roll : -0.08, Pitch : -0.02, Yaw : 359.81, Alt : 45.8300018311, Lat : 49.2835703, Lng : -123.1150206, Q1 : 0.99999833107, Q2 : -0.000715690199286, Q3 : -0.000256247119978, Q4 : -0.0016568278661}
2019-04-14 16:33:49.71: SIM {TimeUS : 51735131, Roll : -0.1, Pitch : -0.02, Yaw : 359.8, Alt : 46.0699996948, Lat : 49.2835703, Lng : -123.1150206, Q1 : 0.999998152256, Q2 : -0.000912538846023, Q3 : -0.000226109899813, Q4 : -0.00170047802385}
2019-04-14 16:33:49.81: SIM {TimeUS : 51835091, Roll : -0.1, Pitch : -0.01, Yaw : 359.8, Alt : 46.2900009155, Lat : 49.2835703, Lng : -123.1150206, Q1 : 0.999998033047, Q2 : -0.000956514617428, Q3 : -0.000113034337119, Q4 : -0.00174049718771}
2019-04-14 16:33:49.91: SIM {TimeUS : 51935051, Roll : -0.09, Pitch : 0.0, Yaw : 359.79, Alt : 46.5200004578, Lat : 49.2835703, Lng : -123.1150206, Q1 : 0.999998092651, Q2 : -0.000827109499369, Q3 : 4.83100120618e-05, Q4 : -0.00177114002872}
2019-04-14 16:33:50.01: SIM {TimeUS : 52035011, Roll : -0.06, Pitch : 0.01, Yaw : 359.79, Alt : 46.7299995422, Lat : 49.2835703, Lng : -123.1150206, Q1 : 0.999998211861, Q2 : -0.000592796248384, Q3 : 0.000103409380245, Q4 : -0.00180008029565}
2019-04-14 16:33:50.11: SIM {TimeUS : 52134971, Roll : -0.04, Pitch : 0.0, Yaw : 359.79, Alt : 46.9500007629, Lat : 49.2835703, Lng : -123.1150206, Q1 : 0.999998271465, Q2 : -0.000406230101362, Q3 : 3.28683963744e-05, Q4 : -0.00182712741662}
2019-04-14 16:33:50.21: SIM {TimeUS : 52234931, Roll : -0.03, Pitch : -0.01, Yaw : 359.78, Alt : 47.1500015259, Lat : 49.2835703, Lng : -123.1150206, Q1 : 0.999998271465, Q2 : -0.000299372419249, Q3 : -0.000114123649837, Q4 : -0.00185358268209}
2019-04-14 16:33:50.31: SIM {TimeUS : 52334891, Roll : -0.01, Pitch : -0.03, Yaw : 359.78, Alt : 47.3499984741, Lat : 49.2835703, Lng : -123.1150206, Q1 : 0.999998152256, Q2 : -0.000145243902807, Q3 : -0.00034873187542, Q4 : -0.00187743164133}
2019-04-14 16:33:50.41: SIM {TimeUS : 52434851, Roll : 0.0, Pitch : -0.06, Yaw : 359.78, Alt : 47.5400009155, Lat : 49.2835703, Lng : -123.1150206, Q1 : 0.999998033047, Q2 : 5.57712628506e-05, Q3 : -0.000556384969968, Q4 : -0.00189533317462}
2019-04-14 16:33:50.51: SIM {TimeUS : 52534811, Roll : 0.01, Pitch : -0.1, Yaw : 359.78, Alt : 47.7200012207, Lat : 49.2835703, Lng : -123.1150206, Q1 : 0.999997735023, Q2 : 0.000140895019285, Q3 : -0.000912547227927, Q4 : -0.00191093864851}
2019-04-14 16:33:50.61: SIM {TimeUS : 52634771, Roll : 0.01, Pitch : -0.14, Yaw : 359.77, Alt : 47.8899993896, Lat : 49.2835703, Lng : -123.1150206, Q1 : 0.999997317791, Q2 : 0.000156553884153, Q3 : -0.00128012814093, Q4 : -0.00192892365158}
2019-04-14 16:33:50.71: SIM {TimeUS : 52734731, Roll : 0.04, Pitch : -0.15, Yaw : 359.77, Alt : 48.0400009155, Lat : 49.2835703, Lng : -123.1150206, Q1 : 0.999997138977, Q2 : 0.000373219518224, Q3 : -0.00136014784221, Q4 : -0.00194618152454}
2019-04-14 16:33:50.81: SIM {TimeUS : 52834691, Roll : 0.06, Pitch : -0.13, Yaw : 359.77, Alt : 48.1899986267, Lat : 49.2835703, Lng : -123.1150206, Q1 : 0.999997198582, Q2 : 0.000606395595241, Q3 : -0.00121102540288, Q4 : -0.00195975438692}
2019-04-14 16:33:50.91: SIM {TimeUS : 52934651, Roll : 0.08, Pitch : -0.1, Yaw : 359.77, Alt : 48.3199996948, Lat : 49.2835703, Lng : -123.1150206, Q1 : 0.999997317791, Q2 : 0.000754401087761, Q3 : -0.000930195383262, Q4 : -0.00197425042279}
2019-04-14 16:33:51.01: SIM {TimeUS : 53034611, Roll : 0.08, Pitch : -0.06, Yaw : 359.77, Alt : 48.4399986267, Lat : 49.2835703, Lng : -123.1150206, Q1 : 0.99999755621, Q2 : 0.000741620257031, Q3 : -0.000597937498242, Q4 : -0.00199375138618}
2019-04-14 16:33:51.11: SIM {TimeUS : 53134571, Roll : 0.08, Pitch : -0.04, Yaw : 359.76, Alt : 48.5499992371, Lat : 49.2835703, Lng : -123.1150206, Q1 : 0.999997615814, Q2 : 0.000719160714652, Q3 : -0.000380078883609, Q4 : -0.00201870012097}
2019-04-14 16:33:51.22: SIM {TimeUS : 53235364, Roll : 0.06, Pitch : -0.04, Yaw : 359.76, Alt : 48.6500015259, Lat : 49.2835704, Lng : -123.1150206, Q1 : 0.999997675419, Q2 : 0.00056544324616, Q3 : -0.000378749100491, Q4 : -0.00204289657995}
2019-04-14 16:33:51.31: SIM {TimeUS : 53335324, Roll : 0.03, Pitch : -0.04, Yaw : 359.76, Alt : 48.7299995422, Lat : 49.2835704, Lng : -123.1150206, Q1 : 0.999997735023, Q2 : 0.000263087975327, Q3 : -0.000410433567595, Q4 : -0.00206422549672}
2019-04-14 16:33:51.41: SIM {TimeUS : 53435284, Roll : 0.01, Pitch : -0.03, Yaw : 359.76, Alt : 48.7999992371, Lat : 49.2835704, Lng : -123.1150206, Q1 : 0.999997735023, Q2 : 0.00011910986359, Q3 : -0.000346680317307, Q4 : -0.0020929207094}
2019-04-14 16:33:51.51: SIM {TimeUS : 53535244, Roll : 0.0, Pitch : -0.02, Yaw : 359.75, Alt : 48.8699989319, Lat : 49.2835704, Lng : -123.1150206, Q1 : 0.999997735023, Q2 : 1.40073580042e-05, Q3 : -0.000257770530879, Q4 : -0.00212488370016}
2019-04-14 16:33:51.61: SIM {TimeUS : 53635204, Roll : 0.0, Pitch : -0.01, Yaw : 359.75, Alt : 48.9199981689, Lat : 49.2835704, Lng : -123.1150206, Q1 : 0.999997675419, Q2 : -4.47058664577e-05, Q3 : -0.000109363863885, Q4 : -0.00215807626955}
2019-04-14 16:33:51.71: SIM {TimeUS : 53735164, Roll : 0.01, Pitch : 0.01, Yaw : 359.74, Alt : 48.9700012207, Lat : 49.2835704, Lng : -123.1150206, Q1 : 0.999997615814, Q2 : 0.000145429803524, Q3 : 0.000119999232993, Q4 : -0.00219095451757}
2019-04-14 16:33:51.81: SIM {TimeUS : 53835124, Roll : 0.09, Pitch : -0.01, Yaw : 359.74, Alt : 49.0099983215, Lat : 49.2835704, Lng : -123.1150206, Q1 : 0.999997198582, Q2 : 0.000829488097224, Q3 : -0.000123623467516, Q4 : -0.00222541834228}
2019-04-14 16:33:51.91: SIM {TimeUS : 53935084, Roll : 0.32, Pitch : -0.21, Yaw : 359.74, Alt : 49.0400009155, Lat : 49.2835704, Lng : -123.1150206, Q1 : 0.999991834164, Q2 : 0.00279188482091, Q3 : -0.00186113000382, Q4 : -0.00225387397222}
2019-04-14 16:33:52.01: SIM {TimeUS : 54035044, Roll : 0.72, Pitch : -0.6, Yaw : 359.73, Alt : 49.0699996948, Lat : 49.2835704, Lng : -123.1150206, Q1 : 0.999963760376, Q2 : 0.00627544149756, Q3 : -0.00528919883072, Q4 : -0.00227437354624}
2019-04-14 16:33:52.11: SIM {TimeUS : 54135004, Roll : 1.28, Pitch : -1.18, Yaw : 359.72, Alt : 49.0999984741, Lat : 49.2835704, Lng : -123.1150206, Q1 : 0.999880969524, Q2 : 0.0111934924498, Q3 : -0.0103715583682, Q4 : -0.00228268094361}
2019-04-14 16:33:52.21: SIM {TimeUS : 54234964, Roll : 1.98, Pitch : -1.88, Yaw : 359.7, Alt : 49.1199989319, Lat : 49.2835706, Lng : -123.1150205, Q1 : 0.999711096287, Q2 : 0.0173036828637, Q3 : -0.016527812928, Q4 : -0.00225911475718}
2019-04-14 16:33:52.31: SIM {TimeUS : 54334924, Roll : 2.74, Pitch : -2.6, Yaw : 359.68, Alt : 49.1399993896, Lat : 49.2835706, Lng : -123.1150204, Q1 : 0.999453485012, Q2 : 0.0238551422954, Q3 : -0.0227791555226, Q4 : -0.00218520616181}
2019-04-14 16:33:52.41: SIM {TimeUS : 54434884, Roll : 3.41, Pitch : -3.23, Yaw : 359.66, Alt : 49.1500015259, Lat : 49.2835707, Lng : -123.1150203, Q1 : 0.999154627323, Q2 : 0.029737174511, Q3 : -0.0283113922924, Q4 : -0.00204506213777}
2019-04-14 16:33:52.51: SIM {TimeUS : 54534844, Roll : 3.95, Pitch : -3.72, Yaw : 359.66, Alt : 49.1699981689, Lat : 49.2835709, Lng : -123.11502, Q1 : 0.998876214027, Q2 : 0.0343819484115, Q3 : -0.0325695835054, Q4 : -0.00183738197666}
2019-04-14 16:33:52.61: SIM {TimeUS : 54634804, Roll : 4.33, Pitch : -4.07, Yaw : 359.66, Alt : 49.1800003052, Lat : 49.2835709, Lng : -123.1150198, Q1 : 0.998654007912, Q2 : 0.0376772433519, Q3 : -0.0356115363538, Q4 : -0.0015845305752}
2019-04-14 16:33:52.71: SIM {TimeUS : 54734764, Roll : 4.6, Pitch : -4.34, Yaw : 359.67, Alt : 49.1899986267, Lat : 49.2835713, Lng : -123.1150195, Q1 : 0.998475432396, Q2 : 0.0400379486382, Q3 : -0.0379749536514, Q4 : -0.0013116216287}
2019-04-14 16:33:52.81: SIM {TimeUS : 54834724, Roll : 4.85, Pitch : -4.59, Yaw : 359.68, Alt : 49.2000007629, Lat : 49.2835715, Lng : -123.115019, Q1 : 0.998300254345, Q2 : 0.0422142408788, Q3 : -0.0401693210006, Q4 : -0.00102064805105}
2019-04-14 16:33:52.91: SIM {TimeUS : 54934684, Roll : 5.13, Pitch : -4.85, Yaw : 359.69, Alt : 49.2099990845, Lat : 49.2835719, Lng : -123.1150185, Q1 : 0.998103559017, Q2 : 0.0446175560355, Q3 : -0.0424031317234, Q4 : -0.000721004384104}
2019-04-14 16:33:53.01: SIM {TimeUS : 55034644, Roll : 5.42, Pitch : -5.1, Yaw : 359.7, Alt : 49.2200012207, Lat : 49.2835722, Lng : -123.1150179, Q1 : 0.997891843319, Q2 : 0.0471304170787, Q3 : -0.0446146577597, Q4 : -0.000426060520113}
2019-04-14 16:33:53.11: SIM {TimeUS : 55134604, Roll : 5.68, Pitch : -5.34, Yaw : 359.71, Alt : 49.2200012207, Lat : 49.2835727, Lng : -123.1150172, Q1 : 0.997687220573, Q2 : 0.0494168512523, Q3 : -0.0466715060174, Q4 : -0.000146846912685}
2019-04-14 16:33:53.21: SIM {TimeUS : 55234564, Roll : 5.87, Pitch : -5.53, Yaw : 359.72, Alt : 49.2299995422, Lat : 49.2835732, Lng : -123.1150163, Q1 : 0.997522830963, Q2 : 0.0510899536312, Q3 : -0.0483544692397, Q4 : 9.49202585616e-05}
2019-04-14 16:33:53.32: SIM {TimeUS : 55335357, Roll : 6.01, Pitch : -5.67, Yaw : 359.73, Alt : 49.2400016785, Lat : 49.2835737, Lng : -123.1150155, Q1 : 0.997401893139, Q2 : 0.052315659821, Q3 : -0.0495221354067, Q4 : 0.000288476701826}
2019-04-14 16:33:53.41: SIM {TimeUS : 55435317, Roll : 6.11, Pitch : -5.75, Yaw : 359.74, Alt : 49.2400016785, Lat : 49.2835743, Lng : -123.1150145, Q1 : 0.997322022915, Q2 : 0.0531434454024, Q3 : -0.050243742764, Q4 : 0.000431023305282}
2019-04-14 16:33:53.51: SIM {TimeUS : 55535277, Roll : 6.19, Pitch : -5.82, Yaw : 359.74, Alt : 49.25, Lat : 49.283575, Lng : -123.1150135, Q1 : 0.997251331806, Q2 : 0.0538524948061, Q3 : -0.0508866943419, Q4 : 0.000521981448401}
2019-04-14 16:33:53.61: SIM {TimeUS : 55635237, Roll : 6.32, Pitch : -5.92, Yaw : 359.73, Alt : 49.25, Lat : 49.2835756, Lng : -123.1150124, Q1 : 0.997147977352, Q2 : 0.0549437887967, Q3 : -0.0517381876707, Q4 : 0.000582484761253}
2019-04-14 16:33:53.71: SIM {TimeUS : 55735197, Roll : 6.64, Pitch : -5.94, Yaw : 359.85, Alt : 49.2599983215, Lat : 49.2835764, Lng : -123.1150112, Q1 : 0.996975600719, Q2 : 0.0578459985554, Q3 : -0.0518704690039, Q4 : 0.00174669385888}
2019-04-14 16:33:53.81: SIM {TimeUS : 55835157, Roll : 7.23, Pitch : -5.84, Yaw : 0.61, Alt : 49.2599983215, Lat : 49.283577, Lng : -123.1150099, Q1 : 0.996678829193, Q2 : 0.0632495880127, Q3 : -0.0505753718317, Q4 : 0.00854269135743}
2019-04-14 16:33:53.91: SIM {TimeUS : 55935117, Roll : 7.87, Pitch : -5.83, Yaw : 2.67, Alt : 49.2599983215, Lat : 49.283578, Lng : -123.1150084, Q1 : 0.995988667011, Q2 : 0.0697720199823, Q3 : -0.0492000579834, Q4 : 0.0267922375351}
2019-04-14 16:33:54.01: SIM {TimeUS : 56035077, Roll : 8.27, Pitch : -6.2, Yaw : 6.34, Alt : 49.2599983215, Lat : 49.2835788, Lng : -123.1150071, Q1 : 0.994188964367, Q2 : 0.0749419406056, Q3 : -0.0499234013259, Q4 : 0.0589890703559}
2019-04-14 16:33:54.11: SIM {TimeUS : 56135037, Roll : 8.19, Pitch : -7.04, Yaw : 11.5, Alt : 49.2599983215, Lat : 49.2835797, Lng : -123.1150055, Q1 : 0.990103304386, Q2 : 0.0771431550384, Q3 : -0.0538104400039, Q4 : 0.104157626629}
2019-04-14 16:33:54.21: SIM {TimeUS : 56234997, Roll : 7.5, Pitch : -8.26, Yaw : 17.94, Alt : 49.2599983215, Lat : 49.2835806, Lng : -123.1150038, Q1 : 0.982345163822, Q2 : 0.0757132768631, Q3 : -0.0608787983656, Q4 : 0.159872755408}
2019-04-14 16:33:54.31: SIM {TimeUS : 56334957, Roll : 6.15, Pitch : -9.67, Yaw : 25.4, Alt : 49.2700004578, Lat : 49.2835814, Lng : -123.115002, Q1 : 0.969651758671, Q2 : 0.0706948414445, Q3 : -0.0704287737608, Q4 : 0.223198369145}
2019-04-14 16:33:54.41: SIM {TimeUS : 56434917, Roll : 4.08, Pitch : -11.04, Yaw : 33.59, Alt : 49.2700004578, Lat : 49.2835824, Lng : -123.1150001, Q1 : 0.951301395893, Q2 : 0.0617724880576, Q3 : -0.0818138420582, Q4 : 0.290716975927}
2019-04-14 16:33:54.51: SIM {TimeUS : 56534877, Roll : 1.23, Pitch : -12.12, Yaw : 41.9, Alt : 49.2700004578, Lat : 49.2835834, Lng : -123.1149981, Q1 : 0.928187012672, Q2 : 0.0477383062243, Q3 : -0.0948057845235, Q4 : 0.356653660536}
2019-04-14 16:33:54.61: SIM {TimeUS : 56634837, Roll : -1.99, Pitch : -12.7, Yaw : 49.47, Alt : 49.2700004578, Lat : 49.2835844, Lng : -123.114996, Q1 : 0.903308451176, Q2 : 0.0306311137974, Q3 : -0.107723847032, Q4 : 0.414114922285}
2019-04-14 16:33:54.71: SIM {TimeUS : 56734797, Roll : -4.89, Pitch : -12.82, Yaw : 55.51, Alt : 49.2700004578, Lat : 49.2835855, Lng : -123.1149938, Q1 : 0.880788147449, Q2 : 0.0144591741264, Q3 : -0.118520699441, Q4 : 0.458209574223}
2019-04-14 16:33:54.81: SIM {TimeUS : 56834757, Roll : -6.93, Pitch : -12.7, Yaw : 59.59, Alt : 49.2700004578, Lat : 49.2835868, Lng : -123.1149916, Q1 : 0.864226937294, Q2 : 0.00272880867124, Q3 : -0.125671491027, Q4 : 0.487145811319}
2019-04-14 16:33:54.91: SIM {TimeUS : 56934717, Roll : -7.89, Pitch : -12.55, Yaw : 61.68, Alt : 49.2700004578, Lat : 49.2835881, Lng : -123.1149894, Q1 : 0.855286896229, Q2 : -0.00286051840521, Q3 : -0.128743499517, Q4 : 0.50189769268}
2019-04-14 16:33:55.01: SIM {TimeUS : 57034677, Roll : -7.84, Pitch : -12.57, Yaw : 62.05, Alt : 49.2700004578, Lat : 49.2835897, Lng : -123.1149871, Q1 : 0.853651821613, Q2 : -0.00199561053887, Q3 : -0.128662854433, Q4 : 0.504698455334}
2019-04-14 16:33:55.11: SIM {TimeUS : 57134637, Roll : -6.99, Pitch : -12.85, Yaw : 61.05, Alt : 49.2700004578, Lat : 49.2835911, Lng : -123.1149849, Q1 : 0.857846558094, Q2 : 0.00450694421306, Q3 : -0.127022370696, Q4 : 0.497940033674}
2019-04-14 16:33:55.21: SIM {TimeUS : 57234597, Roll : -5.6, Pitch : -13.36, Yaw : 59.04, Alt : 49.2700004578, Lat : 49.2835928, Lng : -123.1149825, Q1 : 0.866020739079, Q2 : 0.0150301493704, Q3 : -0.125105530024, Q4 : 0.483870625496}
2019-04-14 16:33:55.31: SIM {TimeUS : 57334557, Roll : -3.89, Pitch : -14.02, Yaw : 56.34, Alt : 49.2700004578, Lat : 49.2835946, Lng : -123.1149801, Q1 : 0.876385331154, Q2 : 0.0278770774603, Q3 : -0.12352757901, Q4 : 0.464663863182}
2019-04-14 16:33:55.42: SIM {TimeUS : 57435350, Roll : -2.06, Pitch : -14.71, Yaw : 53.24, Alt : 49.2799987793, Lat : 49.2835964, Lng : -123.1149777, Q1 : 0.887510895729, Q2 : 0.0413997881114, Q3 : -0.12250020355, Q4 : 0.442271530628}
2019-04-14 16:33:55.51: SIM {TimeUS : 57535310, Roll : -0.31, Pitch : -15.27, Yaw : 50.1, Alt : 49.2799987793, Lat : 49.2835982, Lng : -123.1149751, Q1 : 0.898026585579, Q2 : 0.0538547560573, Q3 : -0.121558316052, Q4 : 0.419370383024}
2019-04-14 16:33:55.61: SIM {TimeUS : 57635270, Roll : 1.22, Pitch : -15.62, Yaw : 47.23, Alt : 49.2799987793, Lat : 49.2836001, Lng : -123.1149725, Q1 : 0.907093882561, Q2 : 0.0641532018781, Q3 : -0.120336353779, Q4 : 0.398226439953}
2019-04-14 16:33:55.71: SIM {TimeUS : 57735230, Roll : 2.4, Pitch : -15.77, Yaw : 44.91, Alt : 49.2799987793, Lat : 49.2836019, Lng : -123.1149697, Q1 : 0.914125323296, Q2 : 0.0716236233711, Q3 : -0.118839979172, Q4 : 0.380948930979}
2019-04-14 16:33:55.81: SIM {TimeUS : 57835190, Roll : 3.17, Pitch : -15.77, Yaw : 43.3, Alt : 49.2799987793, Lat : 49.2836038, Lng : -123.1149668, Q1 : 0.918881356716, Q2 : 0.0761064216495, Q3 : -0.117387399077, Q4 : 0.368897199631}
2019-04-14 16:33:55.91: SIM {TimeUS : 57935150, Roll : 3.49, Pitch : -15.73, Yaw : 42.47, Alt : 49.2799987793, Lat : 49.2836057, Lng : -123.1149637, Q1 : 0.921366333961, Q2 : 0.0777383819222, Q3 : -0.116612359881, Q4 : 0.362549811602}
2019-04-14 16:33:56.01: SIM {TimeUS : 58035110, Roll : 3.39, Pitch : -15.72, Yaw : 42.37, Alt : 49.2799987793, Lat : 49.2836078, Lng : -123.1149606, Q1 : 0.921780765057, Q2 : 0.0767638236284, Q3 : -0.11689131707, Q4 : 0.361613035202}
2019-04-14 16:33:56.11: SIM {TimeUS : 58135070, Roll : 2.92, Pitch : -15.77, Yaw : 42.88, Alt : 49.2799987793, Lat : 49.2836097, Lng : -123.1149573, Q1 : 0.920416891575, Q2 : 0.0736623331904, Q3 : -0.118439778686, Q4 : 0.365210354328}
2019-04-14 16:33:56.21: SIM {TimeUS : 58235030, Roll : 2.2, Pitch : -15.85, Yaw : 43.84, Alt : 49.2799987793, Lat : 49.2836116, Lng : -123.114954, Q1 : 0.917668402195, Q2 : 0.069149710238, Q3 : -0.120857581496, Q4 : 0.372151225805}
2019-04-14 16:33:56.31: SIM {TimeUS : 58334990, Roll : 1.36, Pitch : -15.97, Yaw : 45.07, Alt : 49.2799987793, Lat : 49.2836138, Lng : -123.1149506, Q1 : 0.913973391056, Q2 : 0.0641587004066, Q3 : -0.123769156635, Q4 : 0.381074100733}
2019-04-14 16:33:56.41: SIM {TimeUS : 58434950, Roll : 0.51, Pitch : -16.09, Yaw : 46.39, Alt : 49.2799987793, Lat : 49.2836158, Lng : -123.1149471, Q1 : 0.909841477871, Q2 : 0.0592079237103, Q3 : -0.126907676458, Q4 : 0.390611499548}
2019-04-14 16:33:56.51: SIM {TimeUS : 58534910, Roll : -0.24, Pitch : -16.2, Yaw : 47.64, Alt : 49.2799987793, Lat : 49.2836178, Lng : -123.1149435, Q1 : 0.905768454075, Q2 : 0.0550096556544, Q3 : -0.129809290171, Q4 : 0.399633646011}
2019-04-14 16:33:56.61: SIM {TimeUS : 58634870, Roll : -0.81, Pitch : -16.28, Yaw : 48.7, Alt : 49.2799987793, Lat : 49.28362, Lng : -123.1149399, Q1 : 0.902226984501, Q2 : 0.0519548915327, Q3 : -0.13192743063, Q4 : 0.407286643982}
2019-04-14 16:33:56.71: SIM {TimeUS : 58734830, Roll : -1.19, Pitch : -16.32, Yaw : 49.48, Alt : 49.2799987793, Lat : 49.2836221, Lng : -123.1149362, Q1 : 0.899561047554, Q2 : 0.0500059276819, Q3 : -0.133260980248, Q4 : 0.412953823805}
2019-04-14 16:33:56.81: SIM {TimeUS : 58834790, Roll : -1.39, Pitch : -16.35, Yaw : 49.95, Alt : 49.2799987793, Lat : 49.2836244, Lng : -123.1149325, Q1 : 0.897927761078, Q2 : 0.0491166226566, Q3 : -0.134063333273, Q4 : 0.416341602802}
2019-04-14 16:33:56.91: SIM {TimeUS : 58934750, Roll : -1.41, Pitch : -16.4, Yaw : 50.1, Alt : 49.2799987793, Lat : 49.2836267, Lng : -123.1149288, Q1 : 0.897327423096, Q2 : 0.0493171848357, Q3 : -0.134426623583, Q4 : 0.417493492365}
2019-04-14 16:33:57.01: SIM {TimeUS : 59034710, Roll : -1.28, Pitch : -16.46, Yaw : 49.98, Alt : 49.2900009155, Lat : 49.2836288, Lng : -123.114925, Q1 : 0.897644460201, Q2 : 0.0504133366048, Q3 : -0.134477972984, Q4 : 0.416663616896}
2019-04-14 16:33:57.11: SIM {TimeUS : 59134670, Roll : -1.04, Pitch : -16.51, Yaw : 49.64, Alt : 49.2900009155, Lat : 49.2836311, Lng : -123.1149212, Q1 : 0.898697793484, Q2 : 0.0521267093718, Q3 : -0.134130507708, Q4 : 0.414287447929}
2019-04-14 16:33:57.21: SIM {TimeUS : 59234630, Roll : -0.72, Pitch : -16.56, Yaw : 49.17, Alt : 49.2900009155, Lat : 49.2836335, Lng : -123.1149172, Q1 : 0.900218605995, Q2 : 0.0542691461742, Q3 : -0.13355858624, Q4 : 0.410881310701}
2019-04-14 16:33:57.31: SIM {TimeUS : 59334590, Roll : -0.36, Pitch : -16.6, Yaw : 48.62, Alt : 49.2900009155, Lat : 49.2836359, Lng : -123.1149134, Q1 : 0.901941537857, Q2 : 0.0565820522606, Q3 : -0.132892891765, Q4 : 0.406988292933}
2019-04-14 16:33:57.41: SIM {TimeUS : 59434550, Roll : -0.02, Pitch : -16.64, Yaw : 48.08, Alt : 49.2900009155, Lat : 49.2836383, Lng : -123.1149095, Q1 : 0.903640627861, Q2 : 0.0587792880833, Q3 : -0.132239028811, Q4 : 0.403102368116}
2019-04-14 16:33:57.52: SIM {TimeUS : 59535343, Roll : 0.27, Pitch : -16.67, Yaw : 47.6, Alt : 49.2900009155, Lat : 49.2836408, Lng : -123.1149055, Q1 : 0.905142486095, Q2 : 0.060706358403, Q3 : -0.131697565317, Q4 : 0.399609357119}
2019-04-14 16:33:57.61: SIM {TimeUS : 59635303, Roll : 0.5, Pitch : -16.7, Yaw : 47.22, Alt : 49.2900009155, Lat : 49.2836432, Lng : -123.1149014, Q1 : 0.90630531311, Q2 : 0.0621555484831, Q3 : -0.131338819861, Q4 : 0.396859586239}
2019-04-14 16:33:57.71: SIM {TimeUS : 59735263, Roll : 0.63, Pitch : -16.72, Yaw : 46.96, Alt : 49.2900009155, Lat : 49.2836456, Lng : -123.1148974, Q1 : 0.907083332539, Q2 : 0.0629634410143, Q3 : -0.131230816245, Q4 : 0.394986003637}
2019-04-14 16:33:57.81: SIM {TimeUS : 59835223, Roll : 0.66, Pitch : -16.75, Yaw : 46.84, Alt : 49.2900009155, Lat : 49.2836481, Lng : -123.1148933, Q1 : 0.90746229887, Q2 : 0.0631972029805, Q3 : -0.131388261914, Q4 : 0.394024610519}
2019-04-14 16:33:57.91: SIM {TimeUS : 59935183, Roll : 0.62, Pitch : -16.79, Yaw : 46.83, Alt : 49.2900009155, Lat : 49.2836505, Lng : -123.1148891, Q1 : 0.907470524311, Q2 : 0.0629665181041, Q3 : -0.131866976619, Q4 : 0.393882662058}
2019-04-14 16:33:58.01: SIM {TimeUS : 60035143, Roll : 0.51, Pitch : -16.84, Yaw : 46.92, Alt : 49.2900009155, Lat : 49.283653, Lng : -123.114885, Q1 : 0.907171785831, Q2 : 0.0623840205371, Q3 : -0.132588639855, Q4 : 0.394420892}
2019-04-14 16:33:58.11: SIM {TimeUS : 60135103, Roll : 0.35, Pitch : -16.89, Yaw : 47.07, Alt : 49.2900009155, Lat : 49.2836554, Lng : -123.1148807, Q1 : 0.906656980515, Q2 : 0.0614971034229, Q3 : -0.133454248309, Q4 : 0.395450651646}
2019-04-14 16:33:58.21: SIM {TimeUS : 60235063, Roll : 0.17, Pitch : -16.93, Yaw : 47.27, Alt : 49.2900009155, Lat : 49.2836579, Lng : -123.1148765, Q1 : 0.906039714813, Q2 : 0.0604242160916, Q3 : -0.134281769395, Q4 : 0.396748572588}
2019-04-14 16:33:58.31: SIM {TimeUS : 60335023, Roll : 0.0, Pitch : -16.96, Yaw : 47.47, Alt : 49.2999992371, Lat : 49.2836604, Lng : -123.1148722, Q1 : 0.905396044254, Q2 : 0.0594537593424, Q3 : -0.135010242462, Q4 : 0.398114919662}
2019-04-14 16:33:58.41: SIM {TimeUS : 60434983, Roll : -0.11, Pitch : -17.0, Yaw : 47.65, Alt : 49.2999992371, Lat : 49.2836631, Lng : -123.1148679, Q1 : 0.904778301716, Q2 : 0.0588152110577, Q3 : -0.135663986206, Q4 : 0.399389922619}
2019-04-14 16:33:58.51: SIM {TimeUS : 60534943, Roll : -0.18, Pitch : -17.04, Yaw : 47.79, Alt : 49.2999992371, Lat : 49.2836656, Lng : -123.1148636, Q1 : 0.904255151749, Q2 : 0.0585657395422, Q3 : -0.13617631793, Q4 : 0.400435656309}
2019-04-14 16:33:58.61: SIM {TimeUS : 60634903, Roll : -0.21, Pitch : -17.09, Yaw : 47.89, Alt : 49.2999992371, Lat : 49.2836682, Lng : -123.1148593, Q1 : 0.903878211975, Q2 : 0.0586151592433, Q3 : -0.136577665806, Q4 : 0.401142060757}
2019-04-14 16:33:58.71: SIM {TimeUS : 60734863, Roll : -0.2, Pitch : -17.13, Yaw : 47.93, Alt : 49.2999992371, Lat : 49.2836707, Lng : -123.1148549, Q1 : 0.903674721718, Q2 : 0.0588947348297, Q3 : -0.136839106679, Q4 : 0.401470452547}
2019-04-14 16:33:58.81: SIM {TimeUS : 60834823, Roll : -0.17, Pitch : -17.16, Yaw : 47.93, Alt : 49.2999992371, Lat : 49.2836734, Lng : -123.1148505, Q1 : 0.90364086628, Q2 : 0.0592244304717, Q3 : -0.13703148067, Q4 : 0.401432454586}
2019-04-14 16:33:58.91: SIM {TimeUS : 60934783, Roll : -0.14, Pitch : -17.19, Yaw : 47.88, Alt : 49.2999992371, Lat : 49.283676, Lng : -123.1148461, Q1 : 0.903763771057, Q2 : 0.059493586421, Q3 : -0.137162566185, Q4 : 0.401071041822}
2019-04-14 16:33:59.01: SIM {TimeUS : 61034743, Roll : -0.11, Pitch : -17.2, Yaw : 47.8, Alt : 49.2999992371, Lat : 49.2836785, Lng : -123.1148417, Q1 : 0.904016911983, Q2 : 0.0597126074135, Q3 : -0.137163683772, Q4 : 0.400467216969}
2019-04-14 16:33:59.11: SIM {TimeUS : 61134703, Roll : -0.05, Pitch : -17.2, Yaw : 47.7, Alt : 49.2999992371, Lat : 49.2836813, Lng : -123.1148373, Q1 : 0.904347777367, Q2 : 0.0600010640919, Q3 : -0.136991292238, Q4 : 0.399735420942}
2019-04-14 16:33:59.21: SIM {TimeUS : 61234663, Roll : 0.0, Pitch : -17.21, Yaw : 47.59, Alt : 49.3100013733, Lat : 49.2836839, Lng : -123.1148327, Q1 : 0.904684960842, Q2 : 0.0603727437556, Q3 : -0.136933833361, Q4 : 0.398935288191}
2019-04-14 16:33:59.31: SIM {TimeUS : 61334623, Roll : 0.06, Pitch : -17.25, Yaw : 47.48, Alt : 49.3100013733, Lat : 49.2836865, Lng : -123.1148284, Q1 : 0.90497392416, Q2 : 0.0609238781035, Q3 : -0.137047529221, Q4 : 0.398156344891}
2019-04-14 16:33:59.41: SIM {TimeUS : 61434583, Roll : 0.13, Pitch : -17.31, Yaw : 47.39, Alt : 49.3100013733, Lat : 49.2836893, Lng : -123.1148239, Q1 : 0.905188083649, Q2 : 0.0615561157465, Q3 : -0.137335434556, Q4 : 0.397472470999}
2019-04-14 16:33:59.51: SIM {TimeUS : 61534543, Roll : 0.17, Pitch : -17.34, Yaw : 47.31, Alt : 49.3100013733, Lat : 49.2836919, Lng : -123.1148193, Q1 : 0.905380368233, Q2 : 0.0619162283838, Q3 : -0.13749717176, Q4 : 0.396922290325}
2019-04-14 16:33:59.62: SIM {TimeUS : 61635336, Roll : 0.2, Pitch : -17.34, Yaw : 47.26, Alt : 49.3100013733, Lat : 49.2836947, Lng : -123.1148148, Q1 : 0.905550301075, Q2 : 0.0620385408401, Q3 : -0.13745585084, Q4 : 0.396529644728}
2019-04-14 16:33:59.71: SIM {TimeUS : 61735296, Roll : 0.2, Pitch : -17.35, Yaw : 47.23, Alt : 49.3100013733, Lat : 49.2836973, Lng : -123.1148102, Q1 : 0.905651152134, Q2 : 0.0620491988957, Q3 : -0.137526035309, Q4 : 0.396273285151}
2019-04-14 16:33:59.81: SIM {TimeUS : 61835256, Roll : 0.18, Pitch : -17.38, Yaw : 47.21, Alt : 49.3100013733, Lat : 49.2837001, Lng : -123.1148057, Q1 : 0.905676722527, Q2 : 0.061982486397, Q3 : -0.137808859348, Q4 : 0.396127045155}
2019-04-14 16:33:59.91: SIM {TimeUS : 61935216, Roll : 0.16, Pitch : -17.4, Yaw : 47.21, Alt : 49.3100013733, Lat : 49.2837028, Lng : -123.1148011, Q1 : 0.905660152435, Q2 : 0.06192445755, Q3 : -0.138087585568, Q4 : 0.396076887846}
2019-04-14 16:34:00.01: SIM {TimeUS : 62035176, Roll : 0.14, Pitch : -17.44, Yaw : 47.22, Alt : 49.3100013733, Lat : 49.2837054, Lng : -123.1147966, Q1 : 0.905605077744, Q2 : 0.0618663169444, Q3 : -0.138422772288, Q4 : 0.396094918251}
2019-04-14 16:34:00.11: SIM {TimeUS : 62135136, Roll : 0.12, Pitch : -17.46, Yaw : 47.23, Alt : 49.3100013733, Lat : 49.2837082, Lng : -123.114792, Q1 : 0.905532360077, Q2 : 0.0618457682431, Q3 : -0.138670444489, Q4 : 0.396177738905}
2019-04-14 16:34:00.21: SIM {TimeUS : 62235096, Roll : 0.11, Pitch : -17.48, Yaw : 47.25, Alt : 49.3100013733, Lat : 49.2837109, Lng : -123.1147873, Q1 : 0.905458450317, Q2 : 0.0618373341858, Q3 : -0.138890609145, Q4 : 0.39627084136}
2019-04-14 16:34:00.31: SIM {TimeUS : 62335056, Roll : 0.11, Pitch : -17.5, Yaw : 47.26, Alt : 49.3100013733, Lat : 49.2837137, Lng : -123.1147827, Q1 : 0.905396580696, Q2 : 0.0618762969971, Q3 : -0.139004707336, Q4 : 0.396366119385}
2019-04-14 16:34:00.41: SIM {TimeUS : 62435016, Roll : 0.11, Pitch : -17.51, Yaw : 47.27, Alt : 49.3199996948, Lat : 49.2837165, Lng : -123.1147781, Q1 : 0.905349493027, Q2 : 0.0620001778007, Q3 : -0.139079019427, Q4 : 0.396428287029}
2019-04-14 16:34:00.51: SIM {TimeUS : 62534976, Roll : 0.13, Pitch : -17.54, Yaw : 47.27, Alt : 49.3199996948, Lat : 49.2837192, Lng : -123.1147734, Q1 : 0.905311048031, Q2 : 0.0621823631227, Q3 : -0.139218509197, Q4 : 0.396438539028}
2019-04-14 16:34:00.61: SIM {TimeUS : 62634936, Roll : 0.13, Pitch : -17.57, Yaw : 47.27, Alt : 49.3199996948, Lat : 49.283722, Lng : -123.1147688, Q1 : 0.905288696289, Q2 : 0.0623009726405, Q3 : -0.139517366886, Q4 : 0.396365821362}
2019-04-14 16:34:00.71: SIM {TimeUS : 62734896, Roll : 0.1, Pitch : -17.62, Yaw : 47.25, Alt : 49.3199996948, Lat : 49.2837247, Lng : -123.114764, Q1 : 0.905289530754, Q2 : 0.0622380450368, Q3 : -0.139948815107, Q4 : 0.396221667528}
2019-04-14 16:34:00.81: SIM {TimeUS : 62834856, Roll : 0.09, Pitch : -17.66, Yaw : 47.24, Alt : 49.3199996948, Lat : 49.2837276, Lng : -123.1147594, Q1 : 0.905299723148, Q2 : 0.062252394855, Q3 : -0.140374347568, Q4 : 0.396045595407}
2019-04-14 16:34:00.91: SIM {TimeUS : 62934816, Roll : 0.1, Pitch : -17.69, Yaw : 47.22, Alt : 49.3199996948, Lat : 49.2837302, Lng : -123.1147548, Q1 : 0.905329048634, Q2 : 0.0624344013631, Q3 : -0.140591740608, Q4 : 0.395872741938}
2019-04-14 16:34:01.01: SIM {TimeUS : 63034776, Roll : 0.13, Pitch : -17.69, Yaw : 47.19, Alt : 49.3199996948, Lat : 49.2837331, Lng : -123.1147501, Q1 : 0.905395746231, Q2 : 0.0626350864768, Q3 : -0.140520617366, Q4 : 0.395713686943}
2019-04-14 16:34:01.11: SIM {TimeUS : 63134736, Roll : 0.16, Pitch : -17.67, Yaw : 47.17, Alt : 49.3199996948, Lat : 49.283736, Lng : -123.1147453, Q1 : 0.905487656593, Q2 : 0.0627856329083, Q3 : -0.140260875225, Q4 : 0.395571708679}
2019-04-14 16:34:01.21: SIM {TimeUS : 63234696, Roll : 0.17, Pitch : -17.65, Yaw : 47.14, Alt : 49.3199996948, Lat : 49.2837387, Lng : -123.1147406, Q1 : 0.905585944653, Q2 : 0.0627383217216, Q3 : -0.140094608068, Q4 : 0.395413100719}
2019-04-14 16:34:01.31: SIM {TimeUS : 63334656, Roll : 0.16, Pitch : -17.64, Yaw : 47.12, Alt : 49.3199996948, Lat : 49.2837416, Lng : -123.1147359, Q1 : 0.905685186386, Q2 : 0.0626101568341, Q3 : -0.139975130558, Q4 : 0.395248293877}
2019-04-14 16:34:01.41: SIM {TimeUS : 63434616, Roll : 0.16, Pitch : -17.62, Yaw : 47.1, Alt : 49.3199996948, Lat : 49.2837443, Lng : -123.1147311, Q1 : 0.905776977539, Q2 : 0.0624979436398, Q3 : -0.139890670776, Q4 : 0.395085722208}
2019-04-14 16:34:01.51: SIM {TimeUS : 63534576, Roll : 0.14, Pitch : -17.63, Yaw : 47.08, Alt : 49.3199996948, Lat : 49.2837472, Lng : -123.1147264, Q1 : 0.905832707882, Q2 : 0.0624289885163, Q3 : -0.140050008893, Q4 : 0.394912362099}
2019-04-14 16:34:01.61: SIM {TimeUS : 63634536, Roll : 0.14, Pitch : -17.67, Yaw : 47.07, Alt : 49.3199996948, Lat : 49.2837501, Lng : -123.1147216, Q1 : 0.905849397182, Q2 : 0.0624835826457, Q3 : -0.140378758311, Q4 : 0.394748687744}
2019-04-14 16:34:01.71: SIM {TimeUS : 63735329, Roll : 0.13, Pitch : -17.73, Yaw : 47.05, Alt : 49.3199996948, Lat : 49.2837528, Lng : -123.1147168, Q1 : 0.905833721161, Q2 : 0.0625739395618, Q3 : -0.140876024961, Q4 : 0.394593119621}
2019-04-14 16:34:01.81: SIM {TimeUS : 63835289, Roll : 0.13, Pitch : -17.79, Yaw : 47.04, Alt : 49.3199996948, Lat : 49.2837557, Lng : -123.114712, Q1 : 0.905809938908, Q2 : 0.0627469569445, Q3 : -0.141330704093, Q4 : 0.394457608461}
2019-04-14 16:34:01.91: SIM {TimeUS : 63935249, Roll : 0.14, Pitch : -17.82, Yaw : 47.03, Alt : 49.3300018311, Lat : 49.2837586, Lng : -123.1147072, Q1 : 0.905804872513, Q2 : 0.0629365965724, Q3 : -0.141542762518, Q4 : 0.39436301589}
2019-04-14 16:34:02.01: SIM {TimeUS : 64035209, Roll : 0.14, Pitch : -17.84, Yaw : 47.02, Alt : 49.3300018311, Lat : 49.2837615, Lng : -123.1147025, Q1 : 0.905808329582, Q2 : 0.0630173906684, Q3 : -0.141765534878, Q4 : 0.394262224436}
2019-04-14 16:34:02.11: SIM {TimeUS : 64135169, Roll : 0.13, Pitch : -17.86, Yaw : 47.01, Alt : 49.3300018311, Lat : 49.2837642, Lng : -123.1146977, Q1 : 0.905831158161, Q2 : 0.06301240623, Q3 : -0.141886487603, Q4 : 0.394166976213}
2019-04-14 16:34:02.21: SIM {TimeUS : 64235129, Roll : 0.15, Pitch : -17.84, Yaw : 47.0, Alt : 49.3300018311, Lat : 49.2837672, Lng : -123.1146929, Q1 : 0.905874311924, Q2 : 0.0630467683077, Q3 : -0.141743183136, Q4 : 0.394113868475}
2019-04-14 16:34:02.31: SIM {TimeUS : 64335089, Roll : 0.17, Pitch : -17.85, Yaw : 46.99, Alt : 49.3300018311, Lat : 49.2837699, Lng : -123.1146881, Q1 : 0.905891060829, Q2 : 0.0632121115923, Q3 : -0.141727149487, Q4 : 0.394054681063}
2019-04-14 16:34:02.41: SIM {TimeUS : 64435049, Roll : 0.18, Pitch : -17.87, Yaw : 46.98, Alt : 49.3300018311, Lat : 49.2837728, Lng : -123.1146831, Q1 : 0.905896186829, Q2 : 0.0633453354239, Q3 : -0.141854286194, Q4 : 0.393975704908}
2019-04-14 16:34:02.51: SIM {TimeUS : 64535009, Roll : 0.18, Pitch : -17.88, Yaw : 46.97, Alt : 49.3300018311, Lat : 49.2837758, Lng : -123.1146784, Q1 : 0.905907273293, Q2 : 0.0634423419833, Q3 : -0.141956835985, Q4 : 0.393897563219}
2019-04-14 16:34:02.61: SIM {TimeUS : 64634969, Roll : 0.19, Pitch : -17.88, Yaw : 46.95, Alt : 49.3300018311, Lat : 49.2837787, Lng : -123.1146736, Q1 : 0.905944764614, Q2 : 0.063473790884, Q3 : -0.141925111413, Q4 : 0.393817812204}
2019-04-14 16:34:02.71: SIM {TimeUS : 64734929, Roll : 0.19, Pitch : -17.88, Yaw : 46.94, Alt : 49.3300018311, Lat : 49.2837814, Lng : -123.1146688, Q1 : 0.905985474586, Q2 : 0.0634495019913, Q3 : -0.141940638423, Q4 : 0.393722504377}
2019-04-14 16:34:02.81: SIM {TimeUS : 64834889, Roll : 0.17, Pitch : -17.9, Yaw : 46.93, Alt : 49.3300018311, Lat : 49.2837843, Lng : -123.1146639, Q1 : 0.906013429165, Q2 : 0.0633759945631, Q3 : -0.142142370343, Q4 : 0.393597126007}
2019-04-14 16:34:02.91: SIM {TimeUS : 64934849, Roll : 0.14, Pitch : -17.94, Yaw : 46.92, Alt : 49.3300018311, Lat : 49.2837873, Lng : -123.1146591, Q1 : 0.906026005745, Q2 : 0.0632742196321, Q3 : -0.14255002141, Q4 : 0.393437147141}
2019-04-14 16:34:03.01: SIM {TimeUS : 65034809, Roll : 0.13, Pitch : -17.95, Yaw : 46.9, Alt : 49.3300018311, Lat : 49.2837902, Lng : -123.1146542, Q1 : 0.906065046787, Q2 : 0.0632041022182, Q3 : -0.14270979166, Q4 : 0.39330047369}
2019-04-14 16:34:03.11: SIM {TimeUS : 65134769, Roll : 0.14, Pitch : -17.95, Yaw : 46.89, Alt : 49.3300018311, Lat : 49.283793, Lng : -123.1146494, Q1 : 0.906118094921, Q2 : 0.0632030665874, Q3 : -0.142666712403, Q4 : 0.393194109201}
2019-04-14 16:34:03.21: SIM {TimeUS : 65234729, Roll : 0.15, Pitch : -17.94, Yaw : 46.87, Alt : 49.3300018311, Lat : 49.2837959, Lng : -123.1146445, Q1 : 0.906165063381, Q2 : 0.0632994696498, Q3 : -0.142570927739, Q4 : 0.39310503006}
2019-04-14 16:34:03.31: SIM {TimeUS : 65334689, Roll : 0.17, Pitch : -17.95, Yaw : 46.86, Alt : 49.3300018311, Lat : 49.2837989, Lng : -123.1146396, Q1 : 0.90619468689, Q2 : 0.0634363368154, Q3 : -0.142586514354, Q4 : 0.393009036779}
2019-04-14 16:34:03.41: SIM {TimeUS : 65434649, Roll : 0.16, Pitch : -17.97, Yaw : 46.85, Alt : 49.3400001526, Lat : 49.2838018, Lng : -123.1146347, Q1 : 0.906221747398, Q2 : 0.0634374395013, Q3 : -0.142741382122, Q4 : 0.392890363932}
2019-04-14 16:34:03.51: SIM {TimeUS : 65534609, Roll : 0.14, Pitch : -17.99, Yaw : 46.83, Alt : 49.3400001526, Lat : 49.2838048, Lng : -123.1146299, Q1 : 0.906251728535, Q2 : 0.0633059591055, Q3 : -0.142976105213, Q4 : 0.392756998539}
2019-04-14 16:34:03.61: SIM {TimeUS : 65634569, Roll : 0.13, Pitch : -18.0, Yaw : 46.82, Alt : 49.3400001526, Lat : 49.2838076, Lng : -123.114625, Q1 : 0.906277954578, Q2 : 0.0632497817278, Q3 : -0.143158867955, Q4 : 0.392638862133}
2019-04-14 16:34:03.72: SIM {TimeUS : 65735362, Roll : 0.13, Pitch : -18.02, Yaw : 46.81, Alt : 49.3400001526, Lat : 49.2838105, Lng : -123.1146201, Q1 : 0.906295418739, Q2 : 0.0633448809385, Q3 : -0.143294841051, Q4 : 0.392533510923}
2019-04-14 16:34:03.81: SIM {TimeUS : 65835322, Roll : 0.15, Pitch : -18.03, Yaw : 46.8, Alt : 49.3400001526, Lat : 49.2838135, Lng : -123.1146152, Q1 : 0.90631622076, Q2 : 0.063448920846, Q3 : -0.143356233835, Q4 : 0.392446309328}
2019-04-14 16:34:03.91: SIM {TimeUS : 65935282, Roll : 0.17, Pitch : -18.04, Yaw : 46.79, Alt : 49.3400001526, Lat : 49.2838165, Lng : -123.1146103, Q1 : 0.906317710876, Q2 : 0.0636584609747, Q3 : -0.143364489079, Q4 : 0.392406016588}
2019-04-14 16:34:04.01: SIM {TimeUS : 66035242, Roll : 0.18, Pitch : -18.06, Yaw : 46.78, Alt : 49.3400001526, Lat : 49.2838194, Lng : -123.1146053, Q1 : 0.906305909157, Q2 : 0.0638206452131, Q3 : -0.14346729219, Q4 : 0.392369359732}
2019-04-14 16:34:04.11: SIM {TimeUS : 66135202, Roll : 0.19, Pitch : -18.08, Yaw : 46.78, Alt : 49.3400001526, Lat : 49.2838223, Lng : -123.1146005, Q1 : 0.906289696693, Q2 : 0.063989572227, Q3 : -0.143592193723, Q4 : 0.39233353734}
2019-04-14 16:34:04.21: SIM {TimeUS : 66235162, Roll : 0.21, Pitch : -18.1, Yaw : 46.77, Alt : 49.3400001526, Lat : 49.2838252, Lng : -123.1145956, Q1 : 0.906273782253, Q2 : 0.0641611367464, Q3 : -0.143697693944, Q4 : 0.392303615808}
2019-04-14 16:34:04.31: SIM {TimeUS : 66335122, Roll : 0.23, Pitch : -18.11, Yaw : 46.77, Alt : 49.3400001526, Lat : 49.2838281, Lng : -123.1145907, Q1 : 0.906262934208, Q2 : 0.0643844753504, Q3 : -0.143693462014, Q4 : 0.392293721437}
2019-04-14 16:34:04.41: SIM {TimeUS : 66435082, Roll : 0.26, Pitch : -18.12, Yaw : 46.77, Alt : 49.3400001526, Lat : 49.2838311, Lng : -123.1145858, Q1 : 0.906247079372, Q2 : 0.0646608546376, Q3 : -0.143678277731, Q4 : 0.392290383577}
2019-04-14 16:34:04.51: SIM {TimeUS : 66535042, Roll : 0.26, Pitch : -18.12, Yaw : 46.76, Alt : 49.3400001526, Lat : 49.2838341, Lng : -123.1145809, Q1 : 0.906269490719, Q2 : 0.0646153837442, Q3 : -0.143645077944, Q4 : 0.392258375883}
2019-04-14 16:34:04.61: SIM {TimeUS : 66635002, Roll : 0.23, Pitch : -18.12, Yaw : 46.76, Alt : 49.3499984741, Lat : 49.283837, Lng : -123.1145759, Q1 : 0.906290650368, Q2 : 0.0644057095051, Q3 : -0.143790110946, Q4 : 0.392190784216}
