2019-04-14 17:36:45.10: SIM {TimeUS : 40516287, Roll : 0.0, Pitch : 0.0, Yaw : 0.0, Alt : 30.1000003815, Lat : 49.28357, Lng : -123.11502, Q1 : 1.0, Q2 : 0.0, Q3 : 0.0, Q4 : 0.0}
2019-04-14 17:36:45.21: SIM {TimeUS : 40635406, Roll : 0.0, Pitch : 0.0, Yaw : 0.0, Alt : 30.1000003815, Lat : 49.28357, Lng : -123.11502, Q1 : 1.0, Q2 : 0.0, Q3 : 0.0, Q4 : 0.0}
2019-04-14 17:36:45.31: SIM {TimeUS : 40735366, Roll : 0.0, Pitch : 0.0, Yaw : 0.0, Alt : 30.1000003815, Lat : 49.28357, Lng : -123.11502, Q1 : 1.0, Q2 : 0.0, Q3 : 0.0, Q4 : 0.0}
2019-04-14 17:36:45.41: SIM {TimeUS : 40835326, Roll : 0.0, Pitch : 0.0, Yaw : 0.0, Alt : 30.1000003815, Lat : 49.28357, Lng : -123.11502, Q1 : 1.0, Q2 : 0.0, Q3 : 0.0, Q4 : 0.0}
2019-04-14 17:36:45.51: SIM {TimeUS : 40935286, Roll : 0.0, Pitch : 0.0, Yaw : 0.0, Alt : 30.1000003815, Lat : 49.28357, Lng : -123.11502, Q1 : 1.0, Q2 : 0.0, Q3 : 0.0, Q4 : 0.0}
2019-04-14 17:36:45.61: SIM {TimeUS : 41035246, Roll : 0.0, Pitch : 0.0, Yaw : 0.0, Alt : 30.1000003815, Lat : 49.28357, Lng : -123.11502, Q1 : 1.0, Q2 : 0.0, Q3 : 0.0, Q4 : 0.0}
2019-04-14 17:36:45.71: SIM {TimeUS : 41135206, Roll : 0.0, Pitch : 0.0, Yaw : 0.0, Alt : 30.1000003815, Lat : 49.28357, Lng : -123.11502, Q1 : 1.0, Q2 : 0.0, Q3 : 0.0, Q4 : 0.0}
2019-04-14 17:36:45.81: SIM {TimeUS : 41235166, Roll : 0.0, Pitch : 0.0, Yaw : 0.0, Alt : 30.1000003815, Lat : 49.28357, Lng : -123.11502, Q1 : 1.0, Q2 : 0.0, Q3 : 0.0, Q4 : 0.0}
2019-04-14 17:36:45.91: SIM {TimeUS : 41335126, Roll : 0.0, Pitch : 0.0, Yaw : 0.0, Alt : 30.1000003815, Lat : 49.28357, Lng : -123.11502, Q1 : 1.0, Q2 : 0.0, Q3 : 0.0, Q4 : 0.0}
2019-04-14 17:36:46.01: SIM {TimeUS : 41435086, Roll : 0.0, Pitch : 0.0, Yaw : 0.0, Alt : 30.1000003815, Lat : 49.28357, Lng : -123.11502, Q1 : 1.0, Q2 : 0.0, Q3 : 0.0, Q4 : 0.0}
2019-04-14 17:36:46.11: SIM {TimeUS : 41535046, Roll : 0.0, Pitch : 0.0, Yaw : 0.0, Alt : 30.1000003815, Lat : 49.28357, Lng : -123.11502, Q1 : 1.0, Q2 : 0.0, Q3 : 0.0, Q4 : 0.0}
2019-04-14 17:36:46.21: SIM {TimeUS : 41635006, Roll : 0.0, Pitch : 0.0, Yaw : 0.0, Alt : 30.1000003815, Lat : 49.28357, Lng : -123.11502, Q1 : 1.0, Q2 : 0.0, Q3 : 0.0, Q4 : 0.0}
2019-04-14 17:36:46.31: SIM {TimeUS : 41734966, Roll : 0.0, Pitch : 0.0, Yaw : 0.0, Alt : 30.1000003815, Lat : 49.28357, Lng : -123.11502, Q1 : 1.0, Q2 : 0.0, Q3 : 0.0, Q4 : 0.0}
2019-04-14 17:36:46.41: SIM {TimeUS : 41834926, Roll : 0.0, Pitch : 0.0, Yaw : 0.0, Alt : 30.1000003815, Lat : 49.28357, Lng : -123.11502, Q1 : 1.0, Q2 : 0.0, Q3 : 0.0, Q4 : 0.0}
2019-04-14 17:36:46.51: SIM {TimeUS : 41934886, Roll : 0.0, Pitch : 0.0, Yaw : 0.0, Alt : 30.1000003815, Lat : 49.28357, Lng : -123.11502, Q1 : 1.0, Q2 : 0.0, Q3 : 0.0, Q4 : 0.0}
2019-04-14 17:36:46.61: SIM {TimeUS : 42034846, Roll : 0.0, Pitch : 0.0, Yaw : 0.0, Alt : 30.1000003815, Lat : 49.28357, Lng : -123.11502, Q1 : 1.0, Q2 : 0.0, Q3 : 0.0, Q4 : 0.0}
2019-04-14 17:36:46.71: SIM {TimeUS : 42134806, Roll : 0.0, Pitch : 0.0, Yaw : 0.0, Alt : 30.1000003815, Lat : 49.28357, Lng : -123.11502, Q1 : 1.0, Q2 : 0.0, Q3 : 0.0, Q4 : 0.0}
2019-04-14 17:36:46.81: SIM {TimeUS : 42234766, Roll : 0.0, Pitch : 0.0, Yaw : 0.0, Alt : 30.1000003815, Lat : 49.28357, Lng : -123.11502, Q1 : 1.0, Q2 : 0.0, Q3 : 0.0, Q4 : 0.0}
2019-04-14 17:36:46.91: SIM {TimeUS : 42334726, Roll : 0.0, Pitch : 0.0, Yaw : 0.0, Alt : 30.1000003815, Lat : 49.28357, Lng : -123.11502, Q1 : 1.0, Q2 : 0.0, Q3 : 0.0, Q4 : 0.0}
2019-04-14 17:36:47.01: SIM {TimeUS : 42434686, Roll : 0.0, Pitch : 0.0, Yaw : 0.0, Alt : 30.1000003815, Lat : 49.28357, Lng : -123.11502, Q1 : 1.0, Q2 : 0.0, Q3 : 0.0, Q4 : 0.0}
2019-04-14 17:36:47.11: SIM {TimeUS : 42534646, Roll : 0.0, Pitch : 0.0, Yaw : 0.0, Alt : 30.1000003815, Lat : 49.28357, Lng : -123.11502, Q1 : 1.0, Q2 : 0.0, Q3 : 0.0, Q4 : 0.0}
2019-04-14 17:36:47.22: SIM {TimeUS : 42635439, Roll : 0.0, Pitch : 0.0, Yaw : 0.0, Alt : 30.1000003815, Lat : 49.28357, Lng : -123.11502, Q1 : 1.0, Q2 : 0.0, Q3 : 0.0, Q4 : 0.0}
2019-04-14 17:36:47.31: SIM {TimeUS : 42735399, Roll : 0.0, Pitch : 0.0, Yaw : 0.0, Alt : 30.1000003815, Lat : 49.28357, Lng : -123.11502, Q1 : 1.0, Q2 : 0.0, Q3 : 0.0, Q4 : 0.0}
2019-04-14 17:36:47.41: SIM {TimeUS : 42835359, Roll : 0.0, Pitch : 0.0, Yaw : 0.0, Alt : 30.1000003815, Lat : 49.28357, Lng : -123.11502, Q1 : 1.0, Q2 : 0.0, Q3 : 0.0, Q4 : 3.50114867653e-11}
2019-04-14 17:36:47.51: SIM {TimeUS : 42935319, Roll : 0.0, Pitch : 0.0, Yaw : 360.0, Alt : 30.1000003815, Lat : 49.28357, Lng : -123.11502, Q1 : 1.0, Q2 : 0.0, Q3 : 0.0, Q4 : -1.62090429967e-08}
2019-04-14 17:36:47.61: SIM {TimeUS : 43035279, Roll : 0.0, Pitch : 0.0, Yaw : 359.99, Alt : 30.1000003815, Lat : 49.28357, Lng : -123.11502, Q1 : 1.0, Q2 : 0.0, Q3 : 0.0, Q4 : -2.03575766022e-07}
2019-04-14 17:36:47.71: SIM {TimeUS : 43135239, Roll : 0.0, Pitch : 0.0, Yaw : 359.99, Alt : 30.1000003815, Lat : 49.28357, Lng : -123.11502, Q1 : 1.0, Q2 : 0.0, Q3 : 0.0, Q4 : -3.96903146793e-07}
2019-04-14 17:36:47.81: SIM {TimeUS : 43235199, Roll : 0.0, Pitch : 0.0, Yaw : 359.99, Alt : 30.1000003815, Lat : 49.28357, Lng : -123.11502, Q1 : 1.0, Q2 : 0.0, Q3 : 0.0, Q4 : -5.82007544381e-07}
2019-04-14 17:36:47.91: SIM {TimeUS : 43335159, Roll : 0.0, Pitch : 0.0, Yaw : 359.99, Alt : 30.1000003815, Lat : 49.28357, Lng : -123.11502, Q1 : 1.0, Q2 : 0.0, Q3 : 0.0, Q4 : -7.58412738833e-07}
2019-04-14 17:36:48.01: SIM {TimeUS : 43435119, Roll : 0.0, Pitch : 0.0, Yaw : 359.99, Alt : 30.1000003815, Lat : 49.28357, Lng : -123.11502, Q1 : 1.0, Q2 : 0.0, Q3 : 0.0, Q4 : -9.47400678797e-07}
2019-04-14 17:36:48.11: SIM {TimeUS : 43535079, Roll : 0.0, Pitch : 0.0, Yaw : 359.99, Alt : 30.1000003815, Lat : 49.28357, Lng : -123.11502, Q1 : 1.0, Q2 : 0.0, Q3 : 0.0, Q4 : -1.17745162242e-06}
2019-04-14 17:36:48.21: SIM {TimeUS : 43635039, Roll : 0.0, Pitch : 0.0, Yaw : 359.99, Alt : 30.1000003815, Lat : 49.28357, Lng : -123.11502, Q1 : 1.0, Q2 : 0.0, Q3 : 0.0, Q4 : -1.37155859647e-06}
2019-04-14 17:36:48.31: SIM {TimeUS : 43734999, Roll : 0.0, Pitch : 0.0, Yaw : 359.99, Alt : 30.1200008392, Lat : 49.28357, Lng : -123.11502, Q1 : 1.0, Q2 : 0.0, Q3 : 0.0, Q4 : -1.56710098054e-06}
2019-04-14 17:36:48.41: SIM {TimeUS : 43834959, Roll : 0.0, Pitch : 0.0, Yaw : 359.99, Alt : 30.1399993896, Lat : 49.28357, Lng : -123.11502, Q1 : 1.0, Q2 : 0.0, Q3 : 0.0, Q4 : -1.80756455848e-06}
2019-04-14 17:36:48.51: SIM {TimeUS : 43934919, Roll : 0.0, Pitch : 0.0, Yaw : 359.99, Alt : 30.1800003052, Lat : 49.28357, Lng : -123.11502, Q1 : 1.0, Q2 : 0.0, Q3 : 0.0, Q4 : -2.03074614546e-06}
2019-04-14 17:36:48.61: SIM {TimeUS : 44034879, Roll : 0.0, Pitch : 0.0, Yaw : 359.99, Alt : 30.2099990845, Lat : 49.28357, Lng : -123.11502, Q1 : 1.0, Q2 : -8.27413714433e-06, Q3 : -7.33499473426e-06, Q4 : -2.29431725529e-06}
2019-04-14 17:36:48.71: SIM {TimeUS : 44134839, Roll : -0.19, Pitch : -0.17, Yaw : 359.99, Alt : 30.2700004578, Lat : 49.28357, Lng : -123.11502, Q1 : 0.999997437, Q2 : -0.00169127096888, Q3 : -0.0015088923974, Q4 : -1.5286346752e-05}
2019-04-14 17:36:48.81: SIM {TimeUS : 44234799, Roll : -0.53, Pitch : -0.45, Yaw : 359.99, Alt : 30.3899993896, Lat : 49.28357, Lng : -123.11502, Q1 : 0.999981343746, Q2 : -0.00463476078585, Q3 : -0.00397511105984, Q4 : -5.67430070078e-05}
2019-04-14 17:36:48.91: SIM {TimeUS : 44334759, Roll : -0.8, Pitch : -0.67, Yaw : 359.99, Alt : 30.5400009155, Lat : 49.28357, Lng : -123.11502, Q1 : 0.99995803833, Q2 : -0.0069896900095, Q3 : -0.00591884413734, Q4 : -0.00012773819617}
2019-04-14 17:36:49.01: SIM {TimeUS : 44434719, Roll : -0.88, Pitch : -0.77, Yaw : 359.98, Alt : 30.7000007629, Lat : 49.28357, Lng : -123.11502, Q1 : 0.999947190285, Q2 : -0.00772608723491, Q3 : -0.00677114585415, Q4 : -0.000214407744352}
2019-04-14 17:36:49.11: SIM {TimeUS : 44534679, Roll : -0.8, Pitch : -0.72, Yaw : 359.96, Alt : 30.8500003815, Lat : 49.28357, Lng : -123.1150201, Q1 : 0.999955415726, Q2 : -0.0069986237213, Q3 : -0.00633108522743, Q4 : -0.000309982249746}
2019-04-14 17:36:49.21: SIM {TimeUS : 44634639, Roll : -0.62, Pitch : -0.56, Yaw : 359.95, Alt : 31.0100002289, Lat : 49.28357, Lng : -123.1150201, Q1 : 0.999972760677, Q2 : -0.00547514716163, Q3 : -0.0049336948432, Q4 : -0.000397547613829}
2019-04-14 17:36:49.32: SIM {TimeUS : 44735432, Roll : -0.4, Pitch : -0.35, Yaw : 359.94, Alt : 31.1599998474, Lat : 49.2835701, Lng : -123.1150202, Q1 : 0.999988853931, Q2 : -0.00351885519922, Q3 : -0.00312043330632, Q4 : -0.000465847027954}
2019-04-14 17:36:49.41: SIM {TimeUS : 44835392, Roll : -0.19, Pitch : -0.16, Yaw : 359.94, Alt : 31.3199996948, Lat : 49.2835701, Lng : -123.1150203, Q1 : 0.999997437, Q2 : -0.00166490871925, Q3 : -0.00146434642375, Q4 : -0.000512139580678}
2019-04-14 17:36:49.51: SIM {TimeUS : 44935352, Roll : -0.03, Pitch : -0.03, Yaw : 359.93, Alt : 31.4899997711, Lat : 49.2835702, Lng : -123.1150204, Q1 : 0.999999821186, Q2 : -0.00026620546123, Q3 : -0.000263184221694, Q4 : -0.000540001085028}
2019-04-14 17:36:49.61: SIM {TimeUS : 45035312, Roll : 0.06, Pitch : 0.03, Yaw : 359.93, Alt : 31.6700000763, Lat : 49.2835702, Lng : -123.1150204, Q1 : 0.999999642372, Q2 : 0.000554342695978, Q3 : 0.00031372520607, Q4 : -0.000546680588741}
2019-04-14 17:36:49.71: SIM {TimeUS : 45135272, Roll : 0.1, Pitch : 0.05, Yaw : 359.93, Alt : 31.8500003815, Lat : 49.2835703, Lng : -123.1150205, Q1 : 0.999999344349, Q2 : 0.000886154943146, Q3 : 0.000453258922789, Q4 : -0.000532571459189}
2019-04-14 17:36:49.81: SIM {TimeUS : 45235232, Roll : 0.09, Pitch : 0.05, Yaw : 359.94, Alt : 32.0299987793, Lat : 49.2835703, Lng : -123.1150206, Q1 : 0.999999463558, Q2 : 0.000821937108412, Q3 : 0.000445415906142, Q4 : -0.000517087231856}
2019-04-14 17:36:49.91: SIM {TimeUS : 45335192, Roll : 0.07, Pitch : 0.05, Yaw : 359.94, Alt : 32.2200012207, Lat : 49.2835703, Lng : -123.1150206, Q1 : 0.999999523163, Q2 : 0.000684651196934, Q3 : 0.000483032636112, Q4 : -0.00050069950521}
2019-04-14 17:36:50.01: SIM {TimeUS : 45435152, Roll : 0.05, Pitch : 0.07, Yaw : 359.94, Alt : 32.4099998474, Lat : 49.2835703, Lng : -123.1150207, Q1 : 0.999999582767, Q2 : 0.00050442077918, Q3 : 0.000634904310573, Q4 : -0.000482729898067}
2019-04-14 17:36:50.11: SIM {TimeUS : 45535112, Roll : 0.06, Pitch : 0.1, Yaw : 359.94, Alt : 32.5999984741, Lat : 49.2835703, Lng : -123.1150207, Q1 : 0.999999284744, Q2 : 0.000605168694165, Q3 : 0.000937938515563, Q4 : -0.000466377969133}
2019-04-14 17:36:50.21: SIM {TimeUS : 45635072, Roll : 0.1, Pitch : 0.13, Yaw : 359.94, Alt : 32.7999992371, Lat : 49.2835703, Lng : -123.1150208, Q1 : 0.999998748302, Q2 : 0.000919685757253, Q3 : 0.00120005989447, Q4 : -0.000456527835922}
2019-04-14 17:36:50.31: SIM {TimeUS : 45735032, Roll : 0.13, Pitch : 0.16, Yaw : 359.94, Alt : 33.0, Lat : 49.2835704, Lng : -123.1150208, Q1 : 0.999998211861, Q2 : 0.00118999008555, Q3 : 0.00140262721106, Q4 : -0.000451159634395}
2019-04-14 17:36:50.41: SIM {TimeUS : 45834992, Roll : 0.15, Pitch : 0.17, Yaw : 359.94, Alt : 33.2000007629, Lat : 49.2835704, Lng : -123.1150208, Q1 : 0.999997735023, Q2 : 0.00134294503368, Q3 : 0.00156353437342, Q4 : -0.000448244129075}
2019-04-14 17:36:50.51: SIM {TimeUS : 45934952, Roll : 0.16, Pitch : 0.16, Yaw : 359.94, Alt : 33.4000015259, Lat : 49.2835704, Lng : -123.1150208, Q1 : 0.999997794628, Q2 : 0.00143756030593, Q3 : 0.00147069711238, Q4 : -0.00044413752039}
2019-04-14 17:36:50.61: SIM {TimeUS : 46034912, Roll : 0.16, Pitch : 0.13, Yaw : 359.94, Alt : 33.6100006104, Lat : 49.2835704, Lng : -123.1150209, Q1 : 0.999998152256, Q2 : 0.00145970738959, Q3 : 0.00115082028788, Q4 : -0.000458554306533}
2019-04-14 17:36:50.71: SIM {TimeUS : 46134872, Roll : 0.16, Pitch : 0.11, Yaw : 359.94, Alt : 33.8199996948, Lat : 49.2835704, Lng : -123.1150209, Q1 : 0.999998390675, Q2 : 0.001440858352, Q3 : 0.000965312123299, Q4 : -0.000468811602332}
2019-04-14 17:36:50.81: SIM {TimeUS : 46234832, Roll : 0.15, Pitch : 0.1, Yaw : 359.94, Alt : 34.0200004578, Lat : 49.2835704, Lng : -123.1150209, Q1 : 0.999998509884, Q2 : 0.00138275837526, Q3 : 0.00093513703905, Q4 : -0.000485471013235}
2019-04-14 17:36:50.91: SIM {TimeUS : 46334792, Roll : 0.15, Pitch : 0.11, Yaw : 359.94, Alt : 34.2299995422, Lat : 49.2835704, Lng : -123.1150209, Q1 : 0.999998450279, Q2 : 0.00136299547739, Q3 : 0.000989625114016, Q4 : -0.000508576515131}
2019-04-14 17:36:51.01: SIM {TimeUS : 46434752, Roll : 0.14, Pitch : 0.1, Yaw : 359.93, Alt : 34.4500007629, Lat : 49.2835704, Lng : -123.1150209, Q1 : 0.999998688698, Q2 : 0.00126150867436, Q3 : 0.000891050323844, Q4 : -0.000531865516677}
2019-04-14 17:36:51.11: SIM {TimeUS : 46534712, Roll : 0.12, Pitch : 0.08, Yaw : 359.93, Alt : 34.6599998474, Lat : 49.2835704, Lng : -123.1150208, Q1 : 0.999998986721, Q2 : 0.00108432827983, Q3 : 0.000761712144595, Q4 : -0.000556064827833}
2019-04-14 17:36:51.21: SIM {TimeUS : 46634672, Roll : 0.1, Pitch : 0.07, Yaw : 359.93, Alt : 34.8800010681, Lat : 49.2835704, Lng : -123.1150208, Q1 : 0.99999922514, Q2 : 0.000885391607881, Q3 : 0.000669362314511, Q4 : -0.000582264561672}
2019-04-14 17:36:51.31: SIM {TimeUS : 46734632, Roll : 0.07, Pitch : 0.06, Yaw : 359.93, Alt : 35.0900001526, Lat : 49.2835704, Lng : -123.1150208, Q1 : 0.999999403954, Q2 : 0.000666243955493, Q3 : 0.000580610998441, Q4 : -0.000610574963503}
2019-04-14 17:36:51.42: SIM {TimeUS : 46835425, Roll : 0.06, Pitch : 0.03, Yaw : 359.92, Alt : 35.3100013733, Lat : 49.2835704, Lng : -123.1150208, Q1 : 0.999999582767, Q2 : 0.000545974762645, Q3 : 0.000280946842395, Q4 : -0.000635845295619}
2019-04-14 17:36:51.51: SIM {TimeUS : 46935385, Roll : 0.05, Pitch : 0.0, Yaw : 359.92, Alt : 35.5299987793, Lat : 49.2835704, Lng : -123.1150208, Q1 : 0.999999701977, Q2 : 0.000447377300588, Q3 : 3.92370457121e-05, Q4 : -0.000662607897539}
2019-04-14 17:36:51.61: SIM {TimeUS : 47035345, Roll : 0.02, Pitch : 0.0, Yaw : 359.92, Alt : 35.75, Lat : 49.2835704, Lng : -123.1150208, Q1 : 0.999999761581, Q2 : 0.000211207399843, Q3 : -3.82019861718e-05, Q4 : -0.000693858310115}
2019-04-14 17:36:51.71: SIM {TimeUS : 47135305, Roll : 0.01, Pitch : 0.0, Yaw : 359.91, Alt : 35.9700012207, Lat : 49.2835704, Lng : -123.1150207, Q1 : 0.999999761581, Q2 : 0.000112501395051, Q3 : -1.74592278199e-05, Q4 : -0.000719495816156}
2019-04-14 17:36:51.81: SIM {TimeUS : 47235265, Roll : 0.01, Pitch : 0.0, Yaw : 359.91, Alt : 36.1899986267, Lat : 49.2835704, Lng : -123.1150207, Q1 : 0.999999701977, Q2 : 0.000151573723997, Q3 : -6.05782233265e-08, Q4 : -0.000741625670344}
2019-04-14 17:36:51.91: SIM {TimeUS : 47335225, Roll : 0.0, Pitch : -0.01, Yaw : 359.91, Alt : 36.4099998474, Lat : 49.2835704, Lng : -123.1150207, Q1 : 0.999999701977, Q2 : 3.98349766328e-05, Q3 : -0.000155823116074, Q4 : -0.000761870876886}
2019-04-14 17:36:52.01: SIM {TimeUS : 47435185, Roll : -0.03, Pitch : -0.05, Yaw : 359.91, Alt : 36.6300010681, Lat : 49.2835704, Lng : -123.1150207, Q1 : 0.999999523163, Q2 : -0.000268360425252, Q3 : -0.000487914367113, Q4 : -0.00078361807391}
2019-04-14 17:36:52.11: SIM {TimeUS : 47535145, Roll : -0.07, Pitch : -0.08, Yaw : 359.9, Alt : 36.8499984741, Lat : 49.2835704, Lng : -123.1150207, Q1 : 0.99999922514, Q2 : -0.000643823994324, Q3 : -0.000736823305488, Q4 : -0.000804542331025}
2019-04-14 17:36:52.21: SIM {TimeUS : 47635105, Roll : -0.11, Pitch : -0.1, Yaw : 359.9, Alt : 37.0800018311, Lat : 49.2835704, Lng : -123.1150207, Q1 : 0.999998748302, Q2 : -0.00100949266925, Q3 : -0.000923128565773, Q4 : -0.000829820288345}
2019-04-14 17:36:52.31: SIM {TimeUS : 47735065, Roll : -0.13, Pitch : -0.11, Yaw : 359.9, Alt : 37.2999992371, Lat : 49.2835704, Lng : -123.1150207, Q1 : 0.999998509884, Q2 : -0.00113780819811, Q3 : -0.000967822677922, Q4 : -0.000864428002387}
2019-04-14 17:36:52.41: SIM {TimeUS : 47835025, Roll : -0.12, Pitch : -0.09, Yaw : 359.89, Alt : 37.5299987793, Lat : 49.2835704, Lng : -123.1150206, Q1 : 0.999998688698, Q2 : -0.00107442564331, Q3 : -0.000838239036966, Q4 : -0.000899190024938}
2019-04-14 17:36:52.51: SIM {TimeUS : 47934985, Roll : -0.1, Pitch : -0.06, Yaw : 359.89, Alt : 37.75, Lat : 49.2835704, Lng : -123.1150206, Q1 : 0.999999046326, Q2 : -0.000896203098819, Q3 : -0.000534151040483, Q4 : -0.000926965149119}
2019-04-14 17:36:52.61: SIM {TimeUS : 48034945, Roll : -0.07, Pitch : -0.03, Yaw : 359.89, Alt : 37.9799995422, Lat : 49.2835704, Lng : -123.1150206, Q1 : 0.99999922514, Q2 : -0.000688107276801, Q3 : -0.000306503963657, Q4 : -0.000955946685281}
2019-04-14 17:36:52.71: SIM {TimeUS : 48134905, Roll : -0.07, Pitch : -0.03, Yaw : 359.88, Alt : 38.2099990845, Lat : 49.2835704, Lng : -123.1150206, Q1 : 0.999999284744, Q2 : -0.000627387606073, Q3 : -0.000277059763903, Q4 : -0.000987069215626}
2019-04-14 17:36:52.81: SIM {TimeUS : 48234865, Roll : -0.07, Pitch : -0.01, Yaw : 359.88, Alt : 38.4399986267, Lat : 49.2835706, Lng : -123.1150206, Q1 : 0.999999284744, Q2 : -0.000650223926641, Q3 : -0.00016142099048, Q4 : -0.00100277585443}
2019-04-14 17:36:52.91: SIM {TimeUS : 48334825, Roll : -0.09, Pitch : 0.0, Yaw : 359.88, Alt : 38.6699981689, Lat : 49.2835706, Lng : -123.1150206, Q1 : 0.999999165535, Q2 : -0.000801694812253, Q3 : -2.39819983108e-05, Q4 : -0.00100910128094}
2019-04-14 17:36:53.01: SIM {TimeUS : 48434785, Roll : -0.09, Pitch : 0.01, Yaw : 359.88, Alt : 38.8899993896, Lat : 49.2835706, Lng : -123.1150206, Q1 : 0.999999165535, Q2 : -0.00082071707584, Q3 : 8.98752114153e-05, Q4 : -0.00101211352739}
2019-04-14 17:36:53.11: SIM {TimeUS : 48534745, Roll : -0.07, Pitch : 0.03, Yaw : 359.88, Alt : 39.1199989319, Lat : 49.2835706, Lng : -123.1150206, Q1 : 0.999999165535, Q2 : -0.000697567826137, Q3 : 0.000302362372167, Q4 : -0.00101320038084}
2019-04-14 17:36:53.21: SIM {TimeUS : 48634705, Roll : -0.06, Pitch : 0.03, Yaw : 359.88, Alt : 39.3499984741, Lat : 49.2835706, Lng : -123.1150206, Q1 : 0.999999284744, Q2 : -0.000526479503606, Q3 : 0.000338281242875, Q4 : -0.00100642733742}
2019-04-14 17:36:53.31: SIM {TimeUS : 48734665, Roll : -0.03, Pitch : 0.03, Yaw : 359.88, Alt : 39.5800018311, Lat : 49.2835706, Lng : -123.1150207, Q1 : 0.999999403954, Q2 : -0.000296753656585, Q3 : 0.000347658147803, Q4 : -0.000999820185825}
2019-04-14 17:36:53.41: SIM {TimeUS : 48834625, Roll : 0.0, Pitch : 0.06, Yaw : 359.88, Alt : 39.8100013733, Lat : 49.2835706, Lng : -123.1150207, Q1 : 0.999999344349, Q2 : 4.61568051833e-05, Q3 : 0.000610480608884, Q4 : -0.000995182199404}
2019-04-14 17:36:53.52: SIM {TimeUS : 48935418, Roll : 0.05, Pitch : 0.11, Yaw : 359.88, Alt : 40.0499992371, Lat : 49.2835706, Lng : -123.1150207, Q1 : 0.999998867512, Q2 : 0.00047447392717, Q3 : 0.00103192345705, Q4 : -0.00100226060022}
2019-04-14 17:36:53.61: SIM {TimeUS : 49035378, Roll : 0.08, Pitch : 0.15, Yaw : 359.88, Alt : 40.2799987793, Lat : 49.2835706, Lng : -123.1150207, Q1 : 0.999998211861, Q2 : 0.000774449319579, Q3 : 0.0013909136178, Q4 : -0.00102035747841}
2019-04-14 17:36:53.71: SIM {TimeUS : 49135338, Roll : 0.08, Pitch : 0.19, Yaw : 359.88, Alt : 40.5099983215, Lat : 49.2835706, Lng : -123.1150207, Q1 : 0.999997794628, Q2 : 0.00070764683187, Q3 : 0.00167438131757, Q4 : -0.00102933880407}
2019-04-14 17:36:53.81: SIM {TimeUS : 49235298, Roll : 0.03, Pitch : 0.2, Yaw : 359.87, Alt : 40.7400016785, Lat : 49.2835706, Lng : -123.1150207, Q1 : 0.999997735023, Q2 : 0.000294332246995, Q3 : 0.00182391901035, Q4 : -0.00105216354132}
2019-04-14 17:36:53.91: SIM {TimeUS : 49335258, Roll : -0.01, Pitch : 0.2, Yaw : 359.87, Alt : 40.9799995422, Lat : 49.2835706, Lng : -123.1150207, Q1 : 0.999997794628, Q2 : -0.000114489426778, Q3 : 0.00180647044908, Q4 : -0.00107696757186}
2019-04-14 17:36:54.01: SIM {TimeUS : 49435218, Roll : -0.03, Pitch : 0.17, Yaw : 359.87, Alt : 41.2099990845, Lat : 49.2835706, Lng : -123.1150207, Q1 : 0.999998211861, Q2 : -0.000314988807077, Q3 : 0.00150084251072, Q4 : -0.00110150442924}
2019-04-14 17:36:54.11: SIM {TimeUS : 49535178, Roll : -0.03, Pitch : 0.12, Yaw : 359.87, Alt : 41.4399986267, Lat : 49.2835706, Lng : -123.1150207, Q1 : 0.999998688698, Q2 : -0.00034475204302, Q3 : 0.00111904775258, Q4 : -0.00113356544171}
2019-04-14 17:36:54.21: SIM {TimeUS : 49635138, Roll : -0.02, Pitch : 0.11, Yaw : 359.86, Alt : 41.6800003052, Lat : 49.2835706, Lng : -123.1150207, Q1 : 0.999998807907, Q2 : -0.000210300029721, Q3 : 0.0010058603948, Q4 : -0.00117466424126}
2019-04-14 17:36:54.31: SIM {TimeUS : 49735098, Roll : 0.01, Pitch : 0.12, Yaw : 359.86, Alt : 41.9099998474, Lat : 49.2835706, Lng : -123.1150207, Q1 : 0.999998688698, Q2 : 0.000123143967357, Q3 : 0.00107546546496, Q4 : -0.00122036645189}
2019-04-14 17:36:54.41: SIM {TimeUS : 49835058, Roll : 0.06, Pitch : 0.12, Yaw : 359.85, Alt : 42.1399993896, Lat : 49.2835706, Lng : -123.1150207, Q1 : 0.999998390675, Q2 : 0.000588535913266, Q3 : 0.00113299093209, Q4 : -0.00126425467897}
2019-04-14 17:36:54.51: SIM {TimeUS : 49935018, Roll : 0.11, Pitch : 0.11, Yaw : 359.85, Alt : 42.3800010681, Lat : 49.2835706, Lng : -123.1150207, Q1 : 0.999998152256, Q2 : 0.000964215199929, Q3 : 0.00101551227272, Q4 : -0.0013095337199}
2019-04-14 17:36:54.61: SIM {TimeUS : 50034978, Roll : 0.11, Pitch : 0.09, Yaw : 359.84, Alt : 42.6100006104, Lat : 49.2835706, Lng : -123.1150207, Q1 : 0.999998271465, Q2 : 0.00099820503965, Q3 : 0.000823120702989, Q4 : -0.00135241611861}
2019-04-14 17:36:54.71: SIM {TimeUS : 50134938, Roll : 0.07, Pitch : 0.07, Yaw : 359.84, Alt : 42.8499984741, Lat : 49.2835706, Lng : -123.1150207, Q1 : 0.999998629093, Q2 : 0.000630870403256, Q3 : 0.000648066925351, Q4 : -0.00136986630969}
2019-04-14 17:36:54.81: SIM {TimeUS : 50234898, Roll : 0.01, Pitch : 0.06, Yaw : 359.84, Alt : 43.0800018311, Lat : 49.2835706, Lng : -123.1150207, Q1 : 0.999998867512, Q2 : 0.000114586844575, Q3 : 0.000586192007177, Q4 : -0.00137930735946}
2019-04-14 17:36:54.91: SIM {TimeUS : 50334858, Roll : -0.03, Pitch : 0.07, Yaw : 359.84, Alt : 43.3199996948, Lat : 49.2835704, Lng : -123.1150207, Q1 : 0.999998807907, Q2 : -0.000261125474935, Q3 : 0.00065385637572, Q4 : -0.00139015889727}
2019-04-14 17:36:55.01: SIM {TimeUS : 50434818, Roll : -0.05, Pitch : 0.07, Yaw : 359.83, Alt : 43.5499992371, Lat : 49.2835704, Lng : -123.1150207, Q1 : 0.999998748302, Q2 : -0.000439490017015, Q3 : 0.000654146890156, Q4 : -0.00140203034971}
2019-04-14 17:36:55.11: SIM {TimeUS : 50534778, Roll : -0.04, Pitch : 0.06, Yaw : 359.83, Alt : 43.7900009155, Lat : 49.2835704, Lng : -123.1150207, Q1 : 0.999998807907, Q2 : -0.000393778434955, Q3 : 0.000544136506505, Q4 : -0.00141537643503}
2019-04-14 17:36:55.21: SIM {TimeUS : 50634738, Roll : -0.04, Pitch : 0.04, Yaw : 359.83, Alt : 44.0200004578, Lat : 49.2835704, Lng : -123.1150207, Q1 : 0.999998807907, Q2 : -0.000385971099604, Q3 : 0.000381420191843, Q4 : -0.00143688486423}
2019-04-14 17:36:55.31: SIM {TimeUS : 50734698, Roll : -0.03, Pitch : 0.02, Yaw : 359.83, Alt : 44.2599983215, Lat : 49.2835704, Lng : -123.1150207, Q1 : 0.999998867512, Q2 : -0.00032890154398, Q3 : 0.00023936846992, Q4 : -0.00146076641977}
2019-04-14 17:36:55.41: SIM {TimeUS : 50834658, Roll : -0.02, Pitch : 0.02, Yaw : 359.82, Alt : 44.5, Lat : 49.2835704, Lng : -123.1150207, Q1 : 0.999998867512, Q2 : -0.000206763084861, Q3 : 0.000205057061976, Q4 : -0.00148781575263}
2019-04-14 17:36:55.51: SIM {TimeUS : 50934618, Roll : -0.01, Pitch : 0.02, Yaw : 359.82, Alt : 44.7299995422, Lat : 49.2835704, Lng : -123.1150206, Q1 : 0.999998807907, Q2 : -0.000152004766278, Q3 : 0.000228265314945, Q4 : -0.00151351315435}
2019-04-14 17:36:55.61: SIM {TimeUS : 51035411, Roll : -0.02, Pitch : 0.01, Yaw : 359.82, Alt : 44.9700012207, Lat : 49.2835704, Lng : -123.1150206, Q1 : 0.999998807907, Q2 : -0.000196172768483, Q3 : 0.000142227087053, Q4 : -0.00154372630641}
2019-04-14 17:36:55.71: SIM {TimeUS : 51135371, Roll : -0.02, Pitch : -0.01, Yaw : 359.81, Alt : 45.2099990845, Lat : 49.2835703, Lng : -123.1150206, Q1 : 0.999998748302, Q2 : -0.000244686816586, Q3 : -0.00011431533494, Q4 : -0.00157356180716}
2019-04-14 17:36:55.81: SIM {TimeUS : 51235331, Roll : -0.03, Pitch : -0.03, Yaw : 359.81, Alt : 45.4399986267, Lat : 49.2835703, Lng : -123.1150206, Q1 : 0.999998629093, Q2 : -0.000270430347882, Q3 : -0.000303444103338, Q4 : -0.00160608789884}
2019-04-14 17:36:55.91: SIM {TimeUS : 51335291, Roll : -0.02, Pitch : -0.04, Yaw : 359.81, Alt : 45.6800003052, Lat : 49.2835703, Lng : -123.1150206, Q1 : 0.999998569489, Q2 : -0.000216398228076, Q3 : -0.000416237453464, Q4 : -0.00164257409051}
2019-04-14 17:36:56.01: SIM {TimeUS : 51435251, Roll : -0.02, Pitch : -0.05, Yaw : 359.8, Alt : 45.9099998474, Lat : 49.2835703, Lng : -123.1150206, Q1 : 0.999998450279, Q2 : -0.000215436128201, Q3 : -0.000458602677099, Q4 : -0.00168106076308}
2019-04-14 17:36:56.11: SIM {TimeUS : 51535211, Roll : -0.04, Pitch : -0.04, Yaw : 359.8, Alt : 46.1399993896, Lat : 49.2835703, Lng : -123.1150206, Q1 : 0.99999833107, Q2 : -0.000397035939386, Q3 : -0.00040807298501, Q4 : -0.00172417343128}
2019-04-14 17:36:56.21: SIM {TimeUS : 51635171, Roll : -0.08, Pitch : -0.04, Yaw : 359.79, Alt : 46.3699989319, Lat : 49.2835703, Lng : -123.1150206, Q1 : 0.999998152256, Q2 : -0.00071001163451, Q3 : -0.000360988575267, Q4 : -0.00176931568421}
2019-04-14 17:36:56.31: SIM {TimeUS : 51735131, Roll : -0.1, Pitch : -0.03, Yaw : 359.79, Alt : 46.5900001526, Lat : 49.2835703, Lng : -123.1150206, Q1 : 0.999997854233, Q2 : -0.000938904529903, Q3 : -0.000337230652804, Q4 : -0.00181040598545}
2019-04-14 17:36:56.41: SIM {TimeUS : 51835091, Roll : -0.11, Pitch : -0.02, Yaw : 359.78, Alt : 46.8100013733, Lat : 49.2835703, Lng : -123.1150206, Q1 : 0.999997794628, Q2 : -0.00101025251206, Q3 : -0.00023627790506, Q4 : -0.00184043229092}
2019-04-14 17:36:56.51: SIM {TimeUS : 51935051, Roll : -0.1, Pitch : 0.0, Yaw : 359.78, Alt : 47.0200004578, Lat : 49.2835703, Lng : -123.1150206, Q1 : 0.999997854233, Q2 : -0.000906775647309, Q3 : -4.09525309806e-05, Q4 : -0.0018605850637}
2019-04-14 17:36:56.61: SIM {TimeUS : 52035011, Roll : -0.07, Pitch : 0.0, Yaw : 359.78, Alt : 47.2200012207, Lat : 49.2835703, Lng : -123.1150206, Q1 : 0.999998033047, Q2 : -0.000684374885168, Q3 : 8.06763127912e-05, Q4 : -0.00187216000631}
2019-04-14 17:36:56.71: SIM {TimeUS : 52134971, Roll : -0.05, Pitch : 0.0, Yaw : 359.78, Alt : 47.4099998474, Lat : 49.2835703, Lng : -123.1150206, Q1 : 0.999998092651, Q2 : -0.000511524674948, Q3 : 6.44771716907e-05, Q4 : -0.00188540341333}
2019-04-14 17:36:56.81: SIM {TimeUS : 52234931, Roll : -0.05, Pitch : 0.0, Yaw : 359.78, Alt : 47.5999984741, Lat : 49.2835703, Lng : -123.1150206, Q1 : 0.999998092651, Q2 : -0.00043729817844, Q3 : -6.91962923156e-05, Q4 : -0.001898676157}
2019-04-14 17:36:56.91: SIM {TimeUS : 52334891, Roll : -0.05, Pitch : -0.04, Yaw : 359.78, Alt : 47.7700004578, Lat : 49.2835703, Lng : -123.1150206, Q1 : 0.999997973442, Q2 : -0.00048682524357, Q3 : -0.000387172651244, Q4 : -0.00191721750889}
2019-04-14 17:36:57.01: SIM {TimeUS : 52434851, Roll : -0.04, Pitch : -0.07, Yaw : 359.77, Alt : 47.9399986267, Lat : 49.2835703, Lng : -123.1150206, Q1 : 0.999997854233, Q2 : -0.000435782334534, Q3 : -0.000661991187371, Q4 : -0.00193739752285}
2019-04-14 17:36:57.11: SIM {TimeUS : 52534811, Roll : -0.04, Pitch : -0.1, Yaw : 359.77, Alt : 48.0900001526, Lat : 49.2835703, Lng : -123.1150206, Q1 : 0.999997615814, Q2 : -0.00039557000855, Q3 : -0.000882689841092, Q4 : -0.0019544812385}
2019-04-14 17:36:57.21: SIM {TimeUS : 52634771, Roll : -0.04, Pitch : -0.11, Yaw : 359.77, Alt : 48.2299995422, Lat : 49.2835703, Lng : -123.1150206, Q1 : 0.999997437, Q2 : -0.0003610617714, Q3 : -0.00103716331068, Q4 : -0.00197034841403}
2019-04-14 17:36:57.31: SIM {TimeUS : 52734731, Roll : 0.0, Pitch : -0.11, Yaw : 359.77, Alt : 48.3600006104, Lat : 49.2835703, Lng : -123.1150206, Q1 : 0.99999755621, Q2 : -5.99103877903e-05, Q3 : -0.000983256730251, Q4 : -0.00198986637406}
2019-04-14 17:36:57.41: SIM {TimeUS : 52834691, Roll : 0.03, Pitch : -0.09, Yaw : 359.76, Alt : 48.4799995422, Lat : 49.2835703, Lng : -123.1150206, Q1 : 0.999997615814, Q2 : 0.000314735050779, Q3 : -0.00079546746565, Q4 : -0.00201852805912}
2019-04-14 17:36:57.51: SIM {TimeUS : 52934651, Roll : 0.06, Pitch : -0.06, Yaw : 359.76, Alt : 48.5800018311, Lat : 49.2835703, Lng : -123.1150207, Q1 : 0.999997615814, Q2 : 0.000574709614739, Q3 : -0.000537423416972, Q4 : -0.00205132574774}
2019-04-14 17:36:57.62: SIM {TimeUS : 53035444, Roll : 0.07, Pitch : -0.03, Yaw : 359.76, Alt : 48.6699981689, Lat : 49.2835703, Lng : -123.1150207, Q1 : 0.999997615814, Q2 : 0.000613628595602, Q3 : -0.0002906928421, Q4 : -0.0020847490523}
2019-04-14 17:36:57.71: SIM {TimeUS : 53135404, Roll : 0.07, Pitch : -0.02, Yaw : 359.75, Alt : 48.75, Lat : 49.2835703, Lng : -123.1150207, Q1 : 0.99999755621, Q2 : 0.000625569722615, Q3 : -0.000197729634237, Q4 : -0.00211460306309}
2019-04-14 17:36:57.81: SIM {TimeUS : 53235364, Roll : 0.06, Pitch : -0.03, Yaw : 359.75, Alt : 48.8199996948, Lat : 49.2835703, Lng : -123.1150207, Q1 : 0.999997496605, Q2 : 0.000526256568264, Q3 : -0.000276038772427, Q4 : -0.0021448044572}
2019-04-14 17:36:57.91: SIM {TimeUS : 53335324, Roll : 0.03, Pitch : -0.03, Yaw : 359.75, Alt : 48.8800010681, Lat : 49.2835703, Lng : -123.1150207, Q1 : 0.99999755621, Q2 : 0.000317206286127, Q3 : -0.000320591934724, Q4 : -0.00217450177297}
2019-04-14 17:36:58.01: SIM {TimeUS : 53435284, Roll : 0.01, Pitch : -0.03, Yaw : 359.74, Alt : 48.9399986267, Lat : 49.2835703, Lng : -123.1150207, Q1 : 0.999997496605, Q2 : 0.000160071387654, Q3 : -0.000326582696289, Q4 : -0.00220394646749}
2019-04-14 17:36:58.11: SIM {TimeUS : 53535244, Roll : 0.05, Pitch : -0.07, Yaw : 359.74, Alt : 48.9799995422, Lat : 49.2835703, Lng : -123.1150207, Q1 : 0.999997138977, Q2 : 0.000516683445312, Q3 : -0.000671403191518, Q4 : -0.00223135855049}
2019-04-14 17:36:58.21: SIM {TimeUS : 53635204, Roll : 0.25, Pitch : -0.24, Yaw : 359.74, Alt : 49.0200004578, Lat : 49.2835704, Lng : -123.1150207, Q1 : 0.999992728233, Q2 : 0.00222497549839, Q3 : -0.00213660486042, Q4 : -0.0022527766414}
2019-04-14 17:36:58.31: SIM {TimeUS : 53735164, Roll : 0.67, Pitch : -0.58, Yaw : 359.73, Alt : 49.0499992371, Lat : 49.2835704, Lng : -123.1150207, Q1 : 0.999966919422, Q2 : 0.00590944243595, Q3 : -0.00511342799291, Q4 : -0.00227105920203}
2019-04-14 17:36:58.41: SIM {TimeUS : 53835124, Roll : 1.29, Pitch : -1.11, Yaw : 359.72, Alt : 49.0800018311, Lat : 49.2835704, Lng : -123.1150207, Q1 : 0.999886333942, Q2 : 0.0112853199244, Q3 : -0.00973603595048, Q4 : -0.0022790429648}
2019-04-14 17:36:58.51: SIM {TimeUS : 53935084, Roll : 2.03, Pitch : -1.79, Yaw : 359.7, Alt : 49.0999984741, Lat : 49.2835704, Lng : -123.1150206, Q1 : 0.99971729517, Q2 : 0.0177040230483, Q3 : -0.0157067216933, Q4 : -0.00226392853074}
2019-04-14 17:36:58.61: SIM {TimeUS : 54035044, Roll : 2.79, Pitch : -2.53, Yaw : 359.68, Alt : 49.1300010681, Lat : 49.2835706, Lng : -123.1150205, Q1 : 0.999457061291, Q2 : 0.0242839064449, Q3 : -0.0221597123891, Q4 : -0.00220572482795}
2019-04-14 17:36:58.71: SIM {TimeUS : 54135004, Roll : 3.45, Pitch : -3.2, Yaw : 359.66, Alt : 49.1399993896, Lat : 49.2835707, Lng : -123.1150204, Q1 : 0.9991517663, Q2 : 0.030077053234, Q3 : -0.0280511006713, Q4 : -0.00207534595393}
2019-04-14 17:36:58.81: SIM {TimeUS : 54234964, Roll : 3.97, Pitch : -3.73, Yaw : 359.65, Alt : 49.1599998474, Lat : 49.2835708, Lng : -123.1150202, Q1 : 0.998865485191, Q2 : 0.0345944985747, Q3 : -0.032672457397, Q4 : -0.00186799606308}
2019-04-14 17:36:58.91: SIM {TimeUS : 54334924, Roll : 4.36, Pitch : -4.09, Yaw : 359.65, Alt : 49.1699981689, Lat : 49.2835709, Lng : -123.11502, Q1 : 0.998636960983, Q2 : 0.037911426276, Q3 : -0.0358388535678, Q4 : -0.0016036654124}
2019-04-14 17:36:59.01: SIM {TimeUS : 54434884, Roll : 4.64, Pitch : -4.36, Yaw : 359.67, Alt : 49.1800003052, Lat : 49.2835712, Lng : -123.1150196, Q1 : 0.998453438282, Q2 : 0.0403911657631, Q3 : -0.0381776429713, Q4 : -0.00131743925158}
2019-04-14 17:36:59.11: SIM {TimeUS : 54534844, Roll : 4.89, Pitch : -4.6, Yaw : 359.68, Alt : 49.1899986267, Lat : 49.2835715, Lng : -123.1150192, Q1 : 0.998282909393, Q2 : 0.0425676517189, Q3 : -0.040227279067, Q4 : -0.0010267351754}
2019-04-14 17:36:59.21: SIM {TimeUS : 54634804, Roll : 5.14, Pitch : -4.82, Yaw : 359.69, Alt : 49.2000007629, Lat : 49.2835718, Lng : -123.1150186, Q1 : 0.998108446598, Q2 : 0.0447047427297, Q3 : -0.0421957932413, Q4 : -0.000740850460716}
2019-04-14 17:36:59.31: SIM {TimeUS : 54734764, Roll : 5.4, Pitch : -5.09, Yaw : 359.7, Alt : 49.2099990845, Lat : 49.2835721, Lng : -123.115018, Q1 : 0.997901916504, Q2 : 0.0469986274838, Q3 : -0.0445283092558, Q4 : -0.0004706751497}
2019-04-14 17:36:59.41: SIM {TimeUS : 54834724, Roll : 5.67, Pitch : -5.36, Yaw : 359.71, Alt : 49.2200012207, Lat : 49.2835726, Lng : -123.1150173, Q1 : 0.997682869434, Q2 : 0.049333486706, Q3 : -0.0468518659472, Q4 : -0.00020601117285}
2019-04-14 17:36:59.51: SIM {TimeUS : 54934684, Roll : 5.9, Pitch : -5.58, Yaw : 359.71, Alt : 49.2299995422, Lat : 49.2835731, Lng : -123.1150165, Q1 : 0.997491061687, Q2 : 0.051337197423, Q3 : -0.0487457513809, Q4 : 4.50437364634e-05}
2019-04-14 17:36:59.61: SIM {TimeUS : 55034644, Roll : 6.06, Pitch : -5.72, Yaw : 359.72, Alt : 49.2299995422, Lat : 49.2835735, Lng : -123.1150157, Q1 : 0.997359395027, Q2 : 0.0527117997408, Q3 : -0.0499563366175, Q4 : 0.000263465684839}
2019-04-14 17:36:59.72: SIM {TimeUS : 55135437, Roll : 6.16, Pitch : -5.81, Yaw : 359.73, Alt : 49.2400016785, Lat : 49.2835741, Lng : -123.1150147, Q1 : 0.997268736362, Q2 : 0.0536130480468, Q3 : -0.0507992729545, Q4 : 0.000432995817391}
2019-04-14 17:36:59.81: SIM {TimeUS : 55235397, Roll : 6.23, Pitch : -5.89, Yaw : 359.74, Alt : 49.2400016785, Lat : 49.2835749, Lng : -123.1150136, Q1 : 0.997200489044, Q2 : 0.0541991442442, Q3 : -0.0515110492706, Q4 : 0.000541411282029}
2019-04-14 17:36:59.91: SIM {TimeUS : 55335357, Roll : 6.33, Pitch : -5.97, Yaw : 359.74, Alt : 49.25, Lat : 49.2835756, Lng : -123.1150125, Q1 : 0.99711728096, Q2 : 0.0550967492163, Q3 : -0.0521639510989, Q4 : 0.00063703750493}
2019-04-14 17:37:00.01: SIM {TimeUS : 55435317, Roll : 6.62, Pitch : -5.95, Yaw : 359.87, Alt : 49.25, Lat : 49.2835763, Lng : -123.1150113, Q1 : 0.996981978416, Q2 : 0.0576576367021, Q3 : -0.0519521422684, Q4 : 0.00189417379443}
2019-04-14 17:37:00.11: SIM {TimeUS : 55535277, Roll : 7.17, Pitch : -5.83, Yaw : 0.65, Alt : 49.25, Lat : 49.283577, Lng : -123.1150101, Q1 : 0.99671202898, Q2 : 0.0627745613456, Q3 : -0.0504498891532, Q4 : 0.00890271924436}
2019-04-14 17:37:00.21: SIM {TimeUS : 55635237, Roll : 7.8, Pitch : -5.83, Yaw : 2.76, Alt : 49.2599983215, Lat : 49.2835779, Lng : -123.1150087, Q1 : 0.996014297009, Q2 : 0.0691905990243, Q3 : -0.0491243824363, Q4 : 0.0274778213352}
2019-04-14 17:37:00.31: SIM {TimeUS : 55735197, Roll : 8.21, Pitch : -6.22, Yaw : 6.46, Alt : 49.2599983215, Lat : 49.2835787, Lng : -123.1150072, Q1 : 0.994154214859, Q2 : 0.0744904577732, Q3 : -0.0500686950982, Q4 : 0.060013923794}
2019-04-14 17:37:00.41: SIM {TimeUS : 55835157, Roll : 8.16, Pitch : -7.07, Yaw : 11.66, Alt : 49.2599983215, Lat : 49.2835795, Lng : -123.1150057, Q1 : 0.989971578121, Q2 : 0.0769039392471, Q3 : -0.0539755262434, Q4 : 0.105492495}
2019-04-14 17:37:00.51: SIM {TimeUS : 55935117, Roll : 7.47, Pitch : -8.26, Yaw : 18.13, Alt : 49.2599983215, Lat : 49.2835805, Lng : -123.115004, Q1 : 0.982106149197, Q2 : 0.075513958931, Q3 : -0.0607962273061, Q4 : 0.161459088326}
2019-04-14 17:37:00.61: SIM {TimeUS : 56035077, Roll : 6.11, Pitch : -9.63, Yaw : 25.61, Alt : 49.2599983215, Lat : 49.2835813, Lng : -123.1150022, Q1 : 0.969296693802, Q2 : 0.0704342871904, Q3 : -0.0700168311596, Q4 : 0.224945574999}
2019-04-14 17:37:00.71: SIM {TimeUS : 56135037, Roll : 4.03, Pitch : -10.98, Yaw : 33.8, Alt : 49.2700004578, Lat : 49.2835824, Lng : -123.1150003, Q1 : 0.950833261013, Q2 : 0.0613553375006, Q3 : -0.0813187882304, Q4 : 0.292470425367}
2019-04-14 17:37:00.81: SIM {TimeUS : 56234997, Roll : 1.16, Pitch : -12.05, Yaw : 42.1, Alt : 49.2700004578, Lat : 49.2835834, Lng : -123.1149983, Q1 : 0.927662372589, Q2 : 0.0471745766699, Q3 : -0.0943702608347, Q4 : 0.358205676079}
2019-04-14 17:37:00.91: SIM {TimeUS : 56334957, Roll : -2.06, Pitch : -12.64, Yaw : 49.63, Alt : 49.2700004578, Lat : 49.2835843, Lng : -123.1149962, Q1 : 0.902820646763, Q2 : 0.0299447868019, Q3 : -0.107483640313, Q4 : 0.415289521217}
2019-04-14 17:37:01.01: SIM {TimeUS : 56434917, Roll : -4.96, Pitch : -12.76, Yaw : 55.61, Alt : 49.2700004578, Lat : 49.2835855, Lng : -123.114994, Q1 : 0.880440175533, Q2 : 0.0137276053429, Q3 : -0.118352912366, Q4 : 0.458943724632}
2019-04-14 17:37:01.11: SIM {TimeUS : 56534877, Roll : -6.97, Pitch : -12.64, Yaw : 59.63, Alt : 49.2700004578, Lat : 49.2835867, Lng : -123.1149918, Q1 : 0.864065527916, Q2 : 0.00224231672473, Q3 : -0.125431150198, Q4 : 0.487496465445}
2019-04-14 17:37:01.21: SIM {TimeUS : 56634837, Roll : -7.88, Pitch : -12.52, Yaw : 61.68, Alt : 49.2700004578, Lat : 49.283588, Lng : -123.1149896, Q1 : 0.85530012846, Q2 : -0.00288032880053, Q3 : -0.128418594599, Q4 : 0.501958250999}
2019-04-14 17:37:01.31: SIM {TimeUS : 56734797, Roll : -7.77, Pitch : -12.57, Yaw : 62.01, Alt : 49.2700004578, Lat : 49.2835896, Lng : -123.1149873, Q1 : 0.853795945644, Q2 : -0.00147873954847, Q3 : -0.128375306726, Q4 : 0.504529595375}
2019-04-14 17:37:01.41: SIM {TimeUS : 56834757, Roll : -6.89, Pitch : -12.9, Yaw : 60.99, Alt : 49.2700004578, Lat : 49.283591, Lng : -123.1149851, Q1 : 0.858062207699, Q2 : 0.00545249832794, Q3 : -0.126943185925, Q4 : 0.497579067945}
2019-04-14 17:37:01.51: SIM {TimeUS : 56934717, Roll : -5.49, Pitch : -13.45, Yaw : 58.96, Alt : 49.2700004578, Lat : 49.2835928, Lng : -123.1149827, Q1 : 0.866264998913, Q2 : 0.016135212034, Q3 : -0.125253871083, Q4 : 0.483359158039}
2019-04-14 17:37:01.61: SIM {TimeUS : 57034677, Roll : -3.79, Pitch : -14.11, Yaw : 56.26, Alt : 49.2700004578, Lat : 49.2835945, Lng : -123.1149804, Q1 : 0.876629710197, Q2 : 0.0289389640093, Q3 : -0.123791851103, Q4 : 0.464067280293}
2019-04-14 17:37:01.71: SIM {TimeUS : 57134637, Roll : -1.98, Pitch : -14.77, Yaw : 53.18, Alt : 49.2799987793, Lat : 49.2835963, Lng : -123.1149779, Q1 : 0.887656271458, Q2 : 0.0421965382993, Q3 : -0.122624091804, Q4 : 0.441869974136}
2019-04-14 17:37:01.82: SIM {TimeUS : 57235430, Roll : -0.23, Pitch : -15.29, Yaw : 50.03, Alt : 49.2799987793, Lat : 49.2835981, Lng : -123.1149753, Q1 : 0.898236453533, Q2 : 0.0544828101993, Q3 : -0.121472395957, Q4 : 0.418864428997}
2019-04-14 17:37:01.91: SIM {TimeUS : 57335390, Roll : 1.28, Pitch : -15.61, Yaw : 47.18, Alt : 49.2799987793, Lat : 49.2836, Lng : -123.1149727, Q1 : 0.907257974148, Q2 : 0.064542144537, Q3 : -0.120038591325, Q4 : 0.397879451513}
2019-04-14 17:37:02.01: SIM {TimeUS : 57435350, Roll : 2.44, Pitch : -15.74, Yaw : 44.88, Alt : 49.2799987793, Lat : 49.2836019, Lng : -123.1149699, Q1 : 0.914224326611, Q2 : 0.0717932730913, Q3 : -0.118539445102, Q4 : 0.380772948265}
2019-04-14 17:37:02.11: SIM {TimeUS : 57535310, Roll : 3.17, Pitch : -15.75, Yaw : 43.3, Alt : 49.2799987793, Lat : 49.2836037, Lng : -123.114967, Q1 : 0.918911635876, Q2 : 0.0760267302394, Q3 : -0.117248058319, Q4 : 0.368882477283}
2019-04-14 17:37:02.21: SIM {TimeUS : 57635270, Roll : 3.45, Pitch : -15.71, Yaw : 42.49, Alt : 49.2799987793, Lat : 49.2836056, Lng : -123.114964, Q1 : 0.921354055405, Q2 : 0.077325552702, Q3 : -0.116577364504, Q4 : 0.362680584192}
2019-04-14 17:37:02.31: SIM {TimeUS : 57735230, Roll : 3.31, Pitch : -15.69, Yaw : 42.41, Alt : 49.2799987793, Lat : 49.2836077, Lng : -123.1149608, Q1 : 0.921743154526, Q2 : 0.076036080718, Q3 : -0.116848506033, Q4 : 0.361876368523}
2019-04-14 17:37:02.41: SIM {TimeUS : 57835190, Roll : 2.84, Pitch : -15.72, Yaw : 42.93, Alt : 49.2799987793, Lat : 49.2836096, Lng : -123.1149575, Q1 : 0.920346438885, Q2 : 0.0729168877006, Q3 : -0.118228942156, Q4 : 0.36560562253}
2019-04-14 17:37:02.51: SIM {TimeUS : 57935150, Roll : 2.14, Pitch : -15.82, Yaw : 43.9, Alt : 49.2799987793, Lat : 49.2836116, Lng : -123.1149542, Q1 : 0.917527198792, Q2 : 0.0686926245689, Q3 : -0.120729610324, Q4 : 0.372625291348}
2019-04-14 17:37:02.61: SIM {TimeUS : 58035110, Roll : 1.32, Pitch : -15.98, Yaw : 45.14, Alt : 49.2799987793, Lat : 49.2836136, Lng : -123.1149508, Q1 : 0.913764595985, Q2 : 0.0639564171433, Q3 : -0.123941756785, Q4 : 0.381552547216}
2019-04-14 17:37:02.71: SIM {TimeUS : 58135070, Roll : 0.48, Pitch : -16.14, Yaw : 46.45, Alt : 49.2799987793, Lat : 49.2836157, Lng : -123.1149473, Q1 : 0.90958327055, Q2 : 0.0592199675739, Q3 : -0.1274176687, Q4 : 0.391044765711}
2019-04-14 17:37:02.81: SIM {TimeUS : 58235030, Roll : -0.28, Pitch : -16.27, Yaw : 47.7, Alt : 49.2799987793, Lat : 49.2836177, Lng : -123.1149437, Q1 : 0.905529081821, Q2 : 0.0549762398005, Q3 : -0.130420610309, Q4 : 0.399981439114}
2019-04-14 17:37:02.91: SIM {TimeUS : 58334990, Roll : -0.87, Pitch : -16.34, Yaw : 48.74, Alt : 49.2799987793, Lat : 49.2836199, Lng : -123.1149401, Q1 : 0.902039766312, Q2 : 0.0517786368728, Q3 : -0.132564589381, Q4 : 0.407516688108}
2019-04-14 17:37:03.01: SIM {TimeUS : 58434950, Roll : -1.27, Pitch : -16.37, Yaw : 49.51, Alt : 49.2799987793, Lat : 49.283622, Lng : -123.1149364, Q1 : 0.89943832159, Q2 : 0.0496421717107, Q3 : -0.133940652013, Q4 : 0.413045167923}
2019-04-14 17:37:03.11: SIM {TimeUS : 58534910, Roll : -1.45, Pitch : -16.4, Yaw : 49.96, Alt : 49.2799987793, Lat : 49.2836243, Lng : -123.1149327, Q1 : 0.89786285162, Q2 : 0.0488236732781, Q3 : -0.134613066912, Q4 : 0.416338711977}
2019-04-14 17:37:03.21: SIM {TimeUS : 58634870, Roll : -1.42, Pitch : -16.4, Yaw : 50.1, Alt : 49.2799987793, Lat : 49.2836264, Lng : -123.114929, Q1 : 0.897335708141, Q2 : 0.0492437779903, Q3 : -0.134489417076, Q4 : 0.417464107275}
2019-04-14 17:37:03.31: SIM {TimeUS : 58734830, Roll : -1.23, Pitch : -16.41, Yaw : 49.97, Alt : 49.2799987793, Lat : 49.2836287, Lng : -123.1149251, Q1 : 0.897733330727, Q2 : 0.0505766309798, Q3 : -0.133879840374, Q4 : 0.416645020247}
2019-04-14 17:37:03.41: SIM {TimeUS : 58834790, Roll : -0.96, Pitch : -16.43, Yaw : 49.62, Alt : 49.2799987793, Lat : 49.2836311, Lng : -123.1149214, Q1 : 0.898820757866, Q2 : 0.0524681992829, Q3 : -0.133249744773, Q4 : 0.414261877537}
2019-04-14 17:37:03.51: SIM {TimeUS : 58934750, Roll : -0.63, Pitch : -16.49, Yaw : 49.14, Alt : 49.2900009155, Lat : 49.2836335, Lng : -123.1149175, Q1 : 0.900340080261, Q2 : 0.0546347796917, Q3 : -0.132759824395, Q4 : 0.410825550556}
2019-04-14 17:37:03.61: SIM {TimeUS : 59034710, Roll : -0.31, Pitch : -16.57, Yaw : 48.6, Alt : 49.2900009155, Lat : 49.2836358, Lng : -123.1149136, Q1 : 0.902029752731, Q2 : 0.0568689145148, Q3 : -0.132501021028, Q4 : 0.406880527735}
2019-04-14 17:37:03.71: SIM {TimeUS : 59134670, Roll : -0.01, Pitch : -16.64, Yaw : 48.06, Alt : 49.2900009155, Lat : 49.2836382, Lng : -123.1149097, Q1 : 0.903700232506, Q2 : 0.0588704831898, Q3 : -0.132269859314, Q4 : 0.402945160866}
2019-04-14 17:37:03.81: SIM {TimeUS : 59234630, Roll : 0.25, Pitch : -16.7, Yaw : 47.58, Alt : 49.2900009155, Lat : 49.2836406, Lng : -123.1149057, Q1 : 0.905165970325, Q2 : 0.0605972744524, Q3 : -0.13203074038, Q4 : 0.399462670088}
2019-04-14 17:37:03.92: SIM {TimeUS : 59335423, Roll : 0.45, Pitch : -16.73, Yaw : 47.21, Alt : 49.2900009155, Lat : 49.2836431, Lng : -123.1149017, Q1 : 0.906325340271, Q2 : 0.0618839636445, Q3 : -0.131804645061, Q4 : 0.396701782942}
2019-04-14 17:37:04.01: SIM {TimeUS : 59435383, Roll : 0.57, Pitch : -16.76, Yaw : 46.96, Alt : 49.2900009155, Lat : 49.2836455, Lng : -123.1148976, Q1 : 0.907097041607, Q2 : 0.0626130700111, Q3 : -0.131707519293, Q4 : 0.394851535559}
2019-04-14 17:37:04.11: SIM {TimeUS : 59535343, Roll : 0.61, Pitch : -16.78, Yaw : 46.83, Alt : 49.2900009155, Lat : 49.283648, Lng : -123.1148935, Q1 : 0.907461822033, Q2 : 0.0629135221243, Q3 : -0.13182425499, Q4 : 0.393925487995}
2019-04-14 17:37:04.21: SIM {TimeUS : 59635303, Roll : 0.6, Pitch : -16.81, Yaw : 46.83, Alt : 49.2900009155, Lat : 49.2836504, Lng : -123.1148894, Q1 : 0.907449305058, Q2 : 0.0628904551268, Q3 : -0.13212659955, Q4 : 0.393856793642}
2019-04-14 17:37:04.31: SIM {TimeUS : 59735263, Roll : 0.52, Pitch : -16.84, Yaw : 46.92, Alt : 49.2900009155, Lat : 49.2836529, Lng : -123.1148852, Q1 : 0.907143115997, Q2 : 0.0624524727464, Q3 : -0.132580801845, Q4 : 0.394478738308}
2019-04-14 17:37:04.41: SIM {TimeUS : 59835223, Roll : 0.39, Pitch : -16.87, Yaw : 47.08, Alt : 49.2900009155, Lat : 49.2836554, Lng : -123.114881, Q1 : 0.906627416611, Q2 : 0.0617487356067, Q3 : -0.133180141449, Q4 : 0.395571619272}
2019-04-14 17:37:04.51: SIM {TimeUS : 59935183, Roll : 0.24, Pitch : -16.92, Yaw : 47.27, Alt : 49.2900009155, Lat : 49.2836578, Lng : -123.1148767, Q1 : 0.905986607075, Q2 : 0.0609249435365, Q3 : -0.133938610554, Q4 : 0.396909236908}
2019-04-14 17:37:04.61: SIM {TimeUS : 60035143, Roll : 0.08, Pitch : -16.96, Yaw : 47.48, Alt : 49.2900009155, Lat : 49.2836603, Lng : -123.1148725, Q1 : 0.905319094658, Q2 : 0.0600931160152, Q3 : -0.134730711579, Q4 : 0.398288607597}
2019-04-14 17:37:04.71: SIM {TimeUS : 60135103, Roll : -0.05, Pitch : -17.0, Yaw : 47.66, Alt : 49.2999992371, Lat : 49.283663, Lng : -123.1148682, Q1 : 0.904717087746, Q2 : 0.0592783950269, Q3 : -0.135434627533, Q4 : 0.399537920952}
2019-04-14 17:37:04.81: SIM {TimeUS : 60235063, Roll : -0.18, Pitch : -17.03, Yaw : 47.8, Alt : 49.2999992371, Lat : 49.2836655, Lng : -123.1148638, Q1 : 0.904238760471, Q2 : 0.0585752613842, Q3 : -0.136034160852, Q4 : 0.400519639254}
2019-04-14 17:37:04.91: SIM {TimeUS : 60335023, Roll : -0.27, Pitch : -17.06, Yaw : 47.9, Alt : 49.2999992371, Lat : 49.2836681, Lng : -123.1148595, Q1 : 0.903910815716, Q2 : 0.0580682307482, Q3 : -0.136552304029, Q4 : 0.401156812906}
2019-04-14 17:37:05.01: SIM {TimeUS : 60434983, Roll : -0.3, Pitch : -17.09, Yaw : 47.94, Alt : 49.2999992371, Lat : 49.2836706, Lng : -123.1148551, Q1 : 0.903735101223, Q2 : 0.0579649396241, Q3 : -0.136918798089, Q4 : 0.401442587376}
2019-04-14 17:37:05.11: SIM {TimeUS : 60534943, Roll : -0.29, Pitch : -17.13, Yaw : 47.94, Alt : 49.2999992371, Lat : 49.2836732, Lng : -123.1148507, Q1 : 0.903713583946, Q2 : 0.0581934563816, Q3 : -0.137133359909, Q4 : 0.401384890079}
2019-04-14 17:37:05.21: SIM {TimeUS : 60634903, Roll : -0.22, Pitch : -17.16, Yaw : 47.89, Alt : 49.2999992371, Lat : 49.2836759, Lng : -123.1148464, Q1 : 0.903815150261, Q2 : 0.058780990541, Q3 : -0.13721960783, Q4 : 0.401040822268}
2019-04-14 17:37:05.31: SIM {TimeUS : 60734863, Roll : -0.12, Pitch : -17.21, Yaw : 47.8, Alt : 49.2999992371, Lat : 49.2836785, Lng : -123.1148418, Q1 : 0.90400904417, Q2 : 0.0596297122538, Q3 : -0.13723179698, Q4 : 0.400474011898}
2019-04-14 17:37:05.41: SIM {TimeUS : 60834823, Roll : -0.02, Pitch : -17.24, Yaw : 47.7, Alt : 49.2999992371, Lat : 49.2836811, Lng : -123.1148375, Q1 : 0.904286026955, Q2 : 0.0603937208652, Q3 : -0.137200713158, Q4 : 0.39974412322}
2019-04-14 17:37:05.51: SIM {TimeUS : 60934783, Roll : 0.04, Pitch : -17.25, Yaw : 47.58, Alt : 49.2999992371, Lat : 49.2836838, Lng : -123.1148331, Q1 : 0.904619932175, Q2 : 0.0608771145344, Q3 : -0.137124463916, Q4 : 0.398940652609}
2019-04-14 17:37:05.61: SIM {TimeUS : 61034743, Roll : 0.08, Pitch : -17.26, Yaw : 47.48, Alt : 49.3100013733, Lat : 49.2836864, Lng : -123.1148286, Q1 : 0.904957592487, Q2 : 0.0611397214234, Q3 : -0.137086614966, Q4 : 0.398146986961}
2019-04-14 17:37:05.71: SIM {TimeUS : 61134703, Roll : 0.12, Pitch : -17.27, Yaw : 47.38, Alt : 49.3100013733, Lat : 49.283689, Lng : -123.1148241, Q1 : 0.905256092548, Q2 : 0.0613644048572, Q3 : -0.137079253793, Q4 : 0.397435635328}
2019-04-14 17:37:05.81: SIM {TimeUS : 61234663, Roll : 0.16, Pitch : -17.29, Yaw : 47.3, Alt : 49.3100013733, Lat : 49.2836918, Lng : -123.1148196, Q1 : 0.905478477478, Q2 : 0.0616020299494, Q3 : -0.137186169624, Q4 : 0.396854996681}
2019-04-14 17:37:05.91: SIM {TimeUS : 61334623, Roll : 0.19, Pitch : -17.34, Yaw : 47.25, Alt : 49.3100013733, Lat : 49.2836944, Lng : -123.1148151, Q1 : 0.905590951443, Q2 : 0.0619541145861, Q3 : -0.137436076999, Q4 : 0.396456837654}
2019-04-14 17:37:06.02: SIM {TimeUS : 61435416, Roll : 0.21, Pitch : -17.39, Yaw : 47.22, Alt : 49.3100013733, Lat : 49.2836972, Lng : -123.1148105, Q1 : 0.905612051487, Q2 : 0.0623069182038, Q3 : -0.137830391526, Q4 : 0.396216392517}
2019-04-14 17:37:06.11: SIM {TimeUS : 61535376, Roll : 0.21, Pitch : -17.42, Yaw : 47.21, Alt : 49.3100013733, Lat : 49.2836998, Lng : -123.1148059, Q1 : 0.905612051487, Q2 : 0.0624009184539, Q3 : -0.138048157096, Q4 : 0.396125763655}
2019-04-14 17:37:06.21: SIM {TimeUS : 61635336, Roll : 0.2, Pitch : -17.42, Yaw : 47.22, Alt : 49.3100013733, Lat : 49.2837027, Lng : -123.1148014, Q1 : 0.905596256256, Q2 : 0.0622933804989, Q3 : -0.138069391251, Q4 : 0.396171450615}
2019-04-14 17:37:06.31: SIM {TimeUS : 61735296, Roll : 0.18, Pitch : -17.42, Yaw : 47.24, Alt : 49.3100013733, Lat : 49.2837053, Lng : -123.1147968, Q1 : 0.905553638935, Q2 : 0.0621129795909, Q3 : -0.138125658035, Q4 : 0.39627763629}
2019-04-14 17:37:06.41: SIM {TimeUS : 61835256, Roll : 0.13, Pitch : -17.43, Yaw : 47.26, Alt : 49.3100013733, Lat : 49.2837081, Lng : -123.1147922, Q1 : 0.905481040478, Q2 : 0.0618640966713, Q3 : -0.138408377767, Q4 : 0.396383732557}
2019-04-14 17:37:06.51: SIM {TimeUS : 61935216, Roll : 0.1, Pitch : -17.46, Yaw : 47.28, Alt : 49.3100013733, Lat : 49.2837108, Lng : -123.1147876, Q1 : 0.905401051044, Q2 : 0.0617235824466, Q3 : -0.138681560755, Q4 : 0.39649283886}
2019-04-14 17:37:06.61: SIM {TimeUS : 62035176, Roll : 0.07, Pitch : -17.49, Yaw : 47.29, Alt : 49.3100013733, Lat : 49.2837136, Lng : -123.1147829, Q1 : 0.905326545238, Q2 : 0.0616291314363, Q3 : -0.139046415687, Q4 : 0.396549880505}
2019-04-14 17:37:06.71: SIM {TimeUS : 62135136, Roll : 0.05, Pitch : -17.52, Yaw : 47.3, Alt : 49.3199996948, Lat : 49.2837163, Lng : -123.1147783, Q1 : 0.905283391476, Q2 : 0.0615785196424, Q3 : -0.139314904809, Q4 : 0.39656201005}
2019-04-14 17:37:06.81: SIM {TimeUS : 62235096, Roll : 0.06, Pitch : -17.54, Yaw : 47.3, Alt : 49.3199996948, Lat : 49.2837191, Lng : -123.1147737, Q1 : 0.905257880688, Q2 : 0.0616735219955, Q3 : -0.139512643218, Q4 : 0.396535992622}
2019-04-14 17:37:06.91: SIM {TimeUS : 62335056, Roll : 0.07, Pitch : -17.55, Yaw : 47.29, Alt : 49.3199996948, Lat : 49.2837218, Lng : -123.114769, Q1 : 0.905267596245, Q2 : 0.0618278793991, Q3 : -0.139545112848, Q4 : 0.396478384733}
2019-04-14 17:37:07.01: SIM {TimeUS : 62435016, Roll : 0.1, Pitch : -17.57, Yaw : 47.27, Alt : 49.3199996948, Lat : 49.2837247, Lng : -123.1147643, Q1 : 0.905284225941, Q2 : 0.062071364373, Q3 : -0.139576360583, Q4 : 0.396391302347}
2019-04-14 17:37:07.11: SIM {TimeUS : 62534976, Roll : 0.12, Pitch : -17.59, Yaw : 47.25, Alt : 49.3199996948, Lat : 49.2837273, Lng : -123.1147597, Q1 : 0.905309855938, Q2 : 0.0623346343637, Q3 : -0.139691114426, Q4 : 0.396250993013}
2019-04-14 17:37:07.21: SIM {TimeUS : 62634936, Roll : 0.13, Pitch : -17.63, Yaw : 47.23, Alt : 49.3199996948, Lat : 49.2837302, Lng : -123.114755, Q1 : 0.905349195004, Q2 : 0.062495213002, Q3 : -0.139970242977, Q4 : 0.39603728056}
2019-04-14 17:37:07.31: SIM {TimeUS : 62734896, Roll : 0.12, Pitch : -17.67, Yaw : 47.2, Alt : 49.3199996948, Lat : 49.283733, Lng : -123.1147503, Q1 : 0.90539675951, Q2 : 0.0625413283706, Q3 : -0.140367329121, Q4 : 0.395780682564}
2019-04-14 17:37:07.41: SIM {TimeUS : 62834856, Roll : 0.11, Pitch : -17.72, Yaw : 47.17, Alt : 49.3199996948, Lat : 49.2837357, Lng : -123.1147456, Q1 : 0.905449926853, Q2 : 0.0625573322177, Q3 : -0.140772029757, Q4 : 0.395512640476}
2019-04-14 17:37:07.51: SIM {TimeUS : 62934816, Roll : 0.12, Pitch : -17.75, Yaw : 47.14, Alt : 49.3199996948, Lat : 49.2837386, Lng : -123.1147409, Q1 : 0.905509471893, Q2 : 0.0626917853951, Q3 : -0.140973553061, Q4 : 0.395283281803}
2019-04-14 17:37:07.61: SIM {TimeUS : 63034776, Roll : 0.13, Pitch : -17.75, Yaw : 47.11, Alt : 49.3199996948, Lat : 49.2837415, Lng : -123.114736, Q1 : 0.905592739582, Q2 : 0.0627619028091, Q3 : -0.140969470143, Q4 : 0.395082712173}
2019-04-14 17:37:07.71: SIM {TimeUS : 63134736, Roll : 0.15, Pitch : -17.73, Yaw : 47.09, Alt : 49.3199996948, Lat : 49.2837442, Lng : -123.1147314, Q1 : 0.905681490898, Q2 : 0.0628352537751, Q3 : -0.140785500407, Q4 : 0.394933223724}
2019-04-14 17:37:07.81: SIM {TimeUS : 63234696, Roll : 0.16, Pitch : -17.71, Yaw : 47.07, Alt : 49.3199996948, Lat : 49.2837471, Lng : -123.1147266, Q1 : 0.905757129192, Q2 : 0.0628085061908, Q3 : -0.140638872981, Q4 : 0.394816219807}
2019-04-14 17:37:07.91: SIM {TimeUS : 63334656, Roll : 0.17, Pitch : -17.7, Yaw : 47.06, Alt : 49.3199996948, Lat : 49.2837498, Lng : -123.1147219, Q1 : 0.905821859837, Q2 : 0.0627988055348, Q3 : -0.140475913882, Q4 : 0.394727259874}
2019-04-14 17:37:08.01: SIM {TimeUS : 63434616, Roll : 0.17, Pitch : -17.68, Yaw : 47.05, Alt : 49.3199996948, Lat : 49.2837527, Lng : -123.1147171, Q1 : 0.905870676041, Q2 : 0.0627637580037, Q3 : -0.140362083912, Q4 : 0.39466124773}
2019-04-14 17:37:08.11: SIM {TimeUS : 63535409, Roll : 0.17, Pitch : -17.69, Yaw : 47.04, Alt : 49.3199996948, Lat : 49.2837556, Lng : -123.1147123, Q1 : 0.905887901783, Q2 : 0.0627517774701, Q3 : -0.1404517591, Q4 : 0.394591778517}
2019-04-14 17:37:08.21: SIM {TimeUS : 63635369, Roll : 0.16, Pitch : -17.71, Yaw : 47.04, Alt : 49.3199996948, Lat : 49.2837585, Lng : -123.1147075, Q1 : 0.905890226364, Q2 : 0.0627863705158, Q3 : -0.140606015921, Q4 : 0.394525945187}
2019-04-14 17:37:08.31: SIM {TimeUS : 63735329, Roll : 0.15, Pitch : -17.76, Yaw : 47.03, Alt : 49.3300018311, Lat : 49.2837612, Lng : -123.1147027, Q1 : 0.905862092972, Q2 : 0.0628291890025, Q3 : -0.141021981835, Q4 : 0.394435286522}
2019-04-14 17:37:08.41: SIM {TimeUS : 63835289, Roll : 0.14, Pitch : -17.81, Yaw : 47.02, Alt : 49.3300018311, Lat : 49.2837642, Lng : -123.1146979, Q1 : 0.905825018883, Q2 : 0.0629225745797, Q3 : -0.14147785306, Q4 : 0.394342213869}
2019-04-14 17:37:08.51: SIM {TimeUS : 63935249, Roll : 0.14, Pitch : -17.85, Yaw : 47.02, Alt : 49.3300018311, Lat : 49.2837671, Lng : -123.1146931, Q1 : 0.905802190304, Q2 : 0.0630632266402, Q3 : -0.141761884093, Q4 : 0.394270211458}
2019-04-14 17:37:08.61: SIM {TimeUS : 64035209, Roll : 0.14, Pitch : -17.88, Yaw : 47.01, Alt : 49.3300018311, Lat : 49.2837698, Lng : -123.1146883, Q1 : 0.905790507793, Q2 : 0.063164152205, Q3 : -0.142023846507, Q4 : 0.394186615944}
2019-04-14 17:37:08.71: SIM {TimeUS : 64135169, Roll : 0.14, Pitch : -17.9, Yaw : 47.0, Alt : 49.3300018311, Lat : 49.2837728, Lng : -123.1146835, Q1 : 0.905800640583, Q2 : 0.0631930008531, Q3 : -0.142200142145, Q4 : 0.394095122814}
2019-04-14 17:37:08.81: SIM {TimeUS : 64235129, Roll : 0.15, Pitch : -17.89, Yaw : 46.99, Alt : 49.3300018311, Lat : 49.2837757, Lng : -123.1146787, Q1 : 0.905840754509, Q2 : 0.0632447525859, Q3 : -0.142128065228, Q4 : 0.394020617008}
2019-04-14 17:37:08.91: SIM {TimeUS : 64335089, Roll : 0.17, Pitch : -17.9, Yaw : 46.97, Alt : 49.3300018311, Lat : 49.2837784, Lng : -123.1146738, Q1 : 0.905867874622, Q2 : 0.0634196028113, Q3 : -0.142115905881, Q4 : 0.393934547901}
2019-04-14 17:37:09.01: SIM {TimeUS : 64435049, Roll : 0.18, Pitch : -17.92, Yaw : 46.96, Alt : 49.3300018311, Lat : 49.2837813, Lng : -123.114669, Q1 : 0.905890643597, Q2 : 0.0635230392218, Q3 : -0.142232239246, Q4 : 0.393823623657}
2019-04-14 17:37:09.11: SIM {TimeUS : 64535009, Roll : 0.19, Pitch : -17.93, Yaw : 46.94, Alt : 49.3300018311, Lat : 49.2837843, Lng : -123.1146642, Q1 : 0.905919790268, Q2 : 0.0636075511575, Q3 : -0.142302662134, Q4 : 0.393717348576}
2019-04-14 17:37:09.21: SIM {TimeUS : 64634969, Roll : 0.2, Pitch : -17.93, Yaw : 46.93, Alt : 49.3300018311, Lat : 49.2837872, Lng : -123.1146593, Q1 : 0.905966997147, Q2 : 0.0636563897133, Q3 : -0.142249211669, Q4 : 0.393620163202}
2019-04-14 17:37:09.31: SIM {TimeUS : 64734929, Roll : 0.2, Pitch : -17.92, Yaw : 46.92, Alt : 49.3300018311, Lat : 49.2837901, Lng : -123.1146545, Q1 : 0.90601682663, Q2 : 0.0636406242847, Q3 : -0.142233267426, Q4 : 0.393513798714}
2019-04-14 17:37:09.41: SIM {TimeUS : 64834889, Roll : 0.18, Pitch : -17.94, Yaw : 46.9, Alt : 49.3300018311, Lat : 49.2837929, Lng : -123.1146496, Q1 : 0.906050920486, Q2 : 0.0635209828615, Q3 : -0.142447948456, Q4 : 0.393376886845}
2019-04-14 17:37:09.51: SIM {TimeUS : 64934849, Roll : 0.14, Pitch : -17.98, Yaw : 46.89, Alt : 49.3300018311, Lat : 49.2837959, Lng : -123.1146447, Q1 : 0.906067788601, Q2 : 0.0633459985256, Q3 : -0.142876774073, Q4 : 0.3932107687}
2019-04-14 17:37:09.61: SIM {TimeUS : 65034809, Roll : 0.12, Pitch : -17.98, Yaw : 46.88, Alt : 49.3300018311, Lat : 49.2837988, Lng : -123.1146399, Q1 : 0.906113684177, Q2 : 0.0632120519876, Q3 : -0.142989993095, Q4 : 0.39308527112}
2019-04-14 17:37:09.71: SIM {TimeUS : 65134769, Roll : 0.13, Pitch : -17.97, Yaw : 46.87, Alt : 49.3300018311, Lat : 49.2838017, Lng : -123.114635, Q1 : 0.906167149544, Q2 : 0.0632260218263, Q3 : -0.142857402563, Q4 : 0.39300814271}
2019-04-14 17:37:09.81: SIM {TimeUS : 65234729, Roll : 0.16, Pitch : -17.96, Yaw : 46.85, Alt : 49.3400001526, Lat : 49.2838045, Lng : -123.1146301, Q1 : 0.906208693981, Q2 : 0.0633485689759, Q3 : -0.142704308033, Q4 : 0.392948180437}
2019-04-14 17:37:09.91: SIM {TimeUS : 65334689, Roll : 0.17, Pitch : -17.97, Yaw : 46.84, Alt : 49.3400001526, Lat : 49.2838074, Lng : -123.1146252, Q1 : 0.906225562096, Q2 : 0.0635080561042, Q3 : -0.142725020647, Q4 : 0.392876058817}
2019-04-14 17:37:10.01: SIM {TimeUS : 65434649, Roll : 0.17, Pitch : -17.99, Yaw : 46.83, Alt : 49.3400001526, Lat : 49.2838105, Lng : -123.1146204, Q1 : 0.906233727932, Q2 : 0.0635239109397, Q3 : -0.142938882113, Q4 : 0.392776757479}
2019-04-14 17:37:10.12: SIM {TimeUS : 65535442, Roll : 0.14, Pitch : -18.02, Yaw : 46.82, Alt : 49.3400001526, Lat : 49.2838134, Lng : -123.1146154, Q1 : 0.906247258186, Q2 : 0.0633805245161, Q3 : -0.143242001534, Q4 : 0.392658412457}
2019-04-14 17:37:10.21: SIM {TimeUS : 65635402, Roll : 0.12, Pitch : -18.04, Yaw : 46.81, Alt : 49.3400001526, Lat : 49.2838163, Lng : -123.1146105, Q1 : 0.906266689301, Q2 : 0.0633098632097, Q3 : -0.143436208367, Q4 : 0.392553955317}
2019-04-14 17:37:10.31: SIM {TimeUS : 65735362, Roll : 0.13, Pitch : -18.05, Yaw : 46.8, Alt : 49.3400001526, Lat : 49.2838193, Lng : -123.1146056, Q1 : 0.906282365322, Q2 : 0.0633683875203, Q3 : -0.14355713129, Q4 : 0.392464101315}
2019-04-14 17:37:10.41: SIM {TimeUS : 65835322, Roll : 0.14, Pitch : -18.06, Yaw : 46.79, Alt : 49.3400001526, Lat : 49.2838221, Lng : -123.1146007, Q1 : 0.906296789646, Q2 : 0.0634798780084, Q3 : -0.143624559045, Q4 : 0.392388164997}
2019-04-14 17:37:10.51: SIM {TimeUS : 65935282, Roll : 0.16, Pitch : -18.07, Yaw : 46.78, Alt : 49.3400001526, Lat : 49.283825, Lng : -123.1145958, Q1 : 0.906306803226, Q2 : 0.0636900886893, Q3 : -0.143615365028, Q4 : 0.392334252596}
2019-04-14 17:37:10.61: SIM {TimeUS : 66035242, Roll : 0.18, Pitch : -18.08, Yaw : 46.77, Alt : 49.3400001526, Lat : 49.2838281, Lng : -123.1145909, Q1 : 0.9063128829, Q2 : 0.0638647377491, Q3 : -0.143652752042, Q4 : 0.39227822423}
2019-04-14 17:37:10.71: SIM {TimeUS : 66135202, Roll : 0.2, Pitch : -18.1, Yaw : 46.77, Alt : 49.3400001526, Lat : 49.283831, Lng : -123.114586, Q1 : 0.906311869621, Q2 : 0.0640567317605, Q3 : -0.143712058663, Q4 : 0.392227500677}
2019-04-14 17:37:10.81: SIM {TimeUS : 66235162, Roll : 0.22, Pitch : -18.11, Yaw : 46.76, Alt : 49.3400001526, Lat : 49.2838339, Lng : -123.1145811, Q1 : 0.906306862831, Q2 : 0.0642647072673, Q3 : -0.143765255809, Q4 : 0.392185539007}
2019-04-14 17:37:10.91: SIM {TimeUS : 66335122, Roll : 0.25, Pitch : -18.13, Yaw : 46.75, Alt : 49.3400001526, Lat : 49.2838369, Lng : -123.1145761, Q1 : 0.906297981739, Q2 : 0.064523793757, Q3 : -0.143762588501, Q4 : 0.392164379358}
2019-04-14 17:37:11.01: SIM {TimeUS : 66435082, Roll : 0.28, Pitch : -18.14, Yaw : 46.75, Alt : 49.3499984741, Lat : 49.2838397, Lng : -123.1145713, Q1 : 0.906284213066, Q2 : 0.0647806450725, Q3 : -0.143774911761, Q4 : 0.392149358988}
