2019-04-14 16:47:54.80: SIM {TimeUS : 40816167, Roll : 0.0, Pitch : 0.0, Yaw : 0.0, Alt : 30.1000003815, Lat : 49.28357, Lng : -123.11502, Q1 : 1.0, Q2 : 0.0, Q3 : 0.0, Q4 : 0.0}
2019-04-14 16:47:54.91: SIM {TimeUS : 40935286, Roll : 0.0, Pitch : 0.0, Yaw : 0.0, Alt : 30.1000003815, Lat : 49.28357, Lng : -123.11502, Q1 : 1.0, Q2 : 0.0, Q3 : 0.0, Q4 : 0.0}
2019-04-14 16:47:55.01: SIM {TimeUS : 41035246, Roll : 0.0, Pitch : 0.0, Yaw : 0.0, Alt : 30.1000003815, Lat : 49.28357, Lng : -123.11502, Q1 : 1.0, Q2 : 0.0, Q3 : 0.0, Q4 : 0.0}
2019-04-14 16:47:55.11: SIM {TimeUS : 41135206, Roll : 0.0, Pitch : 0.0, Yaw : 0.0, Alt : 30.1000003815, Lat : 49.28357, Lng : -123.11502, Q1 : 1.0, Q2 : 0.0, Q3 : 0.0, Q4 : 0.0}
2019-04-14 16:47:55.21: SIM {TimeUS : 41235166, Roll : 0.0, Pitch : 0.0, Yaw : 0.0, Alt : 30.1000003815, Lat : 49.28357, Lng : -123.11502, Q1 : 1.0, Q2 : 0.0, Q3 : 0.0, Q4 : 0.0}
2019-04-14 16:47:55.31: SIM {TimeUS : 41335126, Roll : 0.0, Pitch : 0.0, Yaw : 0.0, Alt : 30.1000003815, Lat : 49.28357, Lng : -123.11502, Q1 : 1.0, Q2 : 0.0, Q3 : 0.0, Q4 : 0.0}
2019-04-14 16:47:55.41: SIM {TimeUS : 41435086, Roll : 0.0, Pitch : 0.0, Yaw : 0.0, Alt : 30.1000003815, Lat : 49.28357, Lng : -123.11502, Q1 : 1.0, Q2 : 0.0, Q3 : 0.0, Q4 : 0.0}
2019-04-14 16:47:55.51: SIM {TimeUS : 41535046, Roll : 0.0, Pitch : 0.0, Yaw : 0.0, Alt : 30.1000003815, Lat : 49.28357, Lng : -123.11502, Q1 : 1.0, Q2 : 0.0, Q3 : 0.0, Q4 : 0.0}
2019-04-14 16:47:55.61: SIM {TimeUS : 41635006, Roll : 0.0, Pitch : 0.0, Yaw : 0.0, Alt : 30.1000003815, Lat : 49.28357, Lng : -123.11502, Q1 : 1.0, Q2 : 0.0, Q3 : 0.0, Q4 : 0.0}
2019-04-14 16:47:55.71: SIM {TimeUS : 41734966, Roll : 0.0, Pitch : 0.0, Yaw : 0.0, Alt : 30.1000003815, Lat : 49.28357, Lng : -123.11502, Q1 : 1.0, Q2 : 0.0, Q3 : 0.0, Q4 : 0.0}
2019-04-14 16:47:55.81: SIM {TimeUS : 41834926, Roll : 0.0, Pitch : 0.0, Yaw : 0.0, Alt : 30.1000003815, Lat : 49.28357, Lng : -123.11502, Q1 : 1.0, Q2 : 0.0, Q3 : 0.0, Q4 : 0.0}
2019-04-14 16:47:55.91: SIM {TimeUS : 41934886, Roll : 0.0, Pitch : 0.0, Yaw : 0.0, Alt : 30.1000003815, Lat : 49.28357, Lng : -123.11502, Q1 : 1.0, Q2 : 0.0, Q3 : 0.0, Q4 : 0.0}
2019-04-14 16:47:56.01: SIM {TimeUS : 42034846, Roll : 0.0, Pitch : 0.0, Yaw : 0.0, Alt : 30.1000003815, Lat : 49.28357, Lng : -123.11502, Q1 : 1.0, Q2 : 0.0, Q3 : 0.0, Q4 : 0.0}
2019-04-14 16:47:56.11: SIM {TimeUS : 42134806, Roll : 0.0, Pitch : 0.0, Yaw : 0.0, Alt : 30.1000003815, Lat : 49.28357, Lng : -123.11502, Q1 : 1.0, Q2 : 0.0, Q3 : 0.0, Q4 : 0.0}
2019-04-14 16:47:56.21: SIM {TimeUS : 42234766, Roll : 0.0, Pitch : 0.0, Yaw : 0.0, Alt : 30.1000003815, Lat : 49.28357, Lng : -123.11502, Q1 : 1.0, Q2 : 0.0, Q3 : 0.0, Q4 : 0.0}
2019-04-14 16:47:56.31: SIM {TimeUS : 42334726, Roll : 0.0, Pitch : 0.0, Yaw : 0.0, Alt : 30.1000003815, Lat : 49.28357, Lng : -123.11502, Q1 : 1.0, Q2 : 0.0, Q3 : 0.0, Q4 : 0.0}
2019-04-14 16:47:56.41: SIM {TimeUS : 42434686, Roll : 0.0, Pitch : 0.0, Yaw : 0.0, Alt : 30.1000003815, Lat : 49.28357, Lng : -123.11502, Q1 : 1.0, Q2 : 0.0, Q3 : 0.0, Q4 : 0.0}
2019-04-14 16:47:56.51: SIM {TimeUS : 42534646, Roll : 0.0, Pitch : 0.0, Yaw : 0.0, Alt : 30.1000003815, Lat : 49.28357, Lng : -123.11502, Q1 : 1.0, Q2 : 0.0, Q3 : 0.0, Q4 : 0.0}
2019-04-14 16:47:56.61: SIM {TimeUS : 42634606, Roll : 0.0, Pitch : 0.0, Yaw : 0.0, Alt : 30.1000003815, Lat : 49.28357, Lng : -123.11502, Q1 : 1.0, Q2 : 0.0, Q3 : 0.0, Q4 : 0.0}
2019-04-14 16:47:56.71: SIM {TimeUS : 42734566, Roll : 0.0, Pitch : 0.0, Yaw : 0.0, Alt : 30.1000003815, Lat : 49.28357, Lng : -123.11502, Q1 : 1.0, Q2 : 0.0, Q3 : 0.0, Q4 : 0.0}
2019-04-14 16:47:56.81: SIM {TimeUS : 42834526, Roll : 0.0, Pitch : 0.0, Yaw : 0.0, Alt : 30.1000003815, Lat : 49.28357, Lng : -123.11502, Q1 : 1.0, Q2 : 0.0, Q3 : 0.0, Q4 : 0.0}
2019-04-14 16:47:56.91: SIM {TimeUS : 42935319, Roll : 0.0, Pitch : 0.0, Yaw : 0.0, Alt : 30.1000003815, Lat : 49.28357, Lng : -123.11502, Q1 : 1.0, Q2 : 0.0, Q3 : 0.0, Q4 : 0.0}
2019-04-14 16:47:57.01: SIM {TimeUS : 43035279, Roll : 0.0, Pitch : 0.0, Yaw : 0.0, Alt : 30.1000003815, Lat : 49.28357, Lng : -123.11502, Q1 : 1.0, Q2 : 0.0, Q3 : 0.0, Q4 : 0.0}
2019-04-14 16:47:57.11: SIM {TimeUS : 43135239, Roll : 0.0, Pitch : 0.0, Yaw : 360.0, Alt : 30.1000003815, Lat : 49.28357, Lng : -123.11502, Q1 : 1.0, Q2 : 0.0, Q3 : 0.0, Q4 : -1.30378364355e-11}
2019-04-14 16:47:57.21: SIM {TimeUS : 43235199, Roll : 0.0, Pitch : 0.0, Yaw : 360.0, Alt : 30.1000003815, Lat : 49.28357, Lng : -123.11502, Q1 : 1.0, Q2 : 0.0, Q3 : 0.0, Q4 : -1.61347042393e-08}
2019-04-14 16:47:57.31: SIM {TimeUS : 43335159, Roll : 0.0, Pitch : 0.0, Yaw : 359.99, Alt : 30.1000003815, Lat : 49.28357, Lng : -123.11502, Q1 : 1.0, Q2 : 0.0, Q3 : 0.0, Q4 : -2.17456644691e-07}
2019-04-14 16:47:57.41: SIM {TimeUS : 43435119, Roll : 0.0, Pitch : 0.0, Yaw : 359.99, Alt : 30.1000003815, Lat : 49.28357, Lng : -123.11502, Q1 : 1.0, Q2 : 0.0, Q3 : 0.0, Q4 : -4.08245000472e-07}
2019-04-14 16:47:57.51: SIM {TimeUS : 43535079, Roll : 0.0, Pitch : 0.0, Yaw : 359.99, Alt : 30.1000003815, Lat : 49.28357, Lng : -123.11502, Q1 : 1.0, Q2 : 0.0, Q3 : 0.0, Q4 : -6.2887426111e-07}
2019-04-14 16:47:57.61: SIM {TimeUS : 43635039, Roll : 0.0, Pitch : 0.0, Yaw : 359.99, Alt : 30.1000003815, Lat : 49.28357, Lng : -123.11502, Q1 : 1.0, Q2 : 0.0, Q3 : 0.0, Q4 : -8.22874199002e-07}
2019-04-14 16:47:57.71: SIM {TimeUS : 43734999, Roll : 0.0, Pitch : 0.0, Yaw : 359.99, Alt : 30.1000003815, Lat : 49.28357, Lng : -123.11502, Q1 : 1.0, Q2 : 0.0, Q3 : 0.0, Q4 : -9.87423618426e-07}
2019-04-14 16:47:57.81: SIM {TimeUS : 43834959, Roll : 0.0, Pitch : 0.0, Yaw : 359.99, Alt : 30.1000003815, Lat : 49.28357, Lng : -123.11502, Q1 : 1.0, Q2 : 0.0, Q3 : 0.0, Q4 : -1.17165325264e-06}
2019-04-14 16:47:57.91: SIM {TimeUS : 43934919, Roll : 0.0, Pitch : 0.0, Yaw : 359.99, Alt : 30.1000003815, Lat : 49.28357, Lng : -123.11502, Q1 : 1.0, Q2 : 0.0, Q3 : 0.0, Q4 : -1.340172048e-06}
2019-04-14 16:47:58.01: SIM {TimeUS : 44034879, Roll : 0.0, Pitch : 0.0, Yaw : 359.99, Alt : 30.1200008392, Lat : 49.28357, Lng : -123.11502, Q1 : 1.0, Q2 : 0.0, Q3 : 0.0, Q4 : -1.5318800024e-06}
2019-04-14 16:47:58.11: SIM {TimeUS : 44134839, Roll : 0.0, Pitch : 0.0, Yaw : 359.99, Alt : 30.1499996185, Lat : 49.28357, Lng : -123.11502, Q1 : 1.0, Q2 : 0.0, Q3 : 0.0, Q4 : -1.78650645921e-06}
2019-04-14 16:47:58.21: SIM {TimeUS : 44234799, Roll : 0.0, Pitch : 0.0, Yaw : 359.99, Alt : 30.1800003052, Lat : 49.28357, Lng : -123.11502, Q1 : 1.0, Q2 : 0.0, Q3 : 0.0, Q4 : -2.01339639716e-06}
2019-04-14 16:47:58.31: SIM {TimeUS : 44334759, Roll : 0.0, Pitch : 0.0, Yaw : 359.99, Alt : 30.2099990845, Lat : 49.28357, Lng : -123.11502, Q1 : 1.0, Q2 : -7.32536864234e-06, Q3 : -7.54407938075e-06, Q4 : -2.13798330151e-06}
2019-04-14 16:47:58.41: SIM {TimeUS : 44434719, Roll : -0.16, Pitch : -0.16, Yaw : 359.99, Alt : 30.2700004578, Lat : 49.28357, Lng : -123.11502, Q1 : 0.999998033047, Q2 : -0.00141344871372, Q3 : -0.00140334875323, Q4 : -1.8710783479e-05}
2019-04-14 16:47:58.51: SIM {TimeUS : 44534679, Roll : -0.47, Pitch : -0.4, Yaw : 359.99, Alt : 30.3899993896, Lat : 49.28357, Lng : -123.11502, Q1 : 0.999985039234, Q2 : -0.0041393567808, Q3 : -0.00357347540557, Q4 : -6.35481337667e-05}
2019-04-14 16:47:58.61: SIM {TimeUS : 44634639, Roll : -0.76, Pitch : -0.6, Yaw : 359.98, Alt : 30.5400009155, Lat : 49.28357, Lng : -123.11502, Q1 : 0.999964237213, Q2 : -0.0066374768503, Q3 : -0.00523554999381, Q4 : -0.000126663973788}
2019-04-14 16:47:58.71: SIM {TimeUS : 44734599, Roll : -0.88, Pitch : -0.68, Yaw : 359.98, Alt : 30.7000007629, Lat : 49.28357, Lng : -123.11502, Q1 : 0.999952197075, Q2 : -0.00774323800579, Q3 : -0.00596586894244, Q4 : -0.000202577095479}
2019-04-14 16:47:58.81: SIM {TimeUS : 44834559, Roll : -0.82, Pitch : -0.65, Yaw : 359.97, Alt : 30.8500003815, Lat : 49.28357, Lng : -123.11502, Q1 : 0.999957442284, Q2 : -0.00724360113963, Q3 : -0.00570919178426, Q4 : -0.000284002366243}
2019-04-14 16:47:58.91: SIM {TimeUS : 44934519, Roll : -0.64, Pitch : -0.53, Yaw : 359.96, Alt : 31.0100002289, Lat : 49.28357, Lng : -123.1150201, Q1 : 0.999973416328, Q2 : -0.00559131149203, Q3 : -0.00467181997374, Q4 : -0.00035899161594}
2019-04-14 16:47:59.01: SIM {TimeUS : 45035312, Roll : -0.38, Pitch : -0.36, Yaw : 359.95, Alt : 31.1599998474, Lat : 49.2835701, Lng : -123.1150202, Q1 : 0.999989151955, Q2 : -0.00337084778585, Q3 : -0.00318448361941, Q4 : -0.000420374359237}
2019-04-14 16:47:59.11: SIM {TimeUS : 45135272, Roll : -0.14, Pitch : -0.19, Yaw : 359.94, Alt : 31.3299999237, Lat : 49.2835701, Lng : -123.1150203, Q1 : 0.999997675419, Q2 : -0.00128622236662, Q3 : -0.00166951981373, Q4 : -0.000464836863102}
2019-04-14 16:47:59.21: SIM {TimeUS : 45235232, Roll : 0.01, Pitch : -0.04, Yaw : 359.94, Alt : 31.5, Lat : 49.2835702, Lng : -123.1150203, Q1 : 0.999999821186, Q2 : 0.000143886776641, Q3 : -0.000367838016246, Q4 : -0.000494114763569}
2019-04-14 16:47:59.31: SIM {TimeUS : 45335192, Roll : 0.08, Pitch : 0.06, Yaw : 359.94, Alt : 31.6700000763, Lat : 49.2835702, Lng : -123.1150204, Q1 : 0.999999403954, Q2 : 0.000770473619923, Q3 : 0.000547949690372, Q4 : -0.000511013146024}
2019-04-14 16:47:59.41: SIM {TimeUS : 45435152, Roll : 0.07, Pitch : 0.11, Yaw : 359.94, Alt : 31.8500003815, Lat : 49.2835703, Lng : -123.1150205, Q1 : 0.99999910593, Q2 : 0.000693641253747, Q3 : 0.001008937601, Q4 : -0.000517842592672}
2019-04-14 16:47:59.51: SIM {TimeUS : 45535112, Roll : 0.05, Pitch : 0.13, Yaw : 359.93, Alt : 32.0400009155, Lat : 49.2835703, Lng : -123.1150205, Q1 : 0.999998986721, Q2 : 0.0004968806752, Q3 : 0.00118867878336, Q4 : -0.000528771954123}
2019-04-14 16:47:59.61: SIM {TimeUS : 45635072, Roll : 0.04, Pitch : 0.13, Yaw : 359.93, Alt : 32.2200012207, Lat : 49.2835703, Lng : -123.1150206, Q1 : 0.999999046326, Q2 : 0.000362945953384, Q3 : 0.00120910070837, Q4 : -0.000543147500139}
2019-04-14 16:47:59.71: SIM {TimeUS : 45735032, Roll : 0.03, Pitch : 0.14, Yaw : 359.93, Alt : 32.4199981689, Lat : 49.2835703, Lng : -123.1150206, Q1 : 0.999999046326, Q2 : 0.000298371596728, Q3 : 0.00122981925961, Q4 : -0.000554174592253}
2019-04-14 16:47:59.81: SIM {TimeUS : 45834992, Roll : 0.05, Pitch : 0.15, Yaw : 359.93, Alt : 32.6100006104, Lat : 49.2835703, Lng : -123.1150207, Q1 : 0.999998807907, Q2 : 0.000454210705357, Q3 : 0.00136156228837, Q4 : -0.000542925263289}
2019-04-14 16:47:59.91: SIM {TimeUS : 45934952, Roll : 0.08, Pitch : 0.14, Yaw : 359.94, Alt : 32.8100013733, Lat : 49.2835703, Lng : -123.1150207, Q1 : 0.999998748302, Q2 : 0.000745831639506, Q3 : 0.00128151138779, Q4 : -0.00052226887783}
2019-04-14 16:48:00.01: SIM {TimeUS : 46034912, Roll : 0.12, Pitch : 0.11, Yaw : 359.94, Alt : 33.0099983215, Lat : 49.2835704, Lng : -123.1150207, Q1 : 0.999998748302, Q2 : 0.00109568447806, Q3 : 0.00104345194995, Q4 : -0.000501509231981}
2019-04-14 16:48:00.11: SIM {TimeUS : 46134872, Roll : 0.16, Pitch : 0.1, Yaw : 359.94, Alt : 33.2099990845, Lat : 49.2835704, Lng : -123.1150208, Q1 : 0.999998450279, Q2 : 0.00142598059028, Q3 : 0.000896553159691, Q4 : -0.000484054500703}
2019-04-14 16:48:00.21: SIM {TimeUS : 46234832, Roll : 0.18, Pitch : 0.1, Yaw : 359.94, Alt : 33.4099998474, Lat : 49.2835704, Lng : -123.1150208, Q1 : 0.999998211861, Q2 : 0.00161263649352, Q3 : 0.000883820757736, Q4 : -0.000468407262815}
2019-04-14 16:48:00.31: SIM {TimeUS : 46334792, Roll : 0.19, Pitch : 0.11, Yaw : 359.94, Alt : 33.6199989319, Lat : 49.2835704, Lng : -123.1150208, Q1 : 0.999997913837, Q2 : 0.001702419715, Q3 : 0.00102158868685, Q4 : -0.000451979140053}
2019-04-14 16:48:00.41: SIM {TimeUS : 46434752, Roll : 0.18, Pitch : 0.12, Yaw : 359.94, Alt : 33.8300018311, Lat : 49.2835704, Lng : -123.1150208, Q1 : 0.999998033047, Q2 : 0.00161620962899, Q3 : 0.00108972308226, Q4 : -0.00044060946675}
2019-04-14 16:48:00.51: SIM {TimeUS : 46534712, Roll : 0.15, Pitch : 0.12, Yaw : 359.95, Alt : 34.0400009155, Lat : 49.2835704, Lng : -123.1150208, Q1 : 0.99999833107, Q2 : 0.00137531361543, Q3 : 0.001121731475, Q4 : -0.000430466752732}
2019-04-14 16:48:00.61: SIM {TimeUS : 46634672, Roll : 0.12, Pitch : 0.13, Yaw : 359.95, Alt : 34.25, Lat : 49.2835704, Lng : -123.1150208, Q1 : 0.999998629093, Q2 : 0.00110802648123, Q3 : 0.00114543701056, Q4 : -0.000428115832619}
2019-04-14 16:48:00.71: SIM {TimeUS : 46734632, Roll : 0.1, Pitch : 0.12, Yaw : 359.95, Alt : 34.4599990845, Lat : 49.2835704, Lng : -123.1150208, Q1 : 0.999998927116, Q2 : 0.000873382901773, Q3 : 0.00110667035915, Q4 : -0.000431854801718}
2019-04-14 16:48:00.81: SIM {TimeUS : 46834592, Roll : 0.08, Pitch : 0.08, Yaw : 359.94, Alt : 34.6699981689, Lat : 49.2835704, Lng : -123.1150208, Q1 : 0.999999284744, Q2 : 0.00078227231279, Q3 : 0.0007776330458, Q4 : -0.000457711343188}
2019-04-14 16:48:00.91: SIM {TimeUS : 46934552, Roll : 0.08, Pitch : 0.05, Yaw : 359.94, Alt : 34.8899993896, Lat : 49.2835704, Lng : -123.1150208, Q1 : 0.999999523163, Q2 : 0.000738914764952, Q3 : 0.000464582524728, Q4 : -0.000501331232954}
2019-04-14 16:48:01.01: SIM {TimeUS : 47034512, Roll : 0.06, Pitch : 0.03, Yaw : 359.93, Alt : 35.0999984741, Lat : 49.2835704, Lng : -123.1150207, Q1 : 0.999999582767, Q2 : 0.000609039096162, Q3 : 0.000306741247186, Q4 : -0.000550788303372}
2019-04-14 16:48:01.11: SIM {TimeUS : 47135305, Roll : 0.05, Pitch : 0.02, Yaw : 359.93, Alt : 35.3199996948, Lat : 49.2835704, Lng : -123.1150207, Q1 : 0.999999642372, Q2 : 0.000523499795236, Q3 : 0.000256245781202, Q4 : -0.000596966245212}
2019-04-14 16:48:01.21: SIM {TimeUS : 47235265, Roll : 0.05, Pitch : 0.02, Yaw : 359.92, Alt : 35.5400009155, Lat : 49.2835704, Lng : -123.1150207, Q1 : 0.999999642372, Q2 : 0.00051263946807, Q3 : 0.000216022293898, Q4 : -0.00063293450512}
2019-04-14 16:48:01.31: SIM {TimeUS : 47335225, Roll : 0.03, Pitch : 0.0, Yaw : 359.92, Alt : 35.7599983215, Lat : 49.2835704, Lng : -123.1150207, Q1 : 0.999999701977, Q2 : 0.000307781476295, Q3 : 2.53421021625e-05, Q4 : -0.000664955063257}
2019-04-14 16:48:01.41: SIM {TimeUS : 47435185, Roll : 0.0, Pitch : -0.03, Yaw : 359.92, Alt : 35.9799995422, Lat : 49.2835704, Lng : -123.1150207, Q1 : 0.999999701977, Q2 : -9.30918486119e-06, Q3 : -0.000284684094368, Q4 : -0.000693586887792}
2019-04-14 16:48:01.51: SIM {TimeUS : 47535145, Roll : -0.03, Pitch : -0.05, Yaw : 359.91, Alt : 36.2000007629, Lat : 49.2835704, Lng : -123.1150207, Q1 : 0.999999523163, Q2 : -0.000339909194736, Q3 : -0.000514382089023, Q4 : -0.000725170248188}
2019-04-14 16:48:01.61: SIM {TimeUS : 47635105, Roll : -0.07, Pitch : -0.07, Yaw : 359.91, Alt : 36.4199981689, Lat : 49.2835704, Lng : -123.1150207, Q1 : 0.999999344349, Q2 : -0.000613838143181, Q3 : -0.000639677920844, Q4 : -0.000755118322559}
2019-04-14 16:48:01.71: SIM {TimeUS : 47735065, Roll : -0.07, Pitch : -0.07, Yaw : 359.91, Alt : 36.6399993896, Lat : 49.2835704, Lng : -123.1150206, Q1 : 0.999999284744, Q2 : -0.000683257589117, Q3 : -0.000637988676317, Q4 : -0.000777240726165}
2019-04-14 16:48:01.81: SIM {TimeUS : 47835025, Roll : -0.08, Pitch : -0.07, Yaw : 359.9, Alt : 36.8699989319, Lat : 49.2835704, Lng : -123.1150206, Q1 : 0.999999284744, Q2 : -0.000704540987499, Q3 : -0.000610395334661, Q4 : -0.000795854080934}
2019-04-14 16:48:01.91: SIM {TimeUS : 47934985, Roll : -0.07, Pitch : -0.05, Yaw : 359.9, Alt : 37.0900001526, Lat : 49.2835704, Lng : -123.1150206, Q1 : 0.999999344349, Q2 : -0.000661205500364, Q3 : -0.000485710625071, Q4 : -0.000811821490061}
2019-04-14 16:48:02.01: SIM {TimeUS : 48034945, Roll : -0.06, Pitch : -0.04, Yaw : 359.9, Alt : 37.3199996948, Lat : 49.2835704, Lng : -123.1150206, Q1 : 0.999999403954, Q2 : -0.000577727449127, Q3 : -0.000409894535551, Q4 : -0.000820756424218}
2019-04-14 16:48:02.11: SIM {TimeUS : 48134905, Roll : -0.06, Pitch : -0.04, Yaw : 359.9, Alt : 37.5400009155, Lat : 49.2835704, Lng : -123.1150206, Q1 : 0.999999403954, Q2 : -0.000608032452874, Q3 : -0.000420103722718, Q4 : -0.000827656884212}
2019-04-14 16:48:02.21: SIM {TimeUS : 48234865, Roll : -0.07, Pitch : -0.03, Yaw : 359.9, Alt : 37.7700004578, Lat : 49.2835704, Lng : -123.1150206, Q1 : 0.999999403954, Q2 : -0.000690550019499, Q3 : -0.00028418621514, Q4 : -0.000838487234432}
2019-04-14 16:48:02.31: SIM {TimeUS : 48334825, Roll : -0.1, Pitch : -0.01, Yaw : 359.9, Alt : 37.9900016785, Lat : 49.2835704, Lng : -123.1150206, Q1 : 0.999999284744, Q2 : -0.000876116158906, Q3 : -0.000108379630547, Q4 : -0.000847450573929}
2019-04-14 16:48:02.41: SIM {TimeUS : 48434785, Roll : -0.1, Pitch : 0.0, Yaw : 359.9, Alt : 38.2200012207, Lat : 49.2835704, Lng : -123.1150206, Q1 : 0.99999922514, Q2 : -0.000890706491191, Q3 : 4.5424727432e-05, Q4 : -0.000849927484524}
2019-04-14 16:48:02.51: SIM {TimeUS : 48534745, Roll : -0.08, Pitch : 0.03, Yaw : 359.9, Alt : 38.4500007629, Lat : 49.2835704, Lng : -123.1150206, Q1 : 0.999999344349, Q2 : -0.000702421995811, Q3 : 0.000312050600769, Q4 : -0.000854936602991}
2019-04-14 16:48:02.61: SIM {TimeUS : 48634705, Roll : -0.05, Pitch : 0.03, Yaw : 359.9, Alt : 38.6800003052, Lat : 49.2835704, Lng : -123.1150206, Q1 : 0.999999463558, Q2 : -0.000495047715958, Q3 : 0.000271560420515, Q4 : -0.000868744333275}
2019-04-14 16:48:02.71: SIM {TimeUS : 48734665, Roll : -0.02, Pitch : 0.01, Yaw : 359.89, Alt : 38.9099998474, Lat : 49.2835704, Lng : -123.1150206, Q1 : 0.999999523163, Q2 : -0.000231620055274, Q3 : 0.000153367203893, Q4 : -0.000883261323906}
2019-04-14 16:48:02.81: SIM {TimeUS : 48834625, Roll : 0.01, Pitch : 0.02, Yaw : 359.89, Alt : 39.1399993896, Lat : 49.2835704, Lng : -123.1150206, Q1 : 0.999999523163, Q2 : 9.89124819171e-05, Q3 : 0.000254306942225, Q4 : -0.000897420512047}
2019-04-14 16:48:02.91: SIM {TimeUS : 48934585, Roll : 0.05, Pitch : 0.05, Yaw : 359.89, Alt : 39.3600006104, Lat : 49.2835704, Lng : -123.1150206, Q1 : 0.999999403954, Q2 : 0.000436938047642, Q3 : 0.000473509455333, Q4 : -0.000917917175684}
2019-04-14 16:48:03.01: SIM {TimeUS : 49034545, Roll : 0.07, Pitch : 0.08, Yaw : 359.89, Alt : 39.5999984741, Lat : 49.2835704, Lng : -123.1150206, Q1 : 0.999999046326, Q2 : 0.00068874907447, Q3 : 0.000704824109562, Q4 : -0.000944989733398}
2019-04-14 16:48:03.11: SIM {TimeUS : 49134505, Roll : 0.07, Pitch : 0.1, Yaw : 359.88, Alt : 39.8300018311, Lat : 49.2835706, Lng : -123.1150206, Q1 : 0.999998927116, Q2 : 0.000617285084445, Q3 : 0.000946833111811, Q4 : -0.000971048139036}
2019-04-14 16:48:03.21: SIM {TimeUS : 49235298, Roll : 0.02, Pitch : 0.13, Yaw : 359.88, Alt : 40.0600013733, Lat : 49.2835706, Lng : -123.1150206, Q1 : 0.999998807907, Q2 : 0.000192453037016, Q3 : 0.00115929869935, Q4 : -0.00101297267247}
2019-04-14 16:48:03.31: SIM {TimeUS : 49335258, Roll : -0.01, Pitch : 0.12, Yaw : 359.88, Alt : 40.2900009155, Lat : 49.2835706, Lng : -123.1150206, Q1 : 0.999998867512, Q2 : -0.000145319078001, Q3 : 0.0010929814307, Q4 : -0.00104228244163}
2019-04-14 16:48:03.41: SIM {TimeUS : 49435218, Roll : -0.04, Pitch : 0.09, Yaw : 359.87, Alt : 40.5200004578, Lat : 49.2835706, Lng : -123.1150206, Q1 : 0.999998986721, Q2 : -0.000372513575712, Q3 : 0.000849291391205, Q4 : -0.00107423041482}
2019-04-14 16:48:03.51: SIM {TimeUS : 49535178, Roll : -0.05, Pitch : 0.07, Yaw : 359.87, Alt : 40.75, Lat : 49.2835706, Lng : -123.1150206, Q1 : 0.999999046326, Q2 : -0.00046405030298, Q3 : 0.000667339889333, Q4 : -0.00111063907389}
2019-04-14 16:48:03.61: SIM {TimeUS : 49635138, Roll : -0.04, Pitch : 0.08, Yaw : 359.86, Alt : 40.9900016785, Lat : 49.2835706, Lng : -123.1150206, Q1 : 0.999998986721, Q2 : -0.00036292365985, Q3 : 0.000746561447158, Q4 : -0.00115321925841}
2019-04-14 16:48:03.71: SIM {TimeUS : 49735098, Roll : 0.0, Pitch : 0.11, Yaw : 359.86, Alt : 41.2200012207, Lat : 49.2835706, Lng : -123.1150206, Q1 : 0.999998807907, Q2 : 1.43562392623e-05, Q3 : 0.000997356604785, Q4 : -0.0011896379292}
2019-04-14 16:48:03.81: SIM {TimeUS : 49835058, Roll : 0.05, Pitch : 0.13, Yaw : 359.85, Alt : 41.4500007629, Lat : 49.2835706, Lng : -123.1150206, Q1 : 0.999998450279, Q2 : 0.000478892587125, Q3 : 0.00116719701327, Q4 : -0.00122645392548}
2019-04-14 16:48:03.91: SIM {TimeUS : 49935018, Roll : 0.08, Pitch : 0.11, Yaw : 359.85, Alt : 41.6899986267, Lat : 49.2835706, Lng : -123.1150206, Q1 : 0.999998390675, Q2 : 0.0007856762968, Q3 : 0.000966379768215, Q4 : -0.00126344955061}
2019-04-14 16:48:04.01: SIM {TimeUS : 50034978, Roll : 0.09, Pitch : 0.06, Yaw : 359.85, Alt : 41.9199981689, Lat : 49.2835706, Lng : -123.1150207, Q1 : 0.999998688698, Q2 : 0.000788655714132, Q3 : 0.000597777951043, Q4 : -0.00129601813387}
2019-04-14 16:48:04.11: SIM {TimeUS : 50134938, Roll : 0.05, Pitch : 0.03, Yaw : 359.84, Alt : 42.1500015259, Lat : 49.2835706, Lng : -123.1150206, Q1 : 0.999998927116, Q2 : 0.000482618896058, Q3 : 0.000334111158736, Q4 : -0.00131338369101}
2019-04-14 16:48:04.21: SIM {TimeUS : 50234898, Roll : 0.0, Pitch : 0.03, Yaw : 359.84, Alt : 42.3899993896, Lat : 49.2835706, Lng : -123.1150206, Q1 : 0.99999910593, Q2 : 2.9659282518e-05, Q3 : 0.000302088010358, Q4 : -0.00131998723373}
2019-04-14 16:48:04.31: SIM {TimeUS : 50334858, Roll : -0.03, Pitch : 0.06, Yaw : 359.84, Alt : 42.6199989319, Lat : 49.2835704, Lng : -123.1150206, Q1 : 0.999998927116, Q2 : -0.000293820659863, Q3 : 0.000558137893677, Q4 : -0.00131658173632}
2019-04-14 16:48:04.41: SIM {TimeUS : 50434818, Roll : -0.05, Pitch : 0.08, Yaw : 359.84, Alt : 42.8600006104, Lat : 49.2835704, Lng : -123.1150206, Q1 : 0.999998748302, Q2 : -0.000462137628347, Q3 : 0.000762124545872, Q4 : -0.00131128053181}
2019-04-14 16:48:04.51: SIM {TimeUS : 50534778, Roll : -0.05, Pitch : 0.08, Yaw : 359.84, Alt : 43.0900001526, Lat : 49.2835704, Lng : -123.1150206, Q1 : 0.999998748302, Q2 : -0.000453460670542, Q3 : 0.000727897626348, Q4 : -0.00131318368949}
2019-04-14 16:48:04.61: SIM {TimeUS : 50634738, Roll : -0.05, Pitch : 0.06, Yaw : 359.84, Alt : 43.3300018311, Lat : 49.2835704, Lng : -123.1150206, Q1 : 0.999998807907, Q2 : -0.000499455200043, Q3 : 0.000583847868256, Q4 : -0.00132651696913}
2019-04-14 16:48:04.71: SIM {TimeUS : 50734698, Roll : -0.05, Pitch : 0.05, Yaw : 359.84, Alt : 43.5600013733, Lat : 49.2835704, Lng : -123.1150206, Q1 : 0.999998927116, Q2 : -0.000447729747975, Q3 : 0.000451025698567, Q4 : -0.00134458311368}
2019-04-14 16:48:04.81: SIM {TimeUS : 50834658, Roll : -0.02, Pitch : 0.04, Yaw : 359.84, Alt : 43.7999992371, Lat : 49.2835704, Lng : -123.1150206, Q1 : 0.999998927116, Q2 : -0.000258903717622, Q3 : 0.000399448879762, Q4 : -0.00137090007775}
2019-04-14 16:48:04.91: SIM {TimeUS : 50934618, Roll : -0.01, Pitch : 0.04, Yaw : 359.83, Alt : 44.0299987793, Lat : 49.2835704, Lng : -123.1150206, Q1 : 0.999998927116, Q2 : -0.000110713524919, Q3 : 0.000404402875574, Q4 : -0.00140103709418}
2019-04-14 16:48:05.01: SIM {TimeUS : 51034578, Roll : -0.01, Pitch : 0.02, Yaw : 359.83, Alt : 44.2700004578, Lat : 49.2835704, Lng : -123.1150206, Q1 : 0.999998927116, Q2 : -0.000130915650516, Q3 : 0.000254160462646, Q4 : -0.0014315629378}
2019-04-14 16:48:05.11: SIM {TimeUS : 51134538, Roll : -0.02, Pitch : 0.0, Yaw : 359.83, Alt : 44.5, Lat : 49.2835704, Lng : -123.1150206, Q1 : 0.999998927116, Q2 : -0.000218428132939, Q3 : -6.78057258483e-05, Q4 : -0.00146589800715}
2019-04-14 16:48:05.21: SIM {TimeUS : 51234498, Roll : -0.02, Pitch : -0.03, Yaw : 359.82, Alt : 44.7400016785, Lat : 49.2835704, Lng : -123.1150206, Q1 : 0.999998807907, Q2 : -0.000260081811575, Q3 : -0.000276795675745, Q4 : -0.00150385929737}
2019-04-14 16:48:05.31: SIM {TimeUS : 51335291, Roll : -0.02, Pitch : -0.04, Yaw : 359.82, Alt : 44.9799995422, Lat : 49.2835704, Lng : -123.1150206, Q1 : 0.999998748302, Q2 : -0.000195921064005, Q3 : -0.000384536426282, Q4 : -0.00153724255506}
2019-04-14 16:48:05.41: SIM {TimeUS : 51435251, Roll : -0.02, Pitch : -0.04, Yaw : 359.81, Alt : 45.2099990845, Lat : 49.2835704, Lng : -123.1150206, Q1 : 0.999998629093, Q2 : -0.000212026265217, Q3 : -0.000404710066505, Q4 : -0.00157152756583}
2019-04-14 16:48:05.51: SIM {TimeUS : 51535211, Roll : -0.04, Pitch : -0.03, Yaw : 359.81, Alt : 45.4500007629, Lat : 49.2835703, Lng : -123.1150206, Q1 : 0.999998569489, Q2 : -0.000390300847357, Q3 : -0.000322962616337, Q4 : -0.00160875939764}
2019-04-14 16:48:05.61: SIM {TimeUS : 51635171, Roll : -0.07, Pitch : -0.02, Yaw : 359.81, Alt : 45.6800003052, Lat : 49.2835703, Lng : -123.1150206, Q1 : 0.999998390675, Q2 : -0.000690831977408, Q3 : -0.000234577571973, Q4 : -0.0016433208948}
2019-04-14 16:48:05.71: SIM {TimeUS : 51735131, Roll : -0.1, Pitch : -0.02, Yaw : 359.8, Alt : 45.9199981689, Lat : 49.2835703, Lng : -123.1150206, Q1 : 0.999998152256, Q2 : -0.000894519733265, Q3 : -0.000193653584574, Q4 : -0.00167673989199}
2019-04-14 16:48:05.81: SIM {TimeUS : 51835091, Roll : -0.1, Pitch : 0.0, Yaw : 359.8, Alt : 46.1500015259, Lat : 49.2835703, Lng : -123.1150206, Q1 : 0.999998092651, Q2 : -0.000924654421397, Q3 : -8.15331804915e-05, Q4 : -0.00170607422478}
2019-04-14 16:48:05.91: SIM {TimeUS : 51935051, Roll : -0.09, Pitch : 0.01, Yaw : 359.8, Alt : 46.3699989319, Lat : 49.2835703, Lng : -123.1150206, Q1 : 0.999998211861, Q2 : -0.000793638522737, Q3 : 0.000148519931827, Q4 : -0.00173036463093}
2019-04-14 16:48:06.01: SIM {TimeUS : 52035011, Roll : -0.06, Pitch : 0.03, Yaw : 359.79, Alt : 46.5900001526, Lat : 49.2835703, Lng : -123.1150206, Q1 : 0.999998271465, Q2 : -0.00057114980882, Q3 : 0.000272842007689, Q4 : -0.00175026571378}
2019-04-14 16:48:06.11: SIM {TimeUS : 52134971, Roll : -0.04, Pitch : 0.02, Yaw : 359.79, Alt : 46.8100013733, Lat : 49.2835703, Lng : -123.1150206, Q1 : 0.999998390675, Q2 : -0.000369302957552, Q3 : 0.000228118427913, Q4 : -0.00176767096855}
2019-04-14 16:48:06.21: SIM {TimeUS : 52234931, Roll : -0.03, Pitch : 0.0, Yaw : 359.79, Alt : 47.0200004578, Lat : 49.2835703, Lng : -123.1150206, Q1 : 0.999998390675, Q2 : -0.00027105899062, Q3 : 3.82394828193e-05, Q4 : -0.00178176688496}
2019-04-14 16:48:06.31: SIM {TimeUS : 52334891, Roll : -0.01, Pitch : -0.02, Yaw : 359.79, Alt : 47.2200012207, Lat : 49.2835703, Lng : -123.1150206, Q1 : 0.999998390675, Q2 : -0.000122940735309, Q3 : -0.000251170655247, Q4 : -0.00179060176015}
2019-04-14 16:48:06.41: SIM {TimeUS : 52434851, Roll : 0.0, Pitch : -0.05, Yaw : 359.79, Alt : 47.4199981689, Lat : 49.2835703, Lng : -123.1150206, Q1 : 0.999998271465, Q2 : 7.86444361438e-05, Q3 : -0.000520814850461, Q4 : -0.00179974955972}
2019-04-14 16:48:06.51: SIM {TimeUS : 52534811, Roll : 0.01, Pitch : -0.08, Yaw : 359.79, Alt : 47.5999984741, Lat : 49.2835703, Lng : -123.1150206, Q1 : 0.999998033047, Q2 : 0.000167804420926, Q3 : -0.000754557899199, Q4 : -0.00181290809996}
2019-04-14 16:48:06.61: SIM {TimeUS : 52634771, Roll : 0.02, Pitch : -0.12, Yaw : 359.78, Alt : 47.7799987793, Lat : 49.2835703, Lng : -123.1150206, Q1 : 0.999997675419, Q2 : 0.000236057909206, Q3 : -0.00112117105164, Q4 : -0.00183305342216}
2019-04-14 16:48:06.71: SIM {TimeUS : 52734731, Roll : 0.05, Pitch : -0.15, Yaw : 359.78, Alt : 47.9399986267, Lat : 49.2835703, Lng : -123.1150206, Q1 : 0.999997317791, Q2 : 0.000467702775495, Q3 : -0.0013216456864, Q4 : -0.00185751297977}
2019-04-14 16:48:06.81: SIM {TimeUS : 52834691, Roll : 0.07, Pitch : -0.14, Yaw : 359.78, Alt : 48.0999984741, Lat : 49.2835703, Lng : -123.1150206, Q1 : 0.999997138977, Q2 : 0.000684638973325, Q3 : -0.00127668178175, Q4 : -0.00188247836195}
2019-04-14 16:48:06.91: SIM {TimeUS : 52934651, Roll : 0.09, Pitch : -0.12, Yaw : 359.78, Alt : 48.2400016785, Lat : 49.2835703, Lng : -123.1150206, Q1 : 0.999997317791, Q2 : 0.000811532954685, Q3 : -0.00106134521775, Q4 : -0.00191160792019}
2019-04-14 16:48:07.01: SIM {TimeUS : 53034611, Roll : 0.09, Pitch : -0.09, Yaw : 359.77, Alt : 48.3600006104, Lat : 49.2835704, Lng : -123.1150206, Q1 : 0.999997496605, Q2 : 0.000795409607235, Q3 : -0.000789421203081, Q4 : -0.00194386998191}
2019-04-14 16:48:07.11: SIM {TimeUS : 53134571, Roll : 0.08, Pitch : -0.06, Yaw : 359.77, Alt : 48.4799995422, Lat : 49.2835704, Lng : -123.1150206, Q1 : 0.999997615814, Q2 : 0.0007338199066, Q3 : -0.000593012897298, Q4 : -0.00197757175192}
2019-04-14 16:48:07.21: SIM {TimeUS : 53234531, Roll : 0.06, Pitch : -0.06, Yaw : 359.76, Alt : 48.5800018311, Lat : 49.2835704, Lng : -123.1150206, Q1 : 0.999997675419, Q2 : 0.000592413707636, Q3 : -0.000554648810066, Q4 : -0.00201439508237}
2019-04-14 16:48:07.31: SIM {TimeUS : 53335324, Roll : 0.04, Pitch : -0.05, Yaw : 359.76, Alt : 48.6800003052, Lat : 49.2835704, Lng : -123.1150206, Q1 : 0.999997675419, Q2 : 0.000357905839337, Q3 : -0.000516500149388, Q4 : -0.00205706292763}
2019-04-14 16:48:07.41: SIM {TimeUS : 53435284, Roll : 0.02, Pitch : -0.04, Yaw : 359.75, Alt : 48.7599983215, Lat : 49.2835704, Lng : -123.1150206, Q1 : 0.999997735023, Q2 : 0.000173763881321, Q3 : -0.000393938535126, Q4 : -0.0020997854881}
2019-04-14 16:48:07.51: SIM {TimeUS : 53535244, Roll : 0.0, Pitch : -0.02, Yaw : 359.75, Alt : 48.8300018311, Lat : 49.2835704, Lng : -123.1150206, Q1 : 0.999997735023, Q2 : 8.07940741652e-05, Q3 : -0.000199689427973, Q4 : -0.0021359466482}
2019-04-14 16:48:07.61: SIM {TimeUS : 53635204, Roll : 0.0, Pitch : 0.0, Yaw : 359.75, Alt : 48.8899993896, Lat : 49.2835704, Lng : -123.1150206, Q1 : 0.999997675419, Q2 : 6.92064058967e-05, Q3 : 5.48329662706e-05, Q4 : -0.00216343440115}
2019-04-14 16:48:07.71: SIM {TimeUS : 53735164, Roll : 0.02, Pitch : 0.03, Yaw : 359.74, Alt : 48.9399986267, Lat : 49.2835704, Lng : -123.1150206, Q1 : 0.99999755621, Q2 : 0.000214861749555, Q3 : 0.000346852320945, Q4 : -0.00218441197649}
2019-04-14 16:48:07.81: SIM {TimeUS : 53835124, Roll : 0.04, Pitch : 0.06, Yaw : 359.74, Alt : 48.9799995422, Lat : 49.2835704, Lng : -123.1150206, Q1 : 0.999997317791, Q2 : 0.000389891240047, Q3 : 0.000537570856977, Q4 : -0.00220420607366}
2019-04-14 16:48:07.91: SIM {TimeUS : 53935084, Roll : 0.06, Pitch : 0.04, Yaw : 359.74, Alt : 49.0200004578, Lat : 49.2835704, Lng : -123.1150206, Q1 : 0.999997317791, Q2 : 0.000573302153498, Q3 : 0.000351750903064, Q4 : -0.00222412636504}
2019-04-14 16:48:08.01: SIM {TimeUS : 54035044, Roll : 0.14, Pitch : -0.06, Yaw : 359.74, Alt : 49.0499992371, Lat : 49.2835704, Lng : -123.1150206, Q1 : 0.999996542931, Q2 : 0.00124562368728, Q3 : -0.000565413036384, Q4 : -0.00223897513933}
2019-04-14 16:48:08.11: SIM {TimeUS : 54135004, Roll : 0.38, Pitch : -0.34, Yaw : 359.73, Alt : 49.0800018311, Lat : 49.2835704, Lng : -123.1150206, Q1 : 0.999987304211, Q2 : 0.00332796317525, Q3 : -0.00304845185019, Q4 : -0.00225950381719}
2019-04-14 16:48:08.21: SIM {TimeUS : 54234964, Roll : 0.82, Pitch : -0.81, Yaw : 359.73, Alt : 49.1100006104, Lat : 49.2835706, Lng : -123.1150206, Q1 : 0.999945998192, Q2 : 0.00722096161917, Q3 : -0.0071209394373, Q4 : -0.00226894766092}
2019-04-14 16:48:08.31: SIM {TimeUS : 54334924, Roll : 1.46, Pitch : -1.41, Yaw : 359.72, Alt : 49.1300010681, Lat : 49.2835706, Lng : -123.1150205, Q1 : 0.999839842319, Q2 : 0.0127285225317, Q3 : -0.0123764239252, Q4 : -0.00225127115846}
2019-04-14 16:48:08.41: SIM {TimeUS : 54434884, Roll : 2.2, Pitch : -2.11, Yaw : 359.7, Alt : 49.1399993896, Lat : 49.2835706, Lng : -123.1150205, Q1 : 0.999642074108, Q2 : 0.0191747378558, Q3 : -0.0185269154608, Q4 : -0.00220508314669}
2019-04-14 16:48:08.51: SIM {TimeUS : 54534844, Roll : 2.95, Pitch : -2.81, Yaw : 359.68, Alt : 49.1599998474, Lat : 49.2835707, Lng : -123.1150204, Q1 : 0.999362945557, Q2 : 0.0257158782333, Q3 : -0.0246576499194, Q4 : -0.00211205543019}
2019-04-14 16:48:08.61: SIM {TimeUS : 54634804, Roll : 3.59, Pitch : -3.4, Yaw : 359.66, Alt : 49.1699981689, Lat : 49.2835708, Lng : -123.1150202, Q1 : 0.99906373024, Q2 : 0.0312780700624, Q3 : -0.0298264361918, Q4 : -0.00195150088985}
2019-04-14 16:48:08.71: SIM {TimeUS : 54734764, Roll : 4.06, Pitch : -3.86, Yaw : 359.66, Alt : 49.1899986267, Lat : 49.2835709, Lng : -123.11502, Q1 : 0.998800516129, Q2 : 0.0353743359447, Q3 : -0.0338104441762, Q4 : -0.00173970020842}
2019-04-14 16:48:08.81: SIM {TimeUS : 54834724, Roll : 4.41, Pitch : -4.2, Yaw : 359.66, Alt : 49.2000007629, Lat : 49.283571, Lng : -123.1150197, Q1 : 0.998587012291, Q2 : 0.0383715704083, Q3 : -0.0367351099849, Q4 : -0.00148063909728}
2019-04-14 16:48:08.91: SIM {TimeUS : 54934684, Roll : 4.69, Pitch : -4.45, Yaw : 359.68, Alt : 49.2099990845, Lat : 49.2835714, Lng : -123.1150193, Q1 : 0.998407423496, Q2 : 0.0408285185695, Q3 : -0.0389130339026, Q4 : -0.00118553382345}
2019-04-14 16:48:09.01: SIM {TimeUS : 55034644, Roll : 4.94, Pitch : -4.66, Yaw : 359.69, Alt : 49.2099990845, Lat : 49.2835716, Lng : -123.1150189, Q1 : 0.99824154377, Q2 : 0.04303535074, Q3 : -0.0407563820481, Q4 : -0.00089129654225}
2019-04-14 16:48:09.11: SIM {TimeUS : 55134604, Roll : 5.21, Pitch : -4.9, Yaw : 359.7, Alt : 49.2200012207, Lat : 49.283572, Lng : -123.1150183, Q1 : 0.998051166534, Q2 : 0.0453576818109, Q3 : -0.0428509190679, Q4 : -0.000629847985692}
2019-04-14 16:48:09.21: SIM {TimeUS : 55234564, Roll : 5.47, Pitch : -5.16, Yaw : 359.7, Alt : 49.2299995422, Lat : 49.2835724, Lng : -123.1150175, Q1 : 0.997847616673, Q2 : 0.047604765743, Q3 : -0.045096963644, Q4 : -0.000388687883969}
2019-04-14 16:48:09.31: SIM {TimeUS : 55334524, Roll : 5.71, Pitch : -5.38, Yaw : 359.71, Alt : 49.2299995422, Lat : 49.2835728, Lng : -123.1150169, Q1 : 0.997658491135, Q2 : 0.0496494844556, Q3 : -0.0470373593271, Q4 : -0.000158626644406}
2019-04-14 16:48:09.41: SIM {TimeUS : 55435317, Roll : 5.9, Pitch : -5.55, Yaw : 359.72, Alt : 49.2400016785, Lat : 49.2835733, Lng : -123.1150161, Q1 : 0.99750649929, Q2 : 0.0512882806361, Q3 : -0.0484797544777, Q4 : 6.096236757e-05}
2019-04-14 16:48:09.51: SIM {TimeUS : 55535277, Roll : 6.02, Pitch : -5.67, Yaw : 359.72, Alt : 49.2400016785, Lat : 49.2835739, Lng : -123.1150151, Q1 : 0.99739587307, Q2 : 0.0524100549519, Q3 : -0.049544878304, Q4 : 0.000242995403823}
2019-04-14 16:48:09.61: SIM {TimeUS : 55635237, Roll : 6.13, Pitch : -5.77, Yaw : 359.73, Alt : 49.25, Lat : 49.2835745, Lng : -123.1150142, Q1 : 0.997303962708, Q2 : 0.0533081665635, Q3 : -0.0504274442792, Q4 : 0.000386528961826}
2019-04-14 16:48:09.71: SIM {TimeUS : 55735197, Roll : 6.24, Pitch : -5.86, Yaw : 359.73, Alt : 49.25, Lat : 49.2835751, Lng : -123.1150131, Q1 : 0.997212588787, Q2 : 0.0542732998729, Q3 : -0.051198810339, Q4 : 0.000481820374262}
2019-04-14 16:48:09.81: SIM {TimeUS : 55835157, Roll : 6.41, Pitch : -5.94, Yaw : 359.73, Alt : 49.2599983215, Lat : 49.2835758, Lng : -123.115012, Q1 : 0.997092962265, Q2 : 0.0557616278529, Q3 : -0.0519216172397, Q4 : 0.000636646174826}
2019-04-14 16:48:09.91: SIM {TimeUS : 55935117, Roll : 6.79, Pitch : -5.91, Yaw : 359.98, Alt : 49.2599983215, Lat : 49.2835765, Lng : -123.1150108, Q1 : 0.996913135052, Q2 : 0.0592107214034, Q3 : -0.0514771975577, Q4 : 0.00289618037641}
2019-04-14 16:48:10.01: SIM {TimeUS : 56035077, Roll : 7.4, Pitch : -5.78, Yaw : 1.07, Alt : 49.2599983215, Lat : 49.2835774, Lng : -123.1150095, Q1 : 0.996569991112, Q2 : 0.0649490058422, Q3 : -0.0497095324099, Q4 : 0.0126033928245}
2019-04-14 16:48:10.11: SIM {TimeUS : 56135037, Roll : 7.99, Pitch : -5.87, Yaw : 3.61, Alt : 49.2700004578, Lat : 49.2835782, Lng : -123.1150081, Q1 : 0.995652854443, Q2 : 0.0711604058743, Q3 : -0.0488660521805, Q4 : 0.0349808596075}
2019-04-14 16:48:10.21: SIM {TimeUS : 56234997, Roll : 8.27, Pitch : -6.4, Yaw : 7.74, Alt : 49.2700004578, Lat : 49.2835791, Lng : -123.1150066, Q1 : 0.993292272091, Q2 : 0.0756120160222, Q3 : -0.0507466346025, Q4 : 0.0712604150176}
2019-04-14 16:48:10.31: SIM {TimeUS : 56334957, Roll : 8.02, Pitch : -7.38, Yaw : 13.31, Alt : 49.2700004578, Lat : 49.28358, Lng : -123.115005, Q1 : 0.988238751888, Q2 : 0.076802097261, Q3 : -0.0557461120188, Q4 : 0.119908191264}
2019-04-14 16:48:10.41: SIM {TimeUS : 56434917, Roll : 7.13, Pitch : -8.68, Yaw : 20.09, Alt : 49.2700004578, Lat : 49.2835808, Lng : -123.1150033, Q1 : 0.979109227657, Q2 : 0.0742924958467, Q3 : -0.0635753124952, Q4 : 0.178280547261}
2019-04-14 16:48:10.51: SIM {TimeUS : 56534877, Roll : 5.6, Pitch : -10.1, Yaw : 27.81, Alt : 49.2700004578, Lat : 49.2835818, Lng : -123.1150014, Q1 : 0.964716613293, Q2 : 0.0684293210506, Q3 : -0.0736627206206, Q4 : 0.243337467313}
2019-04-14 16:48:10.61: SIM {TimeUS : 56634837, Roll : 3.31, Pitch : -11.41, Yaw : 36.12, Alt : 49.2700004578, Lat : 49.2835828, Lng : -123.1149995, Q1 : 0.94471091032, Q2 : 0.0581940114498, Q3 : -0.0855609849095, Q4 : 0.311149686575}
2019-04-14 16:48:10.71: SIM {TimeUS : 56734797, Roll : 0.3, Pitch : -12.35, Yaw : 44.31, Alt : 49.2700004578, Lat : 49.2835837, Lng : -123.1149975, Q1 : 0.920655488968, Q2 : 0.0430091917515, Q3 : -0.0986732468009, Q4 : 0.375243008137}
2019-04-14 16:48:10.81: SIM {TimeUS : 56834757, Roll : -2.89, Pitch : -12.78, Yaw : 51.5, Alt : 49.2700004578, Lat : 49.2835848, Lng : -123.1149954, Q1 : 0.896027088165, Q2 : 0.0257759969682, Q3 : -0.11118940264, Q4 : 0.429078012705}
2019-04-14 16:48:10.91: SIM {TimeUS : 56934717, Roll : -5.59, Pitch : -12.78, Yaw : 56.97, Alt : 49.2700004578, Lat : 49.283586, Lng : -123.1149932, Q1 : 0.874996960163, Q2 : 0.0104412399232, Q3 : -0.120851509273, Q4 : 0.468685656786}
2019-04-14 16:48:11.01: SIM {TimeUS : 57034677, Roll : -7.31, Pitch : -12.58, Yaw : 60.44, Alt : 49.2700004578, Lat : 49.2835873, Lng : -123.114991, Q1 : 0.860660433769, Q2 : 0.000263411813648, Q3 : -0.126433342695, Q4 : 0.493232369423}
2019-04-14 16:48:11.11: SIM {TimeUS : 57134637, Roll : -7.95, Pitch : -12.45, Yaw : 61.98, Alt : 49.2700004578, Lat : 49.2835886, Lng : -123.1149887, Q1 : 0.854002594948, Q2 : -0.00336986151524, Q3 : -0.128234118223, Q4 : 0.504206597805}
2019-04-14 16:48:11.21: SIM {TimeUS : 57234597, Roll : -7.64, Pitch : -12.54, Yaw : 61.91, Alt : 49.2700004578, Lat : 49.2835901, Lng : -123.1149865, Q1 : 0.854281723499, Q2 : -0.000732022337615, Q3 : -0.127562969923, Q4 : 0.50391459465}
2019-04-14 16:48:11.31: SIM {TimeUS : 57334557, Roll : -6.61, Pitch : -12.91, Yaw : 60.57, Alt : 49.2700004578, Lat : 49.2835916, Lng : -123.1149842, Q1 : 0.859852671623, Q2 : 0.00713951606303, Q3 : -0.125869721174, Q4 : 0.494731515646}
2019-04-14 16:48:11.41: SIM {TimeUS : 57434517, Roll : -5.12, Pitch : -13.52, Yaw : 58.33, Alt : 49.2700004578, Lat : 49.2835934, Lng : -123.1149818, Q1 : 0.868836224079, Q2 : 0.0185445994139, Q3 : -0.12434155494, Q4 : 0.478872537613}
2019-04-14 16:48:11.51: SIM {TimeUS : 57535310, Roll : -3.36, Pitch : -14.24, Yaw : 55.46, Alt : 49.2799987793, Lat : 49.2835951, Lng : -123.1149794, Q1 : 0.879623353481, Q2 : 0.0318364687264, Q3 : -0.123254790902, Q4 : 0.458320230246}
2019-04-14 16:48:11.61: SIM {TimeUS : 57635270, Roll : -1.56, Pitch : -14.9, Yaw : 52.33, Alt : 49.2799987793, Lat : 49.2835969, Lng : -123.1149768, Q1 : 0.89063924551, Q2 : 0.0450535342097, Q3 : -0.122394494712, Q4 : 0.435604810715}
2019-04-14 16:48:11.71: SIM {TimeUS : 57735230, Roll : 0.14, Pitch : -15.4, Yaw : 49.23, Alt : 49.2799987793, Lat : 49.2835988, Lng : -123.1149744, Q1 : 0.900839745998, Q2 : 0.0569326914847, Q3 : -0.121346741915, Q4 : 0.412942320108}
2019-04-14 16:48:11.81: SIM {TimeUS : 57835190, Roll : 1.6, Pitch : -15.68, Yaw : 46.49, Alt : 49.2799987793, Lat : 49.2836006, Lng : -123.1149717, Q1 : 0.909361064434, Q2 : 0.0666018873453, Q3 : -0.119887433946, Q4 : 0.392751455307}
2019-04-14 16:48:11.91: SIM {TimeUS : 57935150, Roll : 2.69, Pitch : -15.78, Yaw : 44.36, Alt : 49.2799987793, Lat : 49.2836025, Lng : -123.1149689, Q1 : 0.915718793869, Q2 : 0.0734434127808, Q3 : -0.118336416781, Q4 : 0.376910626888}
2019-04-14 16:48:12.01: SIM {TimeUS : 58035110, Roll : 3.34, Pitch : -15.78, Yaw : 42.98, Alt : 49.2799987793, Lat : 49.2836044, Lng : -123.1149659, Q1 : 0.919784069061, Q2 : 0.0772081464529, Q3 : -0.117075048387, Q4 : 0.366510123014}
2019-04-14 16:48:12.11: SIM {TimeUS : 58135070, Roll : 3.53, Pitch : -15.75, Yaw : 42.37, Alt : 49.2799987793, Lat : 49.2836063, Lng : -123.1149629, Q1 : 0.921643853188, Q2 : 0.0779482796788, Q3 : -0.116668872535, Q4 : 0.361780464649}
2019-04-14 16:48:12.21: SIM {TimeUS : 58235030, Roll : 3.29, Pitch : -15.73, Yaw : 42.46, Alt : 49.2799987793, Lat : 49.2836084, Lng : -123.1149597, Q1 : 0.921533167362, Q2 : 0.0761095657945, Q3 : -0.117196746171, Q4 : 0.362282931805}
2019-04-14 16:48:12.31: SIM {TimeUS : 58334990, Roll : 2.75, Pitch : -15.76, Yaw : 43.12, Alt : 49.2799987793, Lat : 49.2836103, Lng : -123.1149564, Q1 : 0.919747769833, Q2 : 0.0724843293428, Q3 : -0.118731118739, Q4 : 0.36703273654}
2019-04-14 16:48:12.41: SIM {TimeUS : 58434950, Roll : 1.97, Pitch : -15.84, Yaw : 44.19, Alt : 49.2799987793, Lat : 49.2836122, Lng : -123.114953, Q1 : 0.916683554649, Q2 : 0.067662447691, Q3 : -0.12128392607, Q4 : 0.374704271555}
2019-04-14 16:48:12.51: SIM {TimeUS : 58534910, Roll : 1.11, Pitch : -15.97, Yaw : 45.46, Alt : 49.2799987793, Lat : 49.2836144, Lng : -123.1149496, Q1 : 0.912786304951, Q2 : 0.0626296326518, Q3 : -0.124426931143, Q4 : 0.383948683739}
2019-04-14 16:48:12.61: SIM {TimeUS : 58634870, Roll : 0.31, Pitch : -16.09, Yaw : 46.78, Alt : 49.2799987793, Lat : 49.2836164, Lng : -123.1149461, Q1 : 0.908591866493, Q2 : 0.0580756925046, Q3 : -0.12744833529, Q4 : 0.393503427505}
2019-04-14 16:48:12.71: SIM {TimeUS : 58734830, Roll : -0.38, Pitch : -16.19, Yaw : 48.0, Alt : 49.2799987793, Lat : 49.2836184, Lng : -123.1149425, Q1 : 0.904618859291, Q2 : 0.0542305596173, Q3 : -0.130079686642, Q4 : 0.402247458696}
2019-04-14 16:48:12.81: SIM {TimeUS : 58834790, Roll : -0.94, Pitch : -16.28, Yaw : 48.98, Alt : 49.2799987793, Lat : 49.2836207, Lng : -123.1149388, Q1 : 0.901282846928, Q2 : 0.0512941963971, Q3 : -0.132251814008, Q4 : 0.409350246191}
2019-04-14 16:48:12.91: SIM {TimeUS : 58934750, Roll : -1.3, Pitch : -16.35, Yaw : 49.68, Alt : 49.2799987793, Lat : 49.2836227, Lng : -123.1149352, Q1 : 0.898876786232, Q2 : 0.0494938530028, Q3 : -0.133773103356, Q4 : 0.414337664843}
2019-04-14 16:48:13.01: SIM {TimeUS : 59034710, Roll : -1.47, Pitch : -16.41, Yaw : 50.05, Alt : 49.2900009155, Lat : 49.283625, Lng : -123.1149315, Q1 : 0.89752715826, Q2 : 0.048864480108, Q3 : -0.134705349803, Q4 : 0.417027294636}
2019-04-14 16:48:13.11: SIM {TimeUS : 59134670, Roll : -1.45, Pitch : -16.45, Yaw : 50.12, Alt : 49.2900009155, Lat : 49.2836273, Lng : -123.1149277, Q1 : 0.897234618664, Q2 : 0.0492047481239, Q3 : -0.134921506047, Q4 : 0.417546510696}
2019-04-14 16:48:13.21: SIM {TimeUS : 59234630, Roll : -1.27, Pitch : -16.48, Yaw : 49.92, Alt : 49.2900009155, Lat : 49.2836296, Lng : -123.1149239, Q1 : 0.897823512554, Q2 : 0.0505009442568, Q3 : -0.134621143341, Q4 : 0.416220843792}
2019-04-14 16:48:13.31: SIM {TimeUS : 59334590, Roll : -0.97, Pitch : -16.52, Yaw : 49.53, Alt : 49.2900009155, Lat : 49.2836318, Lng : -123.1149201, Q1 : 0.899054050446, Q2 : 0.0525398924947, Q3 : -0.13401260972, Q4 : 0.413499712944}
2019-04-14 16:48:13.41: SIM {TimeUS : 59434550, Roll : -0.61, Pitch : -16.56, Yaw : 49.03, Alt : 49.2900009155, Lat : 49.2836341, Lng : -123.1149162, Q1 : 0.900672197342, Q2 : 0.0549149811268, Q3 : -0.133268028498, Q4 : 0.409894585609}
2019-04-14 16:48:13.51: SIM {TimeUS : 59534510, Roll : -0.23, Pitch : -16.6, Yaw : 48.47, Alt : 49.2900009155, Lat : 49.2836366, Lng : -123.1149123, Q1 : 0.902417898178, Q2 : 0.0573798418045, Q3 : -0.132494598627, Q4 : 0.405949056149}
2019-04-14 16:48:13.61: SIM {TimeUS : 59635303, Roll : 0.11, Pitch : -16.64, Yaw : 47.93, Alt : 49.2900009155, Lat : 49.283639, Lng : -123.1149083, Q1 : 0.904079079628, Q2 : 0.0596786923707, Q3 : -0.131883949041, Q4 : 0.402102053165}
2019-04-14 16:48:13.71: SIM {TimeUS : 59735263, Roll : 0.38, Pitch : -16.67, Yaw : 47.48, Alt : 49.2900009155, Lat : 49.2836414, Lng : -123.1149044, Q1 : 0.905494511127, Q2 : 0.0614152476192, Q3 : -0.131408557296, Q4 : 0.398797810078}
2019-04-14 16:48:13.81: SIM {TimeUS : 59835223, Roll : 0.56, Pitch : -16.7, Yaw : 47.13, Alt : 49.2900009155, Lat : 49.2836439, Lng : -123.1149002, Q1 : 0.906561911106, Q2 : 0.0625338330865, Q3 : -0.131220519543, Q4 : 0.396252810955}
2019-04-14 16:48:13.91: SIM {TimeUS : 59935183, Roll : 0.64, Pitch : -16.74, Yaw : 46.91, Alt : 49.2900009155, Lat : 49.2836463, Lng : -123.1148963, Q1 : 0.907229483128, Q2 : 0.0630760267377, Q3 : -0.131362423301, Q4 : 0.394588410854}
2019-04-14 16:48:14.01: SIM {TimeUS : 60035143, Roll : 0.64, Pitch : -16.79, Yaw : 46.82, Alt : 49.2900009155, Lat : 49.2836487, Lng : -123.1148921, Q1 : 0.907488942146, Q2 : 0.0631405040622, Q3 : -0.131828203797, Q4 : 0.393825381994}
2019-04-14 16:48:14.11: SIM {TimeUS : 60135103, Roll : 0.56, Pitch : -16.83, Yaw : 46.84, Alt : 49.2900009155, Lat : 49.2836511, Lng : -123.114888, Q1 : 0.907415926456, Q2 : 0.0626466944814, Q3 : -0.132434040308, Q4 : 0.393869191408}
2019-04-14 16:48:14.21: SIM {TimeUS : 60235063, Roll : 0.42, Pitch : -16.86, Yaw : 46.95, Alt : 49.2900009155, Lat : 49.2836536, Lng : -123.1148838, Q1 : 0.907082855701, Q2 : 0.06176783517, Q3 : -0.133078619838, Q4 : 0.394557446241}
2019-04-14 16:48:14.31: SIM {TimeUS : 60335023, Roll : 0.25, Pitch : -16.89, Yaw : 47.12, Alt : 49.2999992371, Lat : 49.2836561, Lng : -123.1148796, Q1 : 0.906558811665, Q2 : 0.0607215315104, Q3 : -0.13378149271, Q4 : 0.395684927702}
2019-04-14 16:48:14.41: SIM {TimeUS : 60434983, Roll : 0.1, Pitch : -16.93, Yaw : 47.32, Alt : 49.2999992371, Lat : 49.2836586, Lng : -123.1148753, Q1 : 0.905903458595, Q2 : 0.0599279813468, Q3 : -0.134497225285, Q4 : 0.397061794996}
2019-04-14 16:48:14.51: SIM {TimeUS : 60534943, Roll : -0.01, Pitch : -16.97, Yaw : 47.51, Alt : 49.2999992371, Lat : 49.2836612, Lng : -123.114871, Q1 : 0.905227661133, Q2 : 0.0593354403973, Q3 : -0.135145187378, Q4 : 0.398469567299}
2019-04-14 16:48:14.61: SIM {TimeUS : 60634903, Roll : -0.11, Pitch : -17.01, Yaw : 47.69, Alt : 49.2999992371, Lat : 49.2836638, Lng : -123.1148667, Q1 : 0.904613375664, Q2 : 0.0589532591403, Q3 : -0.135729759932, Q4 : 0.399720609188}
2019-04-14 16:48:14.71: SIM {TimeUS : 60734863, Roll : -0.15, Pitch : -17.06, Yaw : 47.82, Alt : 49.2999992371, Lat : 49.2836663, Lng : -123.1148624, Q1 : 0.904116034508, Q2 : 0.0588947720826, Q3 : -0.136205598712, Q4 : 0.40069141984}
2019-04-14 16:48:14.81: SIM {TimeUS : 60834823, Roll : -0.18, Pitch : -17.11, Yaw : 47.91, Alt : 49.2999992371, Lat : 49.2836688, Lng : -123.1148581, Q1 : 0.90378510952, Q2 : 0.058917786926, Q3 : -0.136630892754, Q4 : 0.401289373636}
2019-04-14 16:48:14.91: SIM {TimeUS : 60934783, Roll : -0.2, Pitch : -17.14, Yaw : 47.94, Alt : 49.2999992371, Lat : 49.2836714, Lng : -123.1148537, Q1 : 0.903651893139, Q2 : 0.0589223727584, Q3 : -0.136887654662, Q4 : 0.401501178741}
2019-04-14 16:48:15.01: SIM {TimeUS : 61034743, Roll : -0.2, Pitch : -17.16, Yaw : 47.92, Alt : 49.2999992371, Lat : 49.2836741, Lng : -123.1148493, Q1 : 0.903685450554, Q2 : 0.0589994676411, Q3 : -0.137070268393, Q4 : 0.401352077723}
2019-04-14 16:48:15.11: SIM {TimeUS : 61134703, Roll : -0.16, Pitch : -17.17, Yaw : 47.86, Alt : 49.2999992371, Lat : 49.2836767, Lng : -123.1148449, Q1 : 0.903856098652, Q2 : 0.0592810474336, Q3 : -0.137045666575, Q4 : 0.400934427977}
2019-04-14 16:48:15.21: SIM {TimeUS : 61234663, Roll : -0.1, Pitch : -17.18, Yaw : 47.78, Alt : 49.2999992371, Lat : 49.2836793, Lng : -123.1148405, Q1 : 0.904118537903, Q2 : 0.0596563778818, Q3 : -0.136980310082, Q4 : 0.40030887723}
2019-04-14 16:48:15.31: SIM {TimeUS : 61334623, Roll : -0.02, Pitch : -17.21, Yaw : 47.67, Alt : 49.3100013733, Lat : 49.283682, Lng : -123.1148361, Q1 : 0.904399216175, Q2 : 0.0602940432727, Q3 : -0.137015074492, Q4 : 0.399566709995}
2019-04-14 16:48:15.41: SIM {TimeUS : 61434583, Roll : 0.05, Pitch : -17.27, Yaw : 47.56, Alt : 49.3100013733, Lat : 49.2836846, Lng : -123.1148315, Q1 : 0.904663980007, Q2 : 0.061026699841, Q3 : -0.137205094099, Q4 : 0.398790180683}
2019-04-14 16:48:15.51: SIM {TimeUS : 61534543, Roll : 0.12, Pitch : -17.31, Yaw : 47.46, Alt : 49.3100013733, Lat : 49.2836872, Lng : -123.1148271, Q1 : 0.904935061932, Q2 : 0.0615702234209, Q3 : -0.137328401208, Q4 : 0.398048430681}
2019-04-14 16:48:15.61: SIM {TimeUS : 61634503, Roll : 0.17, Pitch : -17.31, Yaw : 47.37, Alt : 49.3100013733, Lat : 49.28369, Lng : -123.1148226, Q1 : 0.905205249786, Q2 : 0.0618873611093, Q3 : -0.137263417244, Q4 : 0.397406935692}
2019-04-14 16:48:15.71: SIM {TimeUS : 61735296, Roll : 0.2, Pitch : -17.32, Yaw : 47.3, Alt : 49.3100013733, Lat : 49.2836926, Lng : -123.1148181, Q1 : 0.90542536974, Q2 : 0.062028516084, Q3 : -0.137222364545, Q4 : 0.396897226572}
2019-04-14 16:48:15.81: SIM {TimeUS : 61835256, Roll : 0.2, Pitch : -17.33, Yaw : 47.26, Alt : 49.3100013733, Lat : 49.2836954, Lng : -123.1148136, Q1 : 0.905570685863, Q2 : 0.0620097927749, Q3 : -0.137389793992, Q4 : 0.396510481834}
2019-04-14 16:48:15.91: SIM {TimeUS : 61935216, Roll : 0.19, Pitch : -17.35, Yaw : 47.23, Alt : 49.3100013733, Lat : 49.283698, Lng : -123.114809, Q1 : 0.905639708042, Q2 : 0.062000002712, Q3 : -0.137574315071, Q4 : 0.396290391684}
2019-04-14 16:48:16.01: SIM {TimeUS : 62035176, Roll : 0.17, Pitch : -17.38, Yaw : 47.22, Alt : 49.3100013733, Lat : 49.2837008, Lng : -123.1148045, Q1 : 0.905644476414, Q2 : 0.0619458220899, Q3 : -0.137845307589, Q4 : 0.396193802357}
2019-04-14 16:48:16.11: SIM {TimeUS : 62135136, Roll : 0.15, Pitch : -17.4, Yaw : 47.23, Alt : 49.3100013733, Lat : 49.2837034, Lng : -123.1147999, Q1 : 0.905607461929, Q2 : 0.0618812069297, Q3 : -0.138107448816, Q4 : 0.396197140217}
2019-04-14 16:48:16.21: SIM {TimeUS : 62235096, Roll : 0.14, Pitch : -17.44, Yaw : 47.24, Alt : 49.3100013733, Lat : 49.2837062, Lng : -123.1147953, Q1 : 0.905530452728, Q2 : 0.061911996454, Q3 : -0.138398543, Q4 : 0.396266847849}
2019-04-14 16:48:16.31: SIM {TimeUS : 62335056, Roll : 0.13, Pitch : -17.45, Yaw : 47.26, Alt : 49.3100013733, Lat : 49.2837089, Lng : -123.1147907, Q1 : 0.905460298061, Q2 : 0.0618835911155, Q3 : -0.13859128952, Q4 : 0.396364241838}
2019-04-14 16:48:16.41: SIM {TimeUS : 62435016, Roll : 0.12, Pitch : -17.48, Yaw : 47.27, Alt : 49.3100013733, Lat : 49.2837117, Lng : -123.1147861, Q1 : 0.905374884605, Q2 : 0.061932310462, Q3 : -0.13881932199, Q4 : 0.396471858025}
2019-04-14 16:48:16.51: SIM {TimeUS : 62534976, Roll : 0.12, Pitch : -17.5, Yaw : 47.29, Alt : 49.3100013733, Lat : 49.2837144, Lng : -123.1147815, Q1 : 0.905296802521, Q2 : 0.0620670467615, Q3 : -0.138974547386, Q4 : 0.396574735641}
2019-04-14 16:48:16.61: SIM {TimeUS : 62634936, Roll : 0.12, Pitch : -17.54, Yaw : 47.3, Alt : 49.3199996948, Lat : 49.2837172, Lng : -123.1147768, Q1 : 0.90522891283, Q2 : 0.0621319673955, Q3 : -0.13929413259, Q4 : 0.396607398987}
2019-04-14 16:48:16.71: SIM {TimeUS : 62734896, Roll : 0.08, Pitch : -17.58, Yaw : 47.3, Alt : 49.3199996948, Lat : 49.2837199, Lng : -123.1147722, Q1 : 0.905188143253, Q2 : 0.0620207674801, Q3 : -0.139756843448, Q4 : 0.396555006504}
2019-04-14 16:48:16.81: SIM {TimeUS : 62834856, Roll : 0.05, Pitch : -17.63, Yaw : 47.29, Alt : 49.3199996948, Lat : 49.2837228, Lng : -123.1147675, Q1 : 0.905166685581, Q2 : 0.0619603805244, Q3 : -0.140229538083, Q4 : 0.396446585655}
2019-04-14 16:48:16.91: SIM {TimeUS : 62934816, Roll : 0.06, Pitch : -17.67, Yaw : 47.28, Alt : 49.3199996948, Lat : 49.2837254, Lng : -123.1147628, Q1 : 0.905170738697, Q2 : 0.0621102526784, Q3 : -0.140475526452, Q4 : 0.396326810122}
2019-04-14 16:48:17.01: SIM {TimeUS : 63034776, Roll : 0.09, Pitch : -17.67, Yaw : 47.26, Alt : 49.3199996948, Lat : 49.2837283, Lng : -123.1147582, Q1 : 0.905224740505, Q2 : 0.0623527057469, Q3 : -0.140386834741, Q4 : 0.396196812391}
2019-04-14 16:48:17.11: SIM {TimeUS : 63134736, Roll : 0.13, Pitch : -17.64, Yaw : 47.23, Alt : 49.3199996948, Lat : 49.2837311, Lng : -123.1147535, Q1 : 0.905327737331, Q2 : 0.0625128522515, Q3 : -0.140083447099, Q4 : 0.396043479443}
2019-04-14 16:48:17.21: SIM {TimeUS : 63234696, Roll : 0.15, Pitch : -17.62, Yaw : 47.2, Alt : 49.3199996948, Lat : 49.2837338, Lng : -123.1147487, Q1 : 0.905438065529, Q2 : 0.0625504925847, Q3 : -0.139901027083, Q4 : 0.395849794149}
2019-04-14 16:48:17.31: SIM {TimeUS : 63334656, Roll : 0.14, Pitch : -17.61, Yaw : 47.17, Alt : 49.3199996948, Lat : 49.2837367, Lng : -123.1147439, Q1 : 0.905556976795, Q2 : 0.0624563209713, Q3 : -0.139811262488, Q4 : 0.395624220371}
2019-04-14 16:48:17.41: SIM {TimeUS : 63434616, Roll : 0.14, Pitch : -17.6, Yaw : 47.14, Alt : 49.3199996948, Lat : 49.2837394, Lng : -123.1147393, Q1 : 0.905673921108, Q2 : 0.062356825918, Q3 : -0.139727950096, Q4 : 0.39540168643}
2019-04-14 16:48:17.51: SIM {TimeUS : 63534576, Roll : 0.14, Pitch : -17.61, Yaw : 47.12, Alt : 49.3199996948, Lat : 49.2837424, Lng : -123.1147346, Q1 : 0.905752539635, Q2 : 0.0623334236443, Q3 : -0.13988789916, Q4 : 0.395168662071}
2019-04-14 16:48:17.61: SIM {TimeUS : 63634536, Roll : 0.14, Pitch : -17.65, Yaw : 47.09, Alt : 49.3199996948, Lat : 49.2837452, Lng : -123.1147298, Q1 : 0.905791521072, Q2 : 0.0624299570918, Q3 : -0.140191838145, Q4 : 0.394956350327}
2019-04-14 16:48:17.71: SIM {TimeUS : 63734496, Roll : 0.13, Pitch : -17.7, Yaw : 47.07, Alt : 49.3199996948, Lat : 49.2837479, Lng : -123.1147251, Q1 : 0.905798196793, Q2 : 0.0625275298953, Q3 : -0.140636101365, Q4 : 0.394767642021}
2019-04-14 16:48:17.81: SIM {TimeUS : 63835289, Roll : 0.13, Pitch : -17.77, Yaw : 47.06, Alt : 49.3199996948, Lat : 49.2837509, Lng : -123.1147202, Q1 : 0.905772089958, Q2 : 0.0627454668283, Q3 : -0.141141146421, Q4 : 0.394612550735}
2019-04-14 16:48:17.91: SIM {TimeUS : 63935249, Roll : 0.14, Pitch : -17.79, Yaw : 47.04, Alt : 49.3199996948, Lat : 49.2837537, Lng : -123.1147155, Q1 : 0.905773580074, Q2 : 0.0629248470068, Q3 : -0.141315579414, Q4 : 0.394518256187}
2019-04-14 16:48:18.01: SIM {TimeUS : 64035209, Roll : 0.15, Pitch : -17.81, Yaw : 47.03, Alt : 49.3300018311, Lat : 49.2837564, Lng : -123.1147107, Q1 : 0.905783772469, Q2 : 0.0629978254437, Q3 : -0.141461566091, Q4 : 0.394430845976}
2019-04-14 16:48:18.11: SIM {TimeUS : 64135169, Roll : 0.14, Pitch : -17.82, Yaw : 47.02, Alt : 49.3300018311, Lat : 49.2837594, Lng : -123.1147059, Q1 : 0.90580278635, Q2 : 0.0629970133305, Q3 : -0.141558945179, Q4 : 0.394352346659}
2019-04-14 16:48:18.21: SIM {TimeUS : 64235129, Roll : 0.15, Pitch : -17.81, Yaw : 47.02, Alt : 49.3300018311, Lat : 49.2837622, Lng : -123.1147011, Q1 : 0.905834019184, Q2 : 0.0630411878228, Q3 : -0.141460776329, Q4 : 0.394308805466}
2019-04-14 16:48:18.31: SIM {TimeUS : 64335089, Roll : 0.17, Pitch : -17.81, Yaw : 47.01, Alt : 49.3300018311, Lat : 49.283765, Lng : -123.1146963, Q1 : 0.90584564209, Q2 : 0.0631879046559, Q3 : -0.141407757998, Q4 : 0.394277691841}
2019-04-14 16:48:18.41: SIM {TimeUS : 64435049, Roll : 0.18, Pitch : -17.83, Yaw : 47.0, Alt : 49.3300018311, Lat : 49.2837679, Lng : -123.1146915, Q1 : 0.905842781067, Q2 : 0.0632806271315, Q3 : -0.141556933522, Q4 : 0.394215762615}
2019-04-14 16:48:18.51: SIM {TimeUS : 64535009, Roll : 0.18, Pitch : -17.85, Yaw : 47.0, Alt : 49.3300018311, Lat : 49.2837708, Lng : -123.1146867, Q1 : 0.905848264694, Q2 : 0.0633241459727, Q3 : -0.141705349088, Q4 : 0.39414280653}
2019-04-14 16:48:18.61: SIM {TimeUS : 64634969, Roll : 0.18, Pitch : -17.86, Yaw : 46.99, Alt : 49.3300018311, Lat : 49.2837737, Lng : -123.1146819, Q1 : 0.905872821808, Q2 : 0.0633413344622, Q3 : -0.141755789518, Q4 : 0.394065499306}
2019-04-14 16:48:18.71: SIM {TimeUS : 64734929, Roll : 0.17, Pitch : -17.87, Yaw : 46.97, Alt : 49.3300018311, Lat : 49.2837765, Lng : -123.1146771, Q1 : 0.905898988247, Q2 : 0.063310533762, Q3 : -0.141874313354, Q4 : 0.393967598677}
2019-04-14 16:48:18.81: SIM {TimeUS : 64834889, Roll : 0.15, Pitch : -17.89, Yaw : 46.96, Alt : 49.3300018311, Lat : 49.2837794, Lng : -123.1146722, Q1 : 0.905920863152, Q2 : 0.063222207129, Q3 : -0.142125189304, Q4 : 0.393841028214}
2019-04-14 16:48:18.91: SIM {TimeUS : 64934849, Roll : 0.13, Pitch : -17.93, Yaw : 46.95, Alt : 49.3300018311, Lat : 49.2837823, Lng : -123.1146673, Q1 : 0.905931770802, Q2 : 0.0631542429328, Q3 : -0.142533525825, Q4 : 0.393679320812}
2019-04-14 16:48:19.01: SIM {TimeUS : 65034809, Roll : 0.12, Pitch : -17.94, Yaw : 46.93, Alt : 49.3300018311, Lat : 49.2837851, Lng : -123.1146626, Q1 : 0.905977249146, Q2 : 0.0631186962128, Q3 : -0.142631798983, Q4 : 0.393544614315}
2019-04-14 16:48:19.11: SIM {TimeUS : 65134769, Roll : 0.13, Pitch : -17.93, Yaw : 46.92, Alt : 49.3300018311, Lat : 49.283788, Lng : -123.1146577, Q1 : 0.906042873859, Q2 : 0.0631236881018, Q3 : -0.142508044839, Q4 : 0.393437683582}
2019-04-14 16:48:19.21: SIM {TimeUS : 65234729, Roll : 0.15, Pitch : -17.91, Yaw : 46.9, Alt : 49.3300018311, Lat : 49.283791, Lng : -123.1146529, Q1 : 0.90610396862, Q2 : 0.0632286444306, Q3 : -0.142322421074, Q4 : 0.393347322941}
2019-04-14 16:48:19.31: SIM {TimeUS : 65334689, Roll : 0.17, Pitch : -17.92, Yaw : 46.89, Alt : 49.3300018311, Lat : 49.2837939, Lng : -123.114648, Q1 : 0.906144440174, Q2 : 0.0633334964514, Q3 : -0.142332345247, Q4 : 0.393233567476}
2019-04-14 16:48:19.41: SIM {TimeUS : 65434649, Roll : 0.16, Pitch : -17.94, Yaw : 46.87, Alt : 49.3400001526, Lat : 49.2837968, Lng : -123.1146431, Q1 : 0.906169295311, Q2 : 0.0633388161659, Q3 : -0.142560124397, Q4 : 0.393092930317}
2019-04-14 16:48:19.51: SIM {TimeUS : 65534609, Roll : 0.14, Pitch : -17.97, Yaw : 46.86, Alt : 49.3400001526, Lat : 49.2837996, Lng : -123.1146383, Q1 : 0.906197190285, Q2 : 0.0632306411862, Q3 : -0.142854005098, Q4 : 0.39293935895}
2019-04-14 16:48:19.61: SIM {TimeUS : 65634569, Roll : 0.12, Pitch : -17.99, Yaw : 46.84, Alt : 49.3400001526, Lat : 49.2838025, Lng : -123.1146334, Q1 : 0.90622061491, Q2 : 0.0631954222918, Q3 : -0.143088206649, Q4 : 0.392805725336}
2019-04-14 16:48:19.71: SIM {TimeUS : 65734529, Roll : 0.13, Pitch : -18.01, Yaw : 46.83, Alt : 49.3400001526, Lat : 49.2838056, Lng : -123.1146285, Q1 : 0.906241476536, Q2 : 0.0632783845067, Q3 : -0.143210142851, Q4 : 0.392699748278}
2019-04-14 16:48:19.81: SIM {TimeUS : 65835322, Roll : 0.14, Pitch : -18.02, Yaw : 46.82, Alt : 49.3400001526, Lat : 49.2838085, Lng : -123.1146235, Q1 : 0.906260371208, Q2 : 0.0633912906051, Q3 : -0.143290176988, Q4 : 0.392608761787}
2019-04-14 16:48:19.91: SIM {TimeUS : 65935282, Roll : 0.16, Pitch : -18.03, Yaw : 46.81, Alt : 49.3400001526, Lat : 49.2838114, Lng : -123.1146187, Q1 : 0.906264841557, Q2 : 0.0636028200388, Q3 : -0.143290117383, Q4 : 0.392564237118}
2019-04-14 16:48:20.01: SIM {TimeUS : 66035242, Roll : 0.17, Pitch : -18.05, Yaw : 46.8, Alt : 49.3400001526, Lat : 49.2838142, Lng : -123.1146138, Q1 : 0.906262338161, Q2 : 0.0637159347534, Q3 : -0.143379732966, Q4 : 0.392518937588}
2019-04-14 16:48:20.11: SIM {TimeUS : 66135202, Roll : 0.18, Pitch : -18.07, Yaw : 46.8, Alt : 49.3400001526, Lat : 49.2838172, Lng : -123.1146089, Q1 : 0.906253576279, Q2 : 0.063826225698, Q3 : -0.143510088325, Q4 : 0.392473697662}
2019-04-14 16:48:20.21: SIM {TimeUS : 66235162, Roll : 0.19, Pitch : -18.08, Yaw : 46.79, Alt : 49.3400001526, Lat : 49.2838202, Lng : -123.114604, Q1 : 0.906244397163, Q2 : 0.0639496743679, Q3 : -0.143621608615, Q4 : 0.392433941364}
2019-04-14 16:48:20.31: SIM {TimeUS : 66335122, Roll : 0.21, Pitch : -18.1, Yaw : 46.79, Alt : 49.3400001526, Lat : 49.2838231, Lng : -123.1145991, Q1 : 0.906235337257, Q2 : 0.0641579329967, Q3 : -0.143633648753, Q4 : 0.392416507006}
2019-04-14 16:48:20.41: SIM {TimeUS : 66435082, Roll : 0.24, Pitch : -18.11, Yaw : 46.78, Alt : 49.3400001526, Lat : 49.2838261, Lng : -123.1145942, Q1 : 0.906217098236, Q2 : 0.0644537657499, Q3 : -0.143624484539, Q4 : 0.392413437366}
2019-04-14 16:48:20.51: SIM {TimeUS : 66535042, Roll : 0.25, Pitch : -18.11, Yaw : 46.78, Alt : 49.3400001526, Lat : 49.283829, Lng : -123.1145893, Q1 : 0.90623241663, Q2 : 0.0644749477506, Q3 : -0.143608674407, Q4 : 0.392380416393}
2019-04-14 16:48:20.61: SIM {TimeUS : 66635002, Roll : 0.22, Pitch : -18.12, Yaw : 46.77, Alt : 49.3400001526, Lat : 49.2838319, Lng : -123.1145844, Q1 : 0.906256079674, Q2 : 0.064325787127, Q3 : -0.143751785159, Q4 : 0.39229786396}
2019-04-14 16:48:20.71: SIM {TimeUS : 66734962, Roll : 0.2, Pitch : -18.14, Yaw : 46.76, Alt : 49.3499984741, Lat : 49.2838348, Lng : -123.1145795, Q1 : 0.906267225742, Q2 : 0.0641931816936, Q3 : -0.144014298916, Q4 : 0.392197489738}
