2019-04-14 19:09:09.80: SIM {TimeUS : 39815734, Roll : 0.0, Pitch : 0.0, Yaw : 0.0, Alt : 30.1000003815, Lat : 49.28357, Lng : -123.11502, Q1 : 1.0, Q2 : 0.0, Q3 : 0.0, Q4 : 0.0}
2019-04-14 19:09:09.91: SIM {TimeUS : 39934853, Roll : 0.0, Pitch : 0.0, Yaw : 0.0, Alt : 30.1000003815, Lat : 49.28357, Lng : -123.11502, Q1 : 1.0, Q2 : 0.0, Q3 : 0.0, Q4 : 0.0}
2019-04-14 19:09:10.01: SIM {TimeUS : 40034813, Roll : 0.0, Pitch : 0.0, Yaw : 0.0, Alt : 30.1000003815, Lat : 49.28357, Lng : -123.11502, Q1 : 1.0, Q2 : 0.0, Q3 : 0.0, Q4 : 0.0}
2019-04-14 19:09:10.11: SIM {TimeUS : 40134773, Roll : 0.0, Pitch : 0.0, Yaw : 0.0, Alt : 30.1000003815, Lat : 49.28357, Lng : -123.11502, Q1 : 1.0, Q2 : 0.0, Q3 : 0.0, Q4 : 0.0}
2019-04-14 19:09:10.21: SIM {TimeUS : 40234733, Roll : 0.0, Pitch : 0.0, Yaw : 0.0, Alt : 30.1000003815, Lat : 49.28357, Lng : -123.11502, Q1 : 1.0, Q2 : 0.0, Q3 : 0.0, Q4 : 0.0}
2019-04-14 19:09:10.31: SIM {TimeUS : 40334693, Roll : 0.0, Pitch : 0.0, Yaw : 0.0, Alt : 30.1000003815, Lat : 49.28357, Lng : -123.11502, Q1 : 1.0, Q2 : 0.0, Q3 : 0.0, Q4 : 0.0}
2019-04-14 19:09:10.41: SIM {TimeUS : 40434653, Roll : 0.0, Pitch : 0.0, Yaw : 0.0, Alt : 30.1000003815, Lat : 49.28357, Lng : -123.11502, Q1 : 1.0, Q2 : 0.0, Q3 : 0.0, Q4 : 0.0}
2019-04-14 19:09:10.51: SIM {TimeUS : 40534613, Roll : 0.0, Pitch : 0.0, Yaw : 0.0, Alt : 30.1000003815, Lat : 49.28357, Lng : -123.11502, Q1 : 1.0, Q2 : 0.0, Q3 : 0.0, Q4 : 0.0}
2019-04-14 19:09:10.61: SIM {TimeUS : 40634573, Roll : 0.0, Pitch : 0.0, Yaw : 0.0, Alt : 30.1000003815, Lat : 49.28357, Lng : -123.11502, Q1 : 1.0, Q2 : 0.0, Q3 : 0.0, Q4 : 0.0}
2019-04-14 19:09:10.71: SIM {TimeUS : 40734533, Roll : 0.0, Pitch : 0.0, Yaw : 0.0, Alt : 30.1000003815, Lat : 49.28357, Lng : -123.11502, Q1 : 1.0, Q2 : 0.0, Q3 : 0.0, Q4 : 0.0}
2019-04-14 19:09:10.81: SIM {TimeUS : 40834493, Roll : 0.0, Pitch : 0.0, Yaw : 0.0, Alt : 30.1000003815, Lat : 49.28357, Lng : -123.11502, Q1 : 1.0, Q2 : 0.0, Q3 : 0.0, Q4 : 0.0}
2019-04-14 19:09:10.91: SIM {TimeUS : 40934453, Roll : 0.0, Pitch : 0.0, Yaw : 0.0, Alt : 30.1000003815, Lat : 49.28357, Lng : -123.11502, Q1 : 1.0, Q2 : 0.0, Q3 : 0.0, Q4 : 0.0}
2019-04-14 19:09:11.01: SIM {TimeUS : 41034413, Roll : 0.0, Pitch : 0.0, Yaw : 0.0, Alt : 30.1000003815, Lat : 49.28357, Lng : -123.11502, Q1 : 1.0, Q2 : 0.0, Q3 : 0.0, Q4 : 0.0}
2019-04-14 19:09:11.11: SIM {TimeUS : 41134373, Roll : 0.0, Pitch : 0.0, Yaw : 0.0, Alt : 30.1000003815, Lat : 49.28357, Lng : -123.11502, Q1 : 1.0, Q2 : 0.0, Q3 : 0.0, Q4 : 0.0}
2019-04-14 19:09:11.21: SIM {TimeUS : 41234333, Roll : 0.0, Pitch : 0.0, Yaw : 0.0, Alt : 30.1000003815, Lat : 49.28357, Lng : -123.11502, Q1 : 1.0, Q2 : 0.0, Q3 : 0.0, Q4 : 0.0}
2019-04-14 19:09:11.31: SIM {TimeUS : 41334293, Roll : 0.0, Pitch : 0.0, Yaw : 0.0, Alt : 30.1000003815, Lat : 49.28357, Lng : -123.11502, Q1 : 1.0, Q2 : 0.0, Q3 : 0.0, Q4 : 0.0}
2019-04-14 19:09:11.41: SIM {TimeUS : 41434253, Roll : 0.0, Pitch : 0.0, Yaw : 0.0, Alt : 30.1000003815, Lat : 49.28357, Lng : -123.11502, Q1 : 1.0, Q2 : 0.0, Q3 : 0.0, Q4 : 0.0}
2019-04-14 19:09:11.51: SIM {TimeUS : 41534213, Roll : 0.0, Pitch : 0.0, Yaw : 0.0, Alt : 30.1000003815, Lat : 49.28357, Lng : -123.11502, Q1 : 1.0, Q2 : 0.0, Q3 : 0.0, Q4 : 0.0}
2019-04-14 19:09:11.61: SIM {TimeUS : 41634173, Roll : 0.0, Pitch : 0.0, Yaw : 0.0, Alt : 30.1000003815, Lat : 49.28357, Lng : -123.11502, Q1 : 1.0, Q2 : 0.0, Q3 : 0.0, Q4 : 0.0}
2019-04-14 19:09:11.71: SIM {TimeUS : 41734133, Roll : 0.0, Pitch : 0.0, Yaw : 0.0, Alt : 30.1000003815, Lat : 49.28357, Lng : -123.11502, Q1 : 1.0, Q2 : 0.0, Q3 : 0.0, Q4 : 0.0}
2019-04-14 19:09:11.81: SIM {TimeUS : 41834093, Roll : 0.0, Pitch : 0.0, Yaw : 0.0, Alt : 30.1000003815, Lat : 49.28357, Lng : -123.11502, Q1 : 1.0, Q2 : 0.0, Q3 : 0.0, Q4 : 0.0}
2019-04-14 19:09:11.91: SIM {TimeUS : 41934886, Roll : 0.0, Pitch : 0.0, Yaw : 0.0, Alt : 30.1000003815, Lat : 49.28357, Lng : -123.11502, Q1 : 1.0, Q2 : 0.0, Q3 : 0.0, Q4 : 0.0}
2019-04-14 19:09:12.01: SIM {TimeUS : 42034846, Roll : 0.0, Pitch : 0.0, Yaw : 0.0, Alt : 30.1000003815, Lat : 49.28357, Lng : -123.11502, Q1 : 1.0, Q2 : 0.0, Q3 : 0.0, Q4 : 0.0}
2019-04-14 19:09:12.11: SIM {TimeUS : 42134806, Roll : 0.0, Pitch : 0.0, Yaw : 0.0, Alt : 30.1000003815, Lat : 49.28357, Lng : -123.11502, Q1 : 1.0, Q2 : 0.0, Q3 : 0.0, Q4 : 1.55884419956e-12}
2019-04-14 19:09:12.21: SIM {TimeUS : 42234766, Roll : 0.0, Pitch : 0.0, Yaw : 0.0, Alt : 30.1000003815, Lat : 49.28357, Lng : -123.11502, Q1 : 1.0, Q2 : 0.0, Q3 : 0.0, Q4 : 1.31063340736e-10}
2019-04-14 19:09:12.31: SIM {TimeUS : 42334726, Roll : 0.0, Pitch : 0.0, Yaw : 360.0, Alt : 30.1000003815, Lat : 49.28357, Lng : -123.11502, Q1 : 1.0, Q2 : 0.0, Q3 : 0.0, Q4 : -1.69395548255e-07}
2019-04-14 19:09:12.41: SIM {TimeUS : 42434686, Roll : 0.0, Pitch : 0.0, Yaw : 359.99, Alt : 30.1000003815, Lat : 49.28357, Lng : -123.11502, Q1 : 1.0, Q2 : 0.0, Q3 : 0.0, Q4 : -3.5402854337e-07}
2019-04-14 19:09:12.51: SIM {TimeUS : 42534646, Roll : 0.0, Pitch : 0.0, Yaw : 359.99, Alt : 30.1000003815, Lat : 49.28357, Lng : -123.11502, Q1 : 1.0, Q2 : 0.0, Q3 : 0.0, Q4 : -5.45751447589e-07}
2019-04-14 19:09:12.61: SIM {TimeUS : 42634606, Roll : 0.0, Pitch : 0.0, Yaw : 359.99, Alt : 30.1000003815, Lat : 49.28357, Lng : -123.11502, Q1 : 1.0, Q2 : 0.0, Q3 : 0.0, Q4 : -7.71510372033e-07}
2019-04-14 19:09:12.71: SIM {TimeUS : 42734566, Roll : 0.0, Pitch : 0.0, Yaw : 359.99, Alt : 30.1000003815, Lat : 49.28357, Lng : -123.11502, Q1 : 1.0, Q2 : 0.0, Q3 : 0.0, Q4 : -9.63069624049e-07}
2019-04-14 19:09:12.81: SIM {TimeUS : 42834526, Roll : 0.0, Pitch : 0.0, Yaw : 359.99, Alt : 30.1000003815, Lat : 49.28357, Lng : -123.11502, Q1 : 1.0, Q2 : 0.0, Q3 : 0.0, Q4 : -1.12076827463e-06}
2019-04-14 19:09:12.91: SIM {TimeUS : 42934486, Roll : 0.0, Pitch : 0.0, Yaw : 359.99, Alt : 30.1000003815, Lat : 49.28357, Lng : -123.11502, Q1 : 1.0, Q2 : 0.0, Q3 : 0.0, Q4 : -1.36497567382e-06}
2019-04-14 19:09:13.01: SIM {TimeUS : 43034446, Roll : 0.0, Pitch : 0.0, Yaw : 359.99, Alt : 30.1100006104, Lat : 49.28357, Lng : -123.11502, Q1 : 1.0, Q2 : 0.0, Q3 : 0.0, Q4 : -1.56352700742e-06}
2019-04-14 19:09:13.11: SIM {TimeUS : 43134406, Roll : 0.0, Pitch : 0.0, Yaw : 359.99, Alt : 30.1399993896, Lat : 49.28357, Lng : -123.11502, Q1 : 1.0, Q2 : 0.0, Q3 : 0.0, Q4 : -1.78785512617e-06}
2019-04-14 19:09:13.21: SIM {TimeUS : 43234366, Roll : 0.0, Pitch : 0.0, Yaw : 359.99, Alt : 30.1700000763, Lat : 49.28357, Lng : -123.11502, Q1 : 1.0, Q2 : 0.0, Q3 : 0.0, Q4 : -2.03686818168e-06}
2019-04-14 19:09:13.31: SIM {TimeUS : 43334326, Roll : 0.0, Pitch : 0.0, Yaw : 359.99, Alt : 30.2000007629, Lat : 49.28357, Lng : -123.11502, Q1 : 1.0, Q2 : 0.0, Q3 : 0.0, Q4 : -2.31053172683e-06}
2019-04-14 19:09:13.41: SIM {TimeUS : 43434286, Roll : -0.09, Pitch : -0.08, Yaw : 359.99, Alt : 30.25, Lat : 49.28357, Lng : -123.11502, Q1 : 0.999999344349, Q2 : -0.000846959766932, Q3 : -0.000769483449403, Q4 : -1.07450250653e-05}
2019-04-14 19:09:13.51: SIM {TimeUS : 43534246, Roll : -0.36, Pitch : -0.32, Yaw : 359.99, Alt : 30.3400001526, Lat : 49.28357, Lng : -123.11502, Q1 : 0.999990701675, Q2 : -0.00322381709702, Q3 : -0.00285879080184, Q4 : -4.8602487368e-05}
2019-04-14 19:09:13.61: SIM {TimeUS : 43634206, Roll : -0.62, Pitch : -0.56, Yaw : 359.99, Alt : 30.4899997711, Lat : 49.28357, Lng : -123.11502, Q1 : 0.999973118305, Q2 : -0.00541890366003, Q3 : -0.00494418619201, Q4 : -0.000112606328912}
2019-04-14 19:09:13.71: SIM {TimeUS : 43734166, Roll : -0.75, Pitch : -0.72, Yaw : 359.98, Alt : 30.6499996185, Lat : 49.28357, Lng : -123.11502, Q1 : 0.999958574772, Q2 : -0.00657974276692, Q3 : -0.0062895338051, Q4 : -0.000194865497178}
2019-04-14 19:09:13.81: SIM {TimeUS : 43834126, Roll : -0.75, Pitch : -0.73, Yaw : 359.97, Alt : 30.8099994659, Lat : 49.28357, Lng : -123.1150201, Q1 : 0.999957919121, Q2 : -0.00658461917192, Q3 : -0.00637998851016, Q4 : -0.000281099899439}
2019-04-14 19:09:13.91: SIM {TimeUS : 43934086, Roll : -0.64, Pitch : -0.59, Yaw : 359.96, Alt : 30.9599990845, Lat : 49.28357, Lng : -123.1150201, Q1 : 0.999970555305, Q2 : -0.00561642600223, Q3 : -0.00521672610193, Q4 : -0.00036634269054}
2019-04-14 19:09:14.01: SIM {TimeUS : 44034879, Roll : -0.45, Pitch : -0.38, Yaw : 359.95, Alt : 31.1200008392, Lat : 49.2835701, Lng : -123.1150202, Q1 : 0.999986290932, Q2 : -0.00400349963456, Q3 : -0.00335553544573, Q4 : -0.00044426243403}
2019-04-14 19:09:14.11: SIM {TimeUS : 44134839, Roll : -0.26, Pitch : -0.17, Yaw : 359.94, Alt : 31.2800006866, Lat : 49.2835701, Lng : -123.1150203, Q1 : 0.999996006489, Q2 : -0.00231573637575, Q3 : -0.00152777531184, Q4 : -0.000509748642799}
2019-04-14 19:09:14.21: SIM {TimeUS : 44234799, Roll : -0.11, Pitch : -0.01, Yaw : 359.93, Alt : 31.4400005341, Lat : 49.2835702, Lng : -123.1150204, Q1 : 0.999999344349, Q2 : -0.000995810609311, Q3 : -0.000169435341377, Q4 : -0.000555751263164}
2019-04-14 19:09:14.31: SIM {TimeUS : 44334759, Roll : -0.01, Pitch : 0.05, Yaw : 359.93, Alt : 31.6100006104, Lat : 49.2835702, Lng : -123.1150204, Q1 : 0.999999701977, Q2 : -0.000149023762788, Q3 : 0.000515201885719, Q4 : -0.000587725138757}
2019-04-14 19:09:14.41: SIM {TimeUS : 44434719, Roll : 0.04, Pitch : 0.05, Yaw : 359.93, Alt : 31.7900009155, Lat : 49.2835703, Lng : -123.1150205, Q1 : 0.999999642372, Q2 : 0.000417573872255, Q3 : 0.000454897584859, Q4 : -0.000608468253631}
2019-04-14 19:09:14.51: SIM {TimeUS : 44534679, Roll : 0.07, Pitch : 0.02, Yaw : 359.92, Alt : 31.9799995422, Lat : 49.2835703, Lng : -123.1150206, Q1 : 0.999999582767, Q2 : 0.000687510997523, Q3 : 0.000177380235982, Q4 : -0.000617124256678}
2019-04-14 19:09:14.61: SIM {TimeUS : 44634639, Roll : 0.07, Pitch : 0.01, Yaw : 359.93, Alt : 32.1599998474, Lat : 49.2835703, Lng : -123.1150206, Q1 : 0.999999642372, Q2 : 0.000622643739916, Q3 : 0.000102461061033, Q4 : -0.000608500791714}
2019-04-14 19:09:14.71: SIM {TimeUS : 44734599, Roll : 0.06, Pitch : 0.02, Yaw : 359.93, Alt : 32.3499984741, Lat : 49.2835703, Lng : -123.1150207, Q1 : 0.999999701977, Q2 : 0.000524916220456, Q3 : 0.000178921822226, Q4 : -0.00057682453189}
2019-04-14 19:09:14.81: SIM {TimeUS : 44834559, Roll : 0.06, Pitch : 0.04, Yaw : 359.93, Alt : 32.5499992371, Lat : 49.2835703, Lng : -123.1150207, Q1 : 0.999999642372, Q2 : 0.000541915593203, Q3 : 0.0003570538247, Q4 : -0.00054208439542}
2019-04-14 19:09:14.91: SIM {TimeUS : 44934519, Roll : 0.08, Pitch : 0.06, Yaw : 359.94, Alt : 32.7400016785, Lat : 49.2835703, Lng : -123.1150208, Q1 : 0.999999403954, Q2 : 0.000737598689739, Q3 : 0.000587451388128, Q4 : -0.000511209422257}
2019-04-14 19:09:15.01: SIM {TimeUS : 45034479, Roll : 0.12, Pitch : 0.08, Yaw : 359.94, Alt : 32.9399986267, Lat : 49.2835704, Lng : -123.1150208, Q1 : 0.999999046326, Q2 : 0.00106121331919, Q3 : 0.000737422145903, Q4 : -0.000485241325805}
2019-04-14 19:09:15.11: SIM {TimeUS : 45134439, Roll : 0.16, Pitch : 0.09, Yaw : 359.94, Alt : 33.1399993896, Lat : 49.2835704, Lng : -123.1150209, Q1 : 0.999998509884, Q2 : 0.00142836233135, Q3 : 0.000845635542646, Q4 : -0.00046591865248}
2019-04-14 19:09:15.21: SIM {TimeUS : 45234399, Roll : 0.19, Pitch : 0.11, Yaw : 359.94, Alt : 33.3499984741, Lat : 49.2835704, Lng : -123.1150209, Q1 : 0.999998033047, Q2 : 0.00167059502564, Q3 : 0.000966842519119, Q4 : -0.000443847500719}
2019-04-14 19:09:15.31: SIM {TimeUS : 45334359, Roll : 0.19, Pitch : 0.12, Yaw : 359.95, Alt : 33.5499992371, Lat : 49.2835704, Lng : -123.1150209, Q1 : 0.999997913837, Q2 : 0.00167753500864, Q3 : 0.00108775880653, Q4 : -0.0004381860781}
2019-04-14 19:09:15.41: SIM {TimeUS : 45434319, Roll : 0.16, Pitch : 0.13, Yaw : 359.94, Alt : 33.7599983215, Lat : 49.2835704, Lng : -123.1150209, Q1 : 0.999998152256, Q2 : 0.00141111470293, Q3 : 0.00120562803932, Q4 : -0.000453927263152}
2019-04-14 19:09:15.51: SIM {TimeUS : 45534279, Roll : 0.13, Pitch : 0.14, Yaw : 359.94, Alt : 33.9700012207, Lat : 49.2835704, Lng : -123.1150209, Q1 : 0.99999833107, Q2 : 0.0012033256935, Q3 : 0.00129797367845, Q4 : -0.00047460992937}
2019-04-14 19:09:15.61: SIM {TimeUS : 45634239, Roll : 0.13, Pitch : 0.14, Yaw : 359.94, Alt : 34.1800003052, Lat : 49.2835704, Lng : -123.1150209, Q1 : 0.999998390675, Q2 : 0.00117325247265, Q3 : 0.0012506141793, Q4 : -0.000517570355441}
2019-04-14 19:09:15.71: SIM {TimeUS : 45734199, Roll : 0.12, Pitch : 0.13, Yaw : 359.93, Alt : 34.3899993896, Lat : 49.2835704, Lng : -123.1150209, Q1 : 0.999998509884, Q2 : 0.00112498458475, Q3 : 0.00117555772886, Q4 : -0.000570472271647}
2019-04-14 19:09:15.81: SIM {TimeUS : 45834159, Roll : 0.1, Pitch : 0.13, Yaw : 359.92, Alt : 34.5999984741, Lat : 49.2835706, Lng : -123.1150209, Q1 : 0.999998688698, Q2 : 0.000951913010795, Q3 : 0.00114458950702, Q4 : -0.000621536630206}
2019-04-14 19:09:15.91: SIM {TimeUS : 45934119, Roll : 0.09, Pitch : 0.09, Yaw : 359.92, Alt : 34.8199996948, Lat : 49.2835706, Lng : -123.1150209, Q1 : 0.99999910593, Q2 : 0.000801151385531, Q3 : 0.000820913061034, Q4 : -0.000656259828247}
2019-04-14 19:09:16.01: SIM {TimeUS : 46034079, Roll : 0.07, Pitch : 0.04, Yaw : 359.92, Alt : 35.0299987793, Lat : 49.2835706, Lng : -123.1150209, Q1 : 0.999999463558, Q2 : 0.000694561749697, Q3 : 0.000359539058991, Q4 : -0.000684368074872}
2019-04-14 19:09:16.11: SIM {TimeUS : 46134872, Roll : 0.06, Pitch : 0.0, Yaw : 359.91, Alt : 35.25, Lat : 49.2835704, Lng : -123.1150209, Q1 : 0.999999582767, Q2 : 0.000569455383811, Q3 : 3.04657751258e-05, Q4 : -0.000720051990356}
2019-04-14 19:09:16.21: SIM {TimeUS : 46234832, Roll : 0.05, Pitch : 0.0, Yaw : 359.91, Alt : 35.4700012207, Lat : 49.2835704, Lng : -123.1150208, Q1 : 0.999999582767, Q2 : 0.000453998072771, Q3 : -8.48851777846e-05, Q4 : -0.000768599682488}
2019-04-14 19:09:16.31: SIM {TimeUS : 46334792, Roll : 0.05, Pitch : 0.0, Yaw : 359.9, Alt : 35.6899986267, Lat : 49.2835704, Lng : -123.1150208, Q1 : 0.999999523163, Q2 : 0.000456456764368, Q3 : 6.6413093009e-05, Q4 : -0.000823154405225}
2019-04-14 19:09:16.41: SIM {TimeUS : 46434752, Roll : 0.04, Pitch : 0.02, Yaw : 359.9, Alt : 35.9099998474, Lat : 49.2835704, Lng : -123.1150208, Q1 : 0.999999523163, Q2 : 0.000381379184546, Q3 : 0.00022685607837, Q4 : -0.00086589588318}
2019-04-14 19:09:16.51: SIM {TimeUS : 46534712, Roll : 0.01, Pitch : 0.04, Yaw : 359.89, Alt : 36.1300010681, Lat : 49.2835704, Lng : -123.1150208, Q1 : 0.999999523163, Q2 : 0.000173980806721, Q3 : 0.000353140581865, Q4 : -0.000890393799637}
2019-04-14 19:09:16.61: SIM {TimeUS : 46634672, Roll : 0.0, Pitch : 0.05, Yaw : 359.89, Alt : 36.3499984741, Lat : 49.2835704, Lng : -123.1150208, Q1 : 0.999999463558, Q2 : -4.71329003631e-05, Q3 : 0.000448114122264, Q4 : -0.000912074232474}
2019-04-14 19:09:16.71: SIM {TimeUS : 46734632, Roll : -0.01, Pitch : 0.06, Yaw : 359.89, Alt : 36.5699996948, Lat : 49.2835704, Lng : -123.1150208, Q1 : 0.999999403954, Q2 : -0.000167249221704, Q3 : 0.000564883695915, Q4 : -0.000927033368498}
2019-04-14 19:09:16.81: SIM {TimeUS : 46834592, Roll : -0.03, Pitch : 0.04, Yaw : 359.89, Alt : 36.7900009155, Lat : 49.2835704, Lng : -123.1150207, Q1 : 0.999999463558, Q2 : -0.000278978259303, Q3 : 0.000416579714511, Q4 : -0.000940623285715}
2019-04-14 19:09:16.91: SIM {TimeUS : 46934552, Roll : -0.03, Pitch : 0.01, Yaw : 359.89, Alt : 37.0200004578, Lat : 49.2835704, Lng : -123.1150207, Q1 : 0.999999463558, Q2 : -0.000333208707161, Q3 : 0.000136294591357, Q4 : -0.000958296528552}
2019-04-14 19:09:17.01: SIM {TimeUS : 47034512, Roll : -0.04, Pitch : -0.01, Yaw : 359.88, Alt : 37.2400016785, Lat : 49.2835704, Lng : -123.1150207, Q1 : 0.999999463558, Q2 : -0.000352767965524, Q3 : -0.000107748317532, Q4 : -0.000973636342678}
2019-04-14 19:09:17.11: SIM {TimeUS : 47134472, Roll : -0.03, Pitch : -0.03, Yaw : 359.88, Alt : 37.4700012207, Lat : 49.2835704, Lng : -123.1150207, Q1 : 0.999999403954, Q2 : -0.000295176927466, Q3 : -0.000302740081679, Q4 : -0.000984533806331}
2019-04-14 19:09:17.21: SIM {TimeUS : 47234432, Roll : -0.01, Pitch : -0.04, Yaw : 359.88, Alt : 37.6899986267, Lat : 49.2835704, Lng : -123.1150207, Q1 : 0.999999403954, Q2 : -9.63334023254e-05, Q3 : -0.000398211355787, Q4 : -0.000990715925582}
2019-04-14 19:09:17.31: SIM {TimeUS : 47334392, Roll : 0.0, Pitch : -0.05, Yaw : 359.88, Alt : 37.9199981689, Lat : 49.2835704, Lng : -123.1150207, Q1 : 0.999999403954, Q2 : -7.874739822e-05, Q3 : -0.000504791329149, Q4 : -0.000985852326266}
2019-04-14 19:09:17.41: SIM {TimeUS : 47434352, Roll : -0.02, Pitch : -0.07, Yaw : 359.88, Alt : 38.1399993896, Lat : 49.2835704, Lng : -123.1150207, Q1 : 0.999999284744, Q2 : -0.000249700940913, Q3 : -0.000679278629832, Q4 : -0.000978760886937}
2019-04-14 19:09:17.51: SIM {TimeUS : 47534312, Roll : -0.05, Pitch : -0.08, Yaw : 359.88, Alt : 38.3699989319, Lat : 49.2835704, Lng : -123.1150207, Q1 : 0.99999910593, Q2 : -0.000492405262776, Q3 : -0.000783172028605, Q4 : -0.000977141549811}
2019-04-14 19:09:17.61: SIM {TimeUS : 47634272, Roll : -0.08, Pitch : -0.08, Yaw : 359.88, Alt : 38.5999984741, Lat : 49.2835704, Lng : -123.1150207, Q1 : 0.999998927116, Q2 : -0.000772831379436, Q3 : -0.000732799060643, Q4 : -0.000994931557216}
2019-04-14 19:09:17.71: SIM {TimeUS : 47734232, Roll : -0.11, Pitch : -0.07, Yaw : 359.88, Alt : 38.8300018311, Lat : 49.2835704, Lng : -123.1150206, Q1 : 0.999998807907, Q2 : -0.000963744823821, Q3 : -0.00067007978214, Q4 : -0.00101769890171}
2019-04-14 19:09:17.81: SIM {TimeUS : 47834192, Roll : -0.11, Pitch : -0.06, Yaw : 359.88, Alt : 39.0600013733, Lat : 49.2835704, Lng : -123.1150206, Q1 : 0.999998807907, Q2 : -0.000989963999018, Q3 : -0.000560127722565, Q4 : -0.00103606528137}
2019-04-14 19:09:17.91: SIM {TimeUS : 47934152, Roll : -0.09, Pitch : -0.03, Yaw : 359.87, Alt : 39.2900009155, Lat : 49.2835704, Lng : -123.1150206, Q1 : 0.999999046326, Q2 : -0.000852709054016, Q3 : -0.000339385151165, Q4 : -0.00105736067053}
2019-04-14 19:09:18.01: SIM {TimeUS : 48034112, Roll : -0.07, Pitch : -0.03, Yaw : 359.87, Alt : 39.5200004578, Lat : 49.2835704, Lng : -123.1150206, Q1 : 0.999999165535, Q2 : -0.000622783147264, Q3 : -0.000262338639004, Q4 : -0.00108326901682}
2019-04-14 19:09:18.11: SIM {TimeUS : 48134072, Roll : -0.05, Pitch : -0.03, Yaw : 359.87, Alt : 39.75, Lat : 49.2835706, Lng : -123.1150206, Q1 : 0.99999922514, Q2 : -0.000460629875306, Q3 : -0.000268948351732, Q4 : -0.00112027220894}
2019-04-14 19:09:18.21: SIM {TimeUS : 48234865, Roll : -0.04, Pitch : -0.01, Yaw : 359.86, Alt : 39.9799995422, Lat : 49.2835706, Lng : -123.1150206, Q1 : 0.999999284744, Q2 : -0.000369711924577, Q3 : -0.000135369875352, Q4 : -0.00114780222066}
2019-04-14 19:09:18.31: SIM {TimeUS : 48334825, Roll : -0.05, Pitch : 0.01, Yaw : 359.86, Alt : 40.2099990845, Lat : 49.2835706, Lng : -123.1150206, Q1 : 0.999999165535, Q2 : -0.000515231920872, Q3 : 0.000100590965303, Q4 : -0.00117197912186}
2019-04-14 19:09:18.41: SIM {TimeUS : 48434785, Roll : -0.06, Pitch : 0.03, Yaw : 359.86, Alt : 40.4399986267, Lat : 49.2835706, Lng : -123.1150206, Q1 : 0.99999910593, Q2 : -0.000543818459846, Q3 : 0.00030206903466, Q4 : -0.00119848793838}
2019-04-14 19:09:18.51: SIM {TimeUS : 48534745, Roll : -0.04, Pitch : 0.06, Yaw : 359.85, Alt : 40.6800003052, Lat : 49.2835706, Lng : -123.1150207, Q1 : 0.999998986721, Q2 : -0.000418450654252, Q3 : 0.000526421994437, Q4 : -0.00122735626064}
2019-04-14 19:09:18.61: SIM {TimeUS : 48634705, Roll : -0.02, Pitch : 0.06, Yaw : 359.85, Alt : 40.9099998474, Lat : 49.2835706, Lng : -123.1150207, Q1 : 0.999998986721, Q2 : -0.000251683552051, Q3 : 0.000600327388383, Q4 : -0.00124886154663}
2019-04-14 19:09:18.71: SIM {TimeUS : 48734665, Roll : 0.0, Pitch : 0.07, Yaw : 359.85, Alt : 41.1399993896, Lat : 49.2835706, Lng : -123.1150207, Q1 : 0.999998986721, Q2 : 1.92576862901e-05, Q3 : 0.000657382945064, Q4 : -0.00126401509624}
2019-04-14 19:09:18.81: SIM {TimeUS : 48834625, Roll : 0.04, Pitch : 0.1, Yaw : 359.85, Alt : 41.3699989319, Lat : 49.2835706, Lng : -123.1150207, Q1 : 0.999998688698, Q2 : 0.000360448961146, Q3 : 0.000920143153053, Q4 : -0.00127361994237}
2019-04-14 19:09:18.91: SIM {TimeUS : 48934585, Roll : 0.08, Pitch : 0.14, Yaw : 359.85, Alt : 41.6100006104, Lat : 49.2835706, Lng : -123.1150207, Q1 : 0.999998033047, Q2 : 0.000768434547354, Q3 : 0.0013018239988, Q4 : -0.00128522817977}
2019-04-14 19:09:19.01: SIM {TimeUS : 49034545, Roll : 0.11, Pitch : 0.18, Yaw : 359.85, Alt : 41.8400001526, Lat : 49.2835706, Lng : -123.1150207, Q1 : 0.999997317791, Q2 : 0.000989632098936, Q3 : 0.00164442858659, Q4 : -0.00130500760861}
2019-04-14 19:09:19.11: SIM {TimeUS : 49134505, Roll : 0.09, Pitch : 0.21, Yaw : 359.84, Alt : 42.0699996948, Lat : 49.2835706, Lng : -123.1150207, Q1 : 0.999997019768, Q2 : 0.000869161973242, Q3 : 0.00186823774129, Q4 : -0.00132059701718}
2019-04-14 19:09:19.21: SIM {TimeUS : 49234465, Roll : 0.05, Pitch : 0.22, Yaw : 359.84, Alt : 42.3100013733, Lat : 49.2835706, Lng : -123.1150207, Q1 : 0.999997019768, Q2 : 0.000482016970636, Q3 : 0.00197130604647, Q4 : -0.00133660959546}
2019-04-14 19:09:19.31: SIM {TimeUS : 49334425, Roll : 0.0, Pitch : 0.22, Yaw : 359.84, Alt : 42.5400009155, Lat : 49.2835706, Lng : -123.1150207, Q1 : 0.999997198582, Q2 : 3.79782250093e-05, Q3 : 0.00194561085664, Q4 : -0.00135814060923}
2019-04-14 19:09:19.41: SIM {TimeUS : 49434385, Roll : -0.01, Pitch : 0.18, Yaw : 359.84, Alt : 42.7799987793, Lat : 49.2835706, Lng : -123.1150207, Q1 : 0.999997735023, Q2 : -0.000155434332555, Q3 : 0.00162137928419, Q4 : -0.00137866113801}
2019-04-14 19:09:19.51: SIM {TimeUS : 49534345, Roll : -0.01, Pitch : 0.13, Yaw : 359.83, Alt : 43.0099983215, Lat : 49.2835706, Lng : -123.1150207, Q1 : 0.99999833107, Q2 : -0.000152834836626, Q3 : 0.00118265976198, Q4 : -0.00139853486326}
2019-04-14 19:09:19.61: SIM {TimeUS : 49634305, Roll : 0.0, Pitch : 0.12, Yaw : 359.83, Alt : 43.25, Lat : 49.2835706, Lng : -123.1150207, Q1 : 0.999998390675, Q2 : -3.75341296603e-05, Q3 : 0.00106499122921, Q4 : -0.00142668723129}
2019-04-14 19:09:19.71: SIM {TimeUS : 49734265, Roll : 0.03, Pitch : 0.13, Yaw : 359.83, Alt : 43.4799995422, Lat : 49.2835706, Lng : -123.1150207, Q1 : 0.999998211861, Q2 : 0.000266384799033, Q3 : 0.0011426191777, Q4 : -0.00146650138777}
2019-04-14 19:09:19.81: SIM {TimeUS : 49834225, Roll : 0.08, Pitch : 0.14, Yaw : 359.82, Alt : 43.7200012207, Lat : 49.2835706, Lng : -123.1150207, Q1 : 0.999997794628, Q2 : 0.000743079057429, Q3 : 0.001246426953, Q4 : -0.00150226836558}
2019-04-14 19:09:19.91: SIM {TimeUS : 49934185, Roll : 0.12, Pitch : 0.13, Yaw : 359.82, Alt : 43.9500007629, Lat : 49.2835704, Lng : -123.1150207, Q1 : 0.99999755621, Q2 : 0.00110001477879, Q3 : 0.00115607702173, Q4 : -0.00153781706467}
2019-04-14 19:09:20.01: SIM {TimeUS : 50034145, Roll : 0.12, Pitch : 0.11, Yaw : 359.82, Alt : 44.1899986267, Lat : 49.2835704, Lng : -123.1150207, Q1 : 0.999997675419, Q2 : 0.00111173884943, Q3 : 0.000966433843132, Q4 : -0.00157015013974}
2019-04-14 19:09:20.11: SIM {TimeUS : 50134105, Roll : 0.08, Pitch : 0.08, Yaw : 359.81, Alt : 44.4199981689, Lat : 49.2835704, Lng : -123.1150207, Q1 : 0.999998152256, Q2 : 0.000743082200643, Q3 : 0.000776249391492, Q4 : -0.00158732372802}
2019-04-14 19:09:20.21: SIM {TimeUS : 50234065, Roll : 0.02, Pitch : 0.07, Yaw : 359.81, Alt : 44.6599998474, Lat : 49.2835704, Lng : -123.1150206, Q1 : 0.999998509884, Q2 : 0.000223831928452, Q3 : 0.000658118806314, Q4 : -0.00159653800074}
2019-04-14 19:09:20.31: SIM {TimeUS : 50334858, Roll : -0.01, Pitch : 0.07, Yaw : 359.81, Alt : 44.9000015259, Lat : 49.2835704, Lng : -123.1150206, Q1 : 0.999998450279, Q2 : -0.000144231802551, Q3 : 0.000692188506946, Q4 : -0.00160938093904}
2019-04-14 19:09:20.41: SIM {TimeUS : 50434818, Roll : -0.03, Pitch : 0.07, Yaw : 359.81, Alt : 45.1300010681, Lat : 49.2835704, Lng : -123.1150206, Q1 : 0.999998390675, Q2 : -0.000344001775375, Q3 : 0.000637770805042, Q4 : -0.00162686116528}
2019-04-14 19:09:20.51: SIM {TimeUS : 50534778, Roll : -0.04, Pitch : 0.05, Yaw : 359.81, Alt : 45.3699989319, Lat : 49.2835704, Lng : -123.1150206, Q1 : 0.999998450279, Q2 : -0.0003754812642, Q3 : 0.000468818790978, Q4 : -0.00165521912277}
2019-04-14 19:09:20.61: SIM {TimeUS : 50634738, Roll : -0.05, Pitch : 0.02, Yaw : 359.8, Alt : 45.6100006104, Lat : 49.2835703, Lng : -123.1150206, Q1 : 0.999998450279, Q2 : -0.000445084937382, Q3 : 0.000227869008086, Q4 : -0.00169202650432}
2019-04-14 19:09:20.71: SIM {TimeUS : 50734698, Roll : -0.04, Pitch : 0.0, Yaw : 359.8, Alt : 45.8400001526, Lat : 49.2835703, Lng : -123.1150206, Q1 : 0.999998390675, Q2 : -0.000404378341045, Q3 : -6.17395517111e-06, Q4 : -0.00173218408599}
2019-04-14 19:09:20.81: SIM {TimeUS : 50834658, Roll : -0.02, Pitch : -0.01, Yaw : 359.79, Alt : 46.0699996948, Lat : 49.2835703, Lng : -123.1150206, Q1 : 0.999998390675, Q2 : -0.000253420468653, Q3 : -0.000127133447677, Q4 : -0.00177311361767}
2019-04-14 19:09:20.91: SIM {TimeUS : 50934618, Roll : -0.02, Pitch : -0.01, Yaw : 359.79, Alt : 46.2999992371, Lat : 49.2835703, Lng : -123.1150205, Q1 : 0.99999833107, Q2 : -0.000199380883714, Q3 : -0.000138077797601, Q4 : -0.0018104967894}
2019-04-14 19:09:21.01: SIM {TimeUS : 51034578, Roll : -0.02, Pitch : -0.02, Yaw : 359.78, Alt : 46.5200004578, Lat : 49.2835703, Lng : -123.1150205, Q1 : 0.999998211861, Q2 : -0.000223254450248, Q3 : -0.000182949952432, Q4 : -0.00184792792425}
2019-04-14 19:09:21.11: SIM {TimeUS : 51134538, Roll : -0.03, Pitch : -0.03, Yaw : 359.78, Alt : 46.7400016785, Lat : 49.2835703, Lng : -123.1150205, Q1 : 0.999998152256, Q2 : -0.000264100119239, Q3 : -0.000344143190887, Q4 : -0.00188159220852}
2019-04-14 19:09:21.21: SIM {TimeUS : 51234498, Roll : -0.03, Pitch : -0.05, Yaw : 359.78, Alt : 46.9500007629, Lat : 49.2835703, Lng : -123.1150205, Q1 : 0.999998033047, Q2 : -0.000280320207821, Q3 : -0.000475292967167, Q4 : -0.00191149278544}
2019-04-14 19:09:21.31: SIM {TimeUS : 51334458, Roll : -0.02, Pitch : -0.06, Yaw : 359.77, Alt : 47.1500015259, Lat : 49.2835703, Lng : -123.1150205, Q1 : 0.999997913837, Q2 : -0.000229653800488, Q3 : -0.000544833543245, Q4 : -0.0019386454951}
2019-04-14 19:09:21.41: SIM {TimeUS : 51434418, Roll : -0.03, Pitch : -0.06, Yaw : 359.77, Alt : 47.3499984741, Lat : 49.2835703, Lng : -123.1150205, Q1 : 0.999997913837, Q2 : -0.000273083162028, Q3 : -0.000547768722754, Q4 : -0.00196139700711}
2019-04-14 19:09:21.51: SIM {TimeUS : 51534378, Roll : -0.05, Pitch : -0.05, Yaw : 359.77, Alt : 47.5400009155, Lat : 49.2835703, Lng : -123.1150205, Q1 : 0.999997794628, Q2 : -0.000466587342089, Q3 : -0.000480250804685, Q4 : -0.00198117527179}
2019-04-14 19:09:21.61: SIM {TimeUS : 51634338, Roll : -0.09, Pitch : -0.07, Yaw : 359.77, Alt : 47.7200012207, Lat : 49.2835703, Lng : -123.1150205, Q1 : 0.999997437, Q2 : -0.000825118913781, Q3 : -0.00064774643397, Q4 : -0.00200484390371}
2019-04-14 19:09:21.71: SIM {TimeUS : 51734298, Roll : -0.13, Pitch : -0.1, Yaw : 359.76, Alt : 47.8899993896, Lat : 49.2835703, Lng : -123.1150205, Q1 : 0.999996840954, Q2 : -0.00120539066847, Q3 : -0.000897424353752, Q4 : -0.00202797306702}
2019-04-14 19:09:21.81: SIM {TimeUS : 51834258, Roll : -0.15, Pitch : -0.1, Yaw : 359.76, Alt : 48.0400009155, Lat : 49.2835703, Lng : -123.1150205, Q1 : 0.999996483326, Q2 : -0.00138618773781, Q3 : -0.000941858335864, Q4 : -0.00204751337878}
2019-04-14 19:09:21.91: SIM {TimeUS : 51934218, Roll : -0.15, Pitch : -0.08, Yaw : 359.76, Alt : 48.1899986267, Lat : 49.2835703, Lng : -123.1150205, Q1 : 0.999996721745, Q2 : -0.00134015805088, Q3 : -0.000725023041014, Q4 : -0.00206825276837}
2019-04-14 19:09:22.01: SIM {TimeUS : 52034178, Roll : -0.13, Pitch : -0.05, Yaw : 359.76, Alt : 48.3199996948, Lat : 49.2835703, Lng : -123.1150205, Q1 : 0.999997019768, Q2 : -0.0011442983523, Q3 : -0.000462216703454, Q4 : -0.00208840868436}
2019-04-14 19:09:22.11: SIM {TimeUS : 52134138, Roll : -0.1, Pitch : -0.03, Yaw : 359.75, Alt : 48.4399986267, Lat : 49.2835703, Lng : -123.1150205, Q1 : 0.999997317791, Q2 : -0.000942529586609, Q3 : -0.00026438513305, Q4 : -0.00210898462683}
2019-04-14 19:09:22.21: SIM {TimeUS : 52234098, Roll : -0.09, Pitch : -0.02, Yaw : 359.75, Alt : 48.5499992371, Lat : 49.2835703, Lng : -123.1150205, Q1 : 0.999997437, Q2 : -0.000799080356956, Q3 : -0.00019445946964, Q4 : -0.00212845439091}
2019-04-14 19:09:22.31: SIM {TimeUS : 52334891, Roll : -0.06, Pitch : -0.03, Yaw : 359.75, Alt : 48.6500015259, Lat : 49.2835703, Lng : -123.1150205, Q1 : 0.999997496605, Q2 : -0.000595177523792, Q3 : -0.000264922360657, Q4 : -0.00215383782052}
2019-04-14 19:09:22.41: SIM {TimeUS : 52434851, Roll : -0.03, Pitch : -0.04, Yaw : 359.74, Alt : 48.7299995422, Lat : 49.2835703, Lng : -123.1150205, Q1 : 0.999997496605, Q2 : -0.000343472725945, Q3 : -0.000375236617401, Q4 : -0.0021845898591}
2019-04-14 19:09:22.51: SIM {TimeUS : 52534811, Roll : -0.02, Pitch : -0.05, Yaw : 359.74, Alt : 48.7999992371, Lat : 49.2835703, Lng : -123.1150205, Q1 : 0.999997437, Q2 : -0.000209698686376, Q3 : -0.000470018072519, Q4 : -0.00221648812294}
2019-04-14 19:09:22.61: SIM {TimeUS : 52634771, Roll : -0.02, Pitch : -0.06, Yaw : 359.74, Alt : 48.8699989319, Lat : 49.2835703, Lng : -123.1150205, Q1 : 0.999997258186, Q2 : -0.000240284134634, Q3 : -0.000587451679166, Q4 : -0.00224324548617}
2019-04-14 19:09:22.71: SIM {TimeUS : 52734731, Roll : 0.0, Pitch : -0.07, Yaw : 359.74, Alt : 48.9199981689, Lat : 49.2835703, Lng : -123.1150205, Q1 : 0.999997198582, Q2 : -1.07645864773e-05, Q3 : -0.000641500519123, Q4 : -0.00226740748622}
2019-04-14 19:09:22.81: SIM {TimeUS : 52834691, Roll : 0.11, Pitch : -0.14, Yaw : 359.73, Alt : 48.9700012207, Lat : 49.2835703, Lng : -123.1150205, Q1 : 0.999996125698, Q2 : 0.000993156689219, Q3 : -0.00122427777387, Q4 : -0.00228943303227}
2019-04-14 19:09:22.91: SIM {TimeUS : 52934651, Roll : 0.39, Pitch : -0.35, Yaw : 359.73, Alt : 49.0099983215, Lat : 49.2835703, Lng : -123.1150206, Q1 : 0.99998652935, Q2 : 0.00345266843215, Q3 : -0.00311944982968, Q4 : -0.00230603036471}
2019-04-14 19:09:23.01: SIM {TimeUS : 53034611, Roll : 0.86, Pitch : -0.75, Yaw : 359.72, Alt : 49.0400009155, Lat : 49.2835703, Lng : -123.1150206, Q1 : 0.999946713448, Q2 : 0.00755660096183, Q3 : -0.00664356723428, Q4 : -0.00232084211893}
2019-04-14 19:09:23.11: SIM {TimeUS : 53134571, Roll : 1.51, Pitch : -1.33, Yaw : 359.71, Alt : 49.0699996948, Lat : 49.2835703, Lng : -123.1150205, Q1 : 0.999841988087, Q2 : 0.0131796682253, Q3 : -0.0117037156597, Q4 : -0.00232165819034}
2019-04-14 19:09:23.21: SIM {TimeUS : 53234531, Roll : 2.25, Pitch : -2.04, Yaw : 359.69, Alt : 49.0999984741, Lat : 49.2835704, Lng : -123.1150205, Q1 : 0.999644637108, Q2 : 0.0196569729596, Q3 : -0.0178612936288, Q4 : -0.00229464657605}
2019-04-14 19:09:23.31: SIM {TimeUS : 53334491, Roll : 2.98, Pitch : -2.74, Yaw : 359.67, Alt : 49.1199989319, Lat : 49.2835704, Lng : -123.1150204, Q1 : 0.999370098114, Q2 : 0.0259969048202, Q3 : -0.0240568835288, Q4 : -0.0022136438638}
2019-04-14 19:09:23.41: SIM {TimeUS : 53434451, Roll : 3.61, Pitch : -3.34, Yaw : 359.65, Alt : 49.1399993896, Lat : 49.2835706, Lng : -123.1150202, Q1 : 0.999075770378, Q2 : 0.0314040109515, Q3 : -0.0292779337615, Q4 : -0.00206091511063}
2019-04-14 19:09:23.51: SIM {TimeUS : 53534411, Roll : 4.08, Pitch : -3.79, Yaw : 359.65, Alt : 49.1599998474, Lat : 49.2835708, Lng : -123.11502, Q1 : 0.998817026615, Q2 : 0.0354859493673, Q3 : -0.0331959836185, Q4 : -0.00184112635907}
2019-04-14 19:09:23.61: SIM {TimeUS : 53634371, Roll : 4.42, Pitch : -4.1, Yaw : 359.66, Alt : 49.1699981689, Lat : 49.2835709, Lng : -123.1150198, Q1 : 0.998611569405, Q2 : 0.0384947694838, Q3 : -0.035926245153, Q4 : -0.00156768516172}
2019-04-14 19:09:23.71: SIM {TimeUS : 53734331, Roll : 4.72, Pitch : -4.34, Yaw : 359.67, Alt : 49.1800003052, Lat : 49.2835712, Lng : -123.1150194, Q1 : 0.998434305191, Q2 : 0.0410630851984, Q3 : -0.037962783128, Q4 : -0.00126651860774}
2019-04-14 19:09:23.81: SIM {TimeUS : 53834291, Roll : 5.0, Pitch : -4.56, Yaw : 359.68, Alt : 49.1899986267, Lat : 49.2835715, Lng : -123.1150189, Q1 : 0.998255372047, Q2 : 0.0435279868543, Q3 : -0.039882145822, Q4 : -0.000967325118836}
2019-04-14 19:09:23.91: SIM {TimeUS : 53934251, Roll : 5.29, Pitch : -4.82, Yaw : 359.69, Alt : 49.2000007629, Lat : 49.2835719, Lng : -123.1150184, Q1 : 0.998047053814, Q2 : 0.0460715964437, Q3 : -0.0421787127852, Q4 : -0.000696586386766}
2019-04-14 19:09:24.01: SIM {TimeUS : 54034211, Roll : 5.57, Pitch : -5.1, Yaw : 359.69, Alt : 49.2099990845, Lat : 49.2835721, Lng : -123.1150178, Q1 : 0.997825980186, Q2 : 0.0484791174531, Q3 : -0.0446419343352, Q4 : -0.000446386286058}
2019-04-14 19:09:24.11: SIM {TimeUS : 54134171, Roll : 5.8, Pitch : -5.37, Yaw : 359.7, Alt : 49.2200012207, Lat : 49.2835727, Lng : -123.115017, Q1 : 0.997620880604, Q2 : 0.0504593513906, Q3 : -0.0469728372991, Q4 : -0.000213675986743}
2019-04-14 19:09:24.21: SIM {TimeUS : 54234131, Roll : 5.98, Pitch : -5.59, Yaw : 359.7, Alt : 49.2299995422, Lat : 49.2835732, Lng : -123.1150162, Q1 : 0.997452020645, Q2 : 0.0519963502884, Q3 : -0.0488453991711, Q4 : -1.37954415891e-07}
2019-04-14 19:09:24.31: SIM {TimeUS : 54334091, Roll : 6.1, Pitch : -5.72, Yaw : 359.71, Alt : 49.2299995422, Lat : 49.2835737, Lng : -123.1150153, Q1 : 0.997336804867, Q2 : 0.0530598722398, Q3 : -0.0500400997698, Q4 : 0.000202015085961}
2019-04-14 19:09:24.41: SIM {TimeUS : 54434884, Roll : 6.2, Pitch : -5.82, Yaw : 359.72, Alt : 49.2400016785, Lat : 49.2835743, Lng : -123.1150143, Q1 : 0.997248113155, Q2 : 0.0539190880954, Q3 : -0.0508797839284, Q4 : 0.000375985138817}
2019-04-14 19:09:24.51: SIM {TimeUS : 54534844, Roll : 6.29, Pitch : -5.9, Yaw : 359.73, Alt : 49.2400016785, Lat : 49.283575, Lng : -123.1150133, Q1 : 0.997168838978, Q2 : 0.0547318421304, Q3 : -0.0515614077449, Q4 : 0.000508678494953}
2019-04-14 19:09:24.61: SIM {TimeUS : 54634804, Roll : 6.43, Pitch : -5.97, Yaw : 359.74, Alt : 49.25, Lat : 49.2835757, Lng : -123.1150121, Q1 : 0.997070014477, Q2 : 0.0559097528458, Q3 : -0.0522019676864, Q4 : 0.000691359105986}
2019-04-14 19:09:24.71: SIM {TimeUS : 54734764, Roll : 6.78, Pitch : -5.96, Yaw : 359.98, Alt : 49.25, Lat : 49.2835764, Lng : -123.1150109, Q1 : 0.996894955635, Q2 : 0.0591013133526, Q3 : -0.0519501082599, Q4 : 0.00294484919868}
2019-04-14 19:09:24.81: SIM {TimeUS : 54834724, Roll : 7.39, Pitch : -5.87, Yaw : 1.07, Alt : 49.25, Lat : 49.2835771, Lng : -123.1150096, Q1 : 0.996534109116, Q2 : 0.0648617967963, Q3 : -0.0505262464285, Q4 : 0.0126398904249}
2019-04-14 19:09:24.91: SIM {TimeUS : 54934684, Roll : 8.0, Pitch : -5.97, Yaw : 3.61, Alt : 49.2599983215, Lat : 49.283578, Lng : -123.1150083, Q1 : 0.995594620705, Q2 : 0.0713070034981, Q3 : -0.0497970283031, Q4 : 0.0350271910429}
2019-04-14 19:09:25.01: SIM {TimeUS : 55034644, Roll : 8.3, Pitch : -6.48, Yaw : 7.74, Alt : 49.2599983215, Lat : 49.2835788, Lng : -123.1150068, Q1 : 0.993230879307, Q2 : 0.0759199112654, Q3 : -0.0513839423656, Q4 : 0.0713327378035}
2019-04-14 19:09:25.11: SIM {TimeUS : 55134604, Roll : 8.05, Pitch : -7.42, Yaw : 13.31, Alt : 49.2599983215, Lat : 49.2835797, Lng : -123.1150052, Q1 : 0.9881914258, Q2 : 0.0771116316319, Q3 : -0.0560330152512, Q4 : 0.119965650141}
2019-04-14 19:09:25.21: SIM {TimeUS : 55234564, Roll : 7.14, Pitch : -8.69, Yaw : 20.09, Alt : 49.2599983215, Lat : 49.2835806, Lng : -123.1150034, Q1 : 0.979102909565, Q2 : 0.0743591189384, Q3 : -0.0636251866817, Q4 : 0.178269714117}
2019-04-14 19:09:25.31: SIM {TimeUS : 55334524, Roll : 5.58, Pitch : -10.06, Yaw : 27.8, Alt : 49.2599983215, Lat : 49.2835814, Lng : -123.1150016, Q1 : 0.964781820774, Q2 : 0.0681565627456, Q3 : -0.0734203904867, Q4 : 0.243228524923}
2019-04-14 19:09:25.41: SIM {TimeUS : 55434484, Roll : 3.25, Pitch : -11.33, Yaw : 36.1, Alt : 49.2599983215, Lat : 49.2835824, Lng : -123.1149997, Q1 : 0.944880843163, Q2 : 0.0574561282992, Q3 : -0.085078805685, Q4 : 0.310902833939}
2019-04-14 19:09:25.51: SIM {TimeUS : 55534444, Roll : 0.2, Pitch : -12.24, Yaw : 44.27, Alt : 49.2700004578, Lat : 49.2835835, Lng : -123.1149976, Q1 : 0.920941114426, Q2 : 0.04186309129, Q3 : -0.0980847105384, Q4 : 0.37482586503}
2019-04-14 19:09:25.61: SIM {TimeUS : 55634404, Roll : -2.98, Pitch : -12.64, Yaw : 51.42, Alt : 49.2700004578, Lat : 49.2835846, Lng : -123.1149955, Q1 : 0.896428346634, Q2 : 0.0244842991233, Q3 : -0.11041252315, Q4 : 0.428515791893}
2019-04-14 19:09:25.71: SIM {TimeUS : 55734364, Roll : -5.63, Pitch : -12.65, Yaw : 56.88, Alt : 49.2700004578, Lat : 49.2835858, Lng : -123.1149933, Q1 : 0.875476241112, Q2 : 0.00949038844556, Q3 : -0.120062075555, Q4 : 0.468013226986}
2019-04-14 19:09:25.81: SIM {TimeUS : 55834324, Roll : -7.31, Pitch : -12.5, Yaw : 60.32, Alt : 49.2700004578, Lat : 49.283587, Lng : -123.1149911, Q1 : 0.861184954643, Q2 : -0.000227894677664, Q3 : -0.125822022557, Q4 : 0.492472678423}
2019-04-14 19:09:25.91: SIM {TimeUS : 55934284, Roll : -7.93, Pitch : -12.41, Yaw : 61.86, Alt : 49.2700004578, Lat : 49.2835884, Lng : -123.1149889, Q1 : 0.8545576334, Q2 : -0.0035833416041, Q3 : -0.127859428525, Q4 : 0.503359079361}
2019-04-14 19:09:26.01: SIM {TimeUS : 56034244, Roll : -7.61, Pitch : -12.53, Yaw : 61.78, Alt : 49.2700004578, Lat : 49.2835898, Lng : -123.1149866, Q1 : 0.854852735996, Q2 : -0.000737756316084, Q3 : -0.127342507243, Q4 : 0.503001153469}
2019-04-14 19:09:26.11: SIM {TimeUS : 56134204, Roll : -6.58, Pitch : -12.93, Yaw : 60.44, Alt : 49.2700004578, Lat : 49.2835915, Lng : -123.1149843, Q1 : 0.860399782658, Q2 : 0.00733558507636, Q3 : -0.125873804092, Q4 : 0.493775457144}
2019-04-14 19:09:26.21: SIM {TimeUS : 56234164, Roll : -5.06, Pitch : -13.56, Yaw : 58.2, Alt : 49.2700004578, Lat : 49.2835931, Lng : -123.114982, Q1 : 0.869333446026, Q2 : 0.0190411806107, Q3 : -0.124446444213, Q4 : 0.477922439575}
2019-04-14 19:09:26.31: SIM {TimeUS : 56334124, Roll : -3.31, Pitch : -14.29, Yaw : 55.36, Alt : 49.2700004578, Lat : 49.2835949, Lng : -123.1149796, Q1 : 0.879961788654, Q2 : 0.0323922894895, Q3 : -0.123454473913, Q4 : 0.457577288151}
2019-04-14 19:09:26.41: SIM {TimeUS : 56434084, Roll : -1.49, Pitch : -14.96, Yaw : 52.24, Alt : 49.2799987793, Lat : 49.2835966, Lng : -123.1149772, Q1 : 0.890897393227, Q2 : 0.0456964038312, Q3 : -0.122621290386, Q4 : 0.434945642948}
2019-04-14 19:09:26.51: SIM {TimeUS : 56534877, Roll : 0.23, Pitch : -15.47, Yaw : 49.13, Alt : 49.2799987793, Lat : 49.2835984, Lng : -123.1149746, Q1 : 0.90107434988, Q2 : 0.0578282177448, Q3 : -0.121641762555, Q4 : 0.412218689919}
2019-04-14 19:09:26.61: SIM {TimeUS : 56634837, Roll : 1.69, Pitch : -15.76, Yaw : 46.41, Alt : 49.2799987793, Lat : 49.2836004, Lng : -123.1149719, Q1 : 0.909497439861, Q2 : 0.0675209313631, Q3 : -0.120204918087, Q4 : 0.392181307077}
2019-04-14 19:09:26.71: SIM {TimeUS : 56734797, Roll : 2.78, Pitch : -15.84, Yaw : 44.31, Alt : 49.2799987793, Lat : 49.2836023, Lng : -123.1149691, Q1 : 0.915787577629, Q2 : 0.0742624700069, Q3 : -0.118532143533, Q4 : 0.37652143836}
2019-04-14 19:09:26.81: SIM {TimeUS : 56834757, Roll : 3.41, Pitch : -15.82, Yaw : 42.95, Alt : 49.2799987793, Lat : 49.2836042, Lng : -123.1149662, Q1 : 0.919797897339, Q2 : 0.0778409168124, Q3 : -0.117194265127, Q4 : 0.366303294897}
2019-04-14 19:09:26.91: SIM {TimeUS : 56934717, Roll : 3.57, Pitch : -15.75, Yaw : 42.36, Alt : 49.2799987793, Lat : 49.2836061, Lng : -123.1149631, Q1 : 0.921637952328, Q2 : 0.0782722085714, Q3 : -0.11657885462, Q4 : 0.361754566431}
2019-04-14 19:09:27.01: SIM {TimeUS : 57034677, Roll : 3.31, Pitch : -15.71, Yaw : 42.47, Alt : 49.2799987793, Lat : 49.283608, Lng : -123.1149599, Q1 : 0.921504080296, Q2 : 0.0761984661222, Q3 : -0.117005601525, Q4 : 0.362399995327}
2019-04-14 19:09:27.11: SIM {TimeUS : 57134637, Roll : 2.73, Pitch : -15.74, Yaw : 43.15, Alt : 49.2799987793, Lat : 49.2836101, Lng : -123.1149567, Q1 : 0.919689834118, Q2 : 0.0723281055689, Q3 : -0.118652045727, Q4 : 0.367234200239}
2019-04-14 19:09:27.21: SIM {TimeUS : 57234597, Roll : 1.93, Pitch : -15.83, Yaw : 44.22, Alt : 49.2799987793, Lat : 49.2836121, Lng : -123.1149533, Q1 : 0.916599035263, Q2 : 0.0673538222909, Q3 : -0.121308162808, Q4 : 0.374958753586}
2019-04-14 19:09:27.31: SIM {TimeUS : 57334557, Roll : 1.05, Pitch : -15.96, Yaw : 45.5, Alt : 49.2900009155, Lat : 49.2836141, Lng : -123.1149498, Q1 : 0.912699580193, Q2 : 0.0621189698577, Q3 : -0.12452236563, Q4 : 0.384206801653}
2019-04-14 19:09:27.41: SIM {TimeUS : 57434517, Roll : 0.19, Pitch : -16.1, Yaw : 46.82, Alt : 49.2900009155, Lat : 49.2836162, Lng : -123.1149463, Q1 : 0.908509016037, Q2 : 0.0572316423059, Q3 : -0.127894103527, Q4 : 0.393673717976}
2019-04-14 19:09:27.51: SIM {TimeUS : 57534477, Roll : -0.53, Pitch : -16.23, Yaw : 48.03, Alt : 49.2900009155, Lat : 49.2836183, Lng : -123.1149427, Q1 : 0.904543101788, Q2 : 0.0532100275159, Q3 : -0.13086925447, Q4 : 0.402298003435}
2019-04-14 19:09:27.61: SIM {TimeUS : 57634437, Roll : -1.09, Pitch : -16.32, Yaw : 49.0, Alt : 49.2900009155, Lat : 49.2836203, Lng : -123.1149391, Q1 : 0.901237785816, Q2 : 0.0503123477101, Q3 : -0.133117839694, Q4 : 0.409290671349}
2019-04-14 19:09:27.71: SIM {TimeUS : 57734397, Roll : -1.42, Pitch : -16.37, Yaw : 49.68, Alt : 49.2900009155, Lat : 49.2836226, Lng : -123.1149354, Q1 : 0.89889550209, Q2 : 0.0486448332667, Q3 : -0.134431272745, Q4 : 0.414184570312}
2019-04-14 19:09:27.81: SIM {TimeUS : 57834357, Roll : -1.53, Pitch : -16.4, Yaw : 50.03, Alt : 49.2900009155, Lat : 49.2836248, Lng : -123.1149317, Q1 : 0.897626936436, Q2 : 0.0482829287648, Q3 : -0.134858503938, Q4 : 0.41683074832}
2019-04-14 19:09:27.91: SIM {TimeUS : 57934317, Roll : -1.45, Pitch : -16.43, Yaw : 50.09, Alt : 49.2900009155, Lat : 49.2836269, Lng : -123.114928, Q1 : 0.897358238697, Q2 : 0.0491421371698, Q3 : -0.13483184576, Q4 : 0.417317092419}
2019-04-14 19:09:28.01: SIM {TimeUS : 58034277, Roll : -1.23, Pitch : -16.49, Yaw : 49.88, Alt : 49.2900009155, Lat : 49.2836293, Lng : -123.1149242, Q1 : 0.897951543331, Q2 : 0.0508445128798, Q3 : -0.134517371655, Q4 : 0.415936231613}
2019-04-14 19:09:28.11: SIM {TimeUS : 58134237, Roll : -0.92, Pitch : -16.55, Yaw : 49.48, Alt : 49.2900009155, Lat : 49.2836316, Lng : -123.1149204, Q1 : 0.899180293083, Q2 : 0.0529976338148, Q3 : -0.134106755257, Q4 : 0.413136124611}
2019-04-14 19:09:28.21: SIM {TimeUS : 58234197, Roll : -0.58, Pitch : -16.6, Yaw : 48.97, Alt : 49.2900009155, Lat : 49.283634, Lng : -123.1149165, Q1 : 0.900811314583, Q2 : 0.0552644170821, Q3 : -0.1335041821, Q4 : 0.409464925528}
2019-04-14 19:09:28.31: SIM {TimeUS : 58334157, Roll : -0.22, Pitch : -16.63, Yaw : 48.41, Alt : 49.2900009155, Lat : 49.2836364, Lng : -123.1149126, Q1 : 0.902580022812, Q2 : 0.0575592443347, Q3 : -0.132732406259, Q4 : 0.405485391617}
2019-04-14 19:09:28.41: SIM {TimeUS : 58434117, Roll : 0.08, Pitch : -16.65, Yaw : 47.88, Alt : 49.2900009155, Lat : 49.2836387, Lng : -123.1149087, Q1 : 0.904269337654, Q2 : 0.0594799816608, Q3 : -0.132099345326, Q4 : 0.401632726192}
2019-04-14 19:09:28.51: SIM {TimeUS : 58534077, Roll : 0.35, Pitch : -16.68, Yaw : 47.42, Alt : 49.2900009155, Lat : 49.2836412, Lng : -123.1149047, Q1 : 0.905683100224, Q2 : 0.0611594468355, Q3 : -0.131641894579, Q4 : 0.398331642151}
2019-04-14 19:09:28.61: SIM {TimeUS : 58634870, Roll : 0.56, Pitch : -16.7, Yaw : 47.08, Alt : 49.2900009155, Lat : 49.2836436, Lng : -123.1149006, Q1 : 0.906743347645, Q2 : 0.0625132471323, Q3 : -0.131182700396, Q4 : 0.39585313201}
2019-04-14 19:09:28.71: SIM {TimeUS : 58734830, Roll : 0.69, Pitch : -16.7, Yaw : 46.87, Alt : 49.2900009155, Lat : 49.2836461, Lng : -123.1148965, Q1 : 0.907401502132, Q2 : 0.0632386133075, Q3 : -0.130892083049, Q4 : 0.394323021173}
2019-04-14 19:09:28.81: SIM {TimeUS : 58834790, Roll : 0.69, Pitch : -16.72, Yaw : 46.79, Alt : 49.2900009155, Lat : 49.2836485, Lng : -123.1148923, Q1 : 0.9076577425, Q2 : 0.0632784068584, Q3 : -0.131061986089, Q4 : 0.393669992685}
2019-04-14 19:09:28.91: SIM {TimeUS : 58934750, Roll : 0.61, Pitch : -16.77, Yaw : 46.82, Alt : 49.2900009155, Lat : 49.283651, Lng : -123.1148883, Q1 : 0.907537519932, Q2 : 0.0628323927522, Q3 : -0.131748646498, Q4 : 0.393789350986}
2019-04-14 19:09:29.01: SIM {TimeUS : 59034710, Roll : 0.47, Pitch : -16.85, Yaw : 46.94, Alt : 49.2900009155, Lat : 49.2836535, Lng : -123.1148841, Q1 : 0.907106339931, Q2 : 0.062145806849, Q3 : -0.132792174816, Q4 : 0.394540637732}
2019-04-14 19:09:29.11: SIM {TimeUS : 59134670, Roll : 0.3, Pitch : -16.91, Yaw : 47.12, Alt : 49.2900009155, Lat : 49.283656, Lng : -123.1148798, Q1 : 0.906506061554, Q2 : 0.0612187646329, Q3 : -0.13377584517, Q4 : 0.395731031895}
2019-04-14 19:09:29.21: SIM {TimeUS : 59234630, Roll : 0.13, Pitch : -16.96, Yaw : 47.32, Alt : 49.2900009155, Lat : 49.2836584, Lng : -123.1148756, Q1 : 0.905824065208, Q2 : 0.0602929890156, Q3 : -0.134619891644, Q4 : 0.397146105766}
2019-04-14 19:09:29.31: SIM {TimeUS : 59334590, Roll : 0.0, Pitch : -17.0, Yaw : 47.53, Alt : 49.2900009155, Lat : 49.2836609, Lng : -123.1148713, Q1 : 0.905142366886, Q2 : 0.0595438964665, Q3 : -0.135323762894, Q4 : 0.398571580648}
2019-04-14 19:09:29.41: SIM {TimeUS : 59434550, Roll : -0.11, Pitch : -17.02, Yaw : 47.71, Alt : 49.2900009155, Lat : 49.2836635, Lng : -123.114867, Q1 : 0.904546737671, Q2 : 0.058973159641, Q3 : -0.135815411806, Q4 : 0.399839431047}
2019-04-14 19:09:29.51: SIM {TimeUS : 59534510, Roll : -0.18, Pitch : -17.04, Yaw : 47.84, Alt : 49.2900009155, Lat : 49.2836661, Lng : -123.1148627, Q1 : 0.904091000557, Q2 : 0.0586663298309, Q3 : -0.1360796839, Q4 : 0.400824248791}
2019-04-14 19:09:29.61: SIM {TimeUS : 59634470, Roll : -0.2, Pitch : -17.06, Yaw : 47.92, Alt : 49.2999992371, Lat : 49.2836687, Lng : -123.1148584, Q1 : 0.90378844738, Q2 : 0.058621995151, Q3 : -0.136318296194, Q4 : 0.401431471109}
2019-04-14 19:09:29.71: SIM {TimeUS : 59734430, Roll : -0.2, Pitch : -17.08, Yaw : 47.95, Alt : 49.2999992371, Lat : 49.2836712, Lng : -123.114854, Q1 : 0.903662741184, Q2 : 0.058762524277, Q3 : -0.136473864317, Q4 : 0.401640981436}
2019-04-14 19:09:29.81: SIM {TimeUS : 59834390, Roll : -0.17, Pitch : -17.11, Yaw : 47.93, Alt : 49.2999992371, Lat : 49.2836738, Lng : -123.1148496, Q1 : 0.90369707346, Q2 : 0.0590524449944, Q3 : -0.136619865894, Q4 : 0.401471585035}
2019-04-14 19:09:29.91: SIM {TimeUS : 59934350, Roll : -0.12, Pitch : -17.15, Yaw : 47.86, Alt : 49.2999992371, Lat : 49.2836765, Lng : -123.1148452, Q1 : 0.903857529163, Q2 : 0.0594807602465, Q3 : -0.136744633317, Q4 : 0.40100440383}
2019-04-14 19:09:30.01: SIM {TimeUS : 60034310, Roll : -0.06, Pitch : -17.19, Yaw : 47.77, Alt : 49.2999992371, Lat : 49.2836791, Lng : -123.1148408, Q1 : 0.904104650021, Q2 : 0.0600108020008, Q3 : -0.136882394552, Q4 : 0.400320768356}
2019-04-14 19:09:30.11: SIM {TimeUS : 60134270, Roll : -0.01, Pitch : -17.22, Yaw : 47.66, Alt : 49.2999992371, Lat : 49.2836817, Lng : -123.1148363, Q1 : 0.904416441917, Q2 : 0.0603830553591, Q3 : -0.137063473463, Q4 : 0.399497687817}
2019-04-14 19:09:30.21: SIM {TimeUS : 60234230, Roll : 0.0, Pitch : -17.24, Yaw : 47.55, Alt : 49.2999992371, Lat : 49.2836845, Lng : -123.1148319, Q1 : 0.904766559601, Q2 : 0.0605382286012, Q3 : -0.137195125222, Q4 : 0.398635298014}
2019-04-14 19:09:30.31: SIM {TimeUS : 60334190, Roll : 0.02, Pitch : -17.26, Yaw : 47.44, Alt : 49.2999992371, Lat : 49.283687, Lng : -123.1148274, Q1 : 0.905098974705, Q2 : 0.0606290027499, Q3 : -0.137326613069, Q4 : 0.397820800543}
2019-04-14 19:09:30.41: SIM {TimeUS : 60434150, Roll : 0.06, Pitch : -17.29, Yaw : 47.36, Alt : 49.2999992371, Lat : 49.2836898, Lng : -123.1148229, Q1 : 0.905358850956, Q2 : 0.0608942843974, Q3 : -0.137446686625, Q4 : 0.397146880627}
2019-04-14 19:09:30.51: SIM {TimeUS : 60534110, Roll : 0.11, Pitch : -17.31, Yaw : 47.29, Alt : 49.2999992371, Lat : 49.2836925, Lng : -123.1148184, Q1 : 0.905539810658, Q2 : 0.061265219003, Q3 : -0.13754324615, Q4 : 0.396643519402}
2019-04-14 19:09:30.61: SIM {TimeUS : 60634070, Roll : 0.15, Pitch : -17.35, Yaw : 47.24, Alt : 49.3100013733, Lat : 49.2836951, Lng : -123.1148139, Q1 : 0.905638098717, Q2 : 0.0616491697729, Q3 : -0.137697651982, Q4 : 0.396305978298}
2019-04-14 19:09:30.71: SIM {TimeUS : 60734863, Roll : 0.18, Pitch : -17.39, Yaw : 47.22, Alt : 49.3100013733, Lat : 49.2836979, Lng : -123.1148093, Q1 : 0.905654907227, Q2 : 0.0620194710791, Q3 : -0.137896850705, Q4 : 0.3961404562}
2019-04-14 19:09:30.81: SIM {TimeUS : 60834823, Roll : 0.19, Pitch : -17.41, Yaw : 47.21, Alt : 49.3100013733, Lat : 49.2837005, Lng : -123.1148047, Q1 : 0.905629575253, Q2 : 0.0622001774609, Q3 : -0.138062149286, Q4 : 0.39611235261}
2019-04-14 19:09:30.91: SIM {TimeUS : 60934783, Roll : 0.17, Pitch : -17.43, Yaw : 47.22, Alt : 49.3100013733, Lat : 49.2837033, Lng : -123.1148001, Q1 : 0.905583798885, Q2 : 0.0621053725481, Q3 : -0.138232260942, Q4 : 0.396172612906}
2019-04-14 19:09:31.01: SIM {TimeUS : 61034743, Roll : 0.13, Pitch : -17.44, Yaw : 47.24, Alt : 49.3100013733, Lat : 49.2837059, Lng : -123.1147955, Q1 : 0.905527710915, Q2 : 0.0617912039161, Q3 : -0.138458967209, Q4 : 0.39627084136}
2019-04-14 19:09:31.11: SIM {TimeUS : 61134703, Roll : 0.09, Pitch : -17.44, Yaw : 47.27, Alt : 49.3100013733, Lat : 49.2837088, Lng : -123.1147909, Q1 : 0.905466198921, Q2 : 0.0615315437317, Q3 : -0.138581380248, Q4 : 0.39640891552}
2019-04-14 19:09:31.21: SIM {TimeUS : 61234663, Roll : 0.07, Pitch : -17.44, Yaw : 47.29, Alt : 49.3100013733, Lat : 49.2837114, Lng : -123.1147863, Q1 : 0.905396580696, Q2 : 0.0614117495716, Q3 : -0.138696536422, Q4 : 0.396546304226}
2019-04-14 19:09:31.31: SIM {TimeUS : 61334623, Roll : 0.08, Pitch : -17.47, Yaw : 47.3, Alt : 49.3100013733, Lat : 49.2837142, Lng : -123.1147817, Q1 : 0.905301511288, Q2 : 0.0616390705109, Q3 : -0.138887420297, Q4 : 0.396661311388}
2019-04-14 19:09:31.41: SIM {TimeUS : 61434583, Roll : 0.1, Pitch : -17.52, Yaw : 47.31, Alt : 49.3100013733, Lat : 49.2837169, Lng : -123.1147771, Q1 : 0.905212163925, Q2 : 0.0619442723691, Q3 : -0.139222815633, Q4 : 0.396699994802}
2019-04-14 19:09:31.51: SIM {TimeUS : 61534543, Roll : 0.1, Pitch : -17.55, Yaw : 47.31, Alt : 49.3100013733, Lat : 49.2837198, Lng : -123.1147724, Q1 : 0.90518450737, Q2 : 0.0620753094554, Q3 : -0.139444231987, Q4 : 0.396664887667}
2019-04-14 19:09:31.61: SIM {TimeUS : 61634503, Roll : 0.1, Pitch : -17.55, Yaw : 47.3, Alt : 49.3199996948, Lat : 49.2837224, Lng : -123.1147676, Q1 : 0.905219376087, Q2 : 0.0620867684484, Q3 : -0.139436557889, Q4 : 0.396586209536}
2019-04-14 19:09:31.71: SIM {TimeUS : 61734463, Roll : 0.1, Pitch : -17.56, Yaw : 47.28, Alt : 49.3199996948, Lat : 49.2837253, Lng : -123.1147631, Q1 : 0.905269503593, Q2 : 0.0620915368199, Q3 : -0.139507681131, Q4 : 0.396445959806}
2019-04-14 19:09:31.81: SIM {TimeUS : 61834423, Roll : 0.1, Pitch : -17.59, Yaw : 47.26, Alt : 49.3199996948, Lat : 49.2837281, Lng : -123.1147584, Q1 : 0.905317723751, Q2 : 0.0621175318956, Q3 : -0.139771714807, Q4 : 0.396238654852}
2019-04-14 19:09:31.91: SIM {TimeUS : 61934383, Roll : 0.1, Pitch : -17.62, Yaw : 47.23, Alt : 49.3199996948, Lat : 49.2837308, Lng : -123.1147537, Q1 : 0.905376911163, Q2 : 0.0621749311686, Q3 : -0.139988452196, Q4 : 0.396017789841}
2019-04-14 19:09:32.01: SIM {TimeUS : 62034343, Roll : 0.11, Pitch : -17.64, Yaw : 47.2, Alt : 49.3199996948, Lat : 49.2837337, Lng : -123.114749, Q1 : 0.905431389809, Q2 : 0.0622998811305, Q3 : -0.140188157558, Q4 : 0.395802974701}
2019-04-14 19:09:32.11: SIM {TimeUS : 62134303, Roll : 0.12, Pitch : -17.66, Yaw : 47.18, Alt : 49.3199996948, Lat : 49.2837364, Lng : -123.1147443, Q1 : 0.905489385128, Q2 : 0.0624477788806, Q3 : -0.140317901969, Q4 : 0.395601004362}
2019-04-14 19:09:32.21: SIM {TimeUS : 62234263, Roll : 0.14, Pitch : -17.68, Yaw : 47.15, Alt : 49.3199996948, Lat : 49.2837393, Lng : -123.1147396, Q1 : 0.905542552471, Q2 : 0.0626477226615, Q3 : -0.140411242843, Q4 : 0.395414561033}
2019-04-14 19:09:32.31: SIM {TimeUS : 62334223, Roll : 0.16, Pitch : -17.69, Yaw : 47.13, Alt : 49.3199996948, Lat : 49.2837421, Lng : -123.1147348, Q1 : 0.905605614185, Q2 : 0.0627970770001, Q3 : -0.140398934484, Q4 : 0.395250737667}
2019-04-14 19:09:32.41: SIM {TimeUS : 62434183, Roll : 0.18, Pitch : -17.7, Yaw : 47.11, Alt : 49.3199996948, Lat : 49.2837448, Lng : -123.1147301, Q1 : 0.905660510063, Q2 : 0.0629493817687, Q3 : -0.140408545732, Q4 : 0.395097315311}
2019-04-14 19:09:32.51: SIM {TimeUS : 62534143, Roll : 0.19, Pitch : -17.72, Yaw : 47.09, Alt : 49.3199996948, Lat : 49.2837478, Lng : -123.1147254, Q1 : 0.905694246292, Q2 : 0.0631141066551, Q3 : -0.140528559685, Q4 : 0.394950896502}
2019-04-14 19:09:32.61: SIM {TimeUS : 62634103, Roll : 0.19, Pitch : -17.75, Yaw : 47.07, Alt : 49.3199996948, Lat : 49.2837506, Lng : -123.1147206, Q1 : 0.905716359615, Q2 : 0.0631716251373, Q3 : -0.140816554427, Q4 : 0.394788444042}
2019-04-14 19:09:32.71: SIM {TimeUS : 62734063, Roll : 0.16, Pitch : -17.79, Yaw : 47.05, Alt : 49.3199996948, Lat : 49.2837533, Lng : -123.1147159, Q1 : 0.905731499195, Q2 : 0.0630373507738, Q3 : -0.141259372234, Q4 : 0.394616931677}
2019-04-14 19:09:32.81: SIM {TimeUS : 62834856, Roll : 0.13, Pitch : -17.83, Yaw : 47.04, Alt : 49.3199996948, Lat : 49.2837563, Lng : -123.1147111, Q1 : 0.905734121799, Q2 : 0.0629528015852, Q3 : -0.141687780619, Q4 : 0.394470840693}
2019-04-14 19:09:32.91: SIM {TimeUS : 62934816, Roll : 0.13, Pitch : -17.86, Yaw : 47.03, Alt : 49.3199996948, Lat : 49.2837591, Lng : -123.1147063, Q1 : 0.905735194683, Q2 : 0.0630271956325, Q3 : -0.141895890236, Q4 : 0.394381761551}
2019-04-14 19:09:33.01: SIM {TimeUS : 63034776, Roll : 0.16, Pitch : -17.85, Yaw : 47.02, Alt : 49.3300018311, Lat : 49.2837619, Lng : -123.1147015, Q1 : 0.90576428175, Q2 : 0.0631890520453, Q3 : -0.141752898693, Q4 : 0.39434042573}
2019-04-14 19:09:33.11: SIM {TimeUS : 63134736, Roll : 0.17, Pitch : -17.82, Yaw : 47.01, Alt : 49.3300018311, Lat : 49.2837648, Lng : -123.1146967, Q1 : 0.905830562115, Q2 : 0.0632105991244, Q3 : -0.141422823071, Q4 : 0.394303202629}
2019-04-14 19:09:33.21: SIM {TimeUS : 63234696, Roll : 0.17, Pitch : -17.79, Yaw : 47.0, Alt : 49.3300018311, Lat : 49.2837677, Lng : -123.1146919, Q1 : 0.905892491341, Q2 : 0.0630930289626, Q3 : -0.141268461943, Q4 : 0.394235134125}
2019-04-14 19:09:33.31: SIM {TimeUS : 63334656, Roll : 0.16, Pitch : -17.79, Yaw : 46.99, Alt : 49.3300018311, Lat : 49.2837705, Lng : -123.1146871, Q1 : 0.905941784382, Q2 : 0.0629654452205, Q3 : -0.141233786941, Q4 : 0.394154578447}
2019-04-14 19:09:33.41: SIM {TimeUS : 63434616, Roll : 0.15, Pitch : -17.78, Yaw : 46.98, Alt : 49.3300018311, Lat : 49.2837734, Lng : -123.1146823, Q1 : 0.905981838703, Q2 : 0.0628904402256, Q3 : -0.141254723072, Q4 : 0.394067108631}
2019-04-14 19:09:33.51: SIM {TimeUS : 63534576, Roll : 0.15, Pitch : -17.81, Yaw : 46.97, Alt : 49.3300018311, Lat : 49.2837763, Lng : -123.1146774, Q1 : 0.905994236469, Q2 : 0.0629345178604, Q3 : -0.141440957785, Q4 : 0.393964737654}
2019-04-14 19:09:33.61: SIM {TimeUS : 63634536, Roll : 0.16, Pitch : -17.84, Yaw : 46.96, Alt : 49.3300018311, Lat : 49.2837792, Lng : -123.1146726, Q1 : 0.905992627144, Q2 : 0.0630925297737, Q3 : -0.141663298011, Q4 : 0.393863201141}
2019-04-14 19:09:33.71: SIM {TimeUS : 63734496, Roll : 0.16, Pitch : -17.88, Yaw : 46.95, Alt : 49.3300018311, Lat : 49.283782, Lng : -123.1146678, Q1 : 0.905981302261, Q2 : 0.0632168129086, Q3 : -0.142011255026, Q4 : 0.393744081259}
2019-04-14 19:09:33.81: SIM {TimeUS : 63834456, Roll : 0.15, Pitch : -17.93, Yaw : 46.94, Alt : 49.3300018311, Lat : 49.2837849, Lng : -123.1146629, Q1 : 0.905965447426, Q2 : 0.0633147209883, Q3 : -0.142419084907, Q4 : 0.393617361784}
2019-04-14 19:09:33.91: SIM {TimeUS : 63934416, Roll : 0.15, Pitch : -17.96, Yaw : 46.93, Alt : 49.3300018311, Lat : 49.2837878, Lng : -123.1146581, Q1 : 0.905973494053, Q2 : 0.0633519813418, Q3 : -0.142687827349, Q4 : 0.393495589495}
2019-04-14 19:09:34.01: SIM {TimeUS : 64034376, Roll : 0.14, Pitch : -17.98, Yaw : 46.91, Alt : 49.3300018311, Lat : 49.2837907, Lng : -123.1146532, Q1 : 0.90599411726, Q2 : 0.0633674412966, Q3 : -0.142875656486, Q4 : 0.393377423286}
2019-04-14 19:09:34.11: SIM {TimeUS : 64134336, Roll : 0.14, Pitch : -17.99, Yaw : 46.9, Alt : 49.3300018311, Lat : 49.2837935, Lng : -123.1146484, Q1 : 0.906018674374, Q2 : 0.0634039714932, Q3 : -0.143002465367, Q4 : 0.393268942833}
2019-04-14 19:09:34.21: SIM {TimeUS : 64234296, Roll : 0.16, Pitch : -17.98, Yaw : 46.89, Alt : 49.3300018311, Lat : 49.2837965, Lng : -123.1146435, Q1 : 0.906061112881, Q2 : 0.0635191649199, Q3 : -0.14286647737, Q4 : 0.393201977015}
2019-04-14 19:09:34.31: SIM {TimeUS : 64334256, Roll : 0.19, Pitch : -17.99, Yaw : 46.88, Alt : 49.3300018311, Lat : 49.2837994, Lng : -123.1146387, Q1 : 0.906077444553, Q2 : 0.0637859627604, Q3 : -0.142803505063, Q4 : 0.393143951893}
2019-04-14 19:09:34.41: SIM {TimeUS : 64434216, Roll : 0.21, Pitch : -18.01, Yaw : 46.86, Alt : 49.3300018311, Lat : 49.2838024, Lng : -123.1146338, Q1 : 0.906084775925, Q2 : 0.0639613643289, Q3 : -0.142875492573, Q4 : 0.393072426319}
2019-04-14 19:09:34.51: SIM {TimeUS : 64534176, Roll : 0.22, Pitch : -18.02, Yaw : 46.86, Alt : 49.3400001526, Lat : 49.2838053, Lng : -123.1146289, Q1 : 0.906101286411, Q2 : 0.0640354529023, Q3 : -0.142929345369, Q4 : 0.393002748489}
2019-04-14 19:09:34.61: SIM {TimeUS : 64634136, Roll : 0.22, Pitch : -18.01, Yaw : 46.85, Alt : 49.3400001526, Lat : 49.2838081, Lng : -123.114624, Q1 : 0.906134426594, Q2 : 0.0640130862594, Q3 : -0.142881333828, Q4 : 0.392947435379}
2019-04-14 19:09:34.71: SIM {TimeUS : 64734096, Roll : 0.21, Pitch : -18.01, Yaw : 46.84, Alt : 49.3400001526, Lat : 49.2838111, Lng : -123.1146191, Q1 : 0.906161546707, Q2 : 0.0639549642801, Q3 : -0.142872095108, Q4 : 0.39289778471}
2019-04-14 19:09:34.81: SIM {TimeUS : 64834889, Roll : 0.19, Pitch : -18.02, Yaw : 46.84, Alt : 49.3400001526, Lat : 49.283814, Lng : -123.1146142, Q1 : 0.906171500683, Q2 : 0.0638091936707, Q3 : -0.143113002181, Q4 : 0.392810791731}
2019-04-14 19:09:34.91: SIM {TimeUS : 64934849, Roll : 0.16, Pitch : -18.06, Yaw : 46.83, Alt : 49.3400001526, Lat : 49.283817, Lng : -123.1146093, Q1 : 0.906167387962, Q2 : 0.0636614859104, Q3 : -0.1434905231, Q4 : 0.3927064538}
2019-04-14 19:09:35.01: SIM {TimeUS : 65034809, Roll : 0.14, Pitch : -18.07, Yaw : 46.82, Alt : 49.3400001526, Lat : 49.2838199, Lng : -123.1146044, Q1 : 0.906187653542, Q2 : 0.0635460987687, Q3 : -0.143614441156, Q4 : 0.392633020878}
2019-04-14 19:09:35.11: SIM {TimeUS : 65134769, Roll : 0.15, Pitch : -18.04, Yaw : 46.82, Alt : 49.3400001526, Lat : 49.2838227, Lng : -123.1145995, Q1 : 0.90623819828, Q2 : 0.063533782959, Q3 : -0.143382683396, Q4 : 0.392603099346}
2019-04-14 19:09:35.21: SIM {TimeUS : 65234729, Roll : 0.17, Pitch : -18.02, Yaw : 46.81, Alt : 49.3400001526, Lat : 49.2838257, Lng : -123.1145946, Q1 : 0.906279861927, Q2 : 0.0636080428958, Q3 : -0.143169373274, Q4 : 0.392572700977}
2019-04-14 19:09:35.31: SIM {TimeUS : 65334689, Roll : 0.18, Pitch : -18.03, Yaw : 46.8, Alt : 49.3400001526, Lat : 49.2838287, Lng : -123.1145897, Q1 : 0.90629774332, Q2 : 0.0637160092592, Q3 : -0.143193095922, Q4 : 0.392505347729}
2019-04-14 19:09:35.41: SIM {TimeUS : 65434649, Roll : 0.17, Pitch : -18.05, Yaw : 46.79, Alt : 49.3400001526, Lat : 49.2838317, Lng : -123.1145847, Q1 : 0.906312465668, Q2 : 0.0636940300465, Q3 : -0.143402710557, Q4 : 0.392398357391}
2019-04-14 19:09:35.51: SIM {TimeUS : 65534609, Roll : 0.15, Pitch : -18.08, Yaw : 46.78, Alt : 49.3400001526, Lat : 49.2838346, Lng : -123.1145798, Q1 : 0.90632635355, Q2 : 0.0635847002268, Q3 : -0.14370085299, Q4 : 0.392274856567}
2019-04-14 19:09:35.61: SIM {TimeUS : 65634569, Roll : 0.14, Pitch : -18.1, Yaw : 46.77, Alt : 49.3400001526, Lat : 49.2838375, Lng : -123.1145749, Q1 : 0.906339585781, Q2 : 0.0635679215193, Q3 : -0.143929481506, Q4 : 0.392163276672}
2019-04-14 19:09:35.71: SIM {TimeUS : 65734529, Roll : 0.14, Pitch : -18.12, Yaw : 46.76, Alt : 49.3400001526, Lat : 49.2838404, Lng : -123.11457, Q1 : 0.90634816885, Q2 : 0.0636732429266, Q3 : -0.144098684192, Q4 : 0.392064154148}
