2019-04-14 20:39:49.80: SIM {TimeUS : 40416327, Roll : 0.0, Pitch : 0.0, Yaw : 0.0, Alt : 30.1000003815, Lat : 49.28357, Lng : -123.11502, Q1 : 1.0, Q2 : 0.0, Q3 : 0.0, Q4 : 0.0}
2019-04-14 20:39:49.91: SIM {TimeUS : 40535446, Roll : 0.0, Pitch : 0.0, Yaw : 0.0, Alt : 30.1000003815, Lat : 49.28357, Lng : -123.11502, Q1 : 1.0, Q2 : 0.0, Q3 : 0.0, Q4 : 0.0}
2019-04-14 20:39:50.01: SIM {TimeUS : 40635406, Roll : 0.0, Pitch : 0.0, Yaw : 0.0, Alt : 30.1000003815, Lat : 49.28357, Lng : -123.11502, Q1 : 1.0, Q2 : 0.0, Q3 : 0.0, Q4 : 0.0}
2019-04-14 20:39:50.11: SIM {TimeUS : 40735366, Roll : 0.0, Pitch : 0.0, Yaw : 0.0, Alt : 30.1000003815, Lat : 49.28357, Lng : -123.11502, Q1 : 1.0, Q2 : 0.0, Q3 : 0.0, Q4 : 0.0}
2019-04-14 20:39:50.21: SIM {TimeUS : 40835326, Roll : 0.0, Pitch : 0.0, Yaw : 0.0, Alt : 30.1000003815, Lat : 49.28357, Lng : -123.11502, Q1 : 1.0, Q2 : 0.0, Q3 : 0.0, Q4 : 0.0}
2019-04-14 20:39:50.31: SIM {TimeUS : 40935286, Roll : 0.0, Pitch : 0.0, Yaw : 0.0, Alt : 30.1000003815, Lat : 49.28357, Lng : -123.11502, Q1 : 1.0, Q2 : 0.0, Q3 : 0.0, Q4 : 0.0}
2019-04-14 20:39:50.41: SIM {TimeUS : 41035246, Roll : 0.0, Pitch : 0.0, Yaw : 0.0, Alt : 30.1000003815, Lat : 49.28357, Lng : -123.11502, Q1 : 1.0, Q2 : 0.0, Q3 : 0.0, Q4 : 0.0}
2019-04-14 20:39:50.51: SIM {TimeUS : 41135206, Roll : 0.0, Pitch : 0.0, Yaw : 0.0, Alt : 30.1000003815, Lat : 49.28357, Lng : -123.11502, Q1 : 1.0, Q2 : 0.0, Q3 : 0.0, Q4 : 0.0}
2019-04-14 20:39:50.61: SIM {TimeUS : 41235166, Roll : 0.0, Pitch : 0.0, Yaw : 0.0, Alt : 30.1000003815, Lat : 49.28357, Lng : -123.11502, Q1 : 1.0, Q2 : 0.0, Q3 : 0.0, Q4 : 0.0}
2019-04-14 20:39:50.71: SIM {TimeUS : 41335126, Roll : 0.0, Pitch : 0.0, Yaw : 0.0, Alt : 30.1000003815, Lat : 49.28357, Lng : -123.11502, Q1 : 1.0, Q2 : 0.0, Q3 : 0.0, Q4 : 0.0}
2019-04-14 20:39:50.81: SIM {TimeUS : 41435086, Roll : 0.0, Pitch : 0.0, Yaw : 0.0, Alt : 30.1000003815, Lat : 49.28357, Lng : -123.11502, Q1 : 1.0, Q2 : 0.0, Q3 : 0.0, Q4 : 0.0}
2019-04-14 20:39:50.91: SIM {TimeUS : 41535046, Roll : 0.0, Pitch : 0.0, Yaw : 0.0, Alt : 30.1000003815, Lat : 49.28357, Lng : -123.11502, Q1 : 1.0, Q2 : 0.0, Q3 : 0.0, Q4 : 0.0}
2019-04-14 20:39:51.01: SIM {TimeUS : 41635006, Roll : 0.0, Pitch : 0.0, Yaw : 0.0, Alt : 30.1000003815, Lat : 49.28357, Lng : -123.11502, Q1 : 1.0, Q2 : 0.0, Q3 : 0.0, Q4 : 0.0}
2019-04-14 20:39:51.11: SIM {TimeUS : 41734966, Roll : 0.0, Pitch : 0.0, Yaw : 0.0, Alt : 30.1000003815, Lat : 49.28357, Lng : -123.11502, Q1 : 1.0, Q2 : 0.0, Q3 : 0.0, Q4 : 0.0}
2019-04-14 20:39:51.21: SIM {TimeUS : 41834926, Roll : 0.0, Pitch : 0.0, Yaw : 0.0, Alt : 30.1000003815, Lat : 49.28357, Lng : -123.11502, Q1 : 1.0, Q2 : 0.0, Q3 : 0.0, Q4 : 0.0}
2019-04-14 20:39:51.31: SIM {TimeUS : 41934886, Roll : 0.0, Pitch : 0.0, Yaw : 0.0, Alt : 30.1000003815, Lat : 49.28357, Lng : -123.11502, Q1 : 1.0, Q2 : 0.0, Q3 : 0.0, Q4 : 0.0}
2019-04-14 20:39:51.41: SIM {TimeUS : 42034846, Roll : 0.0, Pitch : 0.0, Yaw : 0.0, Alt : 30.1000003815, Lat : 49.28357, Lng : -123.11502, Q1 : 1.0, Q2 : 0.0, Q3 : 0.0, Q4 : 0.0}
2019-04-14 20:39:51.51: SIM {TimeUS : 42134806, Roll : 0.0, Pitch : 0.0, Yaw : 0.0, Alt : 30.1000003815, Lat : 49.28357, Lng : -123.11502, Q1 : 1.0, Q2 : 0.0, Q3 : 0.0, Q4 : 0.0}
2019-04-14 20:39:51.61: SIM {TimeUS : 42234766, Roll : 0.0, Pitch : 0.0, Yaw : 0.0, Alt : 30.1000003815, Lat : 49.28357, Lng : -123.11502, Q1 : 1.0, Q2 : 0.0, Q3 : 0.0, Q4 : 0.0}
2019-04-14 20:39:51.71: SIM {TimeUS : 42334726, Roll : 0.0, Pitch : 0.0, Yaw : 0.0, Alt : 30.1000003815, Lat : 49.28357, Lng : -123.11502, Q1 : 1.0, Q2 : 0.0, Q3 : 0.0, Q4 : 0.0}
2019-04-14 20:39:51.81: SIM {TimeUS : 42434686, Roll : 0.0, Pitch : 0.0, Yaw : 0.0, Alt : 30.1000003815, Lat : 49.28357, Lng : -123.11502, Q1 : 1.0, Q2 : 0.0, Q3 : 0.0, Q4 : 0.0}
2019-04-14 20:39:51.91: SIM {TimeUS : 42535479, Roll : 0.0, Pitch : 0.0, Yaw : 0.0, Alt : 30.1000003815, Lat : 49.28357, Lng : -123.11502, Q1 : 1.0, Q2 : 0.0, Q3 : 0.0, Q4 : 0.0}
2019-04-14 20:39:52.01: SIM {TimeUS : 42635439, Roll : 0.0, Pitch : 0.0, Yaw : 0.0, Alt : 30.1000003815, Lat : 49.28357, Lng : -123.11502, Q1 : 1.0, Q2 : 0.0, Q3 : 0.0, Q4 : 0.0}
2019-04-14 20:39:52.11: SIM {TimeUS : 42735399, Roll : 0.0, Pitch : 0.0, Yaw : 0.0, Alt : 30.1000003815, Lat : 49.28357, Lng : -123.11502, Q1 : 1.0, Q2 : 0.0, Q3 : 0.0, Q4 : 6.82903594784e-11}
2019-04-14 20:39:52.21: SIM {TimeUS : 42835359, Roll : 0.0, Pitch : 0.0, Yaw : 0.0, Alt : 30.1000003815, Lat : 49.28357, Lng : -123.11502, Q1 : 1.0, Q2 : 0.0, Q3 : 0.0, Q4 : 2.50326148699e-10}
2019-04-14 20:39:52.31: SIM {TimeUS : 42935319, Roll : 0.0, Pitch : 0.0, Yaw : 360.0, Alt : 30.1000003815, Lat : 49.28357, Lng : -123.11502, Q1 : 1.0, Q2 : 0.0, Q3 : 0.0, Q4 : -1.61296497936e-07}
2019-04-14 20:39:52.41: SIM {TimeUS : 43035279, Roll : 0.0, Pitch : 0.0, Yaw : 359.99, Alt : 30.1000003815, Lat : 49.28357, Lng : -123.11502, Q1 : 1.0, Q2 : 0.0, Q3 : 0.0, Q4 : -3.57131057172e-07}
2019-04-14 20:39:52.51: SIM {TimeUS : 43135239, Roll : 0.0, Pitch : 0.0, Yaw : 359.99, Alt : 30.1000003815, Lat : 49.28357, Lng : -123.11502, Q1 : 1.0, Q2 : 0.0, Q3 : 0.0, Q4 : -5.66536073165e-07}
2019-04-14 20:39:52.61: SIM {TimeUS : 43235199, Roll : 0.0, Pitch : 0.0, Yaw : 359.99, Alt : 30.1000003815, Lat : 49.28357, Lng : -123.11502, Q1 : 1.0, Q2 : 0.0, Q3 : 0.0, Q4 : -7.83864834375e-07}
2019-04-14 20:39:52.71: SIM {TimeUS : 43335159, Roll : 0.0, Pitch : 0.0, Yaw : 359.99, Alt : 30.1000003815, Lat : 49.28357, Lng : -123.11502, Q1 : 1.0, Q2 : 0.0, Q3 : 0.0, Q4 : -9.84367943602e-07}
2019-04-14 20:39:52.81: SIM {TimeUS : 43435119, Roll : 0.0, Pitch : 0.0, Yaw : 359.99, Alt : 30.1000003815, Lat : 49.28357, Lng : -123.11502, Q1 : 1.0, Q2 : 0.0, Q3 : 0.0, Q4 : -1.22946619285e-06}
2019-04-14 20:39:52.91: SIM {TimeUS : 43535079, Roll : 0.0, Pitch : 0.0, Yaw : 359.99, Alt : 30.1000003815, Lat : 49.28357, Lng : -123.11502, Q1 : 1.0, Q2 : 0.0, Q3 : 0.0, Q4 : -1.43551335441e-06}
2019-04-14 20:39:53.01: SIM {TimeUS : 43635039, Roll : 0.0, Pitch : 0.0, Yaw : 359.99, Alt : 30.1100006104, Lat : 49.28357, Lng : -123.11502, Q1 : 1.0, Q2 : 0.0, Q3 : 0.0, Q4 : -1.63770585004e-06}
2019-04-14 20:39:53.11: SIM {TimeUS : 43734999, Roll : 0.0, Pitch : 0.0, Yaw : 359.99, Alt : 30.1399993896, Lat : 49.28357, Lng : -123.11502, Q1 : 1.0, Q2 : 0.0, Q3 : 0.0, Q4 : -1.82489316103e-06}
2019-04-14 20:39:53.21: SIM {TimeUS : 43834959, Roll : 0.0, Pitch : 0.0, Yaw : 359.99, Alt : 30.1700000763, Lat : 49.28357, Lng : -123.11502, Q1 : 1.0, Q2 : 0.0, Q3 : 0.0, Q4 : -2.04914044843e-06}
2019-04-14 20:39:53.31: SIM {TimeUS : 43934919, Roll : 0.0, Pitch : 0.0, Yaw : 359.99, Alt : 30.2000007629, Lat : 49.28357, Lng : -123.11502, Q1 : 1.0, Q2 : 0.0, Q3 : 0.0, Q4 : -2.2314961825e-06}
2019-04-14 20:39:53.41: SIM {TimeUS : 44034879, Roll : -0.1, Pitch : -0.09, Yaw : 359.99, Alt : 30.25, Lat : 49.28357, Lng : -123.11502, Q1 : 0.99999922514, Q2 : -0.000916606979445, Q3 : -0.000828070915304, Q4 : -1.31499418785e-05}
2019-04-14 20:39:53.51: SIM {TimeUS : 44134839, Roll : -0.41, Pitch : -0.37, Yaw : 359.99, Alt : 30.3500003815, Lat : 49.28357, Lng : -123.11502, Q1 : 0.99998819828, Q2 : -0.00360766146332, Q3 : -0.00325447623618, Q4 : -5.16627624165e-05}
2019-04-14 20:39:53.61: SIM {TimeUS : 44234799, Roll : -0.72, Pitch : -0.64, Yaw : 359.99, Alt : 30.4899997711, Lat : 49.28357, Lng : -123.11502, Q1 : 0.999964177608, Q2 : -0.0063462536782, Q3 : -0.00559822795913, Q4 : -0.000109411586891}
2019-04-14 20:39:53.71: SIM {TimeUS : 44334759, Roll : -0.89, Pitch : -0.77, Yaw : 359.98, Alt : 30.6499996185, Lat : 49.28357, Lng : -123.11502, Q1 : 0.999946475029, Q2 : -0.00780730787665, Q3 : -0.0067871264182, Q4 : -0.000180319635547}
2019-04-14 20:39:53.81: SIM {TimeUS : 44434719, Roll : -0.86, Pitch : -0.77, Yaw : 359.97, Alt : 30.8099994659, Lat : 49.28357, Lng : -123.11502, Q1 : 0.999948680401, Q2 : -0.00754492729902, Q3 : -0.00675224326551, Q4 : -0.000253424514085}
2019-04-14 20:39:53.91: SIM {TimeUS : 44534679, Roll : -0.69, Pitch : -0.64, Yaw : 359.96, Alt : 30.9599990845, Lat : 49.28357, Lng : -123.1150201, Q1 : 0.999965786934, Q2 : -0.00609040865675, Q3 : -0.00558562390506, Q4 : -0.000321716070175}
2019-04-14 20:39:54.01: SIM {TimeUS : 44635472, Roll : -0.47, Pitch : -0.43, Yaw : 359.95, Alt : 31.1200008392, Lat : 49.2835701, Lng : -123.1150202, Q1 : 0.999984264374, Q2 : -0.00415305281058, Q3 : -0.003756666556, Q4 : -0.000380899757147}
2019-04-14 20:39:54.11: SIM {TimeUS : 44735432, Roll : -0.25, Pitch : -0.22, Yaw : 359.95, Alt : 31.2800006866, Lat : 49.2835701, Lng : -123.1150203, Q1 : 0.999995529652, Q2 : -0.00224584899843, Q3 : -0.00193098979071, Q4 : -0.000430364452768}
2019-04-14 20:39:54.21: SIM {TimeUS : 44835392, Roll : -0.07, Pitch : -0.05, Yaw : 359.94, Alt : 31.4400005341, Lat : 49.2835702, Lng : -123.1150203, Q1 : 0.999999523163, Q2 : -0.000677010044456, Q3 : -0.000507425400428, Q4 : -0.000467726436909}
2019-04-14 20:39:54.31: SIM {TimeUS : 44935352, Roll : 0.03, Pitch : 0.03, Yaw : 359.94, Alt : 31.6200008392, Lat : 49.2835702, Lng : -123.1150204, Q1 : 0.999999761581, Q2 : 0.000315600569593, Q3 : 0.000312264572131, Q4 : -0.000495290732943}
2019-04-14 20:39:54.41: SIM {TimeUS : 45035312, Roll : 0.09, Pitch : 0.06, Yaw : 359.94, Alt : 31.7999992371, Lat : 49.2835703, Lng : -123.1150205, Q1 : 0.999999403954, Q2 : 0.000802312977612, Q3 : 0.000549870776013, Q4 : -0.000506569107529}
2019-04-14 20:39:54.51: SIM {TimeUS : 45135272, Roll : 0.1, Pitch : 0.05, Yaw : 359.94, Alt : 31.9799995422, Lat : 49.2835703, Lng : -123.1150206, Q1 : 0.999999344349, Q2 : 0.000922685780097, Q3 : 0.000445701763965, Q4 : -0.000501273083501}
2019-04-14 20:39:54.61: SIM {TimeUS : 45235232, Roll : 0.1, Pitch : 0.03, Yaw : 359.94, Alt : 32.1699981689, Lat : 49.2835703, Lng : -123.1150206, Q1 : 0.999999463558, Q2 : 0.000886315130629, Q3 : 0.000335150980391, Q4 : -0.000486027856823}
2019-04-14 20:39:54.71: SIM {TimeUS : 45335192, Roll : 0.08, Pitch : 0.04, Yaw : 359.94, Alt : 32.3600006104, Lat : 49.2835703, Lng : -123.1150207, Q1 : 0.999999523163, Q2 : 0.000783850788139, Q3 : 0.000360564095899, Q4 : -0.000464571581688}
2019-04-14 20:39:54.81: SIM {TimeUS : 45435152, Roll : 0.06, Pitch : 0.07, Yaw : 359.94, Alt : 32.5499992371, Lat : 49.2835703, Lng : -123.1150207, Q1 : 0.999999463558, Q2 : 0.000596642435994, Q3 : 0.000688996864483, Q4 : -0.000455986213638}
2019-04-14 20:39:54.91: SIM {TimeUS : 45535112, Roll : 0.07, Pitch : 0.13, Yaw : 359.94, Alt : 32.75, Lat : 49.2835703, Lng : -123.1150208, Q1 : 0.999998986721, Q2 : 0.000665290048346, Q3 : 0.00114761898294, Q4 : -0.000450669875136}
2019-04-14 20:39:55.01: SIM {TimeUS : 45635072, Roll : 0.1, Pitch : 0.17, Yaw : 359.94, Alt : 32.9500007629, Lat : 49.2835704, Lng : -123.1150208, Q1 : 0.999998271465, Q2 : 0.000936670112424, Q3 : 0.00153391726781, Q4 : -0.000457513408037}
2019-04-14 20:39:55.11: SIM {TimeUS : 45735032, Roll : 0.13, Pitch : 0.2, Yaw : 359.94, Alt : 33.1500015259, Lat : 49.2835704, Lng : -123.1150208, Q1 : 0.99999755621, Q2 : 0.00121436070185, Q3 : 0.00178761524148, Q4 : -0.00046299098176}
2019-04-14 20:39:55.21: SIM {TimeUS : 45834992, Roll : 0.15, Pitch : 0.22, Yaw : 359.94, Alt : 33.3499984741, Lat : 49.2835704, Lng : -123.1150208, Q1 : 0.999997138977, Q2 : 0.00131964625325, Q3 : 0.00194151687901, Q4 : -0.000469761667773}
2019-04-14 20:39:55.31: SIM {TimeUS : 45934952, Roll : 0.15, Pitch : 0.19, Yaw : 359.94, Alt : 33.5600013733, Lat : 49.2835704, Lng : -123.1150209, Q1 : 0.999997496605, Q2 : 0.00137452653144, Q3 : 0.00169216701761, Q4 : -0.000498654786497}
2019-04-14 20:39:55.41: SIM {TimeUS : 46034912, Roll : 0.15, Pitch : 0.14, Yaw : 359.93, Alt : 33.7599983215, Lat : 49.2835704, Lng : -123.1150209, Q1 : 0.999998033047, Q2 : 0.00138260202948, Q3 : 0.00129179342184, Q4 : -0.000538305961527}
2019-04-14 20:39:55.51: SIM {TimeUS : 46134872, Roll : 0.15, Pitch : 0.11, Yaw : 359.93, Alt : 33.9700012207, Lat : 49.2835704, Lng : -123.1150209, Q1 : 0.999998450279, Q2 : 0.00134169892408, Q3 : 0.000985728576779, Q4 : -0.000575100246351}
2019-04-14 20:39:55.61: SIM {TimeUS : 46234832, Roll : 0.14, Pitch : 0.09, Yaw : 359.92, Alt : 34.1800003052, Lat : 49.2835704, Lng : -123.1150209, Q1 : 0.999998629093, Q2 : 0.00130879599601, Q3 : 0.000810018798802, Q4 : -0.000613488373347}
2019-04-14 20:39:55.71: SIM {TimeUS : 46334792, Roll : 0.15, Pitch : 0.09, Yaw : 359.92, Alt : 34.4000015259, Lat : 49.2835704, Lng : -123.1150209, Q1 : 0.999998569489, Q2 : 0.00131518440321, Q3 : 0.000801134156063, Q4 : -0.000650638830848}
2019-04-14 20:39:55.81: SIM {TimeUS : 46434752, Roll : 0.13, Pitch : 0.08, Yaw : 359.92, Alt : 34.6100006104, Lat : 49.2835704, Lng : -123.1150209, Q1 : 0.999998807907, Q2 : 0.00121136358939, Q3 : 0.000718545226846, Q4 : -0.000665976316668}
2019-04-14 20:39:55.91: SIM {TimeUS : 46534712, Roll : 0.11, Pitch : 0.07, Yaw : 359.92, Alt : 34.8199996948, Lat : 49.2835704, Lng : -123.1150209, Q1 : 0.999999046326, Q2 : 0.00102602504194, Q3 : 0.000637792050838, Q4 : -0.000674273236655}
2019-04-14 20:39:56.01: SIM {TimeUS : 46634672, Roll : 0.09, Pitch : 0.06, Yaw : 359.92, Alt : 35.0400009155, Lat : 49.2835704, Lng : -123.1150208, Q1 : 0.999999284744, Q2 : 0.000804527488071, Q3 : 0.000568156945519, Q4 : -0.000682851416059}
2019-04-14 20:39:56.11: SIM {TimeUS : 46735465, Roll : 0.06, Pitch : 0.05, Yaw : 359.92, Alt : 35.2599983215, Lat : 49.2835704, Lng : -123.1150208, Q1 : 0.999999523163, Q2 : 0.000540743814781, Q3 : 0.000491018872708, Q4 : -0.000686049810611}
2019-04-14 20:39:56.21: SIM {TimeUS : 46835425, Roll : 0.04, Pitch : 0.02, Yaw : 359.92, Alt : 35.4700012207, Lat : 49.2835704, Lng : -123.1150208, Q1 : 0.999999701977, Q2 : 0.000396760442527, Q3 : 0.000190204373212, Q4 : -0.00068207149161}
2019-04-14 20:39:56.31: SIM {TimeUS : 46935385, Roll : 0.03, Pitch : 0.0, Yaw : 359.92, Alt : 35.6899986267, Lat : 49.2835704, Lng : -123.1150208, Q1 : 0.999999701977, Q2 : 0.000329204194713, Q3 : -4.98219524161e-05, Q4 : -0.000678870419506}
2019-04-14 20:39:56.41: SIM {TimeUS : 47035345, Roll : 0.01, Pitch : -0.01, Yaw : 359.92, Alt : 35.9099998474, Lat : 49.2835704, Lng : -123.1150208, Q1 : 0.999999761581, Q2 : 0.000132019660668, Q3 : -0.000147923885379, Q4 : -0.000688033818733}
2019-04-14 20:39:56.51: SIM {TimeUS : 47135305, Roll : 0.0, Pitch : -0.01, Yaw : 359.91, Alt : 36.1300010681, Lat : 49.2835704, Lng : -123.1150208, Q1 : 0.999999761581, Q2 : 7.40857794881e-05, Q3 : -0.000127202656586, Q4 : -0.000698419229593}
2019-04-14 20:39:56.61: SIM {TimeUS : 47235265, Roll : 0.01, Pitch : 0.0, Yaw : 359.91, Alt : 36.3499984741, Lat : 49.2835704, Lng : -123.1150207, Q1 : 0.999999701977, Q2 : 0.000117596246128, Q3 : -7.96288513811e-05, Q4 : -0.00071316875983}
2019-04-14 20:39:56.71: SIM {TimeUS : 47335225, Roll : 0.0, Pitch : -0.02, Yaw : 359.91, Alt : 36.5800018311, Lat : 49.2835704, Lng : -123.1150207, Q1 : 0.999999701977, Q2 : 3.89123761124e-06, Q3 : -0.000195016356884, Q4 : -0.000736567249987}
2019-04-14 20:39:56.81: SIM {TimeUS : 47435185, Roll : -0.03, Pitch : -0.05, Yaw : 359.91, Alt : 36.7999992371, Lat : 49.2835704, Lng : -123.1150207, Q1 : 0.999999582767, Q2 : -0.00028806598857, Q3 : -0.000461450457806, Q4 : -0.000768925936427}
2019-04-14 20:39:56.91: SIM {TimeUS : 47535145, Roll : -0.07, Pitch : -0.07, Yaw : 359.9, Alt : 37.0200004578, Lat : 49.2835704, Lng : -123.1150207, Q1 : 0.99999922514, Q2 : -0.000638940371573, Q3 : -0.000685107603204, Q4 : -0.000806517724413}
2019-04-14 20:39:57.01: SIM {TimeUS : 47635105, Roll : -0.11, Pitch : -0.09, Yaw : 359.9, Alt : 37.25, Lat : 49.2835704, Lng : -123.1150207, Q1 : 0.999998807907, Q2 : -0.000979042379186, Q3 : -0.00086923467461, Q4 : -0.000844002875965}
2019-04-14 20:39:57.11: SIM {TimeUS : 47735065, Roll : -0.12, Pitch : -0.1, Yaw : 359.89, Alt : 37.4700012207, Lat : 49.2835704, Lng : -123.1150207, Q1 : 0.999998569489, Q2 : -0.00110219069757, Q3 : -0.000914928328712, Q4 : -0.00088462268468}
2019-04-14 20:39:57.21: SIM {TimeUS : 47835025, Roll : -0.11, Pitch : -0.09, Yaw : 359.89, Alt : 37.7000007629, Lat : 49.2835704, Lng : -123.1150207, Q1 : 0.999998748302, Q2 : -0.00103994784877, Q3 : -0.000797731685452, Q4 : -0.000925124273635}
2019-04-14 20:39:57.31: SIM {TimeUS : 47934985, Roll : -0.09, Pitch : -0.05, Yaw : 359.88, Alt : 37.9300003052, Lat : 49.2835704, Lng : -123.1150206, Q1 : 0.999999046326, Q2 : -0.000854920072015, Q3 : -0.000497381726746, Q4 : -0.000960678094998}
2019-04-14 20:39:57.41: SIM {TimeUS : 48034945, Roll : -0.07, Pitch : -0.03, Yaw : 359.88, Alt : 38.1500015259, Lat : 49.2835704, Lng : -123.1150206, Q1 : 0.999999284744, Q2 : -0.000646913307719, Q3 : -0.000278562045423, Q4 : -0.000996225513518}
2019-04-14 20:39:57.51: SIM {TimeUS : 48134905, Roll : -0.06, Pitch : -0.03, Yaw : 359.88, Alt : 38.3800010681, Lat : 49.2835704, Lng : -123.1150206, Q1 : 0.999999284744, Q2 : -0.000581174506806, Q3 : -0.00027498617419, Q4 : -0.00102955230977}
2019-04-14 20:39:57.61: SIM {TimeUS : 48234865, Roll : -0.06, Pitch : -0.01, Yaw : 359.87, Alt : 38.6100006104, Lat : 49.2835704, Lng : -123.1150206, Q1 : 0.999999284744, Q2 : -0.00058691209415, Q3 : -0.000169244565768, Q4 : -0.00104780262336}
2019-04-14 20:39:57.71: SIM {TimeUS : 48334825, Roll : -0.08, Pitch : 0.0, Yaw : 359.87, Alt : 38.8400001526, Lat : 49.2835704, Lng : -123.1150206, Q1 : 0.999999165535, Q2 : -0.000743230688386, Q3 : -2.48597225436e-05, Q4 : -0.00105385761708}
2019-04-14 20:39:57.81: SIM {TimeUS : 48434785, Roll : -0.08, Pitch : 0.01, Yaw : 359.87, Alt : 39.0699996948, Lat : 49.2835706, Lng : -123.1150206, Q1 : 0.999999165535, Q2 : -0.00075144978473, Q3 : 9.79001706582e-05, Q4 : -0.00105019938201}
2019-04-14 20:39:57.91: SIM {TimeUS : 48534745, Roll : -0.06, Pitch : 0.03, Yaw : 359.88, Alt : 39.2900009155, Lat : 49.2835706, Lng : -123.1150206, Q1 : 0.999999284744, Q2 : -0.000560570566449, Q3 : 0.00031773140654, Q4 : -0.00104466918856}
2019-04-14 20:39:58.01: SIM {TimeUS : 48634705, Roll : -0.04, Pitch : 0.03, Yaw : 359.88, Alt : 39.5299987793, Lat : 49.2835706, Lng : -123.1150207, Q1 : 0.999999344349, Q2 : -0.000370820926037, Q3 : 0.000317540630931, Q4 : -0.00103212590329}
2019-04-14 20:39:58.11: SIM {TimeUS : 48734665, Roll : -0.01, Pitch : 0.03, Yaw : 359.88, Alt : 39.7599983215, Lat : 49.2835706, Lng : -123.1150207, Q1 : 0.999999403954, Q2 : -0.000124664642499, Q3 : 0.000291420408757, Q4 : -0.00101886352059}
2019-04-14 20:39:58.21: SIM {TimeUS : 48835458, Roll : 0.02, Pitch : 0.05, Yaw : 359.88, Alt : 39.9900016785, Lat : 49.2835706, Lng : -123.1150207, Q1 : 0.999999344349, Q2 : 0.000176077097422, Q3 : 0.000450541672762, Q4 : -0.00100984983146}
2019-04-14 20:39:58.31: SIM {TimeUS : 48935418, Roll : 0.05, Pitch : 0.08, Yaw : 359.88, Alt : 40.2200012207, Lat : 49.2835706, Lng : -123.1150207, Q1 : 0.99999910593, Q2 : 0.000481839611894, Q3 : 0.000703468162101, Q4 : -0.0010083054658}
2019-04-14 20:39:58.41: SIM {TimeUS : 49035378, Roll : 0.08, Pitch : 0.11, Yaw : 359.88, Alt : 40.4500007629, Lat : 49.2835706, Lng : -123.1150207, Q1 : 0.999998688698, Q2 : 0.000752817257307, Q3 : 0.00100036605727, Q4 : -0.00102379487362}
2019-04-14 20:39:58.51: SIM {TimeUS : 49135338, Roll : 0.08, Pitch : 0.14, Yaw : 359.88, Alt : 40.6800003052, Lat : 49.2835706, Lng : -123.1150207, Q1 : 0.99999833107, Q2 : 0.000737213355023, Q3 : 0.00129938940518, Q4 : -0.00104107207153}
2019-04-14 20:39:58.61: SIM {TimeUS : 49235298, Roll : 0.04, Pitch : 0.17, Yaw : 359.87, Alt : 40.9199981689, Lat : 49.2835706, Lng : -123.1150207, Q1 : 0.999998152256, Q2 : 0.000387666892493, Q3 : 0.00155352556612, Q4 : -0.00107609480619}
2019-04-14 20:39:58.71: SIM {TimeUS : 49335258, Roll : 0.0, Pitch : 0.19, Yaw : 359.87, Alt : 41.1500015259, Lat : 49.2835706, Lng : -123.1150207, Q1 : 0.999997973442, Q2 : 6.65120969643e-05, Q3 : 0.0016727487091, Q4 : -0.00110504624899}
2019-04-14 20:39:58.81: SIM {TimeUS : 49435218, Roll : -0.01, Pitch : 0.17, Yaw : 359.87, Alt : 41.3800010681, Lat : 49.2835706, Lng : -123.1150207, Q1 : 0.999998211861, Q2 : -0.000172213971382, Q3 : 0.00150210002903, Q4 : -0.0011321582133}
2019-04-14 20:39:58.91: SIM {TimeUS : 49535178, Roll : -0.03, Pitch : 0.14, Yaw : 359.86, Alt : 41.6100006104, Lat : 49.2835706, Lng : -123.1150207, Q1 : 0.999998509884, Q2 : -0.000292092125164, Q3 : 0.00122452352662, Q4 : -0.00117291219067}
2019-04-14 20:39:59.01: SIM {TimeUS : 49635138, Roll : -0.02, Pitch : 0.13, Yaw : 359.85, Alt : 41.8499984741, Lat : 49.2835706, Lng : -123.1150207, Q1 : 0.999998569489, Q2 : -0.000211000340641, Q3 : 0.00115189945791, Q4 : -0.00122697104234}
2019-04-14 20:39:59.11: SIM {TimeUS : 49735098, Roll : 0.01, Pitch : 0.14, Yaw : 359.85, Alt : 42.0800018311, Lat : 49.2835706, Lng : -123.1150207, Q1 : 0.999998390675, Q2 : 0.000113776797662, Q3 : 0.00123456784058, Q4 : -0.00128712295555}
2019-04-14 20:39:59.21: SIM {TimeUS : 49835058, Roll : 0.06, Pitch : 0.14, Yaw : 359.84, Alt : 42.3199996948, Lat : 49.2835706, Lng : -123.1150207, Q1 : 0.999998152256, Q2 : 0.000550414377358, Q3 : 0.00127514591441, Q4 : -0.00134785287082}
2019-04-14 20:39:59.31: SIM {TimeUS : 49935018, Roll : 0.1, Pitch : 0.11, Yaw : 359.83, Alt : 42.5499992371, Lat : 49.2835706, Lng : -123.1150207, Q1 : 0.999998092651, Q2 : 0.000890803174116, Q3 : 0.00104580493644, Q4 : -0.00140231417026}
2019-04-14 20:39:59.41: SIM {TimeUS : 50034978, Roll : 0.1, Pitch : 0.08, Yaw : 359.83, Alt : 42.7799987793, Lat : 49.2835706, Lng : -123.1150207, Q1 : 0.999998271465, Q2 : 0.000913094088901, Q3 : 0.000722108932678, Q4 : -0.00144955317955}
2019-04-14 20:39:59.51: SIM {TimeUS : 50134938, Roll : 0.06, Pitch : 0.05, Yaw : 359.83, Alt : 43.0200004578, Lat : 49.2835706, Lng : -123.1150207, Q1 : 0.999998629093, Q2 : 0.000581887084991, Q3 : 0.000503449584357, Q4 : -0.00147850567009}
2019-04-14 20:39:59.61: SIM {TimeUS : 50234898, Roll : 0.0, Pitch : 0.05, Yaw : 359.82, Alt : 43.25, Lat : 49.2835706, Lng : -123.1150207, Q1 : 0.999998807907, Q2 : 8.36606777739e-05, Q3 : 0.000455838657217, Q4 : -0.00149180029985}
2019-04-14 20:39:59.71: SIM {TimeUS : 50334858, Roll : -0.03, Pitch : 0.07, Yaw : 359.82, Alt : 43.4900016785, Lat : 49.2835704, Lng : -123.1150207, Q1 : 0.999998629093, Q2 : -0.000295374076813, Q3 : 0.000672122929245, Q4 : -0.00149363907985}
2019-04-14 20:39:59.81: SIM {TimeUS : 50434818, Roll : -0.05, Pitch : 0.09, Yaw : 359.82, Alt : 43.7200012207, Lat : 49.2835704, Lng : -123.1150207, Q1 : 0.999998450279, Q2 : -0.000488093355671, Q3 : 0.000807596894447, Q4 : -0.00148998387158}
2019-04-14 20:39:59.91: SIM {TimeUS : 50534778, Roll : -0.05, Pitch : 0.08, Yaw : 359.82, Alt : 43.9599990845, Lat : 49.2835704, Lng : -123.1150207, Q1 : 0.999998509884, Q2 : -0.000438679911895, Q3 : 0.000730073603336, Q4 : -0.00148405879736}
2019-04-14 20:40:00.01: SIM {TimeUS : 50634738, Roll : -0.04, Pitch : 0.06, Yaw : 359.82, Alt : 44.2000007629, Lat : 49.2835704, Lng : -123.1150206, Q1 : 0.999998629093, Q2 : -0.000425690610427, Q3 : 0.000598077371251, Q4 : -0.00148610258475}
2019-04-14 20:40:00.11: SIM {TimeUS : 50734698, Roll : -0.04, Pitch : 0.05, Yaw : 359.82, Alt : 44.4300003052, Lat : 49.2835704, Lng : -123.1150206, Q1 : 0.999998748302, Q2 : -0.000351852708263, Q3 : 0.000437048234744, Q4 : -0.00149069167674}
2019-04-14 20:40:00.21: SIM {TimeUS : 50834658, Roll : -0.02, Pitch : 0.03, Yaw : 359.82, Alt : 44.6699981689, Lat : 49.2835704, Lng : -123.1150206, Q1 : 0.999998807907, Q2 : -0.000198362235096, Q3 : 0.000311576877721, Q4 : -0.00150140770711}
2019-04-14 20:40:00.31: SIM {TimeUS : 50935451, Roll : -0.01, Pitch : 0.02, Yaw : 359.82, Alt : 44.9099998474, Lat : 49.2835704, Lng : -123.1150206, Q1 : 0.999998807907, Q2 : -9.20676466194e-05, Q3 : 0.000242324545979, Q4 : -0.00151893426664}
2019-04-14 20:40:00.41: SIM {TimeUS : 51035411, Roll : -0.01, Pitch : 0.01, Yaw : 359.82, Alt : 45.1399993896, Lat : 49.2835704, Lng : -123.1150206, Q1 : 0.999998807907, Q2 : -0.000100994569948, Q3 : 9.46462896536e-05, Q4 : -0.00154605484568}
2019-04-14 20:40:00.51: SIM {TimeUS : 51135371, Roll : -0.02, Pitch : -0.02, Yaw : 359.81, Alt : 45.3800010681, Lat : 49.2835703, Lng : -123.1150206, Q1 : 0.999998748302, Q2 : -0.00018165569054, Q3 : -0.000203052783036, Q4 : -0.00158015545458}
2019-04-14 20:40:00.61: SIM {TimeUS : 51235331, Roll : -0.02, Pitch : -0.04, Yaw : 359.81, Alt : 45.6100006104, Lat : 49.2835703, Lng : -123.1150206, Q1 : 0.999998569489, Q2 : -0.000247982155997, Q3 : -0.000428660452599, Q4 : -0.00161443348043}
2019-04-14 20:40:00.71: SIM {TimeUS : 51335291, Roll : -0.02, Pitch : -0.05, Yaw : 359.81, Alt : 45.8499984741, Lat : 49.2835703, Lng : -123.1150206, Q1 : 0.999998509884, Q2 : -0.00024201477936, Q3 : -0.000521990936249, Q4 : -0.00165029626805}
2019-04-14 20:40:00.81: SIM {TimeUS : 51435251, Roll : -0.03, Pitch : -0.05, Yaw : 359.8, Alt : 46.0800018311, Lat : 49.2835703, Lng : -123.1150206, Q1 : 0.999998450279, Q2 : -0.000300729210721, Q3 : -0.000490986451041, Q4 : -0.00168687058613}
2019-04-14 20:40:00.91: SIM {TimeUS : 51535211, Roll : -0.05, Pitch : -0.03, Yaw : 359.8, Alt : 46.2999992371, Lat : 49.2835703, Lng : -123.1150206, Q1 : 0.99999833107, Q2 : -0.000500067661051, Q3 : -0.000335380987963, Q4 : -0.00172375969123}
2019-04-14 20:40:01.01: SIM {TimeUS : 51635171, Roll : -0.09, Pitch : -0.02, Yaw : 359.79, Alt : 46.5299987793, Lat : 49.2835703, Lng : -123.1150206, Q1 : 0.999998092651, Q2 : -0.000804859970231, Q3 : -0.000223817492952, Q4 : -0.00176203914452}
2019-04-14 20:40:01.11: SIM {TimeUS : 51735131, Roll : -0.11, Pitch : -0.02, Yaw : 359.79, Alt : 46.7400016785, Lat : 49.2835703, Lng : -123.1150206, Q1 : 0.999997854233, Q2 : -0.00100267108064, Q3 : -0.000189769401914, Q4 : -0.00179933034815}
2019-04-14 20:40:01.21: SIM {TimeUS : 51835091, Roll : -0.11, Pitch : -0.01, Yaw : 359.78, Alt : 46.9599990845, Lat : 49.2835703, Lng : -123.1150206, Q1 : 0.999997794628, Q2 : -0.00103133660741, Q3 : -0.000125830483739, Q4 : -0.00183533725794}
2019-04-14 20:40:01.31: SIM {TimeUS : 51935051, Roll : -0.1, Pitch : 0.0, Yaw : 359.78, Alt : 47.1599998474, Lat : 49.2835703, Lng : -123.1150206, Q1 : 0.999997794628, Q2 : -0.000933485862333, Q3 : 1.0698544429e-05, Q4 : -0.00186858710367}
2019-04-14 20:40:01.41: SIM {TimeUS : 52035011, Roll : -0.08, Pitch : 0.0, Yaw : 359.78, Alt : 47.3600006104, Lat : 49.2835703, Lng : -123.1150206, Q1 : 0.999997913837, Q2 : -0.000741759839002, Q3 : 6.69962028041e-05, Q4 : -0.00189974438399}
2019-04-14 20:40:01.51: SIM {TimeUS : 52134971, Roll : -0.06, Pitch : 0.0, Yaw : 359.77, Alt : 47.5499992371, Lat : 49.2835703, Lng : -123.1150206, Q1 : 0.999997973442, Q2 : -0.000576338963583, Q3 : 2.96924608847e-05, Q4 : -0.00192876590881}
2019-04-14 20:40:01.61: SIM {TimeUS : 52234931, Roll : -0.06, Pitch : -0.01, Yaw : 359.77, Alt : 47.7299995422, Lat : 49.2835703, Lng : -123.1150206, Q1 : 0.999997913837, Q2 : -0.000610385031905, Q3 : -0.000167262653122, Q4 : -0.00195713620633}
2019-04-14 20:40:01.71: SIM {TimeUS : 52334891, Roll : -0.06, Pitch : -0.05, Yaw : 359.77, Alt : 47.8899993896, Lat : 49.2835703, Lng : -123.1150206, Q1 : 0.999997735023, Q2 : -0.000609992770478, Q3 : -0.000449262501206, Q4 : -0.00198216573335}
2019-04-14 20:40:01.81: SIM {TimeUS : 52434851, Roll : -0.05, Pitch : -0.08, Yaw : 359.77, Alt : 48.0499992371, Lat : 49.2835703, Lng : -123.1150206, Q1 : 0.999997615814, Q2 : -0.000465216638986, Q3 : -0.000702739867847, Q4 : -0.00199957611039}
2019-04-14 20:40:01.91: SIM {TimeUS : 52534811, Roll : -0.04, Pitch : -0.1, Yaw : 359.76, Alt : 48.1899986267, Lat : 49.2835703, Lng : -123.1150206, Q1 : 0.999997496605, Q2 : -0.00036969257053, Q3 : -0.000916137360036, Q4 : -0.00201576179825}
2019-04-14 20:40:02.01: SIM {TimeUS : 52634771, Roll : -0.04, Pitch : -0.11, Yaw : 359.76, Alt : 48.3300018311, Lat : 49.2835703, Lng : -123.1150206, Q1 : 0.999997317791, Q2 : -0.000364787818398, Q3 : -0.00104098743759, Q4 : -0.00203284714371}
2019-04-14 20:40:02.11: SIM {TimeUS : 52734731, Roll : -0.01, Pitch : -0.11, Yaw : 359.76, Alt : 48.4500007629, Lat : 49.2835703, Lng : -123.1150206, Q1 : 0.999997437, Q2 : -0.000111639288662, Q3 : -0.000962910009548, Q4 : -0.00205300794914}
2019-04-14 20:40:02.21: SIM {TimeUS : 52834691, Roll : 0.02, Pitch : -0.08, Yaw : 359.76, Alt : 48.5499992371, Lat : 49.2835703, Lng : -123.1150206, Q1 : 0.99999755621, Q2 : 0.000227427168284, Q3 : -0.000751022656914, Q4 : -0.00207652756944}
2019-04-14 20:40:02.31: SIM {TimeUS : 52935484, Roll : 0.05, Pitch : -0.05, Yaw : 359.75, Alt : 48.6500015259, Lat : 49.2835703, Lng : -123.1150206, Q1 : 0.99999755621, Q2 : 0.000499105255585, Q3 : -0.000459600385511, Q4 : -0.00209645368159}
2019-04-14 20:40:02.41: SIM {TimeUS : 53035444, Roll : 0.06, Pitch : -0.02, Yaw : 359.75, Alt : 48.7299995422, Lat : 49.2835703, Lng : -123.1150207, Q1 : 0.99999755621, Q2 : 0.000588629744016, Q3 : -0.000206747834454, Q4 : -0.00211819447577}
2019-04-14 20:40:02.51: SIM {TimeUS : 53135404, Roll : 0.07, Pitch : -0.01, Yaw : 359.75, Alt : 48.8100013733, Lat : 49.2835703, Lng : -123.1150207, Q1 : 0.999997496605, Q2 : 0.000631716859061, Q3 : -9.98804607661e-05, Q4 : -0.00214824243449}
2019-04-14 20:40:02.61: SIM {TimeUS : 53235364, Roll : 0.06, Pitch : -0.02, Yaw : 359.75, Alt : 48.8699989319, Lat : 49.2835703, Lng : -123.1150207, Q1 : 0.999997437, Q2 : 0.00055076793069, Q3 : -0.000204403855605, Q4 : -0.00217519211583}
2019-04-14 20:40:02.71: SIM {TimeUS : 53335324, Roll : 0.03, Pitch : -0.03, Yaw : 359.74, Alt : 48.9300003052, Lat : 49.2835703, Lng : -123.1150207, Q1 : 0.999997496605, Q2 : 0.000307723734295, Q3 : -0.00027488329215, Q4 : -0.00220318161882}
2019-04-14 20:40:02.81: SIM {TimeUS : 53435284, Roll : 0.02, Pitch : -0.03, Yaw : 359.74, Alt : 48.9700012207, Lat : 49.2835703, Lng : -123.1150207, Q1 : 0.999997437, Q2 : 0.00021770533931, Q3 : -0.000312541262247, Q4 : -0.00223275646567}
2019-04-14 20:40:02.91: SIM {TimeUS : 53535244, Roll : 0.1, Pitch : -0.1, Yaw : 359.74, Alt : 49.0099983215, Lat : 49.2835703, Lng : -123.1150207, Q1 : 0.999996602535, Q2 : 0.000941762409639, Q3 : -0.000889858405571, Q4 : -0.00226202630438}
2019-04-14 20:40:03.01: SIM {TimeUS : 53635204, Roll : 0.39, Pitch : -0.28, Yaw : 359.73, Alt : 49.0499992371, Lat : 49.2835704, Lng : -123.1150207, Q1 : 0.999988138676, Q2 : 0.00347480806522, Q3 : -0.00252706906758, Q4 : -0.00229729129933}
2019-04-14 20:40:03.11: SIM {TimeUS : 53735164, Roll : 0.94, Pitch : -0.62, Yaw : 359.72, Alt : 49.0800018311, Lat : 49.2835704, Lng : -123.1150207, Q1 : 0.999948382378, Q2 : 0.0082393726334, Q3 : -0.00547701912001, Q4 : -0.00232525961474}
2019-04-14 20:40:03.21: SIM {TimeUS : 53835124, Roll : 1.69, Pitch : -1.1, Yaw : 359.71, Alt : 49.0999984741, Lat : 49.2835704, Lng : -123.1150206, Q1 : 0.999841690063, Q2 : 0.0147453956306, Q3 : -0.00968263670802, Q4 : -0.00233357143588}
2019-04-14 20:40:03.31: SIM {TimeUS : 53935084, Roll : 2.54, Pitch : -1.7, Yaw : 359.69, Alt : 49.1199989319, Lat : 49.2835704, Lng : -123.1150206, Q1 : 0.999639034271, Q2 : 0.022191343829, Q3 : -0.01496554818, Q4 : -0.00231185229495}
2019-04-14 20:40:03.41: SIM {TimeUS : 54035044, Roll : 3.38, Pitch : -2.31, Yaw : 359.67, Alt : 49.1399993896, Lat : 49.2835706, Lng : -123.1150205, Q1 : 0.999357461929, Q2 : 0.0294589288533, Q3 : -0.0202953945845, Q4 : -0.00223537092097}
2019-04-14 20:40:03.51: SIM {TimeUS : 54135004, Roll : 4.08, Pitch : -2.85, Yaw : 359.65, Alt : 49.1599998474, Lat : 49.2835707, Lng : -123.1150203, Q1 : 0.999054014683, Q2 : 0.0355428904295, Q3 : -0.0249680597335, Q4 : -0.00208538467996}
2019-04-14 20:40:03.61: SIM {TimeUS : 54234964, Roll : 4.61, Pitch : -3.25, Yaw : 359.65, Alt : 49.1699981689, Lat : 49.2835708, Lng : -123.11502, Q1 : 0.998783648014, Q2 : 0.0401707068086, Q3 : -0.028533058241, Q4 : -0.00185693637468}
2019-04-14 20:40:03.71: SIM {TimeUS : 54334924, Roll : 5.01, Pitch : -3.54, Yaw : 359.66, Alt : 49.1800003052, Lat : 49.2835709, Lng : -123.1150198, Q1 : 0.99856621027, Q2 : 0.0436204113066, Q3 : -0.0309902522713, Q4 : -0.00156625616364}
2019-04-14 20:40:03.81: SIM {TimeUS : 54434884, Roll : 5.31, Pitch : -3.75, Yaw : 359.68, Alt : 49.1899986267, Lat : 49.2835712, Lng : -123.1150193, Q1 : 0.998388469219, Q2 : 0.0462655574083, Q3 : -0.0328397676349, Q4 : -0.00125625426881}
2019-04-14 20:40:03.91: SIM {TimeUS : 54534844, Roll : 5.6, Pitch : -3.93, Yaw : 359.69, Alt : 49.2000007629, Lat : 49.2835714, Lng : -123.1150188, Q1 : 0.998217403889, Q2 : 0.0487409494817, Q3 : -0.0344308800995, Q4 : -0.000943281163927}
2019-04-14 20:40:04.01: SIM {TimeUS : 54634804, Roll : 5.89, Pitch : -4.12, Yaw : 359.71, Alt : 49.2099990845, Lat : 49.2835716, Lng : -123.1150182, Q1 : 0.998032450676, Q2 : 0.0512567795813, Q3 : -0.0361052937806, Q4 : -0.000654784555081}
2019-04-14 20:40:04.11: SIM {TimeUS : 54734764, Roll : 6.18, Pitch : -4.34, Yaw : 359.71, Alt : 49.2200012207, Lat : 49.283572, Lng : -123.1150174, Q1 : 0.997826397419, Q2 : 0.0538221932948, Q3 : -0.0380202718079, Q4 : -0.000407327519497}
2019-04-14 20:40:04.21: SIM {TimeUS : 54834724, Roll : 6.45, Pitch : -4.56, Yaw : 359.72, Alt : 49.2299995422, Lat : 49.2835724, Lng : -123.1150166, Q1 : 0.997622668743, Q2 : 0.0561968833208, Q3 : -0.0398859865963, Q4 : -0.000193672021851}
2019-04-14 20:40:04.31: SIM {TimeUS : 54934684, Roll : 6.68, Pitch : -4.73, Yaw : 359.72, Alt : 49.2299995422, Lat : 49.2835727, Lng : -123.1150157, Q1 : 0.997449040413, Q2 : 0.0581735260785, Q3 : -0.0413662567735, Q4 : 2.75407796835e-06}
2019-04-14 20:40:04.41: SIM {TimeUS : 55035477, Roll : 6.83, Pitch : -4.84, Yaw : 359.72, Alt : 49.2400016785, Lat : 49.2835733, Lng : -123.1150147, Q1 : 0.997330844402, Q2 : 0.0594982877374, Q3 : -0.0423223562539, Q4 : 0.000156278154464}
2019-04-14 20:40:04.51: SIM {TimeUS : 55135437, Roll : 6.94, Pitch : -4.92, Yaw : 359.73, Alt : 49.2400016785, Lat : 49.2835738, Lng : -123.1150136, Q1 : 0.997246623039, Q2 : 0.0604223757982, Q3 : -0.0429907888174, Q4 : 0.000257145002251}
2019-04-14 20:40:04.61: SIM {TimeUS : 55235397, Roll : 7.03, Pitch : -4.98, Yaw : 359.72, Alt : 49.25, Lat : 49.2835744, Lng : -123.1150124, Q1 : 0.997175693512, Q2 : 0.0611669272184, Q3 : -0.0435802340508, Q4 : 0.00031788519118}
2019-04-14 20:40:04.71: SIM {TimeUS : 55335357, Roll : 7.2, Pitch : -5.01, Yaw : 359.75, Alt : 49.25, Lat : 49.2835749, Lng : -123.1150111, Q1 : 0.997072637081, Q2 : 0.0626875981688, Q3 : -0.0437738895416, Q4 : 0.000574918463826}
2019-04-14 20:40:04.81: SIM {TimeUS : 55435317, Roll : 7.6, Pitch : -4.87, Yaw : 0.09, Alt : 49.2599983215, Lat : 49.2835756, Lng : -123.1150096, Q1 : 0.996895611286, Q2 : 0.066282145679, Q3 : -0.0423354022205, Q4 : 0.00368419475853}
2019-04-14 20:40:04.91: SIM {TimeUS : 55535277, Roll : 8.2, Pitch : -4.65, Yaw : 1.42, Alt : 49.2599983215, Lat : 49.2835762, Lng : -123.1150083, Q1 : 0.996500790119, Q2 : 0.0719846636057, Q3 : -0.039620347321, Q4 : 0.0153173208237}
2019-04-14 20:40:05.01: SIM {TimeUS : 55635237, Roll : 8.77, Pitch : -4.72, Yaw : 4.25, Alt : 49.2599983215, Lat : 49.2835769, Lng : -123.1150067, Q1 : 0.995414793491, Q2 : 0.0779285281897, Q3 : -0.0382576398551, Q4 : 0.0401615388691}
2019-04-14 20:40:05.11: SIM {TimeUS : 55735197, Roll : 9.08, Pitch : -5.29, Yaw : 8.65, Alt : 49.2599983215, Lat : 49.2835776, Lng : -123.115005, Q1 : 0.992678284645, Q2 : 0.0823508575559, Q3 : -0.0399781502783, Q4 : 0.0788030326366}
2019-04-14 20:40:05.21: SIM {TimeUS : 55835157, Roll : 8.9, Pitch : -6.36, Yaw : 14.44, Alt : 49.2599983215, Lat : 49.2835782, Lng : -123.1150032, Q1 : 0.987004697323, Q2 : 0.0838346034288, Q3 : -0.0451859459281, Q4 : 0.129428490996}
2019-04-14 20:40:05.31: SIM {TimeUS : 55935117, Roll : 8.11, Pitch : -7.79, Yaw : 21.37, Alt : 49.2599983215, Lat : 49.2835791, Lng : -123.1150013, Q1 : 0.977027237415, Q2 : 0.0819125324488, Q3 : -0.0535814873874, Q4 : 0.189307004213}
2019-04-14 20:40:05.41: SIM {TimeUS : 56035077, Roll : 6.69, Pitch : -9.38, Yaw : 29.19, Alt : 49.2700004578, Lat : 49.2835798, Lng : -123.1149993, Q1 : 0.961616694927, Q2 : 0.076913356781, Q3 : -0.0643933862448, Q4 : 0.2554038167}
2019-04-14 20:40:05.51: SIM {TimeUS : 56135037, Roll : 4.73, Pitch : -10.91, Yaw : 37.64, Alt : 49.2700004578, Lat : 49.2835806, Lng : -123.1149972, Q1 : 0.940145373344, Q2 : 0.0695754513144, Q3 : -0.0767004787922, Q4 : 0.324658274651}
2019-04-14 20:40:05.61: SIM {TimeUS : 56234997, Roll : 2.18, Pitch : -12.17, Yaw : 46.4, Alt : 49.2700004578, Lat : 49.2835813, Lng : -123.1149949, Q1 : 0.912984609604, Q2 : 0.0591480098665, Q3 : -0.0899686962366, Q4 : 0.393530458212}
2019-04-14 20:40:05.71: SIM {TimeUS : 56334957, Roll : -0.94, Pitch : -12.93, Yaw : 54.75, Alt : 49.2700004578, Lat : 49.2835823, Lng : -123.1149926, Q1 : 0.882748305798, Q2 : 0.0445392690599, Q3 : -0.103747203946, Q4 : 0.456079214811}
2019-04-14 20:40:05.81: SIM {TimeUS : 56434917, Roll : -4.06, Pitch : -13.13, Yaw : 61.8, Alt : 49.2700004578, Lat : 49.2835831, Lng : -123.1149901, Q1 : 0.853957474232, Q2 : 0.0284234713763, Q3 : -0.116172999144, Q4 : 0.506411492825}
2019-04-14 20:40:05.91: SIM {TimeUS : 56534877, Roll : -6.55, Pitch : -12.96, Yaw : 66.92, Alt : 49.2700004578, Lat : 49.2835842, Lng : -123.1149876, Q1 : 0.831100165844, Q2 : 0.0147946933284, Q3 : -0.12532377243, Q4 : 0.541615724564}
2019-04-14 20:40:06.01: SIM {TimeUS : 56634837, Roll : -8.0, Pitch : -12.69, Yaw : 69.95, Alt : 49.2700004578, Lat : 49.2835854, Lng : -123.1149851, Q1 : 0.816814243793, Q2 : 0.00638440158218, Q3 : -0.130171120167, Q4 : 0.561986863613}
2019-04-14 20:40:06.11: SIM {TimeUS : 56734797, Roll : -8.37, Pitch : -12.57, Yaw : 71.06, Alt : 49.2700004578, Lat : 49.2835866, Lng : -123.1149825, Q1 : 0.811396241188, Q2 : 0.00438702013344, Q3 : -0.13110640645, Q4 : 0.569585859776}
2019-04-14 20:40:06.21: SIM {TimeUS : 56834757, Roll : -7.83, Pitch : -12.72, Yaw : 70.6, Alt : 49.2700004578, Lat : 49.2835879, Lng : -123.1149798, Q1 : 0.813569784164, Q2 : 0.00846874248236, Q3 : -0.129437357187, Q4 : 0.566814363003}
2019-04-14 20:40:06.31: SIM {TimeUS : 56934717, Roll : -6.62, Pitch : -13.12, Yaw : 68.94, Alt : 49.2700004578, Lat : 49.2835893, Lng : -123.1149771, Q1 : 0.82135874033, Q2 : 0.017290038988, Q3 : -0.126569628716, Q4 : 0.555923581123}
2019-04-14 20:40:06.41: SIM {TimeUS : 57034677, Roll : -4.97, Pitch : -13.73, Yaw : 66.43, Alt : 49.2700004578, Lat : 49.2835909, Lng : -123.1149744, Q1 : 0.832656860352, Q2 : 0.0294213686138, Q3 : -0.123576126993, Q4 : 0.53902310133}
2019-04-14 20:40:06.51: SIM {TimeUS : 57135470, Roll : -3.08, Pitch : -14.44, Yaw : 63.36, Alt : 49.2799987793, Lat : 49.2835925, Lng : -123.1149715, Q1 : 0.845708370209, Q2 : 0.0432561300695, Q3 : -0.120987929404, Q4 : 0.517946124077}
2019-04-14 20:40:06.61: SIM {TimeUS : 57235430, Roll : -1.19, Pitch : -15.08, Yaw : 60.08, Alt : 49.2799987793, Lat : 49.283594, Lng : -123.1149686, Q1 : 0.858785629272, Q2 : 0.0567583963275, Q3 : -0.11875706166, Q4 : 0.495138972998}
2019-04-14 20:40:06.71: SIM {TimeUS : 57335390, Roll : 0.55, Pitch : -15.54, Yaw : 56.92, Alt : 49.2799987793, Lat : 49.2835957, Lng : -123.1149655, Q1 : 0.870735526085, Q2 : 0.0686683505774, Q3 : -0.116606645286, Q4 : 0.472765475512}
2019-04-14 20:40:06.81: SIM {TimeUS : 57435350, Roll : 1.99, Pitch : -15.8, Yaw : 54.18, Alt : 49.2799987793, Lat : 49.2835974, Lng : -123.1149624, Q1 : 0.880603909492, Q2 : 0.0779279991984, Q3 : -0.11452755332, Q4 : 0.453152745962}
2019-04-14 20:40:06.91: SIM {TimeUS : 57535310, Roll : 3.01, Pitch : -15.87, Yaw : 52.1, Alt : 49.2799987793, Lat : 49.2835989, Lng : -123.1149591, Q1 : 0.887867391109, Q2 : 0.0840281248093, Q3 : -0.112597070634, Q4 : 0.438124060631}
2019-04-14 20:40:07.01: SIM {TimeUS : 57635270, Roll : 3.55, Pitch : -15.83, Yaw : 50.81, Alt : 49.2799987793, Lat : 49.2836007, Lng : -123.1149557, Q1 : 0.892380535603, Q2 : 0.0868717953563, Q3 : -0.111197605729, Q4 : 0.428655385971}
2019-04-14 20:40:07.11: SIM {TimeUS : 57735230, Roll : 3.63, Pitch : -15.77, Yaw : 50.32, Alt : 49.2799987793, Lat : 49.2836024, Lng : -123.1149521, Q1 : 0.89423930645, Q2 : 0.0867903605103, Q3 : -0.110783495009, Q4 : 0.424888879061}
2019-04-14 20:40:07.21: SIM {TimeUS : 57835190, Roll : 3.32, Pitch : -15.75, Yaw : 50.53, Alt : 49.2799987793, Lat : 49.2836041, Lng : -123.1149485, Q1 : 0.893706381321, Q2 : 0.0844691172242, Q3 : -0.111663520336, Q4 : 0.426245391369}
2019-04-14 20:40:07.31: SIM {TimeUS : 57935150, Roll : 2.7, Pitch : -15.82, Yaw : 51.3, Alt : 49.2799987793, Lat : 49.2836056, Lng : -123.1149447, Q1 : 0.891176879406, Q2 : 0.0806913301349, Q3 : -0.11393148452, Q4 : 0.431639075279}
2019-04-14 20:40:07.41: SIM {TimeUS : 58035110, Roll : 1.9, Pitch : -15.96, Yaw : 52.46, Alt : 49.2799987793, Lat : 49.2836074, Lng : -123.1149409, Q1 : 0.887188613415, Q2 : 0.0760868340731, Q3 : -0.117264017463, Q4 : 0.439722955227}
2019-04-14 20:40:07.51: SIM {TimeUS : 58135070, Roll : 1.0, Pitch : -16.13, Yaw : 53.8, Alt : 49.2799987793, Lat : 49.2836092, Lng : -123.1149369, Q1 : 0.88235604763, Q2 : 0.0712254270911, Q3 : -0.121185488999, Q4 : 0.449097841978}
2019-04-14 20:40:07.61: SIM {TimeUS : 58235030, Roll : 0.14, Pitch : -16.26, Yaw : 55.16, Alt : 49.2900009155, Lat : 49.2836109, Lng : -123.1149329, Q1 : 0.877340316772, Q2 : 0.0666465461254, Q3 : -0.124833025038, Q4 : 0.458529144526}
2019-04-14 20:40:07.71: SIM {TimeUS : 58334990, Roll : -0.56, Pitch : -16.35, Yaw : 56.38, Alt : 49.2900009155, Lat : 49.2836127, Lng : -123.1149289, Q1 : 0.872722804546, Q2 : 0.0629178360105, Q3 : -0.127703621984, Q4 : 0.466998964548}
2019-04-14 20:40:07.81: SIM {TimeUS : 58434950, Roll : -1.1, Pitch : -16.4, Yaw : 57.35, Alt : 49.2900009155, Lat : 49.2836145, Lng : -123.1149248, Q1 : 0.868978321552, Q2 : 0.0601358488202, Q3 : -0.129765331745, Q4 : 0.473731309175}
2019-04-14 20:40:07.91: SIM {TimeUS : 58534910, Roll : -1.41, Pitch : -16.43, Yaw : 58.01, Alt : 49.2900009155, Lat : 49.2836163, Lng : -123.1149206, Q1 : 0.866391599178, Q2 : 0.0585761070251, Q3 : -0.130910694599, Q4 : 0.478327125311}
2019-04-14 20:40:08.01: SIM {TimeUS : 58634870, Roll : -1.5, Pitch : -16.42, Yaw : 58.33, Alt : 49.2900009155, Lat : 49.2836182, Lng : -123.1149164, Q1 : 0.8650791049, Q2 : 0.0582533180714, Q3 : -0.131096318364, Q4 : 0.480685412884}
2019-04-14 20:40:08.11: SIM {TimeUS : 58734830, Roll : -1.41, Pitch : -16.42, Yaw : 58.35, Alt : 49.2900009155, Lat : 49.2836201, Lng : -123.1149121, Q1 : 0.864969193935, Q2 : 0.0589929446578, Q3 : -0.130681887269, Q4 : 0.480905741453}
2019-04-14 20:40:08.21: SIM {TimeUS : 58834790, Roll : -1.18, Pitch : -16.45, Yaw : 58.1, Alt : 49.2900009155, Lat : 49.283622, Lng : -123.1149078, Q1 : 0.865838289261, Q2 : 0.0605584308505, Q3 : -0.130071267486, Q4 : 0.47931009531}
2019-04-14 20:40:08.31: SIM {TimeUS : 58934750, Roll : -0.87, Pitch : -16.51, Yaw : 57.67, Alt : 49.2900009155, Lat : 49.2836239, Lng : -123.1149035, Q1 : 0.86740309, Q2 : 0.0626714676619, Q3 : -0.129445210099, Q4 : 0.476369768381}
2019-04-14 20:40:08.41: SIM {TimeUS : 59034710, Roll : -0.52, Pitch : -16.59, Yaw : 57.13, Alt : 49.2900009155, Lat : 49.283626, Lng : -123.1148991, Q1 : 0.869351863861, Q2 : 0.0650472417474, Q3 : -0.1289408952, Q4 : 0.472620874643}
2019-04-14 20:40:08.51: SIM {TimeUS : 59134670, Roll : -0.18, Pitch : -16.67, Yaw : 56.56, Alt : 49.2900009155, Lat : 49.283628, Lng : -123.1148946, Q1 : 0.871427297592, Q2 : 0.067299939692, Q3 : -0.128409788013, Q4 : 0.468610793352}
2019-04-14 20:40:08.61: SIM {TimeUS : 59235463, Roll : 0.13, Pitch : -16.72, Yaw : 56.02, Alt : 49.2900009155, Lat : 49.28363, Lng : -123.1148901, Q1 : 0.873396575451, Q2 : 0.069289073348, Q3 : -0.127850532532, Q4 : 0.464792072773}
2019-04-14 20:40:08.71: SIM {TimeUS : 59335423, Roll : 0.38, Pitch : -16.75, Yaw : 55.56, Alt : 49.2900009155, Lat : 49.2836321, Lng : -123.1148856, Q1 : 0.875033378601, Q2 : 0.0708764493465, Q3 : -0.127345323563, Q4 : 0.461601912975}
2019-04-14 20:40:08.81: SIM {TimeUS : 59435383, Roll : 0.56, Pitch : -16.78, Yaw : 55.23, Alt : 49.2900009155, Lat : 49.2836341, Lng : -123.114881, Q1 : 0.876238107681, Q2 : 0.0719702243805, Q3 : -0.127067059278, Q4 : 0.459217905998}
2019-04-14 20:40:08.91: SIM {TimeUS : 59535343, Roll : 0.64, Pitch : -16.81, Yaw : 55.02, Alt : 49.2900009155, Lat : 49.2836361, Lng : -123.1148764, Q1 : 0.876967668533, Q2 : 0.0725105181336, Q3 : -0.127065747976, Q4 : 0.457738190889}
2019-04-14 20:40:09.01: SIM {TimeUS : 59635303, Roll : 0.65, Pitch : -16.84, Yaw : 54.95, Alt : 49.2900009155, Lat : 49.2836383, Lng : -123.1148718, Q1 : 0.877223193645, Q2 : 0.0726071745157, Q3 : -0.1272983253, Q4 : 0.457168251276}
2019-04-14 20:40:09.11: SIM {TimeUS : 59735263, Roll : 0.59, Pitch : -16.87, Yaw : 54.99, Alt : 49.2900009155, Lat : 49.2836402, Lng : -123.1148671, Q1 : 0.877057135105, Q2 : 0.0723107755184, Q3 : -0.127751797438, Q4 : 0.457407295704}
2019-04-14 20:40:09.21: SIM {TimeUS : 59835223, Roll : 0.48, Pitch : -16.9, Yaw : 55.12, Alt : 49.2900009155, Lat : 49.2836424, Lng : -123.1148624, Q1 : 0.876571297646, Q2 : 0.0717257037759, Q3 : -0.128388404846, Q4 : 0.458251684904}
2019-04-14 20:40:09.31: SIM {TimeUS : 59935183, Roll : 0.33, Pitch : -16.94, Yaw : 55.31, Alt : 49.2900009155, Lat : 49.2836445, Lng : -123.1148576, Q1 : 0.875871837139, Q2 : 0.0709932669997, Q3 : -0.129152461886, Q4 : 0.45948690176}
2019-04-14 20:40:09.41: SIM {TimeUS : 60035143, Roll : 0.17, Pitch : -16.99, Yaw : 55.52, Alt : 49.2999992371, Lat : 49.2836466, Lng : -123.1148528, Q1 : 0.875076234341, Q2 : 0.0701646208763, Q3 : -0.130008503795, Q4 : 0.460886448622}
2019-04-14 20:40:09.51: SIM {TimeUS : 60135103, Roll : 0.01, Pitch : -17.02, Yaw : 55.72, Alt : 49.2999992371, Lat : 49.2836487, Lng : -123.114848, Q1 : 0.874305665493, Q2 : 0.0692802667618, Q3 : -0.130801841617, Q4 : 0.462256193161}
2019-04-14 20:40:09.61: SIM {TimeUS : 60235063, Roll : -0.13, Pitch : -17.04, Yaw : 55.9, Alt : 49.2999992371, Lat : 49.2836509, Lng : -123.1148432, Q1 : 0.873658418655, Q2 : 0.068437770009, Q3 : -0.131441622972, Q4 : 0.463422447443}
2019-04-14 20:40:09.71: SIM {TimeUS : 60335023, Roll : -0.25, Pitch : -17.06, Yaw : 56.03, Alt : 49.2999992371, Lat : 49.283653, Lng : -123.1148383, Q1 : 0.873180866241, Q2 : 0.0677353441715, Q3 : -0.132027700543, Q4 : 0.464258342981}
2019-04-14 20:40:09.81: SIM {TimeUS : 60434983, Roll : -0.31, Pitch : -17.1, Yaw : 56.11, Alt : 49.2999992371, Lat : 49.2836552, Lng : -123.1148334, Q1 : 0.872860074043, Q2 : 0.0675206333399, Q3 : -0.132539659739, Q4 : 0.464746713638}
2019-04-14 20:40:09.91: SIM {TimeUS : 60534943, Roll : -0.31, Pitch : -17.15, Yaw : 56.13, Alt : 49.2999992371, Lat : 49.2836572, Lng : -123.1148284, Q1 : 0.872722446918, Q2 : 0.067760206759, Q3 : -0.132870808244, Q4 : 0.464875727892}
2019-04-14 20:40:10.01: SIM {TimeUS : 60634903, Roll : -0.26, Pitch : -17.2, Yaw : 56.1, Alt : 49.2999992371, Lat : 49.2836595, Lng : -123.1148236, Q1 : 0.872760057449, Q2 : 0.0683232545853, Q3 : -0.133077174425, Q4 : 0.464663624763}
2019-04-14 20:40:10.11: SIM {TimeUS : 60734863, Roll : -0.19, Pitch : -17.25, Yaw : 56.02, Alt : 49.2999992371, Lat : 49.2836616, Lng : -123.1148186, Q1 : 0.872956395149, Q2 : 0.0689935907722, Q3 : -0.13319940865, Q4 : 0.464160531759}
2019-04-14 20:40:10.21: SIM {TimeUS : 60834823, Roll : -0.11, Pitch : -17.28, Yaw : 55.92, Alt : 49.2999992371, Lat : 49.2836639, Lng : -123.1148136, Q1 : 0.873283624649, Q2 : 0.0696116387844, Q3 : -0.133192434907, Q4 : 0.463454157114}
2019-04-14 20:40:10.31: SIM {TimeUS : 60934783, Roll : -0.04, Pitch : -17.31, Yaw : 55.81, Alt : 49.3100013733, Lat : 49.2836662, Lng : -123.1148086, Q1 : 0.873685061932, Q2 : 0.0701083242893, Q3 : -0.133166134357, Q4 : 0.462629497051}
2019-04-14 20:40:10.41: SIM {TimeUS : 61034743, Roll : 0.01, Pitch : -17.32, Yaw : 55.69, Alt : 49.3100013733, Lat : 49.2836683, Lng : -123.1148035, Q1 : 0.874114632607, Q2 : 0.0704718828201, Q3 : -0.133104294538, Q4 : 0.461779862642}
2019-04-14 20:40:10.51: SIM {TimeUS : 61134703, Roll : 0.08, Pitch : -17.32, Yaw : 55.58, Alt : 49.3100013733, Lat : 49.2836706, Lng : -123.1147986, Q1 : 0.874516129494, Q2 : 0.0708565488458, Q3 : -0.132913261652, Q4 : 0.461015194654}
2019-04-14 20:40:10.61: SIM {TimeUS : 61234663, Roll : 0.13, Pitch : -17.32, Yaw : 55.48, Alt : 49.3100013733, Lat : 49.2836729, Lng : -123.1147935, Q1 : 0.874855279922, Q2 : 0.0711809545755, Q3 : -0.132753461599, Q4 : 0.460367292166}
2019-04-14 20:40:10.71: SIM {TimeUS : 61335456, Roll : 0.18, Pitch : -17.35, Yaw : 55.41, Alt : 49.3100013733, Lat : 49.283675, Lng : -123.1147884, Q1 : 0.875077664852, Q2 : 0.0715817734599, Q3 : -0.132793903351, Q4 : 0.459870576859}
2019-04-14 20:40:10.81: SIM {TimeUS : 61435416, Roll : 0.22, Pitch : -17.39, Yaw : 55.37, Alt : 49.3100013733, Lat : 49.2836773, Lng : -123.1147833, Q1 : 0.875186622143, Q2 : 0.0719719454646, Q3 : -0.132989317179, Q4 : 0.459545761347}
2019-04-14 20:40:10.91: SIM {TimeUS : 61535376, Roll : 0.23, Pitch : -17.41, Yaw : 55.34, Alt : 49.3100013733, Lat : 49.2836796, Lng : -123.1147782, Q1 : 0.875246286392, Q2 : 0.0720857977867, Q3 : -0.133132860065, Q4 : 0.459372729063}
2019-04-14 20:40:11.01: SIM {TimeUS : 61635336, Roll : 0.22, Pitch : -17.41, Yaw : 55.34, Alt : 49.3100013733, Lat : 49.2836819, Lng : -123.1147731, Q1 : 0.875260710716, Q2 : 0.0720216035843, Q3 : -0.13317912817, Q4 : 0.459341853857}
2019-04-14 20:40:11.11: SIM {TimeUS : 61735296, Roll : 0.19, Pitch : -17.43, Yaw : 55.35, Alt : 49.3100013733, Lat : 49.2836841, Lng : -123.114768, Q1 : 0.875211119652, Q2 : 0.0718977674842, Q3 : -0.13342680037, Q4 : 0.459383815527}
2019-04-14 20:40:11.21: SIM {TimeUS : 61835256, Roll : 0.14, Pitch : -17.46, Yaw : 55.37, Alt : 49.3100013733, Lat : 49.2836864, Lng : -123.1147628, Q1 : 0.875119328499, Q2 : 0.0716464966536, Q3 : -0.13389326632, Q4 : 0.459462285042}
2019-04-14 20:40:11.31: SIM {TimeUS : 61935216, Roll : 0.09, Pitch : -17.49, Yaw : 55.4, Alt : 49.3100013733, Lat : 49.2836888, Lng : -123.1147577, Q1 : 0.875011980534, Q2 : 0.0714541375637, Q3 : -0.134270638227, Q4 : 0.459586471319}
2019-04-14 20:40:11.41: SIM {TimeUS : 62035176, Roll : 0.07, Pitch : -17.53, Yaw : 55.42, Alt : 49.3100013733, Lat : 49.2836911, Lng : -123.1147525, Q1 : 0.874895393848, Q2 : 0.071406789124, Q3 : -0.134625837207, Q4 : 0.459711879492}
2019-04-14 20:40:11.51: SIM {TimeUS : 62135136, Roll : 0.05, Pitch : -17.55, Yaw : 55.44, Alt : 49.3199996948, Lat : 49.2836934, Lng : -123.1147473, Q1 : 0.874806642532, Q2 : 0.0714044943452, Q3 : -0.134859576821, Q4 : 0.459812670946}
2019-04-14 20:40:11.61: SIM {TimeUS : 62235096, Roll : 0.05, Pitch : -17.57, Yaw : 55.45, Alt : 49.3199996948, Lat : 49.2836956, Lng : -123.1147421, Q1 : 0.874747514725, Q2 : 0.0714896470308, Q3 : -0.135022878647, Q4 : 0.459863990545}
2019-04-14 20:40:11.71: SIM {TimeUS : 62335056, Roll : 0.06, Pitch : -17.58, Yaw : 55.45, Alt : 49.3199996948, Lat : 49.283698, Lng : -123.1147369, Q1 : 0.874734163284, Q2 : 0.0716305449605, Q3 : -0.135008379817, Q4 : 0.459871709347}
2019-04-14 20:40:11.81: SIM {TimeUS : 62435016, Roll : 0.09, Pitch : -17.59, Yaw : 55.44, Alt : 49.3199996948, Lat : 49.2837003, Lng : -123.1147316, Q1 : 0.874746978283, Q2 : 0.0718880742788, Q3 : -0.135009944439, Q4 : 0.459806710482}
2019-04-14 20:40:11.91: SIM {TimeUS : 62534976, Roll : 0.12, Pitch : -17.61, Yaw : 55.42, Alt : 49.3199996948, Lat : 49.2837026, Lng : -123.1147264, Q1 : 0.87478095293, Q2 : 0.0721920058131, Q3 : -0.135055825114, Q4 : 0.459680855274}
2019-04-14 20:40:12.01: SIM {TimeUS : 62634936, Roll : 0.13, Pitch : -17.65, Yaw : 55.39, Alt : 49.3199996948, Lat : 49.283705, Lng : -123.1147211, Q1 : 0.874836087227, Q2 : 0.0723766535521, Q3 : -0.135282933712, Q4 : 0.459480106831}
2019-04-14 20:40:12.11: SIM {TimeUS : 62734896, Roll : 0.13, Pitch : -17.68, Yaw : 55.36, Alt : 49.3199996948, Lat : 49.2837072, Lng : -123.1147159, Q1 : 0.874905884266, Q2 : 0.072435259819, Q3 : -0.135634660721, Q4 : 0.459234237671}
2019-04-14 20:40:12.21: SIM {TimeUS : 62834856, Roll : 0.11, Pitch : -17.73, Yaw : 55.34, Alt : 49.3199996948, Lat : 49.2837095, Lng : -123.1147106, Q1 : 0.874977707863, Q2 : 0.0724878832698, Q3 : -0.136020109057, Q4 : 0.458975017071}
2019-04-14 20:40:12.31: SIM {TimeUS : 62934816, Roll : 0.12, Pitch : -17.76, Yaw : 55.31, Alt : 49.3199996948, Lat : 49.283712, Lng : -123.1147053, Q1 : 0.875053107738, Q2 : 0.0726377218962, Q3 : -0.136214077473, Q4 : 0.458749949932}
2019-04-14 20:40:12.41: SIM {TimeUS : 63034776, Roll : 0.14, Pitch : -17.76, Yaw : 55.28, Alt : 49.3199996948, Lat : 49.2837144, Lng : -123.1147, Q1 : 0.875145614147, Q2 : 0.0727384239435, Q3 : -0.136222958565, Q4 : 0.458554893732}
2019-04-14 20:40:12.51: SIM {TimeUS : 63134736, Roll : 0.16, Pitch : -17.75, Yaw : 55.25, Alt : 49.3199996948, Lat : 49.2837167, Lng : -123.1146947, Q1 : 0.875246405602, Q2 : 0.0727999731898, Q3 : -0.136075749993, Q4 : 0.458396494389}
2019-04-14 20:40:12.61: SIM {TimeUS : 63234696, Roll : 0.16, Pitch : -17.73, Yaw : 55.24, Alt : 49.3199996948, Lat : 49.2837191, Lng : -123.1146894, Q1 : 0.87534314394, Q2 : 0.0727149173617, Q3 : -0.135952815413, Q4 : 0.458261609077}
2019-04-14 20:40:12.71: SIM {TimeUS : 63334656, Roll : 0.15, Pitch : -17.72, Yaw : 55.22, Alt : 49.3199996948, Lat : 49.2837214, Lng : -123.114684, Q1 : 0.875429332256, Q2 : 0.0725927054882, Q3 : -0.135866567492, Q4 : 0.458142012358}
2019-04-14 20:40:12.81: SIM {TimeUS : 63435449, Roll : 0.15, Pitch : -17.7, Yaw : 55.21, Alt : 49.3199996948, Lat : 49.2837238, Lng : -123.1146786, Q1 : 0.875491738319, Q2 : 0.0724930465221, Q3 : -0.135785296559, Q4 : 0.458062589169}
2019-04-14 20:40:12.91: SIM {TimeUS : 63535409, Roll : 0.14, Pitch : -17.71, Yaw : 55.2, Alt : 49.3199996948, Lat : 49.2837261, Lng : -123.1146733, Q1 : 0.875523209572, Q2 : 0.0724548399448, Q3 : -0.135869905353, Q4 : 0.4579834342}
2019-04-14 20:40:13.01: SIM {TimeUS : 63635369, Roll : 0.14, Pitch : -17.73, Yaw : 55.19, Alt : 49.3300018311, Lat : 49.2837285, Lng : -123.1146679, Q1 : 0.875538825989, Q2 : 0.0724881887436, Q3 : -0.136007070541, Q4 : 0.457907646894}
2019-04-14 20:40:13.11: SIM {TimeUS : 63735329, Roll : 0.13, Pitch : -17.77, Yaw : 55.19, Alt : 49.3300018311, Lat : 49.2837309, Lng : -123.1146626, Q1 : 0.875519812107, Q2 : 0.0725879371166, Q3 : -0.136377647519, Q4 : 0.457817852497}
2019-04-14 20:40:13.21: SIM {TimeUS : 63835289, Roll : 0.12, Pitch : -17.82, Yaw : 55.18, Alt : 49.3300018311, Lat : 49.2837333, Lng : -123.1146572, Q1 : 0.875486731529, Q2 : 0.072748824954, Q3 : -0.136819884181, Q4 : 0.457723706961}
2019-04-14 20:40:13.31: SIM {TimeUS : 63935249, Roll : 0.13, Pitch : -17.86, Yaw : 55.17, Alt : 49.3300018311, Lat : 49.2837357, Lng : -123.1146518, Q1 : 0.875467300415, Q2 : 0.0729414224625, Q3 : -0.137101560831, Q4 : 0.457645893097}
2019-04-14 20:40:13.41: SIM {TimeUS : 64035209, Roll : 0.13, Pitch : -17.9, Yaw : 55.16, Alt : 49.3300018311, Lat : 49.2837381, Lng : -123.1146464, Q1 : 0.875460147858, Q2 : 0.0730664506555, Q3 : -0.137384578586, Q4 : 0.457554727793}
2019-04-14 20:40:13.51: SIM {TimeUS : 64135169, Roll : 0.12, Pitch : -17.92, Yaw : 55.15, Alt : 49.3300018311, Lat : 49.2837405, Lng : -123.114641, Q1 : 0.875477313995, Q2 : 0.0731102526188, Q3 : -0.137567445636, Q4 : 0.457459926605}
2019-04-14 20:40:13.61: SIM {TimeUS : 64235129, Roll : 0.14, Pitch : -17.91, Yaw : 55.14, Alt : 49.3300018311, Lat : 49.2837429, Lng : -123.1146356, Q1 : 0.875521183014, Q2 : 0.0731901526451, Q3 : -0.137477710843, Q4 : 0.457390248775}
2019-04-14 20:40:13.71: SIM {TimeUS : 64335089, Roll : 0.16, Pitch : -17.92, Yaw : 55.12, Alt : 49.3300018311, Lat : 49.2837454, Lng : -123.1146302, Q1 : 0.875556826591, Q2 : 0.0733693912625, Q3 : -0.137450218201, Q4 : 0.457301497459}
2019-04-14 20:40:13.81: SIM {TimeUS : 64435049, Roll : 0.17, Pitch : -17.94, Yaw : 55.11, Alt : 49.3300018311, Lat : 49.2837478, Lng : -123.1146248, Q1 : 0.875590205193, Q2 : 0.0734830051661, Q3 : -0.137565851212, Q4 : 0.457184523344}
2019-04-14 20:40:13.91: SIM {TimeUS : 64535009, Roll : 0.18, Pitch : -17.95, Yaw : 55.09, Alt : 49.3300018311, Lat : 49.2837502, Lng : -123.1146194, Q1 : 0.875638902187, Q2 : 0.0735420808196, Q3 : -0.13760240376, Q4 : 0.457070738077}
2019-04-14 20:40:14.01: SIM {TimeUS : 64634969, Roll : 0.18, Pitch : -17.94, Yaw : 55.08, Alt : 49.3300018311, Lat : 49.2837526, Lng : -123.114614, Q1 : 0.875702083111, Q2 : 0.0735579505563, Q3 : -0.13751770556, Q4 : 0.456972628832}
2019-04-14 20:40:14.11: SIM {TimeUS : 64734929, Roll : 0.19, Pitch : -17.93, Yaw : 55.07, Alt : 49.3300018311, Lat : 49.283755, Lng : -123.1146085, Q1 : 0.875762403011, Q2 : 0.07355543226, Q3 : -0.137468189001, Q4 : 0.456872344017}
2019-04-14 20:40:14.21: SIM {TimeUS : 64834889, Roll : 0.17, Pitch : -17.95, Yaw : 55.05, Alt : 49.3300018311, Lat : 49.2837574, Lng : -123.1146031, Q1 : 0.875806450844, Q2 : 0.0734905973077, Q3 : -0.137666061521, Q4 : 0.456738710403}
2019-04-14 20:40:14.31: SIM {TimeUS : 64934849, Roll : 0.15, Pitch : -17.99, Yaw : 55.04, Alt : 49.3300018311, Lat : 49.2837599, Lng : -123.1145976, Q1 : 0.875829517841, Q2 : 0.0734027251601, Q3 : -0.13807438314, Q4 : 0.456585347652}
2019-04-14 20:40:14.41: SIM {TimeUS : 65034809, Roll : 0.13, Pitch : -18.0, Yaw : 55.03, Alt : 49.3300018311, Lat : 49.2837623, Lng : -123.1145922, Q1 : 0.875870227814, Q2 : 0.073300845921, Q3 : -0.13821336627, Q4 : 0.456481546164}
2019-04-14 20:40:14.51: SIM {TimeUS : 65134769, Roll : 0.14, Pitch : -17.98, Yaw : 55.02, Alt : 49.3300018311, Lat : 49.2837647, Lng : -123.1145867, Q1 : 0.875914096832, Q2 : 0.07332418859, Q3 : -0.138085767627, Q4 : 0.456432253122}
2019-04-14 20:40:14.61: SIM {TimeUS : 65234729, Roll : 0.16, Pitch : -17.97, Yaw : 55.01, Alt : 49.3400001526, Lat : 49.2837672, Lng : -123.1145812, Q1 : 0.875949144363, Q2 : 0.0734116062522, Q3 : -0.137933060527, Q4 : 0.456397086382}
2019-04-14 20:40:14.71: SIM {TimeUS : 65334689, Roll : 0.17, Pitch : -17.98, Yaw : 55.0, Alt : 49.3400001526, Lat : 49.2837696, Lng : -123.1145758, Q1 : 0.875969350338, Q2 : 0.0735121443868, Q3 : -0.137947380543, Q4 : 0.45633789897}
2019-04-14 20:40:14.81: SIM {TimeUS : 65435482, Roll : 0.16, Pitch : -18.0, Yaw : 54.99, Alt : 49.3400001526, Lat : 49.2837721, Lng : -123.1145702, Q1 : 0.875990092754, Q2 : 0.0734890624881, Q3 : -0.138127759099, Q4 : 0.456247210503}
2019-04-14 20:40:14.91: SIM {TimeUS : 65535442, Roll : 0.13, Pitch : -18.02, Yaw : 54.99, Alt : 49.3400001526, Lat : 49.2837745, Lng : -123.1145648, Q1 : 0.876010835171, Q2 : 0.0733679905534, Q3 : -0.138409048319, Q4 : 0.456141531467}
2019-04-14 20:40:15.01: SIM {TimeUS : 65635402, Roll : 0.12, Pitch : -18.04, Yaw : 54.98, Alt : 49.3400001526, Lat : 49.283777, Lng : -123.1145593, Q1 : 0.876035511494, Q2 : 0.0733028203249, Q3 : -0.138603284955, Q4 : 0.456045717001}
2019-04-14 20:40:15.11: SIM {TimeUS : 65735362, Roll : 0.12, Pitch : -18.05, Yaw : 54.97, Alt : 49.3400001526, Lat : 49.2837794, Lng : -123.1145538, Q1 : 0.876053392887, Q2 : 0.0733809024096, Q3 : -0.13871820271, Q4 : 0.455963790417}
2019-04-14 20:40:15.21: SIM {TimeUS : 65835322, Roll : 0.13, Pitch : -18.07, Yaw : 54.96, Alt : 49.3400001526, Lat : 49.2837819, Lng : -123.1145483, Q1 : 0.876069366932, Q2 : 0.0735055208206, Q3 : -0.138795003295, Q4 : 0.455889701843}
2019-04-14 20:40:15.31: SIM {TimeUS : 65935282, Roll : 0.16, Pitch : -18.08, Yaw : 54.95, Alt : 49.3400001526, Lat : 49.2837843, Lng : -123.1145428, Q1 : 0.876076102257, Q2 : 0.073753207922, Q3 : -0.138824224472, Q4 : 0.455827891827}
2019-04-14 20:40:15.41: SIM {TimeUS : 66035242, Roll : 0.17, Pitch : -18.11, Yaw : 54.93, Alt : 49.3400001526, Lat : 49.2837867, Lng : -123.1145373, Q1 : 0.876082599163, Q2 : 0.0739386081696, Q3 : -0.138948857784, Q4 : 0.455747276545}
2019-04-14 20:40:15.51: SIM {TimeUS : 66135202, Roll : 0.18, Pitch : -18.13, Yaw : 54.92, Alt : 49.3400001526, Lat : 49.2837892, Lng : -123.1145318, Q1 : 0.876087486744, Q2 : 0.0741194039583, Q3 : -0.139085799456, Q4 : 0.455666840076}
2019-04-14 20:40:15.61: SIM {TimeUS : 66235162, Roll : 0.2, Pitch : -18.15, Yaw : 54.91, Alt : 49.3400001526, Lat : 49.2837916, Lng : -123.1145263, Q1 : 0.876095116138, Q2 : 0.074314840138, Q3 : -0.139134645462, Q4 : 0.45560541749}
2019-04-14 20:40:15.71: SIM {TimeUS : 66335122, Roll : 0.24, Pitch : -18.15, Yaw : 54.91, Alt : 49.3400001526, Lat : 49.2837941, Lng : -123.1145208, Q1 : 0.876102745533, Q2 : 0.0745938569307, Q3 : -0.139036953449, Q4 : 0.45557487011}
