2019-04-15 00:15:21.30: SIM {TimeUS : 40316367, Roll : 0.0, Pitch : 0.0, Yaw : 0.0, Alt : 30.1000003815, Lat : 49.28357, Lng : -123.11502, Q1 : 1.0, Q2 : 0.0, Q3 : 0.0, Q4 : 0.0}
2019-04-15 00:15:21.41: SIM {TimeUS : 40435486, Roll : 0.0, Pitch : 0.0, Yaw : 0.0, Alt : 30.1000003815, Lat : 49.28357, Lng : -123.11502, Q1 : 1.0, Q2 : 0.0, Q3 : 0.0, Q4 : 0.0}
2019-04-15 00:15:21.51: SIM {TimeUS : 40535446, Roll : 0.0, Pitch : 0.0, Yaw : 0.0, Alt : 30.1000003815, Lat : 49.28357, Lng : -123.11502, Q1 : 1.0, Q2 : 0.0, Q3 : 0.0, Q4 : 0.0}
2019-04-15 00:15:21.61: SIM {TimeUS : 40635406, Roll : 0.0, Pitch : 0.0, Yaw : 0.0, Alt : 30.1000003815, Lat : 49.28357, Lng : -123.11502, Q1 : 1.0, Q2 : 0.0, Q3 : 0.0, Q4 : 0.0}
2019-04-15 00:15:21.71: SIM {TimeUS : 40735366, Roll : 0.0, Pitch : 0.0, Yaw : 0.0, Alt : 30.1000003815, Lat : 49.28357, Lng : -123.11502, Q1 : 1.0, Q2 : 0.0, Q3 : 0.0, Q4 : 0.0}
2019-04-15 00:15:21.81: SIM {TimeUS : 40835326, Roll : 0.0, Pitch : 0.0, Yaw : 0.0, Alt : 30.1000003815, Lat : 49.28357, Lng : -123.11502, Q1 : 1.0, Q2 : 0.0, Q3 : 0.0, Q4 : 0.0}
2019-04-15 00:15:21.91: SIM {TimeUS : 40935286, Roll : 0.0, Pitch : 0.0, Yaw : 0.0, Alt : 30.1000003815, Lat : 49.28357, Lng : -123.11502, Q1 : 1.0, Q2 : 0.0, Q3 : 0.0, Q4 : 0.0}
2019-04-15 00:15:22.01: SIM {TimeUS : 41035246, Roll : 0.0, Pitch : 0.0, Yaw : 0.0, Alt : 30.1000003815, Lat : 49.28357, Lng : -123.11502, Q1 : 1.0, Q2 : 0.0, Q3 : 0.0, Q4 : 0.0}
2019-04-15 00:15:22.11: SIM {TimeUS : 41135206, Roll : 0.0, Pitch : 0.0, Yaw : 0.0, Alt : 30.1000003815, Lat : 49.28357, Lng : -123.11502, Q1 : 1.0, Q2 : 0.0, Q3 : 0.0, Q4 : 0.0}
2019-04-15 00:15:22.21: SIM {TimeUS : 41235166, Roll : 0.0, Pitch : 0.0, Yaw : 0.0, Alt : 30.1000003815, Lat : 49.28357, Lng : -123.11502, Q1 : 1.0, Q2 : 0.0, Q3 : 0.0, Q4 : 0.0}
2019-04-15 00:15:22.31: SIM {TimeUS : 41335126, Roll : 0.0, Pitch : 0.0, Yaw : 0.0, Alt : 30.1000003815, Lat : 49.28357, Lng : -123.11502, Q1 : 1.0, Q2 : 0.0, Q3 : 0.0, Q4 : 0.0}
2019-04-15 00:15:22.41: SIM {TimeUS : 41435086, Roll : 0.0, Pitch : 0.0, Yaw : 0.0, Alt : 30.1000003815, Lat : 49.28357, Lng : -123.11502, Q1 : 1.0, Q2 : 0.0, Q3 : 0.0, Q4 : 0.0}
2019-04-15 00:15:22.51: SIM {TimeUS : 41535046, Roll : 0.0, Pitch : 0.0, Yaw : 0.0, Alt : 30.1000003815, Lat : 49.28357, Lng : -123.11502, Q1 : 1.0, Q2 : 0.0, Q3 : 0.0, Q4 : 0.0}
2019-04-15 00:15:22.61: SIM {TimeUS : 41635006, Roll : 0.0, Pitch : 0.0, Yaw : 0.0, Alt : 30.1000003815, Lat : 49.28357, Lng : -123.11502, Q1 : 1.0, Q2 : 0.0, Q3 : 0.0, Q4 : 0.0}
2019-04-15 00:15:22.71: SIM {TimeUS : 41734966, Roll : 0.0, Pitch : 0.0, Yaw : 0.0, Alt : 30.1000003815, Lat : 49.28357, Lng : -123.11502, Q1 : 1.0, Q2 : 0.0, Q3 : 0.0, Q4 : 0.0}
2019-04-15 00:15:22.81: SIM {TimeUS : 41834926, Roll : 0.0, Pitch : 0.0, Yaw : 0.0, Alt : 30.1000003815, Lat : 49.28357, Lng : -123.11502, Q1 : 1.0, Q2 : 0.0, Q3 : 0.0, Q4 : 0.0}
2019-04-15 00:15:22.91: SIM {TimeUS : 41934886, Roll : 0.0, Pitch : 0.0, Yaw : 0.0, Alt : 30.1000003815, Lat : 49.28357, Lng : -123.11502, Q1 : 1.0, Q2 : 0.0, Q3 : 0.0, Q4 : 0.0}
2019-04-15 00:15:23.01: SIM {TimeUS : 42034846, Roll : 0.0, Pitch : 0.0, Yaw : 0.0, Alt : 30.1000003815, Lat : 49.28357, Lng : -123.11502, Q1 : 1.0, Q2 : 0.0, Q3 : 0.0, Q4 : 0.0}
2019-04-15 00:15:23.11: SIM {TimeUS : 42134806, Roll : 0.0, Pitch : 0.0, Yaw : 0.0, Alt : 30.1000003815, Lat : 49.28357, Lng : -123.11502, Q1 : 1.0, Q2 : 0.0, Q3 : 0.0, Q4 : 0.0}
2019-04-15 00:15:23.21: SIM {TimeUS : 42234766, Roll : 0.0, Pitch : 0.0, Yaw : 0.0, Alt : 30.1000003815, Lat : 49.28357, Lng : -123.11502, Q1 : 1.0, Q2 : 0.0, Q3 : 0.0, Q4 : 0.0}
2019-04-15 00:15:23.31: SIM {TimeUS : 42334726, Roll : 0.0, Pitch : 0.0, Yaw : 0.0, Alt : 30.1000003815, Lat : 49.28357, Lng : -123.11502, Q1 : 1.0, Q2 : 0.0, Q3 : 0.0, Q4 : 0.0}
2019-04-15 00:15:23.42: SIM {TimeUS : 42435519, Roll : 0.0, Pitch : 0.0, Yaw : 0.0, Alt : 30.1000003815, Lat : 49.28357, Lng : -123.11502, Q1 : 1.0, Q2 : 0.0, Q3 : 0.0, Q4 : 0.0}
2019-04-15 00:15:23.51: SIM {TimeUS : 42535479, Roll : 0.0, Pitch : 0.0, Yaw : 0.0, Alt : 30.1000003815, Lat : 49.28357, Lng : -123.11502, Q1 : 1.0, Q2 : 0.0, Q3 : 0.0, Q4 : 0.0}
2019-04-15 00:15:23.61: SIM {TimeUS : 42635439, Roll : 0.0, Pitch : 0.0, Yaw : 0.0, Alt : 30.1000003815, Lat : 49.28357, Lng : -123.11502, Q1 : 1.0, Q2 : 0.0, Q3 : 0.0, Q4 : 8.72913286792e-12}
2019-04-15 00:15:23.71: SIM {TimeUS : 42735399, Roll : 0.0, Pitch : 0.0, Yaw : 0.0, Alt : 30.1000003815, Lat : 49.28357, Lng : -123.11502, Q1 : 1.0, Q2 : 0.0, Q3 : 0.0, Q4 : 2.80113182649e-10}
2019-04-15 00:15:23.81: SIM {TimeUS : 42835359, Roll : 0.0, Pitch : 0.0, Yaw : 360.0, Alt : 30.1000003815, Lat : 49.28357, Lng : -123.11502, Q1 : 1.0, Q2 : 0.0, Q3 : 0.0, Q4 : -1.44344426189e-07}
2019-04-15 00:15:23.91: SIM {TimeUS : 42935319, Roll : 0.0, Pitch : 0.0, Yaw : 359.99, Alt : 30.1000003815, Lat : 49.28357, Lng : -123.11502, Q1 : 1.0, Q2 : 0.0, Q3 : 0.0, Q4 : -3.46942243823e-07}
2019-04-15 00:15:24.01: SIM {TimeUS : 43035279, Roll : 0.0, Pitch : 0.0, Yaw : 359.99, Alt : 30.1000003815, Lat : 49.28357, Lng : -123.11502, Q1 : 1.0, Q2 : 0.0, Q3 : 0.0, Q4 : -5.51277366867e-07}
2019-04-15 00:15:24.11: SIM {TimeUS : 43135239, Roll : 0.0, Pitch : 0.0, Yaw : 359.99, Alt : 30.1000003815, Lat : 49.28357, Lng : -123.11502, Q1 : 1.0, Q2 : 0.0, Q3 : 0.0, Q4 : -7.84804853993e-07}
2019-04-15 00:15:24.21: SIM {TimeUS : 43235199, Roll : 0.0, Pitch : 0.0, Yaw : 359.99, Alt : 30.1000003815, Lat : 49.28357, Lng : -123.11502, Q1 : 1.0, Q2 : 0.0, Q3 : 0.0, Q4 : -9.61660589383e-07}
2019-04-15 00:15:24.31: SIM {TimeUS : 43335159, Roll : 0.0, Pitch : 0.0, Yaw : 359.99, Alt : 30.1000003815, Lat : 49.28357, Lng : -123.11502, Q1 : 1.0, Q2 : 0.0, Q3 : 0.0, Q4 : -1.14583053801e-06}
2019-04-15 00:15:24.41: SIM {TimeUS : 43435119, Roll : 0.0, Pitch : 0.0, Yaw : 359.99, Alt : 30.1000003815, Lat : 49.28357, Lng : -123.11502, Q1 : 1.0, Q2 : 0.0, Q3 : 0.0, Q4 : -1.36623623348e-06}
2019-04-15 00:15:24.51: SIM {TimeUS : 43535079, Roll : 0.0, Pitch : 0.0, Yaw : 359.99, Alt : 30.1200008392, Lat : 49.28357, Lng : -123.11502, Q1 : 1.0, Q2 : 0.0, Q3 : 0.0, Q4 : -1.58869772804e-06}
2019-04-15 00:15:24.61: SIM {TimeUS : 43635039, Roll : 0.0, Pitch : 0.0, Yaw : 359.99, Alt : 30.1399993896, Lat : 49.28357, Lng : -123.11502, Q1 : 1.0, Q2 : 0.0, Q3 : 0.0, Q4 : -1.82320513886e-06}
2019-04-15 00:15:24.71: SIM {TimeUS : 43734999, Roll : 0.0, Pitch : 0.0, Yaw : 359.99, Alt : 30.1700000763, Lat : 49.28357, Lng : -123.11502, Q1 : 1.0, Q2 : 0.0, Q3 : 0.0, Q4 : -2.00191516342e-06}
2019-04-15 00:15:24.81: SIM {TimeUS : 43834959, Roll : 0.0, Pitch : 0.0, Yaw : 359.99, Alt : 30.2000007629, Lat : 49.28357, Lng : -123.11502, Q1 : 1.0, Q2 : 0.0, Q3 : 0.0, Q4 : -2.22606104217e-06}
2019-04-15 00:15:24.91: SIM {TimeUS : 43934919, Roll : -0.1, Pitch : -0.09, Yaw : 359.99, Alt : 30.25, Lat : 49.28357, Lng : -123.11502, Q1 : 0.999999284744, Q2 : -0.000874290126376, Q3 : -0.000817453721538, Q4 : -9.54933784669e-06}
2019-04-15 00:15:25.01: SIM {TimeUS : 44034879, Roll : -0.38, Pitch : -0.35, Yaw : 359.99, Alt : 30.3500003815, Lat : 49.28357, Lng : -123.11502, Q1 : 0.999989449978, Q2 : -0.00338378944434, Q3 : -0.00310611608438, Q4 : -4.0351987991e-05}
2019-04-15 00:15:25.11: SIM {TimeUS : 44134839, Roll : -0.67, Pitch : -0.6, Yaw : 359.99, Alt : 30.4899997711, Lat : 49.28357, Lng : -123.11502, Q1 : 0.999968528748, Q2 : -0.00588901061565, Q3 : -0.00531853036955, Q4 : -9.61408804869e-05}
2019-04-15 00:15:25.21: SIM {TimeUS : 44234799, Roll : -0.84, Pitch : -0.74, Yaw : 359.98, Alt : 30.6499996185, Lat : 49.28357, Lng : -123.11502, Q1 : 0.999951899052, Q2 : -0.00736651755869, Q3 : -0.00647579180077, Q4 : -0.000168890604982}
2019-04-15 00:15:25.31: SIM {TimeUS : 44334759, Roll : -0.84, Pitch : -0.73, Yaw : 359.97, Alt : 30.8099994659, Lat : 49.28357, Lng : -123.11502, Q1 : 0.99995213747, Q2 : -0.00741612166166, Q3 : -0.00637437356636, Q4 : -0.000251007295446}
2019-04-15 00:15:25.41: SIM {TimeUS : 44434719, Roll : -0.7, Pitch : -0.62, Yaw : 359.96, Alt : 30.9599990845, Lat : 49.28357, Lng : -123.1150201, Q1 : 0.999966561794, Q2 : -0.0061159604229, Q3 : -0.00541858328506, Q4 : -0.000332481780788}
2019-04-15 00:15:25.52: SIM {TimeUS : 44535512, Roll : -0.47, Pitch : -0.44, Yaw : 359.95, Alt : 31.1200008392, Lat : 49.2835701, Lng : -123.1150202, Q1 : 0.999984025955, Q2 : -0.00412124907598, Q3 : -0.00383853097446, Q4 : -0.00040744926082}
2019-04-15 00:15:25.61: SIM {TimeUS : 44635472, Roll : -0.25, Pitch : -0.23, Yaw : 359.94, Alt : 31.2800006866, Lat : 49.2835701, Lng : -123.1150203, Q1 : 0.999995231628, Q2 : -0.00222209747881, Q3 : -0.00208877096884, Q4 : -0.00046708525042}
2019-04-15 00:15:25.71: SIM {TimeUS : 44735432, Roll : -0.08, Pitch : -0.07, Yaw : 359.94, Alt : 31.4400005341, Lat : 49.2835702, Lng : -123.1150203, Q1 : 0.999999403954, Q2 : -0.000706264283508, Q3 : -0.000669489789288, Q4 : -0.000512135506142}
2019-04-15 00:15:25.81: SIM {TimeUS : 44835392, Roll : 0.02, Pitch : 0.02, Yaw : 359.93, Alt : 31.6100006104, Lat : 49.2835702, Lng : -123.1150204, Q1 : 0.999999821186, Q2 : 0.000246351846727, Q3 : 0.000189832571778, Q4 : -0.00054686848307}
2019-04-15 00:15:25.91: SIM {TimeUS : 44935352, Roll : 0.07, Pitch : 0.05, Yaw : 359.93, Alt : 31.7900009155, Lat : 49.2835703, Lng : -123.1150205, Q1 : 0.999999463558, Q2 : 0.000680155702867, Q3 : 0.000522927904967, Q4 : -0.000565852795262}
2019-04-15 00:15:26.01: SIM {TimeUS : 45035312, Roll : 0.09, Pitch : 0.05, Yaw : 359.93, Alt : 31.9799995422, Lat : 49.2835703, Lng : -123.1150206, Q1 : 0.999999344349, Q2 : 0.000849510601256, Q3 : 0.000485270196805, Q4 : -0.000568512885366}
2019-04-15 00:15:26.11: SIM {TimeUS : 45135272, Roll : 0.09, Pitch : 0.03, Yaw : 359.93, Alt : 32.1599998474, Lat : 49.2835703, Lng : -123.1150206, Q1 : 0.999999403954, Q2 : 0.000870046380442, Q3 : 0.000333217874868, Q4 : -0.00056340941228}
2019-04-15 00:15:26.21: SIM {TimeUS : 45235232, Roll : 0.09, Pitch : 0.03, Yaw : 359.93, Alt : 32.3499984741, Lat : 49.2835703, Lng : -123.1150207, Q1 : 0.999999463558, Q2 : 0.000820219866, Q3 : 0.000326257199049, Q4 : -0.000543837144505}
2019-04-15 00:15:26.31: SIM {TimeUS : 45335192, Roll : 0.08, Pitch : 0.06, Yaw : 359.94, Alt : 32.5400009155, Lat : 49.2835703, Lng : -123.1150207, Q1 : 0.999999403954, Q2 : 0.000753295607865, Q3 : 0.000574901641812, Q4 : -0.000515405205078}
2019-04-15 00:15:26.41: SIM {TimeUS : 45435152, Roll : 0.07, Pitch : 0.09, Yaw : 359.94, Alt : 32.7400016785, Lat : 49.2835703, Lng : -123.1150208, Q1 : 0.999999284744, Q2 : 0.000694495392963, Q3 : 0.000864827248733, Q4 : -0.0004838599707}
2019-04-15 00:15:26.51: SIM {TimeUS : 45535112, Roll : 0.1, Pitch : 0.14, Yaw : 359.94, Alt : 32.9399986267, Lat : 49.2835704, Lng : -123.1150208, Q1 : 0.999998688698, Q2 : 0.000889286107849, Q3 : 0.0012577783782, Q4 : -0.00046246862621}
2019-04-15 00:15:26.61: SIM {TimeUS : 45635072, Roll : 0.13, Pitch : 0.17, Yaw : 359.94, Alt : 33.1399993896, Lat : 49.2835704, Lng : -123.1150208, Q1 : 0.999998033047, Q2 : 0.00118731637485, Q3 : 0.00153514405247, Q4 : -0.000448768085334}
2019-04-15 00:15:26.71: SIM {TimeUS : 45735032, Roll : 0.15, Pitch : 0.18, Yaw : 359.94, Alt : 33.3400001526, Lat : 49.2835704, Lng : -123.1150208, Q1 : 0.999997615814, Q2 : 0.00137246761005, Q3 : 0.00164757715538, Q4 : -0.000457299116533}
2019-04-15 00:15:26.81: SIM {TimeUS : 45834992, Roll : 0.16, Pitch : 0.19, Yaw : 359.94, Alt : 33.5499992371, Lat : 49.2835704, Lng : -123.1150209, Q1 : 0.999997377396, Q2 : 0.00141442974564, Q3 : 0.0017247229116, Q4 : -0.000470879458589}
2019-04-15 00:15:26.91: SIM {TimeUS : 45934952, Roll : 0.15, Pitch : 0.16, Yaw : 359.94, Alt : 33.75, Lat : 49.2835704, Lng : -123.1150209, Q1 : 0.999997854233, Q2 : 0.00138598971535, Q3 : 0.00146184198093, Q4 : -0.000504040333908}
2019-04-15 00:15:27.01: SIM {TimeUS : 46034912, Roll : 0.14, Pitch : 0.12, Yaw : 359.93, Alt : 33.9599990845, Lat : 49.2835704, Lng : -123.1150209, Q1 : 0.999998390675, Q2 : 0.00130412005819, Q3 : 0.00113110709935, Q4 : -0.000540126406122}
2019-04-15 00:15:27.11: SIM {TimeUS : 46134872, Roll : 0.13, Pitch : 0.1, Yaw : 359.93, Alt : 34.1699981689, Lat : 49.2835704, Lng : -123.1150209, Q1 : 0.999998807907, Q2 : 0.001139924163, Q3 : 0.000911706767511, Q4 : -0.000573913450353}
2019-04-15 00:15:27.21: SIM {TimeUS : 46234832, Roll : 0.11, Pitch : 0.09, Yaw : 359.93, Alt : 34.3899993896, Lat : 49.2835706, Lng : -123.1150209, Q1 : 0.999998986721, Q2 : 0.00103930965997, Q3 : 0.000796673120931, Q4 : -0.000603407563176}
2019-04-15 00:15:27.31: SIM {TimeUS : 46334792, Roll : 0.11, Pitch : 0.08, Yaw : 359.92, Alt : 34.5999984741, Lat : 49.2835706, Lng : -123.1150209, Q1 : 0.999998986721, Q2 : 0.00103015464265, Q3 : 0.000780510948971, Q4 : -0.000633549585473}
2019-04-15 00:15:27.41: SIM {TimeUS : 46434752, Roll : 0.1, Pitch : 0.07, Yaw : 359.92, Alt : 34.8100013733, Lat : 49.2835706, Lng : -123.1150209, Q1 : 0.999999165535, Q2 : 0.000946016109083, Q3 : 0.000641519727651, Q4 : -0.000654158939142}
2019-04-15 00:15:27.51: SIM {TimeUS : 46534712, Roll : 0.08, Pitch : 0.05, Yaw : 359.92, Alt : 35.0299987793, Lat : 49.2835704, Lng : -123.1150208, Q1 : 0.999999344349, Q2 : 0.000768120284192, Q3 : 0.000476620247355, Q4 : -0.000668197521009}
2019-04-15 00:15:27.62: SIM {TimeUS : 46635505, Roll : 0.06, Pitch : 0.04, Yaw : 359.92, Alt : 35.25, Lat : 49.2835704, Lng : -123.1150208, Q1 : 0.999999523163, Q2 : 0.000595674675424, Q3 : 0.000389523484046, Q4 : -0.000678638694808}
2019-04-15 00:15:27.71: SIM {TimeUS : 46735465, Roll : 0.04, Pitch : 0.04, Yaw : 359.92, Alt : 35.4599990845, Lat : 49.2835704, Lng : -123.1150208, Q1 : 0.999999582767, Q2 : 0.000429448205978, Q3 : 0.00037410002551, Q4 : -0.000686670071445}
2019-04-15 00:15:27.81: SIM {TimeUS : 46835425, Roll : 0.04, Pitch : 0.02, Yaw : 359.92, Alt : 35.6800003052, Lat : 49.2835704, Lng : -123.1150208, Q1 : 0.999999701977, Q2 : 0.0003627158585, Q3 : 0.000185155164218, Q4 : -0.000692025525495}
2019-04-15 00:15:27.91: SIM {TimeUS : 46935385, Roll : 0.03, Pitch : 0.0, Yaw : 359.92, Alt : 35.9000015259, Lat : 49.2835704, Lng : -123.1150208, Q1 : 0.999999701977, Q2 : 0.000312001386192, Q3 : 6.5107618866e-05, Q4 : -0.000698221381754}
2019-04-15 00:15:28.01: SIM {TimeUS : 47035345, Roll : 0.01, Pitch : 0.0, Yaw : 359.91, Alt : 36.1199989319, Lat : 49.2835704, Lng : -123.1150208, Q1 : 0.999999761581, Q2 : 0.000160507144756, Q3 : 2.79194282484e-05, Q4 : -0.000718515075278}
2019-04-15 00:15:28.11: SIM {TimeUS : 47135305, Roll : 0.01, Pitch : 0.0, Yaw : 359.91, Alt : 36.3400001526, Lat : 49.2835704, Lng : -123.1150207, Q1 : 0.999999701977, Q2 : 0.000103268321254, Q3 : 5.98680089752e-05, Q4 : -0.000742887787055}
2019-04-15 00:15:28.21: SIM {TimeUS : 47235265, Roll : 0.01, Pitch : 0.0, Yaw : 359.91, Alt : 36.5699996948, Lat : 49.2835704, Lng : -123.1150207, Q1 : 0.999999701977, Q2 : 0.000152576059918, Q3 : 6.63251776132e-05, Q4 : -0.000770028389525}
2019-04-15 00:15:28.31: SIM {TimeUS : 47335225, Roll : 0.0, Pitch : 0.0, Yaw : 359.9, Alt : 36.7900009155, Lat : 49.2835704, Lng : -123.1150207, Q1 : 0.999999701977, Q2 : 4.70245213364e-05, Q3 : -7.19766176189e-05, Q4 : -0.000797258515377}
2019-04-15 00:15:28.41: SIM {TimeUS : 47435185, Roll : -0.02, Pitch : -0.04, Yaw : 359.9, Alt : 37.0099983215, Lat : 49.2835704, Lng : -123.1150207, Q1 : 0.999999523163, Q2 : -0.000257524836343, Q3 : -0.000408285210142, Q4 : -0.000825757451821}
2019-04-15 00:15:28.51: SIM {TimeUS : 47535145, Roll : -0.07, Pitch : -0.08, Yaw : 359.9, Alt : 37.2400016785, Lat : 49.2835704, Lng : -123.1150207, Q1 : 0.999999165535, Q2 : -0.000646782806143, Q3 : -0.000721625750884, Q4 : -0.000853881705552}
2019-04-15 00:15:28.61: SIM {TimeUS : 47635105, Roll : -0.11, Pitch : -0.1, Yaw : 359.89, Alt : 37.4599990845, Lat : 49.2835704, Lng : -123.1150207, Q1 : 0.999998688698, Q2 : -0.000988851068541, Q3 : -0.000921428203583, Q4 : -0.000885907444172}
2019-04-15 00:15:28.71: SIM {TimeUS : 47735065, Roll : -0.13, Pitch : -0.11, Yaw : 359.89, Alt : 37.6899986267, Lat : 49.2835704, Lng : -123.1150207, Q1 : 0.999998450279, Q2 : -0.00114439602476, Q3 : -0.00100399844814, Q4 : -0.000918332138099}
2019-04-15 00:15:28.81: SIM {TimeUS : 47835025, Roll : -0.13, Pitch : -0.1, Yaw : 359.89, Alt : 37.9199981689, Lat : 49.2835704, Lng : -123.1150206, Q1 : 0.999998450279, Q2 : -0.00114507274702, Q3 : -0.00093996146461, Q4 : -0.000951595196966}
2019-04-15 00:15:28.91: SIM {TimeUS : 47934985, Roll : -0.11, Pitch : -0.07, Yaw : 359.88, Alt : 38.1399993896, Lat : 49.2835704, Lng : -123.1150206, Q1 : 0.999998867512, Q2 : -0.000967128376942, Q3 : -0.000648977642413, Q4 : -0.000980615383014}
2019-04-15 00:15:29.01: SIM {TimeUS : 48034945, Roll : -0.08, Pitch : -0.04, Yaw : 359.88, Alt : 38.3699989319, Lat : 49.2835704, Lng : -123.1150206, Q1 : 0.999999165535, Q2 : -0.000726782949641, Q3 : -0.000405871658586, Q4 : -0.00100733397994}
2019-04-15 00:15:29.11: SIM {TimeUS : 48134905, Roll : -0.06, Pitch : -0.03, Yaw : 359.88, Alt : 38.5999984741, Lat : 49.2835704, Lng : -123.1150206, Q1 : 0.99999922514, Q2 : -0.000601774896495, Q3 : -0.00031795760151, Q4 : -0.00103441148531}
2019-04-15 00:15:29.21: SIM {TimeUS : 48234865, Roll : -0.06, Pitch : -0.01, Yaw : 359.87, Alt : 38.8300018311, Lat : 49.2835704, Lng : -123.1150206, Q1 : 0.999999284744, Q2 : -0.000588218506891, Q3 : -0.000120426237117, Q4 : -0.00105191930197}
2019-04-15 00:15:29.31: SIM {TimeUS : 48334825, Roll : -0.08, Pitch : 0.01, Yaw : 359.87, Alt : 39.0600013733, Lat : 49.2835706, Lng : -123.1150206, Q1 : 0.999999165535, Q2 : -0.000737868074793, Q3 : 9.17676734389e-05, Q4 : -0.00106641161256}
2019-04-15 00:15:29.41: SIM {TimeUS : 48434785, Roll : -0.08, Pitch : 0.02, Yaw : 359.87, Alt : 39.2900009155, Lat : 49.2835706, Lng : -123.1150206, Q1 : 0.99999910593, Q2 : -0.000747530895751, Q3 : 0.000225106748985, Q4 : -0.00107714626938}
2019-04-15 00:15:29.51: SIM {TimeUS : 48534745, Roll : -0.06, Pitch : 0.04, Yaw : 359.87, Alt : 39.5200004578, Lat : 49.2835706, Lng : -123.1150206, Q1 : 0.999999165535, Q2 : -0.000597827078309, Q3 : 0.000411134038586, Q4 : -0.00108616705984}
2019-04-15 00:15:29.61: SIM {TimeUS : 48634705, Roll : -0.04, Pitch : 0.04, Yaw : 359.87, Alt : 39.75, Lat : 49.2835706, Lng : -123.1150207, Q1 : 0.99999922514, Q2 : -0.000401140016038, Q3 : 0.000404700433137, Q4 : -0.00108585203998}
2019-04-15 00:15:29.72: SIM {TimeUS : 48735498, Roll : -0.01, Pitch : 0.03, Yaw : 359.87, Alt : 39.9799995422, Lat : 49.2835706, Lng : -123.1150207, Q1 : 0.999999344349, Q2 : -0.000158933442435, Q3 : 0.000347724067979, Q4 : -0.00108496239409}
2019-04-15 00:15:29.81: SIM {TimeUS : 48835458, Roll : 0.01, Pitch : 0.06, Yaw : 359.87, Alt : 40.2099990845, Lat : 49.2835706, Lng : -123.1150207, Q1 : 0.999999284744, Q2 : 0.00014989299234, Q3 : 0.000538424530532, Q4 : -0.00107694207691}
2019-04-15 00:15:29.91: SIM {TimeUS : 48935418, Roll : 0.05, Pitch : 0.1, Yaw : 359.87, Alt : 40.4399986267, Lat : 49.2835706, Lng : -123.1150207, Q1 : 0.999998867512, Q2 : 0.000513096805662, Q3 : 0.000893838063348, Q4 : -0.00107661588117}
2019-04-15 00:15:30.01: SIM {TimeUS : 49035378, Roll : 0.09, Pitch : 0.14, Yaw : 359.87, Alt : 40.6699981689, Lat : 49.2835706, Lng : -123.1150207, Q1 : 0.999998271465, Q2 : 0.000789931393228, Q3 : 0.00127016752958, Q4 : -0.00108491675928}
2019-04-15 00:15:30.11: SIM {TimeUS : 49135338, Roll : 0.08, Pitch : 0.18, Yaw : 359.87, Alt : 40.9099998474, Lat : 49.2835706, Lng : -123.1150207, Q1 : 0.999997854233, Q2 : 0.000738202477805, Q3 : 0.00159040407743, Q4 : -0.00108984147664}
2019-04-15 00:15:30.21: SIM {TimeUS : 49235298, Roll : 0.03, Pitch : 0.2, Yaw : 359.87, Alt : 41.1399993896, Lat : 49.2835706, Lng : -123.1150207, Q1 : 0.999997735023, Q2 : 0.000335895252647, Q3 : 0.00178966706153, Q4 : -0.00111129158176}
2019-04-15 00:15:30.31: SIM {TimeUS : 49335258, Roll : 0.0, Pitch : 0.2, Yaw : 359.86, Alt : 41.3699989319, Lat : 49.2835706, Lng : -123.1150207, Q1 : 0.999997675419, Q2 : -5.64996735193e-05, Q3 : 0.00182129221503, Q4 : -0.00113618269097}
2019-04-15 00:15:30.41: SIM {TimeUS : 49435218, Roll : -0.03, Pitch : 0.17, Yaw : 359.86, Alt : 41.6100006104, Lat : 49.2835706, Lng : -123.1150207, Q1 : 0.999998092651, Q2 : -0.000269673124421, Q3 : 0.00153768190648, Q4 : -0.00115901243407}
2019-04-15 00:15:30.51: SIM {TimeUS : 49535178, Roll : -0.03, Pitch : 0.13, Yaw : 359.86, Alt : 41.8400001526, Lat : 49.2835706, Lng : -123.1150207, Q1 : 0.999998569489, Q2 : -0.00032334815478, Q3 : 0.00116048182826, Q4 : -0.00118889880832}
2019-04-15 00:15:30.61: SIM {TimeUS : 49635138, Roll : -0.02, Pitch : 0.12, Yaw : 359.85, Alt : 42.0699996948, Lat : 49.2835706, Lng : -123.1150207, Q1 : 0.999998688698, Q2 : -0.000190940438188, Q3 : 0.00105372606777, Q4 : -0.00122880202252}
2019-04-15 00:15:30.71: SIM {TimeUS : 49735098, Roll : 0.01, Pitch : 0.12, Yaw : 359.85, Alt : 42.3100013733, Lat : 49.2835706, Lng : -123.1150207, Q1 : 0.999998509884, Q2 : 0.000156246329425, Q3 : 0.00113002653234, Q4 : -0.00127512519248}
2019-04-15 00:15:30.81: SIM {TimeUS : 49835058, Roll : 0.07, Pitch : 0.13, Yaw : 359.84, Alt : 42.5400009155, Lat : 49.2835706, Lng : -123.1150207, Q1 : 0.999998211861, Q2 : 0.000621629005764, Q3 : 0.00120266666636, Q4 : -0.0013208668679}
2019-04-15 00:15:30.91: SIM {TimeUS : 49935018, Roll : 0.1, Pitch : 0.12, Yaw : 359.84, Alt : 42.7799987793, Lat : 49.2835706, Lng : -123.1150207, Q1 : 0.999998033047, Q2 : 0.000961346901022, Q3 : 0.00107558630407, Q4 : -0.00137522548903}
2019-04-15 00:15:31.01: SIM {TimeUS : 50034978, Roll : 0.11, Pitch : 0.1, Yaw : 359.83, Alt : 43.0099983215, Lat : 49.2835706, Lng : -123.1150207, Q1 : 0.999998092651, Q2 : 0.000984775135294, Q3 : 0.000880809791852, Q4 : -0.00142920145299}
2019-04-15 00:15:31.11: SIM {TimeUS : 50134938, Roll : 0.07, Pitch : 0.08, Yaw : 359.83, Alt : 43.25, Lat : 49.2835706, Lng : -123.1150207, Q1 : 0.999998450279, Q2 : 0.000645413121674, Q3 : 0.000751217477955, Q4 : -0.00146211253013}
2019-04-15 00:15:31.21: SIM {TimeUS : 50234898, Roll : 0.01, Pitch : 0.07, Yaw : 359.82, Alt : 43.4799995422, Lat : 49.2835704, Lng : -123.1150207, Q1 : 0.999998629093, Q2 : 0.000151583590196, Q3 : 0.000674490933307, Q4 : -0.00148495670874}
2019-04-15 00:15:31.31: SIM {TimeUS : 50334858, Roll : -0.02, Pitch : 0.08, Yaw : 359.82, Alt : 43.7200012207, Lat : 49.2835704, Lng : -123.1150207, Q1 : 0.999998569489, Q2 : -0.000219935187488, Q3 : 0.000737634371035, Q4 : -0.00150531157851}
2019-04-15 00:15:31.41: SIM {TimeUS : 50434818, Roll : -0.04, Pitch : 0.08, Yaw : 359.82, Alt : 43.9500007629, Lat : 49.2835704, Lng : -123.1150207, Q1 : 0.999998509884, Q2 : -0.000399214914069, Q3 : 0.000739525654353, Q4 : -0.00152422348037}
2019-04-15 00:15:31.51: SIM {TimeUS : 50534778, Roll : -0.04, Pitch : 0.06, Yaw : 359.82, Alt : 44.1899986267, Lat : 49.2835704, Lng : -123.1150207, Q1 : 0.999998629093, Q2 : -0.000350217305822, Q3 : 0.000584602938034, Q4 : -0.00153665570542}
2019-04-15 00:15:31.61: SIM {TimeUS : 50634738, Roll : -0.04, Pitch : 0.04, Yaw : 359.82, Alt : 44.4199981689, Lat : 49.2835704, Lng : -123.1150206, Q1 : 0.999998629093, Q2 : -0.000367320666555, Q3 : 0.000365167186828, Q4 : -0.00155010458548}
2019-04-15 00:15:31.71: SIM {TimeUS : 50734698, Roll : -0.03, Pitch : 0.01, Yaw : 359.82, Alt : 44.6599998474, Lat : 49.2835704, Lng : -123.1150206, Q1 : 0.999998688698, Q2 : -0.000315037032124, Q3 : 0.00014512326743, Q4 : -0.00156668003183}
2019-04-15 00:15:31.81: SIM {TimeUS : 50835491, Roll : -0.02, Pitch : 0.0, Yaw : 359.81, Alt : 44.9000015259, Lat : 49.2835704, Lng : -123.1150206, Q1 : 0.999998748302, Q2 : -0.000194140782696, Q3 : 9.1491403964e-07, Q4 : -0.00159271038137}
2019-04-15 00:15:31.91: SIM {TimeUS : 50935451, Roll : -0.02, Pitch : 0.0, Yaw : 359.81, Alt : 45.1399993896, Lat : 49.2835703, Lng : -123.1150206, Q1 : 0.999998688698, Q2 : -0.000176343441126, Q3 : 3.47416118984e-07, Q4 : -0.00162056926638}
2019-04-15 00:15:32.01: SIM {TimeUS : 51035411, Roll : -0.02, Pitch : 0.0, Yaw : 359.81, Alt : 45.3699989319, Lat : 49.2835703, Lng : -123.1150206, Q1 : 0.999998629093, Q2 : -0.000225292504183, Q3 : -5.21900437889e-05, Q4 : -0.00165415613446}
2019-04-15 00:15:32.11: SIM {TimeUS : 51135371, Roll : -0.03, Pitch : -0.02, Yaw : 359.8, Alt : 45.6100006104, Lat : 49.2835703, Lng : -123.1150206, Q1 : 0.999998509884, Q2 : -0.000265847658738, Q3 : -0.000239428176428, Q4 : -0.00169147236738}
2019-04-15 00:15:32.21: SIM {TimeUS : 51235331, Roll : -0.03, Pitch : -0.04, Yaw : 359.8, Alt : 45.8400001526, Lat : 49.2835703, Lng : -123.1150206, Q1 : 0.999998390675, Q2 : -0.000268228031928, Q3 : -0.000368999317288, Q4 : -0.00172670721076}
2019-04-15 00:15:32.31: SIM {TimeUS : 51335291, Roll : -0.02, Pitch : -0.05, Yaw : 359.79, Alt : 46.0699996948, Lat : 49.2835703, Lng : -123.1150206, Q1 : 0.99999833107, Q2 : -0.000177115434781, Q3 : -0.000437935988884, Q4 : -0.00175760395359}
2019-04-15 00:15:32.41: SIM {TimeUS : 51435251, Roll : -0.02, Pitch : -0.05, Yaw : 359.79, Alt : 46.2999992371, Lat : 49.2835703, Lng : -123.1150206, Q1 : 0.999998271465, Q2 : -0.000199707879801, Q3 : -0.000460720300907, Q4 : -0.0017837441992}
2019-04-15 00:15:32.51: SIM {TimeUS : 51535211, Roll : -0.04, Pitch : -0.04, Yaw : 359.79, Alt : 46.5200004578, Lat : 49.2835703, Lng : -123.1150206, Q1 : 0.999998211861, Q2 : -0.000398985081119, Q3 : -0.000419456337113, Q4 : -0.0018059310969}
2019-04-15 00:15:32.61: SIM {TimeUS : 51635171, Roll : -0.07, Pitch : -0.04, Yaw : 359.79, Alt : 46.7400016785, Lat : 49.2835703, Lng : -123.1150206, Q1 : 0.999998033047, Q2 : -0.000694979564287, Q3 : -0.000383007456549, Q4 : -0.00182429514825}
2019-04-15 00:15:32.71: SIM {TimeUS : 51735131, Roll : -0.1, Pitch : -0.04, Yaw : 359.78, Alt : 46.9500007629, Lat : 49.2835703, Lng : -123.1150206, Q1 : 0.999997794628, Q2 : -0.000920065212995, Q3 : -0.000372246955521, Q4 : -0.00184357701801}
2019-04-15 00:15:32.81: SIM {TimeUS : 51835091, Roll : -0.11, Pitch : -0.03, Yaw : 359.78, Alt : 47.1599998474, Lat : 49.2835703, Lng : -123.1150206, Q1 : 0.999997735023, Q2 : -0.000986169208772, Q3 : -0.000267770083155, Q4 : -0.00186240836047}
2019-04-15 00:15:32.91: SIM {TimeUS : 51935051, Roll : -0.1, Pitch : 0.0, Yaw : 359.78, Alt : 47.3499984741, Lat : 49.2835703, Lng : -123.1150206, Q1 : 0.999997794628, Q2 : -0.000911103503313, Q3 : -5.29811441083e-05, Q4 : -0.00188312551472}
2019-04-15 00:15:33.01: SIM {TimeUS : 52035011, Roll : -0.08, Pitch : 0.0, Yaw : 359.78, Alt : 47.5400009155, Lat : 49.2835703, Lng : -123.1150206, Q1 : 0.999997913837, Q2 : -0.000715498288628, Q3 : 7.68672543927e-05, Q4 : -0.00190408853814}
2019-04-15 00:15:33.11: SIM {TimeUS : 52134971, Roll : -0.08, Pitch : 0.0, Yaw : 359.77, Alt : 47.7200012207, Lat : 49.2835703, Lng : -123.1150206, Q1 : 0.999997913837, Q2 : -0.000703486555722, Q3 : 5.18802607985e-06, Q4 : -0.00193112238776}
2019-04-15 00:15:33.21: SIM {TimeUS : 52234931, Roll : -0.08, Pitch : -0.02, Yaw : 359.77, Alt : 47.8899993896, Lat : 49.2835703, Lng : -123.1150206, Q1 : 0.999997735023, Q2 : -0.000772416009568, Q3 : -0.000208041528822, Q4 : -0.00196133740246}
2019-04-15 00:15:33.31: SIM {TimeUS : 52334891, Roll : -0.08, Pitch : -0.05, Yaw : 359.77, Alt : 48.0499992371, Lat : 49.2835703, Lng : -123.1150206, Q1 : 0.999997675419, Q2 : -0.000710308784619, Q3 : -0.000480312912259, Q4 : -0.00199030013755}
2019-04-15 00:15:33.41: SIM {TimeUS : 52434851, Roll : -0.05, Pitch : -0.07, Yaw : 359.76, Alt : 48.1899986267, Lat : 49.2835703, Lng : -123.1150206, Q1 : 0.999997615814, Q2 : -0.00049702799879, Q3 : -0.00067450501956, Q4 : -0.00201865890995}
2019-04-15 00:15:33.51: SIM {TimeUS : 52534811, Roll : -0.04, Pitch : -0.09, Yaw : 359.76, Alt : 48.3199996948, Lat : 49.2835703, Lng : -123.1150206, Q1 : 0.999997496605, Q2 : -0.000359453639248, Q3 : -0.000792579026893, Q4 : -0.00204851804301}
2019-04-15 00:15:33.61: SIM {TimeUS : 52634771, Roll : -0.03, Pitch : -0.09, Yaw : 359.76, Alt : 48.4399986267, Lat : 49.2835703, Lng : -123.1150206, Q1 : 0.999997377396, Q2 : -0.000337886624038, Q3 : -0.00085809227312, Q4 : -0.00208226055838}
2019-04-15 00:15:33.71: SIM {TimeUS : 52734731, Roll : -0.01, Pitch : -0.08, Yaw : 359.75, Alt : 48.5499992371, Lat : 49.2835703, Lng : -123.1150206, Q1 : 0.999997437, Q2 : -0.000107579013275, Q3 : -0.000767178891692, Q4 : -0.00211569503881}
2019-04-15 00:15:33.82: SIM {TimeUS : 52835524, Roll : 0.02, Pitch : -0.06, Yaw : 359.75, Alt : 48.6500015259, Lat : 49.2835703, Lng : -123.1150206, Q1 : 0.999997496605, Q2 : 0.000208521581953, Q3 : -0.000567786803003, Q4 : -0.00214857957326}
2019-04-15 00:15:33.91: SIM {TimeUS : 52935484, Roll : 0.05, Pitch : -0.03, Yaw : 359.75, Alt : 48.7299995422, Lat : 49.2835703, Lng : -123.1150206, Q1 : 0.999997437, Q2 : 0.000456313602626, Q3 : -0.000341513485182, Q4 : -0.00217956793495}
2019-04-15 00:15:34.01: SIM {TimeUS : 53035444, Roll : 0.05, Pitch : -0.01, Yaw : 359.74, Alt : 48.7999992371, Lat : 49.2835703, Lng : -123.1150206, Q1 : 0.999997377396, Q2 : 0.000521058624145, Q3 : -0.000175627632416, Q4 : -0.00221053604037}
2019-04-15 00:15:34.11: SIM {TimeUS : 53135404, Roll : 0.06, Pitch : -0.01, Yaw : 359.74, Alt : 48.8699989319, Lat : 49.2835703, Lng : -123.1150207, Q1 : 0.999997317791, Q2 : 0.00056062231306, Q3 : -9.60231773206e-05, Q4 : -0.00223754299805}
2019-04-15 00:15:34.21: SIM {TimeUS : 53235364, Roll : 0.06, Pitch : -0.02, Yaw : 359.74, Alt : 48.9199981689, Lat : 49.2835703, Lng : -123.1150207, Q1 : 0.999997317791, Q2 : 0.000524205155671, Q3 : -0.000206676544622, Q4 : -0.00225895317271}
2019-04-15 00:15:34.31: SIM {TimeUS : 53335324, Roll : 0.03, Pitch : -0.03, Yaw : 359.73, Alt : 48.9700012207, Lat : 49.2835703, Lng : -123.1150207, Q1 : 0.999997317791, Q2 : 0.000341693201335, Q3 : -0.000312751653837, Q4 : -0.00228299666196}
2019-04-15 00:15:34.41: SIM {TimeUS : 53435284, Roll : 0.07, Pitch : -0.06, Yaw : 359.73, Alt : 49.0099983215, Lat : 49.2835703, Lng : -123.1150207, Q1 : 0.999996900558, Q2 : 0.000696234463248, Q3 : -0.000593388976995, Q4 : -0.00231088628061}
2019-04-15 00:15:34.51: SIM {TimeUS : 53535244, Roll : 0.29, Pitch : -0.21, Yaw : 359.73, Alt : 49.0400009155, Lat : 49.2835703, Lng : -123.1150207, Q1 : 0.999992370605, Q2 : 0.00253648427315, Q3 : -0.00185026333202, Q4 : -0.00233884318732}
2019-04-15 00:15:34.61: SIM {TimeUS : 53635204, Roll : 0.73, Pitch : -0.5, Yaw : 359.72, Alt : 49.0699996948, Lat : 49.2835703, Lng : -123.1150207, Q1 : 0.999966859818, Q2 : 0.00641008885577, Q3 : -0.00443508010358, Q4 : -0.00236528622918}
2019-04-15 00:15:34.71: SIM {TimeUS : 53735164, Roll : 1.4, Pitch : -0.93, Yaw : 359.71, Alt : 49.0999984741, Lat : 49.2835704, Lng : -123.1150206, Q1 : 0.999888062477, Q2 : 0.0122817922384, Q3 : -0.00821039546281, Q4 : -0.00237676152028}
2019-04-15 00:15:34.81: SIM {TimeUS : 53835124, Roll : 2.24, Pitch : -1.48, Yaw : 359.7, Alt : 49.1199989319, Lat : 49.2835704, Lng : -123.1150206, Q1 : 0.999721765518, Q2 : 0.0195476636291, Q3 : -0.0129901105538, Q4 : -0.0023562386632}
2019-04-15 00:15:34.91: SIM {TimeUS : 53935084, Roll : 3.11, Pitch : -2.09, Yaw : 359.68, Alt : 49.1399993896, Lat : 49.2835704, Lng : -123.1150205, Q1 : 0.999460816383, Q2 : 0.0271442253143, Q3 : -0.0183331165463, Q4 : -0.00228267163038}
2019-04-15 00:15:35.01: SIM {TimeUS : 54035044, Roll : 3.88, Pitch : -2.65, Yaw : 359.66, Alt : 49.1599998474, Lat : 49.2835706, Lng : -123.1150203, Q1 : 0.999156653881, Q2 : 0.0337796323001, Q3 : -0.0232456345111, Q4 : -0.0021479439456}
2019-04-15 00:15:35.11: SIM {TimeUS : 54135004, Roll : 4.46, Pitch : -3.11, Yaw : 359.65, Alt : 49.1699981689, Lat : 49.2835707, Lng : -123.1150201, Q1 : 0.998872101307, Q2 : 0.0388403013349, Q3 : -0.0272439029068, Q4 : -0.00194737163838}
2019-04-15 00:15:35.21: SIM {TimeUS : 54234964, Roll : 4.88, Pitch : -3.44, Yaw : 359.65, Alt : 49.1800003052, Lat : 49.2835709, Lng : -123.1150199, Q1 : 0.998637914658, Q2 : 0.0425177291036, Q3 : -0.0301943868399, Q4 : -0.00169409031514}
2019-04-15 00:15:35.31: SIM {TimeUS : 54334924, Roll : 5.2, Pitch : -3.69, Yaw : 359.67, Alt : 49.1899986267, Lat : 49.283571, Lng : -123.1150195, Q1 : 0.998450100422, Q2 : 0.0453052185476, Q3 : -0.0322944335639, Q4 : -0.00140202301554}
2019-04-15 00:15:35.41: SIM {TimeUS : 54434884, Roll : 5.49, Pitch : -3.89, Yaw : 359.68, Alt : 49.2000007629, Lat : 49.2835713, Lng : -123.115019, Q1 : 0.998272180557, Q2 : 0.0478500910103, Q3 : -0.034085329622, Q4 : -0.00110020220745}
2019-04-15 00:15:35.51: SIM {TimeUS : 54534844, Roll : 5.79, Pitch : -4.09, Yaw : 359.7, Alt : 49.2099990845, Lat : 49.2835715, Lng : -123.1150184, Q1 : 0.998084187508, Q2 : 0.0504417270422, Q3 : -0.0358180589974, Q4 : -0.000799966743216}
2019-04-15 00:15:35.61: SIM {TimeUS : 54634804, Roll : 6.1, Pitch : -4.29, Yaw : 359.71, Alt : 49.2200012207, Lat : 49.2835719, Lng : -123.1150177, Q1 : 0.997879743576, Q2 : 0.0531411208212, Q3 : -0.0375739336014, Q4 : -0.000520084169693}
2019-04-15 00:15:35.71: SIM {TimeUS : 54734764, Roll : 6.38, Pitch : -4.5, Yaw : 359.71, Alt : 49.2299995422, Lat : 49.2835722, Lng : -123.1150169, Q1 : 0.997680127621, Q2 : 0.0555574148893, Q3 : -0.0393402129412, Q4 : -0.000284844980342}
2019-04-15 00:15:35.81: SIM {TimeUS : 54834724, Roll : 6.61, Pitch : -4.67, Yaw : 359.71, Alt : 49.2299995422, Lat : 49.2835727, Lng : -123.115016, Q1 : 0.997503459454, Q2 : 0.0575833395123, Q3 : -0.0408775657415, Q4 : -9.16428762139e-05}
2019-04-15 00:15:35.92: SIM {TimeUS : 54935517, Roll : 6.8, Pitch : -4.8, Yaw : 359.72, Alt : 49.2400016785, Lat : 49.2835731, Lng : -123.115015, Q1 : 0.997363686562, Q2 : 0.0591972135007, Q3 : -0.0419697649777, Q4 : 7.86737800809e-05}
2019-04-15 00:15:36.01: SIM {TimeUS : 55035477, Roll : 6.92, Pitch : -4.86, Yaw : 359.73, Alt : 49.2400016785, Lat : 49.2835735, Lng : -123.1150139, Q1 : 0.997277140617, Q2 : 0.0602423101664, Q3 : -0.0425345525146, Q4 : 0.000216650805669}
2019-04-15 00:15:36.11: SIM {TimeUS : 55135437, Roll : 7.01, Pitch : -4.91, Yaw : 359.73, Alt : 49.25, Lat : 49.2835741, Lng : -123.1150128, Q1 : 0.997213900089, Q2 : 0.0609952956438, Q3 : -0.0429414622486, Q4 : 0.000306859146804}
2019-04-15 00:15:36.21: SIM {TimeUS : 55235397, Roll : 7.12, Pitch : -4.97, Yaw : 359.73, Alt : 49.25, Lat : 49.2835746, Lng : -123.1150115, Q1 : 0.997130632401, Q2 : 0.0619523115456, Q3 : -0.0435001738369, Q4 : 0.00037521313061}
2019-04-15 00:15:36.31: SIM {TimeUS : 55335357, Roll : 7.43, Pitch : -4.92, Yaw : 359.9, Alt : 49.25, Lat : 49.2835752, Lng : -123.1150102, Q1 : 0.996977984905, Q2 : 0.0647141858935, Q3 : -0.0429334267974, Q4 : 0.00192520790733}
2019-04-15 00:15:36.41: SIM {TimeUS : 55435317, Roll : 7.98, Pitch : -4.72, Yaw : 0.8, Alt : 49.2599983215, Lat : 49.2835759, Lng : -123.1150087, Q1 : 0.996679961681, Q2 : 0.069867439568, Q3 : -0.0406266152859, Q4 : 0.00985411461443}
2019-04-15 00:15:36.51: SIM {TimeUS : 55535277, Roll : 8.6, Pitch : -4.66, Yaw : 3.07, Alt : 49.2599983215, Lat : 49.2835767, Lng : -123.1150072, Q1 : 0.995915174484, Q2 : 0.0759967714548, Q3 : -0.038592223078, Q4 : 0.0298019126058}
2019-04-15 00:15:36.61: SIM {TimeUS : 55635237, Roll : 9.01, Pitch : -5.05, Yaw : 6.93, Alt : 49.2599983215, Lat : 49.2835774, Lng : -123.1150056, Q1 : 0.993899643421, Q2 : 0.0810529440641, Q3 : -0.0391362160444, Q4 : 0.0637362003326}
2019-04-15 00:15:36.71: SIM {TimeUS : 55735197, Roll : 9.02, Pitch : -5.96, Yaw : 12.26, Alt : 49.2599983215, Lat : 49.2835781, Lng : -123.1150038, Q1 : 0.989414930344, Q2 : 0.0836339220405, Q3 : -0.0431742183864, Q4 : 0.110451437533}
2019-04-15 00:15:36.81: SIM {TimeUS : 55835157, Roll : 8.45, Pitch : -7.29, Yaw : 18.82, Alt : 49.2599983215, Lat : 49.2835788, Lng : -123.115002, Q1 : 0.98108279705, Q2 : 0.0829915180802, Q3 : -0.0505382269621, Q4 : 0.16743606329}
2019-04-15 00:15:36.91: SIM {TimeUS : 55935117, Roll : 7.26, Pitch : -8.85, Yaw : 26.36, Alt : 49.2599983215, Lat : 49.2835794, Lng : -123.115, Q1 : 0.967667639256, Q2 : 0.0790868028998, Q3 : -0.0605933107436, Q4 : 0.231717646122}
2019-04-15 00:15:37.01: SIM {TimeUS : 56035077, Roll : 5.48, Pitch : -10.41, Yaw : 34.63, Alt : 49.2700004578, Lat : 49.2835802, Lng : -123.1149979, Q1 : 0.948352634907, Q2 : 0.0724920332432, Q3 : -0.07236546278, Q4 : 0.300225555897}
2019-04-15 00:15:37.11: SIM {TimeUS : 56135037, Roll : 3.15, Pitch : -11.77, Yaw : 43.33, Alt : 49.2700004578, Lat : 49.2835811, Lng : -123.1149957, Q1 : 0.923039734364, Q2 : 0.0633372068405, Q3 : -0.0851532891393, Q4 : 0.369776934385}
2019-04-15 00:15:37.21: SIM {TimeUS : 56234997, Roll : 0.19, Pitch : -12.72, Yaw : 51.93, Alt : 49.2700004578, Lat : 49.2835819, Lng : -123.1149933, Q1 : 0.893438220024, Q2 : 0.0500384755433, Q3 : -0.098869368434, Q4 : 0.435303509235}
2019-04-15 00:15:37.31: SIM {TimeUS : 56334957, Roll : -3.01, Pitch : -13.11, Yaw : 59.52, Alt : 49.2700004578, Lat : 49.2835829, Lng : -123.1149909, Q1 : 0.86359834671, Q2 : 0.0339991077781, Q3 : -0.112095586956, Q4 : 0.490384072065}
2019-04-15 00:15:37.41: SIM {TimeUS : 56434917, Roll : -5.8, Pitch : -13.04, Yaw : 65.36, Alt : 49.2700004578, Lat : 49.2835838, Lng : -123.1149885, Q1 : 0.838274419308, Q2 : 0.0189560838044, Q3 : -0.122660189867, Q4 : 0.530934274197}
2019-04-15 00:15:37.51: SIM {TimeUS : 56534877, Roll : -7.64, Pitch : -12.78, Yaw : 69.1, Alt : 49.2700004578, Lat : 49.2835849, Lng : -123.1149859, Q1 : 0.820876896381, Q2 : 0.00845870748162, Q3 : -0.129101261497, Q4 : 0.556257605553}
2019-04-15 00:15:37.61: SIM {TimeUS : 56634837, Roll : -8.38, Pitch : -12.59, Yaw : 70.84, Alt : 49.2700004578, Lat : 49.2835861, Lng : -123.1149833, Q1 : 0.812468469143, Q2 : 0.0041543985717, Q3 : -0.131257921457, Q4 : 0.56802213192}
2019-04-15 00:15:37.71: SIM {TimeUS : 56734797, Roll : -8.12, Pitch : -12.63, Yaw : 70.89, Alt : 49.2700004578, Lat : 49.2835873, Lng : -123.1149807, Q1 : 0.812209486961, Q2 : 0.00624592043459, Q3 : -0.13026291132, Q4 : 0.568602085114}
2019-04-15 00:15:37.81: SIM {TimeUS : 56834757, Roll : -7.1, Pitch : -12.96, Yaw : 69.61, Alt : 49.2700004578, Lat : 49.2835889, Lng : -123.114978, Q1 : 0.818273425102, Q2 : 0.0137395225465, Q3 : -0.127643972635, Q4 : 0.560309588909}
2019-04-15 00:15:37.91: SIM {TimeUS : 56934717, Roll : -5.57, Pitch : -13.52, Yaw : 67.35, Alt : 49.2700004578, Lat : 49.2835903, Lng : -123.1149753, Q1 : 0.828564703465, Q2 : 0.0250276736915, Q3 : -0.124638900161, Q4 : 0.545269906521}
2019-04-15 00:15:38.02: SIM {TimeUS : 57035510, Roll : -3.73, Pitch : -14.21, Yaw : 64.43, Alt : 49.2799987793, Lat : 49.2835919, Lng : -123.1149724, Q1 : 0.84122377634, Q2 : 0.0385828092694, Q3 : -0.121881939471, Q4 : 0.525355815887}
2019-04-15 00:15:38.11: SIM {TimeUS : 57135470, Roll : -1.82, Pitch : -14.89, Yaw : 61.2, Alt : 49.2799987793, Lat : 49.2835934, Lng : -123.1149696, Q1 : 0.854398667812, Q2 : 0.0523967072368, Q3 : -0.119551189244, Q4 : 0.502956330776}
2019-04-15 00:15:38.21: SIM {TimeUS : 57235430, Roll : 0.0, Pitch : -15.42, Yaw : 57.96, Alt : 49.2799987793, Lat : 49.2835951, Lng : -123.1149666, Q1 : 0.866855323315, Q2 : 0.0649976730347, Q3 : -0.117409154773, Q4 : 0.480158597231}
2019-04-15 00:15:38.31: SIM {TimeUS : 57335390, Roll : 1.56, Pitch : -15.74, Yaw : 55.04, Alt : 49.2799987793, Lat : 49.2835968, Lng : -123.1149634, Q1 : 0.877523362637, Q2 : 0.0752490833402, Q3 : -0.115206159651, Q4 : 0.459366858006}
2019-04-15 00:15:38.41: SIM {TimeUS : 57435350, Roll : 2.73, Pitch : -15.86, Yaw : 52.72, Alt : 49.2799987793, Lat : 49.2835983, Lng : -123.1149602, Q1 : 0.885716378689, Q2 : 0.0824423357844, Q3 : -0.113156050444, Q4 : 0.442612111568}
2019-04-15 00:15:38.51: SIM {TimeUS : 57535310, Roll : 3.44, Pitch : -15.85, Yaw : 51.15, Alt : 49.2799987793, Lat : 49.2836001, Lng : -123.1149567, Q1 : 0.891169548035, Q2 : 0.0863684043288, Q3 : -0.111522875726, Q4 : 0.431184440851}
2019-04-15 00:15:38.61: SIM {TimeUS : 57635270, Roll : 3.67, Pitch : -15.79, Yaw : 50.39, Alt : 49.2799987793, Lat : 49.2836018, Lng : -123.1149533, Q1 : 0.893919110298, Q2 : 0.0871981531382, Q3 : -0.110712058842, Q4 : 0.42549726367}
2019-04-15 00:15:38.71: SIM {TimeUS : 57735230, Roll : 3.47, Pitch : -15.75, Yaw : 50.38, Alt : 49.2799987793, Lat : 49.2836035, Lng : -123.1149497, Q1 : 0.894177615643, Q2 : 0.0854666158557, Q3 : -0.111142463982, Q4 : 0.425193190575}
2019-04-15 00:15:38.81: SIM {TimeUS : 57835190, Roll : 2.94, Pitch : -15.77, Yaw : 50.98, Alt : 49.2799987793, Lat : 49.2836051, Lng : -123.114946, Q1 : 0.892288684845, Q2 : 0.0820081755519, Q3 : -0.11292039603, Q4 : 0.429353624582}
2019-04-15 00:15:38.91: SIM {TimeUS : 57935150, Roll : 2.18, Pitch : -15.89, Yaw : 52.03, Alt : 49.2799987793, Lat : 49.2836068, Lng : -123.1149421, Q1 : 0.888728439808, Q2 : 0.0775834694505, Q3 : -0.11595056206, Q4 : 0.436689943075}
2019-04-15 00:15:39.01: SIM {TimeUS : 58035110, Roll : 1.31, Pitch : -16.05, Yaw : 53.33, Alt : 49.2799987793, Lat : 49.2836086, Lng : -123.1149382, Q1 : 0.88409525156, Q2 : 0.0728245228529, Q3 : -0.119705237448, Q4 : 0.44580578804}
2019-04-15 00:15:39.11: SIM {TimeUS : 58135070, Roll : 0.43, Pitch : -16.23, Yaw : 54.7, Alt : 49.2900009155, Lat : 49.2836103, Lng : -123.1149342, Q1 : 0.879037618637, Q2 : 0.0682150349021, Q3 : -0.123640492558, Q4 : 0.455359876156}
2019-04-15 00:15:39.21: SIM {TimeUS : 58235030, Roll : -0.34, Pitch : -16.35, Yaw : 55.99, Alt : 49.2900009155, Lat : 49.283612, Lng : -123.1149302, Q1 : 0.874207079411, Q2 : 0.0641356408596, Q3 : -0.12696698308, Q4 : 0.464249968529}
2019-04-15 00:15:39.31: SIM {TimeUS : 58334990, Roll : -0.93, Pitch : -16.41, Yaw : 57.05, Alt : 49.2900009155, Lat : 49.2836138, Lng : -123.1149261, Q1 : 0.870110929012, Q2 : 0.061066493392, Q3 : -0.129298731685, Q4 : 0.471656322479}
2019-04-15 00:15:39.41: SIM {TimeUS : 58434950, Roll : -1.34, Pitch : -16.44, Yaw : 57.82, Alt : 49.2900009155, Lat : 49.2836157, Lng : -123.114922, Q1 : 0.867109060287, Q2 : 0.0590065717697, Q3 : -0.130777060986, Q4 : 0.477008849382}
2019-04-15 00:15:39.51: SIM {TimeUS : 58534910, Roll : -1.51, Pitch : -16.46, Yaw : 58.26, Alt : 49.2900009155, Lat : 49.2836175, Lng : -123.1149178, Q1 : 0.865352869034, Q2 : 0.0582650415599, Q3 : -0.131391122937, Q4 : 0.480110347271}
2019-04-15 00:15:39.61: SIM {TimeUS : 58634870, Roll : -1.46, Pitch : -16.45, Yaw : 58.37, Alt : 49.2900009155, Lat : 49.2836194, Lng : -123.1149135, Q1 : 0.864844501019, Q2 : 0.0587579682469, Q3 : -0.13109959662, Q4 : 0.481045097113}
2019-04-15 00:15:39.71: SIM {TimeUS : 58734830, Roll : -1.26, Pitch : -16.45, Yaw : 58.21, Alt : 49.2900009155, Lat : 49.2836214, Lng : -123.1149092, Q1 : 0.865421354771, Q2 : 0.0600766502321, Q3 : -0.130360618234, Q4 : 0.480044543743}
2019-04-15 00:15:39.81: SIM {TimeUS : 58834790, Roll : -0.97, Pitch : -16.48, Yaw : 57.84, Alt : 49.2900009155, Lat : 49.2836232, Lng : -123.1149049, Q1 : 0.866804480553, Q2 : 0.0619602836668, Q3 : -0.129583150148, Q4 : 0.477513462305}
2019-04-15 00:15:39.91: SIM {TimeUS : 58934750, Roll : -0.64, Pitch : -16.54, Yaw : 57.32, Alt : 49.2900009155, Lat : 49.2836253, Lng : -123.1149005, Q1 : 0.868685424328, Q2 : 0.064148247242, Q3 : -0.128928557038, Q4 : 0.473970532417}
2019-04-15 00:15:40.01: SIM {TimeUS : 59034710, Roll : -0.3, Pitch : -16.62, Yaw : 56.75, Alt : 49.2900009155, Lat : 49.2836273, Lng : -123.1148961, Q1 : 0.870752632618, Q2 : 0.0664434432983, Q3 : -0.128470718861, Q4 : 0.469968497753}
2019-04-15 00:15:40.12: SIM {TimeUS : 59135503, Roll : 0.01, Pitch : -16.69, Yaw : 56.19, Alt : 49.2900009155, Lat : 49.2836293, Lng : -123.1148916, Q1 : 0.872794210911, Q2 : 0.0685024484992, Q3 : -0.128031745553, Q4 : 0.465988755226}
2019-04-15 00:15:40.21: SIM {TimeUS : 59235463, Roll : 0.28, Pitch : -16.74, Yaw : 55.7, Alt : 49.2900009155, Lat : 49.2836314, Lng : -123.1148871, Q1 : 0.874563395977, Q2 : 0.0701900646091, Q3 : -0.127608671784, Q4 : 0.462523788214}
2019-04-15 00:15:40.31: SIM {TimeUS : 59335423, Roll : 0.48, Pitch : -16.78, Yaw : 55.32, Alt : 49.2900009155, Lat : 49.2836334, Lng : -123.1148825, Q1 : 0.875924527645, Q2 : 0.0714767202735, Q3 : -0.127335831523, Q4 : 0.459818333387}
2019-04-15 00:15:40.41: SIM {TimeUS : 59435383, Roll : 0.61, Pitch : -16.82, Yaw : 55.07, Alt : 49.2900009155, Lat : 49.2836354, Lng : -123.114878, Q1 : 0.876800477505, Q2 : 0.0723245367408, Q3 : -0.127275764942, Q4 : 0.458029508591}
2019-04-15 00:15:40.51: SIM {TimeUS : 59535343, Roll : 0.65, Pitch : -16.86, Yaw : 54.95, Alt : 49.2900009155, Lat : 49.2836376, Lng : -123.1148733, Q1 : 0.877202868462, Q2 : 0.0726788565516, Q3 : -0.127445593476, Q4 : 0.457154840231}
2019-04-15 00:15:40.61: SIM {TimeUS : 59635303, Roll : 0.61, Pitch : -16.88, Yaw : 54.95, Alt : 49.2900009155, Lat : 49.2836396, Lng : -123.1148686, Q1 : 0.877190649509, Q2 : 0.0724829658866, Q3 : -0.127778202295, Q4 : 0.457116633654}
2019-04-15 00:15:40.71: SIM {TimeUS : 59735263, Roll : 0.52, Pitch : -16.9, Yaw : 55.05, Alt : 49.2900009155, Lat : 49.2836416, Lng : -123.1148639, Q1 : 0.876824140549, Q2 : 0.0719254240394, Q3 : -0.128260061145, Q4 : 0.457772374153}
2019-04-15 00:15:40.81: SIM {TimeUS : 59835223, Roll : 0.38, Pitch : -16.92, Yaw : 55.22, Alt : 49.2900009155, Lat : 49.2836438, Lng : -123.1148592, Q1 : 0.876214504242, Q2 : 0.0711339786649, Q3 : -0.128853589296, Q4 : 0.458895266056}
2019-04-15 00:15:40.91: SIM {TimeUS : 59935183, Roll : 0.22, Pitch : -16.95, Yaw : 55.43, Alt : 49.2999992371, Lat : 49.2836458, Lng : -123.1148544, Q1 : 0.875453531742, Q2 : 0.0703155696392, Q3 : -0.129585668445, Q4 : 0.460265547037}
2019-04-15 00:15:41.01: SIM {TimeUS : 60035143, Roll : 0.07, Pitch : -16.99, Yaw : 55.64, Alt : 49.2999992371, Lat : 49.283648, Lng : -123.1148496, Q1 : 0.874652445316, Q2 : 0.0695704221725, Q3 : -0.130411282182, Q4 : 0.461666613817}
2019-04-15 00:15:41.11: SIM {TimeUS : 60135103, Roll : -0.06, Pitch : -17.04, Yaw : 55.83, Alt : 49.2999992371, Lat : 49.2836501, Lng : -123.1148448, Q1 : 0.873927354813, Q2 : 0.0688616707921, Q3 : -0.131188884377, Q4 : 0.462923914194}
2019-04-15 00:15:41.21: SIM {TimeUS : 60235063, Roll : -0.18, Pitch : -17.06, Yaw : 55.98, Alt : 49.2999992371, Lat : 49.2836523, Lng : -123.1148399, Q1 : 0.873363256454, Q2 : 0.0682259723544, Q3 : -0.131784379482, Q4 : 0.463912427425}
2019-04-15 00:15:41.31: SIM {TimeUS : 60335023, Roll : -0.27, Pitch : -17.09, Yaw : 56.07, Alt : 49.2999992371, Lat : 49.2836545, Lng : -123.114835, Q1 : 0.872983038425, Q2 : 0.0677725747228, Q3 : -0.132305726409, Q4 : 0.464545756578}
2019-04-15 00:15:41.41: SIM {TimeUS : 60434983, Roll : -0.3, Pitch : -17.13, Yaw : 56.12, Alt : 49.2999992371, Lat : 49.2836566, Lng : -123.1148301, Q1 : 0.872788310051, Q2 : 0.0677134990692, Q3 : -0.132690608501, Q4 : 0.464810401201}
2019-04-15 00:15:41.51: SIM {TimeUS : 60534943, Roll : -0.29, Pitch : -17.17, Yaw : 56.11, Alt : 49.2999992371, Lat : 49.2836588, Lng : -123.1148252, Q1 : 0.872774958611, Q2 : 0.067990064621, Q3 : -0.132938086987, Q4 : 0.464724302292}
2019-04-15 00:15:41.61: SIM {TimeUS : 60634903, Roll : -0.22, Pitch : -17.21, Yaw : 56.05, Alt : 49.2999992371, Lat : 49.2836609, Lng : -123.1148202, Q1 : 0.872920691967, Q2 : 0.0685739964247, Q3 : -0.13302809, Q4 : 0.464338868856}
2019-04-15 00:15:41.71: SIM {TimeUS : 60734863, Roll : -0.12, Pitch : -17.25, Yaw : 55.96, Alt : 49.2999992371, Lat : 49.2836632, Lng : -123.1148153, Q1 : 0.873180747032, Q2 : 0.0694291591644, Q3 : -0.132962226868, Q4 : 0.463741332293}
2019-04-15 00:15:41.81: SIM {TimeUS : 60834823, Roll : -0.02, Pitch : -17.28, Yaw : 55.85, Alt : 49.2999992371, Lat : 49.2836653, Lng : -123.1148102, Q1 : 0.873535692692, Q2 : 0.0701905339956, Q3 : -0.132840096951, Q4 : 0.462992668152}
2019-04-15 00:15:41.91: SIM {TimeUS : 60934783, Roll : 0.04, Pitch : -17.29, Yaw : 55.73, Alt : 49.3100013733, Lat : 49.2836676, Lng : -123.1148053, Q1 : 0.873944342136, Q2 : 0.0706546977162, Q3 : -0.132701635361, Q4 : 0.462189882994}
2019-04-15 00:15:42.01: SIM {TimeUS : 61034743, Roll : 0.09, Pitch : -17.3, Yaw : 55.62, Alt : 49.3100013733, Lat : 49.2836699, Lng : -123.1148002, Q1 : 0.874349832535, Q2 : 0.0708732008934, Q3 : -0.132665783167, Q4 : 0.461399137974}
2019-04-15 00:15:42.11: SIM {TimeUS : 61134703, Roll : 0.12, Pitch : -17.3, Yaw : 55.53, Alt : 49.3100013733, Lat : 49.283672, Lng : -123.1147952, Q1 : 0.874710142612, Q2 : 0.0710471346974, Q3 : -0.132633134723, Q4 : 0.460698336363}
2019-04-15 00:15:42.22: SIM {TimeUS : 61235496, Roll : 0.15, Pitch : -17.32, Yaw : 55.45, Alt : 49.3100013733, Lat : 49.2836743, Lng : -123.1147901, Q1 : 0.874984920025, Q2 : 0.0712463185191, Q3 : -0.132692024112, Q4 : 0.460128396749}
2019-04-15 00:15:42.31: SIM {TimeUS : 61335456, Roll : 0.18, Pitch : -17.36, Yaw : 55.4, Alt : 49.3100013733, Lat : 49.2836766, Lng : -123.114785, Q1 : 0.875138342381, Q2 : 0.0715550631285, Q3 : -0.132887691259, Q4 : 0.459732145071}
2019-04-15 00:15:42.41: SIM {TimeUS : 61435416, Roll : 0.2, Pitch : -17.41, Yaw : 55.36, Alt : 49.3100013733, Lat : 49.2836789, Lng : -123.1147798, Q1 : 0.875180721283, Q2 : 0.0719167366624, Q3 : -0.133260428905, Q4 : 0.459487140179}
2019-04-15 00:15:42.51: SIM {TimeUS : 61535376, Roll : 0.2, Pitch : -17.45, Yaw : 55.35, Alt : 49.3100013733, Lat : 49.283681, Lng : -123.1147748, Q1 : 0.875176668167, Q2 : 0.0720905736089, Q3 : -0.133542522788, Q4 : 0.459385603666}
2019-04-15 00:15:42.61: SIM {TimeUS : 61635336, Roll : 0.2, Pitch : -17.46, Yaw : 55.36, Alt : 49.3100013733, Lat : 49.2836834, Lng : -123.1147697, Q1 : 0.875149726868, Q2 : 0.0720795467496, Q3 : -0.133645996451, Q4 : 0.459408611059}
2019-04-15 00:15:42.71: SIM {TimeUS : 61735296, Roll : 0.18, Pitch : -17.47, Yaw : 55.37, Alt : 49.3100013733, Lat : 49.2836857, Lng : -123.1147645, Q1 : 0.875091254711, Q2 : 0.0720056369901, Q3 : -0.133779659867, Q4 : 0.459492653608}
2019-04-15 00:15:42.81: SIM {TimeUS : 61835256, Roll : 0.13, Pitch : -17.49, Yaw : 55.39, Alt : 49.3100013733, Lat : 49.283688, Lng : -123.1147594, Q1 : 0.875016450882, Q2 : 0.0717605128884, Q3 : -0.13411462307, Q4 : 0.459575772285}
2019-04-15 00:15:42.91: SIM {TimeUS : 61935216, Roll : 0.09, Pitch : -17.51, Yaw : 55.41, Alt : 49.3100013733, Lat : 49.2836902, Lng : -123.1147542, Q1 : 0.87494456768, Q2 : 0.0715327858925, Q3 : -0.134388551116, Q4 : 0.459668129683}
2019-04-15 00:15:43.01: SIM {TimeUS : 62035176, Roll : 0.07, Pitch : -17.53, Yaw : 55.43, Alt : 49.3199996948, Lat : 49.2836925, Lng : -123.114749, Q1 : 0.874877691269, Q2 : 0.0714357569814, Q3 : -0.134648397565, Q4 : 0.459734469652}
2019-04-15 00:15:43.11: SIM {TimeUS : 62135136, Roll : 0.05, Pitch : -17.55, Yaw : 55.43, Alt : 49.3199996948, Lat : 49.2836949, Lng : -123.1147438, Q1 : 0.874834001064, Q2 : 0.0714239403605, Q3 : -0.134824320674, Q4 : 0.45976793766}
2019-04-15 00:15:43.21: SIM {TimeUS : 62235096, Roll : 0.05, Pitch : -17.57, Yaw : 55.43, Alt : 49.3199996948, Lat : 49.2836972, Lng : -123.1147386, Q1 : 0.874809741974, Q2 : 0.0714966580272, Q3 : -0.135036185384, Q4 : 0.459740608931}
2019-04-15 00:15:43.31: SIM {TimeUS : 62335056, Roll : 0.06, Pitch : -17.59, Yaw : 55.42, Alt : 49.3199996948, Lat : 49.2836995, Lng : -123.1147333, Q1 : 0.874819755554, Q2 : 0.0716279670596, Q3 : -0.135096415877, Q4 : 0.459683418274}
2019-04-15 00:15:43.41: SIM {TimeUS : 62435016, Roll : 0.09, Pitch : -17.6, Yaw : 55.41, Alt : 49.3199996948, Lat : 49.2837017, Lng : -123.1147281, Q1 : 0.874836623669, Q2 : 0.0719002261758, Q3 : -0.135109499097, Q4 : 0.459604859352}
2019-04-15 00:15:43.51: SIM {TimeUS : 62534976, Roll : 0.12, Pitch : -17.62, Yaw : 55.39, Alt : 49.3199996948, Lat : 49.2837041, Lng : -123.1147229, Q1 : 0.874874949455, Q2 : 0.0721879079938, Q3 : -0.135144367814, Q4 : 0.459476619959}
2019-04-15 00:15:43.61: SIM {TimeUS : 62634936, Roll : 0.13, Pitch : -17.65, Yaw : 55.37, Alt : 49.3199996948, Lat : 49.2837065, Lng : -123.1147176, Q1 : 0.87493288517, Q2 : 0.0723485946655, Q3 : -0.135388672352, Q4 : 0.459269046783}
2019-04-15 00:15:43.71: SIM {TimeUS : 62734896, Roll : 0.12, Pitch : -17.7, Yaw : 55.34, Alt : 49.3199996948, Lat : 49.2837088, Lng : -123.1147123, Q1 : 0.874996364117, Q2 : 0.0724354758859, Q3 : -0.135765448213, Q4 : 0.459023088217}
2019-04-15 00:15:43.81: SIM {TimeUS : 62834856, Roll : 0.11, Pitch : -17.75, Yaw : 55.31, Alt : 49.3199996948, Lat : 49.2837112, Lng : -123.114707, Q1 : 0.8750628829, Q2 : 0.072499550879, Q3 : -0.136191368103, Q4 : 0.458759963512}
2019-04-15 00:15:43.91: SIM {TimeUS : 62934816, Roll : 0.12, Pitch : -17.78, Yaw : 55.28, Alt : 49.3199996948, Lat : 49.2837135, Lng : -123.1147018, Q1 : 0.875136137009, Q2 : 0.0726514235139, Q3 : -0.136405259371, Q4 : 0.458532571793}
2019-04-15 00:15:44.01: SIM {TimeUS : 63034776, Roll : 0.13, Pitch : -17.78, Yaw : 55.25, Alt : 49.3199996948, Lat : 49.2837159, Lng : -123.1146964, Q1 : 0.875227212906, Q2 : 0.0727659165859, Q3 : -0.136420756578, Q4 : 0.458336055279}
2019-04-15 00:15:44.11: SIM {TimeUS : 63134736, Roll : 0.15, Pitch : -17.77, Yaw : 55.23, Alt : 49.3199996948, Lat : 49.2837182, Lng : -123.114691, Q1 : 0.875333368778, Q2 : 0.0728209167719, Q3 : -0.136227309704, Q4 : 0.458182007074}
2019-04-15 00:15:44.21: SIM {TimeUS : 63234696, Roll : 0.16, Pitch : -17.75, Yaw : 55.21, Alt : 49.3199996948, Lat : 49.2837205, Lng : -123.1146858, Q1 : 0.875433683395, Q2 : 0.0727307125926, Q3 : -0.13607147336, Q4 : 0.45805093646}
2019-04-15 00:15:44.31: SIM {TimeUS : 63335489, Roll : 0.15, Pitch : -17.73, Yaw : 55.19, Alt : 49.3199996948, Lat : 49.2837229, Lng : -123.1146804, Q1 : 0.875521957874, Q2 : 0.072595641017, Q3 : -0.135948270559, Q4 : 0.457940280437}
2019-04-15 00:15:44.41: SIM {TimeUS : 63435449, Roll : 0.15, Pitch : -17.71, Yaw : 55.18, Alt : 49.3199996948, Lat : 49.2837253, Lng : -123.1146751, Q1 : 0.875582933426, Q2 : 0.0724684149027, Q3 : -0.135845169425, Q4 : 0.457874387503}
2019-04-15 00:15:44.51: SIM {TimeUS : 63535409, Roll : 0.14, Pitch : -17.72, Yaw : 55.18, Alt : 49.3199996948, Lat : 49.2837278, Lng : -123.1146697, Q1 : 0.875606894493, Q2 : 0.0724128931761, Q3 : -0.13595610857, Q4 : 0.457804441452}
2019-04-15 00:15:44.61: SIM {TimeUS : 63635369, Roll : 0.13, Pitch : -17.74, Yaw : 55.17, Alt : 49.3300018311, Lat : 49.2837302, Lng : -123.1146643, Q1 : 0.875612437725, Q2 : 0.072452917695, Q3 : -0.13611754775, Q4 : 0.457739531994}
2019-04-15 00:15:44.71: SIM {TimeUS : 63735329, Roll : 0.13, Pitch : -17.78, Yaw : 55.17, Alt : 49.3300018311, Lat : 49.2837325, Lng : -123.114659, Q1 : 0.875581800938, Q2 : 0.072589084506, Q3 : -0.136503309011, Q4 : 0.457661598921}
2019-04-15 00:15:44.81: SIM {TimeUS : 63835289, Roll : 0.13, Pitch : -17.84, Yaw : 55.16, Alt : 49.3300018311, Lat : 49.2837349, Lng : -123.1146536, Q1 : 0.875541508198, Q2 : 0.0728051364422, Q3 : -0.13692715764, Q4 : 0.457577824593}
2019-04-15 00:15:44.91: SIM {TimeUS : 63935249, Roll : 0.14, Pitch : -17.88, Yaw : 55.15, Alt : 49.3300018311, Lat : 49.2837373, Lng : -123.1146482, Q1 : 0.875517487526, Q2 : 0.0730626955628, Q3 : -0.137193754315, Q4 : 0.457502841949}
2019-04-15 00:15:45.01: SIM {TimeUS : 64035209, Roll : 0.14, Pitch : -17.91, Yaw : 55.14, Alt : 49.3300018311, Lat : 49.2837397, Lng : -123.1146428, Q1 : 0.875517606735, Q2 : 0.0731838047504, Q3 : -0.137455016375, Q4 : 0.457404911518}
2019-04-15 00:15:45.11: SIM {TimeUS : 64135169, Roll : 0.13, Pitch : -17.93, Yaw : 55.13, Alt : 49.3300018311, Lat : 49.2837421, Lng : -123.1146374, Q1 : 0.875546038151, Q2 : 0.0731924921274, Q3 : -0.137606173754, Q4 : 0.457303643227}
2019-04-15 00:15:45.21: SIM {TimeUS : 64235129, Roll : 0.15, Pitch : -17.92, Yaw : 55.12, Alt : 49.3300018311, Lat : 49.2837445, Lng : -123.114632, Q1 : 0.875601351261, Q2 : 0.0732197836041, Q3 : -0.137493163347, Q4 : 0.457227289677}
2019-04-15 00:15:45.31: SIM {TimeUS : 64335089, Roll : 0.17, Pitch : -17.92, Yaw : 55.1, Alt : 49.3300018311, Lat : 49.2837469, Lng : -123.1146266, Q1 : 0.875639081001, Q2 : 0.0734010785818, Q3 : -0.137432679534, Q4 : 0.457144081593}
2019-04-15 00:15:45.41: SIM {TimeUS : 64435049, Roll : 0.18, Pitch : -17.94, Yaw : 55.09, Alt : 49.3300018311, Lat : 49.2837494, Lng : -123.1146211, Q1 : 0.875674664974, Q2 : 0.0735173299909, Q3 : -0.137517973781, Q4 : 0.457031607628}
2019-04-15 00:15:45.51: SIM {TimeUS : 64535009, Roll : 0.19, Pitch : -17.94, Yaw : 55.07, Alt : 49.3300018311, Lat : 49.2837518, Lng : -123.1146156, Q1 : 0.875718891621, Q2 : 0.0735818967223, Q3 : -0.137569084764, Q4 : 0.456921041012}
2019-04-15 00:15:45.61: SIM {TimeUS : 64634969, Roll : 0.19, Pitch : -17.94, Yaw : 55.06, Alt : 49.3300018311, Lat : 49.2837542, Lng : -123.1146103, Q1 : 0.87578099966, Q2 : 0.0735745877028, Q3 : -0.137525528669, Q4 : 0.456816345453}
2019-04-15 00:15:45.71: SIM {TimeUS : 64734929, Roll : 0.19, Pitch : -17.94, Yaw : 55.04, Alt : 49.3300018311, Lat : 49.2837565, Lng : -123.1146049, Q1 : 0.875838398933, Q2 : 0.0735583901405, Q3 : -0.137524709105, Q4 : 0.4567091465}
2019-04-15 00:15:45.81: SIM {TimeUS : 64834889, Roll : 0.17, Pitch : -17.96, Yaw : 55.03, Alt : 49.3300018311, Lat : 49.2837589, Lng : -123.1145994, Q1 : 0.875878691673, Q2 : 0.0734636336565, Q3 : -0.137785598636, Q4 : 0.456568449736}
2019-04-15 00:15:45.91: SIM {TimeUS : 64934849, Roll : 0.13, Pitch : -18.0, Yaw : 55.02, Alt : 49.3300018311, Lat : 49.2837615, Lng : -123.114594, Q1 : 0.875896513462, Q2 : 0.0733654946089, Q3 : -0.138254985213, Q4 : 0.456408113241}
2019-04-15 00:15:46.01: SIM {TimeUS : 65034809, Roll : 0.12, Pitch : -18.01, Yaw : 55.01, Alt : 49.3300018311, Lat : 49.2837638, Lng : -123.1145885, Q1 : 0.875940144062, Q2 : 0.0732627213001, Q3 : -0.13839033246, Q4 : 0.456299811602}
2019-04-15 00:15:46.11: SIM {TimeUS : 65134769, Roll : 0.13, Pitch : -18.0, Yaw : 55.0, Alt : 49.3400001526, Lat : 49.2837662, Lng : -123.114583, Q1 : 0.875990927219, Q2 : 0.0732897147536, Q3 : -0.138239175081, Q4 : 0.45624384284}
2019-04-15 00:15:46.21: SIM {TimeUS : 65234729, Roll : 0.15, Pitch : -17.98, Yaw : 54.99, Alt : 49.3400001526, Lat : 49.2837688, Lng : -123.1145776, Q1 : 0.876033604145, Q2 : 0.0733982771635, Q3 : -0.138049662113, Q4 : 0.45620188117}
2019-04-15 00:15:46.32: SIM {TimeUS : 65335522, Roll : 0.17, Pitch : -17.99, Yaw : 54.98, Alt : 49.3400001526, Lat : 49.2837711, Lng : -123.1145721, Q1 : 0.876058399677, Q2 : 0.0735327526927, Q3 : -0.138031184673, Q4 : 0.456138163805}
2019-04-15 00:15:46.41: SIM {TimeUS : 65435482, Roll : 0.16, Pitch : -18.01, Yaw : 54.97, Alt : 49.3400001526, Lat : 49.2837737, Lng : -123.1145666, Q1 : 0.876082897186, Q2 : 0.0735106542706, Q3 : -0.138202056289, Q4 : 0.456042945385}
2019-04-15 00:15:46.51: SIM {TimeUS : 65535442, Roll : 0.13, Pitch : -18.03, Yaw : 54.96, Alt : 49.3400001526, Lat : 49.2837761, Lng : -123.1145611, Q1 : 0.876109540462, Q2 : 0.0733624398708, Q3 : -0.138483345509, Q4 : 0.455930292606}
2019-04-15 00:15:46.61: SIM {TimeUS : 65635402, Roll : 0.12, Pitch : -18.05, Yaw : 54.95, Alt : 49.3400001526, Lat : 49.2837786, Lng : -123.1145556, Q1 : 0.876132249832, Q2 : 0.0733196139336, Q3 : -0.138684943318, Q4 : 0.455832242966}
2019-04-15 00:15:46.71: SIM {TimeUS : 65735362, Roll : 0.12, Pitch : -18.06, Yaw : 54.94, Alt : 49.3400001526, Lat : 49.283781, Lng : -123.1145501, Q1 : 0.876146972179, Q2 : 0.0734146013856, Q3 : -0.138824269176, Q4 : 0.455746173859}
2019-04-15 00:15:46.81: SIM {TimeUS : 65835322, Roll : 0.13, Pitch : -18.08, Yaw : 54.93, Alt : 49.3400001526, Lat : 49.2837835, Lng : -123.1145445, Q1 : 0.876156926155, Q2 : 0.0735512897372, Q3 : -0.138933330774, Q4 : 0.455671817064}
2019-04-15 00:15:46.91: SIM {TimeUS : 65935282, Roll : 0.16, Pitch : -18.1, Yaw : 54.92, Alt : 49.3400001526, Lat : 49.2837859, Lng : -123.114539, Q1 : 0.876162588596, Q2 : 0.0737874507904, Q3 : -0.138930618763, Q4 : 0.455623567104}
2019-04-15 00:15:47.01: SIM {TimeUS : 66035242, Roll : 0.18, Pitch : -18.11, Yaw : 54.91, Alt : 49.3400001526, Lat : 49.2837884, Lng : -123.1145336, Q1 : 0.876162528992, Q2 : 0.0739989429712, Q3 : -0.139004871249, Q4 : 0.45556679368}
2019-04-15 00:15:47.11: SIM {TimeUS : 66135202, Roll : 0.2, Pitch : -18.13, Yaw : 54.9, Alt : 49.3400001526, Lat : 49.2837909, Lng : -123.1145281, Q1 : 0.876161873341, Q2 : 0.074204839766, Q3 : -0.139080822468, Q4 : 0.455511331558}
2019-04-15 00:15:47.21: SIM {TimeUS : 66235162, Roll : 0.21, Pitch : -18.15, Yaw : 54.89, Alt : 49.3400001526, Lat : 49.2837933, Lng : -123.1145226, Q1 : 0.876166641712, Q2 : 0.0743709504604, Q3 : -0.139112576842, Q4 : 0.455465316772}
