2019-04-14 20:55:59.50: SIM {TimeUS : 40516287, Roll : 0.0, Pitch : 0.0, Yaw : 0.0, Alt : 30.1000003815, Lat : 49.28357, Lng : -123.11502, Q1 : 1.0, Q2 : 0.0, Q3 : 0.0, Q4 : 0.0}
2019-04-14 20:55:59.61: SIM {TimeUS : 40635406, Roll : 0.0, Pitch : 0.0, Yaw : 0.0, Alt : 30.1000003815, Lat : 49.28357, Lng : -123.11502, Q1 : 1.0, Q2 : 0.0, Q3 : 0.0, Q4 : 0.0}
2019-04-14 20:55:59.71: SIM {TimeUS : 40735366, Roll : 0.0, Pitch : 0.0, Yaw : 0.0, Alt : 30.1000003815, Lat : 49.28357, Lng : -123.11502, Q1 : 1.0, Q2 : 0.0, Q3 : 0.0, Q4 : 0.0}
2019-04-14 20:55:59.81: SIM {TimeUS : 40835326, Roll : 0.0, Pitch : 0.0, Yaw : 0.0, Alt : 30.1000003815, Lat : 49.28357, Lng : -123.11502, Q1 : 1.0, Q2 : 0.0, Q3 : 0.0, Q4 : 0.0}
2019-04-14 20:55:59.91: SIM {TimeUS : 40935286, Roll : 0.0, Pitch : 0.0, Yaw : 0.0, Alt : 30.1000003815, Lat : 49.28357, Lng : -123.11502, Q1 : 1.0, Q2 : 0.0, Q3 : 0.0, Q4 : 0.0}
2019-04-14 20:56:00.01: SIM {TimeUS : 41035246, Roll : 0.0, Pitch : 0.0, Yaw : 0.0, Alt : 30.1000003815, Lat : 49.28357, Lng : -123.11502, Q1 : 1.0, Q2 : 0.0, Q3 : 0.0, Q4 : 0.0}
2019-04-14 20:56:00.11: SIM {TimeUS : 41135206, Roll : 0.0, Pitch : 0.0, Yaw : 0.0, Alt : 30.1000003815, Lat : 49.28357, Lng : -123.11502, Q1 : 1.0, Q2 : 0.0, Q3 : 0.0, Q4 : 0.0}
2019-04-14 20:56:00.21: SIM {TimeUS : 41235166, Roll : 0.0, Pitch : 0.0, Yaw : 0.0, Alt : 30.1000003815, Lat : 49.28357, Lng : -123.11502, Q1 : 1.0, Q2 : 0.0, Q3 : 0.0, Q4 : 0.0}
2019-04-14 20:56:00.31: SIM {TimeUS : 41335126, Roll : 0.0, Pitch : 0.0, Yaw : 0.0, Alt : 30.1000003815, Lat : 49.28357, Lng : -123.11502, Q1 : 1.0, Q2 : 0.0, Q3 : 0.0, Q4 : 0.0}
2019-04-14 20:56:00.41: SIM {TimeUS : 41435086, Roll : 0.0, Pitch : 0.0, Yaw : 0.0, Alt : 30.1000003815, Lat : 49.28357, Lng : -123.11502, Q1 : 1.0, Q2 : 0.0, Q3 : 0.0, Q4 : 0.0}
2019-04-14 20:56:00.51: SIM {TimeUS : 41535046, Roll : 0.0, Pitch : 0.0, Yaw : 0.0, Alt : 30.1000003815, Lat : 49.28357, Lng : -123.11502, Q1 : 1.0, Q2 : 0.0, Q3 : 0.0, Q4 : 0.0}
2019-04-14 20:56:00.61: SIM {TimeUS : 41635006, Roll : 0.0, Pitch : 0.0, Yaw : 0.0, Alt : 30.1000003815, Lat : 49.28357, Lng : -123.11502, Q1 : 1.0, Q2 : 0.0, Q3 : 0.0, Q4 : 0.0}
2019-04-14 20:56:00.71: SIM {TimeUS : 41734966, Roll : 0.0, Pitch : 0.0, Yaw : 0.0, Alt : 30.1000003815, Lat : 49.28357, Lng : -123.11502, Q1 : 1.0, Q2 : 0.0, Q3 : 0.0, Q4 : 0.0}
2019-04-14 20:56:00.81: SIM {TimeUS : 41834926, Roll : 0.0, Pitch : 0.0, Yaw : 0.0, Alt : 30.1000003815, Lat : 49.28357, Lng : -123.11502, Q1 : 1.0, Q2 : 0.0, Q3 : 0.0, Q4 : 0.0}
2019-04-14 20:56:00.91: SIM {TimeUS : 41934886, Roll : 0.0, Pitch : 0.0, Yaw : 0.0, Alt : 30.1000003815, Lat : 49.28357, Lng : -123.11502, Q1 : 1.0, Q2 : 0.0, Q3 : 0.0, Q4 : 0.0}
2019-04-14 20:56:01.01: SIM {TimeUS : 42034846, Roll : 0.0, Pitch : 0.0, Yaw : 0.0, Alt : 30.1000003815, Lat : 49.28357, Lng : -123.11502, Q1 : 1.0, Q2 : 0.0, Q3 : 0.0, Q4 : 0.0}
2019-04-14 20:56:01.11: SIM {TimeUS : 42134806, Roll : 0.0, Pitch : 0.0, Yaw : 0.0, Alt : 30.1000003815, Lat : 49.28357, Lng : -123.11502, Q1 : 1.0, Q2 : 0.0, Q3 : 0.0, Q4 : 0.0}
2019-04-14 20:56:01.21: SIM {TimeUS : 42234766, Roll : 0.0, Pitch : 0.0, Yaw : 0.0, Alt : 30.1000003815, Lat : 49.28357, Lng : -123.11502, Q1 : 1.0, Q2 : 0.0, Q3 : 0.0, Q4 : 0.0}
2019-04-14 20:56:01.31: SIM {TimeUS : 42334726, Roll : 0.0, Pitch : 0.0, Yaw : 0.0, Alt : 30.1000003815, Lat : 49.28357, Lng : -123.11502, Q1 : 1.0, Q2 : 0.0, Q3 : 0.0, Q4 : 0.0}
2019-04-14 20:56:01.41: SIM {TimeUS : 42434686, Roll : 0.0, Pitch : 0.0, Yaw : 0.0, Alt : 30.1000003815, Lat : 49.28357, Lng : -123.11502, Q1 : 1.0, Q2 : 0.0, Q3 : 0.0, Q4 : 0.0}
2019-04-14 20:56:01.51: SIM {TimeUS : 42534646, Roll : 0.0, Pitch : 0.0, Yaw : 0.0, Alt : 30.1000003815, Lat : 49.28357, Lng : -123.11502, Q1 : 1.0, Q2 : 0.0, Q3 : 0.0, Q4 : 0.0}
2019-04-14 20:56:01.62: SIM {TimeUS : 42635439, Roll : 0.0, Pitch : 0.0, Yaw : 0.0, Alt : 30.1000003815, Lat : 49.28357, Lng : -123.11502, Q1 : 1.0, Q2 : 0.0, Q3 : 0.0, Q4 : 0.0}
2019-04-14 20:56:01.71: SIM {TimeUS : 42735399, Roll : 0.0, Pitch : 0.0, Yaw : 0.0, Alt : 30.1000003815, Lat : 49.28357, Lng : -123.11502, Q1 : 1.0, Q2 : 0.0, Q3 : 0.0, Q4 : 0.0}
2019-04-14 20:56:01.81: SIM {TimeUS : 42835359, Roll : 0.0, Pitch : 0.0, Yaw : 0.0, Alt : 30.1000003815, Lat : 49.28357, Lng : -123.11502, Q1 : 1.0, Q2 : 0.0, Q3 : 0.0, Q4 : 3.50114867653e-11}
2019-04-14 20:56:01.91: SIM {TimeUS : 42935319, Roll : 0.0, Pitch : 0.0, Yaw : 360.0, Alt : 30.1000003815, Lat : 49.28357, Lng : -123.11502, Q1 : 1.0, Q2 : 0.0, Q3 : 0.0, Q4 : -1.62090429967e-08}
2019-04-14 20:56:02.01: SIM {TimeUS : 43035279, Roll : 0.0, Pitch : 0.0, Yaw : 359.99, Alt : 30.1000003815, Lat : 49.28357, Lng : -123.11502, Q1 : 1.0, Q2 : 0.0, Q3 : 0.0, Q4 : -2.35860326825e-07}
2019-04-14 20:56:02.11: SIM {TimeUS : 43135239, Roll : 0.0, Pitch : 0.0, Yaw : 359.99, Alt : 30.1000003815, Lat : 49.28357, Lng : -123.11502, Q1 : 1.0, Q2 : 0.0, Q3 : 0.0, Q4 : -4.04961838285e-07}
2019-04-14 20:56:02.21: SIM {TimeUS : 43235199, Roll : 0.0, Pitch : 0.0, Yaw : 359.99, Alt : 30.1000003815, Lat : 49.28357, Lng : -123.11502, Q1 : 1.0, Q2 : 0.0, Q3 : 0.0, Q4 : -5.73918384816e-07}
2019-04-14 20:56:02.31: SIM {TimeUS : 43335159, Roll : 0.0, Pitch : 0.0, Yaw : 359.99, Alt : 30.1000003815, Lat : 49.28357, Lng : -123.11502, Q1 : 1.0, Q2 : 0.0, Q3 : 0.0, Q4 : -7.58396140554e-07}
2019-04-14 20:56:02.41: SIM {TimeUS : 43435119, Roll : 0.0, Pitch : 0.0, Yaw : 359.99, Alt : 30.1000003815, Lat : 49.28357, Lng : -123.11502, Q1 : 1.0, Q2 : 0.0, Q3 : 0.0, Q4 : -9.55450786932e-07}
2019-04-14 20:56:02.51: SIM {TimeUS : 43535079, Roll : 0.0, Pitch : 0.0, Yaw : 359.99, Alt : 30.1000003815, Lat : 49.28357, Lng : -123.11502, Q1 : 1.0, Q2 : 0.0, Q3 : 0.0, Q4 : -1.12091788651e-06}
2019-04-14 20:56:02.61: SIM {TimeUS : 43635039, Roll : 0.0, Pitch : 0.0, Yaw : 359.99, Alt : 30.1000003815, Lat : 49.28357, Lng : -123.11502, Q1 : 1.0, Q2 : 0.0, Q3 : 0.0, Q4 : -1.371542794e-06}
2019-04-14 20:56:02.71: SIM {TimeUS : 43734999, Roll : 0.0, Pitch : 0.0, Yaw : 359.99, Alt : 30.1200008392, Lat : 49.28357, Lng : -123.11502, Q1 : 1.0, Q2 : 0.0, Q3 : 0.0, Q4 : -1.59130195243e-06}
2019-04-14 20:56:02.81: SIM {TimeUS : 43834959, Roll : 0.0, Pitch : 0.0, Yaw : 359.99, Alt : 30.1499996185, Lat : 49.28357, Lng : -123.11502, Q1 : 1.0, Q2 : 0.0, Q3 : 0.0, Q4 : -1.815617793e-06}
2019-04-14 20:56:02.91: SIM {TimeUS : 43934919, Roll : 0.0, Pitch : 0.0, Yaw : 359.99, Alt : 30.1800003052, Lat : 49.28357, Lng : -123.11502, Q1 : 1.0, Q2 : 0.0, Q3 : 0.0, Q4 : -1.99035025616e-06}
2019-04-14 20:56:03.01: SIM {TimeUS : 44034879, Roll : 0.0, Pitch : 0.0, Yaw : 359.99, Alt : 30.2099990845, Lat : 49.28357, Lng : -123.11502, Q1 : 1.0, Q2 : -1.2304604752e-05, Q3 : -1.21115390357e-05, Q4 : -2.25616054195e-06}
2019-04-14 20:56:03.11: SIM {TimeUS : 44134839, Roll : -0.19, Pitch : -0.17, Yaw : 359.99, Alt : 30.2700004578, Lat : 49.28357, Lng : -123.11502, Q1 : 0.999997258186, Q2 : -0.00174455542583, Q3 : -0.00155213905964, Q4 : -1.68555834534e-05}
2019-04-14 20:56:03.21: SIM {TimeUS : 44234799, Roll : -0.53, Pitch : -0.46, Yaw : 359.99, Alt : 30.3899993896, Lat : 49.28357, Lng : -123.11502, Q1 : 0.999980866909, Q2 : -0.00470077246428, Q3 : -0.00401597144082, Q4 : -5.8208777773e-05}
2019-04-14 20:56:03.31: SIM {TimeUS : 44334759, Roll : -0.8, Pitch : -0.67, Yaw : 359.99, Alt : 30.5400009155, Lat : 49.28357, Lng : -123.11502, Q1 : 0.999957680702, Q2 : -0.00704765086994, Q3 : -0.00590573158115, Q4 : -0.000124815356685}
2019-04-14 20:56:03.41: SIM {TimeUS : 44434719, Roll : -0.88, Pitch : -0.77, Yaw : 359.98, Alt : 30.7000007629, Lat : 49.28357, Lng : -123.11502, Q1 : 0.999947249889, Q2 : -0.00775604741648, Q3 : -0.00673295883462, Q4 : -0.000205168456887}
2019-04-14 20:56:03.51: SIM {TimeUS : 44534679, Roll : -0.8, Pitch : -0.72, Yaw : 359.97, Alt : 30.8600006104, Lat : 49.28357, Lng : -123.1150201, Q1 : 0.999955058098, Q2 : -0.00706758257002, Q3 : -0.00631285039708, Q4 : -0.000288834038656}
2019-04-14 20:56:03.61: SIM {TimeUS : 44634639, Roll : -0.63, Pitch : -0.56, Yaw : 359.96, Alt : 31.0100002289, Lat : 49.28357, Lng : -123.1150201, Q1 : 0.999972581863, Q2 : -0.00553173851222, Q3 : -0.00491169048473, Q4 : -0.000370389752788}
2019-04-14 20:56:03.72: SIM {TimeUS : 44735432, Roll : -0.4, Pitch : -0.35, Yaw : 359.95, Alt : 31.1700000763, Lat : 49.2835701, Lng : -123.1150202, Q1 : 0.999988913536, Q2 : -0.00351564749144, Q3 : -0.00310260802507, Q4 : -0.000441475480329}
2019-04-14 20:56:03.81: SIM {TimeUS : 44835392, Roll : -0.18, Pitch : -0.16, Yaw : 359.94, Alt : 31.3299999237, Lat : 49.2835701, Lng : -123.1150203, Q1 : 0.999997496605, Q2 : -0.00162285019178, Q3 : -0.00146426423453, Q4 : -0.000496105814818}
2019-04-14 20:56:03.91: SIM {TimeUS : 44935352, Roll : -0.02, Pitch : -0.03, Yaw : 359.93, Alt : 31.5, Lat : 49.2835702, Lng : -123.1150204, Q1 : 0.999999821186, Q2 : -0.000227103621, Q3 : -0.000288183015073, Q4 : -0.000533631013241}
2019-04-14 20:56:04.01: SIM {TimeUS : 45035312, Roll : 0.06, Pitch : 0.03, Yaw : 359.93, Alt : 31.6700000763, Lat : 49.2835702, Lng : -123.1150204, Q1 : 0.999999642372, Q2 : 0.000586866750382, Q3 : 0.000292953394819, Q4 : -0.000548297539353}
2019-04-14 20:56:04.11: SIM {TimeUS : 45135272, Roll : 0.1, Pitch : 0.05, Yaw : 359.93, Alt : 31.8500003815, Lat : 49.2835703, Lng : -123.1150205, Q1 : 0.999999284744, Q2 : 0.00092954270076, Q3 : 0.000467125413707, Q4 : -0.00053745234618}
2019-04-14 20:56:04.21: SIM {TimeUS : 45235232, Roll : 0.09, Pitch : 0.05, Yaw : 359.94, Alt : 32.0299987793, Lat : 49.2835703, Lng : -123.1150206, Q1 : 0.999999403954, Q2 : 0.0008506992599, Q3 : 0.000482538715005, Q4 : -0.000518685497809}
2019-04-14 20:56:04.31: SIM {TimeUS : 45335192, Roll : 0.07, Pitch : 0.06, Yaw : 359.94, Alt : 32.2200012207, Lat : 49.2835703, Lng : -123.1150206, Q1 : 0.999999523163, Q2 : 0.000695102266036, Q3 : 0.000536389299668, Q4 : -0.000499194487929}
2019-04-14 20:56:04.41: SIM {TimeUS : 45435152, Roll : 0.06, Pitch : 0.07, Yaw : 359.94, Alt : 32.4099998474, Lat : 49.2835703, Lng : -123.1150207, Q1 : 0.999999523163, Q2 : 0.00055417889962, Q3 : 0.000684949278366, Q4 : -0.000481068098452}
2019-04-14 20:56:04.51: SIM {TimeUS : 45535112, Roll : 0.07, Pitch : 0.11, Yaw : 359.94, Alt : 32.6100006104, Lat : 49.2835703, Lng : -123.1150207, Q1 : 0.99999922514, Q2 : 0.000687224674039, Q3 : 0.00096738972934, Q4 : -0.000465603370685}
2019-04-14 20:56:04.61: SIM {TimeUS : 45635072, Roll : 0.11, Pitch : 0.13, Yaw : 359.94, Alt : 32.7999992371, Lat : 49.2835703, Lng : -123.1150208, Q1 : 0.999998688698, Q2 : 0.000990115921013, Q3 : 0.00118173565716, Q4 : -0.000452551001217}
2019-04-14 20:56:04.71: SIM {TimeUS : 45735032, Roll : 0.14, Pitch : 0.15, Yaw : 359.94, Alt : 33.0, Lat : 49.2835704, Lng : -123.1150208, Q1 : 0.999998152256, Q2 : 0.00125248986296, Q3 : 0.00137812062167, Q4 : -0.000443269091193}
2019-04-14 20:56:04.81: SIM {TimeUS : 45834992, Roll : 0.16, Pitch : 0.17, Yaw : 359.95, Alt : 33.2000007629, Lat : 49.2835704, Lng : -123.1150208, Q1 : 0.999997675419, Q2 : 0.00140998500865, Q3 : 0.00155784387607, Q4 : -0.000437590031652}
2019-04-14 20:56:04.91: SIM {TimeUS : 45934952, Roll : 0.17, Pitch : 0.16, Yaw : 359.95, Alt : 33.4099998474, Lat : 49.2835704, Lng : -123.1150208, Q1 : 0.999997675419, Q2 : 0.00149934226647, Q3 : 0.00147307815496, Q4 : -0.000430766434874}
2019-04-14 20:56:05.01: SIM {TimeUS : 46034912, Roll : 0.17, Pitch : 0.13, Yaw : 359.94, Alt : 33.6100006104, Lat : 49.2835704, Lng : -123.1150209, Q1 : 0.999998092651, Q2 : 0.00150438200217, Q3 : 0.00114111462608, Q4 : -0.000442989781732}
2019-04-14 20:56:05.11: SIM {TimeUS : 46134872, Roll : 0.16, Pitch : 0.1, Yaw : 359.94, Alt : 33.8199996948, Lat : 49.2835704, Lng : -123.1150209, Q1 : 0.999998390675, Q2 : 0.00143365119584, Q3 : 0.000949199660681, Q4 : -0.000457150541479}
2019-04-14 20:56:05.21: SIM {TimeUS : 46234832, Roll : 0.15, Pitch : 0.1, Yaw : 359.94, Alt : 34.0299987793, Lat : 49.2835704, Lng : -123.1150209, Q1 : 0.999998509884, Q2 : 0.00135432649404, Q3 : 0.000948397209868, Q4 : -0.000485922471853}
2019-04-14 20:56:05.31: SIM {TimeUS : 46334792, Roll : 0.15, Pitch : 0.11, Yaw : 359.93, Alt : 34.2400016785, Lat : 49.2835704, Lng : -123.1150209, Q1 : 0.999998390675, Q2 : 0.00136531225871, Q3 : 0.00102054257877, Q4 : -0.000526357849594}
2019-04-14 20:56:05.41: SIM {TimeUS : 46434752, Roll : 0.14, Pitch : 0.1, Yaw : 359.93, Alt : 34.4500007629, Lat : 49.2835704, Lng : -123.1150209, Q1 : 0.999998629093, Q2 : 0.00127318571322, Q3 : 0.000920632737689, Q4 : -0.000558437837753}
2019-04-14 20:56:05.51: SIM {TimeUS : 46534712, Roll : 0.12, Pitch : 0.09, Yaw : 359.93, Alt : 34.6599998474, Lat : 49.2835704, Lng : -123.1150208, Q1 : 0.999998986721, Q2 : 0.00104902044404, Q3 : 0.000788677425589, Q4 : -0.000583393150009}
2019-04-14 20:56:05.61: SIM {TimeUS : 46634672, Roll : 0.09, Pitch : 0.07, Yaw : 359.93, Alt : 34.8800010681, Lat : 49.2835704, Lng : -123.1150208, Q1 : 0.999999284744, Q2 : 0.000795400002971, Q3 : 0.000687166117132, Q4 : -0.000606568646617}
2019-04-14 20:56:05.71: SIM {TimeUS : 46734632, Roll : 0.06, Pitch : 0.06, Yaw : 359.92, Alt : 35.0900001526, Lat : 49.2835704, Lng : -123.1150208, Q1 : 0.999999463558, Q2 : 0.000530169403646, Q3 : 0.00059568596771, Q4 : -0.00063075160142}
2019-04-14 20:56:05.82: SIM {TimeUS : 46835425, Roll : 0.04, Pitch : 0.03, Yaw : 359.92, Alt : 35.3100013733, Lat : 49.2835704, Lng : -123.1150208, Q1 : 0.999999642372, Q2 : 0.000392388465116, Q3 : 0.000285827030893, Q4 : -0.000646934378892}
2019-04-14 20:56:05.91: SIM {TimeUS : 46935385, Roll : 0.03, Pitch : 0.0, Yaw : 359.92, Alt : 35.5299987793, Lat : 49.2835704, Lng : -123.1150208, Q1 : 0.999999761581, Q2 : 0.000332286668709, Q3 : 5.33399834239e-05, Q4 : -0.000659523007926}
2019-04-14 20:56:06.01: SIM {TimeUS : 47035345, Roll : 0.01, Pitch : 0.0, Yaw : 359.92, Alt : 35.75, Lat : 49.2835704, Lng : -123.1150208, Q1 : 0.999999761581, Q2 : 0.000171548555954, Q3 : -3.92358670069e-05, Q4 : -0.000677868316416}
2019-04-14 20:56:06.11: SIM {TimeUS : 47135305, Roll : 0.01, Pitch : 0.0, Yaw : 359.92, Alt : 35.9700012207, Lat : 49.2835704, Lng : -123.1150207, Q1 : 0.999999761581, Q2 : 0.000142367061926, Q3 : -3.92252222809e-05, Q4 : -0.000696250877809}
2019-04-14 20:56:06.21: SIM {TimeUS : 47235265, Roll : 0.02, Pitch : 0.0, Yaw : 359.91, Alt : 36.1899986267, Lat : 49.2835704, Lng : -123.1150207, Q1 : 0.999999701977, Q2 : 0.000204198295251, Q3 : -2.72571232927e-05, Q4 : -0.000714724126738}
2019-04-14 20:56:06.31: SIM {TimeUS : 47335225, Roll : 0.01, Pitch : -0.01, Yaw : 359.91, Alt : 36.4099998474, Lat : 49.2835704, Lng : -123.1150207, Q1 : 0.999999701977, Q2 : 9.66224324657e-05, Q3 : -0.000161192321684, Q4 : -0.000733010005206}
2019-04-14 20:56:06.41: SIM {TimeUS : 47435185, Roll : -0.02, Pitch : -0.05, Yaw : 359.91, Alt : 36.6399993896, Lat : 49.2835704, Lng : -123.1150207, Q1 : 0.999999582767, Q2 : -0.00022157386411, Q3 : -0.000444493955001, Q4 : -0.000755675602704}
2019-04-14 20:56:06.51: SIM {TimeUS : 47535145, Roll : -0.07, Pitch : -0.07, Yaw : 359.91, Alt : 36.8600006104, Lat : 49.2835704, Lng : -123.1150207, Q1 : 0.999999284744, Q2 : -0.000623930653092, Q3 : -0.000671281130053, Q4 : -0.000780904665589}
2019-04-14 20:56:06.61: SIM {TimeUS : 47635105, Roll : -0.11, Pitch : -0.09, Yaw : 359.9, Alt : 37.0800018311, Lat : 49.2835704, Lng : -123.1150207, Q1 : 0.999998807907, Q2 : -0.00100125966128, Q3 : -0.000855809543282, Q4 : -0.000806922966149}
2019-04-14 20:56:06.71: SIM {TimeUS : 47735065, Roll : -0.13, Pitch : -0.1, Yaw : 359.9, Alt : 37.3100013733, Lat : 49.2835704, Lng : -123.1150206, Q1 : 0.999998569489, Q2 : -0.00113582285121, Q3 : -0.000920869468246, Q4 : -0.000840486667585}
2019-04-14 20:56:06.81: SIM {TimeUS : 47835025, Roll : -0.12, Pitch : -0.09, Yaw : 359.89, Alt : 37.5299987793, Lat : 49.2835704, Lng : -123.1150206, Q1 : 0.999998688698, Q2 : -0.00108264409937, Q3 : -0.000814358587377, Q4 : -0.000876195961609}
2019-04-14 20:56:06.91: SIM {TimeUS : 47934985, Roll : -0.1, Pitch : -0.05, Yaw : 359.89, Alt : 37.7599983215, Lat : 49.2835704, Lng : -123.1150206, Q1 : 0.999999046326, Q2 : -0.000905557360966, Q3 : -0.000505195755977, Q4 : -0.000908064132091}
2019-04-14 20:56:07.01: SIM {TimeUS : 48034945, Roll : -0.07, Pitch : -0.03, Yaw : 359.89, Alt : 37.9900016785, Lat : 49.2835704, Lng : -123.1150206, Q1 : 0.999999284744, Q2 : -0.000675396062434, Q3 : -0.000274157326203, Q4 : -0.00093705119798}
2019-04-14 20:56:07.11: SIM {TimeUS : 48134905, Roll : -0.06, Pitch : -0.03, Yaw : 359.88, Alt : 38.2099990845, Lat : 49.2835704, Lng : -123.1150206, Q1 : 0.999999344349, Q2 : -0.000605197739787, Q3 : -0.000276149716228, Q4 : -0.000969124143012}
2019-04-14 20:56:07.21: SIM {TimeUS : 48234865, Roll : -0.07, Pitch : -0.02, Yaw : 359.88, Alt : 38.4399986267, Lat : 49.2835704, Lng : -123.1150206, Q1 : 0.999999284744, Q2 : -0.000631141476333, Q3 : -0.000197137633222, Q4 : -0.000991882523522}
2019-04-14 20:56:07.31: SIM {TimeUS : 48334825, Roll : -0.08, Pitch : 0.0, Yaw : 359.88, Alt : 38.6699981689, Lat : 49.2835706, Lng : -123.1150206, Q1 : 0.999999165535, Q2 : -0.000784090545494, Q3 : -5.79321531404e-05, Q4 : -0.00100658403244}
2019-04-14 20:56:07.41: SIM {TimeUS : 48434785, Roll : -0.09, Pitch : 0.0, Yaw : 359.88, Alt : 38.9000015259, Lat : 49.2835706, Lng : -123.1150206, Q1 : 0.999999165535, Q2 : -0.000803557340987, Q3 : 6.83697871864e-05, Q4 : -0.00101624906529}
2019-04-14 20:56:07.51: SIM {TimeUS : 48534745, Roll : -0.07, Pitch : 0.03, Yaw : 359.88, Alt : 39.1300010681, Lat : 49.2835706, Lng : -123.1150206, Q1 : 0.999999165535, Q2 : -0.000685707200319, Q3 : 0.000311665789923, Q4 : -0.0010248956969}
2019-04-14 20:56:07.61: SIM {TimeUS : 48634705, Roll : -0.05, Pitch : 0.03, Yaw : 359.88, Alt : 39.3600006104, Lat : 49.2835706, Lng : -123.1150206, Q1 : 0.999999284744, Q2 : -0.000514256767929, Q3 : 0.000323384709191, Q4 : -0.00102539407089}
2019-04-14 20:56:07.71: SIM {TimeUS : 48734665, Roll : -0.03, Pitch : 0.03, Yaw : 359.88, Alt : 39.5900001526, Lat : 49.2835706, Lng : -123.1150207, Q1 : 0.999999403954, Q2 : -0.00028184207622, Q3 : 0.000285654736217, Q4 : -0.00102518021595}
2019-04-14 20:56:07.81: SIM {TimeUS : 48834625, Roll : 0.0, Pitch : 0.05, Yaw : 359.88, Alt : 39.8199996948, Lat : 49.2835706, Lng : -123.1150207, Q1 : 0.999999403954, Q2 : 4.74764456158e-05, Q3 : 0.000464908836875, Q4 : -0.00102592527401}
2019-04-14 20:56:07.92: SIM {TimeUS : 48935418, Roll : 0.05, Pitch : 0.09, Yaw : 359.88, Alt : 40.0499992371, Lat : 49.2835706, Lng : -123.1150207, Q1 : 0.999999046326, Q2 : 0.000463668518933, Q3 : 0.000806941709016, Q4 : -0.00103319843765}
2019-04-14 20:56:08.01: SIM {TimeUS : 49035378, Roll : 0.08, Pitch : 0.13, Yaw : 359.87, Alt : 40.2799987793, Lat : 49.2835706, Lng : -123.1150207, Q1 : 0.999998509884, Q2 : 0.000766946468502, Q3 : 0.00116102711763, Q4 : -0.00104931462556}
2019-04-14 20:56:08.11: SIM {TimeUS : 49135338, Roll : 0.08, Pitch : 0.17, Yaw : 359.87, Alt : 40.5099983215, Lat : 49.2835706, Lng : -123.1150207, Q1 : 0.999998033047, Q2 : 0.000718786614016, Q3 : 0.00151287997141, Q4 : -0.0010570215527}
2019-04-14 20:56:08.21: SIM {TimeUS : 49235298, Roll : 0.03, Pitch : 0.2, Yaw : 359.87, Alt : 40.75, Lat : 49.2835706, Lng : -123.1150207, Q1 : 0.999997854233, Q2 : 0.000298295926768, Q3 : 0.00175891048275, Q4 : -0.00108236761298}
2019-04-14 20:56:08.31: SIM {TimeUS : 49335258, Roll : 0.0, Pitch : 0.2, Yaw : 359.87, Alt : 40.9799995422, Lat : 49.2835706, Lng : -123.1150207, Q1 : 0.999997735023, Q2 : -8.06353709777e-05, Q3 : 0.00182283937465, Q4 : -0.00110773229972}
2019-04-14 20:56:08.41: SIM {TimeUS : 49435218, Roll : -0.03, Pitch : 0.17, Yaw : 359.87, Alt : 41.2099990845, Lat : 49.2835706, Lng : -123.1150207, Q1 : 0.999998092651, Q2 : -0.000288666080451, Q3 : 0.00156858167611, Q4 : -0.00113125925418}
2019-04-14 20:56:08.51: SIM {TimeUS : 49535178, Roll : -0.03, Pitch : 0.13, Yaw : 359.86, Alt : 41.4500007629, Lat : 49.2835706, Lng : -123.1150207, Q1 : 0.999998509884, Q2 : -0.000332902942318, Q3 : 0.00121083657723, Q4 : -0.00116307672579}
2019-04-14 20:56:08.61: SIM {TimeUS : 49635138, Roll : -0.02, Pitch : 0.12, Yaw : 359.86, Alt : 41.6800003052, Lat : 49.2835706, Lng : -123.1150207, Q1 : 0.999998688698, Q2 : -0.000198645502678, Q3 : 0.00108281313442, Q4 : -0.00120289158076}
2019-04-14 20:56:08.71: SIM {TimeUS : 49735098, Roll : 0.01, Pitch : 0.13, Yaw : 359.85, Alt : 41.9099998474, Lat : 49.2835706, Lng : -123.1150207, Q1 : 0.999998569489, Q2 : 0.00015654687013, Q3 : 0.00114221172407, Q4 : -0.00124617910478}
2019-04-14 20:56:08.81: SIM {TimeUS : 49835058, Roll : 0.07, Pitch : 0.13, Yaw : 359.85, Alt : 42.1500015259, Lat : 49.2835706, Lng : -123.1150207, Q1 : 0.999998271465, Q2 : 0.000620590231847, Q3 : 0.00118371064309, Q4 : -0.00129113916773}
2019-04-14 20:56:08.91: SIM {TimeUS : 49935018, Roll : 0.11, Pitch : 0.11, Yaw : 359.84, Alt : 42.3800010681, Lat : 49.2835706, Lng : -123.1150207, Q1 : 0.999998152256, Q2 : 0.000966101477388, Q3 : 0.00102125294507, Q4 : -0.00133862509392}
2019-04-14 20:56:09.01: SIM {TimeUS : 50034978, Roll : 0.11, Pitch : 0.08, Yaw : 359.84, Alt : 42.6199989319, Lat : 49.2835706, Lng : -123.1150207, Q1 : 0.999998271465, Q2 : 0.000988908228464, Q3 : 0.000766623357777, Q4 : -0.00137941038702}
2019-04-14 20:56:09.11: SIM {TimeUS : 50134938, Roll : 0.07, Pitch : 0.06, Yaw : 359.83, Alt : 42.8499984741, Lat : 49.2835706, Lng : -123.1150207, Q1 : 0.999998629093, Q2 : 0.000651132606436, Q3 : 0.000601063366048, Q4 : -0.00140168087091}
2019-04-14 20:56:09.21: SIM {TimeUS : 50234898, Roll : 0.01, Pitch : 0.06, Yaw : 359.83, Alt : 43.0900001526, Lat : 49.2835706, Lng : -123.1150207, Q1 : 0.999998867512, Q2 : 0.000145272686495, Q3 : 0.000542493595276, Q4 : -0.00141885736957}
2019-04-14 20:56:09.31: SIM {TimeUS : 50334858, Roll : -0.02, Pitch : 0.07, Yaw : 359.83, Alt : 43.3199996948, Lat : 49.2835704, Lng : -123.1150207, Q1 : 0.999998748302, Q2 : -0.000225348063395, Q3 : 0.000674261944368, Q4 : -0.0014328911202}
2019-04-14 20:56:09.41: SIM {TimeUS : 50434818, Roll : -0.04, Pitch : 0.08, Yaw : 359.83, Alt : 43.5600013733, Lat : 49.2835704, Lng : -123.1150207, Q1 : 0.999998569489, Q2 : -0.000410797772929, Q3 : 0.000723832752556, Q4 : -0.00144477072172}
2019-04-14 20:56:09.51: SIM {TimeUS : 50534778, Roll : -0.04, Pitch : 0.06, Yaw : 359.83, Alt : 43.7900009155, Lat : 49.2835704, Lng : -123.1150207, Q1 : 0.999998688698, Q2 : -0.000385714316508, Q3 : 0.000609441078268, Q4 : -0.0014550096821}
2019-04-14 20:56:09.61: SIM {TimeUS : 50634738, Roll : -0.04, Pitch : 0.05, Yaw : 359.83, Alt : 44.0299987793, Lat : 49.2835704, Lng : -123.1150207, Q1 : 0.999998688698, Q2 : -0.000408153660828, Q3 : 0.000488722871523, Q4 : -0.00147169397678}
2019-04-14 20:56:09.71: SIM {TimeUS : 50734698, Roll : -0.04, Pitch : 0.04, Yaw : 359.82, Alt : 44.2599983215, Lat : 49.2835704, Lng : -123.1150206, Q1 : 0.999998748302, Q2 : -0.000351661496097, Q3 : 0.000354347837856, Q4 : -0.00149065989535}
2019-04-14 20:56:09.81: SIM {TimeUS : 50834658, Roll : -0.02, Pitch : 0.03, Yaw : 359.82, Alt : 44.5, Lat : 49.2835704, Lng : -123.1150206, Q1 : 0.999998807907, Q2 : -0.000198262336198, Q3 : 0.000298815255519, Q4 : -0.00151808315422}
2019-04-14 20:56:09.91: SIM {TimeUS : 50934618, Roll : -0.01, Pitch : 0.03, Yaw : 359.82, Alt : 44.7400016785, Lat : 49.2835704, Lng : -123.1150206, Q1 : 0.999998748302, Q2 : -8.7083557446e-05, Q3 : 0.000297234248137, Q4 : -0.00154758978169}
2019-04-14 20:56:10.01: SIM {TimeUS : 51035411, Roll : -0.01, Pitch : 0.01, Yaw : 359.81, Alt : 44.9700012207, Lat : 49.2835704, Lng : -123.1150206, Q1 : 0.999998748302, Q2 : -0.000119614116556, Q3 : 0.000169366467162, Q4 : -0.00157968816347}
2019-04-14 20:56:10.11: SIM {TimeUS : 51135371, Roll : -0.02, Pitch : -0.01, Yaw : 359.81, Alt : 45.2099990845, Lat : 49.2835703, Lng : -123.1150206, Q1 : 0.999998688698, Q2 : -0.000203528514248, Q3 : -0.000114534072054, Q4 : -0.001610141946}
2019-04-14 20:56:10.21: SIM {TimeUS : 51235331, Roll : -0.03, Pitch : -0.03, Yaw : 359.81, Alt : 45.4500007629, Lat : 49.2835703, Lng : -123.1150206, Q1 : 0.999998569489, Q2 : -0.000272553152172, Q3 : -0.000332399067702, Q4 : -0.00164585490711}
2019-04-14 20:56:10.31: SIM {TimeUS : 51335291, Roll : -0.03, Pitch : -0.05, Yaw : 359.8, Alt : 45.6800003052, Lat : 49.2835703, Lng : -123.1150206, Q1 : 0.999998450279, Q2 : -0.000263126450591, Q3 : -0.000439983414253, Q4 : -0.00168107589707}
2019-04-14 20:56:10.41: SIM {TimeUS : 51435251, Roll : -0.03, Pitch : -0.05, Yaw : 359.8, Alt : 45.9099998474, Lat : 49.2835703, Lng : -123.1150206, Q1 : 0.999998390675, Q2 : -0.00030541481101, Q3 : -0.000449189101346, Q4 : -0.00170996587258}
2019-04-14 20:56:10.51: SIM {TimeUS : 51535211, Roll : -0.05, Pitch : -0.04, Yaw : 359.8, Alt : 46.1399993896, Lat : 49.2835703, Lng : -123.1150206, Q1 : 0.99999833107, Q2 : -0.000484798481921, Q3 : -0.000360683829058, Q4 : -0.00173512031324}
2019-04-14 20:56:10.61: SIM {TimeUS : 51635171, Roll : -0.08, Pitch : -0.03, Yaw : 359.79, Alt : 46.3699989319, Lat : 49.2835703, Lng : -123.1150206, Q1 : 0.999998092651, Q2 : -0.000782420742325, Q3 : -0.000283638917608, Q4 : -0.00175976043101}
2019-04-14 20:56:10.71: SIM {TimeUS : 51735131, Roll : -0.11, Pitch : -0.02, Yaw : 359.79, Alt : 46.5900001526, Lat : 49.2835703, Lng : -123.1150206, Q1 : 0.999997913837, Q2 : -0.001001175493, Q3 : -0.000248948170338, Q4 : -0.00178355304524}
2019-04-14 20:56:10.81: SIM {TimeUS : 51835091, Roll : -0.12, Pitch : -0.01, Yaw : 359.79, Alt : 46.8100013733, Lat : 49.2835703, Lng : -123.1150206, Q1 : 0.999997794628, Q2 : -0.00105852051638, Q3 : -0.000166718746186, Q4 : -0.00180658709724}
2019-04-14 20:56:10.91: SIM {TimeUS : 51935051, Roll : -0.1, Pitch : 0.0, Yaw : 359.79, Alt : 47.0200004578, Lat : 49.2835703, Lng : -123.1150206, Q1 : 0.999997913837, Q2 : -0.000950289482716, Q3 : 2.67365226136e-06, Q4 : -0.00183061056305}
2019-04-14 20:56:11.01: SIM {TimeUS : 52035011, Roll : -0.08, Pitch : 0.01, Yaw : 359.78, Alt : 47.2200012207, Lat : 49.2835703, Lng : -123.1150206, Q1 : 0.999998033047, Q2 : -0.000734829518478, Q3 : 8.88830836629e-05, Q4 : -0.0018522987375}
2019-04-14 20:56:11.11: SIM {TimeUS : 52134971, Roll : -0.05, Pitch : 0.0, Yaw : 359.78, Alt : 47.4199981689, Lat : 49.2835703, Lng : -123.1150206, Q1 : 0.999998092651, Q2 : -0.000523400667589, Q3 : 6.35097458144e-05, Q4 : -0.00187116430607}
2019-04-14 20:56:11.21: SIM {TimeUS : 52234931, Roll : -0.04, Pitch : -0.01, Yaw : 359.78, Alt : 47.5999984741, Lat : 49.2835703, Lng : -123.1150206, Q1 : 0.999998152256, Q2 : -0.000417416595155, Q3 : -9.9909659184e-05, Q4 : -0.0018902370939}
2019-04-14 20:56:11.31: SIM {TimeUS : 52334891, Roll : -0.05, Pitch : -0.05, Yaw : 359.78, Alt : 47.7799987793, Lat : 49.2835703, Lng : -123.1150206, Q1 : 0.999997973442, Q2 : -0.000445295620011, Q3 : -0.000437376962509, Q4 : -0.00191144214477}
2019-04-14 20:56:11.41: SIM {TimeUS : 52434851, Roll : -0.04, Pitch : -0.08, Yaw : 359.77, Alt : 47.9399986267, Lat : 49.2835703, Lng : -123.1150206, Q1 : 0.999997794628, Q2 : -0.000388362939702, Q3 : -0.000700305856299, Q4 : -0.00193333253264}
2019-04-14 20:56:11.51: SIM {TimeUS : 52534811, Roll : -0.03, Pitch : -0.1, Yaw : 359.77, Alt : 48.0900001526, Lat : 49.2835703, Lng : -123.1150206, Q1 : 0.999997615814, Q2 : -0.00032862459193, Q3 : -0.000938510755077, Q4 : -0.00195487355813}
2019-04-14 20:56:11.61: SIM {TimeUS : 52634771, Roll : -0.03, Pitch : -0.12, Yaw : 359.77, Alt : 48.2299995422, Lat : 49.2835703, Lng : -123.1150206, Q1 : 0.999997437, Q2 : -0.000304745306494, Q3 : -0.00106670975219, Q4 : -0.00197356939316}
2019-04-14 20:56:11.71: SIM {TimeUS : 52734731, Roll : 0.0, Pitch : -0.11, Yaw : 359.77, Alt : 48.3600006104, Lat : 49.2835703, Lng : -123.1150206, Q1 : 0.99999755621, Q2 : -3.56767304766e-05, Q3 : -0.000977985793725, Q4 : -0.00198973226361}
2019-04-14 20:56:11.81: SIM {TimeUS : 52834691, Roll : 0.03, Pitch : -0.08, Yaw : 359.76, Alt : 48.4799995422, Lat : 49.2835703, Lng : -123.1150206, Q1 : 0.999997675419, Q2 : 0.000280675303657, Q3 : -0.00075186608592, Q4 : -0.00200896337628}
2019-04-14 20:56:11.91: SIM {TimeUS : 52934651, Roll : 0.06, Pitch : -0.05, Yaw : 359.76, Alt : 48.5800018311, Lat : 49.2835703, Lng : -123.1150206, Q1 : 0.999997675419, Q2 : 0.000523584836628, Q3 : -0.00047205761075, Q4 : -0.00203234353103}
2019-04-14 20:56:12.02: SIM {TimeUS : 53035444, Roll : 0.06, Pitch : -0.02, Yaw : 359.76, Alt : 48.6699981689, Lat : 49.2835703, Lng : -123.1150207, Q1 : 0.999997675419, Q2 : 0.000588144001085, Q3 : -0.000247877556831, Q4 : -0.00205818540417}
2019-04-14 20:56:12.11: SIM {TimeUS : 53135404, Roll : 0.07, Pitch : -0.01, Yaw : 359.76, Alt : 48.7599983215, Lat : 49.2835703, Lng : -123.1150207, Q1 : 0.99999755621, Q2 : 0.000636665208731, Q3 : -0.000168807338923, Q4 : -0.00208600517362}
2019-04-14 20:56:12.21: SIM {TimeUS : 53235364, Roll : 0.06, Pitch : -0.03, Yaw : 359.75, Alt : 48.8300018311, Lat : 49.2835703, Lng : -123.1150207, Q1 : 0.99999755621, Q2 : 0.000551634293515, Q3 : -0.000281094457023, Q4 : -0.0021140514873}
2019-04-14 20:56:12.31: SIM {TimeUS : 53335324, Roll : 0.03, Pitch : -0.04, Yaw : 359.75, Alt : 48.8899993896, Lat : 49.2835703, Lng : -123.1150207, Q1 : 0.99999755621, Q2 : 0.000305763969664, Q3 : -0.000388883141568, Q4 : -0.00214550667442}
2019-04-14 20:56:12.41: SIM {TimeUS : 53435284, Roll : 0.01, Pitch : -0.04, Yaw : 359.75, Alt : 48.9399986267, Lat : 49.2835703, Lng : -123.1150207, Q1 : 0.99999755621, Q2 : 0.000116760005767, Q3 : -0.000394509086618, Q4 : -0.00217500445433}
2019-04-14 20:56:12.51: SIM {TimeUS : 53535244, Roll : 0.05, Pitch : -0.07, Yaw : 359.74, Alt : 48.9799995422, Lat : 49.2835703, Lng : -123.1150207, Q1 : 0.999997258186, Q2 : 0.000503634451889, Q3 : -0.000651350885164, Q4 : -0.00220893090591}
2019-04-14 20:56:12.61: SIM {TimeUS : 53635204, Roll : 0.27, Pitch : -0.2, Yaw : 359.74, Alt : 49.0200004578, Lat : 49.2835703, Lng : -123.1150207, Q1 : 0.999992907047, Q2 : 0.00243322970346, Q3 : -0.00180372549221, Q4 : -0.0022404785268}
2019-04-14 20:56:12.71: SIM {TimeUS : 53735164, Roll : 0.75, Pitch : -0.48, Yaw : 359.73, Alt : 49.0499992371, Lat : 49.2835704, Lng : -123.1150207, Q1 : 0.999966561794, Q2 : 0.00659447396174, Q3 : -0.00427466165274, Q4 : -0.00227156933397}
2019-04-14 20:56:12.81: SIM {TimeUS : 53835124, Roll : 1.44, Pitch : -0.92, Yaw : 359.72, Alt : 49.0800018311, Lat : 49.2835704, Lng : -123.1150207, Q1 : 0.999884665012, Q2 : 0.0126285841689, Q3 : -0.00812204089016, Q4 : -0.00229021022096}
2019-04-14 20:56:12.91: SIM {TimeUS : 53935084, Roll : 2.27, Pitch : -1.5, Yaw : 359.7, Alt : 49.1100006104, Lat : 49.2835704, Lng : -123.1150206, Q1 : 0.99971395731, Q2 : 0.0198130868375, Q3 : -0.0131944771856, Q4 : -0.00229288358241}
2019-04-14 20:56:13.01: SIM {TimeUS : 54035044, Roll : 3.13, Pitch : -2.12, Yaw : 359.68, Alt : 49.1300010681, Lat : 49.2835704, Lng : -123.1150205, Q1 : 0.999451398849, Q2 : 0.0272723212838, Q3 : -0.018654961139, Q4 : -0.00224769534543}
2019-04-14 20:56:13.11: SIM {TimeUS : 54135004, Roll : 3.88, Pitch : -2.69, Yaw : 359.66, Alt : 49.1399993896, Lat : 49.2835706, Lng : -123.1150203, Q1 : 0.999145686626, Q2 : 0.0338432975113, Q3 : -0.0236233305186, Q4 : -0.00212142942473}
2019-04-14 20:56:13.21: SIM {TimeUS : 54234964, Roll : 4.47, Pitch : -3.14, Yaw : 359.65, Alt : 49.1599998474, Lat : 49.2835707, Lng : -123.1150201, Q1 : 0.998859524727, Q2 : 0.0389622077346, Q3 : -0.0275318473577, Q4 : -0.00191684393212}
2019-04-14 20:56:13.31: SIM {TimeUS : 54334924, Roll : 4.9, Pitch : -3.44, Yaw : 359.66, Alt : 49.1699981689, Lat : 49.2835709, Lng : -123.1150199, Q1 : 0.998631000519, Q2 : 0.0426872521639, Q3 : -0.0301855877042, Q4 : -0.00165054947138}
2019-04-14 20:56:13.41: SIM {TimeUS : 54434884, Roll : 5.22, Pitch : -3.67, Yaw : 359.67, Alt : 49.1800003052, Lat : 49.283571, Lng : -123.1150195, Q1 : 0.998445272446, Q2 : 0.0454984307289, Q3 : -0.0321724824607, Q4 : -0.00136661354918}
2019-04-14 20:56:13.51: SIM {TimeUS : 54534844, Roll : 5.51, Pitch : -3.88, Yaw : 359.68, Alt : 49.2000007629, Lat : 49.2835713, Lng : -123.115019, Q1 : 0.998267591, Q2 : 0.0480240993202, Q3 : -0.0339763313532, Q4 : -0.00108134420589}
2019-04-14 20:56:13.61: SIM {TimeUS : 54634804, Roll : 5.8, Pitch : -4.08, Yaw : 359.7, Alt : 49.2000007629, Lat : 49.2835715, Lng : -123.1150184, Q1 : 0.998083174229, Q2 : 0.0505260154605, Q3 : -0.0357286036015, Q4 : -0.00080289458856}
2019-04-14 20:56:13.71: SIM {TimeUS : 54734764, Roll : 6.1, Pitch : -4.31, Yaw : 359.7, Alt : 49.2099990845, Lat : 49.2835719, Lng : -123.1150177, Q1 : 0.997873961926, Q2 : 0.0531492084265, Q3 : -0.0377155691385, Q4 : -0.000538635824341}
2019-04-14 20:56:13.81: SIM {TimeUS : 54834724, Roll : 6.4, Pitch : -4.53, Yaw : 359.71, Alt : 49.2200012207, Lat : 49.2835722, Lng : -123.1150169, Q1 : 0.997660517693, Q2 : 0.0556807070971, Q3 : -0.0396620221436, Q4 : -0.000282190332655}
2019-04-14 20:56:13.91: SIM {TimeUS : 54934684, Roll : 6.64, Pitch : -4.71, Yaw : 359.72, Alt : 49.2299995422, Lat : 49.2835727, Lng : -123.115016, Q1 : 0.997477471828, Q2 : 0.0577918887138, Q3 : -0.041216891259, Q4 : -3.9984985051e-05}
2019-04-14 20:56:14.01: SIM {TimeUS : 55034644, Roll : 6.8, Pitch : -4.82, Yaw : 359.73, Alt : 49.2299995422, Lat : 49.2835731, Lng : -123.115015, Q1 : 0.99735814333, Q2 : 0.0591711327434, Q3 : -0.0421369895339, Q4 : 0.000168244470842}
2019-04-14 20:56:14.12: SIM {TimeUS : 55135437, Roll : 6.91, Pitch : -4.89, Yaw : 359.74, Alt : 49.2400016785, Lat : 49.2835735, Lng : -123.1150139, Q1 : 0.997272968292, Q2 : 0.0601507723331, Q3 : -0.0427602566779, Q4 : 0.000319596088957}
2019-04-14 20:56:14.21: SIM {TimeUS : 55235397, Roll : 6.99, Pitch : -4.95, Yaw : 359.74, Alt : 49.2400016785, Lat : 49.2835741, Lng : -123.1150127, Q1 : 0.997208237648, Q2 : 0.0608398243785, Q3 : -0.0432919487357, Q4 : 0.00040748223546}
2019-04-14 20:56:14.31: SIM {TimeUS : 55335357, Roll : 7.12, Pitch : -5.0, Yaw : 359.74, Alt : 49.25, Lat : 49.2835747, Lng : -123.1150115, Q1 : 0.997121334076, Q2 : 0.0619765259326, Q3 : -0.0436764061451, Q4 : 0.000511080375873}
2019-04-14 20:56:14.41: SIM {TimeUS : 55435317, Roll : 7.44, Pitch : -4.91, Yaw : 359.92, Alt : 49.25, Lat : 49.2835753, Lng : -123.1150101, Q1 : 0.996975362301, Q2 : 0.0648041069508, Q3 : -0.0428467094898, Q4 : 0.00215974636376}
2019-04-14 20:56:14.51: SIM {TimeUS : 55535277, Roll : 7.99, Pitch : -4.7, Yaw : 0.85, Alt : 49.2599983215, Lat : 49.2835759, Lng : -123.1150087, Q1 : 0.996676623821, Q2 : 0.0699553787708, Q3 : -0.040439195931, Q4 : 0.0103261405602}
2019-04-14 20:56:14.61: SIM {TimeUS : 55635237, Roll : 8.6, Pitch : -4.66, Yaw : 3.17, Alt : 49.2599983215, Lat : 49.2835767, Lng : -123.1150072, Q1 : 0.995888471603, Q2 : 0.0760914385319, Q3 : -0.0384589768946, Q4 : 0.0306130666286}
2019-04-14 20:56:14.71: SIM {TimeUS : 55735197, Roll : 9.03, Pitch : -5.06, Yaw : 7.07, Alt : 49.2599983215, Lat : 49.2835774, Lng : -123.1150055, Q1 : 0.993808448315, Q2 : 0.0812499374151, Q3 : -0.0391569212079, Q4 : 0.0648837462068}
2019-04-14 20:56:14.81: SIM {TimeUS : 55835157, Roll : 9.03, Pitch : -5.98, Yaw : 12.43, Alt : 49.2599983215, Lat : 49.2835781, Lng : -123.1150038, Q1 : 0.989239215851, Q2 : 0.0837868601084, Q3 : -0.0432377867401, Q4 : 0.111874863505}
2019-04-14 20:56:14.91: SIM {TimeUS : 55935117, Roll : 8.43, Pitch : -7.31, Yaw : 19.01, Alt : 49.2599983215, Lat : 49.2835788, Lng : -123.1150019, Q1 : 0.98080599308, Q2 : 0.0829128175974, Q3 : -0.0506423227489, Q4 : 0.169057622552}
2019-04-14 20:56:15.01: SIM {TimeUS : 56035077, Roll : 7.21, Pitch : -8.87, Yaw : 26.57, Alt : 49.2599983215, Lat : 49.2835795, Lng : -123.1149999, Q1 : 0.967262983322, Q2 : 0.078789383173, Q3 : -0.0607625991106, Q4 : 0.23345772922}
2019-04-14 20:56:15.11: SIM {TimeUS : 56135037, Roll : 5.41, Pitch : -10.45, Yaw : 34.85, Alt : 49.2700004578, Lat : 49.2835804, Lng : -123.1149978, Q1 : 0.947788953781, Q2 : 0.0721299275756, Q3 : -0.0727331638336, Q4 : 0.301998794079}
2019-04-14 20:56:15.21: SIM {TimeUS : 56234997, Roll : 3.07, Pitch : -11.82, Yaw : 43.55, Alt : 49.2700004578, Lat : 49.2835812, Lng : -123.1149956, Q1 : 0.922319471836, Q2 : 0.0629987046123, Q3 : -0.085699275136, Q4 : 0.371501773596}
2019-04-14 20:56:15.31: SIM {TimeUS : 56334957, Roll : 0.09, Pitch : -12.76, Yaw : 52.13, Alt : 49.2700004578, Lat : 49.2835819, Lng : -123.1149933, Q1 : 0.892652928829, Q2 : 0.0495986118913, Q3 : -0.0994782075286, Q4 : 0.436823546886}
2019-04-14 20:56:15.41: SIM {TimeUS : 56434917, Roll : -3.1, Pitch : -13.13, Yaw : 59.69, Alt : 49.2700004578, Lat : 49.2835829, Lng : -123.1149909, Q1 : 0.862878084183, Q2 : 0.0335321389139, Q3 : -0.112542904913, Q4 : 0.491580158472}
2019-04-14 20:56:15.51: SIM {TimeUS : 56534877, Roll : -5.85, Pitch : -13.05, Yaw : 65.48, Alt : 49.2700004578, Lat : 49.2835838, Lng : -123.1149884, Q1 : 0.837715446949, Q2 : 0.0187351591885, Q3 : -0.122900977731, Q4 : 0.531768023968}
2019-04-14 20:56:15.61: SIM {TimeUS : 56634837, Roll : -7.65, Pitch : -12.79, Yaw : 69.17, Alt : 49.2700004578, Lat : 49.2835849, Lng : -123.1149859, Q1 : 0.82053822279, Q2 : 0.00843961630017, Q3 : -0.129175692797, Q4 : 0.556739985943}
2019-04-14 20:56:15.71: SIM {TimeUS : 56734797, Roll : -8.37, Pitch : -12.6, Yaw : 70.86, Alt : 49.2700004578, Lat : 49.2835861, Lng : -123.1149833, Q1 : 0.812344014645, Q2 : 0.00436806166545, Q3 : -0.131273388863, Q4 : 0.568194925785}
2019-04-14 20:56:15.81: SIM {TimeUS : 56834757, Roll : -8.1, Pitch : -12.65, Yaw : 70.87, Alt : 49.2700004578, Lat : 49.2835874, Lng : -123.1149806, Q1 : 0.812264740467, Q2 : 0.00654555903748, Q3 : -0.130288690329, Q4 : 0.568513870239}
2019-04-14 20:56:15.91: SIM {TimeUS : 56934717, Roll : -7.08, Pitch : -12.97, Yaw : 69.56, Alt : 49.2700004578, Lat : 49.2835889, Lng : -123.114978, Q1 : 0.818477511406, Q2 : 0.0138803552836, Q3 : -0.127640157938, Q4 : 0.560008823872}
2019-04-14 20:56:16.01: SIM {TimeUS : 57034677, Roll : -5.55, Pitch : -13.51, Yaw : 67.29, Alt : 49.2700004578, Lat : 49.2835903, Lng : -123.1149752, Q1 : 0.828864991665, Q2 : 0.0250856652856, Q3 : -0.124523162842, Q4 : 0.5448371768}
2019-04-14 20:56:16.11: SIM {TimeUS : 57134637, Roll : -3.72, Pitch : -14.2, Yaw : 64.38, Alt : 49.2799987793, Lat : 49.283592, Lng : -123.1149724, Q1 : 0.841453611851, Q2 : 0.0385151803493, Q3 : -0.121751338243, Q4 : 0.525022864342}
2019-04-14 20:56:16.22: SIM {TimeUS : 57235430, Roll : -1.8, Pitch : -14.88, Yaw : 61.13, Alt : 49.2799987793, Lat : 49.2835935, Lng : -123.1149695, Q1 : 0.854726076126, Q2 : 0.0524436309934, Q3 : -0.119455464184, Q4 : 0.502417504787}
2019-04-14 20:56:16.31: SIM {TimeUS : 57335390, Roll : 0.02, Pitch : -15.41, Yaw : 57.89, Alt : 49.2799987793, Lat : 49.2835952, Lng : -123.1149665, Q1 : 0.867144167423, Q2 : 0.0650850757957, Q3 : -0.117293693125, Q4 : 0.479653149843}
2019-04-14 20:56:16.41: SIM {TimeUS : 57435350, Roll : 1.57, Pitch : -15.74, Yaw : 54.98, Alt : 49.2799987793, Lat : 49.2835969, Lng : -123.1149634, Q1 : 0.877742946148, Q2 : 0.0753445327282, Q3 : -0.115210428834, Q4 : 0.458930402994}
2019-04-14 20:56:16.51: SIM {TimeUS : 57535310, Roll : 2.74, Pitch : -15.87, Yaw : 52.68, Alt : 49.2799987793, Lat : 49.2835984, Lng : -123.1149601, Q1 : 0.885862410069, Q2 : 0.0825384706259, Q3 : -0.113179728389, Q4 : 0.442295789719}
2019-04-14 20:56:16.61: SIM {TimeUS : 57635270, Roll : 3.44, Pitch : -15.86, Yaw : 51.13, Alt : 49.2799987793, Lat : 49.2836001, Lng : -123.1149567, Q1 : 0.891250312328, Q2 : 0.0864012911916, Q3 : -0.111560299993, Q4 : 0.431001126766}
2019-04-14 20:56:16.71: SIM {TimeUS : 57735230, Roll : 3.66, Pitch : -15.8, Yaw : 50.39, Alt : 49.2799987793, Lat : 49.2836019, Lng : -123.1149531, Q1 : 0.893932580948, Q2 : 0.0871584564447, Q3 : -0.110825657845, Q4 : 0.425447613001}
2019-04-14 20:56:16.81: SIM {TimeUS : 57835190, Roll : 3.47, Pitch : -15.76, Yaw : 50.39, Alt : 49.2799987793, Lat : 49.2836035, Lng : -123.1149496, Q1 : 0.89411687851, Q2 : 0.0855071991682, Q3 : -0.111265040934, Q4 : 0.425280630589}
2019-04-14 20:56:16.91: SIM {TimeUS : 57935150, Roll : 2.94, Pitch : -15.8, Yaw : 51.0, Alt : 49.2799987793, Lat : 49.2836051, Lng : -123.1149459, Q1 : 0.892160892487, Q2 : 0.0821674987674, Q3 : -0.113125398755, Q4 : 0.429534763098}
2019-04-14 20:56:17.01: SIM {TimeUS : 58035110, Roll : 2.18, Pitch : -15.92, Yaw : 52.06, Alt : 49.2799987793, Lat : 49.2836068, Lng : -123.1149421, Q1 : 0.88856869936, Q2 : 0.0777658522129, Q3 : -0.11616486311, Q4 : 0.436925500631}
2019-04-14 20:56:17.11: SIM {TimeUS : 58135070, Roll : 1.3, Pitch : -16.08, Yaw : 53.36, Alt : 49.2799987793, Lat : 49.2836086, Lng : -123.1149381, Q1 : 0.883935213089, Q2 : 0.0728770643473, Q3 : -0.119959414005, Q4 : 0.446046233177}
2019-04-14 20:56:17.21: SIM {TimeUS : 58235030, Roll : 0.41, Pitch : -16.22, Yaw : 54.74, Alt : 49.2799987793, Lat : 49.2836104, Lng : -123.1149342, Q1 : 0.878915905952, Q2 : 0.0680976435542, Q3 : -0.12367400527, Q4 : 0.455603212118}
2019-04-14 20:56:17.31: SIM {TimeUS : 58334990, Roll : -0.34, Pitch : -16.32, Yaw : 56.02, Alt : 49.2900009155, Lat : 49.2836121, Lng : -123.1149301, Q1 : 0.87410980463, Q2 : 0.0640614256263, Q3 : -0.126768901944, Q4 : 0.464497447014}
2019-04-14 20:56:17.41: SIM {TimeUS : 58434950, Roll : -0.95, Pitch : -16.39, Yaw : 57.08, Alt : 49.2900009155, Lat : 49.2836139, Lng : -123.114926, Q1 : 0.870042681694, Q2 : 0.0608866736293, Q3 : -0.129150807858, Q4 : 0.471845984459}
2019-04-14 20:56:17.51: SIM {TimeUS : 58534910, Roll : -1.33, Pitch : -16.42, Yaw : 57.84, Alt : 49.2900009155, Lat : 49.2836158, Lng : -123.1149219, Q1 : 0.867049217224, Q2 : 0.0590125955641, Q3 : -0.130613088608, Q4 : 0.47716191411}
2019-04-14 20:56:17.61: SIM {TimeUS : 58634870, Roll : -1.48, Pitch : -16.42, Yaw : 58.27, Alt : 49.2900009155, Lat : 49.2836176, Lng : -123.1149177, Q1 : 0.865329802036, Q2 : 0.058351945132, Q3 : -0.131015822291, Q4 : 0.48024392128}
2019-04-14 20:56:17.71: SIM {TimeUS : 58734830, Roll : -1.44, Pitch : -16.42, Yaw : 58.38, Alt : 49.2900009155, Lat : 49.2836195, Lng : -123.1149134, Q1 : 0.864848434925, Q2 : 0.0587428063154, Q3 : -0.130770772696, Q4 : 0.48112937808}
2019-04-14 20:56:17.81: SIM {TimeUS : 58834790, Roll : -1.26, Pitch : -16.44, Yaw : 58.21, Alt : 49.2900009155, Lat : 49.2836214, Lng : -123.1149091, Q1 : 0.865420281887, Q2 : 0.060032941401, Q3 : -0.130298644304, Q4 : 0.480068802834}
2019-04-14 20:56:17.91: SIM {TimeUS : 58934750, Roll : -0.98, Pitch : -16.5, Yaw : 57.84, Alt : 49.2900009155, Lat : 49.2836233, Lng : -123.1149048, Q1 : 0.866783618927, Q2 : 0.0619727559388, Q3 : -0.129789173603, Q4 : 0.477493792772}
2019-04-14 20:56:18.01: SIM {TimeUS : 59034710, Roll : -0.65, Pitch : -16.59, Yaw : 57.32, Alt : 49.2900009155, Lat : 49.2836254, Lng : -123.1149004, Q1 : 0.868639826775, Q2 : 0.0642696171999, Q3 : -0.129327818751, Q4 : 0.473928898573}
2019-04-14 20:56:18.11: SIM {TimeUS : 59134670, Roll : -0.31, Pitch : -16.66, Yaw : 56.75, Alt : 49.2900009155, Lat : 49.2836274, Lng : -123.1148959, Q1 : 0.870717346668, Q2 : 0.0665342211723, Q3 : -0.128793865442, Q4 : 0.469932705164}
2019-04-14 20:56:18.21: SIM {TimeUS : 59234630, Roll : 0.01, Pitch : -16.72, Yaw : 56.19, Alt : 49.2900009155, Lat : 49.2836293, Lng : -123.1148915, Q1 : 0.87274569273, Q2 : 0.0686244219542, Q3 : -0.128208056092, Q4 : 0.466013342142}
2019-04-14 20:56:18.32: SIM {TimeUS : 59335423, Roll : 0.29, Pitch : -16.75, Yaw : 55.7, Alt : 49.2900009155, Lat : 49.2836315, Lng : -123.114887, Q1 : 0.874531745911, Q2 : 0.0703717768192, Q3 : -0.127640321851, Q4 : 0.462547242641}
2019-04-14 20:56:18.41: SIM {TimeUS : 59435383, Roll : 0.5, Pitch : -16.78, Yaw : 55.32, Alt : 49.2900009155, Lat : 49.2836335, Lng : -123.1148824, Q1 : 0.87590354681, Q2 : 0.071607068181, Q3 : -0.127227693796, Q4 : 0.459867954254}
2019-04-14 20:56:18.51: SIM {TimeUS : 59535343, Roll : 0.62, Pitch : -16.8, Yaw : 55.07, Alt : 49.2900009155, Lat : 49.2836355, Lng : -123.1148777, Q1 : 0.876798689365, Q2 : 0.072327002883, Q3 : -0.127073854208, Q4 : 0.458088546991}
2019-04-14 20:56:18.61: SIM {TimeUS : 59635303, Roll : 0.66, Pitch : -16.82, Yaw : 54.96, Alt : 49.2900009155, Lat : 49.2836376, Lng : -123.1148732, Q1 : 0.877214848995, Q2 : 0.0725892856717, Q3 : -0.127158716321, Q4 : 0.457226008177}
2019-04-14 20:56:18.71: SIM {TimeUS : 59735263, Roll : 0.62, Pitch : -16.84, Yaw : 54.96, Alt : 49.2900009155, Lat : 49.2836396, Lng : -123.1148685, Q1 : 0.877199113369, Q2 : 0.072381734848, Q3 : -0.127492234111, Q4 : 0.45719614625}
2019-04-14 20:56:18.81: SIM {TimeUS : 59835223, Roll : 0.52, Pitch : -16.87, Yaw : 55.06, Alt : 49.2900009155, Lat : 49.2836418, Lng : -123.1148638, Q1 : 0.876826107502, Q2 : 0.0718603283167, Q3 : -0.128018841147, Q4 : 0.45784637332}
2019-04-14 20:56:18.91: SIM {TimeUS : 59935183, Roll : 0.38, Pitch : -16.92, Yaw : 55.23, Alt : 49.2900009155, Lat : 49.2836439, Lng : -123.1148591, Q1 : 0.876185595989, Q2 : 0.0711765512824, Q3 : -0.128810405731, Q4 : 0.458956003189}
2019-04-14 20:56:19.01: SIM {TimeUS : 60035143, Roll : 0.23, Pitch : -16.97, Yaw : 55.43, Alt : 49.2999992371, Lat : 49.283646, Lng : -123.1148543, Q1 : 0.875397026539, Q2 : 0.0704572424293, Q3 : -0.129717841744, Q4 : 0.460314124823}
2019-04-14 20:56:19.11: SIM {TimeUS : 60135103, Roll : 0.06, Pitch : -17.02, Yaw : 55.64, Alt : 49.2999992371, Lat : 49.2836481, Lng : -123.1148495, Q1 : 0.874602138996, Q2 : 0.069590523839, Q3 : -0.130624622107, Q4 : 0.461698532104}
2019-04-14 20:56:19.21: SIM {TimeUS : 60235063, Roll : -0.09, Pitch : -17.05, Yaw : 55.83, Alt : 49.2999992371, Lat : 49.2836501, Lng : -123.1148446, Q1 : 0.873895943165, Q2 : 0.0687323436141, Q3 : -0.13139078021, Q4 : 0.462945133448}
2019-04-14 20:56:19.31: SIM {TimeUS : 60335023, Roll : -0.21, Pitch : -17.07, Yaw : 55.98, Alt : 49.2999992371, Lat : 49.2836524, Lng : -123.1148398, Q1 : 0.873344004154, Q2 : 0.0680393502116, Q3 : -0.131995126605, Q4 : 0.46391621232}
2019-04-14 20:56:19.41: SIM {TimeUS : 60434983, Roll : -0.28, Pitch : -17.11, Yaw : 56.08, Alt : 49.2999992371, Lat : 49.2836545, Lng : -123.1148349, Q1 : 0.872954249382, Q2 : 0.0677814558148, Q3 : -0.132487803698, Q4 : 0.464546650648}
2019-04-14 20:56:19.51: SIM {TimeUS : 60534943, Roll : -0.3, Pitch : -17.15, Yaw : 56.12, Alt : 49.2999992371, Lat : 49.2836566, Lng : -123.11483, Q1 : 0.872759819031, Q2 : 0.0678459629416, Q3 : -0.132801085711, Q4 : 0.464813023806}
2019-04-14 20:56:19.61: SIM {TimeUS : 60634903, Roll : -0.26, Pitch : -17.18, Yaw : 56.11, Alt : 49.2999992371, Lat : 49.2836589, Lng : -123.1148251, Q1 : 0.872748196125, Q2 : 0.0682535544038, Q3 : -0.132946610451, Q4 : 0.464733541012}
2019-04-14 20:56:19.71: SIM {TimeUS : 60734863, Roll : -0.19, Pitch : -17.22, Yaw : 56.05, Alt : 49.2999992371, Lat : 49.283661, Lng : -123.1148201, Q1 : 0.872895956039, Q2 : 0.0688710361719, Q3 : -0.133014008403, Q4 : 0.46434545517}
2019-04-14 20:56:19.81: SIM {TimeUS : 60834823, Roll : -0.11, Pitch : -17.26, Yaw : 55.96, Alt : 49.2999992371, Lat : 49.2836633, Lng : -123.1148151, Q1 : 0.873179972172, Q2 : 0.0695093721151, Q3 : -0.133026599884, Q4 : 0.463712275028}
2019-04-14 20:56:19.91: SIM {TimeUS : 60934783, Roll : -0.05, Pitch : -17.28, Yaw : 55.84, Alt : 49.2999992371, Lat : 49.2836655, Lng : -123.1148102, Q1 : 0.873563826084, Q2 : 0.0699567943811, Q3 : -0.133037909865, Q4 : 0.462918132544}
2019-04-14 20:56:20.01: SIM {TimeUS : 61034743, Roll : -0.01, Pitch : -17.3, Yaw : 55.73, Alt : 49.3100013733, Lat : 49.2836676, Lng : -123.1148051, Q1 : 0.87399828434, Q2 : 0.0701966658235, Q3 : -0.133044615388, Q4 : 0.462059050798}
2019-04-14 20:56:20.11: SIM {TimeUS : 61134703, Roll : 0.04, Pitch : -17.3, Yaw : 55.61, Alt : 49.3100013733, Lat : 49.2836699, Lng : -123.1148001, Q1 : 0.874415516853, Q2 : 0.0704907402396, Q3 : -0.132887229323, Q4 : 0.461269468069}
2019-04-14 20:56:20.21: SIM {TimeUS : 61234663, Roll : 0.09, Pitch : -17.3, Yaw : 55.52, Alt : 49.3100013733, Lat : 49.2836722, Lng : -123.1147951, Q1 : 0.874771535397, Q2 : 0.0708274841309, Q3 : -0.132747724652, Q4 : 0.46058255434}
2019-04-14 20:56:20.31: SIM {TimeUS : 61334623, Roll : 0.16, Pitch : -17.33, Yaw : 55.44, Alt : 49.3100013733, Lat : 49.2836743, Lng : -123.11479, Q1 : 0.875009953976, Q2 : 0.071358717978, Q3 : -0.132775679231, Q4 : 0.460039258003}
2019-04-14 20:56:20.42: SIM {TimeUS : 61435416, Roll : 0.21, Pitch : -17.39, Yaw : 55.38, Alt : 49.3100013733, Lat : 49.2836767, Lng : -123.1147849, Q1 : 0.875138878822, Q2 : 0.0718757808208, Q3 : -0.133023962379, Q4 : 0.45964166522}
2019-04-14 20:56:20.51: SIM {TimeUS : 61535376, Roll : 0.23, Pitch : -17.41, Yaw : 55.35, Alt : 49.3100013733, Lat : 49.283679, Lng : -123.1147798, Q1 : 0.875217437744, Q2 : 0.0721195116639, Q3 : -0.133167147636, Q4 : 0.459412395954}
2019-04-14 20:56:20.61: SIM {TimeUS : 61635336, Roll : 0.23, Pitch : -17.41, Yaw : 55.34, Alt : 49.3100013733, Lat : 49.2836811, Lng : -123.1147747, Q1 : 0.87525755167, Q2 : 0.0721190348268, Q3 : -0.133157551289, Q4 : 0.459338903427}
2019-04-14 20:56:20.71: SIM {TimeUS : 61735296, Roll : 0.2, Pitch : -17.42, Yaw : 55.35, Alt : 49.3100013733, Lat : 49.2836834, Lng : -123.1147695, Q1 : 0.875237345695, Q2 : 0.071942768991, Q3 : -0.133361250162, Q4 : 0.459345877171}
2019-04-14 20:56:20.81: SIM {TimeUS : 61835256, Roll : 0.15, Pitch : -17.45, Yaw : 55.36, Alt : 49.3100013733, Lat : 49.2836858, Lng : -123.1147644, Q1 : 0.875165164471, Q2 : 0.071695625782, Q3 : -0.133748233318, Q4 : 0.459409475327}
2019-04-14 20:56:20.91: SIM {TimeUS : 61935216, Roll : 0.11, Pitch : -17.48, Yaw : 55.39, Alt : 49.3100013733, Lat : 49.2836881, Lng : -123.1147592, Q1 : 0.875059664249, Q2 : 0.0715309455991, Q3 : -0.134126514196, Q4 : 0.459525853395}
2019-04-14 20:56:21.01: SIM {TimeUS : 62035176, Roll : 0.08, Pitch : -17.52, Yaw : 55.41, Alt : 49.3100013733, Lat : 49.2836904, Lng : -123.114754, Q1 : 0.87493622303, Q2 : 0.0714870840311, Q3 : -0.134516879916, Q4 : 0.459653645754}
2019-04-14 20:56:21.11: SIM {TimeUS : 62135136, Roll : 0.06, Pitch : -17.55, Yaw : 55.43, Alt : 49.3199996948, Lat : 49.2836926, Lng : -123.1147489, Q1 : 0.87483549118, Q2 : 0.07148758322, Q3 : -0.134773209691, Q4 : 0.459770202637}
2019-04-14 20:56:21.21: SIM {TimeUS : 62235096, Roll : 0.06, Pitch : -17.57, Yaw : 55.44, Alt : 49.3199996948, Lat : 49.2836949, Lng : -123.1147436, Q1 : 0.874766170979, Q2 : 0.0715466886759, Q3 : -0.134953990579, Q4 : 0.459839820862}
2019-04-14 20:56:21.31: SIM {TimeUS : 62335056, Roll : 0.07, Pitch : -17.57, Yaw : 55.45, Alt : 49.3199996948, Lat : 49.2836973, Lng : -123.1147384, Q1 : 0.874742865562, Q2 : 0.0716392621398, Q3 : -0.13494963944, Q4 : 0.459871023893}
2019-04-14 20:56:21.41: SIM {TimeUS : 62435016, Roll : 0.09, Pitch : -17.59, Yaw : 55.44, Alt : 49.3199996948, Lat : 49.2836996, Lng : -123.1147332, Q1 : 0.874742150307, Q2 : 0.0718642622232, Q3 : -0.134967148304, Q4 : 0.459832131863}
2019-04-14 20:56:21.51: SIM {TimeUS : 62534976, Roll : 0.12, Pitch : -17.61, Yaw : 55.42, Alt : 49.3199996948, Lat : 49.2837018, Lng : -123.114728, Q1 : 0.874764978886, Q2 : 0.0721274986863, Q3 : -0.135034397244, Q4 : 0.459727734327}
2019-04-14 20:56:21.61: SIM {TimeUS : 62634936, Roll : 0.13, Pitch : -17.64, Yaw : 55.4, Alt : 49.3199996948, Lat : 49.2837042, Lng : -123.1147227, Q1 : 0.874814510345, Q2 : 0.0723050609231, Q3 : -0.135243982077, Q4 : 0.459543943405}
2019-04-14 20:56:21.71: SIM {TimeUS : 62734896, Roll : 0.12, Pitch : -17.68, Yaw : 55.37, Alt : 49.3199996948, Lat : 49.2837065, Lng : -123.1147175, Q1 : 0.874882340431, Q2 : 0.072359636426, Q3 : -0.135599181056, Q4 : 0.45930147171}
2019-04-14 20:56:21.81: SIM {TimeUS : 62834856, Roll : 0.11, Pitch : -17.72, Yaw : 55.34, Alt : 49.3199996948, Lat : 49.2837089, Lng : -123.1147122, Q1 : 0.874953269958, Q2 : 0.0724480003119, Q3 : -0.135971814394, Q4 : 0.459042191505}
2019-04-14 20:56:21.91: SIM {TimeUS : 62934816, Roll : 0.13, Pitch : -17.75, Yaw : 55.31, Alt : 49.3199996948, Lat : 49.2837113, Lng : -123.1147068, Q1 : 0.875028073788, Q2 : 0.0726494118571, Q3 : -0.136165052652, Q4 : 0.458810448647}
2019-04-14 20:56:22.01: SIM {TimeUS : 63034776, Roll : 0.14, Pitch : -17.76, Yaw : 55.29, Alt : 49.3199996948, Lat : 49.2837136, Lng : -123.1147016, Q1 : 0.875123977661, Q2 : 0.0727695524693, Q3 : -0.136177316308, Q4 : 0.458604812622}
2019-04-14 20:56:22.11: SIM {TimeUS : 63134736, Roll : 0.16, Pitch : -17.74, Yaw : 55.26, Alt : 49.3199996948, Lat : 49.283716, Lng : -123.1146963, Q1 : 0.875241100788, Q2 : 0.0727726817131, Q3 : -0.136021330953, Q4 : 0.458427071571}
2019-04-14 20:56:22.21: SIM {TimeUS : 63234696, Roll : 0.15, Pitch : -17.73, Yaw : 55.24, Alt : 49.3199996948, Lat : 49.2837184, Lng : -123.114691, Q1 : 0.875351369381, Q2 : 0.0726227089763, Q3 : -0.13593518734, Q4 : 0.458265930414}
2019-04-14 20:56:22.31: SIM {TimeUS : 63334656, Roll : 0.14, Pitch : -17.71, Yaw : 55.22, Alt : 49.3199996948, Lat : 49.2837206, Lng : -123.1146856, Q1 : 0.875447154045, Q2 : 0.0724960416555, Q3 : -0.135843873024, Q4 : 0.458130031824}
2019-04-14 20:56:22.41: SIM {TimeUS : 63434616, Roll : 0.14, Pitch : -17.7, Yaw : 55.21, Alt : 49.3199996948, Lat : 49.283723, Lng : -123.1146803, Q1 : 0.875514984131, Q2 : 0.072424069047, Q3 : -0.135767042637, Q4 : 0.458034455776}
2019-04-14 20:56:22.51: SIM {TimeUS : 63535409, Roll : 0.14, Pitch : -17.71, Yaw : 55.19, Alt : 49.3199996948, Lat : 49.2837254, Lng : -123.1146749, Q1 : 0.875550091267, Q2 : 0.0724094957113, Q3 : -0.135861068964, Q4 : 0.457941859961}
2019-04-14 20:56:22.61: SIM {TimeUS : 63635369, Roll : 0.14, Pitch : -17.72, Yaw : 55.19, Alt : 49.3300018311, Lat : 49.2837278, Lng : -123.1146695, Q1 : 0.875567436218, Q2 : 0.0724703073502, Q3 : -0.136000588536, Q4 : 0.457857608795}
2019-04-14 20:56:22.71: SIM {TimeUS : 63735329, Roll : 0.13, Pitch : -17.77, Yaw : 55.18, Alt : 49.3300018311, Lat : 49.2837302, Lng : -123.1146642, Q1 : 0.875552892685, Q2 : 0.0725834444165, Q3 : -0.136374399066, Q4 : 0.457756370306}
2019-04-14 20:56:22.81: SIM {TimeUS : 63835289, Roll : 0.13, Pitch : -17.82, Yaw : 55.17, Alt : 49.3300018311, Lat : 49.2837326, Lng : -123.1146588, Q1 : 0.87552511692, Q2 : 0.0727616772056, Q3 : -0.136791497469, Q4 : 0.457656592131}
2019-04-14 20:56:22.91: SIM {TimeUS : 63935249, Roll : 0.13, Pitch : -17.86, Yaw : 55.16, Alt : 49.3300018311, Lat : 49.283735, Lng : -123.1146534, Q1 : 0.875508487225, Q2 : 0.0729566663504, Q3 : -0.137059241533, Q4 : 0.457577317953}
2019-04-14 20:56:23.01: SIM {TimeUS : 64035209, Roll : 0.13, Pitch : -17.89, Yaw : 55.15, Alt : 49.3300018311, Lat : 49.2837374, Lng : -123.1146481, Q1 : 0.875504255295, Q2 : 0.0730610787868, Q3 : -0.137324929237, Q4 : 0.457489103079}
2019-04-14 20:56:23.11: SIM {TimeUS : 64135169, Roll : 0.13, Pitch : -17.91, Yaw : 55.14, Alt : 49.3300018311, Lat : 49.2837398, Lng : -123.1146427, Q1 : 0.875519216061, Q2 : 0.0730900540948, Q3 : -0.137503787875, Q4 : 0.457402139902}
2019-04-14 20:56:23.21: SIM {TimeUS : 64235129, Roll : 0.14, Pitch : -17.9, Yaw : 55.13, Alt : 49.3300018311, Lat : 49.2837422, Lng : -123.1146373, Q1 : 0.875560164452, Q2 : 0.0731470435858, Q3 : -0.137380257249, Q4 : 0.457351744175}
2019-04-14 20:56:23.31: SIM {TimeUS : 64335089, Roll : 0.17, Pitch : -17.91, Yaw : 55.12, Alt : 49.3300018311, Lat : 49.2837446, Lng : -123.1146319, Q1 : 0.875584959984, Q2 : 0.0733424499631, Q3 : -0.137328058481, Q4 : 0.457288593054}
2019-04-14 20:56:23.41: SIM {TimeUS : 64435049, Roll : 0.18, Pitch : -17.92, Yaw : 55.11, Alt : 49.3300018311, Lat : 49.283747, Lng : -123.1146264, Q1 : 0.875608146191, Q2 : 0.0734856799245, Q3 : -0.137413159013, Q4 : 0.45719563961}
2019-04-14 20:56:23.51: SIM {TimeUS : 64535009, Roll : 0.19, Pitch : -17.93, Yaw : 55.1, Alt : 49.3300018311, Lat : 49.2837495, Lng : -123.114621, Q1 : 0.875640809536, Q2 : 0.0735954046249, Q3 : -0.137446150184, Q4 : 0.45710554719}
2019-04-14 20:56:23.61: SIM {TimeUS : 64634969, Roll : 0.2, Pitch : -17.93, Yaw : 55.08, Alt : 49.3300018311, Lat : 49.2837519, Lng : -123.1146156, Q1 : 0.875694215298, Q2 : 0.0736198946834, Q3 : -0.137374684215, Q4 : 0.457020699978}
2019-04-14 20:56:23.71: SIM {TimeUS : 64734929, Roll : 0.2, Pitch : -17.93, Yaw : 55.07, Alt : 49.3300018311, Lat : 49.2837543, Lng : -123.1146102, Q1 : 0.87575006485, Q2 : 0.0735789239407, Q3 : -0.13738322258, Q4 : 0.456917762756}
2019-04-14 20:56:23.81: SIM {TimeUS : 64834889, Roll : 0.17, Pitch : -17.94, Yaw : 55.06, Alt : 49.3300018311, Lat : 49.2837567, Lng : -123.1146047, Q1 : 0.875795006752, Q2 : 0.0734474360943, Q3 : -0.137615159154, Q4 : 0.456782996655}
2019-04-14 20:56:23.91: SIM {TimeUS : 64934849, Roll : 0.14, Pitch : -17.98, Yaw : 55.04, Alt : 49.3300018311, Lat : 49.2837591, Lng : -123.1145993, Q1 : 0.875820279121, Q2 : 0.073314242065, Q3 : -0.138076022267, Q4 : 0.456616818905}
2019-04-14 20:56:24.01: SIM {TimeUS : 65034809, Roll : 0.12, Pitch : -17.99, Yaw : 55.03, Alt : 49.3300018311, Lat : 49.2837616, Lng : -123.1145938, Q1 : 0.875869512558, Q2 : 0.0731902942061, Q3 : -0.138237968087, Q4 : 0.456493288279}
2019-04-14 20:56:24.11: SIM {TimeUS : 65134769, Roll : 0.12, Pitch : -17.98, Yaw : 55.02, Alt : 49.3400001526, Lat : 49.283764, Lng : -123.1145884, Q1 : 0.875927388668, Q2 : 0.0731876939535, Q3 : -0.138117387891, Q4 : 0.456419169903}
2019-04-14 20:56:24.21: SIM {TimeUS : 65234729, Roll : 0.14, Pitch : -17.97, Yaw : 55.01, Alt : 49.3400001526, Lat : 49.2837664, Lng : -123.1145828, Q1 : 0.8759765625, Q2 : 0.0732711181045, Q3 : -0.137964338064, Q4 : 0.456357628107}
2019-04-14 20:56:24.31: SIM {TimeUS : 65334689, Roll : 0.16, Pitch : -17.97, Yaw : 55.0, Alt : 49.3400001526, Lat : 49.2837689, Lng : -123.1145773, Q1 : 0.876010358334, Q2 : 0.0733947306871, Q3 : -0.13794504106, Q4 : 0.456278711557}
2019-04-14 20:56:24.41: SIM {TimeUS : 65434649, Roll : 0.15, Pitch : -17.99, Yaw : 54.98, Alt : 49.3400001526, Lat : 49.2837713, Lng : -123.1145719, Q1 : 0.876040220261, Q2 : 0.0733906403184, Q3 : -0.138131901622, Q4 : 0.456165403128}
2019-04-14 20:56:24.52: SIM {TimeUS : 65535442, Roll : 0.12, Pitch : -18.02, Yaw : 54.97, Alt : 49.3400001526, Lat : 49.2837738, Lng : -123.1145664, Q1 : 0.876073241234, Q2 : 0.0732788145542, Q3 : -0.13842138648, Q4 : 0.456032335758}
2019-04-14 20:56:24.61: SIM {TimeUS : 65635402, Roll : 0.11, Pitch : -18.03, Yaw : 54.96, Alt : 49.3400001526, Lat : 49.2837762, Lng : -123.1145609, Q1 : 0.876108586788, Q2 : 0.0732159093022, Q3 : -0.138616085052, Q4 : 0.455915421247}
2019-04-14 20:56:24.71: SIM {TimeUS : 65735362, Roll : 0.11, Pitch : -18.05, Yaw : 54.95, Alt : 49.3400001526, Lat : 49.2837787, Lng : -123.1145555, Q1 : 0.876131296158, Q2 : 0.0733120217919, Q3 : -0.13875323534, Q4 : 0.455814510584}
2019-04-14 20:56:24.81: SIM {TimeUS : 65835322, Roll : 0.13, Pitch : -18.07, Yaw : 54.94, Alt : 49.3400001526, Lat : 49.2837811, Lng : -123.11455, Q1 : 0.876149237156, Q2 : 0.0734581127763, Q3 : -0.138844788074, Q4 : 0.455728679895}
2019-04-14 20:56:24.91: SIM {TimeUS : 65935282, Roll : 0.15, Pitch : -18.08, Yaw : 54.93, Alt : 49.3400001526, Lat : 49.2837836, Lng : -123.1145445, Q1 : 0.876154601574, Q2 : 0.0737144425511, Q3 : -0.138832286, Q4 : 0.455680698156}
2019-04-14 20:56:25.01: SIM {TimeUS : 66035242, Roll : 0.17, Pitch : -18.1, Yaw : 54.92, Alt : 49.3400001526, Lat : 49.283786, Lng : -123.114539, Q1 : 0.876153945923, Q2 : 0.0739190876484, Q3 : -0.138917908072, Q4 : 0.455622673035}
2019-04-14 20:56:25.11: SIM {TimeUS : 66135202, Roll : 0.19, Pitch : -18.12, Yaw : 54.91, Alt : 49.3400001526, Lat : 49.2837885, Lng : -123.1145335, Q1 : 0.876151740551, Q2 : 0.0741173103452, Q3 : -0.139022484422, Q4 : 0.455562889576}
2019-04-14 20:56:25.21: SIM {TimeUS : 66235162, Roll : 0.21, Pitch : -18.14, Yaw : 54.9, Alt : 49.3400001526, Lat : 49.283791, Lng : -123.114528, Q1 : 0.87615031004, Q2 : 0.0743264779449, Q3 : -0.139066964388, Q4 : 0.455517977476}
2019-04-14 20:56:25.31: SIM {TimeUS : 66335122, Roll : 0.24, Pitch : -18.15, Yaw : 54.89, Alt : 49.3400001526, Lat : 49.2837934, Lng : -123.1145225, Q1 : 0.8761459589, Q2 : 0.0746092647314, Q3 : -0.138996139169, Q4 : 0.45550173521}
2019-04-14 20:56:25.41: SIM {TimeUS : 66435082, Roll : 0.27, Pitch : -18.15, Yaw : 54.89, Alt : 49.3499984741, Lat : 49.2837959, Lng : -123.114517, Q1 : 0.876141786575, Q2 : 0.0748369991779, Q3 : -0.138960167766, Q4 : 0.455483347178}
