2019-04-14 23:10:29.20: SIM {TimeUS : 40416327, Roll : 0.0, Pitch : 0.0, Yaw : 0.0, Alt : 30.1000003815, Lat : 49.28357, Lng : -123.11502, Q1 : 1.0, Q2 : 0.0, Q3 : 0.0, Q4 : 0.0}
2019-04-14 23:10:29.31: SIM {TimeUS : 40535446, Roll : 0.0, Pitch : 0.0, Yaw : 0.0, Alt : 30.1000003815, Lat : 49.28357, Lng : -123.11502, Q1 : 1.0, Q2 : 0.0, Q3 : 0.0, Q4 : 0.0}
2019-04-14 23:10:29.41: SIM {TimeUS : 40635406, Roll : 0.0, Pitch : 0.0, Yaw : 0.0, Alt : 30.1000003815, Lat : 49.28357, Lng : -123.11502, Q1 : 1.0, Q2 : 0.0, Q3 : 0.0, Q4 : 0.0}
2019-04-14 23:10:29.51: SIM {TimeUS : 40735366, Roll : 0.0, Pitch : 0.0, Yaw : 0.0, Alt : 30.1000003815, Lat : 49.28357, Lng : -123.11502, Q1 : 1.0, Q2 : 0.0, Q3 : 0.0, Q4 : 0.0}
2019-04-14 23:10:29.61: SIM {TimeUS : 40835326, Roll : 0.0, Pitch : 0.0, Yaw : 0.0, Alt : 30.1000003815, Lat : 49.28357, Lng : -123.11502, Q1 : 1.0, Q2 : 0.0, Q3 : 0.0, Q4 : 0.0}
2019-04-14 23:10:29.71: SIM {TimeUS : 40935286, Roll : 0.0, Pitch : 0.0, Yaw : 0.0, Alt : 30.1000003815, Lat : 49.28357, Lng : -123.11502, Q1 : 1.0, Q2 : 0.0, Q3 : 0.0, Q4 : 0.0}
2019-04-14 23:10:29.81: SIM {TimeUS : 41035246, Roll : 0.0, Pitch : 0.0, Yaw : 0.0, Alt : 30.1000003815, Lat : 49.28357, Lng : -123.11502, Q1 : 1.0, Q2 : 0.0, Q3 : 0.0, Q4 : 0.0}
2019-04-14 23:10:29.91: SIM {TimeUS : 41135206, Roll : 0.0, Pitch : 0.0, Yaw : 0.0, Alt : 30.1000003815, Lat : 49.28357, Lng : -123.11502, Q1 : 1.0, Q2 : 0.0, Q3 : 0.0, Q4 : 0.0}
2019-04-14 23:10:30.01: SIM {TimeUS : 41235166, Roll : 0.0, Pitch : 0.0, Yaw : 0.0, Alt : 30.1000003815, Lat : 49.28357, Lng : -123.11502, Q1 : 1.0, Q2 : 0.0, Q3 : 0.0, Q4 : 0.0}
2019-04-14 23:10:30.11: SIM {TimeUS : 41335126, Roll : 0.0, Pitch : 0.0, Yaw : 0.0, Alt : 30.1000003815, Lat : 49.28357, Lng : -123.11502, Q1 : 1.0, Q2 : 0.0, Q3 : 0.0, Q4 : 0.0}
2019-04-14 23:10:30.21: SIM {TimeUS : 41435086, Roll : 0.0, Pitch : 0.0, Yaw : 0.0, Alt : 30.1000003815, Lat : 49.28357, Lng : -123.11502, Q1 : 1.0, Q2 : 0.0, Q3 : 0.0, Q4 : 0.0}
2019-04-14 23:10:30.31: SIM {TimeUS : 41535046, Roll : 0.0, Pitch : 0.0, Yaw : 0.0, Alt : 30.1000003815, Lat : 49.28357, Lng : -123.11502, Q1 : 1.0, Q2 : 0.0, Q3 : 0.0, Q4 : 0.0}
2019-04-14 23:10:30.41: SIM {TimeUS : 41635006, Roll : 0.0, Pitch : 0.0, Yaw : 0.0, Alt : 30.1000003815, Lat : 49.28357, Lng : -123.11502, Q1 : 1.0, Q2 : 0.0, Q3 : 0.0, Q4 : 0.0}
2019-04-14 23:10:30.51: SIM {TimeUS : 41734966, Roll : 0.0, Pitch : 0.0, Yaw : 0.0, Alt : 30.1000003815, Lat : 49.28357, Lng : -123.11502, Q1 : 1.0, Q2 : 0.0, Q3 : 0.0, Q4 : 0.0}
2019-04-14 23:10:30.61: SIM {TimeUS : 41834926, Roll : 0.0, Pitch : 0.0, Yaw : 0.0, Alt : 30.1000003815, Lat : 49.28357, Lng : -123.11502, Q1 : 1.0, Q2 : 0.0, Q3 : 0.0, Q4 : 0.0}
2019-04-14 23:10:30.71: SIM {TimeUS : 41934886, Roll : 0.0, Pitch : 0.0, Yaw : 0.0, Alt : 30.1000003815, Lat : 49.28357, Lng : -123.11502, Q1 : 1.0, Q2 : 0.0, Q3 : 0.0, Q4 : 0.0}
2019-04-14 23:10:30.81: SIM {TimeUS : 42034846, Roll : 0.0, Pitch : 0.0, Yaw : 0.0, Alt : 30.1000003815, Lat : 49.28357, Lng : -123.11502, Q1 : 1.0, Q2 : 0.0, Q3 : 0.0, Q4 : 0.0}
2019-04-14 23:10:30.91: SIM {TimeUS : 42134806, Roll : 0.0, Pitch : 0.0, Yaw : 0.0, Alt : 30.1000003815, Lat : 49.28357, Lng : -123.11502, Q1 : 1.0, Q2 : 0.0, Q3 : 0.0, Q4 : 0.0}
2019-04-14 23:10:31.01: SIM {TimeUS : 42234766, Roll : 0.0, Pitch : 0.0, Yaw : 0.0, Alt : 30.1000003815, Lat : 49.28357, Lng : -123.11502, Q1 : 1.0, Q2 : 0.0, Q3 : 0.0, Q4 : 0.0}
2019-04-14 23:10:31.11: SIM {TimeUS : 42334726, Roll : 0.0, Pitch : 0.0, Yaw : 0.0, Alt : 30.1000003815, Lat : 49.28357, Lng : -123.11502, Q1 : 1.0, Q2 : 0.0, Q3 : 0.0, Q4 : 0.0}
2019-04-14 23:10:31.21: SIM {TimeUS : 42434686, Roll : 0.0, Pitch : 0.0, Yaw : 0.0, Alt : 30.1000003815, Lat : 49.28357, Lng : -123.11502, Q1 : 1.0, Q2 : 0.0, Q3 : 0.0, Q4 : 0.0}
2019-04-14 23:10:31.31: SIM {TimeUS : 42535479, Roll : 0.0, Pitch : 0.0, Yaw : 0.0, Alt : 30.1000003815, Lat : 49.28357, Lng : -123.11502, Q1 : 1.0, Q2 : 0.0, Q3 : 0.0, Q4 : 0.0}
2019-04-14 23:10:31.41: SIM {TimeUS : 42635439, Roll : 0.0, Pitch : 0.0, Yaw : 0.0, Alt : 30.1000003815, Lat : 49.28357, Lng : -123.11502, Q1 : 1.0, Q2 : 0.0, Q3 : 0.0, Q4 : 0.0}
2019-04-14 23:10:31.51: SIM {TimeUS : 42735399, Roll : 0.0, Pitch : 0.0, Yaw : 0.0, Alt : 30.1000003815, Lat : 49.28357, Lng : -123.11502, Q1 : 1.0, Q2 : 0.0, Q3 : 0.0, Q4 : 1.50531601073e-10}
2019-04-14 23:10:31.61: SIM {TimeUS : 42835359, Roll : 0.0, Pitch : 0.0, Yaw : 360.0, Alt : 30.1000003815, Lat : 49.28357, Lng : -123.11502, Q1 : 1.0, Q2 : 0.0, Q3 : 0.0, Q4 : -3.19015214245e-08}
2019-04-14 23:10:31.71: SIM {TimeUS : 42935319, Roll : 0.0, Pitch : 0.0, Yaw : 359.99, Alt : 30.1000003815, Lat : 49.28357, Lng : -123.11502, Q1 : 1.0, Q2 : 0.0, Q3 : 0.0, Q4 : -2.33976592767e-07}
2019-04-14 23:10:31.81: SIM {TimeUS : 43035279, Roll : 0.0, Pitch : 0.0, Yaw : 359.99, Alt : 30.1000003815, Lat : 49.28357, Lng : -123.11502, Q1 : 1.0, Q2 : 0.0, Q3 : 0.0, Q4 : -4.05724364327e-07}
2019-04-14 23:10:31.91: SIM {TimeUS : 43135239, Roll : 0.0, Pitch : 0.0, Yaw : 359.99, Alt : 30.1000003815, Lat : 49.28357, Lng : -123.11502, Q1 : 1.0, Q2 : 0.0, Q3 : 0.0, Q4 : -5.90876595652e-07}
2019-04-14 23:10:32.01: SIM {TimeUS : 43235199, Roll : 0.0, Pitch : 0.0, Yaw : 359.99, Alt : 30.1000003815, Lat : 49.28357, Lng : -123.11502, Q1 : 1.0, Q2 : 0.0, Q3 : 0.0, Q4 : -7.59730141908e-07}
2019-04-14 23:10:32.11: SIM {TimeUS : 43335159, Roll : 0.0, Pitch : 0.0, Yaw : 359.99, Alt : 30.1000003815, Lat : 49.28357, Lng : -123.11502, Q1 : 1.0, Q2 : 0.0, Q3 : 0.0, Q4 : -9.44023724969e-07}
2019-04-14 23:10:32.21: SIM {TimeUS : 43435119, Roll : 0.0, Pitch : 0.0, Yaw : 359.99, Alt : 30.1000003815, Lat : 49.28357, Lng : -123.11502, Q1 : 1.0, Q2 : 0.0, Q3 : 0.0, Q4 : -1.13243572741e-06}
2019-04-14 23:10:32.31: SIM {TimeUS : 43535079, Roll : 0.0, Pitch : 0.0, Yaw : 359.99, Alt : 30.1000003815, Lat : 49.28357, Lng : -123.11502, Q1 : 1.0, Q2 : 0.0, Q3 : 0.0, Q4 : -1.33856656248e-06}
2019-04-14 23:10:32.41: SIM {TimeUS : 43635039, Roll : 0.0, Pitch : 0.0, Yaw : 359.99, Alt : 30.1200008392, Lat : 49.28357, Lng : -123.11502, Q1 : 1.0, Q2 : 0.0, Q3 : 0.0, Q4 : -1.5488402596e-06}
2019-04-14 23:10:32.51: SIM {TimeUS : 43734999, Roll : 0.0, Pitch : 0.0, Yaw : 359.99, Alt : 30.1499996185, Lat : 49.28357, Lng : -123.11502, Q1 : 1.0, Q2 : 0.0, Q3 : 0.0, Q4 : -1.7197504576e-06}
2019-04-14 23:10:32.61: SIM {TimeUS : 43834959, Roll : 0.0, Pitch : 0.0, Yaw : 359.99, Alt : 30.1800003052, Lat : 49.28357, Lng : -123.11502, Q1 : 1.0, Q2 : 0.0, Q3 : 0.0, Q4 : -1.95202915165e-06}
2019-04-14 23:10:32.71: SIM {TimeUS : 43934919, Roll : 0.0, Pitch : 0.0, Yaw : 359.99, Alt : 30.2099990845, Lat : 49.28357, Lng : -123.11502, Q1 : 1.0, Q2 : -1.36274875331e-05, Q3 : -1.21096163639e-05, Q4 : -2.23823349188e-06}
2019-04-14 23:10:32.81: SIM {TimeUS : 44034879, Roll : -0.18, Pitch : -0.17, Yaw : 359.99, Alt : 30.2700004578, Lat : 49.28357, Lng : -123.11502, Q1 : 0.999997496605, Q2 : -0.00164138246328, Q3 : -0.00150922476314, Q4 : -1.71936662809e-05}
2019-04-14 23:10:32.91: SIM {TimeUS : 44134839, Roll : -0.5, Pitch : -0.46, Yaw : 359.99, Alt : 30.3899993896, Lat : 49.28357, Lng : -123.11502, Q1 : 0.999982059002, Q2 : -0.00441386643797, Q3 : -0.00404610857368, Q4 : -5.95026831434e-05}
2019-04-14 23:10:33.01: SIM {TimeUS : 44234799, Roll : -0.77, Pitch : -0.69, Yaw : 359.99, Alt : 30.5400009155, Lat : 49.28357, Lng : -123.11502, Q1 : 0.999958872795, Q2 : -0.00674403365701, Q3 : -0.00606857798994, Q4 : -0.000125950668007}
2019-04-14 23:10:33.11: SIM {TimeUS : 44334759, Roll : -0.88, Pitch : -0.78, Yaw : 359.98, Alt : 30.7000007629, Lat : 49.28357, Lng : -123.11502, Q1 : 0.999946892262, Q2 : -0.00772855477408, Q3 : -0.00681389076635, Q4 : -0.000207900578971}
2019-04-14 23:10:33.21: SIM {TimeUS : 44434719, Roll : -0.81, Pitch : -0.73, Yaw : 359.97, Alt : 30.8600006104, Lat : 49.28357, Lng : -123.1150201, Q1 : 0.999954402447, Q2 : -0.00708761624992, Q3 : -0.00639145309106, Q4 : -0.000282888009679}
2019-04-14 23:10:33.31: SIM {TimeUS : 44534679, Roll : -0.62, Pitch : -0.57, Yaw : 359.96, Alt : 31.0100002289, Lat : 49.28357, Lng : -123.1150201, Q1 : 0.999972462654, Q2 : -0.00543507235125, Q3 : -0.00503480015323, Q4 : -0.000351802620571}
2019-04-14 23:10:33.41: SIM {TimeUS : 44635472, Roll : -0.39, Pitch : -0.36, Yaw : 359.95, Alt : 31.1700000763, Lat : 49.2835701, Lng : -123.1150202, Q1 : 0.999988853931, Q2 : -0.00346468482167, Q3 : -0.00317975180224, Q4 : -0.000416665105149}
2019-04-14 23:10:33.51: SIM {TimeUS : 44735432, Roll : -0.18, Pitch : -0.16, Yaw : 359.94, Alt : 31.3299999237, Lat : 49.2835701, Lng : -123.1150203, Q1 : 0.999997496605, Q2 : -0.00163917115424, Q3 : -0.00145951274317, Q4 : -0.000473727850476}
2019-04-14 23:10:33.61: SIM {TimeUS : 44835392, Roll : -0.03, Pitch : -0.02, Yaw : 359.94, Alt : 31.5, Lat : 49.2835702, Lng : -123.1150204, Q1 : 0.999999761581, Q2 : -0.000289206509478, Q3 : -0.000243834700086, Q4 : -0.000517909298651}
2019-04-14 23:10:33.71: SIM {TimeUS : 44935352, Roll : 0.05, Pitch : 0.04, Yaw : 359.93, Alt : 31.6800003052, Lat : 49.2835702, Lng : -123.1150205, Q1 : 0.999999642372, Q2 : 0.000482154486235, Q3 : 0.000385794759495, Q4 : -0.000548635842279}
2019-04-14 23:10:33.81: SIM {TimeUS : 45035312, Roll : 0.09, Pitch : 0.06, Yaw : 359.93, Alt : 31.8600006104, Lat : 49.2835703, Lng : -123.1150205, Q1 : 0.999999344349, Q2 : 0.000817790802103, Q3 : 0.000531733385287, Q4 : -0.000565319787711}
2019-04-14 23:10:33.91: SIM {TimeUS : 45135272, Roll : 0.1, Pitch : 0.04, Yaw : 359.93, Alt : 32.0400009155, Lat : 49.2835703, Lng : -123.1150206, Q1 : 0.999999344349, Q2 : 0.000894590397365, Q3 : 0.000401364522986, Q4 : -0.000559046515264}
2019-04-14 23:10:34.01: SIM {TimeUS : 45235232, Roll : 0.09, Pitch : 0.03, Yaw : 359.93, Alt : 32.2299995422, Lat : 49.2835703, Lng : -123.1150206, Q1 : 0.999999463558, Q2 : 0.000848167343065, Q3 : 0.000317989615723, Q4 : -0.000538616382983}
2019-04-14 23:10:34.11: SIM {TimeUS : 45335192, Roll : 0.08, Pitch : 0.05, Yaw : 359.94, Alt : 32.4199981689, Lat : 49.2835703, Lng : -123.1150207, Q1 : 0.999999523163, Q2 : 0.000724979676306, Q3 : 0.000449882092653, Q4 : -0.000505562056787}
2019-04-14 23:10:34.21: SIM {TimeUS : 45435152, Roll : 0.06, Pitch : 0.08, Yaw : 359.94, Alt : 32.6100006104, Lat : 49.2835703, Lng : -123.1150207, Q1 : 0.999999523163, Q2 : 0.000527503783815, Q3 : 0.000730832573026, Q4 : -0.000478767673485}
2019-04-14 23:10:34.31: SIM {TimeUS : 45535112, Roll : 0.06, Pitch : 0.12, Yaw : 359.94, Alt : 32.8100013733, Lat : 49.2835703, Lng : -123.1150208, Q1 : 0.99999910593, Q2 : 0.000592813594267, Q3 : 0.00112033693586, Q4 : -0.000462621101178}
2019-04-14 23:10:34.41: SIM {TimeUS : 45635072, Roll : 0.1, Pitch : 0.16, Yaw : 359.94, Alt : 33.0099983215, Lat : 49.2835704, Lng : -123.1150208, Q1 : 0.999998390675, Q2 : 0.000914122269023, Q3 : 0.0014527447056, Q4 : -0.000452682405012}
2019-04-14 23:10:34.51: SIM {TimeUS : 45735032, Roll : 0.14, Pitch : 0.19, Yaw : 359.94, Alt : 33.2099990845, Lat : 49.2835704, Lng : -123.1150208, Q1 : 0.999997675419, Q2 : 0.00127759366296, Q3 : 0.0016584180994, Q4 : -0.000452948879683}
2019-04-14 23:10:34.61: SIM {TimeUS : 45834992, Roll : 0.16, Pitch : 0.21, Yaw : 359.94, Alt : 33.4199981689, Lat : 49.2835704, Lng : -123.1150209, Q1 : 0.999997079372, Q2 : 0.00146039272659, Q3 : 0.00185706384946, Q4 : -0.000456044392195}
2019-04-14 23:10:34.71: SIM {TimeUS : 45934952, Roll : 0.17, Pitch : 0.19, Yaw : 359.94, Alt : 33.6199989319, Lat : 49.2835704, Lng : -123.1150209, Q1 : 0.999997258186, Q2 : 0.00156273832545, Q3 : 0.00168887502514, Q4 : -0.000477572495583}
2019-04-14 23:10:34.81: SIM {TimeUS : 46034912, Roll : 0.17, Pitch : 0.15, Yaw : 359.94, Alt : 33.8300018311, Lat : 49.2835704, Lng : -123.1150209, Q1 : 0.999997794628, Q2 : 0.00156210223213, Q3 : 0.00134001940023, Q4 : -0.000498057401273}
2019-04-14 23:10:34.91: SIM {TimeUS : 46134872, Roll : 0.16, Pitch : 0.12, Yaw : 359.94, Alt : 34.0400009155, Lat : 49.2835704, Lng : -123.1150209, Q1 : 0.999998271465, Q2 : 0.00140809838194, Q3 : 0.00106075848453, Q4 : -0.000519527297001}
2019-04-14 23:10:35.01: SIM {TimeUS : 46234832, Roll : 0.14, Pitch : 0.09, Yaw : 359.93, Alt : 34.25, Lat : 49.2835704, Lng : -123.1150209, Q1 : 0.999998688698, Q2 : 0.00125980982557, Q3 : 0.000869299168698, Q4 : -0.000544148264453}
2019-04-14 23:10:35.11: SIM {TimeUS : 46334792, Roll : 0.13, Pitch : 0.09, Yaw : 359.93, Alt : 34.4599990845, Lat : 49.2835704, Lng : -123.1150209, Q1 : 0.999998748302, Q2 : 0.00117808557115, Q3 : 0.00085782178212, Q4 : -0.000574962818064}
2019-04-14 23:10:35.21: SIM {TimeUS : 46434752, Roll : 0.11, Pitch : 0.08, Yaw : 359.93, Alt : 34.6800003052, Lat : 49.2835704, Lng : -123.1150209, Q1 : 0.999999046326, Q2 : 0.00103980710264, Q3 : 0.000733684981242, Q4 : -0.000600403291173}
2019-04-14 23:10:35.31: SIM {TimeUS : 46534712, Roll : 0.09, Pitch : 0.07, Yaw : 359.92, Alt : 34.8899993896, Lat : 49.2835704, Lng : -123.1150208, Q1 : 0.999999284744, Q2 : 0.00082522095181, Q3 : 0.00061914883554, Q4 : -0.000622537336312}
2019-04-14 23:10:35.41: SIM {TimeUS : 46634672, Roll : 0.06, Pitch : 0.06, Yaw : 359.92, Alt : 35.1100006104, Lat : 49.2835704, Lng : -123.1150208, Q1 : 0.999999463558, Q2 : 0.000592086173128, Q3 : 0.000526219548192, Q4 : -0.000644205021672}
2019-04-14 23:10:35.51: SIM {TimeUS : 46735465, Roll : 0.04, Pitch : 0.05, Yaw : 359.92, Alt : 35.3300018311, Lat : 49.2835704, Lng : -123.1150208, Q1 : 0.999999582767, Q2 : 0.000395568553358, Q3 : 0.000449157465482, Q4 : -0.000662291597109}
2019-04-14 23:10:35.61: SIM {TimeUS : 46835425, Roll : 0.03, Pitch : 0.01, Yaw : 359.92, Alt : 35.5499992371, Lat : 49.2835704, Lng : -123.1150208, Q1 : 0.999999701977, Q2 : 0.000328169291606, Q3 : 0.000159290866577, Q4 : -0.000676403578836}
2019-04-14 23:10:35.71: SIM {TimeUS : 46935385, Roll : 0.03, Pitch : 0.0, Yaw : 359.92, Alt : 35.7599983215, Lat : 49.2835704, Lng : -123.1150208, Q1 : 0.999999761581, Q2 : 0.000305390218273, Q3 : -5.65507762076e-05, Q4 : -0.000697698327713}
2019-04-14 23:10:35.81: SIM {TimeUS : 47035345, Roll : 0.01, Pitch : -0.01, Yaw : 359.91, Alt : 35.9799995422, Lat : 49.2835704, Lng : -123.1150208, Q1 : 0.999999701977, Q2 : 0.000155152127263, Q3 : -9.61530749919e-05, Q4 : -0.000725845107809}
2019-04-14 23:10:35.91: SIM {TimeUS : 47135305, Roll : 0.01, Pitch : 0.0, Yaw : 359.91, Alt : 36.2000007629, Lat : 49.2835704, Lng : -123.1150207, Q1 : 0.999999701977, Q2 : 0.000103359430796, Q3 : -6.10796487308e-05, Q4 : -0.000749838887714}
2019-04-14 23:10:36.01: SIM {TimeUS : 47235265, Roll : 0.01, Pitch : 0.0, Yaw : 359.91, Alt : 36.4300003052, Lat : 49.2835704, Lng : -123.1150207, Q1 : 0.999999701977, Q2 : 0.00013269300689, Q3 : -1.37475572046e-05, Q4 : -0.000771115534008}
2019-04-14 23:10:36.11: SIM {TimeUS : 47335225, Roll : 0.0, Pitch : -0.01, Yaw : 359.9, Alt : 36.6500015259, Lat : 49.2835704, Lng : -123.1150207, Q1 : 0.999999701977, Q2 : 2.06193599297e-05, Q3 : -0.000155742382049, Q4 : -0.000791347178165}
2019-04-14 23:10:36.21: SIM {TimeUS : 47435185, Roll : -0.03, Pitch : -0.05, Yaw : 359.9, Alt : 36.8699989319, Lat : 49.2835704, Lng : -123.1150207, Q1 : 0.999999523163, Q2 : -0.000273642828688, Q3 : -0.000486798089696, Q4 : -0.000810625322629}
2019-04-14 23:10:36.31: SIM {TimeUS : 47535145, Roll : -0.07, Pitch : -0.08, Yaw : 359.9, Alt : 37.0999984741, Lat : 49.2835704, Lng : -123.1150207, Q1 : 0.999999165535, Q2 : -0.000622124003712, Q3 : -0.000747276295442, Q4 : -0.000831074430607}
2019-04-14 23:10:36.41: SIM {TimeUS : 47635105, Roll : -0.1, Pitch : -0.1, Yaw : 359.9, Alt : 37.3199996948, Lat : 49.2835704, Lng : -123.1150207, Q1 : 0.999998748302, Q2 : -0.000953340961132, Q3 : -0.000940196798183, Q4 : -0.000854362442624}
2019-04-14 23:10:36.51: SIM {TimeUS : 47735065, Roll : -0.12, Pitch : -0.11, Yaw : 359.89, Alt : 37.5499992371, Lat : 49.2835704, Lng : -123.1150207, Q1 : 0.999998569489, Q2 : -0.00107128510717, Q3 : -0.000989709980786, Q4 : -0.000885444227606}
2019-04-14 23:10:36.61: SIM {TimeUS : 47835025, Roll : -0.11, Pitch : -0.1, Yaw : 359.89, Alt : 37.7700004578, Lat : 49.2835704, Lng : -123.1150207, Q1 : 0.999998688698, Q2 : -0.00102362409234, Q3 : -0.000882784835994, Q4 : -0.000918640231248}
2019-04-14 23:10:36.71: SIM {TimeUS : 47934985, Roll : -0.09, Pitch : -0.06, Yaw : 359.89, Alt : 38.0, Lat : 49.2835704, Lng : -123.1150206, Q1 : 0.999999046326, Q2 : -0.000832864898257, Q3 : -0.000563353474718, Q4 : -0.000950088724494}
2019-04-14 23:10:36.81: SIM {TimeUS : 48034945, Roll : -0.07, Pitch : -0.03, Yaw : 359.88, Alt : 38.2299995422, Lat : 49.2835704, Lng : -123.1150206, Q1 : 0.999999284744, Q2 : -0.000644360668957, Q3 : -0.000296157872071, Q4 : -0.000981363235041}
2019-04-14 23:10:36.91: SIM {TimeUS : 48134905, Roll : -0.06, Pitch : -0.02, Yaw : 359.88, Alt : 38.4500007629, Lat : 49.2835704, Lng : -123.1150206, Q1 : 0.999999284744, Q2 : -0.000610279035755, Q3 : -0.000244292750722, Q4 : -0.0010118978098}
2019-04-14 23:10:37.01: SIM {TimeUS : 48234865, Roll : -0.07, Pitch : -0.01, Yaw : 359.88, Alt : 38.6800003052, Lat : 49.2835704, Lng : -123.1150206, Q1 : 0.999999284744, Q2 : -0.000622535066213, Q3 : -0.000116993469419, Q4 : -0.00103017012589}
2019-04-14 23:10:37.11: SIM {TimeUS : 48334825, Roll : -0.08, Pitch : 0.0, Yaw : 359.88, Alt : 38.9099998474, Lat : 49.2835704, Lng : -123.1150206, Q1 : 0.999999165535, Q2 : -0.00077123939991, Q3 : 5.30030229129e-06, Q4 : -0.00104101432953}
2019-04-14 23:10:37.21: SIM {TimeUS : 48434785, Roll : -0.08, Pitch : 0.01, Yaw : 359.87, Alt : 39.1399993896, Lat : 49.2835706, Lng : -123.1150206, Q1 : 0.999999165535, Q2 : -0.000777373905294, Q3 : 0.000123656427604, Q4 : -0.0010476106545}
2019-04-14 23:10:37.31: SIM {TimeUS : 48534745, Roll : -0.06, Pitch : 0.03, Yaw : 359.87, Alt : 39.3699989319, Lat : 49.2835706, Lng : -123.1150206, Q1 : 0.99999922514, Q2 : -0.000601893523708, Q3 : 0.000348883186234, Q4 : -0.00105566962156}
2019-04-14 23:10:37.41: SIM {TimeUS : 48634705, Roll : -0.04, Pitch : 0.03, Yaw : 359.87, Alt : 39.5999984741, Lat : 49.2835706, Lng : -123.1150207, Q1 : 0.999999284744, Q2 : -0.000397652358515, Q3 : 0.000346063257894, Q4 : -0.0010545195546}
2019-04-14 23:10:37.51: SIM {TimeUS : 48734665, Roll : -0.01, Pitch : 0.03, Yaw : 359.87, Alt : 39.8300018311, Lat : 49.2835706, Lng : -123.1150207, Q1 : 0.999999403954, Q2 : -0.000151014392031, Q3 : 0.000300500949379, Q4 : -0.00105015758891}
2019-04-14 23:10:37.61: SIM {TimeUS : 48835458, Roll : 0.01, Pitch : 0.05, Yaw : 359.88, Alt : 40.0600013733, Lat : 49.2835706, Lng : -123.1150207, Q1 : 0.999999344349, Q2 : 0.000162716503837, Q3 : 0.000476449698908, Q4 : -0.00104382145219}
2019-04-14 23:10:37.71: SIM {TimeUS : 48935418, Roll : 0.05, Pitch : 0.09, Yaw : 359.88, Alt : 40.2900009155, Lat : 49.2835706, Lng : -123.1150207, Q1 : 0.999999046326, Q2 : 0.000477111287182, Q3 : 0.000802921247669, Q4 : -0.00104756758083}
2019-04-14 23:10:37.81: SIM {TimeUS : 49035378, Roll : 0.08, Pitch : 0.13, Yaw : 359.87, Alt : 40.5299987793, Lat : 49.2835706, Lng : -123.1150207, Q1 : 0.999998450279, Q2 : 0.000760636758059, Q3 : 0.00117770815268, Q4 : -0.00106251821853}
2019-04-14 23:10:37.91: SIM {TimeUS : 49135338, Roll : 0.08, Pitch : 0.17, Yaw : 359.87, Alt : 40.7599983215, Lat : 49.2835706, Lng : -123.1150207, Q1 : 0.999997973442, Q2 : 0.000734748202376, Q3 : 0.0015437892871, Q4 : -0.00107454706449}
2019-04-14 23:10:38.01: SIM {TimeUS : 49235298, Roll : 0.04, Pitch : 0.2, Yaw : 359.87, Alt : 40.9900016785, Lat : 49.2835706, Lng : -123.1150207, Q1 : 0.999997675419, Q2 : 0.000355479656719, Q3 : 0.0017963842256, Q4 : -0.00110861263238}
2019-04-14 23:10:38.11: SIM {TimeUS : 49335258, Roll : 0.0, Pitch : 0.21, Yaw : 359.86, Alt : 41.2200012207, Lat : 49.2835706, Lng : -123.1150207, Q1 : 0.999997675419, Q2 : 2.13263206206e-06, Q3 : 0.00183748570271, Q4 : -0.00114012870472}
2019-04-14 23:10:38.21: SIM {TimeUS : 49435218, Roll : -0.02, Pitch : 0.17, Yaw : 359.86, Alt : 41.4599990845, Lat : 49.2835706, Lng : -123.1150207, Q1 : 0.999998092651, Q2 : -0.000208682366065, Q3 : 0.00154581142124, Q4 : -0.00116663903464}
2019-04-14 23:10:38.31: SIM {TimeUS : 49535178, Roll : -0.03, Pitch : 0.13, Yaw : 359.86, Alt : 41.6899986267, Lat : 49.2835706, Lng : -123.1150207, Q1 : 0.999998569489, Q2 : -0.000319470476825, Q3 : 0.00116496242117, Q4 : -0.00120150973089}
2019-04-14 23:10:38.41: SIM {TimeUS : 49635138, Roll : -0.02, Pitch : 0.12, Yaw : 359.85, Alt : 41.9199981689, Lat : 49.2835706, Lng : -123.1150207, Q1 : 0.999998629093, Q2 : -0.00024963071337, Q3 : 0.00104834279045, Q4 : -0.00124219898134}
2019-04-14 23:10:38.51: SIM {TimeUS : 49735098, Roll : 0.0, Pitch : 0.12, Yaw : 359.85, Alt : 42.1599998474, Lat : 49.2835706, Lng : -123.1150207, Q1 : 0.999998569489, Q2 : 8.40085413074e-05, Q3 : 0.00111613702029, Q4 : -0.00128946139012}
2019-04-14 23:10:38.61: SIM {TimeUS : 49835058, Roll : 0.06, Pitch : 0.13, Yaw : 359.84, Alt : 42.3899993896, Lat : 49.2835706, Lng : -123.1150207, Q1 : 0.999998271465, Q2 : 0.000556306506041, Q3 : 0.00116314890329, Q4 : -0.0013347476488}
2019-04-14 23:10:38.71: SIM {TimeUS : 49935018, Roll : 0.1, Pitch : 0.11, Yaw : 359.84, Alt : 42.6300010681, Lat : 49.2835706, Lng : -123.1150207, Q1 : 0.999998092651, Q2 : 0.00092910323292, Q3 : 0.00100200949237, Q4 : -0.00137949397322}
2019-04-14 23:10:38.81: SIM {TimeUS : 50034978, Roll : 0.11, Pitch : 0.08, Yaw : 359.83, Alt : 42.8600006104, Lat : 49.2835706, Lng : -123.1150207, Q1 : 0.999998271465, Q2 : 0.000977837131359, Q3 : 0.000744324235711, Q4 : -0.00141718972009}
2019-04-14 23:10:38.91: SIM {TimeUS : 50134938, Roll : 0.07, Pitch : 0.06, Yaw : 359.83, Alt : 43.0999984741, Lat : 49.2835706, Lng : -123.1150207, Q1 : 0.999998569489, Q2 : 0.000649189809337, Q3 : 0.000585340254474, Q4 : -0.00144047825597}
2019-04-14 23:10:39.01: SIM {TimeUS : 50234898, Roll : 0.01, Pitch : 0.06, Yaw : 359.83, Alt : 43.3300018311, Lat : 49.2835704, Lng : -123.1150207, Q1 : 0.999998748302, Q2 : 0.000171777312062, Q3 : 0.00057578535052, Q4 : -0.00145949993748}
2019-04-14 23:10:39.11: SIM {TimeUS : 50334858, Roll : -0.01, Pitch : 0.08, Yaw : 359.83, Alt : 43.5699996948, Lat : 49.2835704, Lng : -123.1150207, Q1 : 0.999998629093, Q2 : -0.000172562693479, Q3 : 0.000752567662857, Q4 : -0.00147504801862}
2019-04-14 23:10:39.21: SIM {TimeUS : 50434818, Roll : -0.04, Pitch : 0.09, Yaw : 359.82, Alt : 43.7999992371, Lat : 49.2835704, Lng : -123.1150207, Q1 : 0.999998509884, Q2 : -0.000347838446032, Q3 : 0.000833056343254, Q4 : -0.00148906675167}
2019-04-14 23:10:39.31: SIM {TimeUS : 50534778, Roll : -0.04, Pitch : 0.07, Yaw : 359.82, Alt : 44.0400009155, Lat : 49.2835704, Lng : -123.1150207, Q1 : 0.999998569489, Q2 : -0.000377360993298, Q3 : 0.000689753855113, Q4 : -0.00150040886365}
2019-04-14 23:10:39.41: SIM {TimeUS : 50634738, Roll : -0.05, Pitch : 0.05, Yaw : 359.82, Alt : 44.2700004578, Lat : 49.2835704, Lng : -123.1150206, Q1 : 0.999998629093, Q2 : -0.000449771876447, Q3 : 0.00046684985864, Q4 : -0.00151533237658}
2019-04-14 23:10:39.51: SIM {TimeUS : 50734698, Roll : -0.04, Pitch : 0.02, Yaw : 359.82, Alt : 44.5099983215, Lat : 49.2835704, Lng : -123.1150206, Q1 : 0.999998748302, Q2 : -0.000435031281086, Q3 : 0.000206138996873, Q4 : -0.00153071153909}
2019-04-14 23:10:39.61: SIM {TimeUS : 50834658, Roll : -0.03, Pitch : 0.0, Yaw : 359.82, Alt : 44.7400016785, Lat : 49.2835704, Lng : -123.1150206, Q1 : 0.999998748302, Q2 : -0.000315201468766, Q3 : 3.85487837775e-05, Q4 : -0.00154697487596}
2019-04-14 23:10:39.71: SIM {TimeUS : 50935451, Roll : -0.03, Pitch : 0.0, Yaw : 359.82, Alt : 44.9799995422, Lat : 49.2835704, Lng : -123.1150206, Q1 : 0.999998748302, Q2 : -0.000263319758233, Q3 : -1.45401163536e-05, Q4 : -0.00156545348}
2019-04-14 23:10:39.81: SIM {TimeUS : 51035411, Roll : -0.02, Pitch : -0.01, Yaw : 359.81, Alt : 45.2200012207, Lat : 49.2835703, Lng : -123.1150206, Q1 : 0.999998688698, Q2 : -0.000252559839282, Q3 : -9.44959538174e-05, Q4 : -0.00158984237351}
2019-04-14 23:10:39.91: SIM {TimeUS : 51135371, Roll : -0.02, Pitch : -0.03, Yaw : 359.81, Alt : 45.4500007629, Lat : 49.2835703, Lng : -123.1150206, Q1 : 0.999998629093, Q2 : -0.000238042353885, Q3 : -0.000296257931041, Q4 : -0.00161620194558}
2019-04-14 23:10:40.01: SIM {TimeUS : 51235331, Roll : -0.02, Pitch : -0.04, Yaw : 359.81, Alt : 45.6899986267, Lat : 49.2835703, Lng : -123.1150206, Q1 : 0.999998509884, Q2 : -0.000226475021918, Q3 : -0.000434675836004, Q4 : -0.0016423688503}
2019-04-14 23:10:40.11: SIM {TimeUS : 51335291, Roll : -0.01, Pitch : -0.05, Yaw : 359.8, Alt : 45.9199981689, Lat : 49.2835703, Lng : -123.1150206, Q1 : 0.999998450279, Q2 : -0.000145942176459, Q3 : -0.000490977312438, Q4 : -0.00167162320577}
2019-04-14 23:10:40.21: SIM {TimeUS : 51435251, Roll : -0.02, Pitch : -0.05, Yaw : 359.8, Alt : 46.1500015259, Lat : 49.2835703, Lng : -123.1150206, Q1 : 0.999998450279, Q2 : -0.000191825645743, Q3 : -0.000467074132757, Q4 : -0.0017027243739}
2019-04-14 23:10:40.31: SIM {TimeUS : 51535211, Roll : -0.04, Pitch : -0.04, Yaw : 359.8, Alt : 46.3800010681, Lat : 49.2835703, Lng : -123.1150206, Q1 : 0.99999833107, Q2 : -0.000404020713177, Q3 : -0.000366764346836, Q4 : -0.00173697981518}
2019-04-14 23:10:40.41: SIM {TimeUS : 51635171, Roll : -0.08, Pitch : -0.03, Yaw : 359.79, Alt : 46.5999984741, Lat : 49.2835703, Lng : -123.1150206, Q1 : 0.999998152256, Q2 : -0.000724742596503, Q3 : -0.00029900795198, Q4 : -0.00177285564132}
2019-04-14 23:10:40.51: SIM {TimeUS : 51735131, Roll : -0.1, Pitch : -0.02, Yaw : 359.79, Alt : 46.8100013733, Lat : 49.2835703, Lng : -123.1150206, Q1 : 0.999997854233, Q2 : -0.000950348388869, Q3 : -0.000258568819845, Q4 : -0.00181061017793}
2019-04-14 23:10:40.61: SIM {TimeUS : 51835091, Roll : -0.11, Pitch : -0.01, Yaw : 359.78, Alt : 47.0200004578, Lat : 49.2835703, Lng : -123.1150206, Q1 : 0.999997735023, Q2 : -0.00101428548805, Q3 : -0.000165360703249, Q4 : -0.00184247875586}
2019-04-14 23:10:40.71: SIM {TimeUS : 51935051, Roll : -0.1, Pitch : 0.0, Yaw : 359.78, Alt : 47.2299995422, Lat : 49.2835703, Lng : -123.1150206, Q1 : 0.999997794628, Q2 : -0.000922408828046, Q3 : 2.01250022656e-05, Q4 : -0.00186952168588}
2019-04-14 23:10:40.81: SIM {TimeUS : 52035011, Roll : -0.08, Pitch : 0.01, Yaw : 359.78, Alt : 47.4199981689, Lat : 49.2835703, Lng : -123.1150206, Q1 : 0.999997913837, Q2 : -0.000718250696082, Q3 : 0.000126592000015, Q4 : -0.00189702014904}
2019-04-14 23:10:40.91: SIM {TimeUS : 52134971, Roll : -0.06, Pitch : 0.01, Yaw : 359.77, Alt : 47.6100006104, Lat : 49.2835703, Lng : -123.1150206, Q1 : 0.999998033047, Q2 : -0.000531897880137, Q3 : 0.000111642475531, Q4 : -0.00192255526781}
2019-04-14 23:10:41.01: SIM {TimeUS : 52234931, Roll : -0.06, Pitch : 0.0, Yaw : 359.77, Alt : 47.7799987793, Lat : 49.2835703, Lng : -123.1150206, Q1 : 0.999997973442, Q2 : -0.000580479158089, Q3 : -6.59070865368e-05, Q4 : -0.00194917130284}
2019-04-14 23:10:41.11: SIM {TimeUS : 52334891, Roll : -0.06, Pitch : -0.03, Yaw : 359.77, Alt : 47.9500007629, Lat : 49.2835703, Lng : -123.1150206, Q1 : 0.999997854233, Q2 : -0.000575238198508, Q3 : -0.000340303842677, Q4 : -0.00197356357239}
2019-04-14 23:10:41.21: SIM {TimeUS : 52434851, Roll : -0.04, Pitch : -0.06, Yaw : 359.77, Alt : 48.0999984741, Lat : 49.2835703, Lng : -123.1150206, Q1 : 0.999997735023, Q2 : -0.000436262023868, Q3 : -0.000574358273298, Q4 : -0.00199423870072}
2019-04-14 23:10:41.31: SIM {TimeUS : 52534811, Roll : -0.03, Pitch : -0.08, Yaw : 359.76, Alt : 48.2400016785, Lat : 49.2835703, Lng : -123.1150206, Q1 : 0.999997615814, Q2 : -0.000347628927557, Q3 : -0.000771680555772, Q4 : -0.00201364955865}
2019-04-14 23:10:41.41: SIM {TimeUS : 52634771, Roll : -0.03, Pitch : -0.1, Yaw : 359.76, Alt : 48.3699989319, Lat : 49.2835703, Lng : -123.1150206, Q1 : 0.999997496605, Q2 : -0.000331923045451, Q3 : -0.000897456950042, Q4 : -0.00203157705255}
2019-04-14 23:10:41.51: SIM {TimeUS : 52734731, Roll : 0.0, Pitch : -0.09, Yaw : 359.76, Alt : 48.4799995422, Lat : 49.2835703, Lng : -123.1150206, Q1 : 0.99999755621, Q2 : -7.43815544411e-05, Q3 : -0.000852414872497, Q4 : -0.00204953807406}
2019-04-14 23:10:41.61: SIM {TimeUS : 52834691, Roll : 0.02, Pitch : -0.08, Yaw : 359.76, Alt : 48.5900001526, Lat : 49.2835703, Lng : -123.1150206, Q1 : 0.999997615814, Q2 : 0.000239445231273, Q3 : -0.00070681021316, Q4 : -0.00206962879747}
2019-04-14 23:10:41.71: SIM {TimeUS : 52935484, Roll : 0.06, Pitch : -0.05, Yaw : 359.75, Alt : 48.6800003052, Lat : 49.2835703, Lng : -123.1150206, Q1 : 0.99999755621, Q2 : 0.000523048220202, Q3 : -0.000501446484122, Q4 : -0.00209516705945}
2019-04-14 23:10:41.81: SIM {TimeUS : 53035444, Roll : 0.07, Pitch : -0.03, Yaw : 359.75, Alt : 48.7599983215, Lat : 49.2835703, Lng : -123.1150206, Q1 : 0.999997496605, Q2 : 0.000628907524515, Q3 : -0.000307939830236, Q4 : -0.0021246841643}
2019-04-14 23:10:41.91: SIM {TimeUS : 53135404, Roll : 0.07, Pitch : -0.02, Yaw : 359.75, Alt : 48.8300018311, Lat : 49.2835703, Lng : -123.1150207, Q1 : 0.999997496605, Q2 : 0.000625709653832, Q3 : -0.000222565067816, Q4 : -0.00215375819243}
2019-04-14 23:10:42.01: SIM {TimeUS : 53235364, Roll : 0.06, Pitch : -0.03, Yaw : 359.75, Alt : 48.8899993896, Lat : 49.2835703, Lng : -123.1150207, Q1 : 0.999997437, Q2 : 0.000526442716364, Q3 : -0.000318131234962, Q4 : -0.00217949831858}
2019-04-14 23:10:42.11: SIM {TimeUS : 53335324, Roll : 0.03, Pitch : -0.04, Yaw : 359.74, Alt : 48.9399986267, Lat : 49.2835703, Lng : -123.1150207, Q1 : 0.999997437, Q2 : 0.00029758393066, Q3 : -0.000362285296433, Q4 : -0.00220434437506}
2019-04-14 23:10:42.21: SIM {TimeUS : 53435284, Roll : 0.01, Pitch : -0.03, Yaw : 359.74, Alt : 48.9900016785, Lat : 49.2835703, Lng : -123.1150207, Q1 : 0.999997437, Q2 : 0.000135354712256, Q3 : -0.000298940576613, Q4 : -0.00223084329627}
2019-04-14 23:10:42.31: SIM {TimeUS : 53535244, Roll : 0.05, Pitch : -0.06, Yaw : 359.74, Alt : 49.0200004578, Lat : 49.2835703, Lng : -123.1150207, Q1 : 0.999997198582, Q2 : 0.000506191630848, Q3 : -0.000545862363651, Q4 : -0.00225683697499}
2019-04-14 23:10:42.41: SIM {TimeUS : 53635204, Roll : 0.28, Pitch : -0.19, Yaw : 359.73, Alt : 49.0600013733, Lat : 49.2835703, Lng : -123.1150207, Q1 : 0.999992907047, Q2 : 0.00244866800494, Q3 : -0.00171050964855, Q4 : -0.00229051383212}
2019-04-14 23:10:42.51: SIM {TimeUS : 53735164, Roll : 0.75, Pitch : -0.48, Yaw : 359.73, Alt : 49.0800018311, Lat : 49.2835704, Lng : -123.1150207, Q1 : 0.999966800213, Q2 : 0.00657144049183, Q3 : -0.00422705244273, Q4 : -0.00231930962764}
2019-04-14 23:10:42.61: SIM {TimeUS : 53835124, Roll : 1.44, Pitch : -0.92, Yaw : 359.72, Alt : 49.1100006104, Lat : 49.2835704, Lng : -123.1150207, Q1 : 0.999885201454, Q2 : 0.0125752668828, Q3 : -0.00812644511461, Q4 : -0.00233591953292}
2019-04-14 23:10:42.71: SIM {TimeUS : 53935084, Roll : 2.27, Pitch : -1.5, Yaw : 359.7, Alt : 49.1300010681, Lat : 49.2835704, Lng : -123.1150206, Q1 : 0.999713480473, Q2 : 0.0198187809438, Q3 : -0.0132186096162, Q4 : -0.00233813957311}
2019-04-14 23:10:42.81: SIM {TimeUS : 54035044, Roll : 3.13, Pitch : -2.12, Yaw : 359.67, Alt : 49.1500015259, Lat : 49.2835706, Lng : -123.1150205, Q1 : 0.999451935291, Q2 : 0.0272551774979, Q3 : -0.0186467375606, Q4 : -0.00228592264466}
2019-04-14 23:10:42.91: SIM {TimeUS : 54135004, Roll : 3.87, Pitch : -2.7, Yaw : 359.66, Alt : 49.1599998474, Lat : 49.2835706, Lng : -123.1150203, Q1 : 0.999148786068, Q2 : 0.0337223261595, Q3 : -0.0236609745771, Q4 : -0.00216754199937}
2019-04-14 23:10:43.01: SIM {TimeUS : 54234964, Roll : 4.45, Pitch : -3.15, Yaw : 359.65, Alt : 49.1800003052, Lat : 49.2835707, Lng : -123.1150201, Q1 : 0.998865127563, Q2 : 0.0387677997351, Q3 : -0.0275980811566, Q4 : -0.00197144411504}
2019-04-14 23:10:43.11: SIM {TimeUS : 54334924, Roll : 4.88, Pitch : -3.45, Yaw : 359.65, Alt : 49.1899986267, Lat : 49.2835709, Lng : -123.1150199, Q1 : 0.99863576889, Q2 : 0.0425257943571, Q3 : -0.0302533991635, Q4 : -0.00170981336851}
2019-04-14 23:10:43.21: SIM {TimeUS : 54434884, Roll : 5.21, Pitch : -3.68, Yaw : 359.66, Alt : 49.2000007629, Lat : 49.283571, Lng : -123.1150195, Q1 : 0.998449683189, Q2 : 0.0453555360436, Q3 : -0.0322343632579, Q4 : -0.00142889306881}
2019-04-14 23:10:43.31: SIM {TimeUS : 54534844, Roll : 5.49, Pitch : -3.87, Yaw : 359.68, Alt : 49.2099990845, Lat : 49.2835713, Lng : -123.115019, Q1 : 0.998278021812, Q2 : 0.0478491224349, Q3 : -0.033914770931, Q4 : -0.00112934235949}
2019-04-14 23:10:43.41: SIM {TimeUS : 54634804, Roll : 5.78, Pitch : -4.07, Yaw : 359.69, Alt : 49.2200012207, Lat : 49.2835715, Lng : -123.1150184, Q1 : 0.998098373413, Q2 : 0.0502955466509, Q3 : -0.0356284603477, Q4 : -0.000840890104882}
2019-04-14 23:10:43.51: SIM {TimeUS : 54734764, Roll : 6.08, Pitch : -4.3, Yaw : 359.7, Alt : 49.2200012207, Lat : 49.2835719, Lng : -123.1150177, Q1 : 0.997890233994, Q2 : 0.052899133414, Q3 : -0.0376358702779, Q4 : -0.000575958285481}
2019-04-14 23:10:43.61: SIM {TimeUS : 54834724, Roll : 6.37, Pitch : -4.53, Yaw : 359.71, Alt : 49.2299995422, Lat : 49.2835722, Lng : -123.1150169, Q1 : 0.997675418854, Q2 : 0.0554544478655, Q3 : -0.0396042019129, Q4 : -0.0003252561728}
2019-04-14 23:10:43.71: SIM {TimeUS : 54934684, Roll : 6.62, Pitch : -4.71, Yaw : 359.71, Alt : 49.2400016785, Lat : 49.2835727, Lng : -123.115016, Q1 : 0.997488319874, Q2 : 0.0576248839498, Q3 : -0.0411880128086, Q4 : -8.77603233675e-05}
2019-04-14 23:10:43.81: SIM {TimeUS : 55035477, Roll : 6.79, Pitch : -4.82, Yaw : 359.72, Alt : 49.2400016785, Lat : 49.2835732, Lng : -123.115015, Q1 : 0.997361242771, Q2 : 0.0591070577502, Q3 : -0.0421541519463, Q4 : 0.000115969174658}
2019-04-14 23:10:43.91: SIM {TimeUS : 55135437, Roll : 6.9, Pitch : -4.89, Yaw : 359.73, Alt : 49.2400016785, Lat : 49.2835735, Lng : -123.1150139, Q1 : 0.997275233269, Q2 : 0.0601085722446, Q3 : -0.0427667275071, Q4 : 0.000267351919319}
2019-04-14 23:10:44.01: SIM {TimeUS : 55235397, Roll : 6.99, Pitch : -4.95, Yaw : 359.73, Alt : 49.25, Lat : 49.2835741, Lng : -123.1150127, Q1 : 0.99720788002, Q2 : 0.0608409456909, Q3 : -0.043298188597, Q4 : 0.000359671015758}
2019-04-14 23:10:44.11: SIM {TimeUS : 55335357, Roll : 7.13, Pitch : -5.0, Yaw : 359.74, Alt : 49.25, Lat : 49.2835747, Lng : -123.1150115, Q1 : 0.99711728096, Q2 : 0.0620406381786, Q3 : -0.0436797887087, Q4 : 0.000466562487418}
2019-04-14 23:10:44.21: SIM {TimeUS : 55435317, Roll : 7.45, Pitch : -4.91, Yaw : 359.92, Alt : 49.2599983215, Lat : 49.2835753, Lng : -123.1150101, Q1 : 0.996967971325, Q2 : 0.064933590591, Q3 : -0.0428257882595, Q4 : 0.00212012021802}
2019-04-14 23:10:44.31: SIM {TimeUS : 55535277, Roll : 8.01, Pitch : -4.7, Yaw : 0.85, Alt : 49.2599983215, Lat : 49.2835759, Lng : -123.1150087, Q1 : 0.99666684866, Q2 : 0.0701308324933, Q3 : -0.040385633707, Q4 : 0.0102893970907}
2019-04-14 23:10:44.41: SIM {TimeUS : 55635237, Roll : 8.62, Pitch : -4.65, Yaw : 3.16, Alt : 49.2599983215, Lat : 49.2835767, Lng : -123.1150072, Q1 : 0.995878875256, Q2 : 0.0762647911906, Q3 : -0.0383925996721, Q4 : 0.0305785220116}
2019-04-14 23:10:44.51: SIM {TimeUS : 55735197, Roll : 9.04, Pitch : -5.06, Yaw : 7.06, Alt : 49.2599983215, Lat : 49.2835774, Lng : -123.1150056, Q1 : 0.993803262711, Q2 : 0.0813679173589, Q3 : -0.03910497576, Q4 : 0.0648470968008}
2019-04-14 23:10:44.61: SIM {TimeUS : 55835157, Roll : 9.03, Pitch : -5.98, Yaw : 12.42, Alt : 49.2599983215, Lat : 49.2835781, Lng : -123.1150038, Q1 : 0.989240288734, Q2 : 0.0838361829519, Q3 : -0.0432167910039, Q4 : 0.111837014556}
2019-04-14 23:10:44.71: SIM {TimeUS : 55935117, Roll : 8.43, Pitch : -7.31, Yaw : 19.01, Alt : 49.2700004578, Lat : 49.2835788, Lng : -123.1150019, Q1 : 0.980812311172, Q2 : 0.0829108282924, Q3 : -0.0506439730525, Q4 : 0.16902141273}
2019-04-14 23:10:44.81: SIM {TimeUS : 56035077, Roll : 7.21, Pitch : -8.87, Yaw : 26.57, Alt : 49.2700004578, Lat : 49.2835795, Lng : -123.1149999, Q1 : 0.967272222042, Q2 : 0.0787773057818, Q3 : -0.0607667937875, Q4 : 0.233422383666}
2019-04-14 23:10:44.91: SIM {TimeUS : 56135037, Roll : 5.41, Pitch : -10.45, Yaw : 34.84, Alt : 49.2700004578, Lat : 49.2835804, Lng : -123.1149978, Q1 : 0.94780009985, Q2 : 0.0721255615354, Q3 : -0.0727331265807, Q4 : 0.301964789629}
2019-04-14 23:10:45.01: SIM {TimeUS : 56234997, Roll : 3.07, Pitch : -11.82, Yaw : 43.55, Alt : 49.2700004578, Lat : 49.2835812, Lng : -123.1149956, Q1 : 0.922335028648, Q2 : 0.0629884377122, Q3 : -0.0856880024076, Q4 : 0.371467500925}
2019-04-14 23:10:45.11: SIM {TimeUS : 56334957, Roll : 0.09, Pitch : -12.75, Yaw : 52.13, Alt : 49.2700004578, Lat : 49.2835819, Lng : -123.1149933, Q1 : 0.892669737339, Q2 : 0.0495867989957, Q3 : -0.0994397476315, Q4 : 0.436799347401}
2019-04-14 23:10:45.21: SIM {TimeUS : 56434917, Roll : -3.1, Pitch : -13.12, Yaw : 59.69, Alt : 49.2700004578, Lat : 49.2835829, Lng : -123.1149909, Q1 : 0.862884700298, Q2 : 0.0335466787219, Q3 : -0.112470284104, Q4 : 0.491584211588}
2019-04-14 23:10:45.31: SIM {TimeUS : 56534877, Roll : -5.84, Pitch : -13.04, Yaw : 65.48, Alt : 49.2700004578, Lat : 49.2835838, Lng : -123.1149884, Q1 : 0.837701261044, Q2 : 0.0187650416046, Q3 : -0.122816510499, Q4 : 0.531808793545}
2019-04-14 23:10:45.41: SIM {TimeUS : 56634837, Roll : -7.65, Pitch : -12.78, Yaw : 69.18, Alt : 49.2700004578, Lat : 49.2835849, Lng : -123.1149859, Q1 : 0.820498108864, Q2 : 0.00848573632538, Q3 : -0.129112482071, Q4 : 0.556813061237}
2019-04-14 23:10:45.51: SIM {TimeUS : 56734797, Roll : -8.36, Pitch : -12.6, Yaw : 70.88, Alt : 49.2700004578, Lat : 49.2835861, Lng : -123.1149833, Q1 : 0.81227940321, Q2 : 0.0044435588643, Q3 : -0.131235361099, Q4 : 0.568295478821}
2019-04-14 23:10:45.61: SIM {TimeUS : 56834757, Roll : -8.09, Pitch : -12.65, Yaw : 70.89, Alt : 49.2700004578, Lat : 49.2835874, Lng : -123.1149807, Q1 : 0.812181532383, Q2 : 0.00661863666028, Q3 : -0.130276441574, Q4 : 0.568634688854}
2019-04-14 23:10:45.71: SIM {TimeUS : 56934717, Roll : -7.08, Pitch : -12.97, Yaw : 69.58, Alt : 49.2700004578, Lat : 49.2835889, Lng : -123.114978, Q1 : 0.818384289742, Q2 : 0.0139270815998, Q3 : -0.127651661634, Q4 : 0.560141324997}
2019-04-14 23:10:45.81: SIM {TimeUS : 57034677, Roll : -5.55, Pitch : -13.51, Yaw : 67.31, Alt : 49.2700004578, Lat : 49.2835903, Lng : -123.1149752, Q1 : 0.828771471977, Q2 : 0.0250825062394, Q3 : -0.124523378909, Q4 : 0.544979512691}
2019-04-14 23:10:45.91: SIM {TimeUS : 57135470, Roll : -3.71, Pitch : -14.2, Yaw : 64.38, Alt : 49.2799987793, Lat : 49.283592, Lng : -123.1149724, Q1 : 0.84147644043, Q2 : 0.0385763272643, Q3 : -0.121708758175, Q4 : 0.524991631508}
2019-04-14 23:10:46.01: SIM {TimeUS : 57235430, Roll : -1.8, Pitch : -14.87, Yaw : 61.14, Alt : 49.2799987793, Lat : 49.2835935, Lng : -123.1149695, Q1 : 0.854660749435, Q2 : 0.052359778434, Q3 : -0.119358621538, Q4 : 0.502560377121}
2019-04-14 23:10:46.11: SIM {TimeUS : 57335390, Roll : 0.01, Pitch : -15.4, Yaw : 57.91, Alt : 49.2799987793, Lat : 49.2835952, Lng : -123.1149665, Q1 : 0.867089390755, Q2 : 0.0650103613734, Q3 : -0.117195151746, Q4 : 0.479786336422}
2019-04-14 23:10:46.21: SIM {TimeUS : 57435350, Roll : 1.57, Pitch : -15.74, Yaw : 55.0, Alt : 49.2799987793, Lat : 49.2835969, Lng : -123.1149634, Q1 : 0.877688407898, Q2 : 0.0753146633506, Q3 : -0.11514673382, Q4 : 0.459055483341}
2019-04-14 23:10:46.31: SIM {TimeUS : 57535310, Roll : 2.74, Pitch : -15.87, Yaw : 52.69, Alt : 49.2799987793, Lat : 49.2835984, Lng : -123.1149601, Q1 : 0.885805606842, Q2 : 0.0825527459383, Q3 : -0.113158077002, Q4 : 0.442412376404}
2019-04-14 23:10:46.41: SIM {TimeUS : 57635270, Roll : 3.44, Pitch : -15.86, Yaw : 51.14, Alt : 49.2799987793, Lat : 49.2836001, Lng : -123.1149567, Q1 : 0.891194164753, Q2 : 0.0864380523562, Q3 : -0.111563190818, Q4 : 0.43110921979}
2019-04-14 23:10:46.51: SIM {TimeUS : 57735230, Roll : 3.66, Pitch : -15.8, Yaw : 50.4, Alt : 49.2799987793, Lat : 49.2836019, Lng : -123.1149531, Q1 : 0.893882036209, Q2 : 0.0871864259243, Q3 : -0.110823392868, Q4 : 0.425548583269}
2019-04-14 23:10:46.61: SIM {TimeUS : 57835190, Roll : 3.47, Pitch : -15.76, Yaw : 50.4, Alt : 49.2799987793, Lat : 49.2836035, Lng : -123.1149496, Q1 : 0.894075512886, Q2 : 0.0855151712894, Q3 : -0.111227586865, Q4 : 0.425375759602}
2019-04-14 23:10:46.71: SIM {TimeUS : 57935150, Roll : 2.94, Pitch : -15.8, Yaw : 51.01, Alt : 49.2799987793, Lat : 49.2836051, Lng : -123.1149459, Q1 : 0.892126262188, Q2 : 0.082153223455, Q3 : -0.113072551787, Q4 : 0.4296233356}
2019-04-14 23:10:46.81: SIM {TimeUS : 58035110, Roll : 2.18, Pitch : -15.91, Yaw : 52.07, Alt : 49.2799987793, Lat : 49.2836068, Lng : -123.1149421, Q1 : 0.888542532921, Q2 : 0.0777297690511, Q3 : -0.116095818579, Q4 : 0.437003493309}
2019-04-14 23:10:46.91: SIM {TimeUS : 58135070, Roll : 1.3, Pitch : -16.07, Yaw : 53.37, Alt : 49.2900009155, Lat : 49.2836086, Lng : -123.1149382, Q1 : 0.883912563324, Q2 : 0.0728492960334, Q3 : -0.119905225933, Q4 : 0.446110218763}
2019-04-14 23:10:47.01: SIM {TimeUS : 58235030, Roll : 0.41, Pitch : -16.22, Yaw : 54.74, Alt : 49.2900009155, Lat : 49.2836104, Lng : -123.1149342, Q1 : 0.878895938396, Q2 : 0.0680674985051, Q3 : -0.123638339341, Q4 : 0.455655902624}
2019-04-14 23:10:47.11: SIM {TimeUS : 58334990, Roll : -0.34, Pitch : -16.32, Yaw : 56.02, Alt : 49.2900009155, Lat : 49.2836121, Lng : -123.1149301, Q1 : 0.87409299612, Q2 : 0.0640377253294, Q3 : -0.126753002405, Q4 : 0.46453666687}
2019-04-14 23:10:47.21: SIM {TimeUS : 58434950, Roll : -0.95, Pitch : -16.38, Yaw : 57.08, Alt : 49.2900009155, Lat : 49.2836139, Lng : -123.114926, Q1 : 0.870028436184, Q2 : 0.0608782954514, Q3 : -0.129140019417, Q4 : 0.471876293421}
2019-04-14 23:10:47.31: SIM {TimeUS : 58534910, Roll : -1.33, Pitch : -16.42, Yaw : 57.84, Alt : 49.2900009155, Lat : 49.2836158, Lng : -123.1149219, Q1 : 0.867040932178, Q2 : 0.0589982159436, Q3 : -0.130588337779, Q4 : 0.477185457945}
2019-04-14 23:10:47.41: SIM {TimeUS : 58634870, Roll : -1.48, Pitch : -16.42, Yaw : 58.27, Alt : 49.2900009155, Lat : 49.2836176, Lng : -123.1149177, Q1 : 0.865323007107, Q2 : 0.0583650618792, Q3 : -0.130974888802, Q4 : 0.48026573658}
2019-04-14 23:10:47.51: SIM {TimeUS : 58734830, Roll : -1.44, Pitch : -16.41, Yaw : 58.38, Alt : 49.2900009155, Lat : 49.2836195, Lng : -123.1149134, Q1 : 0.864843130112, Q2 : 0.0587731823325, Q3 : -0.130718171597, Q4 : 0.48114952445}
2019-04-14 23:10:47.61: SIM {TimeUS : 58834790, Roll : -1.26, Pitch : -16.44, Yaw : 58.21, Alt : 49.2900009155, Lat : 49.2836214, Lng : -123.1149091, Q1 : 0.865424096584, Q2 : 0.0600327737629, Q3 : -0.130250319839, Q4 : 0.480075001717}
2019-04-14 23:10:47.71: SIM {TimeUS : 58934750, Roll : -0.98, Pitch : -16.5, Yaw : 57.84, Alt : 49.2900009155, Lat : 49.2836233, Lng : -123.1149048, Q1 : 0.866797626019, Q2 : 0.0619330704212, Q3 : -0.129740923643, Q4 : 0.477486640215}
2019-04-14 23:10:47.81: SIM {TimeUS : 59034710, Roll : -0.65, Pitch : -16.58, Yaw : 57.32, Alt : 49.2900009155, Lat : 49.2836254, Lng : -123.1149004, Q1 : 0.868653416634, Q2 : 0.0642319917679, Q3 : -0.129300028086, Q4 : 0.473916709423}
2019-04-14 23:10:47.91: SIM {TimeUS : 59134670, Roll : -0.31, Pitch : -16.66, Yaw : 56.75, Alt : 49.2900009155, Lat : 49.2836274, Lng : -123.1148959, Q1 : 0.870727658272, Q2 : 0.0664917975664, Q3 : -0.128803238273, Q4 : 0.469916939735}
2019-04-14 23:10:48.01: SIM {TimeUS : 59235463, Roll : 0.01, Pitch : -16.72, Yaw : 56.19, Alt : 49.2900009155, Lat : 49.2836293, Lng : -123.1148915, Q1 : 0.872770607471, Q2 : 0.068590708077, Q3 : -0.128230676055, Q4 : 0.465965330601}
2019-04-14 23:10:48.11: SIM {TimeUS : 59335423, Roll : 0.29, Pitch : -16.75, Yaw : 55.7, Alt : 49.2900009155, Lat : 49.2836315, Lng : -123.114887, Q1 : 0.874542653561, Q2 : 0.0703082829714, Q3 : -0.12766584754, Q4 : 0.462529331446}
2019-04-14 23:10:48.21: SIM {TimeUS : 59435383, Roll : 0.49, Pitch : -16.78, Yaw : 55.32, Alt : 49.2900009155, Lat : 49.2836335, Lng : -123.1148825, Q1 : 0.875909507275, Q2 : 0.0715580508113, Q3 : -0.12725186348, Q4 : 0.459857523441}
2019-04-14 23:10:48.31: SIM {TimeUS : 59535343, Roll : 0.62, Pitch : -16.8, Yaw : 55.07, Alt : 49.2900009155, Lat : 49.2836355, Lng : -123.1148779, Q1 : 0.876795649529, Q2 : 0.0723306462169, Q3 : -0.127103209496, Q4 : 0.458085656166}
2019-04-14 23:10:48.41: SIM {TimeUS : 59635303, Roll : 0.66, Pitch : -16.83, Yaw : 54.96, Alt : 49.2900009155, Lat : 49.2836376, Lng : -123.1148732, Q1 : 0.877201378345, Q2 : 0.0726518183947, Q3 : -0.12718911469, Q4 : 0.457233428955}
2019-04-14 23:10:48.51: SIM {TimeUS : 59735263, Roll : 0.63, Pitch : -16.85, Yaw : 54.96, Alt : 49.2900009155, Lat : 49.2836396, Lng : -123.1148686, Q1 : 0.877177596092, Q2 : 0.0724888518453, Q3 : -0.127522140741, Q4 : 0.457212179899}
2019-04-14 23:10:48.61: SIM {TimeUS : 59835223, Roll : 0.53, Pitch : -16.88, Yaw : 55.06, Alt : 49.2900009155, Lat : 49.2836418, Lng : -123.1148639, Q1 : 0.876802861691, Q2 : 0.0719752833247, Q3 : -0.128032013774, Q4 : 0.457869172096}
2019-04-14 23:10:48.71: SIM {TimeUS : 59935183, Roll : 0.39, Pitch : -16.92, Yaw : 55.23, Alt : 49.2900009155, Lat : 49.2836439, Lng : -123.1148591, Q1 : 0.876170396805, Q2 : 0.0712247639894, Q3 : -0.12879447639, Q4 : 0.458981961012}
2019-04-14 23:10:48.81: SIM {TimeUS : 60035143, Roll : 0.23, Pitch : -16.97, Yaw : 55.44, Alt : 49.2999992371, Lat : 49.283646, Lng : -123.1148543, Q1 : 0.875390052795, Q2 : 0.0704414248466, Q3 : -0.129697158933, Q4 : 0.460335671902}
2019-04-14 23:10:48.91: SIM {TimeUS : 60135103, Roll : 0.06, Pitch : -17.01, Yaw : 55.65, Alt : 49.2999992371, Lat : 49.2836481, Lng : -123.1148495, Q1 : 0.874602437019, Q2 : 0.0695309340954, Q3 : -0.130587220192, Q4 : 0.461717516184}
2019-04-14 23:10:49.01: SIM {TimeUS : 60235063, Roll : -0.09, Pitch : -17.04, Yaw : 55.84, Alt : 49.2999992371, Lat : 49.2836501, Lng : -123.1148447, Q1 : 0.87389677763, Q2 : 0.0686819031835, Q3 : -0.131332159042, Q4 : 0.462967664003}
2019-04-14 23:10:49.11: SIM {TimeUS : 60335023, Roll : -0.21, Pitch : -17.07, Yaw : 55.98, Alt : 49.2999992371, Lat : 49.2836524, Lng : -123.1148398, Q1 : 0.873340845108, Q2 : 0.0680103525519, Q3 : -0.131944790483, Q4 : 0.463940680027}
2019-04-14 23:10:49.21: SIM {TimeUS : 60434983, Roll : -0.28, Pitch : -17.1, Yaw : 56.08, Alt : 49.2999992371, Lat : 49.2836545, Lng : -123.1148349, Q1 : 0.872949302197, Q2 : 0.0677709430456, Q3 : -0.132406622171, Q4 : 0.464580625296}
2019-04-14 23:10:49.31: SIM {TimeUS : 60534943, Roll : -0.29, Pitch : -17.14, Yaw : 56.12, Alt : 49.2999992371, Lat : 49.2836566, Lng : -123.11483, Q1 : 0.872751414776, Q2 : 0.0678449571133, Q3 : -0.132713899016, Q4 : 0.464853852987}
2019-04-14 23:10:49.41: SIM {TimeUS : 60634903, Roll : -0.26, Pitch : -17.18, Yaw : 56.11, Alt : 49.2999992371, Lat : 49.2836589, Lng : -123.1148251, Q1 : 0.872735619545, Q2 : 0.0682442784309, Q3 : -0.132880434394, Q4 : 0.464777439833}
2019-04-14 23:10:49.51: SIM {TimeUS : 60734863, Roll : -0.19, Pitch : -17.22, Yaw : 56.05, Alt : 49.2999992371, Lat : 49.2836609, Lng : -123.1148201, Q1 : 0.872882306576, Q2 : 0.0688518211246, Q3 : -0.132952854037, Q4 : 0.464391469955}
2019-04-14 23:10:49.61: SIM {TimeUS : 60834823, Roll : -0.12, Pitch : -17.25, Yaw : 55.96, Alt : 49.2999992371, Lat : 49.2836633, Lng : -123.1148152, Q1 : 0.873167514801, Q2 : 0.0694663226604, Q3 : -0.132974013686, Q4 : 0.46375733614}
2019-04-14 23:10:49.71: SIM {TimeUS : 60934783, Roll : -0.05, Pitch : -17.28, Yaw : 55.85, Alt : 49.3100013733, Lat : 49.2836655, Lng : -123.1148102, Q1 : 0.87354439497, Q2 : 0.0699388533831, Q3 : -0.133016854525, Q4 : 0.462963581085}
2019-04-14 23:10:49.81: SIM {TimeUS : 61034743, Roll : -0.01, Pitch : -17.3, Yaw : 55.73, Alt : 49.3100013733, Lat : 49.2836676, Lng : -123.1148052, Q1 : 0.873972177505, Q2 : 0.0702153369784, Q3 : -0.133054956794, Q4 : 0.462102711201}
2019-04-14 23:10:49.91: SIM {TimeUS : 61134703, Roll : 0.04, Pitch : -17.31, Yaw : 55.62, Alt : 49.3100013733, Lat : 49.2836699, Lng : -123.1148001, Q1 : 0.874385535717, Q2 : 0.0705262869596, Q3 : -0.132937476039, Q4 : 0.461306452751}
2019-04-14 23:10:50.01: SIM {TimeUS : 61234663, Roll : 0.09, Pitch : -17.31, Yaw : 55.52, Alt : 49.3100013733, Lat : 49.2836722, Lng : -123.1147951, Q1 : 0.874745965004, Q2 : 0.0708474218845, Q3 : -0.132790759206, Q4 : 0.460615634918}
2019-04-14 23:10:50.11: SIM {TimeUS : 61335456, Roll : 0.16, Pitch : -17.34, Yaw : 55.44, Alt : 49.3100013733, Lat : 49.2836743, Lng : -123.11479, Q1 : 0.874988734722, Q2 : 0.0713823661208, Q3 : -0.132800400257, Q4 : 0.460068821907}
2019-04-14 23:10:50.21: SIM {TimeUS : 61435416, Roll : 0.21, Pitch : -17.38, Yaw : 55.39, Alt : 49.3100013733, Lat : 49.2836767, Lng : -123.1147849, Q1 : 0.875125408173, Q2 : 0.0718656107783, Q3 : -0.132998481393, Q4 : 0.459676265717}
2019-04-14 23:10:50.31: SIM {TimeUS : 61535376, Roll : 0.23, Pitch : -17.41, Yaw : 55.35, Alt : 49.3100013733, Lat : 49.2836789, Lng : -123.1147798, Q1 : 0.87520968914, Q2 : 0.0720944553614, Q3 : -0.133114680648, Q4 : 0.459446281195}
2019-04-14 23:10:50.41: SIM {TimeUS : 61635336, Roll : 0.23, Pitch : -17.4, Yaw : 55.34, Alt : 49.3100013733, Lat : 49.2836811, Lng : -123.1147747, Q1 : 0.875252664089, Q2 : 0.0720865502954, Q3 : -0.133086562157, Q4 : 0.459373772144}
2019-04-14 23:10:50.51: SIM {TimeUS : 61735296, Roll : 0.2, Pitch : -17.42, Yaw : 55.35, Alt : 49.3100013733, Lat : 49.2836834, Lng : -123.1147696, Q1 : 0.875221371651, Q2 : 0.0719513073564, Q3 : -0.13333016634, Q4 : 0.459383964539}
2019-04-14 23:10:50.61: SIM {TimeUS : 61835256, Roll : 0.15, Pitch : -17.46, Yaw : 55.37, Alt : 49.3100013733, Lat : 49.2836858, Lng : -123.1147644, Q1 : 0.875136315823, Q2 : 0.0717081353068, Q3 : -0.133824422956, Q4 : 0.45944032073}
2019-04-14 23:10:50.71: SIM {TimeUS : 61935216, Roll : 0.1, Pitch : -17.49, Yaw : 55.39, Alt : 49.3100013733, Lat : 49.2836881, Lng : -123.1147593, Q1 : 0.875033020973, Q2 : 0.0714932084084, Q3 : -0.134230434895, Q4 : 0.459552109241}
2019-04-14 23:10:50.81: SIM {TimeUS : 62035176, Roll : 0.07, Pitch : -17.52, Yaw : 55.42, Alt : 49.3100013733, Lat : 49.2836902, Lng : -123.1147541, Q1 : 0.874915122986, Q2 : 0.0714233368635, Q3 : -0.134589865804, Q4 : 0.459682285786}
2019-04-14 23:10:50.91: SIM {TimeUS : 62135136, Roll : 0.05, Pitch : -17.54, Yaw : 55.44, Alt : 49.3199996948, Lat : 49.2836925, Lng : -123.1147489, Q1 : 0.874822616577, Q2 : 0.0714134052396, Q3 : -0.134789437056, Q4 : 0.459801495075}
2019-04-14 23:10:51.01: SIM {TimeUS : 62235096, Roll : 0.05, Pitch : -17.56, Yaw : 55.45, Alt : 49.3199996948, Lat : 49.2836949, Lng : -123.1147437, Q1 : 0.87475758791, Q2 : 0.0714707970619, Q3 : -0.134938374162, Q4 : 0.459872484207}
2019-04-14 23:10:51.11: SIM {TimeUS : 62335056, Roll : 0.06, Pitch : -17.57, Yaw : 55.45, Alt : 49.3199996948, Lat : 49.2836973, Lng : -123.1147385, Q1 : 0.874735236168, Q2 : 0.0715822651982, Q3 : -0.134920984507, Q4 : 0.459902822971}
2019-04-14 23:10:51.21: SIM {TimeUS : 62435016, Roll : 0.09, Pitch : -17.58, Yaw : 55.44, Alt : 49.3199996948, Lat : 49.2836996, Lng : -123.1147332, Q1 : 0.874729812145, Q2 : 0.0718376040459, Q3 : -0.134922251105, Q4 : 0.459872961044}
2019-04-14 23:10:51.31: SIM {TimeUS : 62534976, Roll : 0.12, Pitch : -17.6, Yaw : 55.43, Alt : 49.3199996948, Lat : 49.2837018, Lng : -123.114728, Q1 : 0.874751031399, Q2 : 0.0721254721284, Q3 : -0.13498441875, Q4 : 0.459769278765}
2019-04-14 23:10:51.41: SIM {TimeUS : 62634936, Roll : 0.13, Pitch : -17.63, Yaw : 55.41, Alt : 49.3199996948, Lat : 49.2837041, Lng : -123.1147228, Q1 : 0.8748036623, Q2 : 0.0722880959511, Q3 : -0.135196805, Q4 : 0.459581166506}
2019-04-14 23:10:51.51: SIM {TimeUS : 62734896, Roll : 0.12, Pitch : -17.67, Yaw : 55.38, Alt : 49.3199996948, Lat : 49.2837065, Lng : -123.1147175, Q1 : 0.874872863293, Q2 : 0.072333201766, Q3 : -0.135581225157, Q4 : 0.459328979254}
2019-04-14 23:10:51.61: SIM {TimeUS : 62834856, Roll : 0.11, Pitch : -17.72, Yaw : 55.35, Alt : 49.3199996948, Lat : 49.2837089, Lng : -123.1147122, Q1 : 0.874941885471, Q2 : 0.0724066793919, Q3 : -0.135993480682, Q4 : 0.459064036608}
2019-04-14 23:10:51.71: SIM {TimeUS : 62934816, Roll : 0.11, Pitch : -17.75, Yaw : 55.32, Alt : 49.3199996948, Lat : 49.2837113, Lng : -123.1147068, Q1 : 0.875016748905, Q2 : 0.0725578218699, Q3 : -0.136249870062, Q4 : 0.458821356297}
2019-04-14 23:10:51.81: SIM {TimeUS : 63034776, Roll : 0.12, Pitch : -17.76, Yaw : 55.29, Alt : 49.3199996948, Lat : 49.2837136, Lng : -123.1147017, Q1 : 0.875115334988, Q2 : 0.0726365745068, Q3 : -0.13629797101, Q4 : 0.458606570959}
2019-04-14 23:10:51.91: SIM {TimeUS : 63134736, Roll : 0.14, Pitch : -17.75, Yaw : 55.26, Alt : 49.3199996948, Lat : 49.283716, Lng : -123.1146963, Q1 : 0.875226736069, Q2 : 0.0726922899485, Q3 : -0.136110961437, Q4 : 0.458440572023}
2019-04-14 23:10:52.01: SIM {TimeUS : 63234696, Roll : 0.15, Pitch : -17.73, Yaw : 55.24, Alt : 49.3199996948, Lat : 49.2837182, Lng : -123.114691, Q1 : 0.875326216221, Q2 : 0.0726412683725, Q3 : -0.13595482707, Q4 : 0.458305120468}
2019-04-14 23:10:52.11: SIM {TimeUS : 63334656, Roll : 0.15, Pitch : -17.71, Yaw : 55.23, Alt : 49.3199996948, Lat : 49.2837206, Lng : -123.1146857, Q1 : 0.875411748886, Q2 : 0.0725932344794, Q3 : -0.135797530413, Q4 : 0.458196014166}
2019-04-14 23:10:52.21: SIM {TimeUS : 63435449, Roll : 0.16, Pitch : -17.7, Yaw : 55.21, Alt : 49.3199996948, Lat : 49.283723, Lng : -123.1146803, Q1 : 0.87547403574, Q2 : 0.0725417807698, Q3 : -0.135696947575, Q4 : 0.458114862442}
2019-04-14 23:10:52.31: SIM {TimeUS : 63535409, Roll : 0.15, Pitch : -17.7, Yaw : 55.2, Alt : 49.3199996948, Lat : 49.2837254, Lng : -123.114675, Q1 : 0.875507771969, Q2 : 0.0725202932954, Q3 : -0.135773271322, Q4 : 0.458031237125}
2019-04-14 23:10:52.41: SIM {TimeUS : 63635369, Roll : 0.15, Pitch : -17.72, Yaw : 55.2, Alt : 49.3300018311, Lat : 49.2837278, Lng : -123.1146696, Q1 : 0.875521183014, Q2 : 0.0725820884109, Q3 : -0.135921835899, Q4 : 0.457951664925}
2019-04-14 23:10:52.51: SIM {TimeUS : 63735329, Roll : 0.14, Pitch : -17.77, Yaw : 55.19, Alt : 49.3300018311, Lat : 49.2837302, Lng : -123.1146642, Q1 : 0.875503480434, Q2 : 0.0726590976119, Q3 : -0.136369585991, Q4 : 0.457840293646}
2019-04-14 23:10:52.61: SIM {TimeUS : 63835289, Roll : 0.13, Pitch : -17.83, Yaw : 55.18, Alt : 49.3300018311, Lat : 49.2837326, Lng : -123.1146589, Q1 : 0.875478744507, Q2 : 0.0727862939239, Q3 : -0.136839464307, Q4 : 0.457727104425}
2019-04-14 23:10:52.71: SIM {TimeUS : 63935249, Roll : 0.13, Pitch : -17.87, Yaw : 55.17, Alt : 49.3300018311, Lat : 49.283735, Lng : -123.1146535, Q1 : 0.875464856625, Q2 : 0.0729663148522, Q3 : -0.137111857533, Q4 : 0.457643568516}
2019-04-14 23:10:52.81: SIM {TimeUS : 64035209, Roll : 0.13, Pitch : -17.9, Yaw : 55.16, Alt : 49.3300018311, Lat : 49.2837374, Lng : -123.1146481, Q1 : 0.875461637974, Q2 : 0.0730672031641, Q3 : -0.137396246195, Q4 : 0.457548230886}
2019-04-14 23:10:52.91: SIM {TimeUS : 64135169, Roll : 0.12, Pitch : -17.92, Yaw : 55.15, Alt : 49.3300018311, Lat : 49.2837398, Lng : -123.1146427, Q1 : 0.875480115414, Q2 : 0.0730999186635, Q3 : -0.137571543455, Q4 : 0.457455009222}
2019-04-14 23:10:53.01: SIM {TimeUS : 64235129, Roll : 0.14, Pitch : -17.91, Yaw : 55.14, Alt : 49.3300018311, Lat : 49.2837422, Lng : -123.1146373, Q1 : 0.875522911549, Q2 : 0.07315839082, Q3 : -0.137457609177, Q4 : 0.457397967577}
2019-04-14 23:10:53.11: SIM {TimeUS : 64335089, Roll : 0.16, Pitch : -17.91, Yaw : 55.13, Alt : 49.3300018311, Lat : 49.2837446, Lng : -123.1146319, Q1 : 0.875555694103, Q2 : 0.0733431577682, Q3 : -0.13736705482, Q4 : 0.457332849503}
2019-04-14 23:10:53.21: SIM {TimeUS : 64435049, Roll : 0.17, Pitch : -17.92, Yaw : 55.11, Alt : 49.3300018311, Lat : 49.283747, Lng : -123.1146265, Q1 : 0.875588476658, Q2 : 0.0734541490674, Q3 : -0.13740465045, Q4 : 0.457240968943}
2019-04-14 23:10:53.31: SIM {TimeUS : 64535009, Roll : 0.19, Pitch : -17.93, Yaw : 55.1, Alt : 49.3300018311, Lat : 49.2837494, Lng : -123.1146211, Q1 : 0.875621438026, Q2 : 0.0735580101609, Q3 : -0.137437731028, Q4 : 0.457151204348}
2019-04-14 23:10:53.41: SIM {TimeUS : 64634969, Roll : 0.2, Pitch : -17.93, Yaw : 55.09, Alt : 49.3300018311, Lat : 49.2837518, Lng : -123.1146156, Q1 : 0.875668942928, Q2 : 0.0736064314842, Q3 : -0.137362331152, Q4 : 0.457074999809}
2019-04-14 23:10:53.51: SIM {TimeUS : 64734929, Roll : 0.2, Pitch : -17.92, Yaw : 55.08, Alt : 49.3300018311, Lat : 49.2837543, Lng : -123.1146102, Q1 : 0.875720202923, Q2 : 0.0735836997628, Q3 : -0.137371107936, Q4 : 0.456977784634}
2019-04-14 23:10:53.61: SIM {TimeUS : 64834889, Roll : 0.17, Pitch : -17.95, Yaw : 55.06, Alt : 49.3300018311, Lat : 49.2837567, Lng : -123.1146048, Q1 : 0.875757753849, Q2 : 0.0734841525555, Q3 : -0.137635990977, Q4 : 0.456842154264}
2019-04-14 23:10:53.71: SIM {TimeUS : 64934849, Roll : 0.14, Pitch : -17.99, Yaw : 55.05, Alt : 49.3300018311, Lat : 49.2837591, Lng : -123.1145993, Q1 : 0.875781714916, Q2 : 0.0733412578702, Q3 : -0.138100251555, Q4 : 0.456679075956}
2019-04-14 23:10:53.81: SIM {TimeUS : 65034809, Roll : 0.12, Pitch : -18.0, Yaw : 55.04, Alt : 49.3300018311, Lat : 49.2837615, Lng : -123.1145939, Q1 : 0.875829458237, Q2 : 0.0732255801558, Q3 : -0.13827110827, Q4 : 0.456554383039}
2019-04-14 23:10:53.91: SIM {TimeUS : 65134769, Roll : 0.13, Pitch : -17.98, Yaw : 55.03, Alt : 49.3400001526, Lat : 49.283764, Lng : -123.1145884, Q1 : 0.875887572765, Q2 : 0.0732309371233, Q3 : -0.138136535883, Q4 : 0.456482797861}
2019-04-14 23:10:54.01: SIM {TimeUS : 65234729, Roll : 0.15, Pitch : -17.97, Yaw : 55.02, Alt : 49.3400001526, Lat : 49.2837664, Lng : -123.1145828, Q1 : 0.875940382481, Q2 : 0.07330416888, Q3 : -0.137949064374, Q4 : 0.456426411867}
2019-04-14 23:10:54.11: SIM {TimeUS : 65334689, Roll : 0.16, Pitch : -17.97, Yaw : 55.0, Alt : 49.3400001526, Lat : 49.2837689, Lng : -123.1145775, Q1 : 0.875973701477, Q2 : 0.073398925364, Q3 : -0.137956917286, Q4 : 0.456344813108}
2019-04-14 23:10:54.21: SIM {TimeUS : 65435482, Roll : 0.14, Pitch : -17.99, Yaw : 54.99, Alt : 49.3400001526, Lat : 49.2837713, Lng : -123.1145719, Q1 : 0.876002967358, Q2 : 0.0733690559864, Q3 : -0.138160690665, Q4 : 0.456231743097}
2019-04-14 23:10:54.31: SIM {TimeUS : 65535442, Roll : 0.12, Pitch : -18.02, Yaw : 54.98, Alt : 49.3400001526, Lat : 49.2837738, Lng : -123.1145665, Q1 : 0.876033723354, Q2 : 0.073236130178, Q3 : -0.13845987618, Q4 : 0.456103414297}
2019-04-14 23:10:54.41: SIM {TimeUS : 65635402, Roll : 0.1, Pitch : -18.03, Yaw : 54.97, Alt : 49.3400001526, Lat : 49.2837762, Lng : -123.114561, Q1 : 0.876068353653, Q2 : 0.0731837898493, Q3 : -0.138647034764, Q4 : 0.455988407135}
2019-04-14 23:10:54.51: SIM {TimeUS : 65735362, Roll : 0.11, Pitch : -18.05, Yaw : 54.96, Alt : 49.3400001526, Lat : 49.2837786, Lng : -123.1145555, Q1 : 0.876092553139, Q2 : 0.07328928262, Q3 : -0.138771057129, Q4 : 0.455887138844}
2019-04-14 23:10:54.61: SIM {TimeUS : 65835322, Roll : 0.12, Pitch : -18.07, Yaw : 54.95, Alt : 49.3400001526, Lat : 49.2837811, Lng : -123.11455, Q1 : 0.876111805439, Q2 : 0.073443248868, Q3 : -0.138860821724, Q4 : 0.455798149109}
2019-04-14 23:10:54.71: SIM {TimeUS : 65935282, Roll : 0.15, Pitch : -18.09, Yaw : 54.94, Alt : 49.3400001526, Lat : 49.2837835, Lng : -123.1145445, Q1 : 0.876118779182, Q2 : 0.0737129300833, Q3 : -0.138864800334, Q4 : 0.455739945173}
2019-04-14 23:10:54.81: SIM {TimeUS : 66035242, Roll : 0.17, Pitch : -18.1, Yaw : 54.93, Alt : 49.3400001526, Lat : 49.283786, Lng : -123.114539, Q1 : 0.876122236252, Q2 : 0.0739167332649, Q3 : -0.138938695192, Q4 : 0.455677688122}
2019-04-14 23:10:54.91: SIM {TimeUS : 66135202, Roll : 0.19, Pitch : -18.12, Yaw : 54.92, Alt : 49.3400001526, Lat : 49.2837885, Lng : -123.1145335, Q1 : 0.876124858856, Q2 : 0.0741095170379, Q3 : -0.139018118382, Q4 : 0.455617129803}
2019-04-14 23:10:55.01: SIM {TimeUS : 66235162, Roll : 0.2, Pitch : -18.14, Yaw : 54.91, Alt : 49.3400001526, Lat : 49.2837909, Lng : -123.114528, Q1 : 0.876126289368, Q2 : 0.0742934420705, Q3 : -0.139071047306, Q4 : 0.455568283796}
2019-04-14 23:10:55.11: SIM {TimeUS : 66335122, Roll : 0.23, Pitch : -18.15, Yaw : 54.9, Alt : 49.3499984741, Lat : 49.2837934, Lng : -123.1145225, Q1 : 0.876123130322, Q2 : 0.0745330452919, Q3 : -0.13905146718, Q4 : 0.455541163683}
