2019-04-15 00:36:56.30: SIM {TimeUS : 40316367, Roll : 0.0, Pitch : 0.0, Yaw : 0.0, Alt : 30.1000003815, Lat : 49.28357, Lng : -123.11502, Q1 : 1.0, Q2 : 0.0, Q3 : 0.0, Q4 : 0.0}
2019-04-15 00:36:56.41: SIM {TimeUS : 40435486, Roll : 0.0, Pitch : 0.0, Yaw : 0.0, Alt : 30.1000003815, Lat : 49.28357, Lng : -123.11502, Q1 : 1.0, Q2 : 0.0, Q3 : 0.0, Q4 : 0.0}
2019-04-15 00:36:56.51: SIM {TimeUS : 40535446, Roll : 0.0, Pitch : 0.0, Yaw : 0.0, Alt : 30.1000003815, Lat : 49.28357, Lng : -123.11502, Q1 : 1.0, Q2 : 0.0, Q3 : 0.0, Q4 : 0.0}
2019-04-15 00:36:56.61: SIM {TimeUS : 40635406, Roll : 0.0, Pitch : 0.0, Yaw : 0.0, Alt : 30.1000003815, Lat : 49.28357, Lng : -123.11502, Q1 : 1.0, Q2 : 0.0, Q3 : 0.0, Q4 : 0.0}
2019-04-15 00:36:56.71: SIM {TimeUS : 40735366, Roll : 0.0, Pitch : 0.0, Yaw : 0.0, Alt : 30.1000003815, Lat : 49.28357, Lng : -123.11502, Q1 : 1.0, Q2 : 0.0, Q3 : 0.0, Q4 : 0.0}
2019-04-15 00:36:56.81: SIM {TimeUS : 40835326, Roll : 0.0, Pitch : 0.0, Yaw : 0.0, Alt : 30.1000003815, Lat : 49.28357, Lng : -123.11502, Q1 : 1.0, Q2 : 0.0, Q3 : 0.0, Q4 : 0.0}
2019-04-15 00:36:56.91: SIM {TimeUS : 40935286, Roll : 0.0, Pitch : 0.0, Yaw : 0.0, Alt : 30.1000003815, Lat : 49.28357, Lng : -123.11502, Q1 : 1.0, Q2 : 0.0, Q3 : 0.0, Q4 : 0.0}
2019-04-15 00:36:57.01: SIM {TimeUS : 41035246, Roll : 0.0, Pitch : 0.0, Yaw : 0.0, Alt : 30.1000003815, Lat : 49.28357, Lng : -123.11502, Q1 : 1.0, Q2 : 0.0, Q3 : 0.0, Q4 : 0.0}
2019-04-15 00:36:57.11: SIM {TimeUS : 41135206, Roll : 0.0, Pitch : 0.0, Yaw : 0.0, Alt : 30.1000003815, Lat : 49.28357, Lng : -123.11502, Q1 : 1.0, Q2 : 0.0, Q3 : 0.0, Q4 : 0.0}
2019-04-15 00:36:57.21: SIM {TimeUS : 41235166, Roll : 0.0, Pitch : 0.0, Yaw : 0.0, Alt : 30.1000003815, Lat : 49.28357, Lng : -123.11502, Q1 : 1.0, Q2 : 0.0, Q3 : 0.0, Q4 : 0.0}
2019-04-15 00:36:57.31: SIM {TimeUS : 41335126, Roll : 0.0, Pitch : 0.0, Yaw : 0.0, Alt : 30.1000003815, Lat : 49.28357, Lng : -123.11502, Q1 : 1.0, Q2 : 0.0, Q3 : 0.0, Q4 : 0.0}
2019-04-15 00:36:57.41: SIM {TimeUS : 41435086, Roll : 0.0, Pitch : 0.0, Yaw : 0.0, Alt : 30.1000003815, Lat : 49.28357, Lng : -123.11502, Q1 : 1.0, Q2 : 0.0, Q3 : 0.0, Q4 : 0.0}
2019-04-15 00:36:57.51: SIM {TimeUS : 41535046, Roll : 0.0, Pitch : 0.0, Yaw : 0.0, Alt : 30.1000003815, Lat : 49.28357, Lng : -123.11502, Q1 : 1.0, Q2 : 0.0, Q3 : 0.0, Q4 : 0.0}
2019-04-15 00:36:57.61: SIM {TimeUS : 41635006, Roll : 0.0, Pitch : 0.0, Yaw : 0.0, Alt : 30.1000003815, Lat : 49.28357, Lng : -123.11502, Q1 : 1.0, Q2 : 0.0, Q3 : 0.0, Q4 : 0.0}
2019-04-15 00:36:57.71: SIM {TimeUS : 41734966, Roll : 0.0, Pitch : 0.0, Yaw : 0.0, Alt : 30.1000003815, Lat : 49.28357, Lng : -123.11502, Q1 : 1.0, Q2 : 0.0, Q3 : 0.0, Q4 : 0.0}
2019-04-15 00:36:57.81: SIM {TimeUS : 41834926, Roll : 0.0, Pitch : 0.0, Yaw : 0.0, Alt : 30.1000003815, Lat : 49.28357, Lng : -123.11502, Q1 : 1.0, Q2 : 0.0, Q3 : 0.0, Q4 : 0.0}
2019-04-15 00:36:57.91: SIM {TimeUS : 41934886, Roll : 0.0, Pitch : 0.0, Yaw : 0.0, Alt : 30.1000003815, Lat : 49.28357, Lng : -123.11502, Q1 : 1.0, Q2 : 0.0, Q3 : 0.0, Q4 : 0.0}
2019-04-15 00:36:58.01: SIM {TimeUS : 42034846, Roll : 0.0, Pitch : 0.0, Yaw : 0.0, Alt : 30.1000003815, Lat : 49.28357, Lng : -123.11502, Q1 : 1.0, Q2 : 0.0, Q3 : 0.0, Q4 : 0.0}
2019-04-15 00:36:58.11: SIM {TimeUS : 42134806, Roll : 0.0, Pitch : 0.0, Yaw : 0.0, Alt : 30.1000003815, Lat : 49.28357, Lng : -123.11502, Q1 : 1.0, Q2 : 0.0, Q3 : 0.0, Q4 : 0.0}
2019-04-15 00:36:58.21: SIM {TimeUS : 42234766, Roll : 0.0, Pitch : 0.0, Yaw : 0.0, Alt : 30.1000003815, Lat : 49.28357, Lng : -123.11502, Q1 : 1.0, Q2 : 0.0, Q3 : 0.0, Q4 : 0.0}
2019-04-15 00:36:58.31: SIM {TimeUS : 42334726, Roll : 0.0, Pitch : 0.0, Yaw : 0.0, Alt : 30.1000003815, Lat : 49.28357, Lng : -123.11502, Q1 : 1.0, Q2 : 0.0, Q3 : 0.0, Q4 : 0.0}
2019-04-15 00:36:58.42: SIM {TimeUS : 42435519, Roll : 0.0, Pitch : 0.0, Yaw : 0.0, Alt : 30.1000003815, Lat : 49.28357, Lng : -123.11502, Q1 : 1.0, Q2 : 0.0, Q3 : 0.0, Q4 : 0.0}
2019-04-15 00:36:58.51: SIM {TimeUS : 42535479, Roll : 0.0, Pitch : 0.0, Yaw : 0.0, Alt : 30.1000003815, Lat : 49.28357, Lng : -123.11502, Q1 : 1.0, Q2 : 0.0, Q3 : 0.0, Q4 : 0.0}
2019-04-15 00:36:58.61: SIM {TimeUS : 42635439, Roll : 0.0, Pitch : 0.0, Yaw : 360.0, Alt : 30.1000003815, Lat : 49.28357, Lng : -123.11502, Q1 : 1.0, Q2 : 0.0, Q3 : 0.0, Q4 : -7.26646824309e-12}
2019-04-15 00:36:58.71: SIM {TimeUS : 42735399, Roll : 0.0, Pitch : 0.0, Yaw : 0.0, Alt : 30.1000003815, Lat : 49.28357, Lng : -123.11502, Q1 : 1.0, Q2 : 0.0, Q3 : 0.0, Q4 : 2.12949782807e-10}
2019-04-15 00:36:58.81: SIM {TimeUS : 42835359, Roll : 0.0, Pitch : 0.0, Yaw : 360.0, Alt : 30.1000003815, Lat : 49.28357, Lng : -123.11502, Q1 : 1.0, Q2 : 0.0, Q3 : 0.0, Q4 : -1.12301528077e-07}
2019-04-15 00:36:58.91: SIM {TimeUS : 42935319, Roll : 0.0, Pitch : 0.0, Yaw : 359.99, Alt : 30.1000003815, Lat : 49.28357, Lng : -123.11502, Q1 : 1.0, Q2 : 0.0, Q3 : 0.0, Q4 : -2.98620506101e-07}
2019-04-15 00:36:59.01: SIM {TimeUS : 43035279, Roll : 0.0, Pitch : 0.0, Yaw : 359.99, Alt : 30.1000003815, Lat : 49.28357, Lng : -123.11502, Q1 : 1.0, Q2 : 0.0, Q3 : 0.0, Q4 : -5.02814714309e-07}
2019-04-15 00:36:59.11: SIM {TimeUS : 43135239, Roll : 0.0, Pitch : 0.0, Yaw : 359.99, Alt : 30.1000003815, Lat : 49.28357, Lng : -123.11502, Q1 : 1.0, Q2 : 0.0, Q3 : 0.0, Q4 : -6.96003894518e-07}
2019-04-15 00:36:59.21: SIM {TimeUS : 43235199, Roll : 0.0, Pitch : 0.0, Yaw : 359.99, Alt : 30.1000003815, Lat : 49.28357, Lng : -123.11502, Q1 : 1.0, Q2 : 0.0, Q3 : 0.0, Q4 : -8.89041302798e-07}
2019-04-15 00:36:59.31: SIM {TimeUS : 43335159, Roll : 0.0, Pitch : 0.0, Yaw : 359.99, Alt : 30.1000003815, Lat : 49.28357, Lng : -123.11502, Q1 : 1.0, Q2 : 0.0, Q3 : 0.0, Q4 : -1.12171767341e-06}
2019-04-15 00:36:59.41: SIM {TimeUS : 43435119, Roll : 0.0, Pitch : 0.0, Yaw : 359.99, Alt : 30.1000003815, Lat : 49.28357, Lng : -123.11502, Q1 : 1.0, Q2 : 0.0, Q3 : 0.0, Q4 : -1.30188868752e-06}
2019-04-15 00:36:59.51: SIM {TimeUS : 43535079, Roll : 0.0, Pitch : 0.0, Yaw : 359.99, Alt : 30.1100006104, Lat : 49.28357, Lng : -123.11502, Q1 : 1.0, Q2 : 0.0, Q3 : 0.0, Q4 : -1.52426150635e-06}
2019-04-15 00:36:59.61: SIM {TimeUS : 43635039, Roll : 0.0, Pitch : 0.0, Yaw : 359.99, Alt : 30.1299991608, Lat : 49.28357, Lng : -123.11502, Q1 : 1.0, Q2 : 0.0, Q3 : 0.0, Q4 : -1.73454213837e-06}
2019-04-15 00:36:59.71: SIM {TimeUS : 43734999, Roll : 0.0, Pitch : 0.0, Yaw : 359.99, Alt : 30.1599998474, Lat : 49.28357, Lng : -123.11502, Q1 : 1.0, Q2 : 0.0, Q3 : 0.0, Q4 : -1.90530249711e-06}
2019-04-15 00:36:59.81: SIM {TimeUS : 43834959, Roll : 0.0, Pitch : 0.0, Yaw : 359.99, Alt : 30.1900005341, Lat : 49.28357, Lng : -123.11502, Q1 : 1.0, Q2 : 0.0, Q3 : 0.0, Q4 : -2.08911092159e-06}
2019-04-15 00:36:59.91: SIM {TimeUS : 43934919, Roll : -0.03, Pitch : -0.03, Yaw : 359.99, Alt : 30.2299995422, Lat : 49.28357, Lng : -123.11502, Q1 : 0.999999880791, Q2 : -0.000339988007909, Q3 : -0.000311969488394, Q4 : -4.39524046669e-06}
2019-04-15 00:37:00.01: SIM {TimeUS : 44034879, Roll : -0.29, Pitch : -0.26, Yaw : 359.99, Alt : 30.3099994659, Lat : 49.28357, Lng : -123.11502, Q1 : 0.999994039536, Q2 : -0.00255792099051, Q3 : -0.00230704643764, Q4 : -3.15323304676e-05}
2019-04-15 00:37:00.11: SIM {TimeUS : 44134839, Roll : -0.6, Pitch : -0.54, Yaw : 359.99, Alt : 30.4400005341, Lat : 49.28357, Lng : -123.11502, Q1 : 0.999975085258, Q2 : -0.0052583492361, Q3 : -0.00471341889352, Q4 : -8.65066540428e-05}
2019-04-15 00:37:00.21: SIM {TimeUS : 44234799, Roll : -0.81, Pitch : -0.72, Yaw : 359.98, Alt : 30.6000003815, Lat : 49.28357, Lng : -123.11502, Q1 : 0.999954879284, Q2 : -0.00711498269811, Q3 : -0.00629502441734, Q4 : -0.000164166980539}
2019-04-15 00:37:00.31: SIM {TimeUS : 44334759, Roll : -0.86, Pitch : -0.75, Yaw : 359.97, Alt : 30.7600002289, Lat : 49.28357, Lng : -123.11502, Q1 : 0.999949753284, Q2 : -0.00754542183131, Q3 : -0.00659844465554, Q4 : -0.000253171398072}
2019-04-15 00:37:00.41: SIM {TimeUS : 44434719, Roll : -0.74, Pitch : -0.67, Yaw : 359.96, Alt : 30.9099998474, Lat : 49.28357, Lng : -123.1150201, Q1 : 0.999961495399, Q2 : -0.00652360077947, Q3 : -0.00586383929476, Q4 : -0.000335000717314}
2019-04-15 00:37:00.52: SIM {TimeUS : 44535512, Roll : -0.53, Pitch : -0.49, Yaw : 359.95, Alt : 31.0699996948, Lat : 49.2835701, Lng : -123.1150202, Q1 : 0.999979674816, Q2 : -0.00465724105015, Q3 : -0.00433931825683, Q4 : -0.000412121822592}
2019-04-15 00:37:00.61: SIM {TimeUS : 44635472, Roll : -0.31, Pitch : -0.28, Yaw : 359.94, Alt : 31.2199993134, Lat : 49.2835701, Lng : -123.1150202, Q1 : 0.999993026257, Q2 : -0.0027144998312, Q3 : -0.00252116494812, Q4 : -0.000470895902254}
2019-04-15 00:37:00.71: SIM {TimeUS : 44735432, Roll : -0.12, Pitch : -0.11, Yaw : 359.94, Alt : 31.3899993896, Lat : 49.2835702, Lng : -123.1150203, Q1 : 0.999998807907, Q2 : -0.00106386502739, Q3 : -0.000978469615802, Q4 : -0.000510499114171}
2019-04-15 00:37:00.81: SIM {TimeUS : 44835392, Roll : 0.0, Pitch : 0.0, Yaw : 359.93, Alt : 31.5599994659, Lat : 49.2835702, Lng : -123.1150204, Q1 : 0.999999880791, Q2 : 6.7678913183e-05, Q3 : 1.76775010914e-05, Q4 : -0.000535750237759}
2019-04-15 00:37:00.91: SIM {TimeUS : 44935352, Roll : 0.07, Pitch : 0.05, Yaw : 359.93, Alt : 31.7399997711, Lat : 49.2835703, Lng : -123.1150205, Q1 : 0.999999582767, Q2 : 0.000639292353299, Q3 : 0.000446311372798, Q4 : -0.000542652443983}
2019-04-15 00:37:01.01: SIM {TimeUS : 45035312, Roll : 0.09, Pitch : 0.05, Yaw : 359.93, Alt : 31.9200000763, Lat : 49.2835703, Lng : -123.1150205, Q1 : 0.999999403954, Q2 : 0.000857044884469, Q3 : 0.000451414118288, Q4 : -0.00053965713596}
2019-04-15 00:37:01.11: SIM {TimeUS : 45135272, Roll : 0.1, Pitch : 0.03, Yaw : 359.93, Alt : 32.1100006104, Lat : 49.2835703, Lng : -123.1150206, Q1 : 0.999999403954, Q2 : 0.000900837650988, Q3 : 0.000299524806906, Q4 : -0.000535186205525}
2019-04-15 00:37:01.21: SIM {TimeUS : 45235232, Roll : 0.09, Pitch : 0.03, Yaw : 359.94, Alt : 32.2900009155, Lat : 49.2835703, Lng : -123.1150207, Q1 : 0.999999463558, Q2 : 0.000850548269227, Q3 : 0.000271329452517, Q4 : -0.000518990738783}
2019-04-15 00:37:01.31: SIM {TimeUS : 45335192, Roll : 0.08, Pitch : 0.05, Yaw : 359.94, Alt : 32.4900016785, Lat : 49.2835703, Lng : -123.1150207, Q1 : 0.999999463558, Q2 : 0.000741361523978, Q3 : 0.000495586369652, Q4 : -0.000483901851112}
2019-04-15 00:37:01.41: SIM {TimeUS : 45435152, Roll : 0.06, Pitch : 0.08, Yaw : 359.94, Alt : 32.6800003052, Lat : 49.2835703, Lng : -123.1150207, Q1 : 0.999999463558, Q2 : 0.000610899995081, Q3 : 0.000750349543523, Q4 : -0.000449270708486}
2019-04-15 00:37:01.51: SIM {TimeUS : 45535112, Roll : 0.08, Pitch : 0.13, Yaw : 359.95, Alt : 32.8800010681, Lat : 49.2835704, Lng : -123.1150208, Q1 : 0.999998927116, Q2 : 0.000745650148019, Q3 : 0.00116777291987, Q4 : -0.000427627906902}
2019-04-15 00:37:01.61: SIM {TimeUS : 45635072, Roll : 0.12, Pitch : 0.17, Yaw : 359.95, Alt : 33.0800018311, Lat : 49.2835704, Lng : -123.1150208, Q1 : 0.999998211861, Q2 : 0.0010550058214, Q3 : 0.00152378517669, Q4 : -0.000417006842326}
2019-04-15 00:37:01.71: SIM {TimeUS : 45735032, Roll : 0.14, Pitch : 0.19, Yaw : 359.95, Alt : 33.2799987793, Lat : 49.2835704, Lng : -123.1150208, Q1 : 0.99999755621, Q2 : 0.00129321333952, Q3 : 0.00172482221387, Q4 : -0.000432120665209}
2019-04-15 00:37:01.81: SIM {TimeUS : 45834992, Roll : 0.16, Pitch : 0.21, Yaw : 359.94, Alt : 33.4900016785, Lat : 49.2835704, Lng : -123.1150208, Q1 : 0.999997198582, Q2 : 0.0014091252815, Q3 : 0.00186616531573, Q4 : -0.000454903580248}
2019-04-15 00:37:01.91: SIM {TimeUS : 45934952, Roll : 0.16, Pitch : 0.18, Yaw : 359.94, Alt : 33.6899986267, Lat : 49.2835704, Lng : -123.1150209, Q1 : 0.999997496605, Q2 : 0.00143468868919, Q3 : 0.00164260843303, Q4 : -0.000496452033985}
2019-04-15 00:37:02.01: SIM {TimeUS : 46034912, Roll : 0.15, Pitch : 0.14, Yaw : 359.93, Alt : 33.9000015259, Lat : 49.2835704, Lng : -123.1150209, Q1 : 0.999998092651, Q2 : 0.00135937449522, Q3 : 0.00127981987316, Q4 : -0.000536362698767}
2019-04-15 00:37:02.11: SIM {TimeUS : 46134872, Roll : 0.13, Pitch : 0.11, Yaw : 359.93, Alt : 34.1100006104, Lat : 49.2835704, Lng : -123.1150209, Q1 : 0.999998629093, Q2 : 0.00117952213623, Q3 : 0.000997816328891, Q4 : -0.000577678030822}
2019-04-15 00:37:02.21: SIM {TimeUS : 46234832, Roll : 0.12, Pitch : 0.09, Yaw : 359.92, Alt : 34.3199996948, Lat : 49.2835704, Lng : -123.1150209, Q1 : 0.999998927116, Q2 : 0.00107013015077, Q3 : 0.000813335063867, Q4 : -0.000612351170275}
2019-04-15 00:37:02.31: SIM {TimeUS : 46334792, Roll : 0.11, Pitch : 0.09, Yaw : 359.92, Alt : 34.5400009155, Lat : 49.2835704, Lng : -123.1150209, Q1 : 0.999998927116, Q2 : 0.00103476736695, Q3 : 0.000788634468336, Q4 : -0.000641094346065}
2019-04-15 00:37:02.41: SIM {TimeUS : 46434752, Roll : 0.1, Pitch : 0.07, Yaw : 359.92, Alt : 34.75, Lat : 49.2835704, Lng : -123.1150208, Q1 : 0.999999165535, Q2 : 0.000934352865443, Q3 : 0.000626305758487, Q4 : -0.000656209303997}
2019-04-15 00:37:02.51: SIM {TimeUS : 46534712, Roll : 0.08, Pitch : 0.05, Yaw : 359.92, Alt : 34.9700012207, Lat : 49.2835704, Lng : -123.1150208, Q1 : 0.999999403954, Q2 : 0.000744831282645, Q3 : 0.000466947851237, Q4 : -0.000662306149025}
2019-04-15 00:37:02.62: SIM {TimeUS : 46635505, Roll : 0.06, Pitch : 0.04, Yaw : 359.92, Alt : 35.1800003052, Lat : 49.2835704, Lng : -123.1150208, Q1 : 0.999999523163, Q2 : 0.000541736721061, Q3 : 0.000406572740758, Q4 : -0.000664566585328}
2019-04-15 00:37:02.71: SIM {TimeUS : 46735465, Roll : 0.04, Pitch : 0.04, Yaw : 359.92, Alt : 35.4000015259, Lat : 49.2835704, Lng : -123.1150208, Q1 : 0.999999642372, Q2 : 0.000362894294085, Q3 : 0.000392642774386, Q4 : -0.000664781196974}
2019-04-15 00:37:02.81: SIM {TimeUS : 46835425, Roll : 0.03, Pitch : 0.01, Yaw : 359.92, Alt : 35.6199989319, Lat : 49.2835704, Lng : -123.1150208, Q1 : 0.999999701977, Q2 : 0.000286668684566, Q3 : 0.000145621816046, Q4 : -0.000667868705932}
2019-04-15 00:37:02.91: SIM {TimeUS : 46935385, Roll : 0.02, Pitch : 0.0, Yaw : 359.92, Alt : 35.8400001526, Lat : 49.2835704, Lng : -123.1150208, Q1 : 0.999999701977, Q2 : 0.000238325636019, Q3 : -6.05517379881e-05, Q4 : -0.000682136917021}
2019-04-15 00:37:03.01: SIM {TimeUS : 47035345, Roll : 0.0, Pitch : -0.02, Yaw : 359.91, Alt : 36.0600013733, Lat : 49.2835704, Lng : -123.1150207, Q1 : 0.999999761581, Q2 : 4.60086703242e-05, Q3 : -0.000176569345058, Q4 : -0.000709460524376}
2019-04-15 00:37:03.11: SIM {TimeUS : 47135305, Roll : 0.0, Pitch : -0.01, Yaw : 359.91, Alt : 36.2799987793, Lat : 49.2835704, Lng : -123.1150207, Q1 : 0.999999701977, Q2 : -1.91011549759e-05, Q3 : -0.000162027528859, Q4 : -0.000729168648832}
2019-04-15 00:37:03.21: SIM {TimeUS : 47235265, Roll : 0.0, Pitch : -0.01, Yaw : 359.91, Alt : 36.5, Lat : 49.2835704, Lng : -123.1150207, Q1 : 0.999999701977, Q2 : 5.95353376411e-05, Q3 : -0.000161651303642, Q4 : -0.000746054342017}
2019-04-15 00:37:03.31: SIM {TimeUS : 47335225, Roll : 0.0, Pitch : -0.02, Yaw : 359.91, Alt : 36.7200012207, Lat : 49.2835704, Lng : -123.1150207, Q1 : 0.999999642372, Q2 : -2.63841957349e-05, Q3 : -0.00025683970307, Q4 : -0.000768422789406}
2019-04-15 00:37:03.41: SIM {TimeUS : 47435185, Roll : -0.03, Pitch : -0.05, Yaw : 359.9, Alt : 36.9500007629, Lat : 49.2835704, Lng : -123.1150207, Q1 : 0.999999523163, Q2 : -0.000302063417621, Q3 : -0.000475230597658, Q4 : -0.000802072871011}
2019-04-15 00:37:03.51: SIM {TimeUS : 47535145, Roll : -0.07, Pitch : -0.07, Yaw : 359.9, Alt : 37.1699981689, Lat : 49.2835704, Lng : -123.1150207, Q1 : 0.99999922514, Q2 : -0.00064499193104, Q3 : -0.000666786218062, Q4 : -0.000842258916236}
2019-04-15 00:37:03.61: SIM {TimeUS : 47635105, Roll : -0.11, Pitch : -0.09, Yaw : 359.89, Alt : 37.4000015259, Lat : 49.2835704, Lng : -123.1150207, Q1 : 0.999998807907, Q2 : -0.000971939181909, Q3 : -0.000831361801829, Q4 : -0.00088241515914}
2019-04-15 00:37:03.71: SIM {TimeUS : 47735065, Roll : -0.12, Pitch : -0.1, Yaw : 359.89, Alt : 37.6199989319, Lat : 49.2835704, Lng : -123.1150207, Q1 : 0.999998569489, Q2 : -0.00110910274088, Q3 : -0.000881223473698, Q4 : -0.000926173001062}
2019-04-15 00:37:03.81: SIM {TimeUS : 47835025, Roll : -0.12, Pitch : -0.08, Yaw : 359.88, Alt : 37.8499984741, Lat : 49.2835704, Lng : -123.1150207, Q1 : 0.999998688698, Q2 : -0.00106629508082, Q3 : -0.0007699309499, Q4 : -0.000969055457972}
2019-04-15 00:37:03.91: SIM {TimeUS : 47934985, Roll : -0.09, Pitch : -0.05, Yaw : 359.88, Alt : 38.0699996948, Lat : 49.2835704, Lng : -123.1150206, Q1 : 0.999998986721, Q2 : -0.000863542256411, Q3 : -0.00048365679686, Q4 : -0.00100237573497}
2019-04-15 00:37:04.01: SIM {TimeUS : 48034945, Roll : -0.07, Pitch : -0.02, Yaw : 359.88, Alt : 38.2999992371, Lat : 49.2835704, Lng : -123.1150206, Q1 : 0.99999922514, Q2 : -0.000618910649791, Q3 : -0.000260967732174, Q4 : -0.00103419122752}
2019-04-15 00:37:04.11: SIM {TimeUS : 48134905, Roll : -0.06, Pitch : -0.02, Yaw : 359.87, Alt : 38.5299987793, Lat : 49.2835704, Lng : -123.1150206, Q1 : 0.999999284744, Q2 : -0.000528568110894, Q3 : -0.000234927021665, Q4 : -0.00106416607741}
2019-04-15 00:37:04.21: SIM {TimeUS : 48234865, Roll : -0.06, Pitch : -0.01, Yaw : 359.87, Alt : 38.7599983215, Lat : 49.2835704, Lng : -123.1150206, Q1 : 0.999999284744, Q2 : -0.000533170357812, Q3 : -0.000116273156891, Q4 : -0.00108659162652}
2019-04-15 00:37:04.31: SIM {TimeUS : 48334825, Roll : -0.07, Pitch : 0.0, Yaw : 359.87, Alt : 38.9900016785, Lat : 49.2835706, Lng : -123.1150206, Q1 : 0.999999165535, Q2 : -0.000677703996189, Q3 : 3.1171253795e-05, Q4 : -0.00109829567373}
2019-04-15 00:37:04.41: SIM {TimeUS : 48434785, Roll : -0.07, Pitch : 0.01, Yaw : 359.87, Alt : 39.2200012207, Lat : 49.2835706, Lng : -123.1150206, Q1 : 0.999999165535, Q2 : -0.000680094817653, Q3 : 0.000162622513017, Q4 : -0.00109954224899}
2019-04-15 00:37:04.51: SIM {TimeUS : 48534745, Roll : -0.05, Pitch : 0.04, Yaw : 359.87, Alt : 39.4500007629, Lat : 49.2835706, Lng : -123.1150207, Q1 : 0.999999165535, Q2 : -0.000517222040799, Q3 : 0.000384307379136, Q4 : -0.00110341701657}
2019-04-15 00:37:04.61: SIM {TimeUS : 48634705, Roll : -0.03, Pitch : 0.04, Yaw : 359.87, Alt : 39.6800003052, Lat : 49.2835706, Lng : -123.1150207, Q1 : 0.999999284744, Q2 : -0.000317319179885, Q3 : 0.000375645904569, Q4 : -0.00110012385994}
2019-04-15 00:37:04.72: SIM {TimeUS : 48735498, Roll : 0.0, Pitch : 0.03, Yaw : 359.87, Alt : 39.9099998474, Lat : 49.2835706, Lng : -123.1150207, Q1 : 0.999999344349, Q2 : -7.93914587121e-05, Q3 : 0.000318837846862, Q4 : -0.00109595549293}
2019-04-15 00:37:04.81: SIM {TimeUS : 48835458, Roll : 0.02, Pitch : 0.05, Yaw : 359.87, Alt : 40.1399993896, Lat : 49.2835706, Lng : -123.1150207, Q1 : 0.999999284744, Q2 : 0.00022640718089, Q3 : 0.000500551483128, Q4 : -0.0010845240904}
2019-04-15 00:37:04.91: SIM {TimeUS : 48935418, Roll : 0.06, Pitch : 0.09, Yaw : 359.87, Alt : 40.3699989319, Lat : 49.2835706, Lng : -123.1150207, Q1 : 0.999998867512, Q2 : 0.000567034177948, Q3 : 0.000843753688969, Q4 : -0.00108167110011}
2019-04-15 00:37:05.01: SIM {TimeUS : 49035378, Roll : 0.09, Pitch : 0.14, Yaw : 359.87, Alt : 40.5999984741, Lat : 49.2835706, Lng : -123.1150207, Q1 : 0.999998271465, Q2 : 0.000826504488941, Q3 : 0.00124472135212, Q4 : -0.00109026022255}
2019-04-15 00:37:05.11: SIM {TimeUS : 49135338, Roll : 0.08, Pitch : 0.18, Yaw : 359.87, Alt : 40.8400001526, Lat : 49.2835706, Lng : -123.1150207, Q1 : 0.999997735023, Q2 : 0.000783894036431, Q3 : 0.00163445947692, Q4 : -0.00109537865501}
2019-04-15 00:37:05.21: SIM {TimeUS : 49235298, Roll : 0.04, Pitch : 0.21, Yaw : 359.87, Alt : 41.0699996948, Lat : 49.2835706, Lng : -123.1150207, Q1 : 0.99999755621, Q2 : 0.000397087220335, Q3 : 0.00188128708396, Q4 : -0.00112278130837}
2019-04-15 00:37:05.31: SIM {TimeUS : 49335258, Roll : 0.0, Pitch : 0.21, Yaw : 359.86, Alt : 41.2999992371, Lat : 49.2835706, Lng : -123.1150207, Q1 : 0.999997496605, Q2 : 1.18572488645e-05, Q3 : 0.00191519863438, Q4 : -0.00114906823728}
2019-04-15 00:37:05.41: SIM {TimeUS : 49435218, Roll : -0.02, Pitch : 0.18, Yaw : 359.86, Alt : 41.5400009155, Lat : 49.2835706, Lng : -123.1150207, Q1 : 0.999998033047, Q2 : -0.000192625069758, Q3 : 0.00160484248772, Q4 : -0.0011722042691}
2019-04-15 00:37:05.51: SIM {TimeUS : 49535178, Roll : -0.02, Pitch : 0.13, Yaw : 359.86, Alt : 41.7700004578, Lat : 49.2835706, Lng : -123.1150207, Q1 : 0.999998509884, Q2 : -0.000249383359915, Q3 : 0.00119396543596, Q4 : -0.0012024109019}
2019-04-15 00:37:05.61: SIM {TimeUS : 49635138, Roll : -0.01, Pitch : 0.12, Yaw : 359.85, Alt : 42.0, Lat : 49.2835706, Lng : -123.1150207, Q1 : 0.999998688698, Q2 : -0.000143653873238, Q3 : 0.00105332466774, Q4 : -0.00123940873891}
2019-04-15 00:37:05.71: SIM {TimeUS : 49735098, Roll : 0.02, Pitch : 0.12, Yaw : 359.85, Alt : 42.2400016785, Lat : 49.2835706, Lng : -123.1150207, Q1 : 0.999998569489, Q2 : 0.000190518694581, Q3 : 0.00112319015898, Q4 : -0.00128150731325}
2019-04-15 00:37:05.81: SIM {TimeUS : 49835058, Roll : 0.07, Pitch : 0.13, Yaw : 359.84, Alt : 42.4700012207, Lat : 49.2835706, Lng : -123.1150207, Q1 : 0.999998211861, Q2 : 0.000616320583504, Q3 : 0.00118427537382, Q4 : -0.00132524233777}
2019-04-15 00:37:05.91: SIM {TimeUS : 49935018, Roll : 0.1, Pitch : 0.11, Yaw : 359.84, Alt : 42.7099990845, Lat : 49.2835706, Lng : -123.1150207, Q1 : 0.999998092651, Q2 : 0.000918687612284, Q3 : 0.00104370166082, Q4 : -0.00137280125637}
2019-04-15 00:37:06.01: SIM {TimeUS : 50034978, Roll : 0.1, Pitch : 0.09, Yaw : 359.83, Alt : 42.9399986267, Lat : 49.2835706, Lng : -123.1150207, Q1 : 0.999998211861, Q2 : 0.000934697978664, Q3 : 0.000824859307613, Q4 : -0.00141525315121}
2019-04-15 00:37:06.11: SIM {TimeUS : 50134938, Roll : 0.07, Pitch : 0.07, Yaw : 359.83, Alt : 43.1800003052, Lat : 49.2835706, Lng : -123.1150207, Q1 : 0.999998569489, Q2 : 0.000617320707534, Q3 : 0.000670588400681, Q4 : -0.00144334486686}
2019-04-15 00:37:06.21: SIM {TimeUS : 50234898, Roll : 0.01, Pitch : 0.07, Yaw : 359.83, Alt : 43.4099998474, Lat : 49.2835704, Lng : -123.1150207, Q1 : 0.999998748302, Q2 : 0.0001440414635, Q3 : 0.000638452765997, Q4 : -0.00146299297921}
2019-04-15 00:37:06.31: SIM {TimeUS : 50334858, Roll : -0.02, Pitch : 0.08, Yaw : 359.83, Alt : 43.6500015259, Lat : 49.2835704, Lng : -123.1150207, Q1 : 0.999998569489, Q2 : -0.000192281775526, Q3 : 0.000754216162022, Q4 : -0.00148178637028}
2019-04-15 00:37:06.41: SIM {TimeUS : 50434818, Roll : -0.04, Pitch : 0.09, Yaw : 359.82, Alt : 43.8800010681, Lat : 49.2835704, Lng : -123.1150207, Q1 : 0.999998509884, Q2 : -0.000348601839505, Q3 : 0.000790902529843, Q4 : -0.00149917427916}
2019-04-15 00:37:06.51: SIM {TimeUS : 50534778, Roll : -0.03, Pitch : 0.07, Yaw : 359.82, Alt : 44.1199989319, Lat : 49.2835704, Lng : -123.1150206, Q1 : 0.999998569489, Q2 : -0.000329745031195, Q3 : 0.000654842995573, Q4 : -0.00151643122081}
2019-04-15 00:37:06.61: SIM {TimeUS : 50634738, Roll : -0.04, Pitch : 0.05, Yaw : 359.82, Alt : 44.3499984741, Lat : 49.2835704, Lng : -123.1150206, Q1 : 0.999998629093, Q2 : -0.000397237745347, Q3 : 0.000468762416858, Q4 : -0.00154087599367}
2019-04-15 00:37:06.71: SIM {TimeUS : 50734698, Roll : -0.04, Pitch : 0.02, Yaw : 359.82, Alt : 44.5900001526, Lat : 49.2835704, Lng : -123.1150206, Q1 : 0.999998688698, Q2 : -0.000391640525777, Q3 : 0.000258095737081, Q4 : -0.00156716210768}
2019-04-15 00:37:06.81: SIM {TimeUS : 50835491, Roll : -0.03, Pitch : 0.0, Yaw : 359.81, Alt : 44.8300018311, Lat : 49.2835704, Lng : -123.1150206, Q1 : 0.999998688698, Q2 : -0.000308982678689, Q3 : 6.71009183861e-05, Q4 : -0.00159698270727}
2019-04-15 00:37:06.91: SIM {TimeUS : 50935451, Roll : -0.03, Pitch : 0.0, Yaw : 359.81, Alt : 45.0600013733, Lat : 49.2835703, Lng : -123.1150206, Q1 : 0.999998629093, Q2 : -0.000273064157227, Q3 : -4.6552871936e-05, Q4 : -0.00162897142582}
2019-04-15 00:37:07.01: SIM {TimeUS : 51035411, Roll : -0.02, Pitch : -0.01, Yaw : 359.8, Alt : 45.2999992371, Lat : 49.2835703, Lng : -123.1150206, Q1 : 0.999998569489, Q2 : -0.000247145741014, Q3 : -9.87273306237e-05, Q4 : -0.0016610941384}
2019-04-15 00:37:07.11: SIM {TimeUS : 51135371, Roll : -0.02, Pitch : -0.03, Yaw : 359.8, Alt : 45.5299987793, Lat : 49.2835703, Lng : -123.1150206, Q1 : 0.999998509884, Q2 : -0.000261752604274, Q3 : -0.000292085373076, Q4 : -0.00168645661324}
2019-04-15 00:37:07.21: SIM {TimeUS : 51235331, Roll : -0.02, Pitch : -0.04, Yaw : 359.8, Alt : 45.7700004578, Lat : 49.2835703, Lng : -123.1150206, Q1 : 0.999998450279, Q2 : -0.000242129361141, Q3 : -0.000382356054615, Q4 : -0.00170886155684}
2019-04-15 00:37:07.31: SIM {TimeUS : 51335291, Roll : -0.02, Pitch : -0.05, Yaw : 359.8, Alt : 46.0, Lat : 49.2835703, Lng : -123.1150206, Q1 : 0.999998390675, Q2 : -0.000210889760638, Q3 : -0.000442891498096, Q4 : -0.00172773445956}
2019-04-15 00:37:07.41: SIM {TimeUS : 51435251, Roll : -0.03, Pitch : -0.05, Yaw : 359.79, Alt : 46.2299995422, Lat : 49.2835703, Lng : -123.1150206, Q1 : 0.99999833107, Q2 : -0.000263545720372, Q3 : -0.000450542516774, Q4 : -0.00174744043034}
2019-04-15 00:37:07.51: SIM {TimeUS : 51535211, Roll : -0.05, Pitch : -0.04, Yaw : 359.79, Alt : 46.4500007629, Lat : 49.2835703, Lng : -123.1150206, Q1 : 0.999998271465, Q2 : -0.00045027845772, Q3 : -0.000398782431148, Q4 : -0.00177140813321}
2019-04-15 00:37:07.61: SIM {TimeUS : 51635171, Roll : -0.08, Pitch : -0.03, Yaw : 359.79, Alt : 46.6699981689, Lat : 49.2835703, Lng : -123.1150206, Q1 : 0.999998033047, Q2 : -0.000766071840189, Q3 : -0.000344756030245, Q4 : -0.00179835804738}
2019-04-15 00:37:07.71: SIM {TimeUS : 51735131, Roll : -0.11, Pitch : -0.03, Yaw : 359.79, Alt : 46.8899993896, Lat : 49.2835703, Lng : -123.1150206, Q1 : 0.999997794628, Q2 : -0.000982581521384, Q3 : -0.000334004318574, Q4 : -0.00182852463331}
2019-04-15 00:37:07.81: SIM {TimeUS : 51835091, Roll : -0.11, Pitch : -0.02, Yaw : 359.78, Alt : 47.0900001526, Lat : 49.2835703, Lng : -123.1150206, Q1 : 0.999997735023, Q2 : -0.0010192982154, Q3 : -0.000247855932685, Q4 : -0.00186241185293}
2019-04-15 00:37:07.91: SIM {TimeUS : 51935051, Roll : -0.1, Pitch : 0.0, Yaw : 359.78, Alt : 47.2900009155, Lat : 49.2835703, Lng : -123.1150206, Q1 : 0.999997794628, Q2 : -0.000907514826395, Q3 : -5.54123253096e-05, Q4 : -0.00189690932166}
2019-04-15 00:37:08.01: SIM {TimeUS : 52035011, Roll : -0.07, Pitch : 0.0, Yaw : 359.77, Alt : 47.4900016785, Lat : 49.2835703, Lng : -123.1150206, Q1 : 0.999997913837, Q2 : -0.000682285462972, Q3 : 7.35979119781e-05, Q4 : -0.00192790711299}
2019-04-15 00:37:08.11: SIM {TimeUS : 52134971, Roll : -0.06, Pitch : 0.0, Yaw : 359.77, Alt : 47.6699981689, Lat : 49.2835703, Lng : -123.1150206, Q1 : 0.999997913837, Q2 : -0.000567184470128, Q3 : 2.60005344899e-05, Q4 : -0.00195734249428}
2019-04-15 00:37:08.21: SIM {TimeUS : 52234931, Roll : -0.07, Pitch : -0.01, Yaw : 359.77, Alt : 47.8400001526, Lat : 49.2835703, Lng : -123.1150206, Q1 : 0.999997854233, Q2 : -0.000631116505247, Q3 : -0.000162964308402, Q4 : -0.00198154477403}
2019-04-15 00:37:08.31: SIM {TimeUS : 52334891, Roll : -0.06, Pitch : -0.04, Yaw : 359.77, Alt : 48.0, Lat : 49.2835703, Lng : -123.1150206, Q1 : 0.999997735023, Q2 : -0.000606504268944, Q3 : -0.000405719736591, Q4 : -0.00200299196877}
2019-04-15 00:37:08.41: SIM {TimeUS : 52434851, Roll : -0.04, Pitch : -0.06, Yaw : 359.76, Alt : 48.1500015259, Lat : 49.2835703, Lng : -123.1150206, Q1 : 0.999997675419, Q2 : -0.000420562544605, Q3 : -0.000608246424235, Q4 : -0.0020218892023}
2019-04-15 00:37:08.51: SIM {TimeUS : 52534811, Roll : -0.03, Pitch : -0.08, Yaw : 359.76, Alt : 48.2799987793, Lat : 49.2835703, Lng : -123.1150206, Q1 : 0.999997615814, Q2 : -0.000266731745796, Q3 : -0.000765832082834, Q4 : -0.00203908863477}
2019-04-15 00:37:08.61: SIM {TimeUS : 52634771, Roll : -0.02, Pitch : -0.09, Yaw : 359.76, Alt : 48.4099998474, Lat : 49.2835703, Lng : -123.1150206, Q1 : 0.999997496605, Q2 : -0.000204156458494, Q3 : -0.000863548484631, Q4 : -0.00205475394614}
2019-04-15 00:37:08.71: SIM {TimeUS : 52734731, Roll : 0.0, Pitch : -0.09, Yaw : 359.76, Alt : 48.5200004578, Lat : 49.2835703, Lng : -123.1150206, Q1 : 0.999997496605, Q2 : 3.90819004679e-05, Q3 : -0.000813455379102, Q4 : -0.00207273941487}
2019-04-15 00:37:08.82: SIM {TimeUS : 52835524, Roll : 0.03, Pitch : -0.07, Yaw : 359.75, Alt : 48.6199989319, Lat : 49.2835703, Lng : -123.1150206, Q1 : 0.99999755621, Q2 : 0.000307244423311, Q3 : -0.000635981268715, Q4 : -0.00209456682205}
2019-04-15 00:37:08.91: SIM {TimeUS : 52935484, Roll : 0.05, Pitch : -0.04, Yaw : 359.75, Alt : 48.7099990845, Lat : 49.2835703, Lng : -123.1150206, Q1 : 0.99999755621, Q2 : 0.000501900969539, Q3 : -0.000414184527472, Q4 : -0.0021232413128}
2019-04-15 00:37:09.01: SIM {TimeUS : 53035444, Roll : 0.05, Pitch : -0.02, Yaw : 359.75, Alt : 48.7799987793, Lat : 49.2835703, Lng : -123.1150206, Q1 : 0.999997496605, Q2 : 0.000519720662851, Q3 : -0.000215496387682, Q4 : -0.0021535877604}
2019-04-15 00:37:09.11: SIM {TimeUS : 53135404, Roll : 0.06, Pitch : -0.01, Yaw : 359.74, Alt : 48.8499984741, Lat : 49.2835703, Lng : -123.1150206, Q1 : 0.999997437, Q2 : 0.000560835993383, Q3 : -0.00012078454165, Q4 : -0.00218456611037}
2019-04-15 00:37:09.21: SIM {TimeUS : 53235364, Roll : 0.05, Pitch : -0.02, Yaw : 359.74, Alt : 48.9099998474, Lat : 49.2835703, Lng : -123.1150206, Q1 : 0.999997377396, Q2 : 0.000520703615621, Q3 : -0.000229215962463, Q4 : -0.00221809768118}
2019-04-15 00:37:09.31: SIM {TimeUS : 53335324, Roll : 0.03, Pitch : -0.03, Yaw : 359.74, Alt : 48.9599990845, Lat : 49.2835703, Lng : -123.1150206, Q1 : 0.999997317791, Q2 : 0.0003384630254, Q3 : -0.000307252747007, Q4 : -0.00225388235413}
2019-04-15 00:37:09.41: SIM {TimeUS : 53435284, Roll : 0.07, Pitch : -0.07, Yaw : 359.73, Alt : 49.0, Lat : 49.2835703, Lng : -123.1150206, Q1 : 0.999996960163, Q2 : 0.000683111720718, Q3 : -0.000613850424998, Q4 : -0.00229168962687}
2019-04-15 00:37:09.51: SIM {TimeUS : 53535244, Roll : 0.28, Pitch : -0.21, Yaw : 359.73, Alt : 49.0400009155, Lat : 49.2835703, Lng : -123.1150206, Q1 : 0.999992370605, Q2 : 0.0025100777857, Q3 : -0.0018957008142, Q4 : -0.00231965794228}
2019-04-15 00:37:09.61: SIM {TimeUS : 53635204, Roll : 0.72, Pitch : -0.5, Yaw : 359.72, Alt : 49.0699996948, Lat : 49.2835703, Lng : -123.1150206, Q1 : 0.999967217445, Q2 : 0.00634852284566, Q3 : -0.0044452981092, Q4 : -0.00233400170691}
2019-04-15 00:37:09.71: SIM {TimeUS : 53735164, Roll : 1.4, Pitch : -0.93, Yaw : 359.72, Alt : 49.0900001526, Lat : 49.2835704, Lng : -123.1150206, Q1 : 0.999888956547, Q2 : 0.0122247245163, Q3 : -0.0082001555711, Q4 : -0.00233463081531}
2019-04-15 00:37:09.81: SIM {TimeUS : 53835124, Roll : 2.23, Pitch : -1.48, Yaw : 359.7, Alt : 49.1199989319, Lat : 49.2835704, Lng : -123.1150206, Q1 : 0.999723374844, Q2 : 0.0194782409817, Q3 : -0.0129786748439, Q4 : -0.00231392448768}
2019-04-15 00:37:09.91: SIM {TimeUS : 53935084, Roll : 3.11, Pitch : -2.09, Yaw : 359.68, Alt : 49.1300010681, Lat : 49.2835704, Lng : -123.1150205, Q1 : 0.999461770058, Q2 : 0.027085904032, Q3 : -0.0183690339327, Q4 : -0.00225713476539}
2019-04-15 00:37:10.01: SIM {TimeUS : 54035044, Roll : 3.87, Pitch : -2.65, Yaw : 359.66, Alt : 49.1500015259, Lat : 49.2835706, Lng : -123.1150203, Q1 : 0.99915677309, Q2 : 0.0337686128914, Q3 : -0.0232562310994, Q4 : -0.0021334963385}
2019-04-15 00:37:10.11: SIM {TimeUS : 54135004, Roll : 4.45, Pitch : -3.1, Yaw : 359.65, Alt : 49.1699981689, Lat : 49.2835707, Lng : -123.1150201, Q1 : 0.998875617981, Q2 : 0.0387764498591, Q3 : -0.0272060502321, Q4 : -0.00194639991969}
2019-04-15 00:37:10.21: SIM {TimeUS : 54234964, Roll : 4.87, Pitch : -3.44, Yaw : 359.65, Alt : 49.1800003052, Lat : 49.2835709, Lng : -123.1150199, Q1 : 0.998643517494, Q2 : 0.0424055196345, Q3 : -0.0301672406495, Q4 : -0.00169866264332}
2019-04-15 00:37:10.31: SIM {TimeUS : 54334924, Roll : 5.19, Pitch : -3.69, Yaw : 359.67, Alt : 49.1899986267, Lat : 49.283571, Lng : -123.1150194, Q1 : 0.998452603817, Q2 : 0.0452440194786, Q3 : -0.0323015712202, Q4 : -0.001412587706}
2019-04-15 00:37:10.41: SIM {TimeUS : 54434884, Roll : 5.49, Pitch : -3.89, Yaw : 359.68, Alt : 49.2000007629, Lat : 49.2835713, Lng : -123.1150189, Q1 : 0.998275756836, Q2 : 0.047774747014, Q3 : -0.0340864248574, Q4 : -0.00111982156523}
2019-04-15 00:37:10.51: SIM {TimeUS : 54534844, Roll : 5.78, Pitch : -4.09, Yaw : 359.69, Alt : 49.2099990845, Lat : 49.2835715, Lng : -123.1150183, Q1 : 0.998090565205, Q2 : 0.05032684654, Q3 : -0.035801447928, Q4 : -0.000827600480989}
2019-04-15 00:37:10.61: SIM {TimeUS : 54634804, Roll : 6.09, Pitch : -4.29, Yaw : 359.7, Alt : 49.2200012207, Lat : 49.2835719, Lng : -123.1150177, Q1 : 0.99788415432, Q2 : 0.0530602037907, Q3 : -0.0375706925988, Q4 : -0.000549195567146}
2019-04-15 00:37:10.71: SIM {TimeUS : 54734764, Roll : 6.38, Pitch : -4.5, Yaw : 359.71, Alt : 49.2200012207, Lat : 49.2835722, Lng : -123.1150169, Q1 : 0.997681498528, Q2 : 0.0555218495429, Q3 : -0.0393549948931, Q4 : -0.000313279189868}
2019-04-15 00:37:10.81: SIM {TimeUS : 54834724, Roll : 6.61, Pitch : -4.68, Yaw : 359.71, Alt : 49.2299995422, Lat : 49.2835727, Lng : -123.115016, Q1 : 0.997502684593, Q2 : 0.0575656369328, Q3 : -0.0409220196307, Q4 : -0.000118585754535}
2019-04-15 00:37:10.92: SIM {TimeUS : 54935517, Roll : 6.8, Pitch : -4.8, Yaw : 359.72, Alt : 49.2400016785, Lat : 49.2835731, Lng : -123.115015, Q1 : 0.997362494469, Q2 : 0.0592022947967, Q3 : -0.0419907830656, Q4 : 5.60473199585e-05}
2019-04-15 00:37:11.01: SIM {TimeUS : 55035477, Roll : 6.92, Pitch : -4.86, Yaw : 359.72, Alt : 49.2400016785, Lat : 49.2835735, Lng : -123.1150139, Q1 : 0.997274875641, Q2 : 0.0602689757943, Q3 : -0.0425495058298, Q4 : 0.000197955509066}
2019-04-15 00:37:11.11: SIM {TimeUS : 55135437, Roll : 7.01, Pitch : -4.91, Yaw : 359.73, Alt : 49.25, Lat : 49.283574, Lng : -123.1150128, Q1 : 0.997212588787, Q2 : 0.0610251538455, Q3 : -0.0429284311831, Q4 : 0.000288478127914}
2019-04-15 00:37:11.21: SIM {TimeUS : 55235397, Roll : 7.12, Pitch : -4.97, Yaw : 359.73, Alt : 49.25, Lat : 49.2835746, Lng : -123.1150115, Q1 : 0.997131466866, Q2 : 0.0619729012251, Q3 : -0.0434524528682, Q4 : 0.000357822398655}
2019-04-15 00:37:11.31: SIM {TimeUS : 55335357, Roll : 7.42, Pitch : -4.91, Yaw : 359.89, Alt : 49.25, Lat : 49.2835752, Lng : -123.1150102, Q1 : 0.996982574463, Q2 : 0.0646887719631, Q3 : -0.0428661070764, Q4 : 0.00190660450608}
2019-04-15 00:37:11.41: SIM {TimeUS : 55435317, Roll : 7.97, Pitch : -4.71, Yaw : 0.8, Alt : 49.2599983215, Lat : 49.2835759, Lng : -123.1150087, Q1 : 0.996687948704, Q2 : 0.0697982758284, Q3 : -0.0405542440712, Q4 : 0.00983502715826}
2019-04-15 00:37:11.51: SIM {TimeUS : 55535277, Roll : 8.59, Pitch : -4.66, Yaw : 3.07, Alt : 49.2599983215, Lat : 49.2835767, Lng : -123.1150072, Q1 : 0.995925188065, Q2 : 0.0759039744735, Q3 : -0.0385304614902, Q4 : 0.0297823455185}
2019-04-15 00:37:11.61: SIM {TimeUS : 55635237, Roll : 9.0, Pitch : -5.04, Yaw : 6.93, Alt : 49.2599983215, Lat : 49.2835774, Lng : -123.1150056, Q1 : 0.993909597397, Q2 : 0.0809684470296, Q3 : -0.0390840321779, Q4 : 0.0637197047472}
2019-04-15 00:37:11.71: SIM {TimeUS : 55735197, Roll : 9.01, Pitch : -5.95, Yaw : 12.26, Alt : 49.2599983215, Lat : 49.2835781, Lng : -123.1150038, Q1 : 0.98942399025, Q2 : 0.0835629031062, Q3 : -0.0431380197406, Q4 : 0.110437862575}
2019-04-15 00:37:11.81: SIM {TimeUS : 55835157, Roll : 8.45, Pitch : -7.28, Yaw : 18.82, Alt : 49.2599983215, Lat : 49.2835788, Lng : -123.115002, Q1 : 0.981091082096, Q2 : 0.0829303711653, Q3 : -0.0505154319108, Q4 : 0.167424768209}
2019-04-15 00:37:11.91: SIM {TimeUS : 55935117, Roll : 7.26, Pitch : -8.84, Yaw : 26.36, Alt : 49.2700004578, Lat : 49.2835794, Lng : -123.115, Q1 : 0.967678070068, Q2 : 0.0790194496512, Q3 : -0.060552302748, Q4 : 0.231707721949}
2019-04-15 00:37:12.01: SIM {TimeUS : 56035077, Roll : 5.47, Pitch : -10.4, Yaw : 34.63, Alt : 49.2700004578, Lat : 49.2835802, Lng : -123.1149979, Q1 : 0.948366343975, Q2 : 0.0724061727524, Q3 : -0.0722983703017, Q4 : 0.300219297409}
2019-04-15 00:37:12.11: SIM {TimeUS : 56135037, Roll : 3.15, Pitch : -11.76, Yaw : 43.33, Alt : 49.2700004578, Lat : 49.2835811, Lng : -123.1149957, Q1 : 0.923054814339, Q2 : 0.0632536560297, Q3 : -0.0850769281387, Q4 : 0.369771212339}
2019-04-15 00:37:12.21: SIM {TimeUS : 56234997, Roll : 0.19, Pitch : -12.71, Yaw : 51.92, Alt : 49.2700004578, Lat : 49.2835818, Lng : -123.1149933, Q1 : 0.893455862999, Q2 : 0.0499820001423, Q3 : -0.0987915247679, Q4 : 0.435291439295}
2019-04-15 00:37:12.31: SIM {TimeUS : 56334957, Roll : -3.01, Pitch : -13.1, Yaw : 59.52, Alt : 49.2700004578, Lat : 49.2835828, Lng : -123.1149909, Q1 : 0.86362349987, Q2 : 0.0339630767703, Q3 : -0.112024955451, Q4 : 0.490358382463}
2019-04-15 00:37:12.41: SIM {TimeUS : 56434917, Roll : -5.79, Pitch : -13.03, Yaw : 65.35, Alt : 49.2700004578, Lat : 49.2835837, Lng : -123.1149885, Q1 : 0.838313698769, Q2 : 0.0189597066492, Q3 : -0.122565977275, Q4 : 0.530893862247}
2019-04-15 00:37:12.51: SIM {TimeUS : 56534877, Roll : -7.63, Pitch : -12.77, Yaw : 69.09, Alt : 49.2700004578, Lat : 49.2835849, Lng : -123.1149859, Q1 : 0.82093423605, Q2 : 0.00846524070948, Q3 : -0.128979250789, Q4 : 0.556201100349}
2019-04-15 00:37:12.61: SIM {TimeUS : 56634837, Roll : -8.38, Pitch : -12.58, Yaw : 70.83, Alt : 49.2700004578, Lat : 49.2835861, Lng : -123.1149833, Q1 : 0.812538802624, Q2 : 0.00413469132036, Q3 : -0.131164625287, Q4 : 0.567943155766}
2019-04-15 00:37:12.71: SIM {TimeUS : 56734797, Roll : -8.12, Pitch : -12.62, Yaw : 70.87, Alt : 49.2700004578, Lat : 49.2835873, Lng : -123.1149807, Q1 : 0.812288045883, Q2 : 0.00622855871916, Q3 : -0.130207642913, Q4 : 0.568502664566}
2019-04-15 00:37:12.81: SIM {TimeUS : 56834757, Roll : -7.1, Pitch : -12.96, Yaw : 69.59, Alt : 49.2700004578, Lat : 49.2835887, Lng : -123.114978, Q1 : 0.818355619907, Q2 : 0.0137408189476, Q3 : -0.127632632852, Q4 : 0.560192108154}
2019-04-15 00:37:12.91: SIM {TimeUS : 56934717, Roll : -5.57, Pitch : -13.52, Yaw : 67.34, Alt : 49.2799987793, Lat : 49.2835903, Lng : -123.1149753, Q1 : 0.828649222851, Q2 : 0.0250234585255, Q3 : -0.124648250639, Q4 : 0.545139491558}
2019-04-15 00:37:13.02: SIM {TimeUS : 57035510, Roll : -3.73, Pitch : -14.21, Yaw : 64.41, Alt : 49.2799987793, Lat : 49.2835919, Lng : -123.1149725, Q1 : 0.841308534145, Q2 : 0.0385720059276, Q3 : -0.121909886599, Q4 : 0.525214374065}
2019-04-15 00:37:13.11: SIM {TimeUS : 57135470, Roll : -1.82, Pitch : -14.89, Yaw : 61.18, Alt : 49.2799987793, Lat : 49.2835934, Lng : -123.1149696, Q1 : 0.854482471943, Q2 : 0.0523849874735, Q3 : -0.119558036327, Q4 : 0.502813398838}
2019-04-15 00:37:13.21: SIM {TimeUS : 57235430, Roll : 0.0, Pitch : -15.42, Yaw : 57.94, Alt : 49.2799987793, Lat : 49.2835951, Lng : -123.1149666, Q1 : 0.866935133934, Q2 : 0.0649797320366, Q3 : -0.117419309914, Q4 : 0.480014383793}
2019-04-15 00:37:13.31: SIM {TimeUS : 57335390, Roll : 1.55, Pitch : -15.74, Yaw : 55.02, Alt : 49.2799987793, Lat : 49.2835968, Lng : -123.1149634, Q1 : 0.877592206001, Q2 : 0.0752227976918, Q3 : -0.115246318281, Q4 : 0.459229469299}
2019-04-15 00:37:13.41: SIM {TimeUS : 57435350, Roll : 2.72, Pitch : -15.87, Yaw : 52.7, Alt : 49.2799987793, Lat : 49.2835983, Lng : -123.1149602, Q1 : 0.88577491045, Q2 : 0.0824012085795, Q3 : -0.113218218088, Q4 : 0.442486792803}
2019-04-15 00:37:13.51: SIM {TimeUS : 57535310, Roll : 3.43, Pitch : -15.86, Yaw : 51.14, Alt : 49.2799987793, Lat : 49.2836001, Lng : -123.1149567, Q1 : 0.891216337681, Q2 : 0.08633287251, Q3 : -0.111598834395, Q4 : 0.431075185537}
2019-04-15 00:37:13.61: SIM {TimeUS : 57635270, Roll : 3.67, Pitch : -15.79, Yaw : 50.38, Alt : 49.2799987793, Lat : 49.2836018, Lng : -123.1149533, Q1 : 0.893955290318, Q2 : 0.0871784090996, Q3 : -0.110795021057, Q4 : 0.425403743982}
2019-04-15 00:37:13.71: SIM {TimeUS : 57735230, Roll : 3.47, Pitch : -15.75, Yaw : 50.37, Alt : 49.2799987793, Lat : 49.2836033, Lng : -123.1149497, Q1 : 0.8942091465, Q2 : 0.085446678102, Q3 : -0.111210301518, Q4 : 0.425113141537}
2019-04-15 00:37:13.81: SIM {TimeUS : 57835190, Roll : 2.93, Pitch : -15.78, Yaw : 50.97, Alt : 49.2799987793, Lat : 49.283605, Lng : -123.114946, Q1 : 0.892319262028, Q2 : 0.0819801837206, Q3 : -0.112994536757, Q4 : 0.42927595973}
2019-04-15 00:37:13.91: SIM {TimeUS : 57935150, Roll : 2.17, Pitch : -15.9, Yaw : 52.02, Alt : 49.2900009155, Lat : 49.2836068, Lng : -123.1149421, Q1 : 0.88875824213, Q2 : 0.0775678679347, Q3 : -0.116037003696, Q4 : 0.436608970165}
2019-04-15 00:37:14.01: SIM {TimeUS : 58035110, Roll : 1.3, Pitch : -16.06, Yaw : 53.32, Alt : 49.2900009155, Lat : 49.2836085, Lng : -123.1149383, Q1 : 0.884128630161, Q2 : 0.0728128477931, Q3 : -0.119804285467, Q4 : 0.445714920759}
2019-04-15 00:37:14.11: SIM {TimeUS : 58135070, Roll : 0.43, Pitch : -16.23, Yaw : 54.69, Alt : 49.2900009155, Lat : 49.2836103, Lng : -123.1149342, Q1 : 0.879078149796, Q2 : 0.0681954100728, Q3 : -0.123732820153, Q4 : 0.455259501934}
2019-04-15 00:37:14.21: SIM {TimeUS : 58235030, Roll : -0.35, Pitch : -16.35, Yaw : 55.97, Alt : 49.2900009155, Lat : 49.283612, Lng : -123.1149303, Q1 : 0.874256551266, Q2 : 0.0640915408731, Q3 : -0.127062186599, Q4 : 0.464136809111}
2019-04-15 00:37:14.31: SIM {TimeUS : 58334990, Roll : -0.94, Pitch : -16.42, Yaw : 57.04, Alt : 49.2900009155, Lat : 49.2836138, Lng : -123.1149262, Q1 : 0.87016749382, Q2 : 0.0610215291381, Q3 : -0.129406929016, Q4 : 0.471528172493}
2019-04-15 00:37:14.41: SIM {TimeUS : 58434950, Roll : -1.34, Pitch : -16.45, Yaw : 57.8, Alt : 49.2900009155, Lat : 49.2836157, Lng : -123.114922, Q1 : 0.867173552513, Q2 : 0.0589704886079, Q3 : -0.130881562829, Q4 : 0.476867496967}
2019-04-15 00:37:14.51: SIM {TimeUS : 58534910, Roll : -1.51, Pitch : -16.46, Yaw : 58.24, Alt : 49.2900009155, Lat : 49.2836175, Lng : -123.1149178, Q1 : 0.865421891212, Q2 : 0.0582415945828, Q3 : -0.131489410996, Q4 : 0.479961931705}
2019-04-15 00:37:14.61: SIM {TimeUS : 58634870, Roll : -1.46, Pitch : -16.46, Yaw : 58.36, Alt : 49.2900009155, Lat : 49.2836194, Lng : -123.1149136, Q1 : 0.86491805315, Q2 : 0.0587389059365, Q3 : -0.131168499589, Q4 : 0.480896413326}
2019-04-15 00:37:14.71: SIM {TimeUS : 58734830, Roll : -1.26, Pitch : -16.45, Yaw : 58.19, Alt : 49.2900009155, Lat : 49.2836214, Lng : -123.1149093, Q1 : 0.865500330925, Q2 : 0.0600696355104, Q3 : -0.130355149508, Q4 : 0.479904532433}
2019-04-15 00:37:14.81: SIM {TimeUS : 58834790, Roll : -0.96, Pitch : -16.48, Yaw : 57.82, Alt : 49.2900009155, Lat : 49.2836232, Lng : -123.1149049, Q1 : 0.866879820824, Q2 : 0.0619797110558, Q3 : -0.129547312856, Q4 : 0.477383881807}
2019-04-15 00:37:14.91: SIM {TimeUS : 58934750, Roll : -0.63, Pitch : -16.54, Yaw : 57.31, Alt : 49.2900009155, Lat : 49.2836253, Lng : -123.1149006, Q1 : 0.868750691414, Q2 : 0.0641914606094, Q3 : -0.128895699978, Q4 : 0.473854035139}
2019-04-15 00:37:15.01: SIM {TimeUS : 59034710, Roll : -0.29, Pitch : -16.63, Yaw : 56.74, Alt : 49.2900009155, Lat : 49.2836273, Lng : -123.1148961, Q1 : 0.870804667473, Q2 : 0.0665048211813, Q3 : -0.128453478217, Q4 : 0.469868123531}
2019-04-15 00:37:15.12: SIM {TimeUS : 59135503, Roll : 0.02, Pitch : -16.69, Yaw : 56.18, Alt : 49.2900009155, Lat : 49.2836293, Lng : -123.1148916, Q1 : 0.872835636139, Q2 : 0.0685585811734, Q3 : -0.128015205264, Q4 : 0.4659075737}
2019-04-15 00:37:15.21: SIM {TimeUS : 59235463, Roll : 0.28, Pitch : -16.74, Yaw : 55.69, Alt : 49.2900009155, Lat : 49.2836314, Lng : -123.1148871, Q1 : 0.874597847462, Q2 : 0.0702194720507, Q3 : -0.127586036921, Q4 : 0.462460398674}
2019-04-15 00:37:15.31: SIM {TimeUS : 59335423, Roll : 0.48, Pitch : -16.78, Yaw : 55.31, Alt : 49.2900009155, Lat : 49.2836334, Lng : -123.1148826, Q1 : 0.875953495502, Q2 : 0.0714862793684, Q3 : -0.12729293108, Q4 : 0.459773600101}
2019-04-15 00:37:15.41: SIM {TimeUS : 59435383, Roll : 0.61, Pitch : -16.81, Yaw : 55.06, Alt : 49.2900009155, Lat : 49.2836354, Lng : -123.114878, Q1 : 0.876822352409, Q2 : 0.0723416879773, Q3 : -0.127201572061, Q4 : 0.458005428314}
2019-04-15 00:37:15.51: SIM {TimeUS : 59535343, Roll : 0.66, Pitch : -16.85, Yaw : 54.95, Alt : 49.2900009155, Lat : 49.2836376, Lng : -123.1148734, Q1 : 0.877217233181, Q2 : 0.0727011263371, Q3 : -0.127358317375, Q4 : 0.457148045301}
2019-04-15 00:37:15.61: SIM {TimeUS : 59635303, Roll : 0.62, Pitch : -16.88, Yaw : 54.95, Alt : 49.2900009155, Lat : 49.2836396, Lng : -123.1148687, Q1 : 0.877191007137, Q2 : 0.0725295618176, Q3 : -0.127715468407, Q4 : 0.457125961781}
2019-04-15 00:37:15.71: SIM {TimeUS : 59735263, Roll : 0.52, Pitch : -16.9, Yaw : 55.06, Alt : 49.2900009155, Lat : 49.2836416, Lng : -123.114864, Q1 : 0.876810610294, Q2 : 0.0719823986292, Q3 : -0.128225490451, Q4 : 0.457799047232}
2019-04-15 00:37:15.81: SIM {TimeUS : 59835223, Roll : 0.39, Pitch : -16.92, Yaw : 55.23, Alt : 49.2900009155, Lat : 49.2836438, Lng : -123.1148592, Q1 : 0.876189231873, Q2 : 0.0712051838636, Q3 : -0.12882360816, Q4 : 0.458940863609}
2019-04-15 00:37:15.91: SIM {TimeUS : 59935183, Roll : 0.24, Pitch : -16.95, Yaw : 55.43, Alt : 49.2999992371, Lat : 49.2836458, Lng : -123.1148545, Q1 : 0.875420451164, Q2 : 0.0704171955585, Q3 : -0.129555389285, Q4 : 0.460321485996}
2019-04-15 00:37:16.01: SIM {TimeUS : 60035143, Roll : 0.08, Pitch : -16.99, Yaw : 55.64, Alt : 49.2999992371, Lat : 49.283648, Lng : -123.1148497, Q1 : 0.874619424343, Q2 : 0.0696619600058, Q3 : -0.130353450775, Q4 : 0.46173158288}
2019-04-15 00:37:16.11: SIM {TimeUS : 60135103, Roll : -0.05, Pitch : -17.03, Yaw : 55.83, Alt : 49.2999992371, Lat : 49.2836501, Lng : -123.1148448, Q1 : 0.873904645443, Q2 : 0.0689002275467, Q3 : -0.131102904677, Q4 : 0.462985366583}
2019-04-15 00:37:16.21: SIM {TimeUS : 60235063, Roll : -0.18, Pitch : -17.05, Yaw : 55.98, Alt : 49.2999992371, Lat : 49.2836523, Lng : -123.11484, Q1 : 0.873353540897, Q2 : 0.0682062208652, Q3 : -0.131679683924, Q4 : 0.463963329792}
2019-04-15 00:37:16.31: SIM {TimeUS : 60335023, Roll : -0.27, Pitch : -17.08, Yaw : 56.08, Alt : 49.2999992371, Lat : 49.2836543, Lng : -123.1148351, Q1 : 0.872977614403, Q2 : 0.0677325278521, Q3 : -0.132234185934, Q4 : 0.464582115412}
2019-04-15 00:37:16.41: SIM {TimeUS : 60434983, Roll : -0.31, Pitch : -17.12, Yaw : 56.12, Alt : 49.2999992371, Lat : 49.2836566, Lng : -123.1148302, Q1 : 0.87278598547, Q2 : 0.0676510110497, Q3 : -0.132653221488, Q4 : 0.46483451128}
2019-04-15 00:37:16.51: SIM {TimeUS : 60534943, Roll : -0.29, Pitch : -17.16, Yaw : 56.11, Alt : 49.2999992371, Lat : 49.2836588, Lng : -123.1148252, Q1 : 0.872779011726, Q2 : 0.0679148584604, Q3 : -0.132891476154, Q4 : 0.464741051197}
2019-04-15 00:37:16.61: SIM {TimeUS : 60634903, Roll : -0.22, Pitch : -17.2, Yaw : 56.05, Alt : 49.2999992371, Lat : 49.2836609, Lng : -123.1148203, Q1 : 0.872924745083, Q2 : 0.0685371235013, Q3 : -0.132966399193, Q4 : 0.464354395866}
2019-04-15 00:37:16.71: SIM {TimeUS : 60734863, Roll : -0.12, Pitch : -17.25, Yaw : 55.96, Alt : 49.2999992371, Lat : 49.2836632, Lng : -123.1148153, Q1 : 0.873181819916, Q2 : 0.0694181323051, Q3 : -0.132945567369, Q4 : 0.463745772839}
2019-04-15 00:37:16.81: SIM {TimeUS : 60834823, Roll : -0.02, Pitch : -17.28, Yaw : 55.85, Alt : 49.2999992371, Lat : 49.2836653, Lng : -123.1148102, Q1 : 0.873538613319, Q2 : 0.0701821893454, Q3 : -0.132853478193, Q4 : 0.462984591722}
2019-04-15 00:37:16.91: SIM {TimeUS : 60934783, Roll : 0.05, Pitch : -17.29, Yaw : 55.73, Alt : 49.3100013733, Lat : 49.2836676, Lng : -123.1148053, Q1 : 0.873953580856, Q2 : 0.0706676468253, Q3 : -0.132702797651, Q4 : 0.462170124054}
2019-04-15 00:37:17.01: SIM {TimeUS : 61034743, Roll : 0.09, Pitch : -17.3, Yaw : 55.62, Alt : 49.3100013733, Lat : 49.2836698, Lng : -123.1148003, Q1 : 0.87436747551, Q2 : 0.0708818286657, Q3 : -0.13265503943, Q4 : 0.46136751771}
2019-04-15 00:37:17.11: SIM {TimeUS : 61134703, Roll : 0.12, Pitch : -17.3, Yaw : 55.52, Alt : 49.3100013733, Lat : 49.283672, Lng : -123.1147953, Q1 : 0.874727427959, Q2 : 0.0710877925158, Q3 : -0.132637426257, Q4 : 0.460658043623}
2019-04-15 00:37:17.22: SIM {TimeUS : 61235496, Roll : 0.15, Pitch : -17.32, Yaw : 55.44, Alt : 49.3100013733, Lat : 49.2836743, Lng : -123.1147901, Q1 : 0.875003993511, Q2 : 0.0712803155184, Q3 : -0.132714807987, Q4 : 0.460080355406}
2019-04-15 00:37:17.31: SIM {TimeUS : 61335456, Roll : 0.18, Pitch : -17.36, Yaw : 55.39, Alt : 49.3100013733, Lat : 49.2836766, Lng : -123.1147851, Q1 : 0.875154972076, Q2 : 0.0715902373195, Q3 : -0.132917240262, Q4 : 0.459686458111}
2019-04-15 00:37:17.41: SIM {TimeUS : 61435416, Roll : 0.2, Pitch : -17.42, Yaw : 55.36, Alt : 49.3100013733, Lat : 49.2836789, Lng : -123.11478, Q1 : 0.875194966793, Q2 : 0.0719396844506, Q3 : -0.13329924643, Q4 : 0.459445089102}
2019-04-15 00:37:17.51: SIM {TimeUS : 61535376, Roll : 0.21, Pitch : -17.45, Yaw : 55.35, Alt : 49.3100013733, Lat : 49.283681, Lng : -123.1147749, Q1 : 0.875191390514, Q2 : 0.0721029043198, Q3 : -0.133551925421, Q4 : 0.459352940321}
2019-04-15 00:37:17.61: SIM {TimeUS : 61635336, Roll : 0.2, Pitch : -17.45, Yaw : 55.36, Alt : 49.3100013733, Lat : 49.2836834, Lng : -123.1147697, Q1 : 0.87517029047, Q2 : 0.0720539465547, Q3 : -0.13359414041, Q4 : 0.459388524294}
2019-04-15 00:37:17.71: SIM {TimeUS : 61735296, Roll : 0.18, Pitch : -17.46, Yaw : 55.37, Alt : 49.3100013733, Lat : 49.2836857, Lng : -123.1147646, Q1 : 0.875116586685, Q2 : 0.0719334408641, Q3 : -0.133694067597, Q4 : 0.459480643272}
2019-04-15 00:37:17.81: SIM {TimeUS : 61835256, Roll : 0.13, Pitch : -17.48, Yaw : 55.39, Alt : 49.3100013733, Lat : 49.283688, Lng : -123.1147594, Q1 : 0.875038921833, Q2 : 0.0716863125563, Q3 : -0.134025067091, Q4 : 0.459570765495}
2019-04-15 00:37:17.91: SIM {TimeUS : 61935216, Roll : 0.1, Pitch : -17.5, Yaw : 55.41, Alt : 49.3100013733, Lat : 49.2836902, Lng : -123.1147542, Q1 : 0.874958336353, Q2 : 0.0715262070298, Q3 : -0.134287074208, Q4 : 0.459672689438}
2019-04-15 00:37:18.01: SIM {TimeUS : 62035176, Roll : 0.07, Pitch : -17.53, Yaw : 55.43, Alt : 49.3199996948, Lat : 49.2836925, Lng : -123.114749, Q1 : 0.874883651733, Q2 : 0.0714481472969, Q3 : -0.134610339999, Q4 : 0.459732294083}
2019-04-15 00:37:18.11: SIM {TimeUS : 62135136, Roll : 0.05, Pitch : -17.55, Yaw : 55.43, Alt : 49.3199996948, Lat : 49.2836949, Lng : -123.1147438, Q1 : 0.874833583832, Q2 : 0.0714352801442, Q3 : -0.134841740131, Q4 : 0.459761828184}
2019-04-15 00:37:18.21: SIM {TimeUS : 62235096, Roll : 0.05, Pitch : -17.57, Yaw : 55.43, Alt : 49.3199996948, Lat : 49.2836972, Lng : -123.1147386, Q1 : 0.874808132648, Q2 : 0.0715271607041, Q3 : -0.135020300746, Q4 : 0.459743499756}
2019-04-15 00:37:18.31: SIM {TimeUS : 62335056, Roll : 0.07, Pitch : -17.58, Yaw : 55.43, Alt : 49.3199996948, Lat : 49.2836995, Lng : -123.1147334, Q1 : 0.874817073345, Q2 : 0.0716671198606, Q3 : -0.13504588604, Q4 : 0.459697306156}
2019-04-15 00:37:18.41: SIM {TimeUS : 62435016, Roll : 0.1, Pitch : -17.6, Yaw : 55.41, Alt : 49.3199996948, Lat : 49.2837017, Lng : -123.1147281, Q1 : 0.874829351902, Q2 : 0.0719392299652, Q3 : -0.135040491819, Q4 : 0.45963293314}
2019-04-15 00:37:18.51: SIM {TimeUS : 62534976, Roll : 0.13, Pitch : -17.62, Yaw : 55.4, Alt : 49.3199996948, Lat : 49.283704, Lng : -123.1147229, Q1 : 0.874855220318, Q2 : 0.0722484067082, Q3 : -0.135104164481, Q4 : 0.459516465664}
2019-04-15 00:37:18.61: SIM {TimeUS : 62634936, Roll : 0.14, Pitch : -17.66, Yaw : 55.37, Alt : 49.3199996948, Lat : 49.2837065, Lng : -123.1147177, Q1 : 0.874905109406, Q2 : 0.072403550148, Q3 : -0.135368585587, Q4 : 0.459319233894}
2019-04-15 00:37:18.71: SIM {TimeUS : 62734896, Roll : 0.12, Pitch : -17.7, Yaw : 55.35, Alt : 49.3199996948, Lat : 49.2837088, Lng : -123.1147123, Q1 : 0.874971151352, Q2 : 0.0724407508969, Q3 : -0.135731056333, Q4 : 0.459080517292}
2019-04-15 00:37:18.81: SIM {TimeUS : 62834856, Roll : 0.11, Pitch : -17.74, Yaw : 55.32, Alt : 49.3199996948, Lat : 49.2837112, Lng : -123.1147071, Q1 : 0.875039756298, Q2 : 0.0724869295955, Q3 : -0.136132225394, Q4 : 0.458823621273}
2019-04-15 00:37:18.91: SIM {TimeUS : 62934816, Roll : 0.12, Pitch : -17.77, Yaw : 55.29, Alt : 49.3199996948, Lat : 49.2837135, Lng : -123.1147018, Q1 : 0.875110268593, Q2 : 0.072658225894, Q3 : -0.136346146464, Q4 : 0.458598405123}
2019-04-15 00:37:19.01: SIM {TimeUS : 63034776, Roll : 0.14, Pitch : -17.78, Yaw : 55.26, Alt : 49.3199996948, Lat : 49.2837159, Lng : -123.1146965, Q1 : 0.875201463699, Q2 : 0.0727862343192, Q3 : -0.136352330446, Q4 : 0.458402276039}
2019-04-15 00:37:19.11: SIM {TimeUS : 63134736, Roll : 0.16, Pitch : -17.76, Yaw : 55.24, Alt : 49.3199996948, Lat : 49.2837181, Lng : -123.1146912, Q1 : 0.87530785799, Q2 : 0.0728719830513, Q3 : -0.136148110032, Q4 : 0.458246171474}
2019-04-15 00:37:19.21: SIM {TimeUS : 63234696, Roll : 0.17, Pitch : -17.74, Yaw : 55.22, Alt : 49.3199996948, Lat : 49.2837205, Lng : -123.1146859, Q1 : 0.875404715538, Q2 : 0.0728215500712, Q3 : -0.136005237699, Q4 : 0.458111554384}
2019-04-15 00:37:19.31: SIM {TimeUS : 63335489, Roll : 0.16, Pitch : -17.72, Yaw : 55.2, Alt : 49.3199996948, Lat : 49.2837229, Lng : -123.1146805, Q1 : 0.875494480133, Q2 : 0.0726929530501, Q3 : -0.135890245438, Q4 : 0.457994520664}
2019-04-15 00:37:19.41: SIM {TimeUS : 63435449, Roll : 0.16, Pitch : -17.71, Yaw : 55.19, Alt : 49.3199996948, Lat : 49.2837253, Lng : -123.1146751, Q1 : 0.875564396381, Q2 : 0.0725490376353, Q3 : -0.135781884193, Q4 : 0.45791593194}
2019-04-15 00:37:19.51: SIM {TimeUS : 63535409, Roll : 0.15, Pitch : -17.71, Yaw : 55.18, Alt : 49.3199996948, Lat : 49.2837277, Lng : -123.1146698, Q1 : 0.875593483448, Q2 : 0.0724843144417, Q3 : -0.13589926064, Q4 : 0.457835704088}
2019-04-15 00:37:19.61: SIM {TimeUS : 63635369, Roll : 0.14, Pitch : -17.73, Yaw : 55.17, Alt : 49.3300018311, Lat : 49.2837301, Lng : -123.1146644, Q1 : 0.875602424145, Q2 : 0.0725257471204, Q3 : -0.136062800884, Q4 : 0.457763433456}
2019-04-15 00:37:19.71: SIM {TimeUS : 63735329, Roll : 0.13, Pitch : -17.78, Yaw : 55.17, Alt : 49.3300018311, Lat : 49.2837325, Lng : -123.114659, Q1 : 0.875575065613, Q2 : 0.0726492851973, Q3 : -0.136455595493, Q4 : 0.457679271698}
2019-04-15 00:37:19.81: SIM {TimeUS : 63835289, Roll : 0.13, Pitch : -17.84, Yaw : 55.16, Alt : 49.3300018311, Lat : 49.2837349, Lng : -123.1146536, Q1 : 0.875537335873, Q2 : 0.0728344321251, Q3 : -0.136890113354, Q4 : 0.457592189312}
2019-04-15 00:37:19.91: SIM {TimeUS : 63935249, Roll : 0.14, Pitch : -17.88, Yaw : 55.15, Alt : 49.3300018311, Lat : 49.2837373, Lng : -123.1146483, Q1 : 0.875512063503, Q2 : 0.0730653554201, Q3 : -0.137167990208, Q4 : 0.457520544529}
2019-04-15 00:37:20.01: SIM {TimeUS : 64035209, Roll : 0.14, Pitch : -17.91, Yaw : 55.14, Alt : 49.3300018311, Lat : 49.2837397, Lng : -123.1146429, Q1 : 0.875506937504, Q2 : 0.0731779113412, Q3 : -0.137434378266, Q4 : 0.457432389259}
2019-04-15 00:37:20.11: SIM {TimeUS : 64135169, Roll : 0.13, Pitch : -17.93, Yaw : 55.13, Alt : 49.3300018311, Lat : 49.2837421, Lng : -123.1146375, Q1 : 0.875525355339, Q2 : 0.0732020512223, Q3 : -0.137625515461, Q4 : 0.457335859537}
2019-04-15 00:37:20.21: SIM {TimeUS : 64235129, Roll : 0.14, Pitch : -17.92, Yaw : 55.12, Alt : 49.3300018311, Lat : 49.2837445, Lng : -123.1146321, Q1 : 0.875569105148, Q2 : 0.0732485204935, Q3 : -0.137547314167, Q4 : 0.457268089056}
2019-04-15 00:37:20.31: SIM {TimeUS : 64335089, Roll : 0.17, Pitch : -17.93, Yaw : 55.11, Alt : 49.3300018311, Lat : 49.2837469, Lng : -123.1146266, Q1 : 0.875604271889, Q2 : 0.073430813849, Q3 : -0.137493282557, Q4 : 0.4571878016}
2019-04-15 00:37:20.41: SIM {TimeUS : 64435049, Roll : 0.18, Pitch : -17.94, Yaw : 55.09, Alt : 49.3300018311, Lat : 49.2837492, Lng : -123.1146211, Q1 : 0.875641167164, Q2 : 0.0735310092568, Q3 : -0.13756865263, Q4 : 0.457078397274}
2019-04-15 00:37:20.51: SIM {TimeUS : 64535009, Roll : 0.18, Pitch : -17.95, Yaw : 55.08, Alt : 49.3300018311, Lat : 49.2837516, Lng : -123.1146158, Q1 : 0.875685095787, Q2 : 0.0736082866788, Q3 : -0.137610331178, Q4 : 0.456969290972}
2019-04-15 00:37:20.61: SIM {TimeUS : 64634969, Roll : 0.19, Pitch : -17.95, Yaw : 55.07, Alt : 49.3300018311, Lat : 49.283754, Lng : -123.1146104, Q1 : 0.87574416399, Q2 : 0.0736152529716, Q3 : -0.137574598193, Q4 : 0.45686557889}
2019-04-15 00:37:20.71: SIM {TimeUS : 64734929, Roll : 0.19, Pitch : -17.95, Yaw : 55.05, Alt : 49.3300018311, Lat : 49.2837565, Lng : -123.1146049, Q1 : 0.8758020401, Q2 : 0.07359854877, Q3 : -0.137596935034, Q4 : 0.456750661135}
2019-04-15 00:37:20.81: SIM {TimeUS : 64834889, Roll : 0.17, Pitch : -17.97, Yaw : 55.04, Alt : 49.3300018311, Lat : 49.2837589, Lng : -123.1145995, Q1 : 0.875848770142, Q2 : 0.0734939351678, Q3 : -0.137849986553, Q4 : 0.456601589918}
2019-04-15 00:37:20.91: SIM {TimeUS : 64934849, Roll : 0.14, Pitch : -18.01, Yaw : 55.02, Alt : 49.3300018311, Lat : 49.2837613, Lng : -123.114594, Q1 : 0.875878930092, Q2 : 0.0733817070723, Q3 : -0.138267159462, Q4 : 0.45643556118}
2019-04-15 00:37:21.01: SIM {TimeUS : 65034809, Roll : 0.12, Pitch : -18.01, Yaw : 55.01, Alt : 49.3300018311, Lat : 49.2837638, Lng : -123.1145886, Q1 : 0.875934004784, Q2 : 0.0732550695539, Q3 : -0.138381868601, Q4 : 0.456315487623}
2019-04-15 00:37:21.11: SIM {TimeUS : 65134769, Roll : 0.13, Pitch : -17.99, Yaw : 55.0, Alt : 49.3400001526, Lat : 49.2837662, Lng : -123.1145831, Q1 : 0.87599414587, Q2 : 0.0732769668102, Q3 : -0.138205736876, Q4 : 0.456249862909}
2019-04-15 00:37:21.21: SIM {TimeUS : 65234729, Roll : 0.16, Pitch : -17.98, Yaw : 54.99, Alt : 49.3400001526, Lat : 49.2837686, Lng : -123.1145776, Q1 : 0.876040637493, Q2 : 0.0734065100551, Q3 : -0.138023719192, Q4 : 0.45619481802}
2019-04-15 00:37:21.32: SIM {TimeUS : 65335522, Roll : 0.18, Pitch : -17.99, Yaw : 54.97, Alt : 49.3400001526, Lat : 49.2837711, Lng : -123.1145721, Q1 : 0.876069009304, Q2 : 0.0735579878092, Q3 : -0.137997657061, Q4 : 0.45612385869}
2019-04-15 00:37:21.41: SIM {TimeUS : 65435482, Roll : 0.17, Pitch : -18.0, Yaw : 54.96, Alt : 49.3400001526, Lat : 49.2837735, Lng : -123.1145666, Q1 : 0.876097261906, Q2 : 0.0735568329692, Q3 : -0.138126194477, Q4 : 0.456030905247}
2019-04-15 00:37:21.51: SIM {TimeUS : 65535442, Roll : 0.14, Pitch : -18.02, Yaw : 54.96, Alt : 49.3400001526, Lat : 49.2837761, Lng : -123.1145611, Q1 : 0.876128792763, Q2 : 0.0733906626701, Q3 : -0.138381227851, Q4 : 0.455919772387}
2019-04-15 00:37:21.61: SIM {TimeUS : 65635402, Roll : 0.12, Pitch : -18.04, Yaw : 54.95, Alt : 49.3400001526, Lat : 49.2837784, Lng : -123.1145557, Q1 : 0.876149654388, Q2 : 0.0733207687736, Q3 : -0.13860835135, Q4 : 0.455821841955}
2019-04-15 00:37:21.71: SIM {TimeUS : 65735362, Roll : 0.12, Pitch : -18.06, Yaw : 54.94, Alt : 49.3400001526, Lat : 49.283781, Lng : -123.1145502, Q1 : 0.876157104969, Q2 : 0.0734146684408, Q3 : -0.138788357377, Q4 : 0.455737620592}
2019-04-15 00:37:21.81: SIM {TimeUS : 65835322, Roll : 0.13, Pitch : -18.08, Yaw : 54.93, Alt : 49.3400001526, Lat : 49.2837834, Lng : -123.1145447, Q1 : 0.876159667969, Q2 : 0.0735676884651, Q3 : -0.138922452927, Q4 : 0.455667257309}
2019-04-15 00:37:21.91: SIM {TimeUS : 65935282, Roll : 0.16, Pitch : -18.1, Yaw : 54.92, Alt : 49.3400001526, Lat : 49.2837859, Lng : -123.1145392, Q1 : 0.876164019108, Q2 : 0.073816806078, Q3 : -0.138932958245, Q4 : 0.455615401268}
2019-04-15 00:37:22.01: SIM {TimeUS : 66035242, Roll : 0.18, Pitch : -18.11, Yaw : 54.91, Alt : 49.3400001526, Lat : 49.2837883, Lng : -123.1145337, Q1 : 0.876169800758, Q2 : 0.0740195512772, Q3 : -0.13897742331, Q4 : 0.455557763577}
2019-04-15 00:37:22.11: SIM {TimeUS : 66135202, Roll : 0.2, Pitch : -18.13, Yaw : 54.9, Alt : 49.3400001526, Lat : 49.2837908, Lng : -123.1145282, Q1 : 0.876170456409, Q2 : 0.0742301642895, Q3 : -0.139046698809, Q4 : 0.455501168966}
2019-04-15 00:37:22.21: SIM {TimeUS : 66235162, Roll : 0.22, Pitch : -18.14, Yaw : 54.89, Alt : 49.3400001526, Lat : 49.2837933, Lng : -123.1145227, Q1 : 0.876176953316, Q2 : 0.0744001865387, Q3 : -0.139077201486, Q4 : 0.455451637506}
