2019-04-15 00:47:44.90: SIM {TimeUS : 40316367, Roll : 0.0, Pitch : 0.0, Yaw : 0.0, Alt : 30.1000003815, Lat : 49.28357, Lng : -123.11502, Q1 : 1.0, Q2 : 0.0, Q3 : 0.0, Q4 : 0.0}
2019-04-15 00:47:45.01: SIM {TimeUS : 40435486, Roll : 0.0, Pitch : 0.0, Yaw : 0.0, Alt : 30.1000003815, Lat : 49.28357, Lng : -123.11502, Q1 : 1.0, Q2 : 0.0, Q3 : 0.0, Q4 : 0.0}
2019-04-15 00:47:45.11: SIM {TimeUS : 40535446, Roll : 0.0, Pitch : 0.0, Yaw : 0.0, Alt : 30.1000003815, Lat : 49.28357, Lng : -123.11502, Q1 : 1.0, Q2 : 0.0, Q3 : 0.0, Q4 : 0.0}
2019-04-15 00:47:45.21: SIM {TimeUS : 40635406, Roll : 0.0, Pitch : 0.0, Yaw : 0.0, Alt : 30.1000003815, Lat : 49.28357, Lng : -123.11502, Q1 : 1.0, Q2 : 0.0, Q3 : 0.0, Q4 : 0.0}
2019-04-15 00:47:45.31: SIM {TimeUS : 40735366, Roll : 0.0, Pitch : 0.0, Yaw : 0.0, Alt : 30.1000003815, Lat : 49.28357, Lng : -123.11502, Q1 : 1.0, Q2 : 0.0, Q3 : 0.0, Q4 : 0.0}
2019-04-15 00:47:45.41: SIM {TimeUS : 40835326, Roll : 0.0, Pitch : 0.0, Yaw : 0.0, Alt : 30.1000003815, Lat : 49.28357, Lng : -123.11502, Q1 : 1.0, Q2 : 0.0, Q3 : 0.0, Q4 : 0.0}
2019-04-15 00:47:45.51: SIM {TimeUS : 40935286, Roll : 0.0, Pitch : 0.0, Yaw : 0.0, Alt : 30.1000003815, Lat : 49.28357, Lng : -123.11502, Q1 : 1.0, Q2 : 0.0, Q3 : 0.0, Q4 : 0.0}
2019-04-15 00:47:45.61: SIM {TimeUS : 41035246, Roll : 0.0, Pitch : 0.0, Yaw : 0.0, Alt : 30.1000003815, Lat : 49.28357, Lng : -123.11502, Q1 : 1.0, Q2 : 0.0, Q3 : 0.0, Q4 : 0.0}
2019-04-15 00:47:45.71: SIM {TimeUS : 41135206, Roll : 0.0, Pitch : 0.0, Yaw : 0.0, Alt : 30.1000003815, Lat : 49.28357, Lng : -123.11502, Q1 : 1.0, Q2 : 0.0, Q3 : 0.0, Q4 : 0.0}
2019-04-15 00:47:45.81: SIM {TimeUS : 41235166, Roll : 0.0, Pitch : 0.0, Yaw : 0.0, Alt : 30.1000003815, Lat : 49.28357, Lng : -123.11502, Q1 : 1.0, Q2 : 0.0, Q3 : 0.0, Q4 : 0.0}
2019-04-15 00:47:45.91: SIM {TimeUS : 41335126, Roll : 0.0, Pitch : 0.0, Yaw : 0.0, Alt : 30.1000003815, Lat : 49.28357, Lng : -123.11502, Q1 : 1.0, Q2 : 0.0, Q3 : 0.0, Q4 : 0.0}
2019-04-15 00:47:46.01: SIM {TimeUS : 41435086, Roll : 0.0, Pitch : 0.0, Yaw : 0.0, Alt : 30.1000003815, Lat : 49.28357, Lng : -123.11502, Q1 : 1.0, Q2 : 0.0, Q3 : 0.0, Q4 : 0.0}
2019-04-15 00:47:46.11: SIM {TimeUS : 41535046, Roll : 0.0, Pitch : 0.0, Yaw : 0.0, Alt : 30.1000003815, Lat : 49.28357, Lng : -123.11502, Q1 : 1.0, Q2 : 0.0, Q3 : 0.0, Q4 : 0.0}
2019-04-15 00:47:46.21: SIM {TimeUS : 41635006, Roll : 0.0, Pitch : 0.0, Yaw : 0.0, Alt : 30.1000003815, Lat : 49.28357, Lng : -123.11502, Q1 : 1.0, Q2 : 0.0, Q3 : 0.0, Q4 : 0.0}
2019-04-15 00:47:46.31: SIM {TimeUS : 41734966, Roll : 0.0, Pitch : 0.0, Yaw : 0.0, Alt : 30.1000003815, Lat : 49.28357, Lng : -123.11502, Q1 : 1.0, Q2 : 0.0, Q3 : 0.0, Q4 : 0.0}
2019-04-15 00:47:46.41: SIM {TimeUS : 41834926, Roll : 0.0, Pitch : 0.0, Yaw : 0.0, Alt : 30.1000003815, Lat : 49.28357, Lng : -123.11502, Q1 : 1.0, Q2 : 0.0, Q3 : 0.0, Q4 : 0.0}
2019-04-15 00:47:46.51: SIM {TimeUS : 41934886, Roll : 0.0, Pitch : 0.0, Yaw : 0.0, Alt : 30.1000003815, Lat : 49.28357, Lng : -123.11502, Q1 : 1.0, Q2 : 0.0, Q3 : 0.0, Q4 : 0.0}
2019-04-15 00:47:46.61: SIM {TimeUS : 42034846, Roll : 0.0, Pitch : 0.0, Yaw : 0.0, Alt : 30.1000003815, Lat : 49.28357, Lng : -123.11502, Q1 : 1.0, Q2 : 0.0, Q3 : 0.0, Q4 : 0.0}
2019-04-15 00:47:46.71: SIM {TimeUS : 42134806, Roll : 0.0, Pitch : 0.0, Yaw : 0.0, Alt : 30.1000003815, Lat : 49.28357, Lng : -123.11502, Q1 : 1.0, Q2 : 0.0, Q3 : 0.0, Q4 : 0.0}
2019-04-15 00:47:46.81: SIM {TimeUS : 42234766, Roll : 0.0, Pitch : 0.0, Yaw : 0.0, Alt : 30.1000003815, Lat : 49.28357, Lng : -123.11502, Q1 : 1.0, Q2 : 0.0, Q3 : 0.0, Q4 : 0.0}
2019-04-15 00:47:46.91: SIM {TimeUS : 42334726, Roll : 0.0, Pitch : 0.0, Yaw : 0.0, Alt : 30.1000003815, Lat : 49.28357, Lng : -123.11502, Q1 : 1.0, Q2 : 0.0, Q3 : 0.0, Q4 : 0.0}
2019-04-15 00:47:47.02: SIM {TimeUS : 42435519, Roll : 0.0, Pitch : 0.0, Yaw : 0.0, Alt : 30.1000003815, Lat : 49.28357, Lng : -123.11502, Q1 : 1.0, Q2 : 0.0, Q3 : 0.0, Q4 : 0.0}
2019-04-15 00:47:47.11: SIM {TimeUS : 42535479, Roll : 0.0, Pitch : 0.0, Yaw : 0.0, Alt : 30.1000003815, Lat : 49.28357, Lng : -123.11502, Q1 : 1.0, Q2 : 0.0, Q3 : 0.0, Q4 : 0.0}
2019-04-15 00:47:47.21: SIM {TimeUS : 42635439, Roll : 0.0, Pitch : 0.0, Yaw : 0.0, Alt : 30.1000003815, Lat : 49.28357, Lng : -123.11502, Q1 : 1.0, Q2 : 0.0, Q3 : 0.0, Q4 : 1.56407300306e-11}
2019-04-15 00:47:47.31: SIM {TimeUS : 42735399, Roll : 0.0, Pitch : 0.0, Yaw : 360.0, Alt : 30.1000003815, Lat : 49.28357, Lng : -123.11502, Q1 : 1.0, Q2 : 0.0, Q3 : 0.0, Q4 : -2.38367370287e-08}
2019-04-15 00:47:47.41: SIM {TimeUS : 42835359, Roll : 0.0, Pitch : 0.0, Yaw : 359.99, Alt : 30.1000003815, Lat : 49.28357, Lng : -123.11502, Q1 : 1.0, Q2 : 0.0, Q3 : 0.0, Q4 : -2.00274499207e-07}
2019-04-15 00:47:47.51: SIM {TimeUS : 42935319, Roll : 0.0, Pitch : 0.0, Yaw : 359.99, Alt : 30.1000003815, Lat : 49.28357, Lng : -123.11502, Q1 : 1.0, Q2 : 0.0, Q3 : 0.0, Q4 : -3.94851383589e-07}
2019-04-15 00:47:47.61: SIM {TimeUS : 43035279, Roll : 0.0, Pitch : 0.0, Yaw : 359.99, Alt : 30.1000003815, Lat : 49.28357, Lng : -123.11502, Q1 : 1.0, Q2 : 0.0, Q3 : 0.0, Q4 : -6.07396373198e-07}
2019-04-15 00:47:47.71: SIM {TimeUS : 43135239, Roll : 0.0, Pitch : 0.0, Yaw : 359.99, Alt : 30.1000003815, Lat : 49.28357, Lng : -123.11502, Q1 : 1.0, Q2 : 0.0, Q3 : 0.0, Q4 : -8.08593370039e-07}
2019-04-15 00:47:47.81: SIM {TimeUS : 43235199, Roll : 0.0, Pitch : 0.0, Yaw : 359.99, Alt : 30.1000003815, Lat : 49.28357, Lng : -123.11502, Q1 : 1.0, Q2 : 0.0, Q3 : 0.0, Q4 : -1.00156330518e-06}
2019-04-15 00:47:47.91: SIM {TimeUS : 43335159, Roll : 0.0, Pitch : 0.0, Yaw : 359.99, Alt : 30.1000003815, Lat : 49.28357, Lng : -123.11502, Q1 : 1.0, Q2 : 0.0, Q3 : 0.0, Q4 : -1.19374919905e-06}
2019-04-15 00:47:48.01: SIM {TimeUS : 43435119, Roll : 0.0, Pitch : 0.0, Yaw : 359.99, Alt : 30.1000003815, Lat : 49.28357, Lng : -123.11502, Q1 : 1.0, Q2 : 0.0, Q3 : 0.0, Q4 : -1.38981181408e-06}
2019-04-15 00:47:48.11: SIM {TimeUS : 43535079, Roll : 0.0, Pitch : 0.0, Yaw : 359.99, Alt : 30.1200008392, Lat : 49.28357, Lng : -123.11502, Q1 : 1.0, Q2 : 0.0, Q3 : 0.0, Q4 : -1.60428942308e-06}
2019-04-15 00:47:48.21: SIM {TimeUS : 43635039, Roll : 0.0, Pitch : 0.0, Yaw : 359.99, Alt : 30.1499996185, Lat : 49.28357, Lng : -123.11502, Q1 : 1.0, Q2 : 0.0, Q3 : 0.0, Q4 : -1.86302577276e-06}
2019-04-15 00:47:48.31: SIM {TimeUS : 43734999, Roll : 0.0, Pitch : 0.0, Yaw : 359.99, Alt : 30.1800003052, Lat : 49.28357, Lng : -123.11502, Q1 : 1.0, Q2 : 0.0, Q3 : 0.0, Q4 : -2.05774540518e-06}
2019-04-15 00:47:48.41: SIM {TimeUS : 43834959, Roll : 0.0, Pitch : 0.0, Yaw : 359.99, Alt : 30.2099990845, Lat : 49.28357, Lng : -123.11502, Q1 : 1.0, Q2 : -1.21034618132e-05, Q3 : -1.05918252302e-05, Q4 : -2.33913965531e-06}
2019-04-15 00:47:48.51: SIM {TimeUS : 43934919, Roll : -0.18, Pitch : -0.16, Yaw : 359.99, Alt : 30.2700004578, Lat : 49.28357, Lng : -123.11502, Q1 : 0.999997615814, Q2 : -0.00163286738098, Q3 : -0.00143846776336, Q4 : -1.9910348783e-05}
2019-04-15 00:47:48.61: SIM {TimeUS : 44034879, Roll : -0.5, Pitch : -0.45, Yaw : 359.99, Alt : 30.3899993896, Lat : 49.28357, Lng : -123.11502, Q1 : 0.999982655048, Q2 : -0.00438937032595, Q3 : -0.00392907904461, Q4 : -6.30136055406e-05}
2019-04-15 00:47:48.71: SIM {TimeUS : 44134839, Roll : -0.76, Pitch : -0.69, Yaw : 359.98, Alt : 30.5400009155, Lat : 49.28357, Lng : -123.11502, Q1 : 0.999959468842, Q2 : -0.00668196380138, Q3 : -0.00603579031304, Q4 : -0.000128762840177}
2019-04-15 00:47:48.81: SIM {TimeUS : 44234799, Roll : -0.88, Pitch : -0.79, Yaw : 359.98, Alt : 30.7000007629, Lat : 49.28357, Lng : -123.11502, Q1 : 0.999946534634, Q2 : -0.00770045351237, Q3 : -0.00689462944865, Q4 : -0.000207803663216}
2019-04-15 00:47:48.91: SIM {TimeUS : 44334759, Roll : -0.83, Pitch : -0.73, Yaw : 359.97, Alt : 30.8600006104, Lat : 49.28357, Lng : -123.1150201, Q1 : 0.999953091145, Q2 : -0.00725227734074, Q3 : -0.00641106674448, Q4 : -0.000292641023407}
2019-04-15 00:47:49.01: SIM {TimeUS : 44434719, Roll : -0.64, Pitch : -0.58, Yaw : 359.96, Alt : 31.0100002289, Lat : 49.28357, Lng : -123.1150201, Q1 : 0.999971151352, Q2 : -0.00559329753742, Q3 : -0.00512298196554, Q4 : -0.000369889632566}
2019-04-15 00:47:49.12: SIM {TimeUS : 44535512, Roll : -0.39, Pitch : -0.38, Yaw : 359.95, Alt : 31.1700000763, Lat : 49.2835701, Lng : -123.1150202, Q1 : 0.99998831749, Q2 : -0.00345663377084, Q3 : -0.00334769580513, Q4 : -0.000437208014773}
2019-04-15 00:47:49.21: SIM {TimeUS : 44635472, Roll : -0.18, Pitch : -0.18, Yaw : 359.94, Alt : 31.3299999237, Lat : 49.2835701, Lng : -123.1150203, Q1 : 0.999997377396, Q2 : -0.00160572433379, Q3 : -0.00157871772535, Q4 : -0.000495661050081}
2019-04-15 00:47:49.31: SIM {TimeUS : 44735432, Roll : -0.03, Pitch : -0.03, Yaw : 359.93, Alt : 31.5, Lat : 49.2835702, Lng : -123.1150204, Q1 : 0.999999761581, Q2 : -0.000281723216176, Q3 : -0.000293472665362, Q4 : -0.000536919571459}
2019-04-15 00:47:49.41: SIM {TimeUS : 44835392, Roll : 0.05, Pitch : 0.04, Yaw : 359.93, Alt : 31.6700000763, Lat : 49.2835702, Lng : -123.1150205, Q1 : 0.999999701977, Q2 : 0.000443579629064, Q3 : 0.000357124226866, Q4 : -0.000560488493647}
2019-04-15 00:47:49.51: SIM {TimeUS : 44935352, Roll : 0.08, Pitch : 0.05, Yaw : 359.93, Alt : 31.8500003815, Lat : 49.2835703, Lng : -123.1150205, Q1 : 0.999999463558, Q2 : 0.000710773165338, Q3 : 0.000512999831699, Q4 : -0.00057588313939}
2019-04-15 00:47:49.61: SIM {TimeUS : 45035312, Roll : 0.09, Pitch : 0.04, Yaw : 359.93, Alt : 32.0299987793, Lat : 49.2835703, Lng : -123.1150206, Q1 : 0.999999403954, Q2 : 0.000827896408737, Q3 : 0.000430462503573, Q4 : -0.000579844694585}
2019-04-15 00:47:49.71: SIM {TimeUS : 45135272, Roll : 0.09, Pitch : 0.02, Yaw : 359.93, Alt : 32.2200012207, Lat : 49.2835703, Lng : -123.1150206, Q1 : 0.999999463558, Q2 : 0.000824687886052, Q3 : 0.000252057885518, Q4 : -0.00056828558445}
2019-04-15 00:47:49.81: SIM {TimeUS : 45235232, Roll : 0.08, Pitch : 0.03, Yaw : 359.93, Alt : 32.4099998474, Lat : 49.2835703, Lng : -123.1150207, Q1 : 0.999999523163, Q2 : 0.00076443143189, Q3 : 0.00026826641988, Q4 : -0.000547746196389}
2019-04-15 00:47:49.91: SIM {TimeUS : 45335192, Roll : 0.08, Pitch : 0.06, Yaw : 359.93, Alt : 32.6100006104, Lat : 49.2835703, Lng : -123.1150207, Q1 : 0.999999403954, Q2 : 0.00074993778253, Q3 : 0.000540646782611, Q4 : -0.000540588865988}
2019-04-15 00:47:50.01: SIM {TimeUS : 45435152, Roll : 0.08, Pitch : 0.1, Yaw : 359.93, Alt : 32.7999992371, Lat : 49.2835703, Lng : -123.1150208, Q1 : 0.99999910593, Q2 : 0.000764436030295, Q3 : 0.000937525008339, Q4 : -0.00053077226039}
2019-04-15 00:47:50.11: SIM {TimeUS : 45535112, Roll : 0.11, Pitch : 0.15, Yaw : 359.94, Alt : 33.0, Lat : 49.2835704, Lng : -123.1150208, Q1 : 0.999998450279, Q2 : 0.000996525282972, Q3 : 0.00137285562232, Q4 : -0.000515761552379}
2019-04-15 00:47:50.21: SIM {TimeUS : 45635072, Roll : 0.15, Pitch : 0.18, Yaw : 359.94, Alt : 33.2000007629, Lat : 49.2835704, Lng : -123.1150208, Q1 : 0.999997794628, Q2 : 0.00131631561089, Q3 : 0.00158464710694, Q4 : -0.000494764826726}
2019-04-15 00:47:50.31: SIM {TimeUS : 45735032, Roll : 0.16, Pitch : 0.18, Yaw : 359.94, Alt : 33.4099998474, Lat : 49.2835704, Lng : -123.1150209, Q1 : 0.999997496605, Q2 : 0.00146896764636, Q3 : 0.00163459067699, Q4 : -0.00048848206643}
2019-04-15 00:47:50.41: SIM {TimeUS : 45834992, Roll : 0.16, Pitch : 0.19, Yaw : 359.94, Alt : 33.6100006104, Lat : 49.2835704, Lng : -123.1150209, Q1 : 0.999997377396, Q2 : 0.00146216375288, Q3 : 0.00168285309337, Q4 : -0.000488255172968}
2019-04-15 00:47:50.51: SIM {TimeUS : 45934952, Roll : 0.16, Pitch : 0.16, Yaw : 359.94, Alt : 33.8199996948, Lat : 49.2835704, Lng : -123.1150209, Q1 : 0.999997913837, Q2 : 0.00139793404378, Q3 : 0.00140247365925, Q4 : -0.000510366866365}
2019-04-15 00:47:50.61: SIM {TimeUS : 46034912, Roll : 0.14, Pitch : 0.11, Yaw : 359.93, Alt : 34.0299987793, Lat : 49.2835706, Lng : -123.1150209, Q1 : 0.999998509884, Q2 : 0.00128710689023, Q3 : 0.00103654700797, Q4 : -0.000539323780686}
2019-04-15 00:47:50.71: SIM {TimeUS : 46134872, Roll : 0.13, Pitch : 0.09, Yaw : 359.93, Alt : 34.2400016785, Lat : 49.2835706, Lng : -123.1150209, Q1 : 0.999998807907, Q2 : 0.00115987018216, Q3 : 0.000850394542795, Q4 : -0.000564860412851}
2019-04-15 00:47:50.81: SIM {TimeUS : 46234832, Roll : 0.12, Pitch : 0.09, Yaw : 359.93, Alt : 34.4500007629, Lat : 49.2835706, Lng : -123.1150209, Q1 : 0.999998986721, Q2 : 0.00107046088669, Q3 : 0.000787663273513, Q4 : -0.000586760987062}
2019-04-15 00:47:50.91: SIM {TimeUS : 46334792, Roll : 0.12, Pitch : 0.09, Yaw : 359.92, Alt : 34.6599998474, Lat : 49.2835706, Lng : -123.1150209, Q1 : 0.999998927116, Q2 : 0.00106170086656, Q3 : 0.000790117541328, Q4 : -0.000613418233115}
2019-04-15 00:47:51.01: SIM {TimeUS : 46434752, Roll : 0.11, Pitch : 0.07, Yaw : 359.92, Alt : 34.8800010681, Lat : 49.2835706, Lng : -123.1150209, Q1 : 0.99999910593, Q2 : 0.000974737864453, Q3 : 0.000641825550701, Q4 : -0.000633904477581}
2019-04-15 00:47:51.11: SIM {TimeUS : 46534712, Roll : 0.09, Pitch : 0.05, Yaw : 359.92, Alt : 35.0900001526, Lat : 49.2835706, Lng : -123.1150208, Q1 : 0.999999344349, Q2 : 0.000789403158706, Q3 : 0.00047404677025, Q4 : -0.000649803376291}
2019-04-15 00:47:51.22: SIM {TimeUS : 46635505, Roll : 0.07, Pitch : 0.04, Yaw : 359.92, Alt : 35.3100013733, Lat : 49.2835706, Lng : -123.1150208, Q1 : 0.999999523163, Q2 : 0.000619785219897, Q3 : 0.000375817849999, Q4 : -0.000666685751639}
2019-04-15 00:47:51.31: SIM {TimeUS : 46735465, Roll : 0.04, Pitch : 0.04, Yaw : 359.92, Alt : 35.5299987793, Lat : 49.2835706, Lng : -123.1150208, Q1 : 0.999999642372, Q2 : 0.000427432503784, Q3 : 0.000412919995142, Q4 : -0.000684894563165}
2019-04-15 00:47:51.41: SIM {TimeUS : 46835425, Roll : 0.03, Pitch : 0.03, Yaw : 359.91, Alt : 35.75, Lat : 49.2835706, Lng : -123.1150208, Q1 : 0.999999701977, Q2 : 0.000280052860035, Q3 : 0.000313368509524, Q4 : -0.000699243508279}
2019-04-15 00:47:51.51: SIM {TimeUS : 46935385, Roll : 0.02, Pitch : 0.03, Yaw : 359.91, Alt : 35.9700012207, Lat : 49.2835706, Lng : -123.1150208, Q1 : 0.999999701977, Q2 : 0.000181789626367, Q3 : 0.000273992511211, Q4 : -0.000716783164535}
2019-04-15 00:47:51.61: SIM {TimeUS : 47035345, Roll : 0.0, Pitch : 0.03, Yaw : 359.91, Alt : 36.1899986267, Lat : 49.2835704, Lng : -123.1150207, Q1 : 0.999999701977, Q2 : 6.58618009766e-05, Q3 : 0.000282449822407, Q4 : -0.000740992720239}
2019-04-15 00:47:51.71: SIM {TimeUS : 47135305, Roll : 0.0, Pitch : 0.03, Yaw : 359.91, Alt : 36.4099998474, Lat : 49.2835704, Lng : -123.1150207, Q1 : 0.999999642372, Q2 : -3.42537049391e-07, Q3 : 0.000324625812937, Q4 : -0.000768267025705}
2019-04-15 00:47:51.81: SIM {TimeUS : 47235265, Roll : 0.0, Pitch : 0.03, Yaw : 359.9, Alt : 36.6300010681, Lat : 49.2835704, Lng : -123.1150207, Q1 : 0.999999642372, Q2 : 3.60350277333e-05, Q3 : 0.000313237367664, Q4 : -0.000796121428721}
2019-04-15 00:47:51.91: SIM {TimeUS : 47335225, Roll : 0.0, Pitch : 0.02, Yaw : 359.9, Alt : 36.8600006104, Lat : 49.2835704, Lng : -123.1150207, Q1 : 0.999999642372, Q2 : -4.15559334215e-05, Q3 : 0.000204544005101, Q4 : -0.00082330807345}
2019-04-15 00:47:52.01: SIM {TimeUS : 47435185, Roll : -0.03, Pitch : 0.0, Yaw : 359.9, Alt : 37.0800018311, Lat : 49.2835704, Lng : -123.1150207, Q1 : 0.999999642372, Q2 : -0.000295449746773, Q3 : -3.99521122745e-05, Q4 : -0.000853071280289}
2019-04-15 00:47:52.11: SIM {TimeUS : 47535145, Roll : -0.07, Pitch : -0.02, Yaw : 359.89, Alt : 37.3100013733, Lat : 49.2835704, Lng : -123.1150207, Q1 : 0.999999344349, Q2 : -0.000656829390209, Q3 : -0.000260184489889, Q4 : -0.000882925465703}
2019-04-15 00:47:52.21: SIM {TimeUS : 47635105, Roll : -0.11, Pitch : -0.04, Yaw : 359.89, Alt : 37.5299987793, Lat : 49.2835704, Lng : -123.1150207, Q1 : 0.999999046326, Q2 : -0.00099272816442, Q3 : -0.000406718347222, Q4 : -0.000906888628379}
2019-04-15 00:47:52.31: SIM {TimeUS : 47735065, Roll : -0.13, Pitch : -0.05, Yaw : 359.89, Alt : 37.7599983215, Lat : 49.2835704, Lng : -123.1150206, Q1 : 0.999998748302, Q2 : -0.00117196084466, Q3 : -0.000495514541399, Q4 : -0.000926906825043}
2019-04-15 00:47:52.41: SIM {TimeUS : 47835025, Roll : -0.13, Pitch : -0.05, Yaw : 359.89, Alt : 37.9799995422, Lat : 49.2835704, Lng : -123.1150206, Q1 : 0.999998688698, Q2 : -0.0012032444356, Q3 : -0.000516102882102, Q4 : -0.000947427179199}
2019-04-15 00:47:52.51: SIM {TimeUS : 47934985, Roll : -0.11, Pitch : -0.04, Yaw : 359.88, Alt : 38.2099990845, Lat : 49.2835704, Lng : -123.1150206, Q1 : 0.999998927116, Q2 : -0.00104498700239, Q3 : -0.000373951043002, Q4 : -0.00096860982012}
2019-04-15 00:47:52.61: SIM {TimeUS : 48034945, Roll : -0.09, Pitch : -0.04, Yaw : 359.88, Alt : 38.4399986267, Lat : 49.2835704, Lng : -123.1150206, Q1 : 0.99999910593, Q2 : -0.000800058071036, Q3 : -0.000354255287675, Q4 : -0.000992312212475}
2019-04-15 00:47:52.71: SIM {TimeUS : 48134905, Roll : -0.07, Pitch : -0.04, Yaw : 359.88, Alt : 38.6699981689, Lat : 49.2835704, Lng : -123.1150206, Q1 : 0.999999165535, Q2 : -0.000671704066917, Q3 : -0.000430622050771, Q4 : -0.00102549663279}
2019-04-15 00:47:52.81: SIM {TimeUS : 48234865, Roll : -0.07, Pitch : -0.03, Yaw : 359.87, Alt : 38.9000015259, Lat : 49.2835704, Lng : -123.1150206, Q1 : 0.999999165535, Q2 : -0.000632469484117, Q3 : -0.000338320678566, Q4 : -0.00105010531843}
2019-04-15 00:47:52.91: SIM {TimeUS : 48334825, Roll : -0.08, Pitch : -0.01, Yaw : 359.87, Alt : 39.1300010681, Lat : 49.2835704, Lng : -123.1150206, Q1 : 0.99999910593, Q2 : -0.000753633095883, Q3 : -0.000161961943377, Q4 : -0.00107029883657}
2019-04-15 00:47:53.01: SIM {TimeUS : 48434785, Roll : -0.08, Pitch : 0.0, Yaw : 359.87, Alt : 39.3600006104, Lat : 49.2835704, Lng : -123.1150206, Q1 : 0.999999165535, Q2 : -0.000738757022191, Q3 : 1.34351412271e-05, Q4 : -0.00108577637002}
2019-04-15 00:47:53.11: SIM {TimeUS : 48534745, Roll : -0.06, Pitch : 0.03, Yaw : 359.87, Alt : 39.5900001526, Lat : 49.2835704, Lng : -123.1150206, Q1 : 0.999999165535, Q2 : -0.000609071401414, Q3 : 0.000263008696493, Q4 : -0.00110295461491}
2019-04-15 00:47:53.21: SIM {TimeUS : 48634705, Roll : -0.05, Pitch : 0.03, Yaw : 359.87, Alt : 39.8199996948, Lat : 49.2835704, Lng : -123.1150207, Q1 : 0.99999922514, Q2 : -0.000443217868451, Q3 : 0.000310532370349, Q4 : -0.00111285515595}
2019-04-15 00:47:53.32: SIM {TimeUS : 48735498, Roll : -0.02, Pitch : 0.03, Yaw : 359.87, Alt : 40.0499992371, Lat : 49.2835704, Lng : -123.1150207, Q1 : 0.999999284744, Q2 : -0.000220175090362, Q3 : 0.000306854199152, Q4 : -0.00112147198524}
2019-04-15 00:47:53.41: SIM {TimeUS : 48835458, Roll : 0.01, Pitch : 0.05, Yaw : 359.87, Alt : 40.2799987793, Lat : 49.2835704, Lng : -123.1150207, Q1 : 0.999999284744, Q2 : 0.000110240660433, Q3 : 0.000454831228126, Q4 : -0.00112694816198}
2019-04-15 00:47:53.51: SIM {TimeUS : 48935418, Roll : 0.06, Pitch : 0.08, Yaw : 359.87, Alt : 40.5099983215, Lat : 49.2835704, Lng : -123.1150207, Q1 : 0.999998927116, Q2 : 0.000564468791708, Q3 : 0.000714032619726, Q4 : -0.00113399559632}
2019-04-15 00:47:53.61: SIM {TimeUS : 49035378, Roll : 0.1, Pitch : 0.11, Yaw : 359.86, Alt : 40.75, Lat : 49.2835704, Lng : -123.1150207, Q1 : 0.999998450279, Q2 : 0.000888419453986, Q3 : 0.000978711643256, Q4 : -0.00114309869241}
2019-04-15 00:47:53.71: SIM {TimeUS : 49135338, Roll : 0.09, Pitch : 0.13, Yaw : 359.86, Alt : 40.9799995422, Lat : 49.2835706, Lng : -123.1150207, Q1 : 0.99999833107, Q2 : 0.000829257420264, Q3 : 0.00117841863539, Q4 : -0.00114498729818}
2019-04-15 00:47:53.81: SIM {TimeUS : 49235298, Roll : 0.04, Pitch : 0.14, Yaw : 359.86, Alt : 41.2099990845, Lat : 49.2835706, Lng : -123.1150207, Q1 : 0.999998390675, Q2 : 0.000397710711695, Q3 : 0.00128639047034, Q4 : -0.00115841277875}
2019-04-15 00:47:53.91: SIM {TimeUS : 49335258, Roll : 0.0, Pitch : 0.14, Yaw : 359.86, Alt : 41.4399986267, Lat : 49.2835706, Lng : -123.1150207, Q1 : 0.999998450279, Q2 : -2.13103157876e-05, Q3 : 0.00129280227702, Q4 : -0.00117484142538}
2019-04-15 00:47:54.01: SIM {TimeUS : 49435218, Roll : -0.02, Pitch : 0.11, Yaw : 359.86, Alt : 41.6800003052, Lat : 49.2835706, Lng : -123.1150207, Q1 : 0.999998748302, Q2 : -0.000216706030187, Q3 : 0.0010092741577, Q4 : -0.00119106040802}
2019-04-15 00:47:54.11: SIM {TimeUS : 49535178, Roll : -0.02, Pitch : 0.07, Yaw : 359.86, Alt : 41.9099998474, Lat : 49.2835706, Lng : -123.1150207, Q1 : 0.999998986721, Q2 : -0.000241486806772, Q3 : 0.000641399004962, Q4 : -0.0012145008659}
2019-04-15 00:47:54.21: SIM {TimeUS : 49635138, Roll : -0.01, Pitch : 0.06, Yaw : 359.85, Alt : 42.1500015259, Lat : 49.2835706, Lng : -123.1150207, Q1 : 0.999999046326, Q2 : -0.000130932225147, Q3 : 0.000577574595809, Q4 : -0.00125141709577}
2019-04-15 00:47:54.31: SIM {TimeUS : 49735098, Roll : 0.02, Pitch : 0.08, Yaw : 359.85, Alt : 42.3800010681, Lat : 49.2835706, Lng : -123.1150207, Q1 : 0.999998867512, Q2 : 0.000206332624657, Q3 : 0.000734247616492, Q4 : -0.00129795481917}
2019-04-15 00:47:54.41: SIM {TimeUS : 49835058, Roll : 0.07, Pitch : 0.1, Yaw : 359.84, Alt : 42.6199989319, Lat : 49.2835706, Lng : -123.1150207, Q1 : 0.999998450279, Q2 : 0.000683667021804, Q3 : 0.000911773764528, Q4 : -0.00134102720767}
2019-04-15 00:47:54.51: SIM {TimeUS : 49935018, Roll : 0.11, Pitch : 0.1, Yaw : 359.84, Alt : 42.8499984741, Lat : 49.2835704, Lng : -123.1150207, Q1 : 0.999998092651, Q2 : 0.00103693746496, Q3 : 0.000902941683307, Q4 : -0.00138696259819}
2019-04-15 00:47:54.61: SIM {TimeUS : 50034978, Roll : 0.12, Pitch : 0.09, Yaw : 359.83, Alt : 43.0800018311, Lat : 49.2835704, Lng : -123.1150207, Q1 : 0.999998152256, Q2 : 0.00104935385752, Q3 : 0.000811251811683, Q4 : -0.00142732809763}
2019-04-15 00:47:54.71: SIM {TimeUS : 50134938, Roll : 0.07, Pitch : 0.08, Yaw : 359.83, Alt : 43.3199996948, Lat : 49.2835704, Lng : -123.1150207, Q1 : 0.999998450279, Q2 : 0.000684729777277, Q3 : 0.000755191314965, Q4 : -0.0014383365633}
2019-04-15 00:47:54.81: SIM {TimeUS : 50234898, Roll : 0.01, Pitch : 0.08, Yaw : 359.83, Alt : 43.5600013733, Lat : 49.2835704, Lng : -123.1150207, Q1 : 0.999998688698, Q2 : 0.000143452183693, Q3 : 0.000736295070965, Q4 : -0.00143855449278}
2019-04-15 00:47:54.91: SIM {TimeUS : 50334858, Roll : -0.03, Pitch : 0.09, Yaw : 359.83, Alt : 43.7900009155, Lat : 49.2835704, Lng : -123.1150207, Q1 : 0.999998569489, Q2 : -0.000273804034805, Q3 : 0.000819128472358, Q4 : -0.00143911980558}
2019-04-15 00:47:55.01: SIM {TimeUS : 50434818, Roll : -0.05, Pitch : 0.09, Yaw : 359.83, Alt : 44.0299987793, Lat : 49.2835704, Lng : -123.1150207, Q1 : 0.999998509884, Q2 : -0.000461861840449, Q3 : 0.000810692959931, Q4 : -0.00144454010297}
2019-04-15 00:47:55.11: SIM {TimeUS : 50534778, Roll : -0.04, Pitch : 0.06, Yaw : 359.83, Alt : 44.2599983215, Lat : 49.2835704, Lng : -123.1150207, Q1 : 0.999998688698, Q2 : -0.000384278508136, Q3 : 0.000609616865404, Q4 : -0.00145877874456}
2019-04-15 00:47:55.21: SIM {TimeUS : 50634738, Roll : -0.04, Pitch : 0.04, Yaw : 359.82, Alt : 44.5, Lat : 49.2835704, Lng : -123.1150206, Q1 : 0.999998748302, Q2 : -0.000364596606232, Q3 : 0.000369621266145, Q4 : -0.00148875941522}
2019-04-15 00:47:55.31: SIM {TimeUS : 50734698, Roll : -0.03, Pitch : 0.01, Yaw : 359.82, Alt : 44.7299995422, Lat : 49.2835704, Lng : -123.1150206, Q1 : 0.999998807907, Q2 : -0.000285484595224, Q3 : 0.000146382226376, Q4 : -0.00152169680223}
2019-04-15 00:47:55.41: SIM {TimeUS : 50835491, Roll : -0.01, Pitch : 0.0, Yaw : 359.82, Alt : 44.9700012207, Lat : 49.2835704, Lng : -123.1150206, Q1 : 0.999998748302, Q2 : -0.000141591357533, Q3 : -1.08177127913e-05, Q4 : -0.001558657852}
2019-04-15 00:47:55.51: SIM {TimeUS : 50935451, Roll : -0.01, Pitch : 0.0, Yaw : 359.81, Alt : 45.2099990845, Lat : 49.2835704, Lng : -123.1150206, Q1 : 0.999998688698, Q2 : -0.000103339429188, Q3 : -1.42569660966e-05, Q4 : -0.00159871438518}
2019-04-15 00:47:55.61: SIM {TimeUS : 51035411, Roll : -0.01, Pitch : 0.0, Yaw : 359.81, Alt : 45.4399986267, Lat : 49.2835703, Lng : -123.1150206, Q1 : 0.999998629093, Q2 : -0.0001609246101, Q3 : -2.91773721983e-05, Q4 : -0.00164195813704}
2019-04-15 00:47:55.71: SIM {TimeUS : 51135371, Roll : -0.02, Pitch : -0.01, Yaw : 359.8, Alt : 45.6800003052, Lat : 49.2835703, Lng : -123.1150206, Q1 : 0.999998509884, Q2 : -0.000213940948015, Q3 : -0.000172934524016, Q4 : -0.00168337509967}
2019-04-15 00:47:55.81: SIM {TimeUS : 51235331, Roll : -0.02, Pitch : -0.03, Yaw : 359.8, Alt : 45.9099998474, Lat : 49.2835703, Lng : -123.1150206, Q1 : 0.999998450279, Q2 : -0.000213002393139, Q3 : -0.000269132346148, Q4 : -0.00172411359381}
2019-04-15 00:47:55.91: SIM {TimeUS : 51335291, Roll : -0.01, Pitch : -0.03, Yaw : 359.79, Alt : 46.1399993896, Lat : 49.2835703, Lng : -123.1150206, Q1 : 0.999998390675, Q2 : -0.00013412318367, Q3 : -0.00029400276253, Q4 : -0.00175989698619}
2019-04-15 00:47:56.01: SIM {TimeUS : 51435251, Roll : -0.01, Pitch : -0.02, Yaw : 359.79, Alt : 46.3699989319, Lat : 49.2835703, Lng : -123.1150206, Q1 : 0.999998390675, Q2 : -0.000164229102666, Q3 : -0.000254664046224, Q4 : -0.00179114483763}
2019-04-15 00:47:56.11: SIM {TimeUS : 51535211, Roll : -0.04, Pitch : -0.01, Yaw : 359.79, Alt : 46.5900001526, Lat : 49.2835703, Lng : -123.1150206, Q1 : 0.999998271465, Q2 : -0.00035421011853, Q3 : -0.000164992772625, Q4 : -0.00181940756738}
2019-04-15 00:47:56.21: SIM {TimeUS : 51635171, Roll : -0.07, Pitch : -0.01, Yaw : 359.78, Alt : 46.8100013733, Lat : 49.2835703, Lng : -123.1150206, Q1 : 0.999998092651, Q2 : -0.000683264108375, Q3 : -0.000103501362901, Q4 : -0.00184406409971}
2019-04-15 00:47:56.31: SIM {TimeUS : 51735131, Roll : -0.1, Pitch : 0.0, Yaw : 359.78, Alt : 47.0200004578, Lat : 49.2835703, Lng : -123.1150206, Q1 : 0.999997794628, Q2 : -0.000937391188927, Q3 : -7.26710131858e-05, Q4 : -0.00186607649084}
2019-04-15 00:47:56.41: SIM {TimeUS : 51835091, Roll : -0.11, Pitch : 0.0, Yaw : 359.78, Alt : 47.2200012207, Lat : 49.2835703, Lng : -123.1150206, Q1 : 0.999997735023, Q2 : -0.00102085119579, Q3 : -1.30154410272e-06, Q4 : -0.00188542774413}
2019-04-15 00:47:56.51: SIM {TimeUS : 51935051, Roll : -0.1, Pitch : 0.01, Yaw : 359.78, Alt : 47.4199981689, Lat : 49.2835703, Lng : -123.1150206, Q1 : 0.999997735023, Q2 : -0.000922835548408, Q3 : 0.000129639782244, Q4 : -0.00190439692233}
2019-04-15 00:47:56.61: SIM {TimeUS : 52035011, Roll : -0.08, Pitch : 0.01, Yaw : 359.77, Alt : 47.5999984741, Lat : 49.2835703, Lng : -123.1150206, Q1 : 0.999997854233, Q2 : -0.000746014877222, Q3 : 0.00017554826627, Q4 : -0.00192484480795}
2019-04-15 00:47:56.71: SIM {TimeUS : 52134971, Roll : -0.09, Pitch : 0.0, Yaw : 359.77, Alt : 47.7799987793, Lat : 49.2835703, Lng : -123.1150206, Q1 : 0.999997735023, Q2 : -0.000859322724864, Q3 : 7.59125177865e-05, Q4 : -0.00195283372886}
2019-04-15 00:47:56.81: SIM {TimeUS : 52234931, Roll : -0.11, Pitch : -0.01, Yaw : 359.77, Alt : 47.9399986267, Lat : 49.2835703, Lng : -123.1150206, Q1 : 0.99999755621, Q2 : -0.000984252779745, Q3 : -0.000104148311948, Q4 : -0.00198310357518}
2019-04-15 00:47:56.91: SIM {TimeUS : 52334891, Roll : -0.1, Pitch : -0.03, Yaw : 359.76, Alt : 48.0900001526, Lat : 49.2835703, Lng : -123.1150206, Q1 : 0.999997496605, Q2 : -0.000924086547457, Q3 : -0.000337472098181, Q4 : -0.00201243557967}
2019-04-15 00:47:57.01: SIM {TimeUS : 52434851, Roll : -0.07, Pitch : -0.06, Yaw : 359.76, Alt : 48.2299995422, Lat : 49.2835703, Lng : -123.1150206, Q1 : 0.99999755621, Q2 : -0.00065876840381, Q3 : -0.000534622406121, Q4 : -0.00203903089277}
2019-04-15 00:47:57.11: SIM {TimeUS : 52534811, Roll : -0.04, Pitch : -0.07, Yaw : 359.76, Alt : 48.3600006104, Lat : 49.2835703, Lng : -123.1150206, Q1 : 0.99999755621, Q2 : -0.00041473476449, Q3 : -0.000683457765263, Q4 : -0.00206306064501}
2019-04-15 00:47:57.21: SIM {TimeUS : 52634771, Roll : -0.03, Pitch : -0.08, Yaw : 359.76, Alt : 48.4799995422, Lat : 49.2835703, Lng : -123.1150206, Q1 : 0.999997496605, Q2 : -0.000279803032754, Q3 : -0.000779155641794, Q4 : -0.00208455580287}
2019-04-15 00:47:57.31: SIM {TimeUS : 52734731, Roll : 0.0, Pitch : -0.08, Yaw : 359.75, Alt : 48.5800018311, Lat : 49.2835703, Lng : -123.1150206, Q1 : 0.99999755621, Q2 : 2.35402621911e-05, Q3 : -0.000714049208909, Q4 : -0.00210755737498}
2019-04-15 00:47:57.42: SIM {TimeUS : 52835524, Roll : 0.04, Pitch : -0.06, Yaw : 359.75, Alt : 48.6699981689, Lat : 49.2835703, Lng : -123.1150206, Q1 : 0.999997496605, Q2 : 0.000373194925487, Q3 : -0.000596918223891, Q4 : -0.00212937197648}
2019-04-15 00:47:57.51: SIM {TimeUS : 52935484, Roll : 0.06, Pitch : -0.04, Yaw : 359.75, Alt : 48.75, Lat : 49.2835703, Lng : -123.1150206, Q1 : 0.999997437, Q2 : 0.000602051382884, Q3 : -0.000398260104703, Q4 : -0.00215304363519}
2019-04-15 00:47:57.61: SIM {TimeUS : 53035444, Roll : 0.07, Pitch : -0.02, Yaw : 359.75, Alt : 48.8199996948, Lat : 49.2835703, Lng : -123.1150206, Q1 : 0.999997377396, Q2 : 0.000687323568854, Q3 : -0.000226204065257, Q4 : -0.00217521120794}
2019-04-15 00:47:57.71: SIM {TimeUS : 53135404, Roll : 0.07, Pitch : -0.01, Yaw : 359.74, Alt : 48.8899993896, Lat : 49.2835703, Lng : -123.1150206, Q1 : 0.999997377396, Q2 : 0.00069157051621, Q3 : -0.000157776841661, Q4 : -0.00219426047988}
2019-04-15 00:47:57.81: SIM {TimeUS : 53235364, Roll : 0.06, Pitch : -0.03, Yaw : 359.74, Alt : 48.9399986267, Lat : 49.2835703, Lng : -123.1150206, Q1 : 0.999997377396, Q2 : 0.000554011610802, Q3 : -0.000281273882138, Q4 : -0.00221506762318}
2019-04-15 00:47:57.91: SIM {TimeUS : 53335324, Roll : 0.06, Pitch : -0.05, Yaw : 359.74, Alt : 48.9799995422, Lat : 49.2835703, Lng : -123.1150207, Q1 : 0.999997258186, Q2 : 0.000536062696483, Q3 : -0.000487059762236, Q4 : -0.00223733205348}
2019-04-15 00:47:58.01: SIM {TimeUS : 53435284, Roll : 0.19, Pitch : -0.15, Yaw : 359.74, Alt : 49.0200004578, Lat : 49.2835703, Lng : -123.1150207, Q1 : 0.999995112419, Q2 : 0.00169664632995, Q3 : -0.00136231642682, Q4 : -0.00225667306222}
2019-04-15 00:47:58.11: SIM {TimeUS : 53535244, Roll : 0.55, Pitch : -0.39, Yaw : 359.73, Alt : 49.0499992371, Lat : 49.2835703, Lng : -123.1150207, Q1 : 0.99997985363, Q2 : 0.00479755550623, Q3 : -0.00348107679747, Q4 : -0.00227025756612}
2019-04-15 00:47:58.21: SIM {TimeUS : 53635204, Roll : 1.13, Pitch : -0.78, Yaw : 359.73, Alt : 49.0800018311, Lat : 49.2835703, Lng : -123.1150206, Q1 : 0.999924361706, Q2 : 0.00992100033909, Q3 : -0.00690582580864, Q4 : -0.0022775712423}
2019-04-15 00:47:58.31: SIM {TimeUS : 53735164, Roll : 1.92, Pitch : -1.29, Yaw : 359.71, Alt : 49.1100006104, Lat : 49.2835704, Lng : -123.1150206, Q1 : 0.999792695045, Q2 : 0.0167570281774, Q3 : -0.0113435825333, Q4 : -0.00226663891226}
2019-04-15 00:47:58.41: SIM {TimeUS : 53835124, Roll : 2.8, Pitch : -1.87, Yaw : 359.69, Alt : 49.1300010681, Lat : 49.2835704, Lng : -123.1150205, Q1 : 0.999564290047, Q2 : 0.0244262795895, Q3 : -0.0164201892912, Q4 : -0.00222423789091}
2019-04-15 00:47:58.51: SIM {TimeUS : 53935084, Roll : 3.63, Pitch : -2.45, Yaw : 359.67, Alt : 49.1399993896, Lat : 49.2835706, Lng : -123.1150204, Q1 : 0.99926584959, Q2 : 0.0316564701498, Q3 : -0.0214728824794, Q4 : -0.00213360926136}
2019-04-15 00:47:58.61: SIM {TimeUS : 54035044, Roll : 4.29, Pitch : -2.93, Yaw : 359.66, Alt : 49.1599998474, Lat : 49.2835707, Lng : -123.1150202, Q1 : 0.998968780041, Q2 : 0.037376884371, Q3 : -0.0256991051137, Q4 : -0.00198653200641}
2019-04-15 00:47:58.71: SIM {TimeUS : 54135004, Roll : 4.75, Pitch : -3.31, Yaw : 359.65, Alt : 49.1699981689, Lat : 49.2835708, Lng : -123.11502, Q1 : 0.998719751835, Q2 : 0.041422162205, Q3 : -0.0289815533906, Q4 : -0.00178741104901}
2019-04-15 00:47:58.81: SIM {TimeUS : 54234964, Roll : 5.1, Pitch : -3.59, Yaw : 359.66, Alt : 49.1800003052, Lat : 49.2835709, Lng : -123.1150196, Q1 : 0.998515844345, Q2 : 0.0444315373898, Q3 : -0.0314578749239, Q4 : -0.00154680432752}
2019-04-15 00:47:58.91: SIM {TimeUS : 54334924, Roll : 5.39, Pitch : -3.81, Yaw : 359.67, Alt : 49.2000007629, Lat : 49.2835712, Lng : -123.1150191, Q1 : 0.998339116573, Q2 : 0.0469392426312, Q3 : -0.0333785414696, Q4 : -0.00127395428717}
2019-04-15 00:47:59.01: SIM {TimeUS : 54434884, Roll : 5.68, Pitch : -4.02, Yaw : 359.68, Alt : 49.2000007629, Lat : 49.2835715, Lng : -123.1150186, Q1 : 0.998156011105, Q2 : 0.0494256876409, Q3 : -0.0352223441005, Q4 : -0.000996458576992}
2019-04-15 00:47:59.11: SIM {TimeUS : 54534844, Roll : 6.0, Pitch : -4.24, Yaw : 359.69, Alt : 49.2099990845, Lat : 49.2835718, Lng : -123.1150179, Q1 : 0.997945785522, Q2 : 0.0522200651467, Q3 : -0.0371049754322, Q4 : -0.000712878594641}
2019-04-15 00:47:59.21: SIM {TimeUS : 54634804, Roll : 6.31, Pitch : -4.44, Yaw : 359.7, Alt : 49.2200012207, Lat : 49.2835721, Lng : -123.1150172, Q1 : 0.997732996941, Q2 : 0.0549171380699, Q3 : -0.0388952828944, Q4 : -0.000436917674961}
2019-04-15 00:47:59.31: SIM {TimeUS : 54734764, Roll : 6.55, Pitch : -4.63, Yaw : 359.71, Alt : 49.2299995422, Lat : 49.2835725, Lng : -123.1150163, Q1 : 0.997550845146, Q2 : 0.0570402108133, Q3 : -0.0404814332724, Q4 : -0.000197594403289}
2019-04-15 00:47:59.41: SIM {TimeUS : 54834724, Roll : 6.74, Pitch : -4.76, Yaw : 359.72, Alt : 49.2299995422, Lat : 49.2835728, Lng : -123.1150154, Q1 : 0.997408270836, Q2 : 0.0586454346776, Q3 : -0.0416831709445, Q4 : 1.37697852551e-05}
2019-04-15 00:47:59.52: SIM {TimeUS : 54935517, Roll : 6.88, Pitch : -4.86, Yaw : 359.72, Alt : 49.2400016785, Lat : 49.2835733, Lng : -123.1150143, Q1 : 0.99729681015, Q2 : 0.0599153824151, Q3 : -0.0425342097878, Q4 : 0.000192590639926}
2019-04-15 00:47:59.61: SIM {TimeUS : 55035477, Roll : 6.98, Pitch : -4.92, Yaw : 359.73, Alt : 49.2400016785, Lat : 49.2835739, Lng : -123.1150132, Q1 : 0.997224569321, Q2 : 0.0607842095196, Q3 : -0.0429928712547, Q4 : 0.0003266967542}
2019-04-15 00:47:59.71: SIM {TimeUS : 55135437, Roll : 7.09, Pitch : -4.97, Yaw : 359.73, Alt : 49.25, Lat : 49.2835745, Lng : -123.115012, Q1 : 0.997150182724, Q2 : 0.0616883076727, Q3 : -0.0434265881777, Q4 : 0.000408865977079}
2019-04-15 00:47:59.81: SIM {TimeUS : 55235397, Roll : 7.31, Pitch : -4.96, Yaw : 359.8, Alt : 49.25, Lat : 49.2835751, Lng : -123.1150106, Q1 : 0.997030496597, Q2 : 0.0636415779591, Q3 : -0.0433462783694, Q4 : 0.00104977365118}
2019-04-15 00:47:59.91: SIM {TimeUS : 55335357, Roll : 7.77, Pitch : -4.8, Yaw : 0.36, Alt : 49.25, Lat : 49.2835757, Lng : -123.1150092, Q1 : 0.996807873249, Q2 : 0.0678908750415, Q3 : -0.0415758565068, Q4 : 0.00603430205956}
2019-04-15 00:48:00.01: SIM {TimeUS : 55435317, Roll : 8.39, Pitch : -4.63, Yaw : 2.1, Alt : 49.2599983215, Lat : 49.2835764, Lng : -123.1150078, Q1 : 0.996274888515, Q2 : 0.073891915381, Q3 : -0.0390161573887, Q4 : 0.0213104579598}
2019-04-15 00:48:00.11: SIM {TimeUS : 55535277, Roll : 8.89, Pitch : -4.84, Yaw : 5.41, Alt : 49.2599983215, Lat : 49.283577, Lng : -123.1150062, Q1 : 0.994829177856, Q2 : 0.0793877989054, Q3 : -0.038433983922, Q4 : 0.050351805985}
2019-04-15 00:48:00.21: SIM {TimeUS : 55635237, Roll : 9.04, Pitch : -5.56, Yaw : 10.25, Alt : 49.2599983215, Lat : 49.2835777, Lng : -123.1150045, Q1 : 0.99138045311, Q2 : 0.0828022062778, Q3 : -0.0411645099521, Q4 : 0.0928119495511}
2019-04-15 00:48:00.31: SIM {TimeUS : 55735197, Roll : 8.69, Pitch : -6.76, Yaw : 16.41, Alt : 49.2599983215, Lat : 49.2835785, Lng : -123.1150026, Q1 : 0.984555542469, Q2 : 0.0832683891058, Q3 : -0.0474444068968, Q4 : 0.14651209116}
2019-04-15 00:48:00.41: SIM {TimeUS : 55835157, Roll : 7.73, Pitch : -8.27, Yaw : 23.63, Alt : 49.2599983215, Lat : 49.2835793, Lng : -123.1150007, Q1 : 0.973029851913, Q2 : 0.0805669054389, Q3 : -0.0567118413746, Q4 : 0.208580181003}
2019-04-15 00:48:00.51: SIM {TimeUS : 55935117, Roll : 6.16, Pitch : -9.87, Yaw : 31.67, Alt : 49.2599983215, Lat : 49.28358, Lng : -123.1149986, Q1 : 0.955826580524, Q2 : 0.0749491378665, Q3 : -0.068030834198, Q4 : 0.275952965021}
2019-04-15 00:48:00.61: SIM {TimeUS : 56035077, Roll : 4.05, Pitch : -11.31, Yaw : 40.26, Alt : 49.2700004578, Lat : 49.2835807, Lng : -123.1149964, Q1 : 0.932544648647, Q2 : 0.0669333860278, Q3 : -0.080353692174, Q4 : 0.345577329397}
2019-04-15 00:48:00.71: SIM {TimeUS : 56135037, Roll : 1.31, Pitch : -12.41, Yaw : 48.99, Alt : 49.2700004578, Lat : 49.2835816, Lng : -123.1149942, Q1 : 0.904080510139, Q2 : 0.0551902540028, Q3 : -0.093700312078, Q4 : 0.413294970989}
2019-04-15 00:48:00.81: SIM {TimeUS : 56234997, Roll : -1.86, Pitch : -13.0, Yaw : 57.04, Alt : 49.2700004578, Lat : 49.2835824, Lng : -123.1149918, Q1 : 0.873756349087, Q2 : 0.0398346967995, Q3 : -0.107249550521, Q4 : 0.472716212273}
2019-04-15 00:48:00.91: SIM {TimeUS : 56334957, Roll : -4.87, Pitch : -13.09, Yaw : 63.56, Alt : 49.2700004578, Lat : 49.2835835, Lng : -123.1149893, Q1 : 0.846318364143, Q2 : 0.0240372549742, Q3 : -0.119073472917, Q4 : 0.518641412258}
2019-04-15 00:48:01.01: SIM {TimeUS : 56434917, Roll : -7.1, Pitch : -12.86, Yaw : 68.04, Alt : 49.2700004578, Lat : 49.2835844, Lng : -123.1149868, Q1 : 0.825881183147, Q2 : 0.0115614645183, Q3 : -0.127150446177, Q4 : 0.549198865891}
2019-04-15 00:48:01.11: SIM {TimeUS : 56534877, Roll : -8.24, Pitch : -12.63, Yaw : 70.46, Alt : 49.2700004578, Lat : 49.2835856, Lng : -123.1149842, Q1 : 0.814323425293, Q2 : 0.00493549462408, Q3 : -0.130880653858, Q4 : 0.565440773964}
2019-04-15 00:48:01.21: SIM {TimeUS : 56634837, Roll : -8.33, Pitch : -12.58, Yaw : 71.06, Alt : 49.2700004578, Lat : 49.2835868, Lng : -123.1149816, Q1 : 0.811379611492, Q2 : 0.00472770212218, Q3 : -0.13092802465, Q4 : 0.569647848606}
2019-04-15 00:48:01.31: SIM {TimeUS : 56734797, Roll : -7.55, Pitch : -12.8, Yaw : 70.2, Alt : 49.2700004578, Lat : 49.2835883, Lng : -123.114979, Q1 : 0.815477252007, Q2 : 0.0104093728587, Q3 : -0.12870503962, Q4 : 0.564201653004}
2019-04-15 00:48:01.41: SIM {TimeUS : 56834757, Roll : -6.16, Pitch : -13.3, Yaw : 68.25, Alt : 49.2700004578, Lat : 49.2835897, Lng : -123.1149763, Q1 : 0.824530184269, Q2 : 0.0206650737673, Q3 : -0.125709161162, Q4 : 0.551289498806}
2019-04-15 00:48:01.51: SIM {TimeUS : 56934717, Roll : -4.41, Pitch : -13.96, Yaw : 65.54, Alt : 49.2700004578, Lat : 49.2835913, Lng : -123.1149735, Q1 : 0.836505115032, Q2 : 0.0336241833866, Q3 : -0.122871428728, Q4 : 0.532945752144}
2019-04-15 00:48:01.62: SIM {TimeUS : 57035510, Roll : -2.49, Pitch : -14.67, Yaw : 62.36, Alt : 49.2799987793, Lat : 49.2835928, Lng : -123.1149706, Q1 : 0.849746763706, Q2 : 0.0476752184331, Q3 : -0.120414763689, Q4 : 0.511035978794}
2019-04-15 00:48:01.71: SIM {TimeUS : 57135470, Roll : -0.61, Pitch : -15.26, Yaw : 59.08, Alt : 49.2799987793, Lat : 49.2835945, Lng : -123.1149676, Q1 : 0.862610697746, Q2 : 0.0609052069485, Q3 : -0.118170417845, Q4 : 0.488087177277}
2019-04-15 00:48:01.81: SIM {TimeUS : 57235430, Roll : 1.06, Pitch : -15.66, Yaw : 56.01, Alt : 49.2799987793, Lat : 49.2835962, Lng : -123.1149646, Q1 : 0.87402433157, Q2 : 0.0720780640841, Q3 : -0.115977093577, Q4 : 0.46629986167}
2019-04-15 00:48:01.91: SIM {TimeUS : 57335390, Roll : 2.38, Pitch : -15.83, Yaw : 53.45, Alt : 49.2799987793, Lat : 49.2835977, Lng : -123.1149614, Q1 : 0.883157730103, Q2 : 0.0803459733725, Q3 : -0.11376734823, Q4 : 0.447921842337}
2019-04-15 00:48:02.01: SIM {TimeUS : 57435350, Roll : 3.25, Pitch : -15.86, Yaw : 51.61, Alt : 49.2799987793, Lat : 49.2835995, Lng : -123.114958, Q1 : 0.889599919319, Q2 : 0.0853418558836, Q3 : -0.111941352487, Q4 : 0.434508860111}
2019-04-15 00:48:02.11: SIM {TimeUS : 57535310, Roll : 3.63, Pitch : -15.81, Yaw : 50.56, Alt : 49.2799987793, Lat : 49.2836012, Lng : -123.1149546, Q1 : 0.893288969994, Q2 : 0.0871566459537, Q3 : -0.11086191982, Q4 : 0.426788270473}
2019-04-15 00:48:02.21: SIM {TimeUS : 57635270, Roll : 3.57, Pitch : -15.76, Yaw : 50.3, Alt : 49.2799987793, Lat : 49.2836028, Lng : -123.114951, Q1 : 0.894388914108, Q2 : 0.0862242281437, Q3 : -0.110945113003, Q4 : 0.424647003412}
2019-04-15 00:48:02.31: SIM {TimeUS : 57735230, Roll : 3.13, Pitch : -15.77, Yaw : 50.7, Alt : 49.2799987793, Lat : 49.2836044, Lng : -123.1149473, Q1 : 0.89321488142, Q2 : 0.0832227990031, Q3 : -0.112336531281, Q4 : 0.427342563868}
2019-04-15 00:48:02.41: SIM {TimeUS : 57835190, Roll : 2.44, Pitch : -15.84, Yaw : 51.61, Alt : 49.2799987793, Lat : 49.2836062, Lng : -123.1149435, Q1 : 0.890200734138, Q2 : 0.0789907723665, Q3 : -0.114874333143, Q4 : 0.433713048697}
2019-04-15 00:48:02.51: SIM {TimeUS : 57935150, Roll : 1.6, Pitch : -15.98, Yaw : 52.84, Alt : 49.2799987793, Lat : 49.2836079, Lng : -123.1149396, Q1 : 0.885885834694, Q2 : 0.0742878764868, Q3 : -0.118342727423, Q4 : 0.442360252142}
2019-04-15 00:48:02.61: SIM {TimeUS : 58035110, Roll : 0.73, Pitch : -16.15, Yaw : 54.21, Alt : 49.2900009155, Lat : 49.2836096, Lng : -123.1149357, Q1 : 0.880911290646, Q2 : 0.0696426704526, Q3 : -0.122162297368, Q4 : 0.451908797026}
2019-04-15 00:48:02.71: SIM {TimeUS : 58135070, Roll : -0.08, Pitch : -16.3, Yaw : 55.54, Alt : 49.2900009155, Lat : 49.2836114, Lng : -123.1149317, Q1 : 0.875919699669, Q2 : 0.0654372274876, Q3 : -0.125847935677, Q4 : 0.461134493351}
2019-04-15 00:48:02.81: SIM {TimeUS : 58235030, Roll : -0.76, Pitch : -16.4, Yaw : 56.69, Alt : 49.2900009155, Lat : 49.2836132, Lng : -123.1149276, Q1 : 0.871507227421, Q2 : 0.0619674436748, Q3 : -0.128716424108, Q4 : 0.469113379717}
2019-04-15 00:48:02.91: SIM {TimeUS : 58334990, Roll : -1.22, Pitch : -16.45, Yaw : 57.57, Alt : 49.2900009155, Lat : 49.283615, Lng : -123.1149235, Q1 : 0.868083655834, Q2 : 0.059622772038, Q3 : -0.130530178547, Q4 : 0.47522392869}
2019-04-15 00:48:03.01: SIM {TimeUS : 58434950, Roll : -1.48, Pitch : -16.47, Yaw : 58.12, Alt : 49.2900009155, Lat : 49.2836168, Lng : -123.1149193, Q1 : 0.86589127779, Q2 : 0.058357976377, Q3 : -0.131486520171, Q4 : 0.479101210833}
2019-04-15 00:48:03.11: SIM {TimeUS : 58534910, Roll : -1.52, Pitch : -16.49, Yaw : 58.35, Alt : 49.2900009155, Lat : 49.2836187, Lng : -123.114915, Q1 : 0.864951491356, Q2 : 0.0583909936249, Q3 : -0.131639093161, Q4 : 0.480749994516}
2019-04-15 00:48:03.21: SIM {TimeUS : 58634870, Roll : -1.36, Pitch : -16.48, Yaw : 58.28, Alt : 49.2900009155, Lat : 49.2836206, Lng : -123.1149108, Q1 : 0.865172684193, Q2 : 0.0595145449042, Q3 : -0.130994454026, Q4 : 0.480390161276}
2019-04-15 00:48:03.31: SIM {TimeUS : 58734830, Roll : -1.08, Pitch : -16.48, Yaw : 57.97, Alt : 49.2900009155, Lat : 49.2836226, Lng : -123.1149065, Q1 : 0.866326630116, Q2 : 0.0612579770386, Q3 : -0.129961401224, Q4 : 0.478367716074}
2019-04-15 00:48:03.41: SIM {TimeUS : 58834790, Roll : -0.75, Pitch : -16.51, Yaw : 57.49, Alt : 49.2900009155, Lat : 49.2836245, Lng : -123.1149021, Q1 : 0.86808437109, Q2 : 0.0633606761694, Q3 : -0.129065319896, Q4 : 0.475139051676}
2019-04-15 00:48:03.51: SIM {TimeUS : 58934750, Roll : -0.4, Pitch : -16.57, Yaw : 56.93, Alt : 49.2900009155, Lat : 49.2836266, Lng : -123.1148977, Q1 : 0.870131731033, Q2 : 0.0656158551574, Q3 : -0.128413677216, Q4 : 0.471248596907}
2019-04-15 00:48:03.61: SIM {TimeUS : 59034710, Roll : -0.08, Pitch : -16.66, Yaw : 56.36, Alt : 49.2900009155, Lat : 49.2836286, Lng : -123.1148932, Q1 : 0.872187852859, Q2 : 0.0678156986833, Q3 : -0.128029331565, Q4 : 0.467223614454}
2019-04-15 00:48:03.72: SIM {TimeUS : 59135503, Roll : 0.2, Pitch : -16.72, Yaw : 55.84, Alt : 49.2900009155, Lat : 49.2836305, Lng : -123.1148887, Q1 : 0.874067902565, Q2 : 0.0696810781956, Q3 : -0.127690687776, Q4 : 0.463513731956}
2019-04-15 00:48:03.81: SIM {TimeUS : 59235463, Roll : 0.42, Pitch : -16.77, Yaw : 55.42, Alt : 49.2900009155, Lat : 49.2836327, Lng : -123.1148842, Q1 : 0.875572562218, Q2 : 0.0711073279381, Q3 : -0.12742690742, Q4 : 0.460520148277}
2019-04-15 00:48:03.91: SIM {TimeUS : 59335423, Roll : 0.57, Pitch : -16.81, Yaw : 55.12, Alt : 49.2900009155, Lat : 49.2836347, Lng : -123.1148796, Q1 : 0.876623749733, Q2 : 0.072071172297, Q3 : -0.127306297421, Q4 : 0.458399057388}
2019-04-15 00:48:04.01: SIM {TimeUS : 59435383, Roll : 0.64, Pitch : -16.85, Yaw : 54.96, Alt : 49.2900009155, Lat : 49.2836367, Lng : -123.114875, Q1 : 0.877189099789, Q2 : 0.0725714340806, Q3 : -0.127408191562, Q4 : 0.457208842039}
2019-04-15 00:48:04.11: SIM {TimeUS : 59535343, Roll : 0.64, Pitch : -16.87, Yaw : 54.92, Alt : 49.2900009155, Lat : 49.2836389, Lng : -123.1148703, Q1 : 0.877312600613, Q2 : 0.0725675299764, Q3 : -0.127622589469, Q4 : 0.45691254735}
2019-04-15 00:48:04.21: SIM {TimeUS : 59635303, Roll : 0.57, Pitch : -16.89, Yaw : 54.99, Alt : 49.2900009155, Lat : 49.2836409, Lng : -123.1148655, Q1 : 0.877050995827, Q2 : 0.0722292587161, Q3 : -0.12797960639, Q4 : 0.457368254662}
2019-04-15 00:48:04.31: SIM {TimeUS : 59735263, Roll : 0.45, Pitch : -16.91, Yaw : 55.14, Alt : 49.2900009155, Lat : 49.283643, Lng : -123.1148609, Q1 : 0.876505494118, Q2 : 0.0715215280652, Q3 : -0.128526374698, Q4 : 0.458370864391}
2019-04-15 00:48:04.41: SIM {TimeUS : 59835223, Roll : 0.3, Pitch : -16.93, Yaw : 55.34, Alt : 49.2900009155, Lat : 49.2836451, Lng : -123.1148561, Q1 : 0.875779390335, Q2 : 0.0706849917769, Q3 : -0.129203364253, Q4 : 0.459696233273}
2019-04-15 00:48:04.51: SIM {TimeUS : 59935183, Roll : 0.14, Pitch : -16.97, Yaw : 55.55, Alt : 49.2999992371, Lat : 49.2836473, Lng : -123.1148513, Q1 : 0.874971747398, Q2 : 0.0698899701238, Q3 : -0.129993736744, Q4 : 0.461130738258}
2019-04-15 00:48:04.61: SIM {TimeUS : 60035143, Roll : 0.0, Pitch : -17.02, Yaw : 55.76, Alt : 49.2999992371, Lat : 49.2836493, Lng : -123.1148465, Q1 : 0.874192178249, Q2 : 0.0691812932491, Q3 : -0.13082626462, Q4 : 0.462478637695}
2019-04-15 00:48:04.71: SIM {TimeUS : 60135103, Roll : -0.13, Pitch : -17.06, Yaw : 55.93, Alt : 49.2999992371, Lat : 49.2836515, Lng : -123.1148417, Q1 : 0.87354183197, Q2 : 0.0685250461102, Q3 : -0.13158942759, Q4 : 0.463587373495}
2019-04-15 00:48:04.81: SIM {TimeUS : 60235063, Roll : -0.24, Pitch : -17.08, Yaw : 56.04, Alt : 49.2999992371, Lat : 49.2836536, Lng : -123.1148368, Q1 : 0.873091757298, Q2 : 0.0679696947336, Q3 : -0.132127851248, Q4 : 0.464363217354}
2019-04-15 00:48:04.91: SIM {TimeUS : 60335023, Roll : -0.3, Pitch : -17.11, Yaw : 56.11, Alt : 49.2999992371, Lat : 49.2836558, Lng : -123.1148319, Q1 : 0.87284719944, Q2 : 0.0676995664835, Q3 : -0.132531836629, Q4 : 0.464747130871}
2019-04-15 00:48:05.01: SIM {TimeUS : 60434983, Roll : -0.3, Pitch : -17.14, Yaw : 56.11, Alt : 49.2999992371, Lat : 49.2836579, Lng : -123.114827, Q1 : 0.872788369656, Q2 : 0.0678237006068, Q3 : -0.132785320282, Q4 : 0.464767187834}
2019-04-15 00:48:05.11: SIM {TimeUS : 60534943, Roll : -0.26, Pitch : -17.18, Yaw : 56.07, Alt : 49.2999992371, Lat : 49.2836602, Lng : -123.114822, Q1 : 0.872893512249, Q2 : 0.0682539269328, Q3 : -0.132948473096, Q4 : 0.464459985495}
2019-04-15 00:48:05.21: SIM {TimeUS : 60634903, Roll : -0.18, Pitch : -17.22, Yaw : 55.99, Alt : 49.2999992371, Lat : 49.2836624, Lng : -123.1148171, Q1 : 0.873129010201, Q2 : 0.0689269304276, Q3 : -0.133002534509, Q4 : 0.463902056217}
2019-04-15 00:48:05.31: SIM {TimeUS : 60734863, Roll : -0.09, Pitch : -17.27, Yaw : 55.88, Alt : 49.2999992371, Lat : 49.2836645, Lng : -123.1148121, Q1 : 0.873453557491, Q2 : 0.0696739405394, Q3 : -0.13301192224, Q4 : 0.46317628026}
2019-04-15 00:48:05.41: SIM {TimeUS : 60834823, Roll : 0.0, Pitch : -17.3, Yaw : 55.76, Alt : 49.3100013733, Lat : 49.2836668, Lng : -123.1148071, Q1 : 0.873834908009, Q2 : 0.070310883224, Q3 : -0.132991120219, Q4 : 0.462366014719}
2019-04-15 00:48:05.51: SIM {TimeUS : 60934783, Roll : 0.05, Pitch : -17.32, Yaw : 55.65, Alt : 49.3100013733, Lat : 49.2836689, Lng : -123.1148021, Q1 : 0.874230265617, Q2 : 0.0707397833467, Q3 : -0.133011519909, Q4 : 0.46154665947}
2019-04-15 00:48:05.61: SIM {TimeUS : 61034743, Roll : 0.08, Pitch : -17.33, Yaw : 55.55, Alt : 49.3100013733, Lat : 49.2836712, Lng : -123.114797, Q1 : 0.874614179134, Q2 : 0.0708987787366, Q3 : -0.133000671864, Q4 : 0.460797429085}
2019-04-15 00:48:05.71: SIM {TimeUS : 61134703, Roll : 0.12, Pitch : -17.33, Yaw : 55.46, Alt : 49.3100013733, Lat : 49.2836735, Lng : -123.114792, Q1 : 0.874924719334, Q2 : 0.0710917711258, Q3 : -0.13290938735, Q4 : 0.460204064846}
2019-04-15 00:48:05.82: SIM {TimeUS : 61235496, Roll : 0.15, Pitch : -17.34, Yaw : 55.4, Alt : 49.3100013733, Lat : 49.2836758, Lng : -123.1147868, Q1 : 0.875137329102, Q2 : 0.0713138058782, Q3 : -0.132850810885, Q4 : 0.459782242775}
2019-04-15 00:48:05.91: SIM {TimeUS : 61335456, Roll : 0.19, Pitch : -17.37, Yaw : 55.37, Alt : 49.3100013733, Lat : 49.283678, Lng : -123.1147818, Q1 : 0.875222682953, Q2 : 0.0716685578227, Q3 : -0.132954373956, Q4 : 0.459534585476}
2019-04-15 00:48:06.01: SIM {TimeUS : 61435416, Roll : 0.21, Pitch : -17.42, Yaw : 55.35, Alt : 49.3100013733, Lat : 49.2836803, Lng : -123.1147766, Q1 : 0.875204384327, Q2 : 0.072030544281, Q3 : -0.13326741755, Q4 : 0.459422141314}
2019-04-15 00:48:06.11: SIM {TimeUS : 61535376, Roll : 0.21, Pitch : -17.46, Yaw : 55.36, Alt : 49.3100013733, Lat : 49.2836826, Lng : -123.1147715, Q1 : 0.875153720379, Q2 : 0.072150208056, Q3 : -0.133553683758, Q4 : 0.459416747093}
2019-04-15 00:48:06.21: SIM {TimeUS : 61635336, Roll : 0.19, Pitch : -17.46, Yaw : 55.37, Alt : 49.3100013733, Lat : 49.2836849, Lng : -123.1147664, Q1 : 0.875098586082, Q2 : 0.0720661506057, Q3 : -0.133648589253, Q4 : 0.45950743556}
2019-04-15 00:48:06.31: SIM {TimeUS : 61735296, Roll : 0.17, Pitch : -17.47, Yaw : 55.39, Alt : 49.3100013733, Lat : 49.2836871, Lng : -123.1147612, Q1 : 0.875021219254, Q2 : 0.0719031020999, Q3 : -0.133781477809, Q4 : 0.459641546011}
2019-04-15 00:48:06.41: SIM {TimeUS : 61835256, Roll : 0.12, Pitch : -17.49, Yaw : 55.42, Alt : 49.3100013733, Lat : 49.2836894, Lng : -123.1147561, Q1 : 0.87493288517, Q2 : 0.0716632530093, Q3 : -0.134093105793, Q4 : 0.459756284952}
2019-04-15 00:48:06.51: SIM {TimeUS : 61935216, Roll : 0.09, Pitch : -17.51, Yaw : 55.44, Alt : 49.3100013733, Lat : 49.2836917, Lng : -123.1147509, Q1 : 0.874845504761, Q2 : 0.0715208873153, Q3 : -0.134376451373, Q4 : 0.459862053394}
2019-04-15 00:48:06.61: SIM {TimeUS : 62035176, Roll : 0.06, Pitch : -17.53, Yaw : 55.45, Alt : 49.3199996948, Lat : 49.2836939, Lng : -123.1147457, Q1 : 0.874785661697, Q2 : 0.0714185014367, Q3 : -0.134659081697, Q4 : 0.459909081459}
2019-04-15 00:48:06.71: SIM {TimeUS : 62135136, Roll : 0.04, Pitch : -17.55, Yaw : 55.45, Alt : 49.3199996948, Lat : 49.2836963, Lng : -123.1147405, Q1 : 0.874759376049, Q2 : 0.0713914036751, Q3 : -0.134895324707, Q4 : 0.459894090891}
2019-04-15 00:48:06.81: SIM {TimeUS : 62235096, Roll : 0.04, Pitch : -17.58, Yaw : 55.45, Alt : 49.3199996948, Lat : 49.2836986, Lng : -123.1147352, Q1 : 0.874757647514, Q2 : 0.0714852884412, Q3 : -0.135110780597, Q4 : 0.459819495678}
2019-04-15 00:48:06.91: SIM {TimeUS : 62335056, Roll : 0.06, Pitch : -17.6, Yaw : 55.43, Alt : 49.3199996948, Lat : 49.283701, Lng : -123.11473, Q1 : 0.874789893627, Q2 : 0.0716738179326, Q3 : -0.135197639465, Q4 : 0.459703296423}
2019-04-15 00:48:07.01: SIM {TimeUS : 62435016, Roll : 0.1, Pitch : -17.62, Yaw : 55.41, Alt : 49.3199996948, Lat : 49.2837033, Lng : -123.1147248, Q1 : 0.874834656715, Q2 : 0.0719985291362, Q3 : -0.135231822729, Q4 : 0.459557384253}
2019-04-15 00:48:07.11: SIM {TimeUS : 62534976, Roll : 0.13, Pitch : -17.64, Yaw : 55.38, Alt : 49.3199996948, Lat : 49.2837057, Lng : -123.1147195, Q1 : 0.87490016222, Q2 : 0.0722864344716, Q3 : -0.135316073895, Q4 : 0.459362566471}
2019-04-15 00:48:07.21: SIM {TimeUS : 62634936, Roll : 0.13, Pitch : -17.68, Yaw : 55.35, Alt : 49.3199996948, Lat : 49.283708, Lng : -123.1147142, Q1 : 0.874977231026, Q2 : 0.0724556297064, Q3 : -0.135566174984, Q4 : 0.4591152668}
2019-04-15 00:48:07.31: SIM {TimeUS : 62734896, Roll : 0.13, Pitch : -17.72, Yaw : 55.32, Alt : 49.3199996948, Lat : 49.2837102, Lng : -123.114709, Q1 : 0.875057578087, Q2 : 0.0725413560867, Q3 : -0.135897800326, Q4 : 0.458850502968}
2019-04-15 00:48:07.41: SIM {TimeUS : 62834856, Roll : 0.12, Pitch : -17.76, Yaw : 55.29, Alt : 49.3199996948, Lat : 49.2837126, Lng : -123.1147037, Q1 : 0.875135600567, Q2 : 0.0725988149643, Q3 : -0.136276125908, Q4 : 0.458580344915}
2019-04-15 00:48:07.51: SIM {TimeUS : 62934816, Roll : 0.13, Pitch : -17.79, Yaw : 55.26, Alt : 49.3199996948, Lat : 49.283715, Lng : -123.1146984, Q1 : 0.875214457512, Q2 : 0.0727536231279, Q3 : -0.136448681355, Q4 : 0.458353996277}
2019-04-15 00:48:07.61: SIM {TimeUS : 63034776, Roll : 0.15, Pitch : -17.79, Yaw : 55.23, Alt : 49.3199996948, Lat : 49.2837174, Lng : -123.1146931, Q1 : 0.875299155712, Q2 : 0.0729211643338, Q3 : -0.136417135596, Q4 : 0.458175033331}
2019-04-15 00:48:07.71: SIM {TimeUS : 63134736, Roll : 0.17, Pitch : -17.77, Yaw : 55.21, Alt : 49.3199996948, Lat : 49.2837198, Lng : -123.1146877, Q1 : 0.875397503376, Q2 : 0.0729667469859, Q3 : -0.136228561401, Q4 : 0.458035826683}
2019-04-15 00:48:07.81: SIM {TimeUS : 63234696, Roll : 0.17, Pitch : -17.76, Yaw : 55.19, Alt : 49.3199996948, Lat : 49.2837221, Lng : -123.1146824, Q1 : 0.875481665134, Q2 : 0.0728687644005, Q3 : -0.136109143496, Q4 : 0.457926094532}
2019-04-15 00:48:07.91: SIM {TimeUS : 63335489, Roll : 0.16, Pitch : -17.74, Yaw : 55.18, Alt : 49.3199996948, Lat : 49.2837245, Lng : -123.114677, Q1 : 0.875556409359, Q2 : 0.0726866200566, Q3 : -0.136013358831, Q4 : 0.457840621471}
2019-04-15 00:48:08.01: SIM {TimeUS : 63435449, Roll : 0.15, Pitch : -17.72, Yaw : 55.17, Alt : 49.3199996948, Lat : 49.2837269, Lng : -123.1146717, Q1 : 0.875606060028, Q2 : 0.0725348964334, Q3 : -0.135926187038, Q4 : 0.457795709372}
2019-04-15 00:48:08.11: SIM {TimeUS : 63535409, Roll : 0.14, Pitch : -17.73, Yaw : 55.17, Alt : 49.3300018311, Lat : 49.2837293, Lng : -123.1146663, Q1 : 0.875614881516, Q2 : 0.0724912136793, Q3 : -0.136041745543, Q4 : 0.457751333714}
2019-04-15 00:48:08.21: SIM {TimeUS : 63635369, Roll : 0.14, Pitch : -17.75, Yaw : 55.17, Alt : 49.3300018311, Lat : 49.2837317, Lng : -123.1146609, Q1 : 0.875604569912, Q2 : 0.0725602582097, Q3 : -0.136187568307, Q4 : 0.457716733217}
2019-04-15 00:48:08.31: SIM {TimeUS : 63735329, Roll : 0.13, Pitch : -17.79, Yaw : 55.17, Alt : 49.3300018311, Lat : 49.283734, Lng : -123.1146555, Q1 : 0.875571072102, Q2 : 0.0726697891951, Q3 : -0.136541396379, Q4 : 0.457658022642}
2019-04-15 00:48:08.41: SIM {TimeUS : 63835289, Roll : 0.13, Pitch : -17.84, Yaw : 55.16, Alt : 49.3300018311, Lat : 49.2837364, Lng : -123.1146502, Q1 : 0.875531196594, Q2 : 0.0728243142366, Q3 : -0.136956676841, Q4 : 0.45758575201}
2019-04-15 00:48:08.51: SIM {TimeUS : 63935249, Roll : 0.13, Pitch : -17.88, Yaw : 55.15, Alt : 49.3300018311, Lat : 49.2837388, Lng : -123.1146448, Q1 : 0.875507712364, Q2 : 0.073020644486, Q3 : -0.137246236205, Q4 : 0.457512587309}
2019-04-15 00:48:08.61: SIM {TimeUS : 64035209, Roll : 0.14, Pitch : -17.92, Yaw : 55.14, Alt : 49.3300018311, Lat : 49.2837412, Lng : -123.1146394, Q1 : 0.875506818295, Q2 : 0.0731673836708, Q3 : -0.137498483062, Q4 : 0.457415103912}
2019-04-15 00:48:08.71: SIM {TimeUS : 64135169, Roll : 0.13, Pitch : -17.94, Yaw : 55.13, Alt : 49.3300018311, Lat : 49.2837436, Lng : -123.114634, Q1 : 0.875532925129, Q2 : 0.0732046291232, Q3 : -0.137701809406, Q4 : 0.457297891378}
2019-04-15 00:48:08.81: SIM {TimeUS : 64235129, Roll : 0.14, Pitch : -17.94, Yaw : 55.12, Alt : 49.3300018311, Lat : 49.283746, Lng : -123.1146286, Q1 : 0.875589072704, Q2 : 0.0732410401106, Q3 : -0.137656211853, Q4 : 0.457198351622}
2019-04-15 00:48:08.91: SIM {TimeUS : 64335089, Roll : 0.16, Pitch : -17.94, Yaw : 55.1, Alt : 49.3300018311, Lat : 49.2837484, Lng : -123.1146231, Q1 : 0.875632405281, Q2 : 0.0734238922596, Q3 : -0.137623012066, Q4 : 0.457095980644}
2019-04-15 00:48:09.01: SIM {TimeUS : 64435049, Roll : 0.17, Pitch : -17.96, Yaw : 55.08, Alt : 49.3300018311, Lat : 49.2837509, Lng : -123.1146177, Q1 : 0.875675737858, Q2 : 0.0735257640481, Q3 : -0.137724548578, Q4 : 0.456966012716}
2019-04-15 00:48:09.11: SIM {TimeUS : 64535009, Roll : 0.18, Pitch : -17.96, Yaw : 55.07, Alt : 49.3300018311, Lat : 49.2837533, Lng : -123.1146123, Q1 : 0.87572735548, Q2 : 0.0736170113087, Q3 : -0.137744173408, Q4 : 0.456846475601}
2019-04-15 00:48:09.21: SIM {TimeUS : 64634969, Roll : 0.2, Pitch : -17.95, Yaw : 55.05, Alt : 49.3300018311, Lat : 49.2837557, Lng : -123.1146069, Q1 : 0.875792920589, Q2 : 0.0736777186394, Q3 : -0.137612149119, Q4 : 0.456750869751}
2019-04-15 00:48:09.31: SIM {TimeUS : 64734929, Roll : 0.21, Pitch : -17.95, Yaw : 55.04, Alt : 49.3300018311, Lat : 49.2837582, Lng : -123.1146014, Q1 : 0.87584644556, Q2 : 0.0737287327647, Q3 : -0.137573957443, Q4 : 0.456651419401}
2019-04-15 00:48:09.41: SIM {TimeUS : 64834889, Roll : 0.19, Pitch : -17.97, Yaw : 55.02, Alt : 49.3300018311, Lat : 49.2837606, Lng : -123.114596, Q1 : 0.875882208347, Q2 : 0.0736839547753, Q3 : -0.137779697776, Q4 : 0.456527978182}
2019-04-15 00:48:09.51: SIM {TimeUS : 64934849, Roll : 0.16, Pitch : -18.01, Yaw : 55.01, Alt : 49.3400001526, Lat : 49.283763, Lng : -123.1145905, Q1 : 0.875893831253, Q2 : 0.0736087411642, Q3 : -0.138183817267, Q4 : 0.45639565587}
2019-04-15 00:48:09.61: SIM {TimeUS : 65034809, Roll : 0.14, Pitch : -18.01, Yaw : 55.01, Alt : 49.3400001526, Lat : 49.2837655, Lng : -123.114585, Q1 : 0.87592959404, Q2 : 0.0734442099929, Q3 : -0.138305664062, Q4 : 0.456316620111}
2019-04-15 00:48:09.71: SIM {TimeUS : 65134769, Roll : 0.15, Pitch : -17.99, Yaw : 55.0, Alt : 49.3400001526, Lat : 49.2837679, Lng : -123.1145796, Q1 : 0.87597155571, Q2 : 0.0734050124884, Q3 : -0.138142794371, Q4 : 0.456291764975}
2019-04-15 00:48:09.81: SIM {TimeUS : 65234729, Roll : 0.16, Pitch : -17.98, Yaw : 55.0, Alt : 49.3400001526, Lat : 49.2837703, Lng : -123.1145741, Q1 : 0.876001179218, Q2 : 0.0734608918428, Q3 : -0.137969940901, Q4 : 0.45627823472}
2019-04-15 00:48:09.92: SIM {TimeUS : 65335522, Roll : 0.17, Pitch : -17.99, Yaw : 54.99, Alt : 49.3400001526, Lat : 49.2837728, Lng : -123.1145686, Q1 : 0.876007437706, Q2 : 0.0735714584589, Q3 : -0.137992933393, Q4 : 0.456241369247}
2019-04-15 00:48:10.01: SIM {TimeUS : 65435482, Roll : 0.16, Pitch : -18.0, Yaw : 54.98, Alt : 49.3400001526, Lat : 49.2837752, Lng : -123.1145631, Q1 : 0.876024007797, Q2 : 0.07352963835, Q3 : -0.13814881444, Q4 : 0.456169068813}
2019-04-15 00:48:10.11: SIM {TimeUS : 65535442, Roll : 0.13, Pitch : -18.02, Yaw : 54.98, Alt : 49.3400001526, Lat : 49.2837776, Lng : -123.1145576, Q1 : 0.876052796841, Q2 : 0.0733546689153, Q3 : -0.138405516744, Q4 : 0.456064254045}
2019-04-15 00:48:10.21: SIM {TimeUS : 65635402, Roll : 0.12, Pitch : -18.04, Yaw : 54.96, Alt : 49.3400001526, Lat : 49.2837801, Lng : -123.1145521, Q1 : 0.87608063221, Q2 : 0.0733134821057, Q3 : -0.138610392809, Q4 : 0.455955147743}
2019-04-15 00:48:10.31: SIM {TimeUS : 65735362, Roll : 0.13, Pitch : -18.06, Yaw : 54.95, Alt : 49.3400001526, Lat : 49.2837825, Lng : -123.1145466, Q1 : 0.876097142696, Q2 : 0.073465116322, Q3 : -0.138723015785, Q4 : 0.455864697695}
2019-04-15 00:48:10.41: SIM {TimeUS : 65835322, Roll : 0.15, Pitch : -18.08, Yaw : 54.94, Alt : 49.3400001526, Lat : 49.2837849, Lng : -123.1145411, Q1 : 0.876108586788, Q2 : 0.073654897511, Q3 : -0.138822644949, Q4 : 0.455781787634}
2019-04-15 00:48:10.51: SIM {TimeUS : 65935282, Roll : 0.17, Pitch : -18.1, Yaw : 54.93, Alt : 49.3400001526, Lat : 49.2837874, Lng : -123.1145356, Q1 : 0.876115620136, Q2 : 0.0739176273346, Q3 : -0.13886038959, Q4 : 0.45571410656}
2019-04-15 00:48:10.61: SIM {TimeUS : 66035242, Roll : 0.19, Pitch : -18.11, Yaw : 54.92, Alt : 49.3400001526, Lat : 49.2837899, Lng : -123.1145301, Q1 : 0.876128137112, Q2 : 0.0740978419781, Q3 : -0.138941943645, Q4 : 0.45563596487}
2019-04-15 00:48:10.71: SIM {TimeUS : 66135202, Roll : 0.2, Pitch : -18.13, Yaw : 54.91, Alt : 49.3400001526, Lat : 49.2837923, Lng : -123.1145246, Q1 : 0.876140356064, Q2 : 0.074256747961, Q3 : -0.139029785991, Q4 : 0.455559879541}
2019-04-15 00:48:10.81: SIM {TimeUS : 66235162, Roll : 0.22, Pitch : -18.15, Yaw : 54.9, Alt : 49.3499984741, Lat : 49.2837948, Lng : -123.1145191, Q1 : 0.876147806644, Q2 : 0.0744297727942, Q3 : -0.139087975025, Q4 : 0.455499470234}
