2019-04-14 22:22:03.90: SIM {TimeUS : 40116447, Roll : 0.0, Pitch : 0.0, Yaw : 0.0, Alt : 30.1000003815, Lat : 49.28357, Lng : -123.11502, Q1 : 1.0, Q2 : 0.0, Q3 : 0.0, Q4 : 0.0}
2019-04-14 22:22:04.01: SIM {TimeUS : 40235566, Roll : 0.0, Pitch : 0.0, Yaw : 0.0, Alt : 30.1000003815, Lat : 49.28357, Lng : -123.11502, Q1 : 1.0, Q2 : 0.0, Q3 : 0.0, Q4 : 0.0}
2019-04-14 22:22:04.11: SIM {TimeUS : 40335526, Roll : 0.0, Pitch : 0.0, Yaw : 0.0, Alt : 30.1000003815, Lat : 49.28357, Lng : -123.11502, Q1 : 1.0, Q2 : 0.0, Q3 : 0.0, Q4 : 0.0}
2019-04-14 22:22:04.21: SIM {TimeUS : 40435486, Roll : 0.0, Pitch : 0.0, Yaw : 0.0, Alt : 30.1000003815, Lat : 49.28357, Lng : -123.11502, Q1 : 1.0, Q2 : 0.0, Q3 : 0.0, Q4 : 0.0}
2019-04-14 22:22:04.31: SIM {TimeUS : 40535446, Roll : 0.0, Pitch : 0.0, Yaw : 0.0, Alt : 30.1000003815, Lat : 49.28357, Lng : -123.11502, Q1 : 1.0, Q2 : 0.0, Q3 : 0.0, Q4 : 0.0}
2019-04-14 22:22:04.41: SIM {TimeUS : 40635406, Roll : 0.0, Pitch : 0.0, Yaw : 0.0, Alt : 30.1000003815, Lat : 49.28357, Lng : -123.11502, Q1 : 1.0, Q2 : 0.0, Q3 : 0.0, Q4 : 0.0}
2019-04-14 22:22:04.51: SIM {TimeUS : 40735366, Roll : 0.0, Pitch : 0.0, Yaw : 0.0, Alt : 30.1000003815, Lat : 49.28357, Lng : -123.11502, Q1 : 1.0, Q2 : 0.0, Q3 : 0.0, Q4 : 0.0}
2019-04-14 22:22:04.61: SIM {TimeUS : 40835326, Roll : 0.0, Pitch : 0.0, Yaw : 0.0, Alt : 30.1000003815, Lat : 49.28357, Lng : -123.11502, Q1 : 1.0, Q2 : 0.0, Q3 : 0.0, Q4 : 0.0}
2019-04-14 22:22:04.71: SIM {TimeUS : 40935286, Roll : 0.0, Pitch : 0.0, Yaw : 0.0, Alt : 30.1000003815, Lat : 49.28357, Lng : -123.11502, Q1 : 1.0, Q2 : 0.0, Q3 : 0.0, Q4 : 0.0}
2019-04-14 22:22:04.81: SIM {TimeUS : 41035246, Roll : 0.0, Pitch : 0.0, Yaw : 0.0, Alt : 30.1000003815, Lat : 49.28357, Lng : -123.11502, Q1 : 1.0, Q2 : 0.0, Q3 : 0.0, Q4 : 0.0}
2019-04-14 22:22:04.91: SIM {TimeUS : 41135206, Roll : 0.0, Pitch : 0.0, Yaw : 0.0, Alt : 30.1000003815, Lat : 49.28357, Lng : -123.11502, Q1 : 1.0, Q2 : 0.0, Q3 : 0.0, Q4 : 0.0}
2019-04-14 22:22:05.01: SIM {TimeUS : 41235166, Roll : 0.0, Pitch : 0.0, Yaw : 0.0, Alt : 30.1000003815, Lat : 49.28357, Lng : -123.11502, Q1 : 1.0, Q2 : 0.0, Q3 : 0.0, Q4 : 0.0}
2019-04-14 22:22:05.11: SIM {TimeUS : 41335126, Roll : 0.0, Pitch : 0.0, Yaw : 0.0, Alt : 30.1000003815, Lat : 49.28357, Lng : -123.11502, Q1 : 1.0, Q2 : 0.0, Q3 : 0.0, Q4 : 0.0}
2019-04-14 22:22:05.21: SIM {TimeUS : 41435086, Roll : 0.0, Pitch : 0.0, Yaw : 0.0, Alt : 30.1000003815, Lat : 49.28357, Lng : -123.11502, Q1 : 1.0, Q2 : 0.0, Q3 : 0.0, Q4 : 0.0}
2019-04-14 22:22:05.31: SIM {TimeUS : 41535046, Roll : 0.0, Pitch : 0.0, Yaw : 0.0, Alt : 30.1000003815, Lat : 49.28357, Lng : -123.11502, Q1 : 1.0, Q2 : 0.0, Q3 : 0.0, Q4 : 0.0}
2019-04-14 22:22:05.41: SIM {TimeUS : 41635006, Roll : 0.0, Pitch : 0.0, Yaw : 0.0, Alt : 30.1000003815, Lat : 49.28357, Lng : -123.11502, Q1 : 1.0, Q2 : 0.0, Q3 : 0.0, Q4 : 0.0}
2019-04-14 22:22:05.51: SIM {TimeUS : 41734966, Roll : 0.0, Pitch : 0.0, Yaw : 0.0, Alt : 30.1000003815, Lat : 49.28357, Lng : -123.11502, Q1 : 1.0, Q2 : 0.0, Q3 : 0.0, Q4 : 0.0}
2019-04-14 22:22:05.61: SIM {TimeUS : 41834926, Roll : 0.0, Pitch : 0.0, Yaw : 0.0, Alt : 30.1000003815, Lat : 49.28357, Lng : -123.11502, Q1 : 1.0, Q2 : 0.0, Q3 : 0.0, Q4 : 0.0}
2019-04-14 22:22:05.71: SIM {TimeUS : 41934886, Roll : 0.0, Pitch : 0.0, Yaw : 0.0, Alt : 30.1000003815, Lat : 49.28357, Lng : -123.11502, Q1 : 1.0, Q2 : 0.0, Q3 : 0.0, Q4 : 0.0}
2019-04-14 22:22:05.81: SIM {TimeUS : 42034846, Roll : 0.0, Pitch : 0.0, Yaw : 0.0, Alt : 30.1000003815, Lat : 49.28357, Lng : -123.11502, Q1 : 1.0, Q2 : 0.0, Q3 : 0.0, Q4 : 0.0}
2019-04-14 22:22:05.91: SIM {TimeUS : 42134806, Roll : 0.0, Pitch : 0.0, Yaw : 0.0, Alt : 30.1000003815, Lat : 49.28357, Lng : -123.11502, Q1 : 1.0, Q2 : 0.0, Q3 : 0.0, Q4 : 0.0}
2019-04-14 22:22:06.02: SIM {TimeUS : 42235599, Roll : 0.0, Pitch : 0.0, Yaw : 0.0, Alt : 30.1000003815, Lat : 49.28357, Lng : -123.11502, Q1 : 1.0, Q2 : 0.0, Q3 : 0.0, Q4 : 0.0}
2019-04-14 22:22:06.11: SIM {TimeUS : 42335559, Roll : 0.0, Pitch : 0.0, Yaw : 0.0, Alt : 30.1000003815, Lat : 49.28357, Lng : -123.11502, Q1 : 1.0, Q2 : 0.0, Q3 : 0.0, Q4 : 0.0}
2019-04-14 22:22:06.21: SIM {TimeUS : 42435519, Roll : 0.0, Pitch : 0.0, Yaw : 0.0, Alt : 30.1000003815, Lat : 49.28357, Lng : -123.11502, Q1 : 1.0, Q2 : 0.0, Q3 : 0.0, Q4 : 2.92034322072e-12}
2019-04-14 22:22:06.31: SIM {TimeUS : 42535479, Roll : 0.0, Pitch : 0.0, Yaw : 0.0, Alt : 30.1000003815, Lat : 49.28357, Lng : -123.11502, Q1 : 1.0, Q2 : 0.0, Q3 : 0.0, Q4 : 6.72381109124e-11}
2019-04-14 22:22:06.41: SIM {TimeUS : 42635439, Roll : 0.0, Pitch : 0.0, Yaw : 360.0, Alt : 30.1000003815, Lat : 49.28357, Lng : -123.11502, Q1 : 1.0, Q2 : 0.0, Q3 : 0.0, Q4 : -9.67227649085e-08}
2019-04-14 22:22:06.51: SIM {TimeUS : 42735399, Roll : 0.0, Pitch : 0.0, Yaw : 359.99, Alt : 30.1000003815, Lat : 49.28357, Lng : -123.11502, Q1 : 1.0, Q2 : 0.0, Q3 : 0.0, Q4 : -2.48592527896e-07}
2019-04-14 22:22:06.61: SIM {TimeUS : 42835359, Roll : 0.0, Pitch : 0.0, Yaw : 359.99, Alt : 30.1000003815, Lat : 49.28357, Lng : -123.11502, Q1 : 1.0, Q2 : 0.0, Q3 : 0.0, Q4 : -4.40266575197e-07}
2019-04-14 22:22:06.71: SIM {TimeUS : 42935319, Roll : 0.0, Pitch : 0.0, Yaw : 359.99, Alt : 30.1000003815, Lat : 49.28357, Lng : -123.11502, Q1 : 1.0, Q2 : 0.0, Q3 : 0.0, Q4 : -6.51230095627e-07}
2019-04-14 22:22:06.81: SIM {TimeUS : 43035279, Roll : 0.0, Pitch : 0.0, Yaw : 359.99, Alt : 30.1000003815, Lat : 49.28357, Lng : -123.11502, Q1 : 1.0, Q2 : 0.0, Q3 : 0.0, Q4 : -8.4822761437e-07}
2019-04-14 22:22:06.91: SIM {TimeUS : 43135239, Roll : 0.0, Pitch : 0.0, Yaw : 359.99, Alt : 30.1000003815, Lat : 49.28357, Lng : -123.11502, Q1 : 1.0, Q2 : 0.0, Q3 : 0.0, Q4 : -1.06543734546e-06}
2019-04-14 22:22:07.01: SIM {TimeUS : 43235199, Roll : 0.0, Pitch : 0.0, Yaw : 359.99, Alt : 30.1000003815, Lat : 49.28357, Lng : -123.11502, Q1 : 1.0, Q2 : 0.0, Q3 : 0.0, Q4 : -1.31478896037e-06}
2019-04-14 22:22:07.11: SIM {TimeUS : 43335159, Roll : 0.0, Pitch : 0.0, Yaw : 359.99, Alt : 30.1100006104, Lat : 49.28357, Lng : -123.11502, Q1 : 1.0, Q2 : 0.0, Q3 : 0.0, Q4 : -1.50680511979e-06}
2019-04-14 22:22:07.21: SIM {TimeUS : 43435119, Roll : 0.0, Pitch : 0.0, Yaw : 359.99, Alt : 30.1299991608, Lat : 49.28357, Lng : -123.11502, Q1 : 1.0, Q2 : 0.0, Q3 : 0.0, Q4 : -1.71850535935e-06}
2019-04-14 22:22:07.31: SIM {TimeUS : 43535079, Roll : 0.0, Pitch : 0.0, Yaw : 359.99, Alt : 30.1599998474, Lat : 49.28357, Lng : -123.11502, Q1 : 1.0, Q2 : 0.0, Q3 : 0.0, Q4 : -1.98989641831e-06}
2019-04-14 22:22:07.41: SIM {TimeUS : 43635039, Roll : 0.0, Pitch : 0.0, Yaw : 359.99, Alt : 30.1900005341, Lat : 49.28357, Lng : -123.11502, Q1 : 1.0, Q2 : 0.0, Q3 : 0.0, Q4 : -2.22445487452e-06}
2019-04-14 22:22:07.51: SIM {TimeUS : 43734999, Roll : -0.03, Pitch : -0.03, Yaw : 359.99, Alt : 30.2299995422, Lat : 49.28357, Lng : -123.11502, Q1 : 0.999999880791, Q2 : -0.000329473376041, Q3 : -0.000321046012687, Q4 : -3.4062368286e-06}
2019-04-14 22:22:07.61: SIM {TimeUS : 43834959, Roll : -0.3, Pitch : -0.26, Yaw : 359.99, Alt : 30.3099994659, Lat : 49.28357, Lng : -123.11502, Q1 : 0.999993979931, Q2 : -0.0026364508085, Q3 : -0.00227195373736, Q4 : -2.34766739595e-05}
2019-04-14 22:22:07.71: SIM {TimeUS : 43934919, Roll : -0.62, Pitch : -0.49, Yaw : 359.99, Alt : 30.4400005341, Lat : 49.28357, Lng : -123.11502, Q1 : 0.999975800514, Q2 : -0.00541856884956, Q3 : -0.00436020968482, Q4 : -7.04212652636e-05}
2019-04-14 22:22:07.81: SIM {TimeUS : 44034879, Roll : -0.82, Pitch : -0.65, Yaw : 359.98, Alt : 30.6000003815, Lat : 49.28357, Lng : -123.11502, Q1 : 0.999958097935, Q2 : -0.00717999879271, Q3 : -0.00568077387288, Q4 : -0.00013752488303}
2019-04-14 22:22:07.91: SIM {TimeUS : 44134839, Roll : -0.86, Pitch : -0.68, Yaw : 359.98, Alt : 30.7600002289, Lat : 49.28357, Lng : -123.11502, Q1 : 0.999953746796, Q2 : -0.00751881487668, Q3 : -0.00598929729313, Q4 : -0.000213958657696}
2019-04-14 22:22:08.01: SIM {TimeUS : 44234799, Roll : -0.76, Pitch : -0.61, Yaw : 359.97, Alt : 30.9099998474, Lat : 49.28357, Lng : -123.1150201, Q1 : 0.999963283539, Q2 : -0.00667322613299, Q3 : -0.00536928698421, Q4 : -0.000292838347377}
2019-04-14 22:22:08.12: SIM {TimeUS : 44335592, Roll : -0.56, Pitch : -0.47, Yaw : 359.96, Alt : 31.0699996948, Lat : 49.2835701, Lng : -123.1150202, Q1 : 0.99997907877, Q2 : -0.00496460543945, Q3 : -0.00412238808349, Q4 : -0.00036843775888}
2019-04-14 22:22:08.21: SIM {TimeUS : 44435552, Roll : -0.32, Pitch : -0.31, Yaw : 359.95, Alt : 31.2199993134, Lat : 49.2835701, Lng : -123.1150202, Q1 : 0.999992191792, Q2 : -0.00281709805131, Q3 : -0.00274432590231, Q4 : -0.000429165142123}
2019-04-14 22:22:08.31: SIM {TimeUS : 44535512, Roll : -0.1, Pitch : -0.16, Yaw : 359.94, Alt : 31.3899993896, Lat : 49.2835702, Lng : -123.1150203, Q1 : 0.999998450279, Q2 : -0.000946756277699, Q3 : -0.00139714370016, Q4 : -0.000471737061162}
2019-04-14 22:22:08.41: SIM {TimeUS : 44635472, Roll : 0.02, Pitch : -0.03, Yaw : 359.94, Alt : 31.5599994659, Lat : 49.2835702, Lng : -123.1150204, Q1 : 0.999999821186, Q2 : 0.00018763281696, Q3 : -0.000312356103677, Q4 : -0.00050643942086}
2019-04-14 22:22:08.51: SIM {TimeUS : 44735432, Roll : 0.07, Pitch : 0.03, Yaw : 359.93, Alt : 31.7399997711, Lat : 49.2835703, Lng : -123.1150205, Q1 : 0.999999582767, Q2 : 0.000656877935398, Q3 : 0.000286010734271, Q4 : -0.000533099169843}
2019-04-14 22:22:08.61: SIM {TimeUS : 44835392, Roll : 0.07, Pitch : 0.05, Yaw : 359.93, Alt : 31.9200000763, Lat : 49.2835703, Lng : -123.1150206, Q1 : 0.999999523163, Q2 : 0.000650764035527, Q3 : 0.0004631295742, Q4 : -0.000553849444259}
2019-04-14 22:22:08.71: SIM {TimeUS : 44935352, Roll : 0.06, Pitch : 0.04, Yaw : 359.93, Alt : 32.0999984741, Lat : 49.2835703, Lng : -123.1150206, Q1 : 0.999999582767, Q2 : 0.000559263629839, Q3 : 0.000416021037381, Q4 : -0.000562366156373}
2019-04-14 22:22:08.81: SIM {TimeUS : 45035312, Roll : 0.06, Pitch : 0.03, Yaw : 359.93, Alt : 32.2900009155, Lat : 49.2835703, Lng : -123.1150207, Q1 : 0.999999642372, Q2 : 0.000559346517548, Q3 : 0.000273324811133, Q4 : -0.000564728921745}
2019-04-14 22:22:08.91: SIM {TimeUS : 45135272, Roll : 0.07, Pitch : 0.02, Yaw : 359.93, Alt : 32.4799995422, Lat : 49.2835703, Lng : -123.1150207, Q1 : 0.999999582767, Q2 : 0.000678654701915, Q3 : 0.000198232504772, Q4 : -0.000566831964534}
2019-04-14 22:22:09.01: SIM {TimeUS : 45235232, Roll : 0.09, Pitch : 0.04, Yaw : 359.93, Alt : 32.6800003052, Lat : 49.2835703, Lng : -123.1150208, Q1 : 0.999999403954, Q2 : 0.000866887683515, Q3 : 0.000357339857146, Q4 : -0.000570153701119}
2019-04-14 22:22:09.11: SIM {TimeUS : 45335192, Roll : 0.12, Pitch : 0.09, Yaw : 359.93, Alt : 32.8800010681, Lat : 49.2835704, Lng : -123.1150208, Q1 : 0.999998867512, Q2 : 0.00108339113649, Q3 : 0.000839061918668, Q4 : -0.000583175802603}
2019-04-14 22:22:09.21: SIM {TimeUS : 45435152, Roll : 0.13, Pitch : 0.15, Yaw : 359.93, Alt : 33.0800018311, Lat : 49.2835704, Lng : -123.1150208, Q1 : 0.999998211861, Q2 : 0.00121454021428, Q3 : 0.00134216097649, Q4 : -0.000596409954596}
2019-04-14 22:22:09.31: SIM {TimeUS : 45535112, Roll : 0.16, Pitch : 0.2, Yaw : 359.93, Alt : 33.2799987793, Lat : 49.2835704, Lng : -123.1150209, Q1 : 0.999997317791, Q2 : 0.00140979397111, Q3 : 0.00174792378675, Q4 : -0.000612024043221}
2019-04-14 22:22:09.41: SIM {TimeUS : 45635072, Roll : 0.18, Pitch : 0.21, Yaw : 359.92, Alt : 33.4900016785, Lat : 49.2835704, Lng : -123.1150209, Q1 : 0.999996721745, Q2 : 0.0016249534674, Q3 : 0.00189699896146, Q4 : -0.000621118117124}
2019-04-14 22:22:09.51: SIM {TimeUS : 45735032, Roll : 0.2, Pitch : 0.21, Yaw : 359.92, Alt : 33.6899986267, Lat : 49.2835704, Lng : -123.1150209, Q1 : 0.999996423721, Q2 : 0.00177363445982, Q3 : 0.00189347693231, Q4 : -0.000619246042334}
2019-04-14 22:22:09.61: SIM {TimeUS : 45834992, Roll : 0.19, Pitch : 0.2, Yaw : 359.92, Alt : 33.9000015259, Lat : 49.2835706, Lng : -123.1150209, Q1 : 0.999996781349, Q2 : 0.00167810730636, Q3 : 0.00181679916568, Q4 : -0.00062341906596}
2019-04-14 22:22:09.71: SIM {TimeUS : 45934952, Roll : 0.16, Pitch : 0.16, Yaw : 359.92, Alt : 34.1100006104, Lat : 49.2835706, Lng : -123.1150209, Q1 : 0.999997735023, Q2 : 0.00148258323316, Q3 : 0.00141786201857, Q4 : -0.000624724314548}
2019-04-14 22:22:09.81: SIM {TimeUS : 46034912, Roll : 0.13, Pitch : 0.09, Yaw : 359.92, Alt : 34.3199996948, Lat : 49.2835706, Lng : -123.1150209, Q1 : 0.999998748302, Q2 : 0.00120898790192, Q3 : 0.000850766780786, Q4 : -0.000613101350609}
2019-04-14 22:22:09.91: SIM {TimeUS : 46134872, Roll : 0.1, Pitch : 0.05, Yaw : 359.93, Alt : 34.5299987793, Lat : 49.2835706, Lng : -123.1150209, Q1 : 0.999999284744, Q2 : 0.000903531210497, Q3 : 0.000438367918832, Q4 : -0.000609657319728}
2019-04-14 22:22:10.01: SIM {TimeUS : 46234832, Roll : 0.07, Pitch : 0.02, Yaw : 359.92, Alt : 34.75, Lat : 49.2835706, Lng : -123.1150209, Q1 : 0.999999582767, Q2 : 0.000625766580924, Q3 : 0.000259499647655, Q4 : -0.000622942810878}
2019-04-14 22:22:10.11: SIM {TimeUS : 46334792, Roll : 0.05, Pitch : 0.03, Yaw : 359.92, Alt : 34.9599990845, Lat : 49.2835706, Lng : -123.1150208, Q1 : 0.999999582767, Q2 : 0.000522501650266, Q3 : 0.000328578142216, Q4 : -0.000643457577098}
2019-04-14 22:22:10.22: SIM {TimeUS : 46435585, Roll : 0.05, Pitch : 0.04, Yaw : 359.92, Alt : 35.1800003052, Lat : 49.2835706, Lng : -123.1150208, Q1 : 0.999999582767, Q2 : 0.000515584950335, Q3 : 0.000425125937909, Q4 : -0.000670242123306}
2019-04-14 22:22:10.31: SIM {TimeUS : 46535545, Roll : 0.05, Pitch : 0.06, Yaw : 359.92, Alt : 35.4000015259, Lat : 49.2835706, Lng : -123.1150208, Q1 : 0.999999463558, Q2 : 0.000465063931188, Q3 : 0.000540011504199, Q4 : -0.000697743962519}
2019-04-14 22:22:10.41: SIM {TimeUS : 46635505, Roll : 0.04, Pitch : 0.07, Yaw : 359.91, Alt : 35.6199989319, Lat : 49.2835706, Lng : -123.1150208, Q1 : 0.999999463558, Q2 : 0.00038932802272, Q3 : 0.000670225534122, Q4 : -0.000724599871319}
2019-04-14 22:22:10.51: SIM {TimeUS : 46735465, Roll : 0.03, Pitch : 0.08, Yaw : 359.91, Alt : 35.8400001526, Lat : 49.2835706, Lng : -123.1150208, Q1 : 0.999999403954, Q2 : 0.000277578656096, Q3 : 0.000771122984588, Q4 : -0.000748802092858}
2019-04-14 22:22:10.61: SIM {TimeUS : 46835425, Roll : 0.01, Pitch : 0.07, Yaw : 359.91, Alt : 36.0600013733, Lat : 49.2835704, Lng : -123.1150208, Q1 : 0.999999523163, Q2 : 0.000164572920767, Q3 : 0.000643618463073, Q4 : -0.000755921995733}
2019-04-14 22:22:10.71: SIM {TimeUS : 46935385, Roll : 0.0, Pitch : 0.05, Yaw : 359.91, Alt : 36.2799987793, Lat : 49.2835704, Lng : -123.1150207, Q1 : 0.999999582767, Q2 : 6.98447111063e-05, Q3 : 0.000468755228212, Q4 : -0.00076306349365}
2019-04-14 22:22:10.81: SIM {TimeUS : 47035345, Roll : 0.0, Pitch : 0.03, Yaw : 359.91, Alt : 36.5, Lat : 49.2835704, Lng : -123.1150207, Q1 : 0.999999642372, Q2 : -8.66367627168e-05, Q3 : 0.00033328612335, Q4 : -0.000781176437158}
2019-04-14 22:22:10.91: SIM {TimeUS : 47135305, Roll : -0.02, Pitch : 0.02, Yaw : 359.9, Alt : 36.7200012207, Lat : 49.2835704, Lng : -123.1150207, Q1 : 0.999999642372, Q2 : -0.000186605044291, Q3 : 0.000261857319856, Q4 : -0.00080579589121}
2019-04-14 22:22:11.01: SIM {TimeUS : 47235265, Roll : -0.01, Pitch : 0.01, Yaw : 359.9, Alt : 36.9500007629, Lat : 49.2835704, Lng : -123.1150207, Q1 : 0.999999642372, Q2 : -0.000148804887431, Q3 : 0.000124827405671, Q4 : -0.000833610945847}
2019-04-14 22:22:11.11: SIM {TimeUS : 47335225, Roll : -0.02, Pitch : 0.0, Yaw : 359.9, Alt : 37.1699981689, Lat : 49.2835704, Lng : -123.1150207, Q1 : 0.999999582767, Q2 : -0.000199885864276, Q3 : -7.6583623013e-05, Q4 : -0.000858213868923}
2019-04-14 22:22:11.21: SIM {TimeUS : 47435185, Roll : -0.04, Pitch : -0.04, Yaw : 359.89, Alt : 37.3899993896, Lat : 49.2835704, Lng : -123.1150207, Q1 : 0.999999463558, Q2 : -0.000380279700039, Q3 : -0.000390336674172, Q4 : -0.000885056448169}
2019-04-14 22:22:11.31: SIM {TimeUS : 47535145, Roll : -0.07, Pitch : -0.07, Yaw : 359.89, Alt : 37.6199989319, Lat : 49.2835704, Lng : -123.1150207, Q1 : 0.999999165535, Q2 : -0.000661916972604, Q3 : -0.000663387647364, Q4 : -0.000912185932975}
2019-04-14 22:22:11.41: SIM {TimeUS : 47635105, Roll : -0.1, Pitch : -0.09, Yaw : 359.89, Alt : 37.8499984741, Lat : 49.2835704, Lng : -123.1150207, Q1 : 0.999998807907, Q2 : -0.00091002433328, Q3 : -0.000815735606011, Q4 : -0.000942831276916}
2019-04-14 22:22:11.51: SIM {TimeUS : 47735065, Roll : -0.12, Pitch : -0.1, Yaw : 359.88, Alt : 38.0699996948, Lat : 49.2835704, Lng : -123.1150206, Q1 : 0.999998569489, Q2 : -0.00105611921754, Q3 : -0.00088062643772, Q4 : -0.000977472867817}
2019-04-14 22:22:11.61: SIM {TimeUS : 47835025, Roll : -0.12, Pitch : -0.09, Yaw : 359.88, Alt : 38.2999992371, Lat : 49.2835704, Lng : -123.1150206, Q1 : 0.999998569489, Q2 : -0.00108979723882, Q3 : -0.000826410599984, Q4 : -0.00101368455216}
2019-04-14 22:22:11.71: SIM {TimeUS : 47934985, Roll : -0.11, Pitch : -0.06, Yaw : 359.88, Alt : 38.5299987793, Lat : 49.2835704, Lng : -123.1150206, Q1 : 0.999998807907, Q2 : -0.000962911057286, Q3 : -0.000602899235673, Q4 : -0.00104188395198}
2019-04-14 22:22:11.81: SIM {TimeUS : 48034945, Roll : -0.08, Pitch : -0.05, Yaw : 359.87, Alt : 38.7599983215, Lat : 49.2835704, Lng : -123.1150206, Q1 : 0.999999046326, Q2 : -0.000744779594243, Q3 : -0.000500534195453, Q4 : -0.00106930790935}
2019-04-14 22:22:11.91: SIM {TimeUS : 48134905, Roll : -0.07, Pitch : -0.05, Yaw : 359.87, Alt : 38.9900016785, Lat : 49.2835704, Lng : -123.1150206, Q1 : 0.99999910593, Q2 : -0.000628047855571, Q3 : -0.000494888576213, Q4 : -0.00110212946311}
2019-04-14 22:22:12.01: SIM {TimeUS : 48234865, Roll : -0.06, Pitch : -0.03, Yaw : 359.87, Alt : 39.2099990845, Lat : 49.2835704, Lng : -123.1150206, Q1 : 0.999999165535, Q2 : -0.00056274572853, Q3 : -0.000299777515465, Q4 : -0.00112258724403}
2019-04-14 22:22:12.11: SIM {TimeUS : 48334825, Roll : -0.07, Pitch : 0.0, Yaw : 359.87, Alt : 39.4500007629, Lat : 49.2835704, Lng : -123.1150206, Q1 : 0.99999910593, Q2 : -0.000689347449224, Q3 : -5.97413745709e-05, Q4 : -0.00112985877786}
2019-04-14 22:22:12.21: SIM {TimeUS : 48434785, Roll : -0.08, Pitch : 0.01, Yaw : 359.87, Alt : 39.6800003052, Lat : 49.2835704, Lng : -123.1150206, Q1 : 0.99999910593, Q2 : -0.000699343567248, Q3 : 0.000133916881168, Q4 : -0.00113403575961}
2019-04-14 22:22:12.32: SIM {TimeUS : 48535578, Roll : -0.06, Pitch : 0.04, Yaw : 359.86, Alt : 39.9099998474, Lat : 49.2835704, Lng : -123.1150206, Q1 : 0.999999165535, Q2 : -0.000536344945431, Q3 : 0.000405536353355, Q4 : -0.00114288192708}
2019-04-14 22:22:12.41: SIM {TimeUS : 48635538, Roll : -0.03, Pitch : 0.05, Yaw : 359.86, Alt : 40.1399993896, Lat : 49.2835704, Lng : -123.1150207, Q1 : 0.99999922514, Q2 : -0.000309404102154, Q3 : 0.000442413089331, Q4 : -0.00114759383723}
2019-04-14 22:22:12.51: SIM {TimeUS : 48735498, Roll : 0.0, Pitch : 0.04, Yaw : 359.86, Alt : 40.3699989319, Lat : 49.2835704, Lng : -123.1150207, Q1 : 0.99999922514, Q2 : -3.67415268556e-05, Q3 : 0.0004268749326, Q4 : -0.00114944681991}
2019-04-14 22:22:12.61: SIM {TimeUS : 48835458, Roll : 0.02, Pitch : 0.06, Yaw : 359.86, Alt : 40.5999984741, Lat : 49.2835704, Lng : -123.1150207, Q1 : 0.999999165535, Q2 : 0.000256579747656, Q3 : 0.00055897468701, Q4 : -0.0011547380127}
2019-04-14 22:22:12.71: SIM {TimeUS : 48935418, Roll : 0.07, Pitch : 0.09, Yaw : 359.86, Alt : 40.8300018311, Lat : 49.2835704, Lng : -123.1150207, Q1 : 0.999998748302, Q2 : 0.000651517184451, Q3 : 0.000818033528049, Q4 : -0.0011644186452}
2019-04-14 22:22:12.81: SIM {TimeUS : 49035378, Roll : 0.1, Pitch : 0.12, Yaw : 359.86, Alt : 41.0699996948, Lat : 49.2835706, Lng : -123.1150207, Q1 : 0.99999833107, Q2 : 0.000915294629522, Q3 : 0.0010763205355, Q4 : -0.00118317187298}
2019-04-14 22:22:12.91: SIM {TimeUS : 49135338, Roll : 0.09, Pitch : 0.14, Yaw : 359.86, Alt : 41.2999992371, Lat : 49.2835706, Lng : -123.1150207, Q1 : 0.999998152256, Q2 : 0.000830842065625, Q3 : 0.00125932670198, Q4 : -0.00119604857173}
2019-04-14 22:22:13.01: SIM {TimeUS : 49235298, Roll : 0.04, Pitch : 0.15, Yaw : 359.86, Alt : 41.5299987793, Lat : 49.2835706, Lng : -123.1150207, Q1 : 0.999998271465, Q2 : 0.000413117493736, Q3 : 0.00135667389259, Q4 : -0.00121628772467}
2019-04-14 22:22:13.11: SIM {TimeUS : 49335258, Roll : 0.0, Pitch : 0.15, Yaw : 359.85, Alt : 41.7700004578, Lat : 49.2835706, Lng : -123.1150207, Q1 : 0.99999833107, Q2 : 1.77892361535e-05, Q3 : 0.00134446588345, Q4 : -0.0012433710508}
2019-04-14 22:22:13.21: SIM {TimeUS : 49435218, Roll : -0.02, Pitch : 0.12, Yaw : 359.85, Alt : 42.0, Lat : 49.2835706, Lng : -123.1150207, Q1 : 0.999998569489, Q2 : -0.000179044087417, Q3 : 0.0010974399047, Q4 : -0.00127102877013}
2019-04-14 22:22:13.31: SIM {TimeUS : 49535178, Roll : -0.02, Pitch : 0.09, Yaw : 359.85, Alt : 42.2299995422, Lat : 49.2835706, Lng : -123.1150207, Q1 : 0.999998807907, Q2 : -0.000208363911952, Q3 : 0.000808031123597, Q4 : -0.00129723094869}
2019-04-14 22:22:13.41: SIM {TimeUS : 49635138, Roll : -0.01, Pitch : 0.09, Yaw : 359.84, Alt : 42.4700012207, Lat : 49.2835706, Lng : -123.1150207, Q1 : 0.999998807907, Q2 : -9.09263035282e-05, Q3 : 0.000794564373791, Q4 : -0.0013280864805}
2019-04-14 22:22:13.51: SIM {TimeUS : 49735098, Roll : 0.02, Pitch : 0.11, Yaw : 359.84, Alt : 42.7000007629, Lat : 49.2835706, Lng : -123.1150207, Q1 : 0.999998569489, Q2 : 0.000225005976972, Q3 : 0.000974097871222, Q4 : -0.00136652484071}
2019-04-14 22:22:13.61: SIM {TimeUS : 49835058, Roll : 0.07, Pitch : 0.13, Yaw : 359.83, Alt : 42.9399986267, Lat : 49.2835706, Lng : -123.1150207, Q1 : 0.999998152256, Q2 : 0.000677408941556, Q3 : 0.00115304673091, Q4 : -0.00140001112595}
2019-04-14 22:22:13.71: SIM {TimeUS : 49935018, Roll : 0.11, Pitch : 0.12, Yaw : 359.83, Alt : 43.1699981689, Lat : 49.2835704, Lng : -123.1150207, Q1 : 0.999997794628, Q2 : 0.00101808574982, Q3 : 0.00112724967767, Q4 : -0.00143884343561}
2019-04-14 22:22:13.81: SIM {TimeUS : 50034978, Roll : 0.11, Pitch : 0.11, Yaw : 359.83, Alt : 43.4099998474, Lat : 49.2835704, Lng : -123.1150207, Q1 : 0.999997913837, Q2 : 0.00102340173908, Q3 : 0.000999529380351, Q4 : -0.00147508946247}
2019-04-14 22:22:13.91: SIM {TimeUS : 50134938, Roll : 0.07, Pitch : 0.09, Yaw : 359.82, Alt : 43.6399993896, Lat : 49.2835704, Lng : -123.1150207, Q1 : 0.99999833107, Q2 : 0.000650373927783, Q3 : 0.000835641869344, Q4 : -0.00149004894774}
2019-04-14 22:22:14.01: SIM {TimeUS : 50234898, Roll : 0.01, Pitch : 0.08, Yaw : 359.82, Alt : 43.8800010681, Lat : 49.2835704, Lng : -123.1150207, Q1 : 0.999998569489, Q2 : 0.000120385157061, Q3 : 0.000753693107981, Q4 : -0.00150059419684}
2019-04-14 22:22:14.11: SIM {TimeUS : 50334858, Roll : -0.02, Pitch : 0.09, Yaw : 359.82, Alt : 44.1100006104, Lat : 49.2835704, Lng : -123.1150207, Q1 : 0.999998509884, Q2 : -0.000253561913269, Q3 : 0.000790226506069, Q4 : -0.00151697383262}
2019-04-14 22:22:14.21: SIM {TimeUS : 50434818, Roll : -0.04, Pitch : 0.08, Yaw : 359.82, Alt : 44.3499984741, Lat : 49.2835704, Lng : -123.1150207, Q1 : 0.999998450279, Q2 : -0.000432134867879, Q3 : 0.000737232272513, Q4 : -0.0015354208881}
2019-04-14 22:22:14.31: SIM {TimeUS : 50534778, Roll : -0.04, Pitch : 0.06, Yaw : 359.82, Alt : 44.5900001526, Lat : 49.2835704, Lng : -123.1150206, Q1 : 0.999998569489, Q2 : -0.000386788276955, Q3 : 0.000524205446709, Q4 : -0.00155896611977}
2019-04-14 22:22:14.41: SIM {TimeUS : 50635571, Roll : -0.04, Pitch : 0.03, Yaw : 359.81, Alt : 44.8199996948, Lat : 49.2835704, Lng : -123.1150206, Q1 : 0.999998569489, Q2 : -0.000402382022003, Q3 : 0.000307145965053, Q4 : -0.00159479677677}
2019-04-14 22:22:14.51: SIM {TimeUS : 50735531, Roll : -0.03, Pitch : 0.01, Yaw : 359.81, Alt : 45.0600013733, Lat : 49.2835704, Lng : -123.1150206, Q1 : 0.999998629093, Q2 : -0.00032879479113, Q3 : 0.000110907778435, Q4 : -0.00163357215934}
2019-04-14 22:22:14.61: SIM {TimeUS : 50835491, Roll : -0.01, Pitch : 0.0, Yaw : 359.8, Alt : 45.2999992371, Lat : 49.2835703, Lng : -123.1150206, Q1 : 0.999998569489, Q2 : -0.000130394342705, Q3 : 2.10653615795e-05, Q4 : -0.00167413649615}
2019-04-14 22:22:14.71: SIM {TimeUS : 50935451, Roll : -0.01, Pitch : 0.0, Yaw : 359.8, Alt : 45.5299987793, Lat : 49.2835703, Lng : -123.1150206, Q1 : 0.999998509884, Q2 : -9.18412551982e-05, Q3 : 1.2820532902e-05, Q4 : -0.00171209359542}
2019-04-14 22:22:14.81: SIM {TimeUS : 51035411, Roll : -0.02, Pitch : 0.0, Yaw : 359.79, Alt : 45.7700004578, Lat : 49.2835703, Lng : -123.1150206, Q1 : 0.999998450279, Q2 : -0.000176354064024, Q3 : -4.32793603977e-05, Q4 : -0.00175145454705}
2019-04-14 22:22:14.91: SIM {TimeUS : 51135371, Roll : -0.03, Pitch : -0.02, Yaw : 359.79, Alt : 46.0, Lat : 49.2835703, Lng : -123.1150206, Q1 : 0.99999833107, Q2 : -0.000265327136731, Q3 : -0.000221605820116, Q4 : -0.00179372378625}
2019-04-14 22:22:15.01: SIM {TimeUS : 51235331, Roll : -0.03, Pitch : -0.03, Yaw : 359.79, Alt : 46.2299995422, Lat : 49.2835703, Lng : -123.1150206, Q1 : 0.999998271465, Q2 : -0.000291647826089, Q3 : -0.000311911542667, Q4 : -0.00182858423796}
2019-04-14 22:22:15.11: SIM {TimeUS : 51335291, Roll : -0.02, Pitch : -0.03, Yaw : 359.78, Alt : 46.4500007629, Lat : 49.2835703, Lng : -123.1150206, Q1 : 0.999998152256, Q2 : -0.000234101651586, Q3 : -0.000342194951372, Q4 : -0.0018588649109}
2019-04-14 22:22:15.21: SIM {TimeUS : 51435251, Roll : -0.03, Pitch : -0.04, Yaw : 359.78, Alt : 46.6699981689, Lat : 49.2835703, Lng : -123.1150206, Q1 : 0.999998152256, Q2 : -0.00027111909003, Q3 : -0.000351330847479, Q4 : -0.00188463740051}
2019-04-14 22:22:15.31: SIM {TimeUS : 51535211, Roll : -0.05, Pitch : -0.03, Yaw : 359.78, Alt : 46.8899993896, Lat : 49.2835703, Lng : -123.1150206, Q1 : 0.999998033047, Q2 : -0.00046391991782, Q3 : -0.00030391474138, Q4 : -0.0019059588667}
2019-04-14 22:22:15.41: SIM {TimeUS : 51635171, Roll : -0.08, Pitch : -0.03, Yaw : 359.77, Alt : 47.0900001526, Lat : 49.2835703, Lng : -123.1150205, Q1 : 0.999997794628, Q2 : -0.000771275197621, Q3 : -0.000291544187348, Q4 : -0.00192182231694}
2019-04-14 22:22:15.51: SIM {TimeUS : 51735131, Roll : -0.11, Pitch : -0.03, Yaw : 359.77, Alt : 47.2900009155, Lat : 49.2835703, Lng : -123.1150205, Q1 : 0.999997615814, Q2 : -0.000975838687737, Q3 : -0.000281354499748, Q4 : -0.00194043922238}
2019-04-14 22:22:15.61: SIM {TimeUS : 51835091, Roll : -0.11, Pitch : -0.02, Yaw : 359.77, Alt : 47.4900016785, Lat : 49.2835703, Lng : -123.1150205, Q1 : 0.99999755621, Q2 : -0.000998946721666, Q3 : -0.000177749097929, Q4 : -0.00196159700863}
2019-04-14 22:22:15.71: SIM {TimeUS : 51935051, Roll : -0.11, Pitch : -0.01, Yaw : 359.77, Alt : 47.6699981689, Lat : 49.2835703, Lng : -123.1150205, Q1 : 0.999997496605, Q2 : -0.00103595212568, Q3 : -0.000101066420029, Q4 : -0.00198350893334}
2019-04-14 22:22:15.81: SIM {TimeUS : 52035011, Roll : -0.13, Pitch : -0.02, Yaw : 359.77, Alt : 47.8400001526, Lat : 49.2835703, Lng : -123.1150205, Q1 : 0.999997317791, Q2 : -0.00117400952149, Q3 : -0.000187544108485, Q4 : -0.00200524157844}
2019-04-14 22:22:15.91: SIM {TimeUS : 52134971, Roll : -0.13, Pitch : -0.02, Yaw : 359.76, Alt : 48.0, Lat : 49.2835703, Lng : -123.1150205, Q1 : 0.999997198582, Q2 : -0.00120395224076, Q3 : -0.000247042422416, Q4 : -0.00202747946605}
2019-04-14 22:22:16.01: SIM {TimeUS : 52234931, Roll : -0.13, Pitch : -0.03, Yaw : 359.76, Alt : 48.1500015259, Lat : 49.2835703, Lng : -123.1150205, Q1 : 0.999997198582, Q2 : -0.00114136526827, Q3 : -0.000342415180057, Q4 : -0.00204892153852}
2019-04-14 22:22:16.11: SIM {TimeUS : 52334891, Roll : -0.1, Pitch : -0.05, Yaw : 359.76, Alt : 48.2799987793, Lat : 49.2835703, Lng : -123.1150206, Q1 : 0.999997317791, Q2 : -0.000953826645855, Q3 : -0.00047171904589, Q4 : -0.00207359250635}
2019-04-14 22:22:16.21: SIM {TimeUS : 52434851, Roll : -0.07, Pitch : -0.07, Yaw : 359.75, Alt : 48.4099998474, Lat : 49.2835703, Lng : -123.1150206, Q1 : 0.999997377396, Q2 : -0.000654232862871, Q3 : -0.00061158882454, Q4 : -0.00209868187085}
2019-04-14 22:22:16.31: SIM {TimeUS : 52534811, Roll : -0.05, Pitch : -0.08, Yaw : 359.75, Alt : 48.5200004578, Lat : 49.2835703, Lng : -123.1150206, Q1 : 0.999997377396, Q2 : -0.000457620801171, Q3 : -0.000706049031578, Q4 : -0.00212391559035}
2019-04-14 22:22:16.42: SIM {TimeUS : 52635604, Roll : -0.04, Pitch : -0.08, Yaw : 359.75, Alt : 48.6199989319, Lat : 49.2835703, Lng : -123.1150206, Q1 : 0.999997317791, Q2 : -0.000408073945437, Q3 : -0.000749166181777, Q4 : -0.00214919936843}
2019-04-14 22:22:16.51: SIM {TimeUS : 52735564, Roll : -0.01, Pitch : -0.07, Yaw : 359.75, Alt : 48.7099990845, Lat : 49.2835703, Lng : -123.1150206, Q1 : 0.999997377396, Q2 : -0.00017164851306, Q3 : -0.000683970924001, Q4 : -0.00217257882468}
2019-04-14 22:22:16.61: SIM {TimeUS : 52835524, Roll : 0.01, Pitch : -0.06, Yaw : 359.74, Alt : 48.7799987793, Lat : 49.2835703, Lng : -123.1150206, Q1 : 0.999997437, Q2 : 0.000123749632621, Q3 : -0.000564798305277, Q4 : -0.00219786772504}
2019-04-14 22:22:16.71: SIM {TimeUS : 52935484, Roll : 0.04, Pitch : -0.04, Yaw : 359.74, Alt : 48.8499984741, Lat : 49.2835703, Lng : -123.1150206, Q1 : 0.999997377396, Q2 : 0.000375482894015, Q3 : -0.000411421031458, Q4 : -0.00222298922017}
2019-04-14 22:22:16.81: SIM {TimeUS : 53035444, Roll : 0.06, Pitch : -0.02, Yaw : 359.74, Alt : 48.9099998474, Lat : 49.2835703, Lng : -123.1150206, Q1 : 0.999997317791, Q2 : 0.000529110897332, Q3 : -0.000229163459153, Q4 : -0.00224493560381}
2019-04-14 22:22:16.91: SIM {TimeUS : 53135404, Roll : 0.06, Pitch : -0.01, Yaw : 359.73, Alt : 48.9599990845, Lat : 49.2835703, Lng : -123.1150207, Q1 : 0.999997198582, Q2 : 0.000606920977589, Q3 : -0.000173311898834, Q4 : -0.00227384804748}
2019-04-14 22:22:17.01: SIM {TimeUS : 53235364, Roll : 0.09, Pitch : -0.05, Yaw : 359.73, Alt : 49.0, Lat : 49.2835703, Lng : -123.1150207, Q1 : 0.999996960163, Q2 : 0.000793698767666, Q3 : -0.000446656049462, Q4 : -0.00230752723292}
2019-04-14 22:22:17.11: SIM {TimeUS : 53335324, Roll : 0.22, Pitch : -0.15, Yaw : 359.73, Alt : 49.0400009155, Lat : 49.2835703, Lng : -123.1150207, Q1 : 0.999994337559, Q2 : 0.00197131349705, Q3 : -0.00139394681901, Q4 : -0.00234359037131}
2019-04-14 22:22:17.21: SIM {TimeUS : 53435284, Roll : 0.57, Pitch : -0.39, Yaw : 359.72, Alt : 49.0699996948, Lat : 49.2835703, Lng : -123.1150207, Q1 : 0.999978542328, Q2 : 0.00502850208431, Q3 : -0.00347050651908, Q4 : -0.00237700180151}
2019-04-14 22:22:17.31: SIM {TimeUS : 53535244, Roll : 1.14, Pitch : -0.79, Yaw : 359.71, Alt : 49.0900001526, Lat : 49.2835703, Lng : -123.1150207, Q1 : 0.999923288822, Q2 : 0.00998902786523, Q3 : -0.00692566391081, Q4 : -0.00239360448904}
2019-04-14 22:22:17.41: SIM {TimeUS : 53635204, Roll : 1.89, Pitch : -1.29, Yaw : 359.7, Alt : 49.1199989319, Lat : 49.2835704, Lng : -123.1150206, Q1 : 0.999795913696, Q2 : 0.016525471583, Q3 : -0.0113744065166, Q4 : -0.00238968478516}
2019-04-14 22:22:17.51: SIM {TimeUS : 53735164, Roll : 2.76, Pitch : -1.86, Yaw : 359.68, Alt : 49.1399993896, Lat : 49.2835704, Lng : -123.1150206, Q1 : 0.999572694302, Q2 : 0.0241030175239, Q3 : -0.0163690987974, Q4 : -0.0023430022411}
2019-04-14 22:22:17.61: SIM {TimeUS : 53835124, Roll : 3.6, Pitch : -2.42, Yaw : 359.66, Alt : 49.1500015259, Lat : 49.2835706, Lng : -123.1150204, Q1 : 0.999277532101, Q2 : 0.0314209498465, Q3 : -0.0212638527155, Q4 : -0.00224130344577}
2019-04-14 22:22:17.71: SIM {TimeUS : 53935084, Roll : 4.29, Pitch : -2.9, Yaw : 359.65, Alt : 49.1699981689, Lat : 49.2835707, Lng : -123.1150202, Q1 : 0.998974740505, Q2 : 0.0373701527715, Q3 : -0.0254684593529, Q4 : -0.00208063400351}
2019-04-14 22:22:17.81: SIM {TimeUS : 54035044, Roll : 4.78, Pitch : -3.27, Yaw : 359.64, Alt : 49.1800003052, Lat : 49.2835708, Lng : -123.11502, Q1 : 0.998721837997, Q2 : 0.0416069850326, Q3 : -0.0286374595016, Q4 : -0.00186716881581}
2019-04-14 22:22:17.91: SIM {TimeUS : 54135004, Roll : 5.11, Pitch : -3.55, Yaw : 359.65, Alt : 49.1899986267, Lat : 49.2835709, Lng : -123.1150197, Q1 : 0.998523414135, Q2 : 0.0445212163031, Q3 : -0.0310853198171, Q4 : -0.00160950666759}
2019-04-14 22:22:18.01: SIM {TimeUS : 54234964, Roll : 5.39, Pitch : -3.78, Yaw : 359.67, Alt : 49.2000007629, Lat : 49.2835712, Lng : -123.1150192, Q1 : 0.998349964619, Q2 : 0.0469096601009, Q3 : -0.0330926030874, Q4 : -0.00131920096464}
2019-04-14 22:22:18.11: SIM {TimeUS : 54334924, Roll : 5.66, Pitch : -3.99, Yaw : 359.68, Alt : 49.2099990845, Lat : 49.2835715, Lng : -123.1150186, Q1 : 0.998172700405, Q2 : 0.049309168011, Q3 : -0.0349116064608, Q4 : -0.00101652450394}
2019-04-14 22:22:18.21: SIM {TimeUS : 54434884, Roll : 5.98, Pitch : -4.2, Yaw : 359.69, Alt : 49.2200012207, Lat : 49.2835718, Lng : -123.115018, Q1 : 0.997967720032, Q2 : 0.0520487800241, Q3 : -0.0367536433041, Q4 : -0.000720109441318}
2019-04-14 22:22:18.31: SIM {TimeUS : 54534844, Roll : 6.3, Pitch : -4.4, Yaw : 359.7, Alt : 49.2299995422, Lat : 49.2835721, Lng : -123.1150172, Q1 : 0.997751057148, Q2 : 0.0548277385533, Q3 : -0.0385564379394, Q4 : -0.000435889611254}
2019-04-14 22:22:18.41: SIM {TimeUS : 54634804, Roll : 6.56, Pitch : -4.58, Yaw : 359.71, Alt : 49.2299995422, Lat : 49.2835725, Lng : -123.1150163, Q1 : 0.997564435005, Q2 : 0.0570972412825, Q3 : -0.0400640852749, Q4 : -0.000180867966264}
2019-04-14 22:22:18.52: SIM {TimeUS : 54735597, Roll : 6.75, Pitch : -4.73, Yaw : 359.72, Alt : 49.2400016785, Lat : 49.2835728, Lng : -123.1150154, Q1 : 0.997416317463, Q2 : 0.0587435364723, Q3 : -0.041352070868, Q4 : 2.10950584005e-05}
2019-04-14 22:22:18.61: SIM {TimeUS : 54835557, Roll : 6.88, Pitch : -4.85, Yaw : 359.72, Alt : 49.2400016785, Lat : 49.2835733, Lng : -123.1150144, Q1 : 0.997303307056, Q2 : 0.0599089711905, Q3 : -0.0423920154572, Q4 : 0.000174935819814}
2019-04-14 22:22:18.71: SIM {TimeUS : 54935517, Roll : 6.99, Pitch : -4.93, Yaw : 359.73, Alt : 49.25, Lat : 49.2835739, Lng : -123.1150132, Q1 : 0.99721455574, Q2 : 0.0608369745314, Q3 : -0.043150447309, Q4 : 0.000288310839096}
2019-04-14 22:22:18.81: SIM {TimeUS : 55035477, Roll : 7.09, Pitch : -5.0, Yaw : 359.73, Alt : 49.25, Lat : 49.2835745, Lng : -123.115012, Q1 : 0.997138738632, Q2 : 0.0616892911494, Q3 : -0.0436873920262, Q4 : 0.000359315221431}
2019-04-14 22:22:18.91: SIM {TimeUS : 55135437, Roll : 7.32, Pitch : -4.98, Yaw : 359.79, Alt : 49.25, Lat : 49.2835751, Lng : -123.1150107, Q1 : 0.997016251087, Q2 : 0.06372384727, Q3 : -0.0435534156859, Q4 : 0.00100597378332}
2019-04-14 22:22:19.01: SIM {TimeUS : 55235397, Roll : 7.77, Pitch : -4.81, Yaw : 0.36, Alt : 49.2599983215, Lat : 49.2835757, Lng : -123.1150093, Q1 : 0.996800541878, Q2 : 0.0679074898362, Q3 : -0.0417300015688, Q4 : 0.00598901230842}
2019-04-14 22:22:19.11: SIM {TimeUS : 55335357, Roll : 8.4, Pitch : -4.65, Yaw : 2.1, Alt : 49.2599983215, Lat : 49.2835764, Lng : -123.1150078, Q1 : 0.996269345284, Q2 : 0.0739268288016, Q3 : -0.039117410779, Q4 : 0.0212615542114}
2019-04-14 22:22:19.21: SIM {TimeUS : 55435317, Roll : 8.9, Pitch : -4.84, Yaw : 5.41, Alt : 49.2599983215, Lat : 49.283577, Lng : -123.1150062, Q1 : 0.994823694229, Q2 : 0.0794884115458, Q3 : -0.0384315289557, Q4 : 0.0503040924668}
2019-04-14 22:22:19.31: SIM {TimeUS : 55535277, Roll : 9.05, Pitch : -5.55, Yaw : 10.24, Alt : 49.2599983215, Lat : 49.2835777, Lng : -123.1150045, Q1 : 0.991386651993, Q2 : 0.0828355923295, Q3 : -0.0411029942334, Q4 : 0.0927433148026}
2019-04-14 22:22:19.41: SIM {TimeUS : 55635237, Roll : 8.67, Pitch : -6.75, Yaw : 16.4, Alt : 49.2599983215, Lat : 49.2835785, Lng : -123.1150027, Q1 : 0.984585642815, Q2 : 0.0831272900105, Q3 : -0.0473683588207, Q4 : 0.146414443851}
2019-04-14 22:22:19.51: SIM {TimeUS : 55735197, Roll : 7.71, Pitch : -8.27, Yaw : 23.62, Alt : 49.2700004578, Lat : 49.2835792, Lng : -123.1150008, Q1 : 0.973069429398, Q2 : 0.0803787484765, Q3 : -0.0567182525992, Q4 : 0.208466231823}
2019-04-14 22:22:19.61: SIM {TimeUS : 55835157, Roll : 6.15, Pitch : -9.87, Yaw : 31.66, Alt : 49.2700004578, Lat : 49.28358, Lng : -123.1149987, Q1 : 0.955858588219, Q2 : 0.074878372252, Q3 : -0.0681279525161, Q4 : 0.275837302208}
2019-04-14 22:22:19.71: SIM {TimeUS : 55935117, Roll : 4.04, Pitch : -11.32, Yaw : 40.25, Alt : 49.2700004578, Lat : 49.2835807, Lng : -123.1149965, Q1 : 0.932573497295, Q2 : 0.0669277310371, Q3 : -0.0805030539632, Q4 : 0.345465779305}
2019-04-14 22:22:19.81: SIM {TimeUS : 56035077, Roll : 1.3, Pitch : -12.41, Yaw : 48.98, Alt : 49.2700004578, Lat : 49.2835816, Lng : -123.1149942, Q1 : 0.904127418995, Q2 : 0.0551070198417, Q3 : -0.093688338995, Q4 : 0.413206219673}
2019-04-14 22:22:19.91: SIM {TimeUS : 56135037, Roll : -1.87, Pitch : -12.97, Yaw : 57.03, Alt : 49.2700004578, Lat : 49.2835824, Lng : -123.1149919, Q1 : 0.873824596405, Q2 : 0.0396582707763, Q3 : -0.107043027878, Q4 : 0.472651600838}
2019-04-14 22:22:20.01: SIM {TimeUS : 56234997, Roll : -4.85, Pitch : -13.04, Yaw : 63.55, Alt : 49.2700004578, Lat : 49.2835834, Lng : -123.1149894, Q1 : 0.846398353577, Q2 : 0.0239423643798, Q3 : -0.118636481464, Q4 : 0.518615484238}
2019-04-14 22:22:20.11: SIM {TimeUS : 56334957, Roll : -7.07, Pitch : -12.82, Yaw : 68.03, Alt : 49.2700004578, Lat : 49.2835844, Lng : -123.1149869, Q1 : 0.825953304768, Q2 : 0.0115424450487, Q3 : -0.126736566424, Q4 : 0.549186468124}
2019-04-14 22:22:20.21: SIM {TimeUS : 56434917, Roll : -8.23, Pitch : -12.59, Yaw : 70.45, Alt : 49.2700004578, Lat : 49.2835855, Lng : -123.1149843, Q1 : 0.814400911331, Q2 : 0.00479964492843, Q3 : -0.130575045943, Q4 : 0.565401017666}
2019-04-14 22:22:20.31: SIM {TimeUS : 56534877, Roll : -8.34, Pitch : -12.55, Yaw : 71.05, Alt : 49.2700004578, Lat : 49.2835868, Lng : -123.1149817, Q1 : 0.81145709753, Q2 : 0.0045565715991, Q3 : -0.130795732141, Q4 : 0.569569289684}
2019-04-14 22:22:20.41: SIM {TimeUS : 56634837, Roll : -7.57, Pitch : -12.79, Yaw : 70.19, Alt : 49.2700004578, Lat : 49.2835883, Lng : -123.1149791, Q1 : 0.815558254719, Q2 : 0.0101632364094, Q3 : -0.128705114126, Q4 : 0.56408905983}
2019-04-14 22:22:20.51: SIM {TimeUS : 56734797, Roll : -6.18, Pitch : -13.28, Yaw : 68.23, Alt : 49.2700004578, Lat : 49.2835897, Lng : -123.1149764, Q1 : 0.824621260166, Q2 : 0.0204027891159, Q3 : -0.12572337687, Q4 : 0.551159799099}
2019-04-14 22:22:20.62: SIM {TimeUS : 56835590, Roll : -4.4, Pitch : -13.97, Yaw : 65.5, Alt : 49.2799987793, Lat : 49.2835913, Lng : -123.1149736, Q1 : 0.836689054966, Q2 : 0.0337094888091, Q3 : -0.122866071761, Q4 : 0.532652854919}
2019-04-14 22:22:20.71: SIM {TimeUS : 56935550, Roll : -2.47, Pitch : -14.68, Yaw : 62.34, Alt : 49.2799987793, Lat : 49.2835928, Lng : -123.1149707, Q1 : 0.849823176861, Q2 : 0.0477642863989, Q3 : -0.120401263237, Q4 : 0.510903775692}
2019-04-14 22:22:20.81: SIM {TimeUS : 57035510, Roll : -0.58, Pitch : -15.27, Yaw : 59.06, Alt : 49.2799987793, Lat : 49.2835945, Lng : -123.1149677, Q1 : 0.862672805786, Q2 : 0.0610871128738, Q3 : -0.11815841496, Q4 : 0.487957566977}
2019-04-14 22:22:20.91: SIM {TimeUS : 57135470, Roll : 1.09, Pitch : -15.67, Yaw : 55.99, Alt : 49.2799987793, Lat : 49.283596, Lng : -123.1149646, Q1 : 0.874060809612, Q2 : 0.0723412483931, Q3 : -0.115957796574, Q4 : 0.466195493937}
2019-04-14 22:22:21.01: SIM {TimeUS : 57235430, Roll : 2.4, Pitch : -15.85, Yaw : 53.44, Alt : 49.2799987793, Lat : 49.2835977, Lng : -123.1149615, Q1 : 0.883174479008, Q2 : 0.0805843248963, Q3 : -0.113760665059, Q4 : 0.447847723961}
2019-04-14 22:22:21.11: SIM {TimeUS : 57335390, Roll : 3.27, Pitch : -15.85, Yaw : 51.6, Alt : 49.2799987793, Lat : 49.2835994, Lng : -123.1149582, Q1 : 0.889605104923, Q2 : 0.0855315178633, Q3 : -0.111791364849, Q4 : 0.434499531984}
2019-04-14 22:22:21.21: SIM {TimeUS : 57435350, Roll : 3.66, Pitch : -15.79, Yaw : 50.57, Alt : 49.2799987793, Lat : 49.2836011, Lng : -123.1149547, Q1 : 0.893282771111, Q2 : 0.0872737839818, Q3 : -0.110669486225, Q4 : 0.426827192307}
2019-04-14 22:22:21.31: SIM {TimeUS : 57535310, Roll : 3.59, Pitch : -15.75, Yaw : 50.3, Alt : 49.2799987793, Lat : 49.2836028, Lng : -123.1149511, Q1 : 0.894361317158, Q2 : 0.0863133966923, Q3 : -0.11077593267, Q4 : 0.424731194973}
2019-04-14 22:22:21.41: SIM {TimeUS : 57635270, Roll : 3.14, Pitch : -15.76, Yaw : 50.71, Alt : 49.2799987793, Lat : 49.2836044, Lng : -123.1149474, Q1 : 0.893169164658, Q2 : 0.0832441747189, Q3 : -0.112247303128, Q4 : 0.427457332611}
2019-04-14 22:22:21.51: SIM {TimeUS : 57735230, Roll : 2.42, Pitch : -15.84, Yaw : 51.62, Alt : 49.2900009155, Lat : 49.2836062, Lng : -123.1149437, Q1 : 0.890152394772, Q2 : 0.0788354277611, Q3 : -0.114903256297, Q4 : 0.433832854033}
2019-04-14 22:22:21.61: SIM {TimeUS : 57835190, Roll : 1.56, Pitch : -15.96, Yaw : 52.86, Alt : 49.2900009155, Lat : 49.2836079, Lng : -123.1149397, Q1 : 0.885846853256, Q2 : 0.073966704309, Q3 : -0.118321746588, Q4 : 0.442497760057}
2019-04-14 22:22:21.71: SIM {TimeUS : 57935150, Roll : 0.7, Pitch : -16.12, Yaw : 54.23, Alt : 49.2900009155, Lat : 49.2836096, Lng : -123.1149358, Q1 : 0.880863964558, Q2 : 0.0693275332451, Q3 : -0.122104994953, Q4 : 0.4520650208}
2019-04-14 22:22:21.81: SIM {TimeUS : 58035110, Roll : -0.09, Pitch : -16.28, Yaw : 55.56, Alt : 49.2900009155, Lat : 49.2836112, Lng : -123.1149318, Q1 : 0.875858485699, Q2 : 0.0652704611421, Q3 : -0.125712096691, Q4 : 0.46131131053}
2019-04-14 22:22:21.91: SIM {TimeUS : 58135070, Roll : -0.76, Pitch : -16.41, Yaw : 56.71, Alt : 49.2900009155, Lat : 49.283613, Lng : -123.1149277, Q1 : 0.871414899826, Q2 : 0.0619844943285, Q3 : -0.128759562969, Q4 : 0.469270706177}
2019-04-14 22:22:22.01: SIM {TimeUS : 58235030, Roll : -1.24, Pitch : -16.47, Yaw : 57.59, Alt : 49.2900009155, Lat : 49.2836148, Lng : -123.1149236, Q1 : 0.86799120903, Q2 : 0.0596234165132, Q3 : -0.130723997951, Q4 : 0.475339412689}
2019-04-14 22:22:22.11: SIM {TimeUS : 58334990, Roll : -1.48, Pitch : -16.48, Yaw : 58.14, Alt : 49.2900009155, Lat : 49.2836168, Lng : -123.1149194, Q1 : 0.865809261799, Q2 : 0.0584451444447, Q3 : -0.131549015641, Q4 : 0.479221642017}
2019-04-14 22:22:22.21: SIM {TimeUS : 58434950, Roll : -1.53, Pitch : -16.47, Yaw : 58.36, Alt : 49.2900009155, Lat : 49.2836187, Lng : -123.1149152, Q1 : 0.864914476871, Q2 : 0.0582822822034, Q3 : -0.131581902504, Q4 : 0.480845451355}
2019-04-14 22:22:22.31: SIM {TimeUS : 58534910, Roll : -1.39, Pitch : -16.48, Yaw : 58.29, Alt : 49.2900009155, Lat : 49.2836206, Lng : -123.1149109, Q1 : 0.865148544312, Q2 : 0.0592679232359, Q3 : -0.131109550595, Q4 : 0.480432748795}
2019-04-14 22:22:22.41: SIM {TimeUS : 58634870, Roll : -1.11, Pitch : -16.49, Yaw : 57.97, Alt : 49.2900009155, Lat : 49.2836225, Lng : -123.1149066, Q1 : 0.866297066212, Q2 : 0.0611433126032, Q3 : -0.130145281553, Q4 : 0.478385895491}
2019-04-14 22:22:22.51: SIM {TimeUS : 58734830, Roll : -0.75, Pitch : -16.51, Yaw : 57.5, Alt : 49.2900009155, Lat : 49.2836244, Lng : -123.1149023, Q1 : 0.868065297604, Q2 : 0.0634155571461, Q3 : -0.129064679146, Q4 : 0.475166708231}
2019-04-14 22:22:22.61: SIM {TimeUS : 58834790, Roll : -0.38, Pitch : -16.56, Yaw : 56.93, Alt : 49.2900009155, Lat : 49.2836264, Lng : -123.1148979, Q1 : 0.870123267174, Q2 : 0.0657788068056, Q3 : -0.128237307072, Q4 : 0.4712895751}
2019-04-14 22:22:22.72: SIM {TimeUS : 58935583, Roll : -0.04, Pitch : -16.63, Yaw : 56.36, Alt : 49.2900009155, Lat : 49.2836285, Lng : -123.1148934, Q1 : 0.872208535671, Q2 : 0.0680117756128, Q3 : -0.12771192193, Q4 : 0.467243403196}
2019-04-14 22:22:22.81: SIM {TimeUS : 59035543, Roll : 0.24, Pitch : -16.71, Yaw : 55.84, Alt : 49.2900009155, Lat : 49.2836305, Lng : -123.1148889, Q1 : 0.874063491821, Q2 : 0.0699046626687, Q3 : -0.127421692014, Q4 : 0.463562458754}
2019-04-14 22:22:22.91: SIM {TimeUS : 59135503, Roll : 0.45, Pitch : -16.76, Yaw : 55.42, Alt : 49.2900009155, Lat : 49.2836326, Lng : -123.1148844, Q1 : 0.875562906265, Q2 : 0.0712695643306, Q3 : -0.127274394035, Q4 : 0.460555642843}
2019-04-14 22:22:23.01: SIM {TimeUS : 59235463, Roll : 0.57, Pitch : -16.81, Yaw : 55.13, Alt : 49.2900009155, Lat : 49.2836347, Lng : -123.1148798, Q1 : 0.876606404781, Q2 : 0.0720914751291, Q3 : -0.127296507359, Q4 : 0.458431720734}
2019-04-14 22:22:23.11: SIM {TimeUS : 59335423, Roll : 0.62, Pitch : -16.84, Yaw : 54.97, Alt : 49.2900009155, Lat : 49.2836366, Lng : -123.1148752, Q1 : 0.877180635929, Q2 : 0.072371520102, Q3 : -0.127480044961, Q4 : 0.457236617804}
2019-04-14 22:22:23.21: SIM {TimeUS : 59435383, Roll : 0.6, Pitch : -16.87, Yaw : 54.93, Alt : 49.2900009155, Lat : 49.2836388, Lng : -123.1148705, Q1 : 0.877298951149, Q2 : 0.0722717940807, Q3 : -0.12776748836, Q4 : 0.456945121288}
2019-04-14 22:22:23.31: SIM {TimeUS : 59535343, Roll : 0.53, Pitch : -16.89, Yaw : 55.0, Alt : 49.2900009155, Lat : 49.2836408, Lng : -123.1148658, Q1 : 0.877026081085, Q2 : 0.071924187243, Q3 : -0.128136560321, Q4 : 0.457420170307}
2019-04-14 22:22:23.41: SIM {TimeUS : 59635303, Roll : 0.43, Pitch : -16.91, Yaw : 55.16, Alt : 49.2900009155, Lat : 49.283643, Lng : -123.1148611, Q1 : 0.8764564991, Q2 : 0.0714292377234, Q3 : -0.128661766648, Q4 : 0.458440959454}
2019-04-14 22:22:23.51: SIM {TimeUS : 59735263, Roll : 0.3, Pitch : -16.94, Yaw : 55.35, Alt : 49.2900009155, Lat : 49.2836451, Lng : -123.1148563, Q1 : 0.875718772411, Q2 : 0.0707760602236, Q3 : -0.129279106855, Q4 : 0.459776371717}
2019-04-14 22:22:23.61: SIM {TimeUS : 59835223, Roll : 0.16, Pitch : -16.98, Yaw : 55.56, Alt : 49.2999992371, Lat : 49.2836472, Lng : -123.1148515, Q1 : 0.874919652939, Q2 : 0.0700593665242, Q3 : -0.129984796047, Q4 : 0.461206316948}
2019-04-14 22:22:23.71: SIM {TimeUS : 59935183, Roll : 0.02, Pitch : -17.01, Yaw : 55.76, Alt : 49.2999992371, Lat : 49.2836493, Lng : -123.1148467, Q1 : 0.87416446209, Q2 : 0.0693798586726, Q3 : -0.130692213774, Q4 : 0.462539225817}
2019-04-14 22:22:23.81: SIM {TimeUS : 60035143, Roll : -0.09, Pitch : -17.05, Yaw : 55.92, Alt : 49.2999992371, Lat : 49.2836513, Lng : -123.1148418, Q1 : 0.873528122902, Q2 : 0.0687947422266, Q3 : -0.131395876408, Q4 : 0.463628143072}
2019-04-14 22:22:23.91: SIM {TimeUS : 60135103, Roll : -0.19, Pitch : -17.09, Yaw : 56.04, Alt : 49.2999992371, Lat : 49.2836536, Lng : -123.114837, Q1 : 0.873075306416, Q2 : 0.0683167278767, Q3 : -0.131997972727, Q4 : 0.464380085468}
2019-04-14 22:22:24.01: SIM {TimeUS : 60235063, Roll : -0.26, Pitch : -17.11, Yaw : 56.1, Alt : 49.2999992371, Lat : 49.2836558, Lng : -123.1148321, Q1 : 0.87283718586, Q2 : 0.067953184247, Q3 : -0.132446035743, Q4 : 0.464753359556}
2019-04-14 22:22:24.11: SIM {TimeUS : 60335023, Roll : -0.3, Pitch : -17.14, Yaw : 56.11, Alt : 49.2999992371, Lat : 49.2836578, Lng : -123.1148271, Q1 : 0.872801661491, Q2 : 0.0677744373679, Q3 : -0.132835373282, Q4 : 0.46473506093}
2019-04-14 22:22:24.21: SIM {TimeUS : 60434983, Roll : -0.29, Pitch : -17.18, Yaw : 56.07, Alt : 49.2999992371, Lat : 49.2836601, Lng : -123.1148222, Q1 : 0.872919499874, Q2 : 0.0679971799254, Q3 : -0.133048504591, Q4 : 0.46442013979}
2019-04-14 22:22:24.31: SIM {TimeUS : 60534943, Roll : -0.23, Pitch : -17.21, Yaw : 55.99, Alt : 49.2999992371, Lat : 49.2836622, Lng : -123.1148172, Q1 : 0.873162448406, Q2 : 0.0684978365898, Q3 : -0.133122161031, Q4 : 0.463868379593}
2019-04-14 22:22:24.41: SIM {TimeUS : 60634903, Roll : -0.14, Pitch : -17.25, Yaw : 55.88, Alt : 49.2999992371, Lat : 49.2836645, Lng : -123.1148123, Q1 : 0.873487174511, Q2 : 0.0692329257727, Q3 : -0.133095771074, Q4 : 0.463154882193}
2019-04-14 22:22:24.51: SIM {TimeUS : 60734863, Roll : -0.02, Pitch : -17.3, Yaw : 55.77, Alt : 49.3100013733, Lat : 49.2836667, Lng : -123.1148073, Q1 : 0.873836636543, Q2 : 0.0701259747148, Q3 : -0.133061856031, Q4 : 0.462370455265}
2019-04-14 22:22:24.61: SIM {TimeUS : 60834823, Roll : 0.06, Pitch : -17.33, Yaw : 55.65, Alt : 49.3100013733, Lat : 49.2836689, Lng : -123.1148022, Q1 : 0.874207377434, Q2 : 0.0708509460092, Q3 : -0.133003786206, Q4 : 0.461575120687}
2019-04-14 22:22:24.71: SIM {TimeUS : 60934783, Roll : 0.13, Pitch : -17.34, Yaw : 55.55, Alt : 49.3100013733, Lat : 49.2836712, Lng : -123.1147972, Q1 : 0.87457960844, Q2 : 0.0712690278888, Q3 : -0.132880911231, Q4 : 0.460840374231}
2019-04-14 22:22:24.82: SIM {TimeUS : 61035576, Roll : 0.16, Pitch : -17.34, Yaw : 55.46, Alt : 49.3100013733, Lat : 49.2836735, Lng : -123.1147921, Q1 : 0.874906241894, Q2 : 0.0714383721352, Q3 : -0.132830619812, Q4 : 0.46020835638}
2019-04-14 22:22:24.91: SIM {TimeUS : 61135536, Roll : 0.18, Pitch : -17.34, Yaw : 55.4, Alt : 49.3100013733, Lat : 49.2836756, Lng : -123.114787, Q1 : 0.875147283077, Q2 : 0.0715481117368, Q3 : -0.132781088352, Q4 : 0.459746956825}
2019-04-14 22:22:25.01: SIM {TimeUS : 61235496, Roll : 0.19, Pitch : -17.35, Yaw : 55.36, Alt : 49.3100013733, Lat : 49.2836779, Lng : -123.1147819, Q1 : 0.875288307667, Q2 : 0.0715713724494, Q3 : -0.132848054171, Q4 : 0.45945546031}
2019-04-14 22:22:25.11: SIM {TimeUS : 61335456, Roll : 0.2, Pitch : -17.39, Yaw : 55.34, Alt : 49.3100013733, Lat : 49.2836802, Lng : -123.1147768, Q1 : 0.875295817852, Q2 : 0.071764536202, Q3 : -0.133127465844, Q4 : 0.459330171347}
2019-04-14 22:22:25.21: SIM {TimeUS : 61435416, Roll : 0.2, Pitch : -17.45, Yaw : 55.35, Alt : 49.3100013733, Lat : 49.2836825, Lng : -123.1147717, Q1 : 0.87520802021, Q2 : 0.0720248222351, Q3 : -0.133596405387, Q4 : 0.459320545197}
2019-04-14 22:22:25.31: SIM {TimeUS : 61535376, Roll : 0.18, Pitch : -17.49, Yaw : 55.36, Alt : 49.3100013733, Lat : 49.2836847, Lng : -123.1147666, Q1 : 0.875118434429, Q2 : 0.0720451399684, Q3 : -0.133908852935, Q4 : 0.459397017956}
2019-04-14 22:22:25.41: SIM {TimeUS : 61635336, Roll : 0.16, Pitch : -17.48, Yaw : 55.38, Alt : 49.3100013733, Lat : 49.283687, Lng : -123.1147614, Q1 : 0.875050425529, Q2 : 0.0718819350004, Q3 : -0.13396936655, Q4 : 0.459534525871}
2019-04-14 22:22:25.51: SIM {TimeUS : 61735296, Roll : 0.12, Pitch : -17.49, Yaw : 55.41, Alt : 49.3100013733, Lat : 49.2836894, Lng : -123.1147561, Q1 : 0.874964296818, Q2 : 0.0716942995787, Q3 : -0.134113758802, Q4 : 0.459685713053}
2019-04-14 22:22:25.61: SIM {TimeUS : 61835256, Roll : 0.09, Pitch : -17.51, Yaw : 55.43, Alt : 49.3199996948, Lat : 49.2836917, Lng : -123.114751, Q1 : 0.87486666441, Q2 : 0.0715632662177, Q3 : -0.134411498904, Q4 : 0.459804922342}
2019-04-14 22:22:25.71: SIM {TimeUS : 61935216, Roll : 0.07, Pitch : -17.54, Yaw : 55.45, Alt : 49.3199996948, Lat : 49.2836939, Lng : -123.1147458, Q1 : 0.874770760536, Q2 : 0.0715699568391, Q3 : -0.134684950113, Q4 : 0.459906369448}
2019-04-14 22:22:25.81: SIM {TimeUS : 62035176, Roll : 0.06, Pitch : -17.57, Yaw : 55.46, Alt : 49.3199996948, Lat : 49.2836962, Lng : -123.1147406, Q1 : 0.874717652798, Q2 : 0.0715528205037, Q3 : -0.134946197271, Q4 : 0.459933400154}
2019-04-14 22:22:25.91: SIM {TimeUS : 62135136, Roll : 0.05, Pitch : -17.58, Yaw : 55.45, Alt : 49.3199996948, Lat : 49.2836986, Lng : -123.1147354, Q1 : 0.874717831612, Q2 : 0.0715506002307, Q3 : -0.135103344917, Q4 : 0.459887266159}
2019-04-14 22:22:26.01: SIM {TimeUS : 62235096, Roll : 0.05, Pitch : -17.6, Yaw : 55.44, Alt : 49.3199996948, Lat : 49.2837009, Lng : -123.1147302, Q1 : 0.874749779701, Q2 : 0.0716133564711, Q3 : -0.135232672095, Q4 : 0.459778785706}
2019-04-14 22:22:26.11: SIM {TimeUS : 62335056, Roll : 0.07, Pitch : -17.61, Yaw : 55.42, Alt : 49.3199996948, Lat : 49.2837032, Lng : -123.1147249, Q1 : 0.874812304974, Q2 : 0.0717565342784, Q3 : -0.135272860527, Q4 : 0.459625691175}
2019-04-14 22:22:26.21: SIM {TimeUS : 62435016, Roll : 0.1, Pitch : -17.63, Yaw : 55.39, Alt : 49.3199996948, Lat : 49.2837056, Lng : -123.1147197, Q1 : 0.874879956245, Q2 : 0.0720476508141, Q3 : -0.135276243091, Q4 : 0.459450304508}
2019-04-14 22:22:26.31: SIM {TimeUS : 62534976, Roll : 0.13, Pitch : -17.65, Yaw : 55.36, Alt : 49.3199996948, Lat : 49.2837078, Lng : -123.1147144, Q1 : 0.874948501587, Q2 : 0.0723793879151, Q3 : -0.135362967849, Q4 : 0.459241986275}
2019-04-14 22:22:26.41: SIM {TimeUS : 62634936, Roll : 0.15, Pitch : -17.69, Yaw : 55.33, Alt : 49.3199996948, Lat : 49.2837102, Lng : -123.1147091, Q1 : 0.875018775463, Q2 : 0.072631046176, Q3 : -0.13562643528, Q4 : 0.458990573883}
2019-04-14 22:22:26.51: SIM {TimeUS : 62734896, Roll : 0.15, Pitch : -17.74, Yaw : 55.3, Alt : 49.3199996948, Lat : 49.2837126, Lng : -123.1147039, Q1 : 0.87509304285, Q2 : 0.0727475136518, Q3 : -0.135977610946, Q4 : 0.458726614714}
2019-04-14 22:22:26.61: SIM {TimeUS : 62834856, Roll : 0.14, Pitch : -17.78, Yaw : 55.27, Alt : 49.3199996948, Lat : 49.283715, Lng : -123.1146986, Q1 : 0.875164091587, Q2 : 0.072803452611, Q3 : -0.136331990361, Q4 : 0.458476871252}
2019-04-14 22:22:26.71: SIM {TimeUS : 62934816, Roll : 0.15, Pitch : -17.8, Yaw : 55.24, Alt : 49.3199996948, Lat : 49.2837173, Lng : -123.1146932, Q1 : 0.875228047371, Q2 : 0.0729322209954, Q3 : -0.136528462172, Q4 : 0.458275824785}
2019-04-14 22:22:26.81: SIM {TimeUS : 63034776, Roll : 0.17, Pitch : -17.8, Yaw : 55.22, Alt : 49.3199996948, Lat : 49.2837197, Lng : -123.1146879, Q1 : 0.875305175781, Q2 : 0.0730509385467, Q3 : -0.136464521289, Q4 : 0.45812869072}
2019-04-14 22:22:26.91: SIM {TimeUS : 63135569, Roll : 0.18, Pitch : -17.77, Yaw : 55.2, Alt : 49.3199996948, Lat : 49.2837221, Lng : -123.1146825, Q1 : 0.875404953957, Q2 : 0.0730234980583, Q3 : -0.136195614934, Q4 : 0.45802244544}
2019-04-14 22:22:27.01: SIM {TimeUS : 63235529, Roll : 0.18, Pitch : -17.74, Yaw : 55.19, Alt : 49.3199996948, Lat : 49.2837243, Lng : -123.1146772, Q1 : 0.875492453575, Q2 : 0.0728653296828, Q3 : -0.135992825031, Q4 : 0.457940578461}
2019-04-14 22:22:27.11: SIM {TimeUS : 63335489, Roll : 0.17, Pitch : -17.72, Yaw : 55.18, Alt : 49.3199996948, Lat : 49.2837267, Lng : -123.1146718, Q1 : 0.875566482544, Q2 : 0.0726725012064, Q3 : -0.135859429836, Q4 : 0.457869291306}
2019-04-14 22:22:27.21: SIM {TimeUS : 63435449, Roll : 0.16, Pitch : -17.71, Yaw : 55.18, Alt : 49.3300018311, Lat : 49.2837291, Lng : -123.1146665, Q1 : 0.8756057024, Q2 : 0.0725573450327, Q3 : -0.135849311948, Q4 : 0.457815498114}
2019-04-14 22:22:27.31: SIM {TimeUS : 63535409, Roll : 0.14, Pitch : -17.73, Yaw : 55.17, Alt : 49.3300018311, Lat : 49.2837315, Lng : -123.1146611, Q1 : 0.875608444214, Q2 : 0.0725402534008, Q3 : -0.136044368148, Q4 : 0.457755148411}
2019-04-14 22:22:27.41: SIM {TimeUS : 63635369, Roll : 0.14, Pitch : -17.76, Yaw : 55.17, Alt : 49.3300018311, Lat : 49.2837339, Lng : -123.1146557, Q1 : 0.875592529774, Q2 : 0.0726275518537, Q3 : -0.136293530464, Q4 : 0.457697600126}
2019-04-14 22:22:27.51: SIM {TimeUS : 63735329, Roll : 0.13, Pitch : -17.81, Yaw : 55.16, Alt : 49.3300018311, Lat : 49.2837363, Lng : -123.1146503, Q1 : 0.875565171242, Q2 : 0.0727113187313, Q3 : -0.136715590954, Q4 : 0.457610666752}
2019-04-14 22:22:27.61: SIM {TimeUS : 63835289, Roll : 0.12, Pitch : -17.86, Yaw : 55.15, Alt : 49.3300018311, Lat : 49.2837387, Lng : -123.114645, Q1 : 0.875531733036, Q2 : 0.0728634595871, Q3 : -0.137162029743, Q4 : 0.457516908646}
2019-04-14 22:22:27.71: SIM {TimeUS : 63935249, Roll : 0.13, Pitch : -17.9, Yaw : 55.15, Alt : 49.3300018311, Lat : 49.2837411, Lng : -123.1146396, Q1 : 0.875516057014, Q2 : 0.0730730369687, Q3 : -0.137432664633, Q4 : 0.457432240248}
2019-04-14 22:22:27.81: SIM {TimeUS : 64035209, Roll : 0.13, Pitch : -17.93, Yaw : 55.13, Alt : 49.3300018311, Lat : 49.2837436, Lng : -123.1146342, Q1 : 0.875525951385, Q2 : 0.0731800794601, Q3 : -0.137670531869, Q4 : 0.457324683666}
2019-04-14 22:22:27.91: SIM {TimeUS : 64135169, Roll : 0.13, Pitch : -17.95, Yaw : 55.12, Alt : 49.3300018311, Lat : 49.283746, Lng : -123.1146287, Q1 : 0.875555038452, Q2 : 0.0732310190797, Q3 : -0.137826517224, Q4 : 0.457213848829}
2019-04-14 22:22:28.01: SIM {TimeUS : 64235129, Roll : 0.15, Pitch : -17.95, Yaw : 55.11, Alt : 49.3300018311, Lat : 49.2837484, Lng : -123.1146233, Q1 : 0.875607013702, Q2 : 0.0733337029815, Q3 : -0.137701168656, Q4 : 0.457135498524}
2019-04-14 22:22:28.11: SIM {TimeUS : 64335089, Roll : 0.17, Pitch : -17.95, Yaw : 55.09, Alt : 49.3300018311, Lat : 49.2837508, Lng : -123.1146179, Q1 : 0.875653147697, Q2 : 0.0735066309571, Q3 : -0.137618780136, Q4 : 0.457044243813}
2019-04-14 22:22:28.21: SIM {TimeUS : 64435049, Roll : 0.18, Pitch : -17.96, Yaw : 55.08, Alt : 49.3300018311, Lat : 49.2837532, Lng : -123.1146125, Q1 : 0.875696599483, Q2 : 0.0735940262675, Q3 : -0.137706831098, Q4 : 0.456920355558}
2019-04-14 22:22:28.31: SIM {TimeUS : 64535009, Roll : 0.18, Pitch : -17.97, Yaw : 55.06, Alt : 49.3300018311, Lat : 49.2837556, Lng : -123.114607, Q1 : 0.87575006485, Q2 : 0.073647223413, Q3 : -0.137747198343, Q4 : 0.45679718256}
2019-04-14 22:22:28.41: SIM {TimeUS : 64634969, Roll : 0.19, Pitch : -17.96, Yaw : 55.04, Alt : 49.3300018311, Lat : 49.2837581, Lng : -123.1146016, Q1 : 0.875815153122, Q2 : 0.0736454948783, Q3 : -0.137699306011, Q4 : 0.456687092781}
2019-04-14 22:22:28.51: SIM {TimeUS : 64734929, Roll : 0.19, Pitch : -17.96, Yaw : 55.03, Alt : 49.3300018311, Lat : 49.2837605, Lng : -123.1145962, Q1 : 0.875871956348, Q2 : 0.07363576442, Q3 : -0.13770377636, Q4 : 0.4565782547}
2019-04-14 22:22:28.61: SIM {TimeUS : 64834889, Roll : 0.17, Pitch : -17.98, Yaw : 55.02, Alt : 49.3300018311, Lat : 49.2837629, Lng : -123.1145907, Q1 : 0.87591034174, Q2 : 0.0735667347908, Q3 : -0.137927800417, Q4 : 0.456448167562}
2019-04-14 22:22:28.71: SIM {TimeUS : 64934849, Roll : 0.15, Pitch : -18.02, Yaw : 55.01, Alt : 49.3400001526, Lat : 49.2837653, Lng : -123.1145852, Q1 : 0.875923454762, Q2 : 0.0735132619739, Q3 : -0.138317480683, Q4 : 0.456313699484}
2019-04-14 22:22:28.81: SIM {TimeUS : 65034809, Roll : 0.13, Pitch : -18.03, Yaw : 55.0, Alt : 49.3400001526, Lat : 49.2837678, Lng : -123.1145798, Q1 : 0.875957787037, Q2 : 0.0734094977379, Q3 : -0.138438627124, Q4 : 0.456227689981}
2019-04-14 22:22:28.92: SIM {TimeUS : 65135602, Roll : 0.14, Pitch : -18.01, Yaw : 54.99, Alt : 49.3400001526, Lat : 49.2837702, Lng : -123.1145742, Q1 : 0.876004993916, Q2 : 0.0733989030123, Q3 : -0.138274133205, Q4 : 0.456188678741}
2019-04-14 22:22:29.01: SIM {TimeUS : 65235562, Roll : 0.16, Pitch : -17.99, Yaw : 54.98, Alt : 49.3400001526, Lat : 49.2837727, Lng : -123.1145688, Q1 : 0.876043558121, Q2 : 0.0734590142965, Q3 : -0.138089448214, Q4 : 0.456160932779}
2019-04-14 22:22:29.11: SIM {TimeUS : 65335522, Roll : 0.17, Pitch : -17.99, Yaw : 54.97, Alt : 49.3400001526, Lat : 49.2837751, Lng : -123.1145633, Q1 : 0.876064419746, Q2 : 0.0735554695129, Q3 : -0.138064309955, Q4 : 0.45611295104}
2019-04-14 22:22:29.21: SIM {TimeUS : 65435482, Roll : 0.16, Pitch : -18.01, Yaw : 54.97, Alt : 49.3400001526, Lat : 49.2837776, Lng : -123.1145578, Q1 : 0.876079976559, Q2 : 0.0735300630331, Q3 : -0.13826790452, Q4 : 0.456025540829}
2019-04-14 22:22:29.31: SIM {TimeUS : 65535442, Roll : 0.13, Pitch : -18.04, Yaw : 54.96, Alt : 49.3400001526, Lat : 49.28378, Lng : -123.1145523, Q1 : 0.87609577179, Q2 : 0.0734032914042, Q3 : -0.138624072075, Q4 : 0.45590737462}
2019-04-14 22:22:29.41: SIM {TimeUS : 65635402, Roll : 0.11, Pitch : -18.07, Yaw : 54.95, Alt : 49.3400001526, Lat : 49.2837825, Lng : -123.1145468, Q1 : 0.876119494438, Q2 : 0.073340177536, Q3 : -0.138907074928, Q4 : 0.45578584075}
2019-04-14 22:22:29.51: SIM {TimeUS : 65735362, Roll : 0.11, Pitch : -18.09, Yaw : 54.93, Alt : 49.3400001526, Lat : 49.2837849, Lng : -123.1145413, Q1 : 0.876136779785, Q2 : 0.0734294503927, Q3 : -0.13910138607, Q4 : 0.455678880215}
2019-04-14 22:22:29.61: SIM {TimeUS : 65835322, Roll : 0.12, Pitch : -18.11, Yaw : 54.92, Alt : 49.3400001526, Lat : 49.2837873, Lng : -123.1145358, Q1 : 0.876156568527, Q2 : 0.0735641345382, Q3 : -0.139200925827, Q4 : 0.455588757992}
2019-04-14 22:22:29.71: SIM {TimeUS : 65935282, Roll : 0.15, Pitch : -18.12, Yaw : 54.91, Alt : 49.3400001526, Lat : 49.2837898, Lng : -123.1145303, Q1 : 0.876181542873, Q2 : 0.0738021805882, Q3 : -0.139142200351, Q4 : 0.455520093441}
2019-04-14 22:22:29.81: SIM {TimeUS : 66035242, Roll : 0.17, Pitch : -18.13, Yaw : 54.9, Alt : 49.3400001526, Lat : 49.2837922, Lng : -123.1145248, Q1 : 0.876201570034, Q2 : 0.0740263909101, Q3 : -0.139145284891, Q4 : 0.455444306135}
