2019-04-14 22:48:56.90: SIM {TimeUS : 40316367, Roll : 0.0, Pitch : 0.0, Yaw : 0.0, Alt : 30.1000003815, Lat : 49.28357, Lng : -123.11502, Q1 : 1.0, Q2 : 0.0, Q3 : 0.0, Q4 : 0.0}
2019-04-14 22:48:57.01: SIM {TimeUS : 40435486, Roll : 0.0, Pitch : 0.0, Yaw : 0.0, Alt : 30.1000003815, Lat : 49.28357, Lng : -123.11502, Q1 : 1.0, Q2 : 0.0, Q3 : 0.0, Q4 : 0.0}
2019-04-14 22:48:57.11: SIM {TimeUS : 40535446, Roll : 0.0, Pitch : 0.0, Yaw : 0.0, Alt : 30.1000003815, Lat : 49.28357, Lng : -123.11502, Q1 : 1.0, Q2 : 0.0, Q3 : 0.0, Q4 : 0.0}
2019-04-14 22:48:57.21: SIM {TimeUS : 40635406, Roll : 0.0, Pitch : 0.0, Yaw : 0.0, Alt : 30.1000003815, Lat : 49.28357, Lng : -123.11502, Q1 : 1.0, Q2 : 0.0, Q3 : 0.0, Q4 : 0.0}
2019-04-14 22:48:57.31: SIM {TimeUS : 40735366, Roll : 0.0, Pitch : 0.0, Yaw : 0.0, Alt : 30.1000003815, Lat : 49.28357, Lng : -123.11502, Q1 : 1.0, Q2 : 0.0, Q3 : 0.0, Q4 : 0.0}
2019-04-14 22:48:57.41: SIM {TimeUS : 40835326, Roll : 0.0, Pitch : 0.0, Yaw : 0.0, Alt : 30.1000003815, Lat : 49.28357, Lng : -123.11502, Q1 : 1.0, Q2 : 0.0, Q3 : 0.0, Q4 : 0.0}
2019-04-14 22:48:57.51: SIM {TimeUS : 40935286, Roll : 0.0, Pitch : 0.0, Yaw : 0.0, Alt : 30.1000003815, Lat : 49.28357, Lng : -123.11502, Q1 : 1.0, Q2 : 0.0, Q3 : 0.0, Q4 : 0.0}
2019-04-14 22:48:57.61: SIM {TimeUS : 41035246, Roll : 0.0, Pitch : 0.0, Yaw : 0.0, Alt : 30.1000003815, Lat : 49.28357, Lng : -123.11502, Q1 : 1.0, Q2 : 0.0, Q3 : 0.0, Q4 : 0.0}
2019-04-14 22:48:57.71: SIM {TimeUS : 41135206, Roll : 0.0, Pitch : 0.0, Yaw : 0.0, Alt : 30.1000003815, Lat : 49.28357, Lng : -123.11502, Q1 : 1.0, Q2 : 0.0, Q3 : 0.0, Q4 : 0.0}
2019-04-14 22:48:57.81: SIM {TimeUS : 41235166, Roll : 0.0, Pitch : 0.0, Yaw : 0.0, Alt : 30.1000003815, Lat : 49.28357, Lng : -123.11502, Q1 : 1.0, Q2 : 0.0, Q3 : 0.0, Q4 : 0.0}
2019-04-14 22:48:57.91: SIM {TimeUS : 41335126, Roll : 0.0, Pitch : 0.0, Yaw : 0.0, Alt : 30.1000003815, Lat : 49.28357, Lng : -123.11502, Q1 : 1.0, Q2 : 0.0, Q3 : 0.0, Q4 : 0.0}
2019-04-14 22:48:58.01: SIM {TimeUS : 41435086, Roll : 0.0, Pitch : 0.0, Yaw : 0.0, Alt : 30.1000003815, Lat : 49.28357, Lng : -123.11502, Q1 : 1.0, Q2 : 0.0, Q3 : 0.0, Q4 : 0.0}
2019-04-14 22:48:58.11: SIM {TimeUS : 41535046, Roll : 0.0, Pitch : 0.0, Yaw : 0.0, Alt : 30.1000003815, Lat : 49.28357, Lng : -123.11502, Q1 : 1.0, Q2 : 0.0, Q3 : 0.0, Q4 : 0.0}
2019-04-14 22:48:58.21: SIM {TimeUS : 41635006, Roll : 0.0, Pitch : 0.0, Yaw : 0.0, Alt : 30.1000003815, Lat : 49.28357, Lng : -123.11502, Q1 : 1.0, Q2 : 0.0, Q3 : 0.0, Q4 : 0.0}
2019-04-14 22:48:58.31: SIM {TimeUS : 41734966, Roll : 0.0, Pitch : 0.0, Yaw : 0.0, Alt : 30.1000003815, Lat : 49.28357, Lng : -123.11502, Q1 : 1.0, Q2 : 0.0, Q3 : 0.0, Q4 : 0.0}
2019-04-14 22:48:58.41: SIM {TimeUS : 41834926, Roll : 0.0, Pitch : 0.0, Yaw : 0.0, Alt : 30.1000003815, Lat : 49.28357, Lng : -123.11502, Q1 : 1.0, Q2 : 0.0, Q3 : 0.0, Q4 : 0.0}
2019-04-14 22:48:58.51: SIM {TimeUS : 41934886, Roll : 0.0, Pitch : 0.0, Yaw : 0.0, Alt : 30.1000003815, Lat : 49.28357, Lng : -123.11502, Q1 : 1.0, Q2 : 0.0, Q3 : 0.0, Q4 : 0.0}
2019-04-14 22:48:58.61: SIM {TimeUS : 42034846, Roll : 0.0, Pitch : 0.0, Yaw : 0.0, Alt : 30.1000003815, Lat : 49.28357, Lng : -123.11502, Q1 : 1.0, Q2 : 0.0, Q3 : 0.0, Q4 : 0.0}
2019-04-14 22:48:58.71: SIM {TimeUS : 42134806, Roll : 0.0, Pitch : 0.0, Yaw : 0.0, Alt : 30.1000003815, Lat : 49.28357, Lng : -123.11502, Q1 : 1.0, Q2 : 0.0, Q3 : 0.0, Q4 : 0.0}
2019-04-14 22:48:58.81: SIM {TimeUS : 42234766, Roll : 0.0, Pitch : 0.0, Yaw : 0.0, Alt : 30.1000003815, Lat : 49.28357, Lng : -123.11502, Q1 : 1.0, Q2 : 0.0, Q3 : 0.0, Q4 : 0.0}
2019-04-14 22:48:58.91: SIM {TimeUS : 42334726, Roll : 0.0, Pitch : 0.0, Yaw : 0.0, Alt : 30.1000003815, Lat : 49.28357, Lng : -123.11502, Q1 : 1.0, Q2 : 0.0, Q3 : 0.0, Q4 : 0.0}
2019-04-14 22:48:59.02: SIM {TimeUS : 42435519, Roll : 0.0, Pitch : 0.0, Yaw : 0.0, Alt : 30.1000003815, Lat : 49.28357, Lng : -123.11502, Q1 : 1.0, Q2 : 0.0, Q3 : 0.0, Q4 : 0.0}
2019-04-14 22:48:59.11: SIM {TimeUS : 42535479, Roll : 0.0, Pitch : 0.0, Yaw : 0.0, Alt : 30.1000003815, Lat : 49.28357, Lng : -123.11502, Q1 : 1.0, Q2 : 0.0, Q3 : 0.0, Q4 : 0.0}
2019-04-14 22:48:59.21: SIM {TimeUS : 42635439, Roll : 0.0, Pitch : 0.0, Yaw : 0.0, Alt : 30.1000003815, Lat : 49.28357, Lng : -123.11502, Q1 : 1.0, Q2 : 0.0, Q3 : 0.0, Q4 : 1.56407300306e-11}
2019-04-14 22:48:59.31: SIM {TimeUS : 42735399, Roll : 0.0, Pitch : 0.0, Yaw : 360.0, Alt : 30.1000003815, Lat : 49.28357, Lng : -123.11502, Q1 : 1.0, Q2 : 0.0, Q3 : 0.0, Q4 : -2.38367370287e-08}
2019-04-14 22:48:59.41: SIM {TimeUS : 42835359, Roll : 0.0, Pitch : 0.0, Yaw : 359.99, Alt : 30.1000003815, Lat : 49.28357, Lng : -123.11502, Q1 : 1.0, Q2 : 0.0, Q3 : 0.0, Q4 : -1.76053220002e-07}
2019-04-14 22:48:59.51: SIM {TimeUS : 42935319, Roll : 0.0, Pitch : 0.0, Yaw : 359.99, Alt : 30.1000003815, Lat : 49.28357, Lng : -123.11502, Q1 : 1.0, Q2 : 0.0, Q3 : 0.0, Q4 : -3.62557784683e-07}
2019-04-14 22:48:59.61: SIM {TimeUS : 43035279, Roll : 0.0, Pitch : 0.0, Yaw : 359.99, Alt : 30.1000003815, Lat : 49.28357, Lng : -123.11502, Q1 : 1.0, Q2 : 0.0, Q3 : 0.0, Q4 : -5.42809402759e-07}
2019-04-14 22:48:59.71: SIM {TimeUS : 43135239, Roll : 0.0, Pitch : 0.0, Yaw : 359.99, Alt : 30.1000003815, Lat : 49.28357, Lng : -123.11502, Q1 : 1.0, Q2 : 0.0, Q3 : 0.0, Q4 : -7.52079870381e-07}
2019-04-14 22:48:59.81: SIM {TimeUS : 43235199, Roll : 0.0, Pitch : 0.0, Yaw : 359.99, Alt : 30.1000003815, Lat : 49.28357, Lng : -123.11502, Q1 : 1.0, Q2 : 0.0, Q3 : 0.0, Q4 : -9.3697514103e-07}
2019-04-14 22:48:59.91: SIM {TimeUS : 43335159, Roll : 0.0, Pitch : 0.0, Yaw : 359.99, Alt : 30.1000003815, Lat : 49.28357, Lng : -123.11502, Q1 : 1.0, Q2 : 0.0, Q3 : 0.0, Q4 : -1.13723467621e-06}
2019-04-14 22:49:00.01: SIM {TimeUS : 43435119, Roll : 0.0, Pitch : 0.0, Yaw : 359.99, Alt : 30.1000003815, Lat : 49.28357, Lng : -123.11502, Q1 : 1.0, Q2 : 0.0, Q3 : 0.0, Q4 : -1.34137098939e-06}
2019-04-14 22:49:00.11: SIM {TimeUS : 43535079, Roll : 0.0, Pitch : 0.0, Yaw : 359.99, Alt : 30.1200008392, Lat : 49.28357, Lng : -123.11502, Q1 : 1.0, Q2 : 0.0, Q3 : 0.0, Q4 : -1.58814054885e-06}
2019-04-14 22:49:00.21: SIM {TimeUS : 43635039, Roll : 0.0, Pitch : 0.0, Yaw : 359.99, Alt : 30.1499996185, Lat : 49.28357, Lng : -123.11502, Q1 : 1.0, Q2 : 0.0, Q3 : 0.0, Q4 : -1.83880285931e-06}
2019-04-14 22:49:00.31: SIM {TimeUS : 43734999, Roll : 0.0, Pitch : 0.0, Yaw : 359.99, Alt : 30.1800003052, Lat : 49.28357, Lng : -123.11502, Q1 : 1.0, Q2 : 0.0, Q3 : 0.0, Q4 : -2.04966909223e-06}
2019-04-14 22:49:00.41: SIM {TimeUS : 43834959, Roll : 0.0, Pitch : 0.0, Yaw : 359.99, Alt : 30.2099990845, Lat : 49.28357, Lng : -123.11502, Q1 : 1.0, Q2 : -1.21034609037e-05, Q3 : -1.05918252302e-05, Q4 : -2.32298862102e-06}
2019-04-14 22:49:00.51: SIM {TimeUS : 43934919, Roll : -0.18, Pitch : -0.16, Yaw : 359.99, Alt : 30.2700004578, Lat : 49.28357, Lng : -123.11502, Q1 : 0.999997615814, Q2 : -0.00163947488181, Q3 : -0.00143638451118, Q4 : -1.95470020117e-05}
2019-04-14 22:49:00.61: SIM {TimeUS : 44034879, Roll : -0.5, Pitch : -0.45, Yaw : 359.99, Alt : 30.3899993896, Lat : 49.28357, Lng : -123.11502, Q1 : 0.999982535839, Q2 : -0.00440324144438, Q3 : -0.00394236668944, Q4 : -6.17994228378e-05}
2019-04-14 22:49:00.71: SIM {TimeUS : 44134839, Roll : -0.76, Pitch : -0.69, Yaw : 359.98, Alt : 30.5400009155, Lat : 49.28357, Lng : -123.11502, Q1 : 0.999959290028, Q2 : -0.00668189814314, Q3 : -0.00605967547745, Q4 : -0.000129366308101}
2019-04-14 22:49:00.81: SIM {TimeUS : 44234799, Roll : -0.88, Pitch : -0.79, Yaw : 359.98, Alt : 30.7000007629, Lat : 49.28357, Lng : -123.11502, Q1 : 0.999946415424, Q2 : -0.00770163256675, Q3 : -0.00691667292267, Q4 : -0.00021329188894}
2019-04-14 22:49:00.91: SIM {TimeUS : 44334759, Roll : -0.83, Pitch : -0.73, Yaw : 359.97, Alt : 30.8600006104, Lat : 49.28357, Lng : -123.1150201, Q1 : 0.99995303154, Q2 : -0.00725428620353, Q3 : -0.00642365776002, Q4 : -0.000302819040371}
2019-04-14 22:49:01.01: SIM {TimeUS : 44434719, Roll : -0.64, Pitch : -0.58, Yaw : 359.95, Alt : 31.0100002289, Lat : 49.28357, Lng : -123.1150201, Q1 : 0.999971151352, Q2 : -0.00559029635042, Q3 : -0.00513049028814, Q4 : -0.000381486839615}
2019-04-14 22:49:01.12: SIM {TimeUS : 44535512, Roll : -0.39, Pitch : -0.38, Yaw : 359.94, Alt : 31.1700000763, Lat : 49.2835701, Lng : -123.1150202, Q1 : 0.999988377094, Q2 : -0.00344502972439, Q3 : -0.00333784637041, Q4 : -0.000449851213489}
2019-04-14 22:49:01.21: SIM {TimeUS : 44635472, Roll : -0.18, Pitch : -0.18, Yaw : 359.94, Alt : 31.3299999237, Lat : 49.2835701, Lng : -123.1150203, Q1 : 0.999997377396, Q2 : -0.00159935082775, Q3 : -0.00157320278231, Q4 : -0.000505701231305}
2019-04-14 22:49:01.31: SIM {TimeUS : 44735432, Roll : -0.03, Pitch : -0.03, Yaw : 359.93, Alt : 31.5, Lat : 49.2835702, Lng : -123.1150204, Q1 : 0.999999761581, Q2 : -0.000294934783597, Q3 : -0.000300054380205, Q4 : -0.000544367241673}
2019-04-14 22:49:01.41: SIM {TimeUS : 44835392, Roll : 0.04, Pitch : 0.03, Yaw : 359.93, Alt : 31.6700000763, Lat : 49.2835702, Lng : -123.1150205, Q1 : 0.999999701977, Q2 : 0.000418691604864, Q3 : 0.000338777259458, Q4 : -0.000567727955058}
2019-04-14 22:49:01.51: SIM {TimeUS : 44935352, Roll : 0.07, Pitch : 0.05, Yaw : 359.93, Alt : 31.8500003815, Lat : 49.2835703, Lng : -123.1150205, Q1 : 0.999999463558, Q2 : 0.000679345452227, Q3 : 0.000490317936055, Q4 : -0.00058197620092}
2019-04-14 22:49:01.61: SIM {TimeUS : 45035312, Roll : 0.09, Pitch : 0.04, Yaw : 359.93, Alt : 32.0299987793, Lat : 49.2835703, Lng : -123.1150206, Q1 : 0.999999403954, Q2 : 0.000803549657576, Q3 : 0.000408192659961, Q4 : -0.000583344139159}
2019-04-14 22:49:01.71: SIM {TimeUS : 45135272, Roll : 0.09, Pitch : 0.02, Yaw : 359.93, Alt : 32.2200012207, Lat : 49.2835703, Lng : -123.1150206, Q1 : 0.999999463558, Q2 : 0.000844922091346, Q3 : 0.000258495769231, Q4 : -0.000566302624065}
2019-04-14 22:49:01.81: SIM {TimeUS : 45235232, Roll : 0.09, Pitch : 0.03, Yaw : 359.93, Alt : 32.4099998474, Lat : 49.2835703, Lng : -123.1150207, Q1 : 0.999999463558, Q2 : 0.000823195558041, Q3 : 0.000277441664366, Q4 : -0.000543689529877}
2019-04-14 22:49:01.91: SIM {TimeUS : 45335192, Roll : 0.09, Pitch : 0.06, Yaw : 359.93, Alt : 32.6100006104, Lat : 49.2835703, Lng : -123.1150207, Q1 : 0.999999403954, Q2 : 0.000787715427577, Q3 : 0.000536453560926, Q4 : -0.000535896688234}
2019-04-14 22:49:02.01: SIM {TimeUS : 45435152, Roll : 0.08, Pitch : 0.1, Yaw : 359.93, Alt : 32.7999992371, Lat : 49.2835704, Lng : -123.1150208, Q1 : 0.999999165535, Q2 : 0.000760004448239, Q3 : 0.00092757580569, Q4 : -0.000526115880348}
2019-04-14 22:49:02.11: SIM {TimeUS : 45535112, Roll : 0.1, Pitch : 0.15, Yaw : 359.94, Alt : 33.0, Lat : 49.2835704, Lng : -123.1150208, Q1 : 0.999998450279, Q2 : 0.000948648841586, Q3 : 0.00138052529655, Q4 : -0.000512976781465}
2019-04-14 22:49:02.21: SIM {TimeUS : 45635072, Roll : 0.14, Pitch : 0.18, Yaw : 359.94, Alt : 33.2000007629, Lat : 49.2835704, Lng : -123.1150208, Q1 : 0.999997794628, Q2 : 0.00125310826115, Q3 : 0.00159838562831, Q4 : -0.000492253049742}
2019-04-14 22:49:02.31: SIM {TimeUS : 45735032, Roll : 0.16, Pitch : 0.18, Yaw : 359.94, Alt : 33.4099998474, Lat : 49.2835704, Lng : -123.1150209, Q1 : 0.999997496605, Q2 : 0.00144959322643, Q3 : 0.00162603682838, Q4 : -0.000482756004203}
2019-04-14 22:49:02.41: SIM {TimeUS : 45834992, Roll : 0.16, Pitch : 0.19, Yaw : 359.94, Alt : 33.6100006104, Lat : 49.2835704, Lng : -123.1150209, Q1 : 0.999997377396, Q2 : 0.00147747376468, Q3 : 0.00167376059107, Q4 : -0.000482565432321}
2019-04-14 22:49:02.51: SIM {TimeUS : 45934952, Roll : 0.16, Pitch : 0.15, Yaw : 359.94, Alt : 33.8199996948, Lat : 49.2835704, Lng : -123.1150209, Q1 : 0.999997854233, Q2 : 0.00145507277921, Q3 : 0.00138867960777, Q4 : -0.000499151123222}
2019-04-14 22:49:02.61: SIM {TimeUS : 46034912, Roll : 0.15, Pitch : 0.11, Yaw : 359.94, Alt : 34.0299987793, Lat : 49.2835706, Lng : -123.1150209, Q1 : 0.999998390675, Q2 : 0.00135647051502, Q3 : 0.0010315933032, Q4 : -0.000522076152265}
2019-04-14 22:49:02.71: SIM {TimeUS : 46134872, Roll : 0.13, Pitch : 0.09, Yaw : 359.93, Alt : 34.2400016785, Lat : 49.2835706, Lng : -123.1150209, Q1 : 0.999998807907, Q2 : 0.00120069412515, Q3 : 0.000842483073939, Q4 : -0.00054912903579}
2019-04-14 22:49:02.81: SIM {TimeUS : 46234832, Roll : 0.12, Pitch : 0.08, Yaw : 359.93, Alt : 34.4500007629, Lat : 49.2835706, Lng : -123.1150209, Q1 : 0.999998927116, Q2 : 0.00109010562301, Q3 : 0.000781074981205, Q4 : -0.000575489306357}
2019-04-14 22:49:02.91: SIM {TimeUS : 46334792, Roll : 0.11, Pitch : 0.09, Yaw : 359.93, Alt : 34.6599998474, Lat : 49.2835706, Lng : -123.1150209, Q1 : 0.999998927116, Q2 : 0.00104476860724, Q3 : 0.000786281365436, Q4 : -0.000607327907346}
2019-04-14 22:49:03.01: SIM {TimeUS : 46434752, Roll : 0.1, Pitch : 0.07, Yaw : 359.92, Alt : 34.8800010681, Lat : 49.2835706, Lng : -123.1150209, Q1 : 0.999999165535, Q2 : 0.000945141306147, Q3 : 0.000656530435663, Q4 : -0.000627696339507}
2019-04-14 22:49:03.11: SIM {TimeUS : 46534712, Roll : 0.08, Pitch : 0.06, Yaw : 359.92, Alt : 35.0900001526, Lat : 49.2835706, Lng : -123.1150208, Q1 : 0.999999403954, Q2 : 0.00074458529707, Q3 : 0.000560846296139, Q4 : -0.00064412940992}
2019-04-14 22:49:03.22: SIM {TimeUS : 46635505, Roll : 0.05, Pitch : 0.06, Yaw : 359.92, Alt : 35.3100013733, Lat : 49.2835706, Lng : -123.1150208, Q1 : 0.999999523163, Q2 : 0.00052330136532, Q3 : 0.000528005301021, Q4 : -0.00065886520315}
2019-04-14 22:49:03.31: SIM {TimeUS : 46735465, Roll : 0.03, Pitch : 0.06, Yaw : 359.92, Alt : 35.5299987793, Lat : 49.2835706, Lng : -123.1150208, Q1 : 0.999999582767, Q2 : 0.000328299036482, Q3 : 0.000592218711972, Q4 : -0.000673784234095}
2019-04-14 22:49:03.41: SIM {TimeUS : 46835425, Roll : 0.02, Pitch : 0.05, Yaw : 359.92, Alt : 35.75, Lat : 49.2835706, Lng : -123.1150208, Q1 : 0.999999642372, Q2 : 0.000260843225988, Q3 : 0.000504842202645, Q4 : -0.000687444407959}
2019-04-14 22:49:03.51: SIM {TimeUS : 46935385, Roll : 0.02, Pitch : 0.04, Yaw : 359.91, Alt : 35.9700012207, Lat : 49.2835706, Lng : -123.1150208, Q1 : 0.999999642372, Q2 : 0.000202049937798, Q3 : 0.000431842869148, Q4 : -0.000704138888977}
2019-04-14 22:49:03.61: SIM {TimeUS : 47035345, Roll : 0.0, Pitch : 0.04, Yaw : 359.91, Alt : 36.1899986267, Lat : 49.2835704, Lng : -123.1150207, Q1 : 0.999999642372, Q2 : 7.9596939031e-05, Q3 : 0.00039250755799, Q4 : -0.000728280749172}
2019-04-14 22:49:03.71: SIM {TimeUS : 47135305, Roll : 0.0, Pitch : 0.04, Yaw : 359.91, Alt : 36.4099998474, Lat : 49.2835704, Lng : -123.1150207, Q1 : 0.999999642372, Q2 : 3.5678363929e-05, Q3 : 0.000354384072125, Q4 : -0.000758297450375}
2019-04-14 22:49:03.81: SIM {TimeUS : 47235265, Roll : 0.01, Pitch : 0.03, Yaw : 359.9, Alt : 36.6300010681, Lat : 49.2835704, Lng : -123.1150207, Q1 : 0.999999642372, Q2 : 0.000124185200548, Q3 : 0.00029421763611, Q4 : -0.000792648934294}
2019-04-14 22:49:03.91: SIM {TimeUS : 47335225, Roll : 0.0, Pitch : 0.01, Yaw : 359.9, Alt : 36.8600006104, Lat : 49.2835704, Lng : -123.1150207, Q1 : 0.999999642372, Q2 : 3.72625072487e-05, Q3 : 0.000172943546204, Q4 : -0.000822750676889}
2019-04-14 22:49:04.01: SIM {TimeUS : 47435185, Roll : -0.02, Pitch : 0.0, Yaw : 359.9, Alt : 37.0800018311, Lat : 49.2835704, Lng : -123.1150207, Q1 : 0.999999582767, Q2 : -0.000244497845415, Q3 : -6.57523123664e-05, Q4 : -0.000856681377627}
2019-04-14 22:49:04.11: SIM {TimeUS : 47535145, Roll : -0.07, Pitch : -0.03, Yaw : 359.89, Alt : 37.3100013733, Lat : 49.2835704, Lng : -123.1150207, Q1 : 0.999999344349, Q2 : -0.000624639273155, Q3 : -0.000287493108772, Q4 : -0.000887429283466}
2019-04-14 22:49:04.21: SIM {TimeUS : 47635105, Roll : -0.1, Pitch : -0.05, Yaw : 359.89, Alt : 37.5299987793, Lat : 49.2835704, Lng : -123.1150207, Q1 : 0.999999046326, Q2 : -0.000929749570787, Q3 : -0.00044063248788, Q4 : -0.000917014142033}
2019-04-14 22:49:04.31: SIM {TimeUS : 47735065, Roll : -0.12, Pitch : -0.06, Yaw : 359.89, Alt : 37.7599983215, Lat : 49.2835704, Lng : -123.1150206, Q1 : 0.999998807907, Q2 : -0.00111217133235, Q3 : -0.000540447654203, Q4 : -0.00094906159211}
2019-04-14 22:49:04.41: SIM {TimeUS : 47835025, Roll : -0.13, Pitch : -0.06, Yaw : 359.88, Alt : 37.9799995422, Lat : 49.2835704, Lng : -123.1150206, Q1 : 0.999998688698, Q2 : -0.0011656176066, Q3 : -0.00055223563686, Q4 : -0.000979402917437}
2019-04-14 22:49:04.51: SIM {TimeUS : 47934985, Roll : -0.11, Pitch : -0.04, Yaw : 359.88, Alt : 38.2099990845, Lat : 49.2835704, Lng : -123.1150206, Q1 : 0.999998867512, Q2 : -0.00104156555608, Q3 : -0.000392609712435, Q4 : -0.00100227724761}
2019-04-14 22:49:04.61: SIM {TimeUS : 48034945, Roll : -0.09, Pitch : -0.03, Yaw : 359.88, Alt : 38.4399986267, Lat : 49.2835704, Lng : -123.1150206, Q1 : 0.99999910593, Q2 : -0.000787867815234, Q3 : -0.000346206594259, Q4 : -0.00102367019281}
2019-04-14 22:49:04.71: SIM {TimeUS : 48134905, Roll : -0.07, Pitch : -0.04, Yaw : 359.87, Alt : 38.6699981689, Lat : 49.2835704, Lng : -123.1150206, Q1 : 0.999999165535, Q2 : -0.000641766877379, Q3 : -0.000423824298196, Q4 : -0.00104840763379}
2019-04-14 22:49:04.81: SIM {TimeUS : 48234865, Roll : -0.06, Pitch : -0.03, Yaw : 359.87, Alt : 38.9000015259, Lat : 49.2835704, Lng : -123.1150206, Q1 : 0.99999922514, Q2 : -0.000569653231651, Q3 : -0.000342090701452, Q4 : -0.00106252892874}
2019-04-14 22:49:04.91: SIM {TimeUS : 48334825, Roll : -0.08, Pitch : -0.02, Yaw : 359.87, Alt : 39.1300010681, Lat : 49.2835704, Lng : -123.1150206, Q1 : 0.999999165535, Q2 : -0.000720384996384, Q3 : -0.000177238238393, Q4 : -0.00107024039607}
2019-04-14 22:49:05.01: SIM {TimeUS : 48434785, Roll : -0.08, Pitch : 0.0, Yaw : 359.87, Alt : 39.3600006104, Lat : 49.2835704, Lng : -123.1150206, Q1 : 0.999999165535, Q2 : -0.000761478499044, Q3 : -3.879623182e-05, Q4 : -0.00107484334148}
2019-04-14 22:49:05.11: SIM {TimeUS : 48534745, Roll : -0.07, Pitch : 0.02, Yaw : 359.87, Alt : 39.5900001526, Lat : 49.2835704, Lng : -123.1150206, Q1 : 0.99999922514, Q2 : -0.000616863253526, Q3 : 0.000204984127777, Q4 : -0.00108712096699}
2019-04-14 22:49:05.21: SIM {TimeUS : 48634705, Roll : -0.05, Pitch : 0.03, Yaw : 359.87, Alt : 39.8199996948, Lat : 49.2835704, Lng : -123.1150206, Q1 : 0.999999284744, Q2 : -0.000444210047135, Q3 : 0.000270640273811, Q4 : -0.00109320215415}
2019-04-14 22:49:05.32: SIM {TimeUS : 48735498, Roll : -0.02, Pitch : 0.03, Yaw : 359.87, Alt : 40.0499992371, Lat : 49.2835704, Lng : -123.1150207, Q1 : 0.999999344349, Q2 : -0.000223480819841, Q3 : 0.00026807768154, Q4 : -0.00109617132694}
2019-04-14 22:49:05.41: SIM {TimeUS : 48835458, Roll : 0.01, Pitch : 0.04, Yaw : 359.87, Alt : 40.2799987793, Lat : 49.2835704, Lng : -123.1150207, Q1 : 0.999999284744, Q2 : 0.000114677612146, Q3 : 0.000420316413511, Q4 : -0.00109903130215}
2019-04-14 22:49:05.51: SIM {TimeUS : 48935418, Roll : 0.06, Pitch : 0.07, Yaw : 359.87, Alt : 40.5099983215, Lat : 49.2835704, Lng : -123.1150207, Q1 : 0.999998986721, Q2 : 0.000539354106877, Q3 : 0.000682188780047, Q4 : -0.00110718701035}
2019-04-14 22:49:05.61: SIM {TimeUS : 49035378, Roll : 0.09, Pitch : 0.1, Yaw : 359.87, Alt : 40.75, Lat : 49.2835704, Lng : -123.1150207, Q1 : 0.999998569489, Q2 : 0.000829108408652, Q3 : 0.000938460812904, Q4 : -0.00111904321238}
2019-04-14 22:49:05.71: SIM {TimeUS : 49135338, Roll : 0.08, Pitch : 0.12, Yaw : 359.87, Alt : 40.9799995422, Lat : 49.2835704, Lng : -123.1150207, Q1 : 0.999998450279, Q2 : 0.000766466022469, Q3 : 0.0011315868469, Q4 : -0.00112314068247}
2019-04-14 22:49:05.81: SIM {TimeUS : 49235298, Roll : 0.04, Pitch : 0.14, Yaw : 359.86, Alt : 41.2099990845, Lat : 49.2835704, Lng : -123.1150207, Q1 : 0.999998509884, Q2 : 0.000368682231056, Q3 : 0.00124737480655, Q4 : -0.0011390739819}
2019-04-14 22:49:05.91: SIM {TimeUS : 49335258, Roll : 0.0, Pitch : 0.14, Yaw : 359.86, Alt : 41.4399986267, Lat : 49.2835704, Lng : -123.1150207, Q1 : 0.999998569489, Q2 : -1.89491856872e-05, Q3 : 0.00126086629461, Q4 : -0.00115962012205}
2019-04-14 22:49:06.01: SIM {TimeUS : 49435218, Roll : -0.02, Pitch : 0.11, Yaw : 359.86, Alt : 41.6800003052, Lat : 49.2835704, Lng : -123.1150207, Q1 : 0.999998807907, Q2 : -0.000212381841266, Q3 : 0.000996649032459, Q4 : -0.00118211912923}
2019-04-14 22:49:06.11: SIM {TimeUS : 49535178, Roll : -0.03, Pitch : 0.07, Yaw : 359.86, Alt : 41.9099998474, Lat : 49.2835704, Lng : -123.1150207, Q1 : 0.999999046326, Q2 : -0.000265904469416, Q3 : 0.000625637418125, Q4 : -0.0012114897836}
2019-04-14 22:49:06.21: SIM {TimeUS : 49635138, Roll : -0.01, Pitch : 0.06, Yaw : 359.85, Alt : 42.1500015259, Lat : 49.2835704, Lng : -123.1150207, Q1 : 0.999999046326, Q2 : -0.000169594350155, Q3 : 0.000526350806467, Q4 : -0.00125057331752}
2019-04-14 22:49:06.31: SIM {TimeUS : 49735098, Roll : 0.01, Pitch : 0.06, Yaw : 359.85, Alt : 42.3800010681, Lat : 49.2835704, Lng : -123.1150207, Q1 : 0.999998927116, Q2 : 0.000161306321388, Q3 : 0.000606874993537, Q4 : -0.00129894271959}
2019-04-14 22:49:06.41: SIM {TimeUS : 49835058, Roll : 0.07, Pitch : 0.08, Yaw : 359.84, Alt : 42.6199989319, Lat : 49.2835704, Lng : -123.1150207, Q1 : 0.999998629093, Q2 : 0.000649485271424, Q3 : 0.000703502621036, Q4 : -0.00134436646476}
2019-04-14 22:49:06.51: SIM {TimeUS : 49935018, Roll : 0.11, Pitch : 0.07, Yaw : 359.84, Alt : 42.8499984741, Lat : 49.2835704, Lng : -123.1150207, Q1 : 0.99999833107, Q2 : 0.00101842998993, Q3 : 0.000611250579823, Q4 : -0.00139054621104}
2019-04-14 22:49:06.61: SIM {TimeUS : 50034978, Roll : 0.12, Pitch : 0.05, Yaw : 359.83, Alt : 43.0900001526, Lat : 49.2835704, Lng : -123.1150207, Q1 : 0.99999833107, Q2 : 0.0010531359585, Q3 : 0.000444497476565, Q4 : -0.00142930052243}
2019-04-14 22:49:06.71: SIM {TimeUS : 50134938, Roll : 0.07, Pitch : 0.03, Yaw : 359.83, Alt : 43.3199996948, Lat : 49.2835704, Lng : -123.1150207, Q1 : 0.999998688698, Q2 : 0.000672172347549, Q3 : 0.000332013325533, Q4 : -0.00144592300057}
2019-04-14 22:49:06.81: SIM {TimeUS : 50234898, Roll : 0.01, Pitch : 0.03, Yaw : 359.83, Alt : 43.5600013733, Lat : 49.2835704, Lng : -123.1150207, Q1 : 0.999998927116, Q2 : 0.000128620900796, Q3 : 0.000276345817838, Q4 : -0.00145533645991}
2019-04-14 22:49:06.91: SIM {TimeUS : 50334858, Roll : -0.02, Pitch : 0.03, Yaw : 359.83, Alt : 43.7900009155, Lat : 49.2835704, Lng : -123.1150207, Q1 : 0.999998867512, Q2 : -0.000229811150348, Q3 : 0.000299922452541, Q4 : -0.00146678951569}
2019-04-14 22:49:07.01: SIM {TimeUS : 50434818, Roll : -0.04, Pitch : 0.03, Yaw : 359.83, Alt : 44.0299987793, Lat : 49.2835704, Lng : -123.1150207, Q1 : 0.999998807907, Q2 : -0.000401723955292, Q3 : 0.000265578943072, Q4 : -0.00148000905756}
2019-04-14 22:49:07.11: SIM {TimeUS : 50534778, Roll : -0.04, Pitch : 0.01, Yaw : 359.82, Alt : 44.2599983215, Lat : 49.2835704, Lng : -123.1150207, Q1 : 0.999998807907, Q2 : -0.000365271058399, Q3 : 0.000130845161038, Q4 : -0.00149331695866}
2019-04-14 22:49:07.21: SIM {TimeUS : 50634738, Roll : -0.04, Pitch : 0.0, Yaw : 359.82, Alt : 44.5, Lat : 49.2835704, Lng : -123.1150206, Q1 : 0.999998807907, Q2 : -0.000381356105208, Q3 : -5.15818896929e-07, Q4 : -0.00151377194561}
2019-04-14 22:49:07.31: SIM {TimeUS : 50734698, Roll : -0.03, Pitch : -0.01, Yaw : 359.82, Alt : 44.7400016785, Lat : 49.2835704, Lng : -123.1150206, Q1 : 0.999998748302, Q2 : -0.000343738414813, Q3 : -0.000117989082355, Q4 : -0.00153904373292}
2019-04-14 22:49:07.41: SIM {TimeUS : 50835491, Roll : -0.02, Pitch : -0.01, Yaw : 359.81, Alt : 44.9700012207, Lat : 49.2835704, Lng : -123.1150206, Q1 : 0.999998748302, Q2 : -0.000245514122071, Q3 : -0.000124636455439, Q4 : -0.00157369684894}
2019-04-14 22:49:07.51: SIM {TimeUS : 50935451, Roll : -0.02, Pitch : 0.0, Yaw : 359.81, Alt : 45.2099990845, Lat : 49.2835704, Lng : -123.1150206, Q1 : 0.999998688698, Q2 : -0.000217452179641, Q3 : -3.6563114918e-06, Q4 : -0.00161035894416}
2019-04-14 22:49:07.61: SIM {TimeUS : 51035411, Roll : -0.02, Pitch : 0.0, Yaw : 359.81, Alt : 45.4500007629, Lat : 49.2835704, Lng : -123.1150206, Q1 : 0.999998629093, Q2 : -0.000249234144576, Q3 : 3.42145940522e-05, Q4 : -0.00164934387431}
2019-04-14 22:49:07.71: SIM {TimeUS : 51135371, Roll : -0.03, Pitch : 0.0, Yaw : 359.8, Alt : 45.6800003052, Lat : 49.2835704, Lng : -123.1150206, Q1 : 0.999998509884, Q2 : -0.000273454148555, Q3 : -6.5028136305e-05, Q4 : -0.00168813019991}
2019-04-14 22:49:07.81: SIM {TimeUS : 51235331, Roll : -0.03, Pitch : -0.01, Yaw : 359.8, Alt : 45.9099998474, Lat : 49.2835704, Lng : -123.1150206, Q1 : 0.999998509884, Q2 : -0.000262426881818, Q3 : -0.000109240048914, Q4 : -0.00172116653994}
2019-04-14 22:49:07.91: SIM {TimeUS : 51335291, Roll : -0.02, Pitch : -0.01, Yaw : 359.79, Alt : 46.1399993896, Lat : 49.2835704, Lng : -123.1150206, Q1 : 0.999998450279, Q2 : -0.000189726706594, Q3 : -0.000115920767712, Q4 : -0.00174844544381}
2019-04-14 22:49:08.01: SIM {TimeUS : 51435251, Roll : -0.02, Pitch : 0.0, Yaw : 359.79, Alt : 46.3699989319, Lat : 49.2835704, Lng : -123.1150206, Q1 : 0.999998390675, Q2 : -0.000211146005313, Q3 : -7.71410341258e-05, Q4 : -0.001776396879}
2019-04-14 22:49:08.11: SIM {TimeUS : 51535211, Roll : -0.04, Pitch : 0.0, Yaw : 359.79, Alt : 46.5900001526, Lat : 49.2835704, Lng : -123.1150206, Q1 : 0.999998271465, Q2 : -0.000405244762078, Q3 : 1.36295875564e-05, Q4 : -0.00180183525663}
2019-04-14 22:49:08.21: SIM {TimeUS : 51635171, Roll : -0.08, Pitch : 0.0, Yaw : 359.79, Alt : 46.8100013733, Lat : 49.2835704, Lng : -123.1150206, Q1 : 0.999998092651, Q2 : -0.000727137201466, Q3 : 8.27985059004e-05, Q4 : -0.0018259662902}
2019-04-14 22:49:08.31: SIM {TimeUS : 51735131, Roll : -0.1, Pitch : 0.01, Yaw : 359.78, Alt : 47.0200004578, Lat : 49.2835704, Lng : -123.1150206, Q1 : 0.999997854233, Q2 : -0.000958778371569, Q3 : 0.000122360579553, Q4 : -0.00185008870903}
2019-04-14 22:49:08.41: SIM {TimeUS : 51835091, Roll : -0.11, Pitch : 0.02, Yaw : 359.78, Alt : 47.2200012207, Lat : 49.2835704, Lng : -123.1150206, Q1 : 0.999997735023, Q2 : -0.000995194655843, Q3 : 0.00020949212194, Q4 : -0.0018701540539}
2019-04-14 22:49:08.51: SIM {TimeUS : 51935051, Roll : -0.09, Pitch : 0.04, Yaw : 359.78, Alt : 47.4199981689, Lat : 49.2835704, Lng : -123.1150206, Q1 : 0.999997735023, Q2 : -0.00086314114742, Q3 : 0.000401127297664, Q4 : -0.0018950717058}
2019-04-14 22:49:08.61: SIM {TimeUS : 52035011, Roll : -0.07, Pitch : 0.05, Yaw : 359.77, Alt : 47.5999984741, Lat : 49.2835704, Lng : -123.1150206, Q1 : 0.999997794628, Q2 : -0.000679831951857, Q3 : 0.000508366909344, Q4 : -0.00192016945221}
2019-04-14 22:49:08.71: SIM {TimeUS : 52134971, Roll : -0.08, Pitch : 0.06, Yaw : 359.77, Alt : 47.7799987793, Lat : 49.2835704, Lng : -123.1150206, Q1 : 0.999997675419, Q2 : -0.000780487258453, Q3 : 0.000528834352735, Q4 : -0.00194504391402}
2019-04-14 22:49:08.81: SIM {TimeUS : 52234931, Roll : -0.1, Pitch : 0.05, Yaw : 359.77, Alt : 47.9399986267, Lat : 49.2835704, Lng : -123.1150206, Q1 : 0.99999755621, Q2 : -0.000886789930519, Q3 : 0.00046085845679, Q4 : -0.00196904106997}
2019-04-14 22:49:08.91: SIM {TimeUS : 52334891, Roll : -0.09, Pitch : 0.02, Yaw : 359.77, Alt : 48.0900001526, Lat : 49.2835704, Lng : -123.1150206, Q1 : 0.999997675419, Q2 : -0.000816372164991, Q3 : 0.000230423320318, Q4 : -0.00199298234656}
2019-04-14 22:49:09.01: SIM {TimeUS : 52434851, Roll : -0.06, Pitch : 0.0, Yaw : 359.76, Alt : 48.2299995422, Lat : 49.2835704, Lng : -123.1150206, Q1 : 0.999997794628, Q2 : -0.00055038172286, Q3 : -3.52936294803e-05, Q4 : -0.00202051224187}
2019-04-14 22:49:09.11: SIM {TimeUS : 52534811, Roll : -0.03, Pitch : -0.03, Yaw : 359.76, Alt : 48.3600006104, Lat : 49.2835704, Lng : -123.1150206, Q1 : 0.999997794628, Q2 : -0.000312146847136, Q3 : -0.000268806528766, Q4 : -0.0020483545959}
2019-04-14 22:49:09.21: SIM {TimeUS : 52634771, Roll : -0.02, Pitch : -0.05, Yaw : 359.76, Alt : 48.4799995422, Lat : 49.2835704, Lng : -123.1150206, Q1 : 0.999997735023, Q2 : -0.000232835998759, Q3 : -0.000464638113044, Q4 : -0.00207471009344}
2019-04-14 22:49:09.31: SIM {TimeUS : 52734731, Roll : 0.0, Pitch : -0.05, Yaw : 359.75, Alt : 48.5800018311, Lat : 49.2835704, Lng : -123.1150206, Q1 : 0.999997675419, Q2 : 2.25778785534e-06, Q3 : -0.000444459059509, Q4 : -0.0020997710526}
2019-04-14 22:49:09.42: SIM {TimeUS : 52835524, Roll : 0.03, Pitch : -0.03, Yaw : 359.75, Alt : 48.6699981689, Lat : 49.2835704, Lng : -123.1150206, Q1 : 0.999997675419, Q2 : 0.000284885143628, Q3 : -0.000337831355864, Q4 : -0.00212644482963}
2019-04-14 22:49:09.51: SIM {TimeUS : 52935484, Roll : 0.05, Pitch : -0.01, Yaw : 359.75, Alt : 48.7599983215, Lat : 49.2835703, Lng : -123.1150206, Q1 : 0.99999755621, Q2 : 0.000516353989951, Q3 : -0.000117820476589, Q4 : -0.00215670210309}
2019-04-14 22:49:09.61: SIM {TimeUS : 53035444, Roll : 0.07, Pitch : 0.01, Yaw : 359.74, Alt : 48.8300018311, Lat : 49.2835703, Lng : -123.1150206, Q1 : 0.999997437, Q2 : 0.000611798430327, Q3 : 9.40834142966e-05, Q4 : -0.00218265736476}
2019-04-14 22:49:09.71: SIM {TimeUS : 53135404, Roll : 0.07, Pitch : 0.01, Yaw : 359.74, Alt : 48.8899993896, Lat : 49.2835703, Lng : -123.1150206, Q1 : 0.999997377396, Q2 : 0.000624564359896, Q3 : 0.000137741459184, Q4 : -0.00221043312922}
2019-04-14 22:49:09.81: SIM {TimeUS : 53235364, Roll : 0.05, Pitch : 0.0, Yaw : 359.74, Alt : 48.9399986267, Lat : 49.2835703, Lng : -123.1150207, Q1 : 0.999997377396, Q2 : 0.00049964041682, Q3 : -1.58018556249e-05, Q4 : -0.00223544822074}
2019-04-14 22:49:09.91: SIM {TimeUS : 53335324, Roll : 0.04, Pitch : -0.01, Yaw : 359.74, Alt : 48.9799995422, Lat : 49.2835703, Lng : -123.1150207, Q1 : 0.999997377396, Q2 : 0.00036108691711, Q3 : -0.00014553667279, Q4 : -0.00226466380991}
2019-04-14 22:49:10.01: SIM {TimeUS : 53435284, Roll : 0.12, Pitch : -0.07, Yaw : 359.73, Alt : 49.0200004578, Lat : 49.2835703, Lng : -123.1150207, Q1 : 0.999996542931, Q2 : 0.00107879540883, Q3 : -0.000680257100612, Q4 : -0.00229628616944}
2019-04-14 22:49:10.11: SIM {TimeUS : 53535244, Roll : 0.4, Pitch : -0.27, Yaw : 359.73, Alt : 49.0499992371, Lat : 49.2835703, Lng : -123.1150207, Q1 : 0.999988377094, Q2 : 0.00350029580295, Q3 : -0.00236528855748, Q4 : -0.0023231273517}
2019-04-14 22:49:10.21: SIM {TimeUS : 53635204, Roll : 0.91, Pitch : -0.61, Yaw : 359.72, Alt : 49.0800018311, Lat : 49.2835704, Lng : -123.1150207, Q1 : 0.999950945377, Q2 : 0.00796328019351, Q3 : -0.00540935341269, Q4 : -0.0023403360974}
2019-04-14 22:49:10.31: SIM {TimeUS : 53735164, Roll : 1.64, Pitch : -1.09, Yaw : 359.71, Alt : 49.1100006104, Lat : 49.2835704, Lng : -123.1150206, Q1 : 0.999848306179, Q2 : 0.0143468705937, Q3 : -0.00959283672273, Q4 : -0.00234245904721}
2019-04-14 22:49:10.41: SIM {TimeUS : 53835124, Roll : 2.51, Pitch : -1.66, Yaw : 359.69, Alt : 49.1300010681, Lat : 49.2835704, Lng : -123.1150206, Q1 : 0.999651134014, Q2 : 0.0218899473548, Q3 : -0.0146000673994, Q4 : -0.00231378944591}
2019-04-14 22:49:10.51: SIM {TimeUS : 53935084, Roll : 3.37, Pitch : -2.27, Yaw : 359.67, Alt : 49.1399993896, Lat : 49.2835704, Lng : -123.1150205, Q1 : 0.999366700649, Q2 : 0.0293929614127, Q3 : -0.0199314299971, Q4 : -0.00223257089965}
2019-04-14 22:49:10.61: SIM {TimeUS : 54035044, Roll : 4.08, Pitch : -2.8, Yaw : 359.66, Alt : 49.1599998474, Lat : 49.2835706, Lng : -123.1150203, Q1 : 0.999062299728, Q2 : 0.0355986990035, Q3 : -0.0245550591499, Q4 : -0.00208876957186}
2019-04-14 22:49:10.71: SIM {TimeUS : 54135004, Roll : 4.61, Pitch : -3.22, Yaw : 359.65, Alt : 49.1699981689, Lat : 49.2835707, Lng : -123.11502, Q1 : 0.998793542385, Q2 : 0.0401583686471, Q3 : -0.0282006114721, Q4 : -0.00189206143841}
2019-04-14 22:49:10.81: SIM {TimeUS : 54234964, Roll : 4.99, Pitch : -3.52, Yaw : 359.65, Alt : 49.1899986267, Lat : 49.2835709, Lng : -123.1150198, Q1 : 0.998575150967, Q2 : 0.043485160917, Q3 : -0.0308861825615, Q4 : -0.00164767890237}
2019-04-14 22:49:10.91: SIM {TimeUS : 54334924, Roll : 5.3, Pitch : -3.75, Yaw : 359.67, Alt : 49.2000007629, Lat : 49.283571, Lng : -123.1150193, Q1 : 0.998393714428, Q2 : 0.0461328960955, Q3 : -0.0328628495336, Q4 : -0.00135417340789}
2019-04-14 22:49:11.01: SIM {TimeUS : 54434884, Roll : 5.58, Pitch : -3.96, Yaw : 359.68, Alt : 49.2099990845, Lat : 49.2835714, Lng : -123.1150188, Q1 : 0.998215198517, Q2 : 0.0485895909369, Q3 : -0.0347047783434, Q4 : -0.00105290720239}
2019-04-14 22:49:11.11: SIM {TimeUS : 54534844, Roll : 5.89, Pitch : -4.17, Yaw : 359.69, Alt : 49.2099990845, Lat : 49.2835715, Lng : -123.1150182, Q1 : 0.998015880585, Q2 : 0.0512712709606, Q3 : -0.036536924541, Q4 : -0.000748633465264}
2019-04-14 22:49:11.21: SIM {TimeUS : 54634804, Roll : 6.2, Pitch : -4.38, Yaw : 359.7, Alt : 49.2200012207, Lat : 49.283572, Lng : -123.1150174, Q1 : 0.997808098793, Q2 : 0.0539476834238, Q3 : -0.0383210256696, Q4 : -0.000457334826933}
2019-04-14 22:49:11.31: SIM {TimeUS : 54734764, Roll : 6.45, Pitch : -4.57, Yaw : 359.71, Alt : 49.2299995422, Lat : 49.2835722, Lng : -123.1150166, Q1 : 0.997619450092, Q2 : 0.0561807490885, Q3 : -0.0399883314967, Q4 : -0.000209946898394}
2019-04-14 22:49:11.41: SIM {TimeUS : 54834724, Roll : 6.66, Pitch : -4.73, Yaw : 359.72, Alt : 49.2299995422, Lat : 49.2835727, Lng : -123.1150157, Q1 : 0.997461378574, Q2 : 0.057965438813, Q3 : -0.0413627438247, Q4 : -1.23818181237e-05}
2019-04-14 22:49:11.52: SIM {TimeUS : 54935517, Roll : 6.83, Pitch : -4.84, Yaw : 359.72, Alt : 49.2400016785, Lat : 49.2835732, Lng : -123.1150147, Q1 : 0.997334003448, Q2 : 0.0594244264066, Q3 : -0.042350359261, Q4 : 0.000150422885781}
2019-04-14 22:49:11.61: SIM {TimeUS : 55035477, Roll : 6.94, Pitch : -4.9, Yaw : 359.73, Alt : 49.2400016785, Lat : 49.2835737, Lng : -123.1150136, Q1 : 0.997251808643, Q2 : 0.0604413598776, Q3 : -0.0428448617458, Q4 : 0.000285276968498}
2019-04-14 22:49:11.71: SIM {TimeUS : 55135437, Roll : 7.04, Pitch : -4.94, Yaw : 359.73, Alt : 49.25, Lat : 49.2835743, Lng : -123.1150124, Q1 : 0.997185647488, Q2 : 0.0612573288381, Q3 : -0.0432234406471, Q4 : 0.00036448444007}
2019-04-14 22:49:11.81: SIM {TimeUS : 55235397, Roll : 7.19, Pitch : -4.98, Yaw : 359.74, Alt : 49.25, Lat : 49.2835749, Lng : -123.1150111, Q1 : 0.997087359428, Q2 : 0.0625979080796, Q3 : -0.0435660555959, Q4 : 0.000552302168217}
2019-04-14 22:49:11.91: SIM {TimeUS : 55335357, Roll : 7.57, Pitch : -4.87, Yaw : 0.06, Alt : 49.25, Lat : 49.2835755, Lng : -123.1150096, Q1 : 0.996911525726, Q2 : 0.0660218298435, Q3 : -0.0423942096531, Q4 : 0.00336336065084}
2019-04-14 22:49:12.01: SIM {TimeUS : 55435317, Roll : 8.16, Pitch : -4.66, Yaw : 1.32, Alt : 49.2599983215, Lat : 49.2835762, Lng : -123.1150083, Q1 : 0.996532857418, Q2 : 0.0716374590993, Q3 : -0.0397873558104, Q4 : 0.0143995685503}
2019-04-14 22:49:12.11: SIM {TimeUS : 55535277, Roll : 8.74, Pitch : -4.72, Yaw : 4.06, Alt : 49.2599983215, Lat : 49.2835768, Lng : -123.1150067, Q1 : 0.995506048203, Q2 : 0.0775571167469, Q3 : -0.0383427254856, Q4 : 0.0385033935308}
2019-04-14 22:49:12.21: SIM {TimeUS : 55635237, Roll : 9.04, Pitch : -5.26, Yaw : 8.38, Alt : 49.2599983215, Lat : 49.2835775, Lng : -123.1150051, Q1 : 0.992903470993, Q2 : 0.0818895027041, Q3 : -0.0399001650512, Q4 : 0.0764514952898}
2019-04-14 22:49:12.31: SIM {TimeUS : 55735197, Roll : 8.88, Pitch : -6.31, Yaw : 14.11, Alt : 49.2599983215, Lat : 49.2835782, Lng : -123.1150033, Q1 : 0.987415015697, Q2 : 0.0835292339325, Q3 : -0.0450313799083, Q4 : 0.126517310739}
2019-04-14 22:49:12.41: SIM {TimeUS : 55835157, Roll : 8.14, Pitch : -7.74, Yaw : 20.99, Alt : 49.2599983215, Lat : 49.2835789, Lng : -123.1150014, Q1 : 0.977672576904, Q2 : 0.0819435790181, Q3 : -0.0533598773181, Q4 : 0.185995519161}
2019-04-14 22:49:12.51: SIM {TimeUS : 55935117, Roll : 6.77, Pitch : -9.33, Yaw : 28.77, Alt : 49.2700004578, Lat : 49.2835797, Lng : -123.1149993, Q1 : 0.962545573711, Q2 : 0.07723967731, Q3 : -0.0640832036734, Q4 : 0.251859843731}
2019-04-14 22:49:12.61: SIM {TimeUS : 56035077, Roll : 4.84, Pitch : -10.85, Yaw : 37.2, Alt : 49.2700004578, Lat : 49.2835805, Lng : -123.1149972, Q1 : 0.941396176815, Q2 : 0.070013999939, Q3 : -0.0761479213834, Q4 : 0.321049630642}
2019-04-14 22:49:12.71: SIM {TimeUS : 56135037, Roll : 2.32, Pitch : -12.1, Yaw : 45.95, Alt : 49.2700004578, Lat : 49.2835812, Lng : -123.114995, Q1 : 0.914510607719, Q2 : 0.0597080104053, Q3 : -0.0891903713346, Q4 : 0.390064567327}
2019-04-14 22:49:12.81: SIM {TimeUS : 56234997, Roll : -0.77, Pitch : -12.88, Yaw : 54.33, Alt : 49.2700004578, Lat : 49.2835822, Lng : -123.1149926, Q1 : 0.884365081787, Q2 : 0.0452819727361, Q3 : -0.102908656001, Q4 : 0.453053802252}
2019-04-14 22:49:12.91: SIM {TimeUS : 56334957, Roll : -3.91, Pitch : -13.12, Yaw : 61.46, Alt : 49.2700004578, Lat : 49.2835831, Lng : -123.1149902, Q1 : 0.855445086956, Q2 : 0.0291601289064, Q3 : -0.115518048406, Q4 : 0.504002988338}
2019-04-14 22:49:13.01: SIM {TimeUS : 56434917, Roll : -6.45, Pitch : -12.96, Yaw : 66.67, Alt : 49.2700004578, Lat : 49.2835841, Lng : -123.1149877, Q1 : 0.832302689552, Q2 : 0.0151799339801, Q3 : -0.124892711639, Q4 : 0.539855182171}
2019-04-14 22:49:13.11: SIM {TimeUS : 56534877, Roll : -7.97, Pitch : -12.69, Yaw : 69.77, Alt : 49.2700004578, Lat : 49.2835852, Lng : -123.1149852, Q1 : 0.817647278309, Q2 : 0.00643360428512, Q3 : -0.129988417029, Q4 : 0.560815989971}
2019-04-14 22:49:13.21: SIM {TimeUS : 56634837, Roll : -8.4, Pitch : -12.56, Yaw : 70.96, Alt : 49.2700004578, Lat : 49.2835865, Lng : -123.1149826, Q1 : 0.811865091324, Q2 : 0.00408364273608, Q3 : -0.131144091487, Q4 : 0.568910956383}
2019-04-14 22:49:13.31: SIM {TimeUS : 56734797, Roll : -7.89, Pitch : -12.7, Yaw : 70.57, Alt : 49.2700004578, Lat : 49.2835878, Lng : -123.1149799, Q1 : 0.813737511635, Q2 : 0.00793473143131, Q3 : -0.1295915097, Q4 : 0.566546022892}
2019-04-14 22:49:13.41: SIM {TimeUS : 56834757, Roll : -6.68, Pitch : -13.12, Yaw : 68.96, Alt : 49.2700004578, Lat : 49.2835891, Lng : -123.1149772, Q1 : 0.821289181709, Q2 : 0.0168233811855, Q3 : -0.126811698079, Q4 : 0.555985510349}
2019-04-14 22:49:13.51: SIM {TimeUS : 56934717, Roll : -5.04, Pitch : -13.73, Yaw : 66.48, Alt : 49.2700004578, Lat : 49.2835908, Lng : -123.1149745, Q1 : 0.832441627979, Q2 : 0.0289852879941, Q3 : -0.123883210123, Q4 : 0.539308547974}
2019-04-14 22:49:13.62: SIM {TimeUS : 57035510, Roll : -3.15, Pitch : -14.44, Yaw : 63.42, Alt : 49.2799987793, Lat : 49.2835922, Lng : -123.1149716, Q1 : 0.845426678658, Q2 : 0.0428555160761, Q3 : -0.121272414923, Q4 : 0.51837259531}
2019-04-14 22:49:13.71: SIM {TimeUS : 57135470, Roll : -1.24, Pitch : -15.08, Yaw : 60.16, Alt : 49.2799987793, Lat : 49.2835939, Lng : -123.1149687, Q1 : 0.858489215374, Q2 : 0.0564773529768, Q3 : -0.118982605636, Q4 : 0.49563062191}
2019-04-14 22:49:13.81: SIM {TimeUS : 57235430, Roll : 0.51, Pitch : -15.55, Yaw : 56.98, Alt : 49.2799987793, Lat : 49.2835956, Lng : -123.1149657, Q1 : 0.870476424694, Q2 : 0.0684663280845, Q3 : -0.116822578013, Q4 : 0.473218411207}
2019-04-14 22:49:13.91: SIM {TimeUS : 57335390, Roll : 1.96, Pitch : -15.8, Yaw : 54.23, Alt : 49.2799987793, Lat : 49.2835971, Lng : -123.1149625, Q1 : 0.880426943302, Q2 : 0.0777969136834, Q3 : -0.114601790905, Q4 : 0.453500241041}
2019-04-14 22:49:14.01: SIM {TimeUS : 57435350, Roll : 2.99, Pitch : -15.87, Yaw : 52.13, Alt : 49.2799987793, Lat : 49.2835989, Lng : -123.1149592, Q1 : 0.88779103756, Q2 : 0.0839171782136, Q3 : -0.112639814615, Q4 : 0.438288956881}
2019-04-14 22:49:14.11: SIM {TimeUS : 57535310, Roll : 3.54, Pitch : -15.84, Yaw : 50.81, Alt : 49.2799987793, Lat : 49.2836006, Lng : -123.1149558, Q1 : 0.892403483391, Q2 : 0.0867927744985, Q3 : -0.111246950924, Q4 : 0.42861071229}
2019-04-14 22:49:14.21: SIM {TimeUS : 57635270, Roll : 3.63, Pitch : -15.78, Yaw : 50.29, Alt : 49.2799987793, Lat : 49.2836023, Lng : -123.1149523, Q1 : 0.894358873367, Q2 : 0.0867550447583, Q3 : -0.110859580338, Q4 : 0.424624443054}
2019-04-14 22:49:14.31: SIM {TimeUS : 57735230, Roll : 3.31, Pitch : -15.76, Yaw : 50.47, Alt : 49.2799987793, Lat : 49.2836038, Lng : -123.1149486, Q1 : 0.893924295902, Q2 : 0.0843829885125, Q3 : -0.111741483212, Q4 : 0.425784826279}
2019-04-14 22:49:14.41: SIM {TimeUS : 57835190, Roll : 2.7, Pitch : -15.8, Yaw : 51.23, Alt : 49.2799987793, Lat : 49.2836055, Lng : -123.1149449, Q1 : 0.891486763954, Q2 : 0.0805312767625, Q3 : -0.113858766854, Q4 : 0.431047856808}
2019-04-14 22:49:14.51: SIM {TimeUS : 57935150, Roll : 1.91, Pitch : -15.93, Yaw : 52.37, Alt : 49.2799987793, Lat : 49.2836073, Lng : -123.1149409, Q1 : 0.887544631958, Q2 : 0.075990088284, Q3 : -0.11708573997, Q4 : 0.439068317413}
2019-04-14 22:49:14.61: SIM {TimeUS : 58035110, Roll : 1.04, Pitch : -16.1, Yaw : 53.71, Alt : 49.2799987793, Lat : 49.283609, Lng : -123.1149371, Q1 : 0.882719874382, Q2 : 0.0713003575802, Q3 : -0.120888464153, Q4 : 0.448450565338}
2019-04-14 22:49:14.71: SIM {TimeUS : 58135070, Roll : 0.19, Pitch : -16.27, Yaw : 55.07, Alt : 49.2900009155, Lat : 49.2836108, Lng : -123.114933, Q1 : 0.877662718296, Q2 : 0.06689684093, Q3 : -0.12470638752, Q4 : 0.457909703255}
2019-04-14 22:49:14.81: SIM {TimeUS : 58235030, Roll : -0.54, Pitch : -16.38, Yaw : 56.3, Alt : 49.2900009155, Lat : 49.2836126, Lng : -123.114929, Q1 : 0.873004317284, Q2 : 0.0631007701159, Q3 : -0.127808839083, Q4 : 0.466418981552}
2019-04-14 22:49:14.91: SIM {TimeUS : 58334990, Roll : -1.07, Pitch : -16.43, Yaw : 57.28, Alt : 49.2900009155, Lat : 49.2836144, Lng : -123.1149249, Q1 : 0.869204461575, Q2 : 0.0603796429932, Q3 : -0.129877716303, Q4 : 0.473254412413}
2019-04-14 22:49:15.01: SIM {TimeUS : 58434950, Roll : -1.4, Pitch : -16.45, Yaw : 57.95, Alt : 49.2900009155, Lat : 49.2836162, Lng : -123.1149208, Q1 : 0.866573929787, Q2 : 0.0587112419307, Q3 : -0.131028741598, Q4 : 0.477947771549}
2019-04-14 22:49:15.11: SIM {TimeUS : 58534910, Roll : -1.51, Pitch : -16.46, Yaw : 58.29, Alt : 49.2900009155, Lat : 49.2836181, Lng : -123.1149165, Q1 : 0.86519831419, Q2 : 0.0582994818687, Q3 : -0.131399929523, Q4 : 0.480382233858}
2019-04-14 22:49:15.21: SIM {TimeUS : 58634870, Roll : -1.42, Pitch : -16.46, Yaw : 58.32, Alt : 49.2900009155, Lat : 49.28362, Lng : -123.1149123, Q1 : 0.865033447742, Q2 : 0.0590327419341, Q3 : -0.130979448557, Q4 : 0.480704337358}
2019-04-14 22:49:15.31: SIM {TimeUS : 58734830, Roll : -1.18, Pitch : -16.46, Yaw : 58.09, Alt : 49.2900009155, Lat : 49.2836219, Lng : -123.114908, Q1 : 0.865877985954, Q2 : 0.0605575293303, Q3 : -0.130160197616, Q4 : 0.479214429855}
2019-04-14 22:49:15.41: SIM {TimeUS : 58834790, Roll : -0.87, Pitch : -16.5, Yaw : 57.67, Alt : 49.2900009155, Lat : 49.2836238, Lng : -123.1149036, Q1 : 0.867431044579, Q2 : 0.0626088455319, Q3 : -0.129370465875, Q4 : 0.476347416639}
2019-04-14 22:49:15.51: SIM {TimeUS : 58934750, Roll : -0.53, Pitch : -16.57, Yaw : 57.13, Alt : 49.2900009155, Lat : 49.2836258, Lng : -123.1148993, Q1 : 0.869382321835, Q2 : 0.0648959055543, Q3 : -0.128751441836, Q4 : 0.472637206316}
2019-04-14 22:49:15.61: SIM {TimeUS : 59034710, Roll : -0.19, Pitch : -16.65, Yaw : 56.56, Alt : 49.2900009155, Lat : 49.2836279, Lng : -123.1148947, Q1 : 0.871440410614, Q2 : 0.0671822354198, Q3 : -0.12832967937, Q4 : 0.468625307083}
2019-04-14 22:49:15.72: SIM {TimeUS : 59135503, Roll : 0.11, Pitch : -16.72, Yaw : 56.02, Alt : 49.2900009155, Lat : 49.2836299, Lng : -123.1148903, Q1 : 0.873408317566, Q2 : 0.0691444501281, Q3 : -0.127902373672, Q4 : 0.464777290821}
2019-04-14 22:49:15.81: SIM {TimeUS : 59235463, Roll : 0.36, Pitch : -16.75, Yaw : 55.56, Alt : 49.2900009155, Lat : 49.283632, Lng : -123.1148858, Q1 : 0.875058591366, Q2 : 0.0706845596433, Q3 : -0.127475142479, Q4 : 0.461547702551}
2019-04-14 22:49:15.91: SIM {TimeUS : 59335423, Roll : 0.53, Pitch : -16.78, Yaw : 55.22, Alt : 49.2900009155, Lat : 49.283634, Lng : -123.1148812, Q1 : 0.876277685165, Q2 : 0.0717772766948, Q3 : -0.127191394567, Q4 : 0.459138035774}
2019-04-14 22:49:16.01: SIM {TimeUS : 59435383, Roll : 0.63, Pitch : -16.81, Yaw : 55.01, Alt : 49.2900009155, Lat : 49.283636, Lng : -123.1148766, Q1 : 0.877012252808, Q2 : 0.0724226981401, Q3 : -0.127140119672, Q4 : 0.457646042109}
2019-04-14 22:49:16.11: SIM {TimeUS : 59535343, Roll : 0.65, Pitch : -16.84, Yaw : 54.94, Alt : 49.2900009155, Lat : 49.2836382, Lng : -123.114872, Q1 : 0.877277493477, Q2 : 0.0725928395987, Q3 : -0.127344354987, Q4 : 0.457053512335}
2019-04-14 22:49:16.21: SIM {TimeUS : 59635303, Roll : 0.6, Pitch : -16.87, Yaw : 54.97, Alt : 49.2900009155, Lat : 49.2836402, Lng : -123.1148673, Q1 : 0.877127707005, Q2 : 0.0723820254207, Q3 : -0.127765908837, Q4 : 0.457256704569}
2019-04-14 22:49:16.31: SIM {TimeUS : 59735263, Roll : 0.49, Pitch : -16.9, Yaw : 55.1, Alt : 49.2900009155, Lat : 49.2836422, Lng : -123.1148626, Q1 : 0.876671493053, Q2 : 0.0717978030443, Q3 : -0.1283313483, Q4 : 0.458064645529}
2019-04-14 22:49:16.41: SIM {TimeUS : 59835223, Roll : 0.35, Pitch : -16.93, Yaw : 55.28, Alt : 49.2900009155, Lat : 49.2836444, Lng : -123.1148578, Q1 : 0.875998735428, Q2 : 0.0710237175226, Q3 : -0.129021793604, Q4 : 0.459276914597}
2019-04-14 22:49:16.51: SIM {TimeUS : 59935183, Roll : 0.19, Pitch : -16.97, Yaw : 55.49, Alt : 49.2999992371, Lat : 49.2836466, Lng : -123.114853, Q1 : 0.875217318535, Q2 : 0.0702102780342, Q3 : -0.129824370146, Q4 : 0.460663497448}
2019-04-14 22:49:16.61: SIM {TimeUS : 60035143, Roll : 0.04, Pitch : -17.01, Yaw : 55.69, Alt : 49.2999992371, Lat : 49.2836487, Lng : -123.1148482, Q1 : 0.874439537525, Q2 : 0.0694598406553, Q3 : -0.130643501878, Q4 : 0.46202069521}
2019-04-14 22:49:16.71: SIM {TimeUS : 60135103, Roll : -0.09, Pitch : -17.05, Yaw : 55.86, Alt : 49.2999992371, Lat : 49.2836507, Lng : -123.1148434, Q1 : 0.873768627644, Q2 : 0.0687500238419, Q3 : -0.131393417716, Q4 : 0.463181972504}
2019-04-14 22:49:16.81: SIM {TimeUS : 60235063, Roll : -0.2, Pitch : -17.07, Yaw : 56.0, Alt : 49.2999992371, Lat : 49.2836529, Lng : -123.1148385, Q1 : 0.873278677464, Q2 : 0.0681031867862, Q3 : -0.131930589676, Q4 : 0.464048117399}
2019-04-14 22:49:16.91: SIM {TimeUS : 60335023, Roll : -0.29, Pitch : -17.1, Yaw : 56.08, Alt : 49.2999992371, Lat : 49.2836551, Lng : -123.1148336, Q1 : 0.872972548008, Q2 : 0.067689627409, Q3 : -0.132411256433, Q4 : 0.464547395706}
2019-04-14 22:49:17.01: SIM {TimeUS : 60434983, Roll : -0.31, Pitch : -17.13, Yaw : 56.1, Alt : 49.2999992371, Lat : 49.2836572, Lng : -123.1148287, Q1 : 0.872843027115, Q2 : 0.0676980763674, Q3 : -0.132753267884, Q4 : 0.464691966772}
2019-04-14 22:49:17.11: SIM {TimeUS : 60534943, Roll : -0.28, Pitch : -17.17, Yaw : 56.08, Alt : 49.2999992371, Lat : 49.2836594, Lng : -123.1148238, Q1 : 0.872882783413, Q2 : 0.068031989038, Q3 : -0.132975399494, Q4 : 0.464505046606}
2019-04-14 22:49:17.21: SIM {TimeUS : 60634903, Roll : -0.2, Pitch : -17.22, Yaw : 56.01, Alt : 49.2999992371, Lat : 49.2836615, Lng : -123.1148188, Q1 : 0.87305688858, Q2 : 0.0687080919743, Q3 : -0.133023202419, Q4 : 0.46406430006}
2019-04-14 22:49:17.31: SIM {TimeUS : 60734863, Roll : -0.1, Pitch : -17.26, Yaw : 55.92, Alt : 49.2999992371, Lat : 49.2836638, Lng : -123.1148138, Q1 : 0.873323500156, Q2 : 0.0695815309882, Q3 : -0.132995486259, Q4 : 0.463440090418}
2019-04-14 22:49:17.41: SIM {TimeUS : 60834823, Roll : 0.0, Pitch : -17.29, Yaw : 55.81, Alt : 49.3100013733, Lat : 49.2836661, Lng : -123.1148089, Q1 : 0.873671233654, Q2 : 0.070314668119, Q3 : -0.132935985923, Q4 : 0.462690532207}
2019-04-14 22:49:17.51: SIM {TimeUS : 60934783, Roll : 0.05, Pitch : -17.3, Yaw : 55.7, Alt : 49.3100013733, Lat : 49.2836682, Lng : -123.1148038, Q1 : 0.874068975449, Q2 : 0.0707217156887, Q3 : -0.132827758789, Q4 : 0.461907714605}
2019-04-14 22:49:17.61: SIM {TimeUS : 61034743, Roll : 0.08, Pitch : -17.31, Yaw : 55.59, Alt : 49.3100013733, Lat : 49.2836705, Lng : -123.1147988, Q1 : 0.874462485313, Q2 : 0.0708503723145, Q3 : -0.132793098688, Q4 : 0.461152404547}
2019-04-14 22:49:17.71: SIM {TimeUS : 61134703, Roll : 0.12, Pitch : -17.31, Yaw : 55.5, Alt : 49.3100013733, Lat : 49.2836728, Lng : -123.1147938, Q1 : 0.874790251255, Q2 : 0.0710598379374, Q3 : -0.132738888264, Q4 : 0.46051377058}
2019-04-14 22:49:17.82: SIM {TimeUS : 61235496, Roll : 0.15, Pitch : -17.33, Yaw : 55.43, Alt : 49.3100013733, Lat : 49.2836749, Lng : -123.1147886, Q1 : 0.875030100346, Q2 : 0.0713005065918, Q3 : -0.132752776146, Q4 : 0.460016638041}
2019-04-14 22:49:17.91: SIM {TimeUS : 61335456, Roll : 0.19, Pitch : -17.36, Yaw : 55.39, Alt : 49.3100013733, Lat : 49.2836773, Lng : -123.1147836, Q1 : 0.875149965286, Q2 : 0.0716431960464, Q3 : -0.132915660739, Q4 : 0.459688216448}
2019-04-14 22:49:18.01: SIM {TimeUS : 61435416, Roll : 0.21, Pitch : -17.42, Yaw : 55.37, Alt : 49.3100013733, Lat : 49.2836796, Lng : -123.1147785, Q1 : 0.875165462494, Q2 : 0.071990840137, Q3 : -0.1332719028, Q4 : 0.459501236677}
2019-04-14 22:49:18.11: SIM {TimeUS : 61535376, Roll : 0.21, Pitch : -17.46, Yaw : 55.36, Alt : 49.3100013733, Lat : 49.2836817, Lng : -123.1147733, Q1 : 0.875138282776, Q2 : 0.0721236392856, Q3 : -0.133563920856, Q4 : 0.459447354078}
2019-04-14 22:49:18.21: SIM {TimeUS : 61635336, Roll : 0.19, Pitch : -17.46, Yaw : 55.37, Alt : 49.3100013733, Lat : 49.283684, Lng : -123.1147682, Q1 : 0.875095129013, Q2 : 0.0720621645451, Q3 : -0.133667588234, Q4 : 0.459509044886}
2019-04-14 22:49:18.31: SIM {TimeUS : 61735296, Roll : 0.17, Pitch : -17.47, Yaw : 55.39, Alt : 49.3100013733, Lat : 49.2836864, Lng : -123.114763, Q1 : 0.875023007393, Q2 : 0.071948453784, Q3 : -0.133791998029, Q4 : 0.459628015757}
2019-04-14 22:49:18.41: SIM {TimeUS : 61835256, Roll : 0.13, Pitch : -17.49, Yaw : 55.41, Alt : 49.3100013733, Lat : 49.2836887, Lng : -123.1147579, Q1 : 0.874934315681, Q2 : 0.0717319026589, Q3 : -0.134101748466, Q4 : 0.459740370512}
2019-04-14 22:49:18.51: SIM {TimeUS : 61935216, Roll : 0.1, Pitch : -17.51, Yaw : 55.44, Alt : 49.3100013733, Lat : 49.283691, Lng : -123.1147527, Q1 : 0.874845206738, Q2 : 0.0716019570827, Q3 : -0.134375452995, Q4 : 0.459850251675}
2019-04-14 22:49:18.61: SIM {TimeUS : 62035176, Roll : 0.07, Pitch : -17.53, Yaw : 55.45, Alt : 49.3199996948, Lat : 49.2836932, Lng : -123.1147475, Q1 : 0.874781191349, Q2 : 0.0715023949742, Q3 : -0.134636834264, Q4 : 0.459911048412}
2019-04-14 22:49:18.71: SIM {TimeUS : 62135136, Roll : 0.06, Pitch : -17.55, Yaw : 55.45, Alt : 49.3199996948, Lat : 49.2836955, Lng : -123.1147423, Q1 : 0.874749004841, Q2 : 0.0714562386274, Q3 : -0.134817779064, Q4 : 0.459926515818}
2019-04-14 22:49:18.81: SIM {TimeUS : 62235096, Roll : 0.06, Pitch : -17.57, Yaw : 55.45, Alt : 49.3199996948, Lat : 49.2836979, Lng : -123.1147371, Q1 : 0.874743819237, Q2 : 0.0715206861496, Q3 : -0.134952649474, Q4 : 0.45988675952}
2019-04-14 22:49:18.91: SIM {TimeUS : 62335056, Roll : 0.07, Pitch : -17.58, Yaw : 55.44, Alt : 49.3199996948, Lat : 49.2837002, Lng : -123.1147318, Q1 : 0.874768197536, Q2 : 0.0716776624322, Q3 : -0.135001689196, Q4 : 0.459801584482}
2019-04-14 22:49:19.01: SIM {TimeUS : 62435016, Roll : 0.1, Pitch : -17.6, Yaw : 55.42, Alt : 49.3199996948, Lat : 49.2837024, Lng : -123.1147266, Q1 : 0.874800980091, Q2 : 0.0719569995999, Q3 : -0.135033592582, Q4 : 0.459686130285}
2019-04-14 22:49:19.11: SIM {TimeUS : 62534976, Roll : 0.13, Pitch : -17.63, Yaw : 55.4, Alt : 49.3199996948, Lat : 49.2837048, Lng : -123.1147214, Q1 : 0.874842464924, Q2 : 0.0722718015313, Q3 : -0.135147973895, Q4 : 0.459524214268}
2019-04-14 22:49:19.21: SIM {TimeUS : 62634936, Roll : 0.14, Pitch : -17.66, Yaw : 55.37, Alt : 49.3199996948, Lat : 49.2837071, Lng : -123.1147161, Q1 : 0.874905586243, Q2 : 0.0724747404456, Q3 : -0.135405212641, Q4 : 0.459296315908}
2019-04-14 22:49:19.31: SIM {TimeUS : 62734896, Roll : 0.14, Pitch : -17.71, Yaw : 55.34, Alt : 49.3199996948, Lat : 49.2837095, Lng : -123.1147108, Q1 : 0.874975264072, Q2 : 0.0725956782699, Q3 : -0.135747790337, Q4 : 0.459043294191}
2019-04-14 22:49:19.41: SIM {TimeUS : 62834856, Roll : 0.13, Pitch : -17.75, Yaw : 55.31, Alt : 49.3199996948, Lat : 49.2837119, Lng : -123.1147055, Q1 : 0.875046849251, Q2 : 0.0726569965482, Q3 : -0.136122971773, Q4 : 0.458785921335}
2019-04-14 22:49:19.51: SIM {TimeUS : 62934816, Roll : 0.13, Pitch : -17.78, Yaw : 55.28, Alt : 49.3199996948, Lat : 49.2837142, Lng : -123.1147002, Q1 : 0.875118970871, Q2 : 0.0727621167898, Q3 : -0.136349141598, Q4 : 0.458564519882}
2019-04-14 22:49:19.61: SIM {TimeUS : 63034776, Roll : 0.14, Pitch : -17.78, Yaw : 55.26, Alt : 49.3199996948, Lat : 49.2837166, Lng : -123.1146949, Q1 : 0.875209212303, Q2 : 0.0728208124638, Q3 : -0.136383444071, Q4 : 0.458372682333}
2019-04-14 22:49:19.71: SIM {TimeUS : 63134736, Roll : 0.16, Pitch : -17.76, Yaw : 55.23, Alt : 49.3199996948, Lat : 49.283719, Lng : -123.1146896, Q1 : 0.875313282013, Q2 : 0.0728528723121, Q3 : -0.136189043522, Q4 : 0.458226650953}
2019-04-14 22:49:19.81: SIM {TimeUS : 63234696, Roll : 0.16, Pitch : -17.75, Yaw : 55.22, Alt : 49.3199996948, Lat : 49.2837212, Lng : -123.1146843, Q1 : 0.875406563282, Q2 : 0.072762362659, Q3 : -0.136051207781, Q4 : 0.458103835583}
2019-04-14 22:49:19.91: SIM {TimeUS : 63335489, Roll : 0.15, Pitch : -17.73, Yaw : 55.2, Alt : 49.3199996948, Lat : 49.2837236, Lng : -123.1146789, Q1 : 0.875489652157, Q2 : 0.0726270228624, Q3 : -0.135936081409, Q4 : 0.458000659943}
2019-04-14 22:49:20.01: SIM {TimeUS : 63435449, Roll : 0.15, Pitch : -17.71, Yaw : 55.19, Alt : 49.3199996948, Lat : 49.283726, Lng : -123.1146735, Q1 : 0.875555157661, Q2 : 0.0724962800741, Q3 : -0.135814443231, Q4 : 0.457932263613}
2019-04-14 22:49:20.11: SIM {TimeUS : 63535409, Roll : 0.14, Pitch : -17.72, Yaw : 55.18, Alt : 49.3300018311, Lat : 49.2837284, Lng : -123.1146682, Q1 : 0.875580370426, Q2 : 0.0724482089281, Q3 : -0.135924354196, Q4 : 0.4578589499}
2019-04-14 22:49:20.21: SIM {TimeUS : 63635369, Roll : 0.14, Pitch : -17.73, Yaw : 55.18, Alt : 49.3300018311, Lat : 49.2837308, Lng : -123.1146628, Q1 : 0.875587701797, Q2 : 0.0724911913276, Q3 : -0.136083483696, Q4 : 0.457790941}
2019-04-14 22:49:20.31: SIM {TimeUS : 63735329, Roll : 0.13, Pitch : -17.78, Yaw : 55.17, Alt : 49.3300018311, Lat : 49.2837332, Lng : -123.1146574, Q1 : 0.875560820103, Q2 : 0.0726088508964, Q3 : -0.13649019599, Q4 : 0.457702547312}
2019-04-14 22:49:20.41: SIM {TimeUS : 63835289, Roll : 0.13, Pitch : -17.84, Yaw : 55.16, Alt : 49.3300018311, Lat : 49.2837356, Lng : -123.1146521, Q1 : 0.875524103642, Q2 : 0.0728189572692, Q3 : -0.136925950646, Q4 : 0.457609325647}
2019-04-14 22:49:20.51: SIM {TimeUS : 63935249, Roll : 0.14, Pitch : -17.88, Yaw : 55.15, Alt : 49.3300018311, Lat : 49.283738, Lng : -123.1146467, Q1 : 0.875504434109, Q2 : 0.073065340519, Q3 : -0.137198790908, Q4 : 0.457525938749}
2019-04-14 22:49:20.61: SIM {TimeUS : 64035209, Roll : 0.14, Pitch : -17.91, Yaw : 55.14, Alt : 49.3300018311, Lat : 49.2837404, Lng : -123.1146413, Q1 : 0.875505208969, Q2 : 0.0731989070773, Q3 : -0.137447148561, Q4 : 0.457428514957}
2019-04-14 22:49:20.71: SIM {TimeUS : 64135169, Roll : 0.14, Pitch : -17.93, Yaw : 55.13, Alt : 49.3300018311, Lat : 49.2837428, Lng : -123.1146359, Q1 : 0.875525534153, Q2 : 0.0732519924641, Q3 : -0.13762062788, Q4 : 0.457328945398}
2019-04-14 22:49:20.81: SIM {TimeUS : 64235129, Roll : 0.15, Pitch : -17.92, Yaw : 55.12, Alt : 49.3300018311, Lat : 49.2837452, Lng : -123.1146305, Q1 : 0.875573813915, Q2 : 0.0733064413071, Q3 : -0.137502342463, Q4 : 0.457263350487}
2019-04-14 22:49:20.91: SIM {TimeUS : 64335089, Roll : 0.17, Pitch : -17.93, Yaw : 55.11, Alt : 49.3300018311, Lat : 49.2837476, Lng : -123.114625, Q1 : 0.875611782074, Q2 : 0.07346534729, Q3 : -0.137450680137, Q4 : 0.457180678844}
2019-04-14 22:49:21.01: SIM {TimeUS : 64435049, Roll : 0.18, Pitch : -17.94, Yaw : 55.09, Alt : 49.3300018311, Lat : 49.28375, Lng : -123.1146196, Q1 : 0.875653624535, Q2 : 0.0735271945596, Q3 : -0.137524217367, Q4 : 0.457068473101}
2019-04-14 22:49:21.11: SIM {TimeUS : 64535009, Roll : 0.18, Pitch : -17.95, Yaw : 55.08, Alt : 49.3300018311, Lat : 49.2837525, Lng : -123.1146142, Q1 : 0.875698506832, Q2 : 0.0735603049397, Q3 : -0.137614861131, Q4 : 0.456949770451}
2019-04-14 22:49:21.21: SIM {TimeUS : 64634969, Roll : 0.18, Pitch : -17.95, Yaw : 55.06, Alt : 49.3300018311, Lat : 49.2837549, Lng : -123.1146088, Q1 : 0.875753700733, Q2 : 0.073572255671, Q3 : -0.1376106143, Q4 : 0.45684337616}
2019-04-14 22:49:21.31: SIM {TimeUS : 64734929, Roll : 0.19, Pitch : -17.95, Yaw : 55.05, Alt : 49.3300018311, Lat : 49.2837573, Lng : -123.1146033, Q1 : 0.87580537796, Q2 : 0.0735878050327, Q3 : -0.137622982264, Q4 : 0.456738114357}
2019-04-14 22:49:21.41: SIM {TimeUS : 64834889, Roll : 0.17, Pitch : -17.97, Yaw : 55.04, Alt : 49.3300018311, Lat : 49.2837597, Lng : -123.1145979, Q1 : 0.875841259956, Q2 : 0.0735558122396, Q3 : -0.137861952186, Q4 : 0.456602334976}
2019-04-14 22:49:21.51: SIM {TimeUS : 64934849, Roll : 0.14, Pitch : -18.01, Yaw : 55.02, Alt : 49.3300018311, Lat : 49.2837622, Lng : -123.1145924, Q1 : 0.875862240791, Q2 : 0.0734712928534, Q3 : -0.138287708163, Q4 : 0.456447005272}
2019-04-14 22:49:21.61: SIM {TimeUS : 65034809, Roll : 0.13, Pitch : -18.02, Yaw : 55.01, Alt : 49.3400001526, Lat : 49.2837646, Lng : -123.114587, Q1 : 0.875909626484, Q2 : 0.0733524858952, Q3 : -0.138408854604, Q4 : 0.456338435411}
2019-04-14 22:49:21.71: SIM {TimeUS : 65134769, Roll : 0.14, Pitch : -18.0, Yaw : 55.0, Alt : 49.3400001526, Lat : 49.283767, Lng : -123.1145815, Q1 : 0.875968039036, Q2 : 0.0733365342021, Q3 : -0.138242572546, Q4 : 0.456279247999}
2019-04-14 22:49:21.81: SIM {TimeUS : 65234729, Roll : 0.15, Pitch : -17.99, Yaw : 54.99, Alt : 49.3400001526, Lat : 49.2837695, Lng : -123.114576, Q1 : 0.876016497612, Q2 : 0.0733984187245, Q3 : -0.138073682785, Q4 : 0.456227332354}
2019-04-14 22:49:21.92: SIM {TimeUS : 65335522, Roll : 0.16, Pitch : -17.99, Yaw : 54.98, Alt : 49.3400001526, Lat : 49.2837719, Lng : -123.1145705, Q1 : 0.876046776772, Q2 : 0.0735020563006, Q3 : -0.138073325157, Q4 : 0.456152677536}
2019-04-14 22:49:22.01: SIM {TimeUS : 65435482, Roll : 0.15, Pitch : -18.01, Yaw : 54.97, Alt : 49.3400001526, Lat : 49.2837744, Lng : -123.114565, Q1 : 0.876080691814, Q2 : 0.0734529495239, Q3 : -0.138238504529, Q4 : 0.45604544878}
2019-04-14 22:49:22.11: SIM {TimeUS : 65535442, Roll : 0.13, Pitch : -18.03, Yaw : 54.96, Alt : 49.3400001526, Lat : 49.2837768, Lng : -123.1145595, Q1 : 0.876114845276, Q2 : 0.0733224526048, Q3 : -0.138483971357, Q4 : 0.455926269293}
2019-04-14 22:49:22.21: SIM {TimeUS : 65635402, Roll : 0.11, Pitch : -18.05, Yaw : 54.95, Alt : 49.3400001526, Lat : 49.2837793, Lng : -123.114554, Q1 : 0.876139163971, Q2 : 0.073288179934, Q3 : -0.138712659478, Q4 : 0.455815583467}
2019-04-14 22:49:22.31: SIM {TimeUS : 65735362, Roll : 0.12, Pitch : -18.07, Yaw : 54.94, Alt : 49.3400001526, Lat : 49.2837817, Lng : -123.1145485, Q1 : 0.876153171062, Q2 : 0.073410063982, Q3 : -0.13887783885, Q4 : 0.455718666315}
2019-04-14 22:49:22.41: SIM {TimeUS : 65835322, Roll : 0.13, Pitch : -18.09, Yaw : 54.93, Alt : 49.3400001526, Lat : 49.2837842, Lng : -123.114543, Q1 : 0.876164019108, Q2 : 0.0735656768084, Q3 : -0.139010101557, Q4 : 0.455632418394}
2019-04-14 22:49:22.51: SIM {TimeUS : 65935282, Roll : 0.15, Pitch : -18.11, Yaw : 54.91, Alt : 49.3400001526, Lat : 49.2837866, Lng : -123.1145375, Q1 : 0.876177191734, Q2 : 0.0737866684794, Q3 : -0.139023572206, Q4 : 0.455567330122}
2019-04-14 22:49:22.61: SIM {TimeUS : 66035242, Roll : 0.17, Pitch : -18.12, Yaw : 54.9, Alt : 49.3400001526, Lat : 49.2837891, Lng : -123.114532, Q1 : 0.876190841198, Q2 : 0.0739546492696, Q3 : -0.139074623585, Q4 : 0.455498188734}
2019-04-14 22:49:22.71: SIM {TimeUS : 66135202, Roll : 0.18, Pitch : -18.13, Yaw : 54.89, Alt : 49.3400001526, Lat : 49.2837915, Lng : -123.1145265, Q1 : 0.876203715801, Q2 : 0.0741119682789, Q3 : -0.13912768662, Q4 : 0.455431640148}
2019-04-14 22:49:22.81: SIM {TimeUS : 66235162, Roll : 0.2, Pitch : -18.15, Yaw : 54.89, Alt : 49.3400001526, Lat : 49.283794, Lng : -123.114521, Q1 : 0.87621062994, Q2 : 0.0742885991931, Q3 : -0.139155521989, Q4 : 0.455381035805}
