2019-04-15 00:31:31.90: SIM {TimeUS : 40316367, Roll : 0.0, Pitch : 0.0, Yaw : 0.0, Alt : 30.1000003815, Lat : 49.28357, Lng : -123.11502, Q1 : 1.0, Q2 : 0.0, Q3 : 0.0, Q4 : 0.0}
2019-04-15 00:31:32.01: SIM {TimeUS : 40435486, Roll : 0.0, Pitch : 0.0, Yaw : 0.0, Alt : 30.1000003815, Lat : 49.28357, Lng : -123.11502, Q1 : 1.0, Q2 : 0.0, Q3 : 0.0, Q4 : 0.0}
2019-04-15 00:31:32.11: SIM {TimeUS : 40535446, Roll : 0.0, Pitch : 0.0, Yaw : 0.0, Alt : 30.1000003815, Lat : 49.28357, Lng : -123.11502, Q1 : 1.0, Q2 : 0.0, Q3 : 0.0, Q4 : 0.0}
2019-04-15 00:31:32.21: SIM {TimeUS : 40635406, Roll : 0.0, Pitch : 0.0, Yaw : 0.0, Alt : 30.1000003815, Lat : 49.28357, Lng : -123.11502, Q1 : 1.0, Q2 : 0.0, Q3 : 0.0, Q4 : 0.0}
2019-04-15 00:31:32.31: SIM {TimeUS : 40735366, Roll : 0.0, Pitch : 0.0, Yaw : 0.0, Alt : 30.1000003815, Lat : 49.28357, Lng : -123.11502, Q1 : 1.0, Q2 : 0.0, Q3 : 0.0, Q4 : 0.0}
2019-04-15 00:31:32.41: SIM {TimeUS : 40835326, Roll : 0.0, Pitch : 0.0, Yaw : 0.0, Alt : 30.1000003815, Lat : 49.28357, Lng : -123.11502, Q1 : 1.0, Q2 : 0.0, Q3 : 0.0, Q4 : 0.0}
2019-04-15 00:31:32.51: SIM {TimeUS : 40935286, Roll : 0.0, Pitch : 0.0, Yaw : 0.0, Alt : 30.1000003815, Lat : 49.28357, Lng : -123.11502, Q1 : 1.0, Q2 : 0.0, Q3 : 0.0, Q4 : 0.0}
2019-04-15 00:31:32.61: SIM {TimeUS : 41035246, Roll : 0.0, Pitch : 0.0, Yaw : 0.0, Alt : 30.1000003815, Lat : 49.28357, Lng : -123.11502, Q1 : 1.0, Q2 : 0.0, Q3 : 0.0, Q4 : 0.0}
2019-04-15 00:31:32.71: SIM {TimeUS : 41135206, Roll : 0.0, Pitch : 0.0, Yaw : 0.0, Alt : 30.1000003815, Lat : 49.28357, Lng : -123.11502, Q1 : 1.0, Q2 : 0.0, Q3 : 0.0, Q4 : 0.0}
2019-04-15 00:31:32.81: SIM {TimeUS : 41235166, Roll : 0.0, Pitch : 0.0, Yaw : 0.0, Alt : 30.1000003815, Lat : 49.28357, Lng : -123.11502, Q1 : 1.0, Q2 : 0.0, Q3 : 0.0, Q4 : 0.0}
2019-04-15 00:31:32.91: SIM {TimeUS : 41335126, Roll : 0.0, Pitch : 0.0, Yaw : 0.0, Alt : 30.1000003815, Lat : 49.28357, Lng : -123.11502, Q1 : 1.0, Q2 : 0.0, Q3 : 0.0, Q4 : 0.0}
2019-04-15 00:31:33.01: SIM {TimeUS : 41435086, Roll : 0.0, Pitch : 0.0, Yaw : 0.0, Alt : 30.1000003815, Lat : 49.28357, Lng : -123.11502, Q1 : 1.0, Q2 : 0.0, Q3 : 0.0, Q4 : 0.0}
2019-04-15 00:31:33.11: SIM {TimeUS : 41535046, Roll : 0.0, Pitch : 0.0, Yaw : 0.0, Alt : 30.1000003815, Lat : 49.28357, Lng : -123.11502, Q1 : 1.0, Q2 : 0.0, Q3 : 0.0, Q4 : 0.0}
2019-04-15 00:31:33.21: SIM {TimeUS : 41635006, Roll : 0.0, Pitch : 0.0, Yaw : 0.0, Alt : 30.1000003815, Lat : 49.28357, Lng : -123.11502, Q1 : 1.0, Q2 : 0.0, Q3 : 0.0, Q4 : 0.0}
2019-04-15 00:31:33.31: SIM {TimeUS : 41734966, Roll : 0.0, Pitch : 0.0, Yaw : 0.0, Alt : 30.1000003815, Lat : 49.28357, Lng : -123.11502, Q1 : 1.0, Q2 : 0.0, Q3 : 0.0, Q4 : 0.0}
2019-04-15 00:31:33.41: SIM {TimeUS : 41834926, Roll : 0.0, Pitch : 0.0, Yaw : 0.0, Alt : 30.1000003815, Lat : 49.28357, Lng : -123.11502, Q1 : 1.0, Q2 : 0.0, Q3 : 0.0, Q4 : 0.0}
2019-04-15 00:31:33.51: SIM {TimeUS : 41934886, Roll : 0.0, Pitch : 0.0, Yaw : 0.0, Alt : 30.1000003815, Lat : 49.28357, Lng : -123.11502, Q1 : 1.0, Q2 : 0.0, Q3 : 0.0, Q4 : 0.0}
2019-04-15 00:31:33.61: SIM {TimeUS : 42034846, Roll : 0.0, Pitch : 0.0, Yaw : 0.0, Alt : 30.1000003815, Lat : 49.28357, Lng : -123.11502, Q1 : 1.0, Q2 : 0.0, Q3 : 0.0, Q4 : 0.0}
2019-04-15 00:31:33.71: SIM {TimeUS : 42134806, Roll : 0.0, Pitch : 0.0, Yaw : 0.0, Alt : 30.1000003815, Lat : 49.28357, Lng : -123.11502, Q1 : 1.0, Q2 : 0.0, Q3 : 0.0, Q4 : 0.0}
2019-04-15 00:31:33.81: SIM {TimeUS : 42234766, Roll : 0.0, Pitch : 0.0, Yaw : 0.0, Alt : 30.1000003815, Lat : 49.28357, Lng : -123.11502, Q1 : 1.0, Q2 : 0.0, Q3 : 0.0, Q4 : 0.0}
2019-04-15 00:31:33.91: SIM {TimeUS : 42334726, Roll : 0.0, Pitch : 0.0, Yaw : 0.0, Alt : 30.1000003815, Lat : 49.28357, Lng : -123.11502, Q1 : 1.0, Q2 : 0.0, Q3 : 0.0, Q4 : 0.0}
2019-04-15 00:31:34.02: SIM {TimeUS : 42435519, Roll : 0.0, Pitch : 0.0, Yaw : 0.0, Alt : 30.1000003815, Lat : 49.28357, Lng : -123.11502, Q1 : 1.0, Q2 : 0.0, Q3 : 0.0, Q4 : 0.0}
2019-04-15 00:31:34.11: SIM {TimeUS : 42535479, Roll : 0.0, Pitch : 0.0, Yaw : 0.0, Alt : 30.1000003815, Lat : 49.28357, Lng : -123.11502, Q1 : 1.0, Q2 : 0.0, Q3 : 0.0, Q4 : 0.0}
2019-04-15 00:31:34.21: SIM {TimeUS : 42635439, Roll : 0.0, Pitch : 0.0, Yaw : 360.0, Alt : 30.1000003815, Lat : 49.28357, Lng : -123.11502, Q1 : 1.0, Q2 : 0.0, Q3 : 0.0, Q4 : -7.26646824309e-12}
2019-04-15 00:31:34.31: SIM {TimeUS : 42735399, Roll : 0.0, Pitch : 0.0, Yaw : 0.0, Alt : 30.1000003815, Lat : 49.28357, Lng : -123.11502, Q1 : 1.0, Q2 : 0.0, Q3 : 0.0, Q4 : 2.12949782807e-10}
2019-04-15 00:31:34.41: SIM {TimeUS : 42835359, Roll : 0.0, Pitch : 0.0, Yaw : 360.0, Alt : 30.1000003815, Lat : 49.28357, Lng : -123.11502, Q1 : 1.0, Q2 : 0.0, Q3 : 0.0, Q4 : -1.12301528077e-07}
2019-04-15 00:31:34.51: SIM {TimeUS : 42935319, Roll : 0.0, Pitch : 0.0, Yaw : 359.99, Alt : 30.1000003815, Lat : 49.28357, Lng : -123.11502, Q1 : 1.0, Q2 : 0.0, Q3 : 0.0, Q4 : -3.06695568497e-07}
2019-04-15 00:31:34.61: SIM {TimeUS : 43035279, Roll : 0.0, Pitch : 0.0, Yaw : 359.99, Alt : 30.1000003815, Lat : 49.28357, Lng : -123.11502, Q1 : 1.0, Q2 : 0.0, Q3 : 0.0, Q4 : -5.10889378802e-07}
2019-04-15 00:31:34.71: SIM {TimeUS : 43135239, Roll : 0.0, Pitch : 0.0, Yaw : 359.99, Alt : 30.1000003815, Lat : 49.28357, Lng : -123.11502, Q1 : 1.0, Q2 : 0.0, Q3 : 0.0, Q4 : -7.12152086635e-07}
2019-04-15 00:31:34.81: SIM {TimeUS : 43235199, Roll : 0.0, Pitch : 0.0, Yaw : 359.99, Alt : 30.1000003815, Lat : 49.28357, Lng : -123.11502, Q1 : 1.0, Q2 : 0.0, Q3 : 0.0, Q4 : -8.89043462848e-07}
2019-04-15 00:31:34.91: SIM {TimeUS : 43335159, Roll : 0.0, Pitch : 0.0, Yaw : 359.99, Alt : 30.1000003815, Lat : 49.28357, Lng : -123.11502, Q1 : 1.0, Q2 : 0.0, Q3 : 0.0, Q4 : -1.1217194924e-06}
2019-04-15 00:31:35.01: SIM {TimeUS : 43435119, Roll : 0.0, Pitch : 0.0, Yaw : 359.99, Alt : 30.1000003815, Lat : 49.28357, Lng : -123.11502, Q1 : 1.0, Q2 : 0.0, Q3 : 0.0, Q4 : -1.30996590997e-06}
2019-04-15 00:31:35.11: SIM {TimeUS : 43535079, Roll : 0.0, Pitch : 0.0, Yaw : 359.99, Alt : 30.1100006104, Lat : 49.28357, Lng : -123.11502, Q1 : 1.0, Q2 : 0.0, Q3 : 0.0, Q4 : -1.54041231326e-06}
2019-04-15 00:31:35.21: SIM {TimeUS : 43635039, Roll : 0.0, Pitch : 0.0, Yaw : 359.99, Alt : 30.1299991608, Lat : 49.28357, Lng : -123.11502, Q1 : 1.0, Q2 : 0.0, Q3 : 0.0, Q4 : -1.76684056896e-06}
2019-04-15 00:31:35.31: SIM {TimeUS : 43734999, Roll : 0.0, Pitch : 0.0, Yaw : 359.99, Alt : 30.1599998474, Lat : 49.28357, Lng : -123.11502, Q1 : 1.0, Q2 : 0.0, Q3 : 0.0, Q4 : -1.95375423573e-06}
2019-04-15 00:31:35.41: SIM {TimeUS : 43834959, Roll : 0.0, Pitch : 0.0, Yaw : 359.99, Alt : 30.1900005341, Lat : 49.28357, Lng : -123.11502, Q1 : 1.0, Q2 : 0.0, Q3 : 0.0, Q4 : -2.14563647205e-06}
2019-04-15 00:31:35.51: SIM {TimeUS : 43934919, Roll : -0.03, Pitch : -0.03, Yaw : 359.99, Alt : 30.2299995422, Lat : 49.28357, Lng : -123.11502, Q1 : 0.999999880791, Q2 : -0.00034350680653, Q3 : -0.000311364448862, Q4 : -4.66077426609e-06}
2019-04-15 00:31:35.61: SIM {TimeUS : 44034879, Roll : -0.29, Pitch : -0.26, Yaw : 359.99, Alt : 30.3099994659, Lat : 49.28357, Lng : -123.11502, Q1 : 0.999994039536, Q2 : -0.00257657794282, Q3 : -0.00230562523939, Q4 : -2.87923248834e-05}
2019-04-15 00:31:35.71: SIM {TimeUS : 44134839, Roll : -0.6, Pitch : -0.54, Yaw : 359.99, Alt : 30.4400005341, Lat : 49.28357, Lng : -123.11502, Q1 : 0.999974966049, Q2 : -0.00527692399919, Q3 : -0.0047139627859, Q4 : -8.34253733046e-05}
2019-04-15 00:31:35.81: SIM {TimeUS : 44234799, Roll : -0.81, Pitch : -0.72, Yaw : 359.98, Alt : 30.6000003815, Lat : 49.28357, Lng : -123.11502, Q1 : 0.999954760075, Q2 : -0.00712827220559, Q3 : -0.00629914738238, Q4 : -0.000160435462021}
2019-04-15 00:31:35.91: SIM {TimeUS : 44334759, Roll : -0.86, Pitch : -0.75, Yaw : 359.97, Alt : 30.7600002289, Lat : 49.28357, Lng : -123.11502, Q1 : 0.999949574471, Q2 : -0.00755707733333, Q3 : -0.0066081834957, Q4 : -0.000248024996836}
2019-04-15 00:31:36.01: SIM {TimeUS : 44434719, Roll : -0.74, Pitch : -0.67, Yaw : 359.96, Alt : 30.9099998474, Lat : 49.28357, Lng : -123.1150201, Q1 : 0.999961435795, Q2 : -0.00651979725808, Q3 : -0.00588062731549, Q4 : -0.000326529028825}
2019-04-15 00:31:36.12: SIM {TimeUS : 44535512, Roll : -0.53, Pitch : -0.5, Yaw : 359.95, Alt : 31.0699996948, Lat : 49.2835701, Lng : -123.1150202, Q1 : 0.999979615211, Q2 : -0.00463740294799, Q3 : -0.00436802627519, Q4 : -0.000397315976443}
2019-04-15 00:31:36.21: SIM {TimeUS : 44635472, Roll : -0.3, Pitch : -0.29, Yaw : 359.94, Alt : 31.2199993134, Lat : 49.2835701, Lng : -123.1150202, Q1 : 0.999993026257, Q2 : -0.00270165340044, Q3 : -0.00254670297727, Q4 : -0.000449885381386}
2019-04-15 00:31:36.31: SIM {TimeUS : 44735432, Roll : -0.12, Pitch : -0.11, Yaw : 359.94, Alt : 31.3899993896, Lat : 49.2835702, Lng : -123.1150203, Q1 : 0.999998807907, Q2 : -0.00105858652387, Q3 : -0.000991711043753, Q4 : -0.000488954479806}
2019-04-15 00:31:36.41: SIM {TimeUS : 44835392, Roll : 0.0, Pitch : 0.0, Yaw : 359.94, Alt : 31.5599994659, Lat : 49.2835702, Lng : -123.1150204, Q1 : 0.999999880791, Q2 : 3.54410331056e-05, Q3 : 2.09620593523e-05, Q4 : -0.000514432380442}
2019-04-15 00:31:36.51: SIM {TimeUS : 44935352, Roll : 0.06, Pitch : 0.05, Yaw : 359.93, Alt : 31.7399997711, Lat : 49.2835703, Lng : -123.1150205, Q1 : 0.999999582767, Q2 : 0.000592325581238, Q3 : 0.000448407197837, Q4 : -0.00052508409135}
2019-04-15 00:31:36.61: SIM {TimeUS : 45035312, Roll : 0.09, Pitch : 0.05, Yaw : 359.93, Alt : 31.9200000763, Lat : 49.2835703, Lng : -123.1150205, Q1 : 0.999999403954, Q2 : 0.00080856558634, Q3 : 0.000450334831839, Q4 : -0.00052639603382}
2019-04-15 00:31:36.71: SIM {TimeUS : 45135272, Roll : 0.09, Pitch : 0.03, Yaw : 359.93, Alt : 32.1100006104, Lat : 49.2835703, Lng : -123.1150206, Q1 : 0.999999463558, Q2 : 0.00086375628598, Q3 : 0.000304511835566, Q4 : -0.000524801027495}
2019-04-15 00:31:36.81: SIM {TimeUS : 45235232, Roll : 0.09, Pitch : 0.03, Yaw : 359.94, Alt : 32.2900009155, Lat : 49.2835703, Lng : -123.1150207, Q1 : 0.999999463558, Q2 : 0.000846273964271, Q3 : 0.000279089726973, Q4 : -0.000509892066475}
2019-04-15 00:31:36.91: SIM {TimeUS : 45335192, Roll : 0.08, Pitch : 0.05, Yaw : 359.94, Alt : 32.4900016785, Lat : 49.2835703, Lng : -123.1150207, Q1 : 0.999999463558, Q2 : 0.000744299090002, Q3 : 0.000493728672154, Q4 : -0.000476524466649}
2019-04-15 00:31:37.01: SIM {TimeUS : 45435152, Roll : 0.07, Pitch : 0.08, Yaw : 359.94, Alt : 32.6800003052, Lat : 49.2835703, Lng : -123.1150207, Q1 : 0.999999403954, Q2 : 0.000628006237093, Q3 : 0.000751098035835, Q4 : -0.000443778495537}
2019-04-15 00:31:37.11: SIM {TimeUS : 45535112, Roll : 0.09, Pitch : 0.13, Yaw : 359.95, Alt : 32.8800010681, Lat : 49.2835704, Lng : -123.1150208, Q1 : 0.999998927116, Q2 : 0.000786772405263, Q3 : 0.0011759896297, Q4 : -0.000425550417276}
2019-04-15 00:31:37.21: SIM {TimeUS : 45635072, Roll : 0.12, Pitch : 0.17, Yaw : 359.95, Alt : 33.0800018311, Lat : 49.2835704, Lng : -123.1150208, Q1 : 0.999998092651, Q2 : 0.00110318011139, Q3 : 0.00154295039829, Q4 : -0.000418534880737}
2019-04-15 00:31:37.31: SIM {TimeUS : 45735032, Roll : 0.15, Pitch : 0.19, Yaw : 359.95, Alt : 33.2799987793, Lat : 49.2835704, Lng : -123.1150208, Q1 : 0.99999755621, Q2 : 0.00131370616145, Q3 : 0.00174250581767, Q4 : -0.000437701790361}
2019-04-15 00:31:37.41: SIM {TimeUS : 45834992, Roll : 0.15, Pitch : 0.21, Yaw : 359.94, Alt : 33.4900016785, Lat : 49.2835704, Lng : -123.1150208, Q1 : 0.999997198582, Q2 : 0.00137800106313, Q3 : 0.00188429106493, Q4 : -0.00046244400437}
2019-04-15 00:31:37.51: SIM {TimeUS : 45934952, Roll : 0.16, Pitch : 0.18, Yaw : 359.94, Alt : 33.6899986267, Lat : 49.2835704, Lng : -123.1150209, Q1 : 0.999997496605, Q2 : 0.00140144175384, Q3 : 0.00164911092725, Q4 : -0.000507222022861}
2019-04-15 00:31:37.61: SIM {TimeUS : 46034912, Roll : 0.15, Pitch : 0.14, Yaw : 359.93, Alt : 33.9000015259, Lat : 49.2835704, Lng : -123.1150209, Q1 : 0.999998152256, Q2 : 0.00134534738027, Q3 : 0.00127668888308, Q4 : -0.000546968425624}
2019-04-15 00:31:37.71: SIM {TimeUS : 46134872, Roll : 0.13, Pitch : 0.11, Yaw : 359.93, Alt : 34.1100006104, Lat : 49.2835704, Lng : -123.1150209, Q1 : 0.999998629093, Q2 : 0.00119068380445, Q3 : 0.00101699715015, Q4 : -0.000578731531277}
2019-04-15 00:31:37.81: SIM {TimeUS : 46234832, Roll : 0.11, Pitch : 0.09, Yaw : 359.93, Alt : 34.3199996948, Lat : 49.2835704, Lng : -123.1150209, Q1 : 0.999998927116, Q2 : 0.00104520784225, Q3 : 0.000836562190671, Q4 : -0.000609957438428}
2019-04-15 00:31:37.91: SIM {TimeUS : 46334792, Roll : 0.11, Pitch : 0.09, Yaw : 359.92, Alt : 34.5400009155, Lat : 49.2835704, Lng : -123.1150209, Q1 : 0.999998986721, Q2 : 0.00099971878808, Q3 : 0.000805516261607, Q4 : -0.000640149752144}
2019-04-15 00:31:38.01: SIM {TimeUS : 46434752, Roll : 0.1, Pitch : 0.07, Yaw : 359.92, Alt : 34.75, Lat : 49.2835704, Lng : -123.1150208, Q1 : 0.999999165535, Q2 : 0.000906700035557, Q3 : 0.000635532778688, Q4 : -0.000658757460769}
2019-04-15 00:31:38.11: SIM {TimeUS : 46534712, Roll : 0.08, Pitch : 0.05, Yaw : 359.92, Alt : 34.9700012207, Lat : 49.2835704, Lng : -123.1150208, Q1 : 0.999999403954, Q2 : 0.000741811760236, Q3 : 0.000475919514429, Q4 : -0.000668599561322}
2019-04-15 00:31:38.22: SIM {TimeUS : 46635505, Roll : 0.06, Pitch : 0.04, Yaw : 359.92, Alt : 35.1800003052, Lat : 49.2835704, Lng : -123.1150208, Q1 : 0.999999523163, Q2 : 0.000541298999451, Q3 : 0.00040245699347, Q4 : -0.000677781936247}
2019-04-15 00:31:38.31: SIM {TimeUS : 46735465, Roll : 0.03, Pitch : 0.04, Yaw : 359.92, Alt : 35.4000015259, Lat : 49.2835704, Lng : -123.1150208, Q1 : 0.999999642372, Q2 : 0.000328302878188, Q3 : 0.000371771428036, Q4 : -0.000683359568939}
2019-04-15 00:31:38.41: SIM {TimeUS : 46835425, Roll : 0.02, Pitch : 0.01, Yaw : 359.92, Alt : 35.6199989319, Lat : 49.2835704, Lng : -123.1150208, Q1 : 0.999999761581, Q2 : 0.000246973446338, Q3 : 0.000109482789412, Q4 : -0.000686267914716}
2019-04-15 00:31:38.51: SIM {TimeUS : 46935385, Roll : 0.02, Pitch : -0.01, Yaw : 359.92, Alt : 35.8400001526, Lat : 49.2835704, Lng : -123.1150208, Q1 : 0.999999761581, Q2 : 0.000197397297597, Q3 : -0.000115748793178, Q4 : -0.000692644447554}
2019-04-15 00:31:38.61: SIM {TimeUS : 47035345, Roll : 0.0, Pitch : -0.02, Yaw : 359.91, Alt : 36.0600013733, Lat : 49.2835704, Lng : -123.1150208, Q1 : 0.999999701977, Q2 : 3.00723204418e-05, Q3 : -0.000240240609855, Q4 : -0.000712820969056}
2019-04-15 00:31:38.71: SIM {TimeUS : 47135305, Roll : 0.0, Pitch : -0.02, Yaw : 359.91, Alt : 36.2799987793, Lat : 49.2835704, Lng : -123.1150207, Q1 : 0.999999701977, Q2 : -8.39937365527e-06, Q3 : -0.000235318191699, Q4 : -0.000730702071451}
2019-04-15 00:31:38.81: SIM {TimeUS : 47235265, Roll : 0.0, Pitch : -0.02, Yaw : 359.91, Alt : 36.5, Lat : 49.2835704, Lng : -123.1150207, Q1 : 0.999999701977, Q2 : 5.17734515597e-05, Q3 : -0.000210907281144, Q4 : -0.000751124811359}
2019-04-15 00:31:38.91: SIM {TimeUS : 47335225, Roll : 0.0, Pitch : -0.03, Yaw : 359.91, Alt : 36.7200012207, Lat : 49.2835704, Lng : -123.1150207, Q1 : 0.999999642372, Q2 : -4.0297411033e-05, Q3 : -0.000286139751552, Q4 : -0.000779126305133}
2019-04-15 00:31:39.01: SIM {TimeUS : 47435185, Roll : -0.03, Pitch : -0.05, Yaw : 359.9, Alt : 36.9500007629, Lat : 49.2835704, Lng : -123.1150207, Q1 : 0.999999523163, Q2 : -0.00031011167448, Q3 : -0.000492292107083, Q4 : -0.000813638267573}
2019-04-15 00:31:39.11: SIM {TimeUS : 47535145, Roll : -0.07, Pitch : -0.07, Yaw : 359.9, Alt : 37.1699981689, Lat : 49.2835704, Lng : -123.1150207, Q1 : 0.999999165535, Q2 : -0.00067275686888, Q3 : -0.000649602967314, Q4 : -0.000855427933857}
2019-04-15 00:31:39.21: SIM {TimeUS : 47635105, Roll : -0.11, Pitch : -0.09, Yaw : 359.89, Alt : 37.4000015259, Lat : 49.2835704, Lng : -123.1150207, Q1 : 0.999998807907, Q2 : -0.00100040459074, Q3 : -0.00079148565419, Q4 : -0.000894657685421}
2019-04-15 00:31:39.31: SIM {TimeUS : 47735065, Roll : -0.12, Pitch : -0.09, Yaw : 359.89, Alt : 37.6199989319, Lat : 49.2835704, Lng : -123.1150207, Q1 : 0.999998569489, Q2 : -0.00111292721704, Q3 : -0.000853882171214, Q4 : -0.000933220784646}
2019-04-15 00:31:39.41: SIM {TimeUS : 47835025, Roll : -0.12, Pitch : -0.08, Yaw : 359.88, Alt : 37.8499984741, Lat : 49.2835704, Lng : -123.1150207, Q1 : 0.999998688698, Q2 : -0.00104968482628, Q3 : -0.000750912062358, Q4 : -0.000972735928372}
2019-04-15 00:31:39.51: SIM {TimeUS : 47934985, Roll : -0.09, Pitch : -0.05, Yaw : 359.88, Alt : 38.0699996948, Lat : 49.2835704, Lng : -123.1150207, Q1 : 0.999999046326, Q2 : -0.000845176982693, Q3 : -0.00046377532999, Q4 : -0.00100049516186}
2019-04-15 00:31:39.61: SIM {TimeUS : 48034945, Roll : -0.07, Pitch : -0.02, Yaw : 359.88, Alt : 38.2999992371, Lat : 49.2835704, Lng : -123.1150207, Q1 : 0.999999284744, Q2 : -0.000612498493865, Q3 : -0.000236769701587, Q4 : -0.00102694472298}
2019-04-15 00:31:39.71: SIM {TimeUS : 48134905, Roll : -0.05, Pitch : -0.02, Yaw : 359.87, Alt : 38.5299987793, Lat : 49.2835704, Lng : -123.1150207, Q1 : 0.999999284744, Q2 : -0.000515850959346, Q3 : -0.000226672986173, Q4 : -0.00105184828863}
2019-04-15 00:31:39.81: SIM {TimeUS : 48234865, Roll : -0.06, Pitch : -0.01, Yaw : 359.87, Alt : 38.7599983215, Lat : 49.2835706, Lng : -123.1150207, Q1 : 0.999999284744, Q2 : -0.000525431358255, Q3 : -0.000127097999211, Q4 : -0.00106449890882}
2019-04-15 00:31:39.91: SIM {TimeUS : 48334825, Roll : -0.07, Pitch : 0.0, Yaw : 359.87, Alt : 38.9900016785, Lat : 49.2835706, Lng : -123.1150207, Q1 : 0.99999922514, Q2 : -0.000682153797243, Q3 : 1.03146840047e-05, Q4 : -0.00107032689266}
2019-04-15 00:31:40.01: SIM {TimeUS : 48434785, Roll : -0.07, Pitch : 0.01, Yaw : 359.87, Alt : 39.2200012207, Lat : 49.2835706, Lng : -123.1150207, Q1 : 0.99999922514, Q2 : -0.000685152772348, Q3 : 0.000128921703435, Q4 : -0.00106631789822}
2019-04-15 00:31:40.11: SIM {TimeUS : 48534745, Roll : -0.05, Pitch : 0.03, Yaw : 359.87, Alt : 39.4500007629, Lat : 49.2835706, Lng : -123.1150207, Q1 : 0.999999284744, Q2 : -0.000491921789944, Q3 : 0.000337083736667, Q4 : -0.00106411625165}
2019-04-15 00:31:40.21: SIM {TimeUS : 48634705, Roll : -0.02, Pitch : 0.04, Yaw : 359.87, Alt : 39.6800003052, Lat : 49.2835706, Lng : -123.1150207, Q1 : 0.999999344349, Q2 : -0.000238262713538, Q3 : 0.000383762118872, Q4 : -0.00106346281245}
2019-04-15 00:31:40.32: SIM {TimeUS : 48735498, Roll : 0.0, Pitch : 0.04, Yaw : 359.87, Alt : 39.9099998474, Lat : 49.2835706, Lng : -123.1150207, Q1 : 0.999999344349, Q2 : 5.10508398293e-05, Q3 : 0.000410996522987, Q4 : -0.00105979735963}
2019-04-15 00:31:40.41: SIM {TimeUS : 48835458, Roll : 0.04, Pitch : 0.07, Yaw : 359.88, Alt : 40.1399993896, Lat : 49.2835706, Lng : -123.1150207, Q1 : 0.999999165535, Q2 : 0.000391570414649, Q3 : 0.000675885588862, Q4 : -0.00104716606438}
2019-04-15 00:31:40.51: SIM {TimeUS : 48935418, Roll : 0.08, Pitch : 0.12, Yaw : 359.88, Alt : 40.3699989319, Lat : 49.2835706, Lng : -123.1150207, Q1 : 0.999998569489, Q2 : 0.000736852874979, Q3 : 0.00107985350769, Q4 : -0.00104403228033}
2019-04-15 00:31:40.61: SIM {TimeUS : 49035378, Roll : 0.11, Pitch : 0.16, Yaw : 359.87, Alt : 40.5999984741, Lat : 49.2835706, Lng : -123.1150207, Q1 : 0.999997913837, Q2 : 0.000983229605481, Q3 : 0.00145830214024, Q4 : -0.00105515879113}
2019-04-15 00:31:40.71: SIM {TimeUS : 49135338, Roll : 0.1, Pitch : 0.19, Yaw : 359.87, Alt : 40.8400001526, Lat : 49.2835706, Lng : -123.1150207, Q1 : 0.999997496605, Q2 : 0.00090190890478, Q3 : 0.00174345111009, Q4 : -0.00106889999006}
2019-04-15 00:31:40.81: SIM {TimeUS : 49235298, Roll : 0.05, Pitch : 0.21, Yaw : 359.87, Alt : 41.0699996948, Lat : 49.2835706, Lng : -123.1150207, Q1 : 0.999997496605, Q2 : 0.000452944048448, Q3 : 0.00189651863184, Q4 : -0.00110521609895}
2019-04-15 00:31:40.91: SIM {TimeUS : 49335258, Roll : 0.0, Pitch : 0.21, Yaw : 359.86, Alt : 41.2999992371, Lat : 49.2835706, Lng : -123.1150207, Q1 : 0.99999755621, Q2 : 1.50575824591e-05, Q3 : 0.00187995610759, Q4 : -0.00114124128595}
2019-04-15 00:31:41.01: SIM {TimeUS : 49435218, Roll : -0.02, Pitch : 0.17, Yaw : 359.86, Alt : 41.5400009155, Lat : 49.2835706, Lng : -123.1150207, Q1 : 0.999998092651, Q2 : -0.000208723780815, Q3 : 0.00156533299014, Q4 : -0.00117602164391}
2019-04-15 00:31:41.11: SIM {TimeUS : 49535178, Roll : -0.03, Pitch : 0.13, Yaw : 359.86, Alt : 41.7700004578, Lat : 49.2835706, Lng : -123.1150207, Q1 : 0.999998509884, Q2 : -0.00026483082911, Q3 : 0.00118384312373, Q4 : -0.00121242390014}
2019-04-15 00:31:41.21: SIM {TimeUS : 49635138, Roll : -0.01, Pitch : 0.12, Yaw : 359.85, Alt : 42.0, Lat : 49.2835706, Lng : -123.1150207, Q1 : 0.999998629093, Q2 : -0.000172237443621, Q3 : 0.00106448109727, Q4 : -0.001253078226}
2019-04-15 00:31:41.31: SIM {TimeUS : 49735098, Roll : 0.01, Pitch : 0.12, Yaw : 359.85, Alt : 42.2400016785, Lat : 49.2835706, Lng : -123.1150207, Q1 : 0.999998509884, Q2 : 0.000144331104821, Q3 : 0.00111995241605, Q4 : -0.00129824737087}
2019-04-15 00:31:41.41: SIM {TimeUS : 49835058, Roll : 0.06, Pitch : 0.13, Yaw : 359.84, Alt : 42.4700012207, Lat : 49.2835706, Lng : -123.1150207, Q1 : 0.999998271465, Q2 : 0.000580580963288, Q3 : 0.0011610443471, Q4 : -0.00134293746669}
2019-04-15 00:31:41.51: SIM {TimeUS : 49935018, Roll : 0.1, Pitch : 0.11, Yaw : 359.84, Alt : 42.7099990845, Lat : 49.2835706, Lng : -123.1150207, Q1 : 0.999998092651, Q2 : 0.000913385592867, Q3 : 0.00100946065504, Q4 : -0.00139138603117}
2019-04-15 00:31:41.61: SIM {TimeUS : 50034978, Roll : 0.1, Pitch : 0.08, Yaw : 359.83, Alt : 42.9399986267, Lat : 49.2835706, Lng : -123.1150207, Q1 : 0.999998271465, Q2 : 0.000942355487496, Q3 : 0.00076351914322, Q4 : -0.00143325515091}
2019-04-15 00:31:41.71: SIM {TimeUS : 50134938, Roll : 0.07, Pitch : 0.06, Yaw : 359.83, Alt : 43.1800003052, Lat : 49.2835704, Lng : -123.1150207, Q1 : 0.999998569489, Q2 : 0.000616237521172, Q3 : 0.000596769386902, Q4 : -0.0014571492793}
2019-04-15 00:31:41.81: SIM {TimeUS : 50234898, Roll : 0.01, Pitch : 0.06, Yaw : 359.83, Alt : 43.4099998474, Lat : 49.2835704, Lng : -123.1150207, Q1 : 0.999998748302, Q2 : 0.000125266145915, Q3 : 0.000553017656785, Q4 : -0.00147198163904}
2019-04-15 00:31:41.91: SIM {TimeUS : 50334858, Roll : -0.02, Pitch : 0.07, Yaw : 359.82, Alt : 43.6500015259, Lat : 49.2835704, Lng : -123.1150207, Q1 : 0.999998629093, Q2 : -0.000234809383983, Q3 : 0.000690808228683, Q4 : -0.00148510036524}
2019-04-15 00:31:42.01: SIM {TimeUS : 50434818, Roll : -0.04, Pitch : 0.08, Yaw : 359.82, Alt : 43.8800010681, Lat : 49.2835704, Lng : -123.1150207, Q1 : 0.999998509884, Q2 : -0.000434255809523, Q3 : 0.000757460889872, Q4 : -0.00149601662997}
2019-04-15 00:31:42.11: SIM {TimeUS : 50534778, Roll : -0.04, Pitch : 0.07, Yaw : 359.82, Alt : 44.1199989319, Lat : 49.2835704, Lng : -123.1150206, Q1 : 0.999998569489, Q2 : -0.000428220984759, Q3 : 0.00064069929067, Q4 : -0.00150927144568}
2019-04-15 00:31:42.21: SIM {TimeUS : 50634738, Roll : -0.05, Pitch : 0.05, Yaw : 359.82, Alt : 44.3499984741, Lat : 49.2835704, Lng : -123.1150206, Q1 : 0.999998629093, Q2 : -0.000463380361907, Q3 : 0.000484887073981, Q4 : -0.0015301129315}
2019-04-15 00:31:42.31: SIM {TimeUS : 50734698, Roll : -0.04, Pitch : 0.03, Yaw : 359.82, Alt : 44.5900001526, Lat : 49.2835704, Lng : -123.1150206, Q1 : 0.999998688698, Q2 : -0.000421319884481, Q3 : 0.000264474772848, Q4 : -0.00155127758626}
2019-04-15 00:31:42.41: SIM {TimeUS : 50835491, Roll : -0.03, Pitch : 0.0, Yaw : 359.81, Alt : 44.8300018311, Lat : 49.2835704, Lng : -123.1150206, Q1 : 0.999998688698, Q2 : -0.00031282188138, Q3 : 4.65813900519e-05, Q4 : -0.00157736812253}
2019-04-15 00:31:42.51: SIM {TimeUS : 50935451, Roll : -0.03, Pitch : -0.01, Yaw : 359.81, Alt : 45.0600013733, Lat : 49.2835703, Lng : -123.1150206, Q1 : 0.999998688698, Q2 : -0.000267682917183, Q3 : -8.7507738499e-05, Q4 : -0.00160807045177}
2019-04-15 00:31:42.61: SIM {TimeUS : 51035411, Roll : -0.02, Pitch : -0.02, Yaw : 359.81, Alt : 45.2999992371, Lat : 49.2835703, Lng : -123.1150206, Q1 : 0.999998629093, Q2 : -0.000256516155787, Q3 : -0.000191439903574, Q4 : -0.00164065056015}
2019-04-15 00:31:42.71: SIM {TimeUS : 51135371, Roll : -0.03, Pitch : -0.04, Yaw : 359.8, Alt : 45.5299987793, Lat : 49.2835703, Lng : -123.1150206, Q1 : 0.999998509884, Q2 : -0.000277953455225, Q3 : -0.000388640619349, Q4 : -0.001671494334}
2019-04-15 00:31:42.81: SIM {TimeUS : 51235331, Roll : -0.03, Pitch : -0.05, Yaw : 359.8, Alt : 45.7700004578, Lat : 49.2835703, Lng : -123.1150206, Q1 : 0.999998450279, Q2 : -0.000267889641691, Q3 : -0.0004369506496, Q4 : -0.001709590666}
2019-04-15 00:31:42.91: SIM {TimeUS : 51335291, Roll : -0.02, Pitch : -0.04, Yaw : 359.79, Alt : 46.0, Lat : 49.2835703, Lng : -123.1150206, Q1 : 0.999998390675, Q2 : -0.000202875206014, Q3 : -0.000410262931837, Q4 : -0.0017495227512}
2019-04-15 00:31:43.01: SIM {TimeUS : 51435251, Roll : -0.02, Pitch : -0.04, Yaw : 359.79, Alt : 46.2299995422, Lat : 49.2835703, Lng : -123.1150206, Q1 : 0.99999833107, Q2 : -0.000253315694863, Q3 : -0.00039896913222, Q4 : -0.0017848770367}
2019-04-15 00:31:43.11: SIM {TimeUS : 51535211, Roll : -0.05, Pitch : -0.04, Yaw : 359.79, Alt : 46.4500007629, Lat : 49.2835703, Lng : -123.1150206, Q1 : 0.999998211861, Q2 : -0.000460784707684, Q3 : -0.000358287419658, Q4 : -0.00181697728112}
2019-04-15 00:31:43.21: SIM {TimeUS : 51635171, Roll : -0.08, Pitch : -0.03, Yaw : 359.78, Alt : 46.6699981689, Lat : 49.2835703, Lng : -123.1150206, Q1 : 0.999997913837, Q2 : -0.000757087138481, Q3 : -0.000345528678736, Q4 : -0.00185395835433}
2019-04-15 00:31:43.31: SIM {TimeUS : 51735131, Roll : -0.11, Pitch : -0.04, Yaw : 359.78, Alt : 46.8899993896, Lat : 49.2835703, Lng : -123.1150206, Q1 : 0.999997675419, Q2 : -0.000972125388216, Q3 : -0.000356061791535, Q4 : -0.00188592693303}
2019-04-15 00:31:43.41: SIM {TimeUS : 51835091, Roll : -0.11, Pitch : -0.03, Yaw : 359.78, Alt : 47.0900001526, Lat : 49.2835703, Lng : -123.1150205, Q1 : 0.999997615814, Q2 : -0.00102445774246, Q3 : -0.000287754402962, Q4 : -0.00191355485003}
2019-04-15 00:31:43.51: SIM {TimeUS : 51935051, Roll : -0.1, Pitch : 0.0, Yaw : 359.77, Alt : 47.2900009155, Lat : 49.2835703, Lng : -123.1150205, Q1 : 0.999997735023, Q2 : -0.000919535057619, Q3 : -8.04772498668e-05, Q4 : -0.00193558644969}
2019-04-15 00:31:43.61: SIM {TimeUS : 52035011, Roll : -0.08, Pitch : 0.0, Yaw : 359.77, Alt : 47.4900016785, Lat : 49.2835703, Lng : -123.1150206, Q1 : 0.999997854233, Q2 : -0.000713499845006, Q3 : 4.92665822094e-05, Q4 : -0.0019527876284}
2019-04-15 00:31:43.71: SIM {TimeUS : 52134971, Roll : -0.06, Pitch : 0.0, Yaw : 359.77, Alt : 47.6699981689, Lat : 49.2835703, Lng : -123.1150206, Q1 : 0.999997913837, Q2 : -0.000602720188908, Q3 : 3.79422067454e-06, Q4 : -0.0019684357103}
2019-04-15 00:31:43.81: SIM {TimeUS : 52234931, Roll : -0.07, Pitch : -0.02, Yaw : 359.77, Alt : 47.8400001526, Lat : 49.2835703, Lng : -123.1150206, Q1 : 0.999997794628, Q2 : -0.00066948501626, Q3 : -0.000184552991414, Q4 : -0.00198251963593}
2019-04-15 00:31:43.91: SIM {TimeUS : 52334891, Roll : -0.07, Pitch : -0.04, Yaw : 359.77, Alt : 48.0, Lat : 49.2835703, Lng : -123.1150206, Q1 : 0.999997735023, Q2 : -0.000646449218038, Q3 : -0.000403715413995, Q4 : -0.00199719984084}
2019-04-15 00:31:44.01: SIM {TimeUS : 52434851, Roll : -0.05, Pitch : -0.06, Yaw : 359.76, Alt : 48.1500015259, Lat : 49.2835703, Lng : -123.1150206, Q1 : 0.999997675419, Q2 : -0.000477699271869, Q3 : -0.000603864318691, Q4 : -0.00201231567189}
2019-04-15 00:31:44.11: SIM {TimeUS : 52534811, Roll : -0.04, Pitch : -0.08, Yaw : 359.76, Alt : 48.2799987793, Lat : 49.2835703, Lng : -123.1150206, Q1 : 0.999997615814, Q2 : -0.000351712544216, Q3 : -0.000774051935878, Q4 : -0.00202651345171}
2019-04-15 00:31:44.21: SIM {TimeUS : 52634771, Roll : -0.03, Pitch : -0.09, Yaw : 359.76, Alt : 48.4099998474, Lat : 49.2835703, Lng : -123.1150206, Q1 : 0.999997496605, Q2 : -0.000332693540258, Q3 : -0.000863498367835, Q4 : -0.00204105395824}
2019-04-15 00:31:44.31: SIM {TimeUS : 52734731, Roll : 0.0, Pitch : -0.09, Yaw : 359.76, Alt : 48.5200004578, Lat : 49.2835703, Lng : -123.1150206, Q1 : 0.99999755621, Q2 : -8.7440785137e-05, Q3 : -0.000819095992483, Q4 : -0.00205560494214}
2019-04-15 00:31:44.42: SIM {TimeUS : 52835524, Roll : 0.02, Pitch : -0.07, Yaw : 359.76, Alt : 48.6199989319, Lat : 49.2835703, Lng : -123.1150206, Q1 : 0.999997615814, Q2 : 0.000238850989263, Q3 : -0.000631526228972, Q4 : -0.00208078022115}
2019-04-15 00:31:44.51: SIM {TimeUS : 52935484, Roll : 0.05, Pitch : -0.04, Yaw : 359.75, Alt : 48.7099990845, Lat : 49.2835703, Lng : -123.1150206, Q1 : 0.99999755621, Q2 : 0.000472820654977, Q3 : -0.000364551786333, Q4 : -0.00211984361522}
2019-04-15 00:31:44.61: SIM {TimeUS : 53035444, Roll : 0.06, Pitch : -0.01, Yaw : 359.75, Alt : 48.7799987793, Lat : 49.2835703, Lng : -123.1150206, Q1 : 0.999997496605, Q2 : 0.000529744836967, Q3 : -0.000162738608196, Q4 : -0.00215718429536}
2019-04-15 00:31:44.71: SIM {TimeUS : 53135404, Roll : 0.06, Pitch : 0.0, Yaw : 359.74, Alt : 48.8499984741, Lat : 49.2835703, Lng : -123.1150206, Q1 : 0.999997437, Q2 : 0.000565198250115, Q3 : -8.20942004793e-05, Q4 : -0.00219648610801}
2019-04-15 00:31:44.81: SIM {TimeUS : 53235364, Roll : 0.05, Pitch : -0.02, Yaw : 359.74, Alt : 48.9099998474, Lat : 49.2835703, Lng : -123.1150206, Q1 : 0.999997377396, Q2 : 0.000501410802826, Q3 : -0.000196073728148, Q4 : -0.00223721261136}
2019-04-15 00:31:44.91: SIM {TimeUS : 53335324, Roll : 0.03, Pitch : -0.03, Yaw : 359.73, Alt : 48.9599990845, Lat : 49.2835703, Lng : -123.1150206, Q1 : 0.999997317791, Q2 : 0.000332001567585, Q3 : -0.000317367434036, Q4 : -0.00227705691941}
2019-04-15 00:31:45.01: SIM {TimeUS : 53435284, Roll : 0.07, Pitch : -0.07, Yaw : 359.73, Alt : 49.0, Lat : 49.2835703, Lng : -123.1150207, Q1 : 0.999996900558, Q2 : 0.0006883800379, Q3 : -0.00063082727138, Q4 : -0.00231285975315}
2019-04-15 00:31:45.11: SIM {TimeUS : 53535244, Roll : 0.28, Pitch : -0.21, Yaw : 359.73, Alt : 49.0400009155, Lat : 49.2835703, Lng : -123.1150207, Q1 : 0.999992311001, Q2 : 0.00251478306018, Q3 : -0.00191096647177, Q4 : -0.00233911979012}
2019-04-15 00:31:45.21: SIM {TimeUS : 53635204, Roll : 0.72, Pitch : -0.51, Yaw : 359.72, Alt : 49.0699996948, Lat : 49.2835703, Lng : -123.1150207, Q1 : 0.999967098236, Q2 : 0.00633839285001, Q3 : -0.00448260968551, Q4 : -0.00235076015815}
2019-04-15 00:31:45.31: SIM {TimeUS : 53735164, Roll : 1.4, Pitch : -0.94, Yaw : 359.71, Alt : 49.0900001526, Lat : 49.2835704, Lng : -123.1150206, Q1 : 0.999888598919, Q2 : 0.0122171901166, Q3 : -0.00825287401676, Q4 : -0.00234558898956}
2019-04-15 00:31:45.41: SIM {TimeUS : 53835124, Roll : 2.23, Pitch : -1.48, Yaw : 359.7, Alt : 49.1199989319, Lat : 49.2835704, Lng : -123.1150206, Q1 : 0.999722659588, Q2 : 0.0194778349251, Q3 : -0.0130348373204, Q4 : -0.0023168195039}
2019-04-15 00:31:45.51: SIM {TimeUS : 53935084, Roll : 3.11, Pitch : -2.1, Yaw : 359.68, Alt : 49.1399993896, Lat : 49.2835704, Lng : -123.1150205, Q1 : 0.999460101128, Q2 : 0.0271073263139, Q3 : -0.0184301361442, Q4 : -0.00225341948681}
2019-04-15 00:31:45.61: SIM {TimeUS : 54035044, Roll : 3.88, Pitch : -2.66, Yaw : 359.66, Alt : 49.1500015259, Lat : 49.2835706, Lng : -123.1150203, Q1 : 0.99915343523, Q2 : 0.0338315553963, Q3 : -0.0233099386096, Q4 : -0.00212649302557}
2019-04-15 00:31:45.71: SIM {TimeUS : 54135004, Roll : 4.46, Pitch : -3.11, Yaw : 359.65, Alt : 49.1699981689, Lat : 49.2835707, Lng : -123.1150201, Q1 : 0.998870134354, Q2 : 0.0388903208077, Q3 : -0.0272454153746, Q4 : -0.00193546363153}
2019-04-15 00:31:45.81: SIM {TimeUS : 54234964, Roll : 4.88, Pitch : -3.44, Yaw : 359.65, Alt : 49.1800003052, Lat : 49.2835709, Lng : -123.1150199, Q1 : 0.998637139797, Q2 : 0.0425485000014, Q3 : -0.0301773883402, Q4 : -0.00168369757012}
2019-04-15 00:31:45.91: SIM {TimeUS : 54334924, Roll : 5.21, Pitch : -3.68, Yaw : 359.67, Alt : 49.1899986267, Lat : 49.283571, Lng : -123.1150195, Q1 : 0.998447060585, Q2 : 0.0453837886453, Q3 : -0.0322775430977, Q4 : -0.00139258848503}
2019-04-15 00:31:46.01: SIM {TimeUS : 54434884, Roll : 5.5, Pitch : -3.89, Yaw : 359.68, Alt : 49.2000007629, Lat : 49.2835713, Lng : -123.115019, Q1 : 0.998271763325, Q2 : 0.0478793755174, Q3 : -0.0340568907559, Q4 : -0.00110291119199}
2019-04-15 00:31:46.11: SIM {TimeUS : 54534844, Roll : 5.79, Pitch : -4.09, Yaw : 359.69, Alt : 49.2099990845, Lat : 49.2835715, Lng : -123.1150184, Q1 : 0.998088181019, Q2 : 0.0503907687962, Q3 : -0.0357788950205, Q4 : -0.000817457272206}
2019-04-15 00:31:46.21: SIM {TimeUS : 54634804, Roll : 6.1, Pitch : -4.29, Yaw : 359.7, Alt : 49.2200012207, Lat : 49.2835719, Lng : -123.1150177, Q1 : 0.997880995274, Q2 : 0.0531082563102, Q3 : -0.0375862307847, Q4 : -0.000544198148418}
2019-04-15 00:31:46.31: SIM {TimeUS : 54734764, Roll : 6.38, Pitch : -4.5, Yaw : 359.71, Alt : 49.2200012207, Lat : 49.2835722, Lng : -123.1150169, Q1 : 0.997678041458, Q2 : 0.0555558688939, Q3 : -0.0393956191838, Q4 : -0.000310353323584}
2019-04-15 00:31:46.41: SIM {TimeUS : 54834724, Roll : 6.61, Pitch : -4.68, Yaw : 359.71, Alt : 49.2299995422, Lat : 49.2835727, Lng : -123.115016, Q1 : 0.997499346733, Q2 : 0.0575833469629, Q3 : -0.0409778691828, Q4 : -0.000117181698442}
2019-04-15 00:31:46.52: SIM {TimeUS : 54935517, Roll : 6.8, Pitch : -4.81, Yaw : 359.71, Alt : 49.2400016785, Lat : 49.2835731, Lng : -123.115015, Q1 : 0.997359037399, Q2 : 0.059192109853, Q3 : -0.042085647583, Q4 : 5.560898353e-05}
2019-04-15 00:31:46.61: SIM {TimeUS : 55035477, Roll : 6.92, Pitch : -4.87, Yaw : 359.72, Alt : 49.2400016785, Lat : 49.2835735, Lng : -123.1150139, Q1 : 0.997274696827, Q2 : 0.0602110922337, Q3 : -0.0426366776228, Q4 : 0.000195042928681}
2019-04-15 00:31:46.71: SIM {TimeUS : 55135437, Roll : 7.0, Pitch : -4.92, Yaw : 359.73, Alt : 49.25, Lat : 49.2835741, Lng : -123.1150128, Q1 : 0.997212767601, Q2 : 0.0609750077128, Q3 : -0.0429957248271, Q4 : 0.000285824324237}
2019-04-15 00:31:46.81: SIM {TimeUS : 55235397, Roll : 7.12, Pitch : -4.97, Yaw : 359.73, Alt : 49.25, Lat : 49.2835746, Lng : -123.1150115, Q1 : 0.997131049633, Q2 : 0.0619555488229, Q3 : -0.0434867814183, Q4 : 0.000356084725354}
2019-04-15 00:31:46.91: SIM {TimeUS : 55335357, Roll : 7.43, Pitch : -4.91, Yaw : 359.89, Alt : 49.25, Lat : 49.2835752, Lng : -123.1150102, Q1 : 0.996979176998, Q2 : 0.064731143415, Q3 : -0.0428807139397, Q4 : 0.00190758157987}
2019-04-15 00:31:47.01: SIM {TimeUS : 55435317, Roll : 7.98, Pitch : -4.71, Yaw : 0.8, Alt : 49.2599983215, Lat : 49.2835759, Lng : -123.1150087, Q1 : 0.9966827631, Q2 : 0.0698712542653, Q3 : -0.0405564084649, Q4 : 0.00983759760857}
2019-04-15 00:31:47.11: SIM {TimeUS : 55535277, Roll : 8.6, Pitch : -4.66, Yaw : 3.07, Alt : 49.2599983215, Lat : 49.2835767, Lng : -123.1150072, Q1 : 0.995917379856, Q2 : 0.0759990140796, Q3 : -0.0385383032262, Q4 : 0.0297912023962}
2019-04-15 00:31:47.21: SIM {TimeUS : 55635237, Roll : 9.01, Pitch : -5.05, Yaw : 6.93, Alt : 49.2599983215, Lat : 49.2835774, Lng : -123.1150056, Q1 : 0.993900299072, Q2 : 0.0810601785779, Q3 : -0.039107516408, Q4 : 0.0637340992689}
2019-04-15 00:31:47.31: SIM {TimeUS : 55735197, Roll : 9.02, Pitch : -5.96, Yaw : 12.26, Alt : 49.2599983215, Lat : 49.2835781, Lng : -123.1150038, Q1 : 0.989413142204, Q2 : 0.0836458355188, Q3 : -0.0431749671698, Q4 : 0.11045768857}
2019-04-15 00:31:47.41: SIM {TimeUS : 55835157, Roll : 8.45, Pitch : -7.29, Yaw : 18.83, Alt : 49.2599983215, Lat : 49.2835788, Lng : -123.115002, Q1 : 0.981078326702, Q2 : 0.0829971879721, Q3 : -0.0505707077682, Q4 : 0.167449831963}
2019-04-15 00:31:47.51: SIM {TimeUS : 55935117, Roll : 7.26, Pitch : -8.85, Yaw : 26.37, Alt : 49.2700004578, Lat : 49.2835794, Lng : -123.115, Q1 : 0.967663824558, Q2 : 0.079066157341, Q3 : -0.0606211051345, Q4 : 0.23173353076}
2019-04-15 00:31:47.61: SIM {TimeUS : 56035077, Roll : 5.48, Pitch : -10.41, Yaw : 34.63, Alt : 49.2700004578, Lat : 49.2835802, Lng : -123.1149979, Q1 : 0.948350071907, Q2 : 0.0724545642734, Q3 : -0.0723694190383, Q4 : 0.300241857767}
2019-04-15 00:31:47.71: SIM {TimeUS : 56135037, Roll : 3.15, Pitch : -11.76, Yaw : 43.33, Alt : 49.2700004578, Lat : 49.2835811, Lng : -123.1149957, Q1 : 0.923037528992, Q2 : 0.0632971003652, Q3 : -0.0851309224963, Q4 : 0.369794517756}
2019-04-15 00:31:47.81: SIM {TimeUS : 56234997, Roll : 0.19, Pitch : -12.71, Yaw : 51.93, Alt : 49.2700004578, Lat : 49.2835819, Lng : -123.1149933, Q1 : 0.893436491489, Q2 : 0.0500056929886, Q3 : -0.0988476201892, Q4 : 0.43531575799}
2019-04-15 00:31:47.91: SIM {TimeUS : 56334957, Roll : -3.01, Pitch : -13.11, Yaw : 59.52, Alt : 49.2700004578, Lat : 49.2835829, Lng : -123.1149909, Q1 : 0.86360001564, Q2 : 0.0339713767171, Q3 : -0.112098731101, Q4 : 0.490382283926}
2019-04-15 00:31:48.01: SIM {TimeUS : 56434917, Roll : -5.8, Pitch : -13.04, Yaw : 65.35, Alt : 49.2700004578, Lat : 49.2835838, Lng : -123.1149885, Q1 : 0.838286697865, Q2 : 0.0189419388771, Q3 : -0.122672088444, Q4 : 0.530912578106}
2019-04-15 00:31:48.11: SIM {TimeUS : 56534877, Roll : -7.64, Pitch : -12.79, Yaw : 69.09, Alt : 49.2700004578, Lat : 49.2835849, Lng : -123.1149859, Q1 : 0.820904195309, Q2 : 0.0084564788267, Q3 : -0.129112049937, Q4 : 0.556214749813}
2019-04-15 00:31:48.21: SIM {TimeUS : 56634837, Roll : -8.38, Pitch : -12.59, Yaw : 70.83, Alt : 49.2700004578, Lat : 49.2835861, Lng : -123.1149833, Q1 : 0.812509536743, Q2 : 0.00415250146762, Q3 : -0.131269514561, Q4 : 0.567960679531}
2019-04-15 00:31:48.31: SIM {TimeUS : 56734797, Roll : -8.12, Pitch : -12.63, Yaw : 70.87, Alt : 49.2700004578, Lat : 49.2835874, Lng : -123.1149807, Q1 : 0.812262952328, Q2 : 0.00624947203323, Q3 : -0.130263492465, Q4 : 0.56852555275}
2019-04-15 00:31:48.41: SIM {TimeUS : 56834757, Roll : -7.1, Pitch : -12.96, Yaw : 69.59, Alt : 49.2700004578, Lat : 49.2835889, Lng : -123.114978, Q1 : 0.818330407143, Q2 : 0.0137868719175, Q3 : -0.12764981389, Q4 : 0.560223937035}
2019-04-15 00:31:48.51: SIM {TimeUS : 56934717, Roll : -5.56, Pitch : -13.52, Yaw : 67.34, Alt : 49.2799987793, Lat : 49.2835903, Lng : -123.1149753, Q1 : 0.828620970249, Q2 : 0.0250950735062, Q3 : -0.12464954704, Q4 : 0.545178949833}
2019-04-15 00:31:48.62: SIM {TimeUS : 57035510, Roll : -3.73, Pitch : -14.22, Yaw : 64.42, Alt : 49.2799987793, Lat : 49.2835919, Lng : -123.1149725, Q1 : 0.841277778149, Q2 : 0.0386316664517, Q3 : -0.121902823448, Q4 : 0.525260925293}
2019-04-15 00:31:48.71: SIM {TimeUS : 57135470, Roll : -1.81, Pitch : -14.89, Yaw : 61.19, Alt : 49.2799987793, Lat : 49.2835934, Lng : -123.1149696, Q1 : 0.854448854923, Q2 : 0.052413161844, Q3 : -0.119575589895, Q4 : 0.50286346674}
2019-04-15 00:31:48.81: SIM {TimeUS : 57235430, Roll : 0.0, Pitch : -15.42, Yaw : 57.95, Alt : 49.2799987793, Lat : 49.2835951, Lng : -123.1149666, Q1 : 0.866901874542, Q2 : 0.0649840086699, Q3 : -0.117421515286, Q4 : 0.480073362589}
2019-04-15 00:31:48.91: SIM {TimeUS : 57335390, Roll : 1.56, Pitch : -15.74, Yaw : 55.03, Alt : 49.2799987793, Lat : 49.2835968, Lng : -123.1149634, Q1 : 0.877560973167, Q2 : 0.0752254799008, Q3 : -0.115200959146, Q4 : 0.459300160408}
2019-04-15 00:31:49.01: SIM {TimeUS : 57435350, Roll : 2.73, Pitch : -15.86, Yaw : 52.71, Alt : 49.2799987793, Lat : 49.2835984, Lng : -123.1149602, Q1 : 0.885745406151, Q2 : 0.0824068412185, Q3 : -0.113130278885, Q4 : 0.442567169666}
2019-04-15 00:31:49.11: SIM {TimeUS : 57535310, Roll : 3.44, Pitch : -15.85, Yaw : 51.15, Alt : 49.2799987793, Lat : 49.2836001, Lng : -123.1149567, Q1 : 0.891187667847, Q2 : 0.0863347128034, Q3 : -0.111496202648, Q4 : 0.431160658598}
2019-04-15 00:31:49.21: SIM {TimeUS : 57635270, Roll : 3.67, Pitch : -15.78, Yaw : 50.39, Alt : 49.2799987793, Lat : 49.2836018, Lng : -123.1149533, Q1 : 0.893929421902, Q2 : 0.0871590524912, Q3 : -0.110703647137, Q4 : 0.425485879183}
2019-04-15 00:31:49.31: SIM {TimeUS : 57735230, Roll : 3.47, Pitch : -15.74, Yaw : 50.38, Alt : 49.2799987793, Lat : 49.2836035, Lng : -123.1149497, Q1 : 0.894181668758, Q2 : 0.0854319259524, Q3 : -0.111139558256, Q4 : 0.425192326307}
2019-04-15 00:31:49.41: SIM {TimeUS : 57835190, Roll : 2.93, Pitch : -15.77, Yaw : 50.98, Alt : 49.2799987793, Lat : 49.2836051, Lng : -123.114946, Q1 : 0.892289638519, Q2 : 0.0819828137755, Q3 : -0.112902395427, Q4 : 0.429361253977}
2019-04-15 00:31:49.51: SIM {TimeUS : 57935150, Roll : 2.18, Pitch : -15.89, Yaw : 52.03, Alt : 49.2900009155, Lat : 49.2836068, Lng : -123.1149421, Q1 : 0.888724923134, Q2 : 0.0775829777122, Q3 : -0.115929320455, Q4 : 0.436702817678}
2019-04-15 00:31:49.61: SIM {TimeUS : 58035110, Roll : 1.31, Pitch : -16.05, Yaw : 53.33, Alt : 49.2900009155, Lat : 49.2836086, Lng : -123.1149383, Q1 : 0.884089112282, Q2 : 0.0728456676006, Q3 : -0.119684562087, Q4 : 0.445820063353}
2019-04-15 00:31:49.71: SIM {TimeUS : 58135070, Roll : 0.44, Pitch : -16.22, Yaw : 54.7, Alt : 49.2900009155, Lat : 49.2836103, Lng : -123.1149342, Q1 : 0.879033029079, Q2 : 0.0682368949056, Q3 : -0.123625032604, Q4 : 0.455369710922}
2019-04-15 00:31:49.81: SIM {TimeUS : 58235030, Roll : -0.34, Pitch : -16.35, Yaw : 55.99, Alt : 49.2900009155, Lat : 49.2836121, Lng : -123.1149302, Q1 : 0.874205350876, Q2 : 0.064126946032, Q3 : -0.126988634467, Q4 : 0.464248508215}
2019-04-15 00:31:49.91: SIM {TimeUS : 58334990, Roll : -0.94, Pitch : -16.42, Yaw : 57.05, Alt : 49.2900009155, Lat : 49.2836138, Lng : -123.1149261, Q1 : 0.870113253593, Q2 : 0.0610319301486, Q3 : -0.129360303283, Q4 : 0.471639633179}
2019-04-15 00:31:50.01: SIM {TimeUS : 58434950, Roll : -1.34, Pitch : -16.45, Yaw : 57.82, Alt : 49.2900009155, Lat : 49.2836157, Lng : -123.114922, Q1 : 0.867114782333, Q2 : 0.0589885227382, Q3 : -0.130854859948, Q4 : 0.476979374886}
2019-04-15 00:31:50.11: SIM {TimeUS : 58534910, Roll : -1.51, Pitch : -16.46, Yaw : 58.25, Alt : 49.2900009155, Lat : 49.2836175, Lng : -123.1149178, Q1 : 0.86536103487, Q2 : 0.0582832805812, Q3 : -0.131456151605, Q4 : 0.480075597763}
2019-04-15 00:31:50.21: SIM {TimeUS : 58634870, Roll : -1.46, Pitch : -16.46, Yaw : 58.37, Alt : 49.2900009155, Lat : 49.2836195, Lng : -123.1149135, Q1 : 0.864858150482, Q2 : 0.0587828457355, Q3 : -0.131118416786, Q4 : 0.48101234436}
2019-04-15 00:31:50.31: SIM {TimeUS : 58734830, Roll : -1.25, Pitch : -16.45, Yaw : 58.21, Alt : 49.2900009155, Lat : 49.2836214, Lng : -123.1149092, Q1 : 0.865442335606, Q2 : 0.0601027719676, Q3 : -0.130305334926, Q4 : 0.480018496513}
2019-04-15 00:31:50.41: SIM {TimeUS : 58834790, Roll : -0.96, Pitch : -16.48, Yaw : 57.83, Alt : 49.2900009155, Lat : 49.2836232, Lng : -123.1149049, Q1 : 0.866823732853, Q2 : 0.0619993619621, Q3 : -0.129524365067, Q4 : 0.477489352226}
2019-04-15 00:31:50.51: SIM {TimeUS : 58934750, Roll : -0.63, Pitch : -16.54, Yaw : 57.32, Alt : 49.2900009155, Lat : 49.2836253, Lng : -123.1149005, Q1 : 0.86869174242, Q2 : 0.0642253533006, Q3 : -0.12891331315, Q4 : 0.473952680826}
2019-04-15 00:31:50.61: SIM {TimeUS : 59034710, Roll : -0.29, Pitch : -16.63, Yaw : 56.75, Alt : 49.2900009155, Lat : 49.2836273, Lng : -123.1148961, Q1 : 0.870745956898, Q2 : 0.0665442794561, Q3 : -0.128512129188, Q4 : 0.469955325127}
2019-04-15 00:31:50.72: SIM {TimeUS : 59135503, Roll : 0.01, Pitch : -16.71, Yaw : 56.19, Alt : 49.2900009155, Lat : 49.2836293, Lng : -123.1148916, Q1 : 0.872781932354, Q2 : 0.0685857534409, Q3 : -0.128107741475, Q4 : 0.465978682041}
2019-04-15 00:31:50.81: SIM {TimeUS : 59235463, Roll : 0.28, Pitch : -16.76, Yaw : 55.7, Alt : 49.2900009155, Lat : 49.2836314, Lng : -123.1148871, Q1 : 0.874549150467, Q2 : 0.0702425166965, Q3 : -0.127715855837, Q4 : 0.462513148785}
2019-04-15 00:31:50.91: SIM {TimeUS : 59335423, Roll : 0.48, Pitch : -16.8, Yaw : 55.32, Alt : 49.2900009155, Lat : 49.2836334, Lng : -123.1148826, Q1 : 0.875910282135, Q2 : 0.0714994221926, Q3 : -0.127460360527, Q4 : 0.459807395935}
2019-04-15 00:31:51.01: SIM {TimeUS : 59435383, Roll : 0.61, Pitch : -16.82, Yaw : 55.07, Alt : 49.2900009155, Lat : 49.2836354, Lng : -123.114878, Q1 : 0.876798450947, Q2 : 0.0723235532641, Q3 : -0.127312257886, Q4 : 0.45802333951}
2019-04-15 00:31:51.11: SIM {TimeUS : 59535343, Roll : 0.66, Pitch : -16.85, Yaw : 54.95, Alt : 49.2900009155, Lat : 49.2836376, Lng : -123.1148733, Q1 : 0.877213418484, Q2 : 0.0726683363318, Q3 : -0.127367064357, Q4 : 0.457158118486}
2019-04-15 00:31:51.21: SIM {TimeUS : 59635303, Roll : 0.62, Pitch : -16.87, Yaw : 54.95, Alt : 49.2900009155, Lat : 49.2836396, Lng : -123.1148687, Q1 : 0.87720400095, Q2 : 0.072486512363, Q3 : -0.127650529146, Q4 : 0.457126021385}
2019-04-15 00:31:51.31: SIM {TimeUS : 59735263, Roll : 0.52, Pitch : -16.89, Yaw : 55.05, Alt : 49.2900009155, Lat : 49.2836416, Lng : -123.1148639, Q1 : 0.87683904171, Q2 : 0.0719121471047, Q3 : -0.128137052059, Q4 : 0.457780390978}
2019-04-15 00:31:51.41: SIM {TimeUS : 59835223, Roll : 0.38, Pitch : -16.91, Yaw : 55.22, Alt : 49.2900009155, Lat : 49.2836438, Lng : -123.1148592, Q1 : 0.876223802567, Q2 : 0.0711307525635, Q3 : -0.128782197833, Q4 : 0.458898067474}
2019-04-15 00:31:51.51: SIM {TimeUS : 59935183, Roll : 0.23, Pitch : -16.95, Yaw : 55.43, Alt : 49.2999992371, Lat : 49.2836458, Lng : -123.1148544, Q1 : 0.875452518463, Q2 : 0.0703630074859, Q3 : -0.129588633776, Q4 : 0.460259437561}
2019-04-15 00:31:51.61: SIM {TimeUS : 60035143, Roll : 0.07, Pitch : -17.0, Yaw : 55.63, Alt : 49.2999992371, Lat : 49.283648, Lng : -123.1148496, Q1 : 0.874648988247, Q2 : 0.0696108341217, Q3 : -0.130452945828, Q4 : 0.461655259132}
2019-04-15 00:31:51.71: SIM {TimeUS : 60135103, Roll : -0.06, Pitch : -17.04, Yaw : 55.82, Alt : 49.2999992371, Lat : 49.2836501, Lng : -123.1148448, Q1 : 0.873932003975, Q2 : 0.0688603818417, Q3 : -0.131228327751, Q4 : 0.462904214859}
2019-04-15 00:31:51.81: SIM {TimeUS : 60235063, Roll : -0.19, Pitch : -17.06, Yaw : 55.97, Alt : 49.2999992371, Lat : 49.2836523, Lng : -123.1148399, Q1 : 0.873377382755, Q2 : 0.0681840851903, Q3 : -0.131833106279, Q4 : 0.463878124952}
2019-04-15 00:31:51.91: SIM {TimeUS : 60335023, Roll : -0.28, Pitch : -17.09, Yaw : 56.07, Alt : 49.2999992371, Lat : 49.2836545, Lng : -123.114835, Q1 : 0.873002648354, Q2 : 0.0677130967379, Q3 : -0.132376387715, Q4 : 0.464497357607}
2019-04-15 00:31:52.01: SIM {TimeUS : 60434983, Roll : -0.31, Pitch : -17.13, Yaw : 56.11, Alt : 49.2999992371, Lat : 49.2836566, Lng : -123.1148301, Q1 : 0.872810423374, Q2 : 0.0676717460155, Q3 : -0.132766053081, Q4 : 0.464753329754}
2019-04-15 00:31:52.11: SIM {TimeUS : 60534943, Roll : -0.29, Pitch : -17.17, Yaw : 56.1, Alt : 49.2999992371, Lat : 49.2836588, Lng : -123.1148252, Q1 : 0.872803270817, Q2 : 0.0679518431425, Q3 : -0.13298599422, Q4 : 0.464663028717}
2019-04-15 00:31:52.21: SIM {TimeUS : 60634903, Roll : -0.23, Pitch : -17.21, Yaw : 56.04, Alt : 49.2999992371, Lat : 49.2836609, Lng : -123.1148202, Q1 : 0.872948884964, Q2 : 0.0685492008924, Q3 : -0.133052319288, Q4 : 0.464282572269}
2019-04-15 00:31:52.31: SIM {TimeUS : 60734863, Roll : -0.12, Pitch : -17.25, Yaw : 55.95, Alt : 49.2999992371, Lat : 49.2836632, Lng : -123.1148153, Q1 : 0.873201429844, Q2 : 0.0694449022412, Q3 : -0.132983952761, Q4 : 0.463693797588}
2019-04-15 00:31:52.41: SIM {TimeUS : 60834823, Roll : -0.01, Pitch : -17.28, Yaw : 55.84, Alt : 49.2999992371, Lat : 49.2836653, Lng : -123.1148102, Q1 : 0.873548567295, Q2 : 0.0702459365129, Q3 : -0.132849633694, Q4 : 0.462957292795}
2019-04-15 00:31:52.51: SIM {TimeUS : 60934783, Roll : 0.05, Pitch : -17.29, Yaw : 55.73, Alt : 49.3100013733, Lat : 49.2836676, Lng : -123.1148053, Q1 : 0.873957037926, Q2 : 0.0707350969315, Q3 : -0.132686048746, Q4 : 0.462158083916}
2019-04-15 00:31:52.61: SIM {TimeUS : 61034743, Roll : 0.09, Pitch : -17.3, Yaw : 55.62, Alt : 49.3100013733, Lat : 49.2836699, Lng : -123.1148002, Q1 : 0.874366343021, Q2 : 0.0709291249514, Q3 : -0.132636487484, Q4 : 0.461367726326}
2019-04-15 00:31:52.71: SIM {TimeUS : 61134703, Roll : 0.12, Pitch : -17.3, Yaw : 55.52, Alt : 49.3100013733, Lat : 49.283672, Lng : -123.1147952, Q1 : 0.874729514122, Q2 : 0.0710390284657, Q3 : -0.1326020509, Q4 : 0.460671722889}
2019-04-15 00:31:52.82: SIM {TimeUS : 61235496, Roll : 0.15, Pitch : -17.31, Yaw : 55.45, Alt : 49.3100013733, Lat : 49.2836743, Lng : -123.1147901, Q1 : 0.875001490116, Q2 : 0.0712132304907, Q3 : -0.132651761174, Q4 : 0.460113614798}
2019-04-15 00:31:52.91: SIM {TimeUS : 61335456, Roll : 0.18, Pitch : -17.35, Yaw : 55.39, Alt : 49.3100013733, Lat : 49.2836766, Lng : -123.114785, Q1 : 0.87514269352, Q2 : 0.0715581476688, Q3 : -0.132849723101, Q4 : 0.459734320641}
2019-04-15 00:31:53.01: SIM {TimeUS : 61435416, Roll : 0.2, Pitch : -17.41, Yaw : 55.37, Alt : 49.3100013733, Lat : 49.2836789, Lng : -123.1147798, Q1 : 0.87517696619, Q2 : 0.0719361081719, Q3 : -0.133236706257, Q4 : 0.459498047829}
2019-04-15 00:31:53.11: SIM {TimeUS : 61535376, Roll : 0.21, Pitch : -17.45, Yaw : 55.36, Alt : 49.3100013733, Lat : 49.283681, Lng : -123.1147748, Q1 : 0.875171542168, Q2 : 0.0720915198326, Q3 : -0.133521467447, Q4 : 0.459401369095}
2019-04-15 00:31:53.21: SIM {TimeUS : 61635336, Roll : 0.2, Pitch : -17.46, Yaw : 55.36, Alt : 49.3100013733, Lat : 49.2836834, Lng : -123.1147697, Q1 : 0.875142097473, Q2 : 0.072070017457, Q3 : -0.133628383279, Q4 : 0.459429770708}
2019-04-15 00:31:53.31: SIM {TimeUS : 61735296, Roll : 0.18, Pitch : -17.47, Yaw : 55.38, Alt : 49.3100013733, Lat : 49.2836857, Lng : -123.1147645, Q1 : 0.875082135201, Q2 : 0.0719897896051, Q3 : -0.133779004216, Q4 : 0.459512770176}
2019-04-15 00:31:53.41: SIM {TimeUS : 61835256, Roll : 0.13, Pitch : -17.49, Yaw : 55.4, Alt : 49.3100013733, Lat : 49.283688, Lng : -123.1147594, Q1 : 0.87500756979, Q2 : 0.0717387795448, Q3 : -0.13412681222, Q4 : 0.459592580795}
2019-04-15 00:31:53.51: SIM {TimeUS : 61935216, Roll : 0.09, Pitch : -17.51, Yaw : 55.41, Alt : 49.3100013733, Lat : 49.2836902, Lng : -123.1147542, Q1 : 0.874933362007, Q2 : 0.0715427547693, Q3 : -0.134400382638, Q4 : 0.459684491158}
2019-04-15 00:31:53.61: SIM {TimeUS : 62035176, Roll : 0.07, Pitch : -17.53, Yaw : 55.43, Alt : 49.3100013733, Lat : 49.2836925, Lng : -123.114749, Q1 : 0.874869287014, Q2 : 0.0714304149151, Q3 : -0.134659528732, Q4 : 0.459747999907}
2019-04-15 00:31:53.71: SIM {TimeUS : 62135136, Roll : 0.05, Pitch : -17.55, Yaw : 55.44, Alt : 49.3199996948, Lat : 49.2836949, Lng : -123.1147438, Q1 : 0.874822854996, Q2 : 0.0714283660054, Q3 : -0.134839057922, Q4 : 0.459784060717}
2019-04-15 00:31:53.81: SIM {TimeUS : 62235096, Roll : 0.05, Pitch : -17.57, Yaw : 55.44, Alt : 49.3199996948, Lat : 49.2836972, Lng : -123.1147386, Q1 : 0.87479954958, Q2 : 0.0715115815401, Q3 : -0.135001927614, Q4 : 0.459767758846}
2019-04-15 00:31:53.91: SIM {TimeUS : 62335056, Roll : 0.07, Pitch : -17.58, Yaw : 55.43, Alt : 49.3199996948, Lat : 49.2836995, Lng : -123.1147333, Q1 : 0.874808430672, Q2 : 0.0716693550348, Q3 : -0.13502626121, Q4 : 0.459719121456}
2019-04-15 00:31:54.01: SIM {TimeUS : 62435016, Roll : 0.1, Pitch : -17.6, Yaw : 55.41, Alt : 49.3199996948, Lat : 49.2837017, Lng : -123.1147281, Q1 : 0.874826192856, Q2 : 0.0719332247972, Q3 : -0.13506500423, Q4 : 0.459632694721}
2019-04-15 00:31:54.11: SIM {TimeUS : 62534976, Roll : 0.12, Pitch : -17.62, Yaw : 55.39, Alt : 49.3199996948, Lat : 49.2837041, Lng : -123.1147229, Q1 : 0.874864578247, Q2 : 0.0722040906549, Q3 : -0.135154247284, Q4 : 0.459490895271}
2019-04-15 00:31:54.21: SIM {TimeUS : 62634936, Roll : 0.13, Pitch : -17.66, Yaw : 55.37, Alt : 49.3199996948, Lat : 49.2837065, Lng : -123.1147176, Q1 : 0.874923527241, Q2 : 0.0723606273532, Q3 : -0.135433882475, Q4 : 0.459271639585}
2019-04-15 00:31:54.31: SIM {TimeUS : 62734896, Roll : 0.12, Pitch : -17.7, Yaw : 55.34, Alt : 49.3199996948, Lat : 49.2837088, Lng : -123.1147123, Q1 : 0.874994158745, Q2 : 0.0724509954453, Q3 : -0.13581097126, Q4 : 0.459011465311}
2019-04-15 00:31:54.41: SIM {TimeUS : 62834856, Roll : 0.11, Pitch : -17.75, Yaw : 55.31, Alt : 49.3199996948, Lat : 49.2837112, Lng : -123.114707, Q1 : 0.875070512295, Q2 : 0.0724938735366, Q3 : -0.136204347014, Q4 : 0.458742499352}
2019-04-15 00:31:54.51: SIM {TimeUS : 62934816, Roll : 0.12, Pitch : -17.77, Yaw : 55.28, Alt : 49.3199996948, Lat : 49.2837135, Lng : -123.1147017, Q1 : 0.875150859356, Q2 : 0.0726130828261, Q3 : -0.136403635144, Q4 : 0.458511054516}
2019-04-15 00:31:54.61: SIM {TimeUS : 63034776, Roll : 0.13, Pitch : -17.78, Yaw : 55.25, Alt : 49.3199996948, Lat : 49.2837159, Lng : -123.1146964, Q1 : 0.875246942043, Q2 : 0.0727011188865, Q3 : -0.136395186186, Q4 : 0.458316206932}
2019-04-15 00:31:54.71: SIM {TimeUS : 63134736, Roll : 0.15, Pitch : -17.76, Yaw : 55.23, Alt : 49.3199996948, Lat : 49.2837182, Lng : -123.114691, Q1 : 0.875353336334, Q2 : 0.0727628096938, Q3 : -0.136183768511, Q4 : 0.45816603303}
2019-04-15 00:31:54.81: SIM {TimeUS : 63234696, Roll : 0.15, Pitch : -17.74, Yaw : 55.21, Alt : 49.3199996948, Lat : 49.2837205, Lng : -123.1146858, Q1 : 0.875446498394, Q2 : 0.0726961046457, Q3 : -0.136047080159, Q4 : 0.458039194345}
2019-04-15 00:31:54.91: SIM {TimeUS : 63335489, Roll : 0.15, Pitch : -17.72, Yaw : 55.19, Alt : 49.3199996948, Lat : 49.2837229, Lng : -123.1146804, Q1 : 0.875534653664, Q2 : 0.072555154562, Q3 : -0.135940477252, Q4 : 0.457924723625}
2019-04-15 00:31:55.01: SIM {TimeUS : 63435449, Roll : 0.14, Pitch : -17.71, Yaw : 55.18, Alt : 49.3199996948, Lat : 49.2837253, Lng : -123.1146751, Q1 : 0.875598311424, Q2 : 0.0724425390363, Q3 : -0.135836288333, Q4 : 0.45785176754}
2019-04-15 00:31:55.11: SIM {TimeUS : 63535409, Roll : 0.14, Pitch : -17.72, Yaw : 55.17, Alt : 49.3199996948, Lat : 49.2837278, Lng : -123.1146697, Q1 : 0.875619113445, Q2 : 0.072452686727, Q3 : -0.135927706957, Q4 : 0.457783192396}
2019-04-15 00:31:55.21: SIM {TimeUS : 63635369, Roll : 0.14, Pitch : -17.74, Yaw : 55.17, Alt : 49.3300018311, Lat : 49.2837302, Lng : -123.1146643, Q1 : 0.875620663166, Q2 : 0.072550393641, Q3 : -0.136071607471, Q4 : 0.457721978426}
2019-04-15 00:31:55.31: SIM {TimeUS : 63735329, Roll : 0.14, Pitch : -17.78, Yaw : 55.16, Alt : 49.3300018311, Lat : 49.2837325, Lng : -123.114659, Q1 : 0.875593841076, Q2 : 0.0726865977049, Q3 : -0.13644887507, Q4 : 0.457639336586}
2019-04-15 00:31:55.41: SIM {TimeUS : 63835289, Roll : 0.14, Pitch : -17.83, Yaw : 55.15, Alt : 49.3300018311, Lat : 49.2837349, Lng : -123.1146536, Q1 : 0.875561118126, Q2 : 0.0728596821427, Q3 : -0.13687081635, Q4 : 0.45754852891}
2019-04-15 00:31:55.51: SIM {TimeUS : 63935249, Roll : 0.14, Pitch : -17.87, Yaw : 55.15, Alt : 49.3300018311, Lat : 49.2837373, Lng : -123.1146482, Q1 : 0.875546991825, Q2 : 0.0730208232999, Q3 : -0.137168288231, Q4 : 0.457460701466}
2019-04-15 00:31:55.61: SIM {TimeUS : 64035209, Roll : 0.13, Pitch : -17.91, Yaw : 55.14, Alt : 49.3300018311, Lat : 49.2837397, Lng : -123.1146428, Q1 : 0.875548541546, Q2 : 0.0731008499861, Q3 : -0.137459367514, Q4 : 0.457357525826}
2019-04-15 00:31:55.71: SIM {TimeUS : 64135169, Roll : 0.12, Pitch : -17.93, Yaw : 55.13, Alt : 49.3300018311, Lat : 49.2837421, Lng : -123.1146374, Q1 : 0.875571787357, Q2 : 0.073109395802, Q3 : -0.137637913227, Q4 : 0.457257926464}
2019-04-15 00:31:55.81: SIM {TimeUS : 64235129, Roll : 0.14, Pitch : -17.92, Yaw : 55.11, Alt : 49.3300018311, Lat : 49.2837445, Lng : -123.114632, Q1 : 0.875617265701, Q2 : 0.0731564089656, Q3 : -0.137537047267, Q4 : 0.457193791866}
2019-04-15 00:31:55.91: SIM {TimeUS : 64335089, Roll : 0.16, Pitch : -17.92, Yaw : 55.1, Alt : 49.3300018311, Lat : 49.2837469, Lng : -123.1146266, Q1 : 0.875647842884, Q2 : 0.0733648911119, Q3 : -0.137476623058, Q4 : 0.457119971514}
2019-04-15 00:31:56.01: SIM {TimeUS : 64435049, Roll : 0.18, Pitch : -17.94, Yaw : 55.09, Alt : 49.3300018311, Lat : 49.2837494, Lng : -123.1146211, Q1 : 0.875675320625, Q2 : 0.0735151320696, Q3 : -0.137562841177, Q4 : 0.457017213106}
2019-04-15 00:31:56.11: SIM {TimeUS : 64535009, Roll : 0.19, Pitch : -17.95, Yaw : 55.07, Alt : 49.3300018311, Lat : 49.2837518, Lng : -123.1146158, Q1 : 0.875711381435, Q2 : 0.0736294984818, Q3 : -0.137600645423, Q4 : 0.456918329}
2019-04-15 00:31:56.21: SIM {TimeUS : 64634969, Roll : 0.2, Pitch : -17.95, Yaw : 55.06, Alt : 49.3300018311, Lat : 49.2837542, Lng : -123.1146103, Q1 : 0.875763714314, Q2 : 0.0736567005515, Q3 : -0.137558549643, Q4 : 0.456826329231}
2019-04-15 00:31:56.31: SIM {TimeUS : 64734929, Roll : 0.19, Pitch : -17.95, Yaw : 55.05, Alt : 49.3300018311, Lat : 49.2837565, Lng : -123.1146049, Q1 : 0.875814437866, Q2 : 0.0736376941204, Q3 : -0.137589141726, Q4 : 0.456722915173}
2019-04-15 00:31:56.41: SIM {TimeUS : 64834889, Roll : 0.17, Pitch : -17.97, Yaw : 55.03, Alt : 49.3300018311, Lat : 49.2837589, Lng : -123.1145994, Q1 : 0.875852227211, Q2 : 0.0735430270433, Q3 : -0.137838557363, Q4 : 0.456590473652}
2019-04-15 00:31:56.51: SIM {TimeUS : 64934849, Roll : 0.14, Pitch : -18.01, Yaw : 55.02, Alt : 49.3300018311, Lat : 49.2837615, Lng : -123.114594, Q1 : 0.875877439976, Q2 : 0.073413297534, Q3 : -0.13825455308, Q4 : 0.456437170506}
2019-04-15 00:31:56.61: SIM {TimeUS : 65034809, Roll : 0.12, Pitch : -18.01, Yaw : 55.01, Alt : 49.3300018311, Lat : 49.2837638, Lng : -123.1145885, Q1 : 0.875929117203, Q2 : 0.0732882618904, Q3 : -0.138370126486, Q4 : 0.456323057413}
2019-04-15 00:31:56.71: SIM {TimeUS : 65134769, Roll : 0.13, Pitch : -17.99, Yaw : 55.0, Alt : 49.3400001526, Lat : 49.2837662, Lng : -123.114583, Q1 : 0.875988423824, Q2 : 0.0732802152634, Q3 : -0.138204500079, Q4 : 0.456260740757}
2019-04-15 00:31:56.81: SIM {TimeUS : 65234729, Roll : 0.15, Pitch : -17.98, Yaw : 54.99, Alt : 49.3400001526, Lat : 49.2837688, Lng : -123.1145776, Q1 : 0.876035988331, Q2 : 0.0733661949635, Q3 : -0.138019055128, Q4 : 0.456211686134}
2019-04-15 00:31:56.92: SIM {TimeUS : 65335522, Roll : 0.17, Pitch : -17.99, Yaw : 54.98, Alt : 49.3400001526, Lat : 49.2837711, Lng : -123.1145721, Q1 : 0.876062750816, Q2 : 0.0735064223409, Q3 : -0.138026490808, Q4 : 0.456135451794}
2019-04-15 00:31:57.01: SIM {TimeUS : 65435482, Roll : 0.16, Pitch : -18.0, Yaw : 54.97, Alt : 49.3400001526, Lat : 49.2837737, Lng : -123.1145666, Q1 : 0.876096367836, Q2 : 0.0734725892544, Q3 : -0.138191327453, Q4 : 0.456026464701}
2019-04-15 00:31:57.11: SIM {TimeUS : 65535442, Roll : 0.13, Pitch : -18.02, Yaw : 54.95, Alt : 49.3400001526, Lat : 49.2837761, Lng : -123.1145611, Q1 : 0.876132428646, Q2 : 0.0733327791095, Q3 : -0.138451159, Q4 : 0.45590081811}
2019-04-15 00:31:57.21: SIM {TimeUS : 65635402, Roll : 0.12, Pitch : -18.05, Yaw : 54.94, Alt : 49.3400001526, Lat : 49.2837786, Lng : -123.1145556, Q1 : 0.876156628132, Q2 : 0.0733120888472, Q3 : -0.138690903783, Q4 : 0.455784708261}
2019-04-15 00:31:57.31: SIM {TimeUS : 65735362, Roll : 0.13, Pitch : -18.07, Yaw : 54.93, Alt : 49.3400001526, Lat : 49.283781, Lng : -123.1145501, Q1 : 0.876169025898, Q2 : 0.073458135128, Q3 : -0.138865724206, Q4 : 0.455684125423}
2019-04-15 00:31:57.41: SIM {TimeUS : 65835322, Roll : 0.14, Pitch : -18.09, Yaw : 54.92, Alt : 49.3400001526, Lat : 49.2837835, Lng : -123.1145445, Q1 : 0.876179456711, Q2 : 0.0736394897103, Q3 : -0.138973549008, Q4 : 0.45560207963}
2019-04-15 00:31:57.51: SIM {TimeUS : 65935282, Roll : 0.17, Pitch : -18.1, Yaw : 54.91, Alt : 49.3400001526, Lat : 49.2837859, Lng : -123.114539, Q1 : 0.876187205315, Q2 : 0.0738711878657, Q3 : -0.138946861029, Q4 : 0.455557703972}
2019-04-15 00:31:57.61: SIM {TimeUS : 66035242, Roll : 0.18, Pitch : -18.11, Yaw : 54.9, Alt : 49.3400001526, Lat : 49.2837884, Lng : -123.1145336, Q1 : 0.876197218895, Q2 : 0.0740033835173, Q3 : -0.138962581754, Q4 : 0.455512225628}
2019-04-15 00:31:57.71: SIM {TimeUS : 66135202, Roll : 0.19, Pitch : -18.12, Yaw : 54.9, Alt : 49.3400001526, Lat : 49.2837909, Lng : -123.1145281, Q1 : 0.876205325127, Q2 : 0.0741210430861, Q3 : -0.139002978802, Q4 : 0.455465137959}
2019-04-15 00:31:57.81: SIM {TimeUS : 66235162, Roll : 0.21, Pitch : -18.13, Yaw : 54.89, Alt : 49.3400001526, Lat : 49.2837933, Lng : -123.1145226, Q1 : 0.876207888126, Q2 : 0.0742811262608, Q3 : -0.139036849141, Q4 : 0.45542383194}
