2019-04-15 00:53:08.90: SIM {TimeUS : 40716207, Roll : 0.0, Pitch : 0.0, Yaw : 0.0, Alt : 30.1000003815, Lat : 49.28357, Lng : -123.11502, Q1 : 1.0, Q2 : 0.0, Q3 : 0.0, Q4 : 0.0}
2019-04-15 00:53:09.01: SIM {TimeUS : 40835326, Roll : 0.0, Pitch : 0.0, Yaw : 0.0, Alt : 30.1000003815, Lat : 49.28357, Lng : -123.11502, Q1 : 1.0, Q2 : 0.0, Q3 : 0.0, Q4 : 0.0}
2019-04-15 00:53:09.11: SIM {TimeUS : 40935286, Roll : 0.0, Pitch : 0.0, Yaw : 0.0, Alt : 30.1000003815, Lat : 49.28357, Lng : -123.11502, Q1 : 1.0, Q2 : 0.0, Q3 : 0.0, Q4 : 0.0}
2019-04-15 00:53:09.21: SIM {TimeUS : 41035246, Roll : 0.0, Pitch : 0.0, Yaw : 0.0, Alt : 30.1000003815, Lat : 49.28357, Lng : -123.11502, Q1 : 1.0, Q2 : 0.0, Q3 : 0.0, Q4 : 0.0}
2019-04-15 00:53:09.31: SIM {TimeUS : 41135206, Roll : 0.0, Pitch : 0.0, Yaw : 0.0, Alt : 30.1000003815, Lat : 49.28357, Lng : -123.11502, Q1 : 1.0, Q2 : 0.0, Q3 : 0.0, Q4 : 0.0}
2019-04-15 00:53:09.41: SIM {TimeUS : 41235166, Roll : 0.0, Pitch : 0.0, Yaw : 0.0, Alt : 30.1000003815, Lat : 49.28357, Lng : -123.11502, Q1 : 1.0, Q2 : 0.0, Q3 : 0.0, Q4 : 0.0}
2019-04-15 00:53:09.51: SIM {TimeUS : 41335126, Roll : 0.0, Pitch : 0.0, Yaw : 0.0, Alt : 30.1000003815, Lat : 49.28357, Lng : -123.11502, Q1 : 1.0, Q2 : 0.0, Q3 : 0.0, Q4 : 0.0}
2019-04-15 00:53:09.61: SIM {TimeUS : 41435086, Roll : 0.0, Pitch : 0.0, Yaw : 0.0, Alt : 30.1000003815, Lat : 49.28357, Lng : -123.11502, Q1 : 1.0, Q2 : 0.0, Q3 : 0.0, Q4 : 0.0}
2019-04-15 00:53:09.71: SIM {TimeUS : 41535046, Roll : 0.0, Pitch : 0.0, Yaw : 0.0, Alt : 30.1000003815, Lat : 49.28357, Lng : -123.11502, Q1 : 1.0, Q2 : 0.0, Q3 : 0.0, Q4 : 0.0}
2019-04-15 00:53:09.81: SIM {TimeUS : 41635006, Roll : 0.0, Pitch : 0.0, Yaw : 0.0, Alt : 30.1000003815, Lat : 49.28357, Lng : -123.11502, Q1 : 1.0, Q2 : 0.0, Q3 : 0.0, Q4 : 0.0}
2019-04-15 00:53:09.91: SIM {TimeUS : 41734966, Roll : 0.0, Pitch : 0.0, Yaw : 0.0, Alt : 30.1000003815, Lat : 49.28357, Lng : -123.11502, Q1 : 1.0, Q2 : 0.0, Q3 : 0.0, Q4 : 0.0}
2019-04-15 00:53:10.01: SIM {TimeUS : 41834926, Roll : 0.0, Pitch : 0.0, Yaw : 0.0, Alt : 30.1000003815, Lat : 49.28357, Lng : -123.11502, Q1 : 1.0, Q2 : 0.0, Q3 : 0.0, Q4 : 0.0}
2019-04-15 00:53:10.11: SIM {TimeUS : 41934886, Roll : 0.0, Pitch : 0.0, Yaw : 0.0, Alt : 30.1000003815, Lat : 49.28357, Lng : -123.11502, Q1 : 1.0, Q2 : 0.0, Q3 : 0.0, Q4 : 0.0}
2019-04-15 00:53:10.21: SIM {TimeUS : 42034846, Roll : 0.0, Pitch : 0.0, Yaw : 0.0, Alt : 30.1000003815, Lat : 49.28357, Lng : -123.11502, Q1 : 1.0, Q2 : 0.0, Q3 : 0.0, Q4 : 0.0}
2019-04-15 00:53:10.31: SIM {TimeUS : 42134806, Roll : 0.0, Pitch : 0.0, Yaw : 0.0, Alt : 30.1000003815, Lat : 49.28357, Lng : -123.11502, Q1 : 1.0, Q2 : 0.0, Q3 : 0.0, Q4 : 0.0}
2019-04-15 00:53:10.41: SIM {TimeUS : 42234766, Roll : 0.0, Pitch : 0.0, Yaw : 0.0, Alt : 30.1000003815, Lat : 49.28357, Lng : -123.11502, Q1 : 1.0, Q2 : 0.0, Q3 : 0.0, Q4 : 0.0}
2019-04-15 00:53:10.51: SIM {TimeUS : 42334726, Roll : 0.0, Pitch : 0.0, Yaw : 0.0, Alt : 30.1000003815, Lat : 49.28357, Lng : -123.11502, Q1 : 1.0, Q2 : 0.0, Q3 : 0.0, Q4 : 0.0}
2019-04-15 00:53:10.61: SIM {TimeUS : 42434686, Roll : 0.0, Pitch : 0.0, Yaw : 0.0, Alt : 30.1000003815, Lat : 49.28357, Lng : -123.11502, Q1 : 1.0, Q2 : 0.0, Q3 : 0.0, Q4 : 0.0}
2019-04-15 00:53:10.71: SIM {TimeUS : 42534646, Roll : 0.0, Pitch : 0.0, Yaw : 0.0, Alt : 30.1000003815, Lat : 49.28357, Lng : -123.11502, Q1 : 1.0, Q2 : 0.0, Q3 : 0.0, Q4 : 0.0}
2019-04-15 00:53:10.81: SIM {TimeUS : 42634606, Roll : 0.0, Pitch : 0.0, Yaw : 0.0, Alt : 30.1000003815, Lat : 49.28357, Lng : -123.11502, Q1 : 1.0, Q2 : 0.0, Q3 : 0.0, Q4 : 0.0}
2019-04-15 00:53:10.91: SIM {TimeUS : 42734566, Roll : 0.0, Pitch : 0.0, Yaw : 0.0, Alt : 30.1000003815, Lat : 49.28357, Lng : -123.11502, Q1 : 1.0, Q2 : 0.0, Q3 : 0.0, Q4 : 0.0}
2019-04-15 00:53:11.02: SIM {TimeUS : 42835359, Roll : 0.0, Pitch : 0.0, Yaw : 0.0, Alt : 30.1000003815, Lat : 49.28357, Lng : -123.11502, Q1 : 1.0, Q2 : 0.0, Q3 : 0.0, Q4 : 0.0}
2019-04-15 00:53:11.11: SIM {TimeUS : 42935319, Roll : 0.0, Pitch : 0.0, Yaw : 0.0, Alt : 30.1000003815, Lat : 49.28357, Lng : -123.11502, Q1 : 1.0, Q2 : 0.0, Q3 : 0.0, Q4 : 0.0}
2019-04-15 00:53:11.21: SIM {TimeUS : 43035279, Roll : 0.0, Pitch : 0.0, Yaw : 360.0, Alt : 30.1000003815, Lat : 49.28357, Lng : -123.11502, Q1 : 1.0, Q2 : 0.0, Q3 : 0.0, Q4 : -1.2311567564e-11}
2019-04-15 00:53:11.31: SIM {TimeUS : 43135239, Roll : 0.0, Pitch : 0.0, Yaw : 0.0, Alt : 30.1000003815, Lat : 49.28357, Lng : -123.11502, Q1 : 1.0, Q2 : 0.0, Q3 : 0.0, Q4 : 5.47755590885e-12}
2019-04-15 00:53:11.41: SIM {TimeUS : 43235199, Roll : 0.0, Pitch : 0.0, Yaw : 360.0, Alt : 30.1000003815, Lat : 49.28357, Lng : -123.11502, Q1 : 1.0, Q2 : 0.0, Q3 : 0.0, Q4 : -1.28970256696e-07}
2019-04-15 00:53:11.51: SIM {TimeUS : 43335159, Roll : 0.0, Pitch : 0.0, Yaw : 359.99, Alt : 30.1000003815, Lat : 49.28357, Lng : -123.11502, Q1 : 1.0, Q2 : 0.0, Q3 : 0.0, Q4 : -2.89638933282e-07}
2019-04-15 00:53:11.61: SIM {TimeUS : 43435119, Roll : 0.0, Pitch : 0.0, Yaw : 359.99, Alt : 30.1000003815, Lat : 49.28357, Lng : -123.11502, Q1 : 1.0, Q2 : 0.0, Q3 : 0.0, Q4 : -4.88095736273e-07}
2019-04-15 00:53:11.71: SIM {TimeUS : 43535079, Roll : 0.0, Pitch : 0.0, Yaw : 359.99, Alt : 30.1000003815, Lat : 49.28357, Lng : -123.11502, Q1 : 1.0, Q2 : 0.0, Q3 : 0.0, Q4 : -6.4443958081e-07}
2019-04-15 00:53:11.81: SIM {TimeUS : 43635039, Roll : 0.0, Pitch : 0.0, Yaw : 359.99, Alt : 30.1000003815, Lat : 49.28357, Lng : -123.11502, Q1 : 1.0, Q2 : 0.0, Q3 : 0.0, Q4 : -8.54609766066e-07}
2019-04-15 00:53:11.91: SIM {TimeUS : 43734999, Roll : 0.0, Pitch : 0.0, Yaw : 359.99, Alt : 30.1000003815, Lat : 49.28357, Lng : -123.11502, Q1 : 1.0, Q2 : 0.0, Q3 : 0.0, Q4 : -1.02681815406e-06}
2019-04-15 00:53:12.01: SIM {TimeUS : 43834959, Roll : 0.0, Pitch : 0.0, Yaw : 359.99, Alt : 30.1000003815, Lat : 49.28357, Lng : -123.11502, Q1 : 1.0, Q2 : 0.0, Q3 : 0.0, Q4 : -1.22715152884e-06}
2019-04-15 00:53:12.11: SIM {TimeUS : 43934919, Roll : 0.0, Pitch : 0.0, Yaw : 359.99, Alt : 30.1200008392, Lat : 49.28357, Lng : -123.11502, Q1 : 1.0, Q2 : 0.0, Q3 : 0.0, Q4 : -1.37912195441e-06}
2019-04-15 00:53:12.21: SIM {TimeUS : 44034879, Roll : 0.0, Pitch : 0.0, Yaw : 359.99, Alt : 30.1399993896, Lat : 49.28357, Lng : -123.11502, Q1 : 1.0, Q2 : 0.0, Q3 : 0.0, Q4 : -1.60338697697e-06}
2019-04-15 00:53:12.31: SIM {TimeUS : 44134839, Roll : 0.0, Pitch : 0.0, Yaw : 359.99, Alt : 30.1700000763, Lat : 49.28357, Lng : -123.11502, Q1 : 1.0, Q2 : 0.0, Q3 : 0.0, Q4 : -1.80940912742e-06}
2019-04-15 00:53:12.41: SIM {TimeUS : 44234799, Roll : 0.0, Pitch : 0.0, Yaw : 359.99, Alt : 30.2000007629, Lat : 49.28357, Lng : -123.11502, Q1 : 1.0, Q2 : 0.0, Q3 : 0.0, Q4 : -1.98788711714e-06}
2019-04-15 00:53:12.51: SIM {TimeUS : 44334759, Roll : -0.09, Pitch : -0.08, Yaw : 359.99, Alt : 30.25, Lat : 49.28357, Lng : -123.11502, Q1 : 0.999999344349, Q2 : -0.000858298619278, Q3 : -0.000770335609559, Q4 : -1.01401765278e-05}
2019-04-15 00:53:12.61: SIM {TimeUS : 44434719, Roll : -0.36, Pitch : -0.35, Yaw : 359.99, Alt : 30.3400001526, Lat : 49.28357, Lng : -123.11502, Q1 : 0.999990046024, Q2 : -0.00318928202614, Q3 : -0.00312102283351, Q4 : -4.52710592072e-05}
2019-04-15 00:53:12.71: SIM {TimeUS : 44534679, Roll : -0.63, Pitch : -0.61, Yaw : 359.99, Alt : 30.4899997711, Lat : 49.28357, Lng : -123.11502, Q1 : 0.999970436096, Q2 : -0.00551793165505, Q3 : -0.00535884872079, Q4 : -0.000107380532427}
2019-04-15 00:53:12.81: SIM {TimeUS : 44634639, Roll : -0.79, Pitch : -0.74, Yaw : 359.98, Alt : 30.6499996185, Lat : 49.28357, Lng : -123.11502, Q1 : 0.999954462051, Q2 : -0.00695810560137, Q3 : -0.00653101364151, Q4 : -0.0001850346016}
2019-04-15 00:53:12.91: SIM {TimeUS : 44734599, Roll : -0.8, Pitch : -0.73, Yaw : 359.97, Alt : 30.8099994659, Lat : 49.28357, Lng : -123.11502, Q1 : 0.99995470047, Q2 : -0.00700194342062, Q3 : -0.00644377665594, Q4 : -0.000267286290182}
2019-04-15 00:53:13.01: SIM {TimeUS : 44834559, Roll : -0.67, Pitch : -0.61, Yaw : 359.96, Alt : 30.9599990845, Lat : 49.28357, Lng : -123.1150201, Q1 : 0.999968111515, Q2 : -0.0058849430643, Q3 : -0.00539057934657, Q4 : -0.000343877560226}
2019-04-15 00:53:13.12: SIM {TimeUS : 44935352, Roll : -0.46, Pitch : -0.43, Yaw : 359.95, Alt : 31.1100006104, Lat : 49.2835701, Lng : -123.1150202, Q1 : 0.999984562397, Q2 : -0.00407214509323, Q3 : -0.00375350262038, Q4 : -0.000409221131122}
2019-04-15 00:53:13.21: SIM {TimeUS : 45035312, Roll : -0.24, Pitch : -0.23, Yaw : 359.94, Alt : 31.2700004578, Lat : 49.2835701, Lng : -123.1150202, Q1 : 0.999995470047, Q2 : -0.00211128895171, Q3 : -0.00208268291317, Q4 : -0.000456610985566}
2019-04-15 00:53:13.31: SIM {TimeUS : 45135272, Roll : -0.05, Pitch : -0.08, Yaw : 359.94, Alt : 31.4400005341, Lat : 49.2835702, Lng : -123.1150203, Q1 : 0.999999523163, Q2 : -0.00045130358194, Q3 : -0.000718207331374, Q4 : -0.000489108846523}
2019-04-15 00:53:13.41: SIM {TimeUS : 45235232, Roll : 0.06, Pitch : 0.02, Yaw : 359.94, Alt : 31.6100006104, Lat : 49.2835702, Lng : -123.1150204, Q1 : 0.999999701977, Q2 : 0.000542690977454, Q3 : 0.000231524929404, Q4 : -0.000507041113451}
2019-04-15 00:53:13.51: SIM {TimeUS : 45335192, Roll : 0.09, Pitch : 0.08, Yaw : 359.94, Alt : 31.7900009155, Lat : 49.2835703, Lng : -123.1150205, Q1 : 0.99999922514, Q2 : 0.000827115669381, Q3 : 0.000766141689382, Q4 : -0.000503963732626}
2019-04-15 00:53:13.61: SIM {TimeUS : 45435152, Roll : 0.07, Pitch : 0.1, Yaw : 359.94, Alt : 31.9699993134, Lat : 49.2835703, Lng : -123.1150205, Q1 : 0.99999922514, Q2 : 0.000665671832394, Q3 : 0.000915222277399, Q4 : -0.000494307547342}
2019-04-15 00:53:13.71: SIM {TimeUS : 45535112, Roll : 0.06, Pitch : 0.11, Yaw : 359.94, Alt : 32.1599998474, Lat : 49.2835703, Lng : -123.1150206, Q1 : 0.999999284744, Q2 : 0.000588849012274, Q3 : 0.000964692793787, Q4 : -0.000472078827443}
2019-04-15 00:53:13.81: SIM {TimeUS : 45635072, Roll : 0.07, Pitch : 0.11, Yaw : 359.94, Alt : 32.3499984741, Lat : 49.2835703, Lng : -123.1150206, Q1 : 0.99999922514, Q2 : 0.000643700012006, Q3 : 0.000982732395642, Q4 : -0.00045579316793}
2019-04-15 00:53:13.91: SIM {TimeUS : 45735032, Roll : 0.09, Pitch : 0.11, Yaw : 359.94, Alt : 32.5400009155, Lat : 49.2835703, Lng : -123.1150207, Q1 : 0.999999046326, Q2 : 0.000787967292126, Q3 : 0.00104524509516, Q4 : -0.000448468577815}
2019-04-15 00:53:14.01: SIM {TimeUS : 45834992, Roll : 0.1, Pitch : 0.13, Yaw : 359.94, Alt : 32.7400016785, Lat : 49.2835703, Lng : -123.1150207, Q1 : 0.999998748302, Q2 : 0.000937525066547, Q3 : 0.0012144302018, Q4 : -0.000448107573902}
2019-04-15 00:53:14.11: SIM {TimeUS : 45934952, Roll : 0.12, Pitch : 0.14, Yaw : 359.94, Alt : 32.9399986267, Lat : 49.2835704, Lng : -123.1150207, Q1 : 0.999998509884, Q2 : 0.00109632266685, Q3 : 0.00124612217769, Q4 : -0.000444732344477}
2019-04-15 00:53:14.21: SIM {TimeUS : 46034912, Roll : 0.13, Pitch : 0.13, Yaw : 359.94, Alt : 33.1399993896, Lat : 49.2835704, Lng : -123.1150208, Q1 : 0.999998450279, Q2 : 0.00120203662664, Q3 : 0.00121037871577, Q4 : -0.000442444288637}
2019-04-15 00:53:14.31: SIM {TimeUS : 46134872, Roll : 0.14, Pitch : 0.13, Yaw : 359.94, Alt : 33.3400001526, Lat : 49.2835704, Lng : -123.1150208, Q1 : 0.999998390675, Q2 : 0.00127111759502, Q3 : 0.00118645373732, Q4 : -0.000439450785052}
2019-04-15 00:53:14.41: SIM {TimeUS : 46234832, Roll : 0.14, Pitch : 0.13, Yaw : 359.95, Alt : 33.5400009155, Lat : 49.2835704, Lng : -123.1150208, Q1 : 0.99999833107, Q2 : 0.00130511436146, Q3 : 0.00121275859419, Q4 : -0.00043632343295}
2019-04-15 00:53:14.51: SIM {TimeUS : 46334792, Roll : 0.16, Pitch : 0.14, Yaw : 359.94, Alt : 33.75, Lat : 49.2835704, Lng : -123.1150208, Q1 : 0.999998092651, Q2 : 0.00140444131102, Q3 : 0.00128194980789, Q4 : -0.00043903774349}
2019-04-15 00:53:14.61: SIM {TimeUS : 46434752, Roll : 0.16, Pitch : 0.13, Yaw : 359.94, Alt : 33.9599990845, Lat : 49.2835704, Lng : -123.1150208, Q1 : 0.999998152256, Q2 : 0.00144333858043, Q3 : 0.00120043463539, Q4 : -0.00044131744653}
2019-04-15 00:53:14.71: SIM {TimeUS : 46534712, Roll : 0.15, Pitch : 0.12, Yaw : 359.94, Alt : 34.1699981689, Lat : 49.2835704, Lng : -123.1150208, Q1 : 0.999998450279, Q2 : 0.00133121502586, Q3 : 0.00105401186738, Q4 : -0.000443414202891}
2019-04-15 00:53:14.81: SIM {TimeUS : 46634672, Roll : 0.13, Pitch : 0.1, Yaw : 359.94, Alt : 34.3800010681, Lat : 49.2835704, Lng : -123.1150208, Q1 : 0.999998748302, Q2 : 0.00116195995361, Q3 : 0.000951198162511, Q4 : -0.000453098822618}
2019-04-15 00:53:14.91: SIM {TimeUS : 46734632, Roll : 0.1, Pitch : 0.1, Yaw : 359.94, Alt : 34.5900001526, Lat : 49.2835704, Lng : -123.1150208, Q1 : 0.999999046326, Q2 : 0.000948202679865, Q3 : 0.000884465465788, Q4 : -0.000476511631859}
2019-04-15 00:53:15.01: SIM {TimeUS : 46834592, Roll : 0.09, Pitch : 0.07, Yaw : 359.94, Alt : 34.8100013733, Lat : 49.2835704, Lng : -123.1150208, Q1 : 0.999999403954, Q2 : 0.000794073508587, Q3 : 0.000611617346294, Q4 : -0.000517055683304}
2019-04-15 00:53:15.11: SIM {TimeUS : 46934552, Roll : 0.07, Pitch : 0.03, Yaw : 359.93, Alt : 35.0200004578, Lat : 49.2835704, Lng : -123.1150208, Q1 : 0.999999582767, Q2 : 0.000629420916084, Q3 : 0.000347719818819, Q4 : -0.000570530595724}
2019-04-15 00:53:15.22: SIM {TimeUS : 47035345, Roll : 0.04, Pitch : 0.02, Yaw : 359.92, Alt : 35.2400016785, Lat : 49.2835704, Lng : -123.1150207, Q1 : 0.999999701977, Q2 : 0.000359246914741, Q3 : 0.000199335365323, Q4 : -0.000624476757366}
2019-04-15 00:53:15.31: SIM {TimeUS : 47135305, Roll : 0.02, Pitch : 0.01, Yaw : 359.92, Alt : 35.4599990845, Lat : 49.2835704, Lng : -123.1150207, Q1 : 0.999999761581, Q2 : 0.000230178673519, Q3 : 0.000146377220517, Q4 : -0.000671640562359}
2019-04-15 00:53:15.41: SIM {TimeUS : 47235265, Roll : 0.02, Pitch : 0.01, Yaw : 359.91, Alt : 35.6800003052, Lat : 49.2835704, Lng : -123.1150207, Q1 : 0.999999701977, Q2 : 0.000238183725742, Q3 : 0.00011695853027, Q4 : -0.000712027074769}
2019-04-15 00:53:15.51: SIM {TimeUS : 47335225, Roll : 0.01, Pitch : -0.01, Yaw : 359.91, Alt : 35.9000015259, Lat : 49.2835704, Lng : -123.1150207, Q1 : 0.999999701977, Q2 : 9.70768887782e-05, Q3 : -9.07566136448e-05, Q4 : -0.000740503543057}
2019-04-15 00:53:15.61: SIM {TimeUS : 47435185, Roll : -0.02, Pitch : -0.04, Yaw : 359.91, Alt : 36.1199989319, Lat : 49.2835704, Lng : -123.1150207, Q1 : 0.999999642372, Q2 : -0.000188704856555, Q3 : -0.00041616242379, Q4 : -0.000760075694416}
2019-04-15 00:53:15.71: SIM {TimeUS : 47535145, Roll : -0.05, Pitch : -0.06, Yaw : 359.91, Alt : 36.3400001526, Lat : 49.2835704, Lng : -123.1150207, Q1 : 0.999999403954, Q2 : -0.000503564777318, Q3 : -0.00060232845135, Q4 : -0.000781803566497}
2019-04-15 00:53:15.81: SIM {TimeUS : 47635105, Roll : -0.08, Pitch : -0.08, Yaw : 359.9, Alt : 36.5600013733, Lat : 49.2835704, Lng : -123.1150207, Q1 : 0.99999910593, Q2 : -0.000783890543971, Q3 : -0.000713094312232, Q4 : -0.000802068330813}
2019-04-15 00:53:15.91: SIM {TimeUS : 47735065, Roll : -0.09, Pitch : -0.08, Yaw : 359.9, Alt : 36.7900009155, Lat : 49.2835704, Lng : -123.1150206, Q1 : 0.99999910593, Q2 : -0.00080746517051, Q3 : -0.000717785616871, Q4 : -0.000817987543996}
2019-04-15 00:53:16.01: SIM {TimeUS : 47835025, Roll : -0.08, Pitch : -0.07, Yaw : 359.9, Alt : 37.0099983215, Lat : 49.2835704, Lng : -123.1150206, Q1 : 0.999999165535, Q2 : -0.00074281176785, Q3 : -0.000650395464618, Q4 : -0.000833874335513}
2019-04-15 00:53:16.11: SIM {TimeUS : 47934985, Roll : -0.07, Pitch : -0.05, Yaw : 359.9, Alt : 37.2299995422, Lat : 49.2835704, Lng : -123.1150206, Q1 : 0.999999284744, Q2 : -0.000655497657135, Q3 : -0.000475711887702, Q4 : -0.00085463252617}
2019-04-15 00:53:16.21: SIM {TimeUS : 48034945, Roll : -0.06, Pitch : -0.04, Yaw : 359.9, Alt : 37.4599990845, Lat : 49.2835704, Lng : -123.1150206, Q1 : 0.999999403954, Q2 : -0.000547781062778, Q3 : -0.000357402692316, Q4 : -0.000872617296409}
2019-04-15 00:53:16.31: SIM {TimeUS : 48134905, Roll : -0.06, Pitch : -0.04, Yaw : 359.89, Alt : 37.6800003052, Lat : 49.2835704, Lng : -123.1150206, Q1 : 0.999999344349, Q2 : -0.000591117714066, Q3 : -0.000359736994142, Q4 : -0.000887716538273}
2019-04-15 00:53:16.41: SIM {TimeUS : 48234865, Roll : -0.07, Pitch : -0.02, Yaw : 359.89, Alt : 37.9099998474, Lat : 49.2835704, Lng : -123.1150206, Q1 : 0.999999344349, Q2 : -0.000662760925479, Q3 : -0.000243907226832, Q4 : -0.000900432118215}
2019-04-15 00:53:16.51: SIM {TimeUS : 48334825, Roll : -0.09, Pitch : -0.01, Yaw : 359.89, Alt : 38.1399993896, Lat : 49.2835704, Lng : -123.1150206, Q1 : 0.99999922514, Q2 : -0.000838188570924, Q3 : -9.60601973929e-05, Q4 : -0.000912068237085}
2019-04-15 00:53:16.61: SIM {TimeUS : 48434785, Roll : -0.09, Pitch : 0.0, Yaw : 359.89, Alt : 38.3699989319, Lat : 49.2835704, Lng : -123.1150206, Q1 : 0.99999922514, Q2 : -0.000830329721794, Q3 : 3.45979315171e-05, Q4 : -0.000916881952435}
2019-04-15 00:53:16.71: SIM {TimeUS : 48534745, Roll : -0.07, Pitch : 0.03, Yaw : 359.89, Alt : 38.5900001526, Lat : 49.2835704, Lng : -123.1150206, Q1 : 0.999999344349, Q2 : -0.000638886180241, Q3 : 0.00028534347075, Q4 : -0.000921552185901}
2019-04-15 00:53:16.81: SIM {TimeUS : 48634705, Roll : -0.04, Pitch : 0.02, Yaw : 359.89, Alt : 38.8199996948, Lat : 49.2835704, Lng : -123.1150206, Q1 : 0.999999463558, Q2 : -0.000414271024056, Q3 : 0.000256609724602, Q4 : -0.000925643078517}
2019-04-15 00:53:16.91: SIM {TimeUS : 48734665, Roll : -0.01, Pitch : 0.01, Yaw : 359.89, Alt : 39.0499992371, Lat : 49.2835706, Lng : -123.1150206, Q1 : 0.999999523163, Q2 : -0.000148835344589, Q3 : 0.000158753638971, Q4 : -0.00093053386081}
2019-04-15 00:53:17.01: SIM {TimeUS : 48834625, Roll : 0.01, Pitch : 0.03, Yaw : 359.89, Alt : 39.2799987793, Lat : 49.2835706, Lng : -123.1150206, Q1 : 0.999999463558, Q2 : 0.000166276091477, Q3 : 0.000279185507679, Q4 : -0.000939183984883}
2019-04-15 00:53:17.11: SIM {TimeUS : 48934585, Roll : 0.05, Pitch : 0.06, Yaw : 359.89, Alt : 39.5099983215, Lat : 49.2835706, Lng : -123.1150206, Q1 : 0.999999284744, Q2 : 0.000484217423946, Q3 : 0.000554495200049, Q4 : -0.000957552401815}
2019-04-15 00:53:17.21: SIM {TimeUS : 49034545, Roll : 0.08, Pitch : 0.09, Yaw : 359.88, Alt : 39.7400016785, Lat : 49.2835706, Lng : -123.1150206, Q1 : 0.999998927116, Q2 : 0.000714204565156, Q3 : 0.000819387380034, Q4 : -0.000979945412837}
2019-04-15 00:53:17.32: SIM {TimeUS : 49135338, Roll : 0.06, Pitch : 0.11, Yaw : 359.88, Alt : 39.9799995422, Lat : 49.2835706, Lng : -123.1150206, Q1 : 0.999998748302, Q2 : 0.000609777576756, Q3 : 0.00103875121567, Q4 : -0.000996143673547}
2019-04-15 00:53:17.41: SIM {TimeUS : 49235298, Roll : 0.02, Pitch : 0.13, Yaw : 359.88, Alt : 40.2099990845, Lat : 49.2835706, Lng : -123.1150206, Q1 : 0.999998748302, Q2 : 0.000186874880455, Q3 : 0.0012046493357, Q4 : -0.00103172974195}
2019-04-15 00:53:17.51: SIM {TimeUS : 49335258, Roll : -0.01, Pitch : 0.14, Yaw : 359.87, Alt : 40.4399986267, Lat : 49.2835706, Lng : -123.1150206, Q1 : 0.999998569489, Q2 : -0.000163504155353, Q3 : 0.00127064972185, Q4 : -0.00106481823605}
2019-04-15 00:53:17.61: SIM {TimeUS : 49435218, Roll : -0.03, Pitch : 0.13, Yaw : 359.87, Alt : 40.6699981689, Lat : 49.2835706, Lng : -123.1150206, Q1 : 0.999998688698, Q2 : -0.000341255567037, Q3 : 0.00115303974599, Q4 : -0.00109409703873}
2019-04-15 00:53:17.71: SIM {TimeUS : 49535178, Roll : -0.04, Pitch : 0.11, Yaw : 359.87, Alt : 40.9000015259, Lat : 49.2835706, Lng : -123.1150206, Q1 : 0.999998748302, Q2 : -0.000394828413846, Q3 : 0.00101586105302, Q4 : -0.00113095110282}
2019-04-15 00:53:17.81: SIM {TimeUS : 49635138, Roll : -0.03, Pitch : 0.12, Yaw : 359.86, Alt : 41.1399993896, Lat : 49.2835706, Lng : -123.1150206, Q1 : 0.999998688698, Q2 : -0.000289749645162, Q3 : 0.00106134475209, Q4 : -0.00117170729209}
2019-04-15 00:53:17.91: SIM {TimeUS : 49735098, Roll : 0.0, Pitch : 0.14, Yaw : 359.86, Alt : 41.3699989319, Lat : 49.2835706, Lng : -123.1150206, Q1 : 0.999998450279, Q2 : 6.53549941489e-05, Q3 : 0.00124406220857, Q4 : -0.00122050684877}
2019-04-15 00:53:18.01: SIM {TimeUS : 49835058, Roll : 0.05, Pitch : 0.15, Yaw : 359.85, Alt : 41.5999984741, Lat : 49.2835706, Lng : -123.1150207, Q1 : 0.999998152256, Q2 : 0.000489699537866, Q3 : 0.00133886700496, Q4 : -0.00126826262567}
2019-04-15 00:53:18.11: SIM {TimeUS : 49935018, Roll : 0.08, Pitch : 0.12, Yaw : 359.85, Alt : 41.8400001526, Lat : 49.2835706, Lng : -123.1150207, Q1 : 0.999998211861, Q2 : 0.000786312273704, Q3 : 0.00110356661025, Q4 : -0.00130730785895}
2019-04-15 00:53:18.21: SIM {TimeUS : 50034978, Roll : 0.09, Pitch : 0.08, Yaw : 359.84, Alt : 42.0699996948, Lat : 49.2835706, Lng : -123.1150207, Q1 : 0.999998509884, Q2 : 0.000820930406917, Q3 : 0.000705888494849, Q4 : -0.00133614253718}
2019-04-15 00:53:18.31: SIM {TimeUS : 50134938, Roll : 0.05, Pitch : 0.04, Yaw : 359.84, Alt : 42.2999992371, Lat : 49.2835706, Lng : -123.1150207, Q1 : 0.999998867512, Q2 : 0.000512634054758, Q3 : 0.00040642922977, Q4 : -0.00135140772909}
2019-04-15 00:53:18.41: SIM {TimeUS : 50234898, Roll : 0.0, Pitch : 0.04, Yaw : 359.84, Alt : 42.5400009155, Lat : 49.2835706, Lng : -123.1150207, Q1 : 0.999998986721, Q2 : 4.71556304547e-05, Q3 : 0.000353746290784, Q4 : -0.00136141292751}
2019-04-15 00:53:18.51: SIM {TimeUS : 50334858, Roll : -0.02, Pitch : 0.06, Yaw : 359.84, Alt : 42.7700004578, Lat : 49.2835706, Lng : -123.1150206, Q1 : 0.999998867512, Q2 : -0.000257912470261, Q3 : 0.000583405606449, Q4 : -0.00136453344021}
2019-04-15 00:53:18.61: SIM {TimeUS : 50434818, Roll : -0.04, Pitch : 0.08, Yaw : 359.84, Alt : 43.0099983215, Lat : 49.2835704, Lng : -123.1150206, Q1 : 0.999998688698, Q2 : -0.000402210804168, Q3 : 0.000754050211981, Q4 : -0.0013671828201}
2019-04-15 00:53:18.71: SIM {TimeUS : 50534778, Roll : -0.04, Pitch : 0.08, Yaw : 359.84, Alt : 43.2400016785, Lat : 49.2835704, Lng : -123.1150206, Q1 : 0.999998748302, Q2 : -0.000360931153409, Q3 : 0.000731596257538, Q4 : -0.00137323874515}
2019-04-15 00:53:18.81: SIM {TimeUS : 50634738, Roll : -0.04, Pitch : 0.07, Yaw : 359.84, Alt : 43.4799995422, Lat : 49.2835704, Lng : -123.1150206, Q1 : 0.999998807907, Q2 : -0.000349222391378, Q3 : 0.000630614638794, Q4 : -0.00138769228943}
2019-04-15 00:53:18.91: SIM {TimeUS : 50734698, Roll : -0.03, Pitch : 0.05, Yaw : 359.83, Alt : 43.7099990845, Lat : 49.2835704, Lng : -123.1150206, Q1 : 0.999998867512, Q2 : -0.000276870414382, Q3 : 0.000508064113092, Q4 : -0.00140414712951}
2019-04-15 00:53:19.01: SIM {TimeUS : 50834658, Roll : -0.01, Pitch : 0.04, Yaw : 359.83, Alt : 43.9500007629, Lat : 49.2835704, Lng : -123.1150206, Q1 : 0.999998927116, Q2 : -0.000146189806401, Q3 : 0.000421305070631, Q4 : -0.00142470013816}
2019-04-15 00:53:19.11: SIM {TimeUS : 50934618, Roll : -0.01, Pitch : 0.04, Yaw : 359.83, Alt : 44.1899986267, Lat : 49.2835704, Lng : -123.1150206, Q1 : 0.999998867512, Q2 : -9.38803641475e-05, Q3 : 0.000399451091653, Q4 : -0.00144741963595}
2019-04-15 00:53:19.21: SIM {TimeUS : 51034578, Roll : -0.02, Pitch : 0.03, Yaw : 359.83, Alt : 44.4199981689, Lat : 49.2835704, Lng : -123.1150206, Q1 : 0.999998867512, Q2 : -0.000178153553861, Q3 : 0.000268102652626, Q4 : -0.00146603782196}
2019-04-15 00:53:19.31: SIM {TimeUS : 51134538, Roll : -0.03, Pitch : 0.0, Yaw : 359.83, Alt : 44.6599998474, Lat : 49.2835704, Lng : -123.1150206, Q1 : 0.999998867512, Q2 : -0.00027950873482, Q3 : 6.37396510683e-07, Q4 : -0.0014814818278}
2019-04-15 00:53:19.41: SIM {TimeUS : 51235331, Roll : -0.03, Pitch : -0.02, Yaw : 359.82, Alt : 44.9000015259, Lat : 49.2835704, Lng : -123.1150206, Q1 : 0.999998807907, Q2 : -0.000313333439408, Q3 : -0.000176972884219, Q4 : -0.001507289242}
2019-04-15 00:53:19.51: SIM {TimeUS : 51335291, Roll : -0.02, Pitch : -0.03, Yaw : 359.82, Alt : 45.1300010681, Lat : 49.2835704, Lng : -123.1150206, Q1 : 0.999998748302, Q2 : -0.000248785509029, Q3 : -0.00026584151783, Q4 : -0.00153863395099}
2019-04-15 00:53:19.61: SIM {TimeUS : 51435251, Roll : -0.02, Pitch : -0.03, Yaw : 359.82, Alt : 45.3699989319, Lat : 49.2835703, Lng : -123.1150206, Q1 : 0.999998688698, Q2 : -0.000239645713009, Q3 : -0.000327805726556, Q4 : -0.00156658771448}
2019-04-15 00:53:19.71: SIM {TimeUS : 51535211, Roll : -0.04, Pitch : -0.03, Yaw : 359.81, Alt : 45.5999984741, Lat : 49.2835703, Lng : -123.1150206, Q1 : 0.999998569489, Q2 : -0.000412065710407, Q3 : -0.000324373337207, Q4 : -0.00160010321997}
2019-04-15 00:53:19.81: SIM {TimeUS : 51635171, Roll : -0.07, Pitch : -0.03, Yaw : 359.81, Alt : 45.8400001526, Lat : 49.2835703, Lng : -123.1150206, Q1 : 0.999998390675, Q2 : -0.000682204437908, Q3 : -0.000323698390275, Q4 : -0.00163425807841}
2019-04-15 00:53:19.91: SIM {TimeUS : 51735131, Roll : -0.1, Pitch : -0.03, Yaw : 359.8, Alt : 46.0699996948, Lat : 49.2835703, Lng : -123.1150206, Q1 : 0.999998152256, Q2 : -0.000876265694387, Q3 : -0.000324981549056, Q4 : -0.00166827067733}
2019-04-15 00:53:20.01: SIM {TimeUS : 51835091, Roll : -0.1, Pitch : -0.02, Yaw : 359.8, Alt : 46.2999992371, Lat : 49.2835703, Lng : -123.1150205, Q1 : 0.999998092651, Q2 : -0.000913699041121, Q3 : -0.000221960261115, Q4 : -0.00170084135607}
2019-04-15 00:53:20.11: SIM {TimeUS : 51935051, Roll : -0.09, Pitch : 0.0, Yaw : 359.8, Alt : 46.5200004578, Lat : 49.2835703, Lng : -123.1150205, Q1 : 0.999998211861, Q2 : -0.000788976321928, Q3 : 8.68014194566e-06, Q4 : -0.00173010269646}
2019-04-15 00:53:20.21: SIM {TimeUS : 52035011, Roll : -0.06, Pitch : 0.01, Yaw : 359.79, Alt : 46.7400016785, Lat : 49.2835703, Lng : -123.1150206, Q1 : 0.999998271465, Q2 : -0.000572247605305, Q3 : 0.000142422650242, Q4 : -0.00175842596218}
2019-04-15 00:53:20.31: SIM {TimeUS : 52134971, Roll : -0.04, Pitch : 0.01, Yaw : 359.79, Alt : 46.9500007629, Lat : 49.2835703, Lng : -123.1150206, Q1 : 0.99999833107, Q2 : -0.000399379845476, Q3 : 0.000110124812636, Q4 : -0.00179052469321}
2019-04-15 00:53:20.41: SIM {TimeUS : 52234931, Roll : -0.03, Pitch : 0.0, Yaw : 359.79, Alt : 47.1599998474, Lat : 49.2835703, Lng : -123.1150206, Q1 : 0.999998271465, Q2 : -0.000317700352753, Q3 : -4.70199884148e-05, Q4 : -0.0018254435854}
2019-04-15 00:53:20.51: SIM {TimeUS : 52334891, Roll : -0.02, Pitch : -0.03, Yaw : 359.78, Alt : 47.3499984741, Lat : 49.2835703, Lng : -123.1150206, Q1 : 0.999998211861, Q2 : -0.000204223862966, Q3 : -0.000294495548587, Q4 : -0.00185871229041}
2019-04-15 00:53:20.61: SIM {TimeUS : 52434851, Roll : 0.0, Pitch : -0.06, Yaw : 359.78, Alt : 47.5400009155, Lat : 49.2835703, Lng : -123.1150206, Q1 : 0.999998092651, Q2 : -1.6947498807e-05, Q3 : -0.000533327634912, Q4 : -0.00188724184409}
2019-04-15 00:53:20.71: SIM {TimeUS : 52534811, Roll : 0.0, Pitch : -0.1, Yaw : 359.78, Alt : 47.7200012207, Lat : 49.2835703, Lng : -123.1150206, Q1 : 0.999997735023, Q2 : 3.28482492478e-05, Q3 : -0.000907750509214, Q4 : -0.00191517767962}
2019-04-15 00:53:20.81: SIM {TimeUS : 52634771, Roll : 0.0, Pitch : -0.15, Yaw : 359.77, Alt : 47.8899993896, Lat : 49.2835703, Lng : -123.1150206, Q1 : 0.999997258186, Q2 : 3.31044684572e-05, Q3 : -0.00131491164211, Q4 : -0.00193590740673}
2019-04-15 00:53:20.91: SIM {TimeUS : 52734731, Roll : 0.02, Pitch : -0.16, Yaw : 359.77, Alt : 48.0400009155, Lat : 49.2835703, Lng : -123.1150206, Q1 : 0.999997079372, Q2 : 0.000250564160524, Q3 : -0.00140709325206, Q4 : -0.00194890017156}
2019-04-15 00:53:21.01: SIM {TimeUS : 52834691, Roll : 0.05, Pitch : -0.14, Yaw : 359.77, Alt : 48.1899986267, Lat : 49.2835703, Lng : -123.1150206, Q1 : 0.999997198582, Q2 : 0.00051959749544, Q3 : -0.00125371688046, Q4 : -0.00195756554604}
2019-04-15 00:53:21.11: SIM {TimeUS : 52934651, Roll : 0.08, Pitch : -0.11, Yaw : 359.77, Alt : 48.3199996948, Lat : 49.2835703, Lng : -123.1150206, Q1 : 0.999997317791, Q2 : 0.000721075979527, Q3 : -0.000972313981038, Q4 : -0.00196961429901}
2019-04-15 00:53:21.21: SIM {TimeUS : 53034611, Roll : 0.08, Pitch : -0.07, Yaw : 359.77, Alt : 48.4399986267, Lat : 49.2835703, Lng : -123.1150206, Q1 : 0.99999755621, Q2 : 0.000763402029406, Q3 : -0.000636267184746, Q4 : -0.00198664260097}
2019-04-15 00:53:21.31: SIM {TimeUS : 53134571, Roll : 0.08, Pitch : -0.04, Yaw : 359.76, Alt : 48.5499992371, Lat : 49.2835703, Lng : -123.1150206, Q1 : 0.999997615814, Q2 : 0.000757044705097, Q3 : -0.000398237636546, Q4 : -0.0020084453281}
2019-04-15 00:53:21.42: SIM {TimeUS : 53235364, Roll : 0.06, Pitch : -0.04, Yaw : 359.76, Alt : 48.6500015259, Lat : 49.2835704, Lng : -123.1150206, Q1 : 0.999997675419, Q2 : 0.000605748966336, Q3 : -0.000391149224015, Q4 : -0.00203250069171}
2019-04-15 00:53:21.51: SIM {TimeUS : 53335324, Roll : 0.03, Pitch : -0.04, Yaw : 359.76, Alt : 48.7299995422, Lat : 49.2835704, Lng : -123.1150206, Q1 : 0.999997735023, Q2 : 0.000310695264488, Q3 : -0.000426638085628, Q4 : -0.00206162873656}
2019-04-15 00:53:21.61: SIM {TimeUS : 53435284, Roll : 0.01, Pitch : -0.04, Yaw : 359.76, Alt : 48.7999992371, Lat : 49.2835704, Lng : -123.1150206, Q1 : 0.999997735023, Q2 : 0.000108485524834, Q3 : -0.000385474762879, Q4 : -0.00209440197796}
2019-04-15 00:53:21.71: SIM {TimeUS : 53535244, Roll : 0.0, Pitch : -0.03, Yaw : 359.75, Alt : 48.8699989319, Lat : 49.2835704, Lng : -123.1150206, Q1 : 0.999997675419, Q2 : -4.12645022152e-07, Q3 : -0.000285390415229, Q4 : -0.00212665321305}
2019-04-15 00:53:21.81: SIM {TimeUS : 53635204, Roll : 0.0, Pitch : -0.01, Yaw : 359.75, Alt : 48.9199981689, Lat : 49.2835704, Lng : -123.1150206, Q1 : 0.999997675419, Q2 : -4.36324407929e-05, Q3 : -0.000109769418486, Q4 : -0.00216130912304}
2019-04-15 00:53:21.91: SIM {TimeUS : 53735164, Roll : 0.02, Pitch : 0.0, Yaw : 359.74, Alt : 48.9700012207, Lat : 49.2835704, Lng : -123.1150206, Q1 : 0.99999755621, Q2 : 0.000233270795434, Q3 : 7.97827015049e-05, Q4 : -0.00219247746281}
2019-04-15 00:53:22.01: SIM {TimeUS : 53835124, Roll : 0.16, Pitch : -0.04, Yaw : 359.74, Alt : 49.0099983215, Lat : 49.2835704, Lng : -123.1150206, Q1 : 0.999996364117, Q2 : 0.00144866167102, Q3 : -0.000355545023922, Q4 : -0.00222966494039}
2019-04-15 00:53:22.11: SIM {TimeUS : 53935084, Roll : 0.48, Pitch : -0.25, Yaw : 359.73, Alt : 49.0400009155, Lat : 49.2835704, Lng : -123.1150206, Q1 : 0.999985992908, Q2 : 0.00423576589674, Q3 : -0.00222696084529, Q4 : -0.00226689735427}
2019-04-15 00:53:22.21: SIM {TimeUS : 54035044, Roll : 1.0, Pitch : -0.63, Yaw : 359.73, Alt : 49.0699996948, Lat : 49.2835704, Lng : -123.1150206, Q1 : 0.999943375587, Q2 : 0.00876094121486, Q3 : -0.00558916339651, Q4 : -0.00229665241204}
2019-04-15 00:53:22.31: SIM {TimeUS : 54135004, Roll : 1.69, Pitch : -1.17, Yaw : 359.71, Alt : 49.0999984741, Lat : 49.2835704, Lng : -123.1150205, Q1 : 0.999835312366, Q2 : 0.0147755630314, Q3 : -0.010280225426, Q4 : -0.00231506070122}
2019-04-15 00:53:22.41: SIM {TimeUS : 54234964, Roll : 2.51, Pitch : -1.78, Yaw : 359.69, Alt : 49.1199989319, Lat : 49.2835706, Lng : -123.1150205, Q1 : 0.9996342659, Q2 : 0.021932400763, Q3 : -0.0156556069851, Q4 : -0.00228737061843}
2019-04-15 00:53:22.51: SIM {TimeUS : 54334924, Roll : 3.35, Pitch : -2.37, Yaw : 359.67, Alt : 49.1399993896, Lat : 49.2835706, Lng : -123.1150204, Q1 : 0.99935323, Q2 : 0.0292250476778, Q3 : -0.0208366829902, Q4 : -0.00219623581506}
2019-04-15 00:53:22.61: SIM {TimeUS : 54434884, Roll : 4.07, Pitch : -2.87, Yaw : 359.66, Alt : 49.1599998474, Lat : 49.2835707, Lng : -123.1150202, Q1 : 0.999052703381, Q2 : 0.0354503877461, Q3 : -0.0251559093595, Q4 : -0.0020339358598}
2019-04-15 00:53:22.71: SIM {TimeUS : 54534844, Roll : 4.61, Pitch : -3.24, Yaw : 359.66, Alt : 49.1699981689, Lat : 49.2835709, Lng : -123.11502, Q1 : 0.998787522316, Q2 : 0.0401783250272, Q3 : -0.0283900797367, Q4 : -0.00180628965609}
2019-04-15 00:53:22.81: SIM {TimeUS : 54634804, Roll : 5.0, Pitch : -3.5, Yaw : 359.67, Alt : 49.1800003052, Lat : 49.2835709, Lng : -123.1150196, Q1 : 0.998579263687, Q2 : 0.0435260385275, Q3 : -0.0307015758008, Q4 : -0.00153588445392}
2019-04-15 00:53:22.91: SIM {TimeUS : 54734764, Roll : 5.29, Pitch : -3.72, Yaw : 359.68, Alt : 49.1899986267, Lat : 49.2835712, Lng : -123.1150192, Q1 : 0.998405516148, Q2 : 0.0460478849709, Q3 : -0.0326256528497, Q4 : -0.00125932786614}
2019-04-15 00:53:23.01: SIM {TimeUS : 54834724, Roll : 5.57, Pitch : -3.94, Yaw : 359.69, Alt : 49.2000007629, Lat : 49.2835715, Lng : -123.1150186, Q1 : 0.99822640419, Q2 : 0.0485123507679, Q3 : -0.0344919115305, Q4 : -0.000969761051238}
2019-04-15 00:53:23.11: SIM {TimeUS : 54934684, Roll : 5.89, Pitch : -4.16, Yaw : 359.7, Alt : 49.2099990845, Lat : 49.2835718, Lng : -123.115018, Q1 : 0.998019635677, Q2 : 0.0512712448835, Q3 : -0.0364368185401, Q4 : -0.000684162427206}
2019-04-15 00:53:23.21: SIM {TimeUS : 55034644, Roll : 6.2, Pitch : -4.37, Yaw : 359.71, Alt : 49.2200012207, Lat : 49.2835721, Lng : -123.1150173, Q1 : 0.997807860374, Q2 : 0.0540027804673, Q3 : -0.0382494106889, Q4 : -0.000410889653722}
2019-04-15 00:53:23.31: SIM {TimeUS : 55134604, Roll : 6.47, Pitch : -4.55, Yaw : 359.72, Alt : 49.2299995422, Lat : 49.2835725, Lng : -123.1150163, Q1 : 0.997619926929, Q2 : 0.0563059598207, Q3 : -0.0398005023599, Q4 : -0.000167487916769}
2019-04-15 00:53:23.41: SIM {TimeUS : 55234564, Roll : 6.65, Pitch : -4.7, Yaw : 359.72, Alt : 49.2299995422, Lat : 49.2835728, Lng : -123.1150155, Q1 : 0.997475147247, Q2 : 0.0579294040799, Q3 : -0.0410792417824, Q4 : 2.01202201424e-05}
2019-04-15 00:53:23.52: SIM {TimeUS : 55335357, Roll : 6.79, Pitch : -4.79, Yaw : 359.73, Alt : 49.2400016785, Lat : 49.2835733, Lng : -123.1150145, Q1 : 0.99736815691, Q2 : 0.0591475442052, Q3 : -0.041931912303, Q4 : 0.000164031676832}
2019-04-15 00:53:23.61: SIM {TimeUS : 55435317, Roll : 6.9, Pitch : -4.85, Yaw : 359.73, Alt : 49.2400016785, Lat : 49.2835739, Lng : -123.1150134, Q1 : 0.997293591499, Q2 : 0.0600403137505, Q3 : -0.0424340441823, Q4 : 0.000275433791103}
2019-04-15 00:53:23.71: SIM {TimeUS : 55535277, Roll : 6.99, Pitch : -4.91, Yaw : 359.73, Alt : 49.25, Lat : 49.2835744, Lng : -123.1150122, Q1 : 0.997220337391, Q2 : 0.0608728267252, Q3 : -0.0429658219218, Q4 : 0.000346771324985}
2019-04-15 00:53:23.81: SIM {TimeUS : 55635237, Roll : 7.18, Pitch : -4.96, Yaw : 359.75, Alt : 49.25, Lat : 49.283575, Lng : -123.1150109, Q1 : 0.997102558613, Q2 : 0.062507532537, Q3 : -0.0433484129608, Q4 : 0.000576719758101}
2019-04-15 00:53:23.91: SIM {TimeUS : 55735197, Roll : 7.61, Pitch : -4.85, Yaw : 0.08, Alt : 49.2599983215, Lat : 49.2835757, Lng : -123.1150095, Q1 : 0.996895551682, Q2 : 0.066361322999, Q3 : -0.0422241128981, Q4 : 0.00354747637175}
2019-04-15 00:53:24.01: SIM {TimeUS : 55835157, Roll : 8.24, Pitch : -4.65, Yaw : 1.37, Alt : 49.2599983215, Lat : 49.2835763, Lng : -123.1150081, Q1 : 0.996481597424, Q2 : 0.0723319724202, Q3 : -0.039630305022, Q4 : 0.014900624752}
2019-04-15 00:53:24.11: SIM {TimeUS : 55935117, Roll : 8.83, Pitch : -4.71, Yaw : 4.16, Alt : 49.2599983215, Lat : 49.283577, Lng : -123.1150065, Q1 : 0.995413243771, Q2 : 0.0783877149224, Q3 : -0.0381463840604, Q4 : 0.0394042730331}
2019-04-15 00:53:24.21: SIM {TimeUS : 56035077, Roll : 9.12, Pitch : -5.25, Yaw : 8.53, Alt : 49.2599983215, Lat : 49.2835776, Lng : -123.1150048, Q1 : 0.992752254009, Q2 : 0.0826393663883, Q3 : -0.0396764241159, Q4 : 0.0777139738202}
2019-04-15 00:53:24.31: SIM {TimeUS : 56135037, Roll : 8.92, Pitch : -6.32, Yaw : 14.28, Alt : 49.2599983215, Lat : 49.2835783, Lng : -123.1150031, Q1 : 0.987188756466, Q2 : 0.0839214995503, Q3 : -0.0449508577585, Q4 : 0.128043085337}
2019-04-15 00:53:24.41: SIM {TimeUS : 56234997, Roll : 8.13, Pitch : -7.79, Yaw : 21.18, Alt : 49.2599983215, Lat : 49.2835791, Lng : -123.1150011, Q1 : 0.977328062057, Q2 : 0.0819948837161, Q3 : -0.0536703057587, Q4 : 0.187686547637}
2019-04-15 00:53:24.51: SIM {TimeUS : 56334957, Roll : 6.72, Pitch : -9.43, Yaw : 28.98, Alt : 49.2700004578, Lat : 49.2835799, Lng : -123.1149991, Q1 : 0.962036371231, Q2 : 0.0771000161767, Q3 : -0.0648717135191, Q4 : 0.253640145063}
2019-04-15 00:53:24.61: SIM {TimeUS : 56434917, Roll : 4.76, Pitch : -10.98, Yaw : 37.42, Alt : 49.2700004578, Lat : 49.2835806, Lng : -123.114997, Q1 : 0.940688312054, Q2 : 0.0698971450329, Q3 : -0.0772681906819, Q4 : 0.322876930237}
2019-04-15 00:53:24.71: SIM {TimeUS : 56534877, Roll : 2.24, Pitch : -12.24, Yaw : 46.19, Alt : 49.2700004578, Lat : 49.2835814, Lng : -123.1149947, Q1 : 0.913613557816, Q2 : 0.0597058832645, Q3 : -0.0904243141413, Q4 : 0.391878664494}
2019-04-15 00:53:24.81: SIM {TimeUS : 56634837, Roll : -0.85, Pitch : -12.99, Yaw : 54.57, Alt : 49.2700004578, Lat : 49.2835823, Lng : -123.1149924, Q1 : 0.883368253708, Q2 : 0.0453243553638, Q3 : -0.103966221213, Q4 : 0.454749673605}
2019-04-15 00:53:24.91: SIM {TimeUS : 56734797, Roll : -3.97, Pitch : -13.19, Yaw : 61.67, Alt : 49.2700004578, Lat : 49.2835832, Lng : -123.1149899, Q1 : 0.85446447134, Q2 : 0.02928423509, Q3 : -0.116251841187, Q4 : 0.505488336086}
2019-04-15 00:53:25.01: SIM {TimeUS : 56834757, Roll : -6.48, Pitch : -13.01, Yaw : 66.85, Alt : 49.2700004578, Lat : 49.2835843, Lng : -123.1149874, Q1 : 0.831431150436, Q2 : 0.015440415591, Q3 : -0.125400602818, Q4 : 0.541071653366}
2019-04-15 00:53:25.11: SIM {TimeUS : 56934717, Roll : -7.99, Pitch : -12.72, Yaw : 69.91, Alt : 49.2700004578, Lat : 49.2835854, Lng : -123.1149849, Q1 : 0.816954672337, Q2 : 0.00656006205827, Q3 : -0.130295306444, Q4 : 0.561751902103}
2019-04-15 00:53:25.21: SIM {TimeUS : 57034677, Roll : -8.42, Pitch : -12.56, Yaw : 71.06, Alt : 49.2700004578, Lat : 49.2835867, Lng : -123.1149823, Q1 : 0.811366558075, Q2 : 0.00397792831063, Q3 : -0.13123704493, Q4 : 0.56960105896}
2019-04-15 00:53:25.31: SIM {TimeUS : 57134637, Roll : -7.92, Pitch : -12.66, Yaw : 70.64, Alt : 49.2700004578, Lat : 49.2835879, Lng : -123.1149796, Q1 : 0.813418805599, Q2 : 0.00752474740148, Q3 : -0.129483371973, Q4 : 0.5670337677}
2019-04-15 00:53:25.41: SIM {TimeUS : 57234597, Roll : -6.73, Pitch : -13.04, Yaw : 69.0, Alt : 49.2700004578, Lat : 49.2835893, Lng : -123.1149768, Q1 : 0.821132063866, Q2 : 0.0161037947983, Q3 : -0.126517876983, Q4 : 0.556305706501}
2019-04-15 00:53:25.51: SIM {TimeUS : 57334557, Roll : -5.08, Pitch : -13.65, Yaw : 66.5, Alt : 49.2700004578, Lat : 49.283591, Lng : -123.1149741, Q1 : 0.832404315472, Q2 : 0.0282448437065, Q3 : -0.123481094837, Q4 : 0.539497673512}
2019-04-15 00:53:25.62: SIM {TimeUS : 57435350, Roll : -3.2, Pitch : -14.39, Yaw : 63.43, Alt : 49.2799987793, Lat : 49.2835925, Lng : -123.1149713, Q1 : 0.845455229282, Q2 : 0.0422249399126, Q3 : -0.121082916856, Q4 : 0.51842212677}
2019-04-15 00:53:25.71: SIM {TimeUS : 57535310, Roll : -1.29, Pitch : -15.07, Yaw : 60.15, Alt : 49.2799987793, Lat : 49.283594, Lng : -123.1149683, Q1 : 0.858546435833, Q2 : 0.0560233928263, Q3 : -0.119130209088, Q4 : 0.495547562838}
2019-04-15 00:53:25.81: SIM {TimeUS : 57635270, Roll : 0.46, Pitch : -15.57, Yaw : 56.97, Alt : 49.2799987793, Lat : 49.2835958, Lng : -123.1149653, Q1 : 0.870545566082, Q2 : 0.0682061240077, Q3 : -0.117193832994, Q4 : 0.473036944866}
2019-04-15 00:53:25.91: SIM {TimeUS : 57735230, Roll : 1.93, Pitch : -15.84, Yaw : 54.2, Alt : 49.2799987793, Lat : 49.2835974, Lng : -123.1149621, Q1 : 0.880497336388, Q2 : 0.0777186080813, Q3 : -0.115058787167, Q4 : 0.453261226416}
2019-04-15 00:53:26.01: SIM {TimeUS : 57835190, Roll : 3.0, Pitch : -15.91, Yaw : 52.1, Alt : 49.2799987793, Lat : 49.283599, Lng : -123.1149588, Q1 : 0.887848973274, Q2 : 0.0841044709086, Q3 : -0.112889334559, Q4 : 0.438071519136}
2019-04-15 00:53:26.11: SIM {TimeUS : 57935150, Roll : 3.6, Pitch : -15.87, Yaw : 50.78, Alt : 49.2799987793, Lat : 49.2836007, Lng : -123.1149554, Q1 : 0.89242208004, Q2 : 0.0873228088021, Q3 : -0.111290335655, Q4 : 0.428453087807}
2019-04-15 00:53:26.21: SIM {TimeUS : 58035110, Roll : 3.72, Pitch : -15.81, Yaw : 50.26, Alt : 49.2799987793, Lat : 49.2836025, Lng : -123.1149519, Q1 : 0.894329369068, Q2 : 0.0875620543957, Q3 : -0.110789433122, Q4 : 0.424539297819}
2019-04-15 00:53:26.31: SIM {TimeUS : 58135070, Roll : 3.42, Pitch : -15.81, Yaw : 50.46, Alt : 49.2799987793, Lat : 49.2836042, Lng : -123.1149482, Q1 : 0.89384418726, Q2 : 0.0853398218751, Q3 : -0.111755616963, Q4 : 0.425758630037}
2019-04-15 00:53:26.41: SIM {TimeUS : 58235030, Roll : 2.78, Pitch : -15.85, Yaw : 51.22, Alt : 49.2799987793, Lat : 49.2836059, Lng : -123.1149445, Q1 : 0.891387760639, Q2 : 0.0813374519348, Q3 : -0.113958403468, Q4 : 0.431074887514}
2019-04-15 00:53:26.51: SIM {TimeUS : 58334990, Roll : 1.96, Pitch : -15.95, Yaw : 52.38, Alt : 49.2799987793, Lat : 49.2836075, Lng : -123.1149406, Q1 : 0.887460291386, Q2 : 0.0764979720116, Q3 : -0.117014743388, Q4 : 0.439169466496}
2019-04-15 00:53:26.61: SIM {TimeUS : 58434950, Roll : 1.05, Pitch : -16.07, Yaw : 53.73, Alt : 49.2799987793, Lat : 49.2836092, Lng : -123.1149367, Q1 : 0.882669508457, Q2 : 0.0713601186872, Q3 : -0.12061920017, Q4 : 0.44861266017}
2019-04-15 00:53:26.71: SIM {TimeUS : 58534910, Roll : 0.2, Pitch : -16.21, Yaw : 55.1, Alt : 49.2799987793, Lat : 49.283611, Lng : -123.1149327, Q1 : 0.877620339394, Q2 : 0.0667521357536, Q3 : -0.124200247228, Q4 : 0.458149552345}
2019-04-15 00:53:26.81: SIM {TimeUS : 58634870, Roll : -0.5, Pitch : -16.3, Yaw : 56.33, Alt : 49.2799987793, Lat : 49.2836128, Lng : -123.1149286, Q1 : 0.872933328152, Q2 : 0.0630921348929, Q3 : -0.12706938386, Q4 : 0.466754943132}
2019-04-15 00:53:26.91: SIM {TimeUS : 58734830, Roll : -1.03, Pitch : -16.35, Yaw : 57.32, Alt : 49.2900009155, Lat : 49.2836146, Lng : -123.1149245, Q1 : 0.869104206562, Q2 : 0.0604282058775, Q3 : -0.129111990333, Q4 : 0.473641693592}
2019-04-15 00:53:27.01: SIM {TimeUS : 58834790, Roll : -1.36, Pitch : -16.4, Yaw : 58.0, Alt : 49.2900009155, Lat : 49.2836165, Lng : -123.1149203, Q1 : 0.866428017616, Q2 : 0.0588073022664, Q3 : -0.13048428297, Q4 : 0.478349357843}
2019-04-15 00:53:27.11: SIM {TimeUS : 58934750, Roll : -1.5, Pitch : -16.44, Yaw : 58.34, Alt : 49.2900009155, Lat : 49.2836183, Lng : -123.114916, Q1 : 0.865020573139, Q2 : 0.0583668611944, Q3 : -0.131189495325, Q4 : 0.480751574039}
2019-04-15 00:53:27.21: SIM {TimeUS : 59034710, Roll : -1.44, Pitch : -16.49, Yaw : 58.37, Alt : 49.2900009155, Lat : 49.2836201, Lng : -123.1149117, Q1 : 0.864820063114, Q2 : 0.0590135343373, Q3 : -0.131321653724, Q4 : 0.480997234583}
2019-04-15 00:53:27.31: SIM {TimeUS : 59134670, Roll : -1.25, Pitch : -16.53, Yaw : 58.13, Alt : 49.2900009155, Lat : 49.2836221, Lng : -123.1149075, Q1 : 0.865656912327, Q2 : 0.0604171045125, Q3 : -0.130937367678, Q4 : 0.479419738054}
2019-04-15 00:53:27.41: SIM {TimeUS : 59234630, Roll : -0.94, Pitch : -16.57, Yaw : 57.71, Alt : 49.2900009155, Lat : 49.2836241, Lng : -123.1149032, Q1 : 0.867235183716, Q2 : 0.0623971298337, Q3 : -0.130221962929, Q4 : 0.476499736309}
2019-04-15 00:53:27.51: SIM {TimeUS : 59334590, Roll : -0.58, Pitch : -16.62, Yaw : 57.16, Alt : 49.2900009155, Lat : 49.2836261, Lng : -123.1148988, Q1 : 0.869232058525, Q2 : 0.0646962821484, Q3 : -0.129370555282, Q4 : 0.472771972418}
2019-04-15 00:53:27.61: SIM {TimeUS : 59434550, Roll : -0.21, Pitch : -16.66, Yaw : 56.59, Alt : 49.2900009155, Lat : 49.283628, Lng : -123.1148944, Q1 : 0.871351420879, Q2 : 0.0670267939568, Q3 : -0.128494799137, Q4 : 0.468767762184}
2019-04-15 00:53:27.72: SIM {TimeUS : 59535343, Roll : 0.12, Pitch : -16.7, Yaw : 56.03, Alt : 49.2900009155, Lat : 49.2836302, Lng : -123.1148899, Q1 : 0.873352110386, Q2 : 0.0691949427128, Q3 : -0.127702519298, Q4 : 0.464930385351}
2019-04-15 00:53:27.81: SIM {TimeUS : 59635303, Roll : 0.4, Pitch : -16.73, Yaw : 55.57, Alt : 49.2900009155, Lat : 49.2836322, Lng : -123.1148853, Q1 : 0.875013589859, Q2 : 0.0709714218974, Q3 : -0.12711559236, Q4 : 0.461688160896}
2019-04-15 00:53:27.91: SIM {TimeUS : 59735263, Roll : 0.59, Pitch : -16.76, Yaw : 55.22, Alt : 49.2900009155, Lat : 49.2836342, Lng : -123.1148808, Q1 : 0.876258134842, Q2 : 0.0721255615354, Q3 : -0.126756072044, Q4 : 0.459241241217}
2019-04-15 00:53:28.01: SIM {TimeUS : 59835223, Roll : 0.68, Pitch : -16.79, Yaw : 55.01, Alt : 49.2900009155, Lat : 49.2836363, Lng : -123.1148762, Q1 : 0.877017080784, Q2 : 0.0727126151323, Q3 : -0.126743420959, Q4 : 0.457700818777}
2019-04-15 00:53:28.11: SIM {TimeUS : 59935183, Roll : 0.68, Pitch : -16.83, Yaw : 54.93, Alt : 49.2900009155, Lat : 49.2836384, Lng : -123.1148715, Q1 : 0.877287983894, Q2 : 0.0727923959494, Q3 : -0.127144366503, Q4 : 0.457057237625}
2019-04-15 00:53:28.21: SIM {TimeUS : 60035143, Roll : 0.6, Pitch : -16.88, Yaw : 54.97, Alt : 49.2900009155, Lat : 49.2836405, Lng : -123.1148668, Q1 : 0.877146244049, Q2 : 0.0723862498999, Q3 : -0.127810537815, Q4 : 0.457208007574}
2019-04-15 00:53:28.31: SIM {TimeUS : 60135103, Roll : 0.45, Pitch : -16.92, Yaw : 55.09, Alt : 49.2900009155, Lat : 49.2836426, Lng : -123.1148621, Q1 : 0.876692473888, Q2 : 0.0715045854449, Q3 : -0.12865793705, Q4 : 0.457978785038}
2019-04-15 00:53:28.41: SIM {TimeUS : 60235063, Roll : 0.26, Pitch : -16.94, Yaw : 55.28, Alt : 49.2999992371, Lat : 49.2836446, Lng : -123.1148573, Q1 : 0.876034259796, Q2 : 0.0704239979386, Q3 : -0.129481524229, Q4 : 0.459172070026}
2019-04-15 00:53:28.51: SIM {TimeUS : 60335023, Roll : 0.08, Pitch : -16.97, Yaw : 55.49, Alt : 49.2999992371, Lat : 49.2836468, Lng : -123.1148526, Q1 : 0.875273704529, Q2 : 0.0693807378411, Q3 : -0.130287095904, Q4 : 0.460551351309}
2019-04-15 00:53:28.61: SIM {TimeUS : 60434983, Roll : -0.06, Pitch : -17.01, Yaw : 55.69, Alt : 49.2999992371, Lat : 49.2836488, Lng : -123.1148477, Q1 : 0.874492943287, Q2 : 0.0686384215951, Q3 : -0.131058961153, Q4 : 0.461924731731}
2019-04-15 00:53:28.71: SIM {TimeUS : 60534943, Roll : -0.16, Pitch : -17.05, Yaw : 55.87, Alt : 49.2999992371, Lat : 49.283651, Lng : -123.1148429, Q1 : 0.873793303967, Q2 : 0.068246640265, Q3 : -0.131660118699, Q4 : 0.463134229183}
2019-04-15 00:53:28.81: SIM {TimeUS : 60634903, Roll : -0.21, Pitch : -17.1, Yaw : 56.0, Alt : 49.2999992371, Lat : 49.2836531, Lng : -123.114838, Q1 : 0.87323141098, Q2 : 0.0682035759091, Q3 : -0.132201179862, Q4 : 0.464045256376}
2019-04-15 00:53:28.91: SIM {TimeUS : 60734863, Roll : -0.22, Pitch : -17.15, Yaw : 56.08, Alt : 49.2999992371, Lat : 49.2836553, Lng : -123.1148331, Q1 : 0.872868418694, Q2 : 0.0684333369136, Q3 : -0.132544383407, Q4 : 0.464596122503}
2019-04-15 00:53:29.01: SIM {TimeUS : 60834823, Roll : -0.2, Pitch : -17.19, Yaw : 56.1, Alt : 49.2999992371, Lat : 49.2836574, Lng : -123.1148282, Q1 : 0.872726798058, Q2 : 0.0687008798122, Q3 : -0.132740795612, Q4 : 0.464766591787}
2019-04-15 00:53:29.11: SIM {TimeUS : 60934783, Roll : -0.19, Pitch : -17.2, Yaw : 56.08, Alt : 49.2999992371, Lat : 49.2836597, Lng : -123.1148233, Q1 : 0.872805953026, Q2 : 0.0688588544726, Q3 : -0.132788941264, Q4 : 0.46458080411}
2019-04-15 00:53:29.21: SIM {TimeUS : 61034743, Roll : -0.16, Pitch : -17.21, Yaw : 56.01, Alt : 49.2999992371, Lat : 49.2836619, Lng : -123.1148183, Q1 : 0.873046875, Q2 : 0.0689966380596, Q3 : -0.13281956315, Q4 : 0.46409869194}
2019-04-15 00:53:29.31: SIM {TimeUS : 61134703, Roll : -0.11, Pitch : -17.22, Yaw : 55.92, Alt : 49.3100013733, Lat : 49.283664, Lng : -123.1148134, Q1 : 0.87339001894, Q2 : 0.0692976713181, Q3 : -0.132731929421, Q4 : 0.463432818651}
2019-04-15 00:53:29.41: SIM {TimeUS : 61234663, Roll : -0.04, Pitch : -17.23, Yaw : 55.8, Alt : 49.3100013733, Lat : 49.2836663, Lng : -123.1148084, Q1 : 0.873777508736, Q2 : 0.0697655230761, Q3 : -0.13261076808, Q4 : 0.462666273117}
2019-04-15 00:53:29.51: SIM {TimeUS : 61334623, Roll : 0.04, Pitch : -17.27, Yaw : 55.69, Alt : 49.3100013733, Lat : 49.2836685, Lng : -123.1148034, Q1 : 0.874138176441, Q2 : 0.0704827010632, Q3 : -0.1325930655, Q4 : 0.461880713701}
2019-04-15 00:53:29.61: SIM {TimeUS : 61434583, Roll : 0.12, Pitch : -17.33, Yaw : 55.59, Alt : 49.3100013733, Lat : 49.2836707, Lng : -123.1147983, Q1 : 0.874445915222, Q2 : 0.0712027177215, Q3 : -0.132779121399, Q4 : 0.461133599281}
2019-04-15 00:53:29.71: SIM {TimeUS : 61534543, Roll : 0.17, Pitch : -17.36, Yaw : 55.5, Alt : 49.3100013733, Lat : 49.283673, Lng : -123.1147933, Q1 : 0.874731779099, Q2 : 0.0715895518661, Q3 : -0.132898300886, Q4 : 0.460496813059}
2019-04-15 00:53:29.82: SIM {TimeUS : 61635336, Roll : 0.2, Pitch : -17.36, Yaw : 55.43, Alt : 49.3100013733, Lat : 49.2836753, Lng : -123.1147882, Q1 : 0.874978005886, Q2 : 0.0717585608363, Q3 : -0.132839232683, Q4 : 0.460019499063}
2019-04-15 00:53:29.91: SIM {TimeUS : 61735296, Roll : 0.2, Pitch : -17.37, Yaw : 55.39, Alt : 49.3100013733, Lat : 49.2836774, Lng : -123.1147831, Q1 : 0.875141739845, Q2 : 0.0717850625515, Q3 : -0.132908597589, Q4 : 0.459683805704}
2019-04-15 00:53:30.01: SIM {TimeUS : 61835256, Roll : 0.19, Pitch : -17.4, Yaw : 55.36, Alt : 49.3100013733, Lat : 49.2836797, Lng : -123.114778, Q1 : 0.875213682652, Q2 : 0.0717667043209, Q3 : -0.133170649409, Q4 : 0.459473729134}
2019-04-15 00:53:30.11: SIM {TimeUS : 61935216, Roll : 0.18, Pitch : -17.42, Yaw : 55.36, Alt : 49.3100013733, Lat : 49.2836821, Lng : -123.1147728, Q1 : 0.875216186047, Q2 : 0.0718059614301, Q3 : -0.133372202516, Q4 : 0.459404379129}
2019-04-15 00:53:30.21: SIM {TimeUS : 62035176, Roll : 0.17, Pitch : -17.45, Yaw : 55.36, Alt : 49.3100013733, Lat : 49.2836843, Lng : -123.1147676, Q1 : 0.875161468983, Q2 : 0.0718288868666, Q3 : -0.133669123054, Q4 : 0.459418714046}
2019-04-15 00:53:30.31: SIM {TimeUS : 62135136, Roll : 0.14, Pitch : -17.47, Yaw : 55.38, Alt : 49.3100013733, Lat : 49.2836865, Lng : -123.1147626, Q1 : 0.875087976456, Q2 : 0.0717508122325, Q3 : -0.133934423327, Q4 : 0.459493666887}
2019-04-15 00:53:30.41: SIM {TimeUS : 62235096, Roll : 0.13, Pitch : -17.49, Yaw : 55.4, Alt : 49.3100013733, Lat : 49.2836888, Lng : -123.1147573, Q1 : 0.875003933907, Q2 : 0.071708291769, Q3 : -0.134159982204, Q4 : 0.459594488144}
2019-04-15 00:53:30.51: SIM {TimeUS : 62335056, Roll : 0.11, Pitch : -17.51, Yaw : 55.41, Alt : 49.3199996948, Lat : 49.2836912, Lng : -123.1147522, Q1 : 0.874928832054, Q2 : 0.0716616138816, Q3 : -0.134312465787, Q4 : 0.459700345993}
2019-04-15 00:53:30.61: SIM {TimeUS : 62435016, Roll : 0.1, Pitch : -17.52, Yaw : 55.43, Alt : 49.3199996948, Lat : 49.2836935, Lng : -123.114747, Q1 : 0.874862849712, Q2 : 0.0716792419553, Q3 : -0.134426549077, Q4 : 0.45978975296}
2019-04-15 00:53:30.71: SIM {TimeUS : 62534976, Roll : 0.11, Pitch : -17.54, Yaw : 55.43, Alt : 49.3199996948, Lat : 49.2836957, Lng : -123.1147418, Q1 : 0.874805450439, Q2 : 0.0718126222491, Q3 : -0.134580165148, Q4 : 0.459833204746}
2019-04-15 00:53:30.81: SIM {TimeUS : 62634936, Roll : 0.1, Pitch : -17.58, Yaw : 55.43, Alt : 49.3199996948, Lat : 49.283698, Lng : -123.1147366, Q1 : 0.874764561653, Q2 : 0.0719445571303, Q3 : -0.134913936257, Q4 : 0.459792554379}
2019-04-15 00:53:30.91: SIM {TimeUS : 62734896, Roll : 0.08, Pitch : -17.64, Yaw : 55.42, Alt : 49.3199996948, Lat : 49.2837004, Lng : -123.1147314, Q1 : 0.874754369259, Q2 : 0.0719458088279, Q3 : -0.135428473353, Q4 : 0.459660440683}
2019-04-15 00:53:31.01: SIM {TimeUS : 62834856, Roll : 0.06, Pitch : -17.69, Yaw : 55.41, Alt : 49.3199996948, Lat : 49.2837028, Lng : -123.1147261, Q1 : 0.874764800072, Q2 : 0.072028413415, Q3 : -0.135896101594, Q4 : 0.459489613771}
2019-04-15 00:53:31.11: SIM {TimeUS : 62934816, Roll : 0.08, Pitch : -17.73, Yaw : 55.39, Alt : 49.3199996948, Lat : 49.2837051, Lng : -123.1147209, Q1 : 0.874799489975, Q2 : 0.0722853392363, Q3 : -0.136108145118, Q4 : 0.459320396185}
2019-04-15 00:53:31.21: SIM {TimeUS : 63034776, Roll : 0.11, Pitch : -17.73, Yaw : 55.36, Alt : 49.3199996948, Lat : 49.2837074, Lng : -123.1147156, Q1 : 0.874884128571, Q2 : 0.0725001469254, Q3 : -0.136007294059, Q4 : 0.459155201912}
2019-04-15 00:53:31.31: SIM {TimeUS : 63134736, Roll : 0.14, Pitch : -17.7, Yaw : 55.33, Alt : 49.3199996948, Lat : 49.2837097, Lng : -123.1147103, Q1 : 0.87501013279, Q2 : 0.0725971907377, Q3 : -0.135687947273, Q4 : 0.458994179964}
2019-04-15 00:53:31.41: SIM {TimeUS : 63234696, Roll : 0.15, Pitch : -17.68, Yaw : 55.3, Alt : 49.3199996948, Lat : 49.283712, Lng : -123.114705, Q1 : 0.875139117241, Q2 : 0.072537958622, Q3 : -0.135492712259, Q4 : 0.458815336227}
2019-04-15 00:53:31.51: SIM {TimeUS : 63334656, Roll : 0.16, Pitch : -17.66, Yaw : 55.28, Alt : 49.3199996948, Lat : 49.2837144, Lng : -123.1146997, Q1 : 0.875263810158, Q2 : 0.0724484026432, Q3 : -0.135349929333, Q4 : 0.458633720875}
2019-04-15 00:53:31.61: SIM {TimeUS : 63434616, Roll : 0.15, Pitch : -17.64, Yaw : 55.25, Alt : 49.3199996948, Lat : 49.2837168, Lng : -123.1146944, Q1 : 0.875377476215, Q2 : 0.0723370239139, Q3 : -0.13527482748, Q4 : 0.458456486464}
2019-04-15 00:53:31.71: SIM {TimeUS : 63534576, Roll : 0.14, Pitch : -17.66, Yaw : 55.23, Alt : 49.3199996948, Lat : 49.2837192, Lng : -123.1146891, Q1 : 0.875450134277, Q2 : 0.0722866952419, Q3 : -0.135452419519, Q4 : 0.458273261786}
2019-04-15 00:53:31.81: SIM {TimeUS : 63634536, Roll : 0.13, Pitch : -17.69, Yaw : 55.22, Alt : 49.3199996948, Lat : 49.2837216, Lng : -123.1146837, Q1 : 0.875492930412, Q2 : 0.072325758636, Q3 : -0.135741069913, Q4 : 0.458099931479}
2019-04-15 00:53:31.91: SIM {TimeUS : 63735329, Roll : 0.12, Pitch : -17.75, Yaw : 55.2, Alt : 49.3199996948, Lat : 49.283724, Lng : -123.1146783, Q1 : 0.87549418211, Q2 : 0.0724481791258, Q3 : -0.136218234897, Q4 : 0.457936435938}
2019-04-15 00:53:32.01: SIM {TimeUS : 63835289, Roll : 0.12, Pitch : -17.8, Yaw : 55.19, Alt : 49.3300018311, Lat : 49.2837263, Lng : -123.114673, Q1 : 0.875480175018, Q2 : 0.0726512223482, Q3 : -0.136667326093, Q4 : 0.457797259092}
2019-04-15 00:53:32.11: SIM {TimeUS : 63935249, Roll : 0.13, Pitch : -17.83, Yaw : 55.18, Alt : 49.3300018311, Lat : 49.2837287, Lng : -123.1146676, Q1 : 0.875485539436, Q2 : 0.072819635272, Q3 : -0.136845842004, Q4 : 0.457706898451}
2019-04-15 00:53:32.21: SIM {TimeUS : 64035209, Roll : 0.13, Pitch : -17.85, Yaw : 55.17, Alt : 49.3300018311, Lat : 49.2837311, Lng : -123.1146623, Q1 : 0.875496983528, Q2 : 0.0729091390967, Q3 : -0.137023583055, Q4 : 0.457617580891}
2019-04-15 00:53:32.31: SIM {TimeUS : 64135169, Roll : 0.13, Pitch : -17.86, Yaw : 55.16, Alt : 49.3300018311, Lat : 49.2837334, Lng : -123.1146569, Q1 : 0.875523805618, Q2 : 0.0729237794876, Q3 : -0.137125015259, Q4 : 0.457533508539}
2019-04-15 00:53:32.41: SIM {TimeUS : 64235129, Roll : 0.15, Pitch : -17.85, Yaw : 55.15, Alt : 49.3300018311, Lat : 49.2837358, Lng : -123.1146515, Q1 : 0.875560879707, Q2 : 0.0730087459087, Q3 : -0.136970296502, Q4 : 0.457495421171}
2019-04-15 00:53:32.51: SIM {TimeUS : 64335089, Roll : 0.17, Pitch : -17.86, Yaw : 55.14, Alt : 49.3300018311, Lat : 49.2837382, Lng : -123.114646, Q1 : 0.875567793846, Q2 : 0.0732461363077, Q3 : -0.136943086982, Q4 : 0.457452327013}
2019-04-15 00:53:32.61: SIM {TimeUS : 64435049, Roll : 0.19, Pitch : -17.89, Yaw : 55.13, Alt : 49.3300018311, Lat : 49.2837406, Lng : -123.1146407, Q1 : 0.875567734241, Q2 : 0.0734391137958, Q3 : -0.137060254812, Q4 : 0.457386463881}
2019-04-15 00:53:32.71: SIM {TimeUS : 64535009, Roll : 0.2, Pitch : -17.9, Yaw : 55.12, Alt : 49.3300018311, Lat : 49.283743, Lng : -123.1146353, Q1 : 0.875577747822, Q2 : 0.0735578909516, Q3 : -0.137182757258, Q4 : 0.457311362028}
2019-04-15 00:53:32.81: SIM {TimeUS : 64634969, Roll : 0.19, Pitch : -17.9, Yaw : 55.11, Alt : 49.3300018311, Lat : 49.2837454, Lng : -123.1146299, Q1 : 0.875622987747, Q2 : 0.0735158324242, Q3 : -0.137191131711, Q4 : 0.457229048014}
2019-04-15 00:53:32.91: SIM {TimeUS : 64734929, Roll : 0.18, Pitch : -17.9, Yaw : 55.1, Alt : 49.3300018311, Lat : 49.2837478, Lng : -123.1146245, Q1 : 0.875674962997, Q2 : 0.0734066292644, Q3 : -0.137263759971, Q4 : 0.457125335932}
2019-04-15 00:53:33.01: SIM {TimeUS : 64834889, Roll : 0.15, Pitch : -17.92, Yaw : 55.09, Alt : 49.3300018311, Lat : 49.2837503, Lng : -123.1146191, Q1 : 0.875719308853, Q2 : 0.0732521563768, Q3 : -0.13752117753, Q4 : 0.456987738609}
2019-04-15 00:53:33.11: SIM {TimeUS : 64934849, Roll : 0.12, Pitch : -17.96, Yaw : 55.07, Alt : 49.3300018311, Lat : 49.2837527, Lng : -123.1146136, Q1 : 0.875746667385, Q2 : 0.0731372535229, Q3 : -0.137937366962, Q4 : 0.456828206778}
2019-04-15 00:53:33.21: SIM {TimeUS : 65034809, Roll : 0.11, Pitch : -17.97, Yaw : 55.06, Alt : 49.3300018311, Lat : 49.2837551, Lng : -123.1146082, Q1 : 0.875794708729, Q2 : 0.0730855241418, Q3 : -0.138028994203, Q4 : 0.456716656685}
2019-04-15 00:53:33.31: SIM {TimeUS : 65134769, Roll : 0.13, Pitch : -17.95, Yaw : 55.05, Alt : 49.3300018311, Lat : 49.2837576, Lng : -123.1146028, Q1 : 0.875849604607, Q2 : 0.0731403231621, Q3 : -0.137874737382, Q4 : 0.456649303436}
2019-04-15 00:53:33.41: SIM {TimeUS : 65234729, Roll : 0.16, Pitch : -17.94, Yaw : 55.03, Alt : 49.3300018311, Lat : 49.28376, Lng : -123.1145973, Q1 : 0.875898301601, Q2 : 0.0732870772481, Q3 : -0.137661501765, Q4 : 0.456596702337}
2019-04-15 00:53:33.51: SIM {TimeUS : 65334689, Roll : 0.17, Pitch : -17.95, Yaw : 55.02, Alt : 49.3400001526, Lat : 49.2837624, Lng : -123.1145919, Q1 : 0.875931501389, Q2 : 0.0734259933233, Q3 : -0.137670844793, Q4 : 0.456507742405}
2019-04-15 00:53:33.61: SIM {TimeUS : 65434649, Roll : 0.16, Pitch : -17.97, Yaw : 55.01, Alt : 49.3400001526, Lat : 49.2837649, Lng : -123.1145864, Q1 : 0.875960052013, Q2 : 0.0734357461333, Q3 : -0.137885063887, Q4 : 0.456386834383}
2019-04-15 00:53:33.71: SIM {TimeUS : 65534609, Roll : 0.14, Pitch : -17.99, Yaw : 55.0, Alt : 49.3400001526, Lat : 49.2837673, Lng : -123.1145809, Q1 : 0.875992059708, Q2 : 0.0733410790563, Q3 : -0.138176009059, Q4 : 0.456252515316}
2019-04-15 00:53:33.81: SIM {TimeUS : 65634569, Roll : 0.12, Pitch : -18.01, Yaw : 54.98, Alt : 49.3400001526, Lat : 49.2837697, Lng : -123.1145755, Q1 : 0.876025021076, Q2 : 0.0732887983322, Q3 : -0.138397812843, Q4 : 0.456130504608}
2019-04-15 00:53:33.92: SIM {TimeUS : 65735362, Roll : 0.13, Pitch : -18.04, Yaw : 54.97, Alt : 49.3400001526, Lat : 49.2837721, Lng : -123.1145699, Q1 : 0.876049458981, Q2 : 0.0733819156885, Q3 : -0.138552427292, Q4 : 0.45602157712}
2019-04-15 00:53:34.01: SIM {TimeUS : 65835322, Roll : 0.14, Pitch : -18.05, Yaw : 54.96, Alt : 49.3400001526, Lat : 49.2837746, Lng : -123.1145645, Q1 : 0.876069247723, Q2 : 0.0735422447324, Q3 : -0.1386179775, Q4 : 0.455937832594}
2019-04-15 00:53:34.11: SIM {TimeUS : 65935282, Roll : 0.17, Pitch : -18.06, Yaw : 54.95, Alt : 49.3400001526, Lat : 49.283777, Lng : -123.114559, Q1 : 0.876076281071, Q2 : 0.0737584903836, Q3 : -0.138574331999, Q4 : 0.455902665854}
2019-04-15 00:53:34.21: SIM {TimeUS : 66035242, Roll : 0.18, Pitch : -18.07, Yaw : 54.95, Alt : 49.3400001526, Lat : 49.2837794, Lng : -123.1145535, Q1 : 0.876070320606, Q2 : 0.0739170238376, Q3 : -0.138610512018, Q4 : 0.455877482891}
2019-04-15 00:53:34.31: SIM {TimeUS : 66135202, Roll : 0.2, Pitch : -18.08, Yaw : 54.94, Alt : 49.3400001526, Lat : 49.2837819, Lng : -123.114548, Q1 : 0.876061797142, Q2 : 0.0740692317486, Q3 : -0.138663560152, Q4 : 0.45585295558}
2019-04-15 00:53:34.41: SIM {TimeUS : 66235162, Roll : 0.21, Pitch : -18.1, Yaw : 54.94, Alt : 49.3400001526, Lat : 49.2837843, Lng : -123.1145425, Q1 : 0.876049757004, Q2 : 0.0742405653, Q3 : -0.138716965914, Q4 : 0.455831885338}
2019-04-15 00:53:34.51: SIM {TimeUS : 66335122, Roll : 0.24, Pitch : -18.11, Yaw : 54.93, Alt : 49.3400001526, Lat : 49.2837868, Lng : -123.114537, Q1 : 0.876035034657, Q2 : 0.0744583383203, Q3 : -0.138724818826, Q4 : 0.455822318792}
2019-04-15 00:53:34.61: SIM {TimeUS : 66435082, Roll : 0.26, Pitch : -18.13, Yaw : 54.93, Alt : 49.3400001526, Lat : 49.2837893, Lng : -123.1145315, Q1 : 0.876016318798, Q2 : 0.0746963843703, Q3 : -0.138741120696, Q4 : 0.455814361572}
2019-04-15 00:53:34.71: SIM {TimeUS : 66535042, Roll : 0.25, Pitch : -18.12, Yaw : 54.93, Alt : 49.3499984741, Lat : 49.2837917, Lng : -123.114526, Q1 : 0.876039028168, Q2 : 0.0746190547943, Q3 : -0.13876388967, Q4 : 0.455776453018}
2019-04-15 00:53:34.81: SIM {TimeUS : 66635002, Roll : 0.22, Pitch : -18.13, Yaw : 54.92, Alt : 49.3499984741, Lat : 49.2837942, Lng : -123.1145205, Q1 : 0.876065671444, Q2 : 0.0744036063552, Q3 : -0.138962566853, Q4 : 0.455699950457}
