2019-04-14 22:38:11.70: SIM {TimeUS : 40316367, Roll : 0.0, Pitch : 0.0, Yaw : 0.0, Alt : 30.1000003815, Lat : 49.28357, Lng : -123.11502, Q1 : 1.0, Q2 : 0.0, Q3 : 0.0, Q4 : 0.0}
2019-04-14 22:38:11.81: SIM {TimeUS : 40435486, Roll : 0.0, Pitch : 0.0, Yaw : 0.0, Alt : 30.1000003815, Lat : 49.28357, Lng : -123.11502, Q1 : 1.0, Q2 : 0.0, Q3 : 0.0, Q4 : 0.0}
2019-04-14 22:38:11.91: SIM {TimeUS : 40535446, Roll : 0.0, Pitch : 0.0, Yaw : 0.0, Alt : 30.1000003815, Lat : 49.28357, Lng : -123.11502, Q1 : 1.0, Q2 : 0.0, Q3 : 0.0, Q4 : 0.0}
2019-04-14 22:38:12.01: SIM {TimeUS : 40635406, Roll : 0.0, Pitch : 0.0, Yaw : 0.0, Alt : 30.1000003815, Lat : 49.28357, Lng : -123.11502, Q1 : 1.0, Q2 : 0.0, Q3 : 0.0, Q4 : 0.0}
2019-04-14 22:38:12.11: SIM {TimeUS : 40735366, Roll : 0.0, Pitch : 0.0, Yaw : 0.0, Alt : 30.1000003815, Lat : 49.28357, Lng : -123.11502, Q1 : 1.0, Q2 : 0.0, Q3 : 0.0, Q4 : 0.0}
2019-04-14 22:38:12.21: SIM {TimeUS : 40835326, Roll : 0.0, Pitch : 0.0, Yaw : 0.0, Alt : 30.1000003815, Lat : 49.28357, Lng : -123.11502, Q1 : 1.0, Q2 : 0.0, Q3 : 0.0, Q4 : 0.0}
2019-04-14 22:38:12.31: SIM {TimeUS : 40935286, Roll : 0.0, Pitch : 0.0, Yaw : 0.0, Alt : 30.1000003815, Lat : 49.28357, Lng : -123.11502, Q1 : 1.0, Q2 : 0.0, Q3 : 0.0, Q4 : 0.0}
2019-04-14 22:38:12.41: SIM {TimeUS : 41035246, Roll : 0.0, Pitch : 0.0, Yaw : 0.0, Alt : 30.1000003815, Lat : 49.28357, Lng : -123.11502, Q1 : 1.0, Q2 : 0.0, Q3 : 0.0, Q4 : 0.0}
2019-04-14 22:38:12.51: SIM {TimeUS : 41135206, Roll : 0.0, Pitch : 0.0, Yaw : 0.0, Alt : 30.1000003815, Lat : 49.28357, Lng : -123.11502, Q1 : 1.0, Q2 : 0.0, Q3 : 0.0, Q4 : 0.0}
2019-04-14 22:38:12.61: SIM {TimeUS : 41235166, Roll : 0.0, Pitch : 0.0, Yaw : 0.0, Alt : 30.1000003815, Lat : 49.28357, Lng : -123.11502, Q1 : 1.0, Q2 : 0.0, Q3 : 0.0, Q4 : 0.0}
2019-04-14 22:38:12.71: SIM {TimeUS : 41335126, Roll : 0.0, Pitch : 0.0, Yaw : 0.0, Alt : 30.1000003815, Lat : 49.28357, Lng : -123.11502, Q1 : 1.0, Q2 : 0.0, Q3 : 0.0, Q4 : 0.0}
2019-04-14 22:38:12.81: SIM {TimeUS : 41435086, Roll : 0.0, Pitch : 0.0, Yaw : 0.0, Alt : 30.1000003815, Lat : 49.28357, Lng : -123.11502, Q1 : 1.0, Q2 : 0.0, Q3 : 0.0, Q4 : 0.0}
2019-04-14 22:38:12.91: SIM {TimeUS : 41535046, Roll : 0.0, Pitch : 0.0, Yaw : 0.0, Alt : 30.1000003815, Lat : 49.28357, Lng : -123.11502, Q1 : 1.0, Q2 : 0.0, Q3 : 0.0, Q4 : 0.0}
2019-04-14 22:38:13.01: SIM {TimeUS : 41635006, Roll : 0.0, Pitch : 0.0, Yaw : 0.0, Alt : 30.1000003815, Lat : 49.28357, Lng : -123.11502, Q1 : 1.0, Q2 : 0.0, Q3 : 0.0, Q4 : 0.0}
2019-04-14 22:38:13.11: SIM {TimeUS : 41734966, Roll : 0.0, Pitch : 0.0, Yaw : 0.0, Alt : 30.1000003815, Lat : 49.28357, Lng : -123.11502, Q1 : 1.0, Q2 : 0.0, Q3 : 0.0, Q4 : 0.0}
2019-04-14 22:38:13.21: SIM {TimeUS : 41834926, Roll : 0.0, Pitch : 0.0, Yaw : 0.0, Alt : 30.1000003815, Lat : 49.28357, Lng : -123.11502, Q1 : 1.0, Q2 : 0.0, Q3 : 0.0, Q4 : 0.0}
2019-04-14 22:38:13.31: SIM {TimeUS : 41934886, Roll : 0.0, Pitch : 0.0, Yaw : 0.0, Alt : 30.1000003815, Lat : 49.28357, Lng : -123.11502, Q1 : 1.0, Q2 : 0.0, Q3 : 0.0, Q4 : 0.0}
2019-04-14 22:38:13.41: SIM {TimeUS : 42034846, Roll : 0.0, Pitch : 0.0, Yaw : 0.0, Alt : 30.1000003815, Lat : 49.28357, Lng : -123.11502, Q1 : 1.0, Q2 : 0.0, Q3 : 0.0, Q4 : 0.0}
2019-04-14 22:38:13.51: SIM {TimeUS : 42134806, Roll : 0.0, Pitch : 0.0, Yaw : 0.0, Alt : 30.1000003815, Lat : 49.28357, Lng : -123.11502, Q1 : 1.0, Q2 : 0.0, Q3 : 0.0, Q4 : 0.0}
2019-04-14 22:38:13.61: SIM {TimeUS : 42234766, Roll : 0.0, Pitch : 0.0, Yaw : 0.0, Alt : 30.1000003815, Lat : 49.28357, Lng : -123.11502, Q1 : 1.0, Q2 : 0.0, Q3 : 0.0, Q4 : 0.0}
2019-04-14 22:38:13.71: SIM {TimeUS : 42334726, Roll : 0.0, Pitch : 0.0, Yaw : 0.0, Alt : 30.1000003815, Lat : 49.28357, Lng : -123.11502, Q1 : 1.0, Q2 : 0.0, Q3 : 0.0, Q4 : 0.0}
2019-04-14 22:38:13.82: SIM {TimeUS : 42435519, Roll : 0.0, Pitch : 0.0, Yaw : 0.0, Alt : 30.1000003815, Lat : 49.28357, Lng : -123.11502, Q1 : 1.0, Q2 : 0.0, Q3 : 0.0, Q4 : 0.0}
2019-04-14 22:38:13.91: SIM {TimeUS : 42535479, Roll : 0.0, Pitch : 0.0, Yaw : 0.0, Alt : 30.1000003815, Lat : 49.28357, Lng : -123.11502, Q1 : 1.0, Q2 : 0.0, Q3 : 0.0, Q4 : 0.0}
2019-04-14 22:38:14.01: SIM {TimeUS : 42635439, Roll : 0.0, Pitch : 0.0, Yaw : 0.0, Alt : 30.1000003815, Lat : 49.28357, Lng : -123.11502, Q1 : 1.0, Q2 : 0.0, Q3 : 0.0, Q4 : 1.56407300306e-11}
2019-04-14 22:38:14.11: SIM {TimeUS : 42735399, Roll : 0.0, Pitch : 0.0, Yaw : 360.0, Alt : 30.1000003815, Lat : 49.28357, Lng : -123.11502, Q1 : 1.0, Q2 : 0.0, Q3 : 0.0, Q4 : -2.38367370287e-08}
2019-04-14 22:38:14.21: SIM {TimeUS : 42835359, Roll : 0.0, Pitch : 0.0, Yaw : 359.99, Alt : 30.1000003815, Lat : 49.28357, Lng : -123.11502, Q1 : 1.0, Q2 : 0.0, Q3 : 0.0, Q4 : -2.00274499207e-07}
2019-04-14 22:38:14.31: SIM {TimeUS : 42935319, Roll : 0.0, Pitch : 0.0, Yaw : 359.99, Alt : 30.1000003815, Lat : 49.28357, Lng : -123.11502, Q1 : 1.0, Q2 : 0.0, Q3 : 0.0, Q4 : -3.94851383589e-07}
2019-04-14 22:38:14.41: SIM {TimeUS : 43035279, Roll : 0.0, Pitch : 0.0, Yaw : 359.99, Alt : 30.1000003815, Lat : 49.28357, Lng : -123.11502, Q1 : 1.0, Q2 : 0.0, Q3 : 0.0, Q4 : -6.07396373198e-07}
2019-04-14 22:38:14.51: SIM {TimeUS : 43135239, Roll : 0.0, Pitch : 0.0, Yaw : 359.99, Alt : 30.1000003815, Lat : 49.28357, Lng : -123.11502, Q1 : 1.0, Q2 : 0.0, Q3 : 0.0, Q4 : -8.08593370039e-07}
2019-04-14 22:38:14.61: SIM {TimeUS : 43235199, Roll : 0.0, Pitch : 0.0, Yaw : 359.99, Alt : 30.1000003815, Lat : 49.28357, Lng : -123.11502, Q1 : 1.0, Q2 : 0.0, Q3 : 0.0, Q4 : -1.00156330518e-06}
2019-04-14 22:38:14.71: SIM {TimeUS : 43335159, Roll : 0.0, Pitch : 0.0, Yaw : 359.99, Alt : 30.1000003815, Lat : 49.28357, Lng : -123.11502, Q1 : 1.0, Q2 : 0.0, Q3 : 0.0, Q4 : -1.19374919905e-06}
2019-04-14 22:38:14.81: SIM {TimeUS : 43435119, Roll : 0.0, Pitch : 0.0, Yaw : 359.99, Alt : 30.1000003815, Lat : 49.28357, Lng : -123.11502, Q1 : 1.0, Q2 : 0.0, Q3 : 0.0, Q4 : -1.38981181408e-06}
2019-04-14 22:38:14.91: SIM {TimeUS : 43535079, Roll : 0.0, Pitch : 0.0, Yaw : 359.99, Alt : 30.1200008392, Lat : 49.28357, Lng : -123.11502, Q1 : 1.0, Q2 : 0.0, Q3 : 0.0, Q4 : -1.60428942308e-06}
2019-04-14 22:38:15.01: SIM {TimeUS : 43635039, Roll : 0.0, Pitch : 0.0, Yaw : 359.99, Alt : 30.1499996185, Lat : 49.28357, Lng : -123.11502, Q1 : 1.0, Q2 : 0.0, Q3 : 0.0, Q4 : -1.86302577276e-06}
2019-04-14 22:38:15.11: SIM {TimeUS : 43734999, Roll : 0.0, Pitch : 0.0, Yaw : 359.99, Alt : 30.1800003052, Lat : 49.28357, Lng : -123.11502, Q1 : 1.0, Q2 : 0.0, Q3 : 0.0, Q4 : -2.05774540518e-06}
2019-04-14 22:38:15.21: SIM {TimeUS : 43834959, Roll : 0.0, Pitch : 0.0, Yaw : 359.99, Alt : 30.2099990845, Lat : 49.28357, Lng : -123.11502, Q1 : 1.0, Q2 : -1.21034618132e-05, Q3 : -1.05918252302e-05, Q4 : -2.33913965531e-06}
2019-04-14 22:38:15.31: SIM {TimeUS : 43934919, Roll : -0.18, Pitch : -0.16, Yaw : 359.99, Alt : 30.2700004578, Lat : 49.28357, Lng : -123.11502, Q1 : 0.999997615814, Q2 : -0.00163286738098, Q3 : -0.00143846776336, Q4 : -1.9910348783e-05}
2019-04-14 22:38:15.41: SIM {TimeUS : 44034879, Roll : -0.5, Pitch : -0.45, Yaw : 359.99, Alt : 30.3899993896, Lat : 49.28357, Lng : -123.11502, Q1 : 0.999982655048, Q2 : -0.00438937032595, Q3 : -0.00392907904461, Q4 : -6.30136055406e-05}
2019-04-14 22:38:15.51: SIM {TimeUS : 44134839, Roll : -0.76, Pitch : -0.69, Yaw : 359.98, Alt : 30.5400009155, Lat : 49.28357, Lng : -123.11502, Q1 : 0.999959468842, Q2 : -0.00668196380138, Q3 : -0.00603579031304, Q4 : -0.000128762840177}
2019-04-14 22:38:15.61: SIM {TimeUS : 44234799, Roll : -0.88, Pitch : -0.79, Yaw : 359.98, Alt : 30.7000007629, Lat : 49.28357, Lng : -123.11502, Q1 : 0.999946534634, Q2 : -0.00770045351237, Q3 : -0.00689462944865, Q4 : -0.000207803663216}
2019-04-14 22:38:15.71: SIM {TimeUS : 44334759, Roll : -0.83, Pitch : -0.73, Yaw : 359.97, Alt : 30.8600006104, Lat : 49.28357, Lng : -123.1150201, Q1 : 0.999953091145, Q2 : -0.00725227734074, Q3 : -0.00641106674448, Q4 : -0.000292641023407}
2019-04-14 22:38:15.81: SIM {TimeUS : 44434719, Roll : -0.64, Pitch : -0.58, Yaw : 359.96, Alt : 31.0100002289, Lat : 49.28357, Lng : -123.1150201, Q1 : 0.999971151352, Q2 : -0.00559329753742, Q3 : -0.00512298196554, Q4 : -0.000369889632566}
2019-04-14 22:38:15.92: SIM {TimeUS : 44535512, Roll : -0.39, Pitch : -0.38, Yaw : 359.95, Alt : 31.1700000763, Lat : 49.2835701, Lng : -123.1150202, Q1 : 0.99998831749, Q2 : -0.00345663377084, Q3 : -0.00334769580513, Q4 : -0.000437208014773}
2019-04-14 22:38:16.01: SIM {TimeUS : 44635472, Roll : -0.18, Pitch : -0.18, Yaw : 359.94, Alt : 31.3299999237, Lat : 49.2835701, Lng : -123.1150203, Q1 : 0.999997377396, Q2 : -0.00160572433379, Q3 : -0.00157871772535, Q4 : -0.000495661050081}
2019-04-14 22:38:16.11: SIM {TimeUS : 44735432, Roll : -0.03, Pitch : -0.03, Yaw : 359.93, Alt : 31.5, Lat : 49.2835702, Lng : -123.1150204, Q1 : 0.999999761581, Q2 : -0.000281723216176, Q3 : -0.000293472665362, Q4 : -0.000536919571459}
2019-04-14 22:38:16.21: SIM {TimeUS : 44835392, Roll : 0.05, Pitch : 0.04, Yaw : 359.93, Alt : 31.6700000763, Lat : 49.2835702, Lng : -123.1150205, Q1 : 0.999999701977, Q2 : 0.000443579629064, Q3 : 0.000357124226866, Q4 : -0.000560488493647}
2019-04-14 22:38:16.31: SIM {TimeUS : 44935352, Roll : 0.08, Pitch : 0.05, Yaw : 359.93, Alt : 31.8500003815, Lat : 49.2835703, Lng : -123.1150205, Q1 : 0.999999463558, Q2 : 0.000710773165338, Q3 : 0.000512999831699, Q4 : -0.00057588313939}
2019-04-14 22:38:16.41: SIM {TimeUS : 45035312, Roll : 0.09, Pitch : 0.04, Yaw : 359.93, Alt : 32.0299987793, Lat : 49.2835703, Lng : -123.1150206, Q1 : 0.999999403954, Q2 : 0.000827896408737, Q3 : 0.000430462503573, Q4 : -0.000579844694585}
2019-04-14 22:38:16.51: SIM {TimeUS : 45135272, Roll : 0.09, Pitch : 0.02, Yaw : 359.93, Alt : 32.2200012207, Lat : 49.2835703, Lng : -123.1150206, Q1 : 0.999999463558, Q2 : 0.000824687886052, Q3 : 0.000252057885518, Q4 : -0.00056828558445}
2019-04-14 22:38:16.61: SIM {TimeUS : 45235232, Roll : 0.08, Pitch : 0.03, Yaw : 359.93, Alt : 32.4099998474, Lat : 49.2835703, Lng : -123.1150207, Q1 : 0.999999523163, Q2 : 0.00076443143189, Q3 : 0.00026826641988, Q4 : -0.000547746196389}
2019-04-14 22:38:16.71: SIM {TimeUS : 45335192, Roll : 0.08, Pitch : 0.06, Yaw : 359.93, Alt : 32.6100006104, Lat : 49.2835703, Lng : -123.1150207, Q1 : 0.999999403954, Q2 : 0.00074993778253, Q3 : 0.000540646782611, Q4 : -0.000540588865988}
2019-04-14 22:38:16.81: SIM {TimeUS : 45435152, Roll : 0.08, Pitch : 0.1, Yaw : 359.93, Alt : 32.7999992371, Lat : 49.2835703, Lng : -123.1150208, Q1 : 0.99999910593, Q2 : 0.000764436030295, Q3 : 0.000937525008339, Q4 : -0.00053077226039}
2019-04-14 22:38:16.91: SIM {TimeUS : 45535112, Roll : 0.11, Pitch : 0.15, Yaw : 359.94, Alt : 33.0, Lat : 49.2835704, Lng : -123.1150208, Q1 : 0.999998450279, Q2 : 0.000996525282972, Q3 : 0.00137285562232, Q4 : -0.000515761552379}
2019-04-14 22:38:17.01: SIM {TimeUS : 45635072, Roll : 0.15, Pitch : 0.18, Yaw : 359.94, Alt : 33.2000007629, Lat : 49.2835704, Lng : -123.1150208, Q1 : 0.999997794628, Q2 : 0.00131631561089, Q3 : 0.00158464710694, Q4 : -0.000494764826726}
2019-04-14 22:38:17.11: SIM {TimeUS : 45735032, Roll : 0.16, Pitch : 0.18, Yaw : 359.94, Alt : 33.4099998474, Lat : 49.2835704, Lng : -123.1150209, Q1 : 0.999997496605, Q2 : 0.00146896764636, Q3 : 0.00163459067699, Q4 : -0.00048848206643}
2019-04-14 22:38:17.21: SIM {TimeUS : 45834992, Roll : 0.16, Pitch : 0.19, Yaw : 359.94, Alt : 33.6100006104, Lat : 49.2835704, Lng : -123.1150209, Q1 : 0.999997377396, Q2 : 0.00146216375288, Q3 : 0.00168285309337, Q4 : -0.000488255172968}
2019-04-14 22:38:17.31: SIM {TimeUS : 45934952, Roll : 0.16, Pitch : 0.16, Yaw : 359.94, Alt : 33.8199996948, Lat : 49.2835704, Lng : -123.1150209, Q1 : 0.999997913837, Q2 : 0.00139793404378, Q3 : 0.00140247365925, Q4 : -0.000510366866365}
2019-04-14 22:38:17.41: SIM {TimeUS : 46034912, Roll : 0.14, Pitch : 0.11, Yaw : 359.93, Alt : 34.0299987793, Lat : 49.2835706, Lng : -123.1150209, Q1 : 0.999998509884, Q2 : 0.00128710689023, Q3 : 0.00103654700797, Q4 : -0.000539323780686}
2019-04-14 22:38:17.51: SIM {TimeUS : 46134872, Roll : 0.13, Pitch : 0.09, Yaw : 359.93, Alt : 34.2400016785, Lat : 49.2835706, Lng : -123.1150209, Q1 : 0.999998807907, Q2 : 0.00115987018216, Q3 : 0.000850394542795, Q4 : -0.000564860412851}
2019-04-14 22:38:17.61: SIM {TimeUS : 46234832, Roll : 0.12, Pitch : 0.09, Yaw : 359.93, Alt : 34.4500007629, Lat : 49.2835706, Lng : -123.1150209, Q1 : 0.999998986721, Q2 : 0.00107046088669, Q3 : 0.000787663273513, Q4 : -0.000586760987062}
2019-04-14 22:38:17.71: SIM {TimeUS : 46334792, Roll : 0.12, Pitch : 0.09, Yaw : 359.92, Alt : 34.6599998474, Lat : 49.2835706, Lng : -123.1150209, Q1 : 0.999998927116, Q2 : 0.00106170086656, Q3 : 0.000790117541328, Q4 : -0.000613418233115}
2019-04-14 22:38:17.81: SIM {TimeUS : 46434752, Roll : 0.11, Pitch : 0.07, Yaw : 359.92, Alt : 34.8800010681, Lat : 49.2835706, Lng : -123.1150209, Q1 : 0.99999910593, Q2 : 0.000974737864453, Q3 : 0.000641825550701, Q4 : -0.000633904477581}
2019-04-14 22:38:17.91: SIM {TimeUS : 46534712, Roll : 0.09, Pitch : 0.05, Yaw : 359.92, Alt : 35.0900001526, Lat : 49.2835706, Lng : -123.1150208, Q1 : 0.999999344349, Q2 : 0.000789403158706, Q3 : 0.00047404677025, Q4 : -0.000649803376291}
2019-04-14 22:38:18.02: SIM {TimeUS : 46635505, Roll : 0.07, Pitch : 0.04, Yaw : 359.92, Alt : 35.3100013733, Lat : 49.2835706, Lng : -123.1150208, Q1 : 0.999999523163, Q2 : 0.000619785219897, Q3 : 0.000375817849999, Q4 : -0.000666685751639}
2019-04-14 22:38:18.11: SIM {TimeUS : 46735465, Roll : 0.04, Pitch : 0.04, Yaw : 359.92, Alt : 35.5299987793, Lat : 49.2835706, Lng : -123.1150208, Q1 : 0.999999642372, Q2 : 0.000427432503784, Q3 : 0.000412919995142, Q4 : -0.000684894563165}
2019-04-14 22:38:18.21: SIM {TimeUS : 46835425, Roll : 0.03, Pitch : 0.03, Yaw : 359.91, Alt : 35.75, Lat : 49.2835706, Lng : -123.1150208, Q1 : 0.999999701977, Q2 : 0.000280052860035, Q3 : 0.000313368509524, Q4 : -0.000699243508279}
2019-04-14 22:38:18.31: SIM {TimeUS : 46935385, Roll : 0.02, Pitch : 0.03, Yaw : 359.91, Alt : 35.9700012207, Lat : 49.2835706, Lng : -123.1150208, Q1 : 0.999999701977, Q2 : 0.000181789626367, Q3 : 0.000273992511211, Q4 : -0.000716783164535}
2019-04-14 22:38:18.41: SIM {TimeUS : 47035345, Roll : 0.0, Pitch : 0.03, Yaw : 359.91, Alt : 36.1899986267, Lat : 49.2835704, Lng : -123.1150207, Q1 : 0.999999701977, Q2 : 6.58618009766e-05, Q3 : 0.000282449822407, Q4 : -0.000740992720239}
2019-04-14 22:38:18.51: SIM {TimeUS : 47135305, Roll : 0.0, Pitch : 0.03, Yaw : 359.91, Alt : 36.4099998474, Lat : 49.2835704, Lng : -123.1150207, Q1 : 0.999999642372, Q2 : -3.42537049391e-07, Q3 : 0.000324625812937, Q4 : -0.000768267025705}
2019-04-14 22:38:18.61: SIM {TimeUS : 47235265, Roll : 0.0, Pitch : 0.03, Yaw : 359.9, Alt : 36.6300010681, Lat : 49.2835704, Lng : -123.1150207, Q1 : 0.999999642372, Q2 : 3.60350277333e-05, Q3 : 0.000313237367664, Q4 : -0.000796121428721}
2019-04-14 22:38:18.71: SIM {TimeUS : 47335225, Roll : 0.0, Pitch : 0.02, Yaw : 359.9, Alt : 36.8600006104, Lat : 49.2835704, Lng : -123.1150207, Q1 : 0.999999642372, Q2 : -4.15559334215e-05, Q3 : 0.000204544005101, Q4 : -0.00082330807345}
2019-04-14 22:38:18.81: SIM {TimeUS : 47435185, Roll : -0.03, Pitch : 0.0, Yaw : 359.9, Alt : 37.0800018311, Lat : 49.2835704, Lng : -123.1150207, Q1 : 0.999999642372, Q2 : -0.000295449746773, Q3 : -3.99521122745e-05, Q4 : -0.000853071280289}
2019-04-14 22:38:18.91: SIM {TimeUS : 47535145, Roll : -0.07, Pitch : -0.02, Yaw : 359.89, Alt : 37.3100013733, Lat : 49.2835704, Lng : -123.1150207, Q1 : 0.999999344349, Q2 : -0.000656829390209, Q3 : -0.000260184489889, Q4 : -0.000882925465703}
2019-04-14 22:38:19.01: SIM {TimeUS : 47635105, Roll : -0.11, Pitch : -0.04, Yaw : 359.89, Alt : 37.5299987793, Lat : 49.2835704, Lng : -123.1150207, Q1 : 0.999999046326, Q2 : -0.00099272816442, Q3 : -0.000406718347222, Q4 : -0.000906888628379}
2019-04-14 22:38:19.11: SIM {TimeUS : 47735065, Roll : -0.13, Pitch : -0.05, Yaw : 359.89, Alt : 37.7599983215, Lat : 49.2835704, Lng : -123.1150206, Q1 : 0.999998748302, Q2 : -0.00117196084466, Q3 : -0.000495514541399, Q4 : -0.000926906825043}
2019-04-14 22:38:19.21: SIM {TimeUS : 47835025, Roll : -0.13, Pitch : -0.05, Yaw : 359.89, Alt : 37.9799995422, Lat : 49.2835704, Lng : -123.1150206, Q1 : 0.999998688698, Q2 : -0.0012032444356, Q3 : -0.000516102882102, Q4 : -0.000947427179199}
2019-04-14 22:38:19.31: SIM {TimeUS : 47934985, Roll : -0.11, Pitch : -0.04, Yaw : 359.88, Alt : 38.2099990845, Lat : 49.2835704, Lng : -123.1150206, Q1 : 0.999998927116, Q2 : -0.00104498700239, Q3 : -0.000373951043002, Q4 : -0.00096860982012}
2019-04-14 22:38:19.41: SIM {TimeUS : 48034945, Roll : -0.09, Pitch : -0.04, Yaw : 359.88, Alt : 38.4399986267, Lat : 49.2835704, Lng : -123.1150206, Q1 : 0.99999910593, Q2 : -0.000800058071036, Q3 : -0.000354255287675, Q4 : -0.000992312212475}
2019-04-14 22:38:19.51: SIM {TimeUS : 48134905, Roll : -0.07, Pitch : -0.04, Yaw : 359.88, Alt : 38.6699981689, Lat : 49.2835704, Lng : -123.1150206, Q1 : 0.999999165535, Q2 : -0.000671704066917, Q3 : -0.000430622050771, Q4 : -0.00102549663279}
2019-04-14 22:38:19.61: SIM {TimeUS : 48234865, Roll : -0.07, Pitch : -0.03, Yaw : 359.87, Alt : 38.9000015259, Lat : 49.2835704, Lng : -123.1150206, Q1 : 0.999999165535, Q2 : -0.000632469484117, Q3 : -0.000338320678566, Q4 : -0.00105010531843}
2019-04-14 22:38:19.71: SIM {TimeUS : 48334825, Roll : -0.08, Pitch : -0.01, Yaw : 359.87, Alt : 39.1300010681, Lat : 49.2835704, Lng : -123.1150206, Q1 : 0.99999910593, Q2 : -0.000753633095883, Q3 : -0.000161961943377, Q4 : -0.00107029883657}
2019-04-14 22:38:19.81: SIM {TimeUS : 48434785, Roll : -0.08, Pitch : 0.0, Yaw : 359.87, Alt : 39.3600006104, Lat : 49.2835704, Lng : -123.1150206, Q1 : 0.999999165535, Q2 : -0.000738757022191, Q3 : 1.34351412271e-05, Q4 : -0.00108577637002}
2019-04-14 22:38:19.91: SIM {TimeUS : 48534745, Roll : -0.06, Pitch : 0.03, Yaw : 359.87, Alt : 39.5900001526, Lat : 49.2835704, Lng : -123.1150206, Q1 : 0.999999165535, Q2 : -0.000609071401414, Q3 : 0.000263008696493, Q4 : -0.00110295461491}
2019-04-14 22:38:20.01: SIM {TimeUS : 48634705, Roll : -0.05, Pitch : 0.03, Yaw : 359.87, Alt : 39.8199996948, Lat : 49.2835704, Lng : -123.1150207, Q1 : 0.99999922514, Q2 : -0.000443217868451, Q3 : 0.000310532370349, Q4 : -0.00111285515595}
2019-04-14 22:38:20.12: SIM {TimeUS : 48735498, Roll : -0.02, Pitch : 0.03, Yaw : 359.87, Alt : 40.0499992371, Lat : 49.2835704, Lng : -123.1150207, Q1 : 0.999999284744, Q2 : -0.000220175090362, Q3 : 0.000306854199152, Q4 : -0.00112147198524}
2019-04-14 22:38:20.21: SIM {TimeUS : 48835458, Roll : 0.01, Pitch : 0.05, Yaw : 359.87, Alt : 40.2799987793, Lat : 49.2835704, Lng : -123.1150207, Q1 : 0.999999284744, Q2 : 0.000110240660433, Q3 : 0.000454831228126, Q4 : -0.00112694816198}
2019-04-14 22:38:20.31: SIM {TimeUS : 48935418, Roll : 0.06, Pitch : 0.08, Yaw : 359.87, Alt : 40.5099983215, Lat : 49.2835704, Lng : -123.1150207, Q1 : 0.999998927116, Q2 : 0.000564468791708, Q3 : 0.000714032619726, Q4 : -0.00113399559632}
2019-04-14 22:38:20.41: SIM {TimeUS : 49035378, Roll : 0.1, Pitch : 0.11, Yaw : 359.86, Alt : 40.75, Lat : 49.2835704, Lng : -123.1150207, Q1 : 0.999998450279, Q2 : 0.000888419453986, Q3 : 0.000978711643256, Q4 : -0.00114309869241}
2019-04-14 22:38:20.51: SIM {TimeUS : 49135338, Roll : 0.09, Pitch : 0.13, Yaw : 359.86, Alt : 40.9799995422, Lat : 49.2835706, Lng : -123.1150207, Q1 : 0.99999833107, Q2 : 0.000829257420264, Q3 : 0.00117841863539, Q4 : -0.00114498729818}
2019-04-14 22:38:20.61: SIM {TimeUS : 49235298, Roll : 0.04, Pitch : 0.14, Yaw : 359.86, Alt : 41.2099990845, Lat : 49.2835706, Lng : -123.1150207, Q1 : 0.999998390675, Q2 : 0.000397710711695, Q3 : 0.00128639047034, Q4 : -0.00115841277875}
2019-04-14 22:38:20.71: SIM {TimeUS : 49335258, Roll : 0.0, Pitch : 0.14, Yaw : 359.86, Alt : 41.4399986267, Lat : 49.2835706, Lng : -123.1150207, Q1 : 0.999998450279, Q2 : -2.13103157876e-05, Q3 : 0.00129280227702, Q4 : -0.00117484142538}
2019-04-14 22:38:20.81: SIM {TimeUS : 49435218, Roll : -0.02, Pitch : 0.11, Yaw : 359.86, Alt : 41.6800003052, Lat : 49.2835706, Lng : -123.1150207, Q1 : 0.999998748302, Q2 : -0.000216706030187, Q3 : 0.0010092741577, Q4 : -0.00119106040802}
2019-04-14 22:38:20.91: SIM {TimeUS : 49535178, Roll : -0.02, Pitch : 0.07, Yaw : 359.86, Alt : 41.9099998474, Lat : 49.2835706, Lng : -123.1150207, Q1 : 0.999998986721, Q2 : -0.000241486806772, Q3 : 0.000641399004962, Q4 : -0.0012145008659}
2019-04-14 22:38:21.01: SIM {TimeUS : 49635138, Roll : -0.01, Pitch : 0.06, Yaw : 359.85, Alt : 42.1500015259, Lat : 49.2835706, Lng : -123.1150207, Q1 : 0.999999046326, Q2 : -0.000130932225147, Q3 : 0.000577574595809, Q4 : -0.00125141709577}
2019-04-14 22:38:21.11: SIM {TimeUS : 49735098, Roll : 0.02, Pitch : 0.08, Yaw : 359.85, Alt : 42.3800010681, Lat : 49.2835706, Lng : -123.1150207, Q1 : 0.999998867512, Q2 : 0.000206332624657, Q3 : 0.000734247616492, Q4 : -0.00129795481917}
2019-04-14 22:38:21.21: SIM {TimeUS : 49835058, Roll : 0.07, Pitch : 0.1, Yaw : 359.84, Alt : 42.6199989319, Lat : 49.2835706, Lng : -123.1150207, Q1 : 0.999998450279, Q2 : 0.000683667021804, Q3 : 0.000911773764528, Q4 : -0.00134102720767}
2019-04-14 22:38:21.31: SIM {TimeUS : 49935018, Roll : 0.11, Pitch : 0.1, Yaw : 359.84, Alt : 42.8499984741, Lat : 49.2835704, Lng : -123.1150207, Q1 : 0.999998092651, Q2 : 0.00103693746496, Q3 : 0.000902941683307, Q4 : -0.00138696259819}
2019-04-14 22:38:21.41: SIM {TimeUS : 50034978, Roll : 0.12, Pitch : 0.09, Yaw : 359.83, Alt : 43.0800018311, Lat : 49.2835704, Lng : -123.1150207, Q1 : 0.999998152256, Q2 : 0.00104935385752, Q3 : 0.000811251811683, Q4 : -0.00142732809763}
2019-04-14 22:38:21.51: SIM {TimeUS : 50134938, Roll : 0.07, Pitch : 0.08, Yaw : 359.83, Alt : 43.3199996948, Lat : 49.2835704, Lng : -123.1150207, Q1 : 0.999998450279, Q2 : 0.000684729777277, Q3 : 0.000755191314965, Q4 : -0.0014383365633}
2019-04-14 22:38:21.61: SIM {TimeUS : 50234898, Roll : 0.01, Pitch : 0.08, Yaw : 359.83, Alt : 43.5600013733, Lat : 49.2835704, Lng : -123.1150207, Q1 : 0.999998688698, Q2 : 0.000143452183693, Q3 : 0.000736295070965, Q4 : -0.00143855449278}
2019-04-14 22:38:21.71: SIM {TimeUS : 50334858, Roll : -0.03, Pitch : 0.09, Yaw : 359.83, Alt : 43.7900009155, Lat : 49.2835704, Lng : -123.1150207, Q1 : 0.999998569489, Q2 : -0.000273804034805, Q3 : 0.000819128472358, Q4 : -0.00143911980558}
2019-04-14 22:38:21.81: SIM {TimeUS : 50434818, Roll : -0.05, Pitch : 0.09, Yaw : 359.83, Alt : 44.0299987793, Lat : 49.2835704, Lng : -123.1150207, Q1 : 0.999998509884, Q2 : -0.000461861840449, Q3 : 0.000810692959931, Q4 : -0.00144454010297}
2019-04-14 22:38:21.91: SIM {TimeUS : 50534778, Roll : -0.04, Pitch : 0.06, Yaw : 359.83, Alt : 44.2599983215, Lat : 49.2835704, Lng : -123.1150207, Q1 : 0.999998688698, Q2 : -0.000384278508136, Q3 : 0.000609616865404, Q4 : -0.00145877874456}
2019-04-14 22:38:22.01: SIM {TimeUS : 50634738, Roll : -0.04, Pitch : 0.04, Yaw : 359.82, Alt : 44.5, Lat : 49.2835704, Lng : -123.1150206, Q1 : 0.999998748302, Q2 : -0.000364596606232, Q3 : 0.000369621266145, Q4 : -0.00148875941522}
2019-04-14 22:38:22.11: SIM {TimeUS : 50734698, Roll : -0.03, Pitch : 0.01, Yaw : 359.82, Alt : 44.7299995422, Lat : 49.2835704, Lng : -123.1150206, Q1 : 0.999998807907, Q2 : -0.000285484595224, Q3 : 0.000146382226376, Q4 : -0.00152169680223}
2019-04-14 22:38:22.21: SIM {TimeUS : 50835491, Roll : -0.01, Pitch : 0.0, Yaw : 359.82, Alt : 44.9700012207, Lat : 49.2835704, Lng : -123.1150206, Q1 : 0.999998748302, Q2 : -0.000141591357533, Q3 : -1.08177127913e-05, Q4 : -0.001558657852}
2019-04-14 22:38:22.31: SIM {TimeUS : 50935451, Roll : -0.01, Pitch : 0.0, Yaw : 359.81, Alt : 45.2099990845, Lat : 49.2835704, Lng : -123.1150206, Q1 : 0.999998688698, Q2 : -0.000103339429188, Q3 : -1.42569660966e-05, Q4 : -0.00159871438518}
2019-04-14 22:38:22.41: SIM {TimeUS : 51035411, Roll : -0.01, Pitch : 0.0, Yaw : 359.81, Alt : 45.4399986267, Lat : 49.2835703, Lng : -123.1150206, Q1 : 0.999998629093, Q2 : -0.0001609246101, Q3 : -2.91773721983e-05, Q4 : -0.00164195813704}
2019-04-14 22:38:22.51: SIM {TimeUS : 51135371, Roll : -0.02, Pitch : -0.01, Yaw : 359.8, Alt : 45.6800003052, Lat : 49.2835703, Lng : -123.1150206, Q1 : 0.999998509884, Q2 : -0.000213940948015, Q3 : -0.000172934524016, Q4 : -0.00168337509967}
2019-04-14 22:38:22.61: SIM {TimeUS : 51235331, Roll : -0.02, Pitch : -0.03, Yaw : 359.8, Alt : 45.9099998474, Lat : 49.2835703, Lng : -123.1150206, Q1 : 0.999998450279, Q2 : -0.000213002393139, Q3 : -0.000269132346148, Q4 : -0.00172411359381}
2019-04-14 22:38:22.71: SIM {TimeUS : 51335291, Roll : -0.01, Pitch : -0.03, Yaw : 359.79, Alt : 46.1399993896, Lat : 49.2835703, Lng : -123.1150206, Q1 : 0.999998390675, Q2 : -0.00013412318367, Q3 : -0.00029400276253, Q4 : -0.00175989698619}
2019-04-14 22:38:22.81: SIM {TimeUS : 51435251, Roll : -0.01, Pitch : -0.02, Yaw : 359.79, Alt : 46.3699989319, Lat : 49.2835703, Lng : -123.1150206, Q1 : 0.999998390675, Q2 : -0.000164229102666, Q3 : -0.000254664046224, Q4 : -0.00179114483763}
2019-04-14 22:38:22.91: SIM {TimeUS : 51535211, Roll : -0.04, Pitch : -0.01, Yaw : 359.79, Alt : 46.5900001526, Lat : 49.2835703, Lng : -123.1150206, Q1 : 0.999998271465, Q2 : -0.00035421011853, Q3 : -0.000164992772625, Q4 : -0.00181940756738}
2019-04-14 22:38:23.01: SIM {TimeUS : 51635171, Roll : -0.07, Pitch : -0.01, Yaw : 359.78, Alt : 46.8100013733, Lat : 49.2835703, Lng : -123.1150206, Q1 : 0.999998092651, Q2 : -0.000683264108375, Q3 : -0.000103501362901, Q4 : -0.00184406409971}
2019-04-14 22:38:23.11: SIM {TimeUS : 51735131, Roll : -0.1, Pitch : 0.0, Yaw : 359.78, Alt : 47.0200004578, Lat : 49.2835703, Lng : -123.1150206, Q1 : 0.999997794628, Q2 : -0.000937391188927, Q3 : -7.26710131858e-05, Q4 : -0.00186607649084}
2019-04-14 22:38:23.21: SIM {TimeUS : 51835091, Roll : -0.11, Pitch : 0.0, Yaw : 359.78, Alt : 47.2200012207, Lat : 49.2835703, Lng : -123.1150206, Q1 : 0.999997735023, Q2 : -0.00102085119579, Q3 : -1.30154410272e-06, Q4 : -0.00188542774413}
2019-04-14 22:38:23.31: SIM {TimeUS : 51935051, Roll : -0.1, Pitch : 0.01, Yaw : 359.78, Alt : 47.4199981689, Lat : 49.2835703, Lng : -123.1150206, Q1 : 0.999997735023, Q2 : -0.000922835548408, Q3 : 0.000129639782244, Q4 : -0.00190439692233}
2019-04-14 22:38:23.41: SIM {TimeUS : 52035011, Roll : -0.08, Pitch : 0.01, Yaw : 359.77, Alt : 47.5999984741, Lat : 49.2835703, Lng : -123.1150206, Q1 : 0.999997854233, Q2 : -0.000746014877222, Q3 : 0.00017554826627, Q4 : -0.00192484480795}
2019-04-14 22:38:23.51: SIM {TimeUS : 52134971, Roll : -0.09, Pitch : 0.0, Yaw : 359.77, Alt : 47.7799987793, Lat : 49.2835703, Lng : -123.1150206, Q1 : 0.999997735023, Q2 : -0.000859322724864, Q3 : 7.59125177865e-05, Q4 : -0.00195283372886}
2019-04-14 22:38:23.61: SIM {TimeUS : 52234931, Roll : -0.11, Pitch : -0.01, Yaw : 359.77, Alt : 47.9399986267, Lat : 49.2835703, Lng : -123.1150206, Q1 : 0.99999755621, Q2 : -0.000984252779745, Q3 : -0.000104148311948, Q4 : -0.00198310357518}
2019-04-14 22:38:23.71: SIM {TimeUS : 52334891, Roll : -0.1, Pitch : -0.03, Yaw : 359.76, Alt : 48.0900001526, Lat : 49.2835703, Lng : -123.1150206, Q1 : 0.999997496605, Q2 : -0.000924086547457, Q3 : -0.000337472098181, Q4 : -0.00201243557967}
2019-04-14 22:38:23.81: SIM {TimeUS : 52434851, Roll : -0.07, Pitch : -0.06, Yaw : 359.76, Alt : 48.2299995422, Lat : 49.2835703, Lng : -123.1150206, Q1 : 0.99999755621, Q2 : -0.00065876840381, Q3 : -0.000534622406121, Q4 : -0.00203903089277}
2019-04-14 22:38:23.91: SIM {TimeUS : 52534811, Roll : -0.04, Pitch : -0.07, Yaw : 359.76, Alt : 48.3600006104, Lat : 49.2835703, Lng : -123.1150206, Q1 : 0.99999755621, Q2 : -0.00041473476449, Q3 : -0.000683457765263, Q4 : -0.00206306064501}
2019-04-14 22:38:24.01: SIM {TimeUS : 52634771, Roll : -0.03, Pitch : -0.08, Yaw : 359.76, Alt : 48.4799995422, Lat : 49.2835703, Lng : -123.1150206, Q1 : 0.999997496605, Q2 : -0.000279803032754, Q3 : -0.000779155641794, Q4 : -0.00208455580287}
2019-04-14 22:38:24.11: SIM {TimeUS : 52734731, Roll : 0.0, Pitch : -0.08, Yaw : 359.75, Alt : 48.5800018311, Lat : 49.2835703, Lng : -123.1150206, Q1 : 0.99999755621, Q2 : 2.35402621911e-05, Q3 : -0.000714049208909, Q4 : -0.00210755737498}
2019-04-14 22:38:24.22: SIM {TimeUS : 52835524, Roll : 0.04, Pitch : -0.06, Yaw : 359.75, Alt : 48.6699981689, Lat : 49.2835703, Lng : -123.1150206, Q1 : 0.999997496605, Q2 : 0.000373194925487, Q3 : -0.000596918223891, Q4 : -0.00212937197648}
2019-04-14 22:38:24.31: SIM {TimeUS : 52935484, Roll : 0.06, Pitch : -0.04, Yaw : 359.75, Alt : 48.75, Lat : 49.2835703, Lng : -123.1150206, Q1 : 0.999997437, Q2 : 0.000602051382884, Q3 : -0.000398260104703, Q4 : -0.00215304363519}
2019-04-14 22:38:24.41: SIM {TimeUS : 53035444, Roll : 0.07, Pitch : -0.02, Yaw : 359.75, Alt : 48.8199996948, Lat : 49.2835703, Lng : -123.1150206, Q1 : 0.999997377396, Q2 : 0.000687323568854, Q3 : -0.000226204065257, Q4 : -0.00217521120794}
2019-04-14 22:38:24.51: SIM {TimeUS : 53135404, Roll : 0.07, Pitch : -0.01, Yaw : 359.74, Alt : 48.8899993896, Lat : 49.2835703, Lng : -123.1150206, Q1 : 0.999997377396, Q2 : 0.00069157051621, Q3 : -0.000157776841661, Q4 : -0.00219426047988}
2019-04-14 22:38:24.61: SIM {TimeUS : 53235364, Roll : 0.06, Pitch : -0.03, Yaw : 359.74, Alt : 48.9399986267, Lat : 49.2835703, Lng : -123.1150206, Q1 : 0.999997377396, Q2 : 0.000550835509785, Q3 : -0.000297516962746, Q4 : -0.00221505318768}
2019-04-14 22:38:24.71: SIM {TimeUS : 53335324, Roll : 0.04, Pitch : -0.04, Yaw : 359.74, Alt : 48.9799995422, Lat : 49.2835703, Lng : -123.1150207, Q1 : 0.999997317791, Q2 : 0.000406192149967, Q3 : -0.000437231094111, Q4 : -0.00224391324446}
2019-04-14 22:38:24.81: SIM {TimeUS : 53435284, Roll : 0.13, Pitch : -0.1, Yaw : 359.73, Alt : 49.0200004578, Lat : 49.2835703, Lng : -123.1150207, Q1 : 0.999996304512, Q2 : 0.0011339855846, Q3 : -0.000937071570661, Q4 : -0.00228608166799}
2019-04-14 22:38:24.91: SIM {TimeUS : 53535244, Roll : 0.41, Pitch : -0.29, Yaw : 359.73, Alt : 49.0499992371, Lat : 49.2835703, Lng : -123.1150207, Q1 : 0.999987483025, Q2 : 0.00357939768583, Q3 : -0.00261281477287, Q4 : -0.00232321652584}
2019-04-14 22:38:25.01: SIM {TimeUS : 53635204, Roll : 0.92, Pitch : -0.64, Yaw : 359.72, Alt : 49.0800018311, Lat : 49.2835703, Lng : -123.1150206, Q1 : 0.999948918819, Q2 : 0.00807177927345, Q3 : -0.0056173838675, Q4 : -0.00234871520661}
2019-04-14 22:38:25.11: SIM {TimeUS : 53735164, Roll : 1.65, Pitch : -1.11, Yaw : 359.71, Alt : 49.1100006104, Lat : 49.2835704, Lng : -123.1150206, Q1 : 0.999845206738, Q2 : 0.0144599638879, Q3 : -0.00974235404283, Q4 : -0.00235113152303}
2019-04-14 22:38:25.21: SIM {TimeUS : 53835124, Roll : 2.52, Pitch : -1.67, Yaw : 359.69, Alt : 49.1300010681, Lat : 49.2835704, Lng : -123.1150206, Q1 : 0.999647974968, Q2 : 0.0219823755324, Q3 : -0.01467654109, Q4 : -0.00231529562734}
2019-04-14 22:38:25.31: SIM {TimeUS : 53935084, Roll : 3.38, Pitch : -2.27, Yaw : 359.67, Alt : 49.1399993896, Lat : 49.2835706, Lng : -123.1150204, Q1 : 0.999364852905, Q2 : 0.0294552054256, Q3 : -0.0199330858886, Q4 : -0.00222830451094}
2019-04-14 22:38:25.41: SIM {TimeUS : 54035044, Roll : 4.09, Pitch : -2.79, Yaw : 359.66, Alt : 49.1599998474, Lat : 49.2835706, Lng : -123.1150203, Q1 : 0.999062180519, Q2 : 0.0356305316091, Q3 : -0.0245130285621, Q4 : -0.00208208570257}
2019-04-14 22:38:25.51: SIM {TimeUS : 54135004, Roll : 4.61, Pitch : -3.21, Yaw : 359.65, Alt : 49.1699981689, Lat : 49.2835708, Lng : -123.11502, Q1 : 0.998795986176, Q2 : 0.0401460938156, Q3 : -0.0281314179301, Q4 : -0.00188644009177}
2019-04-14 22:38:25.61: SIM {TimeUS : 54234964, Roll : 4.99, Pitch : -3.52, Yaw : 359.65, Alt : 49.1800003052, Lat : 49.2835709, Lng : -123.1150197, Q1 : 0.998579025269, Q2 : 0.0434399545193, Q3 : -0.0308253020048, Q4 : -0.00164067407604}
2019-04-14 22:38:25.71: SIM {TimeUS : 54334924, Roll : 5.29, Pitch : -3.74, Yaw : 359.67, Alt : 49.2000007629, Lat : 49.283571, Lng : -123.1150193, Q1 : 0.998398184776, Q2 : 0.0460764952004, Q3 : -0.0328040458262, Q4 : -0.00134248111863}
2019-04-14 22:38:25.81: SIM {TimeUS : 54434884, Roll : 5.57, Pitch : -3.95, Yaw : 359.68, Alt : 49.2000007629, Lat : 49.2835714, Lng : -123.1150188, Q1 : 0.998220086098, Q2 : 0.0485425256193, Q3 : -0.0346289463341, Q4 : -0.00103785120882}
2019-04-14 22:38:25.91: SIM {TimeUS : 54534844, Roll : 5.89, Pitch : -4.16, Yaw : 359.7, Alt : 49.2099990845, Lat : 49.2835716, Lng : -123.1150181, Q1 : 0.998018980026, Q2 : 0.0512693747878, Q3 : -0.0364562273026, Q4 : -0.000734900240786}
2019-04-14 22:38:26.01: SIM {TimeUS : 54634804, Roll : 6.2, Pitch : -4.37, Yaw : 359.71, Alt : 49.2200012207, Lat : 49.283572, Lng : -123.1150174, Q1 : 0.997808158398, Q2 : 0.0540105588734, Q3 : -0.0382303185761, Q4 : -0.000444285105914}
2019-04-14 22:38:26.11: SIM {TimeUS : 54734764, Roll : 6.47, Pitch : -4.56, Yaw : 359.71, Alt : 49.2299995422, Lat : 49.2835724, Lng : -123.1150166, Q1 : 0.997617304325, Q2 : 0.0562920346856, Q3 : -0.0398869141936, Q4 : -0.000200365771889}
2019-04-14 22:38:26.21: SIM {TimeUS : 54834724, Roll : 6.67, Pitch : -4.71, Yaw : 359.72, Alt : 49.2299995422, Lat : 49.2835727, Lng : -123.1150157, Q1 : 0.997460961342, Q2 : 0.0580719746649, Q3 : -0.0412230491638, Q4 : -5.4553361224e-06}
2019-04-14 22:38:26.32: SIM {TimeUS : 54935517, Roll : 6.84, Pitch : -4.83, Yaw : 359.72, Alt : 49.2400016785, Lat : 49.2835733, Lng : -123.1150147, Q1 : 0.997334063053, Q2 : 0.0595230646431, Q3 : -0.0422111526132, Q4 : 0.000152142500156}
2019-04-14 22:38:26.41: SIM {TimeUS : 55035477, Roll : 6.95, Pitch : -4.88, Yaw : 359.73, Alt : 49.2400016785, Lat : 49.2835738, Lng : -123.1150136, Q1 : 0.997251689434, Q2 : 0.0605342425406, Q3 : -0.0427158735693, Q4 : 0.000277582090348}
2019-04-14 22:38:26.51: SIM {TimeUS : 55135437, Roll : 7.05, Pitch : -4.93, Yaw : 359.73, Alt : 49.25, Lat : 49.2835743, Lng : -123.1150124, Q1 : 0.997184514999, Q2 : 0.0613406561315, Q3 : -0.0431320518255, Q4 : 0.00035203830339}
2019-04-14 22:38:26.61: SIM {TimeUS : 55235397, Roll : 7.2, Pitch : -4.97, Yaw : 359.75, Alt : 49.25, Lat : 49.2835749, Lng : -123.1150111, Q1 : 0.997086405754, Q2 : 0.062689833343, Q3 : -0.0434549711645, Q4 : 0.000559735810384}
2019-04-14 22:38:26.71: SIM {TimeUS : 55335357, Roll : 7.59, Pitch : -4.85, Yaw : 0.08, Alt : 49.25, Lat : 49.2835755, Lng : -123.1150096, Q1 : 0.996908068657, Q2 : 0.0661614090204, Q3 : -0.0422453023493, Q4 : 0.00350338872522}
2019-04-14 22:38:26.81: SIM {TimeUS : 55435317, Roll : 8.18, Pitch : -4.65, Yaw : 1.37, Alt : 49.2599983215, Lat : 49.2835762, Lng : -123.1150082, Q1 : 0.996520698071, Q2 : 0.0718091875315, Q3 : -0.0396253690124, Q4 : 0.0148232001811}
2019-04-14 22:38:26.91: SIM {TimeUS : 55535277, Roll : 8.75, Pitch : -4.71, Yaw : 4.15, Alt : 49.2599983215, Lat : 49.2835769, Lng : -123.1150067, Q1 : 0.995467782021, Q2 : 0.0777076929808, Q3 : -0.0382395200431, Q4 : 0.0392832905054}
2019-04-14 22:38:27.01: SIM {TimeUS : 55635237, Roll : 9.04, Pitch : -5.27, Yaw : 8.51, Alt : 49.2599983215, Lat : 49.2835776, Lng : -123.115005, Q1 : 0.99280834198, Q2 : 0.0819912403822, Q3 : -0.0399036556482, Q4 : 0.0775681734085}
2019-04-14 22:38:27.11: SIM {TimeUS : 55735197, Roll : 8.87, Pitch : -6.34, Yaw : 14.27, Alt : 49.2599983215, Lat : 49.2835782, Lng : -123.1150032, Q1 : 0.987228751183, Q2 : 0.0835309401155, Q3 : -0.0451612323523, Q4 : 0.127915740013}
2019-04-14 22:38:27.21: SIM {TimeUS : 55835157, Roll : 8.11, Pitch : -7.78, Yaw : 21.17, Alt : 49.2599983215, Lat : 49.2835789, Lng : -123.1150013, Q1 : 0.977361083031, Q2 : 0.0818407461047, Q3 : -0.0535808093846, Q4 : 0.187607318163}
2019-04-14 22:38:27.31: SIM {TimeUS : 55935117, Roll : 6.73, Pitch : -9.37, Yaw : 28.98, Alt : 49.2599983215, Lat : 49.2835798, Lng : -123.1149993, Q1 : 0.962083697319, Q2 : 0.0770634189248, Q3 : -0.0643349513412, Q4 : 0.25360840559}
2019-04-14 22:38:27.41: SIM {TimeUS : 56035077, Roll : 4.79, Pitch : -10.88, Yaw : 37.42, Alt : 49.2700004578, Lat : 49.2835805, Lng : -123.1149972, Q1 : 0.940771102905, Q2 : 0.0698181092739, Q3 : -0.0764241591096, Q4 : 0.322853714228}
2019-04-14 22:38:27.51: SIM {TimeUS : 56135037, Roll : 2.25, Pitch : -12.13, Yaw : 46.17, Alt : 49.2700004578, Lat : 49.2835813, Lng : -123.1149949, Q1 : 0.913747549057, Q2 : 0.0594350583851, Q3 : -0.0895052924752, Q4 : 0.391818434}
2019-04-14 22:38:27.61: SIM {TimeUS : 56234997, Roll : -0.84, Pitch : -12.9, Yaw : 54.54, Alt : 49.2700004578, Lat : 49.2835822, Lng : -123.1149926, Q1 : 0.883547663689, Q2 : 0.0449606925249, Q3 : -0.103216804564, Q4 : 0.45460793376}
2019-04-14 22:38:27.71: SIM {TimeUS : 56334957, Roll : -3.98, Pitch : -13.12, Yaw : 61.63, Alt : 49.2700004578, Lat : 49.2835831, Lng : -123.1149901, Q1 : 0.85468775034, Q2 : 0.0288304463029, Q3 : -0.11576474458, Q4 : 0.50524866581}
2019-04-14 22:38:27.81: SIM {TimeUS : 56434917, Roll : -6.5, Pitch : -12.95, Yaw : 66.8, Alt : 49.2700004578, Lat : 49.2835842, Lng : -123.1149876, Q1 : 0.831692934036, Q2 : 0.0149223506451, Q3 : -0.125057309866, Q4 : 0.540763199329}
2019-04-14 22:38:27.91: SIM {TimeUS : 56534877, Roll : -7.99, Pitch : -12.68, Yaw : 69.86, Alt : 49.2700004578, Lat : 49.2835853, Lng : -123.1149851, Q1 : 0.817225039005, Q2 : 0.00629656435922, Q3 : -0.1300534904, Q4 : 0.561417639256}
2019-04-14 22:38:28.01: SIM {TimeUS : 56634837, Roll : -8.4, Pitch : -12.56, Yaw : 71.01, Alt : 49.2700004578, Lat : 49.2835865, Lng : -123.1149825, Q1 : 0.811627447605, Q2 : 0.00407024705783, Q3 : -0.131114959717, Q4 : 0.569256722927}
2019-04-14 22:38:28.11: SIM {TimeUS : 56734797, Roll : -7.87, Pitch : -12.69, Yaw : 70.59, Alt : 49.2700004578, Lat : 49.2835879, Lng : -123.1149798, Q1 : 0.813654184341, Q2 : 0.00803274940699, Q3 : -0.129492655396, Q4 : 0.566686928272}
2019-04-14 22:38:28.21: SIM {TimeUS : 56834757, Roll : -6.65, Pitch : -13.12, Yaw : 68.95, Alt : 49.2700004578, Lat : 49.2835892, Lng : -123.1149772, Q1 : 0.821321904659, Q2 : 0.0170230567455, Q3 : -0.126688852906, Q4 : 0.555959045887}
2019-04-14 22:38:28.31: SIM {TimeUS : 56934717, Roll : -5.01, Pitch : -13.75, Yaw : 66.45, Alt : 49.2700004578, Lat : 49.2835908, Lng : -123.1149744, Q1 : 0.832550048828, Q2 : 0.0292328502983, Q3 : -0.123816542327, Q4 : 0.539143204689}
2019-04-14 22:38:28.42: SIM {TimeUS : 57035510, Roll : -3.12, Pitch : -14.46, Yaw : 63.38, Alt : 49.2799987793, Lat : 49.2835923, Lng : -123.1149715, Q1 : 0.845580279827, Q2 : 0.0431072823703, Q3 : -0.121257871389, Q4 : 0.518104493618}
2019-04-14 22:38:28.51: SIM {TimeUS : 57135470, Roll : -1.21, Pitch : -15.09, Yaw : 60.11, Alt : 49.2799987793, Lat : 49.283594, Lng : -123.1149686, Q1 : 0.858664572239, Q2 : 0.0566963218153, Q3 : -0.118981614709, Q4 : 0.495301961899}
2019-04-14 22:38:28.61: SIM {TimeUS : 57235430, Roll : 0.53, Pitch : -15.56, Yaw : 56.94, Alt : 49.2799987793, Lat : 49.2835956, Lng : -123.1149656, Q1 : 0.870650291443, Q2 : 0.0686324089766, Q3 : -0.116778820753, Q4 : 0.472885191441}
2019-04-14 22:38:28.71: SIM {TimeUS : 57335390, Roll : 1.99, Pitch : -15.8, Yaw : 54.19, Alt : 49.2799987793, Lat : 49.2835972, Lng : -123.1149624, Q1 : 0.880573987961, Q2 : 0.0779271274805, Q3 : -0.114517882466, Q4 : 0.453213512897}
2019-04-14 22:38:28.81: SIM {TimeUS : 57435350, Roll : 3.01, Pitch : -15.87, Yaw : 52.1, Alt : 49.2799987793, Lat : 49.2835989, Lng : -123.1149591, Q1 : 0.887894749641, Q2 : 0.0840284228325, Q3 : -0.112534157932, Q4 : 0.438084721565}
2019-04-14 22:38:28.91: SIM {TimeUS : 57535310, Roll : 3.56, Pitch : -15.83, Yaw : 50.8, Alt : 49.2799987793, Lat : 49.2836006, Lng : -123.1149557, Q1 : 0.892452716827, Q2 : 0.0868936181068, Q3 : -0.111150436103, Q4 : 0.428512781858}
2019-04-14 22:38:29.01: SIM {TimeUS : 57635270, Roll : 3.65, Pitch : -15.77, Yaw : 50.29, Alt : 49.2799987793, Lat : 49.2836023, Lng : -123.1149522, Q1 : 0.894352197647, Q2 : 0.0868565961719, Q3 : -0.11075309664, Q4 : 0.424645543098}
2019-04-14 22:38:29.11: SIM {TimeUS : 57735230, Roll : 3.32, Pitch : -15.75, Yaw : 50.49, Alt : 49.2799987793, Lat : 49.2836039, Lng : -123.1149485, Q1 : 0.893863677979, Q2 : 0.0844683796167, Q3 : -0.111667081714, Q4 : 0.425914674997}
2019-04-14 22:38:29.21: SIM {TimeUS : 57835190, Roll : 2.7, Pitch : -15.81, Yaw : 51.26, Alt : 49.2799987793, Lat : 49.2836056, Lng : -123.1149448, Q1 : 0.891377806664, Q2 : 0.080589659512, Q3 : -0.113845743239, Q4 : 0.431265711784}
2019-04-14 22:38:29.31: SIM {TimeUS : 57935150, Roll : 1.9, Pitch : -15.94, Yaw : 52.41, Alt : 49.2799987793, Lat : 49.2836074, Lng : -123.1149409, Q1 : 0.887399375439, Q2 : 0.075995452702, Q3 : -0.117130801082, Q4 : 0.439348876476}
2019-04-14 22:38:29.41: SIM {TimeUS : 58035110, Roll : 1.02, Pitch : -16.1, Yaw : 53.75, Alt : 49.2799987793, Lat : 49.2836091, Lng : -123.114937, Q1 : 0.882555961609, Q2 : 0.0712527185678, Q3 : -0.120950333774, Q4 : 0.448763847351}
2019-04-14 22:38:29.51: SIM {TimeUS : 58135070, Roll : 0.17, Pitch : -16.27, Yaw : 55.12, Alt : 49.2900009155, Lat : 49.2836108, Lng : -123.114933, Q1 : 0.877495586872, Q2 : 0.0667990520597, Q3 : -0.124795585871, Q4 : 0.458219915628}
2019-04-14 22:38:29.61: SIM {TimeUS : 58235030, Roll : -0.56, Pitch : -16.38, Yaw : 56.34, Alt : 49.2900009155, Lat : 49.2836126, Lng : -123.1149289, Q1 : 0.872842669487, Q2 : 0.0629899054766, Q3 : -0.127929449081, Q4 : 0.466703414917}
2019-04-14 22:38:29.71: SIM {TimeUS : 58334990, Roll : -1.09, Pitch : -16.44, Yaw : 57.32, Alt : 49.2900009155, Lat : 49.2836144, Lng : -123.1149248, Q1 : 0.869063675404, Q2 : 0.0602519996464, Q3 : -0.130004644394, Q4 : 0.473494291306}
2019-04-14 22:38:29.81: SIM {TimeUS : 58434950, Roll : -1.42, Pitch : -16.45, Yaw : 57.98, Alt : 49.2900009155, Lat : 49.2836163, Lng : -123.1149207, Q1 : 0.866460263729, Q2 : 0.0585715435445, Q3 : -0.131166696548, Q4 : 0.478133112192}
2019-04-14 22:38:29.91: SIM {TimeUS : 58534910, Roll : -1.53, Pitch : -16.46, Yaw : 58.32, Alt : 49.2900009155, Lat : 49.2836181, Lng : -123.1149164, Q1 : 0.865115582943, Q2 : 0.0581965819001, Q3 : -0.131495028734, Q4 : 0.480517685413}
2019-04-14 22:38:30.01: SIM {TimeUS : 58634870, Roll : -1.42, Pitch : -16.46, Yaw : 58.34, Alt : 49.2900009155, Lat : 49.28362, Lng : -123.1149122, Q1 : 0.864978015423, Q2 : 0.059027582407, Q3 : -0.130993723869, Q4 : 0.480800867081}
2019-04-14 22:38:30.11: SIM {TimeUS : 58734830, Roll : -1.17, Pitch : -16.46, Yaw : 58.1, Alt : 49.2900009155, Lat : 49.283622, Lng : -123.1149079, Q1 : 0.865847051144, Q2 : 0.060653693974, Q3 : -0.130070477724, Q4 : 0.479282528162}
2019-04-14 22:38:30.21: SIM {TimeUS : 58834790, Roll : -0.85, Pitch : -16.49, Yaw : 57.67, Alt : 49.2900009155, Lat : 49.2836239, Lng : -123.1149035, Q1 : 0.867417216301, Q2 : 0.0627483129501, Q3 : -0.12923578918, Q4 : 0.476390749216}
2019-04-14 22:38:30.31: SIM {TimeUS : 58934750, Roll : -0.5, Pitch : -16.56, Yaw : 57.13, Alt : 49.2900009155, Lat : 49.283626, Lng : -123.1148991, Q1 : 0.86938303709, Q2 : 0.0650347843766, Q3 : -0.128594651818, Q4 : 0.472659528255}
2019-04-14 22:38:30.41: SIM {TimeUS : 59034710, Roll : -0.16, Pitch : -16.65, Yaw : 56.56, Alt : 49.2900009155, Lat : 49.283628, Lng : -123.1148947, Q1 : 0.87144356966, Q2 : 0.0673235580325, Q3 : -0.128196179867, Q4 : 0.468635708094}
2019-04-14 22:38:30.52: SIM {TimeUS : 59135503, Roll : 0.13, Pitch : -16.71, Yaw : 56.02, Alt : 49.2900009155, Lat : 49.2836299, Lng : -123.1148902, Q1 : 0.873404860497, Q2 : 0.0692697316408, Q3 : -0.127808228135, Q4 : 0.464790999889}
2019-04-14 22:38:30.61: SIM {TimeUS : 59235463, Roll : 0.37, Pitch : -16.76, Yaw : 55.56, Alt : 49.2900009155, Lat : 49.283632, Lng : -123.1148856, Q1 : 0.87504440546, Q2 : 0.0707772821188, Q3 : -0.127440989017, Q4 : 0.461569815874}
2019-04-14 22:38:30.71: SIM {TimeUS : 59335423, Roll : 0.53, Pitch : -16.79, Yaw : 55.23, Alt : 49.2900009155, Lat : 49.2836341, Lng : -123.1148811, Q1 : 0.876247704029, Q2 : 0.0718095228076, Q3 : -0.127261340618, Q4 : 0.45917096734}
2019-04-14 22:38:30.81: SIM {TimeUS : 59435383, Roll : 0.62, Pitch : -16.83, Yaw : 55.02, Alt : 49.2900009155, Lat : 49.283636, Lng : -123.1148765, Q1 : 0.87696492672, Q2 : 0.0724165663123, Q3 : -0.127295359969, Q4 : 0.457694560289}
2019-04-14 22:38:30.91: SIM {TimeUS : 59535343, Roll : 0.64, Pitch : -16.85, Yaw : 54.95, Alt : 49.2900009155, Lat : 49.2836382, Lng : -123.1148719, Q1 : 0.877224266529, Q2 : 0.0725333839655, Q3 : -0.127496555448, Q4 : 0.457122713327}
2019-04-14 22:38:31.01: SIM {TimeUS : 59635303, Roll : 0.59, Pitch : -16.88, Yaw : 54.99, Alt : 49.2900009155, Lat : 49.2836402, Lng : -123.1148672, Q1 : 0.877074718475, Q2 : 0.0723358690739, Q3 : -0.127822473645, Q4 : 0.457349896431}
2019-04-14 22:38:31.11: SIM {TimeUS : 59735263, Roll : 0.49, Pitch : -16.9, Yaw : 55.11, Alt : 49.2900009155, Lat : 49.2836424, Lng : -123.1148625, Q1 : 0.876620292664, Q2 : 0.0717766657472, Q3 : -0.128307715058, Q4 : 0.458172529936}
2019-04-14 22:38:31.21: SIM {TimeUS : 59835223, Roll : 0.35, Pitch : -16.93, Yaw : 55.29, Alt : 49.2900009155, Lat : 49.2836445, Lng : -123.1148576, Q1 : 0.875949323177, Q2 : 0.0710151866078, Q3 : -0.128983318806, Q4 : 0.459383249283}
2019-04-14 22:38:31.31: SIM {TimeUS : 59935183, Roll : 0.19, Pitch : -16.96, Yaw : 55.5, Alt : 49.2999992371, Lat : 49.2836466, Lng : -123.1148529, Q1 : 0.875172913074, Q2 : 0.0702075362206, Q3 : -0.12978734076, Q4 : 0.460758626461}
2019-04-14 22:38:31.41: SIM {TimeUS : 60035143, Roll : 0.04, Pitch : -17.01, Yaw : 55.7, Alt : 49.2999992371, Lat : 49.2836487, Lng : -123.1148481, Q1 : 0.874401390553, Q2 : 0.069452688098, Q3 : -0.130648165941, Q4 : 0.462092727423}
2019-04-14 22:38:31.51: SIM {TimeUS : 60135103, Roll : -0.1, Pitch : -17.05, Yaw : 55.87, Alt : 49.2999992371, Lat : 49.2836507, Lng : -123.1148433, Q1 : 0.873740792274, Q2 : 0.0687231495976, Q3 : -0.131427392364, Q4 : 0.463228911161}
2019-04-14 22:38:31.61: SIM {TimeUS : 60235063, Roll : -0.21, Pitch : -17.07, Yaw : 56.0, Alt : 49.2999992371, Lat : 49.283653, Lng : -123.1148384, Q1 : 0.873258829117, Q2 : 0.0680782273412, Q3 : -0.13197106123, Q4 : 0.464077591896}
2019-04-14 22:38:31.71: SIM {TimeUS : 60335023, Roll : -0.29, Pitch : -17.1, Yaw : 56.08, Alt : 49.2999992371, Lat : 49.2836551, Lng : -123.1148335, Q1 : 0.872958123684, Q2 : 0.0676740035415, Q3 : -0.132454156876, Q4 : 0.464564561844}
2019-04-14 22:38:31.81: SIM {TimeUS : 60434983, Roll : -0.3, Pitch : -17.14, Yaw : 56.1, Alt : 49.2999992371, Lat : 49.2836572, Lng : -123.1148286, Q1 : 0.872826993465, Q2 : 0.0677358284593, Q3 : -0.132779374719, Q4 : 0.464709073305}
2019-04-14 22:38:31.91: SIM {TimeUS : 60534943, Roll : -0.28, Pitch : -17.18, Yaw : 56.08, Alt : 49.2999992371, Lat : 49.2836595, Lng : -123.1148236, Q1 : 0.872872471809, Q2 : 0.0680817514658, Q3 : -0.13297149539, Q4 : 0.464518100023}
2019-04-14 22:38:32.01: SIM {TimeUS : 60634903, Roll : -0.2, Pitch : -17.22, Yaw : 56.01, Alt : 49.2999992371, Lat : 49.2836616, Lng : -123.1148187, Q1 : 0.873056948185, Q2 : 0.0687097162008, Q3 : -0.133026331663, Q4 : 0.46406313777}
2019-04-14 22:38:32.11: SIM {TimeUS : 60734863, Roll : -0.1, Pitch : -17.25, Yaw : 55.92, Alt : 49.2999992371, Lat : 49.2836639, Lng : -123.1148137, Q1 : 0.873338341713, Q2 : 0.0695182159543, Q3 : -0.132974147797, Q4 : 0.463427722454}
2019-04-14 22:38:32.21: SIM {TimeUS : 60834823, Roll : -0.01, Pitch : -17.29, Yaw : 55.8, Alt : 49.3100013733, Lat : 49.2836661, Lng : -123.1148087, Q1 : 0.873692333698, Q2 : 0.0702489092946, Q3 : -0.132914140821, Q4 : 0.46266695857}
2019-04-14 22:38:32.31: SIM {TimeUS : 60934783, Roll : 0.05, Pitch : -17.3, Yaw : 55.69, Alt : 49.3100013733, Lat : 49.2836682, Lng : -123.1148037, Q1 : 0.874088168144, Q2 : 0.0706965923309, Q3 : -0.132824137807, Q4 : 0.461876213551}
2019-04-14 22:38:32.41: SIM {TimeUS : 61034743, Roll : 0.08, Pitch : -17.31, Yaw : 55.59, Alt : 49.3100013733, Lat : 49.2836706, Lng : -123.1147987, Q1 : 0.874479115009, Q2 : 0.0708556771278, Q3 : -0.132810682058, Q4 : 0.461115062237}
2019-04-14 22:38:32.51: SIM {TimeUS : 61134703, Roll : 0.12, Pitch : -17.32, Yaw : 55.5, Alt : 49.3100013733, Lat : 49.2836728, Lng : -123.1147936, Q1 : 0.874804735184, Q2 : 0.0710610002279, Q3 : -0.132777005434, Q4 : 0.460475057364}
2019-04-14 22:38:32.62: SIM {TimeUS : 61235496, Roll : 0.15, Pitch : -17.33, Yaw : 55.43, Alt : 49.3100013733, Lat : 49.283675, Lng : -123.1147885, Q1 : 0.875041723251, Q2 : 0.0712882503867, Q3 : -0.132788389921, Q4 : 0.459986150265}
2019-04-14 22:38:32.71: SIM {TimeUS : 61335456, Roll : 0.19, Pitch : -17.36, Yaw : 55.39, Alt : 49.3100013733, Lat : 49.2836773, Lng : -123.1147834, Q1 : 0.875159084797, Q2 : 0.0716272294521, Q3 : -0.132923707366, Q4 : 0.459670960903}
2019-04-14 22:38:32.81: SIM {TimeUS : 61435416, Roll : 0.2, Pitch : -17.42, Yaw : 55.36, Alt : 49.3100013733, Lat : 49.2836796, Lng : -123.1147783, Q1 : 0.875172376633, Q2 : 0.0719748958945, Q3 : -0.133283749223, Q4 : 0.459487110376}
2019-04-14 22:38:32.91: SIM {TimeUS : 61535376, Roll : 0.2, Pitch : -17.46, Yaw : 55.36, Alt : 49.3100013733, Lat : 49.2836819, Lng : -123.1147731, Q1 : 0.875147283077, Q2 : 0.0721003115177, Q3 : -0.133572399616, Q4 : 0.459431439638}
2019-04-14 22:38:33.01: SIM {TimeUS : 61635336, Roll : 0.19, Pitch : -17.46, Yaw : 55.37, Alt : 49.3100013733, Lat : 49.283684, Lng : -123.1147681, Q1 : 0.875106155872, Q2 : 0.0720397308469, Q3 : -0.133675038815, Q4 : 0.459489375353}
2019-04-14 22:38:33.11: SIM {TimeUS : 61735296, Roll : 0.17, Pitch : -17.47, Yaw : 55.39, Alt : 49.3100013733, Lat : 49.2836864, Lng : -123.1147629, Q1 : 0.875034987926, Q2 : 0.0719333216548, Q3 : -0.13381254673, Q4 : 0.459601551294}
2019-04-14 22:38:33.21: SIM {TimeUS : 61835256, Roll : 0.13, Pitch : -17.49, Yaw : 55.41, Alt : 49.3100013733, Lat : 49.2836887, Lng : -123.1147577, Q1 : 0.874950408936, Q2 : 0.0717294067144, Q3 : -0.134097471833, Q4 : 0.45971134305}
2019-04-14 22:38:33.31: SIM {TimeUS : 61935216, Roll : 0.1, Pitch : -17.51, Yaw : 55.43, Alt : 49.3100013733, Lat : 49.283691, Lng : -123.1147526, Q1 : 0.874867141247, Q2 : 0.0715968832374, Q3 : -0.134341418743, Q4 : 0.459819287062}
2019-04-14 22:38:33.41: SIM {TimeUS : 62035176, Roll : 0.07, Pitch : -17.53, Yaw : 55.44, Alt : 49.3199996948, Lat : 49.2836932, Lng : -123.1147474, Q1 : 0.874808251858, Q2 : 0.071503162384, Q3 : -0.134592905641, Q4 : 0.459872424603}
2019-04-14 22:38:33.51: SIM {TimeUS : 62135136, Roll : 0.06, Pitch : -17.54, Yaw : 55.45, Alt : 49.3199996948, Lat : 49.2836955, Lng : -123.1147422, Q1 : 0.874778389931, Q2 : 0.0714620500803, Q3 : -0.134781822562, Q4 : 0.459880203009}
2019-04-14 22:38:33.61: SIM {TimeUS : 62235096, Roll : 0.06, Pitch : -17.57, Yaw : 55.44, Alt : 49.3199996948, Lat : 49.2836979, Lng : -123.1147369, Q1 : 0.874766111374, Q2 : 0.071536026895, Q3 : -0.134987413883, Q4 : 0.459831774235}
2019-04-14 22:38:33.71: SIM {TimeUS : 62335056, Roll : 0.06, Pitch : -17.59, Yaw : 55.43, Alt : 49.3199996948, Lat : 49.2837002, Lng : -123.1147317, Q1 : 0.874789595604, Q2 : 0.0716510415077, Q3 : -0.135088548064, Q4 : 0.459739476442}
2019-04-14 22:38:33.81: SIM {TimeUS : 62435016, Roll : 0.09, Pitch : -17.61, Yaw : 55.41, Alt : 49.3199996948, Lat : 49.2837026, Lng : -123.1147265, Q1 : 0.874821782112, Q2 : 0.0719183757901, Q3 : -0.135148406029, Q4 : 0.459618866444}
2019-04-14 22:38:33.91: SIM {TimeUS : 62534976, Roll : 0.12, Pitch : -17.63, Yaw : 55.39, Alt : 49.3199996948, Lat : 49.2837048, Lng : -123.1147212, Q1 : 0.874871134758, Q2 : 0.0722019225359, Q3 : -0.13523901999, Q4 : 0.459453910589}
2019-04-14 22:38:34.01: SIM {TimeUS : 62634936, Roll : 0.13, Pitch : -17.67, Yaw : 55.36, Alt : 49.3199996948, Lat : 49.2837071, Lng : -123.114716, Q1 : 0.874936759472, Q2 : 0.0723757892847, Q3 : -0.135479867458, Q4 : 0.459230512381}
2019-04-14 22:38:34.11: SIM {TimeUS : 62734896, Roll : 0.12, Pitch : -17.71, Yaw : 55.33, Alt : 49.3199996948, Lat : 49.2837095, Lng : -123.1147107, Q1 : 0.87500411272, Q2 : 0.0724883601069, Q3 : -0.135838657618, Q4 : 0.458978325129}
2019-04-14 22:38:34.21: SIM {TimeUS : 62834856, Roll : 0.12, Pitch : -17.75, Yaw : 55.3, Alt : 49.3199996948, Lat : 49.2837119, Lng : -123.1147054, Q1 : 0.875072777271, Q2 : 0.072570964694, Q3 : -0.136240139604, Q4 : 0.458715289831}
2019-04-14 22:38:34.31: SIM {TimeUS : 62934816, Roll : 0.12, Pitch : -17.79, Yaw : 55.28, Alt : 49.3199996948, Lat : 49.2837143, Lng : -123.1147001, Q1 : 0.87514090538, Q2 : 0.0727349296212, Q3 : -0.13647685945, Q4 : 0.458488941193}
2019-04-14 22:38:34.41: SIM {TimeUS : 63034776, Roll : 0.14, Pitch : -17.79, Yaw : 55.25, Alt : 49.3199996948, Lat : 49.2837166, Lng : -123.1146948, Q1 : 0.875232934952, Q2 : 0.0728364288807, Q3 : -0.136468365788, Q4 : 0.458299636841}
2019-04-14 22:38:34.51: SIM {TimeUS : 63134736, Roll : 0.16, Pitch : -17.77, Yaw : 55.22, Alt : 49.3199996948, Lat : 49.283719, Lng : -123.1146895, Q1 : 0.875342190266, Q2 : 0.0728749111295, Q3 : -0.136232659221, Q4 : 0.45815500617}
2019-04-14 22:38:34.61: SIM {TimeUS : 63234696, Roll : 0.16, Pitch : -17.75, Yaw : 55.21, Alt : 49.3199996948, Lat : 49.2837214, Lng : -123.1146841, Q1 : 0.875439584255, Q2 : 0.0727795735002, Q3 : -0.13607122004, Q4 : 0.458031982183}
2019-04-14 22:38:34.71: SIM {TimeUS : 63335489, Roll : 0.16, Pitch : -17.73, Yaw : 55.19, Alt : 49.3199996948, Lat : 49.2837238, Lng : -123.1146787, Q1 : 0.875531315804, Q2 : 0.072621665895, Q3 : -0.135942786932, Q4 : 0.457919806242}
2019-04-14 22:38:34.81: SIM {TimeUS : 63435449, Roll : 0.15, Pitch : -17.71, Yaw : 55.18, Alt : 49.3199996948, Lat : 49.283726, Lng : -123.1146734, Q1 : 0.87559813261, Q2 : 0.0724879801273, Q3 : -0.135848209262, Q4 : 0.457841366529}
2019-04-14 22:38:34.91: SIM {TimeUS : 63535409, Roll : 0.14, Pitch : -17.72, Yaw : 55.17, Alt : 49.3300018311, Lat : 49.2837284, Lng : -123.114668, Q1 : 0.875622928143, Q2 : 0.0724522843957, Q3 : -0.135953947902, Q4 : 0.457768112421}
2019-04-14 22:38:35.01: SIM {TimeUS : 63635369, Roll : 0.14, Pitch : -17.74, Yaw : 55.17, Alt : 49.3300018311, Lat : 49.2837308, Lng : -123.1146627, Q1 : 0.875627696514, Q2 : 0.0725237801671, Q3 : -0.136108830571, Q4 : 0.457701683044}
2019-04-14 22:38:35.11: SIM {TimeUS : 63735329, Roll : 0.13, Pitch : -17.78, Yaw : 55.16, Alt : 49.3300018311, Lat : 49.2837332, Lng : -123.1146573, Q1 : 0.875602126122, Q2 : 0.0726488232613, Q3 : -0.136487156153, Q4 : 0.457618117332}
2019-04-14 22:38:35.21: SIM {TimeUS : 63835289, Roll : 0.13, Pitch : -17.84, Yaw : 55.15, Alt : 49.3300018311, Lat : 49.2837357, Lng : -123.1146519, Q1 : 0.875565052032, Q2 : 0.0728409066796, Q3 : -0.136914148927, Q4 : 0.457530945539}
2019-04-14 22:38:35.31: SIM {TimeUS : 63935249, Roll : 0.14, Pitch : -17.88, Yaw : 55.14, Alt : 49.3300018311, Lat : 49.2837381, Lng : -123.1146465, Q1 : 0.875537514687, Q2 : 0.0730794817209, Q3 : -0.137216717005, Q4 : 0.45745497942}
2019-04-14 22:38:35.41: SIM {TimeUS : 64035209, Roll : 0.14, Pitch : -17.92, Yaw : 55.14, Alt : 49.3300018311, Lat : 49.2837405, Lng : -123.1146411, Q1 : 0.875534892082, Q2 : 0.0731898993254, Q3 : -0.137494847178, Q4 : 0.457358837128}
2019-04-14 22:38:35.51: SIM {TimeUS : 64135169, Roll : 0.13, Pitch : -17.94, Yaw : 55.13, Alt : 49.3300018311, Lat : 49.2837429, Lng : -123.1146357, Q1 : 0.875552594662, Q2 : 0.0732264444232, Q3 : -0.137685596943, Q4 : 0.457261741161}
2019-04-14 22:38:35.61: SIM {TimeUS : 64235129, Roll : 0.14, Pitch : -17.93, Yaw : 55.11, Alt : 49.3300018311, Lat : 49.2837453, Lng : -123.1146302, Q1 : 0.875598371029, Q2 : 0.0732621029019, Q3 : -0.137584403157, Q4 : 0.457198828459}
2019-04-14 22:38:35.71: SIM {TimeUS : 64335089, Roll : 0.17, Pitch : -17.93, Yaw : 55.1, Alt : 49.3300018311, Lat : 49.2837477, Lng : -123.1146249, Q1 : 0.875635147095, Q2 : 0.073426887393, Q3 : -0.137506082654, Q4 : 0.457125484943}
2019-04-14 22:38:35.81: SIM {TimeUS : 64435049, Roll : 0.18, Pitch : -17.94, Yaw : 55.09, Alt : 49.3300018311, Lat : 49.2837501, Lng : -123.1146195, Q1 : 0.875669717789, Q2 : 0.0735164880753, Q3 : -0.137576460838, Q4 : 0.457023620605}
2019-04-14 22:38:35.91: SIM {TimeUS : 64535009, Roll : 0.18, Pitch : -17.95, Yaw : 55.07, Alt : 49.3300018311, Lat : 49.2837525, Lng : -123.1146141, Q1 : 0.875712513924, Q2 : 0.0735725015402, Q3 : -0.137622132897, Q4 : 0.456918865442}
2019-04-14 22:38:36.01: SIM {TimeUS : 64634969, Roll : 0.19, Pitch : -17.94, Yaw : 55.06, Alt : 49.3300018311, Lat : 49.2837549, Lng : -123.1146086, Q1 : 0.875771224499, Q2 : 0.0735695436597, Q3 : -0.137567445636, Q4 : 0.456823289394}
2019-04-14 22:38:36.11: SIM {TimeUS : 64734929, Roll : 0.19, Pitch : -17.94, Yaw : 55.05, Alt : 49.3300018311, Lat : 49.2837574, Lng : -123.1146032, Q1 : 0.875827312469, Q2 : 0.0735631138086, Q3 : -0.137554198503, Q4 : 0.456720739603}
2019-04-14 22:38:36.21: SIM {TimeUS : 64834889, Roll : 0.17, Pitch : -17.96, Yaw : 55.03, Alt : 49.3300018311, Lat : 49.2837598, Lng : -123.1145977, Q1 : 0.875869512558, Q2 : 0.0734799280763, Q3 : -0.137793675065, Q4 : 0.456580966711}
2019-04-14 22:38:36.31: SIM {TimeUS : 64934849, Roll : 0.13, Pitch : -18.0, Yaw : 55.02, Alt : 49.3400001526, Lat : 49.2837622, Lng : -123.1145923, Q1 : 0.875896453857, Q2 : 0.0733573660254, Q3 : -0.138239011168, Q4 : 0.456414431334}
2019-04-14 22:38:36.41: SIM {TimeUS : 65034809, Roll : 0.12, Pitch : -18.01, Yaw : 55.01, Alt : 49.3400001526, Lat : 49.2837647, Lng : -123.1145868, Q1 : 0.87594550848, Q2 : 0.0732578113675, Q3 : -0.138380855322, Q4 : 0.456293195486}
2019-04-14 22:38:36.51: SIM {TimeUS : 65134769, Roll : 0.13, Pitch : -18.0, Yaw : 54.99, Alt : 49.3400001526, Lat : 49.2837671, Lng : -123.1145813, Q1 : 0.876002550125, Q2 : 0.0732803717256, Q3 : -0.138249024749, Q4 : 0.456220030785}
2019-04-14 22:38:36.61: SIM {TimeUS : 65234729, Roll : 0.15, Pitch : -17.99, Yaw : 54.98, Alt : 49.3400001526, Lat : 49.2837695, Lng : -123.1145759, Q1 : 0.876048862934, Q2 : 0.073381178081, Q3 : -0.138104662299, Q4 : 0.456158667803}
2019-04-14 22:38:36.72: SIM {TimeUS : 65335522, Roll : 0.17, Pitch : -18.0, Yaw : 54.97, Alt : 49.3400001526, Lat : 49.283772, Lng : -123.1145704, Q1 : 0.876074492931, Q2 : 0.0735358148813, Q3 : -0.138088151813, Q4 : 0.456089526415}
2019-04-14 22:38:36.81: SIM {TimeUS : 65435482, Roll : 0.16, Pitch : -18.01, Yaw : 54.96, Alt : 49.3400001526, Lat : 49.2837744, Lng : -123.1145649, Q1 : 0.876101851463, Q2 : 0.0735183134675, Q3 : -0.138246446848, Q4 : 0.455991894007}
2019-04-14 22:38:36.91: SIM {TimeUS : 65535442, Roll : 0.13, Pitch : -18.03, Yaw : 54.95, Alt : 49.3400001526, Lat : 49.2837769, Lng : -123.1145594, Q1 : 0.87613594532, Q2 : 0.0733675435185, Q3 : -0.138475388288, Q4 : 0.455881148577}
2019-04-14 22:38:37.01: SIM {TimeUS : 65635402, Roll : 0.12, Pitch : -18.04, Yaw : 54.94, Alt : 49.3400001526, Lat : 49.2837793, Lng : -123.1145539, Q1 : 0.876162111759, Q2 : 0.073308609426, Q3 : -0.1386654526, Q4 : 0.455782532692}
2019-04-14 22:38:37.11: SIM {TimeUS : 65735362, Roll : 0.12, Pitch : -18.06, Yaw : 54.93, Alt : 49.3400001526, Lat : 49.2837818, Lng : -123.1145484, Q1 : 0.876174628735, Q2 : 0.0733950585127, Q3 : -0.138824656606, Q4 : 0.455696105957}
2019-04-14 22:38:37.21: SIM {TimeUS : 65835322, Roll : 0.13, Pitch : -18.08, Yaw : 54.92, Alt : 49.3400001526, Lat : 49.2837842, Lng : -123.1145429, Q1 : 0.876183927059, Q2 : 0.0735264718533, Q3 : -0.138944521546, Q4 : 0.45562055707}
2019-04-14 22:38:37.31: SIM {TimeUS : 65935282, Roll : 0.16, Pitch : -18.1, Yaw : 54.91, Alt : 49.3400001526, Lat : 49.2837867, Lng : -123.1145374, Q1 : 0.876186072826, Q2 : 0.0737744569778, Q3 : -0.138963311911, Q4 : 0.455570608377}
2019-04-14 22:38:37.41: SIM {TimeUS : 66035242, Roll : 0.17, Pitch : -18.12, Yaw : 54.9, Alt : 49.3400001526, Lat : 49.2837892, Lng : -123.1145319, Q1 : 0.87618380785, Q2 : 0.073968321085, Q3 : -0.139072939754, Q4 : 0.455510079861}
2019-04-14 22:38:37.51: SIM {TimeUS : 66135202, Roll : 0.18, Pitch : -18.14, Yaw : 54.9, Alt : 49.3400001526, Lat : 49.2837916, Lng : -123.1145264, Q1 : 0.876181423664, Q2 : 0.074142716825, Q3 : -0.1391890347, Q4 : 0.455450743437}
2019-04-14 22:38:37.61: SIM {TimeUS : 66235162, Roll : 0.2, Pitch : -18.16, Yaw : 54.89, Alt : 49.3499984741, Lat : 49.283794, Lng : -123.1145208, Q1 : 0.876181364059, Q2 : 0.0743315890431, Q3 : -0.139229089022, Q4 : 0.455407947302}
