2019-04-14 22:05:56.30: SIM {TimeUS : 40316367, Roll : 0.0, Pitch : 0.0, Yaw : 0.0, Alt : 30.1000003815, Lat : 49.28357, Lng : -123.11502, Q1 : 1.0, Q2 : 0.0, Q3 : 0.0, Q4 : 0.0}
2019-04-14 22:05:56.41: SIM {TimeUS : 40435486, Roll : 0.0, Pitch : 0.0, Yaw : 0.0, Alt : 30.1000003815, Lat : 49.28357, Lng : -123.11502, Q1 : 1.0, Q2 : 0.0, Q3 : 0.0, Q4 : 0.0}
2019-04-14 22:05:56.51: SIM {TimeUS : 40535446, Roll : 0.0, Pitch : 0.0, Yaw : 0.0, Alt : 30.1000003815, Lat : 49.28357, Lng : -123.11502, Q1 : 1.0, Q2 : 0.0, Q3 : 0.0, Q4 : 0.0}
2019-04-14 22:05:56.61: SIM {TimeUS : 40635406, Roll : 0.0, Pitch : 0.0, Yaw : 0.0, Alt : 30.1000003815, Lat : 49.28357, Lng : -123.11502, Q1 : 1.0, Q2 : 0.0, Q3 : 0.0, Q4 : 0.0}
2019-04-14 22:05:56.71: SIM {TimeUS : 40735366, Roll : 0.0, Pitch : 0.0, Yaw : 0.0, Alt : 30.1000003815, Lat : 49.28357, Lng : -123.11502, Q1 : 1.0, Q2 : 0.0, Q3 : 0.0, Q4 : 0.0}
2019-04-14 22:05:56.81: SIM {TimeUS : 40835326, Roll : 0.0, Pitch : 0.0, Yaw : 0.0, Alt : 30.1000003815, Lat : 49.28357, Lng : -123.11502, Q1 : 1.0, Q2 : 0.0, Q3 : 0.0, Q4 : 0.0}
2019-04-14 22:05:56.91: SIM {TimeUS : 40935286, Roll : 0.0, Pitch : 0.0, Yaw : 0.0, Alt : 30.1000003815, Lat : 49.28357, Lng : -123.11502, Q1 : 1.0, Q2 : 0.0, Q3 : 0.0, Q4 : 0.0}
2019-04-14 22:05:57.01: SIM {TimeUS : 41035246, Roll : 0.0, Pitch : 0.0, Yaw : 0.0, Alt : 30.1000003815, Lat : 49.28357, Lng : -123.11502, Q1 : 1.0, Q2 : 0.0, Q3 : 0.0, Q4 : 0.0}
2019-04-14 22:05:57.11: SIM {TimeUS : 41135206, Roll : 0.0, Pitch : 0.0, Yaw : 0.0, Alt : 30.1000003815, Lat : 49.28357, Lng : -123.11502, Q1 : 1.0, Q2 : 0.0, Q3 : 0.0, Q4 : 0.0}
2019-04-14 22:05:57.21: SIM {TimeUS : 41235166, Roll : 0.0, Pitch : 0.0, Yaw : 0.0, Alt : 30.1000003815, Lat : 49.28357, Lng : -123.11502, Q1 : 1.0, Q2 : 0.0, Q3 : 0.0, Q4 : 0.0}
2019-04-14 22:05:57.31: SIM {TimeUS : 41335126, Roll : 0.0, Pitch : 0.0, Yaw : 0.0, Alt : 30.1000003815, Lat : 49.28357, Lng : -123.11502, Q1 : 1.0, Q2 : 0.0, Q3 : 0.0, Q4 : 0.0}
2019-04-14 22:05:57.41: SIM {TimeUS : 41435086, Roll : 0.0, Pitch : 0.0, Yaw : 0.0, Alt : 30.1000003815, Lat : 49.28357, Lng : -123.11502, Q1 : 1.0, Q2 : 0.0, Q3 : 0.0, Q4 : 0.0}
2019-04-14 22:05:57.51: SIM {TimeUS : 41535046, Roll : 0.0, Pitch : 0.0, Yaw : 0.0, Alt : 30.1000003815, Lat : 49.28357, Lng : -123.11502, Q1 : 1.0, Q2 : 0.0, Q3 : 0.0, Q4 : 0.0}
2019-04-14 22:05:57.61: SIM {TimeUS : 41635006, Roll : 0.0, Pitch : 0.0, Yaw : 0.0, Alt : 30.1000003815, Lat : 49.28357, Lng : -123.11502, Q1 : 1.0, Q2 : 0.0, Q3 : 0.0, Q4 : 0.0}
2019-04-14 22:05:57.71: SIM {TimeUS : 41734966, Roll : 0.0, Pitch : 0.0, Yaw : 0.0, Alt : 30.1000003815, Lat : 49.28357, Lng : -123.11502, Q1 : 1.0, Q2 : 0.0, Q3 : 0.0, Q4 : 0.0}
2019-04-14 22:05:57.81: SIM {TimeUS : 41834926, Roll : 0.0, Pitch : 0.0, Yaw : 0.0, Alt : 30.1000003815, Lat : 49.28357, Lng : -123.11502, Q1 : 1.0, Q2 : 0.0, Q3 : 0.0, Q4 : 0.0}
2019-04-14 22:05:57.91: SIM {TimeUS : 41934886, Roll : 0.0, Pitch : 0.0, Yaw : 0.0, Alt : 30.1000003815, Lat : 49.28357, Lng : -123.11502, Q1 : 1.0, Q2 : 0.0, Q3 : 0.0, Q4 : 0.0}
2019-04-14 22:05:58.01: SIM {TimeUS : 42034846, Roll : 0.0, Pitch : 0.0, Yaw : 0.0, Alt : 30.1000003815, Lat : 49.28357, Lng : -123.11502, Q1 : 1.0, Q2 : 0.0, Q3 : 0.0, Q4 : 0.0}
2019-04-14 22:05:58.11: SIM {TimeUS : 42134806, Roll : 0.0, Pitch : 0.0, Yaw : 0.0, Alt : 30.1000003815, Lat : 49.28357, Lng : -123.11502, Q1 : 1.0, Q2 : 0.0, Q3 : 0.0, Q4 : 0.0}
2019-04-14 22:05:58.21: SIM {TimeUS : 42234766, Roll : 0.0, Pitch : 0.0, Yaw : 0.0, Alt : 30.1000003815, Lat : 49.28357, Lng : -123.11502, Q1 : 1.0, Q2 : 0.0, Q3 : 0.0, Q4 : 0.0}
2019-04-14 22:05:58.31: SIM {TimeUS : 42334726, Roll : 0.0, Pitch : 0.0, Yaw : 0.0, Alt : 30.1000003815, Lat : 49.28357, Lng : -123.11502, Q1 : 1.0, Q2 : 0.0, Q3 : 0.0, Q4 : 0.0}
2019-04-14 22:05:58.42: SIM {TimeUS : 42435519, Roll : 0.0, Pitch : 0.0, Yaw : 0.0, Alt : 30.1000003815, Lat : 49.28357, Lng : -123.11502, Q1 : 1.0, Q2 : 0.0, Q3 : 0.0, Q4 : 0.0}
2019-04-14 22:05:58.51: SIM {TimeUS : 42535479, Roll : 0.0, Pitch : 0.0, Yaw : 0.0, Alt : 30.1000003815, Lat : 49.28357, Lng : -123.11502, Q1 : 1.0, Q2 : 0.0, Q3 : 0.0, Q4 : 0.0}
2019-04-14 22:05:58.61: SIM {TimeUS : 42635439, Roll : 0.0, Pitch : 0.0, Yaw : 360.0, Alt : 30.1000003815, Lat : 49.28357, Lng : -123.11502, Q1 : 1.0, Q2 : 0.0, Q3 : 0.0, Q4 : -7.26646824309e-12}
2019-04-14 22:05:58.71: SIM {TimeUS : 42735399, Roll : 0.0, Pitch : 0.0, Yaw : 0.0, Alt : 30.1000003815, Lat : 49.28357, Lng : -123.11502, Q1 : 1.0, Q2 : 0.0, Q3 : 0.0, Q4 : 2.12949782807e-10}
2019-04-14 22:05:58.81: SIM {TimeUS : 42835359, Roll : 0.0, Pitch : 0.0, Yaw : 360.0, Alt : 30.1000003815, Lat : 49.28357, Lng : -123.11502, Q1 : 1.0, Q2 : 0.0, Q3 : 0.0, Q4 : -1.12301528077e-07}
2019-04-14 22:05:58.91: SIM {TimeUS : 42935319, Roll : 0.0, Pitch : 0.0, Yaw : 359.99, Alt : 30.1000003815, Lat : 49.28357, Lng : -123.11502, Q1 : 1.0, Q2 : 0.0, Q3 : 0.0, Q4 : -3.06695568497e-07}
2019-04-14 22:05:59.01: SIM {TimeUS : 43035279, Roll : 0.0, Pitch : 0.0, Yaw : 359.99, Alt : 30.1000003815, Lat : 49.28357, Lng : -123.11502, Q1 : 1.0, Q2 : 0.0, Q3 : 0.0, Q4 : -5.10889378802e-07}
2019-04-14 22:05:59.11: SIM {TimeUS : 43135239, Roll : 0.0, Pitch : 0.0, Yaw : 359.99, Alt : 30.1000003815, Lat : 49.28357, Lng : -123.11502, Q1 : 1.0, Q2 : 0.0, Q3 : 0.0, Q4 : -7.12152086635e-07}
2019-04-14 22:05:59.21: SIM {TimeUS : 43235199, Roll : 0.0, Pitch : 0.0, Yaw : 359.99, Alt : 30.1000003815, Lat : 49.28357, Lng : -123.11502, Q1 : 1.0, Q2 : 0.0, Q3 : 0.0, Q4 : -8.89043462848e-07}
2019-04-14 22:05:59.31: SIM {TimeUS : 43335159, Roll : 0.0, Pitch : 0.0, Yaw : 359.99, Alt : 30.1000003815, Lat : 49.28357, Lng : -123.11502, Q1 : 1.0, Q2 : 0.0, Q3 : 0.0, Q4 : -1.1217194924e-06}
2019-04-14 22:05:59.41: SIM {TimeUS : 43435119, Roll : 0.0, Pitch : 0.0, Yaw : 359.99, Alt : 30.1000003815, Lat : 49.28357, Lng : -123.11502, Q1 : 1.0, Q2 : 0.0, Q3 : 0.0, Q4 : -1.30996590997e-06}
2019-04-14 22:05:59.51: SIM {TimeUS : 43535079, Roll : 0.0, Pitch : 0.0, Yaw : 359.99, Alt : 30.1100006104, Lat : 49.28357, Lng : -123.11502, Q1 : 1.0, Q2 : 0.0, Q3 : 0.0, Q4 : -1.54041231326e-06}
2019-04-14 22:05:59.61: SIM {TimeUS : 43635039, Roll : 0.0, Pitch : 0.0, Yaw : 359.99, Alt : 30.1299991608, Lat : 49.28357, Lng : -123.11502, Q1 : 1.0, Q2 : 0.0, Q3 : 0.0, Q4 : -1.76684056896e-06}
2019-04-14 22:05:59.71: SIM {TimeUS : 43734999, Roll : 0.0, Pitch : 0.0, Yaw : 359.99, Alt : 30.1599998474, Lat : 49.28357, Lng : -123.11502, Q1 : 1.0, Q2 : 0.0, Q3 : 0.0, Q4 : -1.95375423573e-06}
2019-04-14 22:05:59.81: SIM {TimeUS : 43834959, Roll : 0.0, Pitch : 0.0, Yaw : 359.99, Alt : 30.1900005341, Lat : 49.28357, Lng : -123.11502, Q1 : 1.0, Q2 : 0.0, Q3 : 0.0, Q4 : -2.14563647205e-06}
2019-04-14 22:05:59.91: SIM {TimeUS : 43934919, Roll : -0.03, Pitch : -0.03, Yaw : 359.99, Alt : 30.2299995422, Lat : 49.28357, Lng : -123.11502, Q1 : 0.999999880791, Q2 : -0.00034350680653, Q3 : -0.000311364448862, Q4 : -4.66077426609e-06}
2019-04-14 22:06:00.01: SIM {TimeUS : 44034879, Roll : -0.29, Pitch : -0.26, Yaw : 359.99, Alt : 30.3099994659, Lat : 49.28357, Lng : -123.11502, Q1 : 0.999994039536, Q2 : -0.00257657794282, Q3 : -0.00230562523939, Q4 : -2.87923248834e-05}
2019-04-14 22:06:00.11: SIM {TimeUS : 44134839, Roll : -0.6, Pitch : -0.54, Yaw : 359.99, Alt : 30.4400005341, Lat : 49.28357, Lng : -123.11502, Q1 : 0.999974966049, Q2 : -0.00527692399919, Q3 : -0.0047139627859, Q4 : -8.34253733046e-05}
2019-04-14 22:06:00.21: SIM {TimeUS : 44234799, Roll : -0.81, Pitch : -0.72, Yaw : 359.98, Alt : 30.6000003815, Lat : 49.28357, Lng : -123.11502, Q1 : 0.999954760075, Q2 : -0.00712827220559, Q3 : -0.00629914738238, Q4 : -0.000160435462021}
2019-04-14 22:06:00.31: SIM {TimeUS : 44334759, Roll : -0.86, Pitch : -0.75, Yaw : 359.97, Alt : 30.7600002289, Lat : 49.28357, Lng : -123.11502, Q1 : 0.999949574471, Q2 : -0.00755707733333, Q3 : -0.0066081834957, Q4 : -0.000248024996836}
2019-04-14 22:06:00.41: SIM {TimeUS : 44434719, Roll : -0.74, Pitch : -0.67, Yaw : 359.96, Alt : 30.9099998474, Lat : 49.28357, Lng : -123.1150201, Q1 : 0.999961435795, Q2 : -0.00651979725808, Q3 : -0.00588062731549, Q4 : -0.000326529028825}
2019-04-14 22:06:00.52: SIM {TimeUS : 44535512, Roll : -0.53, Pitch : -0.5, Yaw : 359.95, Alt : 31.0699996948, Lat : 49.2835701, Lng : -123.1150202, Q1 : 0.999979615211, Q2 : -0.00463740294799, Q3 : -0.00436802627519, Q4 : -0.000397315976443}
2019-04-14 22:06:00.61: SIM {TimeUS : 44635472, Roll : -0.3, Pitch : -0.29, Yaw : 359.94, Alt : 31.2199993134, Lat : 49.2835701, Lng : -123.1150202, Q1 : 0.999993026257, Q2 : -0.00270165340044, Q3 : -0.00254670297727, Q4 : -0.000449885381386}
2019-04-14 22:06:00.71: SIM {TimeUS : 44735432, Roll : -0.12, Pitch : -0.11, Yaw : 359.94, Alt : 31.3899993896, Lat : 49.2835702, Lng : -123.1150203, Q1 : 0.999998807907, Q2 : -0.00105858652387, Q3 : -0.000991711043753, Q4 : -0.000488954479806}
2019-04-14 22:06:00.81: SIM {TimeUS : 44835392, Roll : 0.0, Pitch : 0.0, Yaw : 359.94, Alt : 31.5599994659, Lat : 49.2835702, Lng : -123.1150204, Q1 : 0.999999880791, Q2 : 3.54410331056e-05, Q3 : 2.09620593523e-05, Q4 : -0.000514432380442}
2019-04-14 22:06:00.91: SIM {TimeUS : 44935352, Roll : 0.06, Pitch : 0.05, Yaw : 359.93, Alt : 31.7399997711, Lat : 49.2835703, Lng : -123.1150205, Q1 : 0.999999582767, Q2 : 0.000592325581238, Q3 : 0.000448407197837, Q4 : -0.00052508409135}
2019-04-14 22:06:01.01: SIM {TimeUS : 45035312, Roll : 0.09, Pitch : 0.05, Yaw : 359.93, Alt : 31.9200000763, Lat : 49.2835703, Lng : -123.1150205, Q1 : 0.999999403954, Q2 : 0.00080856558634, Q3 : 0.000450334831839, Q4 : -0.00052639603382}
2019-04-14 22:06:01.11: SIM {TimeUS : 45135272, Roll : 0.09, Pitch : 0.03, Yaw : 359.93, Alt : 32.1100006104, Lat : 49.2835703, Lng : -123.1150206, Q1 : 0.999999463558, Q2 : 0.00086375628598, Q3 : 0.000304511835566, Q4 : -0.000524801027495}
2019-04-14 22:06:01.21: SIM {TimeUS : 45235232, Roll : 0.09, Pitch : 0.03, Yaw : 359.94, Alt : 32.2900009155, Lat : 49.2835703, Lng : -123.1150207, Q1 : 0.999999463558, Q2 : 0.000846273964271, Q3 : 0.000279089726973, Q4 : -0.000509892066475}
2019-04-14 22:06:01.31: SIM {TimeUS : 45335192, Roll : 0.08, Pitch : 0.05, Yaw : 359.94, Alt : 32.4900016785, Lat : 49.2835703, Lng : -123.1150207, Q1 : 0.999999463558, Q2 : 0.000744299090002, Q3 : 0.000493728672154, Q4 : -0.000476524466649}
2019-04-14 22:06:01.41: SIM {TimeUS : 45435152, Roll : 0.07, Pitch : 0.08, Yaw : 359.94, Alt : 32.6800003052, Lat : 49.2835703, Lng : -123.1150207, Q1 : 0.999999403954, Q2 : 0.000628006237093, Q3 : 0.000751098035835, Q4 : -0.000443778495537}
2019-04-14 22:06:01.51: SIM {TimeUS : 45535112, Roll : 0.09, Pitch : 0.13, Yaw : 359.95, Alt : 32.8800010681, Lat : 49.2835704, Lng : -123.1150208, Q1 : 0.999998927116, Q2 : 0.000786772405263, Q3 : 0.0011759896297, Q4 : -0.000425550417276}
2019-04-14 22:06:01.61: SIM {TimeUS : 45635072, Roll : 0.12, Pitch : 0.17, Yaw : 359.95, Alt : 33.0800018311, Lat : 49.2835704, Lng : -123.1150208, Q1 : 0.999998092651, Q2 : 0.00110318011139, Q3 : 0.00154295039829, Q4 : -0.000418534880737}
2019-04-14 22:06:01.71: SIM {TimeUS : 45735032, Roll : 0.15, Pitch : 0.19, Yaw : 359.95, Alt : 33.2799987793, Lat : 49.2835704, Lng : -123.1150208, Q1 : 0.99999755621, Q2 : 0.00131370616145, Q3 : 0.00174250581767, Q4 : -0.000437701790361}
2019-04-14 22:06:01.81: SIM {TimeUS : 45834992, Roll : 0.15, Pitch : 0.21, Yaw : 359.94, Alt : 33.4900016785, Lat : 49.2835704, Lng : -123.1150208, Q1 : 0.999997198582, Q2 : 0.00137800106313, Q3 : 0.00188429106493, Q4 : -0.00046244400437}
2019-04-14 22:06:01.91: SIM {TimeUS : 45934952, Roll : 0.16, Pitch : 0.18, Yaw : 359.94, Alt : 33.6899986267, Lat : 49.2835704, Lng : -123.1150209, Q1 : 0.999997496605, Q2 : 0.00140144175384, Q3 : 0.00164911092725, Q4 : -0.000507222022861}
2019-04-14 22:06:02.01: SIM {TimeUS : 46034912, Roll : 0.15, Pitch : 0.14, Yaw : 359.93, Alt : 33.9000015259, Lat : 49.2835704, Lng : -123.1150209, Q1 : 0.999998152256, Q2 : 0.00134534738027, Q3 : 0.00127668888308, Q4 : -0.000546968425624}
2019-04-14 22:06:02.11: SIM {TimeUS : 46134872, Roll : 0.13, Pitch : 0.11, Yaw : 359.93, Alt : 34.1100006104, Lat : 49.2835704, Lng : -123.1150209, Q1 : 0.999998629093, Q2 : 0.00119068380445, Q3 : 0.00101699715015, Q4 : -0.000578731531277}
2019-04-14 22:06:02.21: SIM {TimeUS : 46234832, Roll : 0.11, Pitch : 0.09, Yaw : 359.93, Alt : 34.3199996948, Lat : 49.2835704, Lng : -123.1150209, Q1 : 0.999998927116, Q2 : 0.00104520784225, Q3 : 0.000836562190671, Q4 : -0.000609957438428}
2019-04-14 22:06:02.31: SIM {TimeUS : 46334792, Roll : 0.11, Pitch : 0.09, Yaw : 359.92, Alt : 34.5400009155, Lat : 49.2835704, Lng : -123.1150209, Q1 : 0.999998986721, Q2 : 0.00099971878808, Q3 : 0.000805516261607, Q4 : -0.000640149752144}
2019-04-14 22:06:02.41: SIM {TimeUS : 46434752, Roll : 0.1, Pitch : 0.07, Yaw : 359.92, Alt : 34.75, Lat : 49.2835704, Lng : -123.1150208, Q1 : 0.999999165535, Q2 : 0.000906700035557, Q3 : 0.000635532778688, Q4 : -0.000658757460769}
2019-04-14 22:06:02.51: SIM {TimeUS : 46534712, Roll : 0.08, Pitch : 0.05, Yaw : 359.92, Alt : 34.9700012207, Lat : 49.2835704, Lng : -123.1150208, Q1 : 0.999999403954, Q2 : 0.000741811760236, Q3 : 0.000475919514429, Q4 : -0.000668599561322}
2019-04-14 22:06:02.62: SIM {TimeUS : 46635505, Roll : 0.06, Pitch : 0.04, Yaw : 359.92, Alt : 35.1800003052, Lat : 49.2835704, Lng : -123.1150208, Q1 : 0.999999523163, Q2 : 0.000541298999451, Q3 : 0.00040245699347, Q4 : -0.000677781936247}
2019-04-14 22:06:02.71: SIM {TimeUS : 46735465, Roll : 0.03, Pitch : 0.04, Yaw : 359.92, Alt : 35.4000015259, Lat : 49.2835704, Lng : -123.1150208, Q1 : 0.999999642372, Q2 : 0.000328302878188, Q3 : 0.000371771428036, Q4 : -0.000683359568939}
2019-04-14 22:06:02.81: SIM {TimeUS : 46835425, Roll : 0.02, Pitch : 0.01, Yaw : 359.92, Alt : 35.6199989319, Lat : 49.2835704, Lng : -123.1150208, Q1 : 0.999999761581, Q2 : 0.000246973446338, Q3 : 0.000109482789412, Q4 : -0.000686267914716}
2019-04-14 22:06:02.91: SIM {TimeUS : 46935385, Roll : 0.02, Pitch : -0.01, Yaw : 359.92, Alt : 35.8400001526, Lat : 49.2835704, Lng : -123.1150208, Q1 : 0.999999761581, Q2 : 0.000197397297597, Q3 : -0.000115748793178, Q4 : -0.000692644447554}
2019-04-14 22:06:03.01: SIM {TimeUS : 47035345, Roll : 0.0, Pitch : -0.02, Yaw : 359.91, Alt : 36.0600013733, Lat : 49.2835704, Lng : -123.1150208, Q1 : 0.999999701977, Q2 : 3.00723204418e-05, Q3 : -0.000240240609855, Q4 : -0.000712820969056}
2019-04-14 22:06:03.11: SIM {TimeUS : 47135305, Roll : 0.0, Pitch : -0.02, Yaw : 359.91, Alt : 36.2799987793, Lat : 49.2835704, Lng : -123.1150207, Q1 : 0.999999701977, Q2 : -8.39937365527e-06, Q3 : -0.000235318191699, Q4 : -0.000730702071451}
2019-04-14 22:06:03.21: SIM {TimeUS : 47235265, Roll : 0.0, Pitch : -0.02, Yaw : 359.91, Alt : 36.5, Lat : 49.2835704, Lng : -123.1150207, Q1 : 0.999999701977, Q2 : 5.17734515597e-05, Q3 : -0.000210907281144, Q4 : -0.000751124811359}
2019-04-14 22:06:03.31: SIM {TimeUS : 47335225, Roll : 0.0, Pitch : -0.03, Yaw : 359.91, Alt : 36.7200012207, Lat : 49.2835704, Lng : -123.1150207, Q1 : 0.999999642372, Q2 : -4.0297411033e-05, Q3 : -0.000286139751552, Q4 : -0.000779126305133}
2019-04-14 22:06:03.41: SIM {TimeUS : 47435185, Roll : -0.03, Pitch : -0.05, Yaw : 359.9, Alt : 36.9500007629, Lat : 49.2835704, Lng : -123.1150207, Q1 : 0.999999523163, Q2 : -0.00031011167448, Q3 : -0.000492292107083, Q4 : -0.000813638267573}
2019-04-14 22:06:03.51: SIM {TimeUS : 47535145, Roll : -0.07, Pitch : -0.07, Yaw : 359.9, Alt : 37.1699981689, Lat : 49.2835704, Lng : -123.1150207, Q1 : 0.999999165535, Q2 : -0.00067275686888, Q3 : -0.000649602967314, Q4 : -0.000855427933857}
2019-04-14 22:06:03.61: SIM {TimeUS : 47635105, Roll : -0.11, Pitch : -0.09, Yaw : 359.89, Alt : 37.4000015259, Lat : 49.2835704, Lng : -123.1150207, Q1 : 0.999998807907, Q2 : -0.00100040459074, Q3 : -0.00079148565419, Q4 : -0.000894657685421}
2019-04-14 22:06:03.71: SIM {TimeUS : 47735065, Roll : -0.12, Pitch : -0.09, Yaw : 359.89, Alt : 37.6199989319, Lat : 49.2835704, Lng : -123.1150207, Q1 : 0.999998569489, Q2 : -0.00111292721704, Q3 : -0.000853882171214, Q4 : -0.000933220784646}
2019-04-14 22:06:03.81: SIM {TimeUS : 47835025, Roll : -0.12, Pitch : -0.08, Yaw : 359.88, Alt : 37.8499984741, Lat : 49.2835704, Lng : -123.1150207, Q1 : 0.999998688698, Q2 : -0.00104968482628, Q3 : -0.000750912062358, Q4 : -0.000972735928372}
2019-04-14 22:06:03.91: SIM {TimeUS : 47934985, Roll : -0.09, Pitch : -0.05, Yaw : 359.88, Alt : 38.0699996948, Lat : 49.2835704, Lng : -123.1150207, Q1 : 0.999999046326, Q2 : -0.000845176982693, Q3 : -0.00046377532999, Q4 : -0.00100049516186}
2019-04-14 22:06:04.01: SIM {TimeUS : 48034945, Roll : -0.07, Pitch : -0.02, Yaw : 359.88, Alt : 38.2999992371, Lat : 49.2835704, Lng : -123.1150207, Q1 : 0.999999284744, Q2 : -0.000612498493865, Q3 : -0.000236769701587, Q4 : -0.00102694472298}
2019-04-14 22:06:04.11: SIM {TimeUS : 48134905, Roll : -0.05, Pitch : -0.02, Yaw : 359.87, Alt : 38.5299987793, Lat : 49.2835704, Lng : -123.1150207, Q1 : 0.999999284744, Q2 : -0.000515850959346, Q3 : -0.000226672986173, Q4 : -0.00105184828863}
2019-04-14 22:06:04.21: SIM {TimeUS : 48234865, Roll : -0.06, Pitch : -0.01, Yaw : 359.87, Alt : 38.7599983215, Lat : 49.2835706, Lng : -123.1150207, Q1 : 0.999999284744, Q2 : -0.000525431358255, Q3 : -0.000127097999211, Q4 : -0.00106449890882}
2019-04-14 22:06:04.31: SIM {TimeUS : 48334825, Roll : -0.07, Pitch : 0.0, Yaw : 359.87, Alt : 38.9900016785, Lat : 49.2835706, Lng : -123.1150207, Q1 : 0.99999922514, Q2 : -0.000682153797243, Q3 : 1.03146840047e-05, Q4 : -0.00107032689266}
2019-04-14 22:06:04.41: SIM {TimeUS : 48434785, Roll : -0.07, Pitch : 0.01, Yaw : 359.87, Alt : 39.2200012207, Lat : 49.2835706, Lng : -123.1150207, Q1 : 0.99999922514, Q2 : -0.000685152772348, Q3 : 0.000128921703435, Q4 : -0.00106631789822}
2019-04-14 22:06:04.51: SIM {TimeUS : 48534745, Roll : -0.05, Pitch : 0.03, Yaw : 359.87, Alt : 39.4500007629, Lat : 49.2835706, Lng : -123.1150207, Q1 : 0.999999284744, Q2 : -0.000491921789944, Q3 : 0.000337083736667, Q4 : -0.00106411625165}
2019-04-14 22:06:04.61: SIM {TimeUS : 48634705, Roll : -0.02, Pitch : 0.04, Yaw : 359.87, Alt : 39.6800003052, Lat : 49.2835706, Lng : -123.1150207, Q1 : 0.999999344349, Q2 : -0.000238262713538, Q3 : 0.000383762118872, Q4 : -0.00106346281245}
2019-04-14 22:06:04.72: SIM {TimeUS : 48735498, Roll : 0.0, Pitch : 0.04, Yaw : 359.87, Alt : 39.9099998474, Lat : 49.2835706, Lng : -123.1150207, Q1 : 0.999999344349, Q2 : 5.10508398293e-05, Q3 : 0.000410996522987, Q4 : -0.00105979735963}
2019-04-14 22:06:04.81: SIM {TimeUS : 48835458, Roll : 0.04, Pitch : 0.07, Yaw : 359.88, Alt : 40.1399993896, Lat : 49.2835706, Lng : -123.1150207, Q1 : 0.999999165535, Q2 : 0.000391570414649, Q3 : 0.000675885588862, Q4 : -0.00104716606438}
2019-04-14 22:06:04.91: SIM {TimeUS : 48935418, Roll : 0.08, Pitch : 0.12, Yaw : 359.88, Alt : 40.3699989319, Lat : 49.2835706, Lng : -123.1150207, Q1 : 0.999998569489, Q2 : 0.000736852874979, Q3 : 0.00107985350769, Q4 : -0.00104403228033}
2019-04-14 22:06:05.01: SIM {TimeUS : 49035378, Roll : 0.11, Pitch : 0.16, Yaw : 359.87, Alt : 40.5999984741, Lat : 49.2835706, Lng : -123.1150207, Q1 : 0.999997913837, Q2 : 0.000983229605481, Q3 : 0.00145830214024, Q4 : -0.00105515879113}
2019-04-14 22:06:05.11: SIM {TimeUS : 49135338, Roll : 0.1, Pitch : 0.19, Yaw : 359.87, Alt : 40.8400001526, Lat : 49.2835706, Lng : -123.1150207, Q1 : 0.999997496605, Q2 : 0.00090190890478, Q3 : 0.00174345111009, Q4 : -0.00106889999006}
2019-04-14 22:06:05.21: SIM {TimeUS : 49235298, Roll : 0.05, Pitch : 0.21, Yaw : 359.87, Alt : 41.0699996948, Lat : 49.2835706, Lng : -123.1150207, Q1 : 0.999997496605, Q2 : 0.000452944048448, Q3 : 0.00189651863184, Q4 : -0.00110521609895}
2019-04-14 22:06:05.31: SIM {TimeUS : 49335258, Roll : 0.0, Pitch : 0.21, Yaw : 359.86, Alt : 41.2999992371, Lat : 49.2835706, Lng : -123.1150207, Q1 : 0.99999755621, Q2 : 1.50575824591e-05, Q3 : 0.00187995610759, Q4 : -0.00114124128595}
2019-04-14 22:06:05.41: SIM {TimeUS : 49435218, Roll : -0.02, Pitch : 0.17, Yaw : 359.86, Alt : 41.5400009155, Lat : 49.2835706, Lng : -123.1150207, Q1 : 0.999998092651, Q2 : -0.000208723780815, Q3 : 0.00156533299014, Q4 : -0.00117602164391}
2019-04-14 22:06:05.51: SIM {TimeUS : 49535178, Roll : -0.03, Pitch : 0.13, Yaw : 359.86, Alt : 41.7700004578, Lat : 49.2835706, Lng : -123.1150207, Q1 : 0.999998509884, Q2 : -0.00026483082911, Q3 : 0.00118384312373, Q4 : -0.00121242390014}
2019-04-14 22:06:05.61: SIM {TimeUS : 49635138, Roll : -0.01, Pitch : 0.12, Yaw : 359.85, Alt : 42.0, Lat : 49.2835706, Lng : -123.1150207, Q1 : 0.999998629093, Q2 : -0.000172237443621, Q3 : 0.00106448109727, Q4 : -0.001253078226}
2019-04-14 22:06:05.71: SIM {TimeUS : 49735098, Roll : 0.01, Pitch : 0.12, Yaw : 359.85, Alt : 42.2400016785, Lat : 49.2835706, Lng : -123.1150207, Q1 : 0.999998509884, Q2 : 0.000144331104821, Q3 : 0.00111995241605, Q4 : -0.00129824737087}
2019-04-14 22:06:05.81: SIM {TimeUS : 49835058, Roll : 0.06, Pitch : 0.13, Yaw : 359.84, Alt : 42.4700012207, Lat : 49.2835706, Lng : -123.1150207, Q1 : 0.999998271465, Q2 : 0.000580580963288, Q3 : 0.0011610443471, Q4 : -0.00134293746669}
2019-04-14 22:06:05.91: SIM {TimeUS : 49935018, Roll : 0.1, Pitch : 0.11, Yaw : 359.84, Alt : 42.7099990845, Lat : 49.2835706, Lng : -123.1150207, Q1 : 0.999998092651, Q2 : 0.000913385592867, Q3 : 0.00100946065504, Q4 : -0.00139138603117}
2019-04-14 22:06:06.01: SIM {TimeUS : 50034978, Roll : 0.1, Pitch : 0.08, Yaw : 359.83, Alt : 42.9399986267, Lat : 49.2835706, Lng : -123.1150207, Q1 : 0.999998271465, Q2 : 0.000942355487496, Q3 : 0.00076351914322, Q4 : -0.00143325515091}
2019-04-14 22:06:06.11: SIM {TimeUS : 50134938, Roll : 0.07, Pitch : 0.06, Yaw : 359.83, Alt : 43.1800003052, Lat : 49.2835704, Lng : -123.1150207, Q1 : 0.999998569489, Q2 : 0.000616237521172, Q3 : 0.000596769386902, Q4 : -0.0014571492793}
2019-04-14 22:06:06.21: SIM {TimeUS : 50234898, Roll : 0.01, Pitch : 0.06, Yaw : 359.83, Alt : 43.4099998474, Lat : 49.2835704, Lng : -123.1150207, Q1 : 0.999998748302, Q2 : 0.000125266145915, Q3 : 0.000553017656785, Q4 : -0.00147198163904}
2019-04-14 22:06:06.31: SIM {TimeUS : 50334858, Roll : -0.02, Pitch : 0.07, Yaw : 359.82, Alt : 43.6500015259, Lat : 49.2835704, Lng : -123.1150207, Q1 : 0.999998629093, Q2 : -0.000234809383983, Q3 : 0.000690808228683, Q4 : -0.00148510036524}
2019-04-14 22:06:06.41: SIM {TimeUS : 50434818, Roll : -0.04, Pitch : 0.08, Yaw : 359.82, Alt : 43.8800010681, Lat : 49.2835704, Lng : -123.1150207, Q1 : 0.999998509884, Q2 : -0.000434255809523, Q3 : 0.000757460889872, Q4 : -0.00149601662997}
2019-04-14 22:06:06.51: SIM {TimeUS : 50534778, Roll : -0.04, Pitch : 0.07, Yaw : 359.82, Alt : 44.1199989319, Lat : 49.2835704, Lng : -123.1150206, Q1 : 0.999998569489, Q2 : -0.000428220984759, Q3 : 0.00064069929067, Q4 : -0.00150927144568}
2019-04-14 22:06:06.61: SIM {TimeUS : 50634738, Roll : -0.05, Pitch : 0.05, Yaw : 359.82, Alt : 44.3499984741, Lat : 49.2835704, Lng : -123.1150206, Q1 : 0.999998629093, Q2 : -0.000463380361907, Q3 : 0.000484887073981, Q4 : -0.0015301129315}
2019-04-14 22:06:06.71: SIM {TimeUS : 50734698, Roll : -0.04, Pitch : 0.03, Yaw : 359.82, Alt : 44.5900001526, Lat : 49.2835704, Lng : -123.1150206, Q1 : 0.999998688698, Q2 : -0.000421319884481, Q3 : 0.000264474772848, Q4 : -0.00155127758626}
2019-04-14 22:06:06.81: SIM {TimeUS : 50835491, Roll : -0.03, Pitch : 0.0, Yaw : 359.81, Alt : 44.8300018311, Lat : 49.2835704, Lng : -123.1150206, Q1 : 0.999998688698, Q2 : -0.00031282188138, Q3 : 4.65813900519e-05, Q4 : -0.00157736812253}
2019-04-14 22:06:06.91: SIM {TimeUS : 50935451, Roll : -0.03, Pitch : -0.01, Yaw : 359.81, Alt : 45.0600013733, Lat : 49.2835703, Lng : -123.1150206, Q1 : 0.999998688698, Q2 : -0.000267682917183, Q3 : -8.7507738499e-05, Q4 : -0.00160807045177}
2019-04-14 22:06:07.01: SIM {TimeUS : 51035411, Roll : -0.02, Pitch : -0.02, Yaw : 359.81, Alt : 45.2999992371, Lat : 49.2835703, Lng : -123.1150206, Q1 : 0.999998629093, Q2 : -0.000256516155787, Q3 : -0.000191439903574, Q4 : -0.00164065056015}
2019-04-14 22:06:07.11: SIM {TimeUS : 51135371, Roll : -0.03, Pitch : -0.04, Yaw : 359.8, Alt : 45.5299987793, Lat : 49.2835703, Lng : -123.1150206, Q1 : 0.999998509884, Q2 : -0.000277953455225, Q3 : -0.000388640619349, Q4 : -0.001671494334}
2019-04-14 22:06:07.21: SIM {TimeUS : 51235331, Roll : -0.03, Pitch : -0.05, Yaw : 359.8, Alt : 45.7700004578, Lat : 49.2835703, Lng : -123.1150206, Q1 : 0.999998450279, Q2 : -0.000267889641691, Q3 : -0.0004369506496, Q4 : -0.001709590666}
2019-04-14 22:06:07.31: SIM {TimeUS : 51335291, Roll : -0.02, Pitch : -0.04, Yaw : 359.79, Alt : 46.0, Lat : 49.2835703, Lng : -123.1150206, Q1 : 0.999998390675, Q2 : -0.000202875206014, Q3 : -0.000410262931837, Q4 : -0.0017495227512}
2019-04-14 22:06:07.41: SIM {TimeUS : 51435251, Roll : -0.02, Pitch : -0.04, Yaw : 359.79, Alt : 46.2299995422, Lat : 49.2835703, Lng : -123.1150206, Q1 : 0.99999833107, Q2 : -0.000253315694863, Q3 : -0.00039896913222, Q4 : -0.0017848770367}
2019-04-14 22:06:07.51: SIM {TimeUS : 51535211, Roll : -0.05, Pitch : -0.04, Yaw : 359.79, Alt : 46.4500007629, Lat : 49.2835703, Lng : -123.1150206, Q1 : 0.999998211861, Q2 : -0.000460784707684, Q3 : -0.000358287419658, Q4 : -0.00181697728112}
2019-04-14 22:06:07.61: SIM {TimeUS : 51635171, Roll : -0.08, Pitch : -0.03, Yaw : 359.78, Alt : 46.6699981689, Lat : 49.2835703, Lng : -123.1150206, Q1 : 0.999997913837, Q2 : -0.000757087138481, Q3 : -0.000345528678736, Q4 : -0.00185395835433}
2019-04-14 22:06:07.71: SIM {TimeUS : 51735131, Roll : -0.11, Pitch : -0.04, Yaw : 359.78, Alt : 46.8899993896, Lat : 49.2835703, Lng : -123.1150206, Q1 : 0.999997675419, Q2 : -0.000972125388216, Q3 : -0.000356061791535, Q4 : -0.00188592693303}
2019-04-14 22:06:07.81: SIM {TimeUS : 51835091, Roll : -0.11, Pitch : -0.03, Yaw : 359.78, Alt : 47.0900001526, Lat : 49.2835703, Lng : -123.1150205, Q1 : 0.999997615814, Q2 : -0.00102445774246, Q3 : -0.000287754402962, Q4 : -0.00191355485003}
2019-04-14 22:06:07.91: SIM {TimeUS : 51935051, Roll : -0.1, Pitch : 0.0, Yaw : 359.77, Alt : 47.2900009155, Lat : 49.2835703, Lng : -123.1150205, Q1 : 0.999997735023, Q2 : -0.000919535057619, Q3 : -8.04772498668e-05, Q4 : -0.00193558644969}
2019-04-14 22:06:08.01: SIM {TimeUS : 52035011, Roll : -0.08, Pitch : 0.0, Yaw : 359.77, Alt : 47.4900016785, Lat : 49.2835703, Lng : -123.1150206, Q1 : 0.999997854233, Q2 : -0.000713499845006, Q3 : 4.92665822094e-05, Q4 : -0.0019527876284}
2019-04-14 22:06:08.11: SIM {TimeUS : 52134971, Roll : -0.06, Pitch : 0.0, Yaw : 359.77, Alt : 47.6699981689, Lat : 49.2835703, Lng : -123.1150206, Q1 : 0.999997913837, Q2 : -0.000602720188908, Q3 : 3.79422067454e-06, Q4 : -0.0019684357103}
2019-04-14 22:06:08.21: SIM {TimeUS : 52234931, Roll : -0.07, Pitch : -0.02, Yaw : 359.77, Alt : 47.8400001526, Lat : 49.2835703, Lng : -123.1150206, Q1 : 0.999997794628, Q2 : -0.00066948501626, Q3 : -0.000184552991414, Q4 : -0.00198251963593}
2019-04-14 22:06:08.31: SIM {TimeUS : 52334891, Roll : -0.07, Pitch : -0.04, Yaw : 359.77, Alt : 48.0, Lat : 49.2835703, Lng : -123.1150206, Q1 : 0.999997735023, Q2 : -0.000646449218038, Q3 : -0.000403715413995, Q4 : -0.00199719984084}
2019-04-14 22:06:08.41: SIM {TimeUS : 52434851, Roll : -0.05, Pitch : -0.06, Yaw : 359.76, Alt : 48.1500015259, Lat : 49.2835703, Lng : -123.1150206, Q1 : 0.999997675419, Q2 : -0.000477699271869, Q3 : -0.000603864318691, Q4 : -0.00201231567189}
2019-04-14 22:06:08.51: SIM {TimeUS : 52534811, Roll : -0.04, Pitch : -0.08, Yaw : 359.76, Alt : 48.2799987793, Lat : 49.2835703, Lng : -123.1150206, Q1 : 0.999997615814, Q2 : -0.000351712544216, Q3 : -0.000774051935878, Q4 : -0.00202651345171}
2019-04-14 22:06:08.61: SIM {TimeUS : 52634771, Roll : -0.03, Pitch : -0.09, Yaw : 359.76, Alt : 48.4099998474, Lat : 49.2835703, Lng : -123.1150206, Q1 : 0.999997496605, Q2 : -0.000332693540258, Q3 : -0.000863498367835, Q4 : -0.00204105395824}
2019-04-14 22:06:08.71: SIM {TimeUS : 52734731, Roll : 0.0, Pitch : -0.09, Yaw : 359.76, Alt : 48.5200004578, Lat : 49.2835703, Lng : -123.1150206, Q1 : 0.99999755621, Q2 : -8.7440785137e-05, Q3 : -0.000819095992483, Q4 : -0.00205560494214}
2019-04-14 22:06:08.82: SIM {TimeUS : 52835524, Roll : 0.02, Pitch : -0.07, Yaw : 359.76, Alt : 48.6199989319, Lat : 49.2835703, Lng : -123.1150206, Q1 : 0.999997615814, Q2 : 0.000238850989263, Q3 : -0.000631526228972, Q4 : -0.00208078022115}
2019-04-14 22:06:08.91: SIM {TimeUS : 52935484, Roll : 0.05, Pitch : -0.04, Yaw : 359.75, Alt : 48.7099990845, Lat : 49.2835703, Lng : -123.1150206, Q1 : 0.99999755621, Q2 : 0.000472820654977, Q3 : -0.000364551786333, Q4 : -0.00211984361522}
2019-04-14 22:06:09.01: SIM {TimeUS : 53035444, Roll : 0.06, Pitch : -0.01, Yaw : 359.75, Alt : 48.7799987793, Lat : 49.2835703, Lng : -123.1150206, Q1 : 0.999997496605, Q2 : 0.000529744836967, Q3 : -0.000162738608196, Q4 : -0.00215718429536}
2019-04-14 22:06:09.11: SIM {TimeUS : 53135404, Roll : 0.06, Pitch : 0.0, Yaw : 359.74, Alt : 48.8499984741, Lat : 49.2835703, Lng : -123.1150206, Q1 : 0.999997437, Q2 : 0.000565198250115, Q3 : -8.20942004793e-05, Q4 : -0.00219648610801}
2019-04-14 22:06:09.21: SIM {TimeUS : 53235364, Roll : 0.05, Pitch : -0.02, Yaw : 359.74, Alt : 48.9099998474, Lat : 49.2835703, Lng : -123.1150206, Q1 : 0.999997377396, Q2 : 0.000501410802826, Q3 : -0.000196073728148, Q4 : -0.00223721261136}
2019-04-14 22:06:09.31: SIM {TimeUS : 53335324, Roll : 0.03, Pitch : -0.03, Yaw : 359.73, Alt : 48.9599990845, Lat : 49.2835703, Lng : -123.1150206, Q1 : 0.999997317791, Q2 : 0.000278283288935, Q3 : -0.000339210761013, Q4 : -0.00227510882542}
2019-04-14 22:06:09.41: SIM {TimeUS : 53435284, Roll : 0.04, Pitch : -0.05, Yaw : 359.73, Alt : 49.0, Lat : 49.2835703, Lng : -123.1150207, Q1 : 0.999997138977, Q2 : 0.000348797417246, Q3 : -0.000516644038726, Q4 : -0.00230650790036}
2019-04-14 22:06:09.51: SIM {TimeUS : 53535244, Roll : 0.18, Pitch : -0.15, Yaw : 359.73, Alt : 49.0400009155, Lat : 49.2835703, Lng : -123.1150207, Q1 : 0.99999499321, Q2 : 0.00162265007384, Q3 : -0.00137687043753, Q4 : -0.00233362661675}
2019-04-14 22:06:09.61: SIM {TimeUS : 53635204, Roll : 0.54, Pitch : -0.39, Yaw : 359.72, Alt : 49.0699996948, Lat : 49.2835703, Lng : -123.1150207, Q1 : 0.999979972839, Q2 : 0.00477781845257, Q3 : -0.00342041021213, Q4 : -0.00234928634018}
2019-04-14 22:06:09.71: SIM {TimeUS : 53735164, Roll : 1.15, Pitch : -0.76, Yaw : 359.72, Alt : 49.0900001526, Lat : 49.2835704, Lng : -123.1150206, Q1 : 0.999923825264, Q2 : 0.0100748268887, Q3 : -0.00673141982406, Q4 : -0.00235498929396}
2019-04-14 22:06:09.81: SIM {TimeUS : 53835124, Roll : 1.94, Pitch : -1.28, Yaw : 359.7, Alt : 49.1199989319, Lat : 49.2835704, Lng : -123.1150206, Q1 : 0.999790251255, Q2 : 0.016974048689, Q3 : -0.0112200239673, Q4 : -0.00234366860241}
2019-04-14 22:06:09.91: SIM {TimeUS : 53935084, Roll : 2.81, Pitch : -1.88, Yaw : 359.68, Alt : 49.1399993896, Lat : 49.2835704, Lng : -123.1150205, Q1 : 0.999559104443, Q2 : 0.0245467163622, Q3 : -0.0165452696383, Q4 : -0.00230650650337}
2019-04-14 22:06:10.01: SIM {TimeUS : 54035044, Roll : 3.63, Pitch : -2.48, Yaw : 359.66, Alt : 49.1500015259, Lat : 49.2835706, Lng : -123.1150204, Q1 : 0.999261677265, Q2 : 0.0316090248525, Q3 : -0.0217289943248, Q4 : -0.00221204664558}
2019-04-14 22:06:10.11: SIM {TimeUS : 54135004, Roll : 4.27, Pitch : -2.98, Yaw : 359.65, Alt : 49.1699981689, Lat : 49.2835707, Lng : -123.1150202, Q1 : 0.998963713646, Q2 : 0.0372126623988, Q3 : -0.0261247642338, Q4 : -0.00205938634463}
2019-04-14 22:06:10.21: SIM {TimeUS : 54234964, Roll : 4.75, Pitch : -3.35, Yaw : 359.65, Alt : 49.1800003052, Lat : 49.2835708, Lng : -123.11502, Q1 : 0.998710393906, Q2 : 0.0413602665067, Q3 : -0.0293864943087, Q4 : -0.00183527218178}
2019-04-14 22:06:10.31: SIM {TimeUS : 54334924, Roll : 5.1, Pitch : -3.61, Yaw : 359.66, Alt : 49.1899986267, Lat : 49.2835709, Lng : -123.1150196, Q1 : 0.998510241508, Q2 : 0.0444428883493, Q3 : -0.0316185727715, Q4 : -0.00155194965191}
2019-04-14 22:06:10.41: SIM {TimeUS : 54434884, Roll : 5.39, Pitch : -3.81, Yaw : 359.67, Alt : 49.2000007629, Lat : 49.2835712, Lng : -123.1150191, Q1 : 0.99833881855, Q2 : 0.0469576232135, Q3 : -0.0333627909422, Q4 : -0.00125605333596}
2019-04-14 22:06:10.51: SIM {TimeUS : 54534844, Roll : 5.67, Pitch : -4.0, Yaw : 359.69, Alt : 49.2099990845, Lat : 49.2835715, Lng : -123.1150186, Q1 : 0.998163819313, Q2 : 0.049417860806, Q3 : -0.0350141450763, Q4 : -0.000963170779869}
2019-04-14 22:06:10.61: SIM {TimeUS : 54634804, Roll : 5.98, Pitch : -4.21, Yaw : 359.7, Alt : 49.2200012207, Lat : 49.2835718, Lng : -123.1150179, Q1 : 0.997962355614, Q2 : 0.0521070919931, Q3 : -0.0368179157376, Q4 : -0.000676781521179}
2019-04-14 22:06:10.71: SIM {TimeUS : 54734764, Roll : 6.28, Pitch : -4.43, Yaw : 359.7, Alt : 49.2299995422, Lat : 49.2835721, Lng : -123.1150172, Q1 : 0.997751712799, Q2 : 0.0546899065375, Q3 : -0.0387349762022, Q4 : -0.000424689118518}
2019-04-14 22:06:10.81: SIM {TimeUS : 54834724, Roll : 6.54, Pitch : -4.62, Yaw : 359.71, Alt : 49.2299995422, Lat : 49.2835725, Lng : -123.1150163, Q1 : 0.997559249401, Q2 : 0.0569208338857, Q3 : -0.040442597121, Q4 : -0.000199449321372}
2019-04-14 22:06:10.92: SIM {TimeUS : 54935517, Roll : 6.74, Pitch : -4.77, Yaw : 359.71, Alt : 49.2400016785, Lat : 49.2835729, Lng : -123.1150154, Q1 : 0.997403562069, Q2 : 0.0586968883872, Q3 : -0.0417234748602, Q4 : 8.40605707708e-07}
2019-04-14 22:06:11.01: SIM {TimeUS : 55035477, Roll : 6.87, Pitch : -4.85, Yaw : 359.72, Alt : 49.2400016785, Lat : 49.2835733, Lng : -123.1150143, Q1 : 0.997306168079, Q2 : 0.0598266720772, Q3 : -0.0424403548241, Q4 : 0.000163471646374}
2019-04-14 22:06:11.11: SIM {TimeUS : 55135437, Roll : 6.97, Pitch : -4.91, Yaw : 359.73, Alt : 49.25, Lat : 49.2835739, Lng : -123.1150132, Q1 : 0.997233986855, Q2 : 0.060646250844, Q3 : -0.0429689288139, Q4 : 0.000268255331321}
2019-04-14 22:06:11.21: SIM {TimeUS : 55235397, Roll : 7.06, Pitch : -4.98, Yaw : 359.73, Alt : 49.25, Lat : 49.2835745, Lng : -123.115012, Q1 : 0.997160613537, Q2 : 0.0614342875779, Q3 : -0.043548759073, Q4 : 0.000330071838107}
2019-04-14 22:06:11.31: SIM {TimeUS : 55335357, Roll : 7.29, Pitch : -4.97, Yaw : 359.79, Alt : 49.25, Lat : 49.2835751, Lng : -123.1150106, Q1 : 0.997037887573, Q2 : 0.0634785667062, Q3 : -0.0434153750539, Q4 : 0.00098191970028}
2019-04-14 22:06:11.41: SIM {TimeUS : 55435317, Roll : 7.77, Pitch : -4.79, Yaw : 0.36, Alt : 49.2599983215, Lat : 49.2835758, Lng : -123.1150092, Q1 : 0.996811926365, Q2 : 0.0678428709507, Q3 : -0.0415644943714, Q4 : 0.00598058151081}
2019-04-14 22:06:11.51: SIM {TimeUS : 55535277, Roll : 8.4, Pitch : -4.63, Yaw : 2.1, Alt : 49.2599983215, Lat : 49.2835764, Lng : -123.1150078, Q1 : 0.996273040771, Q2 : 0.0739292725921, Q3 : -0.0390137992799, Q4 : 0.021269781515}
2019-04-14 22:06:11.61: SIM {TimeUS : 55635237, Roll : 8.91, Pitch : -4.84, Yaw : 5.41, Alt : 49.2599983215, Lat : 49.283577, Lng : -123.1150062, Q1 : 0.99481266737, Q2 : 0.0795944780111, Q3 : -0.0384457781911, Q4 : 0.0503433309495}
2019-04-14 22:06:11.71: SIM {TimeUS : 55735197, Roll : 9.09, Pitch : -5.57, Yaw : 10.25, Alt : 49.2599983215, Lat : 49.2835777, Lng : -123.1150045, Q1 : 0.991340100765, Q2 : 0.0832362771034, Q3 : -0.0412297584116, Q4 : 0.0928258150816}
2019-04-14 22:06:11.81: SIM {TimeUS : 55835157, Roll : 8.74, Pitch : -6.77, Yaw : 16.41, Alt : 49.2599983215, Lat : 49.2835786, Lng : -123.1150026, Q1 : 0.984511852264, Q2 : 0.0837450623512, Q3 : -0.047457434237, Q4 : 0.146529853344}
2019-04-14 22:06:11.91: SIM {TimeUS : 55935117, Roll : 7.76, Pitch : -8.27, Yaw : 23.63, Alt : 49.2700004578, Lat : 49.2835793, Lng : -123.1150007, Q1 : 0.973008930683, Q2 : 0.080827228725, Q3 : -0.0566658489406, Q4 : 0.20858964324}
2019-04-14 22:06:12.01: SIM {TimeUS : 56035077, Roll : 6.16, Pitch : -9.86, Yaw : 31.67, Alt : 49.2700004578, Lat : 49.28358, Lng : -123.1149986, Q1 : 0.955827057362, Q2 : 0.0750039666891, Q3 : -0.067991733551, Q4 : 0.275945991278}
2019-04-14 22:06:12.11: SIM {TimeUS : 56135037, Roll : 4.04, Pitch : -11.32, Yaw : 40.26, Alt : 49.2700004578, Lat : 49.2835807, Lng : -123.1149964, Q1 : 0.932546854019, Q2 : 0.0668929740787, Q3 : -0.0805346444249, Q4 : 0.345537126064}
2019-04-14 22:06:12.21: SIM {TimeUS : 56234997, Roll : 1.28, Pitch : -12.45, Yaw : 48.98, Alt : 49.2700004578, Lat : 49.2835817, Lng : -123.1149942, Q1 : 0.904082357883, Q2 : 0.0551096722484, Q3 : -0.0940956249833, Q4 : 0.413211911917}
2019-04-14 22:06:12.31: SIM {TimeUS : 56334957, Roll : -1.91, Pitch : -13.05, Yaw : 57.03, Alt : 49.2700004578, Lat : 49.2835824, Lng : -123.1149918, Q1 : 0.873778820038, Q2 : 0.0396544523537, Q3 : -0.10776694864, Q4 : 0.472572118044}
2019-04-14 22:06:12.41: SIM {TimeUS : 56434917, Roll : -4.92, Pitch : -13.11, Yaw : 63.54, Alt : 49.2700004578, Lat : 49.2835835, Lng : -123.1149893, Q1 : 0.846382319927, Q2 : 0.0237942039967, Q3 : -0.119434006512, Q4 : 0.518465340137}
2019-04-14 22:06:12.51: SIM {TimeUS : 56534877, Roll : -7.12, Pitch : -12.88, Yaw : 68.03, Alt : 49.2700004578, Lat : 49.2835846, Lng : -123.1149868, Q1 : 0.825964927673, Q2 : 0.0114896195009, Q3 : -0.127354413271, Q4 : 0.549027204514}
2019-04-14 22:06:12.61: SIM {TimeUS : 56634837, Roll : -8.24, Pitch : -12.64, Yaw : 70.44, Alt : 49.2700004578, Lat : 49.2835856, Lng : -123.1149842, Q1 : 0.81442540884, Q2 : 0.00496069760993, Q3 : -0.130927368999, Q4 : 0.56528288126}
2019-04-14 22:06:12.71: SIM {TimeUS : 56734797, Roll : -8.31, Pitch : -12.59, Yaw : 71.04, Alt : 49.2700004578, Lat : 49.283587, Lng : -123.1149816, Q1 : 0.81148660183, Q2 : 0.00489373039454, Q3 : -0.130906775594, Q4 : 0.569498896599}
2019-04-14 22:06:12.81: SIM {TimeUS : 56834757, Roll : -7.53, Pitch : -12.82, Yaw : 70.18, Alt : 49.2700004578, Lat : 49.2835884, Lng : -123.114979, Q1 : 0.815576612949, Q2 : 0.0106208669022, Q3 : -0.128726691008, Q4 : 0.564049124718}
2019-04-14 22:06:12.91: SIM {TimeUS : 56934717, Roll : -6.16, Pitch : -13.3, Yaw : 68.23, Alt : 49.2799987793, Lat : 49.2835897, Lng : -123.1149762, Q1 : 0.824635505676, Q2 : 0.0206709299237, Q3 : -0.12574377656, Q4 : 0.551123917103}
2019-04-14 22:06:13.02: SIM {TimeUS : 57035510, Roll : -4.4, Pitch : -13.96, Yaw : 65.49, Alt : 49.2799987793, Lat : 49.2835914, Lng : -123.1149734, Q1 : 0.836710989475, Q2 : 0.0336514189839, Q3 : -0.122827157378, Q4 : 0.532630980015}
2019-04-14 22:06:13.11: SIM {TimeUS : 57135470, Roll : -2.49, Pitch : -14.66, Yaw : 62.34, Alt : 49.2799987793, Lat : 49.2835928, Lng : -123.1149706, Q1 : 0.849839746952, Q2 : 0.0475383475423, Q3 : -0.120337352157, Q4 : 0.510912358761}
2019-04-14 22:06:13.21: SIM {TimeUS : 57235430, Roll : -0.62, Pitch : -15.25, Yaw : 59.07, Alt : 49.2799987793, Lat : 49.2835946, Lng : -123.1149676, Q1 : 0.862683475018, Q2 : 0.0607331730425, Q3 : -0.118174888194, Q4 : 0.487978935242}
2019-04-14 22:06:13.31: SIM {TimeUS : 57335390, Roll : 1.04, Pitch : -15.65, Yaw : 56.0, Alt : 49.2799987793, Lat : 49.2835962, Lng : -123.1149645, Q1 : 0.874071419239, Q2 : 0.0719470903277, Q3 : -0.115995377302, Q4 : 0.466227293015}
2019-04-14 22:06:13.41: SIM {TimeUS : 57435350, Roll : 2.36, Pitch : -15.84, Yaw : 53.45, Alt : 49.2799987793, Lat : 49.2835978, Lng : -123.1149613, Q1 : 0.883170902729, Q2 : 0.0802816897631, Q3 : -0.113904602826, Q4 : 0.447872459888}
2019-04-14 22:06:13.51: SIM {TimeUS : 57535310, Roll : 3.24, Pitch : -15.87, Yaw : 51.61, Alt : 49.2799987793, Lat : 49.2835995, Lng : -123.114958, Q1 : 0.889584064484, Q2 : 0.0853844285011, Q3 : -0.112082593143, Q4 : 0.434496492147}
2019-04-14 22:06:13.61: SIM {TimeUS : 57635270, Roll : 3.64, Pitch : -15.82, Yaw : 50.57, Alt : 49.2799987793, Lat : 49.2836012, Lng : -123.1149545, Q1 : 0.893253982067, Q2 : 0.0872904658318, Q3 : -0.110945820808, Q4 : 0.426812261343}
2019-04-14 22:06:13.71: SIM {TimeUS : 57735230, Roll : 3.59, Pitch : -15.77, Yaw : 50.3, Alt : 49.2799987793, Lat : 49.2836029, Lng : -123.114951, Q1 : 0.89434158802, Q2 : 0.086415708065, Q3 : -0.110910534859, Q4 : 0.424716740847}
2019-04-14 22:06:13.81: SIM {TimeUS : 57835190, Roll : 3.17, Pitch : -15.77, Yaw : 50.71, Alt : 49.2900009155, Lat : 49.2836045, Lng : -123.1149473, Q1 : 0.893150806427, Q2 : 0.0835102275014, Q3 : -0.112189501524, Q4 : 0.427459090948}
2019-04-14 22:06:13.91: SIM {TimeUS : 57935150, Roll : 2.48, Pitch : -15.86, Yaw : 51.62, Alt : 49.2900009155, Lat : 49.2836062, Lng : -123.1149435, Q1 : 0.890109479427, Q2 : 0.0793738514185, Q3 : -0.114837408066, Q4 : 0.433840155602}
2019-04-14 22:06:14.01: SIM {TimeUS : 58035110, Roll : 1.63, Pitch : -16.01, Yaw : 52.85, Alt : 49.2900009155, Lat : 49.283608, Lng : -123.1149396, Q1 : 0.885787189007, Q2 : 0.074635617435, Q3 : -0.118411071599, Q4 : 0.44248098135}
2019-04-14 22:06:14.11: SIM {TimeUS : 58135070, Roll : 0.73, Pitch : -16.18, Yaw : 54.22, Alt : 49.2900009155, Lat : 49.2836097, Lng : -123.1149357, Q1 : 0.880815982819, Q2 : 0.0698354244232, Q3 : -0.122382394969, Q4 : 0.452005267143}
2019-04-14 22:06:14.21: SIM {TimeUS : 58235030, Roll : -0.09, Pitch : -16.31, Yaw : 55.55, Alt : 49.2900009155, Lat : 49.2836114, Lng : -123.1149316, Q1 : 0.87585657835, Q2 : 0.0654363185167, Q3 : -0.125936061144, Q4 : 0.461230367422}
2019-04-14 22:06:14.31: SIM {TimeUS : 58334990, Roll : -0.75, Pitch : -16.39, Yaw : 56.7, Alt : 49.2900009155, Lat : 49.2836132, Lng : -123.1149275, Q1 : 0.871462166309, Q2 : 0.061973027885, Q3 : -0.128590688109, Q4 : 0.469230800867}
2019-04-14 22:06:14.41: SIM {TimeUS : 58434950, Roll : -1.23, Pitch : -16.43, Yaw : 57.58, Alt : 49.2900009155, Lat : 49.283615, Lng : -123.1149234, Q1 : 0.868055701256, Q2 : 0.0595122165978, Q3 : -0.130397245288, Q4 : 0.475325375795}
2019-04-14 22:06:14.51: SIM {TimeUS : 58534910, Roll : -1.47, Pitch : -16.45, Yaw : 58.14, Alt : 49.2900009155, Lat : 49.2836169, Lng : -123.1149192, Q1 : 0.865849256516, Q2 : 0.0583972558379, Q3 : -0.131300017238, Q4 : 0.479223489761}
2019-04-14 22:06:14.61: SIM {TimeUS : 58634870, Roll : -1.49, Pitch : -16.45, Yaw : 58.36, Alt : 49.2900009155, Lat : 49.2836188, Lng : -123.114915, Q1 : 0.864920377731, Q2 : 0.0584832876921, Q3 : -0.13122113049, Q4 : 0.480908989906}
2019-04-14 22:06:14.71: SIM {TimeUS : 58734830, Roll : -1.34, Pitch : -16.44, Yaw : 58.29, Alt : 49.2900009155, Lat : 49.2836207, Lng : -123.1149107, Q1 : 0.865143418312, Q2 : 0.0595167651772, Q3 : -0.130593955517, Q4 : 0.480551570654}
2019-04-14 22:06:14.81: SIM {TimeUS : 58834790, Roll : -1.09, Pitch : -16.47, Yaw : 57.98, Alt : 49.2900009155, Lat : 49.2836226, Lng : -123.1149064, Q1 : 0.866271913052, Q2 : 0.0612019561231, Q3 : -0.129886522889, Q4 : 0.478494286537}
2019-04-14 22:06:14.91: SIM {TimeUS : 58934750, Roll : -0.77, Pitch : -16.53, Yaw : 57.51, Alt : 49.2900009155, Lat : 49.2836245, Lng : -123.114902, Q1 : 0.868007421494, Q2 : 0.0633253231645, Q3 : -0.129230767488, Q4 : 0.475239366293}
2019-04-14 22:06:15.01: SIM {TimeUS : 59034710, Roll : -0.42, Pitch : -16.61, Yaw : 56.95, Alt : 49.2900009155, Lat : 49.2836266, Lng : -123.1148976, Q1 : 0.870038926601, Q2 : 0.0656221210957, Q3 : -0.128746062517, Q4 : 0.471328318119}
2019-04-14 22:06:15.12: SIM {TimeUS : 59135503, Roll : -0.1, Pitch : -16.68, Yaw : 56.37, Alt : 49.2900009155, Lat : 49.2836287, Lng : -123.1148931, Q1 : 0.872132956982, Q2 : 0.0677543804049, Q3 : -0.128272399306, Q4 : 0.467268258333}
2019-04-14 22:06:15.21: SIM {TimeUS : 59235463, Roll : 0.18, Pitch : -16.73, Yaw : 55.85, Alt : 49.2900009155, Lat : 49.2836306, Lng : -123.1148887, Q1 : 0.874018609524, Q2 : 0.069593667984, Q3 : -0.127784222364, Q4 : 0.463593989611}
2019-04-14 22:06:15.31: SIM {TimeUS : 59335423, Roll : 0.42, Pitch : -16.77, Yaw : 55.43, Alt : 49.2900009155, Lat : 49.2836327, Lng : -123.1148841, Q1 : 0.875538110733, Q2 : 0.0710550844669, Q3 : -0.127395525575, Q4 : 0.460602372885}
2019-04-14 22:06:15.41: SIM {TimeUS : 59435383, Roll : 0.58, Pitch : -16.79, Yaw : 55.13, Alt : 49.2900009155, Lat : 49.2836347, Lng : -123.1148795, Q1 : 0.87659573555, Q2 : 0.0720752701163, Q3 : -0.127156719565, Q4 : 0.458493441343}
2019-04-14 22:06:15.51: SIM {TimeUS : 59535343, Roll : 0.66, Pitch : -16.82, Yaw : 54.97, Alt : 49.2900009155, Lat : 49.2836369, Lng : -123.1148749, Q1 : 0.877171039581, Q2 : 0.0726152285933, Q3 : -0.127151474357, Q4 : 0.457307964563}
2019-04-14 22:06:15.61: SIM {TimeUS : 59635303, Roll : 0.66, Pitch : -16.85, Yaw : 54.93, Alt : 49.2900009155, Lat : 49.2836389, Lng : -123.1148703, Q1 : 0.877290308475, Q2 : 0.0726952031255, Q3 : -0.127424404025, Q4 : 0.456990420818}
2019-04-14 22:06:15.71: SIM {TimeUS : 59735263, Roll : 0.58, Pitch : -16.88, Yaw : 55.0, Alt : 49.2900009155, Lat : 49.2836409, Lng : -123.1148655, Q1 : 0.877039253712, Q2 : 0.0722923874855, Q3 : -0.127851098776, Q4 : 0.457416772842}
2019-04-14 22:06:15.81: SIM {TimeUS : 59835223, Roll : 0.46, Pitch : -16.9, Yaw : 55.14, Alt : 49.2900009155, Lat : 49.2836431, Lng : -123.1148608, Q1 : 0.876494586468, Q2 : 0.071608774364, Q3 : -0.12844838202, Q4 : 0.458399891853}
2019-04-14 22:06:15.91: SIM {TimeUS : 59935183, Roll : 0.3, Pitch : -16.94, Yaw : 55.34, Alt : 49.2999992371, Lat : 49.2836451, Lng : -123.1148561, Q1 : 0.875761449337, Q2 : 0.0707815513015, Q3 : -0.129242539406, Q4 : 0.45970454812}
2019-04-14 22:06:16.01: SIM {TimeUS : 60035143, Roll : 0.14, Pitch : -16.99, Yaw : 55.55, Alt : 49.2999992371, Lat : 49.2836473, Lng : -123.1148513, Q1 : 0.874954402447, Q2 : 0.0699715986848, Q3 : -0.130144014955, Q4 : 0.461108803749}
2019-04-14 22:06:16.11: SIM {TimeUS : 60135103, Roll : -0.01, Pitch : -17.03, Yaw : 55.75, Alt : 49.2999992371, Lat : 49.2836493, Lng : -123.1148464, Q1 : 0.874194979668, Q2 : 0.0691225603223, Q3 : -0.131030604243, Q4 : 0.462424248457}
2019-04-14 22:06:16.21: SIM {TimeUS : 60235063, Roll : -0.16, Pitch : -17.07, Yaw : 55.92, Alt : 49.2999992371, Lat : 49.2836516, Lng : -123.1148416, Q1 : 0.87356454134, Q2 : 0.0683699548244, Q3 : -0.131744846702, Q4 : 0.463523298502}
2019-04-14 22:06:16.31: SIM {TimeUS : 60335023, Roll : -0.26, Pitch : -17.1, Yaw : 56.04, Alt : 49.2999992371, Lat : 49.2836536, Lng : -123.1148367, Q1 : 0.873108029366, Q2 : 0.0678216591477, Q3 : -0.132326960564, Q4 : 0.464297473431}
2019-04-14 22:06:16.41: SIM {TimeUS : 60434983, Roll : -0.3, Pitch : -17.12, Yaw : 56.11, Alt : 49.2999992371, Lat : 49.2836559, Lng : -123.1148318, Q1 : 0.872834742069, Q2 : 0.0676997080445, Q3 : -0.132667839527, Q4 : 0.464731633663}
2019-04-14 22:06:16.51: SIM {TimeUS : 60534943, Roll : -0.29, Pitch : -17.15, Yaw : 56.12, Alt : 49.2999992371, Lat : 49.283658, Lng : -123.1148269, Q1 : 0.872752010822, Q2 : 0.0679274648428, Q3 : -0.13282892108, Q4 : 0.464807808399}
2019-04-14 22:06:16.61: SIM {TimeUS : 60634903, Roll : -0.23, Pitch : -17.19, Yaw : 56.08, Alt : 49.2999992371, Lat : 49.2836602, Lng : -123.1148219, Q1 : 0.872837603092, Q2 : 0.0684606656432, Q3 : -0.132868587971, Q4 : 0.464557498693}
2019-04-14 22:06:16.71: SIM {TimeUS : 60734863, Roll : -0.15, Pitch : -17.23, Yaw : 56.0, Alt : 49.2999992371, Lat : 49.2836624, Lng : -123.1148169, Q1 : 0.873051941395, Q2 : 0.0691537186503, Q3 : -0.13292863965, Q4 : 0.46403452754}
2019-04-14 22:06:16.81: SIM {TimeUS : 60834823, Roll : -0.07, Pitch : -17.27, Yaw : 55.9, Alt : 49.2999992371, Lat : 49.2836645, Lng : -123.114812, Q1 : 0.873371839523, Q2 : 0.069809563458, Q3 : -0.132954597473, Q4 : 0.463326394558}
2019-04-14 22:06:16.91: SIM {TimeUS : 60934783, Roll : 0.0, Pitch : -17.29, Yaw : 55.78, Alt : 49.3100013733, Lat : 49.2836669, Lng : -123.114807, Q1 : 0.873767852783, Q2 : 0.0702773630619, Q3 : -0.132913991809, Q4 : 0.462520003319}
2019-04-14 22:06:17.01: SIM {TimeUS : 61034743, Roll : 0.04, Pitch : -17.3, Yaw : 55.67, Alt : 49.3100013733, Lat : 49.2836691, Lng : -123.114802, Q1 : 0.874180078506, Q2 : 0.0706326439977, Q3 : -0.132869854569, Q4 : 0.461698889732}
2019-04-14 22:06:17.11: SIM {TimeUS : 61134703, Roll : 0.1, Pitch : -17.31, Yaw : 55.56, Alt : 49.3100013733, Lat : 49.2836712, Lng : -123.1147968, Q1 : 0.87456291914, Q2 : 0.0709855556488, Q3 : -0.132742956281, Q4 : 0.460955619812}
2019-04-14 22:06:17.22: SIM {TimeUS : 61235496, Roll : 0.15, Pitch : -17.32, Yaw : 55.47, Alt : 49.3100013733, Lat : 49.2836736, Lng : -123.1147918, Q1 : 0.874886870384, Q2 : 0.0712566077709, Q3 : -0.132659941912, Q4 : 0.460322499275}
2019-04-14 22:06:17.31: SIM {TimeUS : 61335456, Roll : 0.19, Pitch : -17.35, Yaw : 55.41, Alt : 49.3100013733, Lat : 49.2836758, Lng : -123.1147868, Q1 : 0.87508970499, Q2 : 0.0716256275773, Q3 : -0.132752120495, Q4 : 0.459852904081}
2019-04-14 22:06:17.41: SIM {TimeUS : 61435416, Roll : 0.22, Pitch : -17.4, Yaw : 55.37, Alt : 49.3100013733, Lat : 49.283678, Lng : -123.1147817, Q1 : 0.875182628632, Q2 : 0.0719764903188, Q3 : -0.133063212037, Q4 : 0.459531247616}
2019-04-14 22:06:17.51: SIM {TimeUS : 61535376, Roll : 0.22, Pitch : -17.43, Yaw : 55.35, Alt : 49.3100013733, Lat : 49.2836803, Lng : -123.1147766, Q1 : 0.87522572279, Q2 : 0.0721133723855, Q3 : -0.133292526007, Q4 : 0.459361165762}
2019-04-14 22:06:17.61: SIM {TimeUS : 61635336, Roll : 0.21, Pitch : -17.43, Yaw : 55.34, Alt : 49.3100013733, Lat : 49.2836826, Lng : -123.1147714, Q1 : 0.875229001045, Q2 : 0.0720816925168, Q3 : -0.133378103375, Q4 : 0.459335118532}
2019-04-14 22:06:17.71: SIM {TimeUS : 61735296, Roll : 0.19, Pitch : -17.44, Yaw : 55.35, Alt : 49.3100013733, Lat : 49.2836849, Lng : -123.1147663, Q1 : 0.875193595886, Q2 : 0.0719499737024, Q3 : -0.133542865515, Q4 : 0.459375351667}
2019-04-14 22:06:17.81: SIM {TimeUS : 61835256, Roll : 0.14, Pitch : -17.47, Yaw : 55.37, Alt : 49.3100013733, Lat : 49.2836871, Lng : -123.1147611, Q1 : 0.87511831522, Q2 : 0.0717019289732, Q3 : -0.133955568075, Q4 : 0.459437400103}
2019-04-14 22:06:17.91: SIM {TimeUS : 61935216, Roll : 0.1, Pitch : -17.5, Yaw : 55.39, Alt : 49.3100013733, Lat : 49.2836895, Lng : -123.114756, Q1 : 0.875032782555, Q2 : 0.0715167969465, Q3 : -0.134297579527, Q4 : 0.45952925086}
2019-04-14 22:06:18.01: SIM {TimeUS : 62035176, Roll : 0.07, Pitch : -17.53, Yaw : 55.41, Alt : 49.3199996948, Lat : 49.2836918, Lng : -123.1147508, Q1 : 0.874938607216, Q2 : 0.0714573264122, Q3 : -0.134652510285, Q4 : 0.459614008665}
2019-04-14 22:06:18.11: SIM {TimeUS : 62135136, Roll : 0.06, Pitch : -17.55, Yaw : 55.42, Alt : 49.3199996948, Lat : 49.2836941, Lng : -123.1147456, Q1 : 0.874866783619, Q2 : 0.0714484527707, Q3 : -0.134886562824, Q4 : 0.459683448076}
2019-04-14 22:06:18.21: SIM {TimeUS : 62235096, Roll : 0.05, Pitch : -17.58, Yaw : 55.43, Alt : 49.3199996948, Lat : 49.2836963, Lng : -123.1147404, Q1 : 0.874825000763, Q2 : 0.0714808925986, Q3 : -0.135075107217, Q4 : 0.459702581167}
2019-04-14 22:06:18.31: SIM {TimeUS : 62335056, Roll : 0.06, Pitch : -17.58, Yaw : 55.43, Alt : 49.3199996948, Lat : 49.2836986, Lng : -123.1147351, Q1 : 0.874822795391, Q2 : 0.0715726241469, Q3 : -0.135079681873, Q4 : 0.459691137075}
2019-04-14 22:06:18.41: SIM {TimeUS : 62435016, Roll : 0.09, Pitch : -17.59, Yaw : 55.42, Alt : 49.3199996948, Lat : 49.283701, Lng : -123.1147299, Q1 : 0.874834239483, Q2 : 0.0718202441931, Q3 : -0.135055989027, Q4 : 0.459637671709}
2019-04-14 22:06:18.51: SIM {TimeUS : 62534976, Roll : 0.12, Pitch : -17.61, Yaw : 55.4, Alt : 49.3199996948, Lat : 49.2837034, Lng : -123.1147247, Q1 : 0.874863386154, Q2 : 0.0721169561148, Q3 : -0.135086730123, Q4 : 0.459526717663}
2019-04-14 22:06:18.61: SIM {TimeUS : 62634936, Roll : 0.13, Pitch : -17.64, Yaw : 55.37, Alt : 49.3199996948, Lat : 49.2837057, Lng : -123.1147194, Q1 : 0.87491697073, Q2 : 0.0722904279828, Q3 : -0.135300308466, Q4 : 0.459334611893}
2019-04-14 22:06:18.71: SIM {TimeUS : 62734896, Roll : 0.12, Pitch : -17.69, Yaw : 55.35, Alt : 49.3199996948, Lat : 49.283708, Lng : -123.1147141, Q1 : 0.874981999397, Q2 : 0.0723706036806, Q3 : -0.135684862733, Q4 : 0.459084540606}
2019-04-14 22:06:18.81: SIM {TimeUS : 62834856, Roll : 0.11, Pitch : -17.74, Yaw : 55.32, Alt : 49.3199996948, Lat : 49.2837103, Lng : -123.1147089, Q1 : 0.875048756599, Q2 : 0.0724628269672, Q3 : -0.136117964983, Q4 : 0.458814531565}
2019-04-14 22:06:18.91: SIM {TimeUS : 62934816, Roll : 0.12, Pitch : -17.77, Yaw : 55.29, Alt : 49.3199996948, Lat : 49.2837126, Lng : -123.1147036, Q1 : 0.875120460987, Q2 : 0.0726663172245, Q3 : -0.13634814322, Q4 : 0.458577156067}
2019-04-14 22:06:19.01: SIM {TimeUS : 63034776, Roll : 0.14, Pitch : -17.78, Yaw : 55.26, Alt : 49.3199996948, Lat : 49.283715, Lng : -123.1146983, Q1 : 0.875220298767, Q2 : 0.0727734789252, Q3 : -0.136359363794, Q4 : 0.458366245031}
2019-04-14 22:06:19.11: SIM {TimeUS : 63134736, Roll : 0.15, Pitch : -17.76, Yaw : 55.23, Alt : 49.3199996948, Lat : 49.2837174, Lng : -123.114693, Q1 : 0.875343799591, Q2 : 0.0727817863226, Q3 : -0.136145621538, Q4 : 0.458192616701}
2019-04-14 22:06:19.21: SIM {TimeUS : 63234696, Roll : 0.15, Pitch : -17.74, Yaw : 55.21, Alt : 49.3199996948, Lat : 49.2837198, Lng : -123.1146876, Q1 : 0.875453531742, Q2 : 0.0726646259427, Q3 : -0.136026337743, Q4 : 0.458036959171}
2019-04-14 22:06:19.31: SIM {TimeUS : 63335489, Roll : 0.15, Pitch : -17.72, Yaw : 55.19, Alt : 49.3199996948, Lat : 49.2837222, Lng : -123.1146823, Q1 : 0.875551521778, Q2 : 0.072525203228, Q3 : -0.13593237102, Q4 : 0.457899540663}
2019-04-14 22:06:19.41: SIM {TimeUS : 63435449, Roll : 0.15, Pitch : -17.7, Yaw : 55.18, Alt : 49.3199996948, Lat : 49.2837246, Lng : -123.1146769, Q1 : 0.875620126724, Q2 : 0.0724378526211, Q3 : -0.135819807649, Q4 : 0.457815647125}
2019-04-14 22:06:19.51: SIM {TimeUS : 63535409, Roll : 0.14, Pitch : -17.71, Yaw : 55.17, Alt : 49.3199996948, Lat : 49.283727, Lng : -123.1146716, Q1 : 0.875643193722, Q2 : 0.0724610313773, Q3 : -0.135891199112, Q4 : 0.457746744156}
2019-04-14 22:06:19.61: SIM {TimeUS : 63635369, Roll : 0.15, Pitch : -17.73, Yaw : 55.16, Alt : 49.3300018311, Lat : 49.2837293, Lng : -123.1146661, Q1 : 0.875644981861, Q2 : 0.0725857242942, Q3 : -0.136012345552, Q4 : 0.457687467337}
2019-04-14 22:06:19.71: SIM {TimeUS : 63735329, Roll : 0.15, Pitch : -17.78, Yaw : 55.16, Alt : 49.3300018311, Lat : 49.2837317, Lng : -123.1146608, Q1 : 0.875613570213, Q2 : 0.0727453157306, Q3 : -0.136388137937, Q4 : 0.457610487938}
2019-04-14 22:06:19.81: SIM {TimeUS : 63835289, Roll : 0.15, Pitch : -17.83, Yaw : 55.15, Alt : 49.3300018311, Lat : 49.283734, Lng : -123.1146554, Q1 : 0.87557387352, Q2 : 0.0729240477085, Q3 : -0.136821404099, Q4 : 0.457528591156}
2019-04-14 22:06:19.91: SIM {TimeUS : 63935249, Roll : 0.15, Pitch : -17.87, Yaw : 55.14, Alt : 49.3300018311, Lat : 49.2837364, Lng : -123.1146501, Q1 : 0.875548303127, Q2 : 0.0730953961611, Q3 : -0.137128308415, Q4 : 0.457458287477}
2019-04-14 22:06:20.01: SIM {TimeUS : 64035209, Roll : 0.14, Pitch : -17.91, Yaw : 55.14, Alt : 49.3300018311, Lat : 49.2837388, Lng : -123.1146447, Q1 : 0.875537931919, Q2 : 0.0731708109379, Q3 : -0.137432962656, Q4 : 0.457374572754}
2019-04-14 22:06:20.11: SIM {TimeUS : 64135169, Roll : 0.13, Pitch : -17.93, Yaw : 55.13, Alt : 49.3300018311, Lat : 49.2837412, Lng : -123.1146393, Q1 : 0.875550210476, Q2 : 0.073168322444, Q3 : -0.137651234865, Q4 : 0.457285881042}
2019-04-14 22:06:20.21: SIM {TimeUS : 64235129, Roll : 0.13, Pitch : -17.93, Yaw : 55.12, Alt : 49.3300018311, Lat : 49.2837436, Lng : -123.1146339, Q1 : 0.875590622425, Q2 : 0.0731805115938, Q3 : -0.137600362301, Q4 : 0.457221865654}
2019-04-14 22:06:20.31: SIM {TimeUS : 64335089, Roll : 0.15, Pitch : -17.93, Yaw : 55.11, Alt : 49.3300018311, Lat : 49.283746, Lng : -123.1146285, Q1 : 0.875628769398, Q2 : 0.0732979401946, Q3 : -0.137576758862, Q4 : 0.457137018442}
2019-04-14 22:06:20.41: SIM {TimeUS : 64435049, Roll : 0.15, Pitch : -17.94, Yaw : 55.09, Alt : 49.3300018311, Lat : 49.2837484, Lng : -123.114623, Q1 : 0.875667989254, Q2 : 0.0733512118459, Q3 : -0.13767939806, Q4 : 0.457022547722}
2019-04-14 22:06:20.51: SIM {TimeUS : 64535009, Roll : 0.16, Pitch : -17.95, Yaw : 55.08, Alt : 49.3300018311, Lat : 49.2837509, Lng : -123.1146176, Q1 : 0.875714480877, Q2 : 0.0734052211046, Q3 : -0.137695655227, Q4 : 0.456919819117}
2019-04-14 22:06:20.61: SIM {TimeUS : 64634969, Roll : 0.18, Pitch : -17.94, Yaw : 55.06, Alt : 49.3300018311, Lat : 49.2837533, Lng : -123.1146122, Q1 : 0.875768780708, Q2 : 0.0734957382083, Q3 : -0.137591123581, Q4 : 0.456832736731}
2019-04-14 22:06:20.71: SIM {TimeUS : 64734929, Roll : 0.19, Pitch : -17.94, Yaw : 55.05, Alt : 49.3300018311, Lat : 49.2837557, Lng : -123.1146068, Q1 : 0.875822901726, Q2 : 0.0735831856728, Q3 : -0.137480080128, Q4 : 0.456748366356}
2019-04-14 22:06:20.81: SIM {TimeUS : 64834889, Roll : 0.19, Pitch : -17.95, Yaw : 55.04, Alt : 49.3300018311, Lat : 49.2837582, Lng : -123.1146013, Q1 : 0.875862240791, Q2 : 0.0735725462437, Q3 : -0.137631252408, Q4 : 0.456629127264}
2019-04-14 22:06:20.91: SIM {TimeUS : 64934849, Roll : 0.16, Pitch : -17.99, Yaw : 55.02, Alt : 49.3300018311, Lat : 49.2837606, Lng : -123.1145959, Q1 : 0.875881373882, Q2 : 0.0735121667385, Q3 : -0.138029038906, Q4 : 0.456481993198}
2019-04-14 22:06:21.01: SIM {TimeUS : 65034809, Roll : 0.14, Pitch : -18.0, Yaw : 55.01, Alt : 49.3300018311, Lat : 49.283763, Lng : -123.1145904, Q1 : 0.875920772552, Q2 : 0.0734042823315, Q3 : -0.138160735369, Q4 : 0.456383883953}
2019-04-14 22:06:21.11: SIM {TimeUS : 65134769, Roll : 0.15, Pitch : -17.99, Yaw : 55.0, Alt : 49.3400001526, Lat : 49.2837655, Lng : -123.1145849, Q1 : 0.875964164734, Q2 : 0.0733887031674, Q3 : -0.138072609901, Q4 : 0.456329792738}
2019-04-14 22:06:21.21: SIM {TimeUS : 65234729, Roll : 0.16, Pitch : -17.98, Yaw : 55.0, Alt : 49.3400001526, Lat : 49.2837679, Lng : -123.1145795, Q1 : 0.875996112823, Q2 : 0.073456928134, Q3 : -0.137969598174, Q4 : 0.456288725138}
2019-04-14 22:06:21.32: SIM {TimeUS : 65335522, Roll : 0.17, Pitch : -17.99, Yaw : 54.99, Alt : 49.3400001526, Lat : 49.2837703, Lng : -123.1145739, Q1 : 0.876015841961, Q2 : 0.0735466256738, Q3 : -0.137998908758, Q4 : 0.456227451563}
2019-04-14 22:06:21.41: SIM {TimeUS : 65435482, Roll : 0.16, Pitch : -18.0, Yaw : 54.98, Alt : 49.3400001526, Lat : 49.2837728, Lng : -123.1145685, Q1 : 0.8760420084, Q2 : 0.0734894797206, Q3 : -0.138154581189, Q4 : 0.456139206886}
2019-04-14 22:06:21.51: SIM {TimeUS : 65535442, Roll : 0.13, Pitch : -18.02, Yaw : 54.97, Alt : 49.3400001526, Lat : 49.2837752, Lng : -123.114563, Q1 : 0.87606805563, Q2 : 0.0733591169119, Q3 : -0.138383939862, Q4 : 0.456040620804}
2019-04-14 22:06:21.61: SIM {TimeUS : 65635402, Roll : 0.12, Pitch : -18.03, Yaw : 54.96, Alt : 49.3400001526, Lat : 49.2837776, Lng : -123.1145575, Q1 : 0.876090288162, Q2 : 0.0733308047056, Q3 : -0.138558462262, Q4 : 0.455949574709}
2019-04-14 22:06:21.71: SIM {TimeUS : 65735362, Roll : 0.13, Pitch : -18.05, Yaw : 54.95, Alt : 49.3400001526, Lat : 49.2837801, Lng : -123.114552, Q1 : 0.876103878021, Q2 : 0.0734654441476, Q3 : -0.138652294874, Q4 : 0.455873280764}
2019-04-14 22:06:21.81: SIM {TimeUS : 65835322, Roll : 0.15, Pitch : -18.07, Yaw : 54.94, Alt : 49.3400001526, Lat : 49.2837825, Lng : -123.1145465, Q1 : 0.876116394997, Q2 : 0.0736216455698, Q3 : -0.138723433018, Q4 : 0.455802291632}
2019-04-14 22:06:21.91: SIM {TimeUS : 65935282, Roll : 0.17, Pitch : -18.08, Yaw : 54.93, Alt : 49.3400001526, Lat : 49.283785, Lng : -123.114541, Q1 : 0.876121103764, Q2 : 0.0738460868597, Q3 : -0.138790398836, Q4 : 0.455736577511}
2019-04-14 22:06:22.01: SIM {TimeUS : 66035242, Roll : 0.18, Pitch : -18.11, Yaw : 54.92, Alt : 49.3400001526, Lat : 49.2837874, Lng : -123.1145355, Q1 : 0.876123785973, Q2 : 0.0740367695689, Q3 : -0.138919249177, Q4 : 0.455661177635}
2019-04-14 22:06:22.11: SIM {TimeUS : 66135202, Roll : 0.2, Pitch : -18.13, Yaw : 54.91, Alt : 49.3400001526, Lat : 49.2837899, Lng : -123.1145299, Q1 : 0.876124560833, Q2 : 0.0742341801524, Q3 : -0.139053940773, Q4 : 0.455586522818}
2019-04-14 22:06:22.21: SIM {TimeUS : 66235162, Roll : 0.22, Pitch : -18.15, Yaw : 54.9, Alt : 49.3400001526, Lat : 49.2837924, Lng : -123.1145244, Q1 : 0.8761267066, Q2 : 0.0744457170367, Q3 : -0.139097332954, Q4 : 0.455534607172}
