2019-04-14 23:48:21.70: SIM {TimeUS : 40716207, Roll : 0.0, Pitch : 0.0, Yaw : 0.0, Alt : 30.1000003815, Lat : 49.28357, Lng : -123.11502, Q1 : 1.0, Q2 : 0.0, Q3 : 0.0, Q4 : 0.0}
2019-04-14 23:48:21.81: SIM {TimeUS : 40835326, Roll : 0.0, Pitch : 0.0, Yaw : 0.0, Alt : 30.1000003815, Lat : 49.28357, Lng : -123.11502, Q1 : 1.0, Q2 : 0.0, Q3 : 0.0, Q4 : 0.0}
2019-04-14 23:48:21.91: SIM {TimeUS : 40935286, Roll : 0.0, Pitch : 0.0, Yaw : 0.0, Alt : 30.1000003815, Lat : 49.28357, Lng : -123.11502, Q1 : 1.0, Q2 : 0.0, Q3 : 0.0, Q4 : 0.0}
2019-04-14 23:48:22.01: SIM {TimeUS : 41035246, Roll : 0.0, Pitch : 0.0, Yaw : 0.0, Alt : 30.1000003815, Lat : 49.28357, Lng : -123.11502, Q1 : 1.0, Q2 : 0.0, Q3 : 0.0, Q4 : 0.0}
2019-04-14 23:48:22.11: SIM {TimeUS : 41135206, Roll : 0.0, Pitch : 0.0, Yaw : 0.0, Alt : 30.1000003815, Lat : 49.28357, Lng : -123.11502, Q1 : 1.0, Q2 : 0.0, Q3 : 0.0, Q4 : 0.0}
2019-04-14 23:48:22.21: SIM {TimeUS : 41235166, Roll : 0.0, Pitch : 0.0, Yaw : 0.0, Alt : 30.1000003815, Lat : 49.28357, Lng : -123.11502, Q1 : 1.0, Q2 : 0.0, Q3 : 0.0, Q4 : 0.0}
2019-04-14 23:48:22.31: SIM {TimeUS : 41335126, Roll : 0.0, Pitch : 0.0, Yaw : 0.0, Alt : 30.1000003815, Lat : 49.28357, Lng : -123.11502, Q1 : 1.0, Q2 : 0.0, Q3 : 0.0, Q4 : 0.0}
2019-04-14 23:48:22.41: SIM {TimeUS : 41435086, Roll : 0.0, Pitch : 0.0, Yaw : 0.0, Alt : 30.1000003815, Lat : 49.28357, Lng : -123.11502, Q1 : 1.0, Q2 : 0.0, Q3 : 0.0, Q4 : 0.0}
2019-04-14 23:48:22.51: SIM {TimeUS : 41535046, Roll : 0.0, Pitch : 0.0, Yaw : 0.0, Alt : 30.1000003815, Lat : 49.28357, Lng : -123.11502, Q1 : 1.0, Q2 : 0.0, Q3 : 0.0, Q4 : 0.0}
2019-04-14 23:48:22.61: SIM {TimeUS : 41635006, Roll : 0.0, Pitch : 0.0, Yaw : 0.0, Alt : 30.1000003815, Lat : 49.28357, Lng : -123.11502, Q1 : 1.0, Q2 : 0.0, Q3 : 0.0, Q4 : 0.0}
2019-04-14 23:48:22.71: SIM {TimeUS : 41734966, Roll : 0.0, Pitch : 0.0, Yaw : 0.0, Alt : 30.1000003815, Lat : 49.28357, Lng : -123.11502, Q1 : 1.0, Q2 : 0.0, Q3 : 0.0, Q4 : 0.0}
2019-04-14 23:48:22.81: SIM {TimeUS : 41834926, Roll : 0.0, Pitch : 0.0, Yaw : 0.0, Alt : 30.1000003815, Lat : 49.28357, Lng : -123.11502, Q1 : 1.0, Q2 : 0.0, Q3 : 0.0, Q4 : 0.0}
2019-04-14 23:48:22.91: SIM {TimeUS : 41934886, Roll : 0.0, Pitch : 0.0, Yaw : 0.0, Alt : 30.1000003815, Lat : 49.28357, Lng : -123.11502, Q1 : 1.0, Q2 : 0.0, Q3 : 0.0, Q4 : 0.0}
2019-04-14 23:48:23.01: SIM {TimeUS : 42034846, Roll : 0.0, Pitch : 0.0, Yaw : 0.0, Alt : 30.1000003815, Lat : 49.28357, Lng : -123.11502, Q1 : 1.0, Q2 : 0.0, Q3 : 0.0, Q4 : 0.0}
2019-04-14 23:48:23.11: SIM {TimeUS : 42134806, Roll : 0.0, Pitch : 0.0, Yaw : 0.0, Alt : 30.1000003815, Lat : 49.28357, Lng : -123.11502, Q1 : 1.0, Q2 : 0.0, Q3 : 0.0, Q4 : 0.0}
2019-04-14 23:48:23.21: SIM {TimeUS : 42234766, Roll : 0.0, Pitch : 0.0, Yaw : 0.0, Alt : 30.1000003815, Lat : 49.28357, Lng : -123.11502, Q1 : 1.0, Q2 : 0.0, Q3 : 0.0, Q4 : 0.0}
2019-04-14 23:48:23.31: SIM {TimeUS : 42334726, Roll : 0.0, Pitch : 0.0, Yaw : 0.0, Alt : 30.1000003815, Lat : 49.28357, Lng : -123.11502, Q1 : 1.0, Q2 : 0.0, Q3 : 0.0, Q4 : 0.0}
2019-04-14 23:48:23.41: SIM {TimeUS : 42434686, Roll : 0.0, Pitch : 0.0, Yaw : 0.0, Alt : 30.1000003815, Lat : 49.28357, Lng : -123.11502, Q1 : 1.0, Q2 : 0.0, Q3 : 0.0, Q4 : 0.0}
2019-04-14 23:48:23.51: SIM {TimeUS : 42534646, Roll : 0.0, Pitch : 0.0, Yaw : 0.0, Alt : 30.1000003815, Lat : 49.28357, Lng : -123.11502, Q1 : 1.0, Q2 : 0.0, Q3 : 0.0, Q4 : 0.0}
2019-04-14 23:48:23.61: SIM {TimeUS : 42634606, Roll : 0.0, Pitch : 0.0, Yaw : 0.0, Alt : 30.1000003815, Lat : 49.28357, Lng : -123.11502, Q1 : 1.0, Q2 : 0.0, Q3 : 0.0, Q4 : 0.0}
2019-04-14 23:48:23.71: SIM {TimeUS : 42734566, Roll : 0.0, Pitch : 0.0, Yaw : 0.0, Alt : 30.1000003815, Lat : 49.28357, Lng : -123.11502, Q1 : 1.0, Q2 : 0.0, Q3 : 0.0, Q4 : 0.0}
2019-04-14 23:48:23.82: SIM {TimeUS : 42835359, Roll : 0.0, Pitch : 0.0, Yaw : 0.0, Alt : 30.1000003815, Lat : 49.28357, Lng : -123.11502, Q1 : 1.0, Q2 : 0.0, Q3 : 0.0, Q4 : 0.0}
2019-04-14 23:48:23.91: SIM {TimeUS : 42935319, Roll : 0.0, Pitch : 0.0, Yaw : 0.0, Alt : 30.1000003815, Lat : 49.28357, Lng : -123.11502, Q1 : 1.0, Q2 : 0.0, Q3 : 0.0, Q4 : 0.0}
2019-04-14 23:48:24.01: SIM {TimeUS : 43035279, Roll : 0.0, Pitch : 0.0, Yaw : 360.0, Alt : 30.1000003815, Lat : 49.28357, Lng : -123.11502, Q1 : 1.0, Q2 : 0.0, Q3 : 0.0, Q4 : -7.94657811776e-11}
2019-04-14 23:48:24.11: SIM {TimeUS : 43135239, Roll : 0.0, Pitch : 0.0, Yaw : 360.0, Alt : 30.1000003815, Lat : 49.28357, Lng : -123.11502, Q1 : 1.0, Q2 : 0.0, Q3 : 0.0, Q4 : -2.43134365974e-08}
2019-04-14 23:48:24.21: SIM {TimeUS : 43235199, Roll : 0.0, Pitch : 0.0, Yaw : 359.99, Alt : 30.1000003815, Lat : 49.28357, Lng : -123.11502, Q1 : 1.0, Q2 : 0.0, Q3 : 0.0, Q4 : -1.93475401034e-07}
2019-04-14 23:48:24.31: SIM {TimeUS : 43335159, Roll : 0.0, Pitch : 0.0, Yaw : 359.99, Alt : 30.1000003815, Lat : 49.28357, Lng : -123.11502, Q1 : 1.0, Q2 : 0.0, Q3 : 0.0, Q4 : -3.62160903933e-07}
2019-04-14 23:48:24.41: SIM {TimeUS : 43435119, Roll : 0.0, Pitch : 0.0, Yaw : 359.99, Alt : 30.1000003815, Lat : 49.28357, Lng : -123.11502, Q1 : 1.0, Q2 : 0.0, Q3 : 0.0, Q4 : -5.20060325471e-07}
2019-04-14 23:48:24.51: SIM {TimeUS : 43535079, Roll : 0.0, Pitch : 0.0, Yaw : 359.99, Alt : 30.1000003815, Lat : 49.28357, Lng : -123.11502, Q1 : 1.0, Q2 : 0.0, Q3 : 0.0, Q4 : -6.84621340952e-07}
2019-04-14 23:48:24.61: SIM {TimeUS : 43635039, Roll : 0.0, Pitch : 0.0, Yaw : 359.99, Alt : 30.1000003815, Lat : 49.28357, Lng : -123.11502, Q1 : 1.0, Q2 : 0.0, Q3 : 0.0, Q4 : -8.94807385521e-07}
2019-04-14 23:48:24.71: SIM {TimeUS : 43734999, Roll : 0.0, Pitch : 0.0, Yaw : 359.99, Alt : 30.1000003815, Lat : 49.28357, Lng : -123.11502, Q1 : 1.0, Q2 : 0.0, Q3 : 0.0, Q4 : -1.07495054635e-06}
2019-04-14 23:48:24.81: SIM {TimeUS : 43834959, Roll : 0.0, Pitch : 0.0, Yaw : 359.99, Alt : 30.1000003815, Lat : 49.28357, Lng : -123.11502, Q1 : 1.0, Q2 : 0.0, Q3 : 0.0, Q4 : -1.23488803183e-06}
2019-04-14 23:48:24.91: SIM {TimeUS : 43934919, Roll : 0.0, Pitch : 0.0, Yaw : 359.99, Alt : 30.1200008392, Lat : 49.28357, Lng : -123.11502, Q1 : 1.0, Q2 : 0.0, Q3 : 0.0, Q4 : -1.45125329709e-06}
2019-04-14 23:48:25.01: SIM {TimeUS : 44034879, Roll : 0.0, Pitch : 0.0, Yaw : 359.99, Alt : 30.1499996185, Lat : 49.28357, Lng : -123.11502, Q1 : 1.0, Q2 : 0.0, Q3 : 0.0, Q4 : -1.69986276433e-06}
2019-04-14 23:48:25.11: SIM {TimeUS : 44134839, Roll : 0.0, Pitch : 0.0, Yaw : 359.99, Alt : 30.1800003052, Lat : 49.28357, Lng : -123.11502, Q1 : 1.0, Q2 : 0.0, Q3 : 0.0, Q4 : -1.88965884718e-06}
2019-04-14 23:48:25.21: SIM {TimeUS : 44234799, Roll : 0.0, Pitch : 0.0, Yaw : 359.99, Alt : 30.2099990845, Lat : 49.28357, Lng : -123.11502, Q1 : 1.0, Q2 : -9.88306965155e-06, Q3 : -8.67528251547e-06, Q4 : -2.17242404688e-06}
2019-04-14 23:48:25.31: SIM {TimeUS : 44334759, Roll : -0.18, Pitch : -0.16, Yaw : 359.99, Alt : 30.2700004578, Lat : 49.28357, Lng : -123.11502, Q1 : 0.999997735023, Q2 : -0.00159865187015, Q3 : -0.00142830610275, Q4 : -1.79713315447e-05}
2019-04-14 23:48:25.41: SIM {TimeUS : 44434719, Roll : -0.46, Pitch : -0.45, Yaw : 359.99, Alt : 30.3899993896, Lat : 49.28357, Lng : -123.11502, Q1 : 0.999983727932, Q2 : -0.0040788743645, Q3 : -0.00399324949831, Q4 : -6.06446192251e-05}
2019-04-14 23:48:25.51: SIM {TimeUS : 44534679, Roll : -0.69, Pitch : -0.69, Yaw : 359.98, Alt : 30.5400009155, Lat : 49.28357, Lng : -123.11502, Q1 : 0.999963104725, Q2 : -0.00609734328464, Q3 : -0.0060476004146, Q4 : -0.00012724615226}
2019-04-14 23:48:25.61: SIM {TimeUS : 44634639, Roll : -0.81, Pitch : -0.78, Yaw : 359.98, Alt : 30.7000007629, Lat : 49.28357, Lng : -123.11502, Q1 : 0.999951541424, Q2 : -0.00708564231172, Q3 : -0.00683166272938, Q4 : -0.000209430305404}
2019-04-14 23:48:25.71: SIM {TimeUS : 44734599, Roll : -0.77, Pitch : -0.72, Yaw : 359.97, Alt : 30.8500003815, Lat : 49.28357, Lng : -123.1150201, Q1 : 0.99995714426, Q2 : -0.00674852868542, Q3 : -0.00633217114955, Q4 : -0.000292879733024}
2019-04-14 23:48:25.81: SIM {TimeUS : 44834559, Roll : -0.62, Pitch : -0.57, Yaw : 359.96, Alt : 31.0100002289, Lat : 49.28357, Lng : -123.1150201, Q1 : 0.999972760677, Q2 : -0.00542740011588, Q3 : -0.00499007850885, Q4 : -0.000365982414223}
2019-04-14 23:48:25.92: SIM {TimeUS : 44935352, Roll : -0.4, Pitch : -0.36, Yaw : 359.95, Alt : 31.1599998474, Lat : 49.2835701, Lng : -123.1150202, Q1 : 0.999988377094, Q2 : -0.00356472330168, Q3 : -0.0032273044344, Q4 : -0.000426906975918}
2019-04-14 23:48:26.01: SIM {TimeUS : 45035312, Roll : -0.18, Pitch : -0.18, Yaw : 359.94, Alt : 31.3299999237, Lat : 49.2835701, Lng : -123.1150203, Q1 : 0.999997258186, Q2 : -0.00165168230888, Q3 : -0.00160260533448, Q4 : -0.000469404069008}
2019-04-14 23:48:26.11: SIM {TimeUS : 45135272, Roll : -0.01, Pitch : -0.04, Yaw : 359.94, Alt : 31.4899997711, Lat : 49.2835702, Lng : -123.1150204, Q1 : 0.999999761581, Q2 : -0.000137020804686, Q3 : -0.000386084284401, Q4 : -0.000494757317938}
2019-04-14 23:48:26.21: SIM {TimeUS : 45235232, Roll : 0.08, Pitch : 0.04, Yaw : 359.94, Alt : 31.6700000763, Lat : 49.2835702, Lng : -123.1150204, Q1 : 0.999999523163, Q2 : 0.000703547731973, Q3 : 0.000387587060686, Q4 : -0.000508675759193}
2019-04-14 23:48:26.31: SIM {TimeUS : 45335192, Roll : 0.1, Pitch : 0.07, Yaw : 359.94, Alt : 31.8500003815, Lat : 49.2835703, Lng : -123.1150205, Q1 : 0.999999165535, Q2 : 0.000957797747105, Q3 : 0.000689740816597, Q4 : -0.000517059816048}
2019-04-14 23:48:26.41: SIM {TimeUS : 45435152, Roll : 0.08, Pitch : 0.08, Yaw : 359.94, Alt : 32.0299987793, Lat : 49.2835703, Lng : -123.1150206, Q1 : 0.999999284744, Q2 : 0.000770512560848, Q3 : 0.000728023005649, Q4 : -0.000520737958141}
2019-04-14 23:48:26.51: SIM {TimeUS : 45535112, Roll : 0.06, Pitch : 0.09, Yaw : 359.94, Alt : 32.2200012207, Lat : 49.2835703, Lng : -123.1150206, Q1 : 0.999999344349, Q2 : 0.000598802871536, Q3 : 0.000823661044706, Q4 : -0.000515175401233}
2019-04-14 23:48:26.61: SIM {TimeUS : 45635072, Roll : 0.07, Pitch : 0.1, Yaw : 359.94, Alt : 32.4099998474, Lat : 49.2835703, Lng : -123.1150207, Q1 : 0.99999922514, Q2 : 0.000617685262114, Q3 : 0.000946937885601, Q4 : -0.000504852796439}
2019-04-14 23:48:26.71: SIM {TimeUS : 45735032, Roll : 0.08, Pitch : 0.12, Yaw : 359.94, Alt : 32.5999984741, Lat : 49.2835703, Lng : -123.1150207, Q1 : 0.999998986721, Q2 : 0.000771663559135, Q3 : 0.00111866206862, Q4 : -0.000483323674416}
2019-04-14 23:48:26.81: SIM {TimeUS : 45834992, Roll : 0.1, Pitch : 0.15, Yaw : 359.94, Alt : 32.7999992371, Lat : 49.2835704, Lng : -123.1150207, Q1 : 0.999998569489, Q2 : 0.000887703790795, Q3 : 0.00135038106237, Q4 : -0.000453745014966}
2019-04-14 23:48:26.91: SIM {TimeUS : 45934952, Roll : 0.11, Pitch : 0.15, Yaw : 359.95, Alt : 33.0, Lat : 49.2835704, Lng : -123.1150208, Q1 : 0.999998390675, Q2 : 0.00102231791243, Q3 : 0.00139375019353, Q4 : -0.000424791942351}
2019-04-14 23:48:27.01: SIM {TimeUS : 46034912, Roll : 0.13, Pitch : 0.15, Yaw : 359.95, Alt : 33.2000007629, Lat : 49.2835704, Lng : -123.1150208, Q1 : 0.99999833107, Q2 : 0.00115604221355, Q3 : 0.0013361753663, Q4 : -0.000403006299166}
2019-04-14 23:48:27.11: SIM {TimeUS : 46134872, Roll : 0.14, Pitch : 0.14, Yaw : 359.95, Alt : 33.4000015259, Lat : 49.2835704, Lng : -123.1150208, Q1 : 0.99999833107, Q2 : 0.00128588569351, Q3 : 0.0012572639389, Q4 : -0.000387230538763}
2019-04-14 23:48:27.21: SIM {TimeUS : 46234832, Roll : 0.15, Pitch : 0.13, Yaw : 359.95, Alt : 33.6100006104, Lat : 49.2835704, Lng : -123.1150208, Q1 : 0.99999833107, Q2 : 0.00131263502408, Q3 : 0.00121441797819, Q4 : -0.000377558055334}
2019-04-14 23:48:27.31: SIM {TimeUS : 46334792, Roll : 0.15, Pitch : 0.13, Yaw : 359.95, Alt : 33.8100013733, Lat : 49.2835704, Lng : -123.1150208, Q1 : 0.999998271465, Q2 : 0.00135815981776, Q3 : 0.00120720232371, Q4 : -0.000377925753128}
2019-04-14 23:48:27.41: SIM {TimeUS : 46434752, Roll : 0.15, Pitch : 0.12, Yaw : 359.95, Alt : 34.0200004578, Lat : 49.2835704, Lng : -123.1150208, Q1 : 0.999998390675, Q2 : 0.00134067493491, Q3 : 0.00113138393499, Q4 : -0.000384077662602}
2019-04-14 23:48:27.51: SIM {TimeUS : 46534712, Roll : 0.14, Pitch : 0.11, Yaw : 359.95, Alt : 34.2299995422, Lat : 49.2835704, Lng : -123.1150208, Q1 : 0.999998688698, Q2 : 0.00122813484631, Q3 : 0.000999099109322, Q4 : -0.00039998133434}
2019-04-14 23:48:27.61: SIM {TimeUS : 46634672, Roll : 0.12, Pitch : 0.1, Yaw : 359.95, Alt : 34.4500007629, Lat : 49.2835704, Lng : -123.1150208, Q1 : 0.999998927116, Q2 : 0.00105309183709, Q3 : 0.000910333998036, Q4 : -0.000423364283051}
2019-04-14 23:48:27.71: SIM {TimeUS : 46734632, Roll : 0.09, Pitch : 0.09, Yaw : 359.94, Alt : 34.6599998474, Lat : 49.2835704, Lng : -123.1150208, Q1 : 0.999999165535, Q2 : 0.000826682080515, Q3 : 0.000855322752614, Q4 : -0.000458329712274}
2019-04-14 23:48:27.81: SIM {TimeUS : 46834592, Roll : 0.07, Pitch : 0.06, Yaw : 359.94, Alt : 34.8699989319, Lat : 49.2835704, Lng : -123.1150208, Q1 : 0.999999463558, Q2 : 0.000667752756272, Q3 : 0.000573139288463, Q4 : -0.000504756288137}
2019-04-14 23:48:27.91: SIM {TimeUS : 46934552, Roll : 0.06, Pitch : 0.03, Yaw : 359.93, Alt : 35.0900001526, Lat : 49.2835704, Lng : -123.1150208, Q1 : 0.999999642372, Q2 : 0.000556748302188, Q3 : 0.000318250589771, Q4 : -0.000558135681786}
2019-04-14 23:48:28.02: SIM {TimeUS : 47035345, Roll : 0.03, Pitch : 0.02, Yaw : 359.92, Alt : 35.3100013733, Lat : 49.2835704, Lng : -123.1150208, Q1 : 0.999999761581, Q2 : 0.000300602288917, Q3 : 0.000179380193003, Q4 : -0.000611438474152}
2019-04-14 23:48:28.11: SIM {TimeUS : 47135305, Roll : 0.02, Pitch : 0.01, Yaw : 359.92, Alt : 35.5299987793, Lat : 49.2835704, Lng : -123.1150208, Q1 : 0.999999761581, Q2 : 0.000180183269549, Q3 : 0.000141311116749, Q4 : -0.000659680226818}
2019-04-14 23:48:28.21: SIM {TimeUS : 47235265, Roll : 0.02, Pitch : 0.01, Yaw : 359.91, Alt : 35.7400016785, Lat : 49.2835704, Lng : -123.1150208, Q1 : 0.999999761581, Q2 : 0.00018151041877, Q3 : 0.000113134912681, Q4 : -0.000707458995748}
2019-04-14 23:48:28.31: SIM {TimeUS : 47335225, Roll : 0.0, Pitch : -0.01, Yaw : 359.91, Alt : 35.9599990845, Lat : 49.2835704, Lng : -123.1150207, Q1 : 0.999999701977, Q2 : 5.29435783392e-05, Q3 : -0.000108094784082, Q4 : -0.000748315593228}
2019-04-14 23:48:28.41: SIM {TimeUS : 47435185, Roll : -0.02, Pitch : -0.05, Yaw : 359.91, Alt : 36.1899986267, Lat : 49.2835704, Lng : -123.1150207, Q1 : 0.999999582767, Q2 : -0.000183796786587, Q3 : -0.000450810504844, Q4 : -0.000777735374868}
2019-04-14 23:48:28.51: SIM {TimeUS : 47535145, Roll : -0.05, Pitch : -0.07, Yaw : 359.9, Alt : 36.4099998474, Lat : 49.2835704, Lng : -123.1150207, Q1 : 0.999999344349, Q2 : -0.000481548690004, Q3 : -0.000630076683592, Q4 : -0.000798238499556}
2019-04-14 23:48:28.61: SIM {TimeUS : 47635105, Roll : -0.08, Pitch : -0.08, Yaw : 359.9, Alt : 36.6300010681, Lat : 49.2835704, Lng : -123.1150207, Q1 : 0.99999910593, Q2 : -0.00076746015111, Q3 : -0.00075071665924, Q4 : -0.000816611282062}
2019-04-14 23:48:28.71: SIM {TimeUS : 47735065, Roll : -0.09, Pitch : -0.08, Yaw : 359.9, Alt : 36.8499984741, Lat : 49.2835704, Lng : -123.1150207, Q1 : 0.999999046326, Q2 : -0.000828247750178, Q3 : -0.000740295567084, Q4 : -0.000830653938465}
2019-04-14 23:48:28.81: SIM {TimeUS : 47835025, Roll : -0.08, Pitch : -0.07, Yaw : 359.9, Alt : 37.0800018311, Lat : 49.2835704, Lng : -123.1150207, Q1 : 0.999999165535, Q2 : -0.000762722746003, Q3 : -0.00062628852902, Q4 : -0.000837979256175}
2019-04-14 23:48:28.91: SIM {TimeUS : 47934985, Roll : -0.07, Pitch : -0.04, Yaw : 359.9, Alt : 37.2999992371, Lat : 49.2835704, Lng : -123.1150207, Q1 : 0.999999344349, Q2 : -0.000628352980129, Q3 : -0.000419737712946, Q4 : -0.000844426336698}
2019-04-14 23:48:29.01: SIM {TimeUS : 48034945, Roll : -0.05, Pitch : -0.03, Yaw : 359.9, Alt : 37.5299987793, Lat : 49.2835704, Lng : -123.1150207, Q1 : 0.999999463558, Q2 : -0.000488060555654, Q3 : -0.000276373495581, Q4 : -0.000848759780638}
2019-04-14 23:48:29.11: SIM {TimeUS : 48134905, Roll : -0.06, Pitch : -0.03, Yaw : 359.9, Alt : 37.75, Lat : 49.2835704, Lng : -123.1150207, Q1 : 0.999999463558, Q2 : -0.000540432578418, Q3 : -0.000313731434289, Q4 : -0.000853047240525}
2019-04-14 23:48:29.21: SIM {TimeUS : 48234865, Roll : -0.07, Pitch : -0.02, Yaw : 359.9, Alt : 37.9799995422, Lat : 49.2835704, Lng : -123.1150207, Q1 : 0.999999403954, Q2 : -0.000665799423587, Q3 : -0.000252541241935, Q4 : -0.000858965853695}
2019-04-14 23:48:29.31: SIM {TimeUS : 48334825, Roll : -0.1, Pitch : -0.01, Yaw : 359.9, Alt : 38.2099990845, Lat : 49.2835704, Lng : -123.1150207, Q1 : 0.99999922514, Q2 : -0.000880096282344, Q3 : -0.000136187140015, Q4 : -0.000871692784131}
2019-04-14 23:48:29.41: SIM {TimeUS : 48434785, Roll : -0.1, Pitch : 0.0, Yaw : 359.89, Alt : 38.4300003052, Lat : 49.2835704, Lng : -123.1150207, Q1 : 0.99999922514, Q2 : -0.000887865142431, Q3 : -3.45236821886e-06, Q4 : -0.000881587271579}
2019-04-14 23:48:29.51: SIM {TimeUS : 48534745, Roll : -0.07, Pitch : 0.02, Yaw : 359.89, Alt : 38.6599998474, Lat : 49.2835706, Lng : -123.1150207, Q1 : 0.999999344349, Q2 : -0.000656495976727, Q3 : 0.000226730364375, Q4 : -0.000900270533748}
2019-04-14 23:48:29.61: SIM {TimeUS : 48634705, Roll : -0.04, Pitch : 0.02, Yaw : 359.89, Alt : 38.8899993896, Lat : 49.2835706, Lng : -123.1150207, Q1 : 0.999999463558, Q2 : -0.000396015500883, Q3 : 0.000221544643864, Q4 : -0.00092077505542}
2019-04-14 23:48:29.71: SIM {TimeUS : 48734665, Roll : -0.01, Pitch : 0.02, Yaw : 359.89, Alt : 39.1199989319, Lat : 49.2835706, Lng : -123.1150207, Q1 : 0.999999523163, Q2 : -0.00010549066792, Q3 : 0.00017741107149, Q4 : -0.000940369616728}
2019-04-14 23:48:29.81: SIM {TimeUS : 48834625, Roll : 0.02, Pitch : 0.03, Yaw : 359.89, Alt : 39.3499984741, Lat : 49.2835706, Lng : -123.1150207, Q1 : 0.999999463558, Q2 : 0.000216672589886, Q3 : 0.000329629867338, Q4 : -0.000954507093411}
2019-04-14 23:48:29.91: SIM {TimeUS : 48934585, Roll : 0.06, Pitch : 0.06, Yaw : 359.88, Alt : 39.5800018311, Lat : 49.2835706, Lng : -123.1150207, Q1 : 0.99999922514, Q2 : 0.000551089586224, Q3 : 0.000601488864049, Q4 : -0.000976945157163}
2019-04-14 23:48:30.01: SIM {TimeUS : 49034545, Roll : 0.08, Pitch : 0.1, Yaw : 359.88, Alt : 39.8100013733, Lat : 49.2835706, Lng : -123.1150207, Q1 : 0.999998807907, Q2 : 0.000771977123804, Q3 : 0.000912837625947, Q4 : -0.00100672966801}
2019-04-14 23:48:30.12: SIM {TimeUS : 49135338, Roll : 0.07, Pitch : 0.13, Yaw : 359.88, Alt : 40.0499992371, Lat : 49.2835706, Lng : -123.1150207, Q1 : 0.999998509884, Q2 : 0.000663361279294, Q3 : 0.00121650891379, Q4 : -0.00102896208409}
2019-04-14 23:48:30.21: SIM {TimeUS : 49235298, Roll : 0.02, Pitch : 0.16, Yaw : 359.87, Alt : 40.2799987793, Lat : 49.2835706, Lng : -123.1150207, Q1 : 0.99999833107, Q2 : 0.000237418556935, Q3 : 0.00148003839422, Q4 : -0.0010686715832}
2019-04-14 23:48:30.31: SIM {TimeUS : 49335258, Roll : -0.01, Pitch : 0.18, Yaw : 359.87, Alt : 40.5099983215, Lat : 49.2835706, Lng : -123.1150207, Q1 : 0.999998152256, Q2 : -0.000135533002322, Q3 : 0.00157723343, Q4 : -0.00109881151002}
2019-04-14 23:48:30.41: SIM {TimeUS : 49435218, Roll : -0.04, Pitch : 0.16, Yaw : 359.87, Alt : 40.7400016785, Lat : 49.2835706, Lng : -123.1150207, Q1 : 0.99999833107, Q2 : -0.00034945999505, Q3 : 0.00140000833198, Q4 : -0.00111988605931}
2019-04-14 23:48:30.51: SIM {TimeUS : 49535178, Roll : -0.04, Pitch : 0.13, Yaw : 359.86, Alt : 40.9700012207, Lat : 49.2835706, Lng : -123.1150207, Q1 : 0.999998569489, Q2 : -0.000433107459685, Q3 : 0.00113776372746, Q4 : -0.00114692258649}
2019-04-14 23:48:30.61: SIM {TimeUS : 49635138, Roll : -0.03, Pitch : 0.12, Yaw : 359.86, Alt : 41.2099990845, Lat : 49.2835706, Lng : -123.1150207, Q1 : 0.999998688698, Q2 : -0.000343637686456, Q3 : 0.00106726284139, Q4 : -0.00117769988719}
2019-04-14 23:48:30.71: SIM {TimeUS : 49735098, Roll : 0.0, Pitch : 0.13, Yaw : 359.86, Alt : 41.4399986267, Lat : 49.2835706, Lng : -123.1150207, Q1 : 0.999998569489, Q2 : 2.38431093749e-05, Q3 : 0.00115712860133, Q4 : -0.00121697608847}
2019-04-14 23:48:30.81: SIM {TimeUS : 49835058, Roll : 0.05, Pitch : 0.13, Yaw : 359.85, Alt : 41.6699981689, Lat : 49.2835706, Lng : -123.1150207, Q1 : 0.99999833107, Q2 : 0.000514210783876, Q3 : 0.00120748684276, Q4 : -0.00125598313753}
2019-04-14 23:48:30.91: SIM {TimeUS : 49935018, Roll : 0.1, Pitch : 0.11, Yaw : 359.85, Alt : 41.9099998474, Lat : 49.2835706, Lng : -123.1150207, Q1 : 0.999998271465, Q2 : 0.000878562685102, Q3 : 0.00100597098935, Q4 : -0.00129597319756}
2019-04-14 23:48:31.01: SIM {TimeUS : 50034978, Roll : 0.1, Pitch : 0.08, Yaw : 359.84, Alt : 42.1399993896, Lat : 49.2835706, Lng : -123.1150207, Q1 : 0.999998450279, Q2 : 0.000930448935833, Q3 : 0.000699802825693, Q4 : -0.00133051886223}
2019-04-14 23:48:31.11: SIM {TimeUS : 50134938, Roll : 0.06, Pitch : 0.05, Yaw : 359.84, Alt : 42.3800010681, Lat : 49.2835706, Lng : -123.1150207, Q1 : 0.999998807907, Q2 : 0.000601105275564, Q3 : 0.00048956705723, Q4 : -0.00134829373565}
2019-04-14 23:48:31.21: SIM {TimeUS : 50234898, Roll : 0.01, Pitch : 0.05, Yaw : 359.84, Alt : 42.6100006104, Lat : 49.2835706, Lng : -123.1150207, Q1 : 0.999998986721, Q2 : 0.000111456371087, Q3 : 0.000440572941443, Q4 : -0.00135595013853}
2019-04-14 23:48:31.31: SIM {TimeUS : 50334858, Roll : -0.02, Pitch : 0.07, Yaw : 359.84, Alt : 42.8499984741, Lat : 49.2835704, Lng : -123.1150207, Q1 : 0.999998867512, Q2 : -0.000243723232416, Q3 : 0.000624509179033, Q4 : -0.00135879556183}
2019-04-14 23:48:31.41: SIM {TimeUS : 50434818, Roll : -0.05, Pitch : 0.08, Yaw : 359.84, Alt : 43.0800018311, Lat : 49.2835704, Lng : -123.1150207, Q1 : 0.999998748302, Q2 : -0.000436536414782, Q3 : 0.000734207162168, Q4 : -0.00135948485695}
2019-04-14 23:48:31.51: SIM {TimeUS : 50534778, Roll : -0.05, Pitch : 0.07, Yaw : 359.84, Alt : 43.3199996948, Lat : 49.2835704, Lng : -123.1150207, Q1 : 0.999998748302, Q2 : -0.000443322322099, Q3 : 0.00066127430182, Q4 : -0.00136504659895}
2019-04-14 23:48:31.61: SIM {TimeUS : 50634738, Roll : -0.05, Pitch : 0.05, Yaw : 359.84, Alt : 43.5499992371, Lat : 49.2835704, Lng : -123.1150207, Q1 : 0.999998807907, Q2 : -0.000501291709952, Q3 : 0.000522758287843, Q4 : -0.00137708417606}
2019-04-14 23:48:31.71: SIM {TimeUS : 50734698, Roll : -0.05, Pitch : 0.04, Yaw : 359.84, Alt : 43.7900009155, Lat : 49.2835704, Lng : -123.1150207, Q1 : 0.999998807907, Q2 : -0.000466818717541, Q3 : 0.000387909385609, Q4 : -0.00139477755874}
2019-04-14 23:48:31.81: SIM {TimeUS : 50834658, Roll : -0.03, Pitch : 0.03, Yaw : 359.83, Alt : 44.0200004578, Lat : 49.2835704, Lng : -123.1150207, Q1 : 0.999998867512, Q2 : -0.000316852703691, Q3 : 0.000323340296745, Q4 : -0.00141895283014}
2019-04-14 23:48:31.91: SIM {TimeUS : 50934618, Roll : -0.02, Pitch : 0.03, Yaw : 359.83, Alt : 44.2599983215, Lat : 49.2835704, Lng : -123.1150206, Q1 : 0.999998867512, Q2 : -0.000191864877706, Q3 : 0.000308290618705, Q4 : -0.00144394859672}
2019-04-14 23:48:32.01: SIM {TimeUS : 51034578, Roll : -0.02, Pitch : 0.01, Yaw : 359.83, Alt : 44.4900016785, Lat : 49.2835704, Lng : -123.1150206, Q1 : 0.999998867512, Q2 : -0.00019522709772, Q3 : 0.000160143856192, Q4 : -0.00147048686631}
2019-04-14 23:48:32.11: SIM {TimeUS : 51134538, Roll : -0.02, Pitch : -0.01, Yaw : 359.82, Alt : 44.7299995422, Lat : 49.2835704, Lng : -123.1150206, Q1 : 0.999998867512, Q2 : -0.000248214695603, Q3 : -0.000129154039314, Q4 : -0.00149398937356}
2019-04-14 23:48:32.21: SIM {TimeUS : 51235331, Roll : -0.03, Pitch : -0.03, Yaw : 359.82, Alt : 44.9700012207, Lat : 49.2835704, Lng : -123.1150206, Q1 : 0.999998748302, Q2 : -0.000295740988804, Q3 : -0.000329489994328, Q4 : -0.00151848001406}
2019-04-14 23:48:32.31: SIM {TimeUS : 51335291, Roll : -0.02, Pitch : -0.04, Yaw : 359.82, Alt : 45.2099990845, Lat : 49.2835703, Lng : -123.1150206, Q1 : 0.999998688698, Q2 : -0.000256934785284, Q3 : -0.000430746382335, Q4 : -0.00154564331751}
2019-04-14 23:48:32.41: SIM {TimeUS : 51435251, Roll : -0.03, Pitch : -0.05, Yaw : 359.81, Alt : 45.4399986267, Lat : 49.2835703, Lng : -123.1150206, Q1 : 0.999998629093, Q2 : -0.000275566766504, Q3 : -0.000450945430202, Q4 : -0.00157820200548}
2019-04-14 23:48:32.51: SIM {TimeUS : 51535211, Roll : -0.05, Pitch : -0.04, Yaw : 359.81, Alt : 45.6800003052, Lat : 49.2835703, Lng : -123.1150206, Q1 : 0.999998509884, Q2 : -0.00045136231347, Q3 : -0.000393898633774, Q4 : -0.00161942152772}
2019-04-14 23:48:32.61: SIM {TimeUS : 51635171, Roll : -0.08, Pitch : -0.03, Yaw : 359.8, Alt : 45.9099998474, Lat : 49.2835703, Lng : -123.1150206, Q1 : 0.999998271465, Q2 : -0.000734657340217, Q3 : -0.000320485996781, Q4 : -0.00166803819593}
2019-04-14 23:48:32.71: SIM {TimeUS : 51735131, Roll : -0.11, Pitch : -0.02, Yaw : 359.8, Alt : 46.1399993896, Lat : 49.2835703, Lng : -123.1150206, Q1 : 0.999998033047, Q2 : -0.000973623187747, Q3 : -0.000236164123635, Q4 : -0.00171554030385}
2019-04-14 23:48:32.81: SIM {TimeUS : 51835091, Roll : -0.11, Pitch : -0.01, Yaw : 359.79, Alt : 46.3600006104, Lat : 49.2835703, Lng : -123.1150206, Q1 : 0.999997913837, Q2 : -0.00104550784454, Q3 : -0.000108172185719, Q4 : -0.00175588519778}
2019-04-14 23:48:32.91: SIM {TimeUS : 51935051, Roll : -0.1, Pitch : 0.01, Yaw : 359.79, Alt : 46.5900001526, Lat : 49.2835703, Lng : -123.1150206, Q1 : 0.999997973442, Q2 : -0.000957376614679, Q3 : 9.50741159613e-05, Q4 : -0.00178741116542}
2019-04-14 23:48:33.01: SIM {TimeUS : 52035011, Roll : -0.08, Pitch : 0.02, Yaw : 359.79, Alt : 46.7999992371, Lat : 49.2835703, Lng : -123.1150206, Q1 : 0.999998033047, Q2 : -0.000746641948353, Q3 : 0.000176156361704, Q4 : -0.00181848893408}
2019-04-14 23:48:33.11: SIM {TimeUS : 52134971, Roll : -0.06, Pitch : 0.01, Yaw : 359.78, Alt : 47.0099983215, Lat : 49.2835703, Lng : -123.1150206, Q1 : 0.999998152256, Q2 : -0.000558688479941, Q3 : 0.000112833957246, Q4 : -0.00184280623216}
2019-04-14 23:48:33.21: SIM {TimeUS : 52234931, Roll : -0.05, Pitch : 0.0, Yaw : 359.78, Alt : 47.2200012207, Lat : 49.2835703, Lng : -123.1150206, Q1 : 0.999998152256, Q2 : -0.000457316316897, Q3 : -7.99898261903e-05, Q4 : -0.00185987201985}
2019-04-14 23:48:33.31: SIM {TimeUS : 52334891, Roll : -0.03, Pitch : -0.04, Yaw : 359.78, Alt : 47.4099998474, Lat : 49.2835703, Lng : -123.1150206, Q1 : 0.999998152256, Q2 : -0.000288665352855, Q3 : -0.000357906712452, Q4 : -0.001872432651}
2019-04-14 23:48:33.41: SIM {TimeUS : 52434851, Roll : -0.01, Pitch : -0.06, Yaw : 359.78, Alt : 47.5999984741, Lat : 49.2835703, Lng : -123.1150206, Q1 : 0.999998033047, Q2 : -9.02418905753e-05, Q3 : -0.000584454508498, Q4 : -0.00188581785187}
2019-04-14 23:48:33.51: SIM {TimeUS : 52534811, Roll : 0.0, Pitch : -0.11, Yaw : 359.78, Alt : 47.7700004578, Lat : 49.2835703, Lng : -123.1150206, Q1 : 0.999997735023, Q2 : -6.06755420449e-05, Q3 : -0.000984884449281, Q4 : -0.00189974054229}
2019-04-14 23:48:33.61: SIM {TimeUS : 52634771, Roll : -0.01, Pitch : -0.15, Yaw : 359.78, Alt : 47.9399986267, Lat : 49.2835703, Lng : -123.1150207, Q1 : 0.999997258186, Q2 : -0.000135691996547, Q3 : -0.00131646019872, Q4 : -0.00191173923668}
2019-04-14 23:48:33.71: SIM {TimeUS : 52734731, Roll : 0.0, Pitch : -0.15, Yaw : 359.77, Alt : 48.0900001526, Lat : 49.2835703, Lng : -123.1150207, Q1 : 0.999997258186, Q2 : 4.34755311289e-05, Q3 : -0.00134455238003, Q4 : -0.00192309182603}
2019-04-14 23:48:33.81: SIM {TimeUS : 52834691, Roll : 0.03, Pitch : -0.13, Yaw : 359.77, Alt : 48.2299995422, Lat : 49.2835703, Lng : -123.1150207, Q1 : 0.999997437, Q2 : 0.000301397638395, Q3 : -0.00115028780419, Q4 : -0.00193914270494}
2019-04-14 23:48:33.91: SIM {TimeUS : 52934651, Roll : 0.05, Pitch : -0.09, Yaw : 359.77, Alt : 48.3600006104, Lat : 49.2835703, Lng : -123.1150207, Q1 : 0.99999755621, Q2 : 0.000517474021763, Q3 : -0.000853421806823, Q4 : -0.00195880746469}
2019-04-14 23:48:34.01: SIM {TimeUS : 53034611, Roll : 0.06, Pitch : -0.06, Yaw : 359.77, Alt : 48.4799995422, Lat : 49.2835703, Lng : -123.1150207, Q1 : 0.999997675419, Q2 : 0.000592228898313, Q3 : -0.00056273129303, Q4 : -0.00198511406779}
2019-04-14 23:48:34.11: SIM {TimeUS : 53134571, Roll : 0.07, Pitch : -0.04, Yaw : 359.76, Alt : 48.5800018311, Lat : 49.2835703, Lng : -123.1150207, Q1 : 0.999997675419, Q2 : 0.000654678093269, Q3 : -0.000407959218137, Q4 : -0.00201590405777}
2019-04-14 23:48:34.22: SIM {TimeUS : 53235364, Roll : 0.06, Pitch : -0.05, Yaw : 359.76, Alt : 48.6699981689, Lat : 49.2835704, Lng : -123.1150207, Q1 : 0.999997615814, Q2 : 0.000551429751795, Q3 : -0.000492715509608, Q4 : -0.00205737375654}
2019-04-14 23:48:34.31: SIM {TimeUS : 53335324, Roll : 0.04, Pitch : -0.05, Yaw : 359.75, Alt : 48.75, Lat : 49.2835704, Lng : -123.1150207, Q1 : 0.999997615814, Q2 : 0.000364547246136, Q3 : -0.000483114796225, Q4 : -0.00210061855614}
2019-04-14 23:48:34.41: SIM {TimeUS : 53435284, Roll : 0.02, Pitch : -0.04, Yaw : 359.75, Alt : 48.8199996948, Lat : 49.2835704, Lng : -123.1150207, Q1 : 0.999997615814, Q2 : 0.000224642746616, Q3 : -0.000361075683031, Q4 : -0.00213931594044}
2019-04-14 23:48:34.51: SIM {TimeUS : 53535244, Roll : 0.01, Pitch : -0.01, Yaw : 359.75, Alt : 48.8800010681, Lat : 49.2835704, Lng : -123.1150207, Q1 : 0.999997615814, Q2 : 0.00012975820573, Q3 : -0.000160486844834, Q4 : -0.0021719741635}
2019-04-14 23:48:34.61: SIM {TimeUS : 53635204, Roll : 0.0, Pitch : 0.0, Yaw : 359.74, Alt : 48.9399986267, Lat : 49.2835704, Lng : -123.1150207, Q1 : 0.99999755621, Q2 : 7.39003662602e-05, Q3 : 3.36202720064e-05, Q4 : -0.00220189895481}
2019-04-14 23:48:34.71: SIM {TimeUS : 53735164, Roll : 0.03, Pitch : 0.02, Yaw : 359.74, Alt : 48.9799995422, Lat : 49.2835704, Lng : -123.1150207, Q1 : 0.999997437, Q2 : 0.000331192451995, Q3 : 0.000220160014578, Q4 : -0.00223167194054}
2019-04-14 23:48:34.81: SIM {TimeUS : 53835124, Roll : 0.17, Pitch : -0.02, Yaw : 359.74, Alt : 49.0200004578, Lat : 49.2835704, Lng : -123.1150207, Q1 : 0.999996244907, Q2 : 0.00152443151455, Q3 : -0.000235071769566, Q4 : -0.00226237601601}
2019-04-14 23:48:34.91: SIM {TimeUS : 53935084, Roll : 0.49, Pitch : -0.24, Yaw : 359.73, Alt : 49.0499992371, Lat : 49.2835704, Lng : -123.1150207, Q1 : 0.999985814095, Q2 : 0.00429551443085, Q3 : -0.00217685638927, Q4 : -0.00228526187129}
2019-04-14 23:48:35.01: SIM {TimeUS : 54035044, Roll : 1.0, Pitch : -0.63, Yaw : 359.73, Alt : 49.0800018311, Lat : 49.2835704, Lng : -123.1150207, Q1 : 0.999943256378, Q2 : 0.00879307463765, Q3 : -0.00555375078693, Q4 : -0.0023006615229}
2019-04-14 23:48:35.11: SIM {TimeUS : 54135004, Roll : 1.69, Pitch : -1.16, Yaw : 359.72, Alt : 49.0999984741, Lat : 49.2835704, Lng : -123.1150207, Q1 : 0.999836325645, Q2 : 0.0147826243192, Q3 : -0.0101743079722, Q4 : -0.00229010591283}
2019-04-14 23:48:35.21: SIM {TimeUS : 54234964, Roll : 2.5, Pitch : -1.77, Yaw : 359.7, Alt : 49.1300010681, Lat : 49.2835706, Lng : -123.1150206, Q1 : 0.999638080597, Q2 : 0.0218579303473, Q3 : -0.0155231840909, Q4 : -0.00224482524209}
2019-04-14 23:48:35.31: SIM {TimeUS : 54334924, Roll : 3.34, Pitch : -2.36, Yaw : 359.68, Alt : 49.1399993896, Lat : 49.2835706, Lng : -123.1150205, Q1 : 0.999360203743, Q2 : 0.0290927123278, Q3 : -0.0206944067031, Q4 : -0.00214071548544}
2019-04-14 23:48:35.41: SIM {TimeUS : 54434884, Roll : 4.05, Pitch : -2.87, Yaw : 359.67, Alt : 49.1599998474, Lat : 49.2835707, Lng : -123.1150203, Q1 : 0.99905782938, Q2 : 0.0353160053492, Q3 : -0.0251478515565, Q4 : -0.0019832176622}
2019-04-14 23:48:35.51: SIM {TimeUS : 54534844, Roll : 4.6, Pitch : -3.25, Yaw : 359.66, Alt : 49.1699981689, Lat : 49.2835709, Lng : -123.11502, Q1 : 0.998789787292, Q2 : 0.0400463677943, Q3 : -0.028497390449, Q4 : -0.00177685264498}
2019-04-14 23:48:35.61: SIM {TimeUS : 54634804, Roll : 4.99, Pitch : -3.52, Yaw : 359.67, Alt : 49.1800003052, Lat : 49.2835709, Lng : -123.1150198, Q1 : 0.998578131199, Q2 : 0.0434573665261, Q3 : -0.0308376438916, Q4 : -0.00152722757775}
2019-04-14 23:48:35.71: SIM {TimeUS : 54734764, Roll : 5.29, Pitch : -3.74, Yaw : 359.68, Alt : 49.2000007629, Lat : 49.2835712, Lng : -123.1150193, Q1 : 0.998400986195, Q2 : 0.0460606440902, Q3 : -0.032745976001, Q4 : -0.00126079178881}
2019-04-14 23:48:35.81: SIM {TimeUS : 54834724, Roll : 5.57, Pitch : -3.94, Yaw : 359.69, Alt : 49.2000007629, Lat : 49.2835715, Lng : -123.1150188, Q1 : 0.998223900795, Q2 : 0.0485448427498, Q3 : -0.034518238157, Q4 : -0.000981515855528}
2019-04-14 23:48:35.91: SIM {TimeUS : 54934684, Roll : 5.89, Pitch : -4.15, Yaw : 359.7, Alt : 49.2099990845, Lat : 49.2835718, Lng : -123.1150181, Q1 : 0.99802172184, Q2 : 0.0512852333486, Q3 : -0.0363597720861, Q4 : -0.000704923411831}
2019-04-14 23:48:36.01: SIM {TimeUS : 55034644, Roll : 6.21, Pitch : -4.35, Yaw : 359.71, Alt : 49.2200012207, Lat : 49.2835721, Lng : -123.1150174, Q1 : 0.9978120327, Q2 : 0.0540446974337, Q3 : -0.0380807705224, Q4 : -0.000443796510808}
2019-04-14 23:48:36.11: SIM {TimeUS : 55134604, Roll : 6.47, Pitch : -4.53, Yaw : 359.71, Alt : 49.2299995422, Lat : 49.2835725, Lng : -123.1150166, Q1 : 0.997623503208, Q2 : 0.0563699305058, Q3 : -0.0396200418472, Q4 : -0.000203806033824}
2019-04-14 23:48:36.21: SIM {TimeUS : 55234564, Roll : 6.66, Pitch : -4.68, Yaw : 359.72, Alt : 49.2299995422, Lat : 49.2835728, Lng : -123.1150157, Q1 : 0.997476637363, Q2 : 0.0580242164433, Q3 : -0.040909320116, Q4 : -1.34596766657e-05}
2019-04-14 23:48:36.32: SIM {TimeUS : 55335357, Roll : 6.81, Pitch : -4.78, Yaw : 359.73, Alt : 49.2400016785, Lat : 49.2835733, Lng : -123.1150146, Q1 : 0.997368037701, Q2 : 0.0592647977173, Q3 : -0.041769977659, Q4 : 0.000137207796797}
2019-04-14 23:48:36.41: SIM {TimeUS : 55435317, Roll : 6.91, Pitch : -4.84, Yaw : 359.73, Alt : 49.2400016785, Lat : 49.2835739, Lng : -123.1150135, Q1 : 0.99729180336, Q2 : 0.0601594746113, Q3 : -0.042306445539, Q4 : 0.000256745697698}
2019-04-14 23:48:36.51: SIM {TimeUS : 55535277, Roll : 7.0, Pitch : -4.9, Yaw : 359.73, Alt : 49.25, Lat : 49.2835744, Lng : -123.1150123, Q1 : 0.997218072414, Q2 : 0.0609699189663, Q3 : -0.0428807847202, Q4 : 0.000334639771609}
2019-04-14 23:48:36.61: SIM {TimeUS : 55635237, Roll : 7.19, Pitch : -4.95, Yaw : 359.75, Alt : 49.25, Lat : 49.283575, Lng : -123.115011, Q1 : 0.997099280357, Q2 : 0.0625788643956, Q3 : -0.0433190427721, Q4 : 0.00057340884814}
2019-04-14 23:48:36.71: SIM {TimeUS : 55735197, Roll : 7.62, Pitch : -4.85, Yaw : 0.08, Alt : 49.2599983215, Lat : 49.2835756, Lng : -123.1150096, Q1 : 0.996890902519, Q2 : 0.0664389058948, Q3 : -0.0422107800841, Q4 : 0.00355574628338}
2019-04-14 23:48:36.81: SIM {TimeUS : 55835157, Roll : 8.25, Pitch : -4.65, Yaw : 1.37, Alt : 49.2599983215, Lat : 49.2835763, Lng : -123.1150082, Q1 : 0.996474444866, Q2 : 0.0724222064018, Q3 : -0.0396388992667, Q4 : 0.0149176428095}
2019-04-14 23:48:36.91: SIM {TimeUS : 55935117, Roll : 8.84, Pitch : -4.71, Yaw : 4.17, Alt : 49.2599983215, Lat : 49.283577, Lng : -123.1150067, Q1 : 0.995403707027, Q2 : 0.0784860253334, Q3 : -0.0381699725986, Q4 : 0.0394273847342}
2019-04-14 23:48:37.01: SIM {TimeUS : 56035077, Roll : 9.13, Pitch : -5.25, Yaw : 8.53, Alt : 49.2599983215, Lat : 49.2835776, Lng : -123.115005, Q1 : 0.992743015289, Q2 : 0.0827225223184, Q3 : -0.0396688580513, Q4 : 0.0777472183108}
2019-04-14 23:48:37.11: SIM {TimeUS : 56135037, Roll : 8.92, Pitch : -6.32, Yaw : 14.28, Alt : 49.2599983215, Lat : 49.2835783, Lng : -123.1150032, Q1 : 0.987183213234, Q2 : 0.0839477628469, Q3 : -0.0449295528233, Q4 : 0.128075793386}
2019-04-14 23:48:37.21: SIM {TimeUS : 56234997, Roll : 8.12, Pitch : -7.79, Yaw : 21.19, Alt : 49.2700004578, Lat : 49.2835791, Lng : -123.1150013, Q1 : 0.977327346802, Q2 : 0.0819527506828, Q3 : -0.053649213165, Q4 : 0.187714681029}
2019-04-14 23:48:37.31: SIM {TimeUS : 56334957, Roll : 6.71, Pitch : -9.43, Yaw : 28.98, Alt : 49.2700004578, Lat : 49.2835799, Lng : -123.1149992, Q1 : 0.962037682533, Q2 : 0.0770214349031, Q3 : -0.0648549124599, Q4 : 0.253663241863}
2019-04-14 23:48:37.41: SIM {TimeUS : 56434917, Roll : 4.75, Pitch : -10.98, Yaw : 37.43, Alt : 49.2700004578, Lat : 49.2835806, Lng : -123.1149971, Q1 : 0.940686941147, Q2 : 0.0698192864656, Q3 : -0.0772799775004, Q4 : 0.322894960642}
2019-04-14 23:48:37.51: SIM {TimeUS : 56534877, Roll : 2.23, Pitch : -12.24, Yaw : 46.19, Alt : 49.2700004578, Lat : 49.2835814, Lng : -123.1149948, Q1 : 0.913607954979, Q2 : 0.0596415661275, Q3 : -0.0904748514295, Q4 : 0.391889810562}
2019-04-14 23:48:37.61: SIM {TimeUS : 56634837, Roll : -0.86, Pitch : -13.0, Yaw : 54.57, Alt : 49.2700004578, Lat : 49.2835823, Lng : -123.1149925, Q1 : 0.88335955143, Q2 : 0.0452614203095, Q3 : -0.104052431881, Q4 : 0.454753130674}
2019-04-14 23:48:37.71: SIM {TimeUS : 56734797, Roll : -3.98, Pitch : -13.19, Yaw : 61.67, Alt : 49.2700004578, Lat : 49.2835832, Lng : -123.1149901, Q1 : 0.854456543922, Q2 : 0.0292520280927, Q3 : -0.116312339902, Q4 : 0.505489706993}
2019-04-14 23:48:37.81: SIM {TimeUS : 56834757, Roll : -6.48, Pitch : -13.02, Yaw : 66.85, Alt : 49.2700004578, Lat : 49.2835843, Lng : -123.1149876, Q1 : 0.831425428391, Q2 : 0.015433061868, Q3 : -0.125445216894, Q4 : 0.541070342064}
2019-04-14 23:48:37.91: SIM {TimeUS : 56934717, Roll : -7.99, Pitch : -12.73, Yaw : 69.91, Alt : 49.2700004578, Lat : 49.2835854, Lng : -123.114985, Q1 : 0.816950261593, Q2 : 0.00656002014875, Q3 : -0.13035582006, Q4 : 0.561744272709}
2019-04-14 23:48:38.01: SIM {TimeUS : 57034677, Roll : -8.42, Pitch : -12.56, Yaw : 71.06, Alt : 49.2700004578, Lat : 49.2835866, Lng : -123.1149824, Q1 : 0.811364471912, Q2 : 0.00398666691035, Q3 : -0.131284579635, Q4 : 0.569592952728}
2019-04-14 23:48:38.11: SIM {TimeUS : 57134637, Roll : -7.92, Pitch : -12.66, Yaw : 70.64, Alt : 49.2700004578, Lat : 49.2835879, Lng : -123.1149797, Q1 : 0.813418149948, Q2 : 0.00755351921543, Q3 : -0.129509776831, Q4 : 0.567028284073}
2019-04-14 23:48:38.21: SIM {TimeUS : 57234597, Roll : -6.73, Pitch : -13.04, Yaw : 69.0, Alt : 49.2700004578, Lat : 49.2835893, Lng : -123.114977, Q1 : 0.821134328842, Q2 : 0.0161317307502, Q3 : -0.126530736685, Q4 : 0.556298673153}
2019-04-14 23:48:38.31: SIM {TimeUS : 57334557, Roll : -5.08, Pitch : -13.65, Yaw : 66.5, Alt : 49.2700004578, Lat : 49.2835909, Lng : -123.1149742, Q1 : 0.832408607006, Q2 : 0.0282608475536, Q3 : -0.123478151858, Q4 : 0.539490878582}
2019-04-14 23:48:38.42: SIM {TimeUS : 57435350, Roll : -3.2, Pitch : -14.38, Yaw : 63.43, Alt : 49.2799987793, Lat : 49.2835925, Lng : -123.1149713, Q1 : 0.8454605937, Q2 : 0.0422402247787, Q3 : -0.121059171855, Q4 : 0.518417656422}
2019-04-14 23:48:38.51: SIM {TimeUS : 57535310, Roll : -1.29, Pitch : -15.07, Yaw : 60.15, Alt : 49.2799987793, Lat : 49.283594, Lng : -123.1149684, Q1 : 0.858554184437, Q2 : 0.0560198239982, Q3 : -0.119096443057, Q4 : 0.495542705059}
2019-04-14 23:48:38.61: SIM {TimeUS : 57635270, Roll : 0.46, Pitch : -15.57, Yaw : 56.97, Alt : 49.2799987793, Lat : 49.2835958, Lng : -123.1149654, Q1 : 0.870554745197, Q2 : 0.0681812390685, Q3 : -0.117159903049, Q4 : 0.473032087088}
2019-04-14 23:48:38.71: SIM {TimeUS : 57735230, Roll : 1.93, Pitch : -15.84, Yaw : 54.2, Alt : 49.2799987793, Lat : 49.2835974, Lng : -123.1149622, Q1 : 0.88050609827, Q2 : 0.0776838213205, Q3 : -0.11502995342, Q4 : 0.453257530928}
2019-04-14 23:48:38.81: SIM {TimeUS : 57835190, Roll : 3.0, Pitch : -15.9, Yaw : 52.1, Alt : 49.2799987793, Lat : 49.283599, Lng : -123.114959, Q1 : 0.887854933739, Q2 : 0.0840841084719, Q3 : -0.112851470709, Q4 : 0.438073068857}
2019-04-14 23:48:38.91: SIM {TimeUS : 57935150, Roll : 3.6, Pitch : -15.86, Yaw : 50.78, Alt : 49.2799987793, Lat : 49.2836007, Lng : -123.1149555, Q1 : 0.89242452383, Q2 : 0.0873115584254, Q3 : -0.111242979765, Q4 : 0.428462535143}
2019-04-14 23:48:39.01: SIM {TimeUS : 58035110, Roll : 3.72, Pitch : -15.8, Yaw : 50.27, Alt : 49.2799987793, Lat : 49.2836025, Lng : -123.114952, Q1 : 0.894326627254, Q2 : 0.0875541269779, Q3 : -0.110755115747, Q4 : 0.424555659294}
2019-04-14 23:48:39.11: SIM {TimeUS : 58135070, Roll : 3.42, Pitch : -15.8, Yaw : 50.46, Alt : 49.2799987793, Lat : 49.2836041, Lng : -123.1149484, Q1 : 0.893835842609, Q2 : 0.0853444337845, Q3 : -0.111738204956, Q4 : 0.425779759884}
2019-04-14 23:48:39.21: SIM {TimeUS : 58235030, Roll : 2.78, Pitch : -15.85, Yaw : 51.23, Alt : 49.2799987793, Lat : 49.2836057, Lng : -123.1149446, Q1 : 0.891377449036, Q2 : 0.0813505426049, Q3 : -0.113943785429, Q4 : 0.431097716093}
2019-04-14 23:48:39.31: SIM {TimeUS : 58334990, Roll : 1.96, Pitch : -15.95, Yaw : 52.38, Alt : 49.2799987793, Lat : 49.2836074, Lng : -123.1149408, Q1 : 0.887451410294, Q2 : 0.0765048786998, Q3 : -0.117015339434, Q4 : 0.439186096191}
2019-04-14 23:48:39.41: SIM {TimeUS : 58434950, Roll : 1.05, Pitch : -16.07, Yaw : 53.73, Alt : 49.2799987793, Lat : 49.2836092, Lng : -123.1149368, Q1 : 0.88266479969, Q2 : 0.071360424161, Q3 : -0.120610669255, Q4 : 0.448624074459}
2019-04-14 23:48:39.51: SIM {TimeUS : 58534910, Roll : 0.2, Pitch : -16.2, Yaw : 55.1, Alt : 49.2799987793, Lat : 49.283611, Lng : -123.1149328, Q1 : 0.877619922161, Q2 : 0.066772043705, Q3 : -0.124159626663, Q4 : 0.45815846324}
2019-04-14 23:48:39.61: SIM {TimeUS : 58634870, Roll : -0.5, Pitch : -16.3, Yaw : 56.33, Alt : 49.2900009155, Lat : 49.2836128, Lng : -123.1149287, Q1 : 0.872935712337, Q2 : 0.0631121024489, Q3 : -0.127043843269, Q4 : 0.466754704714}
2019-04-14 23:48:39.71: SIM {TimeUS : 58734830, Roll : -1.03, Pitch : -16.36, Yaw : 57.32, Alt : 49.2900009155, Lat : 49.2836146, Lng : -123.1149246, Q1 : 0.869107961655, Q2 : 0.0604336299002, Q3 : -0.129128053784, Q4 : 0.473629772663}
2019-04-14 23:48:39.81: SIM {TimeUS : 58834790, Roll : -1.37, Pitch : -16.4, Yaw : 58.0, Alt : 49.2900009155, Lat : 49.2836164, Lng : -123.1149204, Q1 : 0.866433262825, Q2 : 0.0588019303977, Q3 : -0.130538597703, Q4 : 0.478325694799}
2019-04-14 23:48:39.91: SIM {TimeUS : 58934750, Roll : -1.51, Pitch : -16.45, Yaw : 58.34, Alt : 49.2900009155, Lat : 49.2836183, Lng : -123.1149162, Q1 : 0.865025758743, Q2 : 0.0583570934832, Q3 : -0.131301283836, Q4 : 0.480712920427}
2019-04-14 23:48:40.01: SIM {TimeUS : 59034710, Roll : -1.45, Pitch : -16.5, Yaw : 58.37, Alt : 49.2900009155, Lat : 49.2836201, Lng : -123.114912, Q1 : 0.864827692509, Q2 : 0.058998439461, Q3 : -0.131458371878, Q4 : 0.480948030949}
2019-04-14 23:48:40.11: SIM {TimeUS : 59134670, Roll : -1.26, Pitch : -16.54, Yaw : 58.13, Alt : 49.2900009155, Lat : 49.2836221, Lng : -123.1149077, Q1 : 0.865668594837, Q2 : 0.0603809729218, Q3 : -0.131062880158, Q4 : 0.479368895292}
2019-04-14 23:48:40.21: SIM {TimeUS : 59234630, Roll : -0.95, Pitch : -16.58, Yaw : 57.7, Alt : 49.2900009155, Lat : 49.2836241, Lng : -123.1149033, Q1 : 0.867250859737, Q2 : 0.0623732730746, Q3 : -0.130307048559, Q4 : 0.476451039314}
2019-04-14 23:48:40.31: SIM {TimeUS : 59334590, Roll : -0.59, Pitch : -16.62, Yaw : 57.16, Alt : 49.2900009155, Lat : 49.2836261, Lng : -123.1148989, Q1 : 0.869250416756, Q2 : 0.0646860003471, Q3 : -0.129415899515, Q4 : 0.472727179527}
2019-04-14 23:48:40.41: SIM {TimeUS : 59434550, Roll : -0.21, Pitch : -16.66, Yaw : 56.58, Alt : 49.2900009155, Lat : 49.283628, Lng : -123.1148945, Q1 : 0.871368587017, Q2 : 0.0670349225402, Q3 : -0.128516584635, Q4 : 0.468728721142}
2019-04-14 23:48:40.52: SIM {TimeUS : 59535343, Roll : 0.12, Pitch : -16.7, Yaw : 56.03, Alt : 49.2900009155, Lat : 49.2836302, Lng : -123.11489, Q1 : 0.87336730957, Q2 : 0.0692144930363, Q3 : -0.127711877227, Q4 : 0.464896291494}
2019-04-14 23:48:40.61: SIM {TimeUS : 59635303, Roll : 0.41, Pitch : -16.73, Yaw : 55.57, Alt : 49.2900009155, Lat : 49.2836322, Lng : -123.1148855, Q1 : 0.875029027462, Q2 : 0.0709822848439, Q3 : -0.127112269402, Q4 : 0.461658120155}
2019-04-14 23:48:40.71: SIM {TimeUS : 59735263, Roll : 0.59, Pitch : -16.76, Yaw : 55.22, Alt : 49.2900009155, Lat : 49.2836342, Lng : -123.1148809, Q1 : 0.876271426678, Q2 : 0.0721350237727, Q3 : -0.126742258668, Q4 : 0.459218114614}
2019-04-14 23:48:40.81: SIM {TimeUS : 59835223, Roll : 0.68, Pitch : -16.78, Yaw : 55.01, Alt : 49.2900009155, Lat : 49.2836363, Lng : -123.1148763, Q1 : 0.877034425735, Q2 : 0.0726813003421, Q3 : -0.126742377877, Q4 : 0.457672894001}
2019-04-14 23:48:40.91: SIM {TimeUS : 59935183, Roll : 0.68, Pitch : -16.83, Yaw : 54.93, Alt : 49.2900009155, Lat : 49.2836384, Lng : -123.1148716, Q1 : 0.877312123775, Q2 : 0.0727203041315, Q3 : -0.127160221338, Q4 : 0.457018077374}
2019-04-14 23:48:41.01: SIM {TimeUS : 60035143, Roll : 0.59, Pitch : -16.88, Yaw : 54.96, Alt : 49.2900009155, Lat : 49.2836405, Lng : -123.114867, Q1 : 0.877174675465, Q2 : 0.0722930878401, Q3 : -0.127854242921, Q4 : 0.457156032324}
2019-04-14 23:48:41.11: SIM {TimeUS : 60135103, Roll : 0.44, Pitch : -16.92, Yaw : 55.09, Alt : 49.2999992371, Lat : 49.2836425, Lng : -123.1148622, Q1 : 0.876721799374, Q2 : 0.0714276358485, Q3 : -0.128703132272, Q4 : 0.457921922207}
2019-04-14 23:48:41.21: SIM {TimeUS : 60235063, Roll : 0.26, Pitch : -16.95, Yaw : 55.27, Alt : 49.2999992371, Lat : 49.2836445, Lng : -123.1148575, Q1 : 0.876063764095, Q2 : 0.0703824386001, Q3 : -0.129523828626, Q4 : 0.459110200405}
2019-04-14 23:48:41.31: SIM {TimeUS : 60335023, Roll : 0.08, Pitch : -16.97, Yaw : 55.48, Alt : 49.2999992371, Lat : 49.2836467, Lng : -123.1148527, Q1 : 0.875299930573, Q2 : 0.0693924203515, Q3 : -0.130279198289, Q4 : 0.460502028465}
2019-04-14 23:48:41.41: SIM {TimeUS : 60434983, Roll : -0.05, Pitch : -17.01, Yaw : 55.69, Alt : 49.2999992371, Lat : 49.2836488, Lng : -123.1148479, Q1 : 0.874512255192, Q2 : 0.068702287972, Q3 : -0.131020441651, Q4 : 0.461889594793}
2019-04-14 23:48:41.51: SIM {TimeUS : 60534943, Roll : -0.14, Pitch : -17.05, Yaw : 55.86, Alt : 49.2999992371, Lat : 49.283651, Lng : -123.114843, Q1 : 0.873807966709, Q2 : 0.0683337971568, Q3 : -0.131599575281, Q4 : 0.463110864162}
2019-04-14 23:48:41.61: SIM {TimeUS : 60634903, Roll : -0.2, Pitch : -17.1, Yaw : 56.0, Alt : 49.2999992371, Lat : 49.283653, Lng : -123.1148381, Q1 : 0.873245120049, Q2 : 0.0682672932744, Q3 : -0.132114946842, Q4 : 0.464034706354}
2019-04-14 23:48:41.71: SIM {TimeUS : 60734863, Roll : -0.21, Pitch : -17.15, Yaw : 56.08, Alt : 49.2999992371, Lat : 49.2836553, Lng : -123.1148333, Q1 : 0.872878849506, Q2 : 0.0684617981315, Q3 : -0.132496058941, Q4 : 0.46458619833}
2019-04-14 23:48:41.81: SIM {TimeUS : 60834823, Roll : -0.2, Pitch : -17.19, Yaw : 56.1, Alt : 49.2999992371, Lat : 49.2836574, Lng : -123.1148283, Q1 : 0.872733354568, Q2 : 0.0686897709966, Q3 : -0.132752016187, Q4 : 0.464752703905}
2019-04-14 23:48:41.91: SIM {TimeUS : 60934783, Roll : -0.19, Pitch : -17.2, Yaw : 56.07, Alt : 49.2999992371, Lat : 49.2836597, Lng : -123.1148234, Q1 : 0.872811317444, Q2 : 0.0688226744533, Q3 : -0.132817000151, Q4 : 0.464568078518}
2019-04-14 23:48:42.01: SIM {TimeUS : 61034743, Roll : -0.17, Pitch : -17.21, Yaw : 56.01, Alt : 49.3100013733, Lat : 49.2836619, Lng : -123.1148185, Q1 : 0.873051226139, Q2 : 0.0689447596669, Q3 : -0.132861584425, Q4 : 0.464086204767}
2019-04-14 23:48:42.11: SIM {TimeUS : 61134703, Roll : -0.12, Pitch : -17.22, Yaw : 55.91, Alt : 49.3100013733, Lat : 49.283664, Lng : -123.1148135, Q1 : 0.873391330242, Q2 : 0.0692624300718, Q3 : -0.132793307304, Q4 : 0.463418096304}
2019-04-14 23:48:42.21: SIM {TimeUS : 61234663, Roll : -0.05, Pitch : -17.24, Yaw : 55.8, Alt : 49.3100013733, Lat : 49.2836663, Lng : -123.1148085, Q1 : 0.873779714108, Q2 : 0.0697488114238, Q3 : -0.132664263248, Q4 : 0.462649196386}
2019-04-14 23:48:42.31: SIM {TimeUS : 61334623, Roll : 0.04, Pitch : -17.27, Yaw : 55.69, Alt : 49.3100013733, Lat : 49.2836685, Lng : -123.1148035, Q1 : 0.874141812325, Q2 : 0.0704854205251, Q3 : -0.132638126612, Q4 : 0.46186041832}
2019-04-14 23:48:42.41: SIM {TimeUS : 61434583, Roll : 0.12, Pitch : -17.33, Yaw : 55.58, Alt : 49.3100013733, Lat : 49.2836706, Lng : -123.1147984, Q1 : 0.874451756477, Q2 : 0.0712209120393, Q3 : -0.132805049419, Q4 : 0.461112260818}
2019-04-14 23:48:42.51: SIM {TimeUS : 61534543, Roll : 0.17, Pitch : -17.36, Yaw : 55.49, Alt : 49.3100013733, Lat : 49.283673, Lng : -123.1147934, Q1 : 0.874742209911, Q2 : 0.0716036707163, Q3 : -0.132899910212, Q4 : 0.46047437191}
2019-04-14 23:48:42.62: SIM {TimeUS : 61635336, Roll : 0.2, Pitch : -17.36, Yaw : 55.43, Alt : 49.3100013733, Lat : 49.2836753, Lng : -123.1147883, Q1 : 0.87498998642, Q2 : 0.0717586576939, Q3 : -0.132836043835, Q4 : 0.459997683764}
2019-04-14 23:48:42.71: SIM {TimeUS : 61735296, Roll : 0.21, Pitch : -17.37, Yaw : 55.38, Alt : 49.3100013733, Lat : 49.2836774, Lng : -123.1147832, Q1 : 0.875149726868, Q2 : 0.0718088969588, Q3 : -0.132893621922, Q4 : 0.459669172764}
2019-04-14 23:48:42.81: SIM {TimeUS : 61835256, Roll : 0.2, Pitch : -17.39, Yaw : 55.36, Alt : 49.3100013733, Lat : 49.2836797, Lng : -123.1147781, Q1 : 0.875220060349, Q2 : 0.0718087330461, Q3 : -0.133116781712, Q4 : 0.459470659494}
2019-04-14 23:48:42.91: SIM {TimeUS : 61935216, Roll : 0.19, Pitch : -17.42, Yaw : 55.36, Alt : 49.3100013733, Lat : 49.2836821, Lng : -123.114773, Q1 : 0.875211596489, Q2 : 0.0718641057611, Q3 : -0.133340537548, Q4 : 0.459413230419}
2019-04-14 23:48:43.01: SIM {TimeUS : 62035176, Roll : 0.18, Pitch : -17.45, Yaw : 55.37, Alt : 49.3100013733, Lat : 49.2836843, Lng : -123.1147678, Q1 : 0.875144422054, Q2 : 0.0718898996711, Q3 : -0.133655458689, Q4 : 0.459445685148}
2019-04-14 23:48:43.11: SIM {TimeUS : 62135136, Roll : 0.16, Pitch : -17.48, Yaw : 55.38, Alt : 49.3100013733, Lat : 49.2836865, Lng : -123.1147627, Q1 : 0.87505543232, Q2 : 0.071866184473, Q3 : -0.133917719126, Q4 : 0.459542453289}
2019-04-14 23:48:43.21: SIM {TimeUS : 62235096, Roll : 0.14, Pitch : -17.5, Yaw : 55.4, Alt : 49.3199996948, Lat : 49.2836888, Lng : -123.1147575, Q1 : 0.87496060133, Q2 : 0.0718348100781, Q3 : -0.134167134762, Q4 : 0.459655284882}
2019-04-14 23:48:43.31: SIM {TimeUS : 62335056, Roll : 0.12, Pitch : -17.52, Yaw : 55.42, Alt : 49.3199996948, Lat : 49.2836912, Lng : -123.1147523, Q1 : 0.874876201153, Q2 : 0.0717806965113, Q3 : -0.134361207485, Q4 : 0.459767609835}
2019-04-14 23:48:43.41: SIM {TimeUS : 62435016, Roll : 0.11, Pitch : -17.54, Yaw : 55.44, Alt : 49.3199996948, Lat : 49.2836935, Lng : -123.1147471, Q1 : 0.874800086021, Q2 : 0.0718169212341, Q3 : -0.134511649609, Q4 : 0.45986276865}
2019-04-14 23:48:43.51: SIM {TimeUS : 62534976, Roll : 0.11, Pitch : -17.56, Yaw : 55.44, Alt : 49.3199996948, Lat : 49.2836957, Lng : -123.1147419, Q1 : 0.874743282795, Q2 : 0.0719247236848, Q3 : -0.134661719203, Q4 : 0.459910094738}
2019-04-14 23:48:43.61: SIM {TimeUS : 62634936, Roll : 0.11, Pitch : -17.59, Yaw : 55.44, Alt : 49.3199996948, Lat : 49.283698, Lng : -123.1147367, Q1 : 0.874714255333, Q2 : 0.0720017850399, Q3 : -0.134946584702, Q4 : 0.459869742393}
2019-04-14 23:48:43.71: SIM {TimeUS : 62734896, Roll : 0.08, Pitch : -17.63, Yaw : 55.43, Alt : 49.3199996948, Lat : 49.2837004, Lng : -123.1147315, Q1 : 0.874722898006, Q2 : 0.0719354972243, Q3 : -0.13537953794, Q4 : 0.459736406803}
2019-04-14 23:48:43.81: SIM {TimeUS : 62834856, Roll : 0.06, Pitch : -17.68, Yaw : 55.42, Alt : 49.3199996948, Lat : 49.2837028, Lng : -123.1147262, Q1 : 0.874747872353, Q2 : 0.0719563141465, Q3 : -0.135800853372, Q4 : 0.459561347961}
2019-04-14 23:48:43.91: SIM {TimeUS : 62934816, Roll : 0.07, Pitch : -17.71, Yaw : 55.39, Alt : 49.3199996948, Lat : 49.2837051, Lng : -123.114721, Q1 : 0.87479197979, Q2 : 0.0721680223942, Q3 : -0.136018723249, Q4 : 0.459379643202}
2019-04-14 23:48:44.01: SIM {TimeUS : 63034776, Roll : 0.1, Pitch : -17.71, Yaw : 55.37, Alt : 49.3199996948, Lat : 49.2837074, Lng : -123.1147157, Q1 : 0.874879598618, Q2 : 0.0723887979984, Q3 : -0.135936573148, Q4 : 0.459202408791}
2019-04-14 23:48:44.11: SIM {TimeUS : 63134736, Roll : 0.14, Pitch : -17.69, Yaw : 55.34, Alt : 49.3199996948, Lat : 49.2837097, Lng : -123.1147104, Q1 : 0.875002026558, Q2 : 0.0725308507681, Q3 : -0.135664537549, Q4 : 0.45902711153}
2019-04-14 23:48:44.21: SIM {TimeUS : 63234696, Roll : 0.15, Pitch : -17.68, Yaw : 55.31, Alt : 49.3199996948, Lat : 49.283712, Lng : -123.1147051, Q1 : 0.875131607056, Q2 : 0.0725010633469, Q3 : -0.135505542159, Q4 : 0.458831697702}
2019-04-14 23:48:44.31: SIM {TimeUS : 63334656, Roll : 0.15, Pitch : -17.66, Yaw : 55.28, Alt : 49.3199996948, Lat : 49.2837144, Lng : -123.1146998, Q1 : 0.875259160995, Q2 : 0.0724433809519, Q3 : -0.135374128819, Q4 : 0.458636283875}
2019-04-14 23:48:44.41: SIM {TimeUS : 63434616, Roll : 0.15, Pitch : -17.64, Yaw : 55.25, Alt : 49.3199996948, Lat : 49.2837168, Lng : -123.1146945, Q1 : 0.875382483006, Q2 : 0.0723353400826, Q3 : -0.135280653834, Q4 : 0.458445489407}
2019-04-14 23:48:44.51: SIM {TimeUS : 63534576, Roll : 0.14, Pitch : -17.66, Yaw : 55.23, Alt : 49.3199996948, Lat : 49.2837192, Lng : -123.1146892, Q1 : 0.87546223402, Q2 : 0.072307780385, Q3 : -0.135429531336, Q4 : 0.45825368166}
2019-04-14 23:48:44.61: SIM {TimeUS : 63634536, Roll : 0.14, Pitch : -17.69, Yaw : 55.21, Alt : 49.3199996948, Lat : 49.2837216, Lng : -123.1146838, Q1 : 0.875505805016, Q2 : 0.0723947137594, Q3 : -0.135693505406, Q4 : 0.458078563213}
2019-04-14 23:48:44.71: SIM {TimeUS : 63735329, Roll : 0.13, Pitch : -17.74, Yaw : 55.19, Alt : 49.3300018311, Lat : 49.283724, Lng : -123.1146785, Q1 : 0.875514268875, Q2 : 0.0725008994341, Q3 : -0.136138170958, Q4 : 0.457913547754}
2019-04-14 23:48:44.81: SIM {TimeUS : 63835289, Roll : 0.13, Pitch : -17.79, Yaw : 55.18, Alt : 49.3300018311, Lat : 49.2837263, Lng : -123.1146731, Q1 : 0.875503838062, Q2 : 0.0726609155536, Q3 : -0.136572599411, Q4 : 0.457778692245}
2019-04-14 23:48:44.91: SIM {TimeUS : 63935249, Roll : 0.13, Pitch : -17.82, Yaw : 55.17, Alt : 49.3300018311, Lat : 49.2837287, Lng : -123.1146677, Q1 : 0.875505805016, Q2 : 0.07281126827, Q3 : -0.136745408177, Q4 : 0.457699507475}
2019-04-14 23:48:45.01: SIM {TimeUS : 64035209, Roll : 0.13, Pitch : -17.84, Yaw : 55.16, Alt : 49.3300018311, Lat : 49.2837311, Lng : -123.1146624, Q1 : 0.875513732433, Q2 : 0.0728759020567, Q3 : -0.136929571629, Q4 : 0.4576189816}
2019-04-14 23:48:45.11: SIM {TimeUS : 64135169, Roll : 0.13, Pitch : -17.85, Yaw : 55.16, Alt : 49.3300018311, Lat : 49.2837334, Lng : -123.114657, Q1 : 0.875530481339, Q2 : 0.0729026421905, Q3 : -0.137040182948, Q4 : 0.457549482584}
2019-04-14 23:48:45.21: SIM {TimeUS : 64235129, Roll : 0.14, Pitch : -17.85, Yaw : 55.15, Alt : 49.3300018311, Lat : 49.2837358, Lng : -123.1146515, Q1 : 0.875556707382, Q2 : 0.0729748904705, Q3 : -0.136941283941, Q4 : 0.457517445087}
2019-04-14 23:48:45.31: SIM {TimeUS : 64335089, Roll : 0.17, Pitch : -17.86, Yaw : 55.14, Alt : 49.3300018311, Lat : 49.2837382, Lng : -123.1146462, Q1 : 0.875557541847, Q2 : 0.0731795877218, Q3 : -0.13694088161, Q4 : 0.457483291626}
2019-04-14 23:48:45.41: SIM {TimeUS : 64435049, Roll : 0.18, Pitch : -17.88, Yaw : 55.14, Alt : 49.3300018311, Lat : 49.2837406, Lng : -123.1146408, Q1 : 0.875550329685, Q2 : 0.0733464807272, Q3 : -0.137089431286, Q4 : 0.457425892353}
2019-04-14 23:48:45.51: SIM {TimeUS : 64535009, Roll : 0.18, Pitch : -17.9, Yaw : 55.13, Alt : 49.3300018311, Lat : 49.283743, Lng : -123.1146354, Q1 : 0.875554263592, Q2 : 0.0734387561679, Q3 : -0.137231424451, Q4 : 0.457360953093}
2019-04-14 23:48:45.61: SIM {TimeUS : 64634969, Roll : 0.18, Pitch : -17.9, Yaw : 55.12, Alt : 49.3300018311, Lat : 49.2837454, Lng : -123.11463, Q1 : 0.875595271587, Q2 : 0.0734341964126, Q3 : -0.137222364545, Q4 : 0.457285821438}
2019-04-14 23:48:45.71: SIM {TimeUS : 64734929, Roll : 0.18, Pitch : -17.9, Yaw : 55.11, Alt : 49.3300018311, Lat : 49.2837478, Lng : -123.1146246, Q1 : 0.875643193722, Q2 : 0.0733902975917, Q3 : -0.137266799808, Q4 : 0.457187831402}
2019-04-14 23:48:45.81: SIM {TimeUS : 64834889, Roll : 0.16, Pitch : -17.92, Yaw : 55.09, Alt : 49.3300018311, Lat : 49.2837503, Lng : -123.1146192, Q1 : 0.875684738159, Q2 : 0.0732997134328, Q3 : -0.137503087521, Q4 : 0.4570517838}
2019-04-14 23:48:45.91: SIM {TimeUS : 64934849, Roll : 0.13, Pitch : -17.96, Yaw : 55.08, Alt : 49.3300018311, Lat : 49.2837527, Lng : -123.1146138, Q1 : 0.875716328621, Q2 : 0.0732183679938, Q3 : -0.137906804681, Q4 : 0.456882566214}
2019-04-14 23:48:46.01: SIM {TimeUS : 65034809, Roll : 0.12, Pitch : -17.97, Yaw : 55.06, Alt : 49.3300018311, Lat : 49.2837551, Lng : -123.1146083, Q1 : 0.875775873661, Q2 : 0.073154501617, Q3 : -0.138019546866, Q4 : 0.456744581461}
2019-04-14 23:48:46.11: SIM {TimeUS : 65134769, Roll : 0.13, Pitch : -17.95, Yaw : 55.05, Alt : 49.3300018311, Lat : 49.2837576, Lng : -123.1146029, Q1 : 0.875847697258, Q2 : 0.0731717348099, Q3 : -0.13788099587, Q4 : 0.456646025181}
2019-04-14 23:48:46.21: SIM {TimeUS : 65234729, Roll : 0.15, Pitch : -17.94, Yaw : 55.03, Alt : 49.3300018311, Lat : 49.28376, Lng : -123.1145974, Q1 : 0.875912725925, Q2 : 0.0732691809535, Q3 : -0.137694194913, Q4 : 0.456561952829}
2019-04-14 23:48:46.31: SIM {TimeUS : 65334689, Roll : 0.17, Pitch : -17.95, Yaw : 55.02, Alt : 49.3400001526, Lat : 49.2837624, Lng : -123.1145919, Q1 : 0.875952839851, Q2 : 0.0734118521214, Q3 : -0.137708574533, Q4 : 0.456457823515}
2019-04-14 23:48:46.41: SIM {TimeUS : 65434649, Roll : 0.16, Pitch : -17.97, Yaw : 55.0, Alt : 49.3400001526, Lat : 49.2837648, Lng : -123.1145865, Q1 : 0.875986218452, Q2 : 0.0734134465456, Q3 : -0.13790422678, Q4 : 0.456334352493}
2019-04-14 23:48:46.51: SIM {TimeUS : 65534609, Roll : 0.14, Pitch : -17.99, Yaw : 54.99, Alt : 49.3400001526, Lat : 49.2837673, Lng : -123.114581, Q1 : 0.876019954681, Q2 : 0.0733263790607, Q3 : -0.138161092997, Q4 : 0.456205904484}
2019-04-14 23:48:46.61: SIM {TimeUS : 65634569, Roll : 0.12, Pitch : -18.01, Yaw : 54.98, Alt : 49.3400001526, Lat : 49.2837697, Lng : -123.1145756, Q1 : 0.876049637794, Q2 : 0.073269508779, Q3 : -0.138376161456, Q4 : 0.45609280467}
2019-04-14 23:48:46.72: SIM {TimeUS : 65735362, Roll : 0.13, Pitch : -18.03, Yaw : 54.97, Alt : 49.3400001526, Lat : 49.2837721, Lng : -123.1145701, Q1 : 0.876070022583, Q2 : 0.0733421072364, Q3 : -0.138537243009, Q4 : 0.455993026495}
2019-04-14 23:48:46.81: SIM {TimeUS : 65835322, Roll : 0.14, Pitch : -18.04, Yaw : 54.96, Alt : 49.3400001526, Lat : 49.2837746, Lng : -123.1145646, Q1 : 0.876088440418, Q2 : 0.073461279273, Q3 : -0.13860091567, Q4 : 0.455919206142}
2019-04-14 23:48:46.91: SIM {TimeUS : 65935282, Roll : 0.16, Pitch : -18.05, Yaw : 54.95, Alt : 49.3400001526, Lat : 49.283777, Lng : -123.1145591, Q1 : 0.876090526581, Q2 : 0.0736864879727, Q3 : -0.138561978936, Q4 : 0.455890655518}
2019-04-14 23:48:47.01: SIM {TimeUS : 66035242, Roll : 0.18, Pitch : -18.07, Yaw : 54.94, Alt : 49.3400001526, Lat : 49.2837794, Lng : -123.1145536, Q1 : 0.876081943512, Q2 : 0.0738579407334, Q3 : -0.138653799891, Q4 : 0.455851465464}
2019-04-14 23:48:47.11: SIM {TimeUS : 66135202, Roll : 0.19, Pitch : -18.09, Yaw : 54.94, Alt : 49.3400001526, Lat : 49.2837819, Lng : -123.1145481, Q1 : 0.876071870327, Q2 : 0.0740210935473, Q3 : -0.138771146536, Q4 : 0.455808639526}
2019-04-14 23:48:47.21: SIM {TimeUS : 66235162, Roll : 0.2, Pitch : -18.11, Yaw : 54.93, Alt : 49.3400001526, Lat : 49.2837843, Lng : -123.1145426, Q1 : 0.87606716156, Q2 : 0.0741820931435, Q3 : -0.138834536076, Q4 : 0.455772280693}
2019-04-14 23:48:47.31: SIM {TimeUS : 66335122, Roll : 0.23, Pitch : -18.11, Yaw : 54.93, Alt : 49.3400001526, Lat : 49.2837868, Lng : -123.1145371, Q1 : 0.876067698002, Q2 : 0.0743858516216, Q3 : -0.138778403401, Q4 : 0.45575517416}
2019-04-14 23:48:47.41: SIM {TimeUS : 66435082, Roll : 0.26, Pitch : -18.12, Yaw : 54.92, Alt : 49.3400001526, Lat : 49.2837892, Lng : -123.1145316, Q1 : 0.876061558723, Q2 : 0.0746459066868, Q3 : -0.138696834445, Q4 : 0.455749243498}
2019-04-14 23:48:47.51: SIM {TimeUS : 66535042, Roll : 0.26, Pitch : -18.11, Yaw : 54.92, Alt : 49.3499984741, Lat : 49.2837917, Lng : -123.1145261, Q1 : 0.876089513302, Q2 : 0.0745917186141, Q3 : -0.138651043177, Q4 : 0.455718308687}
2019-04-14 23:48:47.61: SIM {TimeUS : 66635002, Roll : 0.23, Pitch : -18.12, Yaw : 54.91, Alt : 49.3499984741, Lat : 49.2837942, Lng : -123.1145206, Q1 : 0.876117050648, Q2 : 0.0743977501988, Q3 : -0.138814181089, Q4 : 0.45564737916}
