2019-04-14 21:39:03.00: SIM {TimeUS : 40216407, Roll : 0.0, Pitch : 0.0, Yaw : 0.0, Alt : 30.1000003815, Lat : 49.28357, Lng : -123.11502, Q1 : 1.0, Q2 : 0.0, Q3 : 0.0, Q4 : 0.0}
2019-04-14 21:39:03.11: SIM {TimeUS : 40335526, Roll : 0.0, Pitch : 0.0, Yaw : 0.0, Alt : 30.1000003815, Lat : 49.28357, Lng : -123.11502, Q1 : 1.0, Q2 : 0.0, Q3 : 0.0, Q4 : 0.0}
2019-04-14 21:39:03.21: SIM {TimeUS : 40435486, Roll : 0.0, Pitch : 0.0, Yaw : 0.0, Alt : 30.1000003815, Lat : 49.28357, Lng : -123.11502, Q1 : 1.0, Q2 : 0.0, Q3 : 0.0, Q4 : 0.0}
2019-04-14 21:39:03.31: SIM {TimeUS : 40535446, Roll : 0.0, Pitch : 0.0, Yaw : 0.0, Alt : 30.1000003815, Lat : 49.28357, Lng : -123.11502, Q1 : 1.0, Q2 : 0.0, Q3 : 0.0, Q4 : 0.0}
2019-04-14 21:39:03.41: SIM {TimeUS : 40635406, Roll : 0.0, Pitch : 0.0, Yaw : 0.0, Alt : 30.1000003815, Lat : 49.28357, Lng : -123.11502, Q1 : 1.0, Q2 : 0.0, Q3 : 0.0, Q4 : 0.0}
2019-04-14 21:39:03.51: SIM {TimeUS : 40735366, Roll : 0.0, Pitch : 0.0, Yaw : 0.0, Alt : 30.1000003815, Lat : 49.28357, Lng : -123.11502, Q1 : 1.0, Q2 : 0.0, Q3 : 0.0, Q4 : 0.0}
2019-04-14 21:39:03.61: SIM {TimeUS : 40835326, Roll : 0.0, Pitch : 0.0, Yaw : 0.0, Alt : 30.1000003815, Lat : 49.28357, Lng : -123.11502, Q1 : 1.0, Q2 : 0.0, Q3 : 0.0, Q4 : 0.0}
2019-04-14 21:39:03.71: SIM {TimeUS : 40935286, Roll : 0.0, Pitch : 0.0, Yaw : 0.0, Alt : 30.1000003815, Lat : 49.28357, Lng : -123.11502, Q1 : 1.0, Q2 : 0.0, Q3 : 0.0, Q4 : 0.0}
2019-04-14 21:39:03.81: SIM {TimeUS : 41035246, Roll : 0.0, Pitch : 0.0, Yaw : 0.0, Alt : 30.1000003815, Lat : 49.28357, Lng : -123.11502, Q1 : 1.0, Q2 : 0.0, Q3 : 0.0, Q4 : 0.0}
2019-04-14 21:39:03.91: SIM {TimeUS : 41135206, Roll : 0.0, Pitch : 0.0, Yaw : 0.0, Alt : 30.1000003815, Lat : 49.28357, Lng : -123.11502, Q1 : 1.0, Q2 : 0.0, Q3 : 0.0, Q4 : 0.0}
2019-04-14 21:39:04.01: SIM {TimeUS : 41235166, Roll : 0.0, Pitch : 0.0, Yaw : 0.0, Alt : 30.1000003815, Lat : 49.28357, Lng : -123.11502, Q1 : 1.0, Q2 : 0.0, Q3 : 0.0, Q4 : 0.0}
2019-04-14 21:39:04.11: SIM {TimeUS : 41335126, Roll : 0.0, Pitch : 0.0, Yaw : 0.0, Alt : 30.1000003815, Lat : 49.28357, Lng : -123.11502, Q1 : 1.0, Q2 : 0.0, Q3 : 0.0, Q4 : 0.0}
2019-04-14 21:39:04.21: SIM {TimeUS : 41435086, Roll : 0.0, Pitch : 0.0, Yaw : 0.0, Alt : 30.1000003815, Lat : 49.28357, Lng : -123.11502, Q1 : 1.0, Q2 : 0.0, Q3 : 0.0, Q4 : 0.0}
2019-04-14 21:39:04.31: SIM {TimeUS : 41535046, Roll : 0.0, Pitch : 0.0, Yaw : 0.0, Alt : 30.1000003815, Lat : 49.28357, Lng : -123.11502, Q1 : 1.0, Q2 : 0.0, Q3 : 0.0, Q4 : 0.0}
2019-04-14 21:39:04.41: SIM {TimeUS : 41635006, Roll : 0.0, Pitch : 0.0, Yaw : 0.0, Alt : 30.1000003815, Lat : 49.28357, Lng : -123.11502, Q1 : 1.0, Q2 : 0.0, Q3 : 0.0, Q4 : 0.0}
2019-04-14 21:39:04.51: SIM {TimeUS : 41734966, Roll : 0.0, Pitch : 0.0, Yaw : 0.0, Alt : 30.1000003815, Lat : 49.28357, Lng : -123.11502, Q1 : 1.0, Q2 : 0.0, Q3 : 0.0, Q4 : 0.0}
2019-04-14 21:39:04.61: SIM {TimeUS : 41834926, Roll : 0.0, Pitch : 0.0, Yaw : 0.0, Alt : 30.1000003815, Lat : 49.28357, Lng : -123.11502, Q1 : 1.0, Q2 : 0.0, Q3 : 0.0, Q4 : 0.0}
2019-04-14 21:39:04.71: SIM {TimeUS : 41934886, Roll : 0.0, Pitch : 0.0, Yaw : 0.0, Alt : 30.1000003815, Lat : 49.28357, Lng : -123.11502, Q1 : 1.0, Q2 : 0.0, Q3 : 0.0, Q4 : 0.0}
2019-04-14 21:39:04.81: SIM {TimeUS : 42034846, Roll : 0.0, Pitch : 0.0, Yaw : 0.0, Alt : 30.1000003815, Lat : 49.28357, Lng : -123.11502, Q1 : 1.0, Q2 : 0.0, Q3 : 0.0, Q4 : 0.0}
2019-04-14 21:39:04.91: SIM {TimeUS : 42134806, Roll : 0.0, Pitch : 0.0, Yaw : 0.0, Alt : 30.1000003815, Lat : 49.28357, Lng : -123.11502, Q1 : 1.0, Q2 : 0.0, Q3 : 0.0, Q4 : 0.0}
2019-04-14 21:39:05.01: SIM {TimeUS : 42234766, Roll : 0.0, Pitch : 0.0, Yaw : 0.0, Alt : 30.1000003815, Lat : 49.28357, Lng : -123.11502, Q1 : 1.0, Q2 : 0.0, Q3 : 0.0, Q4 : 0.0}
2019-04-14 21:39:05.11: SIM {TimeUS : 42335559, Roll : 0.0, Pitch : 0.0, Yaw : 0.0, Alt : 30.1000003815, Lat : 49.28357, Lng : -123.11502, Q1 : 1.0, Q2 : 0.0, Q3 : 0.0, Q4 : 0.0}
2019-04-14 21:39:05.21: SIM {TimeUS : 42435519, Roll : 0.0, Pitch : 0.0, Yaw : 0.0, Alt : 30.1000003815, Lat : 49.28357, Lng : -123.11502, Q1 : 1.0, Q2 : 0.0, Q3 : 0.0, Q4 : 0.0}
2019-04-14 21:39:05.31: SIM {TimeUS : 42535479, Roll : 0.0, Pitch : 0.0, Yaw : 360.0, Alt : 30.1000003815, Lat : 49.28357, Lng : -123.11502, Q1 : 1.0, Q2 : 0.0, Q3 : 0.0, Q4 : -1.4079991513e-12}
2019-04-14 21:39:05.41: SIM {TimeUS : 42635439, Roll : 0.0, Pitch : 0.0, Yaw : 0.0, Alt : 30.1000003815, Lat : 49.28357, Lng : -123.11502, Q1 : 1.0, Q2 : 0.0, Q3 : 0.0, Q4 : 2.27504577677e-11}
2019-04-14 21:39:05.51: SIM {TimeUS : 42735399, Roll : 0.0, Pitch : 0.0, Yaw : 360.0, Alt : 30.1000003815, Lat : 49.28357, Lng : -123.11502, Q1 : 1.0, Q2 : 0.0, Q3 : 0.0, Q4 : -1.67921996308e-07}
2019-04-14 21:39:05.61: SIM {TimeUS : 42835359, Roll : 0.0, Pitch : 0.0, Yaw : 359.99, Alt : 30.1000003815, Lat : 49.28357, Lng : -123.11502, Q1 : 1.0, Q2 : 0.0, Q3 : 0.0, Q4 : -3.59856613841e-07}
2019-04-14 21:39:05.71: SIM {TimeUS : 42935319, Roll : 0.0, Pitch : 0.0, Yaw : 359.99, Alt : 30.1000003815, Lat : 49.28357, Lng : -123.11502, Q1 : 1.0, Q2 : 0.0, Q3 : 0.0, Q4 : -5.4647836123e-07}
2019-04-14 21:39:05.81: SIM {TimeUS : 43035279, Roll : 0.0, Pitch : 0.0, Yaw : 359.99, Alt : 30.1000003815, Lat : 49.28357, Lng : -123.11502, Q1 : 1.0, Q2 : 0.0, Q3 : 0.0, Q4 : -7.51249388031e-07}
2019-04-14 21:39:05.91: SIM {TimeUS : 43135239, Roll : 0.0, Pitch : 0.0, Yaw : 359.99, Alt : 30.1000003815, Lat : 49.28357, Lng : -123.11502, Q1 : 1.0, Q2 : 0.0, Q3 : 0.0, Q4 : -9.36232140702e-07}
2019-04-14 21:39:06.01: SIM {TimeUS : 43235199, Roll : 0.0, Pitch : 0.0, Yaw : 359.99, Alt : 30.1000003815, Lat : 49.28357, Lng : -123.11502, Q1 : 1.0, Q2 : 0.0, Q3 : 0.0, Q4 : -1.12913221528e-06}
2019-04-14 21:39:06.11: SIM {TimeUS : 43335159, Roll : 0.0, Pitch : 0.0, Yaw : 359.99, Alt : 30.1000003815, Lat : 49.28357, Lng : -123.11502, Q1 : 1.0, Q2 : 0.0, Q3 : 0.0, Q4 : -1.3292950598e-06}
2019-04-14 21:39:06.21: SIM {TimeUS : 43435119, Roll : 0.0, Pitch : 0.0, Yaw : 359.99, Alt : 30.1200008392, Lat : 49.28357, Lng : -123.11502, Q1 : 1.0, Q2 : 0.0, Q3 : 0.0, Q4 : -1.53318478624e-06}
2019-04-14 21:39:06.31: SIM {TimeUS : 43535079, Roll : 0.0, Pitch : 0.0, Yaw : 359.99, Alt : 30.1399993896, Lat : 49.28357, Lng : -123.11502, Q1 : 1.0, Q2 : 0.0, Q3 : 0.0, Q4 : -1.80437189101e-06}
2019-04-14 21:39:06.41: SIM {TimeUS : 43635039, Roll : 0.0, Pitch : 0.0, Yaw : 359.99, Alt : 30.1700000763, Lat : 49.28357, Lng : -123.11502, Q1 : 1.0, Q2 : 0.0, Q3 : 0.0, Q4 : -2.08735127671e-06}
2019-04-14 21:39:06.51: SIM {TimeUS : 43734999, Roll : 0.0, Pitch : 0.0, Yaw : 359.99, Alt : 30.2000007629, Lat : 49.28357, Lng : -123.11502, Q1 : 1.0, Q2 : 0.0, Q3 : 0.0, Q4 : -2.32216461882e-06}
2019-04-14 21:39:06.61: SIM {TimeUS : 43834959, Roll : -0.1, Pitch : -0.08, Yaw : 359.99, Alt : 30.25, Lat : 49.28357, Lng : -123.11502, Q1 : 0.99999922514, Q2 : -0.000945437641349, Q3 : -0.000772070721723, Q4 : -1.14770882647e-05}
2019-04-14 21:39:06.71: SIM {TimeUS : 43934919, Roll : -0.41, Pitch : -0.33, Yaw : 359.99, Alt : 30.3500003815, Lat : 49.28357, Lng : -123.11502, Q1 : 0.999989151955, Q2 : -0.00359534611925, Q3 : -0.00295432261191, Q4 : -4.48485006928e-05}
2019-04-14 21:39:06.81: SIM {TimeUS : 44034879, Roll : -0.69, Pitch : -0.58, Yaw : 359.99, Alt : 30.4899997711, Lat : 49.28357, Lng : -123.11502, Q1 : 0.999968349934, Q2 : -0.00606897240505, Q3 : -0.00514310132712, Q4 : -0.000102834070276}
2019-04-14 21:39:06.91: SIM {TimeUS : 44134839, Roll : -0.84, Pitch : -0.73, Yaw : 359.98, Alt : 30.6499996185, Lat : 49.28357, Lng : -123.11502, Q1 : 0.999952614307, Q2 : -0.00734131876379, Q3 : -0.00638734968379, Q4 : -0.000172678439412}
2019-04-14 21:39:07.01: SIM {TimeUS : 44234799, Roll : -0.83, Pitch : -0.73, Yaw : 359.97, Alt : 30.8099994659, Lat : 49.28357, Lng : -123.11502, Q1 : 0.99995303154, Q2 : -0.00726251956075, Q3 : -0.00641781464219, Q4 : -0.0002535674721}
2019-04-14 21:39:07.11: SIM {TimeUS : 44334759, Roll : -0.69, Pitch : -0.62, Yaw : 359.96, Alt : 30.9599990845, Lat : 49.28357, Lng : -123.1150201, Q1 : 0.999966681004, Q2 : -0.00608541350812, Q3 : -0.00543184624985, Q4 : -0.000337893347023}
2019-04-14 21:39:07.21: SIM {TimeUS : 44435552, Roll : -0.46, Pitch : -0.45, Yaw : 359.95, Alt : 31.1200008392, Lat : 49.2835701, Lng : -123.1150202, Q1 : 0.999983608723, Q2 : -0.00408324087039, Q3 : -0.00399130629376, Q4 : -0.000411832588725}
2019-04-14 21:39:07.31: SIM {TimeUS : 44535512, Roll : -0.23, Pitch : -0.26, Yaw : 359.94, Alt : 31.2800006866, Lat : 49.2835701, Lng : -123.1150203, Q1 : 0.999995052814, Q2 : -0.00207576481625, Q3 : -0.00232675089501, Q4 : -0.000473617779789}
2019-04-14 21:39:07.41: SIM {TimeUS : 44635472, Roll : -0.06, Pitch : -0.09, Yaw : 359.94, Alt : 31.4400005341, Lat : 49.2835702, Lng : -123.1150204, Q1 : 0.999999344349, Q2 : -0.000607479887549, Q3 : -0.000836049497593, Q4 : -0.000521486275829}
2019-04-14 21:39:07.51: SIM {TimeUS : 44735432, Roll : 0.02, Pitch : 0.01, Yaw : 359.93, Alt : 31.6200008392, Lat : 49.2835702, Lng : -123.1150204, Q1 : 0.999999821186, Q2 : 0.000242028283537, Q3 : 0.000108324275061, Q4 : -0.000551962701138}
2019-04-14 21:39:07.61: SIM {TimeUS : 44835392, Roll : 0.06, Pitch : 0.05, Yaw : 359.93, Alt : 31.7999992371, Lat : 49.2835703, Lng : -123.1150205, Q1 : 0.999999582767, Q2 : 0.000554766156711, Q3 : 0.000495587126352, Q4 : -0.000572647666559}
2019-04-14 21:39:07.71: SIM {TimeUS : 44935352, Roll : 0.06, Pitch : 0.05, Yaw : 359.93, Alt : 31.9799995422, Lat : 49.2835703, Lng : -123.1150206, Q1 : 0.999999582767, Q2 : 0.000559819105547, Q3 : 0.000471791019663, Q4 : -0.000586109817959}
2019-04-14 21:39:07.81: SIM {TimeUS : 45035312, Roll : 0.06, Pitch : 0.03, Yaw : 359.93, Alt : 32.1699981689, Lat : 49.2835703, Lng : -123.1150206, Q1 : 0.999999642372, Q2 : 0.000558291503694, Q3 : 0.000317892961903, Q4 : -0.000587403599638}
2019-04-14 21:39:07.91: SIM {TimeUS : 45135272, Roll : 0.07, Pitch : 0.03, Yaw : 359.93, Alt : 32.3600006104, Lat : 49.2835703, Lng : -123.1150207, Q1 : 0.999999582767, Q2 : 0.000682952522766, Q3 : 0.000281145912595, Q4 : -0.000579478684813}
2019-04-14 21:39:08.01: SIM {TimeUS : 45235232, Roll : 0.09, Pitch : 0.05, Yaw : 359.93, Alt : 32.5499992371, Lat : 49.2835703, Lng : -123.1150207, Q1 : 0.999999344349, Q2 : 0.000844289548695, Q3 : 0.000499829999171, Q4 : -0.000557343068067}
2019-04-14 21:39:08.11: SIM {TimeUS : 45335192, Roll : 0.1, Pitch : 0.09, Yaw : 359.93, Alt : 32.75, Lat : 49.2835703, Lng : -123.1150208, Q1 : 0.999999046326, Q2 : 0.000941221078392, Q3 : 0.000853880716022, Q4 : -0.000524582457729}
2019-04-14 21:39:08.21: SIM {TimeUS : 45435152, Roll : 0.11, Pitch : 0.13, Yaw : 359.94, Alt : 32.9500007629, Lat : 49.2835704, Lng : -123.1150208, Q1 : 0.999998629093, Q2 : 0.00097406929126, Q3 : 0.00122115830891, Q4 : -0.000495157786645}
2019-04-14 21:39:08.31: SIM {TimeUS : 45535112, Roll : 0.13, Pitch : 0.18, Yaw : 359.94, Alt : 33.1500015259, Lat : 49.2835704, Lng : -123.1150208, Q1 : 0.999997973442, Q2 : 0.00114341452718, Q3 : 0.00160695158411, Q4 : -0.00048020252143}
2019-04-14 21:39:08.41: SIM {TimeUS : 45635072, Roll : 0.16, Pitch : 0.2, Yaw : 359.94, Alt : 33.3499984741, Lat : 49.2835704, Lng : -123.1150209, Q1 : 0.999997258186, Q2 : 0.0014171001967, Q3 : 0.00182247289922, Q4 : -0.000484749441966}
2019-04-14 21:39:08.51: SIM {TimeUS : 45735032, Roll : 0.18, Pitch : 0.21, Yaw : 359.94, Alt : 33.5600013733, Lat : 49.2835704, Lng : -123.1150209, Q1 : 0.999996721745, Q2 : 0.00164590717759, Q3 : 0.00189760455396, Q4 : -0.000500313122757}
2019-04-14 21:39:08.61: SIM {TimeUS : 45834992, Roll : 0.19, Pitch : 0.21, Yaw : 359.94, Alt : 33.7599983215, Lat : 49.2835704, Lng : -123.1150209, Q1 : 0.99999666214, Q2 : 0.00170990999322, Q3 : 0.00187312427443, Q4 : -0.000523104099557}
2019-04-14 21:39:08.71: SIM {TimeUS : 45934952, Roll : 0.19, Pitch : 0.18, Yaw : 359.93, Alt : 33.9700012207, Lat : 49.2835704, Lng : -123.1150209, Q1 : 0.999997198582, Q2 : 0.00166537531186, Q3 : 0.00158282276243, Q4 : -0.000550461816601}
2019-04-14 21:39:08.81: SIM {TimeUS : 46034912, Roll : 0.16, Pitch : 0.12, Yaw : 359.93, Alt : 34.1800003052, Lat : 49.2835706, Lng : -123.1150209, Q1 : 0.999998092651, Q2 : 0.00148163188715, Q3 : 0.00112752814312, Q4 : -0.000564820889849}
2019-04-14 21:39:08.91: SIM {TimeUS : 46134872, Roll : 0.13, Pitch : 0.08, Yaw : 359.93, Alt : 34.3899993896, Lat : 49.2835706, Lng : -123.1150209, Q1 : 0.999998867512, Q2 : 0.00119850435294, Q3 : 0.00076031772187, Q4 : -0.000576875929255}
2019-04-14 21:39:09.01: SIM {TimeUS : 46234832, Roll : 0.1, Pitch : 0.06, Yaw : 359.93, Alt : 34.6100006104, Lat : 49.2835704, Lng : -123.1150209, Q1 : 0.999999284744, Q2 : 0.000930648704525, Q3 : 0.000523342518136, Q4 : -0.000597165082581}
2019-04-14 21:39:09.11: SIM {TimeUS : 46334792, Roll : 0.09, Pitch : 0.05, Yaw : 359.92, Alt : 34.8199996948, Lat : 49.2835704, Lng : -123.1150209, Q1 : 0.999999344349, Q2 : 0.000821544090286, Q3 : 0.000500966212712, Q4 : -0.000623087864369}
2019-04-14 21:39:09.21: SIM {TimeUS : 46434752, Roll : 0.08, Pitch : 0.04, Yaw : 359.92, Alt : 35.0400009155, Lat : 49.2835704, Lng : -123.1150208, Q1 : 0.999999463558, Q2 : 0.000742250063922, Q3 : 0.000389334309148, Q4 : -0.000646429660264}
2019-04-14 21:39:09.31: SIM {TimeUS : 46535545, Roll : 0.06, Pitch : 0.03, Yaw : 359.92, Alt : 35.25, Lat : 49.2835704, Lng : -123.1150208, Q1 : 0.999999523163, Q2 : 0.000604465370998, Q3 : 0.000310235860525, Q4 : -0.000665445113555}
2019-04-14 21:39:09.41: SIM {TimeUS : 46635505, Roll : 0.04, Pitch : 0.03, Yaw : 359.92, Alt : 35.4700012207, Lat : 49.2835704, Lng : -123.1150208, Q1 : 0.999999642372, Q2 : 0.000422325072577, Q3 : 0.000295333244139, Q4 : -0.000686499639414}
2019-04-14 21:39:09.51: SIM {TimeUS : 46735465, Roll : 0.02, Pitch : 0.04, Yaw : 359.91, Alt : 35.6899986267, Lat : 49.2835704, Lng : -123.1150208, Q1 : 0.999999642372, Q2 : 0.000254564889474, Q3 : 0.000356837379513, Q4 : -0.000709624146111}
2019-04-14 21:39:09.61: SIM {TimeUS : 46835425, Roll : 0.01, Pitch : 0.02, Yaw : 359.91, Alt : 35.9099998474, Lat : 49.2835704, Lng : -123.1150208, Q1 : 0.999999701977, Q2 : 0.000165652672877, Q3 : 0.000233638289501, Q4 : -0.000728675746359}
2019-04-14 21:39:09.71: SIM {TimeUS : 46935385, Roll : 0.0, Pitch : 0.01, Yaw : 359.91, Alt : 36.1300010681, Lat : 49.2835704, Lng : -123.1150207, Q1 : 0.999999701977, Q2 : 7.06423379597e-05, Q3 : 0.000114257032692, Q4 : -0.000748815014958}
2019-04-14 21:39:09.81: SIM {TimeUS : 47035345, Roll : 0.0, Pitch : 0.0, Yaw : 359.91, Alt : 36.3499984741, Lat : 49.2835704, Lng : -123.1150207, Q1 : 0.999999701977, Q2 : -8.05334420875e-05, Q3 : 3.56601121894e-05, Q4 : -0.00077330507338}
2019-04-14 21:39:09.91: SIM {TimeUS : 47135305, Roll : -0.01, Pitch : 0.0, Yaw : 359.9, Alt : 36.5699996948, Lat : 49.2835704, Lng : -123.1150207, Q1 : 0.999999642372, Q2 : -0.000132867993671, Q3 : 1.62163069035e-05, Q4 : -0.000800328503828}
2019-04-14 21:39:10.01: SIM {TimeUS : 47235265, Roll : 0.0, Pitch : 0.0, Yaw : 359.9, Alt : 36.7999992371, Lat : 49.2835704, Lng : -123.1150207, Q1 : 0.999999642372, Q2 : -9.70409746515e-06, Q3 : -5.36110928806e-05, Q4 : -0.000825535971671}
2019-04-14 21:39:10.11: SIM {TimeUS : 47335225, Roll : 0.0, Pitch : -0.02, Yaw : 359.9, Alt : 37.0200004578, Lat : 49.2835704, Lng : -123.1150207, Q1 : 0.999999642372, Q2 : -2.40906647377e-05, Q3 : -0.000186221819604, Q4 : -0.000848408148158}
2019-04-14 21:39:10.21: SIM {TimeUS : 47435185, Roll : -0.02, Pitch : -0.05, Yaw : 359.89, Alt : 37.25, Lat : 49.2835704, Lng : -123.1150207, Q1 : 0.999999463558, Q2 : -0.000254476879491, Q3 : -0.000455651723314, Q4 : -0.00087529735174}
2019-04-14 21:39:10.31: SIM {TimeUS : 47535145, Roll : -0.07, Pitch : -0.08, Yaw : 359.89, Alt : 37.4700012207, Lat : 49.2835704, Lng : -123.1150207, Q1 : 0.99999910593, Q2 : -0.000614090648014, Q3 : -0.000732329033781, Q4 : -0.000901835621335}
2019-04-14 21:39:10.41: SIM {TimeUS : 47635105, Roll : -0.1, Pitch : -0.1, Yaw : 359.89, Alt : 37.7000007629, Lat : 49.2835704, Lng : -123.1150206, Q1 : 0.999998748302, Q2 : -0.000935492338613, Q3 : -0.000881903164554, Q4 : -0.000929782574531}
2019-04-14 21:39:10.51: SIM {TimeUS : 47735065, Roll : -0.12, Pitch : -0.1, Yaw : 359.88, Alt : 37.9199981689, Lat : 49.2835704, Lng : -123.1150206, Q1 : 0.999998450279, Q2 : -0.00112680706661, Q3 : -0.000957193609793, Q4 : -0.000961933867075}
2019-04-14 21:39:10.61: SIM {TimeUS : 47835025, Roll : -0.13, Pitch : -0.1, Yaw : 359.88, Alt : 38.1500015259, Lat : 49.2835704, Lng : -123.1150206, Q1 : 0.999998450279, Q2 : -0.00117939664051, Q3 : -0.00087749841623, Q4 : -0.000993998139165}
2019-04-14 21:39:10.71: SIM {TimeUS : 47934985, Roll : -0.12, Pitch : -0.06, Yaw : 359.88, Alt : 38.3800010681, Lat : 49.2835704, Lng : -123.1150206, Q1 : 0.999998748302, Q2 : -0.00105960632209, Q3 : -0.000580469379202, Q4 : -0.0010204463033}
2019-04-14 21:39:10.81: SIM {TimeUS : 48034945, Roll : -0.09, Pitch : -0.04, Yaw : 359.88, Alt : 38.6100006104, Lat : 49.2835704, Lng : -123.1150206, Q1 : 0.999999046326, Q2 : -0.000831740151625, Q3 : -0.000392237125197, Q4 : -0.00104577082675}
2019-04-14 21:39:10.91: SIM {TimeUS : 48134905, Roll : -0.07, Pitch : -0.03, Yaw : 359.87, Alt : 38.8300018311, Lat : 49.2835704, Lng : -123.1150206, Q1 : 0.99999910593, Q2 : -0.000686172919814, Q3 : -0.000325878558215, Q4 : -0.00107898470014}
2019-04-14 21:39:11.01: SIM {TimeUS : 48234865, Roll : -0.06, Pitch : -0.01, Yaw : 359.87, Alt : 39.0600013733, Lat : 49.2835704, Lng : -123.1150206, Q1 : 0.99999922514, Q2 : -0.00060361053329, Q3 : -0.000146557475091, Q4 : -0.00110602274071}
2019-04-14 21:39:11.11: SIM {TimeUS : 48334825, Roll : -0.08, Pitch : 0.0, Yaw : 359.87, Alt : 39.2900009155, Lat : 49.2835704, Lng : -123.1150206, Q1 : 0.99999910593, Q2 : -0.000715372094419, Q3 : 3.2694922993e-05, Q4 : -0.00111869035754}
2019-04-14 21:39:11.21: SIM {TimeUS : 48434785, Roll : -0.08, Pitch : 0.02, Yaw : 359.87, Alt : 39.5200004578, Lat : 49.2835704, Lng : -123.1150206, Q1 : 0.99999910593, Q2 : -0.00071864965139, Q3 : 0.000191624800209, Q4 : -0.0011246050708}
2019-04-14 21:39:11.31: SIM {TimeUS : 48534745, Roll : -0.06, Pitch : 0.04, Yaw : 359.87, Alt : 39.75, Lat : 49.2835706, Lng : -123.1150206, Q1 : 0.99999910593, Q2 : -0.000560924992897, Q3 : 0.000413852278143, Q4 : -0.00113128346857}
2019-04-14 21:39:11.41: SIM {TimeUS : 48635538, Roll : -0.03, Pitch : 0.04, Yaw : 359.87, Alt : 39.9900016785, Lat : 49.2835706, Lng : -123.1150206, Q1 : 0.99999922514, Q2 : -0.000348349421984, Q3 : 0.000403324171202, Q4 : -0.00112746166997}
2019-04-14 21:39:11.51: SIM {TimeUS : 48735498, Roll : -0.01, Pitch : 0.03, Yaw : 359.87, Alt : 40.2200012207, Lat : 49.2835706, Lng : -123.1150207, Q1 : 0.999999284744, Q2 : -8.82325475686e-05, Q3 : 0.000327093934175, Q4 : -0.00112377328333}
2019-04-14 21:39:11.61: SIM {TimeUS : 48835458, Roll : 0.02, Pitch : 0.05, Yaw : 359.87, Alt : 40.4500007629, Lat : 49.2835706, Lng : -123.1150207, Q1 : 0.999999284744, Q2 : 0.000204992771614, Q3 : 0.000477380352095, Q4 : -0.00111939001363}
2019-04-14 21:39:11.71: SIM {TimeUS : 48935418, Roll : 0.06, Pitch : 0.09, Yaw : 359.87, Alt : 40.6800003052, Lat : 49.2835706, Lng : -123.1150207, Q1 : 0.999998867512, Q2 : 0.000611370021943, Q3 : 0.000811883364804, Q4 : -0.00112074229401}
2019-04-14 21:39:11.81: SIM {TimeUS : 49035378, Roll : 0.1, Pitch : 0.13, Yaw : 359.87, Alt : 40.9099998474, Lat : 49.2835706, Lng : -123.1150207, Q1 : 0.999998271465, Q2 : 0.000894219207112, Q3 : 0.00117193104234, Q4 : -0.00113219011109}
2019-04-14 21:39:11.91: SIM {TimeUS : 49135338, Roll : 0.09, Pitch : 0.16, Yaw : 359.86, Alt : 41.1500015259, Lat : 49.2835706, Lng : -123.1150207, Q1 : 0.999997973442, Q2 : 0.00080861186143, Q3 : 0.00145032745786, Q4 : -0.00114158960059}
2019-04-14 21:39:12.01: SIM {TimeUS : 49235298, Roll : 0.04, Pitch : 0.18, Yaw : 359.86, Alt : 41.3800010681, Lat : 49.2835706, Lng : -123.1150207, Q1 : 0.999997913837, Q2 : 0.000364685780369, Q3 : 0.00164687796496, Q4 : -0.001166188973}
2019-04-14 21:39:12.11: SIM {TimeUS : 49335258, Roll : 0.0, Pitch : 0.19, Yaw : 359.86, Alt : 41.6100006104, Lat : 49.2835706, Lng : -123.1150207, Q1 : 0.999997735023, Q2 : -5.65816262679e-05, Q3 : 0.00174289138522, Q4 : -0.00119797489606}
2019-04-14 21:39:12.21: SIM {TimeUS : 49435218, Roll : -0.02, Pitch : 0.17, Yaw : 359.85, Alt : 41.8499984741, Lat : 49.2835706, Lng : -123.1150207, Q1 : 0.999998033047, Q2 : -0.000238055596128, Q3 : 0.00152663083281, Q4 : -0.0012329017045}
2019-04-14 21:39:12.31: SIM {TimeUS : 49535178, Roll : -0.03, Pitch : 0.13, Yaw : 359.85, Alt : 42.0800018311, Lat : 49.2835706, Lng : -123.1150207, Q1 : 0.999998450279, Q2 : -0.000267560128123, Q3 : 0.00118285464123, Q4 : -0.00127281213645}
2019-04-14 21:39:12.41: SIM {TimeUS : 49635138, Roll : -0.01, Pitch : 0.12, Yaw : 359.84, Alt : 42.3100013733, Lat : 49.2835706, Lng : -123.1150207, Q1 : 0.999998509884, Q2 : -0.000168034224771, Q3 : 0.00108462932985, Q4 : -0.00131943041924}
2019-04-14 21:39:12.51: SIM {TimeUS : 49735098, Roll : 0.01, Pitch : 0.13, Yaw : 359.84, Alt : 42.5499992371, Lat : 49.2835706, Lng : -123.1150207, Q1 : 0.999998390675, Q2 : 0.000152500142576, Q3 : 0.00116787757725, Q4 : -0.0013704970479}
2019-04-14 21:39:12.61: SIM {TimeUS : 49835058, Roll : 0.07, Pitch : 0.14, Yaw : 359.83, Alt : 42.7799987793, Lat : 49.2835706, Lng : -123.1150207, Q1 : 0.999998033047, Q2 : 0.000632192881312, Q3 : 0.00123257481027, Q4 : -0.00141749123577}
2019-04-14 21:39:12.71: SIM {TimeUS : 49935018, Roll : 0.11, Pitch : 0.12, Yaw : 359.83, Alt : 43.0200004578, Lat : 49.2835706, Lng : -123.1150207, Q1 : 0.999997854233, Q2 : 0.00101167988032, Q3 : 0.00108304584865, Q4 : -0.00146427156869}
2019-04-14 21:39:12.81: SIM {TimeUS : 50034978, Roll : 0.11, Pitch : 0.09, Yaw : 359.82, Alt : 43.25, Lat : 49.2835706, Lng : -123.1150207, Q1 : 0.999997973442, Q2 : 0.00104361912236, Q3 : 0.00081921677338, Q4 : -0.00150063238107}
2019-04-14 21:39:12.91: SIM {TimeUS : 50134938, Roll : 0.08, Pitch : 0.07, Yaw : 359.82, Alt : 43.4900016785, Lat : 49.2835704, Lng : -123.1150207, Q1 : 0.999998390675, Q2 : 0.000700016680639, Q3 : 0.000616462843027, Q4 : -0.00151592551265}
2019-04-14 21:39:13.01: SIM {TimeUS : 50234898, Roll : 0.02, Pitch : 0.06, Yaw : 359.82, Alt : 43.7200012207, Lat : 49.2835704, Lng : -123.1150207, Q1 : 0.999998688698, Q2 : 0.00018247004482, Q3 : 0.000550758326426, Q4 : -0.00152641802561}
2019-04-14 21:39:13.11: SIM {TimeUS : 50334858, Roll : -0.02, Pitch : 0.07, Yaw : 359.82, Alt : 43.9599990845, Lat : 49.2835704, Lng : -123.1150207, Q1 : 0.999998569489, Q2 : -0.000211437683902, Q3 : 0.000683983496856, Q4 : -0.00153462844901}
2019-04-14 21:39:13.21: SIM {TimeUS : 50434818, Roll : -0.04, Pitch : 0.08, Yaw : 359.82, Alt : 44.2000007629, Lat : 49.2835704, Lng : -123.1150207, Q1 : 0.999998450279, Q2 : -0.000430436222814, Q3 : 0.000746812438592, Q4 : -0.00153932766989}
2019-04-14 21:39:13.31: SIM {TimeUS : 50534778, Roll : -0.04, Pitch : 0.07, Yaw : 359.82, Alt : 44.4300003052, Lat : 49.2835704, Lng : -123.1150207, Q1 : 0.999998509884, Q2 : -0.000431041728007, Q3 : 0.000652418413665, Q4 : -0.00154491234571}
2019-04-14 21:39:13.41: SIM {TimeUS : 50634738, Roll : -0.04, Pitch : 0.06, Yaw : 359.82, Alt : 44.6699981689, Lat : 49.2835704, Lng : -123.1150206, Q1 : 0.999998569489, Q2 : -0.0004289286735, Q3 : 0.000533097831067, Q4 : -0.00155992154032}
2019-04-14 21:39:13.51: SIM {TimeUS : 50735531, Roll : -0.03, Pitch : 0.04, Yaw : 359.81, Alt : 44.9099998474, Lat : 49.2835704, Lng : -123.1150206, Q1 : 0.999998629093, Q2 : -0.000343359279213, Q3 : 0.000363426253898, Q4 : -0.00157641770784}
2019-04-14 21:39:13.61: SIM {TimeUS : 50835491, Roll : -0.02, Pitch : 0.02, Yaw : 359.81, Alt : 45.1399993896, Lat : 49.2835704, Lng : -123.1150206, Q1 : 0.999998688698, Q2 : -0.000180419709068, Q3 : 0.000196427485207, Q4 : -0.00160316098481}
2019-04-14 21:39:13.71: SIM {TimeUS : 50935451, Roll : -0.01, Pitch : 0.0, Yaw : 359.81, Alt : 45.3800010681, Lat : 49.2835703, Lng : -123.1150206, Q1 : 0.999998629093, Q2 : -0.000126722938148, Q3 : 8.44504247652e-05, Q4 : -0.00163425179198}
2019-04-14 21:39:13.81: SIM {TimeUS : 51035411, Roll : -0.01, Pitch : 0.0, Yaw : 359.8, Alt : 45.6100006104, Lat : 49.2835703, Lng : -123.1150206, Q1 : 0.999998629093, Q2 : -0.000164572498761, Q3 : -6.90479428158e-05, Q4 : -0.00166770478245}
2019-04-14 21:39:13.91: SIM {TimeUS : 51135371, Roll : -0.02, Pitch : -0.03, Yaw : 359.8, Alt : 45.8499984741, Lat : 49.2835703, Lng : -123.1150206, Q1 : 0.999998509884, Q2 : -0.000226839125389, Q3 : -0.000306617788738, Q4 : -0.00170237896964}
2019-04-14 21:39:14.01: SIM {TimeUS : 51235331, Roll : -0.02, Pitch : -0.05, Yaw : 359.8, Alt : 46.0800018311, Lat : 49.2835703, Lng : -123.1150206, Q1 : 0.999998390675, Q2 : -0.000253222417086, Q3 : -0.000436635455117, Q4 : -0.00173306895886}
2019-04-14 21:39:14.11: SIM {TimeUS : 51335291, Roll : -0.02, Pitch : -0.05, Yaw : 359.79, Alt : 46.2999992371, Lat : 49.2835703, Lng : -123.1150206, Q1 : 0.99999833107, Q2 : -0.000203538264032, Q3 : -0.000472594139865, Q4 : -0.00176008266862}
2019-04-14 21:39:14.21: SIM {TimeUS : 51435251, Roll : -0.02, Pitch : -0.05, Yaw : 359.79, Alt : 46.5299987793, Lat : 49.2835703, Lng : -123.1150206, Q1 : 0.999998271465, Q2 : -0.000238180044107, Q3 : -0.000462317810161, Q4 : -0.00178886426147}
2019-04-14 21:39:14.31: SIM {TimeUS : 51535211, Roll : -0.04, Pitch : -0.04, Yaw : 359.79, Alt : 46.7400016785, Lat : 49.2835703, Lng : -123.1150206, Q1 : 0.999998152256, Q2 : -0.000425165373599, Q3 : -0.000401383498684, Q4 : -0.00182121049147}
2019-04-14 21:39:14.41: SIM {TimeUS : 51635171, Roll : -0.08, Pitch : -0.04, Yaw : 359.78, Alt : 46.9599990845, Lat : 49.2835703, Lng : -123.1150206, Q1 : 0.999997973442, Q2 : -0.000738993228879, Q3 : -0.000360267818905, Q4 : -0.00185269489884}
2019-04-14 21:39:14.51: SIM {TimeUS : 51735131, Roll : -0.11, Pitch : -0.03, Yaw : 359.78, Alt : 47.1599998474, Lat : 49.2835703, Lng : -123.1150206, Q1 : 0.999997735023, Q2 : -0.000961542769801, Q3 : -0.00034369903733, Q4 : -0.00188113527838}
2019-04-14 21:39:14.61: SIM {TimeUS : 51835091, Roll : -0.11, Pitch : -0.02, Yaw : 359.78, Alt : 47.3600006104, Lat : 49.2835703, Lng : -123.1150205, Q1 : 0.999997615814, Q2 : -0.00101499690209, Q3 : -0.000244178518187, Q4 : -0.00190911954269}
2019-04-14 21:39:14.71: SIM {TimeUS : 51935051, Roll : -0.1, Pitch : 0.0, Yaw : 359.77, Alt : 47.5499992371, Lat : 49.2835703, Lng : -123.1150205, Q1 : 0.999997735023, Q2 : -0.000903776322957, Q3 : -2.93594621326e-05, Q4 : -0.00193869834766}
2019-04-14 21:39:14.81: SIM {TimeUS : 52035011, Roll : -0.1, Pitch : 0.0, Yaw : 359.77, Alt : 47.7299995422, Lat : 49.2835703, Lng : -123.1150206, Q1 : 0.999997675419, Q2 : -0.000921036640648, Q3 : -4.86050157633e-05, Q4 : -0.00196521333419}
2019-04-14 21:39:14.91: SIM {TimeUS : 52134971, Roll : -0.11, Pitch : -0.02, Yaw : 359.77, Alt : 47.8899993896, Lat : 49.2835703, Lng : -123.1150206, Q1 : 0.999997496605, Q2 : -0.00102703087032, Q3 : -0.000204950236366, Q4 : -0.00198962632567}
2019-04-14 21:39:15.01: SIM {TimeUS : 52234931, Roll : -0.12, Pitch : -0.04, Yaw : 359.76, Alt : 48.0499992371, Lat : 49.2835703, Lng : -123.1150206, Q1 : 0.999997317791, Q2 : -0.00107054493856, Q3 : -0.00039057538379, Q4 : -0.00201257993467}
2019-04-14 21:39:15.11: SIM {TimeUS : 52334891, Roll : -0.1, Pitch : -0.06, Yaw : 359.76, Alt : 48.2000007629, Lat : 49.2835703, Lng : -123.1150206, Q1 : 0.999997377396, Q2 : -0.000933442206588, Q3 : -0.000552064448129, Q4 : -0.00203451304697}
2019-04-14 21:39:15.21: SIM {TimeUS : 52434851, Roll : -0.07, Pitch : -0.07, Yaw : 359.76, Alt : 48.3300018311, Lat : 49.2835703, Lng : -123.1150206, Q1 : 0.999997437, Q2 : -0.000620183360297, Q3 : -0.000675177201629, Q4 : -0.00206128438003}
2019-04-14 21:39:15.31: SIM {TimeUS : 52534811, Roll : -0.04, Pitch : -0.08, Yaw : 359.76, Alt : 48.4500007629, Lat : 49.2835703, Lng : -123.1150206, Q1 : 0.999997496605, Q2 : -0.00035528812441, Q3 : -0.000750357517973, Q4 : -0.00208871765062}
2019-04-14 21:39:15.41: SIM {TimeUS : 52634771, Roll : -0.02, Pitch : -0.09, Yaw : 359.75, Alt : 48.5600013733, Lat : 49.2835703, Lng : -123.1150206, Q1 : 0.999997377396, Q2 : -0.000241727568209, Q3 : -0.0008086389862, Q4 : -0.00211350712925}
2019-04-14 21:39:15.51: SIM {TimeUS : 52735564, Roll : 0.0, Pitch : -0.08, Yaw : 359.75, Alt : 48.6500015259, Lat : 49.2835703, Lng : -123.1150206, Q1 : 0.999997437, Q2 : -2.29698775911e-06, Q3 : -0.000749003665987, Q4 : -0.00213721394539}
2019-04-14 21:39:15.61: SIM {TimeUS : 52835524, Roll : 0.03, Pitch : -0.06, Yaw : 359.75, Alt : 48.7400016785, Lat : 49.2835703, Lng : -123.1150206, Q1 : 0.999997437, Q2 : 0.000303413689835, Q3 : -0.000592224532738, Q4 : -0.00215850025415}
2019-04-14 21:39:15.71: SIM {TimeUS : 52935484, Roll : 0.06, Pitch : -0.04, Yaw : 359.75, Alt : 48.8100013733, Lat : 49.2835703, Lng : -123.1150206, Q1 : 0.999997377396, Q2 : 0.00060093664797, Q3 : -0.000419778807554, Q4 : -0.00218057236634}
2019-04-14 21:39:15.81: SIM {TimeUS : 53035444, Roll : 0.07, Pitch : -0.02, Yaw : 359.74, Alt : 48.8699989319, Lat : 49.2835703, Lng : -123.1150206, Q1 : 0.999997317791, Q2 : 0.000654861098155, Q3 : -0.000232299396885, Q4 : -0.00220345263369}
2019-04-14 21:39:15.91: SIM {TimeUS : 53135404, Roll : 0.07, Pitch : -0.01, Yaw : 359.74, Alt : 48.9300003052, Lat : 49.2835703, Lng : -123.1150207, Q1 : 0.999997317791, Q2 : 0.000666935811751, Q3 : -0.000121656608826, Q4 : -0.00223022932187}
2019-04-14 21:39:16.01: SIM {TimeUS : 53235364, Roll : 0.06, Pitch : -0.02, Yaw : 359.74, Alt : 48.9700012207, Lat : 49.2835703, Lng : -123.1150207, Q1 : 0.999997258186, Q2 : 0.000593721400946, Q3 : -0.000228240751312, Q4 : -0.00226111640222}
2019-04-14 21:39:16.11: SIM {TimeUS : 53335324, Roll : 0.1, Pitch : -0.07, Yaw : 359.73, Alt : 49.0099983215, Lat : 49.2835703, Lng : -123.1150207, Q1 : 0.999996781349, Q2 : 0.000886281311978, Q3 : -0.000613405602053, Q4 : -0.00230118166655}
2019-04-14 21:39:16.21: SIM {TimeUS : 53435284, Roll : 0.3, Pitch : -0.21, Yaw : 359.73, Alt : 49.0499992371, Lat : 49.2835703, Lng : -123.1150207, Q1 : 0.999991953373, Q2 : 0.00266066519544, Q3 : -0.00187615735922, Q4 : -0.00234258803539}
2019-04-14 21:39:16.31: SIM {TimeUS : 53535244, Roll : 0.73, Pitch : -0.51, Yaw : 359.72, Alt : 49.0800018311, Lat : 49.2835703, Lng : -123.1150207, Q1 : 0.999966442585, Q2 : 0.00641329865903, Q3 : -0.00450509926304, Q4 : -0.00237977947108}
2019-04-14 21:39:16.41: SIM {TimeUS : 53635204, Roll : 1.38, Pitch : -0.95, Yaw : 359.71, Alt : 49.0999984741, Lat : 49.2835704, Lng : -123.1150206, Q1 : 0.99988925457, Q2 : 0.0120657589287, Q3 : -0.00837487354875, Q4 : -0.00239616795443}
2019-04-14 21:39:16.51: SIM {TimeUS : 53735164, Roll : 2.2, Pitch : -1.49, Yaw : 359.69, Alt : 49.1199989319, Lat : 49.2835704, Lng : -123.1150206, Q1 : 0.999727129936, Q2 : 0.0192250907421, Q3 : -0.0130552658811, Q4 : -0.00237827864476}
2019-04-14 21:39:16.61: SIM {TimeUS : 53835124, Roll : 3.08, Pitch : -2.06, Yaw : 359.67, Alt : 49.1399993896, Lat : 49.2835704, Lng : -123.1150205, Q1 : 0.999472022057, Q2 : 0.0268805045635, Q3 : -0.0181051716208, Q4 : -0.0023103277199}
2019-04-14 21:39:16.71: SIM {TimeUS : 53935084, Roll : 3.87, Pitch : -2.62, Yaw : 359.66, Alt : 49.1599998474, Lat : 49.2835706, Lng : -123.1150203, Q1 : 0.999165356159, Q2 : 0.0337214246392, Q3 : -0.0229489076883, Q4 : -0.00218633981422}
2019-04-14 21:39:16.81: SIM {TimeUS : 54035044, Roll : 4.47, Pitch : -3.06, Yaw : 359.65, Alt : 49.1699981689, Lat : 49.2835707, Lng : -123.1150201, Q1 : 0.998879492283, Q2 : 0.0389305204153, Q3 : -0.02683596313, Q4 : -0.00199588714167}
2019-04-14 21:39:16.91: SIM {TimeUS : 54135004, Roll : 4.89, Pitch : -3.4, Yaw : 359.65, Alt : 49.1800003052, Lat : 49.2835709, Lng : -123.1150199, Q1 : 0.998647868633, Q2 : 0.0425798036158, Q3 : -0.0297719500959, Q4 : -0.001761067193}
2019-04-14 21:39:17.01: SIM {TimeUS : 54234964, Roll : 5.2, Pitch : -3.65, Yaw : 359.66, Alt : 49.2000007629, Lat : 49.283571, Lng : -123.1150195, Q1 : 0.998458981514, Q2 : 0.0452953465283, Q3 : -0.0320273526013, Q4 : -0.00148259615526}
2019-04-14 21:39:17.11: SIM {TimeUS : 54334924, Roll : 5.48, Pitch : -3.86, Yaw : 359.68, Alt : 49.2099990845, Lat : 49.2835713, Lng : -123.115019, Q1 : 0.998285293579, Q2 : 0.0477554760873, Q3 : -0.0338313803077, Q4 : -0.00117014092393}
2019-04-14 21:39:17.21: SIM {TimeUS : 54434884, Roll : 5.78, Pitch : -4.08, Yaw : 359.69, Alt : 49.2099990845, Lat : 49.2835715, Lng : -123.1150184, Q1 : 0.998090684414, Q2 : 0.0503776967525, Q3 : -0.0357261374593, Q4 : -0.000865667418111}
2019-04-14 21:39:17.31: SIM {TimeUS : 54534844, Roll : 6.11, Pitch : -4.3, Yaw : 359.7, Alt : 49.2200012207, Lat : 49.2835719, Lng : -123.1150177, Q1 : 0.997872889042, Q2 : 0.0532086417079, Q3 : -0.0376592725515, Q4 : -0.000582572945859}
2019-04-14 21:39:17.41: SIM {TimeUS : 54634804, Roll : 6.4, Pitch : -4.5, Yaw : 359.71, Alt : 49.2299995422, Lat : 49.2835722, Lng : -123.1150169, Q1 : 0.997669577599, Q2 : 0.0557432584465, Q3 : -0.0393455959857, Q4 : -0.000313695520163}
2019-04-14 21:39:17.51: SIM {TimeUS : 54734764, Roll : 6.62, Pitch : -4.66, Yaw : 359.72, Alt : 49.2299995422, Lat : 49.2835727, Lng : -123.115016, Q1 : 0.997505128384, Q2 : 0.057614851743, Q3 : -0.0407932326198, Q4 : -8.41171349748e-05}
2019-04-14 21:39:17.61: SIM {TimeUS : 54835557, Roll : 6.78, Pitch : -4.8, Yaw : 359.72, Alt : 49.2400016785, Lat : 49.2835731, Lng : -123.115015, Q1 : 0.997373998165, Q2 : 0.0590223446488, Q3 : -0.0419708155096, Q4 : 0.000112251036626}
2019-04-14 21:39:17.71: SIM {TimeUS : 54935517, Roll : 6.91, Pitch : -4.89, Yaw : 359.73, Alt : 49.2400016785, Lat : 49.2835735, Lng : -123.1150139, Q1 : 0.997273802757, Q2 : 0.0601343736053, Q3 : -0.0427637435496, Q4 : 0.000272972916719}
2019-04-14 21:39:17.81: SIM {TimeUS : 55035477, Roll : 7.0, Pitch : -4.95, Yaw : 359.73, Alt : 49.25, Lat : 49.283574, Lng : -123.1150128, Q1 : 0.997203946114, Q2 : 0.0609420500696, Q3 : -0.0432460084558, Q4 : 0.000374919822207}
2019-04-14 21:39:17.91: SIM {TimeUS : 55135437, Roll : 7.13, Pitch : -5.0, Yaw : 359.73, Alt : 49.25, Lat : 49.2835746, Lng : -123.1150115, Q1 : 0.997110128403, Q2 : 0.0620968304574, Q3 : -0.0437632724643, Q4 : 0.000443510303739}
2019-04-14 21:39:18.01: SIM {TimeUS : 55235397, Roll : 7.44, Pitch : -4.95, Yaw : 359.9, Alt : 49.2599983215, Lat : 49.2835752, Lng : -123.1150102, Q1 : 0.996958017349, Q2 : 0.064856916666, Q3 : -0.0431787185371, Q4 : 0.00197140872478}
2019-04-14 21:39:18.11: SIM {TimeUS : 55335357, Roll : 8.0, Pitch : -4.74, Yaw : 0.8, Alt : 49.2599983215, Lat : 49.2835759, Lng : -123.1150088, Q1 : 0.996663331985, Q2 : 0.0699979662895, Q3 : -0.0408036969602, Q4 : 0.00988025311381}
2019-04-14 21:39:18.21: SIM {TimeUS : 55435317, Roll : 8.61, Pitch : -4.66, Yaw : 3.07, Alt : 49.2599983215, Lat : 49.2835767, Lng : -123.1150072, Q1 : 0.99590754509, Q2 : 0.0760913193226, Q3 : -0.0385913029313, Q4 : 0.0298165157437}
2019-04-14 21:39:18.31: SIM {TimeUS : 55535277, Roll : 9.01, Pitch : -5.04, Yaw : 6.93, Alt : 49.2599983215, Lat : 49.2835773, Lng : -123.1150056, Q1 : 0.993910253048, Q2 : 0.0809893682599, Q3 : -0.0390176922083, Q4 : 0.0637234449387}
2019-04-14 21:39:18.41: SIM {TimeUS : 55635237, Roll : 8.99, Pitch : -5.93, Yaw : 12.26, Alt : 49.2599983215, Lat : 49.2835781, Lng : -123.1150039, Q1 : 0.989452064037, Q2 : 0.0833452641964, Q3 : -0.0429714508355, Q4 : 0.110416270792}
2019-04-14 21:39:18.51: SIM {TimeUS : 55735197, Roll : 8.42, Pitch : -7.27, Yaw : 18.82, Alt : 49.2700004578, Lat : 49.2835788, Lng : -123.115002, Q1 : 0.981127798557, Q2 : 0.0826340317726, Q3 : -0.050412658602, Q4 : 0.167387038469}
2019-04-14 21:39:18.61: SIM {TimeUS : 55835157, Roll : 7.24, Pitch : -8.84, Yaw : 26.36, Alt : 49.2700004578, Lat : 49.2835794, Lng : -123.115, Q1 : 0.967697679996, Q2 : 0.0788860172033, Q3 : -0.060583293438, Q4 : 0.231663256884}
2019-04-14 21:39:18.71: SIM {TimeUS : 55935117, Roll : 5.48, Pitch : -10.41, Yaw : 34.62, Alt : 49.2700004578, Lat : 49.2835802, Lng : -123.1149979, Q1 : 0.948367238045, Q2 : 0.0724679753184, Q3 : -0.0724142566323, Q4 : 0.300173550844}
2019-04-14 21:39:18.81: SIM {TimeUS : 56035077, Roll : 3.16, Pitch : -11.76, Yaw : 43.33, Alt : 49.2700004578, Lat : 49.2835811, Lng : -123.1149957, Q1 : 0.923055648804, Q2 : 0.0633772164583, Q3 : -0.0850735753775, Q4 : 0.369748651981}
2019-04-14 21:39:18.91: SIM {TimeUS : 56135037, Roll : 0.2, Pitch : -12.69, Yaw : 51.92, Alt : 49.2700004578, Lat : 49.2835818, Lng : -123.1149934, Q1 : 0.893462598324, Q2 : 0.0500530786812, Q3 : -0.0986340865493, Q4 : 0.43530523777}
2019-04-14 21:39:19.01: SIM {TimeUS : 56234997, Roll : -2.98, Pitch : -13.08, Yaw : 59.52, Alt : 49.2700004578, Lat : 49.2835828, Lng : -123.114991, Q1 : 0.863620758057, Q2 : 0.0340674296021, Q3 : -0.111717477441, Q4 : 0.490426152945}
2019-04-14 21:39:19.11: SIM {TimeUS : 56334957, Roll : -5.76, Pitch : -13.02, Yaw : 65.36, Alt : 49.2700004578, Lat : 49.2835837, Lng : -123.1149885, Q1 : 0.83828163147, Q2 : 0.019076725468, Q3 : -0.122324205935, Q4 : 0.530996024609}
2019-04-14 21:39:19.21: SIM {TimeUS : 56434917, Roll : -7.63, Pitch : -12.76, Yaw : 69.1, Alt : 49.2700004578, Lat : 49.2835849, Lng : -123.1149859, Q1 : 0.820880591869, Q2 : 0.00845066364855, Q3 : -0.128888130188, Q4 : 0.556301593781}
2019-04-14 21:39:19.31: SIM {TimeUS : 56534877, Roll : -8.39, Pitch : -12.58, Yaw : 70.84, Alt : 49.2700004578, Lat : 49.2835861, Lng : -123.1149834, Q1 : 0.812464416027, Q2 : 0.00409663235769, Q3 : -0.13123510778, Q4 : 0.568033576012}
2019-04-14 21:39:19.41: SIM {TimeUS : 56634837, Roll : -8.15, Pitch : -12.63, Yaw : 70.89, Alt : 49.2700004578, Lat : 49.2835873, Lng : -123.1149807, Q1 : 0.812205016613, Q2 : 0.00606428738683, Q3 : -0.130384549499, Q4 : 0.56858253479}
2019-04-14 21:39:19.51: SIM {TimeUS : 56734797, Roll : -7.13, Pitch : -12.96, Yaw : 69.61, Alt : 49.2700004578, Lat : 49.2835887, Lng : -123.114978, Q1 : 0.818277895451, Q2 : 0.013527858071, Q3 : -0.127784907818, Q4 : 0.560276150703}
2019-04-14 21:39:19.61: SIM {TimeUS : 56834757, Roll : -5.58, Pitch : -13.53, Yaw : 67.35, Alt : 49.2799987793, Lat : 49.2835903, Lng : -123.1149753, Q1 : 0.828570902348, Q2 : 0.0249656736851, Q3 : -0.124778427184, Q4 : 0.545231461525}
2019-04-14 21:39:19.71: SIM {TimeUS : 56935550, Roll : -3.74, Pitch : -14.23, Yaw : 64.43, Alt : 49.2799987793, Lat : 49.2835919, Lng : -123.1149725, Q1 : 0.841239631176, Q2 : 0.0385678857565, Q3 : -0.122074969113, Q4 : 0.5252866745}
2019-04-14 21:39:19.81: SIM {TimeUS : 57035510, Roll : -1.82, Pitch : -14.9, Yaw : 61.19, Alt : 49.2799987793, Lat : 49.2835934, Lng : -123.1149696, Q1 : 0.854428529739, Q2 : 0.0524309128523, Q3 : -0.119679935277, Q4 : 0.502871394157}
2019-04-14 21:39:19.91: SIM {TimeUS : 57135470, Roll : 0.0, Pitch : -15.43, Yaw : 57.95, Alt : 49.2799987793, Lat : 49.2835951, Lng : -123.1149666, Q1 : 0.866891920567, Q2 : 0.0650994032621, Q3 : -0.117440663278, Q4 : 0.480070978403}
2019-04-14 21:39:20.01: SIM {TimeUS : 57235430, Roll : 1.57, Pitch : -15.75, Yaw : 55.03, Alt : 49.2799987793, Lat : 49.2835968, Lng : -123.1149634, Q1 : 0.877557992935, Q2 : 0.0753645077348, Q3 : -0.115241974592, Q4 : 0.459272742271}
2019-04-14 21:39:20.11: SIM {TimeUS : 57335390, Roll : 2.74, Pitch : -15.86, Yaw : 52.71, Alt : 49.2799987793, Lat : 49.2835983, Lng : -123.1149603, Q1 : 0.885756552219, Q2 : 0.0825354903936, Q3 : -0.11306232959, Q4 : 0.442538350821}
2019-04-14 21:39:20.21: SIM {TimeUS : 57435350, Roll : 3.45, Pitch : -15.85, Yaw : 51.14, Alt : 49.2799987793, Lat : 49.2836001, Lng : -123.1149569, Q1 : 0.891208648682, Q2 : 0.0864186882973, Q3 : -0.111436016858, Q4 : 0.431115984917}
2019-04-14 21:39:20.31: SIM {TimeUS : 57535310, Roll : 3.68, Pitch : -15.79, Yaw : 50.38, Alt : 49.2799987793, Lat : 49.2836018, Lng : -123.1149534, Q1 : 0.893940389156, Q2 : 0.0873040258884, Q3 : -0.110710926354, Q4 : 0.425431191921}
2019-04-14 21:39:20.41: SIM {TimeUS : 57635270, Roll : 3.47, Pitch : -15.76, Yaw : 50.37, Alt : 49.2799987793, Lat : 49.2836033, Lng : -123.1149498, Q1 : 0.894192814827, Q2 : 0.085553124547, Q3 : -0.111255787313, Q4 : 0.425114125013}
2019-04-14 21:39:20.51: SIM {TimeUS : 57735230, Roll : 2.92, Pitch : -15.79, Yaw : 50.97, Alt : 49.2900009155, Lat : 49.283605, Lng : -123.114946, Q1 : 0.892321884632, Q2 : 0.0819324553013, Q3 : -0.113094039261, Q4 : 0.429253458977}
2019-04-14 21:39:20.61: SIM {TimeUS : 57835190, Roll : 2.15, Pitch : -15.88, Yaw : 52.02, Alt : 49.2900009155, Lat : 49.2836068, Lng : -123.1149421, Q1 : 0.888793826103, Q2 : 0.0773480460048, Q3 : -0.115986160934, Q4 : 0.436589002609}
2019-04-14 21:39:20.71: SIM {TimeUS : 57935150, Roll : 1.29, Pitch : -16.03, Yaw : 53.32, Alt : 49.2900009155, Lat : 49.2836085, Lng : -123.1149383, Q1 : 0.88417339325, Q2 : 0.0725580155849, Q3 : -0.119645282626, Q4 : 0.445710480213}
2019-04-14 21:39:20.81: SIM {TimeUS : 58035110, Roll : 0.43, Pitch : -16.2, Yaw : 54.69, Alt : 49.2900009155, Lat : 49.2836103, Lng : -123.1149342, Q1 : 0.879112303257, Q2 : 0.0680565312505, Q3 : -0.123453825712, Q4 : 0.455290049314}
2019-04-14 21:39:20.91: SIM {TimeUS : 58135070, Roll : -0.34, Pitch : -16.34, Yaw : 55.98, Alt : 49.2900009155, Lat : 49.283612, Lng : -123.1149303, Q1 : 0.874248445034, Q2 : 0.0641290768981, Q3 : -0.126938223839, Q4 : 0.464180797338}
2019-04-14 21:39:21.01: SIM {TimeUS : 58235030, Roll : -0.94, Pitch : -16.43, Yaw : 57.04, Alt : 49.2900009155, Lat : 49.2836138, Lng : -123.1149262, Q1 : 0.870134115219, Q2 : 0.0610387027264, Q3 : -0.129485934973, Q4 : 0.471565842628}
2019-04-14 21:39:21.11: SIM {TimeUS : 58334990, Roll : -1.33, Pitch : -16.46, Yaw : 57.81, Alt : 49.2900009155, Lat : 49.2836157, Lng : -123.114922, Q1 : 0.867116749287, Q2 : 0.0591124370694, Q3 : -0.130937799811, Q4 : 0.476937681437}
2019-04-14 21:39:21.21: SIM {TimeUS : 58434950, Roll : -1.51, Pitch : -16.47, Yaw : 58.25, Alt : 49.2900009155, Lat : 49.2836175, Lng : -123.1149178, Q1 : 0.865363001823, Q2 : 0.0582766383886, Q3 : -0.131535604596, Q4 : 0.480051219463}
2019-04-14 21:39:21.31: SIM {TimeUS : 58534910, Roll : -1.49, Pitch : -16.47, Yaw : 58.37, Alt : 49.2900009155, Lat : 49.2836194, Lng : -123.1149136, Q1 : 0.864849984646, Q2 : 0.0586179420352, Q3 : -0.131389170885, Q4 : 0.480973392725}
2019-04-14 21:39:21.41: SIM {TimeUS : 58634870, Roll : -1.27, Pitch : -16.47, Yaw : 58.21, Alt : 49.2900009155, Lat : 49.2836214, Lng : -123.1149093, Q1 : 0.865420997143, Q2 : 0.0600328594446, Q3 : -0.130544394255, Q4 : 0.480000734329}
2019-04-14 21:39:21.51: SIM {TimeUS : 58734830, Roll : -0.96, Pitch : -16.48, Yaw : 57.83, Alt : 49.2900009155, Lat : 49.2836232, Lng : -123.114905, Q1 : 0.866809308529, Q2 : 0.0620570667088, Q3 : -0.129474982619, Q4 : 0.477521538734}
2019-04-14 21:39:21.61: SIM {TimeUS : 58834790, Roll : -0.6, Pitch : -16.52, Yaw : 57.32, Alt : 49.2900009155, Lat : 49.2836253, Lng : -123.1149006, Q1 : 0.868690490723, Q2 : 0.0643209964037, Q3 : -0.128632515669, Q4 : 0.474018275738}
2019-04-14 21:39:21.71: SIM {TimeUS : 58934750, Roll : -0.26, Pitch : -16.59, Yaw : 56.75, Alt : 49.2900009155, Lat : 49.2836273, Lng : -123.1148962, Q1 : 0.870761454105, Q2 : 0.0666105672717, Q3 : -0.128036171198, Q4 : 0.470047086477}
2019-04-14 21:39:21.81: SIM {TimeUS : 59035543, Roll : 0.05, Pitch : -16.67, Yaw : 56.19, Alt : 49.2900009155, Lat : 49.2836293, Lng : -123.1148917, Q1 : 0.872774481773, Q2 : 0.0687298327684, Q3 : -0.127716496587, Q4 : 0.466078788042}
2019-04-14 21:39:21.91: SIM {TimeUS : 59135503, Roll : 0.3, Pitch : -16.73, Yaw : 55.71, Alt : 49.2900009155, Lat : 49.2836314, Lng : -123.1148872, Q1 : 0.874529004097, Q2 : 0.0703514143825, Q3 : -0.127402082086, Q4 : 0.462621241808}
2019-04-14 21:39:22.01: SIM {TimeUS : 59235463, Roll : 0.49, Pitch : -16.77, Yaw : 55.33, Alt : 49.2900009155, Lat : 49.2836334, Lng : -123.1148826, Q1 : 0.875880002975, Q2 : 0.0715391561389, Q3 : -0.1271879673, Q4 : 0.459934383631}
2019-04-14 21:39:22.11: SIM {TimeUS : 59335423, Roll : 0.61, Pitch : -16.8, Yaw : 55.08, Alt : 49.2900009155, Lat : 49.2836354, Lng : -123.114878, Q1 : 0.876754999161, Q2 : 0.0722695663571, Q3 : -0.127155557275, Q4 : 0.458158642054}
2019-04-14 21:39:22.21: SIM {TimeUS : 59435383, Roll : 0.64, Pitch : -16.84, Yaw : 54.97, Alt : 49.2900009155, Lat : 49.2836375, Lng : -123.1148734, Q1 : 0.877148985863, Q2 : 0.0725521072745, Q3 : -0.127365037799, Q4 : 0.457300752401}
2019-04-14 21:39:22.31: SIM {TimeUS : 59535343, Roll : 0.6, Pitch : -16.87, Yaw : 54.97, Alt : 49.2900009155, Lat : 49.2836396, Lng : -123.1148687, Q1 : 0.87711918354, Q2 : 0.0723838210106, Q3 : -0.127731665969, Q4 : 0.457282394171}
2019-04-14 21:39:22.41: SIM {TimeUS : 59635303, Roll : 0.51, Pitch : -16.9, Yaw : 55.07, Alt : 49.2900009155, Lat : 49.2836416, Lng : -123.114864, Q1 : 0.876744925976, Q2 : 0.0718931257725, Q3 : -0.128270372748, Q4 : 0.457926273346}
2019-04-14 21:39:22.51: SIM {TimeUS : 59735263, Roll : 0.37, Pitch : -16.93, Yaw : 55.24, Alt : 49.2900009155, Lat : 49.2836438, Lng : -123.1148593, Q1 : 0.87613594532, Q2 : 0.071152202785, Q3 : -0.128921464086, Q4 : 0.459023416042}
2019-04-14 21:39:22.61: SIM {TimeUS : 59835223, Roll : 0.22, Pitch : -16.96, Yaw : 55.44, Alt : 49.2999992371, Lat : 49.2836458, Lng : -123.1148545, Q1 : 0.875390231609, Q2 : 0.0703538581729, Q3 : -0.129643142223, Q4 : 0.460363894701}
2019-04-14 21:39:22.71: SIM {TimeUS : 59935183, Roll : 0.08, Pitch : -17.0, Yaw : 55.64, Alt : 49.2999992371, Lat : 49.283648, Lng : -123.1148497, Q1 : 0.874619960785, Q2 : 0.0696098431945, Q3 : -0.130396842957, Q4 : 0.46172618866}
2019-04-14 21:39:22.81: SIM {TimeUS : 60035143, Roll : -0.04, Pitch : -17.04, Yaw : 55.83, Alt : 49.2999992371, Lat : 49.28365, Lng : -123.1148449, Q1 : 0.873916089535, Q2 : 0.0689918771386, Q3 : -0.1311404109, Q4 : 0.462939500809}
2019-04-14 21:39:22.91: SIM {TimeUS : 60135103, Roll : -0.16, Pitch : -17.07, Yaw : 55.97, Alt : 49.2999992371, Lat : 49.2836523, Lng : -123.11484, Q1 : 0.873361945152, Q2 : 0.0684192106128, Q3 : -0.131781890988, Q4 : 0.463887125254}
2019-04-14 21:39:23.01: SIM {TimeUS : 60235063, Roll : -0.25, Pitch : -17.1, Yaw : 56.06, Alt : 49.2999992371, Lat : 49.2836543, Lng : -123.1148351, Q1 : 0.873005092144, Q2 : 0.067968390882, Q3 : -0.132264330983, Q4 : 0.464487493038}
2019-04-14 21:39:23.11: SIM {TimeUS : 60335023, Roll : -0.3, Pitch : -17.13, Yaw : 56.1, Alt : 49.2999992371, Lat : 49.2836566, Lng : -123.1148302, Q1 : 0.872844278812, Q2 : 0.067743524909, Q3 : -0.132666990161, Q4 : 0.464707642794}
2019-04-14 21:39:23.21: SIM {TimeUS : 60434983, Roll : -0.29, Pitch : -17.16, Yaw : 56.09, Alt : 49.2999992371, Lat : 49.2836588, Lng : -123.1148253, Q1 : 0.872846662998, Q2 : 0.0679370984435, Q3 : -0.132919818163, Q4 : 0.464602530003}
2019-04-14 21:39:23.31: SIM {TimeUS : 60534943, Roll : -0.24, Pitch : -17.2, Yaw : 56.04, Alt : 49.2999992371, Lat : 49.2836609, Lng : -123.1148203, Q1 : 0.872992813587, Q2 : 0.0684274435043, Q3 : -0.133058950305, Q4 : 0.464216053486}
2019-04-14 21:39:23.41: SIM {TimeUS : 60634903, Roll : -0.16, Pitch : -17.25, Yaw : 55.95, Alt : 49.2999992371, Lat : 49.2836632, Lng : -123.1148154, Q1 : 0.873245239258, Q2 : 0.069107927382, Q3 : -0.133144855499, Q4 : 0.463615506887}
2019-04-14 21:39:23.51: SIM {TimeUS : 60734863, Roll : -0.07, Pitch : -17.29, Yaw : 55.84, Alt : 49.2999992371, Lat : 49.2836653, Lng : -123.1148104, Q1 : 0.873575150967, Q2 : 0.0698656439781, Q3 : -0.133133411407, Q4 : 0.462883144617}
2019-04-14 21:39:23.61: SIM {TimeUS : 60834823, Roll : 0.01, Pitch : -17.32, Yaw : 55.73, Alt : 49.3100013733, Lat : 49.2836676, Lng : -123.1148054, Q1 : 0.873952805996, Q2 : 0.0704906284809, Q3 : -0.133057534695, Q4 : 0.462096601725}
2019-04-14 21:39:23.71: SIM {TimeUS : 60934783, Roll : 0.07, Pitch : -17.34, Yaw : 55.62, Alt : 49.3100013733, Lat : 49.2836698, Lng : -123.1148003, Q1 : 0.874328076839, Q2 : 0.0709006637335, Q3 : -0.133074343204, Q4 : 0.461318463087}
2019-04-14 21:39:23.81: SIM {TimeUS : 61034743, Roll : 0.1, Pitch : -17.34, Yaw : 55.52, Alt : 49.3100013733, Lat : 49.283672, Lng : -123.1147953, Q1 : 0.874691486359, Q2 : 0.0710368081927, Q3 : -0.133046925068, Q4 : 0.460615992546}
2019-04-14 21:39:23.91: SIM {TimeUS : 61135536, Roll : 0.13, Pitch : -17.33, Yaw : 55.45, Alt : 49.3100013733, Lat : 49.2836743, Lng : -123.1147901, Q1 : 0.874993801117, Q2 : 0.071141384542, Q3 : -0.132898330688, Q4 : 0.460068285465}
2019-04-14 21:39:24.01: SIM {TimeUS : 61235496, Roll : 0.15, Pitch : -17.33, Yaw : 55.39, Alt : 49.3100013733, Lat : 49.2836766, Lng : -123.1147851, Q1 : 0.875194787979, Q2 : 0.0712470039725, Q3 : -0.132823035121, Q4 : 0.459691166878}
2019-04-14 21:39:24.11: SIM {TimeUS : 61335456, Roll : 0.18, Pitch : -17.36, Yaw : 55.36, Alt : 49.3100013733, Lat : 49.2836787, Lng : -123.11478, Q1 : 0.875261902809, Q2 : 0.0715477690101, Q3 : -0.132960498333, Q4 : 0.459476947784}
2019-04-14 21:39:24.21: SIM {TimeUS : 61435416, Roll : 0.2, Pitch : -17.42, Yaw : 55.35, Alt : 49.3100013733, Lat : 49.283681, Lng : -123.1147749, Q1 : 0.875220119953, Q2 : 0.0719287395477, Q3 : -0.133352383971, Q4 : 0.459383457899}
2019-04-14 21:39:24.31: SIM {TimeUS : 61535376, Roll : 0.19, Pitch : -17.46, Yaw : 55.36, Alt : 49.3100013733, Lat : 49.2836834, Lng : -123.1147697, Q1 : 0.875159859657, Q2 : 0.0720217600465, Q3 : -0.133680433035, Q4 : 0.459388315678}
2019-04-14 21:39:24.41: SIM {TimeUS : 61635336, Roll : 0.17, Pitch : -17.46, Yaw : 55.37, Alt : 49.3100013733, Lat : 49.2836857, Lng : -123.1147646, Q1 : 0.875110149384, Q2 : 0.0719071030617, Q3 : -0.133770182729, Q4 : 0.45947483182}
2019-04-14 21:39:24.51: SIM {TimeUS : 61735296, Roll : 0.14, Pitch : -17.48, Yaw : 55.39, Alt : 49.3100013733, Lat : 49.283688, Lng : -123.1147594, Q1 : 0.875028073788, Q2 : 0.0717786103487, Q3 : -0.133941918612, Q4 : 0.459601163864}
2019-04-14 21:39:24.61: SIM {TimeUS : 61835256, Roll : 0.11, Pitch : -17.5, Yaw : 55.41, Alt : 49.3100013733, Lat : 49.2836902, Lng : -123.1147543, Q1 : 0.874933123589, Q2 : 0.071632437408, Q3 : -0.134265989065, Q4 : 0.459710240364}
2019-04-14 21:39:24.71: SIM {TimeUS : 61935216, Roll : 0.09, Pitch : -17.53, Yaw : 55.43, Alt : 49.3199996948, Lat : 49.2836925, Lng : -123.1147491, Q1 : 0.874840259552, Q2 : 0.0715901255608, Q3 : -0.134552031755, Q4 : 0.459809869528}
2019-04-14 21:39:24.81: SIM {TimeUS : 62035176, Roll : 0.07, Pitch : -17.55, Yaw : 55.44, Alt : 49.3199996948, Lat : 49.2836949, Lng : -123.1147439, Q1 : 0.874776363373, Q2 : 0.0715526565909, Q3 : -0.134816080332, Q4 : 0.459859877825}
2019-04-14 21:39:24.91: SIM {TimeUS : 62135136, Roll : 0.06, Pitch : -17.57, Yaw : 55.45, Alt : 49.3199996948, Lat : 49.2836972, Lng : -123.1147387, Q1 : 0.874748587608, Q2 : 0.0715582370758, Q3 : -0.134972572327, Q4 : 0.459866046906}
2019-04-14 21:39:25.01: SIM {TimeUS : 62235096, Roll : 0.06, Pitch : -17.59, Yaw : 55.44, Alt : 49.3199996948, Lat : 49.2836995, Lng : -123.1147334, Q1 : 0.874752819538, Q2 : 0.0716477483511, Q3 : -0.135076463223, Q4 : 0.459813505411}
2019-04-14 21:39:25.11: SIM {TimeUS : 62335056, Roll : 0.08, Pitch : -17.6, Yaw : 55.43, Alt : 49.3199996948, Lat : 49.2837017, Lng : -123.1147281, Q1 : 0.874787449837, Q2 : 0.0718119218946, Q3 : -0.135120868683, Q4 : 0.459708988667}
2019-04-14 21:39:25.21: SIM {TimeUS : 62435016, Roll : 0.11, Pitch : -17.62, Yaw : 55.41, Alt : 49.3199996948, Lat : 49.283704, Lng : -123.1147229, Q1 : 0.874832034111, Q2 : 0.0720852762461, Q3 : -0.135150194168, Q4 : 0.459572672844}
2019-04-14 21:39:25.31: SIM {TimeUS : 62534976, Roll : 0.14, Pitch : -17.64, Yaw : 55.38, Alt : 49.3199996948, Lat : 49.2837065, Lng : -123.1147177, Q1 : 0.874888122082, Q2 : 0.0723852217197, Q3 : -0.135234162211, Q4 : 0.459394007921}
2019-04-14 21:39:25.41: SIM {TimeUS : 62634936, Roll : 0.15, Pitch : -17.68, Yaw : 55.35, Alt : 49.3199996948, Lat : 49.2837088, Lng : -123.1147123, Q1 : 0.87495726347, Q2 : 0.0725552886724, Q3 : -0.13548707962, Q4 : 0.45916095376}
2019-04-14 21:39:25.51: SIM {TimeUS : 62734896, Roll : 0.14, Pitch : -17.71, Yaw : 55.32, Alt : 49.3199996948, Lat : 49.2837112, Lng : -123.1147071, Q1 : 0.875028789043, Q2 : 0.0726320594549, Q3 : -0.135819867253, Q4 : 0.458914160728}
2019-04-14 21:39:25.61: SIM {TimeUS : 62834856, Roll : 0.13, Pitch : -17.76, Yaw : 55.29, Alt : 49.3199996948, Lat : 49.2837135, Lng : -123.1147018, Q1 : 0.875095844269, Q2 : 0.0726929530501, Q3 : -0.136196821928, Q4 : 0.458664894104}
2019-04-14 21:39:25.71: SIM {TimeUS : 62934816, Roll : 0.14, Pitch : -17.79, Yaw : 55.27, Alt : 49.3199996948, Lat : 49.2837159, Lng : -123.1146965, Q1 : 0.875158727169, Q2 : 0.0728412568569, Q3 : -0.136432766914, Q4 : 0.458451211452}
2019-04-14 21:39:25.81: SIM {TimeUS : 63034776, Roll : 0.15, Pitch : -17.8, Yaw : 55.24, Alt : 49.3199996948, Lat : 49.2837181, Lng : -123.1146912, Q1 : 0.875237107277, Q2 : 0.0729501098394, Q3 : -0.136459738016, Q4 : 0.458276182413}
2019-04-14 21:39:25.91: SIM {TimeUS : 63134736, Roll : 0.17, Pitch : -17.78, Yaw : 55.22, Alt : 49.3199996948, Lat : 49.2837205, Lng : -123.1146859, Q1 : 0.875335514545, Q2 : 0.0729718953371, Q3 : -0.136256605387, Q4 : 0.458145141602}
2019-04-14 21:39:26.01: SIM {TimeUS : 63235529, Roll : 0.17, Pitch : -17.75, Yaw : 55.21, Alt : 49.3199996948, Lat : 49.2837229, Lng : -123.1146805, Q1 : 0.875428676605, Q2 : 0.0728389024734, Q3 : -0.13607172668, Q4 : 0.458043247461}
2019-04-14 21:39:26.11: SIM {TimeUS : 63335489, Roll : 0.16, Pitch : -17.73, Yaw : 55.2, Alt : 49.3199996948, Lat : 49.2837253, Lng : -123.1146752, Q1 : 0.875510513783, Q2 : 0.0726617202163, Q3 : -0.135923147202, Q4 : 0.457959145308}
2019-04-14 21:39:26.21: SIM {TimeUS : 63435449, Roll : 0.15, Pitch : -17.72, Yaw : 55.19, Alt : 49.3300018311, Lat : 49.2837277, Lng : -123.1146698, Q1 : 0.87555783987, Q2 : 0.0725612565875, Q3 : -0.135895863175, Q4 : 0.457892656326}
2019-04-14 21:39:26.31: SIM {TimeUS : 63535409, Roll : 0.14, Pitch : -17.73, Yaw : 55.18, Alt : 49.3300018311, Lat : 49.2837301, Lng : -123.1146644, Q1 : 0.875569820404, Q2 : 0.0725441202521, Q3 : -0.136066377163, Q4 : 0.457821786404}
2019-04-14 21:39:26.41: SIM {TimeUS : 63635369, Roll : 0.14, Pitch : -17.76, Yaw : 55.17, Alt : 49.3300018311, Lat : 49.2837325, Lng : -123.1146591, Q1 : 0.875565230846, Q2 : 0.0726246759295, Q3 : -0.136265352368, Q4 : 0.457758635283}
2019-04-14 21:39:26.51: SIM {TimeUS : 63735329, Roll : 0.13, Pitch : -17.8, Yaw : 55.17, Alt : 49.3300018311, Lat : 49.2837349, Lng : -123.1146537, Q1 : 0.875539243221, Q2 : 0.0727467611432, Q3 : -0.136637896299, Q4 : 0.457677811384}
2019-04-14 21:39:26.61: SIM {TimeUS : 63835289, Roll : 0.13, Pitch : -17.86, Yaw : 55.16, Alt : 49.3300018311, Lat : 49.2837373, Lng : -123.1146483, Q1 : 0.875507116318, Q2 : 0.0729159489274, Q3 : -0.137051552534, Q4 : 0.457588732243}
2019-04-14 21:39:26.71: SIM {TimeUS : 63935249, Roll : 0.14, Pitch : -17.9, Yaw : 55.15, Alt : 49.3300018311, Lat : 49.2837397, Lng : -123.1146429, Q1 : 0.87548750639, Q2 : 0.0731440931559, Q3 : -0.137325361371, Q4 : 0.457507669926}
2019-04-14 21:39:26.81: SIM {TimeUS : 64035209, Roll : 0.14, Pitch : -17.93, Yaw : 55.14, Alt : 49.3300018311, Lat : 49.2837421, Lng : -123.1146375, Q1 : 0.87549072504, Q2 : 0.0732676684856, Q3 : -0.137566000223, Q4 : 0.457409530878}
2019-04-14 21:39:26.91: SIM {TimeUS : 64135169, Roll : 0.14, Pitch : -17.95, Yaw : 55.13, Alt : 49.3300018311, Lat : 49.2837445, Lng : -123.1146321, Q1 : 0.875516712666, Q2 : 0.0733093768358, Q3 : -0.13772277534, Q4 : 0.457305938005}
2019-04-14 21:39:27.01: SIM {TimeUS : 64235129, Roll : 0.15, Pitch : -17.94, Yaw : 55.12, Alt : 49.3300018311, Lat : 49.2837469, Lng : -123.1146267, Q1 : 0.875571668148, Q2 : 0.0733605474234, Q3 : -0.137600630522, Q4 : 0.45722925663}
2019-04-14 21:39:27.11: SIM {TimeUS : 64335089, Roll : 0.17, Pitch : -17.94, Yaw : 55.1, Alt : 49.3300018311, Lat : 49.2837492, Lng : -123.1146213, Q1 : 0.875620305538, Q2 : 0.0734954252839, Q3 : -0.137527838349, Q4 : 0.457136332989}
2019-04-14 21:39:27.21: SIM {TimeUS : 64435049, Roll : 0.18, Pitch : -17.95, Yaw : 55.09, Alt : 49.3300018311, Lat : 49.2837516, Lng : -123.1146158, Q1 : 0.875667631626, Q2 : 0.0735525488853, Q3 : -0.137608543038, Q4 : 0.457012146711}
2019-04-14 21:39:27.31: SIM {TimeUS : 64535009, Roll : 0.18, Pitch : -17.96, Yaw : 55.07, Alt : 49.3300018311, Lat : 49.283754, Lng : -123.1146104, Q1 : 0.875719487667, Q2 : 0.0735873952508, Q3 : -0.13767157495, Q4 : 0.456888198853}
2019-04-14 21:39:27.41: SIM {TimeUS : 64634969, Roll : 0.19, Pitch : -17.95, Yaw : 55.05, Alt : 49.3300018311, Lat : 49.2837565, Lng : -123.114605, Q1 : 0.875781953335, Q2 : 0.0736044719815, Q3 : -0.137622252107, Q4 : 0.456780523062}
2019-04-14 21:39:27.51: SIM {TimeUS : 64734929, Roll : 0.19, Pitch : -17.95, Yaw : 55.04, Alt : 49.3300018311, Lat : 49.2837589, Lng : -123.1145995, Q1 : 0.87583899498, Q2 : 0.0736038535833, Q3 : -0.137625709176, Q4 : 0.456670284271}
2019-04-14 21:39:27.61: SIM {TimeUS : 64834889, Roll : 0.17, Pitch : -17.97, Yaw : 55.03, Alt : 49.3300018311, Lat : 49.2837613, Lng : -123.1145941, Q1 : 0.875878155231, Q2 : 0.0735320746899, Q3 : -0.137853264809, Q4 : 0.456538051367}
2019-04-14 21:39:27.71: SIM {TimeUS : 64934849, Roll : 0.14, Pitch : -18.01, Yaw : 55.02, Alt : 49.3400001526, Lat : 49.2837637, Lng : -123.1145886, Q1 : 0.875895321369, Q2 : 0.0734570622444, Q3 : -0.138269260526, Q4 : 0.456391334534}
2019-04-14 21:39:27.81: SIM {TimeUS : 65034809, Roll : 0.13, Pitch : -18.02, Yaw : 55.01, Alt : 49.3400001526, Lat : 49.2837662, Lng : -123.1145831, Q1 : 0.875937223434, Q2 : 0.0733459666371, Q3 : -0.138386413455, Q4 : 0.456293314695}
2019-04-14 21:39:27.91: SIM {TimeUS : 65134769, Roll : 0.14, Pitch : -18.0, Yaw : 55.0, Alt : 49.3400001526, Lat : 49.2837686, Lng : -123.1145777, Q1 : 0.875990688801, Q2 : 0.0733341574669, Q3 : -0.138229876757, Q4 : 0.456240028143}
2019-04-14 21:39:28.01: SIM {TimeUS : 65235562, Roll : 0.15, Pitch : -17.99, Yaw : 54.99, Alt : 49.3400001526, Lat : 49.2837711, Lng : -123.1145721, Q1 : 0.876031577587, Q2 : 0.0734136030078, Q3 : -0.138082027435, Q4 : 0.456193447113}
2019-04-14 21:39:28.11: SIM {TimeUS : 65335522, Roll : 0.17, Pitch : -18.0, Yaw : 54.98, Alt : 49.3400001526, Lat : 49.2837735, Lng : -123.1145667, Q1 : 0.87605625391, Q2 : 0.073532640934, Q3 : -0.138083517551, Q4 : 0.456126481295}
2019-04-14 21:39:28.21: SIM {TimeUS : 65435482, Roll : 0.16, Pitch : -18.01, Yaw : 54.97, Alt : 49.3400001526, Lat : 49.2837761, Lng : -123.1145612, Q1 : 0.876085042953, Q2 : 0.0735151097178, Q3 : -0.138220235705, Q4 : 0.456032603979}
2019-04-14 21:39:28.31: SIM {TimeUS : 65535442, Roll : 0.14, Pitch : -18.03, Yaw : 54.96, Alt : 49.3400001526, Lat : 49.2837784, Lng : -123.1145557, Q1 : 0.876114904881, Q2 : 0.0733932107687, Q3 : -0.138461515307, Q4 : 0.455921709538}
2019-04-14 21:39:28.41: SIM {TimeUS : 65635402, Roll : 0.12, Pitch : -18.05, Yaw : 54.95, Alt : 49.3400001526, Lat : 49.283781, Lng : -123.1145502, Q1 : 0.876133739948, Q2 : 0.0733697041869, Q3 : -0.138688996434, Q4 : 0.455820083618}
2019-04-14 21:39:28.51: SIM {TimeUS : 65735362, Roll : 0.13, Pitch : -18.07, Yaw : 54.94, Alt : 49.3400001526, Lat : 49.2837834, Lng : -123.1145447, Q1 : 0.876143038273, Q2 : 0.0734850987792, Q3 : -0.138851389289, Q4 : 0.45573413372}
2019-04-14 21:39:28.61: SIM {TimeUS : 65835322, Roll : 0.14, Pitch : -18.09, Yaw : 54.93, Alt : 49.3400001526, Lat : 49.2837859, Lng : -123.1145392, Q1 : 0.876152396202, Q2 : 0.0736318603158, Q3 : -0.138957023621, Q4 : 0.455660372972}
2019-04-14 21:39:28.71: SIM {TimeUS : 65935282, Roll : 0.16, Pitch : -18.1, Yaw : 54.92, Alt : 49.3400001526, Lat : 49.2837883, Lng : -123.1145337, Q1 : 0.876159906387, Q2 : 0.0738564059138, Q3 : -0.138934329152, Q4 : 0.455616414547}
2019-04-14 21:39:28.81: SIM {TimeUS : 66035242, Roll : 0.18, Pitch : -18.11, Yaw : 54.91, Alt : 49.3400001526, Lat : 49.2837908, Lng : -123.1145282, Q1 : 0.876163244247, Q2 : 0.0740414708853, Q3 : -0.138965174556, Q4 : 0.455570489168}
2019-04-14 21:39:28.91: SIM {TimeUS : 66135202, Roll : 0.2, Pitch : -18.13, Yaw : 54.9, Alt : 49.3400001526, Lat : 49.2837933, Lng : -123.1145227, Q1 : 0.876165509224, Q2 : 0.0742201283574, Q3 : -0.139005824924, Q4 : 0.455524653196}
