2019-04-14 22:32:49.20: SIM {TimeUS : 40416327, Roll : 0.0, Pitch : 0.0, Yaw : 0.0, Alt : 30.1000003815, Lat : 49.28357, Lng : -123.11502, Q1 : 1.0, Q2 : 0.0, Q3 : 0.0, Q4 : 0.0}
2019-04-14 22:32:49.31: SIM {TimeUS : 40535446, Roll : 0.0, Pitch : 0.0, Yaw : 0.0, Alt : 30.1000003815, Lat : 49.28357, Lng : -123.11502, Q1 : 1.0, Q2 : 0.0, Q3 : 0.0, Q4 : 0.0}
2019-04-14 22:32:49.41: SIM {TimeUS : 40635406, Roll : 0.0, Pitch : 0.0, Yaw : 0.0, Alt : 30.1000003815, Lat : 49.28357, Lng : -123.11502, Q1 : 1.0, Q2 : 0.0, Q3 : 0.0, Q4 : 0.0}
2019-04-14 22:32:49.51: SIM {TimeUS : 40735366, Roll : 0.0, Pitch : 0.0, Yaw : 0.0, Alt : 30.1000003815, Lat : 49.28357, Lng : -123.11502, Q1 : 1.0, Q2 : 0.0, Q3 : 0.0, Q4 : 0.0}
2019-04-14 22:32:49.61: SIM {TimeUS : 40835326, Roll : 0.0, Pitch : 0.0, Yaw : 0.0, Alt : 30.1000003815, Lat : 49.28357, Lng : -123.11502, Q1 : 1.0, Q2 : 0.0, Q3 : 0.0, Q4 : 0.0}
2019-04-14 22:32:49.71: SIM {TimeUS : 40935286, Roll : 0.0, Pitch : 0.0, Yaw : 0.0, Alt : 30.1000003815, Lat : 49.28357, Lng : -123.11502, Q1 : 1.0, Q2 : 0.0, Q3 : 0.0, Q4 : 0.0}
2019-04-14 22:32:49.81: SIM {TimeUS : 41035246, Roll : 0.0, Pitch : 0.0, Yaw : 0.0, Alt : 30.1000003815, Lat : 49.28357, Lng : -123.11502, Q1 : 1.0, Q2 : 0.0, Q3 : 0.0, Q4 : 0.0}
2019-04-14 22:32:49.91: SIM {TimeUS : 41135206, Roll : 0.0, Pitch : 0.0, Yaw : 0.0, Alt : 30.1000003815, Lat : 49.28357, Lng : -123.11502, Q1 : 1.0, Q2 : 0.0, Q3 : 0.0, Q4 : 0.0}
2019-04-14 22:32:50.01: SIM {TimeUS : 41235166, Roll : 0.0, Pitch : 0.0, Yaw : 0.0, Alt : 30.1000003815, Lat : 49.28357, Lng : -123.11502, Q1 : 1.0, Q2 : 0.0, Q3 : 0.0, Q4 : 0.0}
2019-04-14 22:32:50.11: SIM {TimeUS : 41335126, Roll : 0.0, Pitch : 0.0, Yaw : 0.0, Alt : 30.1000003815, Lat : 49.28357, Lng : -123.11502, Q1 : 1.0, Q2 : 0.0, Q3 : 0.0, Q4 : 0.0}
2019-04-14 22:32:50.21: SIM {TimeUS : 41435086, Roll : 0.0, Pitch : 0.0, Yaw : 0.0, Alt : 30.1000003815, Lat : 49.28357, Lng : -123.11502, Q1 : 1.0, Q2 : 0.0, Q3 : 0.0, Q4 : 0.0}
2019-04-14 22:32:50.31: SIM {TimeUS : 41535046, Roll : 0.0, Pitch : 0.0, Yaw : 0.0, Alt : 30.1000003815, Lat : 49.28357, Lng : -123.11502, Q1 : 1.0, Q2 : 0.0, Q3 : 0.0, Q4 : 0.0}
2019-04-14 22:32:50.41: SIM {TimeUS : 41635006, Roll : 0.0, Pitch : 0.0, Yaw : 0.0, Alt : 30.1000003815, Lat : 49.28357, Lng : -123.11502, Q1 : 1.0, Q2 : 0.0, Q3 : 0.0, Q4 : 0.0}
2019-04-14 22:32:50.51: SIM {TimeUS : 41734966, Roll : 0.0, Pitch : 0.0, Yaw : 0.0, Alt : 30.1000003815, Lat : 49.28357, Lng : -123.11502, Q1 : 1.0, Q2 : 0.0, Q3 : 0.0, Q4 : 0.0}
2019-04-14 22:32:50.61: SIM {TimeUS : 41834926, Roll : 0.0, Pitch : 0.0, Yaw : 0.0, Alt : 30.1000003815, Lat : 49.28357, Lng : -123.11502, Q1 : 1.0, Q2 : 0.0, Q3 : 0.0, Q4 : 0.0}
2019-04-14 22:32:50.71: SIM {TimeUS : 41934886, Roll : 0.0, Pitch : 0.0, Yaw : 0.0, Alt : 30.1000003815, Lat : 49.28357, Lng : -123.11502, Q1 : 1.0, Q2 : 0.0, Q3 : 0.0, Q4 : 0.0}
2019-04-14 22:32:50.81: SIM {TimeUS : 42034846, Roll : 0.0, Pitch : 0.0, Yaw : 0.0, Alt : 30.1000003815, Lat : 49.28357, Lng : -123.11502, Q1 : 1.0, Q2 : 0.0, Q3 : 0.0, Q4 : 0.0}
2019-04-14 22:32:50.91: SIM {TimeUS : 42134806, Roll : 0.0, Pitch : 0.0, Yaw : 0.0, Alt : 30.1000003815, Lat : 49.28357, Lng : -123.11502, Q1 : 1.0, Q2 : 0.0, Q3 : 0.0, Q4 : 0.0}
2019-04-14 22:32:51.01: SIM {TimeUS : 42234766, Roll : 0.0, Pitch : 0.0, Yaw : 0.0, Alt : 30.1000003815, Lat : 49.28357, Lng : -123.11502, Q1 : 1.0, Q2 : 0.0, Q3 : 0.0, Q4 : 0.0}
2019-04-14 22:32:51.11: SIM {TimeUS : 42334726, Roll : 0.0, Pitch : 0.0, Yaw : 0.0, Alt : 30.1000003815, Lat : 49.28357, Lng : -123.11502, Q1 : 1.0, Q2 : 0.0, Q3 : 0.0, Q4 : 0.0}
2019-04-14 22:32:51.21: SIM {TimeUS : 42434686, Roll : 0.0, Pitch : 0.0, Yaw : 0.0, Alt : 30.1000003815, Lat : 49.28357, Lng : -123.11502, Q1 : 1.0, Q2 : 0.0, Q3 : 0.0, Q4 : 0.0}
2019-04-14 22:32:51.31: SIM {TimeUS : 42535479, Roll : 0.0, Pitch : 0.0, Yaw : 0.0, Alt : 30.1000003815, Lat : 49.28357, Lng : -123.11502, Q1 : 1.0, Q2 : 0.0, Q3 : 0.0, Q4 : 0.0}
2019-04-14 22:32:51.41: SIM {TimeUS : 42635439, Roll : 0.0, Pitch : 0.0, Yaw : 0.0, Alt : 30.1000003815, Lat : 49.28357, Lng : -123.11502, Q1 : 1.0, Q2 : 0.0, Q3 : 0.0, Q4 : 0.0}
2019-04-14 22:32:51.51: SIM {TimeUS : 42735399, Roll : 0.0, Pitch : 0.0, Yaw : 0.0, Alt : 30.1000003815, Lat : 49.28357, Lng : -123.11502, Q1 : 1.0, Q2 : 0.0, Q3 : 0.0, Q4 : 6.82903594784e-11}
2019-04-14 22:32:51.61: SIM {TimeUS : 42835359, Roll : 0.0, Pitch : 0.0, Yaw : 0.0, Alt : 30.1000003815, Lat : 49.28357, Lng : -123.11502, Q1 : 1.0, Q2 : 0.0, Q3 : 0.0, Q4 : 2.50326148699e-10}
2019-04-14 22:32:51.71: SIM {TimeUS : 42935319, Roll : 0.0, Pitch : 0.0, Yaw : 359.99, Alt : 30.1000003815, Lat : 49.28357, Lng : -123.11502, Q1 : 1.0, Q2 : 0.0, Q3 : 0.0, Q4 : -1.85517620821e-07}
2019-04-14 22:32:51.81: SIM {TimeUS : 43035279, Roll : 0.0, Pitch : 0.0, Yaw : 359.99, Alt : 30.1000003815, Lat : 49.28357, Lng : -123.11502, Q1 : 1.0, Q2 : 0.0, Q3 : 0.0, Q4 : -3.89423973957e-07}
2019-04-14 22:32:51.91: SIM {TimeUS : 43135239, Roll : 0.0, Pitch : 0.0, Yaw : 359.99, Alt : 30.1000003815, Lat : 49.28357, Lng : -123.11502, Q1 : 1.0, Q2 : 0.0, Q3 : 0.0, Q4 : -6.06902574418e-07}
2019-04-14 22:32:52.01: SIM {TimeUS : 43235199, Roll : 0.0, Pitch : 0.0, Yaw : 359.99, Alt : 30.1000003815, Lat : 49.28357, Lng : -123.11502, Q1 : 1.0, Q2 : 0.0, Q3 : 0.0, Q4 : -8.08082063486e-07}
2019-04-14 22:32:52.11: SIM {TimeUS : 43335159, Roll : 0.0, Pitch : 0.0, Yaw : 359.99, Alt : 30.1000003815, Lat : 49.28357, Lng : -123.11502, Q1 : 1.0, Q2 : 0.0, Q3 : 0.0, Q4 : -1.02473563857e-06}
2019-04-14 22:32:52.21: SIM {TimeUS : 43435119, Roll : 0.0, Pitch : 0.0, Yaw : 359.99, Alt : 30.1000003815, Lat : 49.28357, Lng : -123.11502, Q1 : 1.0, Q2 : 0.0, Q3 : 0.0, Q4 : -1.25368796944e-06}
2019-04-14 22:32:52.31: SIM {TimeUS : 43535079, Roll : 0.0, Pitch : 0.0, Yaw : 359.99, Alt : 30.1000003815, Lat : 49.28357, Lng : -123.11502, Q1 : 1.0, Q2 : 0.0, Q3 : 0.0, Q4 : -1.47588195887e-06}
2019-04-14 22:32:52.41: SIM {TimeUS : 43635039, Roll : 0.0, Pitch : 0.0, Yaw : 359.99, Alt : 30.1100006104, Lat : 49.28357, Lng : -123.11502, Q1 : 1.0, Q2 : 0.0, Q3 : 0.0, Q4 : -1.66192819506e-06}
2019-04-14 22:32:52.51: SIM {TimeUS : 43734999, Roll : 0.0, Pitch : 0.0, Yaw : 359.99, Alt : 30.1399993896, Lat : 49.28357, Lng : -123.11502, Q1 : 1.0, Q2 : 0.0, Q3 : 0.0, Q4 : -1.85719045476e-06}
2019-04-14 22:32:52.61: SIM {TimeUS : 43834959, Roll : 0.0, Pitch : 0.0, Yaw : 359.99, Alt : 30.1700000763, Lat : 49.28357, Lng : -123.11502, Q1 : 1.0, Q2 : 0.0, Q3 : 0.0, Q4 : -2.06529239222e-06}
2019-04-14 22:32:52.71: SIM {TimeUS : 43934919, Roll : 0.0, Pitch : 0.0, Yaw : 359.99, Alt : 30.2000007629, Lat : 49.28357, Lng : -123.11502, Q1 : 1.0, Q2 : 0.0, Q3 : 0.0, Q4 : -2.2718704713e-06}
2019-04-14 22:32:52.81: SIM {TimeUS : 44034879, Roll : -0.1, Pitch : -0.09, Yaw : 359.99, Alt : 30.25, Lat : 49.28357, Lng : -123.11502, Q1 : 0.999999284744, Q2 : -0.000897193676792, Q3 : -0.00081119814422, Q4 : -1.08008498501e-05}
2019-04-14 22:32:52.91: SIM {TimeUS : 44134839, Roll : -0.4, Pitch : -0.36, Yaw : 359.99, Alt : 30.3500003815, Lat : 49.28357, Lng : -123.11502, Q1 : 0.999988496304, Q2 : -0.00357453315519, Q3 : -0.00320072332397, Q4 : -4.20178330387e-05}
2019-04-14 22:32:53.01: SIM {TimeUS : 44234799, Roll : -0.72, Pitch : -0.63, Yaw : 359.99, Alt : 30.4899997711, Lat : 49.28357, Lng : -123.11502, Q1 : 0.99996471405, Q2 : -0.00630592741072, Q3 : -0.00555303366855, Q4 : -0.000103691127151}
2019-04-14 22:32:53.11: SIM {TimeUS : 44334759, Roll : -0.89, Pitch : -0.77, Yaw : 359.98, Alt : 30.6499996185, Lat : 49.28357, Lng : -123.11502, Q1 : 0.999946892262, Q2 : -0.00776823982596, Q3 : -0.00677076913416, Q4 : -0.000182186689926}
2019-04-14 22:32:53.21: SIM {TimeUS : 44434719, Roll : -0.86, Pitch : -0.77, Yaw : 359.97, Alt : 30.8099994659, Lat : 49.28357, Lng : -123.11502, Q1 : 0.99994879961, Q2 : -0.00753902317956, Q3 : -0.00674351863563, Q4 : -0.000267905532382}
2019-04-14 22:32:53.31: SIM {TimeUS : 44534679, Roll : -0.7, Pitch : -0.63, Yaw : 359.96, Alt : 30.9599990845, Lat : 49.28357, Lng : -123.1150201, Q1 : 0.999965548515, Q2 : -0.00613720947877, Q3 : -0.00558167649433, Q4 : -0.000351591093931}
2019-04-14 22:32:53.41: SIM {TimeUS : 44635472, Roll : -0.48, Pitch : -0.43, Yaw : 359.95, Alt : 31.1200008392, Lat : 49.2835701, Lng : -123.1150202, Q1 : 0.999983906746, Q2 : -0.00422395020723, Q3 : -0.003757186234, Q4 : -0.000425229314715}
2019-04-14 22:32:53.51: SIM {TimeUS : 44735432, Roll : -0.26, Pitch : -0.22, Yaw : 359.94, Alt : 31.2800006866, Lat : 49.2835701, Lng : -123.1150203, Q1 : 0.999995350838, Q2 : -0.0022984908428, Q3 : -0.00195243884809, Q4 : -0.00048569572391}
2019-04-14 22:32:53.61: SIM {TimeUS : 44835392, Roll : -0.07, Pitch : -0.06, Yaw : 359.93, Alt : 31.4400005341, Lat : 49.2835702, Lng : -123.1150203, Q1 : 0.999999463558, Q2 : -0.000690886168741, Q3 : -0.000567734590732, Q4 : -0.000531556725036}
2019-04-14 22:32:53.71: SIM {TimeUS : 44935352, Roll : 0.03, Pitch : 0.02, Yaw : 359.93, Alt : 31.6200008392, Lat : 49.2835702, Lng : -123.1150204, Q1 : 0.999999761581, Q2 : 0.000346646644175, Q3 : 0.00021890278731, Q4 : -0.000561809167266}
2019-04-14 22:32:53.81: SIM {TimeUS : 45035312, Roll : 0.09, Pitch : 0.05, Yaw : 359.93, Alt : 31.7999992371, Lat : 49.2835703, Lng : -123.1150205, Q1 : 0.999999344349, Q2 : 0.000843800371513, Q3 : 0.000464163604192, Q4 : -0.000564963091165}
2019-04-14 22:32:53.91: SIM {TimeUS : 45135272, Roll : 0.11, Pitch : 0.04, Yaw : 359.93, Alt : 31.9799995422, Lat : 49.2835703, Lng : -123.1150206, Q1 : 0.999999284744, Q2 : 0.000986243481748, Q3 : 0.000378247030312, Q4 : -0.000543219211977}
2019-04-14 22:32:54.01: SIM {TimeUS : 45235232, Roll : 0.1, Pitch : 0.03, Yaw : 359.94, Alt : 32.1699981689, Lat : 49.2835703, Lng : -123.1150206, Q1 : 0.999999403954, Q2 : 0.000926217995584, Q3 : 0.000292546872515, Q4 : -0.000507354503497}
2019-04-14 22:32:54.11: SIM {TimeUS : 45335192, Roll : 0.09, Pitch : 0.04, Yaw : 359.94, Alt : 32.3600006104, Lat : 49.2835703, Lng : -123.1150207, Q1 : 0.999999523163, Q2 : 0.000797548505943, Q3 : 0.000353808747604, Q4 : -0.000465371587779}
2019-04-14 22:32:54.21: SIM {TimeUS : 45435152, Roll : 0.06, Pitch : 0.08, Yaw : 359.94, Alt : 32.5499992371, Lat : 49.2835703, Lng : -123.1150207, Q1 : 0.999999463558, Q2 : 0.000572673685383, Q3 : 0.000715850736015, Q4 : -0.000445241632406}
2019-04-14 22:32:54.31: SIM {TimeUS : 45535112, Roll : 0.07, Pitch : 0.13, Yaw : 359.95, Alt : 32.75, Lat : 49.2835703, Lng : -123.1150208, Q1 : 0.999998986721, Q2 : 0.000629981106613, Q3 : 0.00117894262075, Q4 : -0.000435451191152}
2019-04-14 22:32:54.41: SIM {TimeUS : 45635072, Roll : 0.1, Pitch : 0.17, Yaw : 359.94, Alt : 32.9500007629, Lat : 49.2835704, Lng : -123.1150208, Q1 : 0.99999833107, Q2 : 0.000923632236663, Q3 : 0.00152050075121, Q4 : -0.000440467701992}
2019-04-14 22:32:54.51: SIM {TimeUS : 45735032, Roll : 0.14, Pitch : 0.2, Yaw : 359.94, Alt : 33.1500015259, Lat : 49.2835704, Lng : -123.1150208, Q1 : 0.999997615814, Q2 : 0.00123084045481, Q3 : 0.00175984494854, Q4 : -0.000447017460829}
2019-04-14 22:32:54.61: SIM {TimeUS : 45834992, Roll : 0.15, Pitch : 0.21, Yaw : 359.94, Alt : 33.3499984741, Lat : 49.2835704, Lng : -123.1150208, Q1 : 0.999997198582, Q2 : 0.00134646217339, Q3 : 0.00189717952162, Q4 : -0.000452456413768}
2019-04-14 22:32:54.71: SIM {TimeUS : 45934952, Roll : 0.15, Pitch : 0.18, Yaw : 359.94, Alt : 33.5600013733, Lat : 49.2835704, Lng : -123.1150209, Q1 : 0.99999755621, Q2 : 0.00138914340641, Q3 : 0.00165308755822, Q4 : -0.000476852233987}
2019-04-14 22:32:54.81: SIM {TimeUS : 46034912, Roll : 0.15, Pitch : 0.14, Yaw : 359.94, Alt : 33.7599983215, Lat : 49.2835704, Lng : -123.1150209, Q1 : 0.999998092651, Q2 : 0.00138783780858, Q3 : 0.00128332606982, Q4 : -0.000509085075464}
2019-04-14 22:32:54.91: SIM {TimeUS : 46134872, Roll : 0.15, Pitch : 0.11, Yaw : 359.93, Alt : 33.9700012207, Lat : 49.2835704, Lng : -123.1150209, Q1 : 0.999998390675, Q2 : 0.00134690280538, Q3 : 0.0010316381231, Q4 : -0.000535760598723}
2019-04-14 22:32:55.01: SIM {TimeUS : 46234832, Roll : 0.15, Pitch : 0.1, Yaw : 359.93, Alt : 34.1800003052, Lat : 49.2835704, Lng : -123.1150209, Q1 : 0.999998569489, Q2 : 0.00132105592638, Q3 : 0.000890102703124, Q4 : -0.000563264999073}
2019-04-14 22:32:55.11: SIM {TimeUS : 46334792, Roll : 0.15, Pitch : 0.1, Yaw : 359.93, Alt : 34.3899993896, Lat : 49.2835704, Lng : -123.1150209, Q1 : 0.999998509884, Q2 : 0.00133911462035, Q3 : 0.000914048578124, Q4 : -0.000592308118939}
2019-04-14 22:32:55.21: SIM {TimeUS : 46434752, Roll : 0.14, Pitch : 0.09, Yaw : 359.92, Alt : 34.6100006104, Lat : 49.2835704, Lng : -123.1150209, Q1 : 0.999998748302, Q2 : 0.00123211729806, Q3 : 0.00078912632307, Q4 : -0.000612423056737}
2019-04-14 22:32:55.31: SIM {TimeUS : 46534712, Roll : 0.11, Pitch : 0.07, Yaw : 359.92, Alt : 34.8199996948, Lat : 49.2835704, Lng : -123.1150209, Q1 : 0.999999046326, Q2 : 0.00103816192131, Q3 : 0.000665558327455, Q4 : -0.000629532034509}
2019-04-14 22:32:55.41: SIM {TimeUS : 46634672, Roll : 0.09, Pitch : 0.06, Yaw : 359.92, Alt : 35.0400009155, Lat : 49.2835704, Lng : -123.1150208, Q1 : 0.999999284744, Q2 : 0.000808294455055, Q3 : 0.000572154123802, Q4 : -0.000648296670988}
2019-04-14 22:32:55.51: SIM {TimeUS : 46735465, Roll : 0.06, Pitch : 0.05, Yaw : 359.92, Alt : 35.2599983215, Lat : 49.2835704, Lng : -123.1150208, Q1 : 0.999999523163, Q2 : 0.000553355144802, Q3 : 0.000499058864079, Q4 : -0.00066853070166}
2019-04-14 22:32:55.61: SIM {TimeUS : 46835425, Roll : 0.04, Pitch : 0.02, Yaw : 359.92, Alt : 35.4700012207, Lat : 49.2835704, Lng : -123.1150208, Q1 : 0.999999701977, Q2 : 0.000402089353884, Q3 : 0.00019067976973, Q4 : -0.000682607351337}
2019-04-14 22:32:55.71: SIM {TimeUS : 46935385, Roll : 0.03, Pitch : 0.0, Yaw : 359.92, Alt : 35.6899986267, Lat : 49.2835704, Lng : -123.1150208, Q1 : 0.999999701977, Q2 : 0.000318752921885, Q3 : -4.17761511926e-05, Q4 : -0.000698135991115}
2019-04-14 22:32:55.81: SIM {TimeUS : 47035345, Roll : 0.01, Pitch : -0.01, Yaw : 359.91, Alt : 35.9099998474, Lat : 49.2835704, Lng : -123.1150208, Q1 : 0.999999701977, Q2 : 0.000125786304125, Q3 : -0.000128333369503, Q4 : -0.000720754847862}
2019-04-14 22:32:55.91: SIM {TimeUS : 47135305, Roll : 0.0, Pitch : -0.01, Yaw : 359.91, Alt : 36.1300010681, Lat : 49.2835704, Lng : -123.1150207, Q1 : 0.999999701977, Q2 : 7.08358638803e-05, Q3 : -0.000104607061076, Q4 : -0.000738050788641}
2019-04-14 22:32:56.01: SIM {TimeUS : 47235265, Roll : 0.01, Pitch : 0.0, Yaw : 359.91, Alt : 36.3499984741, Lat : 49.2835704, Lng : -123.1150207, Q1 : 0.999999701977, Q2 : 0.000117092546134, Q3 : -4.65567136416e-05, Q4 : -0.000754375709221}
2019-04-14 22:32:56.11: SIM {TimeUS : 47335225, Roll : 0.0, Pitch : -0.01, Yaw : 359.91, Alt : 36.5800018311, Lat : 49.2835704, Lng : -123.1150207, Q1 : 0.999999701977, Q2 : 3.25059249917e-06, Q3 : -0.000165408186149, Q4 : -0.000772656116169}
2019-04-14 22:32:56.21: SIM {TimeUS : 47435185, Roll : -0.03, Pitch : -0.05, Yaw : 359.9, Alt : 36.7999992371, Lat : 49.2835704, Lng : -123.1150207, Q1 : 0.999999523163, Q2 : -0.000290557625704, Q3 : -0.000457179063233, Q4 : -0.000796564505436}
2019-04-14 22:32:56.31: SIM {TimeUS : 47535145, Roll : -0.07, Pitch : -0.07, Yaw : 359.9, Alt : 37.0200004578, Lat : 49.2835704, Lng : -123.1150207, Q1 : 0.99999922514, Q2 : -0.000642191793304, Q3 : -0.000696034810971, Q4 : -0.000824097078294}
2019-04-14 22:32:56.41: SIM {TimeUS : 47635105, Roll : -0.11, Pitch : -0.1, Yaw : 359.9, Alt : 37.25, Lat : 49.2835704, Lng : -123.1150207, Q1 : 0.999998748302, Q2 : -0.000984509824775, Q3 : -0.000901682593394, Q4 : -0.000853232864756}
2019-04-14 22:32:56.51: SIM {TimeUS : 47735065, Roll : -0.12, Pitch : -0.11, Yaw : 359.89, Alt : 37.4700012207, Lat : 49.2835704, Lng : -123.1150207, Q1 : 0.999998509884, Q2 : -0.00110968551598, Q3 : -0.00097846146673, Q4 : -0.000889534712769}
2019-04-14 22:32:56.61: SIM {TimeUS : 47835025, Roll : -0.11, Pitch : -0.1, Yaw : 359.89, Alt : 37.7000007629, Lat : 49.2835704, Lng : -123.1150206, Q1 : 0.999998629093, Q2 : -0.00104664615355, Q3 : -0.000899271690287, Q4 : -0.000928419933189}
2019-04-14 22:32:56.71: SIM {TimeUS : 47934985, Roll : -0.09, Pitch : -0.06, Yaw : 359.88, Alt : 37.9199981689, Lat : 49.2835704, Lng : -123.1150206, Q1 : 0.999998986721, Q2 : -0.000860187516082, Q3 : -0.000592844793573, Q4 : -0.000962038233411}
2019-04-14 22:32:56.81: SIM {TimeUS : 48034945, Roll : -0.07, Pitch : -0.03, Yaw : 359.88, Alt : 38.1500015259, Lat : 49.2835704, Lng : -123.1150206, Q1 : 0.99999922514, Q2 : -0.000648369255941, Q3 : -0.000324908760376, Q4 : -0.000991942477413}
2019-04-14 22:32:56.91: SIM {TimeUS : 48134905, Roll : -0.06, Pitch : -0.03, Yaw : 359.88, Alt : 38.3800010681, Lat : 49.2835704, Lng : -123.1150206, Q1 : 0.999999284744, Q2 : -0.000596548372414, Q3 : -0.000262164772721, Q4 : -0.00102152838372}
2019-04-14 22:32:57.01: SIM {TimeUS : 48234865, Roll : -0.07, Pitch : -0.01, Yaw : 359.88, Alt : 38.6100006104, Lat : 49.2835704, Lng : -123.1150206, Q1 : 0.999999284744, Q2 : -0.000615244964138, Q3 : -0.00012114308629, Q4 : -0.00103466119617}
2019-04-14 22:32:57.11: SIM {TimeUS : 48334825, Roll : -0.08, Pitch : 0.0, Yaw : 359.88, Alt : 38.8400001526, Lat : 49.2835704, Lng : -123.1150206, Q1 : 0.999999165535, Q2 : -0.000768633733969, Q3 : 4.72759675176e-05, Q4 : -0.00103493442293}
2019-04-14 22:32:57.21: SIM {TimeUS : 48434785, Roll : -0.08, Pitch : 0.02, Yaw : 359.88, Alt : 39.0600013733, Lat : 49.2835706, Lng : -123.1150206, Q1 : 0.999999165535, Q2 : -0.000766220444348, Q3 : 0.000184940683539, Q4 : -0.00102958327625}
2019-04-14 22:32:57.31: SIM {TimeUS : 48534745, Roll : -0.06, Pitch : 0.04, Yaw : 359.88, Alt : 39.2900009155, Lat : 49.2835706, Lng : -123.1150206, Q1 : 0.99999922514, Q2 : -0.000572131364606, Q3 : 0.000398669479182, Q4 : -0.00102688185871}
2019-04-14 22:32:57.41: SIM {TimeUS : 48634705, Roll : -0.04, Pitch : 0.04, Yaw : 359.88, Alt : 39.5200004578, Lat : 49.2835706, Lng : -123.1150207, Q1 : 0.999999344349, Q2 : -0.000362670805771, Q3 : 0.000376410665922, Q4 : -0.00102119427174}
2019-04-14 22:32:57.51: SIM {TimeUS : 48734665, Roll : -0.01, Pitch : 0.03, Yaw : 359.88, Alt : 39.7599983215, Lat : 49.2835706, Lng : -123.1150207, Q1 : 0.999999403954, Q2 : -0.000128546816995, Q3 : 0.000303742766846, Q4 : -0.00101719459053}
2019-04-14 22:32:57.61: SIM {TimeUS : 48835458, Roll : 0.01, Pitch : 0.05, Yaw : 359.88, Alt : 39.9900016785, Lat : 49.2835706, Lng : -123.1150207, Q1 : 0.999999344349, Q2 : 0.000165931705851, Q3 : 0.000443917757366, Q4 : -0.00101961055771}
2019-04-14 22:32:57.71: SIM {TimeUS : 48935418, Roll : 0.05, Pitch : 0.07, Yaw : 359.88, Alt : 40.2200012207, Lat : 49.2835706, Lng : -123.1150207, Q1 : 0.99999910593, Q2 : 0.000470167899039, Q3 : 0.000690312765073, Q4 : -0.00103081949055}
2019-04-14 22:32:57.81: SIM {TimeUS : 49035378, Roll : 0.08, Pitch : 0.11, Yaw : 359.87, Alt : 40.4500007629, Lat : 49.2835706, Lng : -123.1150207, Q1 : 0.999998688698, Q2 : 0.000759219110478, Q3 : 0.000989833148196, Q4 : -0.00105063663796}
2019-04-14 22:32:57.91: SIM {TimeUS : 49135338, Roll : 0.08, Pitch : 0.14, Yaw : 359.87, Alt : 40.6800003052, Lat : 49.2835706, Lng : -123.1150207, Q1 : 0.99999833107, Q2 : 0.000726730853785, Q3 : 0.00129767158069, Q4 : -0.00106651347596}
2019-04-14 22:32:58.01: SIM {TimeUS : 49235298, Roll : 0.03, Pitch : 0.17, Yaw : 359.87, Alt : 40.9099998474, Lat : 49.2835706, Lng : -123.1150207, Q1 : 0.999998152256, Q2 : 0.000329805217916, Q3 : 0.00153534207493, Q4 : -0.0010995232733}
2019-04-14 22:32:58.11: SIM {TimeUS : 49335258, Roll : 0.0, Pitch : 0.18, Yaw : 359.87, Alt : 41.1500015259, Lat : 49.2835706, Lng : -123.1150207, Q1 : 0.999998033047, Q2 : -3.70336711057e-05, Q3 : 0.00164603232406, Q4 : -0.00113023817539}
2019-04-14 22:32:58.21: SIM {TimeUS : 49435218, Roll : -0.02, Pitch : 0.16, Yaw : 359.86, Alt : 41.3800010681, Lat : 49.2835706, Lng : -123.1150207, Q1 : 0.999998211861, Q2 : -0.000241946021561, Q3 : 0.00147235172335, Q4 : -0.00115980010014}
2019-04-14 22:32:58.31: SIM {TimeUS : 49535178, Roll : -0.03, Pitch : 0.13, Yaw : 359.86, Alt : 41.6100006104, Lat : 49.2835706, Lng : -123.1150207, Q1 : 0.999998509884, Q2 : -0.00030024946318, Q3 : 0.00120868778322, Q4 : -0.00119717174675}
2019-04-14 22:32:58.41: SIM {TimeUS : 49635138, Roll : -0.02, Pitch : 0.13, Yaw : 359.85, Alt : 41.8499984741, Lat : 49.2835706, Lng : -123.1150207, Q1 : 0.999998569489, Q2 : -0.000193921368918, Q3 : 0.00116004422307, Q4 : -0.00124609249178}
2019-04-14 22:32:58.51: SIM {TimeUS : 49735098, Roll : 0.01, Pitch : 0.14, Yaw : 359.85, Alt : 42.0800018311, Lat : 49.2835706, Lng : -123.1150207, Q1 : 0.99999833107, Q2 : 0.000137995069963, Q3 : 0.00126113381702, Q4 : -0.00130033853929}
2019-04-14 22:32:58.61: SIM {TimeUS : 49835058, Roll : 0.06, Pitch : 0.14, Yaw : 359.84, Alt : 42.3199996948, Lat : 49.2835706, Lng : -123.1150207, Q1 : 0.999998092651, Q2 : 0.00056583218975, Q3 : 0.00130424508825, Q4 : -0.00135541916825}
2019-04-14 22:32:58.71: SIM {TimeUS : 49935018, Roll : 0.1, Pitch : 0.12, Yaw : 359.83, Alt : 42.5499992371, Lat : 49.2835706, Lng : -123.1150207, Q1 : 0.999998033047, Q2 : 0.000884171458893, Q3 : 0.0010745623149, Q4 : -0.00140444561839}
2019-04-14 22:32:58.81: SIM {TimeUS : 50034978, Roll : 0.1, Pitch : 0.08, Yaw : 359.83, Alt : 42.7799987793, Lat : 49.2835706, Lng : -123.1150207, Q1 : 0.999998271465, Q2 : 0.000915492128115, Q3 : 0.000742749660276, Q4 : -0.00144734140486}
2019-04-14 22:32:58.91: SIM {TimeUS : 50134938, Roll : 0.06, Pitch : 0.05, Yaw : 359.83, Alt : 43.0200004578, Lat : 49.2835706, Lng : -123.1150207, Q1 : 0.999998629093, Q2 : 0.000594069540966, Q3 : 0.000502580311149, Q4 : -0.00147540157195}
2019-04-14 22:32:59.01: SIM {TimeUS : 50234898, Roll : 0.01, Pitch : 0.05, Yaw : 359.82, Alt : 43.25, Lat : 49.2835706, Lng : -123.1150207, Q1 : 0.999998748302, Q2 : 0.000129783307784, Q3 : 0.000457636197098, Q4 : -0.00149459880777}
2019-04-14 22:32:59.11: SIM {TimeUS : 50334858, Roll : -0.02, Pitch : 0.07, Yaw : 359.82, Alt : 43.4900016785, Lat : 49.2835704, Lng : -123.1150207, Q1 : 0.999998629093, Q2 : -0.000198219102458, Q3 : 0.000665326952003, Q4 : -0.00150437280536}
2019-04-14 22:32:59.21: SIM {TimeUS : 50434818, Roll : -0.04, Pitch : 0.09, Yaw : 359.82, Alt : 43.7200012207, Lat : 49.2835704, Lng : -123.1150207, Q1 : 0.999998450279, Q2 : -0.000352077215211, Q3 : 0.000806369760539, Q4 : -0.00151005119551}
2019-04-14 22:32:59.31: SIM {TimeUS : 50534778, Roll : -0.03, Pitch : 0.08, Yaw : 359.82, Alt : 43.9599990845, Lat : 49.2835704, Lng : -123.1150207, Q1 : 0.999998509884, Q2 : -0.000327892863424, Q3 : 0.000712897395715, Q4 : -0.0015110631939}
2019-04-14 22:32:59.41: SIM {TimeUS : 50634738, Roll : -0.04, Pitch : 0.06, Yaw : 359.82, Alt : 44.1899986267, Lat : 49.2835704, Lng : -123.1150206, Q1 : 0.999998629093, Q2 : -0.000374427880161, Q3 : 0.000569424999412, Q4 : -0.00152158038691}
2019-04-14 22:32:59.51: SIM {TimeUS : 50734698, Roll : -0.04, Pitch : 0.04, Yaw : 359.82, Alt : 44.4300003052, Lat : 49.2835704, Lng : -123.1150206, Q1 : 0.999998688698, Q2 : -0.00035147491144, Q3 : 0.000401103810873, Q4 : -0.00153487885837}
2019-04-14 22:32:59.61: SIM {TimeUS : 50834658, Roll : -0.02, Pitch : 0.03, Yaw : 359.82, Alt : 44.6699981689, Lat : 49.2835704, Lng : -123.1150206, Q1 : 0.999998748302, Q2 : -0.000237668922637, Q3 : 0.000288930052193, Q4 : -0.00155350391287}
2019-04-14 22:32:59.71: SIM {TimeUS : 50935451, Roll : -0.01, Pitch : 0.02, Yaw : 359.81, Alt : 44.9000015259, Lat : 49.2835704, Lng : -123.1150206, Q1 : 0.999998688698, Q2 : -0.000167075180798, Q3 : 0.000250457203947, Q4 : -0.00157571397722}
2019-04-14 22:32:59.81: SIM {TimeUS : 51035411, Roll : -0.02, Pitch : 0.01, Yaw : 359.81, Alt : 45.1399993896, Lat : 49.2835704, Lng : -123.1150206, Q1 : 0.999998688698, Q2 : -0.000179453592864, Q3 : 0.000109058790258, Q4 : -0.00159833102953}
2019-04-14 22:32:59.91: SIM {TimeUS : 51135371, Roll : -0.02, Pitch : -0.02, Yaw : 359.81, Alt : 45.3800010681, Lat : 49.2835703, Lng : -123.1150206, Q1 : 0.999998629093, Q2 : -0.000261565786786, Q3 : -0.000180250615813, Q4 : -0.00162448675837}
2019-04-14 22:33:00.01: SIM {TimeUS : 51235331, Roll : -0.03, Pitch : -0.04, Yaw : 359.81, Alt : 45.6100006104, Lat : 49.2835703, Lng : -123.1150206, Q1 : 0.999998509884, Q2 : -0.000333695468726, Q3 : -0.000392786110751, Q4 : -0.00165077333804}
2019-04-14 22:33:00.11: SIM {TimeUS : 51335291, Roll : -0.03, Pitch : -0.05, Yaw : 359.8, Alt : 45.8400001526, Lat : 49.2835703, Lng : -123.1150206, Q1 : 0.999998390675, Q2 : -0.000310747971525, Q3 : -0.000480435031932, Q4 : -0.00167701253667}
2019-04-14 22:33:00.21: SIM {TimeUS : 51435251, Roll : -0.04, Pitch : -0.05, Yaw : 359.8, Alt : 46.0800018311, Lat : 49.2835703, Lng : -123.1150206, Q1 : 0.999998390675, Q2 : -0.000350398098817, Q3 : -0.00046888779616, Q4 : -0.00170429958962}
2019-04-14 22:33:00.31: SIM {TimeUS : 51535211, Roll : -0.06, Pitch : -0.04, Yaw : 359.8, Alt : 46.2999992371, Lat : 49.2835703, Lng : -123.1150206, Q1 : 0.999998271465, Q2 : -0.000529452809133, Q3 : -0.00038221621071, Q4 : -0.00173388957046}
2019-04-14 22:33:00.41: SIM {TimeUS : 51635171, Roll : -0.09, Pitch : -0.03, Yaw : 359.79, Alt : 46.5299987793, Lat : 49.2835703, Lng : -123.1150206, Q1 : 0.999998092651, Q2 : -0.000814021506812, Q3 : -0.000264925562078, Q4 : -0.0017631779192}
2019-04-14 22:33:00.51: SIM {TimeUS : 51735131, Roll : -0.11, Pitch : -0.02, Yaw : 359.79, Alt : 46.7400016785, Lat : 49.2835703, Lng : -123.1150206, Q1 : 0.999997854233, Q2 : -0.0010055731982, Q3 : -0.000226903401199, Q4 : -0.00179086916614}
2019-04-14 22:33:00.61: SIM {TimeUS : 51835091, Roll : -0.12, Pitch : -0.02, Yaw : 359.79, Alt : 46.9599990845, Lat : 49.2835703, Lng : -123.1150206, Q1 : 0.999997735023, Q2 : -0.00105926359538, Q3 : -0.000175034758286, Q4 : -0.00181647937279}
2019-04-14 22:33:00.71: SIM {TimeUS : 51935051, Roll : -0.1, Pitch : 0.0, Yaw : 359.78, Alt : 47.1599998474, Lat : 49.2835703, Lng : -123.1150206, Q1 : 0.999997854233, Q2 : -0.000953396491241, Q3 : -2.28551016335e-05, Q4 : -0.001843166654}
2019-04-14 22:33:00.81: SIM {TimeUS : 52035011, Roll : -0.08, Pitch : 0.0, Yaw : 359.78, Alt : 47.3600006104, Lat : 49.2835703, Lng : -123.1150206, Q1 : 0.999998033047, Q2 : -0.000711735105142, Q3 : 7.21496035112e-05, Q4 : -0.00186806428246}
2019-04-14 22:33:00.91: SIM {TimeUS : 52134971, Roll : -0.05, Pitch : 0.0, Yaw : 359.78, Alt : 47.5499992371, Lat : 49.2835703, Lng : -123.1150206, Q1 : 0.999998092651, Q2 : -0.000482490082504, Q3 : 5.32824196853e-05, Q4 : -0.00189111952204}
2019-04-14 22:33:01.01: SIM {TimeUS : 52234931, Roll : -0.05, Pitch : -0.01, Yaw : 359.78, Alt : 47.7299995422, Lat : 49.2835703, Lng : -123.1150206, Q1 : 0.999998033047, Q2 : -0.000464209355414, Q3 : -0.000124541853438, Q4 : -0.00191690050997}
2019-04-14 22:33:01.11: SIM {TimeUS : 52334891, Roll : -0.05, Pitch : -0.04, Yaw : 359.77, Alt : 47.8899993896, Lat : 49.2835703, Lng : -123.1150206, Q1 : 0.999997913837, Q2 : -0.00046231909073, Q3 : -0.000397629482904, Q4 : -0.00194474298041}
2019-04-14 22:33:01.21: SIM {TimeUS : 52434851, Roll : -0.03, Pitch : -0.07, Yaw : 359.77, Alt : 48.0499992371, Lat : 49.2835703, Lng : -123.1150206, Q1 : 0.999997794628, Q2 : -0.000347342167515, Q3 : -0.000655986659694, Q4 : -0.00197053956799}
2019-04-14 22:33:01.31: SIM {TimeUS : 52534811, Roll : -0.02, Pitch : -0.09, Yaw : 359.77, Alt : 48.1899986267, Lat : 49.2835703, Lng : -123.1150206, Q1 : 0.999997615814, Q2 : -0.000262204033788, Q3 : -0.000845842936542, Q4 : -0.0019908125978}
2019-04-14 22:33:01.41: SIM {TimeUS : 52634771, Roll : -0.02, Pitch : -0.1, Yaw : 359.76, Alt : 48.3300018311, Lat : 49.2835703, Lng : -123.1150206, Q1 : 0.999997496605, Q2 : -0.000246910116402, Q3 : -0.000954520364758, Q4 : -0.00201243814081}
2019-04-14 22:33:01.51: SIM {TimeUS : 52734731, Roll : 0.0, Pitch : -0.1, Yaw : 359.76, Alt : 48.4500007629, Lat : 49.2835703, Lng : -123.1150206, Q1 : 0.999997496605, Q2 : -4.15666181652e-05, Q3 : -0.000893724383786, Q4 : -0.0020376003813}
2019-04-14 22:33:01.61: SIM {TimeUS : 52834691, Roll : 0.02, Pitch : -0.08, Yaw : 359.76, Alt : 48.5499992371, Lat : 49.2835703, Lng : -123.1150206, Q1 : 0.999997615814, Q2 : 0.000239094428252, Q3 : -0.000715586182196, Q4 : -0.0020661202725}
2019-04-14 22:33:01.71: SIM {TimeUS : 52935484, Roll : 0.05, Pitch : -0.05, Yaw : 359.75, Alt : 48.6500015259, Lat : 49.2835703, Lng : -123.1150206, Q1 : 0.99999755621, Q2 : 0.000486974400701, Q3 : -0.000459158589365, Q4 : -0.00209571933374}
2019-04-14 22:33:01.81: SIM {TimeUS : 53035444, Roll : 0.06, Pitch : -0.02, Yaw : 359.75, Alt : 48.7299995422, Lat : 49.2835703, Lng : -123.1150206, Q1 : 0.99999755621, Q2 : 0.000593248289078, Q3 : -0.000255584949628, Q4 : -0.00212500616908}
2019-04-14 22:33:01.91: SIM {TimeUS : 53135404, Roll : 0.07, Pitch : -0.01, Yaw : 359.75, Alt : 48.8100013733, Lat : 49.2835703, Lng : -123.1150207, Q1 : 0.999997437, Q2 : 0.000647891487461, Q3 : -0.000160375086125, Q4 : -0.00215259287506}
2019-04-14 22:33:02.01: SIM {TimeUS : 53235364, Roll : 0.06, Pitch : -0.03, Yaw : 359.75, Alt : 48.8699989319, Lat : 49.2835703, Lng : -123.1150207, Q1 : 0.999997437, Q2 : 0.000553533260245, Q3 : -0.000270207005087, Q4 : -0.00217860401608}
2019-04-14 22:33:02.11: SIM {TimeUS : 53335324, Roll : 0.03, Pitch : -0.03, Yaw : 359.74, Alt : 48.9300003052, Lat : 49.2835703, Lng : -123.1150207, Q1 : 0.999997437, Q2 : 0.000308794056764, Q3 : -0.000330944865709, Q4 : -0.00220226217061}
2019-04-14 22:33:02.21: SIM {TimeUS : 53435284, Roll : 0.02, Pitch : -0.04, Yaw : 359.74, Alt : 48.9700012207, Lat : 49.2835703, Lng : -123.1150207, Q1 : 0.999997437, Q2 : 0.00020818329358, Q3 : -0.000369269750081, Q4 : -0.00222253426909}
2019-04-14 22:33:02.31: SIM {TimeUS : 53535244, Roll : 0.11, Pitch : -0.1, Yaw : 359.74, Alt : 49.0099983215, Lat : 49.2835703, Lng : -123.1150207, Q1 : 0.999996602535, Q2 : 0.000959259341471, Q3 : -0.00092547677923, Q4 : -0.00224166107364}
2019-04-14 22:33:02.41: SIM {TimeUS : 53635204, Roll : 0.4, Pitch : -0.29, Yaw : 359.73, Alt : 49.0499992371, Lat : 49.2835703, Lng : -123.1150207, Q1 : 0.999988019466, Q2 : 0.00349884061143, Q3 : -0.00256077572703, Q4 : -0.00226796511561}
2019-04-14 22:33:02.51: SIM {TimeUS : 53735164, Roll : 0.94, Pitch : -0.62, Yaw : 359.73, Alt : 49.0800018311, Lat : 49.2835704, Lng : -123.1150207, Q1 : 0.999948203564, Q2 : 0.00825519952923, Q3 : -0.00550038507208, Q4 : -0.00228843349032}
2019-04-14 22:33:02.61: SIM {TimeUS : 53835124, Roll : 1.69, Pitch : -1.1, Yaw : 359.72, Alt : 49.0999984741, Lat : 49.2835704, Lng : -123.1150206, Q1 : 0.999841868877, Q2 : 0.014743863605, Q3 : -0.00967504922301, Q4 : -0.00229591620155}
2019-04-14 22:33:02.71: SIM {TimeUS : 53935084, Roll : 2.54, Pitch : -1.7, Yaw : 359.7, Alt : 49.1199989319, Lat : 49.2835704, Lng : -123.1150206, Q1 : 0.999639987946, Q2 : 0.022168232128, Q3 : -0.0149429626763, Q4 : -0.00227667973377}
2019-04-14 22:33:02.81: SIM {TimeUS : 54035044, Roll : 3.38, Pitch : -2.31, Yaw : 359.67, Alt : 49.1399993896, Lat : 49.2835706, Lng : -123.1150205, Q1 : 0.999358296394, Q2 : 0.0294464286417, Q3 : -0.0202744156122, Q4 : -0.00220426428132}
2019-04-14 22:33:02.91: SIM {TimeUS : 54135004, Roll : 4.08, Pitch : -2.84, Yaw : 359.66, Alt : 49.1599998474, Lat : 49.2835707, Lng : -123.1150203, Q1 : 0.999054193497, Q2 : 0.035551212728, Q3 : -0.0249521248043, Q4 : -0.00206071650609}
2019-04-14 22:33:03.01: SIM {TimeUS : 54234964, Roll : 4.61, Pitch : -3.25, Yaw : 359.65, Alt : 49.1699981689, Lat : 49.2835708, Lng : -123.11502, Q1 : 0.998783588409, Q2 : 0.0401839353144, Q3 : -0.0285170357674, Q4 : -0.00184479216114}
2019-04-14 22:33:03.11: SIM {TimeUS : 54334924, Roll : 5.01, Pitch : -3.53, Yaw : 359.66, Alt : 49.1800003052, Lat : 49.2835709, Lng : -123.1150198, Q1 : 0.998565554619, Q2 : 0.0436388067901, Q3 : -0.030984248966, Q4 : -0.00156685966067}
2019-04-14 22:33:03.21: SIM {TimeUS : 54434884, Roll : 5.32, Pitch : -3.75, Yaw : 359.67, Alt : 49.2000007629, Lat : 49.2835712, Lng : -123.1150193, Q1 : 0.998384237289, Q2 : 0.0463178418577, Q3 : -0.0328942798078, Q4 : -0.00127087708097}
2019-04-14 22:33:03.31: SIM {TimeUS : 54534844, Roll : 5.6, Pitch : -3.95, Yaw : 359.69, Alt : 49.2000007629, Lat : 49.2835714, Lng : -123.1150188, Q1 : 0.998209416866, Q2 : 0.0487955510616, Q3 : -0.0345844775438, Q4 : -0.000971189991105}
2019-04-14 22:33:03.41: SIM {TimeUS : 54634804, Roll : 5.89, Pitch : -4.15, Yaw : 359.7, Alt : 49.2099990845, Lat : 49.2835716, Lng : -123.1150181, Q1 : 0.998021006584, Q2 : 0.0513078868389, Q3 : -0.0363465547562, Q4 : -0.000683452119119}
2019-04-14 22:33:03.51: SIM {TimeUS : 54734764, Roll : 6.18, Pitch : -4.37, Yaw : 359.71, Alt : 49.2200012207, Lat : 49.283572, Lng : -123.1150174, Q1 : 0.997814536095, Q2 : 0.053855124861, Q3 : -0.0382836274803, Q4 : -0.000424539553933}
2019-04-14 22:33:03.61: SIM {TimeUS : 54834724, Roll : 6.45, Pitch : -4.58, Yaw : 359.71, Alt : 49.2299995422, Lat : 49.2835724, Lng : -123.1150166, Q1 : 0.997615993023, Q2 : 0.0561844855547, Q3 : -0.0400696210563, Q4 : -0.00019488063117}
2019-04-14 22:33:03.71: SIM {TimeUS : 54934684, Roll : 6.68, Pitch : -4.74, Yaw : 359.72, Alt : 49.2299995422, Lat : 49.2835727, Lng : -123.1150157, Q1 : 0.997448086739, Q2 : 0.0581311173737, Q3 : -0.0414500571787, Q4 : 1.56284768309e-05}
2019-04-14 22:33:03.81: SIM {TimeUS : 55035477, Roll : 6.83, Pitch : -4.84, Yaw : 359.73, Alt : 49.2400016785, Lat : 49.2835733, Lng : -123.1150147, Q1 : 0.997332394123, Q2 : 0.0594757013023, Q3 : -0.0423170477152, Q4 : 0.000186355347978}
2019-04-14 22:33:03.91: SIM {TimeUS : 55135437, Roll : 6.94, Pitch : -4.91, Yaw : 359.73, Alt : 49.2400016785, Lat : 49.2835738, Lng : -123.1150135, Q1 : 0.997247219086, Q2 : 0.0604271516204, Q3 : -0.0429711379111, Q4 : 0.000296110520139}
2019-04-14 22:33:04.01: SIM {TimeUS : 55235397, Roll : 7.03, Pitch : -4.98, Yaw : 359.73, Alt : 49.25, Lat : 49.2835744, Lng : -123.1150123, Q1 : 0.99717515707, Q2 : 0.0611920244992, Q3 : -0.0435560047626, Q4 : 0.000362451304682}
2019-04-14 22:33:04.11: SIM {TimeUS : 55335357, Roll : 7.21, Pitch : -5.01, Yaw : 359.75, Alt : 49.25, Lat : 49.283575, Lng : -123.1150111, Q1 : 0.997069835663, Q2 : 0.0627363622189, Q3 : -0.0437667183578, Q4 : 0.000614777207375}
2019-04-14 22:33:04.21: SIM {TimeUS : 55435317, Roll : 7.61, Pitch : -4.87, Yaw : 0.1, Alt : 49.2599983215, Lat : 49.2835756, Lng : -123.1150096, Q1 : 0.996889352798, Q2 : 0.066367611289, Q3 : -0.0423465520144, Q4 : 0.00371636287309}
2019-04-14 22:33:04.31: SIM {TimeUS : 55535277, Roll : 8.21, Pitch : -4.65, Yaw : 1.42, Alt : 49.2599983215, Lat : 49.2835762, Lng : -123.1150082, Q1 : 0.996489882469, Q2 : 0.0721114575863, Q3 : -0.0396534614265, Q4 : 0.0153442621231}
2019-04-14 22:33:04.41: SIM {TimeUS : 55635237, Roll : 8.79, Pitch : -4.72, Yaw : 4.26, Alt : 49.2599983215, Lat : 49.2835769, Lng : -123.1150067, Q1 : 0.995400309563, Q2 : 0.0780960246921, Q3 : -0.0382643043995, Q4 : 0.0401893928647}
2019-04-14 22:33:04.51: SIM {TimeUS : 55735197, Roll : 9.1, Pitch : -5.3, Yaw : 8.65, Alt : 49.2599983215, Lat : 49.2835776, Lng : -123.115005, Q1 : 0.992663323879, Q2 : 0.0825081840158, Q3 : -0.0399772599339, Q4 : 0.0788268446922}
2019-04-14 22:33:04.61: SIM {TimeUS : 55835157, Roll : 8.91, Pitch : -6.37, Yaw : 14.44, Alt : 49.2599983215, Lat : 49.2835783, Lng : -123.1150032, Q1 : 0.986991167068, Q2 : 0.0839634165168, Q3 : -0.045206528157, Q4 : 0.129440918565}
2019-04-14 22:33:04.71: SIM {TimeUS : 55935117, Roll : 8.11, Pitch : -7.8, Yaw : 21.37, Alt : 49.2599983215, Lat : 49.2835791, Lng : -123.1150013, Q1 : 0.97701883316, Q2 : 0.0819957852364, Q3 : -0.0536104403436, Q4 : 0.189306125045}
2019-04-14 22:33:04.81: SIM {TimeUS : 56035077, Roll : 6.7, Pitch : -9.39, Yaw : 29.19, Alt : 49.2700004578, Lat : 49.2835798, Lng : -123.1149993, Q1 : 0.961611509323, Q2 : 0.0769798010588, Q3 : -0.0644305348396, Q4 : 0.255394160748}
2019-04-14 22:33:04.91: SIM {TimeUS : 56135037, Roll : 4.73, Pitch : -10.92, Yaw : 37.64, Alt : 49.2700004578, Lat : 49.2835806, Lng : -123.1149971, Q1 : 0.940142989159, Q2 : 0.0696448236704, Q3 : -0.0767244324088, Q4 : 0.324644625187}
2019-04-14 22:33:05.01: SIM {TimeUS : 56234997, Roll : 2.18, Pitch : -12.17, Yaw : 46.4, Alt : 49.2700004578, Lat : 49.2835813, Lng : -123.1149949, Q1 : 0.912984788418, Q2 : 0.0592129044235, Q3 : -0.0900030657649, Q4 : 0.393512427807}
2019-04-14 22:33:05.11: SIM {TimeUS : 56334957, Roll : -0.93, Pitch : -12.94, Yaw : 54.75, Alt : 49.2700004578, Lat : 49.2835823, Lng : -123.1149925, Q1 : 0.882747888565, Q2 : 0.0446008071303, Q3 : -0.103808395565, Q4 : 0.456059992313}
2019-04-14 22:33:05.21: SIM {TimeUS : 56434917, Roll : -4.06, Pitch : -13.14, Yaw : 61.8, Alt : 49.2700004578, Lat : 49.2835831, Lng : -123.1149901, Q1 : 0.853954076767, Q2 : 0.0284811612219, Q3 : -0.116259805858, Q4 : 0.506394088268}
2019-04-14 22:33:05.31: SIM {TimeUS : 56534877, Roll : -6.55, Pitch : -12.97, Yaw : 66.92, Alt : 49.2700004578, Lat : 49.2835842, Lng : -123.1149876, Q1 : 0.831094920635, Q2 : 0.014813605696, Q3 : -0.125442504883, Q4 : 0.541595816612}
2019-04-14 22:33:05.41: SIM {TimeUS : 56634837, Roll : -8.01, Pitch : -12.71, Yaw : 69.95, Alt : 49.2700004578, Lat : 49.2835854, Lng : -123.114985, Q1 : 0.816803812981, Q2 : 0.00639517791569, Q3 : -0.130300492048, Q4 : 0.561971902847}
2019-04-14 22:33:05.51: SIM {TimeUS : 56734797, Roll : -8.38, Pitch : -12.58, Yaw : 71.06, Alt : 49.2700004578, Lat : 49.2835866, Lng : -123.1149824, Q1 : 0.811381876469, Q2 : 0.00439852569252, Q3 : -0.131208732724, Q4 : 0.569582700729}
2019-04-14 22:33:05.61: SIM {TimeUS : 56834757, Roll : -7.83, Pitch : -12.72, Yaw : 70.6, Alt : 49.2700004578, Lat : 49.2835879, Lng : -123.1149798, Q1 : 0.813552200794, Q2 : 0.00847179722041, Q3 : -0.129509240389, Q4 : 0.566823124886}
2019-04-14 22:33:05.71: SIM {TimeUS : 56934717, Roll : -6.62, Pitch : -13.13, Yaw : 68.94, Alt : 49.2700004578, Lat : 49.2835893, Lng : -123.1149771, Q1 : 0.821340084076, Q2 : 0.0172856785357, Q3 : -0.126615792513, Q4 : 0.555940747261}
2019-04-14 22:33:05.81: SIM {TimeUS : 57034677, Roll : -4.97, Pitch : -13.73, Yaw : 66.43, Alt : 49.2799987793, Lat : 49.2835909, Lng : -123.1149743, Q1 : 0.832640230656, Q2 : 0.0294131748378, Q3 : -0.123581029475, Q4 : 0.539048075676}
2019-04-14 22:33:05.91: SIM {TimeUS : 57135470, Roll : -3.08, Pitch : -14.44, Yaw : 63.36, Alt : 49.2799987793, Lat : 49.2835925, Lng : -123.1149713, Q1 : 0.845692932606, Q2 : 0.0432563312352, Q3 : -0.120958261192, Q4 : 0.51797825098}
2019-04-14 22:33:06.01: SIM {TimeUS : 57235430, Roll : -1.18, Pitch : -15.07, Yaw : 60.09, Alt : 49.2799987793, Lat : 49.283594, Lng : -123.1149685, Q1 : 0.8587667346, Q2 : 0.056788854301, Q3 : -0.118719257414, Q4 : 0.49517723918}
2019-04-14 22:33:06.11: SIM {TimeUS : 57335390, Roll : 0.55, Pitch : -15.54, Yaw : 56.92, Alt : 49.2799987793, Lat : 49.2835957, Lng : -123.1149655, Q1 : 0.870714426041, Q2 : 0.068706586957, Q3 : -0.116577878594, Q4 : 0.472805857658}
2019-04-14 22:33:06.21: SIM {TimeUS : 57435350, Roll : 1.99, Pitch : -15.8, Yaw : 54.18, Alt : 49.2799987793, Lat : 49.2835974, Lng : -123.1149622, Q1 : 0.880580961704, Q2 : 0.0779708698392, Q3 : -0.114508934319, Q4 : 0.45319467783}
2019-04-14 22:33:06.31: SIM {TimeUS : 57535310, Roll : 3.01, Pitch : -15.87, Yaw : 52.11, Alt : 49.2799987793, Lat : 49.2835989, Lng : -123.114959, Q1 : 0.887845695019, Q2 : 0.0840588584542, Q3 : -0.112575590611, Q4 : 0.438167661428}
2019-04-14 22:33:06.41: SIM {TimeUS : 57635270, Roll : 3.56, Pitch : -15.83, Yaw : 50.82, Alt : 49.2799987793, Lat : 49.2836007, Lng : -123.1149555, Q1 : 0.892358243465, Q2 : 0.0868893787265, Q3 : -0.111188739538, Q4 : 0.428700476885}
2019-04-14 22:33:06.51: SIM {TimeUS : 57735230, Roll : 3.63, Pitch : -15.77, Yaw : 50.32, Alt : 49.2799987793, Lat : 49.2836024, Lng : -123.1149521, Q1 : 0.894219279289, Q2 : 0.0867829695344, Q3 : -0.110799103975, Q4 : 0.424928426743}
2019-04-14 22:33:06.61: SIM {TimeUS : 57835190, Roll : 3.32, Pitch : -15.76, Yaw : 50.54, Alt : 49.2799987793, Lat : 49.2836041, Lng : -123.1149484, Q1 : 0.893687784672, Q2 : 0.0844683125615, Q3 : -0.111698277295, Q4 : 0.42627543211}
2019-04-14 22:33:06.71: SIM {TimeUS : 57935150, Roll : 2.7, Pitch : -15.83, Yaw : 51.31, Alt : 49.2799987793, Lat : 49.2836057, Lng : -123.1149446, Q1 : 0.89115780592, Q2 : 0.0807044580579, Q3 : -0.113996073604, Q4 : 0.431658983231}
2019-04-14 22:33:06.81: SIM {TimeUS : 58035110, Roll : 1.89, Pitch : -15.97, Yaw : 52.46, Alt : 49.2900009155, Lat : 49.2836074, Lng : -123.1149408, Q1 : 0.887171447277, Q2 : 0.0761160477996, Q3 : -0.117336511612, Q4 : 0.439733237028}
2019-04-14 22:33:06.91: SIM {TimeUS : 58135070, Roll : 1.0, Pitch : -16.13, Yaw : 53.8, Alt : 49.2900009155, Lat : 49.2836092, Lng : -123.1149369, Q1 : 0.882344782352, Q2 : 0.0712708905339, Q3 : -0.12122412771, Q4 : 0.449102371931}
2019-04-14 22:33:07.01: SIM {TimeUS : 58235030, Roll : 0.14, Pitch : -16.27, Yaw : 55.16, Alt : 49.2900009155, Lat : 49.2836109, Lng : -123.1149329, Q1 : 0.877337217331, Q2 : 0.0666792169213, Q3 : -0.124868452549, Q4 : 0.458520591259}
2019-04-14 22:33:07.11: SIM {TimeUS : 58334990, Roll : -0.56, Pitch : -16.36, Yaw : 56.38, Alt : 49.2900009155, Lat : 49.2836127, Lng : -123.1149288, Q1 : 0.872726678848, Q2 : 0.0629342868924, Q3 : -0.127729564905, Q4 : 0.466982483864}
2019-04-14 22:33:07.21: SIM {TimeUS : 58434950, Roll : -1.1, Pitch : -16.41, Yaw : 57.35, Alt : 49.2900009155, Lat : 49.2836145, Lng : -123.1149247, Q1 : 0.868989825249, Q2 : 0.0601299777627, Q3 : -0.129774048924, Q4 : 0.473708510399}
2019-04-14 22:33:07.31: SIM {TimeUS : 58534910, Roll : -1.42, Pitch : -16.43, Yaw : 58.0, Alt : 49.2900009155, Lat : 49.2836163, Lng : -123.1149205, Q1 : 0.866408467293, Q2 : 0.0585393309593, Q3 : -0.130916416645, Q4 : 0.47829952836}
2019-04-14 22:33:07.41: SIM {TimeUS : 58634870, Roll : -1.51, Pitch : -16.42, Yaw : 58.33, Alt : 49.2900009155, Lat : 49.2836182, Lng : -123.1149163, Q1 : 0.865100085735, Q2 : 0.0582021996379, Q3 : -0.131102859974, Q4 : 0.480652034283}
2019-04-14 22:33:07.51: SIM {TimeUS : 58734830, Roll : -1.41, Pitch : -16.42, Yaw : 58.34, Alt : 49.2900009155, Lat : 49.2836201, Lng : -123.114912, Q1 : 0.864990711212, Q2 : 0.0589445754886, Q3 : -0.130678325891, Q4 : 0.48087400198}
2019-04-14 22:33:07.61: SIM {TimeUS : 58834790, Roll : -1.18, Pitch : -16.45, Yaw : 58.1, Alt : 49.2900009155, Lat : 49.283622, Lng : -123.1149077, Q1 : 0.865855395794, Q2 : 0.0605328343809, Q3 : -0.130074605346, Q4 : 0.479281544685}
2019-04-14 22:33:07.71: SIM {TimeUS : 58934750, Roll : -0.87, Pitch : -16.51, Yaw : 57.67, Alt : 49.2900009155, Lat : 49.2836241, Lng : -123.1149034, Q1 : 0.867409050465, Q2 : 0.0626855790615, Q3 : -0.129481390119, Q4 : 0.476347178221}
2019-04-14 22:33:07.81: SIM {TimeUS : 59034710, Roll : -0.52, Pitch : -16.6, Yaw : 57.13, Alt : 49.2900009155, Lat : 49.283626, Lng : -123.114899, Q1 : 0.869356095791, Q2 : 0.0650608167052, Q3 : -0.128972768784, Q4 : 0.472602456808}
2019-04-14 22:33:07.91: SIM {TimeUS : 59134670, Roll : -0.18, Pitch : -16.67, Yaw : 56.56, Alt : 49.2900009155, Lat : 49.283628, Lng : -123.1148945, Q1 : 0.871433019638, Q2 : 0.0672970786691, Q3 : -0.128438323736, Q4 : 0.468592882156}
2019-04-14 22:33:08.01: SIM {TimeUS : 59235463, Roll : 0.12, Pitch : -16.72, Yaw : 56.01, Alt : 49.2900009155, Lat : 49.28363, Lng : -123.11489, Q1 : 0.873403728008, Q2 : 0.0692737102509, Q3 : -0.127884298563, Q4 : 0.464771687984}
2019-04-14 22:33:08.11: SIM {TimeUS : 59335423, Roll : 0.38, Pitch : -16.76, Yaw : 55.56, Alt : 49.2900009155, Lat : 49.2836321, Lng : -123.1148855, Q1 : 0.875040471554, Q2 : 0.0708538368344, Q3 : -0.127405509353, Q4 : 0.461575269699}
2019-04-14 22:33:08.21: SIM {TimeUS : 59435383, Roll : 0.55, Pitch : -16.79, Yaw : 55.22, Alt : 49.2900009155, Lat : 49.2836341, Lng : -123.114881, Q1 : 0.876247227192, Q2 : 0.0719445049763, Q3 : -0.127136826515, Q4 : 0.459185242653}
2019-04-14 22:33:08.31: SIM {TimeUS : 59535343, Roll : 0.64, Pitch : -16.81, Yaw : 55.02, Alt : 49.2900009155, Lat : 49.2836361, Lng : -123.1148763, Q1 : 0.876981496811, Q2 : 0.0724789053202, Q3 : -0.127109870315, Q4 : 0.457704544067}
2019-04-14 22:33:08.41: SIM {TimeUS : 59635303, Roll : 0.65, Pitch : -16.84, Yaw : 54.95, Alt : 49.2900009155, Lat : 49.2836383, Lng : -123.1148717, Q1 : 0.877238273621, Q2 : 0.07259953022, Q3 : -0.127293154597, Q4 : 0.457141965628}
2019-04-14 22:33:08.51: SIM {TimeUS : 59735263, Roll : 0.6, Pitch : -16.86, Yaw : 54.99, Alt : 49.2900009155, Lat : 49.2836403, Lng : -123.114867, Q1 : 0.877073407173, Q2 : 0.0723192021251, Q3 : -0.127694219351, Q4 : 0.457390874624}
2019-04-14 22:33:08.61: SIM {TimeUS : 59835223, Roll : 0.49, Pitch : -16.89, Yaw : 55.12, Alt : 49.2900009155, Lat : 49.2836425, Lng : -123.1148623, Q1 : 0.876588284969, Q2 : 0.0717483535409, Q3 : -0.128289401531, Q4 : 0.458243370056}
2019-04-14 22:33:08.71: SIM {TimeUS : 59935183, Roll : 0.35, Pitch : -16.93, Yaw : 55.31, Alt : 49.2900009155, Lat : 49.2836445, Lng : -123.1148575, Q1 : 0.875884175301, Q2 : 0.0710391402245, Q3 : -0.129041090608, Q4 : 0.459487497807}
2019-04-14 22:33:08.81: SIM {TimeUS : 60035143, Roll : 0.18, Pitch : -16.98, Yaw : 55.52, Alt : 49.2999992371, Lat : 49.2836467, Lng : -123.1148528, Q1 : 0.875085711479, Q2 : 0.0702079609036, Q3 : -0.129887253046, Q4 : 0.460896104574}
2019-04-14 22:33:08.91: SIM {TimeUS : 60135103, Roll : 0.02, Pitch : -17.01, Yaw : 55.72, Alt : 49.2999992371, Lat : 49.2836487, Lng : -123.1148479, Q1 : 0.874310076237, Q2 : 0.069307051599, Q3 : -0.13071551919, Q4 : 0.462268233299}
2019-04-14 22:33:09.01: SIM {TimeUS : 60235063, Roll : -0.13, Pitch : -17.03, Yaw : 55.9, Alt : 49.2999992371, Lat : 49.2836509, Lng : -123.114843, Q1 : 0.873656511307, Q2 : 0.0684270486236, Q3 : -0.131378263235, Q4 : 0.463445544243}
2019-04-14 22:33:09.11: SIM {TimeUS : 60335023, Roll : -0.25, Pitch : -17.06, Yaw : 56.04, Alt : 49.2999992371, Lat : 49.283653, Lng : -123.1148382, Q1 : 0.873168408871, Q2 : 0.0677397921681, Q3 : -0.131976634264, Q4 : 0.464295685291}
2019-04-14 22:33:09.21: SIM {TimeUS : 60434983, Roll : -0.31, Pitch : -17.1, Yaw : 56.11, Alt : 49.2999992371, Lat : 49.2836552, Lng : -123.1148333, Q1 : 0.872837483883, Q2 : 0.0675493702292, Q3 : -0.132524386048, Q4 : 0.464789330959}
2019-04-14 22:33:09.31: SIM {TimeUS : 60534943, Roll : -0.31, Pitch : -17.15, Yaw : 56.13, Alt : 49.2999992371, Lat : 49.2836573, Lng : -123.1148284, Q1 : 0.872693240643, Q2 : 0.0678021907806, Q3 : -0.132867395878, Q4 : 0.464925438166}
2019-04-14 22:33:09.41: SIM {TimeUS : 60634903, Roll : -0.26, Pitch : -17.2, Yaw : 56.1, Alt : 49.2999992371, Lat : 49.2836596, Lng : -123.1148235, Q1 : 0.872727692127, Q2 : 0.0683654248714, Q3 : -0.133069932461, Q4 : 0.464720278978}
2019-04-14 22:33:09.51: SIM {TimeUS : 60734863, Roll : -0.18, Pitch : -17.25, Yaw : 56.03, Alt : 49.2999992371, Lat : 49.2836618, Lng : -123.1148185, Q1 : 0.872927069664, Q2 : 0.0690158829093, Q3 : -0.133156478405, Q4 : 0.464224606752}
2019-04-14 22:33:09.61: SIM {TimeUS : 60834823, Roll : -0.1, Pitch : -17.28, Yaw : 55.93, Alt : 49.2999992371, Lat : 49.2836639, Lng : -123.1148135, Q1 : 0.873252332211, Q2 : 0.0696357339621, Q3 : -0.133146300912, Q4 : 0.463522702456}
2019-04-14 22:33:09.71: SIM {TimeUS : 60934783, Roll : -0.03, Pitch : -17.3, Yaw : 55.81, Alt : 49.3100013733, Lat : 49.2836662, Lng : -123.1148086, Q1 : 0.873648226261, Q2 : 0.0701768994331, Q3 : -0.133118346334, Q4 : 0.462702423334}
2019-04-14 22:33:09.81: SIM {TimeUS : 61034743, Roll : 0.02, Pitch : -17.32, Yaw : 55.69, Alt : 49.3100013733, Lat : 49.2836683, Lng : -123.1148035, Q1 : 0.874077677727, Q2 : 0.0705554336309, Q3 : -0.133018940687, Q4 : 0.461861610413}
2019-04-14 22:33:09.91: SIM {TimeUS : 61134703, Roll : 0.08, Pitch : -17.32, Yaw : 55.58, Alt : 49.3100013733, Lat : 49.2836706, Lng : -123.1147985, Q1 : 0.874483048916, Q2 : 0.0708983838558, Q3 : -0.132839307189, Q4 : 0.461092829704}
2019-04-14 22:33:10.01: SIM {TimeUS : 61234663, Roll : 0.14, Pitch : -17.32, Yaw : 55.49, Alt : 49.3100013733, Lat : 49.2836729, Lng : -123.1147934, Q1 : 0.874825239182, Q2 : 0.0711844488978, Q3 : -0.132710784674, Q4 : 0.460436165333}
2019-04-14 22:33:10.11: SIM {TimeUS : 61335456, Roll : 0.18, Pitch : -17.34, Yaw : 55.42, Alt : 49.3100013733, Lat : 49.2836752, Lng : -123.1147883, Q1 : 0.875047147274, Q2 : 0.0715822651982, Q3 : -0.132763877511, Q4 : 0.459937185049}
2019-04-14 22:33:10.21: SIM {TimeUS : 61435416, Roll : 0.21, Pitch : -17.39, Yaw : 55.37, Alt : 49.3100013733, Lat : 49.2836773, Lng : -123.1147832, Q1 : 0.875161230564, Q2 : 0.0719288215041, Q3 : -0.132994323969, Q4 : 0.459599405527}
2019-04-14 22:33:10.31: SIM {TimeUS : 61535376, Roll : 0.22, Pitch : -17.4, Yaw : 55.35, Alt : 49.3100013733, Lat : 49.2836797, Lng : -123.1147781, Q1 : 0.875227749348, Q2 : 0.0720516070724, Q3 : -0.133107706904, Q4 : 0.459420591593}
2019-04-14 22:33:10.41: SIM {TimeUS : 61635336, Roll : 0.22, Pitch : -17.41, Yaw : 55.35, Alt : 49.3100013733, Lat : 49.2836819, Lng : -123.114773, Q1 : 0.875243782997, Q2 : 0.0720091089606, Q3 : -0.13315308094, Q4 : 0.459383577108}
2019-04-14 22:33:10.51: SIM {TimeUS : 61735296, Roll : 0.19, Pitch : -17.43, Yaw : 55.36, Alt : 49.3100013733, Lat : 49.2836841, Lng : -123.1147679, Q1 : 0.875194549561, Q2 : 0.0718895494938, Q3 : -0.133410677314, Q4 : 0.459421396255}
2019-04-14 22:33:10.61: SIM {TimeUS : 61835256, Roll : 0.14, Pitch : -17.46, Yaw : 55.38, Alt : 49.3100013733, Lat : 49.2836864, Lng : -123.1147627, Q1 : 0.875104427338, Q2 : 0.0716495886445, Q3 : -0.133895114064, Q4 : 0.459489613771}
2019-04-14 22:33:10.71: SIM {TimeUS : 61935216, Roll : 0.09, Pitch : -17.49, Yaw : 55.4, Alt : 49.3100013733, Lat : 49.2836888, Lng : -123.1147576, Q1 : 0.875001549721, Q2 : 0.0714644640684, Q3 : -0.134282678366, Q4 : 0.459601283073}
2019-04-14 22:33:10.81: SIM {TimeUS : 62035176, Roll : 0.06, Pitch : -17.53, Yaw : 55.42, Alt : 49.3100013733, Lat : 49.2836911, Lng : -123.1147524, Q1 : 0.874889612198, Q2 : 0.0714012309909, Q3 : -0.134670674801, Q4 : 0.459710627794}
2019-04-14 22:33:10.91: SIM {TimeUS : 62135136, Roll : 0.04, Pitch : -17.55, Yaw : 55.44, Alt : 49.3199996948, Lat : 49.2836934, Lng : -123.1147472, Q1 : 0.874806523323, Q2 : 0.0713849142194, Q3 : -0.134916320443, Q4 : 0.459799259901}
2019-04-14 22:33:11.01: SIM {TimeUS : 62235096, Roll : 0.04, Pitch : -17.57, Yaw : 55.45, Alt : 49.3199996948, Lat : 49.2836956, Lng : -123.114742, Q1 : 0.87475502491, Q2 : 0.0714483335614, Q3 : -0.135069042444, Q4 : 0.459842473269}
2019-04-14 22:33:11.11: SIM {TimeUS : 62335056, Roll : 0.06, Pitch : -17.58, Yaw : 55.45, Alt : 49.3199996948, Lat : 49.283698, Lng : -123.1147368, Q1 : 0.874746918678, Q2 : 0.0715731605887, Q3 : -0.135044381022, Q4 : 0.459845781326}
2019-04-14 22:33:11.21: SIM {TimeUS : 62435016, Roll : 0.08, Pitch : -17.59, Yaw : 55.44, Alt : 49.3199996948, Lat : 49.2837003, Lng : -123.1147315, Q1 : 0.874760448933, Q2 : 0.0718097388744, Q3 : -0.135028585792, Q4 : 0.459787815809}
2019-04-14 22:33:11.31: SIM {TimeUS : 62534976, Roll : 0.11, Pitch : -17.61, Yaw : 55.42, Alt : 49.3199996948, Lat : 49.2837027, Lng : -123.1147263, Q1 : 0.874794065952, Q2 : 0.0720878764987, Q3 : -0.135085642338, Q4 : 0.45966348052}
2019-04-14 22:33:11.41: SIM {TimeUS : 62634936, Roll : 0.12, Pitch : -17.64, Yaw : 55.39, Alt : 49.3199996948, Lat : 49.283705, Lng : -123.114721, Q1 : 0.874851822853, Q2 : 0.0722732841969, Q3 : -0.135311231017, Q4 : 0.459458082914}
2019-04-14 22:33:11.51: SIM {TimeUS : 62734896, Roll : 0.12, Pitch : -17.69, Yaw : 55.36, Alt : 49.3199996948, Lat : 49.2837072, Lng : -123.1147158, Q1 : 0.874920189381, Q2 : 0.0723713636398, Q3 : -0.135670572519, Q4 : 0.459206551313}
2019-04-14 22:33:11.61: SIM {TimeUS : 62834856, Roll : 0.11, Pitch : -17.73, Yaw : 55.33, Alt : 49.3199996948, Lat : 49.2837096, Lng : -123.1147105, Q1 : 0.874989926815, Q2 : 0.0724693387747, Q3 : -0.136081248522, Q4 : 0.45893651247}
2019-04-14 22:33:11.71: SIM {TimeUS : 62934816, Roll : 0.12, Pitch : -17.76, Yaw : 55.3, Alt : 49.3199996948, Lat : 49.283712, Lng : -123.1147052, Q1 : 0.875064253807, Q2 : 0.0726480409503, Q3 : -0.136288642883, Q4 : 0.458704978228}
2019-04-14 22:33:11.81: SIM {TimeUS : 63034776, Roll : 0.14, Pitch : -17.77, Yaw : 55.27, Alt : 49.3199996948, Lat : 49.2837144, Lng : -123.1146999, Q1 : 0.875163555145, Q2 : 0.0727360099554, Q3 : -0.136283770204, Q4 : 0.458502978086}
2019-04-14 22:33:11.91: SIM {TimeUS : 63134736, Roll : 0.15, Pitch : -17.75, Yaw : 55.25, Alt : 49.3199996948, Lat : 49.2837167, Lng : -123.1146946, Q1 : 0.875276684761, Q2 : 0.0727510750294, Q3 : -0.136100262403, Q4 : 0.458339095116}
2019-04-14 22:33:12.01: SIM {TimeUS : 63234696, Roll : 0.15, Pitch : -17.73, Yaw : 55.23, Alt : 49.3199996948, Lat : 49.2837191, Lng : -123.1146893, Q1 : 0.875374674797, Q2 : 0.0726493597031, Q3 : -0.135970667005, Q4 : 0.458206623793}
2019-04-14 22:33:12.11: SIM {TimeUS : 63334656, Roll : 0.15, Pitch : -17.71, Yaw : 55.21, Alt : 49.3199996948, Lat : 49.2837215, Lng : -123.1146839, Q1 : 0.875457704067, Q2 : 0.0725427493453, Q3 : -0.135852918029, Q4 : 0.45809969306}
2019-04-14 22:33:12.21: SIM {TimeUS : 63435449, Roll : 0.15, Pitch : -17.7, Yaw : 55.2, Alt : 49.3199996948, Lat : 49.2837239, Lng : -123.1146786, Q1 : 0.875513613224, Q2 : 0.0724835470319, Q3 : -0.13574694097, Q4 : 0.458033710718}
2019-04-14 22:33:12.31: SIM {TimeUS : 63535409, Roll : 0.15, Pitch : -17.7, Yaw : 55.2, Alt : 49.3199996948, Lat : 49.2837261, Lng : -123.1146732, Q1 : 0.875538527966, Q2 : 0.0724726915359, Q3 : -0.135805204511, Q4 : 0.457970499992}
2019-04-14 22:33:12.41: SIM {TimeUS : 63635369, Roll : 0.15, Pitch : -17.72, Yaw : 55.19, Alt : 49.3199996948, Lat : 49.2837285, Lng : -123.1146678, Q1 : 0.875546395779, Q2 : 0.0725330859423, Q3 : -0.135926127434, Q4 : 0.457910001278}
2019-04-14 22:33:12.51: SIM {TimeUS : 63735329, Roll : 0.13, Pitch : -17.76, Yaw : 55.18, Alt : 49.3300018311, Lat : 49.2837309, Lng : -123.1146625, Q1 : 0.875524938107, Q2 : 0.0726128295064, Q3 : -0.136322155595, Q4 : 0.457820743322}
2019-04-14 22:33:12.61: SIM {TimeUS : 63835289, Roll : 0.12, Pitch : -17.82, Yaw : 55.18, Alt : 49.3300018311, Lat : 49.2837333, Lng : -123.114657, Q1 : 0.875492691994, Q2 : 0.0727424323559, Q3 : -0.136781185865, Q4 : 0.457724779844}
2019-04-14 22:33:12.71: SIM {TimeUS : 63935249, Roll : 0.13, Pitch : -17.86, Yaw : 55.17, Alt : 49.3300018311, Lat : 49.2837357, Lng : -123.1146517, Q1 : 0.875472962856, Q2 : 0.0729165077209, Q3 : -0.137093007565, Q4 : 0.45764157176}
2019-04-14 22:33:12.81: SIM {TimeUS : 64035209, Roll : 0.13, Pitch : -17.9, Yaw : 55.16, Alt : 49.3300018311, Lat : 49.2837381, Lng : -123.1146463, Q1 : 0.875468492508, Q2 : 0.0730475783348, Q3 : -0.137365415692, Q4 : 0.457547515631}
2019-04-14 22:33:12.91: SIM {TimeUS : 64135169, Roll : 0.12, Pitch : -17.92, Yaw : 55.15, Alt : 49.3300018311, Lat : 49.2837405, Lng : -123.1146409, Q1 : 0.875490307808, Q2 : 0.0730722025037, Q3 : -0.137560501695, Q4 : 0.457443237305}
2019-04-14 22:33:13.01: SIM {TimeUS : 64235129, Roll : 0.13, Pitch : -17.91, Yaw : 55.14, Alt : 49.3300018311, Lat : 49.283743, Lng : -123.1146355, Q1 : 0.875537991524, Q2 : 0.0731308758259, Q3 : -0.137475445867, Q4 : 0.457368165255}
2019-04-14 22:33:13.11: SIM {TimeUS : 64335089, Roll : 0.16, Pitch : -17.91, Yaw : 55.12, Alt : 49.3300018311, Lat : 49.2837454, Lng : -123.1146301, Q1 : 0.87557721138, Q2 : 0.0733141154051, Q3 : -0.137410849333, Q4 : 0.457283139229}
2019-04-14 22:33:13.21: SIM {TimeUS : 64435049, Roll : 0.17, Pitch : -17.93, Yaw : 55.11, Alt : 49.3300018311, Lat : 49.2837478, Lng : -123.1146247, Q1 : 0.875615179539, Q2 : 0.0734289214015, Q3 : -0.137470185757, Q4 : 0.457174122334}
2019-04-14 22:33:13.31: SIM {TimeUS : 64535009, Roll : 0.18, Pitch : -17.93, Yaw : 55.09, Alt : 49.3300018311, Lat : 49.2837502, Lng : -123.1146193, Q1 : 0.875657916069, Q2 : 0.0735252350569, Q3 : -0.137497588992, Q4 : 0.457068651915}
2019-04-14 22:33:13.41: SIM {TimeUS : 64634969, Roll : 0.19, Pitch : -17.93, Yaw : 55.08, Alt : 49.3300018311, Lat : 49.2837526, Lng : -123.1146139, Q1 : 0.875710368156, Q2 : 0.0735738649964, Q3 : -0.137452185154, Q4 : 0.456973940134}
2019-04-14 22:33:13.51: SIM {TimeUS : 64734929, Roll : 0.19, Pitch : -17.93, Yaw : 55.06, Alt : 49.3300018311, Lat : 49.283755, Lng : -123.1146084, Q1 : 0.87576007843, Q2 : 0.0735937580466, Q3 : -0.13745187223, Q4 : 0.45687559247}
2019-04-14 22:33:13.61: SIM {TimeUS : 64834889, Roll : 0.18, Pitch : -17.95, Yaw : 55.05, Alt : 49.3300018311, Lat : 49.2837575, Lng : -123.114603, Q1 : 0.875798225403, Q2 : 0.0735110267997, Q3 : -0.137674644589, Q4 : 0.456748604774}
2019-04-14 22:33:13.71: SIM {TimeUS : 64934849, Roll : 0.14, Pitch : -17.99, Yaw : 55.04, Alt : 49.3300018311, Lat : 49.2837599, Lng : -123.1145974, Q1 : 0.875817298889, Q2 : 0.0733811184764, Q3 : -0.138106152415, Q4 : 0.456602632999}
2019-04-14 22:33:13.81: SIM {TimeUS : 65034809, Roll : 0.12, Pitch : -18.0, Yaw : 55.03, Alt : 49.3300018311, Lat : 49.2837623, Lng : -123.1145921, Q1 : 0.875856637955, Q2 : 0.073260679841, Q3 : -0.138246402144, Q4 : 0.456503987312}
2019-04-14 22:33:13.91: SIM {TimeUS : 65134769, Roll : 0.13, Pitch : -17.98, Yaw : 55.02, Alt : 49.3300018311, Lat : 49.2837648, Lng : -123.1145866, Q1 : 0.875904798508, Q2 : 0.073250092566, Q3 : -0.138110205531, Q4 : 0.456454604864}
2019-04-14 22:33:14.01: SIM {TimeUS : 65234729, Roll : 0.15, Pitch : -17.97, Yaw : 55.01, Alt : 49.3400001526, Lat : 49.2837672, Lng : -123.1145812, Q1 : 0.875944674015, Q2 : 0.0733227655292, Q3 : -0.137951314449, Q4 : 0.456414520741}
2019-04-14 22:33:14.11: SIM {TimeUS : 65334689, Roll : 0.16, Pitch : -17.98, Yaw : 55.0, Alt : 49.3400001526, Lat : 49.2837696, Lng : -123.1145757, Q1 : 0.875970065594, Q2 : 0.0734153538942, Q3 : -0.137979313731, Q4 : 0.456342309713}
2019-04-14 22:33:14.21: SIM {TimeUS : 65435482, Roll : 0.14, Pitch : -18.0, Yaw : 54.99, Alt : 49.3400001526, Lat : 49.2837721, Lng : -123.1145702, Q1 : 0.875992298126, Q2 : 0.0733931362629, Q3 : -0.138201519847, Q4 : 0.456236034632}
2019-04-14 22:33:14.31: SIM {TimeUS : 65535442, Roll : 0.12, Pitch : -18.02, Yaw : 54.98, Alt : 49.3400001526, Lat : 49.2837745, Lng : -123.1145647, Q1 : 0.876015841961, Q2 : 0.0733119249344, Q3 : -0.138486891985, Q4 : 0.456117302179}
2019-04-14 22:33:14.41: SIM {TimeUS : 65635402, Roll : 0.11, Pitch : -18.04, Yaw : 54.97, Alt : 49.3400001526, Lat : 49.283777, Lng : -123.1145591, Q1 : 0.876049935818, Q2 : 0.0732688829303, Q3 : -0.138657897711, Q4 : 0.456006735563}
2019-04-14 22:33:14.51: SIM {TimeUS : 65735362, Roll : 0.12, Pitch : -18.05, Yaw : 54.96, Alt : 49.3400001526, Lat : 49.2837794, Lng : -123.1145536, Q1 : 0.876076519489, Q2 : 0.0733829811215, Q3 : -0.138741850853, Q4 : 0.455911815166}
2019-04-14 22:33:14.61: SIM {TimeUS : 65835322, Roll : 0.14, Pitch : -18.07, Yaw : 54.95, Alt : 49.3400001526, Lat : 49.2837819, Lng : -123.1145481, Q1 : 0.876096725464, Q2 : 0.0735596269369, Q3 : -0.138789921999, Q4 : 0.455829918385}
2019-04-14 22:33:14.71: SIM {TimeUS : 65935282, Roll : 0.16, Pitch : -18.08, Yaw : 54.94, Alt : 49.3400001526, Lat : 49.2837843, Lng : -123.1145427, Q1 : 0.876106083393, Q2 : 0.0737946182489, Q3 : -0.138817578554, Q4 : 0.455765485764}
2019-04-14 22:33:14.81: SIM {TimeUS : 66035242, Roll : 0.18, Pitch : -18.1, Yaw : 54.93, Alt : 49.3400001526, Lat : 49.2837867, Lng : -123.1145372, Q1 : 0.876112520695, Q2 : 0.0739670395851, Q3 : -0.138916835189, Q4 : 0.455694913864}
2019-04-14 22:33:14.91: SIM {TimeUS : 66135202, Roll : 0.19, Pitch : -18.13, Yaw : 54.92, Alt : 49.3400001526, Lat : 49.2837892, Lng : -123.1145317, Q1 : 0.876117169857, Q2 : 0.074128292501, Q3 : -0.13903978467, Q4 : 0.455622255802}
2019-04-14 22:33:15.01: SIM {TimeUS : 66235162, Roll : 0.2, Pitch : -18.14, Yaw : 54.91, Alt : 49.3400001526, Lat : 49.2837916, Lng : -123.1145262, Q1 : 0.876120150089, Q2 : 0.0743120089173, Q3 : -0.139096677303, Q4 : 0.455569237471}
2019-04-14 22:33:15.11: SIM {TimeUS : 66335122, Roll : 0.24, Pitch : -18.15, Yaw : 54.9, Alt : 49.3400001526, Lat : 49.2837941, Lng : -123.1145207, Q1 : 0.876117706299, Q2 : 0.0745934545994, Q3 : -0.139016523957, Q4 : 0.455552339554}
