2019-04-14 21:01:22.80: SIM {TimeUS : 40616247, Roll : 0.0, Pitch : 0.0, Yaw : 0.0, Alt : 30.1000003815, Lat : 49.28357, Lng : -123.11502, Q1 : 1.0, Q2 : 0.0, Q3 : 0.0, Q4 : 0.0}
2019-04-14 21:01:22.91: SIM {TimeUS : 40735366, Roll : 0.0, Pitch : 0.0, Yaw : 0.0, Alt : 30.1000003815, Lat : 49.28357, Lng : -123.11502, Q1 : 1.0, Q2 : 0.0, Q3 : 0.0, Q4 : 0.0}
2019-04-14 21:01:23.01: SIM {TimeUS : 40835326, Roll : 0.0, Pitch : 0.0, Yaw : 0.0, Alt : 30.1000003815, Lat : 49.28357, Lng : -123.11502, Q1 : 1.0, Q2 : 0.0, Q3 : 0.0, Q4 : 0.0}
2019-04-14 21:01:23.11: SIM {TimeUS : 40935286, Roll : 0.0, Pitch : 0.0, Yaw : 0.0, Alt : 30.1000003815, Lat : 49.28357, Lng : -123.11502, Q1 : 1.0, Q2 : 0.0, Q3 : 0.0, Q4 : 0.0}
2019-04-14 21:01:23.21: SIM {TimeUS : 41035246, Roll : 0.0, Pitch : 0.0, Yaw : 0.0, Alt : 30.1000003815, Lat : 49.28357, Lng : -123.11502, Q1 : 1.0, Q2 : 0.0, Q3 : 0.0, Q4 : 0.0}
2019-04-14 21:01:23.31: SIM {TimeUS : 41135206, Roll : 0.0, Pitch : 0.0, Yaw : 0.0, Alt : 30.1000003815, Lat : 49.28357, Lng : -123.11502, Q1 : 1.0, Q2 : 0.0, Q3 : 0.0, Q4 : 0.0}
2019-04-14 21:01:23.41: SIM {TimeUS : 41235166, Roll : 0.0, Pitch : 0.0, Yaw : 0.0, Alt : 30.1000003815, Lat : 49.28357, Lng : -123.11502, Q1 : 1.0, Q2 : 0.0, Q3 : 0.0, Q4 : 0.0}
2019-04-14 21:01:23.51: SIM {TimeUS : 41335126, Roll : 0.0, Pitch : 0.0, Yaw : 0.0, Alt : 30.1000003815, Lat : 49.28357, Lng : -123.11502, Q1 : 1.0, Q2 : 0.0, Q3 : 0.0, Q4 : 0.0}
2019-04-14 21:01:23.61: SIM {TimeUS : 41435086, Roll : 0.0, Pitch : 0.0, Yaw : 0.0, Alt : 30.1000003815, Lat : 49.28357, Lng : -123.11502, Q1 : 1.0, Q2 : 0.0, Q3 : 0.0, Q4 : 0.0}
2019-04-14 21:01:23.71: SIM {TimeUS : 41535046, Roll : 0.0, Pitch : 0.0, Yaw : 0.0, Alt : 30.1000003815, Lat : 49.28357, Lng : -123.11502, Q1 : 1.0, Q2 : 0.0, Q3 : 0.0, Q4 : 0.0}
2019-04-14 21:01:23.81: SIM {TimeUS : 41635006, Roll : 0.0, Pitch : 0.0, Yaw : 0.0, Alt : 30.1000003815, Lat : 49.28357, Lng : -123.11502, Q1 : 1.0, Q2 : 0.0, Q3 : 0.0, Q4 : 0.0}
2019-04-14 21:01:23.91: SIM {TimeUS : 41734966, Roll : 0.0, Pitch : 0.0, Yaw : 0.0, Alt : 30.1000003815, Lat : 49.28357, Lng : -123.11502, Q1 : 1.0, Q2 : 0.0, Q3 : 0.0, Q4 : 0.0}
2019-04-14 21:01:24.01: SIM {TimeUS : 41834926, Roll : 0.0, Pitch : 0.0, Yaw : 0.0, Alt : 30.1000003815, Lat : 49.28357, Lng : -123.11502, Q1 : 1.0, Q2 : 0.0, Q3 : 0.0, Q4 : 0.0}
2019-04-14 21:01:24.11: SIM {TimeUS : 41934886, Roll : 0.0, Pitch : 0.0, Yaw : 0.0, Alt : 30.1000003815, Lat : 49.28357, Lng : -123.11502, Q1 : 1.0, Q2 : 0.0, Q3 : 0.0, Q4 : 0.0}
2019-04-14 21:01:24.21: SIM {TimeUS : 42034846, Roll : 0.0, Pitch : 0.0, Yaw : 0.0, Alt : 30.1000003815, Lat : 49.28357, Lng : -123.11502, Q1 : 1.0, Q2 : 0.0, Q3 : 0.0, Q4 : 0.0}
2019-04-14 21:01:24.31: SIM {TimeUS : 42134806, Roll : 0.0, Pitch : 0.0, Yaw : 0.0, Alt : 30.1000003815, Lat : 49.28357, Lng : -123.11502, Q1 : 1.0, Q2 : 0.0, Q3 : 0.0, Q4 : 0.0}
2019-04-14 21:01:24.41: SIM {TimeUS : 42234766, Roll : 0.0, Pitch : 0.0, Yaw : 0.0, Alt : 30.1000003815, Lat : 49.28357, Lng : -123.11502, Q1 : 1.0, Q2 : 0.0, Q3 : 0.0, Q4 : 0.0}
2019-04-14 21:01:24.51: SIM {TimeUS : 42334726, Roll : 0.0, Pitch : 0.0, Yaw : 0.0, Alt : 30.1000003815, Lat : 49.28357, Lng : -123.11502, Q1 : 1.0, Q2 : 0.0, Q3 : 0.0, Q4 : 0.0}
2019-04-14 21:01:24.61: SIM {TimeUS : 42434686, Roll : 0.0, Pitch : 0.0, Yaw : 0.0, Alt : 30.1000003815, Lat : 49.28357, Lng : -123.11502, Q1 : 1.0, Q2 : 0.0, Q3 : 0.0, Q4 : 0.0}
2019-04-14 21:01:24.71: SIM {TimeUS : 42534646, Roll : 0.0, Pitch : 0.0, Yaw : 0.0, Alt : 30.1000003815, Lat : 49.28357, Lng : -123.11502, Q1 : 1.0, Q2 : 0.0, Q3 : 0.0, Q4 : 0.0}
2019-04-14 21:01:24.81: SIM {TimeUS : 42634606, Roll : 0.0, Pitch : 0.0, Yaw : 0.0, Alt : 30.1000003815, Lat : 49.28357, Lng : -123.11502, Q1 : 1.0, Q2 : 0.0, Q3 : 0.0, Q4 : 0.0}
2019-04-14 21:01:24.91: SIM {TimeUS : 42735399, Roll : 0.0, Pitch : 0.0, Yaw : 0.0, Alt : 30.1000003815, Lat : 49.28357, Lng : -123.11502, Q1 : 1.0, Q2 : 0.0, Q3 : 0.0, Q4 : 0.0}
2019-04-14 21:01:25.01: SIM {TimeUS : 42835359, Roll : 0.0, Pitch : 0.0, Yaw : 0.0, Alt : 30.1000003815, Lat : 49.28357, Lng : -123.11502, Q1 : 1.0, Q2 : 0.0, Q3 : 0.0, Q4 : 0.0}
2019-04-14 21:01:25.11: SIM {TimeUS : 42935319, Roll : 0.0, Pitch : 0.0, Yaw : 360.0, Alt : 30.1000003815, Lat : 49.28357, Lng : -123.11502, Q1 : 1.0, Q2 : 0.0, Q3 : 0.0, Q4 : -2.34232576911e-12}
2019-04-14 21:01:25.21: SIM {TimeUS : 43035279, Roll : 0.0, Pitch : 0.0, Yaw : 360.0, Alt : 30.1000003815, Lat : 49.28357, Lng : -123.11502, Q1 : 1.0, Q2 : 0.0, Q3 : 0.0, Q4 : -1.59578156245e-10}
2019-04-14 21:01:25.31: SIM {TimeUS : 43135239, Roll : 0.0, Pitch : 0.0, Yaw : 360.0, Alt : 30.1000003815, Lat : 49.28357, Lng : -123.11502, Q1 : 1.0, Q2 : 0.0, Q3 : 0.0, Q4 : -8.89988100994e-08}
2019-04-14 21:01:25.41: SIM {TimeUS : 43235199, Roll : 0.0, Pitch : 0.0, Yaw : 359.99, Alt : 30.1000003815, Lat : 49.28357, Lng : -123.11502, Q1 : 1.0, Q2 : 0.0, Q3 : 0.0, Q4 : -2.58155722577e-07}
2019-04-14 21:01:25.51: SIM {TimeUS : 43335159, Roll : 0.0, Pitch : 0.0, Yaw : 359.99, Alt : 30.1000003815, Lat : 49.28357, Lng : -123.11502, Q1 : 1.0, Q2 : 0.0, Q3 : 0.0, Q4 : -4.10636715742e-07}
2019-04-14 21:01:25.61: SIM {TimeUS : 43435119, Roll : 0.0, Pitch : 0.0, Yaw : 359.99, Alt : 30.1000003815, Lat : 49.28357, Lng : -123.11502, Q1 : 1.0, Q2 : 0.0, Q3 : 0.0, Q4 : -6.24839572083e-07}
2019-04-14 21:01:25.71: SIM {TimeUS : 43535079, Roll : 0.0, Pitch : 0.0, Yaw : 359.99, Alt : 30.1000003815, Lat : 49.28357, Lng : -123.11502, Q1 : 1.0, Q2 : 0.0, Q3 : 0.0, Q4 : -8.13781298348e-07}
2019-04-14 21:01:25.81: SIM {TimeUS : 43635039, Roll : 0.0, Pitch : 0.0, Yaw : 359.99, Alt : 30.1000003815, Lat : 49.28357, Lng : -123.11502, Q1 : 1.0, Q2 : 0.0, Q3 : 0.0, Q4 : -9.67463620327e-07}
2019-04-14 21:01:25.91: SIM {TimeUS : 43734999, Roll : 0.0, Pitch : 0.0, Yaw : 359.99, Alt : 30.1000003815, Lat : 49.28357, Lng : -123.11502, Q1 : 1.0, Q2 : 0.0, Q3 : 0.0, Q4 : -1.15554598779e-06}
2019-04-14 21:01:26.01: SIM {TimeUS : 43834959, Roll : 0.0, Pitch : 0.0, Yaw : 359.99, Alt : 30.1100006104, Lat : 49.28357, Lng : -123.11502, Q1 : 1.0, Q2 : 0.0, Q3 : 0.0, Q4 : -1.35581569793e-06}
2019-04-14 21:01:26.11: SIM {TimeUS : 43934919, Roll : 0.0, Pitch : 0.0, Yaw : 359.99, Alt : 30.1299991608, Lat : 49.28357, Lng : -123.11502, Q1 : 1.0, Q2 : 0.0, Q3 : 0.0, Q4 : -1.54774386374e-06}
2019-04-14 21:01:26.21: SIM {TimeUS : 44034879, Roll : 0.0, Pitch : 0.0, Yaw : 359.99, Alt : 30.1599998474, Lat : 49.28357, Lng : -123.11502, Q1 : 1.0, Q2 : 0.0, Q3 : 0.0, Q4 : -1.74805222741e-06}
2019-04-14 21:01:26.31: SIM {TimeUS : 44134839, Roll : 0.0, Pitch : 0.0, Yaw : 359.99, Alt : 30.1900005341, Lat : 49.28357, Lng : -123.11502, Q1 : 1.0, Q2 : 0.0, Q3 : 0.0, Q4 : -2.0265817966e-06}
2019-04-14 21:01:26.41: SIM {TimeUS : 44234799, Roll : -0.03, Pitch : -0.03, Yaw : 359.99, Alt : 30.2299995422, Lat : 49.28357, Lng : -123.11502, Q1 : 0.999999880791, Q2 : -0.000323811691487, Q3 : -0.000272668199614, Q4 : -4.02729210691e-06}
2019-04-14 21:01:26.51: SIM {TimeUS : 44334759, Roll : -0.29, Pitch : -0.24, Yaw : 359.99, Alt : 30.3099994659, Lat : 49.28357, Lng : -123.11502, Q1 : 0.999994397163, Q2 : -0.00254851137288, Q3 : -0.00217133481055, Q4 : -2.59769167315e-05}
2019-04-14 21:01:26.61: SIM {TimeUS : 44434719, Roll : -0.58, Pitch : -0.53, Yaw : 359.99, Alt : 30.4400005341, Lat : 49.28357, Lng : -123.11502, Q1 : 0.999976277351, Q2 : -0.00506823603064, Q3 : -0.00466588605195, Q4 : -7.18553055776e-05}
2019-04-14 21:01:26.71: SIM {TimeUS : 44534679, Roll : -0.77, Pitch : -0.72, Yaw : 359.98, Alt : 30.6000003815, Lat : 49.28357, Lng : -123.11502, Q1 : 0.99995714426, Q2 : -0.00673738820478, Q3 : -0.0063543128781, Q4 : -0.000139482668601}
2019-04-14 21:01:26.81: SIM {TimeUS : 44634639, Roll : -0.82, Pitch : -0.76, Yaw : 359.98, Alt : 30.7600002289, Lat : 49.28357, Lng : -123.11502, Q1 : 0.999951481819, Q2 : -0.00720072770491, Q3 : -0.00671467743814, Q4 : -0.000221575726755}
2019-04-14 21:01:26.91: SIM {TimeUS : 44734599, Roll : -0.73, Pitch : -0.68, Yaw : 359.96, Alt : 30.9099998474, Lat : 49.28357, Lng : -123.1150201, Q1 : 0.999961495399, Q2 : -0.00644909869879, Q3 : -0.00594710279256, Q4 : -0.000303760461975}
2019-04-14 21:01:27.01: SIM {TimeUS : 44835392, Roll : -0.55, Pitch : -0.5, Yaw : 359.95, Alt : 31.0599994659, Lat : 49.2835701, Lng : -123.1150201, Q1 : 0.999978363514, Q2 : -0.00483701331541, Q3 : -0.00443876022473, Q4 : -0.000378154887585}
2019-04-14 21:01:27.11: SIM {TimeUS : 44935352, Roll : -0.33, Pitch : -0.3, Yaw : 359.95, Alt : 31.2199993134, Lat : 49.2835701, Lng : -123.1150202, Q1 : 0.999992191792, Q2 : -0.00288600404747, Q3 : -0.00265661929734, Q4 : -0.000442376971478}
2019-04-14 21:01:27.21: SIM {TimeUS : 45035312, Roll : -0.12, Pitch : -0.12, Yaw : 359.94, Alt : 31.3899993896, Lat : 49.2835702, Lng : -123.1150203, Q1 : 0.999998688698, Q2 : -0.00105987838469, Q3 : -0.00112392380834, Q4 : -0.000490643549711}
2019-04-14 21:01:27.31: SIM {TimeUS : 45135272, Roll : 0.03, Pitch : 0.0, Yaw : 359.94, Alt : 31.5599994659, Lat : 49.2835702, Lng : -123.1150204, Q1 : 0.999999821186, Q2 : 0.000276062113699, Q3 : -7.7495998994e-05, Q4 : -0.000522540532984}
2019-04-14 21:01:27.41: SIM {TimeUS : 45235232, Roll : 0.1, Pitch : 0.05, Yaw : 359.93, Alt : 31.7299995422, Lat : 49.2835702, Lng : -123.1150205, Q1 : 0.999999344349, Q2 : 0.000878576072864, Q3 : 0.000491813174449, Q4 : -0.000536988954991}
2019-04-14 21:01:27.51: SIM {TimeUS : 45335192, Roll : 0.1, Pitch : 0.07, Yaw : 359.93, Alt : 31.9200000763, Lat : 49.2835703, Lng : -123.1150205, Q1 : 0.999999165535, Q2 : 0.000903898908291, Q3 : 0.00067500123987, Q4 : -0.000551308447029}
2019-04-14 21:01:27.61: SIM {TimeUS : 45435152, Roll : 0.07, Pitch : 0.08, Yaw : 359.93, Alt : 32.0999984741, Lat : 49.2835703, Lng : -123.1150206, Q1 : 0.999999344349, Q2 : 0.000669391127303, Q3 : 0.000757864443585, Q4 : -0.000559357460588}
2019-04-14 21:01:27.71: SIM {TimeUS : 45535112, Roll : 0.06, Pitch : 0.09, Yaw : 359.93, Alt : 32.2900009155, Lat : 49.2835703, Lng : -123.1150206, Q1 : 0.999999344349, Q2 : 0.000590201758314, Q3 : 0.000861201318912, Q4 : -0.000541364774108}
2019-04-14 21:01:27.81: SIM {TimeUS : 45635072, Roll : 0.07, Pitch : 0.1, Yaw : 359.94, Alt : 32.4799995422, Lat : 49.2835703, Lng : -123.1150207, Q1 : 0.99999922514, Q2 : 0.000642894825432, Q3 : 0.000908767979126, Q4 : -0.000517309119459}
2019-04-14 21:01:27.91: SIM {TimeUS : 45735032, Roll : 0.08, Pitch : 0.11, Yaw : 359.94, Alt : 32.6800003052, Lat : 49.2835703, Lng : -123.1150207, Q1 : 0.99999910593, Q2 : 0.000735633482691, Q3 : 0.000991785782389, Q4 : -0.000492273946293}
2019-04-14 21:01:28.01: SIM {TimeUS : 45834992, Roll : 0.1, Pitch : 0.14, Yaw : 359.94, Alt : 32.8699989319, Lat : 49.2835704, Lng : -123.1150208, Q1 : 0.999998688698, Q2 : 0.000877076236065, Q3 : 0.00128711969592, Q4 : -0.000462443742435}
2019-04-14 21:01:28.11: SIM {TimeUS : 45934952, Roll : 0.12, Pitch : 0.15, Yaw : 359.94, Alt : 33.0699996948, Lat : 49.2835704, Lng : -123.1150208, Q1 : 0.999998450279, Q2 : 0.0010695150122, Q3 : 0.00134645123035, Q4 : -0.000442126241978}
2019-04-14 21:01:28.21: SIM {TimeUS : 46034912, Roll : 0.14, Pitch : 0.14, Yaw : 359.95, Alt : 33.2799987793, Lat : 49.2835704, Lng : -123.1150208, Q1 : 0.999998271465, Q2 : 0.001257810276, Q3 : 0.00129539670888, Q4 : -0.000415918184444}
2019-04-14 21:01:28.31: SIM {TimeUS : 46134872, Roll : 0.15, Pitch : 0.14, Yaw : 359.95, Alt : 33.4799995422, Lat : 49.2835704, Lng : -123.1150208, Q1 : 0.999998152256, Q2 : 0.00139253365342, Q3 : 0.00124584301375, Q4 : -0.000402077799663}
2019-04-14 21:01:28.41: SIM {TimeUS : 46234832, Roll : 0.16, Pitch : 0.14, Yaw : 359.95, Alt : 33.6899986267, Lat : 49.2835704, Lng : -123.1150208, Q1 : 0.999998092651, Q2 : 0.00144508504309, Q3 : 0.00125963857863, Q4 : -0.000411462184275}
2019-04-14 21:01:28.51: SIM {TimeUS : 46334792, Roll : 0.17, Pitch : 0.15, Yaw : 359.95, Alt : 33.9000015259, Lat : 49.2835704, Lng : -123.1150208, Q1 : 0.999997854233, Q2 : 0.00151498545893, Q3 : 0.00133475323673, Q4 : -0.000430994987255}
2019-04-14 21:01:28.61: SIM {TimeUS : 46434752, Roll : 0.16, Pitch : 0.13, Yaw : 359.94, Alt : 34.1100006104, Lat : 49.2835704, Lng : -123.1150208, Q1 : 0.999998092651, Q2 : 0.00145580875687, Q3 : 0.00120534235612, Q4 : -0.000448560080258}
2019-04-14 21:01:28.71: SIM {TimeUS : 46534712, Roll : 0.14, Pitch : 0.11, Yaw : 359.94, Alt : 34.3199996948, Lat : 49.2835704, Lng : -123.1150208, Q1 : 0.999998509884, Q2 : 0.00127704150509, Q3 : 0.00103939662222, Q4 : -0.000464415817987}
2019-04-14 21:01:28.81: SIM {TimeUS : 46634672, Roll : 0.11, Pitch : 0.1, Yaw : 359.94, Alt : 34.5299987793, Lat : 49.2835704, Lng : -123.1150208, Q1 : 0.999998927116, Q2 : 0.00102038495243, Q3 : 0.000920321734156, Q4 : -0.00048688420793}
2019-04-14 21:01:28.91: SIM {TimeUS : 46734632, Roll : 0.08, Pitch : 0.09, Yaw : 359.94, Alt : 34.7400016785, Lat : 49.2835704, Lng : -123.1150208, Q1 : 0.999999284744, Q2 : 0.000761691189837, Q3 : 0.00080390018411, Q4 : -0.000512455590069}
2019-04-14 21:01:29.01: SIM {TimeUS : 46834592, Roll : 0.07, Pitch : 0.05, Yaw : 359.93, Alt : 34.9599990845, Lat : 49.2835704, Lng : -123.1150208, Q1 : 0.999999523163, Q2 : 0.000639518082608, Q3 : 0.000470651546493, Q4 : -0.000550274446141}
2019-04-14 21:01:29.11: SIM {TimeUS : 46935385, Roll : 0.06, Pitch : 0.02, Yaw : 359.93, Alt : 35.1800003052, Lat : 49.2835704, Lng : -123.1150208, Q1 : 0.999999642372, Q2 : 0.000565618742257, Q3 : 0.000179761540494, Q4 : -0.000598673475906}
2019-04-14 21:01:29.21: SIM {TimeUS : 47035345, Roll : 0.04, Pitch : 0.0, Yaw : 359.92, Alt : 35.3899993896, Lat : 49.2835704, Lng : -123.1150208, Q1 : 0.999999701977, Q2 : 0.000381781894248, Q3 : 1.62084779731e-05, Q4 : -0.000649490568321}
2019-04-14 21:01:29.31: SIM {TimeUS : 47135305, Roll : 0.02, Pitch : 0.0, Yaw : 359.92, Alt : 35.6100006104, Lat : 49.2835704, Lng : -123.1150208, Q1 : 0.999999761581, Q2 : 0.000254871090874, Q3 : 8.05638046586e-06, Q4 : -0.000693943758961}
2019-04-14 21:01:29.41: SIM {TimeUS : 47235265, Roll : 0.02, Pitch : 0.0, Yaw : 359.91, Alt : 35.8300018311, Lat : 49.2835704, Lng : -123.1150207, Q1 : 0.999999701977, Q2 : 0.000222752234549, Q3 : 6.66787454975e-05, Q4 : -0.000735178298783}
2019-04-14 21:01:29.51: SIM {TimeUS : 47335225, Roll : 0.0, Pitch : -0.01, Yaw : 359.91, Alt : 36.0499992371, Lat : 49.2835704, Lng : -123.1150207, Q1 : 0.999999701977, Q2 : 2.75924667221e-05, Q3 : -9.34637428145e-05, Q4 : -0.000769459176809}
2019-04-14 21:01:29.61: SIM {TimeUS : 47435185, Roll : -0.03, Pitch : -0.04, Yaw : 359.9, Alt : 36.2700004578, Lat : 49.2835704, Lng : -123.1150207, Q1 : 0.999999582767, Q2 : -0.000285386573523, Q3 : -0.000399068609113, Q4 : -0.000790166202933}
2019-04-14 21:01:29.71: SIM {TimeUS : 47535145, Roll : -0.06, Pitch : -0.06, Yaw : 359.9, Alt : 36.4900016785, Lat : 49.2835704, Lng : -123.1150207, Q1 : 0.999999344349, Q2 : -0.000594398123212, Q3 : -0.000565882306546, Q4 : -0.000802916765679}
2019-04-14 21:01:29.81: SIM {TimeUS : 47635105, Roll : -0.1, Pitch : -0.07, Yaw : 359.9, Alt : 36.7200012207, Lat : 49.2835704, Lng : -123.1150207, Q1 : 0.999999046326, Q2 : -0.000881349551491, Q3 : -0.00067372265039, Q4 : -0.000814520579297}
2019-04-14 21:01:29.91: SIM {TimeUS : 47735065, Roll : -0.1, Pitch : -0.07, Yaw : 359.9, Alt : 36.9399986267, Lat : 49.2835704, Lng : -123.1150207, Q1 : 0.999998986721, Q2 : -0.000900191662367, Q3 : -0.000697242445312, Q4 : -0.000828676798847}
2019-04-14 21:01:30.01: SIM {TimeUS : 47835025, Roll : -0.09, Pitch : -0.07, Yaw : 359.9, Alt : 37.1599998474, Lat : 49.2835704, Lng : -123.1150207, Q1 : 0.99999910593, Q2 : -0.000814577506389, Q3 : -0.000660530291498, Q4 : -0.00084510887973}
2019-04-14 21:01:30.11: SIM {TimeUS : 47934985, Roll : -0.07, Pitch : -0.05, Yaw : 359.9, Alt : 37.3899993896, Lat : 49.2835704, Lng : -123.1150207, Q1 : 0.999999284744, Q2 : -0.000674663693644, Q3 : -0.000471433042549, Q4 : -0.000860814063344}
2019-04-14 21:01:30.21: SIM {TimeUS : 48034945, Roll : -0.05, Pitch : -0.03, Yaw : 359.9, Alt : 37.6100006104, Lat : 49.2835704, Lng : -123.1150206, Q1 : 0.999999403954, Q2 : -0.000523204391357, Q3 : -0.00031601433875, Q4 : -0.000872068398166}
2019-04-14 21:01:30.31: SIM {TimeUS : 48134905, Roll : -0.06, Pitch : -0.03, Yaw : 359.89, Alt : 37.8400001526, Lat : 49.2835704, Lng : -123.1150206, Q1 : 0.999999403954, Q2 : -0.000559375854209, Q3 : -0.000303264474496, Q4 : -0.000879557977896}
2019-04-14 21:01:30.41: SIM {TimeUS : 48234865, Roll : -0.07, Pitch : -0.02, Yaw : 359.89, Alt : 38.0699996948, Lat : 49.2835704, Lng : -123.1150206, Q1 : 0.999999344349, Q2 : -0.000687927007675, Q3 : -0.00020350633713, Q4 : -0.000890673371032}
2019-04-14 21:01:30.51: SIM {TimeUS : 48334825, Roll : -0.1, Pitch : 0.0, Yaw : 359.89, Alt : 38.2900009155, Lat : 49.2835704, Lng : -123.1150206, Q1 : 0.99999922514, Q2 : -0.000889963121153, Q3 : -6.88851359882e-05, Q4 : -0.000906518427655}
2019-04-14 21:01:30.61: SIM {TimeUS : 48434785, Roll : -0.1, Pitch : 0.0, Yaw : 359.89, Alt : 38.5200004578, Lat : 49.2835704, Lng : -123.1150206, Q1 : 0.99999922514, Q2 : -0.000889387913048, Q3 : 5.81313797738e-05, Q4 : -0.000918657518923}
2019-04-14 21:01:30.71: SIM {TimeUS : 48534745, Roll : -0.07, Pitch : 0.03, Yaw : 359.89, Alt : 38.75, Lat : 49.2835706, Lng : -123.1150206, Q1 : 0.999999284744, Q2 : -0.000641895225272, Q3 : 0.000286739377771, Q4 : -0.000937587814406}
2019-04-14 21:01:30.81: SIM {TimeUS : 48634705, Roll : -0.04, Pitch : 0.02, Yaw : 359.89, Alt : 38.9799995422, Lat : 49.2835706, Lng : -123.1150207, Q1 : 0.999999463558, Q2 : -0.000370704743546, Q3 : 0.000261403183686, Q4 : -0.000951393682044}
2019-04-14 21:01:30.91: SIM {TimeUS : 48734665, Roll : 0.0, Pitch : 0.02, Yaw : 359.88, Alt : 39.2099990845, Lat : 49.2835706, Lng : -123.1150207, Q1 : 0.999999523163, Q2 : -7.28234226699e-05, Q3 : 0.00019078864716, Q4 : -0.000962275080383}
2019-04-14 21:01:31.01: SIM {TimeUS : 48834625, Roll : 0.02, Pitch : 0.03, Yaw : 359.88, Alt : 39.4399986267, Lat : 49.2835706, Lng : -123.1150207, Q1 : 0.999999463558, Q2 : 0.00024179428874, Q3 : 0.000345723179635, Q4 : -0.000970016524661}
2019-04-14 21:01:31.11: SIM {TimeUS : 48934585, Roll : 0.06, Pitch : 0.07, Yaw : 359.88, Alt : 39.6699981689, Lat : 49.2835706, Lng : -123.1150207, Q1 : 0.999999165535, Q2 : 0.000542956870049, Q3 : 0.000622452411335, Q4 : -0.000983697944321}
2019-04-14 21:01:31.21: SIM {TimeUS : 49035378, Roll : 0.08, Pitch : 0.1, Yaw : 359.88, Alt : 39.9000015259, Lat : 49.2835706, Lng : -123.1150207, Q1 : 0.999998807907, Q2 : 0.000749032071326, Q3 : 0.000899188627955, Q4 : -0.00100554828532}
2019-04-14 21:01:31.31: SIM {TimeUS : 49135338, Roll : 0.07, Pitch : 0.13, Yaw : 359.88, Alt : 40.1300010681, Lat : 49.2835706, Lng : -123.1150207, Q1 : 0.999998629093, Q2 : 0.000621608167421, Q3 : 0.00116212829016, Q4 : -0.00102908187546}
2019-04-14 21:01:31.41: SIM {TimeUS : 49235298, Roll : 0.01, Pitch : 0.16, Yaw : 359.87, Alt : 40.3600006104, Lat : 49.2835706, Lng : -123.1150207, Q1 : 0.999998390675, Q2 : 0.000173717460711, Q3 : 0.00140894122887, Q4 : -0.00106827623677}
2019-04-14 21:01:31.51: SIM {TimeUS : 49335258, Roll : -0.02, Pitch : 0.17, Yaw : 359.87, Alt : 40.5999984741, Lat : 49.2835706, Lng : -123.1150207, Q1 : 0.999998211861, Q2 : -0.000217168548261, Q3 : 0.00153728679288, Q4 : -0.00110161758494}
2019-04-14 21:01:31.61: SIM {TimeUS : 49435218, Roll : -0.04, Pitch : 0.15, Yaw : 359.87, Alt : 40.8300018311, Lat : 49.2835706, Lng : -123.1150207, Q1 : 0.99999833107, Q2 : -0.000410263281083, Q3 : 0.00139613798819, Q4 : -0.00112509611063}
2019-04-14 21:01:31.71: SIM {TimeUS : 49535178, Roll : -0.05, Pitch : 0.13, Yaw : 359.86, Alt : 41.0600013733, Lat : 49.2835706, Lng : -123.1150207, Q1 : 0.999998569489, Q2 : -0.000437170005171, Q3 : 0.00119210185949, Q4 : -0.0011511282064}
2019-04-14 21:01:31.81: SIM {TimeUS : 49635138, Roll : -0.03, Pitch : 0.13, Yaw : 359.86, Alt : 41.2900009155, Lat : 49.2835706, Lng : -123.1150207, Q1 : 0.999998569489, Q2 : -0.000275695201708, Q3 : 0.00115415500477, Q4 : -0.00118047557771}
2019-04-14 21:01:31.91: SIM {TimeUS : 49735098, Roll : 0.01, Pitch : 0.14, Yaw : 359.86, Alt : 41.5299987793, Lat : 49.2835706, Lng : -123.1150207, Q1 : 0.999998450279, Q2 : 0.000128731888253, Q3 : 0.00127330922987, Q4 : -0.00121626956388}
2019-04-14 21:01:32.01: SIM {TimeUS : 49835058, Roll : 0.06, Pitch : 0.15, Yaw : 359.85, Alt : 41.7599983215, Lat : 49.2835706, Lng : -123.1150207, Q1 : 0.999998152256, Q2 : 0.000592323369347, Q3 : 0.00132397364359, Q4 : -0.00125460175332}
2019-04-14 21:01:32.11: SIM {TimeUS : 49935018, Roll : 0.1, Pitch : 0.12, Yaw : 359.85, Alt : 42.0, Lat : 49.2835706, Lng : -123.1150207, Q1 : 0.999998211861, Q2 : 0.000889812537935, Q3 : 0.00107360165566, Q4 : -0.00129401520826}
2019-04-14 21:01:32.21: SIM {TimeUS : 50034978, Roll : 0.1, Pitch : 0.08, Yaw : 359.84, Alt : 42.2299995422, Lat : 49.2835706, Lng : -123.1150207, Q1 : 0.999998450279, Q2 : 0.000902203959413, Q3 : 0.000707343278918, Q4 : -0.00133285787888}
2019-04-14 21:01:32.31: SIM {TimeUS : 50134938, Roll : 0.06, Pitch : 0.05, Yaw : 359.84, Alt : 42.4599990845, Lat : 49.2835706, Lng : -123.1150207, Q1 : 0.999998807907, Q2 : 0.000590125098825, Q3 : 0.000444917415734, Q4 : -0.00136015331373}
2019-04-14 21:01:32.41: SIM {TimeUS : 50234898, Roll : 0.01, Pitch : 0.04, Yaw : 359.84, Alt : 42.7000007629, Lat : 49.2835706, Lng : -123.1150207, Q1 : 0.999998986721, Q2 : 9.60949109867e-05, Q3 : 0.000363663944881, Q4 : -0.00137783272658}
2019-04-14 21:01:32.51: SIM {TimeUS : 50334858, Roll : -0.03, Pitch : 0.06, Yaw : 359.84, Alt : 42.9300003052, Lat : 49.2835704, Lng : -123.1150207, Q1 : 0.999998867512, Q2 : -0.000276047503576, Q3 : 0.000542145629879, Q4 : -0.00138819031417}
2019-04-14 21:01:32.61: SIM {TimeUS : 50434818, Roll : -0.05, Pitch : 0.07, Yaw : 359.83, Alt : 43.1699981689, Lat : 49.2835704, Lng : -123.1150207, Q1 : 0.999998688698, Q2 : -0.000453023647424, Q3 : 0.000685593404341, Q4 : -0.00139715336263}
2019-04-14 21:01:32.71: SIM {TimeUS : 50534778, Roll : -0.04, Pitch : 0.07, Yaw : 359.83, Alt : 43.4000015259, Lat : 49.2835704, Lng : -123.1150207, Q1 : 0.999998688698, Q2 : -0.000414798472775, Q3 : 0.000642720377073, Q4 : -0.00140669627581}
2019-04-14 21:01:32.81: SIM {TimeUS : 50634738, Roll : -0.04, Pitch : 0.05, Yaw : 359.83, Alt : 43.6399993896, Lat : 49.2835704, Lng : -123.1150207, Q1 : 0.999998748302, Q2 : -0.000413712259615, Q3 : 0.000508987286594, Q4 : -0.00142139510717}
2019-04-14 21:01:32.91: SIM {TimeUS : 50734698, Roll : -0.04, Pitch : 0.04, Yaw : 359.83, Alt : 43.8699989319, Lat : 49.2835704, Lng : -123.1150207, Q1 : 0.999998807907, Q2 : -0.000357572280336, Q3 : 0.000384453509469, Q4 : -0.00144289701711}
2019-04-14 21:01:33.01: SIM {TimeUS : 50834658, Roll : -0.02, Pitch : 0.03, Yaw : 359.83, Alt : 44.1100006104, Lat : 49.2835704, Lng : -123.1150206, Q1 : 0.999998867512, Q2 : -0.000238793945755, Q3 : 0.00032180416747, Q4 : -0.00147221796215}
2019-04-14 21:01:33.11: SIM {TimeUS : 50934618, Roll : -0.01, Pitch : 0.03, Yaw : 359.82, Alt : 44.3499984741, Lat : 49.2835704, Lng : -123.1150206, Q1 : 0.999998807907, Q2 : -0.000150653737364, Q3 : 0.000298238213873, Q4 : -0.00150480528828}
2019-04-14 21:01:33.21: SIM {TimeUS : 51034578, Roll : -0.02, Pitch : 0.01, Yaw : 359.82, Alt : 44.5800018311, Lat : 49.2835704, Lng : -123.1150206, Q1 : 0.999998807907, Q2 : -0.000180469956831, Q3 : 0.000130992164486, Q4 : -0.00153826700989}
2019-04-14 21:01:33.31: SIM {TimeUS : 51135371, Roll : -0.02, Pitch : -0.01, Yaw : 359.82, Alt : 44.8199996948, Lat : 49.2835704, Lng : -123.1150206, Q1 : 0.999998748302, Q2 : -0.000250140117714, Q3 : -0.000159937611897, Q4 : -0.00156994431745}
2019-04-14 21:01:33.41: SIM {TimeUS : 51235331, Roll : -0.03, Pitch : -0.04, Yaw : 359.81, Alt : 45.0600013733, Lat : 49.2835704, Lng : -123.1150206, Q1 : 0.999998629093, Q2 : -0.000330495182425, Q3 : -0.000359599856893, Q4 : -0.00160212104674}
2019-04-14 21:01:33.51: SIM {TimeUS : 51335291, Roll : -0.03, Pitch : -0.05, Yaw : 359.81, Alt : 45.2900009155, Lat : 49.2835703, Lng : -123.1150206, Q1 : 0.999998509884, Q2 : -0.000291417061817, Q3 : -0.000447781669209, Q4 : -0.00163397565484}
2019-04-14 21:01:33.61: SIM {TimeUS : 51435251, Roll : -0.03, Pitch : -0.05, Yaw : 359.8, Alt : 45.5299987793, Lat : 49.2835703, Lng : -123.1150206, Q1 : 0.999998509884, Q2 : -0.000303660170175, Q3 : -0.000436972593889, Q4 : -0.00166112673469}
2019-04-14 21:01:33.71: SIM {TimeUS : 51535211, Roll : -0.05, Pitch : -0.04, Yaw : 359.8, Alt : 45.7599983215, Lat : 49.2835703, Lng : -123.1150206, Q1 : 0.999998390675, Q2 : -0.000473991094623, Q3 : -0.00034955071169, Q4 : -0.00168470211793}
2019-04-14 21:01:33.81: SIM {TimeUS : 51635171, Roll : -0.08, Pitch : -0.03, Yaw : 359.8, Alt : 45.9900016785, Lat : 49.2835703, Lng : -123.1150206, Q1 : 0.999998211861, Q2 : -0.000780627131462, Q3 : -0.000277998537058, Q4 : -0.00170600099955}
2019-04-14 21:01:33.91: SIM {TimeUS : 51735131, Roll : -0.11, Pitch : -0.02, Yaw : 359.8, Alt : 46.2200012207, Lat : 49.2835703, Lng : -123.1150206, Q1 : 0.999997973442, Q2 : -0.00103120366111, Q3 : -0.000216800806811, Q4 : -0.00172460451722}
2019-04-14 21:01:34.01: SIM {TimeUS : 51835091, Roll : -0.12, Pitch : 0.0, Yaw : 359.8, Alt : 46.4500007629, Lat : 49.2835703, Lng : -123.1150206, Q1 : 0.999997854233, Q2 : -0.00110327755101, Q3 : -8.50470169098e-05, Q4 : -0.00174034899101}
2019-04-14 21:01:34.11: SIM {TimeUS : 51935051, Roll : -0.11, Pitch : 0.01, Yaw : 359.79, Alt : 46.6699981689, Lat : 49.2835703, Lng : -123.1150206, Q1 : 0.999997973442, Q2 : -0.00099189800676, Q3 : 0.000115500573884, Q4 : -0.00175840815064}
2019-04-14 21:01:34.21: SIM {TimeUS : 52035011, Roll : -0.08, Pitch : 0.02, Yaw : 359.79, Alt : 46.8800010681, Lat : 49.2835703, Lng : -123.1150206, Q1 : 0.999998092651, Q2 : -0.00077945634257, Q3 : 0.000198901194381, Q4 : -0.00177956128027}
2019-04-14 21:01:34.31: SIM {TimeUS : 52134971, Roll : -0.06, Pitch : 0.01, Yaw : 359.79, Alt : 47.0900001526, Lat : 49.2835703, Lng : -123.1150206, Q1 : 0.999998211861, Q2 : -0.000594837125391, Q3 : 0.000131534034153, Q4 : -0.00180151616223}
2019-04-14 21:01:34.41: SIM {TimeUS : 52234931, Roll : -0.05, Pitch : 0.0, Yaw : 359.79, Alt : 47.2900009155, Lat : 49.2835703, Lng : -123.1150206, Q1 : 0.999998211861, Q2 : -0.000497290864587, Q3 : -5.28750024387e-05, Q4 : -0.00182755314745}
2019-04-14 21:01:34.51: SIM {TimeUS : 52334891, Roll : -0.03, Pitch : -0.03, Yaw : 359.78, Alt : 47.4799995422, Lat : 49.2835703, Lng : -123.1150206, Q1 : 0.999998211861, Q2 : -0.000328124850057, Q3 : -0.000326573092025, Q4 : -0.00185520050582}
2019-04-14 21:01:34.61: SIM {TimeUS : 52434851, Roll : -0.01, Pitch : -0.07, Yaw : 359.78, Alt : 47.6599998474, Lat : 49.2835703, Lng : -123.1150206, Q1 : 0.999998033047, Q2 : -0.000151612373884, Q3 : -0.000631553237326, Q4 : -0.00188136938959}
2019-04-14 21:01:34.71: SIM {TimeUS : 52534811, Roll : -0.02, Pitch : -0.11, Yaw : 359.78, Alt : 47.8400001526, Lat : 49.2835703, Lng : -123.1150206, Q1 : 0.999997675419, Q2 : -0.000184077798622, Q3 : -0.000988853164017, Q4 : -0.00190757052042}
2019-04-14 21:01:34.81: SIM {TimeUS : 52634771, Roll : -0.03, Pitch : -0.14, Yaw : 359.77, Alt : 48.0, Lat : 49.2835703, Lng : -123.1150206, Q1 : 0.999997258186, Q2 : -0.00027248999686, Q3 : -0.00126087537501, Q4 : -0.00193373230286}
2019-04-14 21:01:34.91: SIM {TimeUS : 52734731, Roll : 0.0, Pitch : -0.14, Yaw : 359.77, Alt : 48.1399993896, Lat : 49.2835703, Lng : -123.1150207, Q1 : 0.999997317791, Q2 : -6.42512604827e-05, Q3 : -0.00125371839385, Q4 : -0.00196096370928}
2019-04-14 21:01:35.01: SIM {TimeUS : 52834691, Roll : 0.02, Pitch : -0.12, Yaw : 359.77, Alt : 48.2799987793, Lat : 49.2835703, Lng : -123.1150207, Q1 : 0.999997437, Q2 : 0.000252801721217, Q3 : -0.00107088265941, Q4 : -0.00199379399419}
2019-04-14 21:01:35.11: SIM {TimeUS : 52934651, Roll : 0.05, Pitch : -0.09, Yaw : 359.76, Alt : 48.4000015259, Lat : 49.2835703, Lng : -123.1150207, Q1 : 0.999997496605, Q2 : 0.000515766674653, Q3 : -0.000807114469353, Q4 : -0.00202616304159}
2019-04-14 21:01:35.21: SIM {TimeUS : 53034611, Roll : 0.07, Pitch : -0.05, Yaw : 359.76, Alt : 48.5200004578, Lat : 49.2835703, Lng : -123.1150207, Q1 : 0.99999755621, Q2 : 0.000617348006926, Q3 : -0.000514621147886, Q4 : -0.00205620983616}
2019-04-14 21:01:35.31: SIM {TimeUS : 53135404, Roll : 0.07, Pitch : -0.03, Yaw : 359.76, Alt : 48.6199989319, Lat : 49.2835703, Lng : -123.1150207, Q1 : 0.99999755621, Q2 : 0.000672691618092, Q3 : -0.00031307619065, Q4 : -0.00208520633169}
2019-04-14 21:01:35.41: SIM {TimeUS : 53235364, Roll : 0.07, Pitch : -0.03, Yaw : 359.75, Alt : 48.7099990845, Lat : 49.2835703, Lng : -123.1150207, Q1 : 0.999997496605, Q2 : 0.000625579792541, Q3 : -0.000317613274092, Q4 : -0.00211773742922}
2019-04-14 21:01:35.51: SIM {TimeUS : 53335324, Roll : 0.04, Pitch : -0.04, Yaw : 359.75, Alt : 48.7799987793, Lat : 49.2835704, Lng : -123.1150207, Q1 : 0.99999755621, Q2 : 0.000397527095629, Q3 : -0.000357633922249, Q4 : -0.00214690738358}
2019-04-14 21:01:35.61: SIM {TimeUS : 53435284, Roll : 0.02, Pitch : -0.03, Yaw : 359.75, Alt : 48.8499984741, Lat : 49.2835704, Lng : -123.1150207, Q1 : 0.99999755621, Q2 : 0.000244640250457, Q3 : -0.000325426663039, Q4 : -0.00216982071288}
2019-04-14 21:01:35.71: SIM {TimeUS : 53535244, Roll : 0.01, Pitch : -0.03, Yaw : 359.74, Alt : 48.9099998474, Lat : 49.2835704, Lng : -123.1150207, Q1 : 0.99999755621, Q2 : 0.000112970803457, Q3 : -0.000289401970804, Q4 : -0.00218889885582}
2019-04-14 21:01:35.81: SIM {TimeUS : 53635204, Roll : 0.0, Pitch : -0.01, Yaw : 359.74, Alt : 48.9500007629, Lat : 49.2835704, Lng : -123.1150207, Q1 : 0.99999755621, Q2 : 6.23467858532e-05, Q3 : -0.000149985673488, Q4 : -0.00220797932707}
2019-04-14 21:01:35.91: SIM {TimeUS : 53735164, Roll : 0.05, Pitch : 0.0, Yaw : 359.74, Alt : 49.0, Lat : 49.2835704, Lng : -123.1150207, Q1 : 0.999997437, Q2 : 0.000466384837637, Q3 : -8.25760871521e-05, Q4 : -0.00222824257798}
2019-04-14 21:01:36.01: SIM {TimeUS : 53835124, Roll : 0.23, Pitch : -0.1, Yaw : 359.74, Alt : 49.0299987793, Lat : 49.2835704, Lng : -123.1150207, Q1 : 0.999994933605, Q2 : 0.0020629724022, Q3 : -0.000894272467121, Q4 : -0.0022406571079}
2019-04-14 21:01:36.11: SIM {TimeUS : 53935084, Roll : 0.62, Pitch : -0.37, Yaw : 359.74, Alt : 49.0600013733, Lat : 49.2835704, Lng : -123.1150207, Q1 : 0.999976992607, Q2 : 0.00548165803775, Q3 : -0.00329663185403, Q4 : -0.00224970583804}
2019-04-14 21:01:36.21: SIM {TimeUS : 54035044, Roll : 1.21, Pitch : -0.8, Yaw : 359.73, Alt : 49.0900001526, Lat : 49.2835704, Lng : -123.1150207, Q1 : 0.999916672707, Q2 : 0.0105979945511, Q3 : -0.00702035007998, Q4 : -0.00225464534014}
2019-04-14 21:01:36.31: SIM {TimeUS : 54135004, Roll : 1.96, Pitch : -1.36, Yaw : 359.71, Alt : 49.1100006104, Lat : 49.2835704, Lng : -123.1150207, Q1 : 0.999780654907, Q2 : 0.0170821212232, Q3 : -0.0119095798582, Q4 : -0.00224835425615}
2019-04-14 21:01:36.41: SIM {TimeUS : 54234964, Roll : 2.8, Pitch : -1.97, Yaw : 359.69, Alt : 49.1300010681, Lat : 49.2835706, Lng : -123.1150206, Q1 : 0.999549984932, Q2 : 0.0244008135051, Q3 : -0.0173108447343, Q4 : -0.00219930056483}
2019-04-14 21:01:36.51: SIM {TimeUS : 54334924, Roll : 3.61, Pitch : -2.54, Yaw : 359.67, Alt : 49.1500015259, Lat : 49.2835707, Lng : -123.1150204, Q1 : 0.999254286289, Q2 : 0.0314689576626, Q3 : -0.0222757011652, Q4 : -0.0020905775018}
2019-04-14 21:01:36.61: SIM {TimeUS : 54434884, Roll : 4.27, Pitch : -2.99, Yaw : 359.66, Alt : 49.1699981689, Lat : 49.2835708, Lng : -123.1150202, Q1 : 0.998959362507, Q2 : 0.0372370555997, Q3 : -0.0262654218823, Q4 : -0.0019225818105}
2019-04-14 21:01:36.71: SIM {TimeUS : 54534844, Roll : 4.76, Pitch : -3.33, Yaw : 359.66, Alt : 49.1800003052, Lat : 49.2835709, Lng : -123.11502, Q1 : 0.998711705208, Q2 : 0.0414629168808, Q3 : -0.0292054377496, Q4 : -0.0016967545962}
2019-04-14 21:01:36.81: SIM {TimeUS : 54634804, Roll : 5.1, Pitch : -3.57, Yaw : 359.67, Alt : 49.1899986267, Lat : 49.283571, Lng : -123.1150196, Q1 : 0.998519599438, Q2 : 0.0444579385221, Q3 : -0.0313071385026, Q4 : -0.0014407915296}
2019-04-14 21:01:36.91: SIM {TimeUS : 54734764, Roll : 5.38, Pitch : -3.78, Yaw : 359.68, Alt : 49.2000007629, Lat : 49.2835713, Lng : -123.1150192, Q1 : 0.998351335526, Q2 : 0.0468384586275, Q3 : -0.0331572592258, Q4 : -0.00117792200763}
2019-04-14 21:01:37.01: SIM {TimeUS : 54834724, Roll : 5.66, Pitch : -4.0, Yaw : 359.69, Alt : 49.2099990845, Lat : 49.2835715, Lng : -123.1150186, Q1 : 0.998168408871, Q2 : 0.0492901578546, Q3 : -0.0350641310215, Q4 : -0.000917163444683}
2019-04-14 21:01:37.11: SIM {TimeUS : 54934684, Roll : 5.99, Pitch : -4.23, Yaw : 359.7, Alt : 49.2200012207, Lat : 49.2835719, Lng : -123.1150179, Q1 : 0.997952759266, Q2 : 0.0521217361093, Q3 : -0.0370565392077, Q4 : -0.00065366452327}
2019-04-14 21:01:37.21: SIM {TimeUS : 55034644, Roll : 6.29, Pitch : -4.43, Yaw : 359.7, Alt : 49.2200012207, Lat : 49.2835721, Lng : -123.1150172, Q1 : 0.997743546963, Q2 : 0.0547861270607, Q3 : -0.0388083718717, Q4 : -0.000401766475989}
2019-04-14 21:01:37.31: SIM {TimeUS : 55134604, Roll : 6.54, Pitch : -4.59, Yaw : 359.71, Alt : 49.2299995422, Lat : 49.2835726, Lng : -123.1150163, Q1 : 0.997567415237, Q2 : 0.0569474846125, Q3 : -0.0402015857399, Q4 : -0.000164903205587}
2019-04-14 21:01:37.41: SIM {TimeUS : 55235397, Roll : 6.72, Pitch : -4.73, Yaw : 359.72, Alt : 49.2400016785, Lat : 49.2835729, Lng : -123.1150153, Q1 : 0.997430205345, Q2 : 0.0585072115064, Q3 : -0.0413518287241, Q4 : 2.36288869928e-05}
2019-04-14 21:01:37.51: SIM {TimeUS : 55335357, Roll : 6.85, Pitch : -4.81, Yaw : 359.73, Alt : 49.2400016785, Lat : 49.2835734, Lng : -123.1150143, Q1 : 0.99733287096, Q2 : 0.0596269667149, Q3 : -0.042092859745, Q4 : 0.000169574050233}
2019-04-14 21:01:37.61: SIM {TimeUS : 55435317, Roll : 6.95, Pitch : -4.87, Yaw : 359.73, Alt : 49.25, Lat : 49.283574, Lng : -123.1150131, Q1 : 0.997261166573, Q2 : 0.0604854188859, Q3 : -0.0425639562309, Q4 : 0.000288804469164}
2019-04-14 21:01:37.71: SIM {TimeUS : 55535277, Roll : 7.05, Pitch : -4.94, Yaw : 359.73, Alt : 49.25, Lat : 49.2835745, Lng : -123.1150119, Q1 : 0.99718028307, Q2 : 0.061364877969, Q3 : -0.0431946665049, Q4 : 0.000358313991455}
2019-04-14 21:01:37.81: SIM {TimeUS : 55635237, Roll : 7.29, Pitch : -4.95, Yaw : 359.79, Alt : 49.25, Lat : 49.2835751, Lng : -123.1150106, Q1 : 0.997044622898, Q2 : 0.0635048225522, Q3 : -0.0432224720716, Q4 : 0.00100756227039}
2019-04-14 21:01:37.91: SIM {TimeUS : 55735197, Roll : 7.8, Pitch : -4.79, Yaw : 0.36, Alt : 49.2599983215, Lat : 49.2835758, Lng : -123.1150092, Q1 : 0.996793985367, Q2 : 0.0681066662073, Q3 : -0.0415575094521, Q4 : 0.00601816643029}
2019-04-14 21:01:38.01: SIM {TimeUS : 55835157, Roll : 8.46, Pitch : -4.64, Yaw : 2.1, Alt : 49.2599983215, Lat : 49.2835764, Lng : -123.1150077, Q1 : 0.996230900288, Q2 : 0.0744450539351, Q3 : -0.0390782505274, Q4 : 0.0213256366551}
2019-04-14 21:01:38.11: SIM {TimeUS : 55935117, Roll : 8.98, Pitch : -4.85, Yaw : 5.42, Alt : 49.2599983215, Lat : 49.2835771, Lng : -123.115006, Q1 : 0.994763255119, Q2 : 0.0801711305976, Q3 : -0.0384369418025, Q4 : 0.0504110977054}
2019-04-14 21:01:38.21: SIM {TimeUS : 56035077, Roll : 9.13, Pitch : -5.55, Yaw : 10.26, Alt : 49.2599983215, Lat : 49.2835779, Lng : -123.1150044, Q1 : 0.991314530373, Q2 : 0.0835613682866, Q3 : -0.0410133935511, Q4 : 0.0929025933146}
2019-04-14 21:01:38.31: SIM {TimeUS : 56135037, Roll : 8.74, Pitch : -6.75, Yaw : 16.42, Alt : 49.2599983215, Lat : 49.2835786, Lng : -123.1150026, Q1 : 0.984509170055, Q2 : 0.0837564244866, Q3 : -0.0473090223968, Q4 : 0.146589607}
2019-04-14 21:01:38.41: SIM {TimeUS : 56234997, Roll : 7.75, Pitch : -8.3, Yaw : 23.63, Alt : 49.2700004578, Lat : 49.2835794, Lng : -123.1150005, Q1 : 0.972992002964, Q2 : 0.0808062180877, Q3 : -0.0568723939359, Q4 : 0.208620429039}
2019-04-14 21:01:38.51: SIM {TimeUS : 56334957, Roll : 6.15, Pitch : -9.93, Yaw : 31.67, Alt : 49.2700004578, Lat : 49.28358, Lng : -123.1149986, Q1 : 0.955772578716, Q2 : 0.0750876516104, Q3 : -0.0686141476035, Q4 : 0.275957792997}
2019-04-14 21:01:38.61: SIM {TimeUS : 56434917, Roll : 4.03, Pitch : -11.42, Yaw : 40.26, Alt : 49.2700004578, Lat : 49.2835808, Lng : -123.1149964, Q1 : 0.932453513145, Q2 : 0.0671164467931, Q3 : -0.0813014060259, Q4 : 0.345566093922}
2019-04-14 21:01:38.71: SIM {TimeUS : 56534877, Roll : 1.29, Pitch : -12.54, Yaw : 49.0, Alt : 49.2700004578, Lat : 49.2835817, Lng : -123.1149941, Q1 : 0.903938651085, Q2 : 0.0555015839636, Q3 : -0.0947833359241, Q4 : 0.413316637278}
2019-04-14 21:01:38.81: SIM {TimeUS : 56634837, Roll : -1.89, Pitch : -13.12, Yaw : 57.06, Alt : 49.2700004578, Lat : 49.2835825, Lng : -123.1149917, Q1 : 0.873572289944, Q2 : 0.0401579663157, Q3 : -0.108205057681, Q4 : 0.472811281681}
2019-04-14 21:01:38.91: SIM {TimeUS : 56734797, Roll : -4.87, Pitch : -13.16, Yaw : 63.59, Alt : 49.2700004578, Lat : 49.2835836, Lng : -123.1149892, Q1 : 0.846104979515, Q2 : 0.0244325585663, Q3 : -0.119654037058, Q4 : 0.518837511539}
2019-04-14 21:01:39.01: SIM {TimeUS : 56834757, Roll : -7.09, Pitch : -12.92, Yaw : 68.09, Alt : 49.2700004578, Lat : 49.2835846, Lng : -123.1149867, Q1 : 0.825638115406, Q2 : 0.0120049379766, Q3 : -0.127516925335, Q4 : 0.549469769001}
2019-04-14 21:01:39.11: SIM {TimeUS : 56934717, Roll : -8.25, Pitch : -12.66, Yaw : 70.51, Alt : 49.2700004578, Lat : 49.2835858, Lng : -123.1149841, Q1 : 0.814070522785, Q2 : 0.00513310125098, Q3 : -0.131122112274, Q4 : 0.565747201443}
2019-04-14 21:01:39.21: SIM {TimeUS : 57034677, Roll : -8.36, Pitch : -12.57, Yaw : 71.11, Alt : 49.2700004578, Lat : 49.2835871, Lng : -123.1149815, Q1 : 0.811133205891, Q2 : 0.0045805554837, Q3 : -0.131032928824, Q4 : 0.569975793362}
2019-04-14 21:01:39.31: SIM {TimeUS : 57134637, Roll : -7.6, Pitch : -12.76, Yaw : 70.25, Alt : 49.2700004578, Lat : 49.2835884, Lng : -123.1149788, Q1 : 0.815250754356, Q2 : 0.00989426579326, Q3 : -0.12866589427, Q4 : 0.564547121525}
2019-04-14 21:01:39.41: SIM {TimeUS : 57234597, Roll : -6.24, Pitch : -13.22, Yaw : 68.3, Alt : 49.2700004578, Lat : 49.2835898, Lng : -123.1149761, Q1 : 0.824346840382, Q2 : 0.0197871737182, Q3 : -0.125499069691, Q4 : 0.551643669605}
2019-04-14 21:01:39.51: SIM {TimeUS : 57335390, Roll : -4.47, Pitch : -13.88, Yaw : 65.57, Alt : 49.2799987793, Lat : 49.2835915, Lng : -123.1149733, Q1 : 0.836466491222, Q2 : 0.0327900610864, Q3 : -0.122502319515, Q4 : 0.533143341541}
2019-04-14 21:01:39.61: SIM {TimeUS : 57435350, Roll : -2.56, Pitch : -14.6, Yaw : 62.41, Alt : 49.2799987793, Lat : 49.2835929, Lng : -123.1149704, Q1 : 0.849625766277, Q2 : 0.0468198023736, Q3 : -0.120184697211, Q4 : 0.511370301247}
2019-04-14 21:01:39.71: SIM {TimeUS : 57535310, Roll : -0.68, Pitch : -15.23, Yaw : 59.12, Alt : 49.2799987793, Lat : 49.2835946, Lng : -123.1149675, Q1 : 0.862495243549, Q2 : 0.0602524913847, Q3 : -0.118241153657, Q4 : 0.488355100155}
2019-04-14 21:01:39.81: SIM {TimeUS : 57635270, Roll : 0.99, Pitch : -15.67, Yaw : 56.04, Alt : 49.2799987793, Lat : 49.2835963, Lng : -123.1149644, Q1 : 0.87391859293, Q2 : 0.0716669484973, Q3 : -0.116293624043, Q4 : 0.466482520103}
2019-04-14 21:01:39.91: SIM {TimeUS : 57735230, Roll : 2.33, Pitch : -15.87, Yaw : 53.47, Alt : 49.2799987793, Lat : 49.283598, Lng : -123.1149612, Q1 : 0.883072137833, Q2 : 0.0801349803805, Q3 : -0.114215657115, Q4 : 0.448014259338}
2019-04-14 21:01:40.01: SIM {TimeUS : 57835190, Roll : 3.24, Pitch : -15.89, Yaw : 51.61, Alt : 49.2799987793, Lat : 49.2835995, Lng : -123.1149578, Q1 : 0.889540910721, Q2 : 0.0853897705674, Q3 : -0.112225227058, Q4 : 0.434546977282}
2019-04-14 21:01:40.11: SIM {TimeUS : 57935150, Roll : 3.67, Pitch : -15.84, Yaw : 50.56, Alt : 49.2799987793, Lat : 49.2836013, Lng : -123.1149543, Q1 : 0.89323502779, Q2 : 0.0875640437007, Q3 : -0.110982678831, Q4 : 0.426786363125}
2019-04-14 21:01:40.21: SIM {TimeUS : 58035110, Roll : 3.65, Pitch : -15.8, Yaw : 50.28, Alt : 49.2799987793, Lat : 49.283603, Lng : -123.1149508, Q1 : 0.894329369068, Q2 : 0.0869795382023, Q3 : -0.110961265862, Q4 : 0.424614101648}
2019-04-14 21:01:40.31: SIM {TimeUS : 58135070, Roll : 3.23, Pitch : -15.82, Yaw : 50.68, Alt : 49.2799987793, Lat : 49.2836047, Lng : -123.1149471, Q1 : 0.893158793449, Q2 : 0.0841307118535, Q3 : -0.112397842109, Q4 : 0.42726585269}
2019-04-14 21:01:40.41: SIM {TimeUS : 58235030, Roll : 2.51, Pitch : -15.89, Yaw : 51.58, Alt : 49.2799987793, Lat : 49.2836063, Lng : -123.1149433, Q1 : 0.890181183815, Q2 : 0.0797401219606, Q3 : -0.114953875542, Q4 : 0.433594912291}
2019-04-14 21:01:40.51: SIM {TimeUS : 58334990, Roll : 1.66, Pitch : -15.99, Yaw : 52.82, Alt : 49.2799987793, Lat : 49.283608, Lng : -123.1149395, Q1 : 0.885924458504, Q2 : 0.0747359618545, Q3 : -0.118219830096, Q4 : 0.442240267992}
2019-04-14 21:01:40.61: SIM {TimeUS : 58434950, Roll : 0.75, Pitch : -16.12, Yaw : 54.19, Alt : 49.2799987793, Lat : 49.2836098, Lng : -123.1149355, Q1 : 0.881008863449, Q2 : 0.0696755200624, Q3 : -0.121877163649, Q4 : 0.451790481806}
2019-04-14 21:01:40.71: SIM {TimeUS : 58534910, Roll : -0.06, Pitch : -16.24, Yaw : 55.52, Alt : 49.2900009155, Lat : 49.2836116, Lng : -123.1149315, Q1 : 0.87604111433, Q2 : 0.0652971938252, Q3 : -0.125335767865, Q4 : 0.461063086987}
2019-04-14 21:01:40.81: SIM {TimeUS : 58634870, Roll : -0.72, Pitch : -16.33, Yaw : 56.68, Alt : 49.2900009155, Lat : 49.2836133, Lng : -123.1149274, Q1 : 0.871607482433, Q2 : 0.0619501397014, Q3 : -0.127978801727, Q4 : 0.469131112099}
2019-04-14 21:01:40.91: SIM {TimeUS : 58734830, Roll : -1.17, Pitch : -16.38, Yaw : 57.57, Alt : 49.2900009155, Lat : 49.2836152, Lng : -123.1149232, Q1 : 0.86814469099, Q2 : 0.059673897922, Q3 : -0.129755944014, Q4 : 0.475318014622}
2019-04-14 21:01:41.01: SIM {TimeUS : 58834790, Roll : -1.44, Pitch : -16.42, Yaw : 58.13, Alt : 49.2900009155, Lat : 49.283617, Lng : -123.114919, Q1 : 0.865885853767, Q2 : 0.0585154443979, Q3 : -0.130869314075, Q4 : 0.479260772467}
2019-04-14 21:01:41.11: SIM {TimeUS : 58934750, Roll : -1.5, Pitch : -16.46, Yaw : 58.36, Alt : 49.2900009155, Lat : 49.2836189, Lng : -123.1149148, Q1 : 0.864899218082, Q2 : 0.0584581308067, Q3 : -0.131357625127, Q4 : 0.480912894011}
2019-04-14 21:01:41.21: SIM {TimeUS : 59034710, Roll : -1.4, Pitch : -16.51, Yaw : 58.3, Alt : 49.2900009155, Lat : 49.2836207, Lng : -123.1149105, Q1 : 0.865070223808, Q2 : 0.0593654811382, Q3 : -0.131339594722, Q4 : 0.48049890995}
2019-04-14 21:01:41.31: SIM {TimeUS : 59134670, Roll : -1.16, Pitch : -16.55, Yaw : 57.99, Alt : 49.2900009155, Lat : 49.2836227, Lng : -123.1149062, Q1 : 0.866184711456, Q2 : 0.0609868839383, Q3 : -0.130799114704, Q4 : 0.478430986404}
2019-04-14 21:01:41.41: SIM {TimeUS : 59234630, Roll : -0.83, Pitch : -16.59, Yaw : 57.52, Alt : 49.2900009155, Lat : 49.2836248, Lng : -123.1149019, Q1 : 0.867928683758, Q2 : 0.0631269365549, Q3 : -0.129985645413, Q4 : 0.475203692913}
2019-04-14 21:01:41.51: SIM {TimeUS : 59334590, Roll : -0.46, Pitch : -16.64, Yaw : 56.96, Alt : 49.2900009155, Lat : 49.2836268, Lng : -123.1148975, Q1 : 0.86998295784, Q2 : 0.065497033298, Q3 : -0.129097819328, Q4 : 0.471352815628}
2019-04-14 21:01:41.61: SIM {TimeUS : 59435383, Roll : -0.09, Pitch : -16.68, Yaw : 56.38, Alt : 49.2900009155, Lat : 49.2836287, Lng : -123.114893, Q1 : 0.87208366394, Q2 : 0.0678280442953, Q3 : -0.128234162927, Q4 : 0.467360168695}
2019-04-14 21:01:41.71: SIM {TimeUS : 59535343, Roll : 0.23, Pitch : -16.71, Yaw : 55.86, Alt : 49.2900009155, Lat : 49.2836308, Lng : -123.1148885, Q1 : 0.873969554901, Q2 : 0.069846779108, Q3 : -0.12746322155, Q4 : 0.463736742735}
2019-04-14 21:01:41.81: SIM {TimeUS : 59635303, Roll : 0.48, Pitch : -16.74, Yaw : 55.44, Alt : 49.2900009155, Lat : 49.2836329, Lng : -123.114884, Q1 : 0.87548571825, Q2 : 0.0714402645826, Q3 : -0.126932382584, Q4 : 0.460770279169}
2019-04-14 21:01:41.91: SIM {TimeUS : 59735263, Roll : 0.64, Pitch : -16.77, Yaw : 55.14, Alt : 49.2900009155, Lat : 49.2836348, Lng : -123.1148794, Q1 : 0.876548051834, Q2 : 0.0724224150181, Q3 : -0.126690745354, Q4 : 0.45865881443}
2019-04-14 21:01:42.01: SIM {TimeUS : 59835223, Roll : 0.69, Pitch : -16.8, Yaw : 54.98, Alt : 49.2900009155, Lat : 49.283637, Lng : -123.1148748, Q1 : 0.8771302104, Q2 : 0.0727905035019, Q3 : -0.126821279526, Q4 : 0.457450002432}
2019-04-14 21:01:42.11: SIM {TimeUS : 59935183, Roll : 0.66, Pitch : -16.84, Yaw : 54.94, Alt : 49.2900009155, Lat : 49.283639, Lng : -123.1148701, Q1 : 0.877241969109, Q2 : 0.0726956054568, Q3 : -0.12731872499, Q4 : 0.45711261034}
2019-04-14 21:01:42.21: SIM {TimeUS : 60035143, Roll : 0.56, Pitch : -16.89, Yaw : 55.01, Alt : 49.2900009155, Lat : 49.283641, Lng : -123.1148654, Q1 : 0.876963436604, Q2 : 0.0722068324685, Q3 : -0.128062754869, Q4 : 0.457516461611}
2019-04-14 21:01:42.31: SIM {TimeUS : 60135103, Roll : 0.4, Pitch : -16.94, Yaw : 55.16, Alt : 49.2999992371, Lat : 49.2836432, Lng : -123.1148607, Q1 : 0.87641865015, Q2 : 0.0713356509805, Q3 : -0.128927662969, Q4 : 0.458453148603}
2019-04-14 21:01:42.41: SIM {TimeUS : 60235063, Roll : 0.22, Pitch : -16.96, Yaw : 55.36, Alt : 49.2999992371, Lat : 49.2836452, Lng : -123.1148559, Q1 : 0.87571823597, Q2 : 0.0702572017908, Q3 : -0.12972253561, Q4 : 0.459732115269}
2019-04-14 21:01:42.51: SIM {TimeUS : 60335023, Roll : 0.04, Pitch : -16.99, Yaw : 55.57, Alt : 49.2999992371, Lat : 49.2836474, Lng : -123.1148511, Q1 : 0.874948441982, Q2 : 0.0692260041833, Q3 : -0.130519121885, Q4 : 0.461126595736}
2019-04-14 21:01:42.61: SIM {TimeUS : 60434983, Roll : -0.09, Pitch : -17.03, Yaw : 55.77, Alt : 49.2999992371, Lat : 49.2836494, Lng : -123.1148463, Q1 : 0.874188899994, Q2 : 0.068562053144, Q3 : -0.13124512136, Q4 : 0.462458372116}
2019-04-14 21:01:42.71: SIM {TimeUS : 60534943, Roll : -0.18, Pitch : -17.07, Yaw : 55.93, Alt : 49.2999992371, Lat : 49.2836517, Lng : -123.1148414, Q1 : 0.873530685902, Q2 : 0.0682222768664, Q3 : -0.131877720356, Q4 : 0.463571101427}
2019-04-14 21:01:42.81: SIM {TimeUS : 60634903, Roll : -0.23, Pitch : -17.12, Yaw : 56.05, Alt : 49.2999992371, Lat : 49.2836537, Lng : -123.1148365, Q1 : 0.873045384884, Q2 : 0.06818382442, Q3 : -0.132343232632, Q4 : 0.464357614517}
2019-04-14 21:01:42.91: SIM {TimeUS : 60734863, Roll : -0.23, Pitch : -17.16, Yaw : 56.1, Alt : 49.2999992371, Lat : 49.283656, Lng : -123.1148315, Q1 : 0.872761189938, Q2 : 0.0684123784304, Q3 : -0.132640078664, Q4 : 0.46477329731}
2019-04-14 21:01:43.01: SIM {TimeUS : 60834823, Roll : -0.21, Pitch : -17.19, Yaw : 56.11, Alt : 49.2999992371, Lat : 49.2836582, Lng : -123.1148267, Q1 : 0.872690856457, Q2 : 0.0687074735761, Q3 : -0.132819592953, Q4 : 0.464810669422}
2019-04-14 21:01:43.11: SIM {TimeUS : 60934783, Roll : -0.19, Pitch : -17.21, Yaw : 56.07, Alt : 49.2999992371, Lat : 49.2836603, Lng : -123.1148218, Q1 : 0.872828781605, Q2 : 0.0688691958785, Q3 : -0.132878243923, Q4 : 0.464510828257}
2019-04-14 21:01:43.21: SIM {TimeUS : 61034743, Roll : -0.17, Pitch : -17.22, Yaw : 55.99, Alt : 49.2999992371, Lat : 49.2836626, Lng : -123.1148168, Q1 : 0.87311899662, Q2 : 0.0689996480942, Q3 : -0.1329138726, Q4 : 0.46393558383}
2019-04-14 21:01:43.31: SIM {TimeUS : 61134703, Roll : -0.11, Pitch : -17.23, Yaw : 55.89, Alt : 49.3100013733, Lat : 49.2836647, Lng : -123.1148118, Q1 : 0.873494267464, Q2 : 0.0693497285247, Q3 : -0.132813349366, Q4 : 0.463205099106}
2019-04-14 21:01:43.41: SIM {TimeUS : 61234663, Roll : -0.04, Pitch : -17.25, Yaw : 55.77, Alt : 49.3100013733, Lat : 49.283667, Lng : -123.1148068, Q1 : 0.873893380165, Q2 : 0.0698281377554, Q3 : -0.132771372795, Q4 : 0.46239182353}
2019-04-14 21:01:43.51: SIM {TimeUS : 61334623, Roll : 0.04, Pitch : -17.29, Yaw : 55.65, Alt : 49.3100013733, Lat : 49.2836692, Lng : -123.1148018, Q1 : 0.874257445335, Q2 : 0.0705167204142, Q3 : -0.132812798023, Q4 : 0.461586505175}
2019-04-14 21:01:43.61: SIM {TimeUS : 61434583, Roll : 0.12, Pitch : -17.35, Yaw : 55.55, Alt : 49.3100013733, Lat : 49.2836714, Lng : -123.1147968, Q1 : 0.874551653862, Q2 : 0.0712791010737, Q3 : -0.132981300354, Q4 : 0.460862994194}
2019-04-14 21:01:43.71: SIM {TimeUS : 61535376, Roll : 0.18, Pitch : -17.38, Yaw : 55.47, Alt : 49.3100013733, Lat : 49.2836736, Lng : -123.1147917, Q1 : 0.874817371368, Q2 : 0.071752615273, Q3 : -0.133018180728, Q4 : 0.460274159908}
2019-04-14 21:01:43.81: SIM {TimeUS : 61635336, Roll : 0.21, Pitch : -17.37, Yaw : 55.41, Alt : 49.3100013733, Lat : 49.283676, Lng : -123.1147865, Q1 : 0.875048935413, Q2 : 0.0718930065632, Q3 : -0.132849648595, Q4 : 0.459860622883}
2019-04-14 21:01:43.91: SIM {TimeUS : 61735296, Roll : 0.21, Pitch : -17.37, Yaw : 55.37, Alt : 49.3100013733, Lat : 49.2836782, Lng : -123.1147815, Q1 : 0.875201404095, Q2 : 0.071819730103, Q3 : -0.132861182094, Q4 : 0.459578454494}
2019-04-14 21:01:44.01: SIM {TimeUS : 61835256, Roll : 0.19, Pitch : -17.39, Yaw : 55.35, Alt : 49.3100013733, Lat : 49.2836804, Lng : -123.1147764, Q1 : 0.875255525112, Q2 : 0.0717309340835, Q3 : -0.133122771978, Q4 : 0.459413558245}
2019-04-14 21:01:44.11: SIM {TimeUS : 61935216, Roll : 0.17, Pitch : -17.42, Yaw : 55.35, Alt : 49.3100013733, Lat : 49.2836828, Lng : -123.1147713, Q1 : 0.875237524509, Q2 : 0.071716979146, Q3 : -0.133413732052, Q4 : 0.459365606308}
2019-04-14 21:01:44.21: SIM {TimeUS : 62035176, Roll : 0.15, Pitch : -17.45, Yaw : 55.36, Alt : 49.3100013733, Lat : 49.2836851, Lng : -123.1147661, Q1 : 0.875169694424, Q2 : 0.0717165097594, Q3 : -0.133744701743, Q4 : 0.459398686886}
2019-04-14 21:01:44.31: SIM {TimeUS : 62135136, Roll : 0.13, Pitch : -17.48, Yaw : 55.38, Alt : 49.3100013733, Lat : 49.2836872, Lng : -123.114761, Q1 : 0.87508046627, Q2 : 0.0716651678085, Q3 : -0.134036421776, Q4 : 0.459491640329}
2019-04-14 21:01:44.41: SIM {TimeUS : 62235096, Roll : 0.11, Pitch : -17.5, Yaw : 55.4, Alt : 49.3100013733, Lat : 49.2836895, Lng : -123.1147558, Q1 : 0.874982595444, Q2 : 0.0716503635049, Q3 : -0.134291067719, Q4 : 0.459606021643}
2019-04-14 21:01:44.51: SIM {TimeUS : 62335056, Roll : 0.1, Pitch : -17.52, Yaw : 55.42, Alt : 49.3199996948, Lat : 49.2836919, Lng : -123.1147506, Q1 : 0.874897539616, Q2 : 0.0716688409448, Q3 : -0.134420081973, Q4 : 0.459727227688}
2019-04-14 21:01:44.61: SIM {TimeUS : 62435016, Roll : 0.11, Pitch : -17.53, Yaw : 55.43, Alt : 49.3199996948, Lat : 49.2836942, Lng : -123.1147454, Q1 : 0.87482303381, Q2 : 0.0717642232776, Q3 : -0.134514659643, Q4 : 0.459826499224}
2019-04-14 21:01:44.71: SIM {TimeUS : 62534976, Roll : 0.12, Pitch : -17.56, Yaw : 55.44, Alt : 49.3199996948, Lat : 49.2836965, Lng : -123.1147402, Q1 : 0.87475758791, Q2 : 0.0719451084733, Q3 : -0.134672805667, Q4 : 0.459876418114}
2019-04-14 21:01:44.81: SIM {TimeUS : 62634936, Roll : 0.11, Pitch : -17.6, Yaw : 55.44, Alt : 49.3199996948, Lat : 49.2836989, Lng : -123.114735, Q1 : 0.87472474575, Q2 : 0.0720652043819, Q3 : -0.134961739182, Q4 : 0.459835380316}
2019-04-14 21:01:44.91: SIM {TimeUS : 62734896, Roll : 0.09, Pitch : -17.64, Yaw : 55.43, Alt : 49.3199996948, Lat : 49.2837011, Lng : -123.1147297, Q1 : 0.874728083611, Q2 : 0.0720339491963, Q3 : -0.13543137908, Q4 : 0.459695756435}
2019-04-14 21:01:45.01: SIM {TimeUS : 62834856, Roll : 0.07, Pitch : -17.69, Yaw : 55.41, Alt : 49.3199996948, Lat : 49.2837034, Lng : -123.1147245, Q1 : 0.87475079298, Q2 : 0.0720783695579, Q3 : -0.135863557458, Q4 : 0.459518104792}
2019-04-14 21:01:45.11: SIM {TimeUS : 62934816, Roll : 0.09, Pitch : -17.72, Yaw : 55.39, Alt : 49.3199996948, Lat : 49.2837058, Lng : -123.1147192, Q1 : 0.874789595604, Q2 : 0.0723089128733, Q3 : -0.13606800139, Q4 : 0.459347456694}
2019-04-14 21:01:45.21: SIM {TimeUS : 63034776, Roll : 0.11, Pitch : -17.72, Yaw : 55.36, Alt : 49.3199996948, Lat : 49.2837082, Lng : -123.114714, Q1 : 0.874874532223, Q2 : 0.0724976807833, Q3 : -0.135977610946, Q4 : 0.459182649851}
2019-04-14 21:01:45.31: SIM {TimeUS : 63134736, Roll : 0.14, Pitch : -17.7, Yaw : 55.33, Alt : 49.3199996948, Lat : 49.2837105, Lng : -123.1147087, Q1 : 0.87499833107, Q2 : 0.0725870728493, Q3 : -0.135669052601, Q4 : 0.459023952484}
2019-04-14 21:01:45.41: SIM {TimeUS : 63234696, Roll : 0.15, Pitch : -17.68, Yaw : 55.31, Alt : 49.3199996948, Lat : 49.2837129, Lng : -123.1147034, Q1 : 0.875122904778, Q2 : 0.0725435987115, Q3 : -0.135492131114, Q4 : 0.458845645189}
2019-04-14 21:01:45.51: SIM {TimeUS : 63334656, Roll : 0.16, Pitch : -17.66, Yaw : 55.28, Alt : 49.3199996948, Lat : 49.2837151, Lng : -123.1146981, Q1 : 0.875243484974, Q2 : 0.0724754631519, Q3 : -0.135360345244, Q4 : 0.458665192127}
2019-04-14 21:01:45.61: SIM {TimeUS : 63434616, Roll : 0.15, Pitch : -17.64, Yaw : 55.26, Alt : 49.3199996948, Lat : 49.2837175, Lng : -123.1146927, Q1 : 0.875360250473, Q2 : 0.0723621025681, Q3 : -0.135279729962, Q4 : 0.458483934402}
2019-04-14 21:01:45.71: SIM {TimeUS : 63534576, Roll : 0.15, Pitch : -17.66, Yaw : 55.24, Alt : 49.3199996948, Lat : 49.2837199, Lng : -123.1146874, Q1 : 0.875438332558, Q2 : 0.0723300948739, Q3 : -0.135406553745, Q4 : 0.458302408457}
2019-04-14 21:01:45.81: SIM {TimeUS : 63635369, Roll : 0.14, Pitch : -17.69, Yaw : 55.22, Alt : 49.3199996948, Lat : 49.2837223, Lng : -123.1146819, Q1 : 0.875479340553, Q2 : 0.072403177619, Q3 : -0.135688781738, Q4 : 0.45812907815}
2019-04-14 21:01:45.91: SIM {TimeUS : 63735329, Roll : 0.13, Pitch : -17.74, Yaw : 55.2, Alt : 49.3199996948, Lat : 49.2837247, Lng : -123.1146767, Q1 : 0.875478625298, Q2 : 0.0725339800119, Q3 : -0.136159613729, Q4 : 0.457970052958}
2019-04-14 21:01:46.01: SIM {TimeUS : 63835289, Roll : 0.13, Pitch : -17.81, Yaw : 55.19, Alt : 49.3300018311, Lat : 49.2837271, Lng : -123.1146713, Q1 : 0.875457346439, Q2 : 0.0727187395096, Q3 : -0.136663764715, Q4 : 0.457831263542}
2019-04-14 21:01:46.11: SIM {TimeUS : 63935249, Roll : 0.13, Pitch : -17.84, Yaw : 55.18, Alt : 49.3300018311, Lat : 49.2837295, Lng : -123.114666, Q1 : 0.875450015068, Q2 : 0.0728978663683, Q3 : -0.136902034283, Q4 : 0.457745552063}
2019-04-14 21:01:46.21: SIM {TimeUS : 64035209, Roll : 0.13, Pitch : -17.87, Yaw : 55.17, Alt : 49.3300018311, Lat : 49.2837319, Lng : -123.1146606, Q1 : 0.875453829765, Q2 : 0.0729806274176, Q3 : -0.137134045362, Q4 : 0.457655668259}
2019-04-14 21:01:46.31: SIM {TimeUS : 64135169, Roll : 0.13, Pitch : -17.88, Yaw : 55.16, Alt : 49.3300018311, Lat : 49.2837342, Lng : -123.1146552, Q1 : 0.875478744507, Q2 : 0.0729761570692, Q3 : -0.137256637216, Q4 : 0.45757201314}
2019-04-14 21:01:46.41: SIM {TimeUS : 64235129, Roll : 0.14, Pitch : -17.87, Yaw : 55.15, Alt : 49.3300018311, Lat : 49.2837366, Lng : -123.1146499, Q1 : 0.875520706177, Q2 : 0.0730201378465, Q3 : -0.137095838785, Q4 : 0.457532823086}
2019-04-14 21:01:46.51: SIM {TimeUS : 64335089, Roll : 0.17, Pitch : -17.87, Yaw : 55.14, Alt : 49.3300018311, Lat : 49.283739, Lng : -123.1146445, Q1 : 0.875537157059, Q2 : 0.0732181891799, Q3 : -0.137014552951, Q4 : 0.457494050264}
2019-04-14 21:01:46.61: SIM {TimeUS : 64435049, Roll : 0.18, Pitch : -17.88, Yaw : 55.14, Alt : 49.3300018311, Lat : 49.2837413, Lng : -123.1146391, Q1 : 0.875546216965, Q2 : 0.0733729079366, Q3 : -0.137088760734, Q4 : 0.457429617643}
2019-04-14 21:01:46.71: SIM {TimeUS : 64535009, Roll : 0.19, Pitch : -17.9, Yaw : 55.13, Alt : 49.3300018311, Lat : 49.2837437, Lng : -123.1146337, Q1 : 0.875560462475, Q2 : 0.0734863653779, Q3 : -0.137173429132, Q4 : 0.45735886693}
2019-04-14 21:01:46.81: SIM {TimeUS : 64634969, Roll : 0.19, Pitch : -17.9, Yaw : 55.12, Alt : 49.3300018311, Lat : 49.2837461, Lng : -123.1146282, Q1 : 0.87560325861, Q2 : 0.0734808444977, Q3 : -0.137185364962, Q4 : 0.457274228334}
2019-04-14 21:01:46.91: SIM {TimeUS : 64734929, Roll : 0.18, Pitch : -17.9, Yaw : 55.1, Alt : 49.3300018311, Lat : 49.2837486, Lng : -123.1146228, Q1 : 0.875658333302, Q2 : 0.0733739957213, Q3 : -0.13725861907, Q4 : 0.457163959742}
2019-04-14 21:01:47.01: SIM {TimeUS : 64834889, Roll : 0.15, Pitch : -17.93, Yaw : 55.09, Alt : 49.3300018311, Lat : 49.283751, Lng : -123.1146174, Q1 : 0.875703811646, Q2 : 0.0732303410769, Q3 : -0.137559011579, Q4 : 0.457009464502}
2019-04-14 21:01:47.11: SIM {TimeUS : 64934849, Roll : 0.11, Pitch : -17.97, Yaw : 55.07, Alt : 49.3300018311, Lat : 49.2837534, Lng : -123.114612, Q1 : 0.875735282898, Q2 : 0.0731279924512, Q3 : -0.138013616204, Q4 : 0.456828504801}
2019-04-14 21:01:47.21: SIM {TimeUS : 65034809, Roll : 0.1, Pitch : -17.98, Yaw : 55.06, Alt : 49.3300018311, Lat : 49.2837558, Lng : -123.1146065, Q1 : 0.875793755054, Q2 : 0.0730722472072, Q3 : -0.138142570853, Q4 : 0.456686258316}
2019-04-14 21:01:47.31: SIM {TimeUS : 65134769, Roll : 0.12, Pitch : -17.96, Yaw : 55.04, Alt : 49.3300018311, Lat : 49.2837582, Lng : -123.114601, Q1 : 0.875862181187, Q2 : 0.0731201544404, Q3 : -0.138004183769, Q4 : 0.456589251757}
2019-04-14 21:01:47.41: SIM {TimeUS : 65234729, Roll : 0.14, Pitch : -17.96, Yaw : 55.03, Alt : 49.3300018311, Lat : 49.2837607, Lng : -123.1145956, Q1 : 0.875918090343, Q2 : 0.0732601732016, Q3 : -0.137846782804, Q4 : 0.456507056952}
2019-04-14 21:01:47.51: SIM {TimeUS : 65334689, Roll : 0.16, Pitch : -17.96, Yaw : 55.01, Alt : 49.3400001526, Lat : 49.2837631, Lng : -123.1145902, Q1 : 0.875959157944, Q2 : 0.0733925774693, Q3 : -0.137839257717, Q4 : 0.456409335136}
2019-04-14 21:01:47.61: SIM {TimeUS : 65434649, Roll : 0.16, Pitch : -17.98, Yaw : 55.0, Alt : 49.3400001526, Lat : 49.2837655, Lng : -123.1145847, Q1 : 0.875992417336, Q2 : 0.0734112933278, Q3 : -0.138005435467, Q4 : 0.456292212009}
2019-04-14 21:01:47.71: SIM {TimeUS : 65534609, Roll : 0.14, Pitch : -18.0, Yaw : 54.99, Alt : 49.3400001526, Lat : 49.283768, Lng : -123.1145792, Q1 : 0.87602776289, Q2 : 0.0733182132244, Q3 : -0.138247102499, Q4 : 0.456166118383}
2019-04-14 21:01:47.81: SIM {TimeUS : 65635402, Roll : 0.12, Pitch : -18.02, Yaw : 54.98, Alt : 49.3400001526, Lat : 49.2837704, Lng : -123.1145737, Q1 : 0.876062810421, Q2 : 0.0732520148158, Q3 : -0.138430655003, Q4 : 0.456053763628}
2019-04-14 21:01:47.91: SIM {TimeUS : 65735362, Roll : 0.12, Pitch : -18.03, Yaw : 54.96, Alt : 49.3400001526, Lat : 49.2837729, Lng : -123.1145682, Q1 : 0.876089930534, Q2 : 0.0733219236135, Q3 : -0.138540402055, Q4 : 0.455957144499}
2019-04-14 21:01:48.01: SIM {TimeUS : 65835322, Roll : 0.13, Pitch : -18.04, Yaw : 54.95, Alt : 49.3400001526, Lat : 49.2837753, Lng : -123.1145627, Q1 : 0.876116216183, Q2 : 0.0734230354428, Q3 : -0.138580873609, Q4 : 0.455878049135}
2019-04-14 21:01:48.11: SIM {TimeUS : 65935282, Roll : 0.16, Pitch : -18.05, Yaw : 54.94, Alt : 49.3400001526, Lat : 49.2837778, Lng : -123.1145573, Q1 : 0.876118063927, Q2 : 0.0736701861024, Q3 : -0.138553783298, Q4 : 0.45584282279}
2019-04-14 21:01:48.21: SIM {TimeUS : 66035242, Roll : 0.18, Pitch : -18.07, Yaw : 54.94, Alt : 49.3400001526, Lat : 49.2837802, Lng : -123.1145518, Q1 : 0.876109838486, Q2 : 0.073872834444, Q3 : -0.138607904315, Q4 : 0.455809444189}
2019-04-14 21:01:48.31: SIM {TimeUS : 66135202, Roll : 0.2, Pitch : -18.09, Yaw : 54.93, Alt : 49.3400001526, Lat : 49.2837828, Lng : -123.1145463, Q1 : 0.876095175743, Q2 : 0.0740929916501, Q3 : -0.13868701458, Q4 : 0.45577776432}
2019-04-14 21:01:48.41: SIM {TimeUS : 66235162, Roll : 0.22, Pitch : -18.11, Yaw : 54.93, Alt : 49.3400001526, Lat : 49.2837851, Lng : -123.1145408, Q1 : 0.876079678535, Q2 : 0.07430306077, Q3 : -0.138760760427, Q4 : 0.455750912428}
2019-04-14 21:01:48.51: SIM {TimeUS : 66335122, Roll : 0.24, Pitch : -18.12, Yaw : 54.92, Alt : 49.3400001526, Lat : 49.2837877, Lng : -123.1145353, Q1 : 0.876063942909, Q2 : 0.0745461061597, Q3 : -0.138765841722, Q4 : 0.455739974976}
2019-04-14 21:01:48.61: SIM {TimeUS : 66435082, Roll : 0.27, Pitch : -18.13, Yaw : 54.92, Alt : 49.3400001526, Lat : 49.2837901, Lng : -123.1145298, Q1 : 0.876042068005, Q2 : 0.0748098492622, Q3 : -0.138764709234, Q4 : 0.455739170313}
2019-04-14 21:01:48.71: SIM {TimeUS : 66535042, Roll : 0.26, Pitch : -18.13, Yaw : 54.92, Alt : 49.3499984741, Lat : 49.2837926, Lng : -123.1145243, Q1 : 0.876069664955, Q2 : 0.0746739283204, Q3 : -0.138770088553, Q4 : 0.455706715584}
