2019-04-14 23:42:57.20: SIM {TimeUS : 40616247, Roll : 0.0, Pitch : 0.0, Yaw : 0.0, Alt : 30.1000003815, Lat : 49.28357, Lng : -123.11502, Q1 : 1.0, Q2 : 0.0, Q3 : 0.0, Q4 : 0.0}
2019-04-14 23:42:57.31: SIM {TimeUS : 40735366, Roll : 0.0, Pitch : 0.0, Yaw : 0.0, Alt : 30.1000003815, Lat : 49.28357, Lng : -123.11502, Q1 : 1.0, Q2 : 0.0, Q3 : 0.0, Q4 : 0.0}
2019-04-14 23:42:57.41: SIM {TimeUS : 40835326, Roll : 0.0, Pitch : 0.0, Yaw : 0.0, Alt : 30.1000003815, Lat : 49.28357, Lng : -123.11502, Q1 : 1.0, Q2 : 0.0, Q3 : 0.0, Q4 : 0.0}
2019-04-14 23:42:57.51: SIM {TimeUS : 40935286, Roll : 0.0, Pitch : 0.0, Yaw : 0.0, Alt : 30.1000003815, Lat : 49.28357, Lng : -123.11502, Q1 : 1.0, Q2 : 0.0, Q3 : 0.0, Q4 : 0.0}
2019-04-14 23:42:57.61: SIM {TimeUS : 41035246, Roll : 0.0, Pitch : 0.0, Yaw : 0.0, Alt : 30.1000003815, Lat : 49.28357, Lng : -123.11502, Q1 : 1.0, Q2 : 0.0, Q3 : 0.0, Q4 : 0.0}
2019-04-14 23:42:57.71: SIM {TimeUS : 41135206, Roll : 0.0, Pitch : 0.0, Yaw : 0.0, Alt : 30.1000003815, Lat : 49.28357, Lng : -123.11502, Q1 : 1.0, Q2 : 0.0, Q3 : 0.0, Q4 : 0.0}
2019-04-14 23:42:57.81: SIM {TimeUS : 41235166, Roll : 0.0, Pitch : 0.0, Yaw : 0.0, Alt : 30.1000003815, Lat : 49.28357, Lng : -123.11502, Q1 : 1.0, Q2 : 0.0, Q3 : 0.0, Q4 : 0.0}
2019-04-14 23:42:57.91: SIM {TimeUS : 41335126, Roll : 0.0, Pitch : 0.0, Yaw : 0.0, Alt : 30.1000003815, Lat : 49.28357, Lng : -123.11502, Q1 : 1.0, Q2 : 0.0, Q3 : 0.0, Q4 : 0.0}
2019-04-14 23:42:58.01: SIM {TimeUS : 41435086, Roll : 0.0, Pitch : 0.0, Yaw : 0.0, Alt : 30.1000003815, Lat : 49.28357, Lng : -123.11502, Q1 : 1.0, Q2 : 0.0, Q3 : 0.0, Q4 : 0.0}
2019-04-14 23:42:58.11: SIM {TimeUS : 41535046, Roll : 0.0, Pitch : 0.0, Yaw : 0.0, Alt : 30.1000003815, Lat : 49.28357, Lng : -123.11502, Q1 : 1.0, Q2 : 0.0, Q3 : 0.0, Q4 : 0.0}
2019-04-14 23:42:58.21: SIM {TimeUS : 41635006, Roll : 0.0, Pitch : 0.0, Yaw : 0.0, Alt : 30.1000003815, Lat : 49.28357, Lng : -123.11502, Q1 : 1.0, Q2 : 0.0, Q3 : 0.0, Q4 : 0.0}
2019-04-14 23:42:58.31: SIM {TimeUS : 41734966, Roll : 0.0, Pitch : 0.0, Yaw : 0.0, Alt : 30.1000003815, Lat : 49.28357, Lng : -123.11502, Q1 : 1.0, Q2 : 0.0, Q3 : 0.0, Q4 : 0.0}
2019-04-14 23:42:58.41: SIM {TimeUS : 41834926, Roll : 0.0, Pitch : 0.0, Yaw : 0.0, Alt : 30.1000003815, Lat : 49.28357, Lng : -123.11502, Q1 : 1.0, Q2 : 0.0, Q3 : 0.0, Q4 : 0.0}
2019-04-14 23:42:58.51: SIM {TimeUS : 41934886, Roll : 0.0, Pitch : 0.0, Yaw : 0.0, Alt : 30.1000003815, Lat : 49.28357, Lng : -123.11502, Q1 : 1.0, Q2 : 0.0, Q3 : 0.0, Q4 : 0.0}
2019-04-14 23:42:58.61: SIM {TimeUS : 42034846, Roll : 0.0, Pitch : 0.0, Yaw : 0.0, Alt : 30.1000003815, Lat : 49.28357, Lng : -123.11502, Q1 : 1.0, Q2 : 0.0, Q3 : 0.0, Q4 : 0.0}
2019-04-14 23:42:58.71: SIM {TimeUS : 42134806, Roll : 0.0, Pitch : 0.0, Yaw : 0.0, Alt : 30.1000003815, Lat : 49.28357, Lng : -123.11502, Q1 : 1.0, Q2 : 0.0, Q3 : 0.0, Q4 : 0.0}
2019-04-14 23:42:58.81: SIM {TimeUS : 42234766, Roll : 0.0, Pitch : 0.0, Yaw : 0.0, Alt : 30.1000003815, Lat : 49.28357, Lng : -123.11502, Q1 : 1.0, Q2 : 0.0, Q3 : 0.0, Q4 : 0.0}
2019-04-14 23:42:58.91: SIM {TimeUS : 42334726, Roll : 0.0, Pitch : 0.0, Yaw : 0.0, Alt : 30.1000003815, Lat : 49.28357, Lng : -123.11502, Q1 : 1.0, Q2 : 0.0, Q3 : 0.0, Q4 : 0.0}
2019-04-14 23:42:59.01: SIM {TimeUS : 42434686, Roll : 0.0, Pitch : 0.0, Yaw : 0.0, Alt : 30.1000003815, Lat : 49.28357, Lng : -123.11502, Q1 : 1.0, Q2 : 0.0, Q3 : 0.0, Q4 : 0.0}
2019-04-14 23:42:59.11: SIM {TimeUS : 42534646, Roll : 0.0, Pitch : 0.0, Yaw : 0.0, Alt : 30.1000003815, Lat : 49.28357, Lng : -123.11502, Q1 : 1.0, Q2 : 0.0, Q3 : 0.0, Q4 : 0.0}
2019-04-14 23:42:59.21: SIM {TimeUS : 42634606, Roll : 0.0, Pitch : 0.0, Yaw : 0.0, Alt : 30.1000003815, Lat : 49.28357, Lng : -123.11502, Q1 : 1.0, Q2 : 0.0, Q3 : 0.0, Q4 : 0.0}
2019-04-14 23:42:59.31: SIM {TimeUS : 42735399, Roll : 0.0, Pitch : 0.0, Yaw : 0.0, Alt : 30.1000003815, Lat : 49.28357, Lng : -123.11502, Q1 : 1.0, Q2 : 0.0, Q3 : 0.0, Q4 : 0.0}
2019-04-14 23:42:59.41: SIM {TimeUS : 42835359, Roll : 0.0, Pitch : 0.0, Yaw : 0.0, Alt : 30.1000003815, Lat : 49.28357, Lng : -123.11502, Q1 : 1.0, Q2 : 0.0, Q3 : 0.0, Q4 : 0.0}
2019-04-14 23:42:59.51: SIM {TimeUS : 42935319, Roll : 0.0, Pitch : 0.0, Yaw : 360.0, Alt : 30.1000003815, Lat : 49.28357, Lng : -123.11502, Q1 : 1.0, Q2 : 0.0, Q3 : 0.0, Q4 : -2.34232576911e-12}
2019-04-14 23:42:59.61: SIM {TimeUS : 43035279, Roll : 0.0, Pitch : 0.0, Yaw : 360.0, Alt : 30.1000003815, Lat : 49.28357, Lng : -123.11502, Q1 : 1.0, Q2 : 0.0, Q3 : 0.0, Q4 : -1.59578156245e-10}
2019-04-14 23:42:59.71: SIM {TimeUS : 43135239, Roll : 0.0, Pitch : 0.0, Yaw : 360.0, Alt : 30.1000003815, Lat : 49.28357, Lng : -123.11502, Q1 : 1.0, Q2 : 0.0, Q3 : 0.0, Q4 : -8.89988100994e-08}
2019-04-14 23:42:59.81: SIM {TimeUS : 43235199, Roll : 0.0, Pitch : 0.0, Yaw : 359.99, Alt : 30.1000003815, Lat : 49.28357, Lng : -123.11502, Q1 : 1.0, Q2 : 0.0, Q3 : 0.0, Q4 : -2.58155722577e-07}
2019-04-14 23:42:59.91: SIM {TimeUS : 43335159, Roll : 0.0, Pitch : 0.0, Yaw : 359.99, Alt : 30.1000003815, Lat : 49.28357, Lng : -123.11502, Q1 : 1.0, Q2 : 0.0, Q3 : 0.0, Q4 : -4.10636715742e-07}
2019-04-14 23:43:00.01: SIM {TimeUS : 43435119, Roll : 0.0, Pitch : 0.0, Yaw : 359.99, Alt : 30.1000003815, Lat : 49.28357, Lng : -123.11502, Q1 : 1.0, Q2 : 0.0, Q3 : 0.0, Q4 : -6.24839572083e-07}
2019-04-14 23:43:00.11: SIM {TimeUS : 43535079, Roll : 0.0, Pitch : 0.0, Yaw : 359.99, Alt : 30.1000003815, Lat : 49.28357, Lng : -123.11502, Q1 : 1.0, Q2 : 0.0, Q3 : 0.0, Q4 : -8.13781298348e-07}
2019-04-14 23:43:00.21: SIM {TimeUS : 43635039, Roll : 0.0, Pitch : 0.0, Yaw : 359.99, Alt : 30.1000003815, Lat : 49.28357, Lng : -123.11502, Q1 : 1.0, Q2 : 0.0, Q3 : 0.0, Q4 : -9.67463620327e-07}
2019-04-14 23:43:00.31: SIM {TimeUS : 43734999, Roll : 0.0, Pitch : 0.0, Yaw : 359.99, Alt : 30.1000003815, Lat : 49.28357, Lng : -123.11502, Q1 : 1.0, Q2 : 0.0, Q3 : 0.0, Q4 : -1.15554598779e-06}
2019-04-14 23:43:00.41: SIM {TimeUS : 43834959, Roll : 0.0, Pitch : 0.0, Yaw : 359.99, Alt : 30.1100006104, Lat : 49.28357, Lng : -123.11502, Q1 : 1.0, Q2 : 0.0, Q3 : 0.0, Q4 : -1.35581569793e-06}
2019-04-14 23:43:00.51: SIM {TimeUS : 43934919, Roll : 0.0, Pitch : 0.0, Yaw : 359.99, Alt : 30.1299991608, Lat : 49.28357, Lng : -123.11502, Q1 : 1.0, Q2 : 0.0, Q3 : 0.0, Q4 : -1.54774386374e-06}
2019-04-14 23:43:00.61: SIM {TimeUS : 44034879, Roll : 0.0, Pitch : 0.0, Yaw : 359.99, Alt : 30.1599998474, Lat : 49.28357, Lng : -123.11502, Q1 : 1.0, Q2 : 0.0, Q3 : 0.0, Q4 : -1.74805222741e-06}
2019-04-14 23:43:00.71: SIM {TimeUS : 44134839, Roll : 0.0, Pitch : 0.0, Yaw : 359.99, Alt : 30.1900005341, Lat : 49.28357, Lng : -123.11502, Q1 : 1.0, Q2 : 0.0, Q3 : 0.0, Q4 : -2.0265817966e-06}
2019-04-14 23:43:00.81: SIM {TimeUS : 44234799, Roll : -0.03, Pitch : -0.03, Yaw : 359.99, Alt : 30.2299995422, Lat : 49.28357, Lng : -123.11502, Q1 : 0.999999880791, Q2 : -0.000323811691487, Q3 : -0.000272668199614, Q4 : -4.02729210691e-06}
2019-04-14 23:43:00.91: SIM {TimeUS : 44334759, Roll : -0.29, Pitch : -0.24, Yaw : 359.99, Alt : 30.3099994659, Lat : 49.28357, Lng : -123.11502, Q1 : 0.999994397163, Q2 : -0.00254851137288, Q3 : -0.00217133481055, Q4 : -2.59769167315e-05}
2019-04-14 23:43:01.01: SIM {TimeUS : 44434719, Roll : -0.58, Pitch : -0.53, Yaw : 359.99, Alt : 30.4400005341, Lat : 49.28357, Lng : -123.11502, Q1 : 0.999976277351, Q2 : -0.00506823603064, Q3 : -0.00466588605195, Q4 : -7.18553055776e-05}
2019-04-14 23:43:01.11: SIM {TimeUS : 44534679, Roll : -0.77, Pitch : -0.72, Yaw : 359.98, Alt : 30.6000003815, Lat : 49.28357, Lng : -123.11502, Q1 : 0.99995714426, Q2 : -0.00673738820478, Q3 : -0.0063543128781, Q4 : -0.000139482668601}
2019-04-14 23:43:01.21: SIM {TimeUS : 44634639, Roll : -0.82, Pitch : -0.76, Yaw : 359.98, Alt : 30.7600002289, Lat : 49.28357, Lng : -123.11502, Q1 : 0.999951481819, Q2 : -0.00720072770491, Q3 : -0.00671467743814, Q4 : -0.000221575726755}
2019-04-14 23:43:01.31: SIM {TimeUS : 44734599, Roll : -0.73, Pitch : -0.68, Yaw : 359.96, Alt : 30.9099998474, Lat : 49.28357, Lng : -123.1150201, Q1 : 0.999961495399, Q2 : -0.00644909869879, Q3 : -0.00594710279256, Q4 : -0.000303760461975}
2019-04-14 23:43:01.41: SIM {TimeUS : 44835392, Roll : -0.55, Pitch : -0.5, Yaw : 359.95, Alt : 31.0599994659, Lat : 49.2835701, Lng : -123.1150201, Q1 : 0.999978363514, Q2 : -0.00483701331541, Q3 : -0.00443876022473, Q4 : -0.000378154887585}
2019-04-14 23:43:01.51: SIM {TimeUS : 44935352, Roll : -0.33, Pitch : -0.3, Yaw : 359.95, Alt : 31.2199993134, Lat : 49.2835701, Lng : -123.1150202, Q1 : 0.999992191792, Q2 : -0.00288600404747, Q3 : -0.00265661929734, Q4 : -0.000442376971478}
2019-04-14 23:43:01.61: SIM {TimeUS : 45035312, Roll : -0.12, Pitch : -0.12, Yaw : 359.94, Alt : 31.3899993896, Lat : 49.2835702, Lng : -123.1150203, Q1 : 0.999998688698, Q2 : -0.00105987838469, Q3 : -0.00112392380834, Q4 : -0.000490643549711}
2019-04-14 23:43:01.71: SIM {TimeUS : 45135272, Roll : 0.03, Pitch : 0.0, Yaw : 359.94, Alt : 31.5599994659, Lat : 49.2835702, Lng : -123.1150204, Q1 : 0.999999821186, Q2 : 0.000276062113699, Q3 : -7.7495998994e-05, Q4 : -0.000522540532984}
2019-04-14 23:43:01.81: SIM {TimeUS : 45235232, Roll : 0.1, Pitch : 0.05, Yaw : 359.93, Alt : 31.7299995422, Lat : 49.2835702, Lng : -123.1150205, Q1 : 0.999999344349, Q2 : 0.000878576072864, Q3 : 0.000491813174449, Q4 : -0.000536988954991}
2019-04-14 23:43:01.91: SIM {TimeUS : 45335192, Roll : 0.1, Pitch : 0.07, Yaw : 359.93, Alt : 31.9200000763, Lat : 49.2835703, Lng : -123.1150205, Q1 : 0.999999165535, Q2 : 0.000903898908291, Q3 : 0.00067500123987, Q4 : -0.000551308447029}
2019-04-14 23:43:02.01: SIM {TimeUS : 45435152, Roll : 0.07, Pitch : 0.08, Yaw : 359.93, Alt : 32.0999984741, Lat : 49.2835703, Lng : -123.1150206, Q1 : 0.999999344349, Q2 : 0.000669391127303, Q3 : 0.000757864443585, Q4 : -0.000559357460588}
2019-04-14 23:43:02.11: SIM {TimeUS : 45535112, Roll : 0.06, Pitch : 0.09, Yaw : 359.93, Alt : 32.2900009155, Lat : 49.2835703, Lng : -123.1150206, Q1 : 0.999999344349, Q2 : 0.000590201758314, Q3 : 0.000861201318912, Q4 : -0.000541364774108}
2019-04-14 23:43:02.21: SIM {TimeUS : 45635072, Roll : 0.07, Pitch : 0.1, Yaw : 359.94, Alt : 32.4799995422, Lat : 49.2835703, Lng : -123.1150207, Q1 : 0.99999922514, Q2 : 0.000642894825432, Q3 : 0.000908767979126, Q4 : -0.000517309119459}
2019-04-14 23:43:02.31: SIM {TimeUS : 45735032, Roll : 0.08, Pitch : 0.11, Yaw : 359.94, Alt : 32.6800003052, Lat : 49.2835703, Lng : -123.1150207, Q1 : 0.99999910593, Q2 : 0.000735633482691, Q3 : 0.000991785782389, Q4 : -0.000492273946293}
2019-04-14 23:43:02.41: SIM {TimeUS : 45834992, Roll : 0.1, Pitch : 0.14, Yaw : 359.94, Alt : 32.8699989319, Lat : 49.2835704, Lng : -123.1150208, Q1 : 0.999998688698, Q2 : 0.000877076236065, Q3 : 0.00128711969592, Q4 : -0.000462443742435}
2019-04-14 23:43:02.51: SIM {TimeUS : 45934952, Roll : 0.12, Pitch : 0.15, Yaw : 359.94, Alt : 33.0699996948, Lat : 49.2835704, Lng : -123.1150208, Q1 : 0.999998450279, Q2 : 0.0010695150122, Q3 : 0.00134645123035, Q4 : -0.000442126241978}
2019-04-14 23:43:02.61: SIM {TimeUS : 46034912, Roll : 0.14, Pitch : 0.14, Yaw : 359.95, Alt : 33.2799987793, Lat : 49.2835704, Lng : -123.1150208, Q1 : 0.999998271465, Q2 : 0.001257810276, Q3 : 0.00129539670888, Q4 : -0.000415918184444}
2019-04-14 23:43:02.71: SIM {TimeUS : 46134872, Roll : 0.15, Pitch : 0.14, Yaw : 359.95, Alt : 33.4799995422, Lat : 49.2835704, Lng : -123.1150208, Q1 : 0.999998152256, Q2 : 0.00139253365342, Q3 : 0.00124584301375, Q4 : -0.000402077799663}
2019-04-14 23:43:02.81: SIM {TimeUS : 46234832, Roll : 0.16, Pitch : 0.14, Yaw : 359.95, Alt : 33.6899986267, Lat : 49.2835704, Lng : -123.1150208, Q1 : 0.999998092651, Q2 : 0.00144508504309, Q3 : 0.00125963857863, Q4 : -0.000411462184275}
2019-04-14 23:43:02.91: SIM {TimeUS : 46334792, Roll : 0.17, Pitch : 0.15, Yaw : 359.95, Alt : 33.9000015259, Lat : 49.2835704, Lng : -123.1150208, Q1 : 0.999997854233, Q2 : 0.00151498545893, Q3 : 0.00133475323673, Q4 : -0.000430994987255}
2019-04-14 23:43:03.01: SIM {TimeUS : 46434752, Roll : 0.16, Pitch : 0.13, Yaw : 359.94, Alt : 34.1100006104, Lat : 49.2835704, Lng : -123.1150208, Q1 : 0.999998092651, Q2 : 0.00145580875687, Q3 : 0.00120534235612, Q4 : -0.000448560080258}
2019-04-14 23:43:03.11: SIM {TimeUS : 46534712, Roll : 0.14, Pitch : 0.11, Yaw : 359.94, Alt : 34.3199996948, Lat : 49.2835704, Lng : -123.1150208, Q1 : 0.999998509884, Q2 : 0.00127704150509, Q3 : 0.00103939662222, Q4 : -0.000464415817987}
2019-04-14 23:43:03.21: SIM {TimeUS : 46634672, Roll : 0.11, Pitch : 0.1, Yaw : 359.94, Alt : 34.5299987793, Lat : 49.2835704, Lng : -123.1150208, Q1 : 0.999998927116, Q2 : 0.00102038495243, Q3 : 0.000920321734156, Q4 : -0.00048688420793}
2019-04-14 23:43:03.31: SIM {TimeUS : 46734632, Roll : 0.08, Pitch : 0.09, Yaw : 359.94, Alt : 34.7400016785, Lat : 49.2835704, Lng : -123.1150208, Q1 : 0.999999284744, Q2 : 0.000761691189837, Q3 : 0.00080390018411, Q4 : -0.000512455590069}
2019-04-14 23:43:03.41: SIM {TimeUS : 46834592, Roll : 0.07, Pitch : 0.05, Yaw : 359.93, Alt : 34.9599990845, Lat : 49.2835704, Lng : -123.1150208, Q1 : 0.999999523163, Q2 : 0.000639518082608, Q3 : 0.000470651546493, Q4 : -0.000550274446141}
2019-04-14 23:43:03.51: SIM {TimeUS : 46935385, Roll : 0.06, Pitch : 0.02, Yaw : 359.93, Alt : 35.1800003052, Lat : 49.2835704, Lng : -123.1150208, Q1 : 0.999999642372, Q2 : 0.000565618742257, Q3 : 0.000179761540494, Q4 : -0.000598673475906}
2019-04-14 23:43:03.61: SIM {TimeUS : 47035345, Roll : 0.04, Pitch : 0.0, Yaw : 359.92, Alt : 35.3899993896, Lat : 49.2835704, Lng : -123.1150208, Q1 : 0.999999701977, Q2 : 0.000381781894248, Q3 : 1.62084779731e-05, Q4 : -0.000649490568321}
2019-04-14 23:43:03.71: SIM {TimeUS : 47135305, Roll : 0.02, Pitch : 0.0, Yaw : 359.92, Alt : 35.6100006104, Lat : 49.2835704, Lng : -123.1150208, Q1 : 0.999999761581, Q2 : 0.000254871090874, Q3 : 8.05638046586e-06, Q4 : -0.000693943758961}
2019-04-14 23:43:03.81: SIM {TimeUS : 47235265, Roll : 0.02, Pitch : 0.0, Yaw : 359.91, Alt : 35.8300018311, Lat : 49.2835704, Lng : -123.1150207, Q1 : 0.999999701977, Q2 : 0.000222752234549, Q3 : 6.66787454975e-05, Q4 : -0.000735178298783}
2019-04-14 23:43:03.91: SIM {TimeUS : 47335225, Roll : 0.0, Pitch : -0.01, Yaw : 359.91, Alt : 36.0499992371, Lat : 49.2835704, Lng : -123.1150207, Q1 : 0.999999701977, Q2 : 2.75924667221e-05, Q3 : -9.34637428145e-05, Q4 : -0.000769459176809}
2019-04-14 23:43:04.01: SIM {TimeUS : 47435185, Roll : -0.03, Pitch : -0.04, Yaw : 359.9, Alt : 36.2700004578, Lat : 49.2835704, Lng : -123.1150207, Q1 : 0.999999582767, Q2 : -0.000285386573523, Q3 : -0.000399068609113, Q4 : -0.000790166202933}
2019-04-14 23:43:04.11: SIM {TimeUS : 47535145, Roll : -0.06, Pitch : -0.06, Yaw : 359.9, Alt : 36.4900016785, Lat : 49.2835704, Lng : -123.1150207, Q1 : 0.999999344349, Q2 : -0.000594398123212, Q3 : -0.000565882306546, Q4 : -0.000802916765679}
2019-04-14 23:43:04.21: SIM {TimeUS : 47635105, Roll : -0.1, Pitch : -0.07, Yaw : 359.9, Alt : 36.7200012207, Lat : 49.2835704, Lng : -123.1150207, Q1 : 0.999999046326, Q2 : -0.000881349551491, Q3 : -0.00067372265039, Q4 : -0.000814520579297}
2019-04-14 23:43:04.31: SIM {TimeUS : 47735065, Roll : -0.1, Pitch : -0.07, Yaw : 359.9, Alt : 36.9399986267, Lat : 49.2835704, Lng : -123.1150207, Q1 : 0.999998986721, Q2 : -0.000900191662367, Q3 : -0.000697242445312, Q4 : -0.000828676798847}
2019-04-14 23:43:04.41: SIM {TimeUS : 47835025, Roll : -0.09, Pitch : -0.07, Yaw : 359.9, Alt : 37.1599998474, Lat : 49.2835704, Lng : -123.1150207, Q1 : 0.99999910593, Q2 : -0.000814577506389, Q3 : -0.000660530291498, Q4 : -0.00084510887973}
2019-04-14 23:43:04.51: SIM {TimeUS : 47934985, Roll : -0.07, Pitch : -0.05, Yaw : 359.9, Alt : 37.3899993896, Lat : 49.2835704, Lng : -123.1150207, Q1 : 0.999999284744, Q2 : -0.000674663693644, Q3 : -0.000471433042549, Q4 : -0.000860814063344}
2019-04-14 23:43:04.61: SIM {TimeUS : 48034945, Roll : -0.05, Pitch : -0.03, Yaw : 359.9, Alt : 37.6100006104, Lat : 49.2835704, Lng : -123.1150206, Q1 : 0.999999403954, Q2 : -0.000523204391357, Q3 : -0.00031601433875, Q4 : -0.000872068398166}
2019-04-14 23:43:04.71: SIM {TimeUS : 48134905, Roll : -0.06, Pitch : -0.03, Yaw : 359.89, Alt : 37.8400001526, Lat : 49.2835704, Lng : -123.1150206, Q1 : 0.999999403954, Q2 : -0.000559375854209, Q3 : -0.000303264474496, Q4 : -0.000879557977896}
2019-04-14 23:43:04.81: SIM {TimeUS : 48234865, Roll : -0.07, Pitch : -0.02, Yaw : 359.89, Alt : 38.0699996948, Lat : 49.2835704, Lng : -123.1150206, Q1 : 0.999999344349, Q2 : -0.000687927007675, Q3 : -0.00020350633713, Q4 : -0.000890673371032}
2019-04-14 23:43:04.91: SIM {TimeUS : 48334825, Roll : -0.1, Pitch : 0.0, Yaw : 359.89, Alt : 38.2900009155, Lat : 49.2835704, Lng : -123.1150206, Q1 : 0.99999922514, Q2 : -0.000889963121153, Q3 : -6.88851359882e-05, Q4 : -0.000906518427655}
2019-04-14 23:43:05.01: SIM {TimeUS : 48434785, Roll : -0.1, Pitch : 0.0, Yaw : 359.89, Alt : 38.5200004578, Lat : 49.2835704, Lng : -123.1150206, Q1 : 0.99999922514, Q2 : -0.000889387913048, Q3 : 5.81313797738e-05, Q4 : -0.000918657518923}
2019-04-14 23:43:05.11: SIM {TimeUS : 48534745, Roll : -0.07, Pitch : 0.03, Yaw : 359.89, Alt : 38.75, Lat : 49.2835706, Lng : -123.1150206, Q1 : 0.999999284744, Q2 : -0.000641895225272, Q3 : 0.000286739377771, Q4 : -0.000937587814406}
2019-04-14 23:43:05.21: SIM {TimeUS : 48634705, Roll : -0.04, Pitch : 0.02, Yaw : 359.89, Alt : 38.9799995422, Lat : 49.2835706, Lng : -123.1150207, Q1 : 0.999999463558, Q2 : -0.000370704743546, Q3 : 0.000261403183686, Q4 : -0.000951393682044}
2019-04-14 23:43:05.31: SIM {TimeUS : 48734665, Roll : 0.0, Pitch : 0.02, Yaw : 359.88, Alt : 39.2099990845, Lat : 49.2835706, Lng : -123.1150207, Q1 : 0.999999523163, Q2 : -7.28234226699e-05, Q3 : 0.00019078864716, Q4 : -0.000962275080383}
2019-04-14 23:43:05.41: SIM {TimeUS : 48834625, Roll : 0.02, Pitch : 0.03, Yaw : 359.88, Alt : 39.4399986267, Lat : 49.2835706, Lng : -123.1150207, Q1 : 0.999999463558, Q2 : 0.00024179428874, Q3 : 0.000345723179635, Q4 : -0.000970016524661}
2019-04-14 23:43:05.51: SIM {TimeUS : 48934585, Roll : 0.06, Pitch : 0.07, Yaw : 359.88, Alt : 39.6699981689, Lat : 49.2835706, Lng : -123.1150207, Q1 : 0.999999165535, Q2 : 0.000542956870049, Q3 : 0.000622452411335, Q4 : -0.000983697944321}
2019-04-14 23:43:05.61: SIM {TimeUS : 49035378, Roll : 0.08, Pitch : 0.1, Yaw : 359.88, Alt : 39.9000015259, Lat : 49.2835706, Lng : -123.1150207, Q1 : 0.999998807907, Q2 : 0.000749032071326, Q3 : 0.000899188627955, Q4 : -0.00100554828532}
2019-04-14 23:43:05.71: SIM {TimeUS : 49135338, Roll : 0.07, Pitch : 0.13, Yaw : 359.88, Alt : 40.1300010681, Lat : 49.2835706, Lng : -123.1150207, Q1 : 0.999998629093, Q2 : 0.000621608167421, Q3 : 0.00116212829016, Q4 : -0.00102908187546}
2019-04-14 23:43:05.81: SIM {TimeUS : 49235298, Roll : 0.01, Pitch : 0.16, Yaw : 359.87, Alt : 40.3600006104, Lat : 49.2835706, Lng : -123.1150207, Q1 : 0.999998390675, Q2 : 0.000173717460711, Q3 : 0.00140894122887, Q4 : -0.00106827623677}
2019-04-14 23:43:05.91: SIM {TimeUS : 49335258, Roll : -0.02, Pitch : 0.17, Yaw : 359.87, Alt : 40.5999984741, Lat : 49.2835706, Lng : -123.1150207, Q1 : 0.999998211861, Q2 : -0.000217168548261, Q3 : 0.00153728679288, Q4 : -0.00110161758494}
2019-04-14 23:43:06.01: SIM {TimeUS : 49435218, Roll : -0.04, Pitch : 0.15, Yaw : 359.87, Alt : 40.8300018311, Lat : 49.2835706, Lng : -123.1150207, Q1 : 0.99999833107, Q2 : -0.000410263281083, Q3 : 0.00139613798819, Q4 : -0.00112509611063}
2019-04-14 23:43:06.11: SIM {TimeUS : 49535178, Roll : -0.05, Pitch : 0.13, Yaw : 359.86, Alt : 41.0600013733, Lat : 49.2835706, Lng : -123.1150207, Q1 : 0.999998569489, Q2 : -0.000437170005171, Q3 : 0.00119210185949, Q4 : -0.0011511282064}
2019-04-14 23:43:06.21: SIM {TimeUS : 49635138, Roll : -0.03, Pitch : 0.13, Yaw : 359.86, Alt : 41.2900009155, Lat : 49.2835706, Lng : -123.1150207, Q1 : 0.999998569489, Q2 : -0.000275695201708, Q3 : 0.00115415500477, Q4 : -0.00118047557771}
2019-04-14 23:43:06.31: SIM {TimeUS : 49735098, Roll : 0.01, Pitch : 0.14, Yaw : 359.86, Alt : 41.5299987793, Lat : 49.2835706, Lng : -123.1150207, Q1 : 0.999998450279, Q2 : 0.000128731888253, Q3 : 0.00127330922987, Q4 : -0.00121626956388}
2019-04-14 23:43:06.41: SIM {TimeUS : 49835058, Roll : 0.06, Pitch : 0.15, Yaw : 359.85, Alt : 41.7599983215, Lat : 49.2835706, Lng : -123.1150207, Q1 : 0.999998152256, Q2 : 0.000592323369347, Q3 : 0.00132397364359, Q4 : -0.00125460175332}
2019-04-14 23:43:06.51: SIM {TimeUS : 49935018, Roll : 0.1, Pitch : 0.12, Yaw : 359.85, Alt : 42.0, Lat : 49.2835706, Lng : -123.1150207, Q1 : 0.999998211861, Q2 : 0.000889812537935, Q3 : 0.00107360165566, Q4 : -0.00129401520826}
2019-04-14 23:43:06.61: SIM {TimeUS : 50034978, Roll : 0.1, Pitch : 0.08, Yaw : 359.84, Alt : 42.2299995422, Lat : 49.2835706, Lng : -123.1150207, Q1 : 0.999998450279, Q2 : 0.000902203959413, Q3 : 0.000707343278918, Q4 : -0.00133285787888}
2019-04-14 23:43:06.71: SIM {TimeUS : 50134938, Roll : 0.06, Pitch : 0.05, Yaw : 359.84, Alt : 42.4599990845, Lat : 49.2835706, Lng : -123.1150207, Q1 : 0.999998807907, Q2 : 0.000590125098825, Q3 : 0.000444917415734, Q4 : -0.00136015331373}
2019-04-14 23:43:06.81: SIM {TimeUS : 50234898, Roll : 0.01, Pitch : 0.04, Yaw : 359.84, Alt : 42.7000007629, Lat : 49.2835706, Lng : -123.1150207, Q1 : 0.999998986721, Q2 : 9.60949109867e-05, Q3 : 0.000363663944881, Q4 : -0.00137783272658}
2019-04-14 23:43:06.91: SIM {TimeUS : 50334858, Roll : -0.03, Pitch : 0.06, Yaw : 359.84, Alt : 42.9300003052, Lat : 49.2835704, Lng : -123.1150207, Q1 : 0.999998867512, Q2 : -0.000276047503576, Q3 : 0.000542145629879, Q4 : -0.00138819031417}
2019-04-14 23:43:07.01: SIM {TimeUS : 50434818, Roll : -0.05, Pitch : 0.07, Yaw : 359.83, Alt : 43.1699981689, Lat : 49.2835704, Lng : -123.1150207, Q1 : 0.999998688698, Q2 : -0.000453023647424, Q3 : 0.000685593404341, Q4 : -0.00139715336263}
2019-04-14 23:43:07.11: SIM {TimeUS : 50534778, Roll : -0.04, Pitch : 0.07, Yaw : 359.83, Alt : 43.4000015259, Lat : 49.2835704, Lng : -123.1150207, Q1 : 0.999998688698, Q2 : -0.000414798472775, Q3 : 0.000642720377073, Q4 : -0.00140669627581}
2019-04-14 23:43:07.21: SIM {TimeUS : 50634738, Roll : -0.04, Pitch : 0.05, Yaw : 359.83, Alt : 43.6399993896, Lat : 49.2835704, Lng : -123.1150207, Q1 : 0.999998748302, Q2 : -0.000413712259615, Q3 : 0.000508987286594, Q4 : -0.00142139510717}
2019-04-14 23:43:07.31: SIM {TimeUS : 50734698, Roll : -0.04, Pitch : 0.04, Yaw : 359.83, Alt : 43.8699989319, Lat : 49.2835704, Lng : -123.1150207, Q1 : 0.999998807907, Q2 : -0.000357572280336, Q3 : 0.000384453509469, Q4 : -0.00144289701711}
2019-04-14 23:43:07.41: SIM {TimeUS : 50834658, Roll : -0.02, Pitch : 0.03, Yaw : 359.83, Alt : 44.1100006104, Lat : 49.2835704, Lng : -123.1150206, Q1 : 0.999998867512, Q2 : -0.000238793945755, Q3 : 0.00032180416747, Q4 : -0.00147221796215}
2019-04-14 23:43:07.51: SIM {TimeUS : 50934618, Roll : -0.01, Pitch : 0.03, Yaw : 359.82, Alt : 44.3499984741, Lat : 49.2835704, Lng : -123.1150206, Q1 : 0.999998807907, Q2 : -0.000150653737364, Q3 : 0.000298238213873, Q4 : -0.00150480528828}
2019-04-14 23:43:07.61: SIM {TimeUS : 51034578, Roll : -0.02, Pitch : 0.01, Yaw : 359.82, Alt : 44.5800018311, Lat : 49.2835704, Lng : -123.1150206, Q1 : 0.999998807907, Q2 : -0.000180469956831, Q3 : 0.000130992164486, Q4 : -0.00153826700989}
2019-04-14 23:43:07.71: SIM {TimeUS : 51135371, Roll : -0.02, Pitch : -0.01, Yaw : 359.82, Alt : 44.8199996948, Lat : 49.2835704, Lng : -123.1150206, Q1 : 0.999998748302, Q2 : -0.000250140117714, Q3 : -0.000159937611897, Q4 : -0.00156994431745}
2019-04-14 23:43:07.81: SIM {TimeUS : 51235331, Roll : -0.03, Pitch : -0.04, Yaw : 359.81, Alt : 45.0600013733, Lat : 49.2835704, Lng : -123.1150206, Q1 : 0.999998629093, Q2 : -0.000330495182425, Q3 : -0.000359599856893, Q4 : -0.00160212104674}
2019-04-14 23:43:07.91: SIM {TimeUS : 51335291, Roll : -0.03, Pitch : -0.05, Yaw : 359.81, Alt : 45.2900009155, Lat : 49.2835703, Lng : -123.1150206, Q1 : 0.999998509884, Q2 : -0.000291417061817, Q3 : -0.000447781669209, Q4 : -0.00163397565484}
2019-04-14 23:43:08.01: SIM {TimeUS : 51435251, Roll : -0.03, Pitch : -0.05, Yaw : 359.8, Alt : 45.5299987793, Lat : 49.2835703, Lng : -123.1150206, Q1 : 0.999998509884, Q2 : -0.000303660170175, Q3 : -0.000436972593889, Q4 : -0.00166112673469}
2019-04-14 23:43:08.11: SIM {TimeUS : 51535211, Roll : -0.05, Pitch : -0.04, Yaw : 359.8, Alt : 45.7599983215, Lat : 49.2835703, Lng : -123.1150206, Q1 : 0.999998390675, Q2 : -0.000473991094623, Q3 : -0.00034955071169, Q4 : -0.00168470211793}
2019-04-14 23:43:08.21: SIM {TimeUS : 51635171, Roll : -0.08, Pitch : -0.03, Yaw : 359.8, Alt : 45.9900016785, Lat : 49.2835703, Lng : -123.1150206, Q1 : 0.999998211861, Q2 : -0.000780627131462, Q3 : -0.000277998537058, Q4 : -0.00170600099955}
2019-04-14 23:43:08.31: SIM {TimeUS : 51735131, Roll : -0.11, Pitch : -0.02, Yaw : 359.8, Alt : 46.2200012207, Lat : 49.2835703, Lng : -123.1150206, Q1 : 0.999997973442, Q2 : -0.00103120366111, Q3 : -0.000216800806811, Q4 : -0.00172460451722}
2019-04-14 23:43:08.41: SIM {TimeUS : 51835091, Roll : -0.12, Pitch : 0.0, Yaw : 359.8, Alt : 46.4500007629, Lat : 49.2835703, Lng : -123.1150206, Q1 : 0.999997854233, Q2 : -0.00110327755101, Q3 : -8.50470169098e-05, Q4 : -0.00174034899101}
2019-04-14 23:43:08.51: SIM {TimeUS : 51935051, Roll : -0.11, Pitch : 0.01, Yaw : 359.79, Alt : 46.6699981689, Lat : 49.2835703, Lng : -123.1150206, Q1 : 0.999997973442, Q2 : -0.00099189800676, Q3 : 0.000115500573884, Q4 : -0.00175840815064}
2019-04-14 23:43:08.61: SIM {TimeUS : 52035011, Roll : -0.08, Pitch : 0.02, Yaw : 359.79, Alt : 46.8800010681, Lat : 49.2835703, Lng : -123.1150206, Q1 : 0.999998092651, Q2 : -0.00077945634257, Q3 : 0.000198901194381, Q4 : -0.00177956128027}
2019-04-14 23:43:08.71: SIM {TimeUS : 52134971, Roll : -0.06, Pitch : 0.01, Yaw : 359.79, Alt : 47.0900001526, Lat : 49.2835703, Lng : -123.1150206, Q1 : 0.999998211861, Q2 : -0.000594837125391, Q3 : 0.000131534034153, Q4 : -0.00180151616223}
2019-04-14 23:43:08.81: SIM {TimeUS : 52234931, Roll : -0.05, Pitch : 0.0, Yaw : 359.79, Alt : 47.2900009155, Lat : 49.2835703, Lng : -123.1150206, Q1 : 0.999998211861, Q2 : -0.000497290864587, Q3 : -5.28750024387e-05, Q4 : -0.00182755314745}
2019-04-14 23:43:08.91: SIM {TimeUS : 52334891, Roll : -0.03, Pitch : -0.03, Yaw : 359.78, Alt : 47.4799995422, Lat : 49.2835703, Lng : -123.1150206, Q1 : 0.999998211861, Q2 : -0.000328124850057, Q3 : -0.000326573092025, Q4 : -0.00185520050582}
2019-04-14 23:43:09.01: SIM {TimeUS : 52434851, Roll : -0.01, Pitch : -0.07, Yaw : 359.78, Alt : 47.6599998474, Lat : 49.2835703, Lng : -123.1150206, Q1 : 0.999998033047, Q2 : -0.000151612373884, Q3 : -0.000631553237326, Q4 : -0.00188136938959}
2019-04-14 23:43:09.11: SIM {TimeUS : 52534811, Roll : -0.02, Pitch : -0.11, Yaw : 359.78, Alt : 47.8400001526, Lat : 49.2835703, Lng : -123.1150206, Q1 : 0.999997675419, Q2 : -0.000184077798622, Q3 : -0.000988853164017, Q4 : -0.00190757052042}
2019-04-14 23:43:09.21: SIM {TimeUS : 52634771, Roll : -0.03, Pitch : -0.14, Yaw : 359.77, Alt : 48.0, Lat : 49.2835703, Lng : -123.1150206, Q1 : 0.999997258186, Q2 : -0.00027248999686, Q3 : -0.00126087537501, Q4 : -0.00193373230286}
2019-04-14 23:43:09.31: SIM {TimeUS : 52734731, Roll : 0.0, Pitch : -0.14, Yaw : 359.77, Alt : 48.1399993896, Lat : 49.2835703, Lng : -123.1150207, Q1 : 0.999997317791, Q2 : -6.42512604827e-05, Q3 : -0.00125371839385, Q4 : -0.00196096370928}
2019-04-14 23:43:09.41: SIM {TimeUS : 52834691, Roll : 0.02, Pitch : -0.12, Yaw : 359.77, Alt : 48.2799987793, Lat : 49.2835703, Lng : -123.1150207, Q1 : 0.999997437, Q2 : 0.000252801721217, Q3 : -0.00107088265941, Q4 : -0.00199379399419}
2019-04-14 23:43:09.51: SIM {TimeUS : 52934651, Roll : 0.05, Pitch : -0.09, Yaw : 359.76, Alt : 48.4000015259, Lat : 49.2835703, Lng : -123.1150207, Q1 : 0.999997496605, Q2 : 0.000515766674653, Q3 : -0.000807114469353, Q4 : -0.00202616304159}
2019-04-14 23:43:09.61: SIM {TimeUS : 53034611, Roll : 0.07, Pitch : -0.05, Yaw : 359.76, Alt : 48.5200004578, Lat : 49.2835703, Lng : -123.1150207, Q1 : 0.99999755621, Q2 : 0.000617348006926, Q3 : -0.000514621147886, Q4 : -0.00205620983616}
2019-04-14 23:43:09.71: SIM {TimeUS : 53135404, Roll : 0.07, Pitch : -0.03, Yaw : 359.76, Alt : 48.6199989319, Lat : 49.2835703, Lng : -123.1150207, Q1 : 0.99999755621, Q2 : 0.000672691618092, Q3 : -0.00031307619065, Q4 : -0.00208520633169}
2019-04-14 23:43:09.81: SIM {TimeUS : 53235364, Roll : 0.07, Pitch : -0.03, Yaw : 359.75, Alt : 48.7099990845, Lat : 49.2835703, Lng : -123.1150207, Q1 : 0.999997496605, Q2 : 0.000625579792541, Q3 : -0.000317613274092, Q4 : -0.00211773742922}
2019-04-14 23:43:09.91: SIM {TimeUS : 53335324, Roll : 0.04, Pitch : -0.04, Yaw : 359.75, Alt : 48.7799987793, Lat : 49.2835704, Lng : -123.1150207, Q1 : 0.99999755621, Q2 : 0.000397527095629, Q3 : -0.000357633922249, Q4 : -0.00214690738358}
2019-04-14 23:43:10.01: SIM {TimeUS : 53435284, Roll : 0.02, Pitch : -0.03, Yaw : 359.75, Alt : 48.8499984741, Lat : 49.2835704, Lng : -123.1150207, Q1 : 0.99999755621, Q2 : 0.000244640250457, Q3 : -0.000325426663039, Q4 : -0.00216982071288}
2019-04-14 23:43:10.11: SIM {TimeUS : 53535244, Roll : 0.01, Pitch : -0.03, Yaw : 359.74, Alt : 48.9099998474, Lat : 49.2835704, Lng : -123.1150207, Q1 : 0.99999755621, Q2 : 0.000112970803457, Q3 : -0.000289401970804, Q4 : -0.00218889885582}
2019-04-14 23:43:10.21: SIM {TimeUS : 53635204, Roll : 0.0, Pitch : -0.01, Yaw : 359.74, Alt : 48.9500007629, Lat : 49.2835704, Lng : -123.1150207, Q1 : 0.99999755621, Q2 : 6.80476950947e-05, Q3 : -0.000132227811264, Q4 : -0.0022077516187}
2019-04-14 23:43:10.31: SIM {TimeUS : 53735164, Roll : 0.08, Pitch : -0.02, Yaw : 359.74, Alt : 49.0, Lat : 49.2835704, Lng : -123.1150207, Q1 : 0.999997198582, Q2 : 0.000762880954426, Q3 : -0.000255705468589, Q4 : -0.0022327771876}
2019-04-14 23:43:10.41: SIM {TimeUS : 53835124, Roll : 0.34, Pitch : -0.16, Yaw : 359.73, Alt : 49.0299987793, Lat : 49.2835704, Lng : -123.1150207, Q1 : 0.999991834164, Q2 : 0.00301040918566, Q3 : -0.0014686442446, Q4 : -0.00226541631855}
2019-04-14 23:43:10.51: SIM {TimeUS : 53935084, Roll : 0.81, Pitch : -0.49, Yaw : 359.73, Alt : 49.0600013733, Lat : 49.2835704, Lng : -123.1150207, Q1 : 0.999962508678, Q2 : 0.00712557975203, Q3 : -0.00435188412666, Q4 : -0.00229513505474}
2019-04-14 23:43:10.61: SIM {TimeUS : 54035044, Roll : 1.47, Pitch : -0.97, Yaw : 359.72, Alt : 49.0900001526, Lat : 49.2835704, Lng : -123.1150207, Q1 : 0.999878823757, Q2 : 0.0128236208111, Q3 : -0.00851775705814, Q4 : -0.00230980757624}
2019-04-14 23:43:10.71: SIM {TimeUS : 54135004, Roll : 2.25, Pitch : -1.56, Yaw : 359.7, Alt : 49.1100006104, Lat : 49.2835706, Lng : -123.1150206, Q1 : 0.999709844589, Q2 : 0.0196533687413, Q3 : -0.0137343490496, Q4 : -0.00229783146642}
2019-04-14 23:43:10.81: SIM {TimeUS : 54234964, Roll : 3.09, Pitch : -2.19, Yaw : 359.68, Alt : 49.1300010681, Lat : 49.2835706, Lng : -123.1150205, Q1 : 0.999449253082, Q2 : 0.0269652623683, Q3 : -0.019209779799, Q4 : -0.00223315064795}
2019-04-14 23:43:10.91: SIM {TimeUS : 54334924, Roll : 3.86, Pitch : -2.72, Yaw : 359.66, Alt : 49.1500015259, Lat : 49.2835707, Lng : -123.1150204, Q1 : 0.999147117138, Q2 : 0.0336245968938, Q3 : -0.0238768588752, Q4 : -0.00209625042044}
2019-04-14 23:43:11.01: SIM {TimeUS : 54434884, Roll : 4.46, Pitch : -3.13, Yaw : 359.66, Alt : 49.1699981689, Lat : 49.2835708, Lng : -123.1150201, Q1 : 0.998865842819, Q2 : 0.0388347953558, Q3 : -0.0274848882109, Q4 : -0.00187971559353}
2019-04-14 23:43:11.11: SIM {TimeUS : 54534844, Roll : 4.89, Pitch : -3.43, Yaw : 359.66, Alt : 49.1800003052, Lat : 49.2835709, Lng : -123.1150199, Q1 : 0.998637795448, Q2 : 0.0425890795887, Q3 : -0.0301022008061, Q4 : -0.00162225018721}
2019-04-14 23:43:11.21: SIM {TimeUS : 54634804, Roll : 5.21, Pitch : -3.65, Yaw : 359.67, Alt : 49.1899986267, Lat : 49.283571, Lng : -123.1150195, Q1 : 0.998454451561, Q2 : 0.0454017817974, Q3 : -0.0320245474577, Q4 : -0.0013460322516}
2019-04-14 23:43:11.31: SIM {TimeUS : 54734764, Roll : 5.49, Pitch : -3.86, Yaw : 359.69, Alt : 49.2000007629, Lat : 49.2835714, Lng : -123.115019, Q1 : 0.998283326626, Q2 : 0.0477871820331, Q3 : -0.0338473208249, Q4 : -0.00107130827382}
2019-04-14 23:43:11.41: SIM {TimeUS : 54834724, Roll : 5.78, Pitch : -4.08, Yaw : 359.7, Alt : 49.2099990845, Lat : 49.2835716, Lng : -123.1150184, Q1 : 0.998093187809, Q2 : 0.050309997052, Q3 : -0.0357529968023, Q4 : -0.000806135882158}
2019-04-14 23:43:11.51: SIM {TimeUS : 54934684, Roll : 6.1, Pitch : -4.31, Yaw : 359.7, Alt : 49.2200012207, Lat : 49.283572, Lng : -123.1150177, Q1 : 0.997873067856, Q2 : 0.0531495884061, Q3 : -0.0377393700182, Q4 : -0.000536741688848}
2019-04-14 23:43:11.61: SIM {TimeUS : 55034644, Roll : 6.4, Pitch : -4.5, Yaw : 359.71, Alt : 49.2200012207, Lat : 49.2835722, Lng : -123.1150169, Q1 : 0.997670531273, Q2 : 0.0556844249368, Q3 : -0.039403770119, Q4 : -0.000274375575827}
2019-04-14 23:43:11.71: SIM {TimeUS : 55134604, Roll : 6.62, Pitch : -4.65, Yaw : 359.72, Alt : 49.2299995422, Lat : 49.2835727, Lng : -123.115016, Q1 : 0.997508049011, Q2 : 0.057644661516, Q3 : -0.0406796261668, Q4 : -3.63467297575e-05}
2019-04-14 23:43:11.81: SIM {TimeUS : 55235397, Roll : 6.78, Pitch : -4.76, Yaw : 359.73, Alt : 49.2400016785, Lat : 49.2835732, Lng : -123.115015, Q1 : 0.997388899326, Q2 : 0.0589875690639, Q3 : -0.041662696749, Q4 : 0.000143317214679}
2019-04-14 23:43:11.91: SIM {TimeUS : 55335357, Roll : 6.89, Pitch : -4.84, Yaw : 359.74, Alt : 49.2400016785, Lat : 49.2835737, Lng : -123.1150139, Q1 : 0.997302472591, Q2 : 0.0599964186549, Q3 : -0.0422860048711, Q4 : 0.00027972747921}
2019-04-14 23:43:12.01: SIM {TimeUS : 55435317, Roll : 6.99, Pitch : -4.89, Yaw : 359.74, Alt : 49.25, Lat : 49.2835741, Lng : -123.1150127, Q1 : 0.997231662273, Q2 : 0.0608139298856, Q3 : -0.0427853502333, Q4 : 0.000364656967577}
2019-04-14 23:43:12.11: SIM {TimeUS : 55535277, Roll : 7.11, Pitch : -4.97, Yaw : 359.74, Alt : 49.25, Lat : 49.2835747, Lng : -123.1150115, Q1 : 0.997138679028, Q2 : 0.0618710070848, Q3 : -0.043431699276, Q4 : 0.000430486135883}
2019-04-14 23:43:12.21: SIM {TimeUS : 55635237, Roll : 7.43, Pitch : -4.92, Yaw : 359.9, Alt : 49.25, Lat : 49.2835753, Lng : -123.1150101, Q1 : 0.996975898743, Q2 : 0.0647302791476, Q3 : -0.0429563261569, Q4 : 0.00196994491853}
2019-04-14 23:43:12.31: SIM {TimeUS : 55735197, Roll : 8.01, Pitch : -4.73, Yaw : 0.8, Alt : 49.2599983215, Lat : 49.2835761, Lng : -123.1150087, Q1 : 0.996659517288, Q2 : 0.0700912028551, Q3 : -0.0407293066382, Q4 : 0.00990686379373}
2019-04-14 23:43:12.41: SIM {TimeUS : 55835157, Roll : 8.66, Pitch : -4.67, Yaw : 3.08, Alt : 49.2599983215, Lat : 49.2835768, Lng : -123.1150072, Q1 : 0.995870828629, Q2 : 0.0765142217278, Q3 : -0.0386562943459, Q4 : 0.0298746861517}
2019-04-14 23:43:12.51: SIM {TimeUS : 55935117, Roll : 9.08, Pitch : -5.05, Yaw : 6.94, Alt : 49.2599983215, Lat : 49.2835775, Lng : -123.1150055, Q1 : 0.993848025799, Q2 : 0.0816406235099, Q3 : -0.0390975698829, Q4 : 0.0638155117631}
2019-04-14 23:43:12.61: SIM {TimeUS : 56035077, Roll : 9.06, Pitch : -5.94, Yaw : 12.27, Alt : 49.2599983215, Lat : 49.2835782, Lng : -123.1150038, Q1 : 0.989383816719, Q2 : 0.0839923918247, Q3 : -0.0430028103292, Q4 : 0.110524974763}
2019-04-14 23:43:12.71: SIM {TimeUS : 56135037, Roll : 8.46, Pitch : -7.29, Yaw : 18.83, Alt : 49.2599983215, Lat : 49.2835788, Lng : -123.1150019, Q1 : 0.981073021889, Q2 : 0.0830431729555, Q3 : -0.050518963486, Q4 : 0.167473524809}
2019-04-14 23:43:12.81: SIM {TimeUS : 56234997, Roll : 7.25, Pitch : -8.89, Yaw : 26.36, Alt : 49.2700004578, Lat : 49.2835795, Lng : -123.1149999, Q1 : 0.967648565769, Q2 : 0.0790534541011, Q3 : -0.0609893798828, Q4 : 0.231704607606}
2019-04-14 23:43:12.91: SIM {TimeUS : 56334957, Roll : 5.45, Pitch : -10.51, Yaw : 34.62, Alt : 49.2700004578, Lat : 49.2835804, Lng : -123.1149978, Q1 : 0.948301136494, Q2 : 0.0725062042475, Q3 : -0.0732331797481, Q4 : 0.300174534321}
2019-04-14 23:43:13.01: SIM {TimeUS : 56434917, Roll : 3.12, Pitch : -11.88, Yaw : 43.33, Alt : 49.2700004578, Lat : 49.2835812, Lng : -123.1149956, Q1 : 0.922959208488, Q2 : 0.0633778870106, Q3 : -0.0861823856831, Q4 : 0.36973258853}
2019-04-14 23:43:13.11: SIM {TimeUS : 56534877, Roll : 0.15, Pitch : -12.82, Yaw : 51.93, Alt : 49.2700004578, Lat : 49.283582, Lng : -123.1149933, Q1 : 0.89333820343, Q2 : 0.0501123666763, Q3 : -0.0997948646545, Q4 : 0.435289114714}
2019-04-14 23:43:13.21: SIM {TimeUS : 56634837, Roll : -3.03, Pitch : -13.18, Yaw : 59.53, Alt : 49.2700004578, Lat : 49.283583, Lng : -123.1149909, Q1 : 0.86349183321, Q2 : 0.0341848991811, Q3 : -0.112707652152, Q4 : 0.490418493748}
2019-04-14 23:43:13.31: SIM {TimeUS : 56734797, Roll : -5.78, Pitch : -13.09, Yaw : 65.37, Alt : 49.2700004578, Lat : 49.283584, Lng : -123.1149884, Q1 : 0.838173747063, Q2 : 0.0193357206881, Q3 : -0.122935369611, Q4 : 0.531015813351}
2019-04-14 23:43:13.41: SIM {TimeUS : 56834757, Roll : -7.61, Pitch : -12.82, Yaw : 69.11, Alt : 49.2700004578, Lat : 49.283585, Lng : -123.1149858, Q1 : 0.820799827576, Q2 : 0.00884151645005, Q3 : -0.129186928272, Q4 : 0.556345403194}
2019-04-14 23:43:13.51: SIM {TimeUS : 56934717, Roll : -8.37, Pitch : -12.6, Yaw : 70.85, Alt : 49.2700004578, Lat : 49.2835862, Lng : -123.1149832, Q1 : 0.812420427799, Q2 : 0.0043085035868, Q3 : -0.131308719516, Q4 : 0.568077921867}
2019-04-14 23:43:13.61: SIM {TimeUS : 57034677, Roll : -8.14, Pitch : -12.61, Yaw : 70.89, Alt : 49.2700004578, Lat : 49.2835876, Lng : -123.1149806, Q1 : 0.812193095684, Q2 : 0.0060202293098, Q3 : -0.130238771439, Q4 : 0.568633496761}
2019-04-14 23:43:13.71: SIM {TimeUS : 57134637, Roll : -7.15, Pitch : -12.91, Yaw : 69.61, Alt : 49.2700004578, Lat : 49.283589, Lng : -123.1149779, Q1 : 0.818287909031, Q2 : 0.0131764458492, Q3 : -0.12750557065, Q4 : 0.560333549976}
2019-04-14 23:43:13.81: SIM {TimeUS : 57234597, Roll : -5.63, Pitch : -13.45, Yaw : 67.36, Alt : 49.2700004578, Lat : 49.2835904, Lng : -123.1149752, Q1 : 0.82859903574, Q2 : 0.024312030524, Q3 : -0.124430112541, Q4 : 0.545297801495}
2019-04-14 23:43:13.91: SIM {TimeUS : 57335390, Roll : -3.79, Pitch : -14.15, Yaw : 64.44, Alt : 49.2799987793, Lat : 49.283592, Lng : -123.1149723, Q1 : 0.841268658638, Q2 : 0.0378781072795, Q3 : -0.121697954834, Q4 : 0.525377869606}
2019-04-14 23:43:14.01: SIM {TimeUS : 57435350, Roll : -1.88, Pitch : -14.85, Yaw : 61.21, Alt : 49.2799987793, Lat : 49.2835935, Lng : -123.1149694, Q1 : 0.854435920715, Q2 : 0.0518025867641, Q3 : -0.119555413723, Q4 : 0.502953529358}
2019-04-14 23:43:14.11: SIM {TimeUS : 57535310, Roll : -0.05, Pitch : -15.42, Yaw : 57.96, Alt : 49.2799987793, Lat : 49.2835952, Lng : -123.1149664, Q1 : 0.866872310638, Q2 : 0.064637221396, Q3 : -0.117613501847, Q4 : 0.480126559734}
2019-04-14 23:43:14.21: SIM {TimeUS : 57635270, Roll : 1.52, Pitch : -15.77, Yaw : 55.04, Alt : 49.2799987793, Lat : 49.2835969, Lng : -123.1149633, Q1 : 0.877522468567, Q2 : 0.0750986337662, Q3 : -0.115562550724, Q4 : 0.459303677082}
2019-04-14 23:43:14.31: SIM {TimeUS : 57735230, Roll : 2.71, Pitch : -15.89, Yaw : 52.71, Alt : 49.2799987793, Lat : 49.2835986, Lng : -123.11496, Q1 : 0.885714888573, Q2 : 0.0824388563633, Q3 : -0.113428384066, Q4 : 0.442546069622}
2019-04-14 23:43:14.41: SIM {TimeUS : 57835190, Roll : 3.45, Pitch : -15.87, Yaw : 51.15, Alt : 49.2799987793, Lat : 49.2836002, Lng : -123.1149567, Q1 : 0.891166388988, Q2 : 0.0865460559726, Q3 : -0.111575961113, Q4 : 0.431141555309}
2019-04-14 23:43:14.51: SIM {TimeUS : 57935150, Roll : 3.72, Pitch : -15.81, Yaw : 50.39, Alt : 49.2799987793, Lat : 49.2836019, Lng : -123.1149531, Q1 : 0.893882155418, Q2 : 0.0876611918211, Q3 : -0.110696949065, Q4 : 0.425483703613}
2019-04-14 23:43:14.61: SIM {TimeUS : 58035110, Roll : 3.54, Pitch : -15.78, Yaw : 50.37, Alt : 49.2799987793, Lat : 49.2836036, Lng : -123.1149496, Q1 : 0.89410251379, Q2 : 0.0861831307411, Q3 : -0.111182831228, Q4 : 0.425195962191}
2019-04-14 23:43:14.71: SIM {TimeUS : 58135070, Roll : 3.0, Pitch : -15.83, Yaw : 50.97, Alt : 49.2799987793, Lat : 49.2836053, Lng : -123.1149458, Q1 : 0.89219892025, Q2 : 0.0827263966203, Q3 : -0.113150887191, Q4 : 0.429341763258}
2019-04-14 23:43:14.81: SIM {TimeUS : 58235030, Roll : 2.22, Pitch : -15.93, Yaw : 52.02, Alt : 49.2799987793, Lat : 49.2836069, Lng : -123.114942, Q1 : 0.888673245907, Q2 : 0.0780262500048, Q3 : -0.116113908589, Q4 : 0.436679899693}
2019-04-14 23:43:14.91: SIM {TimeUS : 58334990, Roll : 1.33, Pitch : -16.05, Yaw : 53.33, Alt : 49.2799987793, Lat : 49.2836086, Lng : -123.1149381, Q1 : 0.884086608887, Q2 : 0.0730053931475, Q3 : -0.119576156139, Q4 : 0.44582799077}
2019-04-14 23:43:15.01: SIM {TimeUS : 58434950, Roll : 0.45, Pitch : -16.17, Yaw : 54.71, Alt : 49.2799987793, Lat : 49.2836104, Lng : -123.1149341, Q1 : 0.879075825214, Q2 : 0.0681313350797, Q3 : -0.123178616166, Q4 : 0.45542383194}
2019-04-14 23:43:15.11: SIM {TimeUS : 58534910, Roll : -0.32, Pitch : -16.29, Yaw : 55.99, Alt : 49.2799987793, Lat : 49.2836122, Lng : -123.1149301, Q1 : 0.874233961105, Q2 : 0.0640675425529, Q3 : -0.126405596733, Q4 : 0.464361935854}
2019-04-14 23:43:15.21: SIM {TimeUS : 58634870, Roll : -0.9, Pitch : -16.36, Yaw : 57.06, Alt : 49.2900009155, Lat : 49.283614, Lng : -123.1149259, Q1 : 0.870105981827, Q2 : 0.0611103698611, Q3 : -0.128725230694, Q4 : 0.471816658974}
2019-04-14 23:43:15.31: SIM {TimeUS : 58734830, Roll : -1.28, Pitch : -16.39, Yaw : 57.84, Alt : 49.2900009155, Lat : 49.2836159, Lng : -123.1149218, Q1 : 0.867074429989, Q2 : 0.0591991133988, Q3 : -0.130153045058, Q4 : 0.477218657732}
2019-04-14 23:43:15.41: SIM {TimeUS : 58834790, Roll : -1.47, Pitch : -16.42, Yaw : 58.28, Alt : 49.2900009155, Lat : 49.2836177, Lng : -123.1149176, Q1 : 0.865296661854, Q2 : 0.0584005787969, Q3 : -0.130928218365, Q4 : 0.480321675539}
2019-04-14 23:43:15.51: SIM {TimeUS : 58934750, Roll : -1.47, Pitch : -16.45, Yaw : 58.4, Alt : 49.2900009155, Lat : 49.2836195, Lng : -123.1149133, Q1 : 0.86476123333, Q2 : 0.0586791150272, Q3 : -0.131136834621, Q4 : 0.481194287539}
2019-04-14 23:43:15.61: SIM {TimeUS : 59034710, Roll : -1.31, Pitch : -16.51, Yaw : 58.24, Alt : 49.2900009155, Lat : 49.2836215, Lng : -123.114909, Q1 : 0.865296423435, Q2 : 0.0599142201245, Q3 : -0.13097307086, Q4 : 0.480123400688}
2019-04-14 23:43:15.71: SIM {TimeUS : 59134670, Roll : -1.04, Pitch : -16.56, Yaw : 57.86, Alt : 49.2900009155, Lat : 49.2836235, Lng : -123.1149047, Q1 : 0.866666436195, Q2 : 0.0617673099041, Q3 : -0.130432680249, Q4 : 0.477557778358}
2019-04-14 23:43:15.81: SIM {TimeUS : 59234630, Roll : -0.69, Pitch : -16.61, Yaw : 57.35, Alt : 49.2900009155, Lat : 49.2836255, Lng : -123.1149002, Q1 : 0.868556022644, Q2 : 0.0640280544758, Q3 : -0.129658535123, Q4 : 0.474024891853}
2019-04-14 23:43:15.91: SIM {TimeUS : 59334590, Roll : -0.32, Pitch : -16.66, Yaw : 56.77, Alt : 49.2900009155, Lat : 49.2836274, Lng : -123.1148959, Q1 : 0.870653390884, Q2 : 0.0664220154285, Q3 : -0.128824472427, Q4 : 0.470058560371}
2019-04-14 23:43:16.01: SIM {TimeUS : 59435383, Roll : 0.02, Pitch : -16.7, Yaw : 56.2, Alt : 49.2900009155, Lat : 49.2836294, Lng : -123.1148914, Q1 : 0.872710227966, Q2 : 0.0686524659395, Q3 : -0.128057286143, Q4 : 0.466116994619}
2019-04-14 23:43:16.11: SIM {TimeUS : 59535343, Roll : 0.32, Pitch : -16.73, Yaw : 55.71, Alt : 49.2900009155, Lat : 49.2836316, Lng : -123.1148868, Q1 : 0.874493122101, Q2 : 0.0704765692353, Q3 : -0.127368763089, Q4 : 0.462679177523}
2019-04-14 23:43:16.21: SIM {TimeUS : 59635303, Roll : 0.54, Pitch : -16.76, Yaw : 55.33, Alt : 49.2900009155, Lat : 49.2836335, Lng : -123.1148824, Q1 : 0.875865519047, Q2 : 0.0718403309584, Q3 : -0.126930698752, Q4 : 0.45998609066}
2019-04-14 23:43:16.31: SIM {TimeUS : 59735263, Roll : 0.66, Pitch : -16.78, Yaw : 55.08, Alt : 49.2900009155, Lat : 49.2836357, Lng : -123.1148777, Q1 : 0.876777172089, Q2 : 0.0725901424885, Q3 : -0.126735240221, Q4 : 0.458181917667}
2019-04-14 23:43:16.41: SIM {TimeUS : 59835223, Roll : 0.69, Pitch : -16.8, Yaw : 54.96, Alt : 49.2900009155, Lat : 49.2836377, Lng : -123.1148731, Q1 : 0.877201914787, Q2 : 0.0727811902761, Q3 : -0.126861587167, Q4 : 0.457302868366}
2019-04-14 23:43:16.51: SIM {TimeUS : 59935183, Roll : 0.64, Pitch : -16.84, Yaw : 54.96, Alt : 49.2900009155, Lat : 49.2836397, Lng : -123.1148685, Q1 : 0.877179384232, Q2 : 0.0725391432643, Q3 : -0.127361565828, Q4 : 0.457245498896}
2019-04-14 23:43:16.61: SIM {TimeUS : 60035143, Roll : 0.52, Pitch : -16.89, Yaw : 55.06, Alt : 49.2900009155, Lat : 49.2836419, Lng : -123.1148637, Q1 : 0.876793086529, Q2 : 0.071944668889, Q3 : -0.128133699298, Q4 : 0.457864165306}
2019-04-14 23:43:16.71: SIM {TimeUS : 60135103, Roll : 0.35, Pitch : -16.93, Yaw : 55.23, Alt : 49.2999992371, Lat : 49.2836439, Lng : -123.114859, Q1 : 0.876167356968, Q2 : 0.0709868744016, Q3 : -0.129085674882, Q4 : 0.458942860365}
2019-04-14 23:43:16.81: SIM {TimeUS : 60235063, Roll : 0.16, Pitch : -16.97, Yaw : 55.44, Alt : 49.2999992371, Lat : 49.2836461, Lng : -123.1148542, Q1 : 0.875421762466, Q2 : 0.0698849782348, Q3 : -0.130016461015, Q4 : 0.46027007699}
2019-04-14 23:43:16.91: SIM {TimeUS : 60335023, Roll : -0.01, Pitch : -17.0, Yaw : 55.65, Alt : 49.2999992371, Lat : 49.2836481, Lng : -123.1148494, Q1 : 0.874646663666, Q2 : 0.0689268037677, Q3 : -0.130851209164, Q4 : 0.461649596691}
2019-04-14 23:43:17.01: SIM {TimeUS : 60434983, Roll : -0.14, Pitch : -17.05, Yaw : 55.84, Alt : 49.2999992371, Lat : 49.2836503, Lng : -123.1148446, Q1 : 0.873914778233, Q2 : 0.0683324187994, Q3 : -0.131602972746, Q4 : 0.462908565998}
2019-04-14 23:43:17.11: SIM {TimeUS : 60534943, Roll : -0.21, Pitch : -17.09, Yaw : 55.98, Alt : 49.2999992371, Lat : 49.2836524, Lng : -123.1148397, Q1 : 0.873324811459, Q2 : 0.0680963918567, Q3 : -0.132097557187, Q4 : 0.463914752007}
2019-04-14 23:43:17.21: SIM {TimeUS : 60634903, Roll : -0.23, Pitch : -17.12, Yaw : 56.08, Alt : 49.2999992371, Lat : 49.2836546, Lng : -123.1148348, Q1 : 0.872912943363, Q2 : 0.0681834816933, Q3 : -0.132411405444, Q4 : 0.464587181807}
2019-04-14 23:43:17.31: SIM {TimeUS : 60734863, Roll : -0.22, Pitch : -17.16, Yaw : 56.12, Alt : 49.2999992371, Lat : 49.2836567, Lng : -123.1148299, Q1 : 0.872700572014, Q2 : 0.0684963166714, Q3 : -0.132611036301, Q4 : 0.46488314867}
2019-04-14 23:43:17.41: SIM {TimeUS : 60834823, Roll : -0.19, Pitch : -17.2, Yaw : 56.11, Alt : 49.2999992371, Lat : 49.283659, Lng : -123.114825, Q1 : 0.872685492039, Q2 : 0.0688922330737, Q3 : -0.132763788104, Q4 : 0.464809268713}
2019-04-14 23:43:17.51: SIM {TimeUS : 60934783, Roll : -0.15, Pitch : -17.22, Yaw : 56.05, Alt : 49.2999992371, Lat : 49.283661, Lng : -123.11482, Q1 : 0.872855186462, Q2 : 0.0692015588284, Q3 : -0.132855728269, Q4 : 0.464418321848}
2019-04-14 23:43:17.61: SIM {TimeUS : 61034743, Roll : -0.11, Pitch : -17.24, Yaw : 55.96, Alt : 49.2999992371, Lat : 49.2836633, Lng : -123.1148151, Q1 : 0.873170316219, Q2 : 0.0694422721863, Q3 : -0.132840797305, Q4 : 0.463793814182}
2019-04-14 23:43:17.71: SIM {TimeUS : 61134703, Roll : -0.06, Pitch : -17.24, Yaw : 55.86, Alt : 49.3100013733, Lat : 49.2836656, Lng : -123.1148101, Q1 : 0.87356698513, Q2 : 0.0697255656123, Q3 : -0.132709830999, Q4 : 0.46304115653}
2019-04-14 23:43:17.81: SIM {TimeUS : 61234663, Roll : 0.0, Pitch : -17.25, Yaw : 55.74, Alt : 49.3100013733, Lat : 49.2836677, Lng : -123.1148051, Q1 : 0.873977899551, Q2 : 0.0700812488794, Q3 : -0.132632702589, Q4 : 0.462233573198}
2019-04-14 23:43:17.91: SIM {TimeUS : 61334623, Roll : 0.06, Pitch : -17.28, Yaw : 55.63, Alt : 49.3100013733, Lat : 49.28367, Lng : -123.1148, Q1 : 0.874333798885, Q2 : 0.0706589370966, Q3 : -0.132664218545, Q4 : 0.461462825537}
2019-04-14 23:43:18.01: SIM {TimeUS : 61434583, Roll : 0.14, Pitch : -17.34, Yaw : 55.54, Alt : 49.3100013733, Lat : 49.2836723, Lng : -123.114795, Q1 : 0.874603569508, Q2 : 0.0713474676013, Q3 : -0.132870793343, Q4 : 0.460785716772}
2019-04-14 23:43:18.11: SIM {TimeUS : 61535376, Roll : 0.19, Pitch : -17.38, Yaw : 55.46, Alt : 49.3100013733, Lat : 49.2836744, Lng : -123.1147899, Q1 : 0.874830722809, Q2 : 0.0717875361443, Q3 : -0.132995694876, Q4 : 0.460249841213}
2019-04-14 23:43:18.21: SIM {TimeUS : 61635336, Roll : 0.21, Pitch : -17.37, Yaw : 55.41, Alt : 49.3100013733, Lat : 49.2836767, Lng : -123.1147848, Q1 : 0.875025033951, Q2 : 0.0718930661678, Q3 : -0.132877513766, Q4 : 0.459898024797}
2019-04-14 23:43:18.31: SIM {TimeUS : 61735296, Roll : 0.21, Pitch : -17.38, Yaw : 55.39, Alt : 49.3100013733, Lat : 49.283679, Lng : -123.1147797, Q1 : 0.875136137009, Q2 : 0.0718381255865, Q3 : -0.132939994335, Q4 : 0.459677100182}
2019-04-14 23:43:18.41: SIM {TimeUS : 61835256, Roll : 0.18, Pitch : -17.4, Yaw : 55.38, Alt : 49.3100013733, Lat : 49.2836813, Lng : -123.1147746, Q1 : 0.875160872936, Q2 : 0.0717431306839, Q3 : -0.13321095705, Q4 : 0.459566354752}
2019-04-14 23:43:18.51: SIM {TimeUS : 61935216, Roll : 0.16, Pitch : -17.42, Yaw : 55.38, Alt : 49.3100013733, Lat : 49.2836835, Lng : -123.1147695, Q1 : 0.875132799149, Q2 : 0.0716808065772, Q3 : -0.133457154036, Q4 : 0.459558099508}
2019-04-14 23:43:18.61: SIM {TimeUS : 62035176, Roll : 0.14, Pitch : -17.45, Yaw : 55.39, Alt : 49.3100013733, Lat : 49.2836858, Lng : -123.1147643, Q1 : 0.875063180923, Q2 : 0.0716277584434, Q3 : -0.133732512593, Q4 : 0.459618866444}
2019-04-14 23:43:18.71: SIM {TimeUS : 62135136, Roll : 0.12, Pitch : -17.47, Yaw : 55.41, Alt : 49.3100013733, Lat : 49.2836881, Lng : -123.1147591, Q1 : 0.874972999096, Q2 : 0.0715646594763, Q3 : -0.134005889297, Q4 : 0.459720760584}
2019-04-14 23:43:18.81: SIM {TimeUS : 62235096, Roll : 0.09, Pitch : -17.5, Yaw : 55.43, Alt : 49.3199996948, Lat : 49.2836904, Lng : -123.114754, Q1 : 0.874877989292, Q2 : 0.0715247318149, Q3 : -0.134299844503, Q4 : 0.459822058678}
2019-04-14 23:43:18.91: SIM {TimeUS : 62335056, Roll : 0.08, Pitch : -17.52, Yaw : 55.45, Alt : 49.3199996948, Lat : 49.2836926, Lng : -123.1147488, Q1 : 0.87479531765, Q2 : 0.0715463384986, Q3 : -0.134508728981, Q4 : 0.459914922714}
2019-04-14 23:43:19.01: SIM {TimeUS : 62435016, Roll : 0.09, Pitch : -17.55, Yaw : 55.46, Alt : 49.3199996948, Lat : 49.2836949, Lng : -123.1147436, Q1 : 0.874724090099, Q2 : 0.0716792047024, Q3 : -0.134668901563, Q4 : 0.459982812405}
2019-04-14 23:43:19.11: SIM {TimeUS : 62534976, Roll : 0.1, Pitch : -17.57, Yaw : 55.46, Alt : 49.3199996948, Lat : 49.2836973, Lng : -123.1147384, Q1 : 0.874678552151, Q2 : 0.0719067230821, Q3 : -0.134814813733, Q4 : 0.45999109745}
2019-04-14 23:43:19.21: SIM {TimeUS : 62634936, Roll : 0.1, Pitch : -17.61, Yaw : 55.45, Alt : 49.3199996948, Lat : 49.2836997, Lng : -123.1147331, Q1 : 0.874670982361, Q2 : 0.0720574185252, Q3 : -0.135080933571, Q4 : 0.45990395546}
2019-04-14 23:43:19.31: SIM {TimeUS : 62734896, Roll : 0.08, Pitch : -17.65, Yaw : 55.43, Alt : 49.3199996948, Lat : 49.283702, Lng : -123.1147279, Q1 : 0.874701797962, Q2 : 0.0720422714949, Q3 : -0.135532259941, Q4 : 0.459714829922}
2019-04-14 23:43:19.41: SIM {TimeUS : 62834856, Roll : 0.07, Pitch : -17.7, Yaw : 55.41, Alt : 49.3199996948, Lat : 49.2837042, Lng : -123.1147226, Q1 : 0.874749481678, Q2 : 0.0721061751246, Q3 : -0.135969042778, Q4 : 0.459485054016}
2019-04-14 23:43:19.51: SIM {TimeUS : 62934816, Roll : 0.08, Pitch : -17.74, Yaw : 55.38, Alt : 49.3199996948, Lat : 49.2837065, Lng : -123.1147174, Q1 : 0.874814689159, Q2 : 0.072341799736, Q3 : -0.136173292994, Q4 : 0.459263324738}
2019-04-14 23:43:19.61: SIM {TimeUS : 63034776, Roll : 0.12, Pitch : -17.73, Yaw : 55.35, Alt : 49.3199996948, Lat : 49.2837089, Lng : -123.1147121, Q1 : 0.874920904636, Q2 : 0.0725436210632, Q3 : -0.136065259576, Q4 : 0.45906111598}
2019-04-14 23:43:19.71: SIM {TimeUS : 63134736, Roll : 0.15, Pitch : -17.71, Yaw : 55.32, Alt : 49.3199996948, Lat : 49.2837113, Lng : -123.1147068, Q1 : 0.87505376339, Q2 : 0.0726555138826, Q3 : -0.135768681765, Q4 : 0.458878010511}
2019-04-14 23:43:19.81: SIM {TimeUS : 63234696, Roll : 0.15, Pitch : -17.69, Yaw : 55.29, Alt : 49.3199996948, Lat : 49.2837137, Lng : -123.1147015, Q1 : 0.875194013119, Q2 : 0.072517812252, Q3 : -0.1356125772, Q4 : 0.458678454161}
2019-04-14 23:43:19.91: SIM {TimeUS : 63334656, Roll : 0.14, Pitch : -17.67, Yaw : 55.26, Alt : 49.3199996948, Lat : 49.2837161, Lng : -123.1146962, Q1 : 0.875326752663, Q2 : 0.0723593458533, Q3 : -0.135498180985, Q4 : 0.458483874798}
2019-04-14 23:43:20.01: SIM {TimeUS : 63434616, Roll : 0.14, Pitch : -17.65, Yaw : 55.24, Alt : 49.3199996948, Lat : 49.2837184, Lng : -123.1146909, Q1 : 0.875443041325, Q2 : 0.0722494795918, Q3 : -0.135396301746, Q4 : 0.458309262991}
2019-04-14 23:43:20.11: SIM {TimeUS : 63534576, Roll : 0.13, Pitch : -17.66, Yaw : 55.22, Alt : 49.3199996948, Lat : 49.2837208, Lng : -123.1146855, Q1 : 0.875514447689, Q2 : 0.0722417235374, Q3 : -0.135514736176, Q4 : 0.458139002323}
2019-04-14 23:43:20.21: SIM {TimeUS : 63635369, Roll : 0.14, Pitch : -17.69, Yaw : 55.2, Alt : 49.3199996948, Lat : 49.2837232, Lng : -123.1146802, Q1 : 0.875549376011, Q2 : 0.0723555088043, Q3 : -0.135751098394, Q4 : 0.457984387875}
2019-04-14 23:43:20.31: SIM {TimeUS : 63735329, Roll : 0.13, Pitch : -17.74, Yaw : 55.19, Alt : 49.3300018311, Lat : 49.2837254, Lng : -123.1146748, Q1 : 0.875546574593, Q2 : 0.0724896863103, Q3 : -0.136175140738, Q4 : 0.457842588425}
2019-04-14 23:43:20.41: SIM {TimeUS : 63835289, Roll : 0.13, Pitch : -17.8, Yaw : 55.18, Alt : 49.3300018311, Lat : 49.2837278, Lng : -123.1146695, Q1 : 0.875516712666, Q2 : 0.0727058053017, Q3 : -0.136658847332, Q4 : 0.457721233368}
2019-04-14 23:43:20.51: SIM {TimeUS : 63935249, Roll : 0.14, Pitch : -17.84, Yaw : 55.17, Alt : 49.3300018311, Lat : 49.2837302, Lng : -123.1146641, Q1 : 0.875500917435, Q2 : 0.0728944092989, Q3 : -0.136902153492, Q4 : 0.457648694515}
2019-04-14 23:43:20.61: SIM {TimeUS : 64035209, Roll : 0.13, Pitch : -17.87, Yaw : 55.16, Alt : 49.3300018311, Lat : 49.2837326, Lng : -123.1146587, Q1 : 0.875502169132, Q2 : 0.0729606300592, Q3 : -0.137127026916, Q4 : 0.457568436861}
2019-04-14 23:43:20.71: SIM {TimeUS : 64135169, Roll : 0.12, Pitch : -17.88, Yaw : 55.15, Alt : 49.3300018311, Lat : 49.2837351, Lng : -123.1146533, Q1 : 0.875523865223, Q2 : 0.0729412660003, Q3 : -0.137260824442, Q4 : 0.457489848137}
2019-04-14 23:43:20.81: SIM {TimeUS : 64235129, Roll : 0.14, Pitch : -17.87, Yaw : 55.14, Alt : 49.3300018311, Lat : 49.2837375, Lng : -123.114648, Q1 : 0.875564098358, Q2 : 0.0729733631015, Q3 : -0.137117519975, Q4 : 0.457450777292}
2019-04-14 23:43:20.91: SIM {TimeUS : 64335089, Roll : 0.16, Pitch : -17.87, Yaw : 55.13, Alt : 49.3300018311, Lat : 49.2837399, Lng : -123.1146426, Q1 : 0.875577867031, Q2 : 0.0731590017676, Q3 : -0.137102559209, Q4 : 0.457399278879}
2019-04-14 23:43:21.01: SIM {TimeUS : 64435049, Roll : 0.17, Pitch : -17.9, Yaw : 55.12, Alt : 49.3300018311, Lat : 49.2837423, Lng : -123.1146372, Q1 : 0.875586092472, Q2 : 0.0732964128256, Q3 : -0.137245342135, Q4 : 0.457318693399}
2019-04-14 23:43:21.11: SIM {TimeUS : 64535009, Roll : 0.17, Pitch : -17.91, Yaw : 55.11, Alt : 49.3300018311, Lat : 49.2837447, Lng : -123.1146318, Q1 : 0.875601828098, Q2 : 0.0733895376325, Q3 : -0.137360617518, Q4 : 0.457239001989}
2019-04-14 23:43:21.21: SIM {TimeUS : 64634969, Roll : 0.18, Pitch : -17.91, Yaw : 55.1, Alt : 49.3300018311, Lat : 49.2837471, Lng : -123.1146264, Q1 : 0.875641405582, Q2 : 0.0734380036592, Q3 : -0.13730314374, Q4 : 0.457172691822}
2019-04-14 23:43:21.31: SIM {TimeUS : 64734929, Roll : 0.18, Pitch : -17.91, Yaw : 55.09, Alt : 49.3300018311, Lat : 49.2837495, Lng : -123.1146209, Q1 : 0.87568718195, Q2 : 0.0734289214015, Q3 : -0.137282803655, Q4 : 0.457092642784}
2019-04-14 23:43:21.41: SIM {TimeUS : 64834889, Roll : 0.16, Pitch : -17.92, Yaw : 55.08, Alt : 49.3300018311, Lat : 49.2837519, Lng : -123.1146155, Q1 : 0.875727951527, Q2 : 0.0733139365911, Q3 : -0.137500405312, Q4 : 0.456967532635}
2019-04-14 23:43:21.51: SIM {TimeUS : 64934849, Roll : 0.12, Pitch : -17.96, Yaw : 55.07, Alt : 49.3300018311, Lat : 49.2837543, Lng : -123.1146101, Q1 : 0.875758349895, Q2 : 0.0731739550829, Q3 : -0.137928277254, Q4 : 0.45680269599}
2019-04-14 23:43:21.61: SIM {TimeUS : 65034809, Roll : 0.11, Pitch : -17.97, Yaw : 55.05, Alt : 49.3300018311, Lat : 49.2837568, Lng : -123.1146046, Q1 : 0.875815570354, Q2 : 0.0730696171522, Q3 : -0.13805654645, Q4 : 0.45667091012}
2019-04-14 23:43:21.71: SIM {TimeUS : 65134769, Roll : 0.12, Pitch : -17.96, Yaw : 55.04, Alt : 49.3300018311, Lat : 49.2837592, Lng : -123.1145992, Q1 : 0.875880181789, Q2 : 0.0730761662126, Q3 : -0.137935549021, Q4 : 0.456582456827}
2019-04-14 23:43:21.81: SIM {TimeUS : 65234729, Roll : 0.15, Pitch : -17.94, Yaw : 55.03, Alt : 49.3300018311, Lat : 49.2837616, Lng : -123.1145937, Q1 : 0.875932514668, Q2 : 0.0732197090983, Q3 : -0.137751027942, Q4 : 0.456514745951}
2019-04-14 23:43:21.91: SIM {TimeUS : 65334689, Roll : 0.16, Pitch : -17.96, Yaw : 55.01, Alt : 49.3400001526, Lat : 49.2837641, Lng : -123.1145883, Q1 : 0.875963926315, Q2 : 0.0733944028616, Q3 : -0.137786656618, Q4 : 0.456415742636}
2019-04-14 23:43:22.01: SIM {TimeUS : 65434649, Roll : 0.16, Pitch : -17.98, Yaw : 55.0, Alt : 49.3400001526, Lat : 49.2837665, Lng : -123.1145828, Q1 : 0.875988006592, Q2 : 0.0734456032515, Q3 : -0.13800893724, Q4 : 0.456294089556}
2019-04-14 23:43:22.11: SIM {TimeUS : 65534609, Roll : 0.13, Pitch : -18.01, Yaw : 54.99, Alt : 49.3400001526, Lat : 49.2837689, Lng : -123.1145773, Q1 : 0.876019001007, Q2 : 0.0733473300934, Q3 : -0.138315588236, Q4 : 0.456157505512}
2019-04-14 23:43:22.21: SIM {TimeUS : 65635402, Roll : 0.12, Pitch : -18.03, Yaw : 54.98, Alt : 49.3400001526, Lat : 49.2837714, Lng : -123.1145718, Q1 : 0.876053094864, Q2 : 0.073261372745, Q3 : -0.138542592525, Q4 : 0.456036925316}
2019-04-14 23:43:22.31: SIM {TimeUS : 65735362, Roll : 0.12, Pitch : -18.05, Yaw : 54.96, Alt : 49.3400001526, Lat : 49.2837738, Lng : -123.1145663, Q1 : 0.876076638699, Q2 : 0.0733320936561, Q3 : -0.138703688979, Q4 : 0.45593136549}
2019-04-14 23:43:22.41: SIM {TimeUS : 65835322, Roll : 0.13, Pitch : -18.06, Yaw : 54.95, Alt : 49.3400001526, Lat : 49.2837763, Lng : -123.1145609, Q1 : 0.876097142696, Q2 : 0.0734540000558, Q3 : -0.138787835836, Q4 : 0.455846756697}
2019-04-14 23:43:22.51: SIM {TimeUS : 65935282, Roll : 0.15, Pitch : -18.07, Yaw : 54.94, Alt : 49.3400001526, Lat : 49.2837787, Lng : -123.1145554, Q1 : 0.876106381416, Q2 : 0.0736935511231, Q3 : -0.138742923737, Q4 : 0.455803960562}
2019-04-14 23:43:22.61: SIM {TimeUS : 66035242, Roll : 0.17, Pitch : -18.08, Yaw : 54.93, Alt : 49.3400001526, Lat : 49.2837812, Lng : -123.1145499, Q1 : 0.876109242439, Q2 : 0.0738758966327, Q3 : -0.138776093721, Q4 : 0.455758869648}
2019-04-14 23:43:22.71: SIM {TimeUS : 66135202, Roll : 0.19, Pitch : -18.1, Yaw : 54.93, Alt : 49.3400001526, Lat : 49.2837836, Lng : -123.1145444, Q1 : 0.876110136509, Q2 : 0.0740416124463, Q3 : -0.138844668865, Q4 : 0.455709338188}
2019-04-14 23:43:22.81: SIM {TimeUS : 66235162, Roll : 0.2, Pitch : -18.11, Yaw : 54.92, Alt : 49.3400001526, Lat : 49.2837861, Lng : -123.1145389, Q1 : 0.876110255718, Q2 : 0.0742151513696, Q3 : -0.138884857297, Q4 : 0.455668717623}
2019-04-14 23:43:22.91: SIM {TimeUS : 66335122, Roll : 0.23, Pitch : -18.12, Yaw : 54.91, Alt : 49.3400001526, Lat : 49.2837885, Lng : -123.1145334, Q1 : 0.876104950905, Q2 : 0.0744344368577, Q3 : -0.138874411583, Q4 : 0.455646306276}
2019-04-14 23:43:23.01: SIM {TimeUS : 66435082, Roll : 0.25, Pitch : -18.14, Yaw : 54.91, Alt : 49.3400001526, Lat : 49.283791, Lng : -123.1145279, Q1 : 0.876093447208, Q2 : 0.0746729150414, Q3 : -0.138857170939, Q4 : 0.455634623766}
2019-04-14 23:43:23.11: SIM {TimeUS : 66535042, Roll : 0.24, Pitch : -18.13, Yaw : 54.91, Alt : 49.3499984741, Lat : 49.2837934, Lng : -123.1145224, Q1 : 0.876121580601, Q2 : 0.0745625123382, Q3 : -0.138870313764, Q4 : 0.455594688654}
