2019-04-14 21:06:46.20: SIM {TimeUS : 40416327, Roll : 0.0, Pitch : 0.0, Yaw : 0.0, Alt : 30.1000003815, Lat : 49.28357, Lng : -123.11502, Q1 : 1.0, Q2 : 0.0, Q3 : 0.0, Q4 : 0.0}
2019-04-14 21:06:46.31: SIM {TimeUS : 40535446, Roll : 0.0, Pitch : 0.0, Yaw : 0.0, Alt : 30.1000003815, Lat : 49.28357, Lng : -123.11502, Q1 : 1.0, Q2 : 0.0, Q3 : 0.0, Q4 : 0.0}
2019-04-14 21:06:46.41: SIM {TimeUS : 40635406, Roll : 0.0, Pitch : 0.0, Yaw : 0.0, Alt : 30.1000003815, Lat : 49.28357, Lng : -123.11502, Q1 : 1.0, Q2 : 0.0, Q3 : 0.0, Q4 : 0.0}
2019-04-14 21:06:46.51: SIM {TimeUS : 40735366, Roll : 0.0, Pitch : 0.0, Yaw : 0.0, Alt : 30.1000003815, Lat : 49.28357, Lng : -123.11502, Q1 : 1.0, Q2 : 0.0, Q3 : 0.0, Q4 : 0.0}
2019-04-14 21:06:46.61: SIM {TimeUS : 40835326, Roll : 0.0, Pitch : 0.0, Yaw : 0.0, Alt : 30.1000003815, Lat : 49.28357, Lng : -123.11502, Q1 : 1.0, Q2 : 0.0, Q3 : 0.0, Q4 : 0.0}
2019-04-14 21:06:46.71: SIM {TimeUS : 40935286, Roll : 0.0, Pitch : 0.0, Yaw : 0.0, Alt : 30.1000003815, Lat : 49.28357, Lng : -123.11502, Q1 : 1.0, Q2 : 0.0, Q3 : 0.0, Q4 : 0.0}
2019-04-14 21:06:46.81: SIM {TimeUS : 41035246, Roll : 0.0, Pitch : 0.0, Yaw : 0.0, Alt : 30.1000003815, Lat : 49.28357, Lng : -123.11502, Q1 : 1.0, Q2 : 0.0, Q3 : 0.0, Q4 : 0.0}
2019-04-14 21:06:46.91: SIM {TimeUS : 41135206, Roll : 0.0, Pitch : 0.0, Yaw : 0.0, Alt : 30.1000003815, Lat : 49.28357, Lng : -123.11502, Q1 : 1.0, Q2 : 0.0, Q3 : 0.0, Q4 : 0.0}
2019-04-14 21:06:47.01: SIM {TimeUS : 41235166, Roll : 0.0, Pitch : 0.0, Yaw : 0.0, Alt : 30.1000003815, Lat : 49.28357, Lng : -123.11502, Q1 : 1.0, Q2 : 0.0, Q3 : 0.0, Q4 : 0.0}
2019-04-14 21:06:47.11: SIM {TimeUS : 41335126, Roll : 0.0, Pitch : 0.0, Yaw : 0.0, Alt : 30.1000003815, Lat : 49.28357, Lng : -123.11502, Q1 : 1.0, Q2 : 0.0, Q3 : 0.0, Q4 : 0.0}
2019-04-14 21:06:47.21: SIM {TimeUS : 41435086, Roll : 0.0, Pitch : 0.0, Yaw : 0.0, Alt : 30.1000003815, Lat : 49.28357, Lng : -123.11502, Q1 : 1.0, Q2 : 0.0, Q3 : 0.0, Q4 : 0.0}
2019-04-14 21:06:47.31: SIM {TimeUS : 41535046, Roll : 0.0, Pitch : 0.0, Yaw : 0.0, Alt : 30.1000003815, Lat : 49.28357, Lng : -123.11502, Q1 : 1.0, Q2 : 0.0, Q3 : 0.0, Q4 : 0.0}
2019-04-14 21:06:47.41: SIM {TimeUS : 41635006, Roll : 0.0, Pitch : 0.0, Yaw : 0.0, Alt : 30.1000003815, Lat : 49.28357, Lng : -123.11502, Q1 : 1.0, Q2 : 0.0, Q3 : 0.0, Q4 : 0.0}
2019-04-14 21:06:47.51: SIM {TimeUS : 41734966, Roll : 0.0, Pitch : 0.0, Yaw : 0.0, Alt : 30.1000003815, Lat : 49.28357, Lng : -123.11502, Q1 : 1.0, Q2 : 0.0, Q3 : 0.0, Q4 : 0.0}
2019-04-14 21:06:47.61: SIM {TimeUS : 41834926, Roll : 0.0, Pitch : 0.0, Yaw : 0.0, Alt : 30.1000003815, Lat : 49.28357, Lng : -123.11502, Q1 : 1.0, Q2 : 0.0, Q3 : 0.0, Q4 : 0.0}
2019-04-14 21:06:47.71: SIM {TimeUS : 41934886, Roll : 0.0, Pitch : 0.0, Yaw : 0.0, Alt : 30.1000003815, Lat : 49.28357, Lng : -123.11502, Q1 : 1.0, Q2 : 0.0, Q3 : 0.0, Q4 : 0.0}
2019-04-14 21:06:47.81: SIM {TimeUS : 42034846, Roll : 0.0, Pitch : 0.0, Yaw : 0.0, Alt : 30.1000003815, Lat : 49.28357, Lng : -123.11502, Q1 : 1.0, Q2 : 0.0, Q3 : 0.0, Q4 : 0.0}
2019-04-14 21:06:47.91: SIM {TimeUS : 42134806, Roll : 0.0, Pitch : 0.0, Yaw : 0.0, Alt : 30.1000003815, Lat : 49.28357, Lng : -123.11502, Q1 : 1.0, Q2 : 0.0, Q3 : 0.0, Q4 : 0.0}
2019-04-14 21:06:48.01: SIM {TimeUS : 42234766, Roll : 0.0, Pitch : 0.0, Yaw : 0.0, Alt : 30.1000003815, Lat : 49.28357, Lng : -123.11502, Q1 : 1.0, Q2 : 0.0, Q3 : 0.0, Q4 : 0.0}
2019-04-14 21:06:48.11: SIM {TimeUS : 42334726, Roll : 0.0, Pitch : 0.0, Yaw : 0.0, Alt : 30.1000003815, Lat : 49.28357, Lng : -123.11502, Q1 : 1.0, Q2 : 0.0, Q3 : 0.0, Q4 : 0.0}
2019-04-14 21:06:48.21: SIM {TimeUS : 42434686, Roll : 0.0, Pitch : 0.0, Yaw : 0.0, Alt : 30.1000003815, Lat : 49.28357, Lng : -123.11502, Q1 : 1.0, Q2 : 0.0, Q3 : 0.0, Q4 : 0.0}
2019-04-14 21:06:48.31: SIM {TimeUS : 42535479, Roll : 0.0, Pitch : 0.0, Yaw : 0.0, Alt : 30.1000003815, Lat : 49.28357, Lng : -123.11502, Q1 : 1.0, Q2 : 0.0, Q3 : 0.0, Q4 : 0.0}
2019-04-14 21:06:48.41: SIM {TimeUS : 42635439, Roll : 0.0, Pitch : 0.0, Yaw : 0.0, Alt : 30.1000003815, Lat : 49.28357, Lng : -123.11502, Q1 : 1.0, Q2 : 0.0, Q3 : 0.0, Q4 : 0.0}
2019-04-14 21:06:48.51: SIM {TimeUS : 42735399, Roll : 0.0, Pitch : 0.0, Yaw : 0.0, Alt : 30.1000003815, Lat : 49.28357, Lng : -123.11502, Q1 : 1.0, Q2 : 0.0, Q3 : 0.0, Q4 : 1.50531601073e-10}
2019-04-14 21:06:48.61: SIM {TimeUS : 42835359, Roll : 0.0, Pitch : 0.0, Yaw : 360.0, Alt : 30.1000003815, Lat : 49.28357, Lng : -123.11502, Q1 : 1.0, Q2 : 0.0, Q3 : 0.0, Q4 : -3.19015214245e-08}
2019-04-14 21:06:48.71: SIM {TimeUS : 42935319, Roll : 0.0, Pitch : 0.0, Yaw : 359.99, Alt : 30.1000003815, Lat : 49.28357, Lng : -123.11502, Q1 : 1.0, Q2 : 0.0, Q3 : 0.0, Q4 : -2.33977019093e-07}
2019-04-14 21:06:48.81: SIM {TimeUS : 43035279, Roll : 0.0, Pitch : 0.0, Yaw : 359.99, Alt : 30.1000003815, Lat : 49.28357, Lng : -123.11502, Q1 : 1.0, Q2 : 0.0, Q3 : 0.0, Q4 : -4.1379919935e-07}
2019-04-14 21:06:48.91: SIM {TimeUS : 43135239, Roll : 0.0, Pitch : 0.0, Yaw : 359.99, Alt : 30.1000003815, Lat : 49.28357, Lng : -123.11502, Q1 : 1.0, Q2 : 0.0, Q3 : 0.0, Q4 : -6.07024389865e-07}
2019-04-14 21:06:49.01: SIM {TimeUS : 43235199, Roll : 0.0, Pitch : 0.0, Yaw : 359.99, Alt : 30.1000003815, Lat : 49.28357, Lng : -123.11502, Q1 : 1.0, Q2 : 0.0, Q3 : 0.0, Q4 : -7.678017937e-07}
2019-04-14 21:06:49.11: SIM {TimeUS : 43335159, Roll : 0.0, Pitch : 0.0, Yaw : 359.99, Alt : 30.1000003815, Lat : 49.28357, Lng : -123.11502, Q1 : 1.0, Q2 : 0.0, Q3 : 0.0, Q4 : -9.52094126205e-07}
2019-04-14 21:06:49.21: SIM {TimeUS : 43435119, Roll : 0.0, Pitch : 0.0, Yaw : 359.99, Alt : 30.1000003815, Lat : 49.28357, Lng : -123.11502, Q1 : 1.0, Q2 : 0.0, Q3 : 0.0, Q4 : -1.14050476441e-06}
2019-04-14 21:06:49.31: SIM {TimeUS : 43535079, Roll : 0.0, Pitch : 0.0, Yaw : 359.99, Alt : 30.1000003815, Lat : 49.28357, Lng : -123.11502, Q1 : 1.0, Q2 : 0.0, Q3 : 0.0, Q4 : -1.37085635288e-06}
2019-04-14 21:06:49.41: SIM {TimeUS : 43635039, Roll : 0.0, Pitch : 0.0, Yaw : 359.99, Alt : 30.1200008392, Lat : 49.28357, Lng : -123.11502, Q1 : 1.0, Q2 : 0.0, Q3 : 0.0, Q4 : -1.58920624926e-06}
2019-04-14 21:06:49.51: SIM {TimeUS : 43734999, Roll : 0.0, Pitch : 0.0, Yaw : 359.99, Alt : 30.1499996185, Lat : 49.28357, Lng : -123.11502, Q1 : 1.0, Q2 : 0.0, Q3 : 0.0, Q4 : -1.76011599251e-06}
2019-04-14 21:06:49.61: SIM {TimeUS : 43834959, Roll : 0.0, Pitch : 0.0, Yaw : 359.99, Alt : 30.1800003052, Lat : 49.28357, Lng : -123.11502, Q1 : 1.0, Q2 : 0.0, Q3 : 0.0, Q4 : -1.9762503598e-06}
2019-04-14 21:06:49.71: SIM {TimeUS : 43934919, Roll : 0.0, Pitch : 0.0, Yaw : 359.99, Alt : 30.2099990845, Lat : 49.28357, Lng : -123.11502, Q1 : 1.0, Q2 : -1.36274884426e-05, Q3 : -1.21096154544e-05, Q4 : -2.27860186897e-06}
2019-04-14 21:06:49.81: SIM {TimeUS : 44034879, Roll : -0.18, Pitch : -0.17, Yaw : 359.99, Alt : 30.2700004578, Lat : 49.28357, Lng : -123.11502, Q1 : 0.999997496605, Q2 : -0.00164108618628, Q3 : -0.00150957051665, Q4 : -1.70553921635e-05}
2019-04-14 21:06:49.91: SIM {TimeUS : 44134839, Roll : -0.5, Pitch : -0.46, Yaw : 359.99, Alt : 30.3899993896, Lat : 49.28357, Lng : -123.11502, Q1 : 0.999982118607, Q2 : -0.00441357679665, Q3 : -0.00403455784544, Q4 : -5.90585004829e-05}
2019-04-14 21:06:50.01: SIM {TimeUS : 44234799, Roll : -0.77, Pitch : -0.69, Yaw : 359.99, Alt : 30.5400009155, Lat : 49.28357, Lng : -123.11502, Q1 : 0.999958753586, Q2 : -0.00675482302904, Q3 : -0.00606724945828, Q4 : -0.000124377198517}
2019-04-14 21:06:50.11: SIM {TimeUS : 44334759, Roll : -0.88, Pitch : -0.78, Yaw : 359.98, Alt : 30.7000007629, Lat : 49.28357, Lng : -123.11502, Q1 : 0.999946832657, Q2 : -0.00772360246629, Q3 : -0.00682805618271, Q4 : -0.000205098840524}
2019-04-14 21:06:50.21: SIM {TimeUS : 44434719, Roll : -0.81, Pitch : -0.73, Yaw : 359.97, Alt : 30.8600006104, Lat : 49.28357, Lng : -123.1150201, Q1 : 0.999954283237, Q2 : -0.00707551604137, Q3 : -0.00642501236871, Q4 : -0.000281390937744}
2019-04-14 21:06:50.31: SIM {TimeUS : 44534679, Roll : -0.62, Pitch : -0.58, Yaw : 359.96, Alt : 31.0100002289, Lat : 49.28357, Lng : -123.1150201, Q1 : 0.999972343445, Q2 : -0.00542939454317, Q3 : -0.00507679954171, Q4 : -0.000353540992364}
2019-04-14 21:06:50.41: SIM {TimeUS : 44635472, Roll : -0.39, Pitch : -0.36, Yaw : 359.95, Alt : 31.1700000763, Lat : 49.2835701, Lng : -123.1150202, Q1 : 0.999988853931, Q2 : -0.00344731193036, Q3 : -0.00320790684782, Q4 : -0.000418189214543}
2019-04-14 21:06:50.51: SIM {TimeUS : 44735432, Roll : -0.18, Pitch : -0.16, Yaw : 359.94, Alt : 31.3299999237, Lat : 49.2835701, Lng : -123.1150203, Q1 : 0.999997496605, Q2 : -0.0016222713748, Q3 : -0.0014540507691, Q4 : -0.000470891100122}
2019-04-14 21:06:50.61: SIM {TimeUS : 44835392, Roll : -0.03, Pitch : -0.02, Yaw : 359.94, Alt : 31.5, Lat : 49.2835702, Lng : -123.1150204, Q1 : 0.999999821186, Q2 : -0.000274553487543, Q3 : -0.000206153505133, Q4 : -0.00051120785065}
2019-04-14 21:06:50.71: SIM {TimeUS : 44935352, Roll : 0.05, Pitch : 0.05, Yaw : 359.93, Alt : 31.6800003052, Lat : 49.2835702, Lng : -123.1150205, Q1 : 0.999999642372, Q2 : 0.000482802919578, Q3 : 0.00044784398051, Q4 : -0.000539702130482}
2019-04-14 21:06:50.81: SIM {TimeUS : 45035312, Roll : 0.09, Pitch : 0.07, Yaw : 359.93, Alt : 31.8600006104, Lat : 49.2835703, Lng : -123.1150205, Q1 : 0.999999344349, Q2 : 0.000807470933069, Q3 : 0.000621493032668, Q4 : -0.000553565798327}
2019-04-14 21:06:50.91: SIM {TimeUS : 45135272, Roll : 0.1, Pitch : 0.05, Yaw : 359.93, Alt : 32.0400009155, Lat : 49.2835703, Lng : -123.1150206, Q1 : 0.999999344349, Q2 : 0.000886099063791, Q3 : 0.000438367831521, Q4 : -0.000546564231627}
2019-04-14 21:06:51.01: SIM {TimeUS : 45235232, Roll : 0.09, Pitch : 0.03, Yaw : 359.93, Alt : 32.2299995422, Lat : 49.2835703, Lng : -123.1150206, Q1 : 0.999999463558, Q2 : 0.000857063801959, Q3 : 0.000272333389148, Q4 : -0.000527608150151}
2019-04-14 21:06:51.11: SIM {TimeUS : 45335192, Roll : 0.08, Pitch : 0.04, Yaw : 359.94, Alt : 32.4199981689, Lat : 49.2835703, Lng : -123.1150207, Q1 : 0.999999523163, Q2 : 0.000745549623389, Q3 : 0.000359208002919, Q4 : -0.000493448227644}
2019-04-14 21:06:51.21: SIM {TimeUS : 45435152, Roll : 0.06, Pitch : 0.07, Yaw : 359.94, Alt : 32.6100006104, Lat : 49.2835703, Lng : -123.1150207, Q1 : 0.999999523163, Q2 : 0.00055021425942, Q3 : 0.000643840816338, Q4 : -0.000472632877063}
2019-04-14 21:06:51.31: SIM {TimeUS : 45535112, Roll : 0.06, Pitch : 0.12, Yaw : 359.94, Alt : 32.8100013733, Lat : 49.2835703, Lng : -123.1150208, Q1 : 0.99999910593, Q2 : 0.000606548564974, Q3 : 0.00108050601557, Q4 : -0.000466262805276}
2019-04-14 21:06:51.41: SIM {TimeUS : 45635072, Roll : 0.1, Pitch : 0.16, Yaw : 359.94, Alt : 33.0099983215, Lat : 49.2835704, Lng : -123.1150208, Q1 : 0.999998390675, Q2 : 0.000915741547942, Q3 : 0.00146397342905, Q4 : -0.000466538069304}
2019-04-14 21:06:51.51: SIM {TimeUS : 45735032, Roll : 0.14, Pitch : 0.19, Yaw : 359.94, Alt : 33.2099990845, Lat : 49.2835704, Lng : -123.1150208, Q1 : 0.999997675419, Q2 : 0.00125054607634, Q3 : 0.00167733093258, Q4 : -0.000477904104628}
2019-04-14 21:06:51.61: SIM {TimeUS : 45834992, Roll : 0.16, Pitch : 0.21, Yaw : 359.94, Alt : 33.4199981689, Lat : 49.2835704, Lng : -123.1150208, Q1 : 0.999997138977, Q2 : 0.00142064446118, Q3 : 0.00186432944611, Q4 : -0.00048961781431}
2019-04-14 21:06:51.71: SIM {TimeUS : 45934952, Roll : 0.17, Pitch : 0.19, Yaw : 359.94, Alt : 33.6199989319, Lat : 49.2835704, Lng : -123.1150209, Q1 : 0.999997317791, Q2 : 0.00149928184692, Q3 : 0.00168982415926, Q4 : -0.000517277163453}
2019-04-14 21:06:51.81: SIM {TimeUS : 46034912, Roll : 0.16, Pitch : 0.15, Yaw : 359.93, Alt : 33.8300018311, Lat : 49.2835704, Lng : -123.1150209, Q1 : 0.999997854233, Q2 : 0.00146979617421, Q3 : 0.00135141809005, Q4 : -0.000542611116543}
2019-04-14 21:06:51.91: SIM {TimeUS : 46134872, Roll : 0.15, Pitch : 0.12, Yaw : 359.93, Alt : 34.0400009155, Lat : 49.2835704, Lng : -123.1150209, Q1 : 0.999998390675, Q2 : 0.00134488439653, Q3 : 0.00107858504634, Q4 : -0.000567798910197}
2019-04-14 21:06:52.01: SIM {TimeUS : 46234832, Roll : 0.14, Pitch : 0.1, Yaw : 359.93, Alt : 34.25, Lat : 49.2835704, Lng : -123.1150209, Q1 : 0.999998629093, Q2 : 0.00125450885389, Q3 : 0.000913142343052, Q4 : -0.000590577255934}
2019-04-14 21:06:52.11: SIM {TimeUS : 46334792, Roll : 0.14, Pitch : 0.1, Yaw : 359.93, Alt : 34.4599990845, Lat : 49.2835704, Lng : -123.1150209, Q1 : 0.999998629093, Q2 : 0.00124146591406, Q3 : 0.00089187111007, Q4 : -0.000611022580415}
2019-04-14 21:06:52.21: SIM {TimeUS : 46434752, Roll : 0.12, Pitch : 0.08, Yaw : 359.92, Alt : 34.6800003052, Lat : 49.2835704, Lng : -123.1150209, Q1 : 0.999998927116, Q2 : 0.00111619918607, Q3 : 0.000756610243116, Q4 : -0.000625723158009}
2019-04-14 21:06:52.31: SIM {TimeUS : 46534712, Roll : 0.1, Pitch : 0.07, Yaw : 359.92, Alt : 34.8899993896, Lat : 49.2835704, Lng : -123.1150208, Q1 : 0.999999165535, Q2 : 0.000921143626329, Q3 : 0.000629488553386, Q4 : -0.00063870230224}
2019-04-14 21:06:52.41: SIM {TimeUS : 46634672, Roll : 0.08, Pitch : 0.06, Yaw : 359.92, Alt : 35.1100006104, Lat : 49.2835704, Lng : -123.1150208, Q1 : 0.999999403954, Q2 : 0.000709275656845, Q3 : 0.00054120994173, Q4 : -0.000652683607768}
2019-04-14 21:06:52.51: SIM {TimeUS : 46735465, Roll : 0.05, Pitch : 0.05, Yaw : 359.92, Alt : 35.3300018311, Lat : 49.2835704, Lng : -123.1150208, Q1 : 0.999999582767, Q2 : 0.000490208796691, Q3 : 0.000463929522084, Q4 : -0.000663992075715}
2019-04-14 21:06:52.61: SIM {TimeUS : 46835425, Roll : 0.04, Pitch : 0.01, Yaw : 359.92, Alt : 35.5499992371, Lat : 49.2835704, Lng : -123.1150208, Q1 : 0.999999701977, Q2 : 0.00038317363942, Q3 : 0.00017376471078, Q4 : -0.000672331778333}
2019-04-14 21:06:52.71: SIM {TimeUS : 46935385, Roll : 0.03, Pitch : 0.0, Yaw : 359.92, Alt : 35.7599983215, Lat : 49.2835704, Lng : -123.1150208, Q1 : 0.999999701977, Q2 : 0.000327976158587, Q3 : -6.84887854732e-05, Q4 : -0.000686799467076}
2019-04-14 21:06:52.81: SIM {TimeUS : 47035345, Roll : 0.01, Pitch : -0.01, Yaw : 359.91, Alt : 35.9799995422, Lat : 49.2835704, Lng : -123.1150208, Q1 : 0.999999701977, Q2 : 0.000142843142385, Q3 : -0.000124108119053, Q4 : -0.000711650354788}
2019-04-14 21:06:52.91: SIM {TimeUS : 47135305, Roll : 0.0, Pitch : 0.0, Yaw : 359.91, Alt : 36.2000007629, Lat : 49.2835704, Lng : -123.1150207, Q1 : 0.999999701977, Q2 : 8.48375420901e-05, Q3 : -7.94533625594e-05, Q4 : -0.000733071821742}
2019-04-14 21:06:53.01: SIM {TimeUS : 47235265, Roll : 0.01, Pitch : 0.0, Yaw : 359.91, Alt : 36.4300003052, Lat : 49.2835704, Lng : -123.1150207, Q1 : 0.999999701977, Q2 : 0.000126127983094, Q3 : -1.46331431097e-05, Q4 : -0.000754352484364}
2019-04-14 21:06:53.11: SIM {TimeUS : 47335225, Roll : 0.0, Pitch : -0.01, Yaw : 359.91, Alt : 36.6500015259, Lat : 49.2835704, Lng : -123.1150207, Q1 : 0.999999701977, Q2 : 1.91033432202e-05, Q3 : -0.000153220884386, Q4 : -0.000774277024902}
2019-04-14 21:06:53.21: SIM {TimeUS : 47435185, Roll : -0.03, Pitch : -0.05, Yaw : 359.9, Alt : 36.8699989319, Lat : 49.2835704, Lng : -123.1150207, Q1 : 0.999999523163, Q2 : -0.000280415668385, Q3 : -0.000470017141197, Q4 : -0.000796408974566}
2019-04-14 21:06:53.31: SIM {TimeUS : 47535145, Roll : -0.07, Pitch : -0.08, Yaw : 359.9, Alt : 37.0999984741, Lat : 49.2835704, Lng : -123.1150207, Q1 : 0.999999165535, Q2 : -0.000639869074803, Q3 : -0.000735468114726, Q4 : -0.000824221642688}
2019-04-14 21:06:53.41: SIM {TimeUS : 47635105, Roll : -0.11, Pitch : -0.1, Yaw : 359.9, Alt : 37.3199996948, Lat : 49.2835704, Lng : -123.1150207, Q1 : 0.999998688698, Q2 : -0.000975123024546, Q3 : -0.00093617424136, Q4 : -0.000853983859997}
2019-04-14 21:06:53.51: SIM {TimeUS : 47735065, Roll : -0.12, Pitch : -0.11, Yaw : 359.89, Alt : 37.5499992371, Lat : 49.2835704, Lng : -123.1150207, Q1 : 0.999998569489, Q2 : -0.00107343459968, Q3 : -0.000971496105194, Q4 : -0.00088543840684}
2019-04-14 21:06:53.61: SIM {TimeUS : 47835025, Roll : -0.11, Pitch : -0.09, Yaw : 359.89, Alt : 37.7700004578, Lat : 49.2835704, Lng : -123.1150206, Q1 : 0.999998688698, Q2 : -0.00102579081431, Q3 : -0.00083471549442, Q4 : -0.000916747318115}
2019-04-14 21:06:53.71: SIM {TimeUS : 47934985, Roll : -0.1, Pitch : -0.06, Yaw : 359.89, Alt : 38.0, Lat : 49.2835704, Lng : -123.1150206, Q1 : 0.999999046326, Q2 : -0.000886972004082, Q3 : -0.000531680125277, Q4 : -0.000940943311434}
2019-04-14 21:06:53.81: SIM {TimeUS : 48034945, Roll : -0.08, Pitch : -0.03, Yaw : 359.88, Alt : 38.2299995422, Lat : 49.2835704, Lng : -123.1150206, Q1 : 0.99999922514, Q2 : -0.000709860993084, Q3 : -0.00031022267649, Q4 : -0.000968411506619}
2019-04-14 21:06:53.91: SIM {TimeUS : 48134905, Roll : -0.07, Pitch : -0.03, Yaw : 359.88, Alt : 38.4500007629, Lat : 49.2835704, Lng : -123.1150206, Q1 : 0.99999922514, Q2 : -0.000647664943244, Q3 : -0.000307751673972, Q4 : -0.000998842879198}
2019-04-14 21:06:54.01: SIM {TimeUS : 48234865, Roll : -0.07, Pitch : -0.02, Yaw : 359.88, Alt : 38.6800003052, Lat : 49.2835704, Lng : -123.1150206, Q1 : 0.99999922514, Q2 : -0.000674844428431, Q3 : -0.000196614593733, Q4 : -0.00102333992254}
2019-04-14 21:06:54.11: SIM {TimeUS : 48334825, Roll : -0.09, Pitch : 0.0, Yaw : 359.88, Alt : 38.9099998474, Lat : 49.2835704, Lng : -123.1150206, Q1 : 0.99999910593, Q2 : -0.000819124223199, Q3 : -3.09084643959e-05, Q4 : -0.00104517501313}
2019-04-14 21:06:54.21: SIM {TimeUS : 48434785, Roll : -0.09, Pitch : 0.01, Yaw : 359.87, Alt : 39.1399993896, Lat : 49.2835706, Lng : -123.1150206, Q1 : 0.99999910593, Q2 : -0.000798501889221, Q3 : 0.000113427711767, Q4 : -0.00105862319469}
2019-04-14 21:06:54.31: SIM {TimeUS : 48534745, Roll : -0.07, Pitch : 0.04, Yaw : 359.87, Alt : 39.3699989319, Lat : 49.2835706, Lng : -123.1150206, Q1 : 0.999999165535, Q2 : -0.000633136543911, Q3 : 0.000361052749213, Q4 : -0.00106589705683}
2019-04-14 21:06:54.41: SIM {TimeUS : 48634705, Roll : -0.05, Pitch : 0.04, Yaw : 359.87, Alt : 39.5999984741, Lat : 49.2835706, Lng : -123.1150206, Q1 : 0.999999284744, Q2 : -0.00044046487892, Q3 : 0.000370983878383, Q4 : -0.00105907628313}
2019-04-14 21:06:54.51: SIM {TimeUS : 48734665, Roll : -0.02, Pitch : 0.03, Yaw : 359.88, Alt : 39.8300018311, Lat : 49.2835706, Lng : -123.1150207, Q1 : 0.999999403954, Q2 : -0.000216949614696, Q3 : 0.000332870549755, Q4 : -0.00104697979987}
2019-04-14 21:06:54.61: SIM {TimeUS : 48835458, Roll : 0.01, Pitch : 0.05, Yaw : 359.88, Alt : 40.0600013733, Lat : 49.2835706, Lng : -123.1150207, Q1 : 0.999999344349, Q2 : 9.74272770691e-05, Q3 : 0.000478491507238, Q4 : -0.0010398325976}
2019-04-14 21:06:54.71: SIM {TimeUS : 48935418, Roll : 0.05, Pitch : 0.08, Yaw : 359.88, Alt : 40.2900009155, Lat : 49.2835706, Lng : -123.1150207, Q1 : 0.99999910593, Q2 : 0.000460758223198, Q3 : 0.000719426607247, Q4 : -0.00103799719363}
2019-04-14 21:06:54.81: SIM {TimeUS : 49035378, Roll : 0.08, Pitch : 0.11, Yaw : 359.88, Alt : 40.5299987793, Lat : 49.2835706, Lng : -123.1150207, Q1 : 0.999998629093, Q2 : 0.000769662321545, Q3 : 0.0010148253059, Q4 : -0.00104805652518}
2019-04-14 21:06:54.91: SIM {TimeUS : 49135338, Roll : 0.08, Pitch : 0.15, Yaw : 359.87, Alt : 40.7599983215, Lat : 49.2835706, Lng : -123.1150207, Q1 : 0.99999833107, Q2 : 0.000717394577805, Q3 : 0.0013140871888, Q4 : -0.00105403165799}
2019-04-14 21:06:55.01: SIM {TimeUS : 49235298, Roll : 0.03, Pitch : 0.17, Yaw : 359.87, Alt : 40.9900016785, Lat : 49.2835706, Lng : -123.1150207, Q1 : 0.999998211861, Q2 : 0.00030803665868, Q3 : 0.00152631860692, Q4 : -0.00107961986214}
2019-04-14 21:06:55.11: SIM {TimeUS : 49335258, Roll : 0.0, Pitch : 0.18, Yaw : 359.87, Alt : 41.2200012207, Lat : 49.2835706, Lng : -123.1150207, Q1 : 0.999998092651, Q2 : -5.6382654293e-05, Q3 : 0.00162891077343, Q4 : -0.00110749388114}
2019-04-14 21:06:55.21: SIM {TimeUS : 49435218, Roll : -0.02, Pitch : 0.16, Yaw : 359.86, Alt : 41.4599990845, Lat : 49.2835706, Lng : -123.1150207, Q1 : 0.999998211861, Q2 : -0.000248502095928, Q3 : 0.00148100533988, Q4 : -0.00113973766565}
2019-04-14 21:06:55.31: SIM {TimeUS : 49535178, Roll : -0.03, Pitch : 0.13, Yaw : 359.86, Alt : 41.6899986267, Lat : 49.2835706, Lng : -123.1150207, Q1 : 0.999998509884, Q2 : -0.000329156609951, Q3 : 0.0012140981853, Q4 : -0.00118185475003}
2019-04-14 21:06:55.41: SIM {TimeUS : 49635138, Roll : -0.02, Pitch : 0.13, Yaw : 359.85, Alt : 41.9199981689, Lat : 49.2835706, Lng : -123.1150207, Q1 : 0.999998569489, Q2 : -0.000232636390137, Q3 : 0.00114586390555, Q4 : -0.00123411777895}
2019-04-14 21:06:55.51: SIM {TimeUS : 49735098, Roll : 0.01, Pitch : 0.14, Yaw : 359.85, Alt : 42.1599998474, Lat : 49.2835706, Lng : -123.1150207, Q1 : 0.999998390675, Q2 : 0.000121527467854, Q3 : 0.00124287267681, Q4 : -0.00129273207858}
2019-04-14 21:06:55.61: SIM {TimeUS : 49835058, Roll : 0.06, Pitch : 0.14, Yaw : 359.84, Alt : 42.3899993896, Lat : 49.2835706, Lng : -123.1150207, Q1 : 0.999998092651, Q2 : 0.000593858072534, Q3 : 0.00128898990806, Q4 : -0.00135118025355}
2019-04-14 21:06:55.71: SIM {TimeUS : 49935018, Roll : 0.1, Pitch : 0.12, Yaw : 359.83, Alt : 42.6300010681, Lat : 49.2835706, Lng : -123.1150207, Q1 : 0.999997973442, Q2 : 0.000949438894168, Q3 : 0.00105978606734, Q4 : -0.00140908814501}
2019-04-14 21:06:55.81: SIM {TimeUS : 50034978, Roll : 0.11, Pitch : 0.08, Yaw : 359.83, Alt : 42.8600006104, Lat : 49.2835706, Lng : -123.1150207, Q1 : 0.999998152256, Q2 : 0.000975692993961, Q3 : 0.000736803107429, Q4 : -0.00146054697689}
2019-04-14 21:06:55.91: SIM {TimeUS : 50134938, Roll : 0.07, Pitch : 0.05, Yaw : 359.82, Alt : 43.0999984741, Lat : 49.2835706, Lng : -123.1150207, Q1 : 0.999998569489, Q2 : 0.000620284117758, Q3 : 0.000491058162879, Q4 : -0.00149141938891}
2019-04-14 21:06:56.01: SIM {TimeUS : 50234898, Roll : 0.01, Pitch : 0.05, Yaw : 359.82, Alt : 43.3300018311, Lat : 49.2835706, Lng : -123.1150207, Q1 : 0.999998748302, Q2 : 0.000130857588374, Q3 : 0.000446791382274, Q4 : -0.00151168426964}
2019-04-14 21:06:56.11: SIM {TimeUS : 50334858, Roll : -0.02, Pitch : 0.07, Yaw : 359.82, Alt : 43.5699996948, Lat : 49.2835704, Lng : -123.1150207, Q1 : 0.999998569489, Q2 : -0.000236197767663, Q3 : 0.000657512806356, Q4 : -0.00152152276132}
2019-04-14 21:06:56.21: SIM {TimeUS : 50434818, Roll : -0.04, Pitch : 0.09, Yaw : 359.82, Alt : 43.7999992371, Lat : 49.2835704, Lng : -123.1150207, Q1 : 0.999998390675, Q2 : -0.000417256640503, Q3 : 0.000812291691545, Q4 : -0.00152699823957}
2019-04-14 21:06:56.31: SIM {TimeUS : 50534778, Roll : -0.04, Pitch : 0.08, Yaw : 359.82, Alt : 44.0400009155, Lat : 49.2835704, Lng : -123.1150207, Q1 : 0.999998509884, Q2 : -0.000389847089536, Q3 : 0.000735288660508, Q4 : -0.00152650114615}
2019-04-14 21:06:56.41: SIM {TimeUS : 50634738, Roll : -0.04, Pitch : 0.06, Yaw : 359.82, Alt : 44.2700004578, Lat : 49.2835704, Lng : -123.1150207, Q1 : 0.999998569489, Q2 : -0.000414030917455, Q3 : 0.000574794772547, Q4 : -0.00152613292448}
2019-04-14 21:06:56.51: SIM {TimeUS : 50734698, Roll : -0.04, Pitch : 0.04, Yaw : 359.82, Alt : 44.5099983215, Lat : 49.2835704, Lng : -123.1150207, Q1 : 0.999998688698, Q2 : -0.000357022450771, Q3 : 0.000425386038842, Q4 : -0.00153238419443}
2019-04-14 21:06:56.61: SIM {TimeUS : 50834658, Roll : -0.02, Pitch : 0.04, Yaw : 359.82, Alt : 44.7400016785, Lat : 49.2835704, Lng : -123.1150206, Q1 : 0.999998688698, Q2 : -0.000205159551115, Q3 : 0.000358893477824, Q4 : -0.0015480570728}
2019-04-14 21:06:56.71: SIM {TimeUS : 50935451, Roll : -0.01, Pitch : 0.03, Yaw : 359.81, Alt : 44.9799995422, Lat : 49.2835704, Lng : -123.1150206, Q1 : 0.999998688698, Q2 : -0.000126645260025, Q3 : 0.00033909486956, Q4 : -0.00157181627583}
2019-04-14 21:06:56.81: SIM {TimeUS : 51035411, Roll : -0.01, Pitch : 0.02, Yaw : 359.81, Alt : 45.2200012207, Lat : 49.2835704, Lng : -123.1150206, Q1 : 0.999998688698, Q2 : -0.000166836704011, Q3 : 0.000215077583562, Q4 : -0.00159911229275}
2019-04-14 21:06:56.91: SIM {TimeUS : 51135371, Roll : -0.02, Pitch : 0.0, Yaw : 359.81, Alt : 45.4500007629, Lat : 49.2835703, Lng : -123.1150206, Q1 : 0.999998688698, Q2 : -0.000207228004001, Q3 : -8.30916469567e-05, Q4 : -0.00162716209888}
2019-04-14 21:06:57.01: SIM {TimeUS : 51235331, Roll : -0.02, Pitch : -0.03, Yaw : 359.81, Alt : 45.6899986267, Lat : 49.2835703, Lng : -123.1150206, Q1 : 0.999998569489, Q2 : -0.000232615115237, Q3 : -0.000313880649628, Q4 : -0.00165440212004}
2019-04-14 21:06:57.11: SIM {TimeUS : 51335291, Roll : -0.02, Pitch : -0.04, Yaw : 359.8, Alt : 45.9199981689, Lat : 49.2835703, Lng : -123.1150206, Q1 : 0.999998509884, Q2 : -0.000187738623936, Q3 : -0.000426515878644, Q4 : -0.0016793460818}
2019-04-14 21:06:57.21: SIM {TimeUS : 51435251, Roll : -0.02, Pitch : -0.05, Yaw : 359.8, Alt : 46.1500015259, Lat : 49.2835703, Lng : -123.1150206, Q1 : 0.999998390675, Q2 : -0.000243930306169, Q3 : -0.000451152707683, Q4 : -0.00170467037242}
2019-04-14 21:06:57.31: SIM {TimeUS : 51535211, Roll : -0.05, Pitch : -0.04, Yaw : 359.8, Alt : 46.3800010681, Lat : 49.2835703, Lng : -123.1150206, Q1 : 0.99999833107, Q2 : -0.000437738432083, Q3 : -0.00037609692663, Q4 : -0.00173377350438}
2019-04-14 21:06:57.41: SIM {TimeUS : 51635171, Roll : -0.08, Pitch : -0.03, Yaw : 359.79, Alt : 46.5999984741, Lat : 49.2835703, Lng : -123.1150206, Q1 : 0.999998092651, Q2 : -0.000721764808986, Q3 : -0.000317470898153, Q4 : -0.00176580168772}
2019-04-14 21:06:57.51: SIM {TimeUS : 51735131, Roll : -0.1, Pitch : -0.03, Yaw : 359.79, Alt : 46.8100013733, Lat : 49.2835703, Lng : -123.1150206, Q1 : 0.999997913837, Q2 : -0.000917491328437, Q3 : -0.000311247305945, Q4 : -0.00179806235246}
2019-04-14 21:06:57.61: SIM {TimeUS : 51835091, Roll : -0.11, Pitch : -0.02, Yaw : 359.79, Alt : 47.0200004578, Lat : 49.2835703, Lng : -123.1150206, Q1 : 0.999997854233, Q2 : -0.000965289422311, Q3 : -0.000251437159022, Q4 : -0.00182734103873}
2019-04-14 21:06:57.71: SIM {TimeUS : 51935051, Roll : -0.1, Pitch : -0.01, Yaw : 359.78, Alt : 47.2299995422, Lat : 49.2835703, Lng : -123.1150206, Q1 : 0.999997913837, Q2 : -0.000895964738447, Q3 : -9.03869222384e-05, Q4 : -0.00185293448158}
2019-04-14 21:06:57.81: SIM {TimeUS : 52035011, Roll : -0.08, Pitch : 0.0, Yaw : 359.78, Alt : 47.4199981689, Lat : 49.2835703, Lng : -123.1150206, Q1 : 0.999997973442, Q2 : -0.000738320639357, Q3 : 2.04168882192e-05, Q4 : -0.00187622185331}
2019-04-14 21:06:57.91: SIM {TimeUS : 52134971, Roll : -0.06, Pitch : 0.0, Yaw : 359.78, Alt : 47.6100006104, Lat : 49.2835703, Lng : -123.1150206, Q1 : 0.999998033047, Q2 : -0.000591622316279, Q3 : 9.65978415479e-06, Q4 : -0.00189891178161}
2019-04-14 21:06:58.01: SIM {TimeUS : 52234931, Roll : -0.07, Pitch : -0.01, Yaw : 359.77, Alt : 47.7799987793, Lat : 49.2835703, Lng : -123.1150206, Q1 : 0.999997913837, Q2 : -0.000653806200717, Q3 : -0.000170013401657, Q4 : -0.00192075339146}
2019-04-14 21:06:58.11: SIM {TimeUS : 52334891, Roll : -0.07, Pitch : -0.04, Yaw : 359.77, Alt : 47.9500007629, Lat : 49.2835703, Lng : -123.1150206, Q1 : 0.999997794628, Q2 : -0.000645186752081, Q3 : -0.000407373037888, Q4 : -0.00194338697474}
2019-04-14 21:06:58.21: SIM {TimeUS : 52434851, Roll : -0.05, Pitch : -0.06, Yaw : 359.77, Alt : 48.0999984741, Lat : 49.2835703, Lng : -123.1150206, Q1 : 0.999997794628, Q2 : -0.000478784495499, Q3 : -0.000605621782597, Q4 : -0.00196686014533}
2019-04-14 21:06:58.31: SIM {TimeUS : 52534811, Roll : -0.03, Pitch : -0.09, Yaw : 359.77, Alt : 48.2400016785, Lat : 49.2835703, Lng : -123.1150206, Q1 : 0.999997615814, Q2 : -0.00034847293864, Q3 : -0.000785177457146, Q4 : -0.00199569924735}
2019-04-14 21:06:58.41: SIM {TimeUS : 52634771, Roll : -0.03, Pitch : -0.1, Yaw : 359.76, Alt : 48.3699989319, Lat : 49.2835703, Lng : -123.1150206, Q1 : 0.999997496605, Q2 : -0.000333296047756, Q3 : -0.000899393402506, Q4 : -0.00203030416742}
2019-04-14 21:06:58.51: SIM {TimeUS : 52734731, Roll : -0.01, Pitch : -0.09, Yaw : 359.76, Alt : 48.4799995422, Lat : 49.2835703, Lng : -123.1150206, Q1 : 0.999997496605, Q2 : -9.90234548226e-05, Q3 : -0.000860875414219, Q4 : -0.00206690467894}
2019-04-14 21:06:58.61: SIM {TimeUS : 52834691, Roll : 0.02, Pitch : -0.08, Yaw : 359.75, Alt : 48.5900001526, Lat : 49.2835703, Lng : -123.1150206, Q1 : 0.999997496605, Q2 : 0.000192538253032, Q3 : -0.000723682518583, Q4 : -0.0021030169446}
2019-04-14 21:06:58.71: SIM {TimeUS : 52935484, Roll : 0.05, Pitch : -0.05, Yaw : 359.75, Alt : 48.6800003052, Lat : 49.2835703, Lng : -123.1150206, Q1 : 0.999997496605, Q2 : 0.000436508271378, Q3 : -0.00050972844474, Q4 : -0.00213137618266}
2019-04-14 21:06:58.81: SIM {TimeUS : 53035444, Roll : 0.06, Pitch : -0.03, Yaw : 359.75, Alt : 48.7599983215, Lat : 49.2835703, Lng : -123.1150207, Q1 : 0.999997496605, Q2 : 0.000549582240637, Q3 : -0.000307607930154, Q4 : -0.0021579854656}
2019-04-14 21:06:58.91: SIM {TimeUS : 53135404, Roll : 0.06, Pitch : -0.02, Yaw : 359.74, Alt : 48.8300018311, Lat : 49.2835703, Lng : -123.1150207, Q1 : 0.999997437, Q2 : 0.000605699431617, Q3 : -0.000203336312552, Q4 : -0.00218185503036}
2019-04-14 21:06:59.01: SIM {TimeUS : 53235364, Roll : 0.06, Pitch : -0.03, Yaw : 359.74, Alt : 48.8899993896, Lat : 49.2835703, Lng : -123.1150207, Q1 : 0.999997377396, Q2 : 0.00054564740276, Q3 : -0.000283344794298, Q4 : -0.00220549828373}
2019-04-14 21:06:59.11: SIM {TimeUS : 53335324, Roll : 0.03, Pitch : -0.03, Yaw : 359.74, Alt : 48.9399986267, Lat : 49.2835703, Lng : -123.1150207, Q1 : 0.999997377396, Q2 : 0.000322427862557, Q3 : -0.000340274447808, Q4 : -0.00222900346853}
2019-04-14 21:06:59.21: SIM {TimeUS : 53435284, Roll : 0.02, Pitch : -0.04, Yaw : 359.74, Alt : 48.9900016785, Lat : 49.2835703, Lng : -123.1150207, Q1 : 0.999997377396, Q2 : 0.000247150339419, Q3 : -0.000349745590938, Q4 : -0.00225392100401}
2019-04-14 21:06:59.31: SIM {TimeUS : 53535244, Roll : 0.11, Pitch : -0.1, Yaw : 359.73, Alt : 49.0200004578, Lat : 49.2835703, Lng : -123.1150207, Q1 : 0.999996483326, Q2 : 0.00100008922163, Q3 : -0.000893078511581, Q4 : -0.00227699056268}
2019-04-14 21:06:59.41: SIM {TimeUS : 53635204, Roll : 0.4, Pitch : -0.28, Yaw : 359.73, Alt : 49.0600013733, Lat : 49.2835703, Lng : -123.1150207, Q1 : 0.999988079071, Q2 : 0.00353003037162, Q3 : -0.00247595412657, Q4 : -0.0022993918974}
2019-04-14 21:06:59.51: SIM {TimeUS : 53735164, Roll : 0.95, Pitch : -0.61, Yaw : 359.72, Alt : 49.0800018311, Lat : 49.2835704, Lng : -123.1150207, Q1 : 0.999948382378, Q2 : 0.00828450638801, Q3 : -0.00541024794802, Q4 : -0.00231446395628}
2019-04-14 21:06:59.61: SIM {TimeUS : 53835124, Roll : 1.7, Pitch : -1.09, Yaw : 359.71, Alt : 49.1100006104, Lat : 49.2835704, Lng : -123.1150207, Q1 : 0.99984139204, Q2 : 0.0148105295375, Q3 : -0.0096165407449, Q4 : -0.00231190188788}
2019-04-14 21:06:59.71: SIM {TimeUS : 53935084, Roll : 2.55, Pitch : -1.69, Yaw : 359.7, Alt : 49.1300010681, Lat : 49.2835704, Lng : -123.1150206, Q1 : 0.999638676643, Q2 : 0.0222938042134, Q3 : -0.0148427467793, Q4 : -0.00227683829144}
2019-04-14 21:06:59.81: SIM {TimeUS : 54035044, Roll : 3.4, Pitch : -2.3, Yaw : 359.68, Alt : 49.1500015259, Lat : 49.2835706, Lng : -123.1150205, Q1 : 0.999354541302, Q2 : 0.0296278875321, Q3 : -0.0201971381903, Q4 : -0.00218636565842}
2019-04-14 21:06:59.91: SIM {TimeUS : 54135004, Roll : 4.1, Pitch : -2.84, Yaw : 359.66, Alt : 49.1599998474, Lat : 49.2835707, Lng : -123.1150203, Q1 : 0.999049305916, Q2 : 0.035712108016, Q3 : -0.0249190125614, Q4 : -0.00203300267458}
2019-04-14 21:07:00.01: SIM {TimeUS : 54234964, Roll : 4.62, Pitch : -3.25, Yaw : 359.66, Alt : 49.1800003052, Lat : 49.2835708, Lng : -123.11502, Q1 : 0.998780488968, Q2 : 0.0402668118477, Q3 : -0.0285109411925, Q4 : -0.00181548739783}
2019-04-14 21:07:00.11: SIM {TimeUS : 54334924, Roll : 5.01, Pitch : -3.53, Yaw : 359.66, Alt : 49.1899986267, Lat : 49.2835709, Lng : -123.1150198, Q1 : 0.9985678792, Q2 : 0.0436449795961, Q3 : -0.0309016276151, Q4 : -0.00155405839905}
2019-04-14 21:07:00.21: SIM {TimeUS : 54434884, Roll : 5.32, Pitch : -3.74, Yaw : 359.67, Alt : 49.2000007629, Lat : 49.283571, Lng : -123.1150193, Q1 : 0.998387217522, Q2 : 0.0463124290109, Q3 : -0.0328098982573, Q4 : -0.00128975254484}
2019-04-14 21:07:00.31: SIM {TimeUS : 54534844, Roll : 5.6, Pitch : -3.94, Yaw : 359.68, Alt : 49.2099990845, Lat : 49.2835714, Lng : -123.1150188, Q1 : 0.998212277889, Q2 : 0.0487610474229, Q3 : -0.0345473885536, Q4 : -0.00101784756407}
2019-04-14 21:07:00.41: SIM {TimeUS : 54634804, Roll : 5.89, Pitch : -4.15, Yaw : 359.7, Alt : 49.2200012207, Lat : 49.2835716, Lng : -123.1150182, Q1 : 0.998023271561, Q2 : 0.0512727834284, Q3 : -0.0363335944712, Q4 : -0.000749446160626}
2019-04-14 21:07:00.51: SIM {TimeUS : 54734764, Roll : 6.18, Pitch : -4.37, Yaw : 359.7, Alt : 49.2200012207, Lat : 49.283572, Lng : -123.1150174, Q1 : 0.997816801071, Q2 : 0.0538083165884, Q3 : -0.0382892824709, Q4 : -0.000506826327182}
2019-04-14 21:07:00.61: SIM {TimeUS : 54834724, Roll : 6.45, Pitch : -4.58, Yaw : 359.7, Alt : 49.2299995422, Lat : 49.2835724, Lng : -123.1150166, Q1 : 0.997617602348, Q2 : 0.0561188645661, Q3 : -0.040120691061, Q4 : -0.000278118241113}
2019-04-14 21:07:00.71: SIM {TimeUS : 54934684, Roll : 6.67, Pitch : -4.75, Yaw : 359.71, Alt : 49.2299995422, Lat : 49.2835727, Lng : -123.1150157, Q1 : 0.997447133064, Q2 : 0.058064956218, Q3 : -0.0415658801794, Q4 : -6.06996582064e-05}
2019-04-14 21:07:00.81: SIM {TimeUS : 55035477, Roll : 6.82, Pitch : -4.85, Yaw : 359.72, Alt : 49.2400016785, Lat : 49.2835733, Lng : -123.1150147, Q1 : 0.997330069542, Q2 : 0.0594099350274, Q3 : -0.0424641519785, Q4 : 0.000120960081404}
2019-04-14 21:07:00.91: SIM {TimeUS : 55135437, Roll : 6.94, Pitch : -4.92, Yaw : 359.72, Alt : 49.2400016785, Lat : 49.2835738, Lng : -123.1150136, Q1 : 0.997245311737, Q2 : 0.060389533639, Q3 : -0.0430677644908, Q4 : 0.000251293677138}
2019-04-14 21:07:01.01: SIM {TimeUS : 55235397, Roll : 7.03, Pitch : -4.99, Yaw : 359.73, Alt : 49.25, Lat : 49.2835744, Lng : -123.1150124, Q1 : 0.997173368931, Q2 : 0.06118029356, Q3 : -0.0436131544411, Q4 : 0.000337584730005}
2019-04-14 21:07:01.11: SIM {TimeUS : 55335357, Roll : 7.21, Pitch : -5.01, Yaw : 359.75, Alt : 49.25, Lat : 49.2835749, Lng : -123.1150111, Q1 : 0.997068226337, Q2 : 0.0627498403192, Q3 : -0.0437832474709, Q4 : 0.000609685201198}
2019-04-14 21:07:01.21: SIM {TimeUS : 55435317, Roll : 7.61, Pitch : -4.87, Yaw : 0.1, Alt : 49.2599983215, Lat : 49.2835756, Lng : -123.1150096, Q1 : 0.99688822031, Q2 : 0.066388875246, Q3 : -0.0423378236592, Q4 : 0.00372454803437}
2019-04-14 21:07:01.31: SIM {TimeUS : 55535277, Roll : 8.22, Pitch : -4.65, Yaw : 1.43, Alt : 49.2599983215, Lat : 49.2835762, Lng : -123.1150082, Q1 : 0.996490478516, Q2 : 0.0721190869808, Q3 : -0.0396193899214, Q4 : 0.0153584228829}
2019-04-14 21:07:01.41: SIM {TimeUS : 55635237, Roll : 8.79, Pitch : -4.72, Yaw : 4.26, Alt : 49.2599983215, Lat : 49.2835769, Lng : -123.1150067, Q1 : 0.995403766632, Q2 : 0.078060567379, Q3 : -0.0382350236177, Q4 : 0.0401988998055}
2019-04-14 21:07:01.51: SIM {TimeUS : 55735197, Roll : 9.09, Pitch : -5.29, Yaw : 8.65, Alt : 49.2599983215, Lat : 49.2835776, Lng : -123.115005, Q1 : 0.992668449879, Q2 : 0.082460232079, Q3 : -0.0399367958307, Q4 : 0.0788335055113}
2019-04-14 21:07:01.61: SIM {TimeUS : 55835157, Roll : 8.91, Pitch : -6.36, Yaw : 14.44, Alt : 49.2599983215, Lat : 49.2835782, Lng : -123.1150032, Q1 : 0.986995816231, Q2 : 0.0839282423258, Q3 : -0.0451566800475, Q4 : 0.129445627332}
2019-04-14 21:07:01.71: SIM {TimeUS : 55935117, Roll : 8.11, Pitch : -7.8, Yaw : 21.37, Alt : 49.2599983215, Lat : 49.2835791, Lng : -123.1150013, Q1 : 0.977020263672, Q2 : 0.0819835960865, Q3 : -0.053576014936, Q4 : 0.189313963056}
2019-04-14 21:07:01.81: SIM {TimeUS : 56035077, Roll : 6.7, Pitch : -9.39, Yaw : 29.19, Alt : 49.2700004578, Lat : 49.2835798, Lng : -123.1149993, Q1 : 0.961610376835, Q2 : 0.0769725516438, Q3 : -0.0644193813205, Q4 : 0.255403369665}
2019-04-14 21:07:01.91: SIM {TimeUS : 56135037, Roll : 4.73, Pitch : -10.92, Yaw : 37.64, Alt : 49.2700004578, Lat : 49.2835806, Lng : -123.1149971, Q1 : 0.940139532089, Q2 : 0.0696410760283, Q3 : -0.0767343789339, Q4 : 0.324653029442}
2019-04-14 21:07:02.01: SIM {TimeUS : 56234997, Roll : 2.19, Pitch : -12.17, Yaw : 46.4, Alt : 49.2700004578, Lat : 49.2835813, Lng : -123.1149949, Q1 : 0.912976801395, Q2 : 0.0592502914369, Q3 : -0.0899979993701, Q4 : 0.393526524305}
2019-04-14 21:07:02.11: SIM {TimeUS : 56334957, Roll : -0.92, Pitch : -12.94, Yaw : 54.75, Alt : 49.2700004578, Lat : 49.2835823, Lng : -123.1149925, Q1 : 0.882733225822, Q2 : 0.0446794256568, Q3 : -0.103776022792, Q4 : 0.456088125706}
2019-04-14 21:07:02.21: SIM {TimeUS : 56434917, Roll : -4.06, Pitch : -13.14, Yaw : 61.8, Alt : 49.2700004578, Lat : 49.2835831, Lng : -123.1149901, Q1 : 0.853931963444, Q2 : 0.0285372640938, Q3 : -0.116227306426, Q4 : 0.506435632706}
2019-04-14 21:07:02.31: SIM {TimeUS : 56534877, Roll : -6.55, Pitch : -12.97, Yaw : 66.93, Alt : 49.2700004578, Lat : 49.2835842, Lng : -123.1149876, Q1 : 0.831061959267, Q2 : 0.014844994992, Q3 : -0.125417023897, Q4 : 0.541651427746}
2019-04-14 21:07:02.41: SIM {TimeUS : 56634837, Roll : -8.01, Pitch : -12.71, Yaw : 69.95, Alt : 49.2700004578, Lat : 49.2835854, Lng : -123.114985, Q1 : 0.816761612892, Q2 : 0.00639821775258, Q3 : -0.13028934598, Q4 : 0.562035799026}
2019-04-14 21:07:02.51: SIM {TimeUS : 56734797, Roll : -8.38, Pitch : -12.58, Yaw : 71.07, Alt : 49.2700004578, Lat : 49.2835866, Lng : -123.1149824, Q1 : 0.811332702637, Q2 : 0.00439718505368, Q3 : -0.131208375096, Q4 : 0.569652795792}
2019-04-14 21:07:02.61: SIM {TimeUS : 56834757, Roll : -7.84, Pitch : -12.72, Yaw : 70.61, Alt : 49.2700004578, Lat : 49.2835879, Lng : -123.1149798, Q1 : 0.813498198986, Q2 : 0.00844467245042, Q3 : -0.129525616765, Q4 : 0.566897273064}
2019-04-14 21:07:02.71: SIM {TimeUS : 56934717, Roll : -6.63, Pitch : -13.13, Yaw : 68.96, Alt : 49.2700004578, Lat : 49.2835893, Lng : -123.1149771, Q1 : 0.821285426617, Q2 : 0.0172407384962, Q3 : -0.12663975358, Q4 : 0.556017458439}
2019-04-14 21:07:02.81: SIM {TimeUS : 57034677, Roll : -4.98, Pitch : -13.73, Yaw : 66.44, Alt : 49.2700004578, Lat : 49.2835909, Lng : -123.1149743, Q1 : 0.832587242126, Q2 : 0.0293622724712, Q3 : -0.123621329665, Q4 : 0.539123535156}
2019-04-14 21:07:02.91: SIM {TimeUS : 57135470, Roll : -3.09, Pitch : -14.44, Yaw : 63.37, Alt : 49.2799987793, Lat : 49.2835925, Lng : -123.1149715, Q1 : 0.845642805099, Q2 : 0.043217331171, Q3 : -0.121006831527, Q4 : 0.518051981926}
2019-04-14 21:07:03.01: SIM {TimeUS : 57235430, Roll : -1.19, Pitch : -15.08, Yaw : 60.1, Alt : 49.2799987793, Lat : 49.283594, Lng : -123.1149685, Q1 : 0.858723938465, Q2 : 0.0567546486855, Q3 : -0.118764705956, Q4 : 0.495244383812}
2019-04-14 21:07:03.11: SIM {TimeUS : 57335390, Roll : 0.55, Pitch : -15.54, Yaw : 56.93, Alt : 49.2799987793, Lat : 49.2835957, Lng : -123.1149655, Q1 : 0.870683372021, Q2 : 0.0686807855964, Q3 : -0.11659771204, Q4 : 0.472861915827}
2019-04-14 21:07:03.21: SIM {TimeUS : 57435350, Roll : 1.99, Pitch : -15.8, Yaw : 54.19, Alt : 49.2799987793, Lat : 49.2835974, Lng : -123.1149622, Q1 : 0.880559980869, Q2 : 0.0779549255967, Q3 : -0.114523723722, Q4 : 0.45323446393}
2019-04-14 21:07:03.31: SIM {TimeUS : 57535310, Roll : 3.01, Pitch : -15.88, Yaw : 52.11, Alt : 49.2799987793, Lat : 49.2835989, Lng : -123.114959, Q1 : 0.887830257416, Q2 : 0.0840688794851, Q3 : -0.112618789077, Q4 : 0.438185930252}
2019-04-14 21:07:03.41: SIM {TimeUS : 57635270, Roll : 3.55, Pitch : -15.84, Yaw : 50.82, Alt : 49.2799987793, Lat : 49.2836007, Lng : -123.1149555, Q1 : 0.892352342606, Q2 : 0.0869035497308, Q3 : -0.111222960055, Q4 : 0.428700953722}
2019-04-14 21:07:03.51: SIM {TimeUS : 57735230, Roll : 3.63, Pitch : -15.77, Yaw : 50.32, Alt : 49.2799987793, Lat : 49.2836024, Lng : -123.1149521, Q1 : 0.894222915173, Q2 : 0.0868066772819, Q3 : -0.110798455775, Q4 : 0.424916177988}
2019-04-14 21:07:03.61: SIM {TimeUS : 57835190, Roll : 3.32, Pitch : -15.76, Yaw : 50.53, Alt : 49.2799987793, Lat : 49.2836041, Lng : -123.1149484, Q1 : 0.893699586391, Q2 : 0.0844950601459, Q3 : -0.111678868532, Q4 : 0.426250457764}
2019-04-14 21:07:03.71: SIM {TimeUS : 57935150, Roll : 2.71, Pitch : -15.83, Yaw : 51.3, Alt : 49.2799987793, Lat : 49.2836057, Lng : -123.1149446, Q1 : 0.89117628336, Q2 : 0.0807291269302, Q3 : -0.11395675689, Q4 : 0.431626588106}
2019-04-14 21:07:03.81: SIM {TimeUS : 58035110, Roll : 1.9, Pitch : -15.96, Yaw : 52.45, Alt : 49.2799987793, Lat : 49.2836074, Lng : -123.1149408, Q1 : 0.887192666531, Q2 : 0.0761425495148, Q3 : -0.117284178734, Q4 : 0.439699739218}
2019-04-14 21:07:03.91: SIM {TimeUS : 58135070, Roll : 1.01, Pitch : -16.13, Yaw : 53.8, Alt : 49.2799987793, Lat : 49.2836092, Lng : -123.1149369, Q1 : 0.882366657257, Q2 : 0.0712797045708, Q3 : -0.121166117489, Q4 : 0.449073582888}
2019-04-14 21:07:04.01: SIM {TimeUS : 58235030, Roll : 0.15, Pitch : -16.26, Yaw : 55.16, Alt : 49.2799987793, Lat : 49.2836109, Lng : -123.1149329, Q1 : 0.877356290817, Q2 : 0.0666724964976, Q3 : -0.124793440104, Q4 : 0.458505511284}
2019-04-14 21:07:04.11: SIM {TimeUS : 58334990, Roll : -0.56, Pitch : -16.35, Yaw : 56.38, Alt : 49.2900009155, Lat : 49.2836127, Lng : -123.1149288, Q1 : 0.8727388978, Q2 : 0.06291885674, Q3 : -0.127668067813, Q4 : 0.466978549957}
2019-04-14 21:07:04.21: SIM {TimeUS : 58434950, Roll : -1.1, Pitch : -16.4, Yaw : 57.35, Alt : 49.2900009155, Lat : 49.2836145, Lng : -123.1149247, Q1 : 0.868991434574, Q2 : 0.0601118765771, Q3 : -0.12976655364, Q4 : 0.47370994091}
2019-04-14 21:07:04.31: SIM {TimeUS : 58534910, Roll : -1.42, Pitch : -16.43, Yaw : 58.0, Alt : 49.2900009155, Lat : 49.2836163, Lng : -123.1149205, Q1 : 0.866397619247, Q2 : 0.0585392713547, Q3 : -0.130955129862, Q4 : 0.478308618069}
2019-04-14 21:07:04.41: SIM {TimeUS : 58634870, Roll : -1.51, Pitch : -16.43, Yaw : 58.33, Alt : 49.2900009155, Lat : 49.2836182, Lng : -123.1149163, Q1 : 0.865075588226, Q2 : 0.0582392439246, Q3 : -0.131168887019, Q4 : 0.480673730373}
2019-04-14 21:07:04.51: SIM {TimeUS : 58734830, Roll : -1.41, Pitch : -16.43, Yaw : 58.35, Alt : 49.2900009155, Lat : 49.2836201, Lng : -123.114912, Q1 : 0.864960253239, Q2 : 0.0590010210872, Q3 : -0.130746439099, Q4 : 0.480903357267}
2019-04-14 21:07:04.61: SIM {TimeUS : 58834790, Roll : -1.18, Pitch : -16.46, Yaw : 58.1, Alt : 49.2900009155, Lat : 49.283622, Lng : -123.1149077, Q1 : 0.865827858448, Q2 : 0.0605620257556, Q3 : -0.130119293928, Q4 : 0.479315489531}
2019-04-14 21:07:04.71: SIM {TimeUS : 58934750, Roll : -0.87, Pitch : -16.52, Yaw : 57.67, Alt : 49.2900009155, Lat : 49.2836239, Lng : -123.1149034, Q1 : 0.867386817932, Q2 : 0.0626710653305, Q3 : -0.129521593451, Q4 : 0.476378649473}
2019-04-14 21:07:04.81: SIM {TimeUS : 59034710, Roll : -0.53, Pitch : -16.6, Yaw : 57.14, Alt : 49.2900009155, Lat : 49.283626, Lng : -123.114899, Q1 : 0.869338154793, Q2 : 0.0650086775422, Q3 : -0.129021927714, Q4 : 0.472629249096}
2019-04-14 21:07:04.91: SIM {TimeUS : 59134670, Roll : -0.19, Pitch : -16.67, Yaw : 56.56, Alt : 49.2900009155, Lat : 49.283628, Lng : -123.1148945, Q1 : 0.87141919136, Q2 : 0.0672313794494, Q3 : -0.128481298685, Q4 : 0.468616187572}
2019-04-14 21:07:05.01: SIM {TimeUS : 59235463, Roll : 0.12, Pitch : -16.72, Yaw : 56.02, Alt : 49.2900009155, Lat : 49.28363, Lng : -123.11489, Q1 : 0.873392820358, Q2 : 0.0692267343402, Q3 : -0.127918675542, Q4 : 0.464789777994}
2019-04-14 21:07:05.11: SIM {TimeUS : 59335423, Roll : 0.37, Pitch : -16.76, Yaw : 55.56, Alt : 49.2900009155, Lat : 49.2836321, Lng : -123.1148855, Q1 : 0.875031769276, Q2 : 0.0708310082555, Q3 : -0.127447262406, Q4 : 0.461583822966}
2019-04-14 21:07:05.21: SIM {TimeUS : 59435383, Roll : 0.55, Pitch : -16.79, Yaw : 55.23, Alt : 49.2900009155, Lat : 49.2836341, Lng : -123.1148809, Q1 : 0.876242220402, Q2 : 0.0719455033541, Q3 : -0.127154275775, Q4 : 0.459189742804}
2019-04-14 21:07:05.31: SIM {TimeUS : 59535343, Roll : 0.64, Pitch : -16.81, Yaw : 55.02, Alt : 49.2900009155, Lat : 49.2836361, Lng : -123.1148763, Q1 : 0.876982986927, Q2 : 0.0724884867668, Q3 : -0.127078175545, Q4 : 0.457708865404}
2019-04-14 21:07:05.41: SIM {TimeUS : 59635303, Roll : 0.66, Pitch : -16.83, Yaw : 54.95, Alt : 49.2900009155, Lat : 49.2836383, Lng : -123.1148717, Q1 : 0.877245128155, Q2 : 0.0726215913892, Q3 : -0.127233296633, Q4 : 0.45714199543}
2019-04-14 21:07:05.51: SIM {TimeUS : 59735263, Roll : 0.6, Pitch : -16.86, Yaw : 54.99, Alt : 49.2900009155, Lat : 49.2836403, Lng : -123.114867, Q1 : 0.877083718777, Q2 : 0.072343185544, Q3 : -0.127640768886, Q4 : 0.457382231951}
2019-04-14 21:07:05.61: SIM {TimeUS : 59835223, Roll : 0.49, Pitch : -16.89, Yaw : 55.12, Alt : 49.2900009155, Lat : 49.2836425, Lng : -123.1148623, Q1 : 0.876596212387, Q2 : 0.0717777311802, Q3 : -0.128263875842, Q4 : 0.458230733871}
2019-04-14 21:07:05.71: SIM {TimeUS : 59935183, Roll : 0.35, Pitch : -16.94, Yaw : 55.3, Alt : 49.2900009155, Lat : 49.2836445, Lng : -123.1148575, Q1 : 0.875890910625, Q2 : 0.0710614025593, Q3 : -0.129052177072, Q4 : 0.459468066692}
2019-04-14 21:07:05.81: SIM {TimeUS : 60035143, Roll : 0.18, Pitch : -16.98, Yaw : 55.51, Alt : 49.2999992371, Lat : 49.2836467, Lng : -123.1148527, Q1 : 0.875092446804, Q2 : 0.0702338889241, Q3 : -0.129918992519, Q4 : 0.460870265961}
2019-04-14 21:07:05.91: SIM {TimeUS : 60135103, Roll : 0.02, Pitch : -17.02, Yaw : 55.72, Alt : 49.2999992371, Lat : 49.2836487, Lng : -123.1148479, Q1 : 0.874320447445, Q2 : 0.0693216696382, Q3 : -0.130750134587, Q4 : 0.462236613035}
2019-04-14 21:07:06.01: SIM {TimeUS : 60235063, Roll : -0.13, Pitch : -17.04, Yaw : 55.9, Alt : 49.2999992371, Lat : 49.2836509, Lng : -123.114843, Q1 : 0.873666763306, Q2 : 0.0684589073062, Q3 : -0.131420046091, Q4 : 0.463409721851}
2019-04-14 21:07:06.11: SIM {TimeUS : 60335023, Roll : -0.25, Pitch : -17.06, Yaw : 56.03, Alt : 49.2999992371, Lat : 49.283653, Lng : -123.1148382, Q1 : 0.873178958893, Q2 : 0.0677635297179, Q3 : -0.132020503283, Q4 : 0.4642598629}
2019-04-14 21:07:06.21: SIM {TimeUS : 60434983, Roll : -0.31, Pitch : -17.1, Yaw : 56.11, Alt : 49.2999992371, Lat : 49.2836552, Lng : -123.1148333, Q1 : 0.872854828835, Q2 : 0.0675345361233, Q3 : -0.132532685995, Q4 : 0.464756518602}
2019-04-14 21:07:06.31: SIM {TimeUS : 60534943, Roll : -0.31, Pitch : -17.14, Yaw : 56.13, Alt : 49.2999992371, Lat : 49.2836573, Lng : -123.1148284, Q1 : 0.872717618942, Q2 : 0.0677395388484, Q3 : -0.132843211293, Q4 : 0.46489572525}
2019-04-14 21:07:06.41: SIM {TimeUS : 60634903, Roll : -0.26, Pitch : -17.19, Yaw : 56.1, Alt : 49.2999992371, Lat : 49.2836596, Lng : -123.1148235, Q1 : 0.872759521008, Q2 : 0.068271972239, Q3 : -0.133012071252, Q4 : 0.464690834284}
2019-04-14 21:07:06.51: SIM {TimeUS : 60734863, Roll : -0.19, Pitch : -17.24, Yaw : 56.03, Alt : 49.2999992371, Lat : 49.2836618, Lng : -123.1148185, Q1 : 0.87295204401, Q2 : 0.0689673274755, Q3 : -0.133126184344, Q4 : 0.464193552732}
2019-04-14 21:07:06.61: SIM {TimeUS : 60834823, Roll : -0.1, Pitch : -17.28, Yaw : 55.93, Alt : 49.2999992371, Lat : 49.2836639, Lng : -123.1148135, Q1 : 0.873271405697, Q2 : 0.069633461535, Q3 : -0.133132755756, Q4 : 0.463491052389}
2019-04-14 21:07:06.71: SIM {TimeUS : 60934783, Roll : -0.03, Pitch : -17.3, Yaw : 55.81, Alt : 49.3100013733, Lat : 49.2836662, Lng : -123.1148085, Q1 : 0.873668372631, Q2 : 0.0701592862606, Q3 : -0.133100897074, Q4 : 0.462672054768}
2019-04-14 21:07:06.81: SIM {TimeUS : 61034743, Roll : 0.02, Pitch : -17.31, Yaw : 55.69, Alt : 49.3100013733, Lat : 49.2836683, Lng : -123.1148035, Q1 : 0.874097466469, Q2 : 0.0705319270492, Q3 : -0.133010745049, Q4 : 0.46183013916}
2019-04-14 21:07:06.91: SIM {TimeUS : 61134703, Roll : 0.08, Pitch : -17.31, Yaw : 55.58, Alt : 49.3100013733, Lat : 49.2836706, Lng : -123.1147985, Q1 : 0.874503731728, Q2 : 0.0708736479282, Q3 : -0.132816374302, Q4 : 0.461063981056}
2019-04-14 21:07:07.01: SIM {TimeUS : 61234663, Roll : 0.13, Pitch : -17.31, Yaw : 55.49, Alt : 49.3100013733, Lat : 49.2836729, Lng : -123.1147934, Q1 : 0.874849379063, Q2 : 0.0711351186037, Q3 : -0.132664293051, Q4 : 0.460411310196}
2019-04-14 21:07:07.11: SIM {TimeUS : 61335456, Roll : 0.18, Pitch : -17.34, Yaw : 55.42, Alt : 49.3100013733, Lat : 49.2836752, Lng : -123.1147883, Q1 : 0.875071525574, Q2 : 0.071527056396, Q3 : -0.132710561156, Q4 : 0.459914833307}
2019-04-14 21:07:07.21: SIM {TimeUS : 61435416, Roll : 0.21, Pitch : -17.38, Yaw : 55.37, Alt : 49.3100013733, Lat : 49.2836773, Lng : -123.1147832, Q1 : 0.875183701515, Q2 : 0.0718855634332, Q3 : -0.132944196463, Q4 : 0.459577918053}
2019-04-14 21:07:07.31: SIM {TimeUS : 61535376, Roll : 0.22, Pitch : -17.4, Yaw : 55.35, Alt : 49.3100013733, Lat : 49.2836797, Lng : -123.1147781, Q1 : 0.87524741888, Q2 : 0.0720221400261, Q3 : -0.133081763983, Q4 : 0.459395319223}
2019-04-14 21:07:07.41: SIM {TimeUS : 61635336, Roll : 0.22, Pitch : -17.4, Yaw : 55.34, Alt : 49.3100013733, Lat : 49.2836819, Lng : -123.114773, Q1 : 0.875264406204, Q2 : 0.0719803348184, Q3 : -0.133121713996, Q4 : 0.459357887506}
2019-04-14 21:07:07.51: SIM {TimeUS : 61735296, Roll : 0.19, Pitch : -17.42, Yaw : 55.35, Alt : 49.3100013733, Lat : 49.2836841, Lng : -123.1147679, Q1 : 0.87521147728, Q2 : 0.0718904286623, Q3 : -0.133380353451, Q4 : 0.459397852421}
2019-04-14 21:07:07.61: SIM {TimeUS : 61835256, Roll : 0.14, Pitch : -17.46, Yaw : 55.37, Alt : 49.3100013733, Lat : 49.2836864, Lng : -123.1147627, Q1 : 0.875119388103, Q2 : 0.0716455951333, Q3 : -0.133880376816, Q4 : 0.459466040134}
2019-04-14 21:07:07.71: SIM {TimeUS : 61935216, Roll : 0.09, Pitch : -17.49, Yaw : 55.4, Alt : 49.3100013733, Lat : 49.2836888, Lng : -123.1147576, Q1 : 0.875011146069, Q2 : 0.0714592039585, Q3 : -0.134295850992, Q4 : 0.459579855204}
2019-04-14 21:07:07.81: SIM {TimeUS : 62035176, Roll : 0.06, Pitch : -17.53, Yaw : 55.42, Alt : 49.3100013733, Lat : 49.2836911, Lng : -123.1147524, Q1 : 0.874896883965, Q2 : 0.071400500834, Q3 : -0.134696245193, Q4 : 0.459689468145}
2019-04-14 21:07:07.91: SIM {TimeUS : 62135136, Roll : 0.04, Pitch : -17.56, Yaw : 55.44, Alt : 49.3199996948, Lat : 49.2836934, Lng : -123.1147472, Q1 : 0.874810755253, Q2 : 0.071387194097, Q3 : -0.134949475527, Q4 : 0.459781080484}
2019-04-14 21:07:08.01: SIM {TimeUS : 62235096, Roll : 0.04, Pitch : -17.58, Yaw : 55.45, Alt : 49.3199996948, Lat : 49.2836956, Lng : -123.114742, Q1 : 0.874760746956, Q2 : 0.0714490264654, Q3 : -0.135093584657, Q4 : 0.459824353456}
2019-04-14 21:07:08.11: SIM {TimeUS : 62335056, Roll : 0.06, Pitch : -17.58, Yaw : 55.44, Alt : 49.3199996948, Lat : 49.283698, Lng : -123.1147368, Q1 : 0.874754071236, Q2 : 0.0715724974871, Q3 : -0.135069742799, Q4 : 0.459824860096}
2019-04-14 21:07:08.21: SIM {TimeUS : 62435016, Roll : 0.08, Pitch : -17.59, Yaw : 55.43, Alt : 49.3199996948, Lat : 49.2837003, Lng : -123.1147315, Q1 : 0.874767124653, Q2 : 0.0718208551407, Q3 : -0.135044366121, Q4 : 0.459768801928}
2019-04-14 21:07:08.31: SIM {TimeUS : 62534976, Roll : 0.11, Pitch : -17.61, Yaw : 55.41, Alt : 49.3199996948, Lat : 49.2837027, Lng : -123.1147263, Q1 : 0.874802410603, Q2 : 0.0720848217607, Q3 : -0.135093256831, Q4 : 0.459645926952}
2019-04-14 21:07:08.41: SIM {TimeUS : 62634936, Roll : 0.12, Pitch : -17.64, Yaw : 55.39, Alt : 49.3199996948, Lat : 49.283705, Lng : -123.114721, Q1 : 0.874861598015, Q2 : 0.0722694247961, Q3 : -0.135298907757, Q4 : 0.459443718195}
2019-04-14 21:07:08.51: SIM {TimeUS : 62734896, Roll : 0.12, Pitch : -17.68, Yaw : 55.36, Alt : 49.3199996948, Lat : 49.2837072, Lng : -123.1147158, Q1 : 0.8749319911, Q2 : 0.072349190712, Q3 : -0.135647431016, Q4 : 0.459194242954}
2019-04-14 21:07:08.61: SIM {TimeUS : 62834856, Roll : 0.11, Pitch : -17.73, Yaw : 55.33, Alt : 49.3199996948, Lat : 49.2837096, Lng : -123.1147105, Q1 : 0.875003218651, Q2 : 0.072431601584, Q3 : -0.13605338335, Q4 : 0.458925426006}
2019-04-14 21:07:08.71: SIM {TimeUS : 62934816, Roll : 0.12, Pitch : -17.76, Yaw : 55.3, Alt : 49.3199996948, Lat : 49.283712, Lng : -123.1147052, Q1 : 0.875075221062, Q2 : 0.0726163834333, Q3 : -0.136296376586, Q4 : 0.458686769009}
2019-04-14 21:07:08.81: SIM {TimeUS : 63034776, Roll : 0.13, Pitch : -17.77, Yaw : 55.27, Alt : 49.3199996948, Lat : 49.2837144, Lng : -123.1146999, Q1 : 0.875172197819, Q2 : 0.0727237090468, Q3 : -0.136309489608, Q4 : 0.458480805159}
2019-04-14 21:07:08.91: SIM {TimeUS : 63134736, Roll : 0.15, Pitch : -17.75, Yaw : 55.25, Alt : 49.3199996948, Lat : 49.2837167, Lng : -123.1146946, Q1 : 0.87528192997, Q2 : 0.0727690383792, Q3 : -0.136114910245, Q4 : 0.458321988583}
2019-04-14 21:07:09.01: SIM {TimeUS : 63234696, Roll : 0.16, Pitch : -17.73, Yaw : 55.23, Alt : 49.3199996948, Lat : 49.2837191, Lng : -123.1146893, Q1 : 0.875379621983, Q2 : 0.0726963058114, Q3 : -0.135976284742, Q4 : 0.458187967539}
2019-04-14 21:07:09.11: SIM {TimeUS : 63334656, Roll : 0.15, Pitch : -17.72, Yaw : 55.21, Alt : 49.3199996948, Lat : 49.2837215, Lng : -123.1146839, Q1 : 0.875463843346, Q2 : 0.0725981369615, Q3 : -0.135869190097, Q4 : 0.458074390888}
2019-04-14 21:07:09.21: SIM {TimeUS : 63435449, Roll : 0.15, Pitch : -17.7, Yaw : 55.2, Alt : 49.3199996948, Lat : 49.2837239, Lng : -123.1146786, Q1 : 0.875523686409, Q2 : 0.0725094527006, Q3 : -0.135747149587, Q4 : 0.458010226488}
2019-04-14 21:07:09.31: SIM {TimeUS : 63535409, Roll : 0.15, Pitch : -17.7, Yaw : 55.19, Alt : 49.3199996948, Lat : 49.2837261, Lng : -123.1146732, Q1 : 0.87554615736, Q2 : 0.0724916607141, Q3 : -0.135787606239, Q4 : 0.457958072424}
2019-04-14 21:07:09.41: SIM {TimeUS : 63635369, Roll : 0.15, Pitch : -17.72, Yaw : 55.19, Alt : 49.3199996948, Lat : 49.2837285, Lng : -123.1146678, Q1 : 0.875545144081, Q2 : 0.0725840702653, Q3 : -0.135886117816, Q4 : 0.457916229963}
2019-04-14 21:07:09.51: SIM {TimeUS : 63735329, Roll : 0.14, Pitch : -17.76, Yaw : 55.19, Alt : 49.3300018311, Lat : 49.2837309, Lng : -123.1146625, Q1 : 0.875516355038, Q2 : 0.0726744234562, Q3 : -0.136290282011, Q4 : 0.457836806774}
2019-04-14 21:07:09.61: SIM {TimeUS : 63835289, Roll : 0.13, Pitch : -17.82, Yaw : 55.18, Alt : 49.3300018311, Lat : 49.2837333, Lng : -123.114657, Q1 : 0.8754799366, Q2 : 0.0727870464325, Q3 : -0.136770188808, Q4 : 0.457745432854}
2019-04-14 21:07:09.71: SIM {TimeUS : 63935249, Roll : 0.13, Pitch : -17.86, Yaw : 55.17, Alt : 49.3300018311, Lat : 49.2837357, Lng : -123.1146517, Q1 : 0.875457525253, Q2 : 0.0729371011257, Q3 : -0.137124881148, Q4 : 0.457658261061}
2019-04-14 21:07:09.81: SIM {TimeUS : 64035209, Roll : 0.12, Pitch : -17.9, Yaw : 55.16, Alt : 49.3300018311, Lat : 49.2837381, Lng : -123.1146463, Q1 : 0.875455856323, Q2 : 0.0730166956782, Q3 : -0.137426555157, Q4 : 0.457558274269}
2019-04-14 21:07:09.91: SIM {TimeUS : 64135169, Roll : 0.11, Pitch : -17.92, Yaw : 55.15, Alt : 49.3300018311, Lat : 49.2837405, Lng : -123.1146409, Q1 : 0.875480413437, Q2 : 0.0730212926865, Q3 : -0.137616872787, Q4 : 0.45745331049}
2019-04-14 21:07:10.01: SIM {TimeUS : 64235129, Roll : 0.13, Pitch : -17.91, Yaw : 55.14, Alt : 49.3300018311, Lat : 49.283743, Lng : -123.1146355, Q1 : 0.875529289246, Q2 : 0.0730997845531, Q3 : -0.137503862381, Q4 : 0.457381218672}
2019-04-14 21:07:10.11: SIM {TimeUS : 64335089, Roll : 0.16, Pitch : -17.92, Yaw : 55.12, Alt : 49.3300018311, Lat : 49.2837454, Lng : -123.1146301, Q1 : 0.875566244125, Q2 : 0.0733293890953, Q3 : -0.137410849333, Q4 : 0.457301735878}
2019-04-14 21:07:10.21: SIM {TimeUS : 64435049, Roll : 0.18, Pitch : -17.93, Yaw : 55.11, Alt : 49.3300018311, Lat : 49.2837478, Lng : -123.1146247, Q1 : 0.875604867935, Q2 : 0.0734774246812, Q3 : -0.137437939644, Q4 : 0.457195907831}
2019-04-14 21:07:10.31: SIM {TimeUS : 64535009, Roll : 0.19, Pitch : -17.94, Yaw : 55.09, Alt : 49.3300018311, Lat : 49.2837502, Lng : -123.1146193, Q1 : 0.875644624233, Q2 : 0.0736032947898, Q3 : -0.137464806437, Q4 : 0.457091361284}
2019-04-14 21:07:10.41: SIM {TimeUS : 64634969, Roll : 0.2, Pitch : -17.93, Yaw : 55.08, Alt : 49.3300018311, Lat : 49.2837526, Lng : -123.1146139, Q1 : 0.875700473785, Q2 : 0.0736445039511, Q3 : -0.137412831187, Q4 : 0.456993311644}
2019-04-14 21:07:10.51: SIM {TimeUS : 64734929, Roll : 0.2, Pitch : -17.93, Yaw : 55.07, Alt : 49.3300018311, Lat : 49.283755, Lng : -123.1146084, Q1 : 0.875755667686, Q2 : 0.0736096426845, Q3 : -0.137432068586, Q4 : 0.456887364388}
2019-04-14 21:07:10.61: SIM {TimeUS : 64834889, Roll : 0.17, Pitch : -17.95, Yaw : 55.05, Alt : 49.3300018311, Lat : 49.2837575, Lng : -123.114603, Q1 : 0.875797152519, Q2 : 0.0734897777438, Q3 : -0.137696310878, Q4 : 0.456747621298}
2019-04-14 21:07:10.71: SIM {TimeUS : 64934849, Roll : 0.14, Pitch : -17.99, Yaw : 55.04, Alt : 49.3300018311, Lat : 49.2837599, Lng : -123.1145974, Q1 : 0.875816106796, Q2 : 0.0733856409788, Q3 : -0.138146489859, Q4 : 0.456592023373}
2019-04-14 21:07:10.81: SIM {TimeUS : 65034809, Roll : 0.12, Pitch : -18.0, Yaw : 55.03, Alt : 49.3300018311, Lat : 49.2837623, Lng : -123.1145921, Q1 : 0.875857949257, Q2 : 0.0732902735472, Q3 : -0.138275966048, Q4 : 0.456487894058}
2019-04-14 21:07:10.91: SIM {TimeUS : 65134769, Roll : 0.13, Pitch : -17.99, Yaw : 55.02, Alt : 49.3400001526, Lat : 49.2837648, Lng : -123.1145866, Q1 : 0.875910818577, Q2 : 0.073280185461, Q3 : -0.13814753294, Q4 : 0.456426978111}
2019-04-14 21:07:11.01: SIM {TimeUS : 65234729, Roll : 0.15, Pitch : -17.98, Yaw : 55.01, Alt : 49.3400001526, Lat : 49.2837672, Lng : -123.1145812, Q1 : 0.875955224037, Q2 : 0.0733449012041, Q3 : -0.137996613979, Q4 : 0.45637691021}
2019-04-14 21:07:11.11: SIM {TimeUS : 65334689, Roll : 0.16, Pitch : -17.98, Yaw : 55.0, Alt : 49.3400001526, Lat : 49.2837696, Lng : -123.1145757, Q1 : 0.875982344151, Q2 : 0.0734490975738, Q3 : -0.138022482395, Q4 : 0.456300318241}
2019-04-14 21:07:11.21: SIM {TimeUS : 65435482, Roll : 0.15, Pitch : -18.01, Yaw : 54.99, Alt : 49.3400001526, Lat : 49.2837721, Lng : -123.1145702, Q1 : 0.876004993916, Q2 : 0.073432199657, Q3 : -0.138248831034, Q4 : 0.456191003323}
2019-04-14 21:07:11.31: SIM {TimeUS : 65535442, Roll : 0.12, Pitch : -18.03, Yaw : 54.98, Alt : 49.3400001526, Lat : 49.2837745, Lng : -123.1145647, Q1 : 0.876028060913, Q2 : 0.0733312293887, Q3 : -0.138548389077, Q4 : 0.456072092056}
2019-04-14 21:07:11.41: SIM {TimeUS : 65635402, Roll : 0.11, Pitch : -18.04, Yaw : 54.97, Alt : 49.3400001526, Lat : 49.283777, Lng : -123.1145591, Q1 : 0.876056313515, Q2 : 0.0733109638095, Q3 : -0.138681545854, Q4 : 0.45598050952}
2019-04-14 21:07:11.51: SIM {TimeUS : 65735362, Roll : 0.12, Pitch : -18.06, Yaw : 54.96, Alt : 49.3400001526, Lat : 49.2837794, Lng : -123.1145536, Q1 : 0.876080572605, Q2 : 0.0733930915594, Q3 : -0.138746827841, Q4 : 0.455900937319}
2019-04-14 21:07:11.61: SIM {TimeUS : 65835322, Roll : 0.13, Pitch : -18.07, Yaw : 54.95, Alt : 49.3400001526, Lat : 49.2837819, Lng : -123.1145481, Q1 : 0.876099288464, Q2 : 0.0735224187374, Q3 : -0.138779520988, Q4 : 0.455834150314}
2019-04-14 21:07:11.71: SIM {TimeUS : 65935282, Roll : 0.16, Pitch : -18.08, Yaw : 54.94, Alt : 49.3400001526, Lat : 49.2837843, Lng : -123.1145427, Q1 : 0.876102268696, Q2 : 0.0737569481134, Q3 : -0.138803064823, Q4 : 0.455783307552}
2019-04-14 21:07:11.81: SIM {TimeUS : 66035242, Roll : 0.17, Pitch : -18.1, Yaw : 54.93, Alt : 49.3400001526, Lat : 49.2837867, Lng : -123.1145372, Q1 : 0.876103937626, Q2 : 0.07393296808, Q3 : -0.13889272511, Q4 : 0.455724269152}
2019-04-14 21:07:11.91: SIM {TimeUS : 66135202, Roll : 0.19, Pitch : -18.12, Yaw : 54.92, Alt : 49.3400001526, Lat : 49.2837892, Lng : -123.1145317, Q1 : 0.876105070114, Q2 : 0.0740985423326, Q3 : -0.138993740082, Q4 : 0.455664485693}
2019-04-14 21:07:12.01: SIM {TimeUS : 66235162, Roll : 0.2, Pitch : -18.13, Yaw : 54.91, Alt : 49.3400001526, Lat : 49.2837916, Lng : -123.1145262, Q1 : 0.876104831696, Q2 : 0.0742959305644, Q3 : -0.139045029879, Q4 : 0.455617129803}
2019-04-14 21:07:12.11: SIM {TimeUS : 66335122, Roll : 0.24, Pitch : -18.15, Yaw : 54.91, Alt : 49.3400001526, Lat : 49.2837941, Lng : -123.1145207, Q1 : 0.876097083092, Q2 : 0.0745844095945, Q3 : -0.139008656144, Q4 : 0.455595970154}
