2019-04-14 22:16:41.40: SIM {TimeUS : 40216407, Roll : 0.0, Pitch : 0.0, Yaw : 0.0, Alt : 30.1000003815, Lat : 49.28357, Lng : -123.11502, Q1 : 1.0, Q2 : 0.0, Q3 : 0.0, Q4 : 0.0}
2019-04-14 22:16:41.51: SIM {TimeUS : 40335526, Roll : 0.0, Pitch : 0.0, Yaw : 0.0, Alt : 30.1000003815, Lat : 49.28357, Lng : -123.11502, Q1 : 1.0, Q2 : 0.0, Q3 : 0.0, Q4 : 0.0}
2019-04-14 22:16:41.61: SIM {TimeUS : 40435486, Roll : 0.0, Pitch : 0.0, Yaw : 0.0, Alt : 30.1000003815, Lat : 49.28357, Lng : -123.11502, Q1 : 1.0, Q2 : 0.0, Q3 : 0.0, Q4 : 0.0}
2019-04-14 22:16:41.71: SIM {TimeUS : 40535446, Roll : 0.0, Pitch : 0.0, Yaw : 0.0, Alt : 30.1000003815, Lat : 49.28357, Lng : -123.11502, Q1 : 1.0, Q2 : 0.0, Q3 : 0.0, Q4 : 0.0}
2019-04-14 22:16:41.81: SIM {TimeUS : 40635406, Roll : 0.0, Pitch : 0.0, Yaw : 0.0, Alt : 30.1000003815, Lat : 49.28357, Lng : -123.11502, Q1 : 1.0, Q2 : 0.0, Q3 : 0.0, Q4 : 0.0}
2019-04-14 22:16:41.91: SIM {TimeUS : 40735366, Roll : 0.0, Pitch : 0.0, Yaw : 0.0, Alt : 30.1000003815, Lat : 49.28357, Lng : -123.11502, Q1 : 1.0, Q2 : 0.0, Q3 : 0.0, Q4 : 0.0}
2019-04-14 22:16:42.01: SIM {TimeUS : 40835326, Roll : 0.0, Pitch : 0.0, Yaw : 0.0, Alt : 30.1000003815, Lat : 49.28357, Lng : -123.11502, Q1 : 1.0, Q2 : 0.0, Q3 : 0.0, Q4 : 0.0}
2019-04-14 22:16:42.11: SIM {TimeUS : 40935286, Roll : 0.0, Pitch : 0.0, Yaw : 0.0, Alt : 30.1000003815, Lat : 49.28357, Lng : -123.11502, Q1 : 1.0, Q2 : 0.0, Q3 : 0.0, Q4 : 0.0}
2019-04-14 22:16:42.21: SIM {TimeUS : 41035246, Roll : 0.0, Pitch : 0.0, Yaw : 0.0, Alt : 30.1000003815, Lat : 49.28357, Lng : -123.11502, Q1 : 1.0, Q2 : 0.0, Q3 : 0.0, Q4 : 0.0}
2019-04-14 22:16:42.31: SIM {TimeUS : 41135206, Roll : 0.0, Pitch : 0.0, Yaw : 0.0, Alt : 30.1000003815, Lat : 49.28357, Lng : -123.11502, Q1 : 1.0, Q2 : 0.0, Q3 : 0.0, Q4 : 0.0}
2019-04-14 22:16:42.41: SIM {TimeUS : 41235166, Roll : 0.0, Pitch : 0.0, Yaw : 0.0, Alt : 30.1000003815, Lat : 49.28357, Lng : -123.11502, Q1 : 1.0, Q2 : 0.0, Q3 : 0.0, Q4 : 0.0}
2019-04-14 22:16:42.51: SIM {TimeUS : 41335126, Roll : 0.0, Pitch : 0.0, Yaw : 0.0, Alt : 30.1000003815, Lat : 49.28357, Lng : -123.11502, Q1 : 1.0, Q2 : 0.0, Q3 : 0.0, Q4 : 0.0}
2019-04-14 22:16:42.61: SIM {TimeUS : 41435086, Roll : 0.0, Pitch : 0.0, Yaw : 0.0, Alt : 30.1000003815, Lat : 49.28357, Lng : -123.11502, Q1 : 1.0, Q2 : 0.0, Q3 : 0.0, Q4 : 0.0}
2019-04-14 22:16:42.71: SIM {TimeUS : 41535046, Roll : 0.0, Pitch : 0.0, Yaw : 0.0, Alt : 30.1000003815, Lat : 49.28357, Lng : -123.11502, Q1 : 1.0, Q2 : 0.0, Q3 : 0.0, Q4 : 0.0}
2019-04-14 22:16:42.81: SIM {TimeUS : 41635006, Roll : 0.0, Pitch : 0.0, Yaw : 0.0, Alt : 30.1000003815, Lat : 49.28357, Lng : -123.11502, Q1 : 1.0, Q2 : 0.0, Q3 : 0.0, Q4 : 0.0}
2019-04-14 22:16:42.91: SIM {TimeUS : 41734966, Roll : 0.0, Pitch : 0.0, Yaw : 0.0, Alt : 30.1000003815, Lat : 49.28357, Lng : -123.11502, Q1 : 1.0, Q2 : 0.0, Q3 : 0.0, Q4 : 0.0}
2019-04-14 22:16:43.01: SIM {TimeUS : 41834926, Roll : 0.0, Pitch : 0.0, Yaw : 0.0, Alt : 30.1000003815, Lat : 49.28357, Lng : -123.11502, Q1 : 1.0, Q2 : 0.0, Q3 : 0.0, Q4 : 0.0}
2019-04-14 22:16:43.11: SIM {TimeUS : 41934886, Roll : 0.0, Pitch : 0.0, Yaw : 0.0, Alt : 30.1000003815, Lat : 49.28357, Lng : -123.11502, Q1 : 1.0, Q2 : 0.0, Q3 : 0.0, Q4 : 0.0}
2019-04-14 22:16:43.21: SIM {TimeUS : 42034846, Roll : 0.0, Pitch : 0.0, Yaw : 0.0, Alt : 30.1000003815, Lat : 49.28357, Lng : -123.11502, Q1 : 1.0, Q2 : 0.0, Q3 : 0.0, Q4 : 0.0}
2019-04-14 22:16:43.31: SIM {TimeUS : 42134806, Roll : 0.0, Pitch : 0.0, Yaw : 0.0, Alt : 30.1000003815, Lat : 49.28357, Lng : -123.11502, Q1 : 1.0, Q2 : 0.0, Q3 : 0.0, Q4 : 0.0}
2019-04-14 22:16:43.41: SIM {TimeUS : 42234766, Roll : 0.0, Pitch : 0.0, Yaw : 0.0, Alt : 30.1000003815, Lat : 49.28357, Lng : -123.11502, Q1 : 1.0, Q2 : 0.0, Q3 : 0.0, Q4 : 0.0}
2019-04-14 22:16:43.51: SIM {TimeUS : 42335559, Roll : 0.0, Pitch : 0.0, Yaw : 0.0, Alt : 30.1000003815, Lat : 49.28357, Lng : -123.11502, Q1 : 1.0, Q2 : 0.0, Q3 : 0.0, Q4 : 0.0}
2019-04-14 22:16:43.61: SIM {TimeUS : 42435519, Roll : 0.0, Pitch : 0.0, Yaw : 0.0, Alt : 30.1000003815, Lat : 49.28357, Lng : -123.11502, Q1 : 1.0, Q2 : 0.0, Q3 : 0.0, Q4 : 0.0}
2019-04-14 22:16:43.71: SIM {TimeUS : 42535479, Roll : 0.0, Pitch : 0.0, Yaw : 360.0, Alt : 30.1000003815, Lat : 49.28357, Lng : -123.11502, Q1 : 1.0, Q2 : 0.0, Q3 : 0.0, Q4 : -1.4079991513e-12}
2019-04-14 22:16:43.81: SIM {TimeUS : 42635439, Roll : 0.0, Pitch : 0.0, Yaw : 0.0, Alt : 30.1000003815, Lat : 49.28357, Lng : -123.11502, Q1 : 1.0, Q2 : 0.0, Q3 : 0.0, Q4 : 2.27504577677e-11}
2019-04-14 22:16:43.91: SIM {TimeUS : 42735399, Roll : 0.0, Pitch : 0.0, Yaw : 360.0, Alt : 30.1000003815, Lat : 49.28357, Lng : -123.11502, Q1 : 1.0, Q2 : 0.0, Q3 : 0.0, Q4 : -1.59848354997e-07}
2019-04-14 22:16:44.01: SIM {TimeUS : 42835359, Roll : 0.0, Pitch : 0.0, Yaw : 359.99, Alt : 30.1000003815, Lat : 49.28357, Lng : -123.11502, Q1 : 1.0, Q2 : 0.0, Q3 : 0.0, Q4 : -3.35635519377e-07}
2019-04-14 22:16:44.11: SIM {TimeUS : 42935319, Roll : 0.0, Pitch : 0.0, Yaw : 359.99, Alt : 30.1000003815, Lat : 49.28357, Lng : -123.11502, Q1 : 1.0, Q2 : 0.0, Q3 : 0.0, Q4 : -5.30331476511e-07}
2019-04-14 22:16:44.21: SIM {TimeUS : 43035279, Roll : 0.0, Pitch : 0.0, Yaw : 359.99, Alt : 30.1000003815, Lat : 49.28357, Lng : -123.11502, Q1 : 1.0, Q2 : 0.0, Q3 : 0.0, Q4 : -7.35103583338e-07}
2019-04-14 22:16:44.31: SIM {TimeUS : 43135239, Roll : 0.0, Pitch : 0.0, Yaw : 359.99, Alt : 30.1000003815, Lat : 49.28357, Lng : -123.11502, Q1 : 1.0, Q2 : 0.0, Q3 : 0.0, Q4 : -9.12013206289e-07}
2019-04-14 22:16:44.41: SIM {TimeUS : 43235199, Roll : 0.0, Pitch : 0.0, Yaw : 359.99, Alt : 30.1000003815, Lat : 49.28357, Lng : -123.11502, Q1 : 1.0, Q2 : 0.0, Q3 : 0.0, Q4 : -1.12913539851e-06}
2019-04-14 22:16:44.51: SIM {TimeUS : 43335159, Roll : 0.0, Pitch : 0.0, Yaw : 359.99, Alt : 30.1000003815, Lat : 49.28357, Lng : -123.11502, Q1 : 1.0, Q2 : 0.0, Q3 : 0.0, Q4 : -1.32929835672e-06}
2019-04-14 22:16:44.61: SIM {TimeUS : 43435119, Roll : 0.0, Pitch : 0.0, Yaw : 359.99, Alt : 30.1200008392, Lat : 49.28357, Lng : -123.11502, Q1 : 1.0, Q2 : 0.0, Q3 : 0.0, Q4 : -1.55741008712e-06}
2019-04-14 22:16:44.71: SIM {TimeUS : 43535079, Roll : 0.0, Pitch : 0.0, Yaw : 359.99, Alt : 30.1399993896, Lat : 49.28357, Lng : -123.11502, Q1 : 1.0, Q2 : 0.0, Q3 : 0.0, Q4 : -1.80437564268e-06}
2019-04-14 22:16:44.81: SIM {TimeUS : 43635039, Roll : 0.0, Pitch : 0.0, Yaw : 359.99, Alt : 30.1700000763, Lat : 49.28357, Lng : -123.11502, Q1 : 1.0, Q2 : 0.0, Q3 : 0.0, Q4 : -2.07927973861e-06}
2019-04-14 22:16:44.91: SIM {TimeUS : 43734999, Roll : 0.0, Pitch : 0.0, Yaw : 359.99, Alt : 30.2000007629, Lat : 49.28357, Lng : -123.11502, Q1 : 1.0, Q2 : 0.0, Q3 : 0.0, Q4 : -2.29794727602e-06}
2019-04-14 22:16:45.01: SIM {TimeUS : 43834959, Roll : -0.1, Pitch : -0.08, Yaw : 359.99, Alt : 30.25, Lat : 49.28357, Lng : -123.11502, Q1 : 0.999999284744, Q2 : -0.000945437466726, Q3 : -0.000766454788391, Q4 : -1.19026053653e-05}
2019-04-14 22:16:45.11: SIM {TimeUS : 43934919, Roll : -0.41, Pitch : -0.33, Yaw : 359.99, Alt : 30.3500003815, Lat : 49.28357, Lng : -123.11502, Q1 : 0.999989211559, Q2 : -0.00359205924906, Q3 : -0.00294988090172, Q4 : -4.73498439533e-05}
2019-04-14 22:16:45.21: SIM {TimeUS : 44034879, Roll : -0.69, Pitch : -0.59, Yaw : 359.99, Alt : 30.4899997711, Lat : 49.28357, Lng : -123.11502, Q1 : 0.999968349934, Q2 : -0.00606691185385, Q3 : -0.00515101430938, Q4 : -0.000109711429104}
2019-04-14 22:16:45.31: SIM {TimeUS : 44134839, Roll : -0.84, Pitch : -0.73, Yaw : 359.98, Alt : 30.6499996185, Lat : 49.28357, Lng : -123.11502, Q1 : 0.999952614307, Q2 : -0.00733928987756, Q3 : -0.00639808597043, Q4 : -0.000185341501492}
2019-04-14 22:16:45.41: SIM {TimeUS : 44234799, Roll : -0.83, Pitch : -0.73, Yaw : 359.97, Alt : 30.8099994659, Lat : 49.28357, Lng : -123.11502, Q1 : 0.999952852726, Q2 : -0.00726502947509, Q3 : -0.00644011329859, Q4 : -0.000269399781246}
2019-04-14 22:16:45.51: SIM {TimeUS : 44334759, Roll : -0.69, Pitch : -0.62, Yaw : 359.96, Alt : 30.9599990845, Lat : 49.28357, Lng : -123.1150201, Q1 : 0.999966442585, Q2 : -0.0061047365889, Q3 : -0.00545245176181, Q4 : -0.000348355417373}
2019-04-14 22:16:45.61: SIM {TimeUS : 44435552, Roll : -0.46, Pitch : -0.45, Yaw : 359.95, Alt : 31.1200008392, Lat : 49.2835701, Lng : -123.1150202, Q1 : 0.999983549118, Q2 : -0.00409392127767, Q3 : -0.0039975955151, Q4 : -0.000416654947912}
2019-04-14 22:16:45.71: SIM {TimeUS : 44535512, Roll : -0.23, Pitch : -0.26, Yaw : 359.94, Alt : 31.2800006866, Lat : 49.2835701, Lng : -123.1150203, Q1 : 0.999995052814, Q2 : -0.00207164138556, Q3 : -0.00231526396237, Q4 : -0.000474497122923}
2019-04-14 22:16:45.81: SIM {TimeUS : 44635472, Roll : -0.06, Pitch : -0.09, Yaw : 359.94, Alt : 31.4400005341, Lat : 49.2835702, Lng : -123.1150204, Q1 : 0.999999344349, Q2 : -0.000589866715018, Q3 : -0.000824705290142, Q4 : -0.000521078589372}
2019-04-14 22:16:45.91: SIM {TimeUS : 44735432, Roll : 0.02, Pitch : 0.01, Yaw : 359.93, Alt : 31.6200008392, Lat : 49.2835702, Lng : -123.1150204, Q1 : 0.999999821186, Q2 : 0.000257181789493, Q3 : 0.000131266919198, Q4 : -0.000553022662643}
2019-04-14 22:16:46.01: SIM {TimeUS : 44835392, Roll : 0.06, Pitch : 0.05, Yaw : 359.93, Alt : 31.7999992371, Lat : 49.2835703, Lng : -123.1150205, Q1 : 0.999999582767, Q2 : 0.000552633195184, Q3 : 0.000519654946402, Q4 : -0.000573549245019}
2019-04-14 22:16:46.11: SIM {TimeUS : 44935352, Roll : 0.06, Pitch : 0.05, Yaw : 359.93, Alt : 31.9799995422, Lat : 49.2835703, Lng : -123.1150206, Q1 : 0.999999582767, Q2 : 0.000549677642994, Q3 : 0.000479274342069, Q4 : -0.000583813991398}
2019-04-14 22:16:46.21: SIM {TimeUS : 45035312, Roll : 0.06, Pitch : 0.03, Yaw : 359.93, Alt : 32.1699981689, Lat : 49.2835703, Lng : -123.1150206, Q1 : 0.999999642372, Q2 : 0.000560422020499, Q3 : 0.000328794878442, Q4 : -0.000583709741477}
2019-04-14 22:16:46.31: SIM {TimeUS : 45135272, Roll : 0.07, Pitch : 0.03, Yaw : 359.93, Alt : 32.3600006104, Lat : 49.2835703, Lng : -123.1150207, Q1 : 0.999999582767, Q2 : 0.000690422486514, Q3 : 0.000289930263534, Q4 : -0.000577126629651}
2019-04-14 22:16:46.41: SIM {TimeUS : 45235232, Roll : 0.09, Pitch : 0.05, Yaw : 359.93, Alt : 32.5499992371, Lat : 49.2835703, Lng : -123.1150207, Q1 : 0.999999344349, Q2 : 0.000857404083945, Q3 : 0.000502186478116, Q4 : -0.000556988525204}
2019-04-14 22:16:46.51: SIM {TimeUS : 45335192, Roll : 0.1, Pitch : 0.09, Yaw : 359.94, Alt : 32.75, Lat : 49.2835703, Lng : -123.1150208, Q1 : 0.999999046326, Q2 : 0.00095085427165, Q3 : 0.000858526327647, Q4 : -0.00052407727344}
2019-04-14 22:16:46.61: SIM {TimeUS : 45435152, Roll : 0.11, Pitch : 0.13, Yaw : 359.94, Alt : 32.9500007629, Lat : 49.2835704, Lng : -123.1150208, Q1 : 0.999998688698, Q2 : 0.000976073497441, Q3 : 0.00121727981605, Q4 : -0.000493944913615}
2019-04-14 22:16:46.71: SIM {TimeUS : 45535112, Roll : 0.13, Pitch : 0.18, Yaw : 359.94, Alt : 33.1500015259, Lat : 49.2835704, Lng : -123.1150208, Q1 : 0.999997973442, Q2 : 0.00113739608787, Q3 : 0.00158725562505, Q4 : -0.000477752328152}
2019-04-14 22:16:46.81: SIM {TimeUS : 45635072, Roll : 0.16, Pitch : 0.2, Yaw : 359.94, Alt : 33.3499984741, Lat : 49.2835704, Lng : -123.1150209, Q1 : 0.999997317791, Q2 : 0.00141217035707, Q3 : 0.001787389745, Q4 : -0.000481819442939}
2019-04-14 22:16:46.91: SIM {TimeUS : 45735032, Roll : 0.18, Pitch : 0.21, Yaw : 359.94, Alt : 33.5600013733, Lat : 49.2835704, Lng : -123.1150209, Q1 : 0.999996781349, Q2 : 0.00163409276865, Q3 : 0.00187332881615, Q4 : -0.000493940373417}
2019-04-14 22:16:47.01: SIM {TimeUS : 45834992, Roll : 0.19, Pitch : 0.21, Yaw : 359.94, Alt : 33.7599983215, Lat : 49.2835704, Lng : -123.1150209, Q1 : 0.999996721745, Q2 : 0.00168363645207, Q3 : 0.0018698227359, Q4 : -0.000512957340106}
2019-04-14 22:16:47.11: SIM {TimeUS : 45934952, Roll : 0.18, Pitch : 0.18, Yaw : 359.93, Alt : 33.9700012207, Lat : 49.2835704, Lng : -123.1150209, Q1 : 0.999997198582, Q2 : 0.00164456968196, Q3 : 0.00160504796077, Q4 : -0.00053738540737}
2019-04-14 22:16:47.21: SIM {TimeUS : 46034912, Roll : 0.17, Pitch : 0.13, Yaw : 359.93, Alt : 34.1800003052, Lat : 49.2835706, Lng : -123.1150209, Q1 : 0.999998033047, Q2 : 0.00148564728443, Q3 : 0.00118088093586, Q4 : -0.000549447722733}
2019-04-14 22:16:47.31: SIM {TimeUS : 46134872, Roll : 0.14, Pitch : 0.09, Yaw : 359.93, Alt : 34.3899993896, Lat : 49.2835706, Lng : -123.1150209, Q1 : 0.999998748302, Q2 : 0.0012418422848, Q3 : 0.000795682368334, Q4 : -0.000556804297958}
2019-04-14 22:16:47.41: SIM {TimeUS : 46234832, Roll : 0.11, Pitch : 0.06, Yaw : 359.93, Alt : 34.6100006104, Lat : 49.2835704, Lng : -123.1150209, Q1 : 0.999999165535, Q2 : 0.00101000769064, Q3 : 0.000551265431568, Q4 : -0.000573550234549}
2019-04-14 22:16:47.51: SIM {TimeUS : 46334792, Roll : 0.1, Pitch : 0.06, Yaw : 359.93, Alt : 34.8199996948, Lat : 49.2835704, Lng : -123.1150209, Q1 : 0.999999284744, Q2 : 0.000892726180609, Q3 : 0.000523539551068, Q4 : -0.000598805432674}
2019-04-14 22:16:47.61: SIM {TimeUS : 46434752, Roll : 0.08, Pitch : 0.04, Yaw : 359.92, Alt : 35.0400009155, Lat : 49.2835704, Lng : -123.1150208, Q1 : 0.999999403954, Q2 : 0.000781191745773, Q3 : 0.000406980514526, Q4 : -0.00062030821573}
2019-04-14 22:16:47.71: SIM {TimeUS : 46535545, Roll : 0.06, Pitch : 0.04, Yaw : 359.92, Alt : 35.25, Lat : 49.2835704, Lng : -123.1150208, Q1 : 0.999999582767, Q2 : 0.000605183769949, Q3 : 0.00035197896068, Q4 : -0.00064414733788}
2019-04-14 22:16:47.81: SIM {TimeUS : 46635505, Roll : 0.04, Pitch : 0.03, Yaw : 359.92, Alt : 35.4700012207, Lat : 49.2835704, Lng : -123.1150208, Q1 : 0.999999642372, Q2 : 0.000381670863135, Q3 : 0.000310303817969, Q4 : -0.000668737571687}
2019-04-14 22:16:47.91: SIM {TimeUS : 46735465, Roll : 0.02, Pitch : 0.03, Yaw : 359.92, Alt : 35.6899986267, Lat : 49.2835704, Lng : -123.1150208, Q1 : 0.999999701977, Q2 : 0.000196203225642, Q3 : 0.000285087444354, Q4 : -0.00069168349728}
2019-04-14 22:16:48.01: SIM {TimeUS : 46835425, Roll : 0.01, Pitch : 0.0, Yaw : 359.91, Alt : 35.9099998474, Lat : 49.2835704, Lng : -123.1150208, Q1 : 0.999999761581, Q2 : 0.000130752305267, Q3 : 6.82066529407e-05, Q4 : -0.000707919534761}
2019-04-14 22:16:48.11: SIM {TimeUS : 46935385, Roll : 0.0, Pitch : -0.01, Yaw : 359.91, Alt : 36.1300010681, Lat : 49.2835704, Lng : -123.1150207, Q1 : 0.999999761581, Q2 : 7.45587749407e-05, Q3 : -0.00010102889064, Q4 : -0.000724697776604}
2019-04-14 22:16:48.21: SIM {TimeUS : 47035345, Roll : 0.0, Pitch : -0.02, Yaw : 359.91, Alt : 36.3499984741, Lat : 49.2835704, Lng : -123.1150207, Q1 : 0.999999701977, Q2 : -8.32242585602e-05, Q3 : -0.000203512696316, Q4 : -0.000749294704292}
2019-04-14 22:16:48.31: SIM {TimeUS : 47135305, Roll : -0.01, Pitch : -0.02, Yaw : 359.91, Alt : 36.5699996948, Lat : 49.2835704, Lng : -123.1150207, Q1 : 0.999999642372, Q2 : -0.000137829236337, Q3 : -0.000222576447413, Q4 : -0.000777343404479}
2019-04-14 22:16:48.41: SIM {TimeUS : 47235265, Roll : 0.0, Pitch : -0.02, Yaw : 359.9, Alt : 36.7999992371, Lat : 49.2835704, Lng : -123.1150207, Q1 : 0.999999642372, Q2 : -1.04719592855e-05, Q3 : -0.000205736141652, Q4 : -0.000807168369647}
2019-04-14 22:16:48.51: SIM {TimeUS : 47335225, Roll : 0.0, Pitch : -0.03, Yaw : 359.9, Alt : 37.0200004578, Lat : 49.2835704, Lng : -123.1150207, Q1 : 0.999999582767, Q2 : -2.61933346337e-05, Q3 : -0.000277022947557, Q4 : -0.000837067258544}
2019-04-14 22:16:48.61: SIM {TimeUS : 47435185, Roll : -0.02, Pitch : -0.05, Yaw : 359.9, Alt : 37.25, Lat : 49.2835704, Lng : -123.1150207, Q1 : 0.999999463558, Q2 : -0.000247456540819, Q3 : -0.000495839980431, Q4 : -0.000870861753356}
2019-04-14 22:16:48.71: SIM {TimeUS : 47535145, Roll : -0.06, Pitch : -0.08, Yaw : 359.89, Alt : 37.4700012207, Lat : 49.2835704, Lng : -123.1150207, Q1 : 0.999999165535, Q2 : -0.00060283759376, Q3 : -0.000710241787601, Q4 : -0.000910193484742}
2019-04-14 22:16:48.81: SIM {TimeUS : 47635105, Roll : -0.1, Pitch : -0.09, Yaw : 359.89, Alt : 37.7000007629, Lat : 49.2835704, Lng : -123.1150206, Q1 : 0.999998748302, Q2 : -0.000940694240853, Q3 : -0.000843777670525, Q4 : -0.00094785913825}
2019-04-14 22:16:48.91: SIM {TimeUS : 47735065, Roll : -0.13, Pitch : -0.1, Yaw : 359.88, Alt : 37.9199981689, Lat : 49.2835704, Lng : -123.1150206, Q1 : 0.999998450279, Q2 : -0.00115585688036, Q3 : -0.000889910268597, Q4 : -0.000986688653938}
2019-04-14 22:16:49.01: SIM {TimeUS : 47835025, Roll : -0.13, Pitch : -0.09, Yaw : 359.88, Alt : 38.1500015259, Lat : 49.2835704, Lng : -123.1150206, Q1 : 0.999998450279, Q2 : -0.0012046181364, Q3 : -0.000800972164143, Q4 : -0.0010237863753}
2019-04-14 22:16:49.11: SIM {TimeUS : 47934985, Roll : -0.11, Pitch : -0.05, Yaw : 359.87, Alt : 38.3800010681, Lat : 49.2835704, Lng : -123.1150206, Q1 : 0.999998807907, Q2 : -0.00103351229336, Q3 : -0.000492615101393, Q4 : -0.00105357856955}
2019-04-14 22:16:49.21: SIM {TimeUS : 48034945, Roll : -0.08, Pitch : -0.03, Yaw : 359.87, Alt : 38.6100006104, Lat : 49.2835704, Lng : -123.1150206, Q1 : 0.99999910593, Q2 : -0.000774347689003, Q3 : -0.000277173501672, Q4 : -0.00108012231067}
2019-04-14 22:16:49.31: SIM {TimeUS : 48134905, Roll : -0.07, Pitch : -0.02, Yaw : 359.87, Alt : 38.8300018311, Lat : 49.2835704, Lng : -123.1150206, Q1 : 0.999999165535, Q2 : -0.000659821147565, Q3 : -0.000237367697991, Q4 : -0.00110805290751}
2019-04-14 22:16:49.41: SIM {TimeUS : 48234865, Roll : -0.07, Pitch : -0.01, Yaw : 359.87, Alt : 39.0600013733, Lat : 49.2835704, Lng : -123.1150206, Q1 : 0.999999165535, Q2 : -0.000641211285256, Q3 : -0.000104479695437, Q4 : -0.00112855585758}
2019-04-14 22:16:49.51: SIM {TimeUS : 48334825, Roll : -0.08, Pitch : 0.0, Yaw : 359.86, Alt : 39.2900009155, Lat : 49.2835706, Lng : -123.1150206, Q1 : 0.999999046326, Q2 : -0.000755873974413, Q3 : 5.76806996833e-05, Q4 : -0.00113759527449}
2019-04-14 22:16:49.61: SIM {TimeUS : 48434785, Roll : -0.08, Pitch : 0.02, Yaw : 359.86, Alt : 39.5200004578, Lat : 49.2835706, Lng : -123.1150206, Q1 : 0.999999046326, Q2 : -0.000736422371119, Q3 : 0.000179450376891, Q4 : -0.00114059553016}
2019-04-14 22:16:49.71: SIM {TimeUS : 48534745, Roll : -0.06, Pitch : 0.04, Yaw : 359.86, Alt : 39.75, Lat : 49.2835706, Lng : -123.1150206, Q1 : 0.99999910593, Q2 : -0.000589533883613, Q3 : 0.000386727857403, Q4 : -0.00114101183135}
2019-04-14 22:16:49.81: SIM {TimeUS : 48635538, Roll : -0.04, Pitch : 0.04, Yaw : 359.86, Alt : 39.9900016785, Lat : 49.2835706, Lng : -123.1150206, Q1 : 0.99999922514, Q2 : -0.000378743046895, Q3 : 0.000367881904822, Q4 : -0.00113723287359}
2019-04-14 22:16:49.91: SIM {TimeUS : 48735498, Roll : 0.0, Pitch : 0.03, Yaw : 359.86, Alt : 40.2200012207, Lat : 49.2835706, Lng : -123.1150207, Q1 : 0.999999284744, Q2 : -8.54176760186e-05, Q3 : 0.000295197416563, Q4 : -0.00113730982412}
2019-04-14 22:16:50.01: SIM {TimeUS : 48835458, Roll : 0.02, Pitch : 0.05, Yaw : 359.87, Alt : 40.4500007629, Lat : 49.2835706, Lng : -123.1150207, Q1 : 0.99999922514, Q2 : 0.000243351867539, Q3 : 0.000479866517708, Q4 : -0.00113409361802}
2019-04-14 22:16:50.11: SIM {TimeUS : 48935418, Roll : 0.07, Pitch : 0.1, Yaw : 359.86, Alt : 40.6800003052, Lat : 49.2835706, Lng : -123.1150207, Q1 : 0.999998748302, Q2 : 0.000636873184703, Q3 : 0.000902368454263, Q4 : -0.00113899400458}
2019-04-14 22:16:50.21: SIM {TimeUS : 49035378, Roll : 0.1, Pitch : 0.15, Yaw : 359.86, Alt : 40.9099998474, Lat : 49.2835706, Lng : -123.1150207, Q1 : 0.999998033047, Q2 : 0.00089211325394, Q3 : 0.00133888714481, Q4 : -0.00115524535067}
2019-04-14 22:16:50.31: SIM {TimeUS : 49135338, Roll : 0.08, Pitch : 0.19, Yaw : 359.86, Alt : 41.1500015259, Lat : 49.2835706, Lng : -123.1150207, Q1 : 0.999997615814, Q2 : 0.000779384747148, Q3 : 0.0016854602145, Q4 : -0.00116648175754}
2019-04-14 22:16:50.41: SIM {TimeUS : 49235298, Roll : 0.03, Pitch : 0.21, Yaw : 359.86, Alt : 41.3800010681, Lat : 49.2835706, Lng : -123.1150207, Q1 : 0.999997496605, Q2 : 0.000330395705532, Q3 : 0.00187724386342, Q4 : -0.00118922581896}
2019-04-14 22:16:50.51: SIM {TimeUS : 49335258, Roll : -0.01, Pitch : 0.21, Yaw : 359.86, Alt : 41.6100006104, Lat : 49.2835706, Lng : -123.1150207, Q1 : 0.999997437, Q2 : -8.93603209988e-05, Q3 : 0.0019059239421, Q4 : -0.00121262005996}
2019-04-14 22:16:50.61: SIM {TimeUS : 49435218, Roll : -0.02, Pitch : 0.18, Yaw : 359.85, Alt : 41.8499984741, Lat : 49.2835706, Lng : -123.1150207, Q1 : 0.999997913837, Q2 : -0.000254772487096, Q3 : 0.00160532374866, Q4 : -0.00123271322809}
2019-04-14 22:16:50.71: SIM {TimeUS : 49535178, Roll : -0.02, Pitch : 0.13, Yaw : 359.85, Alt : 42.0800018311, Lat : 49.2835706, Lng : -123.1150207, Q1 : 0.999998450279, Q2 : -0.000251531106187, Q3 : 0.00120064197108, Q4 : -0.00125680095516}
2019-04-14 22:16:50.81: SIM {TimeUS : 49635138, Roll : -0.01, Pitch : 0.12, Yaw : 359.85, Alt : 42.3100013733, Lat : 49.2835706, Lng : -123.1150207, Q1 : 0.999998569489, Q2 : -9.41379621509e-05, Q3 : 0.00107427721377, Q4 : -0.00128548184875}
2019-04-14 22:16:50.91: SIM {TimeUS : 49735098, Roll : 0.02, Pitch : 0.13, Yaw : 359.84, Alt : 42.5499992371, Lat : 49.2835706, Lng : -123.1150207, Q1 : 0.999998450279, Q2 : 0.000257094507106, Q3 : 0.0011351761641, Q4 : -0.00132024823688}
2019-04-14 22:16:51.01: SIM {TimeUS : 49835058, Roll : 0.08, Pitch : 0.13, Yaw : 359.84, Alt : 42.7799987793, Lat : 49.2835706, Lng : -123.1150207, Q1 : 0.999998092651, Q2 : 0.000706491235178, Q3 : 0.00119011767674, Q4 : -0.00135675782803}
2019-04-14 22:16:51.11: SIM {TimeUS : 49935018, Roll : 0.11, Pitch : 0.12, Yaw : 359.83, Alt : 43.0200004578, Lat : 49.2835706, Lng : -123.1150207, Q1 : 0.999997913837, Q2 : 0.00103196070995, Q3 : 0.00107299024239, Q4 : -0.00140165246557}
2019-04-14 22:16:51.21: SIM {TimeUS : 50034978, Roll : 0.11, Pitch : 0.09, Yaw : 359.83, Alt : 43.25, Lat : 49.2835706, Lng : -123.1150207, Q1 : 0.999998033047, Q2 : 0.00102389988024, Q3 : 0.000868040195201, Q4 : -0.00144341168925}
2019-04-14 22:16:51.31: SIM {TimeUS : 50134938, Roll : 0.07, Pitch : 0.08, Yaw : 359.83, Alt : 43.4900016785, Lat : 49.2835706, Lng : -123.1150207, Q1 : 0.999998450279, Q2 : 0.000649197550956, Q3 : 0.000737942464184, Q4 : -0.00147004052997}
2019-04-14 22:16:51.41: SIM {TimeUS : 50234898, Roll : 0.01, Pitch : 0.07, Yaw : 359.82, Alt : 43.7200012207, Lat : 49.2835704, Lng : -123.1150207, Q1 : 0.999998629093, Q2 : 0.000144150399137, Q3 : 0.000680763507262, Q4 : -0.00149203138426}
2019-04-14 22:16:51.51: SIM {TimeUS : 50334858, Roll : -0.02, Pitch : 0.08, Yaw : 359.82, Alt : 43.9599990845, Lat : 49.2835704, Lng : -123.1150207, Q1 : 0.999998569489, Q2 : -0.000206531200092, Q3 : 0.000735408510081, Q4 : -0.0015169037506}
2019-04-14 22:16:51.61: SIM {TimeUS : 50434818, Roll : -0.04, Pitch : 0.08, Yaw : 359.82, Alt : 44.1899986267, Lat : 49.2835704, Lng : -123.1150207, Q1 : 0.999998450279, Q2 : -0.00037468719529, Q3 : 0.000739732990041, Q4 : -0.00154016620945}
2019-04-14 22:16:51.71: SIM {TimeUS : 50534778, Roll : -0.03, Pitch : 0.06, Yaw : 359.82, Alt : 44.4300003052, Lat : 49.2835704, Lng : -123.1150206, Q1 : 0.999998569489, Q2 : -0.000345618318534, Q3 : 0.000592084310483, Q4 : -0.00155811267905}
2019-04-14 22:16:51.81: SIM {TimeUS : 50634738, Roll : -0.04, Pitch : 0.04, Yaw : 359.81, Alt : 44.6699981689, Lat : 49.2835704, Lng : -123.1150206, Q1 : 0.999998629093, Q2 : -0.000385122111766, Q3 : 0.000384235347155, Q4 : -0.00157752865925}
2019-04-14 22:16:51.91: SIM {TimeUS : 50735531, Roll : -0.04, Pitch : 0.02, Yaw : 359.81, Alt : 44.9000015259, Lat : 49.2835704, Lng : -123.1150206, Q1 : 0.999998629093, Q2 : -0.000354108371539, Q3 : 0.000185383294593, Q4 : -0.00159684207756}
2019-04-14 22:16:52.01: SIM {TimeUS : 50835491, Roll : -0.02, Pitch : 0.0, Yaw : 359.81, Alt : 45.1399993896, Lat : 49.2835704, Lng : -123.1150206, Q1 : 0.999998688698, Q2 : -0.000198777532205, Q3 : 7.38323651603e-05, Q4 : -0.00161950173788}
2019-04-14 22:16:52.11: SIM {TimeUS : 50935451, Roll : -0.01, Pitch : 0.0, Yaw : 359.81, Alt : 45.3800010681, Lat : 49.2835703, Lng : -123.1150206, Q1 : 0.999998629093, Q2 : -0.000159173228894, Q3 : 5.68228017528e-07, Q4 : -0.00164371111896}
2019-04-14 22:16:52.21: SIM {TimeUS : 51035411, Roll : -0.02, Pitch : 0.0, Yaw : 359.8, Alt : 45.6100006104, Lat : 49.2835703, Lng : -123.1150206, Q1 : 0.999998569489, Q2 : -0.000217299093492, Q3 : -8.30235367175e-05, Q4 : -0.00166973040905}
2019-04-14 22:16:52.31: SIM {TimeUS : 51135371, Roll : -0.03, Pitch : -0.03, Yaw : 359.8, Alt : 45.8400001526, Lat : 49.2835703, Lng : -123.1150206, Q1 : 0.999998450279, Q2 : -0.00029642006848, Q3 : -0.000274108664598, Q4 : -0.00169831898529}
2019-04-14 22:16:52.41: SIM {TimeUS : 51235331, Roll : -0.03, Pitch : -0.04, Yaw : 359.8, Alt : 46.0800018311, Lat : 49.2835703, Lng : -123.1150206, Q1 : 0.999998390675, Q2 : -0.000330211216351, Q3 : -0.000405156402849, Q4 : -0.0017295127036}
2019-04-14 22:16:52.51: SIM {TimeUS : 51335291, Roll : -0.03, Pitch : -0.04, Yaw : 359.79, Alt : 46.2999992371, Lat : 49.2835703, Lng : -123.1150206, Q1 : 0.99999833107, Q2 : -0.000268172821961, Q3 : -0.000435258203652, Q4 : -0.00176095857751}
2019-04-14 22:16:52.61: SIM {TimeUS : 51435251, Roll : -0.03, Pitch : -0.04, Yaw : 359.79, Alt : 46.5299987793, Lat : 49.2835703, Lng : -123.1150206, Q1 : 0.999998271465, Q2 : -0.000278223189525, Q3 : -0.000396523944801, Q4 : -0.00179109198507}
2019-04-14 22:16:52.71: SIM {TimeUS : 51535211, Roll : -0.05, Pitch : -0.03, Yaw : 359.79, Alt : 46.7400016785, Lat : 49.2835703, Lng : -123.1150206, Q1 : 0.999998211861, Q2 : -0.000442697986728, Q3 : -0.000314439676004, Q4 : -0.00182327791117}
2019-04-14 22:16:52.81: SIM {TimeUS : 51635171, Roll : -0.08, Pitch : -0.03, Yaw : 359.78, Alt : 46.9599990845, Lat : 49.2835703, Lng : -123.1150206, Q1 : 0.999997973442, Q2 : -0.000720963987987, Q3 : -0.000305127265165, Q4 : -0.0018584469799}
2019-04-14 22:16:52.91: SIM {TimeUS : 51735131, Roll : -0.1, Pitch : -0.03, Yaw : 359.78, Alt : 47.1599998474, Lat : 49.2835703, Lng : -123.1150205, Q1 : 0.999997735023, Q2 : -0.000914783566259, Q3 : -0.00032154811197, Q4 : -0.00189325318206}
2019-04-14 22:16:53.01: SIM {TimeUS : 51835091, Roll : -0.11, Pitch : -0.02, Yaw : 359.77, Alt : 47.3600006104, Lat : 49.2835703, Lng : -123.1150205, Q1 : 0.999997615814, Q2 : -0.000966598745435, Q3 : -0.000257622130448, Q4 : -0.00192645739298}
2019-04-14 22:16:53.11: SIM {TimeUS : 51935051, Roll : -0.09, Pitch : 0.0, Yaw : 359.77, Alt : 47.5499992371, Lat : 49.2835703, Lng : -123.1150205, Q1 : 0.999997675419, Q2 : -0.000867374415975, Q3 : -7.14811394573e-05, Q4 : -0.00195687636733}
2019-04-14 22:16:53.21: SIM {TimeUS : 52035011, Roll : -0.1, Pitch : -0.01, Yaw : 359.77, Alt : 47.7299995422, Lat : 49.2835703, Lng : -123.1150205, Q1 : 0.999997615814, Q2 : -0.000896234239917, Q3 : -0.000114767113701, Q4 : -0.0019863191992}
2019-04-14 22:16:53.31: SIM {TimeUS : 52134971, Roll : -0.11, Pitch : -0.03, Yaw : 359.76, Alt : 47.8899993896, Lat : 49.2835703, Lng : -123.1150206, Q1 : 0.999997496605, Q2 : -0.000992163317278, Q3 : -0.000263587600784, Q4 : -0.00201152195223}
2019-04-14 22:16:53.41: SIM {TimeUS : 52234931, Roll : -0.11, Pitch : -0.04, Yaw : 359.76, Alt : 48.0499992371, Lat : 49.2835703, Lng : -123.1150206, Q1 : 0.999997317791, Q2 : -0.00101943220943, Q3 : -0.000405227212468, Q4 : -0.00203069276176}
2019-04-14 22:16:53.51: SIM {TimeUS : 52334891, Roll : -0.1, Pitch : -0.06, Yaw : 359.76, Alt : 48.1899986267, Lat : 49.2835703, Lng : -123.1150206, Q1 : 0.999997317791, Q2 : -0.000923971587326, Q3 : -0.000542602210771, Q4 : -0.00204825936817}
2019-04-14 22:16:53.61: SIM {TimeUS : 52434851, Roll : -0.07, Pitch : -0.07, Yaw : 359.76, Alt : 48.3300018311, Lat : 49.2835703, Lng : -123.1150206, Q1 : 0.999997437, Q2 : -0.000666110368911, Q3 : -0.00064184027724, Q4 : -0.00206680153497}
2019-04-14 22:16:53.71: SIM {TimeUS : 52534811, Roll : -0.05, Pitch : -0.08, Yaw : 359.76, Alt : 48.4500007629, Lat : 49.2835703, Lng : -123.1150206, Q1 : 0.999997437, Q2 : -0.000448364618933, Q3 : -0.000718006980605, Q4 : -0.00209002150223}
2019-04-14 22:16:53.81: SIM {TimeUS : 52634771, Roll : -0.04, Pitch : -0.08, Yaw : 359.75, Alt : 48.5499992371, Lat : 49.2835703, Lng : -123.1150206, Q1 : 0.999997377396, Q2 : -0.0003664183605, Q3 : -0.000779184454586, Q4 : -0.0021122219041}
2019-04-14 22:16:53.91: SIM {TimeUS : 52735564, Roll : -0.01, Pitch : -0.08, Yaw : 359.75, Alt : 48.6500015259, Lat : 49.2835703, Lng : -123.1150206, Q1 : 0.999997437, Q2 : -0.000100763711089, Q3 : -0.000720241921954, Q4 : -0.00213506864384}
2019-04-14 22:16:54.01: SIM {TimeUS : 52835524, Roll : 0.02, Pitch : -0.06, Yaw : 359.75, Alt : 48.7299995422, Lat : 49.2835703, Lng : -123.1150206, Q1 : 0.999997496605, Q2 : 0.000211103382753, Q3 : -0.00058613641886, Q4 : -0.00215850840323}
2019-04-14 22:16:54.11: SIM {TimeUS : 52935484, Roll : 0.05, Pitch : -0.04, Yaw : 359.74, Alt : 48.8100013733, Lat : 49.2835703, Lng : -123.1150206, Q1 : 0.999997437, Q2 : 0.000480711751152, Q3 : -0.000426240614615, Q4 : -0.00218330603093}
2019-04-14 22:16:54.21: SIM {TimeUS : 53035444, Roll : 0.06, Pitch : -0.02, Yaw : 359.74, Alt : 48.8699989319, Lat : 49.2835703, Lng : -123.1150206, Q1 : 0.999997377396, Q2 : 0.000557811348699, Q3 : -0.00025464623468, Q4 : -0.00220766616985}
2019-04-14 22:16:54.31: SIM {TimeUS : 53135404, Roll : 0.06, Pitch : -0.01, Yaw : 359.74, Alt : 48.9300003052, Lat : 49.2835703, Lng : -123.1150207, Q1 : 0.999997317791, Q2 : 0.0005964601296, Q3 : -0.000136842209031, Q4 : -0.00223581725731}
2019-04-14 22:16:54.41: SIM {TimeUS : 53235364, Roll : 0.06, Pitch : -0.02, Yaw : 359.73, Alt : 48.9700012207, Lat : 49.2835703, Lng : -123.1150207, Q1 : 0.999997198582, Q2 : 0.00059696304379, Q3 : -0.000252410187386, Q4 : -0.00227133394219}
2019-04-14 22:16:54.51: SIM {TimeUS : 53335324, Roll : 0.14, Pitch : -0.09, Yaw : 359.73, Alt : 49.0099983215, Lat : 49.2835703, Lng : -123.1150207, Q1 : 0.999996185303, Q2 : 0.00125414365903, Q3 : -0.000862737942953, Q4 : -0.00229999376461}
2019-04-14 22:16:54.61: SIM {TimeUS : 53435284, Roll : 0.41, Pitch : -0.29, Yaw : 359.73, Alt : 49.0499992371, Lat : 49.2835703, Lng : -123.1150207, Q1 : 0.999987363815, Q2 : 0.00364794116467, Q3 : -0.00255909119733, Q4 : -0.0023171142675}
2019-04-14 22:16:54.71: SIM {TimeUS : 53535244, Roll : 0.92, Pitch : -0.64, Yaw : 359.72, Alt : 49.0800018311, Lat : 49.2835703, Lng : -123.1150207, Q1 : 0.999948978424, Q2 : 0.00805333349854, Q3 : -0.00563359260559, Q4 : -0.00233257445507}
2019-04-14 22:16:54.81: SIM {TimeUS : 53635204, Roll : 1.63, Pitch : -1.12, Yaw : 359.71, Alt : 49.0999984741, Lat : 49.2835704, Lng : -123.1150206, Q1 : 0.999847233295, Q2 : 0.0142435664311, Q3 : -0.00985880196095, Q4 : -0.00233584269881}
2019-04-14 22:16:54.91: SIM {TimeUS : 53735164, Roll : 2.49, Pitch : -1.68, Yaw : 359.69, Alt : 49.1199989319, Lat : 49.2835704, Lng : -123.1150206, Q1 : 0.999652147293, Q2 : 0.0217455513775, Q3 : -0.0147425457835, Q4 : -0.00230705318972}
2019-04-14 22:16:55.01: SIM {TimeUS : 53835124, Roll : 3.37, Pitch : -2.25, Yaw : 359.67, Alt : 49.1399993896, Lat : 49.2835704, Lng : -123.1150205, Q1 : 0.999369800091, Q2 : 0.0294027142227, Q3 : -0.0197630617768, Q4 : -0.00222625024617}
2019-04-14 22:16:55.11: SIM {TimeUS : 53935084, Roll : 4.12, Pitch : -2.77, Yaw : 359.66, Alt : 49.1599998474, Lat : 49.2835706, Lng : -123.1150203, Q1 : 0.999058365822, Q2 : 0.0358708761632, Q3 : -0.0243162903935, Q4 : -0.00209260103293}
2019-04-14 22:16:55.21: SIM {TimeUS : 54035044, Roll : 4.65, Pitch : -3.18, Yaw : 359.65, Alt : 49.1699981689, Lat : 49.2835708, Lng : -123.11502, Q1 : 0.998788356781, Q2 : 0.0405289456248, Q3 : -0.0278495065868, Q4 : -0.00190027581993}
2019-04-14 22:16:55.31: SIM {TimeUS : 54135004, Roll : 5.02, Pitch : -3.49, Yaw : 359.65, Alt : 49.1899986267, Lat : 49.2835709, Lng : -123.1150198, Q1 : 0.99857378006, Q2 : 0.0437448993325, Q3 : -0.0305612441152, Q4 : -0.00166925345547}
2019-04-14 22:16:55.41: SIM {TimeUS : 54234964, Roll : 5.31, Pitch : -3.74, Yaw : 359.66, Alt : 49.2000007629, Lat : 49.283571, Lng : -123.1150193, Q1 : 0.998393714428, Q2 : 0.0462138392031, Q3 : -0.0327452123165, Q4 : -0.00140814995393}
2019-04-14 22:16:55.51: SIM {TimeUS : 54334924, Roll : 5.58, Pitch : -3.94, Yaw : 359.67, Alt : 49.2099990845, Lat : 49.2835714, Lng : -123.1150188, Q1 : 0.998220026493, Q2 : 0.0485966838896, Q3 : -0.0345531702042, Q4 : -0.00111233140342}
2019-04-14 22:16:55.61: SIM {TimeUS : 54434884, Roll : 5.88, Pitch : -4.17, Yaw : 359.69, Alt : 49.2099990845, Lat : 49.2835716, Lng : -123.1150182, Q1 : 0.998019874096, Q2 : 0.0512259081006, Q3 : -0.0364915579557, Q4 : -0.000825230963528}
2019-04-14 22:16:55.71: SIM {TimeUS : 54534844, Roll : 6.2, Pitch : -4.39, Yaw : 359.69, Alt : 49.2200012207, Lat : 49.283572, Lng : -123.1150175, Q1 : 0.997804522514, Q2 : 0.053942847997, Q3 : -0.0384191833436, Q4 : -0.000545290182345}
2019-04-14 22:16:55.81: SIM {TimeUS : 54634804, Roll : 6.47, Pitch : -4.57, Yaw : 359.71, Alt : 49.2299995422, Lat : 49.2835724, Lng : -123.1150166, Q1 : 0.997613132, Q2 : 0.0563169308007, Q3 : -0.0399543382227, Q4 : -0.000272041856078}
2019-04-14 22:16:55.91: SIM {TimeUS : 54734764, Roll : 6.67, Pitch : -4.71, Yaw : 359.72, Alt : 49.2299995422, Lat : 49.2835727, Lng : -123.1150157, Q1 : 0.997462034225, Q2 : 0.0580650940537, Q3 : -0.0412061326206, Q4 : -3.56934215233e-05}
2019-04-14 22:16:56.01: SIM {TimeUS : 54835557, Roll : 6.82, Pitch : -4.83, Yaw : 359.72, Alt : 49.2400016785, Lat : 49.2835733, Lng : -123.1150147, Q1 : 0.997340083122, Q2 : 0.0593975819647, Q3 : -0.0422458648682, Q4 : 0.000161589487107}
2019-04-14 22:16:56.11: SIM {TimeUS : 54935517, Roll : 6.95, Pitch : -4.92, Yaw : 359.73, Alt : 49.2400016785, Lat : 49.2835738, Lng : -123.1150136, Q1 : 0.997243046761, Q2 : 0.0604799687862, Q3 : -0.0429933667183, Q4 : 0.000317439989885}
2019-04-14 22:16:56.21: SIM {TimeUS : 55035477, Roll : 7.04, Pitch : -4.97, Yaw : 359.74, Alt : 49.25, Lat : 49.2835743, Lng : -123.1150124, Q1 : 0.997169911861, Q2 : 0.0613170005381, Q3 : -0.0435008965433, Q4 : 0.000415681890445}
2019-04-14 22:16:56.31: SIM {TimeUS : 55135437, Roll : 7.22, Pitch : -5.01, Yaw : 359.75, Alt : 49.25, Lat : 49.2835749, Lng : -123.1150111, Q1 : 0.997062087059, Q2 : 0.0628123283386, Q3 : -0.0438331328332, Q4 : 0.000647311215289}
2019-04-14 22:16:56.41: SIM {TimeUS : 55235397, Roll : 7.6, Pitch : -4.91, Yaw : 0.08, Alt : 49.2599983215, Lat : 49.2835755, Lng : -123.1150098, Q1 : 0.996879935265, Q2 : 0.066285148263, Q3 : -0.0427062995732, Q4 : 0.0035917062778}
2019-04-14 22:16:56.51: SIM {TimeUS : 55335357, Roll : 8.2, Pitch : -4.7, Yaw : 1.37, Alt : 49.2599983215, Lat : 49.2835762, Lng : -123.1150083, Q1 : 0.996488511562, Q2 : 0.0719948336482, Q3 : -0.0400642938912, Q4 : 0.0149097023532}
2019-04-14 22:16:56.61: SIM {TimeUS : 55435317, Roll : 8.78, Pitch : -4.74, Yaw : 4.16, Alt : 49.2599983215, Lat : 49.2835769, Lng : -123.1150067, Q1 : 0.995435118675, Q2 : 0.0779619812965, Q3 : -0.0384807921946, Q4 : 0.0393714010715}
2019-04-14 22:16:56.71: SIM {TimeUS : 55535277, Roll : 9.06, Pitch : -5.28, Yaw : 8.52, Alt : 49.2599983215, Lat : 49.2835776, Lng : -123.1150051, Q1 : 0.992786705494, Q2 : 0.0821541249752, Q3 : -0.0399771034718, Q4 : 0.0776342749596}
2019-04-14 22:16:56.81: SIM {TimeUS : 55635237, Roll : 8.87, Pitch : -6.34, Yaw : 14.27, Alt : 49.2599983215, Lat : 49.2835782, Lng : -123.1150033, Q1 : 0.987231791019, Q2 : 0.083471044898, Q3 : -0.0451131500304, Q4 : 0.127948179841}
2019-04-14 22:16:56.91: SIM {TimeUS : 55735197, Roll : 8.09, Pitch : -7.78, Yaw : 21.17, Alt : 49.2599983215, Lat : 49.2835789, Lng : -123.1150014, Q1 : 0.977374911308, Q2 : 0.0816839709878, Q3 : -0.0535742640495, Q4 : 0.187605559826}
2019-04-14 22:16:57.01: SIM {TimeUS : 55835157, Roll : 6.71, Pitch : -9.38, Yaw : 28.97, Alt : 49.2700004578, Lat : 49.2835798, Lng : -123.1149993, Q1 : 0.962092459202, Q2 : 0.0769787356257, Q3 : -0.0644391030073, Q4 : 0.253574490547}
2019-04-14 22:16:57.11: SIM {TimeUS : 55935117, Roll : 4.78, Pitch : -10.9, Yaw : 37.41, Alt : 49.2700004578, Lat : 49.2835806, Lng : -123.1149972, Q1 : 0.940777957439, Q2 : 0.069791957736, Q3 : -0.0765898674726, Q4 : 0.322800129652}
2019-04-14 22:16:57.21: SIM {TimeUS : 56035077, Roll : 2.24, Pitch : -12.12, Yaw : 46.17, Alt : 49.2700004578, Lat : 49.2835813, Lng : -123.114995, Q1 : 0.913777768612, Q2 : 0.0593509674072, Q3 : -0.089517198503, Q4 : 0.391758024693}
2019-04-14 22:16:57.31: SIM {TimeUS : 56135037, Roll : -0.85, Pitch : -12.87, Yaw : 54.53, Alt : 49.2700004578, Lat : 49.2835822, Lng : -123.1149926, Q1 : 0.883615076542, Q2 : 0.0447392202914, Q3 : -0.103057593107, Q4 : 0.454534858465}
2019-04-14 22:16:57.41: SIM {TimeUS : 56234997, Roll : -3.98, Pitch : -13.08, Yaw : 61.62, Alt : 49.2700004578, Lat : 49.2835831, Lng : -123.1149902, Q1 : 0.854769945145, Q2 : 0.028710745275, Q3 : -0.115511626005, Q4 : 0.505174398422}
2019-04-14 22:16:57.51: SIM {TimeUS : 56334957, Roll : -6.49, Pitch : -12.94, Yaw : 66.78, Alt : 49.2700004578, Lat : 49.2835842, Lng : -123.1149877, Q1 : 0.831778943539, Q2 : 0.0149406865239, Q3 : -0.124904640019, Q4 : 0.540665745735}
2019-04-14 22:16:57.61: SIM {TimeUS : 56434917, Roll : -7.99, Pitch : -12.68, Yaw : 69.84, Alt : 49.2700004578, Lat : 49.2835853, Lng : -123.1149851, Q1 : 0.817325174809, Q2 : 0.00629398785532, Q3 : -0.130033224821, Q4 : 0.561276495457}
2019-04-14 22:16:57.71: SIM {TimeUS : 56534877, Roll : -8.4, Pitch : -12.57, Yaw : 70.99, Alt : 49.2700004578, Lat : 49.2835865, Lng : -123.1149825, Q1 : 0.811734616756, Q2 : 0.00410404196009, Q3 : -0.131186559796, Q4 : 0.569087088108}
2019-04-14 22:16:57.81: SIM {TimeUS : 56634837, Roll : -7.88, Pitch : -12.7, Yaw : 70.56, Alt : 49.2700004578, Lat : 49.2835879, Lng : -123.1149799, Q1 : 0.813762426376, Q2 : 0.00801752600819, Q3 : -0.129580691457, Q4 : 0.566511571407}
2019-04-14 22:16:57.91: SIM {TimeUS : 56734797, Roll : -6.65, Pitch : -13.12, Yaw : 68.93, Alt : 49.2700004578, Lat : 49.2835892, Lng : -123.1149772, Q1 : 0.821424782276, Q2 : 0.0170019958168, Q3 : -0.126699000597, Q4 : 0.555805385113}
2019-04-14 22:16:58.01: SIM {TimeUS : 56834757, Roll : -4.98, Pitch : -13.75, Yaw : 66.44, Alt : 49.2799987793, Lat : 49.2835908, Lng : -123.1149744, Q1 : 0.832617461681, Q2 : 0.0294424239546, Q3 : -0.12375729531, Q4 : 0.539041280746}
2019-04-14 22:16:58.11: SIM {TimeUS : 56935550, Roll : -3.08, Pitch : -14.47, Yaw : 63.37, Alt : 49.2799987793, Lat : 49.2835923, Lng : -123.1149716, Q1 : 0.845605194569, Q2 : 0.0434334091842, Q3 : -0.121219232678, Q4 : 0.518045723438}
2019-04-14 22:16:58.21: SIM {TimeUS : 57035510, Roll : -1.17, Pitch : -15.11, Yaw : 60.11, Alt : 49.2799987793, Lat : 49.283594, Lng : -123.1149687, Q1 : 0.858652472496, Q2 : 0.0570541508496, Q3 : -0.118916288018, Q4 : 0.495297580957}
2019-04-14 22:16:58.31: SIM {TimeUS : 57135470, Roll : 0.58, Pitch : -15.57, Yaw : 56.94, Alt : 49.2799987793, Lat : 49.2835957, Lng : -123.1149656, Q1 : 0.870597362518, Q2 : 0.0690000653267, Q3 : -0.116678625345, Q4 : 0.472953826189}
2019-04-14 22:16:58.41: SIM {TimeUS : 57235430, Roll : 2.02, Pitch : -15.8, Yaw : 54.2, Alt : 49.2799987793, Lat : 49.2835972, Lng : -123.1149625, Q1 : 0.880488336086, Q2 : 0.0782042071223, Q3 : -0.114433377981, Q4 : 0.453353464603}
2019-04-14 22:16:58.51: SIM {TimeUS : 57335390, Roll : 3.04, Pitch : -15.86, Yaw : 52.12, Alt : 49.2799987793, Lat : 49.2835989, Lng : -123.1149592, Q1 : 0.887785613537, Q2 : 0.0842093229294, Q3 : -0.112349525094, Q4 : 0.43831846118}
2019-04-14 22:16:58.61: SIM {TimeUS : 57435350, Roll : 3.57, Pitch : -15.82, Yaw : 50.83, Alt : 49.2799987793, Lat : 49.2836007, Lng : -123.1149558, Q1 : 0.892322719097, Q2 : 0.0869747847319, Q3 : -0.110978856683, Q4 : 0.428811430931}
2019-04-14 22:16:58.71: SIM {TimeUS : 57535310, Roll : 3.65, Pitch : -15.77, Yaw : 50.33, Alt : 49.2799987793, Lat : 49.2836023, Lng : -123.1149522, Q1 : 0.894197404385, Q2 : 0.0868710130453, Q3 : -0.110679633915, Q4 : 0.42498755455}
2019-04-14 22:16:58.81: SIM {TimeUS : 57635270, Roll : 3.31, Pitch : -15.75, Yaw : 50.54, Alt : 49.2799987793, Lat : 49.2836039, Lng : -123.1149486, Q1 : 0.893692135811, Q2 : 0.0844194814563, Q3 : -0.111683830619, Q4 : 0.426279783249}
2019-04-14 22:16:58.91: SIM {TimeUS : 57735230, Roll : 2.67, Pitch : -15.81, Yaw : 51.31, Alt : 49.2900009155, Lat : 49.2836056, Lng : -123.1149448, Q1 : 0.891209125519, Q2 : 0.0803923457861, Q3 : -0.113925352693, Q4 : 0.431629985571}
2019-04-14 22:16:59.01: SIM {TimeUS : 57835190, Roll : 1.86, Pitch : -15.92, Yaw : 52.46, Alt : 49.2900009155, Lat : 49.2836074, Lng : -123.1149409, Q1 : 0.887252390385, Q2 : 0.0756559744477, Q3 : -0.117115348577, Q4 : 0.439708322287}
2019-04-14 22:16:59.11: SIM {TimeUS : 57935150, Roll : 0.99, Pitch : -16.08, Yaw : 53.8, Alt : 49.2900009155, Lat : 49.2836091, Lng : -123.114937, Q1 : 0.882413089275, Q2 : 0.0709485635161, Q3 : -0.120879411697, Q4 : 0.449112027884}
2019-04-14 22:16:59.21: SIM {TimeUS : 58035110, Roll : 0.16, Pitch : -16.24, Yaw : 55.16, Alt : 49.2900009155, Lat : 49.2836108, Lng : -123.114933, Q1 : 0.877351820469, Q2 : 0.066671602428, Q3 : -0.124622873962, Q4 : 0.45856064558}
2019-04-14 22:16:59.31: SIM {TimeUS : 58135070, Roll : -0.56, Pitch : -16.38, Yaw : 56.38, Alt : 49.2900009155, Lat : 49.2836126, Lng : -123.114929, Q1 : 0.872680544853, Q2 : 0.0630617290735, Q3 : -0.127923741937, Q4 : 0.466998279095}
2019-04-14 22:16:59.41: SIM {TimeUS : 58235030, Roll : -1.11, Pitch : -16.46, Yaw : 57.35, Alt : 49.2900009155, Lat : 49.2836144, Lng : -123.1149249, Q1 : 0.86890989542, Q2 : 0.0603017956018, Q3 : -0.130221232772, Q4 : 0.473710566759}
2019-04-14 22:16:59.51: SIM {TimeUS : 58334990, Roll : -1.41, Pitch : -16.48, Yaw : 58.01, Alt : 49.2900009155, Lat : 49.2836163, Lng : -123.1149207, Q1 : 0.866320252419, Q2 : 0.0587973147631, Q3 : -0.131329312921, Q4 : 0.478314518929}
2019-04-14 22:16:59.61: SIM {TimeUS : 58434950, Roll : -1.53, Pitch : -16.48, Yaw : 58.33, Alt : 49.2900009155, Lat : 49.2836181, Lng : -123.1149165, Q1 : 0.865023493767, Q2 : 0.058314550668, Q3 : -0.131596162915, Q4 : 0.480641484261}
2019-04-14 22:16:59.71: SIM {TimeUS : 58534910, Roll : -1.44, Pitch : -16.48, Yaw : 58.35, Alt : 49.2900009155, Lat : 49.2836201, Lng : -123.1149122, Q1 : 0.86491638422, Q2 : 0.0589948445559, Q3 : -0.131240874529, Q4 : 0.480848282576}
2019-04-14 22:16:59.81: SIM {TimeUS : 58634870, Roll : -1.18, Pitch : -16.48, Yaw : 58.1, Alt : 49.2900009155, Lat : 49.283622, Lng : -123.1149079, Q1 : 0.865805745125, Q2 : 0.0606504008174, Q3 : -0.130315199494, Q4 : 0.479290992022}
2019-04-14 22:16:59.91: SIM {TimeUS : 58734830, Roll : -0.84, Pitch : -16.49, Yaw : 57.67, Alt : 49.2900009155, Lat : 49.2836239, Lng : -123.1149036, Q1 : 0.86741065979, Q2 : 0.0627891942859, Q3 : -0.129224106669, Q4 : 0.476400464773}
2019-04-14 22:17:00.01: SIM {TimeUS : 58834790, Roll : -0.49, Pitch : -16.54, Yaw : 57.13, Alt : 49.2900009155, Lat : 49.283626, Lng : -123.1148992, Q1 : 0.869401633739, Q2 : 0.0650750249624, Q3 : -0.128378212452, Q4 : 0.472678661346}
2019-04-14 22:17:00.11: SIM {TimeUS : 58934750, Roll : -0.14, Pitch : -16.61, Yaw : 56.56, Alt : 49.2900009155, Lat : 49.283628, Lng : -123.1148947, Q1 : 0.871482253075, Q2 : 0.0673117488623, Q3 : -0.127820581198, Q4 : 0.468667984009}
2019-04-14 22:17:00.21: SIM {TimeUS : 59035543, Roll : 0.15, Pitch : -16.69, Yaw : 56.01, Alt : 49.2900009155, Lat : 49.2836299, Lng : -123.1148902, Q1 : 0.873423159122, Q2 : 0.0693415179849, Q3 : -0.127529963851, Q4 : 0.464822351933}
2019-04-14 22:17:00.31: SIM {TimeUS : 59135503, Roll : 0.38, Pitch : -16.74, Yaw : 55.56, Alt : 49.2900009155, Lat : 49.2836321, Lng : -123.1148856, Q1 : 0.875050842762, Q2 : 0.0708035454154, Q3 : -0.127297759056, Q4 : 0.461593031883}
2019-04-14 22:17:00.41: SIM {TimeUS : 59235463, Roll : 0.53, Pitch : -16.79, Yaw : 55.23, Alt : 49.2900009155, Lat : 49.2836341, Lng : -123.1148811, Q1 : 0.876243412495, Q2 : 0.0718014314771, Q3 : -0.127241551876, Q4 : 0.459185838699}
2019-04-14 22:17:00.51: SIM {TimeUS : 59335423, Roll : 0.61, Pitch : -16.82, Yaw : 55.03, Alt : 49.2900009155, Lat : 49.2836361, Lng : -123.1148765, Q1 : 0.87695980072, Q2 : 0.0723174288869, Q3 : -0.127293586731, Q4 : 0.45772048831}
2019-04-14 22:17:00.61: SIM {TimeUS : 59435383, Roll : 0.62, Pitch : -16.84, Yaw : 54.96, Alt : 49.2900009155, Lat : 49.2836382, Lng : -123.1148719, Q1 : 0.877211034298, Q2 : 0.0724172145128, Q3 : -0.127479046583, Q4 : 0.45717138052}
2019-04-14 22:17:00.71: SIM {TimeUS : 59535343, Roll : 0.58, Pitch : -16.86, Yaw : 55.0, Alt : 49.2900009155, Lat : 49.2836402, Lng : -123.1148672, Q1 : 0.877055883408, Q2 : 0.0721940919757, Q3 : -0.127785891294, Q4 : 0.457418620586}
2019-04-14 22:17:00.81: SIM {TimeUS : 59635303, Roll : 0.48, Pitch : -16.89, Yaw : 55.12, Alt : 49.2900009155, Lat : 49.2836424, Lng : -123.1148625, Q1 : 0.876571953297, Q2 : 0.0717428103089, Q3 : -0.128310188651, Q4 : 0.458269655704}
2019-04-14 22:17:00.91: SIM {TimeUS : 59735263, Roll : 0.35, Pitch : -16.92, Yaw : 55.31, Alt : 49.2900009155, Lat : 49.2836445, Lng : -123.1148576, Q1 : 0.875883758068, Q2 : 0.0710150301456, Q3 : -0.128956839442, Q4 : 0.459515690804}
2019-04-14 22:17:01.01: SIM {TimeUS : 59835223, Roll : 0.19, Pitch : -16.95, Yaw : 55.52, Alt : 49.2999992371, Lat : 49.2836466, Lng : -123.1148529, Q1 : 0.875101923943, Q2 : 0.0701901316643, Q3 : -0.129669770598, Q4 : 0.460929244757}
2019-04-14 22:17:01.11: SIM {TimeUS : 59935183, Roll : 0.04, Pitch : -16.99, Yaw : 55.72, Alt : 49.2999992371, Lat : 49.2836487, Lng : -123.1148481, Q1 : 0.87431883812, Q2 : 0.0694169476628, Q3 : -0.130465164781, Q4 : 0.462305903435}
2019-04-14 22:17:01.21: SIM {TimeUS : 60035143, Roll : -0.08, Pitch : -17.04, Yaw : 55.9, Alt : 49.2999992371, Lat : 49.2836507, Lng : -123.1148433, Q1 : 0.873627245426, Q2 : 0.0688177421689, Q3 : -0.13120791316, Q4 : 0.463491141796}
2019-04-14 22:17:01.31: SIM {TimeUS : 60135103, Roll : -0.19, Pitch : -17.07, Yaw : 56.03, Alt : 49.2999992371, Lat : 49.283653, Lng : -123.1148384, Q1 : 0.87311321497, Q2 : 0.0682893544436, Q3 : -0.131872951984, Q4 : 0.464348375797}
2019-04-14 22:17:01.41: SIM {TimeUS : 60235063, Roll : -0.27, Pitch : -17.11, Yaw : 56.11, Alt : 49.2999992371, Lat : 49.2836551, Lng : -123.1148335, Q1 : 0.872811853886, Q2 : 0.0678921937943, Q3 : -0.132384777069, Q4 : 0.464827269316}
2019-04-14 22:17:01.51: SIM {TimeUS : 60335023, Roll : -0.31, Pitch : -17.14, Yaw : 56.13, Alt : 49.2999992371, Lat : 49.2836572, Lng : -123.1148286, Q1 : 0.872722029686, Q2 : 0.0677164196968, Q3 : -0.132774874568, Q4 : 0.464910298586}
2019-04-14 22:17:01.61: SIM {TimeUS : 60434983, Roll : -0.29, Pitch : -17.17, Yaw : 56.1, Alt : 49.2999992371, Lat : 49.2836595, Lng : -123.1148237, Q1 : 0.87280112505, Q2 : 0.0679299980402, Q3 : -0.132963687181, Q4 : 0.464676678181}
2019-04-14 22:17:01.71: SIM {TimeUS : 60534943, Roll : -0.24, Pitch : -17.2, Yaw : 56.03, Alt : 49.2999992371, Lat : 49.2836616, Lng : -123.1148187, Q1 : 0.873014748096, Q2 : 0.0684427991509, Q3 : -0.133036226034, Q4 : 0.464179098606}
2019-04-14 22:17:01.81: SIM {TimeUS : 60634903, Roll : -0.14, Pitch : -17.24, Yaw : 55.93, Alt : 49.2999992371, Lat : 49.2836639, Lng : -123.1148137, Q1 : 0.873321354389, Q2 : 0.0691763460636, Q3 : -0.133025944233, Q4 : 0.463496029377}
2019-04-14 22:17:01.91: SIM {TimeUS : 60734863, Roll : -0.04, Pitch : -17.28, Yaw : 55.81, Alt : 49.3100013733, Lat : 49.2836661, Lng : -123.1148088, Q1 : 0.873678386211, Q2 : 0.0700432732701, Q3 : -0.132981196046, Q4 : 0.462705105543}
2019-04-14 22:17:02.01: SIM {TimeUS : 60834823, Roll : 0.05, Pitch : -17.32, Yaw : 55.69, Alt : 49.3100013733, Lat : 49.2836682, Lng : -123.1148037, Q1 : 0.874062657356, Q2 : 0.0707418546081, Q3 : -0.13294583559, Q4 : 0.461882531643}
2019-04-14 22:17:02.11: SIM {TimeUS : 60934783, Roll : 0.1, Pitch : -17.34, Yaw : 55.58, Alt : 49.3100013733, Lat : 49.2836705, Lng : -123.1147987, Q1 : 0.874450623989, Q2 : 0.0711185261607, Q3 : -0.132927849889, Q4 : 0.46109482646}
2019-04-14 22:17:02.21: SIM {TimeUS : 61034743, Roll : 0.13, Pitch : -17.34, Yaw : 55.49, Alt : 49.3100013733, Lat : 49.2836728, Lng : -123.1147937, Q1 : 0.874802470207, Q2 : 0.0712292566895, Q3 : -0.132951498032, Q4 : 0.46040302515}
2019-04-14 22:17:02.31: SIM {TimeUS : 61135536, Roll : 0.15, Pitch : -17.35, Yaw : 55.42, Alt : 49.3100013733, Lat : 49.283675, Lng : -123.1147885, Q1 : 0.875075399876, Q2 : 0.0713225826621, Q3 : -0.132917687297, Q4 : 0.459879368544}
2019-04-14 22:17:02.41: SIM {TimeUS : 61235496, Roll : 0.16, Pitch : -17.35, Yaw : 55.37, Alt : 49.3100013733, Lat : 49.2836773, Lng : -123.1147835, Q1 : 0.875250935555, Q2 : 0.0713649913669, Q3 : -0.132918596268, Q4 : 0.459538400173}
2019-04-14 22:17:02.51: SIM {TimeUS : 61335456, Roll : 0.17, Pitch : -17.38, Yaw : 55.35, Alt : 49.3100013733, Lat : 49.2836796, Lng : -123.1147784, Q1 : 0.875289022923, Q2 : 0.0715903043747, Q3 : -0.133151233196, Q4 : 0.459363371134}
2019-04-14 22:17:02.61: SIM {TimeUS : 61435416, Roll : 0.19, Pitch : -17.44, Yaw : 55.35, Alt : 49.3100013733, Lat : 49.2836817, Lng : -123.1147731, Q1 : 0.875220894814, Q2 : 0.0719216242433, Q3 : -0.133565813303, Q4 : 0.459321081638}
2019-04-14 22:17:02.71: SIM {TimeUS : 61535376, Roll : 0.18, Pitch : -17.48, Yaw : 55.36, Alt : 49.3100013733, Lat : 49.283684, Lng : -123.1147681, Q1 : 0.875147283077, Q2 : 0.071980625391, Q3 : -0.133840754628, Q4 : 0.459372103214}
2019-04-14 22:17:02.81: SIM {TimeUS : 61635336, Roll : 0.16, Pitch : -17.47, Yaw : 55.38, Alt : 49.3100013733, Lat : 49.2836864, Lng : -123.1147629, Q1 : 0.875087201595, Q2 : 0.0718462765217, Q3 : -0.133882060647, Q4 : 0.459495514631}
2019-04-14 22:17:02.91: SIM {TimeUS : 61735296, Roll : 0.13, Pitch : -17.48, Yaw : 55.4, Alt : 49.3100013733, Lat : 49.2836887, Lng : -123.1147578, Q1 : 0.874998450279, Q2 : 0.0717099532485, Q3 : -0.134036570787, Q4 : 0.459640800953}
2019-04-14 22:17:03.01: SIM {TimeUS : 61835256, Roll : 0.1, Pitch : -17.51, Yaw : 55.42, Alt : 49.3100013733, Lat : 49.283691, Lng : -123.1147526, Q1 : 0.874900698662, Q2 : 0.0715936943889, Q3 : -0.134352833033, Q4 : 0.459752619267}
2019-04-14 22:17:03.11: SIM {TimeUS : 61935216, Roll : 0.08, Pitch : -17.54, Yaw : 55.44, Alt : 49.3199996948, Lat : 49.2836932, Lng : -123.1147474, Q1 : 0.874809265137, Q2 : 0.0715631395578, Q3 : -0.134634464979, Q4 : 0.459848970175}
2019-04-14 22:17:03.21: SIM {TimeUS : 62035176, Roll : 0.06, Pitch : -17.56, Yaw : 55.45, Alt : 49.3199996948, Lat : 49.2836955, Lng : -123.1147422, Q1 : 0.874758541584, Q2 : 0.0715015381575, Q3 : -0.134882539511, Q4 : 0.459882318974}
2019-04-14 22:17:03.31: SIM {TimeUS : 62135136, Roll : 0.04, Pitch : -17.57, Yaw : 55.45, Alt : 49.3199996948, Lat : 49.2836979, Lng : -123.114737, Q1 : 0.874747097492, Q2 : 0.0714657455683, Q3 : -0.135067790747, Q4 : 0.459855288267}
2019-04-14 22:17:03.41: SIM {TimeUS : 62235096, Roll : 0.04, Pitch : -17.59, Yaw : 55.44, Alt : 49.3199996948, Lat : 49.2837002, Lng : -123.1147318, Q1 : 0.874765098095, Q2 : 0.0715307295322, Q3 : -0.135213434696, Q4 : 0.459768146276}
2019-04-14 22:17:03.51: SIM {TimeUS : 62335056, Roll : 0.06, Pitch : -17.61, Yaw : 55.42, Alt : 49.3199996948, Lat : 49.2837026, Lng : -123.1147265, Q1 : 0.874812662601, Q2 : 0.0716929808259, Q3 : -0.135272279382, Q4 : 0.459635019302}
2019-04-14 22:17:03.61: SIM {TimeUS : 62435016, Roll : 0.1, Pitch : -17.63, Yaw : 55.4, Alt : 49.3199996948, Lat : 49.2837048, Lng : -123.1147213, Q1 : 0.874868273735, Q2 : 0.0720083266497, Q3 : -0.135289028287, Q4 : 0.459474921227}
2019-04-14 22:17:03.71: SIM {TimeUS : 62534976, Roll : 0.13, Pitch : -17.65, Yaw : 55.37, Alt : 49.3199996948, Lat : 49.2837071, Lng : -123.114716, Q1 : 0.8749319911, Q2 : 0.0723491162062, Q3 : -0.135370343924, Q4 : 0.459276109934}
2019-04-14 22:17:03.81: SIM {TimeUS : 62634936, Roll : 0.14, Pitch : -17.69, Yaw : 55.33, Alt : 49.3199996948, Lat : 49.2837095, Lng : -123.1147107, Q1 : 0.875008523464, Q2 : 0.0725486502051, Q3 : -0.135635256767, Q4 : 0.459020644426}
2019-04-14 22:17:03.91: SIM {TimeUS : 62734896, Roll : 0.14, Pitch : -17.73, Yaw : 55.3, Alt : 49.3199996948, Lat : 49.2837119, Lng : -123.1147054, Q1 : 0.875090181828, Q2 : 0.0726445391774, Q3 : -0.135970696807, Q4 : 0.458750456572}
2019-04-14 22:17:04.01: SIM {TimeUS : 62834856, Roll : 0.13, Pitch : -17.77, Yaw : 55.27, Alt : 49.3199996948, Lat : 49.2837143, Lng : -123.1147002, Q1 : 0.875167667866, Q2 : 0.0726909413934, Q3 : -0.136353805661, Q4 : 0.458481401205}
2019-04-14 22:17:04.11: SIM {TimeUS : 62934816, Roll : 0.14, Pitch : -17.8, Yaw : 55.24, Alt : 49.3199996948, Lat : 49.2837166, Lng : -123.1146948, Q1 : 0.875243127346, Q2 : 0.0728255882859, Q3 : -0.136521220207, Q4 : 0.458266198635}
2019-04-14 22:17:04.21: SIM {TimeUS : 63034776, Roll : 0.16, Pitch : -17.8, Yaw : 55.22, Alt : 49.3199996948, Lat : 49.283719, Lng : -123.1146895, Q1 : 0.875324130058, Q2 : 0.0729993954301, Q3 : -0.136458665133, Q4 : 0.458102375269}
2019-04-14 22:17:04.31: SIM {TimeUS : 63134736, Roll : 0.18, Pitch : -17.78, Yaw : 55.2, Alt : 49.3199996948, Lat : 49.2837214, Lng : -123.1146842, Q1 : 0.875411987305, Q2 : 0.0730516538024, Q3 : -0.136271476746, Q4 : 0.457981944084}
2019-04-14 22:17:04.41: SIM {TimeUS : 63235529, Roll : 0.18, Pitch : -17.76, Yaw : 55.19, Alt : 49.3199996948, Lat : 49.2837236, Lng : -123.1146788, Q1 : 0.875491380692, Q2 : 0.0729367882013, Q3 : -0.136119917035, Q4 : 0.457893520594}
2019-04-14 22:17:04.51: SIM {TimeUS : 63335489, Roll : 0.17, Pitch : -17.74, Yaw : 55.18, Alt : 49.3199996948, Lat : 49.283726, Lng : -123.1146735, Q1 : 0.875562131405, Q2 : 0.0727360770106, Q3 : -0.135991126299, Q4 : 0.457828402519}
2019-04-14 22:17:04.61: SIM {TimeUS : 63435449, Roll : 0.15, Pitch : -17.73, Yaw : 55.17, Alt : 49.3300018311, Lat : 49.2837284, Lng : -123.1146681, Q1 : 0.875599503517, Q2 : 0.0725912675261, Q3 : -0.135947391391, Q4 : 0.457792818546}
2019-04-14 22:17:04.71: SIM {TimeUS : 63535409, Roll : 0.14, Pitch : -17.74, Yaw : 55.17, Alt : 49.3300018311, Lat : 49.2837308, Lng : -123.1146627, Q1 : 0.875597476959, Q2 : 0.0725726261735, Q3 : -0.136099725962, Q4 : 0.457754462957}
2019-04-14 22:17:04.81: SIM {TimeUS : 63635369, Roll : 0.14, Pitch : -17.76, Yaw : 55.17, Alt : 49.3300018311, Lat : 49.2837332, Lng : -123.1146574, Q1 : 0.875578224659, Q2 : 0.0726597160101, Q3 : -0.136287853122, Q4 : 0.457721471786}
2019-04-14 22:17:04.91: SIM {TimeUS : 63735329, Roll : 0.13, Pitch : -17.81, Yaw : 55.17, Alt : 49.3300018311, Lat : 49.2837357, Lng : -123.114652, Q1 : 0.875549554825, Q2 : 0.0727480724454, Q3 : -0.136645466089, Q4 : 0.457655668259}
2019-04-14 22:17:05.01: SIM {TimeUS : 63835289, Roll : 0.13, Pitch : -17.85, Yaw : 55.16, Alt : 49.3300018311, Lat : 49.2837381, Lng : -123.1146466, Q1 : 0.875514507294, Q2 : 0.0729148387909, Q3 : -0.137033075094, Q4 : 0.457580298185}
2019-04-14 22:17:05.11: SIM {TimeUS : 63935249, Roll : 0.14, Pitch : -17.89, Yaw : 55.15, Alt : 49.3300018311, Lat : 49.2837405, Lng : -123.1146412, Q1 : 0.875495970249, Q2 : 0.0731197819114, Q3 : -0.137301281095, Q4 : 0.45750272274}
2019-04-14 22:17:05.21: SIM {TimeUS : 64035209, Roll : 0.14, Pitch : -17.92, Yaw : 55.14, Alt : 49.3300018311, Lat : 49.2837429, Lng : -123.1146357, Q1 : 0.875499844551, Q2 : 0.0732344314456, Q3 : -0.137541532516, Q4 : 0.457404792309}
2019-04-14 22:17:05.31: SIM {TimeUS : 64135169, Roll : 0.14, Pitch : -17.94, Yaw : 55.13, Alt : 49.3300018311, Lat : 49.2837453, Lng : -123.1146304, Q1 : 0.875523626804, Q2 : 0.0732793956995, Q3 : -0.137724205852, Q4 : 0.457297086716}
2019-04-14 22:17:05.41: SIM {TimeUS : 64235129, Roll : 0.15, Pitch : -17.94, Yaw : 55.12, Alt : 49.3300018311, Lat : 49.2837477, Lng : -123.114625, Q1 : 0.875572025776, Q2 : 0.0733578056097, Q3 : -0.137626633048, Q4 : 0.457221210003}
2019-04-14 22:17:05.51: SIM {TimeUS : 64335089, Roll : 0.18, Pitch : -17.95, Yaw : 55.1, Alt : 49.3300018311, Lat : 49.2837501, Lng : -123.1146195, Q1 : 0.875604689121, Q2 : 0.0735550969839, Q3 : -0.137599125504, Q4 : 0.457135170698}
2019-04-14 22:17:05.61: SIM {TimeUS : 64435049, Roll : 0.18, Pitch : -17.97, Yaw : 55.09, Alt : 49.3300018311, Lat : 49.2837525, Lng : -123.1146141, Q1 : 0.875637412071, Q2 : 0.0736701115966, Q3 : -0.137723326683, Q4 : 0.457016527653}
2019-04-14 22:17:05.71: SIM {TimeUS : 64535009, Roll : 0.19, Pitch : -17.97, Yaw : 55.07, Alt : 49.3300018311, Lat : 49.2837549, Lng : -123.1146087, Q1 : 0.875688552856, Q2 : 0.0737378746271, Q3 : -0.137765496969, Q4 : 0.456894934177}
2019-04-14 22:17:05.81: SIM {TimeUS : 64634969, Roll : 0.2, Pitch : -17.97, Yaw : 55.06, Alt : 49.3300018311, Lat : 49.2837574, Lng : -123.1146032, Q1 : 0.87575262785, Q2 : 0.0737433433533, Q3 : -0.137731269002, Q4 : 0.456781476736}
2019-04-14 22:17:05.91: SIM {TimeUS : 64734929, Roll : 0.19, Pitch : -17.97, Yaw : 55.04, Alt : 49.3300018311, Lat : 49.2837598, Lng : -123.1145978, Q1 : 0.875817537308, Q2 : 0.0736903995275, Q3 : -0.137734919786, Q4 : 0.456664592028}
2019-04-14 22:17:06.01: SIM {TimeUS : 64834889, Roll : 0.17, Pitch : -17.98, Yaw : 55.03, Alt : 49.3300018311, Lat : 49.2837622, Lng : -123.1145923, Q1 : 0.875865161419, Q2 : 0.073565877974, Q3 : -0.137960642576, Q4 : 0.456525146961}
2019-04-14 22:17:06.11: SIM {TimeUS : 64934849, Roll : 0.14, Pitch : -18.02, Yaw : 55.01, Alt : 49.3400001526, Lat : 49.2837646, Lng : -123.1145869, Q1 : 0.875891208649, Q2 : 0.073454990983, Q3 : -0.138344466686, Q4 : 0.456376850605}
2019-04-14 22:17:06.21: SIM {TimeUS : 65034809, Roll : 0.12, Pitch : -18.02, Yaw : 55.0, Alt : 49.3400001526, Lat : 49.2837671, Lng : -123.1145814, Q1 : 0.875940680504, Q2 : 0.0733128935099, Q3 : -0.138453796506, Q4 : 0.456271588802}
2019-04-14 22:17:06.31: SIM {TimeUS : 65134769, Roll : 0.13, Pitch : -18.0, Yaw : 54.99, Alt : 49.3400001526, Lat : 49.2837695, Lng : -123.1145759, Q1 : 0.875997900963, Q2 : 0.073295339942, Q3 : -0.138282433152, Q4 : 0.456216484308}
2019-04-14 22:17:06.41: SIM {TimeUS : 65235562, Roll : 0.15, Pitch : -17.99, Yaw : 54.98, Alt : 49.3400001526, Lat : 49.283772, Lng : -123.1145704, Q1 : 0.876041650772, Q2 : 0.0733921825886, Q3 : -0.138093948364, Q4 : 0.456173956394}
2019-04-14 22:17:06.51: SIM {TimeUS : 65335522, Roll : 0.17, Pitch : -18.0, Yaw : 54.97, Alt : 49.3400001526, Lat : 49.2837744, Lng : -123.1145649, Q1 : 0.876064121723, Q2 : 0.0735423862934, Q3 : -0.138095840812, Q4 : 0.456106066704}
2019-04-14 22:17:06.61: SIM {TimeUS : 65435482, Roll : 0.16, Pitch : -18.02, Yaw : 54.96, Alt : 49.3400001526, Lat : 49.2837769, Lng : -123.1145594, Q1 : 0.876089036465, Q2 : 0.0735408440232, Q3 : -0.138276085258, Q4 : 0.456003814936}
2019-04-14 22:17:06.71: SIM {TimeUS : 65535442, Roll : 0.13, Pitch : -18.04, Yaw : 54.95, Alt : 49.3400001526, Lat : 49.2837793, Lng : -123.1145539, Q1 : 0.876114606857, Q2 : 0.0734179839492, Q3 : -0.138605311513, Q4 : 0.455874592066}
2019-04-14 22:17:06.81: SIM {TimeUS : 65635402, Roll : 0.11, Pitch : -18.07, Yaw : 54.94, Alt : 49.3400001526, Lat : 49.2837818, Lng : -123.1145484, Q1 : 0.876142024994, Q2 : 0.0733467489481, Q3 : -0.138888150454, Q4 : 0.455747187138}
2019-04-14 22:17:06.91: SIM {TimeUS : 65735362, Roll : 0.11, Pitch : -18.09, Yaw : 54.93, Alt : 49.3400001526, Lat : 49.2837842, Lng : -123.1145429, Q1 : 0.876160025597, Q2 : 0.0734339803457, Q3 : -0.139098569751, Q4 : 0.455634355545}
2019-04-14 22:17:07.01: SIM {TimeUS : 65835322, Roll : 0.12, Pitch : -18.11, Yaw : 54.92, Alt : 49.3400001526, Lat : 49.2837867, Lng : -123.1145374, Q1 : 0.876176059246, Q2 : 0.073596380651, Q3 : -0.139202579856, Q4 : 0.455545544624}
2019-04-14 22:17:07.11: SIM {TimeUS : 65935282, Roll : 0.15, Pitch : -18.12, Yaw : 54.9, Alt : 49.3400001526, Lat : 49.2837891, Lng : -123.1145319, Q1 : 0.8761921525, Q2 : 0.0738381445408, Q3 : -0.139185577631, Q4 : 0.455480635166}
2019-04-14 22:17:07.21: SIM {TimeUS : 66035242, Roll : 0.17, Pitch : -18.14, Yaw : 54.89, Alt : 49.3400001526, Lat : 49.2837916, Lng : -123.1145264, Q1 : 0.876206755638, Q2 : 0.0740297958255, Q3 : -0.139203339815, Q4 : 0.455415964127}
2019-04-14 22:17:07.31: SIM {TimeUS : 66135202, Roll : 0.19, Pitch : -18.15, Yaw : 54.88, Alt : 49.3400001526, Lat : 49.283794, Lng : -123.1145208, Q1 : 0.876220583916, Q2 : 0.0742037296295, Q3 : -0.139235109091, Q4 : 0.455351442099}
