2019-04-14 21:28:17.90: SIM {TimeUS : 40316367, Roll : 0.0, Pitch : 0.0, Yaw : 0.0, Alt : 30.1000003815, Lat : 49.28357, Lng : -123.11502, Q1 : 1.0, Q2 : 0.0, Q3 : 0.0, Q4 : 0.0}
2019-04-14 21:28:18.01: SIM {TimeUS : 40435486, Roll : 0.0, Pitch : 0.0, Yaw : 0.0, Alt : 30.1000003815, Lat : 49.28357, Lng : -123.11502, Q1 : 1.0, Q2 : 0.0, Q3 : 0.0, Q4 : 0.0}
2019-04-14 21:28:18.11: SIM {TimeUS : 40535446, Roll : 0.0, Pitch : 0.0, Yaw : 0.0, Alt : 30.1000003815, Lat : 49.28357, Lng : -123.11502, Q1 : 1.0, Q2 : 0.0, Q3 : 0.0, Q4 : 0.0}
2019-04-14 21:28:18.21: SIM {TimeUS : 40635406, Roll : 0.0, Pitch : 0.0, Yaw : 0.0, Alt : 30.1000003815, Lat : 49.28357, Lng : -123.11502, Q1 : 1.0, Q2 : 0.0, Q3 : 0.0, Q4 : 0.0}
2019-04-14 21:28:18.31: SIM {TimeUS : 40735366, Roll : 0.0, Pitch : 0.0, Yaw : 0.0, Alt : 30.1000003815, Lat : 49.28357, Lng : -123.11502, Q1 : 1.0, Q2 : 0.0, Q3 : 0.0, Q4 : 0.0}
2019-04-14 21:28:18.41: SIM {TimeUS : 40835326, Roll : 0.0, Pitch : 0.0, Yaw : 0.0, Alt : 30.1000003815, Lat : 49.28357, Lng : -123.11502, Q1 : 1.0, Q2 : 0.0, Q3 : 0.0, Q4 : 0.0}
2019-04-14 21:28:18.51: SIM {TimeUS : 40935286, Roll : 0.0, Pitch : 0.0, Yaw : 0.0, Alt : 30.1000003815, Lat : 49.28357, Lng : -123.11502, Q1 : 1.0, Q2 : 0.0, Q3 : 0.0, Q4 : 0.0}
2019-04-14 21:28:18.61: SIM {TimeUS : 41035246, Roll : 0.0, Pitch : 0.0, Yaw : 0.0, Alt : 30.1000003815, Lat : 49.28357, Lng : -123.11502, Q1 : 1.0, Q2 : 0.0, Q3 : 0.0, Q4 : 0.0}
2019-04-14 21:28:18.71: SIM {TimeUS : 41135206, Roll : 0.0, Pitch : 0.0, Yaw : 0.0, Alt : 30.1000003815, Lat : 49.28357, Lng : -123.11502, Q1 : 1.0, Q2 : 0.0, Q3 : 0.0, Q4 : 0.0}
2019-04-14 21:28:18.81: SIM {TimeUS : 41235166, Roll : 0.0, Pitch : 0.0, Yaw : 0.0, Alt : 30.1000003815, Lat : 49.28357, Lng : -123.11502, Q1 : 1.0, Q2 : 0.0, Q3 : 0.0, Q4 : 0.0}
2019-04-14 21:28:18.91: SIM {TimeUS : 41335126, Roll : 0.0, Pitch : 0.0, Yaw : 0.0, Alt : 30.1000003815, Lat : 49.28357, Lng : -123.11502, Q1 : 1.0, Q2 : 0.0, Q3 : 0.0, Q4 : 0.0}
2019-04-14 21:28:19.01: SIM {TimeUS : 41435086, Roll : 0.0, Pitch : 0.0, Yaw : 0.0, Alt : 30.1000003815, Lat : 49.28357, Lng : -123.11502, Q1 : 1.0, Q2 : 0.0, Q3 : 0.0, Q4 : 0.0}
2019-04-14 21:28:19.11: SIM {TimeUS : 41535046, Roll : 0.0, Pitch : 0.0, Yaw : 0.0, Alt : 30.1000003815, Lat : 49.28357, Lng : -123.11502, Q1 : 1.0, Q2 : 0.0, Q3 : 0.0, Q4 : 0.0}
2019-04-14 21:28:19.21: SIM {TimeUS : 41635006, Roll : 0.0, Pitch : 0.0, Yaw : 0.0, Alt : 30.1000003815, Lat : 49.28357, Lng : -123.11502, Q1 : 1.0, Q2 : 0.0, Q3 : 0.0, Q4 : 0.0}
2019-04-14 21:28:19.31: SIM {TimeUS : 41734966, Roll : 0.0, Pitch : 0.0, Yaw : 0.0, Alt : 30.1000003815, Lat : 49.28357, Lng : -123.11502, Q1 : 1.0, Q2 : 0.0, Q3 : 0.0, Q4 : 0.0}
2019-04-14 21:28:19.41: SIM {TimeUS : 41834926, Roll : 0.0, Pitch : 0.0, Yaw : 0.0, Alt : 30.1000003815, Lat : 49.28357, Lng : -123.11502, Q1 : 1.0, Q2 : 0.0, Q3 : 0.0, Q4 : 0.0}
2019-04-14 21:28:19.51: SIM {TimeUS : 41934886, Roll : 0.0, Pitch : 0.0, Yaw : 0.0, Alt : 30.1000003815, Lat : 49.28357, Lng : -123.11502, Q1 : 1.0, Q2 : 0.0, Q3 : 0.0, Q4 : 0.0}
2019-04-14 21:28:19.61: SIM {TimeUS : 42034846, Roll : 0.0, Pitch : 0.0, Yaw : 0.0, Alt : 30.1000003815, Lat : 49.28357, Lng : -123.11502, Q1 : 1.0, Q2 : 0.0, Q3 : 0.0, Q4 : 0.0}
2019-04-14 21:28:19.71: SIM {TimeUS : 42134806, Roll : 0.0, Pitch : 0.0, Yaw : 0.0, Alt : 30.1000003815, Lat : 49.28357, Lng : -123.11502, Q1 : 1.0, Q2 : 0.0, Q3 : 0.0, Q4 : 0.0}
2019-04-14 21:28:19.81: SIM {TimeUS : 42234766, Roll : 0.0, Pitch : 0.0, Yaw : 0.0, Alt : 30.1000003815, Lat : 49.28357, Lng : -123.11502, Q1 : 1.0, Q2 : 0.0, Q3 : 0.0, Q4 : 0.0}
2019-04-14 21:28:19.91: SIM {TimeUS : 42334726, Roll : 0.0, Pitch : 0.0, Yaw : 0.0, Alt : 30.1000003815, Lat : 49.28357, Lng : -123.11502, Q1 : 1.0, Q2 : 0.0, Q3 : 0.0, Q4 : 0.0}
2019-04-14 21:28:20.02: SIM {TimeUS : 42435519, Roll : 0.0, Pitch : 0.0, Yaw : 0.0, Alt : 30.1000003815, Lat : 49.28357, Lng : -123.11502, Q1 : 1.0, Q2 : 0.0, Q3 : 0.0, Q4 : 0.0}
2019-04-14 21:28:20.11: SIM {TimeUS : 42535479, Roll : 0.0, Pitch : 0.0, Yaw : 0.0, Alt : 30.1000003815, Lat : 49.28357, Lng : -123.11502, Q1 : 1.0, Q2 : 0.0, Q3 : 0.0, Q4 : 0.0}
2019-04-14 21:28:20.21: SIM {TimeUS : 42635439, Roll : 0.0, Pitch : 0.0, Yaw : 0.0, Alt : 30.1000003815, Lat : 49.28357, Lng : -123.11502, Q1 : 1.0, Q2 : 0.0, Q3 : 0.0, Q4 : 8.72913286792e-12}
2019-04-14 21:28:20.31: SIM {TimeUS : 42735399, Roll : 0.0, Pitch : 0.0, Yaw : 0.0, Alt : 30.1000003815, Lat : 49.28357, Lng : -123.11502, Q1 : 1.0, Q2 : 0.0, Q3 : 0.0, Q4 : 2.80113182649e-10}
2019-04-14 21:28:20.41: SIM {TimeUS : 42835359, Roll : 0.0, Pitch : 0.0, Yaw : 360.0, Alt : 30.1000003815, Lat : 49.28357, Lng : -123.11502, Q1 : 1.0, Q2 : 0.0, Q3 : 0.0, Q4 : -1.44344426189e-07}
2019-04-14 21:28:20.51: SIM {TimeUS : 42935319, Roll : 0.0, Pitch : 0.0, Yaw : 359.99, Alt : 30.1000003815, Lat : 49.28357, Lng : -123.11502, Q1 : 1.0, Q2 : 0.0, Q3 : 0.0, Q4 : -3.46942243823e-07}
2019-04-14 21:28:20.61: SIM {TimeUS : 43035279, Roll : 0.0, Pitch : 0.0, Yaw : 359.99, Alt : 30.1000003815, Lat : 49.28357, Lng : -123.11502, Q1 : 1.0, Q2 : 0.0, Q3 : 0.0, Q4 : -5.51277366867e-07}
2019-04-14 21:28:20.71: SIM {TimeUS : 43135239, Roll : 0.0, Pitch : 0.0, Yaw : 359.99, Alt : 30.1000003815, Lat : 49.28357, Lng : -123.11502, Q1 : 1.0, Q2 : 0.0, Q3 : 0.0, Q4 : -7.84804853993e-07}
2019-04-14 21:28:20.81: SIM {TimeUS : 43235199, Roll : 0.0, Pitch : 0.0, Yaw : 359.99, Alt : 30.1000003815, Lat : 49.28357, Lng : -123.11502, Q1 : 1.0, Q2 : 0.0, Q3 : 0.0, Q4 : -9.61660589383e-07}
2019-04-14 21:28:20.91: SIM {TimeUS : 43335159, Roll : 0.0, Pitch : 0.0, Yaw : 359.99, Alt : 30.1000003815, Lat : 49.28357, Lng : -123.11502, Q1 : 1.0, Q2 : 0.0, Q3 : 0.0, Q4 : -1.14583053801e-06}
2019-04-14 21:28:21.01: SIM {TimeUS : 43435119, Roll : 0.0, Pitch : 0.0, Yaw : 359.99, Alt : 30.1000003815, Lat : 49.28357, Lng : -123.11502, Q1 : 1.0, Q2 : 0.0, Q3 : 0.0, Q4 : -1.36623623348e-06}
2019-04-14 21:28:21.11: SIM {TimeUS : 43535079, Roll : 0.0, Pitch : 0.0, Yaw : 359.99, Alt : 30.1200008392, Lat : 49.28357, Lng : -123.11502, Q1 : 1.0, Q2 : 0.0, Q3 : 0.0, Q4 : -1.58869772804e-06}
2019-04-14 21:28:21.21: SIM {TimeUS : 43635039, Roll : 0.0, Pitch : 0.0, Yaw : 359.99, Alt : 30.1399993896, Lat : 49.28357, Lng : -123.11502, Q1 : 1.0, Q2 : 0.0, Q3 : 0.0, Q4 : -1.82320513886e-06}
2019-04-14 21:28:21.31: SIM {TimeUS : 43734999, Roll : 0.0, Pitch : 0.0, Yaw : 359.99, Alt : 30.1700000763, Lat : 49.28357, Lng : -123.11502, Q1 : 1.0, Q2 : 0.0, Q3 : 0.0, Q4 : -2.00191516342e-06}
2019-04-14 21:28:21.41: SIM {TimeUS : 43834959, Roll : 0.0, Pitch : 0.0, Yaw : 359.99, Alt : 30.2000007629, Lat : 49.28357, Lng : -123.11502, Q1 : 1.0, Q2 : 0.0, Q3 : 0.0, Q4 : -2.22606104217e-06}
2019-04-14 21:28:21.51: SIM {TimeUS : 43934919, Roll : -0.1, Pitch : -0.09, Yaw : 359.99, Alt : 30.25, Lat : 49.28357, Lng : -123.11502, Q1 : 0.999999284744, Q2 : -0.000874290126376, Q3 : -0.000817453721538, Q4 : -9.54933784669e-06}
2019-04-14 21:28:21.61: SIM {TimeUS : 44034879, Roll : -0.38, Pitch : -0.35, Yaw : 359.99, Alt : 30.3500003815, Lat : 49.28357, Lng : -123.11502, Q1 : 0.999989449978, Q2 : -0.00338378944434, Q3 : -0.00310611608438, Q4 : -4.0351987991e-05}
2019-04-14 21:28:21.71: SIM {TimeUS : 44134839, Roll : -0.67, Pitch : -0.6, Yaw : 359.99, Alt : 30.4899997711, Lat : 49.28357, Lng : -123.11502, Q1 : 0.999968528748, Q2 : -0.00588901061565, Q3 : -0.00531853036955, Q4 : -9.61408804869e-05}
2019-04-14 21:28:21.81: SIM {TimeUS : 44234799, Roll : -0.84, Pitch : -0.74, Yaw : 359.98, Alt : 30.6499996185, Lat : 49.28357, Lng : -123.11502, Q1 : 0.999951899052, Q2 : -0.00736651755869, Q3 : -0.00647579180077, Q4 : -0.000168890604982}
2019-04-14 21:28:21.91: SIM {TimeUS : 44334759, Roll : -0.84, Pitch : -0.73, Yaw : 359.97, Alt : 30.8099994659, Lat : 49.28357, Lng : -123.11502, Q1 : 0.99995213747, Q2 : -0.00741612166166, Q3 : -0.00637437356636, Q4 : -0.000251007295446}
2019-04-14 21:28:22.01: SIM {TimeUS : 44434719, Roll : -0.7, Pitch : -0.62, Yaw : 359.96, Alt : 30.9599990845, Lat : 49.28357, Lng : -123.1150201, Q1 : 0.999966561794, Q2 : -0.0061159604229, Q3 : -0.00541858328506, Q4 : -0.000332481780788}
2019-04-14 21:28:22.12: SIM {TimeUS : 44535512, Roll : -0.47, Pitch : -0.44, Yaw : 359.95, Alt : 31.1200008392, Lat : 49.2835701, Lng : -123.1150202, Q1 : 0.999984025955, Q2 : -0.00412124907598, Q3 : -0.00383853097446, Q4 : -0.00040744926082}
2019-04-14 21:28:22.21: SIM {TimeUS : 44635472, Roll : -0.25, Pitch : -0.23, Yaw : 359.94, Alt : 31.2800006866, Lat : 49.2835701, Lng : -123.1150203, Q1 : 0.999995231628, Q2 : -0.00222209747881, Q3 : -0.00208877096884, Q4 : -0.00046708525042}
2019-04-14 21:28:22.31: SIM {TimeUS : 44735432, Roll : -0.08, Pitch : -0.07, Yaw : 359.94, Alt : 31.4400005341, Lat : 49.2835702, Lng : -123.1150203, Q1 : 0.999999403954, Q2 : -0.000706264283508, Q3 : -0.000669489789288, Q4 : -0.000512135506142}
2019-04-14 21:28:22.41: SIM {TimeUS : 44835392, Roll : 0.02, Pitch : 0.02, Yaw : 359.93, Alt : 31.6100006104, Lat : 49.2835702, Lng : -123.1150204, Q1 : 0.999999821186, Q2 : 0.000246351846727, Q3 : 0.000189832571778, Q4 : -0.00054686848307}
2019-04-14 21:28:22.51: SIM {TimeUS : 44935352, Roll : 0.07, Pitch : 0.05, Yaw : 359.93, Alt : 31.7900009155, Lat : 49.2835703, Lng : -123.1150205, Q1 : 0.999999463558, Q2 : 0.000680155702867, Q3 : 0.000522927904967, Q4 : -0.000565852795262}
2019-04-14 21:28:22.61: SIM {TimeUS : 45035312, Roll : 0.09, Pitch : 0.05, Yaw : 359.93, Alt : 31.9799995422, Lat : 49.2835703, Lng : -123.1150206, Q1 : 0.999999344349, Q2 : 0.000849510601256, Q3 : 0.000485270196805, Q4 : -0.000568512885366}
2019-04-14 21:28:22.71: SIM {TimeUS : 45135272, Roll : 0.09, Pitch : 0.03, Yaw : 359.93, Alt : 32.1599998474, Lat : 49.2835703, Lng : -123.1150206, Q1 : 0.999999403954, Q2 : 0.000870046380442, Q3 : 0.000333217874868, Q4 : -0.00056340941228}
2019-04-14 21:28:22.81: SIM {TimeUS : 45235232, Roll : 0.09, Pitch : 0.03, Yaw : 359.93, Alt : 32.3499984741, Lat : 49.2835703, Lng : -123.1150207, Q1 : 0.999999463558, Q2 : 0.000820219866, Q3 : 0.000326257199049, Q4 : -0.000543837144505}
2019-04-14 21:28:22.91: SIM {TimeUS : 45335192, Roll : 0.08, Pitch : 0.06, Yaw : 359.94, Alt : 32.5400009155, Lat : 49.2835703, Lng : -123.1150207, Q1 : 0.999999403954, Q2 : 0.000753295607865, Q3 : 0.000574901641812, Q4 : -0.000515405205078}
2019-04-14 21:28:23.01: SIM {TimeUS : 45435152, Roll : 0.07, Pitch : 0.09, Yaw : 359.94, Alt : 32.7400016785, Lat : 49.2835703, Lng : -123.1150208, Q1 : 0.999999284744, Q2 : 0.000694495392963, Q3 : 0.000864827248733, Q4 : -0.0004838599707}
2019-04-14 21:28:23.11: SIM {TimeUS : 45535112, Roll : 0.1, Pitch : 0.14, Yaw : 359.94, Alt : 32.9399986267, Lat : 49.2835704, Lng : -123.1150208, Q1 : 0.999998688698, Q2 : 0.000889286107849, Q3 : 0.0012577783782, Q4 : -0.00046246862621}
2019-04-14 21:28:23.21: SIM {TimeUS : 45635072, Roll : 0.13, Pitch : 0.17, Yaw : 359.94, Alt : 33.1399993896, Lat : 49.2835704, Lng : -123.1150208, Q1 : 0.999998033047, Q2 : 0.00118731637485, Q3 : 0.00153514405247, Q4 : -0.000448768085334}
2019-04-14 21:28:23.31: SIM {TimeUS : 45735032, Roll : 0.15, Pitch : 0.18, Yaw : 359.94, Alt : 33.3400001526, Lat : 49.2835704, Lng : -123.1150208, Q1 : 0.999997615814, Q2 : 0.00137246761005, Q3 : 0.00164757715538, Q4 : -0.000457299116533}
2019-04-14 21:28:23.41: SIM {TimeUS : 45834992, Roll : 0.16, Pitch : 0.19, Yaw : 359.94, Alt : 33.5499992371, Lat : 49.2835704, Lng : -123.1150209, Q1 : 0.999997377396, Q2 : 0.00141442974564, Q3 : 0.0017247229116, Q4 : -0.000470879458589}
2019-04-14 21:28:23.51: SIM {TimeUS : 45934952, Roll : 0.15, Pitch : 0.16, Yaw : 359.94, Alt : 33.75, Lat : 49.2835704, Lng : -123.1150209, Q1 : 0.999997854233, Q2 : 0.00138598971535, Q3 : 0.00146184198093, Q4 : -0.000504040333908}
2019-04-14 21:28:23.61: SIM {TimeUS : 46034912, Roll : 0.14, Pitch : 0.12, Yaw : 359.93, Alt : 33.9599990845, Lat : 49.2835704, Lng : -123.1150209, Q1 : 0.999998390675, Q2 : 0.00130412005819, Q3 : 0.00113110709935, Q4 : -0.000540126406122}
2019-04-14 21:28:23.71: SIM {TimeUS : 46134872, Roll : 0.13, Pitch : 0.1, Yaw : 359.93, Alt : 34.1699981689, Lat : 49.2835704, Lng : -123.1150209, Q1 : 0.999998807907, Q2 : 0.001139924163, Q3 : 0.000911706767511, Q4 : -0.000573913450353}
2019-04-14 21:28:23.81: SIM {TimeUS : 46234832, Roll : 0.11, Pitch : 0.09, Yaw : 359.93, Alt : 34.3899993896, Lat : 49.2835706, Lng : -123.1150209, Q1 : 0.999998986721, Q2 : 0.00103930965997, Q3 : 0.000796673120931, Q4 : -0.000603407563176}
2019-04-14 21:28:23.91: SIM {TimeUS : 46334792, Roll : 0.11, Pitch : 0.08, Yaw : 359.92, Alt : 34.5999984741, Lat : 49.2835706, Lng : -123.1150209, Q1 : 0.999998986721, Q2 : 0.00103015464265, Q3 : 0.000780510948971, Q4 : -0.000633549585473}
2019-04-14 21:28:24.01: SIM {TimeUS : 46434752, Roll : 0.1, Pitch : 0.07, Yaw : 359.92, Alt : 34.8100013733, Lat : 49.2835706, Lng : -123.1150209, Q1 : 0.999999165535, Q2 : 0.000946016109083, Q3 : 0.000641519727651, Q4 : -0.000654158939142}
2019-04-14 21:28:24.11: SIM {TimeUS : 46534712, Roll : 0.08, Pitch : 0.05, Yaw : 359.92, Alt : 35.0299987793, Lat : 49.2835704, Lng : -123.1150208, Q1 : 0.999999344349, Q2 : 0.000768120284192, Q3 : 0.000476620247355, Q4 : -0.000668197521009}
2019-04-14 21:28:24.22: SIM {TimeUS : 46635505, Roll : 0.06, Pitch : 0.04, Yaw : 359.92, Alt : 35.25, Lat : 49.2835704, Lng : -123.1150208, Q1 : 0.999999523163, Q2 : 0.000595674675424, Q3 : 0.000389523484046, Q4 : -0.000678638694808}
2019-04-14 21:28:24.31: SIM {TimeUS : 46735465, Roll : 0.04, Pitch : 0.04, Yaw : 359.92, Alt : 35.4599990845, Lat : 49.2835704, Lng : -123.1150208, Q1 : 0.999999582767, Q2 : 0.000429448205978, Q3 : 0.00037410002551, Q4 : -0.000686670071445}
2019-04-14 21:28:24.41: SIM {TimeUS : 46835425, Roll : 0.04, Pitch : 0.02, Yaw : 359.92, Alt : 35.6800003052, Lat : 49.2835704, Lng : -123.1150208, Q1 : 0.999999701977, Q2 : 0.0003627158585, Q3 : 0.000185155164218, Q4 : -0.000692025525495}
2019-04-14 21:28:24.51: SIM {TimeUS : 46935385, Roll : 0.03, Pitch : 0.0, Yaw : 359.92, Alt : 35.9000015259, Lat : 49.2835704, Lng : -123.1150208, Q1 : 0.999999701977, Q2 : 0.000312001386192, Q3 : 6.5107618866e-05, Q4 : -0.000698221381754}
2019-04-14 21:28:24.61: SIM {TimeUS : 47035345, Roll : 0.01, Pitch : 0.0, Yaw : 359.91, Alt : 36.1199989319, Lat : 49.2835704, Lng : -123.1150208, Q1 : 0.999999761581, Q2 : 0.000160507144756, Q3 : 2.79194282484e-05, Q4 : -0.000718515075278}
2019-04-14 21:28:24.71: SIM {TimeUS : 47135305, Roll : 0.01, Pitch : 0.0, Yaw : 359.91, Alt : 36.3400001526, Lat : 49.2835704, Lng : -123.1150207, Q1 : 0.999999701977, Q2 : 0.000103268321254, Q3 : 5.98680089752e-05, Q4 : -0.000742887787055}
2019-04-14 21:28:24.81: SIM {TimeUS : 47235265, Roll : 0.01, Pitch : 0.0, Yaw : 359.91, Alt : 36.5699996948, Lat : 49.2835704, Lng : -123.1150207, Q1 : 0.999999701977, Q2 : 0.000152576059918, Q3 : 6.63251776132e-05, Q4 : -0.000770028389525}
2019-04-14 21:28:24.91: SIM {TimeUS : 47335225, Roll : 0.0, Pitch : 0.0, Yaw : 359.9, Alt : 36.7900009155, Lat : 49.2835704, Lng : -123.1150207, Q1 : 0.999999701977, Q2 : 4.70245213364e-05, Q3 : -7.19766176189e-05, Q4 : -0.000797258515377}
2019-04-14 21:28:25.01: SIM {TimeUS : 47435185, Roll : -0.02, Pitch : -0.04, Yaw : 359.9, Alt : 37.0099983215, Lat : 49.2835704, Lng : -123.1150207, Q1 : 0.999999523163, Q2 : -0.000257524836343, Q3 : -0.000408285210142, Q4 : -0.000825757451821}
2019-04-14 21:28:25.11: SIM {TimeUS : 47535145, Roll : -0.07, Pitch : -0.08, Yaw : 359.9, Alt : 37.2400016785, Lat : 49.2835704, Lng : -123.1150207, Q1 : 0.999999165535, Q2 : -0.000646782806143, Q3 : -0.000721625750884, Q4 : -0.000853881705552}
2019-04-14 21:28:25.21: SIM {TimeUS : 47635105, Roll : -0.11, Pitch : -0.1, Yaw : 359.89, Alt : 37.4599990845, Lat : 49.2835704, Lng : -123.1150207, Q1 : 0.999998688698, Q2 : -0.000988851068541, Q3 : -0.000921428203583, Q4 : -0.000885907444172}
2019-04-14 21:28:25.31: SIM {TimeUS : 47735065, Roll : -0.13, Pitch : -0.11, Yaw : 359.89, Alt : 37.6899986267, Lat : 49.2835704, Lng : -123.1150207, Q1 : 0.999998450279, Q2 : -0.00114439602476, Q3 : -0.00100399844814, Q4 : -0.000918332138099}
2019-04-14 21:28:25.41: SIM {TimeUS : 47835025, Roll : -0.13, Pitch : -0.1, Yaw : 359.89, Alt : 37.9199981689, Lat : 49.2835704, Lng : -123.1150206, Q1 : 0.999998450279, Q2 : -0.00114507274702, Q3 : -0.00093996146461, Q4 : -0.000951595196966}
2019-04-14 21:28:25.51: SIM {TimeUS : 47934985, Roll : -0.11, Pitch : -0.07, Yaw : 359.88, Alt : 38.1399993896, Lat : 49.2835704, Lng : -123.1150206, Q1 : 0.999998867512, Q2 : -0.000967128376942, Q3 : -0.000648977642413, Q4 : -0.000980615383014}
2019-04-14 21:28:25.61: SIM {TimeUS : 48034945, Roll : -0.08, Pitch : -0.04, Yaw : 359.88, Alt : 38.3699989319, Lat : 49.2835704, Lng : -123.1150206, Q1 : 0.999999165535, Q2 : -0.000726782949641, Q3 : -0.000405871658586, Q4 : -0.00100733397994}
2019-04-14 21:28:25.71: SIM {TimeUS : 48134905, Roll : -0.06, Pitch : -0.03, Yaw : 359.88, Alt : 38.5999984741, Lat : 49.2835704, Lng : -123.1150206, Q1 : 0.99999922514, Q2 : -0.000601774896495, Q3 : -0.00031795760151, Q4 : -0.00103441148531}
2019-04-14 21:28:25.81: SIM {TimeUS : 48234865, Roll : -0.06, Pitch : -0.01, Yaw : 359.87, Alt : 38.8300018311, Lat : 49.2835704, Lng : -123.1150206, Q1 : 0.999999284744, Q2 : -0.000588218506891, Q3 : -0.000120426237117, Q4 : -0.00105191930197}
2019-04-14 21:28:25.91: SIM {TimeUS : 48334825, Roll : -0.08, Pitch : 0.01, Yaw : 359.87, Alt : 39.0600013733, Lat : 49.2835706, Lng : -123.1150206, Q1 : 0.999999165535, Q2 : -0.000737868074793, Q3 : 9.17676734389e-05, Q4 : -0.00106641161256}
2019-04-14 21:28:26.01: SIM {TimeUS : 48434785, Roll : -0.08, Pitch : 0.02, Yaw : 359.87, Alt : 39.2900009155, Lat : 49.2835706, Lng : -123.1150206, Q1 : 0.99999910593, Q2 : -0.000747530895751, Q3 : 0.000225106748985, Q4 : -0.00107714626938}
2019-04-14 21:28:26.11: SIM {TimeUS : 48534745, Roll : -0.06, Pitch : 0.04, Yaw : 359.87, Alt : 39.5200004578, Lat : 49.2835706, Lng : -123.1150206, Q1 : 0.999999165535, Q2 : -0.000597827078309, Q3 : 0.000411134038586, Q4 : -0.00108616705984}
2019-04-14 21:28:26.21: SIM {TimeUS : 48634705, Roll : -0.04, Pitch : 0.04, Yaw : 359.87, Alt : 39.75, Lat : 49.2835706, Lng : -123.1150207, Q1 : 0.99999922514, Q2 : -0.000401140016038, Q3 : 0.000404700433137, Q4 : -0.00108585203998}
2019-04-14 21:28:26.32: SIM {TimeUS : 48735498, Roll : -0.01, Pitch : 0.03, Yaw : 359.87, Alt : 39.9799995422, Lat : 49.2835706, Lng : -123.1150207, Q1 : 0.999999344349, Q2 : -0.000158933442435, Q3 : 0.000347724067979, Q4 : -0.00108496239409}
2019-04-14 21:28:26.41: SIM {TimeUS : 48835458, Roll : 0.01, Pitch : 0.06, Yaw : 359.87, Alt : 40.2099990845, Lat : 49.2835706, Lng : -123.1150207, Q1 : 0.999999284744, Q2 : 0.00014989299234, Q3 : 0.000538424530532, Q4 : -0.00107694207691}
2019-04-14 21:28:26.51: SIM {TimeUS : 48935418, Roll : 0.05, Pitch : 0.1, Yaw : 359.87, Alt : 40.4399986267, Lat : 49.2835706, Lng : -123.1150207, Q1 : 0.999998867512, Q2 : 0.000513096805662, Q3 : 0.000893838063348, Q4 : -0.00107661588117}
2019-04-14 21:28:26.61: SIM {TimeUS : 49035378, Roll : 0.09, Pitch : 0.14, Yaw : 359.87, Alt : 40.6699981689, Lat : 49.2835706, Lng : -123.1150207, Q1 : 0.999998271465, Q2 : 0.000789931393228, Q3 : 0.00127016752958, Q4 : -0.00108491675928}
2019-04-14 21:28:26.71: SIM {TimeUS : 49135338, Roll : 0.08, Pitch : 0.18, Yaw : 359.87, Alt : 40.9099998474, Lat : 49.2835706, Lng : -123.1150207, Q1 : 0.999997854233, Q2 : 0.000738202477805, Q3 : 0.00159040407743, Q4 : -0.00108984147664}
2019-04-14 21:28:26.81: SIM {TimeUS : 49235298, Roll : 0.03, Pitch : 0.2, Yaw : 359.87, Alt : 41.1399993896, Lat : 49.2835706, Lng : -123.1150207, Q1 : 0.999997735023, Q2 : 0.000335895252647, Q3 : 0.00178966706153, Q4 : -0.00111129158176}
2019-04-14 21:28:26.91: SIM {TimeUS : 49335258, Roll : 0.0, Pitch : 0.2, Yaw : 359.86, Alt : 41.3699989319, Lat : 49.2835706, Lng : -123.1150207, Q1 : 0.999997675419, Q2 : -5.64996735193e-05, Q3 : 0.00182129221503, Q4 : -0.00113618269097}
2019-04-14 21:28:27.01: SIM {TimeUS : 49435218, Roll : -0.03, Pitch : 0.17, Yaw : 359.86, Alt : 41.6100006104, Lat : 49.2835706, Lng : -123.1150207, Q1 : 0.999998092651, Q2 : -0.000269673124421, Q3 : 0.00153768190648, Q4 : -0.00115901243407}
2019-04-14 21:28:27.11: SIM {TimeUS : 49535178, Roll : -0.03, Pitch : 0.13, Yaw : 359.86, Alt : 41.8400001526, Lat : 49.2835706, Lng : -123.1150207, Q1 : 0.999998569489, Q2 : -0.00032334815478, Q3 : 0.00116048182826, Q4 : -0.00118889880832}
2019-04-14 21:28:27.21: SIM {TimeUS : 49635138, Roll : -0.02, Pitch : 0.12, Yaw : 359.85, Alt : 42.0699996948, Lat : 49.2835706, Lng : -123.1150207, Q1 : 0.999998688698, Q2 : -0.000190940438188, Q3 : 0.00105372606777, Q4 : -0.00122880202252}
2019-04-14 21:28:27.31: SIM {TimeUS : 49735098, Roll : 0.01, Pitch : 0.12, Yaw : 359.85, Alt : 42.3100013733, Lat : 49.2835706, Lng : -123.1150207, Q1 : 0.999998509884, Q2 : 0.000156246329425, Q3 : 0.00113002653234, Q4 : -0.00127512519248}
2019-04-14 21:28:27.41: SIM {TimeUS : 49835058, Roll : 0.07, Pitch : 0.13, Yaw : 359.84, Alt : 42.5400009155, Lat : 49.2835706, Lng : -123.1150207, Q1 : 0.999998211861, Q2 : 0.000621629005764, Q3 : 0.00120266666636, Q4 : -0.0013208668679}
2019-04-14 21:28:27.51: SIM {TimeUS : 49935018, Roll : 0.1, Pitch : 0.12, Yaw : 359.84, Alt : 42.7799987793, Lat : 49.2835706, Lng : -123.1150207, Q1 : 0.999998033047, Q2 : 0.000961346901022, Q3 : 0.00107558630407, Q4 : -0.00137522548903}
2019-04-14 21:28:27.61: SIM {TimeUS : 50034978, Roll : 0.11, Pitch : 0.1, Yaw : 359.83, Alt : 43.0099983215, Lat : 49.2835706, Lng : -123.1150207, Q1 : 0.999998092651, Q2 : 0.000984775135294, Q3 : 0.000880809791852, Q4 : -0.00142920145299}
2019-04-14 21:28:27.71: SIM {TimeUS : 50134938, Roll : 0.07, Pitch : 0.08, Yaw : 359.83, Alt : 43.25, Lat : 49.2835706, Lng : -123.1150207, Q1 : 0.999998450279, Q2 : 0.000645413121674, Q3 : 0.000751217477955, Q4 : -0.00146211253013}
2019-04-14 21:28:27.81: SIM {TimeUS : 50234898, Roll : 0.01, Pitch : 0.07, Yaw : 359.82, Alt : 43.4799995422, Lat : 49.2835704, Lng : -123.1150207, Q1 : 0.999998629093, Q2 : 0.000151583590196, Q3 : 0.000674490933307, Q4 : -0.00148495670874}
2019-04-14 21:28:27.91: SIM {TimeUS : 50334858, Roll : -0.02, Pitch : 0.08, Yaw : 359.82, Alt : 43.7200012207, Lat : 49.2835704, Lng : -123.1150207, Q1 : 0.999998569489, Q2 : -0.000219935187488, Q3 : 0.000737634371035, Q4 : -0.00150531157851}
2019-04-14 21:28:28.01: SIM {TimeUS : 50434818, Roll : -0.04, Pitch : 0.08, Yaw : 359.82, Alt : 43.9500007629, Lat : 49.2835704, Lng : -123.1150207, Q1 : 0.999998509884, Q2 : -0.000399214914069, Q3 : 0.000739525654353, Q4 : -0.00152422348037}
2019-04-14 21:28:28.11: SIM {TimeUS : 50534778, Roll : -0.04, Pitch : 0.06, Yaw : 359.82, Alt : 44.1899986267, Lat : 49.2835704, Lng : -123.1150207, Q1 : 0.999998629093, Q2 : -0.000350217305822, Q3 : 0.000584602938034, Q4 : -0.00153665570542}
2019-04-14 21:28:28.21: SIM {TimeUS : 50634738, Roll : -0.04, Pitch : 0.04, Yaw : 359.82, Alt : 44.4199981689, Lat : 49.2835704, Lng : -123.1150206, Q1 : 0.999998629093, Q2 : -0.000367320666555, Q3 : 0.000365167186828, Q4 : -0.00155010458548}
2019-04-14 21:28:28.31: SIM {TimeUS : 50734698, Roll : -0.03, Pitch : 0.01, Yaw : 359.82, Alt : 44.6599998474, Lat : 49.2835704, Lng : -123.1150206, Q1 : 0.999998688698, Q2 : -0.000315037032124, Q3 : 0.00014512326743, Q4 : -0.00156668003183}
2019-04-14 21:28:28.41: SIM {TimeUS : 50835491, Roll : -0.02, Pitch : 0.0, Yaw : 359.81, Alt : 44.9000015259, Lat : 49.2835704, Lng : -123.1150206, Q1 : 0.999998748302, Q2 : -0.000194140782696, Q3 : 9.1491403964e-07, Q4 : -0.00159271038137}
2019-04-14 21:28:28.51: SIM {TimeUS : 50935451, Roll : -0.02, Pitch : 0.0, Yaw : 359.81, Alt : 45.1399993896, Lat : 49.2835703, Lng : -123.1150206, Q1 : 0.999998688698, Q2 : -0.000176343441126, Q3 : 3.47416118984e-07, Q4 : -0.00162056926638}
2019-04-14 21:28:28.61: SIM {TimeUS : 51035411, Roll : -0.02, Pitch : 0.0, Yaw : 359.81, Alt : 45.3699989319, Lat : 49.2835703, Lng : -123.1150206, Q1 : 0.999998629093, Q2 : -0.000225292504183, Q3 : -5.21900437889e-05, Q4 : -0.00165415613446}
2019-04-14 21:28:28.71: SIM {TimeUS : 51135371, Roll : -0.03, Pitch : -0.02, Yaw : 359.8, Alt : 45.6100006104, Lat : 49.2835703, Lng : -123.1150206, Q1 : 0.999998509884, Q2 : -0.000265847658738, Q3 : -0.000239428176428, Q4 : -0.00169147236738}
2019-04-14 21:28:28.81: SIM {TimeUS : 51235331, Roll : -0.03, Pitch : -0.04, Yaw : 359.8, Alt : 45.8400001526, Lat : 49.2835703, Lng : -123.1150206, Q1 : 0.999998390675, Q2 : -0.000268228031928, Q3 : -0.000368999317288, Q4 : -0.00172670721076}
2019-04-14 21:28:28.91: SIM {TimeUS : 51335291, Roll : -0.02, Pitch : -0.05, Yaw : 359.79, Alt : 46.0699996948, Lat : 49.2835703, Lng : -123.1150206, Q1 : 0.99999833107, Q2 : -0.000177115434781, Q3 : -0.000437935988884, Q4 : -0.00175760395359}
2019-04-14 21:28:29.01: SIM {TimeUS : 51435251, Roll : -0.02, Pitch : -0.05, Yaw : 359.79, Alt : 46.2999992371, Lat : 49.2835703, Lng : -123.1150206, Q1 : 0.999998271465, Q2 : -0.000199707879801, Q3 : -0.000460720300907, Q4 : -0.0017837441992}
2019-04-14 21:28:29.11: SIM {TimeUS : 51535211, Roll : -0.04, Pitch : -0.04, Yaw : 359.79, Alt : 46.5200004578, Lat : 49.2835703, Lng : -123.1150206, Q1 : 0.999998211861, Q2 : -0.000398985081119, Q3 : -0.000419456337113, Q4 : -0.0018059310969}
2019-04-14 21:28:29.21: SIM {TimeUS : 51635171, Roll : -0.07, Pitch : -0.04, Yaw : 359.79, Alt : 46.7400016785, Lat : 49.2835703, Lng : -123.1150206, Q1 : 0.999998033047, Q2 : -0.000694979564287, Q3 : -0.000383007456549, Q4 : -0.00182429514825}
2019-04-14 21:28:29.31: SIM {TimeUS : 51735131, Roll : -0.1, Pitch : -0.04, Yaw : 359.78, Alt : 46.9500007629, Lat : 49.2835703, Lng : -123.1150206, Q1 : 0.999997794628, Q2 : -0.000920065212995, Q3 : -0.000372246955521, Q4 : -0.00184357701801}
2019-04-14 21:28:29.41: SIM {TimeUS : 51835091, Roll : -0.11, Pitch : -0.03, Yaw : 359.78, Alt : 47.1599998474, Lat : 49.2835703, Lng : -123.1150206, Q1 : 0.999997735023, Q2 : -0.000986169208772, Q3 : -0.000267770083155, Q4 : -0.00186240836047}
2019-04-14 21:28:29.51: SIM {TimeUS : 51935051, Roll : -0.1, Pitch : 0.0, Yaw : 359.78, Alt : 47.3499984741, Lat : 49.2835703, Lng : -123.1150206, Q1 : 0.999997794628, Q2 : -0.000911103503313, Q3 : -5.29811441083e-05, Q4 : -0.00188312551472}
2019-04-14 21:28:29.61: SIM {TimeUS : 52035011, Roll : -0.08, Pitch : 0.0, Yaw : 359.78, Alt : 47.5400009155, Lat : 49.2835703, Lng : -123.1150206, Q1 : 0.999997913837, Q2 : -0.000715498288628, Q3 : 7.68672543927e-05, Q4 : -0.00190408853814}
2019-04-14 21:28:29.71: SIM {TimeUS : 52134971, Roll : -0.08, Pitch : 0.0, Yaw : 359.77, Alt : 47.7200012207, Lat : 49.2835703, Lng : -123.1150206, Q1 : 0.999997913837, Q2 : -0.000703486555722, Q3 : 5.18802607985e-06, Q4 : -0.00193112238776}
2019-04-14 21:28:29.81: SIM {TimeUS : 52234931, Roll : -0.08, Pitch : -0.02, Yaw : 359.77, Alt : 47.8899993896, Lat : 49.2835703, Lng : -123.1150206, Q1 : 0.999997735023, Q2 : -0.000772416009568, Q3 : -0.000208041528822, Q4 : -0.00196133740246}
2019-04-14 21:28:29.91: SIM {TimeUS : 52334891, Roll : -0.08, Pitch : -0.05, Yaw : 359.77, Alt : 48.0499992371, Lat : 49.2835703, Lng : -123.1150206, Q1 : 0.999997675419, Q2 : -0.000710308784619, Q3 : -0.000480312912259, Q4 : -0.00199030013755}
2019-04-14 21:28:30.01: SIM {TimeUS : 52434851, Roll : -0.05, Pitch : -0.07, Yaw : 359.76, Alt : 48.1899986267, Lat : 49.2835703, Lng : -123.1150206, Q1 : 0.999997615814, Q2 : -0.00049702799879, Q3 : -0.00067450501956, Q4 : -0.00201865890995}
2019-04-14 21:28:30.11: SIM {TimeUS : 52534811, Roll : -0.04, Pitch : -0.09, Yaw : 359.76, Alt : 48.3199996948, Lat : 49.2835703, Lng : -123.1150206, Q1 : 0.999997496605, Q2 : -0.000359453639248, Q3 : -0.000792579026893, Q4 : -0.00204851804301}
2019-04-14 21:28:30.21: SIM {TimeUS : 52634771, Roll : -0.03, Pitch : -0.09, Yaw : 359.76, Alt : 48.4399986267, Lat : 49.2835703, Lng : -123.1150206, Q1 : 0.999997377396, Q2 : -0.000337886624038, Q3 : -0.00085809227312, Q4 : -0.00208226055838}
2019-04-14 21:28:30.31: SIM {TimeUS : 52734731, Roll : -0.01, Pitch : -0.08, Yaw : 359.75, Alt : 48.5499992371, Lat : 49.2835703, Lng : -123.1150206, Q1 : 0.999997437, Q2 : -0.000107579013275, Q3 : -0.000767178891692, Q4 : -0.00211569503881}
2019-04-14 21:28:30.42: SIM {TimeUS : 52835524, Roll : 0.02, Pitch : -0.06, Yaw : 359.75, Alt : 48.6500015259, Lat : 49.2835703, Lng : -123.1150206, Q1 : 0.999997496605, Q2 : 0.000208521581953, Q3 : -0.000567786803003, Q4 : -0.00214857957326}
2019-04-14 21:28:30.51: SIM {TimeUS : 52935484, Roll : 0.05, Pitch : -0.03, Yaw : 359.75, Alt : 48.7299995422, Lat : 49.2835703, Lng : -123.1150206, Q1 : 0.999997437, Q2 : 0.000456313602626, Q3 : -0.000341513485182, Q4 : -0.00217956793495}
2019-04-14 21:28:30.61: SIM {TimeUS : 53035444, Roll : 0.05, Pitch : -0.01, Yaw : 359.74, Alt : 48.7999992371, Lat : 49.2835703, Lng : -123.1150206, Q1 : 0.999997377396, Q2 : 0.000521058624145, Q3 : -0.000175627632416, Q4 : -0.00221053604037}
2019-04-14 21:28:30.71: SIM {TimeUS : 53135404, Roll : 0.06, Pitch : -0.01, Yaw : 359.74, Alt : 48.8699989319, Lat : 49.2835703, Lng : -123.1150207, Q1 : 0.999997317791, Q2 : 0.00056062231306, Q3 : -9.60231773206e-05, Q4 : -0.00223754299805}
2019-04-14 21:28:30.81: SIM {TimeUS : 53235364, Roll : 0.06, Pitch : -0.02, Yaw : 359.74, Alt : 48.9199981689, Lat : 49.2835703, Lng : -123.1150207, Q1 : 0.999997317791, Q2 : 0.000524305156432, Q3 : -0.000206374505069, Q4 : -0.00225882418454}
2019-04-14 21:28:30.91: SIM {TimeUS : 53335324, Roll : 0.04, Pitch : -0.03, Yaw : 359.73, Alt : 48.9700012207, Lat : 49.2835703, Lng : -123.1150207, Q1 : 0.999997258186, Q2 : 0.000411105516832, Q3 : -0.000338949786965, Q4 : -0.00228318315931}
2019-04-14 21:28:31.01: SIM {TimeUS : 53435284, Roll : 0.12, Pitch : -0.1, Yaw : 359.73, Alt : 49.0099983215, Lat : 49.2835703, Lng : -123.1150207, Q1 : 0.999996304512, Q2 : 0.00112919160165, Q3 : -0.000880024628714, Q4 : -0.00230692024343}
2019-04-14 21:28:31.11: SIM {TimeUS : 53535244, Roll : 0.4, Pitch : -0.29, Yaw : 359.73, Alt : 49.0400009155, Lat : 49.2835703, Lng : -123.1150207, Q1 : 0.999987602234, Q2 : 0.00357135059312, Q3 : -0.00258486997336, Q4 : -0.00232710014097}
2019-04-14 21:28:31.21: SIM {TimeUS : 53635204, Roll : 0.92, Pitch : -0.64, Yaw : 359.72, Alt : 49.0699996948, Lat : 49.2835703, Lng : -123.1150207, Q1 : 0.999948620796, Q2 : 0.00809441693127, Q3 : -0.00563058583066, Q4 : -0.00234292983077}
2019-04-14 21:28:31.31: SIM {TimeUS : 53735164, Roll : 1.66, Pitch : -1.11, Yaw : 359.71, Alt : 49.0999984741, Lat : 49.2835704, Lng : -123.1150206, Q1 : 0.999844610691, Q2 : 0.0144867962226, Q3 : -0.00976592954248, Q4 : -0.00234306883067}
2019-04-14 21:28:31.41: SIM {TimeUS : 53835124, Roll : 2.52, Pitch : -1.68, Yaw : 359.69, Alt : 49.1199989319, Lat : 49.2835704, Lng : -123.1150206, Q1 : 0.999645650387, Q2 : 0.0220351293683, Q3 : -0.0147558283061, Q4 : -0.00230543594807}
2019-04-14 21:28:31.51: SIM {TimeUS : 53935084, Roll : 3.39, Pitch : -2.28, Yaw : 359.67, Alt : 49.1399993896, Lat : 49.2835706, Lng : -123.1150205, Q1 : 0.999360918999, Q2 : 0.0295213889331, Q3 : -0.0200323741883, Q4 : -0.00222260062583}
2019-04-14 21:28:31.61: SIM {TimeUS : 54035044, Roll : 4.1, Pitch : -2.81, Yaw : 359.66, Alt : 49.1599998474, Lat : 49.2835706, Lng : -123.1150203, Q1 : 0.999055922031, Q2 : 0.0357336290181, Q3 : -0.0246203821152, Q4 : -0.00207548029721}
2019-04-14 21:28:31.71: SIM {TimeUS : 54135004, Roll : 4.63, Pitch : -3.22, Yaw : 359.65, Alt : 49.1699981689, Lat : 49.2835708, Lng : -123.11502, Q1 : 0.998785972595, Q2 : 0.0403049327433, Q3 : -0.0282588228583, Q4 : -0.0018726765411}
2019-04-14 21:28:31.81: SIM {TimeUS : 54234964, Roll : 5.0, Pitch : -3.53, Yaw : 359.65, Alt : 49.1800003052, Lat : 49.2835709, Lng : -123.1150198, Q1 : 0.998569130898, Q2 : 0.0435894094408, Q3 : -0.0309359002858, Q4 : -0.00162371608894}
2019-04-14 21:28:31.91: SIM {TimeUS : 54334924, Roll : 5.31, Pitch : -3.75, Yaw : 359.67, Alt : 49.1899986267, Lat : 49.283571, Lng : -123.1150193, Q1 : 0.99838835001, Q2 : 0.0462249927223, Q3 : -0.0328965894878, Q4 : -0.00133776525036}
2019-04-14 21:28:32.01: SIM {TimeUS : 54434884, Roll : 5.6, Pitch : -3.96, Yaw : 359.68, Alt : 49.2000007629, Lat : 49.2835714, Lng : -123.1150188, Q1 : 0.998209238052, Q2 : 0.0487357750535, Q3 : -0.0346721149981, Q4 : -0.00104384939186}
2019-04-14 21:28:32.11: SIM {TimeUS : 54534844, Roll : 5.9, Pitch : -4.16, Yaw : 359.69, Alt : 49.2099990845, Lat : 49.2835716, Lng : -123.1150182, Q1 : 0.998012006283, Q2 : 0.0514144487679, Q3 : -0.036442860961, Q4 : -0.000744499615394}
2019-04-14 21:28:32.21: SIM {TimeUS : 54634804, Roll : 6.21, Pitch : -4.36, Yaw : 359.7, Alt : 49.2200012207, Lat : 49.283572, Lng : -123.1150174, Q1 : 0.997805416584, Q2 : 0.0540930777788, Q3 : -0.0381863415241, Q4 : -0.000459668139229}
2019-04-14 21:28:32.31: SIM {TimeUS : 54734764, Roll : 6.47, Pitch : -4.55, Yaw : 359.71, Alt : 49.2299995422, Lat : 49.2835724, Lng : -123.1150166, Q1 : 0.997617781162, Q2 : 0.0563294515014, Q3 : -0.0398203879595, Q4 : -0.000220567162614}
2019-04-14 21:28:32.41: SIM {TimeUS : 54834724, Roll : 6.67, Pitch : -4.71, Yaw : 359.72, Alt : 49.2299995422, Lat : 49.2835727, Lng : -123.1150157, Q1 : 0.9974604249, Q2 : 0.0581067763269, Q3 : -0.0411864444613, Q4 : -3.08032576868e-05}
2019-04-14 21:28:32.52: SIM {TimeUS : 54935517, Roll : 6.84, Pitch : -4.82, Yaw : 359.72, Alt : 49.2400016785, Lat : 49.2835733, Lng : -123.1150147, Q1 : 0.997333943844, Q2 : 0.0595507249236, Q3 : -0.0421746857464, Q4 : 0.000128305793623}
2019-04-14 21:28:32.61: SIM {TimeUS : 55035477, Roll : 6.95, Pitch : -4.88, Yaw : 359.73, Alt : 49.2400016785, Lat : 49.2835738, Lng : -123.1150136, Q1 : 0.997253835201, Q2 : 0.060525175184, Q3 : -0.0426776744425, Q4 : 0.000259182648733}
2019-04-14 21:28:32.71: SIM {TimeUS : 55135437, Roll : 7.05, Pitch : -4.93, Yaw : 359.73, Alt : 49.25, Lat : 49.2835743, Lng : -123.1150124, Q1 : 0.997186124325, Q2 : 0.0613330751657, Q3 : -0.0431051924825, Q4 : 0.000345127540641}
2019-04-14 21:28:32.81: SIM {TimeUS : 55235397, Roll : 7.2, Pitch : -4.97, Yaw : 359.75, Alt : 49.25, Lat : 49.2835749, Lng : -123.1150111, Q1 : 0.997086703777, Q2 : 0.0626939088106, Q3 : -0.0434427782893, Q4 : 0.000562681350857}
2019-04-14 21:28:32.91: SIM {TimeUS : 55335357, Roll : 7.59, Pitch : -4.85, Yaw : 0.08, Alt : 49.25, Lat : 49.2835756, Lng : -123.1150096, Q1 : 0.996906876564, Q2 : 0.0661735758185, Q3 : -0.0422545857728, Q4 : 0.00351555855013}
2019-04-14 21:28:33.01: SIM {TimeUS : 55435317, Roll : 8.19, Pitch : -4.65, Yaw : 1.37, Alt : 49.2599983215, Lat : 49.2835762, Lng : -123.1150082, Q1 : 0.996517956257, Q2 : 0.071837566793, Q3 : -0.0396354012191, Q4 : 0.0148441474885}
2019-04-14 21:28:33.11: SIM {TimeUS : 55535277, Roll : 8.75, Pitch : -4.72, Yaw : 4.16, Alt : 49.2599983215, Lat : 49.2835769, Lng : -123.1150067, Q1 : 0.995462298393, Q2 : 0.0777466893196, Q3 : -0.0382745228708, Q4 : 0.0393109694123}
2019-04-14 21:28:33.21: SIM {TimeUS : 55635237, Roll : 9.05, Pitch : -5.28, Yaw : 8.52, Alt : 49.2599983215, Lat : 49.2835776, Lng : -123.115005, Q1 : 0.992800831795, Q2 : 0.0820295661688, Q3 : -0.0399459525943, Q4 : 0.0776016786695}
2019-04-14 21:28:33.31: SIM {TimeUS : 55735197, Roll : 8.87, Pitch : -6.35, Yaw : 14.27, Alt : 49.2599983215, Lat : 49.2835782, Lng : -123.1150032, Q1 : 0.987220525742, Q2 : 0.0835569053888, Q3 : -0.0451982282102, Q4 : 0.12794932723}
2019-04-14 21:28:33.41: SIM {TimeUS : 55835157, Roll : 8.11, Pitch : -7.78, Yaw : 21.18, Alt : 49.2599983215, Lat : 49.2835789, Lng : -123.1150013, Q1 : 0.977352380753, Q2 : 0.0818571224809, Q3 : -0.0536179058254, Q4 : 0.187634959817}
2019-04-14 21:28:33.51: SIM {TimeUS : 55935117, Roll : 6.72, Pitch : -9.38, Yaw : 28.98, Alt : 49.2599983215, Lat : 49.2835798, Lng : -123.1149993, Q1 : 0.962074518204, Q2 : 0.0770509690046, Q3 : -0.0644041448832, Q4 : 0.25362944603}
2019-04-14 21:28:33.61: SIM {TimeUS : 56035077, Roll : 4.78, Pitch : -10.89, Yaw : 37.42, Alt : 49.2700004578, Lat : 49.2835806, Lng : -123.1149972, Q1 : 0.940761804581, Q2 : 0.0697815939784, Q3 : -0.0764857381582, Q4 : 0.322874188423}
2019-04-14 21:28:33.71: SIM {TimeUS : 56135037, Roll : 2.24, Pitch : -12.13, Yaw : 46.18, Alt : 49.2700004578, Lat : 49.2835813, Lng : -123.1149949, Q1 : 0.913740158081, Q2 : 0.0593648329377, Q3 : -0.0895603001118, Q4 : 0.391833782196}
2019-04-14 21:28:33.81: SIM {TimeUS : 56234997, Roll : -0.85, Pitch : -12.9, Yaw : 54.55, Alt : 49.2700004578, Lat : 49.2835822, Lng : -123.1149926, Q1 : 0.883542478085, Q2 : 0.044856660068, Q3 : -0.103264093399, Q4 : 0.45461755991}
2019-04-14 21:28:33.91: SIM {TimeUS : 56334957, Roll : -3.99, Pitch : -13.12, Yaw : 61.63, Alt : 49.2700004578, Lat : 49.2835831, Lng : -123.1149901, Q1 : 0.854683995247, Q2 : 0.0287525970489, Q3 : -0.115796402097, Q4 : 0.505252182484}
2019-04-14 21:28:34.01: SIM {TimeUS : 56434917, Roll : -6.51, Pitch : -12.95, Yaw : 66.8, Alt : 49.2700004578, Lat : 49.2835842, Lng : -123.1149876, Q1 : 0.831700265408, Q2 : 0.0148715311661, Q3 : -0.125064000487, Q4 : 0.540751814842}
2019-04-14 21:28:34.11: SIM {TimeUS : 56534877, Roll : -7.99, Pitch : -12.68, Yaw : 69.86, Alt : 49.2700004578, Lat : 49.2835853, Lng : -123.1149851, Q1 : 0.817242264748, Q2 : 0.00629490008578, Q3 : -0.130058512092, Q4 : 0.561391353607}
2019-04-14 21:28:34.21: SIM {TimeUS : 56634837, Roll : -8.4, Pitch : -12.56, Yaw : 71.01, Alt : 49.2700004578, Lat : 49.2835865, Lng : -123.1149825, Q1 : 0.811657130718, Q2 : 0.00408660713583, Q3 : -0.131107777357, Q4 : 0.56921595335}
2019-04-14 21:28:34.31: SIM {TimeUS : 56734797, Roll : -7.87, Pitch : -12.7, Yaw : 70.58, Alt : 49.2700004578, Lat : 49.2835879, Lng : -123.1149798, Q1 : 0.813695549965, Q2 : 0.00805650930852, Q3 : -0.129489094019, Q4 : 0.566627979279}
2019-04-14 21:28:34.41: SIM {TimeUS : 56834757, Roll : -6.65, Pitch : -13.12, Yaw : 68.94, Alt : 49.2700004578, Lat : 49.2835892, Lng : -123.1149771, Q1 : 0.821369051933, Q2 : 0.0170414913446, Q3 : -0.126704320312, Q4 : 0.555885255337}
2019-04-14 21:28:34.51: SIM {TimeUS : 56934717, Roll : -5.0, Pitch : -13.75, Yaw : 66.44, Alt : 49.2700004578, Lat : 49.2835908, Lng : -123.1149744, Q1 : 0.832601249218, Q2 : 0.0292475391179, Q3 : -0.123818635941, Q4 : 0.539062798023}
2019-04-14 21:28:34.62: SIM {TimeUS : 57035510, Roll : -3.11, Pitch : -14.46, Yaw : 63.37, Alt : 49.2799987793, Lat : 49.2835923, Lng : -123.1149715, Q1 : 0.845630228519, Q2 : 0.0431414060295, Q3 : -0.12123785913, Q4 : 0.518024861813}
2019-04-14 21:28:34.71: SIM {TimeUS : 57135470, Roll : -1.21, Pitch : -15.1, Yaw : 60.1, Alt : 49.2799987793, Lat : 49.283594, Lng : -123.1149686, Q1 : 0.858707308769, Q2 : 0.0567336045206, Q3 : -0.11897996068, Q4 : 0.495224028826}
2019-04-14 21:28:34.81: SIM {TimeUS : 57235430, Roll : 0.54, Pitch : -15.56, Yaw : 56.93, Alt : 49.2799987793, Lat : 49.2835957, Lng : -123.1149656, Q1 : 0.870684087276, Q2 : 0.0686691105366, Q3 : -0.116803951561, Q4 : 0.47281140089}
2019-04-14 21:28:34.91: SIM {TimeUS : 57335390, Roll : 1.99, Pitch : -15.8, Yaw : 54.18, Alt : 49.2799987793, Lat : 49.2835972, Lng : -123.1149624, Q1 : 0.880599141121, Q2 : 0.0779591649771, Q3 : -0.114550203085, Q4 : 0.453150868416}
2019-04-14 21:28:35.01: SIM {TimeUS : 57435350, Roll : 3.02, Pitch : -15.87, Yaw : 52.09, Alt : 49.2799987793, Lat : 49.2835989, Lng : -123.1149591, Q1 : 0.887908279896, Q2 : 0.084065951407, Q3 : -0.112542927265, Q4 : 0.438047885895}
2019-04-14 21:28:35.11: SIM {TimeUS : 57535310, Roll : 3.57, Pitch : -15.83, Yaw : 50.79, Alt : 49.2799987793, Lat : 49.2836007, Lng : -123.1149557, Q1 : 0.892453730106, Q2 : 0.0869595855474, Q3 : -0.111127190292, Q4 : 0.428503423929}
2019-04-14 21:28:35.21: SIM {TimeUS : 57635270, Roll : 3.66, Pitch : -15.77, Yaw : 50.29, Alt : 49.2799987793, Lat : 49.2836023, Lng : -123.1149522, Q1 : 0.894341945648, Q2 : 0.0869299098849, Q3 : -0.110721945763, Q4 : 0.424660354853}
2019-04-14 21:28:35.31: SIM {TimeUS : 57735230, Roll : 3.33, Pitch : -15.75, Yaw : 50.49, Alt : 49.2799987793, Lat : 49.2836039, Lng : -123.1149485, Q1 : 0.893846154213, Q2 : 0.084518827498, Q3 : -0.111625738442, Q4 : 0.425952255726}
2019-04-14 21:28:35.41: SIM {TimeUS : 57835190, Roll : 2.71, Pitch : -15.8, Yaw : 51.26, Alt : 49.2799987793, Lat : 49.2836056, Lng : -123.1149448, Q1 : 0.891355574131, Q2 : 0.0805986523628, Q3 : -0.113801054657, Q4 : 0.431321680546}
2019-04-14 21:28:35.51: SIM {TimeUS : 57935150, Roll : 1.9, Pitch : -15.93, Yaw : 52.42, Alt : 49.2799987793, Lat : 49.2836074, Lng : -123.1149409, Q1 : 0.887378334999, Q2 : 0.0759561434388, Q3 : -0.117075428367, Q4 : 0.439412951469}
2019-04-14 21:28:35.61: SIM {TimeUS : 58035110, Roll : 1.02, Pitch : -16.1, Yaw : 53.76, Alt : 49.2799987793, Lat : 49.2836091, Lng : -123.114937, Q1 : 0.882532536983, Q2 : 0.0711870193481, Q3 : -0.120922021568, Q4 : 0.448828041553}
2019-04-14 21:28:35.71: SIM {TimeUS : 58135070, Roll : 0.16, Pitch : -16.27, Yaw : 55.13, Alt : 49.2900009155, Lat : 49.2836109, Lng : -123.114933, Q1 : 0.877468824387, Q2 : 0.0667330250144, Q3 : -0.124792002141, Q4 : 0.458281725645}
2019-04-14 21:28:35.81: SIM {TimeUS : 58235030, Roll : -0.57, Pitch : -16.38, Yaw : 56.35, Alt : 49.2900009155, Lat : 49.2836126, Lng : -123.1149289, Q1 : 0.872815191746, Q2 : 0.0629315003753, Q3 : -0.127932816744, Q4 : 0.466761678457}
2019-04-14 21:28:35.91: SIM {TimeUS : 58334990, Roll : -1.1, Pitch : -16.43, Yaw : 57.33, Alt : 49.2900009155, Lat : 49.2836144, Lng : -123.1149248, Q1 : 0.869038999081, Q2 : 0.0602123402059, Q3 : -0.129999160767, Q4 : 0.473546087742}
2019-04-14 21:28:36.01: SIM {TimeUS : 58434950, Roll : -1.43, Pitch : -16.45, Yaw : 57.99, Alt : 49.2900009155, Lat : 49.2836163, Lng : -123.1149206, Q1 : 0.866440534592, Q2 : 0.0585568733513, Q3 : -0.131143569946, Q4 : 0.478177070618}
2019-04-14 21:28:36.11: SIM {TimeUS : 58534910, Roll : -1.53, Pitch : -16.46, Yaw : 58.32, Alt : 49.2900009155, Lat : 49.2836182, Lng : -123.1149164, Q1 : 0.865103244781, Q2 : 0.0581912398338, Q3 : -0.131459474564, Q4 : 0.480550259352}
2019-04-14 21:28:36.21: SIM {TimeUS : 58634870, Roll : -1.42, Pitch : -16.45, Yaw : 58.34, Alt : 49.2900009155, Lat : 49.2836201, Lng : -123.1149122, Q1 : 0.864973783493, Q2 : 0.0590045452118, Q3 : -0.130965739489, Q4 : 0.480818927288}
2019-04-14 21:28:36.31: SIM {TimeUS : 58734830, Roll : -1.17, Pitch : -16.46, Yaw : 58.1, Alt : 49.2900009155, Lat : 49.283622, Lng : -123.1149079, Q1 : 0.865842759609, Q2 : 0.0606340505183, Q3 : -0.13009609282, Q4 : 0.479285746813}
2019-04-14 21:28:36.41: SIM {TimeUS : 58834790, Roll : -0.85, Pitch : -16.5, Yaw : 57.67, Alt : 49.2900009155, Lat : 49.2836239, Lng : -123.1149035, Q1 : 0.867414176464, Q2 : 0.0627386868, Q3 : -0.129281073809, Q4 : 0.476385265589}
2019-04-14 21:28:36.51: SIM {TimeUS : 58934750, Roll : -0.51, Pitch : -16.57, Yaw : 57.13, Alt : 49.2900009155, Lat : 49.283626, Lng : -123.1148991, Q1 : 0.86937636137, Q2 : 0.0650435015559, Q3 : -0.128675460815, Q4 : 0.472648650408}
2019-04-14 21:28:36.61: SIM {TimeUS : 59034710, Roll : -0.17, Pitch : -16.65, Yaw : 56.56, Alt : 49.2900009155, Lat : 49.283628, Lng : -123.1148947, Q1 : 0.871438682079, Q2 : 0.0673374831676, Q3 : -0.128261715174, Q4 : 0.468624860048}
2019-04-14 21:28:36.72: SIM {TimeUS : 59135503, Roll : 0.13, Pitch : -16.72, Yaw : 56.02, Alt : 49.2900009155, Lat : 49.2836299, Lng : -123.1148902, Q1 : 0.873398959637, Q2 : 0.0692994073033, Q3 : -0.127869486809, Q4 : 0.464780896902}
2019-04-14 21:28:36.81: SIM {TimeUS : 59235463, Roll : 0.37, Pitch : -16.76, Yaw : 55.56, Alt : 49.2900009155, Lat : 49.2836321, Lng : -123.1148856, Q1 : 0.875040709972, Q2 : 0.0707934200764, Q3 : -0.127487853169, Q4 : 0.461561381817}
2019-04-14 21:28:36.91: SIM {TimeUS : 59335423, Roll : 0.53, Pitch : -16.79, Yaw : 55.23, Alt : 49.2900009155, Lat : 49.2836341, Lng : -123.1148811, Q1 : 0.876248896122, Q2 : 0.0718230754137, Q3 : -0.127276003361, Q4 : 0.459162443876}
2019-04-14 21:28:37.01: SIM {TimeUS : 59435383, Roll : 0.62, Pitch : -16.83, Yaw : 55.02, Alt : 49.2900009155, Lat : 49.2836361, Lng : -123.1148765, Q1 : 0.876971423626, Q2 : 0.0724182277918, Q3 : -0.127288177609, Q4 : 0.457683831453}
2019-04-14 21:28:37.11: SIM {TimeUS : 59535343, Roll : 0.64, Pitch : -16.85, Yaw : 54.95, Alt : 49.2900009155, Lat : 49.2836382, Lng : -123.1148719, Q1 : 0.877231836319, Q2 : 0.0725481063128, Q3 : -0.127474561334, Q4 : 0.457111895084}
2019-04-14 21:28:37.21: SIM {TimeUS : 59635303, Roll : 0.59, Pitch : -16.88, Yaw : 54.98, Alt : 49.2900009155, Lat : 49.2836402, Lng : -123.1148672, Q1 : 0.877083659172, Q2 : 0.0723448172212, Q3 : -0.127815127373, Q4 : 0.457333385944}
2019-04-14 21:28:37.31: SIM {TimeUS : 59735263, Roll : 0.49, Pitch : -16.9, Yaw : 55.11, Alt : 49.2900009155, Lat : 49.2836424, Lng : -123.1148624, Q1 : 0.876628935337, Q2 : 0.0717826411128, Q3 : -0.128300756216, Q4 : 0.458157122135}
2019-04-14 21:28:37.41: SIM {TimeUS : 59835223, Roll : 0.36, Pitch : -16.92, Yaw : 55.29, Alt : 49.2900009155, Lat : 49.2836445, Lng : -123.1148576, Q1 : 0.875955045223, Q2 : 0.0710497200489, Q3 : -0.128929331899, Q4 : 0.459382146597}
2019-04-14 21:28:37.51: SIM {TimeUS : 59935183, Roll : 0.2, Pitch : -16.96, Yaw : 55.5, Alt : 49.2999992371, Lat : 49.2836466, Lng : -123.1148529, Q1 : 0.875173509121, Q2 : 0.0702721998096, Q3 : -0.129684329033, Q4 : 0.460776686668}
2019-04-14 21:28:37.61: SIM {TimeUS : 60035143, Roll : 0.06, Pitch : -17.0, Yaw : 55.7, Alt : 49.2999992371, Lat : 49.2836487, Lng : -123.1148481, Q1 : 0.874395787716, Q2 : 0.0695432648063, Q3 : -0.130498558283, Q4 : 0.462131947279}
2019-04-14 21:28:37.71: SIM {TimeUS : 60135103, Roll : -0.08, Pitch : -17.04, Yaw : 55.88, Alt : 49.2999992371, Lat : 49.2836509, Lng : -123.1148432, Q1 : 0.873723864555, Q2 : 0.0688404366374, Q3 : -0.131277665496, Q4 : 0.4632858634}
2019-04-14 21:28:37.81: SIM {TimeUS : 60235063, Roll : -0.19, Pitch : -17.07, Yaw : 56.01, Alt : 49.2999992371, Lat : 49.283653, Lng : -123.1148384, Q1 : 0.873228609562, Q2 : 0.0682064071298, Q3 : -0.131852477789, Q4 : 0.464149415493}
2019-04-14 21:28:37.91: SIM {TimeUS : 60335023, Roll : -0.27, Pitch : -17.09, Yaw : 56.09, Alt : 49.2999992371, Lat : 49.2836552, Lng : -123.1148335, Q1 : 0.872919559479, Q2 : 0.0677722170949, Q3 : -0.13234218955, Q4 : 0.464654684067}
2019-04-14 21:28:38.01: SIM {TimeUS : 60434983, Roll : -0.3, Pitch : -17.13, Yaw : 56.12, Alt : 49.2999992371, Lat : 49.2836572, Lng : -123.1148286, Q1 : 0.872789561749, Q2 : 0.0677591711283, Q3 : -0.132678180933, Q4 : 0.464804887772}
2019-04-14 21:28:38.11: SIM {TimeUS : 60534943, Roll : -0.28, Pitch : -17.17, Yaw : 56.09, Alt : 49.2999992371, Lat : 49.2836595, Lng : -123.1148236, Q1 : 0.872827529907, Q2 : 0.0680601075292, Q3 : -0.132919251919, Q4 : 0.464620679617}
2019-04-14 21:28:38.21: SIM {TimeUS : 60634903, Roll : -0.21, Pitch : -17.21, Yaw : 56.03, Alt : 49.2999992371, Lat : 49.2836616, Lng : -123.1148187, Q1 : 0.873003184795, Q2 : 0.0686804428697, Q3 : -0.1329985708, Q4 : 0.464176476002}
2019-04-14 21:28:38.31: SIM {TimeUS : 60734863, Roll : -0.1, Pitch : -17.25, Yaw : 55.93, Alt : 49.2999992371, Lat : 49.2836639, Lng : -123.1148137, Q1 : 0.873277127743, Q2 : 0.0695212706923, Q3 : -0.132946938276, Q4 : 0.463550418615}
2019-04-14 21:28:38.41: SIM {TimeUS : 60834823, Roll : -0.01, Pitch : -17.28, Yaw : 55.82, Alt : 49.2999992371, Lat : 49.2836661, Lng : -123.1148087, Q1 : 0.873629808426, Q2 : 0.0702620223165, Q3 : -0.13287781179, Q4 : 0.46279335022}
2019-04-14 21:28:38.51: SIM {TimeUS : 60934783, Roll : 0.05, Pitch : -17.3, Yaw : 55.71, Alt : 49.3100013733, Lat : 49.2836682, Lng : -123.1148037, Q1 : 0.874032497406, Q2 : 0.0706822350621, Q3 : -0.13277156651, Q4 : 0.46199887991}
2019-04-14 21:28:38.61: SIM {TimeUS : 61034743, Roll : 0.08, Pitch : -17.3, Yaw : 55.6, Alt : 49.3100013733, Lat : 49.2836706, Lng : -123.1147987, Q1 : 0.874432086945, Q2 : 0.0708350986242, Q3 : -0.132732704282, Q4 : 0.46122983098}
2019-04-14 21:28:38.71: SIM {TimeUS : 61134703, Roll : 0.12, Pitch : -17.31, Yaw : 55.51, Alt : 49.3100013733, Lat : 49.2836728, Lng : -123.1147936, Q1 : 0.874765276909, Q2 : 0.0710301175714, Q3 : -0.132724061608, Q4 : 0.460570037365}
2019-04-14 21:28:38.82: SIM {TimeUS : 61235496, Roll : 0.15, Pitch : -17.33, Yaw : 55.44, Alt : 49.3100013733, Lat : 49.283675, Lng : -123.1147885, Q1 : 0.875008404255, Q2 : 0.0712579637766, Q3 : -0.132785990834, Q4 : 0.460054963827}
2019-04-14 21:28:38.91: SIM {TimeUS : 61335456, Roll : 0.18, Pitch : -17.37, Yaw : 55.39, Alt : 49.3100013733, Lat : 49.2836773, Lng : -123.1147834, Q1 : 0.875131845474, Q2 : 0.0715943425894, Q3 : -0.132971912622, Q4 : 0.459713965654}
2019-04-14 21:28:39.01: SIM {TimeUS : 61435416, Roll : 0.2, Pitch : -17.43, Yaw : 55.37, Alt : 49.3100013733, Lat : 49.2836796, Lng : -123.1147783, Q1 : 0.875146269798, Q2 : 0.0719673708081, Q3 : -0.13336224854, Q4 : 0.459515303373}
2019-04-14 21:28:39.11: SIM {TimeUS : 61535376, Roll : 0.2, Pitch : -17.46, Yaw : 55.36, Alt : 49.3100013733, Lat : 49.2836819, Lng : -123.1147731, Q1 : 0.875126063824, Q2 : 0.072091691196, Q3 : -0.133655712008, Q4 : 0.459448933601}
2019-04-14 21:28:39.21: SIM {TimeUS : 61635336, Roll : 0.19, Pitch : -17.46, Yaw : 55.37, Alt : 49.3100013733, Lat : 49.283684, Lng : -123.114768, Q1 : 0.875096261501, Q2 : 0.0720244124532, Q3 : -0.133704587817, Q4 : 0.459502071142}
2019-04-14 21:28:39.31: SIM {TimeUS : 61735296, Roll : 0.17, Pitch : -17.47, Yaw : 55.39, Alt : 49.3100013733, Lat : 49.2836864, Lng : -123.1147629, Q1 : 0.875036537647, Q2 : 0.0719067081809, Q3 : -0.133790344, Q4 : 0.459609240294}
2019-04-14 21:28:39.41: SIM {TimeUS : 61835256, Roll : 0.12, Pitch : -17.48, Yaw : 55.41, Alt : 49.3100013733, Lat : 49.2836887, Lng : -123.1147577, Q1 : 0.874960839748, Q2 : 0.0716528594494, Q3 : -0.134086370468, Q4 : 0.459706693888}
2019-04-14 21:28:39.51: SIM {TimeUS : 61935216, Roll : 0.09, Pitch : -17.5, Yaw : 55.43, Alt : 49.3100013733, Lat : 49.283691, Lng : -123.1147525, Q1 : 0.874883651733, Q2 : 0.0714821219444, Q3 : -0.134352549911, Q4 : 0.45980244875}
2019-04-14 21:28:39.61: SIM {TimeUS : 62035176, Roll : 0.06, Pitch : -17.53, Yaw : 55.44, Alt : 49.3199996948, Lat : 49.2836932, Lng : -123.1147473, Q1 : 0.874822795391, Q2 : 0.0713853240013, Q3 : -0.134637221694, Q4 : 0.459850043058}
2019-04-14 21:28:39.71: SIM {TimeUS : 62135136, Roll : 0.05, Pitch : -17.55, Yaw : 55.45, Alt : 49.3199996948, Lat : 49.2836955, Lng : -123.1147421, Q1 : 0.874785900116, Q2 : 0.0713790804148, Q3 : -0.134862869978, Q4 : 0.459855139256}
2019-04-14 21:28:39.81: SIM {TimeUS : 62235096, Roll : 0.04, Pitch : -17.58, Yaw : 55.44, Alt : 49.3199996948, Lat : 49.2836979, Lng : -123.1147369, Q1 : 0.874770581722, Q2 : 0.0714645907283, Q3 : -0.13509427011, Q4 : 0.459802985191}
2019-04-14 21:28:39.91: SIM {TimeUS : 62335056, Roll : 0.06, Pitch : -17.59, Yaw : 55.43, Alt : 49.3199996948, Lat : 49.2837002, Lng : -123.1147317, Q1 : 0.874792516232, Q2 : 0.0716185197234, Q3 : -0.135159924626, Q4 : 0.459718048573}
2019-04-14 21:28:40.01: SIM {TimeUS : 62435016, Roll : 0.09, Pitch : -17.61, Yaw : 55.41, Alt : 49.3199996948, Lat : 49.2837026, Lng : -123.1147264, Q1 : 0.874825835228, Q2 : 0.0718963369727, Q3 : -0.135172337294, Q4 : 0.459607601166}
2019-04-14 21:28:40.11: SIM {TimeUS : 62534976, Roll : 0.12, Pitch : -17.63, Yaw : 55.39, Alt : 49.3199996948, Lat : 49.2837048, Lng : -123.1147212, Q1 : 0.874873697758, Q2 : 0.0722142979503, Q3 : -0.135230377316, Q4 : 0.459449499846}
2019-04-14 21:28:40.21: SIM {TimeUS : 62634936, Roll : 0.13, Pitch : -17.67, Yaw : 55.36, Alt : 49.3199996948, Lat : 49.2837071, Lng : -123.1147159, Q1 : 0.874938488007, Q2 : 0.0724140703678, Q3 : -0.135460942984, Q4 : 0.459226727486}
2019-04-14 21:28:40.31: SIM {TimeUS : 62734896, Roll : 0.13, Pitch : -17.7, Yaw : 55.33, Alt : 49.3199996948, Lat : 49.2837095, Lng : -123.1147107, Q1 : 0.875013828278, Q2 : 0.0725175663829, Q3 : -0.135770455003, Q4 : 0.458975374699}
2019-04-14 21:28:40.41: SIM {TimeUS : 62834856, Roll : 0.12, Pitch : -17.75, Yaw : 55.3, Alt : 49.3199996948, Lat : 49.2837119, Lng : -123.1147054, Q1 : 0.875089168549, Q2 : 0.072581872344, Q3 : -0.136161893606, Q4 : 0.458705604076}
2019-04-14 21:28:40.51: SIM {TimeUS : 62934816, Roll : 0.13, Pitch : -17.78, Yaw : 55.27, Alt : 49.3199996948, Lat : 49.2837143, Lng : -123.1147001, Q1 : 0.875165462494, Q2 : 0.0727270320058, Q3 : -0.13638676703, Q4 : 0.45847016573}
2019-04-14 21:28:40.61: SIM {TimeUS : 63034776, Roll : 0.14, Pitch : -17.78, Yaw : 55.24, Alt : 49.3199996948, Lat : 49.2837166, Lng : -123.1146948, Q1 : 0.8752566576, Q2 : 0.07282961905, Q3 : -0.136400938034, Q4 : 0.45827549696}
2019-04-14 21:28:40.71: SIM {TimeUS : 63134736, Roll : 0.16, Pitch : -17.77, Yaw : 55.22, Alt : 49.3199996948, Lat : 49.283719, Lng : -123.1146895, Q1 : 0.875361144543, Q2 : 0.0728583335876, Q3 : -0.136221855879, Q4 : 0.458124577999}
2019-04-14 21:28:40.81: SIM {TimeUS : 63234696, Roll : 0.16, Pitch : -17.75, Yaw : 55.2, Alt : 49.3199996948, Lat : 49.2837214, Lng : -123.1146841, Q1 : 0.875449776649, Q2 : 0.0727606639266, Q3 : -0.136105835438, Q4 : 0.458005279303}
2019-04-14 21:28:40.91: SIM {TimeUS : 63335489, Roll : 0.15, Pitch : -17.73, Yaw : 55.19, Alt : 49.3199996948, Lat : 49.2837238, Lng : -123.1146787, Q1 : 0.87552690506, Q2 : 0.0726144015789, Q3 : -0.13600307703, Q4 : 0.457911550999}
2019-04-14 21:28:41.01: SIM {TimeUS : 63435449, Roll : 0.15, Pitch : -17.71, Yaw : 55.18, Alt : 49.3199996948, Lat : 49.283726, Lng : -123.1146734, Q1 : 0.875586509705, Q2 : 0.0724803581834, Q3 : -0.135880663991, Q4 : 0.457855135202}
2019-04-14 21:28:41.11: SIM {TimeUS : 63535409, Roll : 0.14, Pitch : -17.72, Yaw : 55.18, Alt : 49.3199996948, Lat : 49.2837284, Lng : -123.114668, Q1 : 0.875605344772, Q2 : 0.0724476128817, Q3 : -0.135986402631, Q4 : 0.457792937756}
2019-04-14 21:28:41.21: SIM {TimeUS : 63635369, Roll : 0.14, Pitch : -17.74, Yaw : 55.17, Alt : 49.3300018311, Lat : 49.2837308, Lng : -123.1146627, Q1 : 0.875606000423, Q2 : 0.0725079625845, Q3 : -0.136154919863, Q4 : 0.457732081413}
2019-04-14 21:28:41.31: SIM {TimeUS : 63735329, Roll : 0.13, Pitch : -17.79, Yaw : 55.16, Alt : 49.3300018311, Lat : 49.2837332, Lng : -123.1146573, Q1 : 0.875580430031, Q2 : 0.0726124867797, Q3 : -0.136549830437, Q4 : 0.457646667957}
2019-04-14 21:28:41.41: SIM {TimeUS : 63835289, Roll : 0.12, Pitch : -17.84, Yaw : 55.16, Alt : 49.3300018311, Lat : 49.2837357, Lng : -123.1146519, Q1 : 0.875549912453, Q2 : 0.0727718472481, Q3 : -0.136973455548, Q4 : 0.457553237677}
2019-04-14 21:28:41.51: SIM {TimeUS : 63935249, Roll : 0.13, Pitch : -17.88, Yaw : 55.15, Alt : 49.3300018311, Lat : 49.2837381, Lng : -123.1146465, Q1 : 0.875535786152, Q2 : 0.0729792639613, Q3 : -0.137243211269, Q4 : 0.457466304302}
2019-04-14 21:28:41.61: SIM {TimeUS : 64035209, Roll : 0.13, Pitch : -17.91, Yaw : 55.14, Alt : 49.3300018311, Lat : 49.2837405, Lng : -123.1146411, Q1 : 0.87554115057, Q2 : 0.073088273406, Q3 : -0.137492150068, Q4 : 0.45736387372}
2019-04-14 21:28:41.71: SIM {TimeUS : 64135169, Roll : 0.12, Pitch : -17.93, Yaw : 55.13, Alt : 49.3300018311, Lat : 49.2837429, Lng : -123.1146357, Q1 : 0.875566005707, Q2 : 0.0731293186545, Q3 : -0.137671351433, Q4 : 0.457255840302}
2019-04-14 21:28:41.81: SIM {TimeUS : 64235129, Roll : 0.14, Pitch : -17.93, Yaw : 55.11, Alt : 49.3300018311, Lat : 49.2837453, Lng : -123.1146302, Q1 : 0.875613093376, Q2 : 0.0732019990683, Q3 : -0.13758815825, Q4 : 0.457179099321}
2019-04-14 21:28:41.91: SIM {TimeUS : 64335089, Roll : 0.16, Pitch : -17.93, Yaw : 55.1, Alt : 49.3300018311, Lat : 49.2837477, Lng : -123.1146249, Q1 : 0.875649213791, Q2 : 0.0733981654048, Q3 : -0.13753131032, Q4 : 0.457095503807}
2019-04-14 21:28:42.01: SIM {TimeUS : 64435049, Roll : 0.18, Pitch : -17.94, Yaw : 55.08, Alt : 49.3300018311, Lat : 49.2837501, Lng : -123.1146195, Q1 : 0.875688433647, Q2 : 0.0735139250755, Q3 : -0.137593582273, Q4 : 0.456983059645}
2019-04-14 21:28:42.11: SIM {TimeUS : 64535009, Roll : 0.19, Pitch : -17.95, Yaw : 55.07, Alt : 49.3300018311, Lat : 49.2837525, Lng : -123.1146141, Q1 : 0.875732541084, Q2 : 0.0736169666052, Q3 : -0.137634202838, Q4 : 0.456869661808}
2019-04-14 21:28:42.21: SIM {TimeUS : 64634969, Roll : 0.19, Pitch : -17.95, Yaw : 55.05, Alt : 49.3300018311, Lat : 49.283755, Lng : -123.1146086, Q1 : 0.875792145729, Q2 : 0.0736211314797, Q3 : -0.137607768178, Q4 : 0.456762731075}
2019-04-14 21:28:42.31: SIM {TimeUS : 64734929, Roll : 0.19, Pitch : -17.95, Yaw : 55.04, Alt : 49.3300018311, Lat : 49.2837574, Lng : -123.1146032, Q1 : 0.875847637653, Q2 : 0.0735928341746, Q3 : -0.13763204217, Q4 : 0.456653535366}
2019-04-14 21:28:42.41: SIM {TimeUS : 64834889, Roll : 0.17, Pitch : -17.97, Yaw : 55.03, Alt : 49.3300018311, Lat : 49.2837598, Lng : -123.1145977, Q1 : 0.875885784626, Q2 : 0.073521643877, Q3 : -0.137865647674, Q4 : 0.456521391869}
2019-04-14 21:28:42.51: SIM {TimeUS : 64934849, Roll : 0.14, Pitch : -18.01, Yaw : 55.01, Alt : 49.3300018311, Lat : 49.2837622, Lng : -123.1145923, Q1 : 0.875906705856, Q2 : 0.0734186843038, Q3 : -0.138277366757, Q4 : 0.456373184919}
2019-04-14 21:28:42.61: SIM {TimeUS : 65034809, Roll : 0.12, Pitch : -18.02, Yaw : 55.0, Alt : 49.3400001526, Lat : 49.2837647, Lng : -123.1145868, Q1 : 0.875950574875, Q2 : 0.0732944384217, Q3 : -0.138410240412, Q4 : 0.456268668175}
2019-04-14 21:28:42.71: SIM {TimeUS : 65134769, Roll : 0.13, Pitch : -18.0, Yaw : 54.99, Alt : 49.3400001526, Lat : 49.2837671, Lng : -123.1145813, Q1 : 0.876002371311, Q2 : 0.0732929259539, Q3 : -0.138257339597, Q4 : 0.456215858459}
2019-04-14 21:28:42.81: SIM {TimeUS : 65234729, Roll : 0.15, Pitch : -17.99, Yaw : 54.98, Alt : 49.3400001526, Lat : 49.2837696, Lng : -123.1145759, Q1 : 0.876040399075, Q2 : 0.0733926072717, Q3 : -0.13809363544, Q4 : 0.456176370382}
2019-04-14 21:28:42.92: SIM {TimeUS : 65335522, Roll : 0.17, Pitch : -18.0, Yaw : 54.97, Alt : 49.3400001526, Lat : 49.283772, Lng : -123.1145704, Q1 : 0.876059472561, Q2 : 0.0735472515225, Q3 : -0.138087540865, Q4 : 0.456116646528}
2019-04-14 21:28:43.01: SIM {TimeUS : 65435482, Roll : 0.16, Pitch : -18.01, Yaw : 54.96, Alt : 49.3400001526, Lat : 49.2837745, Lng : -123.1145649, Q1 : 0.876088380814, Q2 : 0.0735279098153, Q3 : -0.138213217258, Q4 : 0.456026285887}
2019-04-14 21:28:43.11: SIM {TimeUS : 65535442, Roll : 0.14, Pitch : -18.02, Yaw : 54.96, Alt : 49.3400001526, Lat : 49.2837769, Lng : -123.1145594, Q1 : 0.876120448112, Q2 : 0.0733797550201, Q3 : -0.138451591134, Q4 : 0.455916166306}
2019-04-14 21:28:43.21: SIM {TimeUS : 65635402, Roll : 0.12, Pitch : -18.05, Yaw : 54.95, Alt : 49.3400001526, Lat : 49.2837794, Lng : -123.1145539, Q1 : 0.876148939133, Q2 : 0.0733003988862, Q3 : -0.138691648841, Q4 : 0.455801099539}
2019-04-14 21:28:43.31: SIM {TimeUS : 65735362, Roll : 0.12, Pitch : -18.07, Yaw : 54.93, Alt : 49.3400001526, Lat : 49.2837818, Lng : -123.1145484, Q1 : 0.876168310642, Q2 : 0.0733890682459, Q3 : -0.138838529587, Q4 : 0.455704957247}
2019-04-14 21:28:43.41: SIM {TimeUS : 65835322, Roll : 0.13, Pitch : -18.08, Yaw : 54.92, Alt : 49.3400001526, Lat : 49.2837843, Lng : -123.1145429, Q1 : 0.876183509827, Q2 : 0.0735214725137, Q3 : -0.13895405829, Q4 : 0.455619156361}
2019-04-14 21:28:43.51: SIM {TimeUS : 65935282, Roll : 0.16, Pitch : -18.1, Yaw : 54.91, Alt : 49.3400001526, Lat : 49.2837867, Lng : -123.1145374, Q1 : 0.876184165478, Q2 : 0.073793426156, Q3 : -0.139008894563, Q4 : 0.455557316542}
2019-04-14 21:28:43.61: SIM {TimeUS : 66035242, Roll : 0.17, Pitch : -18.12, Yaw : 54.9, Alt : 49.3400001526, Lat : 49.2837892, Lng : -123.1145319, Q1 : 0.876184463501, Q2 : 0.0740023478866, Q3 : -0.139094308019, Q4 : 0.455496668816}
2019-04-14 21:28:43.71: SIM {TimeUS : 66135202, Roll : 0.19, Pitch : -18.14, Yaw : 54.89, Alt : 49.3400001526, Lat : 49.2837916, Lng : -123.1145264, Q1 : 0.876184642315, Q2 : 0.0741954147816, Q3 : -0.139181509614, Q4 : 0.455438345671}
2019-04-14 21:28:43.81: SIM {TimeUS : 66235162, Roll : 0.21, Pitch : -18.16, Yaw : 54.89, Alt : 49.3400001526, Lat : 49.283794, Lng : -123.1145208, Q1 : 0.876186430454, Q2 : 0.0743893235922, Q3 : -0.139210596681, Q4 : 0.455394357443}
