2019-04-14 23:37:32.50: SIM {TimeUS : 40516287, Roll : 0.0, Pitch : 0.0, Yaw : 0.0, Alt : 30.1000003815, Lat : 49.28357, Lng : -123.11502, Q1 : 1.0, Q2 : 0.0, Q3 : 0.0, Q4 : 0.0}
2019-04-14 23:37:32.61: SIM {TimeUS : 40635406, Roll : 0.0, Pitch : 0.0, Yaw : 0.0, Alt : 30.1000003815, Lat : 49.28357, Lng : -123.11502, Q1 : 1.0, Q2 : 0.0, Q3 : 0.0, Q4 : 0.0}
2019-04-14 23:37:32.71: SIM {TimeUS : 40735366, Roll : 0.0, Pitch : 0.0, Yaw : 0.0, Alt : 30.1000003815, Lat : 49.28357, Lng : -123.11502, Q1 : 1.0, Q2 : 0.0, Q3 : 0.0, Q4 : 0.0}
2019-04-14 23:37:32.81: SIM {TimeUS : 40835326, Roll : 0.0, Pitch : 0.0, Yaw : 0.0, Alt : 30.1000003815, Lat : 49.28357, Lng : -123.11502, Q1 : 1.0, Q2 : 0.0, Q3 : 0.0, Q4 : 0.0}
2019-04-14 23:37:32.91: SIM {TimeUS : 40935286, Roll : 0.0, Pitch : 0.0, Yaw : 0.0, Alt : 30.1000003815, Lat : 49.28357, Lng : -123.11502, Q1 : 1.0, Q2 : 0.0, Q3 : 0.0, Q4 : 0.0}
2019-04-14 23:37:33.01: SIM {TimeUS : 41035246, Roll : 0.0, Pitch : 0.0, Yaw : 0.0, Alt : 30.1000003815, Lat : 49.28357, Lng : -123.11502, Q1 : 1.0, Q2 : 0.0, Q3 : 0.0, Q4 : 0.0}
2019-04-14 23:37:33.11: SIM {TimeUS : 41135206, Roll : 0.0, Pitch : 0.0, Yaw : 0.0, Alt : 30.1000003815, Lat : 49.28357, Lng : -123.11502, Q1 : 1.0, Q2 : 0.0, Q3 : 0.0, Q4 : 0.0}
2019-04-14 23:37:33.21: SIM {TimeUS : 41235166, Roll : 0.0, Pitch : 0.0, Yaw : 0.0, Alt : 30.1000003815, Lat : 49.28357, Lng : -123.11502, Q1 : 1.0, Q2 : 0.0, Q3 : 0.0, Q4 : 0.0}
2019-04-14 23:37:33.31: SIM {TimeUS : 41335126, Roll : 0.0, Pitch : 0.0, Yaw : 0.0, Alt : 30.1000003815, Lat : 49.28357, Lng : -123.11502, Q1 : 1.0, Q2 : 0.0, Q3 : 0.0, Q4 : 0.0}
2019-04-14 23:37:33.41: SIM {TimeUS : 41435086, Roll : 0.0, Pitch : 0.0, Yaw : 0.0, Alt : 30.1000003815, Lat : 49.28357, Lng : -123.11502, Q1 : 1.0, Q2 : 0.0, Q3 : 0.0, Q4 : 0.0}
2019-04-14 23:37:33.51: SIM {TimeUS : 41535046, Roll : 0.0, Pitch : 0.0, Yaw : 0.0, Alt : 30.1000003815, Lat : 49.28357, Lng : -123.11502, Q1 : 1.0, Q2 : 0.0, Q3 : 0.0, Q4 : 0.0}
2019-04-14 23:37:33.61: SIM {TimeUS : 41635006, Roll : 0.0, Pitch : 0.0, Yaw : 0.0, Alt : 30.1000003815, Lat : 49.28357, Lng : -123.11502, Q1 : 1.0, Q2 : 0.0, Q3 : 0.0, Q4 : 0.0}
2019-04-14 23:37:33.71: SIM {TimeUS : 41734966, Roll : 0.0, Pitch : 0.0, Yaw : 0.0, Alt : 30.1000003815, Lat : 49.28357, Lng : -123.11502, Q1 : 1.0, Q2 : 0.0, Q3 : 0.0, Q4 : 0.0}
2019-04-14 23:37:33.81: SIM {TimeUS : 41834926, Roll : 0.0, Pitch : 0.0, Yaw : 0.0, Alt : 30.1000003815, Lat : 49.28357, Lng : -123.11502, Q1 : 1.0, Q2 : 0.0, Q3 : 0.0, Q4 : 0.0}
2019-04-14 23:37:33.91: SIM {TimeUS : 41934886, Roll : 0.0, Pitch : 0.0, Yaw : 0.0, Alt : 30.1000003815, Lat : 49.28357, Lng : -123.11502, Q1 : 1.0, Q2 : 0.0, Q3 : 0.0, Q4 : 0.0}
2019-04-14 23:37:34.01: SIM {TimeUS : 42034846, Roll : 0.0, Pitch : 0.0, Yaw : 0.0, Alt : 30.1000003815, Lat : 49.28357, Lng : -123.11502, Q1 : 1.0, Q2 : 0.0, Q3 : 0.0, Q4 : 0.0}
2019-04-14 23:37:34.11: SIM {TimeUS : 42134806, Roll : 0.0, Pitch : 0.0, Yaw : 0.0, Alt : 30.1000003815, Lat : 49.28357, Lng : -123.11502, Q1 : 1.0, Q2 : 0.0, Q3 : 0.0, Q4 : 0.0}
2019-04-14 23:37:34.21: SIM {TimeUS : 42234766, Roll : 0.0, Pitch : 0.0, Yaw : 0.0, Alt : 30.1000003815, Lat : 49.28357, Lng : -123.11502, Q1 : 1.0, Q2 : 0.0, Q3 : 0.0, Q4 : 0.0}
2019-04-14 23:37:34.31: SIM {TimeUS : 42334726, Roll : 0.0, Pitch : 0.0, Yaw : 0.0, Alt : 30.1000003815, Lat : 49.28357, Lng : -123.11502, Q1 : 1.0, Q2 : 0.0, Q3 : 0.0, Q4 : 0.0}
2019-04-14 23:37:34.41: SIM {TimeUS : 42434686, Roll : 0.0, Pitch : 0.0, Yaw : 0.0, Alt : 30.1000003815, Lat : 49.28357, Lng : -123.11502, Q1 : 1.0, Q2 : 0.0, Q3 : 0.0, Q4 : 0.0}
2019-04-14 23:37:34.51: SIM {TimeUS : 42534646, Roll : 0.0, Pitch : 0.0, Yaw : 0.0, Alt : 30.1000003815, Lat : 49.28357, Lng : -123.11502, Q1 : 1.0, Q2 : 0.0, Q3 : 0.0, Q4 : 0.0}
2019-04-14 23:37:34.62: SIM {TimeUS : 42635439, Roll : 0.0, Pitch : 0.0, Yaw : 0.0, Alt : 30.1000003815, Lat : 49.28357, Lng : -123.11502, Q1 : 1.0, Q2 : 0.0, Q3 : 0.0, Q4 : 0.0}
2019-04-14 23:37:34.71: SIM {TimeUS : 42735399, Roll : 0.0, Pitch : 0.0, Yaw : 0.0, Alt : 30.1000003815, Lat : 49.28357, Lng : -123.11502, Q1 : 1.0, Q2 : 0.0, Q3 : 0.0, Q4 : 0.0}
2019-04-14 23:37:34.81: SIM {TimeUS : 42835359, Roll : 0.0, Pitch : 0.0, Yaw : 360.0, Alt : 30.1000003815, Lat : 49.28357, Lng : -123.11502, Q1 : 1.0, Q2 : 0.0, Q3 : 0.0, Q4 : -2.77582514266e-12}
2019-04-14 23:37:34.91: SIM {TimeUS : 42935319, Roll : 0.0, Pitch : 0.0, Yaw : 360.0, Alt : 30.1000003815, Lat : 49.28357, Lng : -123.11502, Q1 : 1.0, Q2 : 0.0, Q3 : 0.0, Q4 : -1.29439896301e-11}
2019-04-14 23:37:35.01: SIM {TimeUS : 43035279, Roll : 0.0, Pitch : 0.0, Yaw : 360.0, Alt : 30.1000003815, Lat : 49.28357, Lng : -123.11502, Q1 : 1.0, Q2 : 0.0, Q3 : 0.0, Q4 : -1.05486080315e-07}
2019-04-14 23:37:35.11: SIM {TimeUS : 43135239, Roll : 0.0, Pitch : 0.0, Yaw : 359.99, Alt : 30.1000003815, Lat : 49.28357, Lng : -123.11502, Q1 : 1.0, Q2 : 0.0, Q3 : 0.0, Q4 : -2.98908332752e-07}
2019-04-14 23:37:35.21: SIM {TimeUS : 43235199, Roll : 0.0, Pitch : 0.0, Yaw : 359.99, Alt : 30.1000003815, Lat : 49.28357, Lng : -123.11502, Q1 : 1.0, Q2 : 0.0, Q3 : 0.0, Q4 : -4.43708529474e-07}
2019-04-14 23:37:35.31: SIM {TimeUS : 43335159, Roll : 0.0, Pitch : 0.0, Yaw : 359.99, Alt : 30.1000003815, Lat : 49.28357, Lng : -123.11502, Q1 : 1.0, Q2 : 0.0, Q3 : 0.0, Q4 : -6.44451006337e-07}
2019-04-14 23:37:35.41: SIM {TimeUS : 43435119, Roll : 0.0, Pitch : 0.0, Yaw : 359.99, Alt : 30.1000003815, Lat : 49.28357, Lng : -123.11502, Q1 : 1.0, Q2 : 0.0, Q3 : 0.0, Q4 : -8.25754455036e-07}
2019-04-14 23:37:35.51: SIM {TimeUS : 43535079, Roll : 0.0, Pitch : 0.0, Yaw : 359.99, Alt : 30.1000003815, Lat : 49.28357, Lng : -123.11502, Q1 : 1.0, Q2 : 0.0, Q3 : 0.0, Q4 : -1.04744935925e-06}
2019-04-14 23:37:35.61: SIM {TimeUS : 43635039, Roll : 0.0, Pitch : 0.0, Yaw : 359.99, Alt : 30.1000003815, Lat : 49.28357, Lng : -123.11502, Q1 : 1.0, Q2 : 0.0, Q3 : 0.0, Q4 : -1.22540416214e-06}
2019-04-14 23:37:35.71: SIM {TimeUS : 43734999, Roll : 0.0, Pitch : 0.0, Yaw : 359.99, Alt : 30.1100006104, Lat : 49.28357, Lng : -123.11502, Q1 : 1.0, Q2 : 0.0, Q3 : 0.0, Q4 : -1.42119586144e-06}
2019-04-14 23:37:35.81: SIM {TimeUS : 43834959, Roll : 0.0, Pitch : 0.0, Yaw : 359.99, Alt : 30.1299991608, Lat : 49.28357, Lng : -123.11502, Q1 : 1.0, Q2 : 0.0, Q3 : 0.0, Q4 : -1.653655886e-06}
2019-04-14 23:37:35.91: SIM {TimeUS : 43934919, Roll : 0.0, Pitch : 0.0, Yaw : 359.99, Alt : 30.1599998474, Lat : 49.28357, Lng : -123.11502, Q1 : 1.0, Q2 : 0.0, Q3 : 0.0, Q4 : -1.86109707556e-06}
2019-04-14 23:37:36.01: SIM {TimeUS : 44034879, Roll : 0.0, Pitch : 0.0, Yaw : 359.99, Alt : 30.1900005341, Lat : 49.28357, Lng : -123.11502, Q1 : 1.0, Q2 : 0.0, Q3 : 0.0, Q4 : -2.10218399843e-06}
2019-04-14 23:37:36.11: SIM {TimeUS : 44134839, Roll : -0.04, Pitch : -0.03, Yaw : 359.99, Alt : 30.2299995422, Lat : 49.28357, Lng : -123.11502, Q1 : 0.999999880791, Q2 : -0.000362199702067, Q3 : -0.000314039731165, Q4 : -4.89287822347e-06}
2019-04-14 23:37:36.21: SIM {TimeUS : 44234799, Roll : -0.3, Pitch : -0.27, Yaw : 359.99, Alt : 30.3099994659, Lat : 49.28357, Lng : -123.11502, Q1 : 0.999993622303, Q2 : -0.0026828746777, Q3 : -0.00236116838641, Q4 : -3.00767733279e-05}
2019-04-14 23:37:36.31: SIM {TimeUS : 44334759, Roll : -0.61, Pitch : -0.55, Yaw : 359.99, Alt : 30.4400005341, Lat : 49.28357, Lng : -123.11502, Q1 : 0.99997395277, Q2 : -0.00537870777771, Q3 : -0.00481423502788, Q4 : -8.19478082121e-05}
2019-04-14 23:37:36.41: SIM {TimeUS : 44434719, Roll : -0.79, Pitch : -0.74, Yaw : 359.98, Alt : 30.6000003815, Lat : 49.28357, Lng : -123.11502, Q1 : 0.99995470047, Q2 : -0.00691934721544, Q3 : -0.00653189374134, Q4 : -0.000152930879267}
2019-04-14 23:37:36.51: SIM {TimeUS : 44534679, Roll : -0.81, Pitch : -0.78, Yaw : 359.97, Alt : 30.7600002289, Lat : 49.28357, Lng : -123.11502, Q1 : 0.999951064587, Q2 : -0.00710650952533, Q3 : -0.00687702512369, Q4 : -0.000237523243413}
2019-04-14 23:37:36.61: SIM {TimeUS : 44634639, Roll : -0.71, Pitch : -0.68, Yaw : 359.96, Alt : 30.9099998474, Lat : 49.28357, Lng : -123.1150201, Q1 : 0.999962210655, Q2 : -0.00628431560472, Q3 : -0.00600326759741, Q4 : -0.000322039035382}
2019-04-14 23:37:36.72: SIM {TimeUS : 44735432, Roll : -0.53, Pitch : -0.5, Yaw : 359.95, Alt : 31.0599994659, Lat : 49.2835701, Lng : -123.1150202, Q1 : 0.999979496002, Q2 : -0.00467174127698, Q3 : -0.00436197593808, Q4 : -0.000397301017074}
2019-04-14 23:37:36.81: SIM {TimeUS : 44835392, Roll : -0.32, Pitch : -0.28, Yaw : 359.94, Alt : 31.2199993134, Lat : 49.2835701, Lng : -123.1150202, Q1 : 0.999992787838, Q2 : -0.00280998111703, Q3 : -0.00252364436164, Q4 : -0.000459577102447}
2019-04-14 23:37:36.91: SIM {TimeUS : 44935352, Roll : -0.13, Pitch : -0.11, Yaw : 359.94, Alt : 31.3899993896, Lat : 49.2835702, Lng : -123.1150203, Q1 : 0.999998748302, Q2 : -0.00113578292076, Q3 : -0.000962821708526, Q4 : -0.000509231060278}
2019-04-14 23:37:37.01: SIM {TimeUS : 45035312, Roll : 0.01, Pitch : 0.0, Yaw : 359.93, Alt : 31.5599994659, Lat : 49.2835702, Lng : -123.1150204, Q1 : 0.999999821186, Q2 : 8.85190238478e-05, Q3 : 2.11527276406e-05, Q4 : -0.000541239976883}
2019-04-14 23:37:37.11: SIM {TimeUS : 45135272, Roll : 0.08, Pitch : 0.04, Yaw : 359.93, Alt : 31.7399997711, Lat : 49.2835702, Lng : -123.1150205, Q1 : 0.999999463558, Q2 : 0.000767209625337, Q3 : 0.000409921223763, Q4 : -0.000555913720746}
2019-04-14 23:37:37.21: SIM {TimeUS : 45235232, Roll : 0.1, Pitch : 0.06, Yaw : 359.93, Alt : 31.9200000763, Lat : 49.2835703, Lng : -123.1150205, Q1 : 0.99999922514, Q2 : 0.000934573356062, Q3 : 0.000533014943358, Q4 : -0.000560523301829}
2019-04-14 23:37:37.31: SIM {TimeUS : 45335192, Roll : 0.09, Pitch : 0.06, Yaw : 359.93, Alt : 32.0999984741, Lat : 49.2835703, Lng : -123.1150206, Q1 : 0.999999344349, Q2 : 0.000811413570773, Q3 : 0.000607669411693, Q4 : -0.000559470732696}
2019-04-14 23:37:37.41: SIM {TimeUS : 45435152, Roll : 0.06, Pitch : 0.08, Yaw : 359.93, Alt : 32.2900009155, Lat : 49.2835703, Lng : -123.1150206, Q1 : 0.999999463558, Q2 : 0.000564130896237, Q3 : 0.000712277309503, Q4 : -0.000549060001504}
2019-04-14 23:37:37.51: SIM {TimeUS : 45535112, Roll : 0.05, Pitch : 0.1, Yaw : 359.93, Alt : 32.4799995422, Lat : 49.2835703, Lng : -123.1150207, Q1 : 0.999999344349, Q2 : 0.000500363123138, Q3 : 0.000890711438842, Q4 : -0.000537732383236}
2019-04-14 23:37:37.61: SIM {TimeUS : 45635072, Roll : 0.08, Pitch : 0.12, Yaw : 359.93, Alt : 32.6800003052, Lat : 49.2835703, Lng : -123.1150207, Q1 : 0.999998986721, Q2 : 0.000734189408831, Q3 : 0.00113295507617, Q4 : -0.000524866802152}
2019-04-14 23:37:37.71: SIM {TimeUS : 45735032, Roll : 0.11, Pitch : 0.15, Yaw : 359.94, Alt : 32.8800010681, Lat : 49.2835704, Lng : -123.1150208, Q1 : 0.999998390675, Q2 : 0.00103273661807, Q3 : 0.001372660161, Q4 : -0.000508056837134}
2019-04-14 23:37:37.81: SIM {TimeUS : 45834992, Roll : 0.14, Pitch : 0.18, Yaw : 359.94, Alt : 33.0800018311, Lat : 49.2835704, Lng : -123.1150208, Q1 : 0.999997794628, Q2 : 0.00123912177514, Q3 : 0.001613222179, Q4 : -0.000491307408083}
2019-04-14 23:37:37.91: SIM {TimeUS : 45934952, Roll : 0.16, Pitch : 0.18, Yaw : 359.94, Alt : 33.2799987793, Lat : 49.2835704, Lng : -123.1150208, Q1 : 0.999997615814, Q2 : 0.00139763450716, Q3 : 0.00159424485173, Q4 : -0.000469050894026}
2019-04-14 23:37:38.01: SIM {TimeUS : 46034912, Roll : 0.16, Pitch : 0.15, Yaw : 359.94, Alt : 33.4900016785, Lat : 49.2835704, Lng : -123.1150208, Q1 : 0.999998033047, Q2 : 0.00141941430047, Q3 : 0.00131165620405, Q4 : -0.000461929448647}
2019-04-14 23:37:38.11: SIM {TimeUS : 46134872, Roll : 0.15, Pitch : 0.12, Yaw : 359.94, Alt : 33.6899986267, Lat : 49.2835704, Lng : -123.1150208, Q1 : 0.999998390675, Q2 : 0.00134055968374, Q3 : 0.00111524004024, Q4 : -0.000463454925921}
2019-04-14 23:37:38.21: SIM {TimeUS : 46234832, Roll : 0.14, Pitch : 0.11, Yaw : 359.94, Alt : 33.9000015259, Lat : 49.2835704, Lng : -123.1150208, Q1 : 0.999998509884, Q2 : 0.00129145535175, Q3 : 0.00103432743344, Q4 : -0.000477554509416}
2019-04-14 23:37:38.31: SIM {TimeUS : 46334792, Roll : 0.14, Pitch : 0.12, Yaw : 359.94, Alt : 34.1100006104, Lat : 49.2835704, Lng : -123.1150209, Q1 : 0.999998450279, Q2 : 0.00129900476895, Q3 : 0.00109745364171, Q4 : -0.0004969384172}
2019-04-14 23:37:38.41: SIM {TimeUS : 46434752, Roll : 0.13, Pitch : 0.11, Yaw : 359.94, Alt : 34.3199996948, Lat : 49.2835704, Lng : -123.1150208, Q1 : 0.999998688698, Q2 : 0.0012170735281, Q3 : 0.000972522364464, Q4 : -0.00051469221944}
2019-04-14 23:37:38.51: SIM {TimeUS : 46534712, Roll : 0.11, Pitch : 0.09, Yaw : 359.93, Alt : 34.5299987793, Lat : 49.2835704, Lng : -123.1150208, Q1 : 0.999998986721, Q2 : 0.00103476468939, Q3 : 0.000822584435809, Q4 : -0.000525414128788}
2019-04-14 23:37:38.61: SIM {TimeUS : 46634672, Roll : 0.09, Pitch : 0.08, Yaw : 359.93, Alt : 34.75, Lat : 49.2835704, Lng : -123.1150208, Q1 : 0.999999284744, Q2 : 0.000793403480202, Q3 : 0.000710833759513, Q4 : -0.000540271750651}
2019-04-14 23:37:38.71: SIM {TimeUS : 46734632, Roll : 0.06, Pitch : 0.07, Yaw : 359.93, Alt : 34.9599990845, Lat : 49.2835704, Lng : -123.1150208, Q1 : 0.999999463558, Q2 : 0.000541398127098, Q3 : 0.000630538328551, Q4 : -0.000557939638384}
2019-04-14 23:37:38.82: SIM {TimeUS : 46835425, Roll : 0.04, Pitch : 0.03, Yaw : 359.93, Alt : 35.1800003052, Lat : 49.2835704, Lng : -123.1150208, Q1 : 0.999999701977, Q2 : 0.000415180140408, Q3 : 0.00031794104143, Q4 : -0.000583300192375}
2019-04-14 23:37:38.91: SIM {TimeUS : 46935385, Roll : 0.03, Pitch : 0.0, Yaw : 359.92, Alt : 35.4000015259, Lat : 49.2835704, Lng : -123.1150208, Q1 : 0.999999761581, Q2 : 0.000330072274664, Q3 : 6.96875576978e-05, Q4 : -0.000615654920693}
2019-04-14 23:37:39.01: SIM {TimeUS : 47035345, Roll : 0.01, Pitch : 0.0, Yaw : 359.92, Alt : 35.6199989319, Lat : 49.2835704, Lng : -123.1150208, Q1 : 0.999999761581, Q2 : 0.000169033926795, Q3 : -2.38646020989e-06, Q4 : -0.000654193747323}
2019-04-14 23:37:39.11: SIM {TimeUS : 47135305, Roll : 0.01, Pitch : 0.0, Yaw : 359.92, Alt : 35.8400001526, Lat : 49.2835704, Lng : -123.1150208, Q1 : 0.999999761581, Q2 : 0.000133534020279, Q3 : 1.13756259452e-05, Q4 : -0.000687370134983}
2019-04-14 23:37:39.21: SIM {TimeUS : 47235265, Roll : 0.02, Pitch : 0.0, Yaw : 359.91, Alt : 36.0600013733, Lat : 49.2835704, Lng : -123.1150207, Q1 : 0.999999761581, Q2 : 0.00018614892906, Q3 : 4.29346655437e-05, Q4 : -0.000720826210454}
2019-04-14 23:37:39.31: SIM {TimeUS : 47335225, Roll : 0.0, Pitch : -0.01, Yaw : 359.91, Alt : 36.2799987793, Lat : 49.2835704, Lng : -123.1150207, Q1 : 0.999999701977, Q2 : 3.85368875868e-05, Q3 : -0.00015446114412, Q4 : -0.000750842678826}
2019-04-14 23:37:39.41: SIM {TimeUS : 47435185, Roll : -0.02, Pitch : -0.05, Yaw : 359.91, Alt : 36.5, Lat : 49.2835704, Lng : -123.1150207, Q1 : 0.999999523163, Q2 : -0.000254633807344, Q3 : -0.000487330078613, Q4 : -0.000781567418016}
2019-04-14 23:37:39.51: SIM {TimeUS : 47535145, Roll : -0.06, Pitch : -0.08, Yaw : 359.9, Alt : 36.7200012207, Lat : 49.2835704, Lng : -123.1150207, Q1 : 0.999999284744, Q2 : -0.000586844049394, Q3 : -0.000697848794516, Q4 : -0.000808448530734}
2019-04-14 23:37:39.61: SIM {TimeUS : 47635105, Roll : -0.1, Pitch : -0.09, Yaw : 359.9, Alt : 36.9500007629, Lat : 49.2835704, Lng : -123.1150207, Q1 : 0.999998867512, Q2 : -0.000889965856913, Q3 : -0.000854936079122, Q4 : -0.00083373428788}
2019-04-14 23:37:39.71: SIM {TimeUS : 47735065, Roll : -0.1, Pitch : -0.09, Yaw : 359.9, Alt : 37.1699981689, Lat : 49.2835704, Lng : -123.1150207, Q1 : 0.999998867512, Q2 : -0.000905808061361, Q3 : -0.000865723763127, Q4 : -0.000858253682964}
2019-04-14 23:37:39.81: SIM {TimeUS : 47835025, Roll : -0.08, Pitch : -0.08, Yaw : 359.89, Alt : 37.3899993896, Lat : 49.2835704, Lng : -123.1150207, Q1 : 0.999998986721, Q2 : -0.000781153445132, Q3 : -0.00077513261931, Q4 : -0.000882978725713}
2019-04-14 23:37:39.91: SIM {TimeUS : 47934985, Roll : -0.06, Pitch : -0.06, Yaw : 359.89, Alt : 37.6199989319, Lat : 49.2835704, Lng : -123.1150207, Q1 : 0.999999284744, Q2 : -0.000608748057857, Q3 : -0.000530126679223, Q4 : -0.000908777466975}
2019-04-14 23:37:40.01: SIM {TimeUS : 48034945, Roll : -0.05, Pitch : -0.03, Yaw : 359.89, Alt : 37.8499984741, Lat : 49.2835704, Lng : -123.1150207, Q1 : 0.999999403954, Q2 : -0.000460436596768, Q3 : -0.000330706738168, Q4 : -0.000930301379412}
2019-04-14 23:37:40.11: SIM {TimeUS : 48134905, Roll : -0.05, Pitch : -0.03, Yaw : 359.89, Alt : 38.0699996948, Lat : 49.2835704, Lng : -123.1150207, Q1 : 0.999999403954, Q2 : -0.000510891957674, Q3 : -0.000299177452689, Q4 : -0.000941905775107}
2019-04-14 23:37:40.21: SIM {TimeUS : 48234865, Roll : -0.07, Pitch : -0.02, Yaw : 359.89, Alt : 38.2999992371, Lat : 49.2835704, Lng : -123.1150207, Q1 : 0.999999344349, Q2 : -0.000651366251986, Q3 : -0.000185604993021, Q4 : -0.000947048363741}
2019-04-14 23:37:40.31: SIM {TimeUS : 48334825, Roll : -0.09, Pitch : 0.0, Yaw : 359.89, Alt : 38.5299987793, Lat : 49.2835704, Lng : -123.1150207, Q1 : 0.999999165535, Q2 : -0.000863939407282, Q3 : -5.38103631698e-05, Q4 : -0.000949928187765}
2019-04-14 23:37:40.41: SIM {TimeUS : 48434785, Roll : -0.09, Pitch : 0.0, Yaw : 359.89, Alt : 38.7599983215, Lat : 49.2835704, Lng : -123.1150207, Q1 : 0.999999165535, Q2 : -0.000871579628438, Q3 : 6.53970855637e-05, Q4 : -0.000947648193687}
2019-04-14 23:37:40.51: SIM {TimeUS : 48534745, Roll : -0.07, Pitch : 0.03, Yaw : 359.89, Alt : 38.9799995422, Lat : 49.2835706, Lng : -123.1150207, Q1 : 0.999999284744, Q2 : -0.000669801840559, Q3 : 0.000280280219158, Q4 : -0.000950445013586}
2019-04-14 23:37:40.61: SIM {TimeUS : 48634705, Roll : -0.04, Pitch : 0.03, Yaw : 359.89, Alt : 39.2099990845, Lat : 49.2835706, Lng : -123.1150207, Q1 : 0.999999403954, Q2 : -0.00040140200872, Q3 : 0.00028593809111, Q4 : -0.000955029739998}
2019-04-14 23:37:40.71: SIM {TimeUS : 48734665, Roll : -0.01, Pitch : 0.02, Yaw : 359.88, Alt : 39.4399986267, Lat : 49.2835706, Lng : -123.1150207, Q1 : 0.999999523163, Q2 : -9.15318378247e-05, Q3 : 0.000255479535554, Q4 : -0.000961018435191}
2019-04-14 23:37:40.81: SIM {TimeUS : 48834625, Roll : 0.03, Pitch : 0.04, Yaw : 359.88, Alt : 39.6699981689, Lat : 49.2835706, Lng : -123.1150207, Q1 : 0.999999403954, Q2 : 0.000273095269222, Q3 : 0.00041915444308, Q4 : -0.000966307532508}
2019-04-14 23:37:40.92: SIM {TimeUS : 48935418, Roll : 0.07, Pitch : 0.08, Yaw : 359.88, Alt : 39.9099998474, Lat : 49.2835706, Lng : -123.1150207, Q1 : 0.999999046326, Q2 : 0.000642423925456, Q3 : 0.000705771206412, Q4 : -0.000982359633781}
2019-04-14 23:37:41.01: SIM {TimeUS : 49035378, Roll : 0.1, Pitch : 0.11, Yaw : 359.88, Alt : 40.1399993896, Lat : 49.2835706, Lng : -123.1150207, Q1 : 0.999998569489, Q2 : 0.000910277827643, Q3 : 0.000983222387731, Q4 : -0.00101081340108}
2019-04-14 23:37:41.11: SIM {TimeUS : 49135338, Roll : 0.09, Pitch : 0.14, Yaw : 359.88, Alt : 40.3699989319, Lat : 49.2835706, Lng : -123.1150207, Q1 : 0.99999833107, Q2 : 0.000836110441014, Q3 : 0.001248663757, Q4 : -0.00103537808172}
2019-04-14 23:37:41.21: SIM {TimeUS : 49235298, Roll : 0.04, Pitch : 0.16, Yaw : 359.87, Alt : 40.5999984741, Lat : 49.2835706, Lng : -123.1150207, Q1 : 0.999998271465, Q2 : 0.000414181646192, Q3 : 0.00147810450289, Q4 : -0.00107579957694}
2019-04-14 23:37:41.31: SIM {TimeUS : 49335258, Roll : 0.0, Pitch : 0.18, Yaw : 359.87, Alt : 40.8300018311, Lat : 49.2835706, Lng : -123.1150207, Q1 : 0.999998152256, Q2 : 1.97720237338e-05, Q3 : 0.00158569565974, Q4 : -0.00110959424637}
2019-04-14 23:37:41.41: SIM {TimeUS : 49435218, Roll : -0.02, Pitch : 0.16, Yaw : 359.86, Alt : 41.0699996948, Lat : 49.2835706, Lng : -123.1150207, Q1 : 0.999998271465, Q2 : -0.000233454746194, Q3 : 0.00143647391815, Q4 : -0.00113682390656}
2019-04-14 23:37:41.51: SIM {TimeUS : 49535178, Roll : -0.03, Pitch : 0.14, Yaw : 359.86, Alt : 41.2999992371, Lat : 49.2835706, Lng : -123.1150207, Q1 : 0.999998509884, Q2 : -0.000335978664225, Q3 : 0.00122996675782, Q4 : -0.00117104046512}
2019-04-14 23:37:41.61: SIM {TimeUS : 49635138, Roll : -0.03, Pitch : 0.13, Yaw : 359.86, Alt : 41.5299987793, Lat : 49.2835706, Lng : -123.1150207, Q1 : 0.999998509884, Q2 : -0.000262538000243, Q3 : 0.00119241944049, Q4 : -0.00121607352048}
2019-04-14 23:37:41.71: SIM {TimeUS : 49735098, Roll : 0.0, Pitch : 0.14, Yaw : 359.85, Alt : 41.7700004578, Lat : 49.2835706, Lng : -123.1150207, Q1 : 0.99999833107, Q2 : 5.89202354604e-05, Q3 : 0.00130440562498, Q4 : -0.00126829359215}
2019-04-14 23:37:41.81: SIM {TimeUS : 49835058, Roll : 0.05, Pitch : 0.15, Yaw : 359.84, Alt : 42.0, Lat : 49.2835706, Lng : -123.1150207, Q1 : 0.999998092651, Q2 : 0.000512505706865, Q3 : 0.00134885241278, Q4 : -0.00131762842648}
2019-04-14 23:37:41.91: SIM {TimeUS : 49935018, Roll : 0.09, Pitch : 0.12, Yaw : 359.84, Alt : 42.2299995422, Lat : 49.2835706, Lng : -123.1150207, Q1 : 0.999998152256, Q2 : 0.000862384331413, Q3 : 0.00107179838233, Q4 : -0.00136018311605}
2019-04-14 23:37:42.01: SIM {TimeUS : 50034978, Roll : 0.1, Pitch : 0.07, Yaw : 359.84, Alt : 42.4700012207, Lat : 49.2835706, Lng : -123.1150207, Q1 : 0.999998390675, Q2 : 0.000930643465836, Q3 : 0.000674328708556, Q4 : -0.00139537197538}
2019-04-14 23:37:42.11: SIM {TimeUS : 50134938, Roll : 0.07, Pitch : 0.05, Yaw : 359.83, Alt : 42.7000007629, Lat : 49.2835706, Lng : -123.1150207, Q1 : 0.999998688698, Q2 : 0.000617530546151, Q3 : 0.00045241630869, Q4 : -0.00141654163599}
2019-04-14 23:37:42.21: SIM {TimeUS : 50234898, Roll : 0.01, Pitch : 0.04, Yaw : 359.83, Alt : 42.9399986267, Lat : 49.2835706, Lng : -123.1150207, Q1 : 0.999998867512, Q2 : 0.000124749101815, Q3 : 0.000412505702116, Q4 : -0.00143033731729}
2019-04-14 23:37:42.31: SIM {TimeUS : 50334858, Roll : -0.03, Pitch : 0.07, Yaw : 359.83, Alt : 43.1699981689, Lat : 49.2835704, Lng : -123.1150207, Q1 : 0.999998748302, Q2 : -0.000262760353507, Q3 : 0.000634827883914, Q4 : -0.0014351044083}
2019-04-14 23:37:42.41: SIM {TimeUS : 50434818, Roll : -0.05, Pitch : 0.08, Yaw : 359.83, Alt : 43.4099998474, Lat : 49.2835704, Lng : -123.1150207, Q1 : 0.999998569489, Q2 : -0.00047638991964, Q3 : 0.000776234315708, Q4 : -0.00143598718569}
2019-04-14 23:37:42.51: SIM {TimeUS : 50534778, Roll : -0.05, Pitch : 0.07, Yaw : 359.83, Alt : 43.6399993896, Lat : 49.2835704, Lng : -123.1150207, Q1 : 0.999998629093, Q2 : -0.000466848257929, Q3 : 0.00068640941754, Q4 : -0.00143750163261}
2019-04-14 23:37:42.61: SIM {TimeUS : 50634738, Roll : -0.05, Pitch : 0.06, Yaw : 359.83, Alt : 43.8800010681, Lat : 49.2835704, Lng : -123.1150206, Q1 : 0.999998688698, Q2 : -0.000468359066872, Q3 : 0.00053136551287, Q4 : -0.00144755421206}
2019-04-14 23:37:42.71: SIM {TimeUS : 50734698, Roll : -0.04, Pitch : 0.04, Yaw : 359.83, Alt : 44.1100006104, Lat : 49.2835704, Lng : -123.1150206, Q1 : 0.999998807907, Q2 : -0.000388766289689, Q3 : 0.00037041385076, Q4 : -0.00146238843445}
2019-04-14 23:37:42.81: SIM {TimeUS : 50834658, Roll : -0.02, Pitch : 0.03, Yaw : 359.82, Alt : 44.3499984741, Lat : 49.2835704, Lng : -123.1150206, Q1 : 0.999998807907, Q2 : -0.000202598035685, Q3 : 0.000301857129671, Q4 : -0.00148600304965}
2019-04-14 23:37:42.91: SIM {TimeUS : 50934618, Roll : 0.0, Pitch : 0.03, Yaw : 359.82, Alt : 44.5900001526, Lat : 49.2835704, Lng : -123.1150206, Q1 : 0.999998807907, Q2 : -8.20707136882e-05, Q3 : 0.000284982263111, Q4 : -0.00151217915118}
2019-04-14 23:37:43.01: SIM {TimeUS : 51035411, Roll : -0.01, Pitch : 0.01, Yaw : 359.82, Alt : 44.8199996948, Lat : 49.2835704, Lng : -123.1150206, Q1 : 0.999998807907, Q2 : -0.00012545811478, Q3 : 0.000121102289995, Q4 : -0.00154161453247}
2019-04-14 23:37:43.11: SIM {TimeUS : 51135371, Roll : -0.02, Pitch : -0.02, Yaw : 359.81, Alt : 45.0600013733, Lat : 49.2835704, Lng : -123.1150206, Q1 : 0.999998688698, Q2 : -0.000227648939472, Q3 : -0.00020309422689, Q4 : -0.00157534447499}
2019-04-14 23:37:43.21: SIM {TimeUS : 51235331, Roll : -0.03, Pitch : -0.04, Yaw : 359.81, Alt : 45.2999992371, Lat : 49.2835703, Lng : -123.1150206, Q1 : 0.999998569489, Q2 : -0.000329874746967, Q3 : -0.00042316361214, Q4 : -0.00160954799503}
2019-04-14 23:37:43.31: SIM {TimeUS : 51335291, Roll : -0.03, Pitch : -0.05, Yaw : 359.81, Alt : 45.5299987793, Lat : 49.2835703, Lng : -123.1150206, Q1 : 0.999998450279, Q2 : -0.000343612628058, Q3 : -0.000497623404954, Q4 : -0.00164281972684}
2019-04-14 23:37:43.41: SIM {TimeUS : 51435251, Roll : -0.04, Pitch : -0.05, Yaw : 359.8, Alt : 45.7700004578, Lat : 49.2835703, Lng : -123.1150206, Q1 : 0.999998450279, Q2 : -0.000408557534683, Q3 : -0.000453507585917, Q4 : -0.0016685705632}
2019-04-14 23:37:43.51: SIM {TimeUS : 51535211, Roll : -0.07, Pitch : -0.03, Yaw : 359.8, Alt : 46.0, Lat : 49.2835703, Lng : -123.1150206, Q1 : 0.99999833107, Q2 : -0.000616843928583, Q3 : -0.000318398757372, Q4 : -0.00169363687746}
2019-04-14 23:37:43.61: SIM {TimeUS : 51635171, Roll : -0.1, Pitch : -0.02, Yaw : 359.8, Alt : 46.2299995422, Lat : 49.2835703, Lng : -123.1150206, Q1 : 0.999998092651, Q2 : -0.000901803665329, Q3 : -0.000235917614191, Q4 : -0.0017220719019}
2019-04-14 23:37:43.71: SIM {TimeUS : 51735131, Roll : -0.12, Pitch : -0.02, Yaw : 359.79, Alt : 46.4500007629, Lat : 49.2835703, Lng : -123.1150206, Q1 : 0.999997854233, Q2 : -0.00107525766362, Q3 : -0.000216069922317, Q4 : -0.00175229273736}
2019-04-14 23:37:43.81: SIM {TimeUS : 51835091, Roll : -0.12, Pitch : -0.01, Yaw : 359.79, Alt : 46.6699981689, Lat : 49.2835703, Lng : -123.1150206, Q1 : 0.999997854233, Q2 : -0.00106689264067, Q3 : -0.000129439504235, Q4 : -0.00178396096453}
2019-04-14 23:37:43.91: SIM {TimeUS : 51935051, Roll : -0.1, Pitch : 0.0, Yaw : 359.79, Alt : 46.8800010681, Lat : 49.2835703, Lng : -123.1150206, Q1 : 0.999997913837, Q2 : -0.000933426606935, Q3 : 4.30183463322e-05, Q4 : -0.00181352300569}
2019-04-14 23:37:44.01: SIM {TimeUS : 52035011, Roll : -0.08, Pitch : 0.01, Yaw : 359.78, Alt : 47.0900001526, Lat : 49.2835703, Lng : -123.1150206, Q1 : 0.999998033047, Q2 : -0.000705788843334, Q3 : 0.000127706458443, Q4 : -0.0018418940017}
2019-04-14 23:37:44.11: SIM {TimeUS : 52134971, Roll : -0.06, Pitch : 0.0, Yaw : 359.78, Alt : 47.2900009155, Lat : 49.2835703, Lng : -123.1150206, Q1 : 0.999998092651, Q2 : -0.000526295450982, Q3 : 8.08553086245e-05, Q4 : -0.00186998874415}
2019-04-14 23:37:44.21: SIM {TimeUS : 52234931, Roll : -0.05, Pitch : 0.0, Yaw : 359.78, Alt : 47.4900016785, Lat : 49.2835703, Lng : -123.1150206, Q1 : 0.999998092651, Q2 : -0.000457522284705, Q3 : -5.44744289073e-05, Q4 : -0.00189700641204}
2019-04-14 23:37:44.31: SIM {TimeUS : 52334891, Roll : -0.04, Pitch : -0.03, Yaw : 359.78, Alt : 47.6699981689, Lat : 49.2835703, Lng : -123.1150206, Q1 : 0.999998033047, Q2 : -0.000387863779906, Q3 : -0.000299485574942, Q4 : -0.00191860622726}
2019-04-14 23:37:44.41: SIM {TimeUS : 52434851, Roll : -0.03, Pitch : -0.06, Yaw : 359.77, Alt : 47.8400001526, Lat : 49.2835703, Lng : -123.1150206, Q1 : 0.999997854233, Q2 : -0.000329798756866, Q3 : -0.000588967464864, Q4 : -0.00194184784777}
2019-04-14 23:37:44.51: SIM {TimeUS : 52534811, Roll : -0.03, Pitch : -0.1, Yaw : 359.77, Alt : 48.0, Lat : 49.2835703, Lng : -123.1150206, Q1 : 0.999997675419, Q2 : -0.000287812144961, Q3 : -0.000877102545928, Q4 : -0.00196564849466}
2019-04-14 23:37:44.61: SIM {TimeUS : 52634771, Roll : -0.03, Pitch : -0.12, Yaw : 359.77, Alt : 48.1500015259, Lat : 49.2835703, Lng : -123.1150206, Q1 : 0.999997377396, Q2 : -0.00029955318314, Q3 : -0.00108767033089, Q4 : -0.00198629824445}
2019-04-14 23:37:44.71: SIM {TimeUS : 52734731, Roll : 0.0, Pitch : -0.12, Yaw : 359.77, Alt : 48.2799987793, Lat : 49.2835703, Lng : -123.1150206, Q1 : 0.999997437, Q2 : -6.29679270787e-05, Q3 : -0.00106860999949, Q4 : -0.00200394820422}
2019-04-14 23:37:44.81: SIM {TimeUS : 52834691, Roll : 0.02, Pitch : -0.1, Yaw : 359.76, Alt : 48.4099998474, Lat : 49.2835703, Lng : -123.1150206, Q1 : 0.999997496605, Q2 : 0.000239001688897, Q3 : -0.000922252016608, Q4 : -0.00202353904024}
2019-04-14 23:37:44.91: SIM {TimeUS : 52934651, Roll : 0.05, Pitch : -0.07, Yaw : 359.76, Alt : 48.5200004578, Lat : 49.2835703, Lng : -123.1150206, Q1 : 0.99999755621, Q2 : 0.000479854992591, Q3 : -0.000657876487821, Q4 : -0.0020461876411}
2019-04-14 23:37:45.02: SIM {TimeUS : 53035444, Roll : 0.06, Pitch : -0.04, Yaw : 359.76, Alt : 48.6199989319, Lat : 49.2835703, Lng : -123.1150207, Q1 : 0.999997615814, Q2 : 0.00059030338889, Q3 : -0.000391309440602, Q4 : -0.00207193824463}
2019-04-14 23:37:45.11: SIM {TimeUS : 53135404, Roll : 0.07, Pitch : -0.03, Yaw : 359.75, Alt : 48.7099990845, Lat : 49.2835703, Lng : -123.1150207, Q1 : 0.99999755621, Q2 : 0.000636051874608, Q3 : -0.000271563971182, Q4 : -0.00209977990016}
2019-04-14 23:37:45.21: SIM {TimeUS : 53235364, Roll : 0.06, Pitch : -0.03, Yaw : 359.75, Alt : 48.7799987793, Lat : 49.2835703, Lng : -123.1150207, Q1 : 0.999997496605, Q2 : 0.000572815828491, Q3 : -0.000326233624946, Q4 : -0.00212994636968}
2019-04-14 23:37:45.31: SIM {TimeUS : 53335324, Roll : 0.04, Pitch : -0.03, Yaw : 359.75, Alt : 48.8499984741, Lat : 49.2835703, Lng : -123.1150207, Q1 : 0.99999755621, Q2 : 0.000359217461664, Q3 : -0.00034699466778, Q4 : -0.00215990724973}
2019-04-14 23:37:45.41: SIM {TimeUS : 53435284, Roll : 0.02, Pitch : -0.02, Yaw : 359.74, Alt : 48.9099998474, Lat : 49.2835703, Lng : -123.1150207, Q1 : 0.99999755621, Q2 : 0.00020130770281, Q3 : -0.000257469539065, Q4 : -0.00218470674008}
2019-04-14 23:37:45.51: SIM {TimeUS : 53535244, Roll : 0.01, Pitch : -0.02, Yaw : 359.74, Alt : 48.9599990845, Lat : 49.2835704, Lng : -123.1150207, Q1 : 0.99999755621, Q2 : 8.69875439093e-05, Q3 : -0.000176937202923, Q4 : -0.00220586569048}
2019-04-14 23:37:45.61: SIM {TimeUS : 53635204, Roll : 0.03, Pitch : -0.02, Yaw : 359.74, Alt : 49.0, Lat : 49.2835704, Lng : -123.1150207, Q1 : 0.999997496605, Q2 : 0.000280405161902, Q3 : -0.000190204751561, Q4 : -0.00222735363059}
2019-04-14 23:37:45.71: SIM {TimeUS : 53735164, Roll : 0.21, Pitch : -0.1, Yaw : 359.74, Alt : 49.0299987793, Lat : 49.2835704, Lng : -123.1150207, Q1 : 0.999995291233, Q2 : 0.00183986732736, Q3 : -0.000954362854827, Q4 : -0.0022535789758}
2019-04-14 23:37:45.81: SIM {TimeUS : 53835124, Roll : 0.61, Pitch : -0.35, Yaw : 359.73, Alt : 49.0699996948, Lat : 49.2835704, Lng : -123.1150207, Q1 : 0.999978363514, Q2 : 0.00532965967432, Q3 : -0.00311923236586, Q4 : -0.00228739646263}
2019-04-14 23:37:45.91: SIM {TimeUS : 53935084, Roll : 1.22, Pitch : -0.79, Yaw : 359.72, Alt : 49.0900001526, Lat : 49.2835704, Lng : -123.1150207, Q1 : 0.999916672707, Q2 : 0.0106452517211, Q3 : -0.00692219380289, Q4 : -0.00231941277161}
2019-04-14 23:37:46.01: SIM {TimeUS : 54035044, Roll : 1.97, Pitch : -1.34, Yaw : 359.71, Alt : 49.1100006104, Lat : 49.2835704, Lng : -123.1150206, Q1 : 0.999779224396, Q2 : 0.0172423217446, Q3 : -0.0117834797129, Q4 : -0.00232007866725}
2019-04-14 23:37:46.11: SIM {TimeUS : 54135004, Roll : 2.81, Pitch : -1.96, Yaw : 359.69, Alt : 49.1300010681, Lat : 49.2835706, Lng : -123.1150206, Q1 : 0.99954867363, Q2 : 0.0245016831905, Q3 : -0.0172339603305, Q4 : -0.00227040005848}
2019-04-14 23:37:46.21: SIM {TimeUS : 54234964, Roll : 3.61, Pitch : -2.55, Yaw : 359.67, Alt : 49.1500015259, Lat : 49.2835706, Lng : -123.1150204, Q1 : 0.999252855778, Q2 : 0.0314372032881, Q3 : -0.0223792102188, Q4 : -0.00215687532909}
2019-04-14 23:37:46.31: SIM {TimeUS : 54334924, Roll : 4.26, Pitch : -3.01, Yaw : 359.66, Alt : 49.1699981689, Lat : 49.2835707, Lng : -123.1150202, Q1 : 0.998958647251, Q2 : 0.0371608659625, Q3 : -0.0263964273036, Q4 : -0.00196939497255}
2019-04-14 23:37:46.41: SIM {TimeUS : 54434884, Roll : 4.75, Pitch : -3.34, Yaw : 359.66, Alt : 49.1800003052, Lat : 49.2835709, Lng : -123.11502, Q1 : 0.998712062836, Q2 : 0.0413656234741, Q3 : -0.029327172786, Q4 : -0.00173762114719}
2019-04-14 23:37:46.51: SIM {TimeUS : 54534844, Roll : 5.11, Pitch : -3.58, Yaw : 359.67, Alt : 49.1899986267, Lat : 49.2835709, Lng : -123.1150196, Q1 : 0.998515069485, Q2 : 0.0444824136794, Q3 : -0.0314145721495, Q4 : -0.00147497886792}
2019-04-14 23:37:46.61: SIM {TimeUS : 54634804, Roll : 5.39, Pitch : -3.79, Yaw : 359.68, Alt : 49.2000007629, Lat : 49.2835713, Lng : -123.1150191, Q1 : 0.998343884945, Q2 : 0.0469803661108, Q3 : -0.0331795550883, Q4 : -0.00119984394405}
2019-04-14 23:37:46.71: SIM {TimeUS : 54734764, Roll : 5.67, Pitch : -4.0, Yaw : 359.69, Alt : 49.2099990845, Lat : 49.2835715, Lng : -123.1150186, Q1 : 0.998165309429, Q2 : 0.0493819192052, Q3 : -0.0350212752819, Q4 : -0.000943029532209}
2019-04-14 23:37:46.81: SIM {TimeUS : 54834724, Roll : 5.98, Pitch : -4.24, Yaw : 359.69, Alt : 49.2200012207, Lat : 49.2835718, Lng : -123.1150179, Q1 : 0.997950792313, Q2 : 0.0521085970104, Q3 : -0.0371282175183, Q4 : -0.000691605324391}
2019-04-14 23:37:46.91: SIM {TimeUS : 54934684, Roll : 6.3, Pitch : -4.46, Yaw : 359.7, Alt : 49.2200012207, Lat : 49.2835721, Lng : -123.1150172, Q1 : 0.997727870941, Q2 : 0.0548907406628, Q3 : -0.0390639826655, Q4 : -0.000427982915426}
2019-04-14 23:37:47.01: SIM {TimeUS : 55034644, Roll : 6.56, Pitch : -4.63, Yaw : 359.71, Alt : 49.2299995422, Lat : 49.2835726, Lng : -123.1150163, Q1 : 0.997547566891, Q2 : 0.0571015961468, Q3 : -0.0404762551188, Q4 : -0.000183563912287}
2019-04-14 23:37:47.12: SIM {TimeUS : 55135437, Roll : 6.74, Pitch : -4.75, Yaw : 359.72, Alt : 49.2400016785, Lat : 49.2835729, Lng : -123.1150153, Q1 : 0.997410237789, Q2 : 0.0587179176509, Q3 : -0.0415345802903, Q4 : 5.79432798986e-06}
2019-04-14 23:37:47.21: SIM {TimeUS : 55235397, Roll : 6.85, Pitch : -4.83, Yaw : 359.72, Alt : 49.2400016785, Lat : 49.2835734, Lng : -123.1150143, Q1 : 0.99732619524, Q2 : 0.0596509985626, Q3 : -0.042216848582, Q4 : 0.000150114268763}
2019-04-14 23:37:47.31: SIM {TimeUS : 55335357, Roll : 6.94, Pitch : -4.88, Yaw : 359.73, Alt : 49.25, Lat : 49.2835739, Lng : -123.1150131, Q1 : 0.997260451317, Q2 : 0.0603950545192, Q3 : -0.042709171772, Q4 : 0.000249359989539}
2019-04-14 23:37:47.41: SIM {TimeUS : 55435317, Roll : 7.04, Pitch : -4.94, Yaw : 359.73, Alt : 49.25, Lat : 49.2835745, Lng : -123.1150119, Q1 : 0.997184753418, Q2 : 0.0612731352448, Q3 : -0.0432220138609, Q4 : 0.000308182876324}
2019-04-14 23:37:47.51: SIM {TimeUS : 55535277, Roll : 7.28, Pitch : -4.94, Yaw : 359.79, Alt : 49.25, Lat : 49.2835751, Lng : -123.1150106, Q1 : 0.997052133083, Q2 : 0.0634081959724, Q3 : -0.0431918129325, Q4 : 0.000988113111816}
2019-04-14 23:37:47.61: SIM {TimeUS : 55635237, Roll : 7.78, Pitch : -4.79, Yaw : 0.38, Alt : 49.2599983215, Lat : 49.2835758, Lng : -123.1150092, Q1 : 0.996809303761, Q2 : 0.0679243654013, Q3 : -0.0414668396115, Q4 : 0.00617027375847}
2019-04-14 23:37:47.71: SIM {TimeUS : 55735197, Roll : 8.44, Pitch : -4.64, Yaw : 2.16, Alt : 49.2599983215, Lat : 49.2835764, Lng : -123.1150077, Q1 : 0.996233046055, Q2 : 0.0742901936173, Q3 : -0.039055287838, Q4 : 0.0218046307564}
2019-04-14 23:37:47.81: SIM {TimeUS : 55835157, Roll : 8.97, Pitch : -4.86, Yaw : 5.51, Alt : 49.2599983215, Lat : 49.2835771, Lng : -123.115006, Q1 : 0.994717597961, Q2 : 0.0801559388638, Q3 : -0.0385361686349, Q4 : 0.0512537322938}
2019-04-14 23:37:47.91: SIM {TimeUS : 55935117, Roll : 9.13, Pitch : -5.59, Yaw : 10.39, Alt : 49.2599983215, Lat : 49.2835779, Lng : -123.1150044, Q1 : 0.991188049316, Q2 : 0.0836515948176, Q3 : -0.0412167906761, Q4 : 0.0940739884973}
2019-04-14 23:37:48.01: SIM {TimeUS : 56035077, Roll : 8.74, Pitch : -6.78, Yaw : 16.58, Alt : 49.2599983215, Lat : 49.2835786, Lng : -123.1150026, Q1 : 0.984280526638, Q2 : 0.0838319063187, Q3 : -0.0474231913686, Q4 : 0.148037537932}
2019-04-14 23:37:48.11: SIM {TimeUS : 56135037, Roll : 7.72, Pitch : -8.31, Yaw : 23.83, Alt : 49.2700004578, Lat : 49.2835794, Lng : -123.1150005, Q1 : 0.972649633884, Q2 : 0.0806925147772, Q3 : -0.0568606629968, Q4 : 0.210257738829}
2019-04-14 23:37:48.21: SIM {TimeUS : 56234997, Roll : 6.11, Pitch : -9.94, Yaw : 31.88, Alt : 49.2700004578, Lat : 49.28358, Lng : -123.1149986, Q1 : 0.955290555954, Q2 : 0.0748592764139, Q3 : -0.0686114877462, Q4 : 0.277684211731}
2019-04-14 23:37:48.31: SIM {TimeUS : 56334957, Roll : 3.96, Pitch : -11.43, Yaw : 40.48, Alt : 49.2700004578, Lat : 49.2835808, Lng : -123.1149964, Q1 : 0.931828022003, Q2 : 0.0667560249567, Q3 : -0.0814588740468, Q4 : 0.347281873226}
2019-04-14 23:37:48.41: SIM {TimeUS : 56434917, Roll : 1.18, Pitch : -12.54, Yaw : 49.2, Alt : 49.2700004578, Lat : 49.2835817, Lng : -123.1149941, Q1 : 0.903246819973, Q2 : 0.0548104867339, Q3 : -0.0950419455767, Q4 : 0.414859116077}
2019-04-14 23:37:48.51: SIM {TimeUS : 56534877, Roll : -2.0, Pitch : -13.11, Yaw : 57.23, Alt : 49.2700004578, Lat : 49.2835825, Lng : -123.1149917, Q1 : 0.872913241386, Q2 : 0.039414383471, Q3 : -0.108567252755, Q4 : 0.47400650382}
2019-04-14 23:37:48.61: SIM {TimeUS : 56634837, Roll : -4.97, Pitch : -13.16, Yaw : 63.71, Alt : 49.2700004578, Lat : 49.2835836, Lng : -123.1149892, Q1 : 0.845598995686, Q2 : 0.0237989444286, Q3 : -0.11999886483, Q4 : 0.519611656666}
2019-04-14 23:37:48.71: SIM {TimeUS : 56734797, Roll : -7.13, Pitch : -12.91, Yaw : 68.15, Alt : 49.2700004578, Lat : 49.2835846, Lng : -123.1149867, Q1 : 0.825363874435, Q2 : 0.0116680618376, Q3 : -0.127657353878, Q4 : 0.549856305122}
2019-04-14 23:37:48.81: SIM {TimeUS : 56834757, Roll : -8.24, Pitch : -12.67, Yaw : 70.52, Alt : 49.2700004578, Lat : 49.2835858, Lng : -123.1149842, Q1 : 0.814031600952, Q2 : 0.00524498242885, Q3 : -0.131127297878, Q4 : 0.565800905228}
2019-04-14 23:37:48.91: SIM {TimeUS : 56934717, Roll : -8.32, Pitch : -12.61, Yaw : 71.07, Alt : 49.2700004578, Lat : 49.2835871, Lng : -123.1149815, Q1 : 0.811295747757, Q2 : 0.00499094650149, Q3 : -0.131054088473, Q4 : 0.56973606348}
2019-04-14 23:37:49.01: SIM {TimeUS : 57034677, Roll : -7.55, Pitch : -12.8, Yaw : 70.18, Alt : 49.2700004578, Lat : 49.2835884, Lng : -123.1149789, Q1 : 0.815562963486, Q2 : 0.0104040624574, Q3 : -0.128728955984, Q4 : 0.564072430134}
2019-04-14 23:37:49.11: SIM {TimeUS : 57134637, Roll : -6.18, Pitch : -13.27, Yaw : 68.21, Alt : 49.2700004578, Lat : 49.2835898, Lng : -123.1149761, Q1 : 0.824746549129, Q2 : 0.0203462857753, Q3 : -0.125589370728, Q4 : 0.551005005836}
2019-04-14 23:37:49.22: SIM {TimeUS : 57235430, Roll : -4.42, Pitch : -13.92, Yaw : 65.46, Alt : 49.2799987793, Lat : 49.2835915, Lng : -123.1149733, Q1 : 0.836904525757, Q2 : 0.0332883633673, Q3 : -0.122619509697, Q4 : 0.532397508621}
2019-04-14 23:37:49.31: SIM {TimeUS : 57335390, Roll : -2.51, Pitch : -14.62, Yaw : 62.3, Alt : 49.2799987793, Lat : 49.2835929, Lng : -123.1149704, Q1 : 0.850073933601, Q2 : 0.04722789675, Q3 : -0.120168499649, Q4 : 0.510591268539}
2019-04-14 23:37:49.41: SIM {TimeUS : 57435350, Roll : -0.63, Pitch : -15.24, Yaw : 59.02, Alt : 49.2799987793, Lat : 49.2835946, Lng : -123.1149675, Q1 : 0.8629129529, Q2 : 0.0605594553053, Q3 : -0.118151567876, Q4 : 0.487600326538}
2019-04-14 23:37:49.51: SIM {TimeUS : 57535310, Roll : 1.04, Pitch : -15.67, Yaw : 55.95, Alt : 49.2799987793, Lat : 49.2835963, Lng : -123.1149644, Q1 : 0.874263167381, Q2 : 0.0719305425882, Q3 : -0.116203084588, Q4 : 0.465818345547}
2019-04-14 23:37:49.61: SIM {TimeUS : 57635270, Roll : 2.37, Pitch : -15.87, Yaw : 53.4, Alt : 49.2799987793, Lat : 49.283598, Lng : -123.1149612, Q1 : 0.883325874805, Q2 : 0.0803605765104, Q3 : -0.114162765443, Q4 : 0.447486788034}
2019-04-14 23:37:49.71: SIM {TimeUS : 57735230, Roll : 3.25, Pitch : -15.89, Yaw : 51.56, Alt : 49.2799987793, Lat : 49.2835995, Lng : -123.1149579, Q1 : 0.889712631702, Q2 : 0.0854606628418, Q3 : -0.112248837948, Q4 : 0.434175163507}
2019-04-14 23:37:49.81: SIM {TimeUS : 57835190, Roll : 3.66, Pitch : -15.83, Yaw : 50.53, Alt : 49.2799987793, Lat : 49.2836013, Lng : -123.1149543, Q1 : 0.893353462219, Q2 : 0.0873973369598, Q3 : -0.110966324806, Q4 : 0.426576793194}
2019-04-14 23:37:49.91: SIM {TimeUS : 57935150, Roll : 3.62, Pitch : -15.78, Yaw : 50.28, Alt : 49.2799987793, Lat : 49.283603, Lng : -123.1149508, Q1 : 0.89438855648, Q2 : 0.0866901651025, Q3 : -0.110918141901, Q4 : 0.424559921026}
2019-04-14 23:37:50.01: SIM {TimeUS : 58035110, Roll : 3.21, Pitch : -15.8, Yaw : 50.69, Alt : 49.2799987793, Lat : 49.2836047, Lng : -123.1149471, Q1 : 0.893142640591, Q2 : 0.0839186087251, Q3 : -0.112322196364, Q4 : 0.427361249924}
2019-04-14 23:37:50.11: SIM {TimeUS : 58135070, Roll : 2.5, Pitch : -15.9, Yaw : 51.61, Alt : 49.2799987793, Lat : 49.2836063, Lng : -123.1149433, Q1 : 0.890080213547, Q2 : 0.0796703323722, Q3 : -0.115082263947, Q4 : 0.433781057596}
2019-04-14 23:37:50.21: SIM {TimeUS : 58235030, Roll : 1.62, Pitch : -16.02, Yaw : 52.85, Alt : 49.2799987793, Lat : 49.283608, Lng : -123.1149395, Q1 : 0.885775506496, Q2 : 0.0746423825622, Q3 : -0.118541233242, Q4 : 0.442468285561}
2019-04-14 23:37:50.31: SIM {TimeUS : 58334990, Roll : 0.73, Pitch : -16.14, Yaw : 54.23, Alt : 49.2900009155, Lat : 49.2836098, Lng : -123.1149355, Q1 : 0.880831420422, Q2 : 0.0696981176734, Q3 : -0.122119747102, Q4 : 0.452067434788}
2019-04-14 23:37:50.41: SIM {TimeUS : 58434950, Roll : -0.09, Pitch : -16.25, Yaw : 55.56, Alt : 49.2900009155, Lat : 49.2836116, Lng : -123.1149315, Q1 : 0.875881135464, Q2 : 0.0652234405279, Q3 : -0.125477835536, Q4 : 0.461338788271}
2019-04-14 23:37:50.51: SIM {TimeUS : 58534910, Roll : -0.75, Pitch : -16.34, Yaw : 56.72, Alt : 49.2900009155, Lat : 49.2836134, Lng : -123.1149274, Q1 : 0.871465086937, Q2 : 0.0618030540645, Q3 : -0.128195434809, Q4 : 0.469355821609}
2019-04-14 23:37:50.61: SIM {TimeUS : 58634870, Roll : -1.19, Pitch : -16.39, Yaw : 57.59, Alt : 49.2900009155, Lat : 49.2836152, Lng : -123.1149232, Q1 : 0.868027627468, Q2 : 0.0596278309822, Q3 : -0.129880726337, Q4 : 0.475503474474}
2019-04-14 23:37:50.71: SIM {TimeUS : 58734830, Roll : -1.43, Pitch : -16.4, Yaw : 58.15, Alt : 49.2900009155, Lat : 49.283617, Lng : -123.114919, Q1 : 0.865819871426, Q2 : 0.0585398860276, Q3 : -0.130721926689, Q4 : 0.479417145252}
2019-04-14 23:37:50.81: SIM {TimeUS : 58834790, Roll : -1.48, Pitch : -16.43, Yaw : 58.38, Alt : 49.2900009155, Lat : 49.2836189, Lng : -123.1149148, Q1 : 0.864873945713, Q2 : 0.0584890656173, Q3 : -0.131002306938, Q4 : 0.48105147481}
2019-04-14 23:37:50.91: SIM {TimeUS : 58934750, Roll : -1.37, Pitch : -16.47, Yaw : 58.31, Alt : 49.2900009155, Lat : 49.2836207, Lng : -123.1149105, Q1 : 0.86506742239, Q2 : 0.0594333186746, Q3 : -0.130882576108, Q4 : 0.480620265007}
2019-04-14 23:37:51.01: SIM {TimeUS : 59034710, Roll : -1.13, Pitch : -16.53, Yaw : 58.0, Alt : 49.2900009155, Lat : 49.2836227, Lng : -123.1149062, Q1 : 0.866170227528, Q2 : 0.0611447580159, Q3 : -0.130525484681, Q4 : 0.478511840105}
2019-04-14 23:37:51.11: SIM {TimeUS : 59134670, Roll : -0.81, Pitch : -16.59, Yaw : 57.52, Alt : 49.2900009155, Lat : 49.2836248, Lng : -123.1149019, Q1 : 0.867914378643, Q2 : 0.0632450580597, Q3 : -0.129888579249, Q4 : 0.475240647793}
2019-04-14 23:37:51.21: SIM {TimeUS : 59234630, Roll : -0.45, Pitch : -16.64, Yaw : 56.96, Alt : 49.2900009155, Lat : 49.2836268, Lng : -123.1148975, Q1 : 0.869969546795, Q2 : 0.0655794218183, Q3 : -0.129132032394, Q4 : 0.471356838942}
2019-04-14 23:37:51.32: SIM {TimeUS : 59335423, Roll : -0.09, Pitch : -16.69, Yaw : 56.38, Alt : 49.2900009155, Lat : 49.2836287, Lng : -123.114893, Q1 : 0.872069716454, Q2 : 0.0678752437234, Q3 : -0.128355011344, Q4 : 0.467346101999}
2019-04-14 23:37:51.41: SIM {TimeUS : 59435383, Roll : 0.21, Pitch : -16.73, Yaw : 55.86, Alt : 49.2900009155, Lat : 49.2836308, Lng : -123.1148885, Q1 : 0.873958468437, Q2 : 0.0698146224022, Q3 : -0.127653673291, Q4 : 0.463710159063}
2019-04-14 23:37:51.51: SIM {TimeUS : 59535343, Roll : 0.46, Pitch : -16.75, Yaw : 55.44, Alt : 49.2900009155, Lat : 49.2836329, Lng : -123.1148839, Q1 : 0.875487625599, Q2 : 0.0713169127703, Q3 : -0.127095133066, Q4 : 0.460740923882}
2019-04-14 23:37:51.61: SIM {TimeUS : 59635303, Roll : 0.62, Pitch : -16.78, Yaw : 55.14, Alt : 49.2900009155, Lat : 49.2836348, Lng : -123.1148794, Q1 : 0.876543939114, Q2 : 0.0723420605063, Q3 : -0.126849770546, Q4 : 0.458635449409}
2019-04-14 23:37:51.71: SIM {TimeUS : 59735263, Roll : 0.69, Pitch : -16.8, Yaw : 54.98, Alt : 49.2900009155, Lat : 49.283637, Lng : -123.1148747, Q1 : 0.877120733261, Q2 : 0.0727720856667, Q3 : -0.126878395677, Q4 : 0.457455307245}
2019-04-14 23:37:51.81: SIM {TimeUS : 59835223, Roll : 0.67, Pitch : -16.84, Yaw : 54.95, Alt : 49.2900009155, Lat : 49.283639, Lng : -123.1148701, Q1 : 0.877226233482, Q2 : 0.0727259889245, Q3 : -0.127263709903, Q4 : 0.457153230906}
2019-04-14 23:37:51.91: SIM {TimeUS : 59935183, Roll : 0.57, Pitch : -16.89, Yaw : 55.02, Alt : 49.2900009155, Lat : 49.283641, Lng : -123.1148654, Q1 : 0.876940071583, Q2 : 0.0722485035658, Q3 : -0.127966210246, Q4 : 0.457581609488}
2019-04-14 23:37:52.01: SIM {TimeUS : 60035143, Roll : 0.42, Pitch : -16.94, Yaw : 55.17, Alt : 49.2999992371, Lat : 49.2836432, Lng : -123.1148607, Q1 : 0.87636423111, Q2 : 0.0715039074421, Q3 : -0.128834962845, Q4 : 0.458556950092}
2019-04-14 23:37:52.11: SIM {TimeUS : 60135103, Roll : 0.24, Pitch : -16.98, Yaw : 55.37, Alt : 49.2999992371, Lat : 49.2836452, Lng : -123.1148559, Q1 : 0.875634133816, Q2 : 0.0704932436347, Q3 : -0.129805892706, Q4 : 0.459832519293}
2019-04-14 23:37:52.21: SIM {TimeUS : 60235063, Roll : 0.05, Pitch : -17.01, Yaw : 55.58, Alt : 49.2999992371, Lat : 49.2836474, Lng : -123.1148511, Q1 : 0.874866127968, Q2 : 0.0694269090891, Q3 : -0.13061837852, Q4 : 0.461224496365}
2019-04-14 23:37:52.31: SIM {TimeUS : 60335023, Roll : -0.09, Pitch : -17.03, Yaw : 55.78, Alt : 49.2999992371, Lat : 49.2836495, Lng : -123.1148462, Q1 : 0.874136388302, Q2 : 0.0685497000813, Q3 : -0.131301358342, Q4 : 0.462543547153}
2019-04-14 23:37:52.41: SIM {TimeUS : 60434983, Roll : -0.19, Pitch : -17.06, Yaw : 55.94, Alt : 49.2999992371, Lat : 49.2836517, Lng : -123.1148414, Q1 : 0.873504340649, Q2 : 0.0680850669742, Q3 : -0.131869956851, Q4 : 0.463643074036}
2019-04-14 23:37:52.51: SIM {TimeUS : 60534943, Roll : -0.25, Pitch : -17.1, Yaw : 56.06, Alt : 49.2999992371, Lat : 49.2836537, Lng : -123.1148365, Q1 : 0.873040854931, Q2 : 0.0679017901421, Q3 : -0.132311567664, Q4 : 0.464416503906}
2019-04-14 23:37:52.61: SIM {TimeUS : 60634903, Roll : -0.26, Pitch : -17.14, Yaw : 56.11, Alt : 49.2999992371, Lat : 49.283656, Lng : -123.1148315, Q1 : 0.872760951519, Q2 : 0.0680999085307, Q3 : -0.132593348622, Q4 : 0.464833021164}
2019-04-14 23:37:52.71: SIM {TimeUS : 60734863, Roll : -0.22, Pitch : -17.18, Yaw : 56.12, Alt : 49.2999992371, Lat : 49.2836582, Lng : -123.1148267, Q1 : 0.872675955296, Q2 : 0.0685507953167, Q3 : -0.132746502757, Q4 : 0.464882582426}
2019-04-14 23:37:52.81: SIM {TimeUS : 60834823, Roll : -0.17, Pitch : -17.22, Yaw : 56.07, Alt : 49.2999992371, Lat : 49.2836603, Lng : -123.1148218, Q1 : 0.872780323029, Q2 : 0.0690371394157, Q3 : -0.132864892483, Q4 : 0.464580863714}
2019-04-14 23:37:52.91: SIM {TimeUS : 60934783, Roll : -0.13, Pitch : -17.25, Yaw : 55.99, Alt : 49.2999992371, Lat : 49.2836626, Lng : -123.1148168, Q1 : 0.873050153255, Q2 : 0.0694063454866, Q3 : -0.132948666811, Q4 : 0.463994532824}
2019-04-14 23:37:53.01: SIM {TimeUS : 61034743, Roll : -0.08, Pitch : -17.26, Yaw : 55.89, Alt : 49.3100013733, Lat : 49.2836647, Lng : -123.1148118, Q1 : 0.873432397842, Q2 : 0.0696626752615, Q3 : -0.132951766253, Q4 : 0.463235169649}
2019-04-14 23:37:53.11: SIM {TimeUS : 61134703, Roll : -0.02, Pitch : -17.26, Yaw : 55.77, Alt : 49.3100013733, Lat : 49.283667, Lng : -123.1148068, Q1 : 0.873854160309, Q2 : 0.0700442567468, Q3 : -0.132796153426, Q4 : 0.462426096201}
2019-04-14 23:37:53.21: SIM {TimeUS : 61234663, Roll : 0.04, Pitch : -17.27, Yaw : 55.66, Alt : 49.3100013733, Lat : 49.2836692, Lng : -123.1148018, Q1 : 0.874266028404, Q2 : 0.070478707552, Q3 : -0.13262180984, Q4 : 0.46163097024}
2019-04-14 23:37:53.31: SIM {TimeUS : 61334623, Roll : 0.12, Pitch : -17.29, Yaw : 55.56, Alt : 49.3100013733, Lat : 49.2836714, Lng : -123.1147967, Q1 : 0.874609589577, Q2 : 0.0710263848305, Q3 : -0.132516294718, Q4 : 0.460925966501}
2019-04-14 23:37:53.42: SIM {TimeUS : 61435416, Roll : 0.19, Pitch : -17.33, Yaw : 55.47, Alt : 49.3100013733, Lat : 49.2836736, Lng : -123.1147916, Q1 : 0.874857842922, Q2 : 0.0716272071004, Q3 : -0.132629334927, Q4 : 0.460329025984}
2019-04-14 23:37:53.51: SIM {TimeUS : 61535376, Roll : 0.23, Pitch : -17.36, Yaw : 55.41, Alt : 49.3100013733, Lat : 49.283676, Lng : -123.1147865, Q1 : 0.87505120039, Q2 : 0.071956679225, Q3 : -0.132710173726, Q4 : 0.459886580706}
2019-04-14 23:37:53.61: SIM {TimeUS : 61635336, Roll : 0.24, Pitch : -17.36, Yaw : 55.37, Alt : 49.3100013733, Lat : 49.2836782, Lng : -123.1147815, Q1 : 0.875193893909, Q2 : 0.0720126628876, Q3 : -0.132706448436, Q4 : 0.459607243538}
2019-04-14 23:37:53.71: SIM {TimeUS : 61735296, Roll : 0.21, Pitch : -17.37, Yaw : 55.35, Alt : 49.3100013733, Lat : 49.2836804, Lng : -123.1147764, Q1 : 0.875256717205, Q2 : 0.0718590468168, Q3 : -0.132906213403, Q4 : 0.459453940392}
2019-04-14 23:37:53.81: SIM {TimeUS : 61835256, Roll : 0.17, Pitch : -17.41, Yaw : 55.36, Alt : 49.3100013733, Lat : 49.2836828, Lng : -123.1147712, Q1 : 0.875227749348, Q2 : 0.0716995224357, Q3 : -0.133356288075, Q4 : 0.459403544664}
2019-04-14 23:37:53.91: SIM {TimeUS : 61935216, Roll : 0.14, Pitch : -17.45, Yaw : 55.37, Alt : 49.3100013733, Lat : 49.2836851, Lng : -123.1147661, Q1 : 0.875145792961, Q2 : 0.0716287270188, Q3 : -0.133782505989, Q4 : 0.459446907043}
2019-04-14 23:37:54.01: SIM {TimeUS : 62035176, Roll : 0.11, Pitch : -17.48, Yaw : 55.39, Alt : 49.3100013733, Lat : 49.2836872, Lng : -123.1147609, Q1 : 0.875037312508, Q2 : 0.0715464130044, Q3 : -0.134144574404, Q4 : 0.45956069231}
2019-04-14 23:37:54.11: SIM {TimeUS : 62135136, Roll : 0.09, Pitch : -17.51, Yaw : 55.42, Alt : 49.3100013733, Lat : 49.2836895, Lng : -123.1147558, Q1 : 0.874925792217, Q2 : 0.0714936777949, Q3 : -0.134385257959, Q4 : 0.45971095562}
2019-04-14 23:37:54.21: SIM {TimeUS : 62235096, Roll : 0.07, Pitch : -17.53, Yaw : 55.44, Alt : 49.3199996948, Lat : 49.2836919, Lng : -123.1147506, Q1 : 0.87481802702, Q2 : 0.0715066641569, Q3 : -0.134606346488, Q4 : 0.459849327803}
2019-04-14 23:37:54.31: SIM {TimeUS : 62335056, Roll : 0.07, Pitch : -17.54, Yaw : 55.46, Alt : 49.3199996948, Lat : 49.2836942, Lng : -123.1147454, Q1 : 0.87473988533, Q2 : 0.0715720579028, Q3 : -0.134694576263, Q4 : 0.459961980581}
2019-04-14 23:37:54.41: SIM {TimeUS : 62435016, Roll : 0.08, Pitch : -17.56, Yaw : 55.46, Alt : 49.3199996948, Lat : 49.2836965, Lng : -123.1147402, Q1 : 0.87467956543, Q2 : 0.0717537030578, Q3 : -0.134810656309, Q4 : 0.460014402866}
2019-04-14 23:37:54.51: SIM {TimeUS : 62534976, Roll : 0.1, Pitch : -17.59, Yaw : 55.46, Alt : 49.3199996948, Lat : 49.2836989, Lng : -123.1147348, Q1 : 0.874657213688, Q2 : 0.0719669908285, Q3 : -0.134918555617, Q4 : 0.459991902113}
2019-04-14 23:37:54.61: SIM {TimeUS : 62634936, Roll : 0.11, Pitch : -17.62, Yaw : 55.45, Alt : 49.3199996948, Lat : 49.2837011, Lng : -123.1147297, Q1 : 0.87467443943, Q2 : 0.0721023157239, Q3 : -0.135146796703, Q4 : 0.459870934486}
2019-04-14 23:37:54.71: SIM {TimeUS : 62734896, Roll : 0.08, Pitch : -17.66, Yaw : 55.42, Alt : 49.3199996948, Lat : 49.2837034, Lng : -123.1147245, Q1 : 0.87472641468, Q2 : 0.0720718726516, Q3 : -0.135602042079, Q4 : 0.459642767906}
2019-04-14 23:37:54.81: SIM {TimeUS : 62834856, Roll : 0.07, Pitch : -17.71, Yaw : 55.39, Alt : 49.3199996948, Lat : 49.2837058, Lng : -123.1147192, Q1 : 0.874788284302, Q2 : 0.0721533298492, Q3 : -0.136027142406, Q4 : 0.459386527538}
2019-04-14 23:37:54.91: SIM {TimeUS : 62934816, Roll : 0.09, Pitch : -17.75, Yaw : 55.36, Alt : 49.3199996948, Lat : 49.2837082, Lng : -123.1147139, Q1 : 0.874860048294, Q2 : 0.0724184587598, Q3 : -0.136250287294, Q4 : 0.459141969681}
2019-04-14 23:37:55.01: SIM {TimeUS : 63034776, Roll : 0.12, Pitch : -17.75, Yaw : 55.33, Alt : 49.3199996948, Lat : 49.2837105, Lng : -123.1147087, Q1 : 0.874971807003, Q2 : 0.0726099908352, Q3 : -0.136192142963, Q4 : 0.458915948868}
2019-04-14 23:37:55.11: SIM {TimeUS : 63134736, Roll : 0.15, Pitch : -17.73, Yaw : 55.3, Alt : 49.3199996948, Lat : 49.2837129, Lng : -123.1147034, Q1 : 0.875113368034, Q2 : 0.0726858824492, Q3 : -0.135945811868, Q4 : 0.458707034588}
2019-04-14 23:37:55.21: SIM {TimeUS : 63234696, Roll : 0.15, Pitch : -17.71, Yaw : 55.27, Alt : 49.3199996948, Lat : 49.2837151, Lng : -123.1146981, Q1 : 0.875256061554, Q2 : 0.0725825205445, Q3 : -0.135786876082, Q4 : 0.458498090506}
2019-04-14 23:37:55.31: SIM {TimeUS : 63334656, Roll : 0.15, Pitch : -17.69, Yaw : 55.24, Alt : 49.3199996948, Lat : 49.2837175, Lng : -123.1146927, Q1 : 0.875389635563, Q2 : 0.0724526122212, Q3 : -0.135660693049, Q4 : 0.458301007748}
2019-04-14 23:37:55.41: SIM {TimeUS : 63434616, Roll : 0.15, Pitch : -17.67, Yaw : 55.22, Alt : 49.3199996948, Lat : 49.2837199, Lng : -123.1146874, Q1 : 0.875495254993, Q2 : 0.0723711699247, Q3 : -0.135528445244, Q4 : 0.458151221275}
2019-04-14 23:37:55.51: SIM {TimeUS : 63535409, Roll : 0.14, Pitch : -17.68, Yaw : 55.2, Alt : 49.3199996948, Lat : 49.2837223, Lng : -123.1146819, Q1 : 0.875554859638, Q2 : 0.0723684579134, Q3 : -0.135627582669, Q4 : 0.458008378744}
2019-04-14 23:37:55.61: SIM {TimeUS : 63635369, Roll : 0.15, Pitch : -17.71, Yaw : 55.19, Alt : 49.3199996948, Lat : 49.2837247, Lng : -123.1146767, Q1 : 0.875575721264, Q2 : 0.0724944397807, Q3 : -0.135853677988, Q4 : 0.457881629467}
2019-04-14 23:37:55.71: SIM {TimeUS : 63735329, Roll : 0.14, Pitch : -17.77, Yaw : 55.18, Alt : 49.3300018311, Lat : 49.2837271, Lng : -123.1146713, Q1 : 0.875552892685, Q2 : 0.0726700499654, Q3 : -0.136302471161, Q4 : 0.457763940096}
2019-04-14 23:37:55.81: SIM {TimeUS : 63835289, Roll : 0.14, Pitch : -17.82, Yaw : 55.17, Alt : 49.3300018311, Lat : 49.2837295, Lng : -123.114666, Q1 : 0.875515818596, Q2 : 0.0728672593832, Q3 : -0.136766433716, Q4 : 0.457665085793}
2019-04-14 23:37:55.91: SIM {TimeUS : 63935249, Roll : 0.14, Pitch : -17.86, Yaw : 55.16, Alt : 49.3300018311, Lat : 49.2837319, Lng : -123.1146606, Q1 : 0.875493466854, Q2 : 0.0730208009481, Q3 : -0.136996597052, Q4 : 0.457614600658}
2019-04-14 23:37:56.01: SIM {TimeUS : 64035209, Roll : 0.14, Pitch : -17.88, Yaw : 55.16, Alt : 49.3300018311, Lat : 49.2837342, Lng : -123.1146552, Q1 : 0.875484585762, Q2 : 0.0730671361089, Q3 : -0.137198403478, Q4 : 0.457563728094}
2019-04-14 23:37:56.11: SIM {TimeUS : 64135169, Roll : 0.13, Pitch : -17.89, Yaw : 55.15, Alt : 49.3300018311, Lat : 49.2837366, Lng : -123.1146498, Q1 : 0.875489592552, Q2 : 0.0730495750904, Q3 : -0.137355953455, Q4 : 0.457509666681}
2019-04-14 23:37:56.21: SIM {TimeUS : 64235129, Roll : 0.14, Pitch : -17.89, Yaw : 55.15, Alt : 49.3300018311, Lat : 49.283739, Lng : -123.1146444, Q1 : 0.87551856041, Q2 : 0.0730609819293, Q3 : -0.137264192104, Q4 : 0.457479953766}
2019-04-14 23:37:56.31: SIM {TimeUS : 64335089, Roll : 0.15, Pitch : -17.89, Yaw : 55.14, Alt : 49.3300018311, Lat : 49.2837413, Lng : -123.114639, Q1 : 0.875534236431, Q2 : 0.0732186362147, Q3 : -0.137246757746, Q4 : 0.457429945469}
2019-04-14 23:37:56.41: SIM {TimeUS : 64435049, Roll : 0.16, Pitch : -17.91, Yaw : 55.13, Alt : 49.3300018311, Lat : 49.2837437, Lng : -123.1146336, Q1 : 0.875547945499, Q2 : 0.0733426138759, Q3 : -0.137357473373, Q4 : 0.457350671291}
2019-04-14 23:37:56.51: SIM {TimeUS : 64535009, Roll : 0.17, Pitch : -17.92, Yaw : 55.12, Alt : 49.3300018311, Lat : 49.2837463, Lng : -123.1146282, Q1 : 0.875577330589, Q2 : 0.0733998641372, Q3 : -0.137420713902, Q4 : 0.457266181707}
2019-04-14 23:37:56.61: SIM {TimeUS : 64634969, Roll : 0.17, Pitch : -17.92, Yaw : 55.11, Alt : 49.3300018311, Lat : 49.2837486, Lng : -123.1146228, Q1 : 0.875635385513, Q2 : 0.0733884498477, Q3 : -0.137379586697, Q4 : 0.457169234753}
2019-04-14 23:37:56.71: SIM {TimeUS : 64734929, Roll : 0.17, Pitch : -17.91, Yaw : 55.09, Alt : 49.3300018311, Lat : 49.283751, Lng : -123.1146174, Q1 : 0.875699698925, Q2 : 0.0733532011509, Q3 : -0.137385934591, Q4 : 0.457049697638}
2019-04-14 23:37:56.81: SIM {TimeUS : 64834889, Roll : 0.15, Pitch : -17.93, Yaw : 55.07, Alt : 49.3300018311, Lat : 49.2837534, Lng : -123.1146119, Q1 : 0.87575262785, Q2 : 0.0732605010271, Q3 : -0.137616872787, Q4 : 0.45689368248}
2019-04-14 23:37:56.91: SIM {TimeUS : 64934849, Roll : 0.12, Pitch : -17.97, Yaw : 55.06, Alt : 49.3300018311, Lat : 49.2837558, Lng : -123.1146065, Q1 : 0.875789701939, Q2 : 0.0731663480401, Q3 : -0.138047024608, Q4 : 0.456707954407}
2019-04-14 23:37:57.01: SIM {TimeUS : 65034809, Roll : 0.11, Pitch : -17.98, Yaw : 55.04, Alt : 49.3300018311, Lat : 49.2837582, Lng : -123.114601, Q1 : 0.875852704048, Q2 : 0.073086425662, Q3 : -0.138163551688, Q4 : 0.456564575434}
2019-04-14 23:37:57.11: SIM {TimeUS : 65134769, Roll : 0.12, Pitch : -17.97, Yaw : 55.03, Alt : 49.3300018311, Lat : 49.2837607, Lng : -123.1145956, Q1 : 0.875919818878, Q2 : 0.0731240659952, Q3 : -0.138022452593, Q4 : 0.456472545862}
2019-04-14 23:37:57.21: SIM {TimeUS : 65234729, Roll : 0.15, Pitch : -17.96, Yaw : 55.01, Alt : 49.3400001526, Lat : 49.2837631, Lng : -123.1145901, Q1 : 0.875975608826, Q2 : 0.0732521489263, Q3 : -0.137849643826, Q4 : 0.456397116184}
2019-04-14 23:37:57.31: SIM {TimeUS : 65334689, Roll : 0.17, Pitch : -17.96, Yaw : 55.0, Alt : 49.3400001526, Lat : 49.2837656, Lng : -123.1145847, Q1 : 0.876008689404, Q2 : 0.0734280571342, Q3 : -0.137815311551, Q4 : 0.456315726042}
2019-04-14 23:37:57.41: SIM {TimeUS : 65434649, Roll : 0.17, Pitch : -17.98, Yaw : 54.99, Alt : 49.3400001526, Lat : 49.283768, Lng : -123.1145792, Q1 : 0.87603276968, Q2 : 0.0734932720661, Q3 : -0.137964323163, Q4 : 0.456214040518}
2019-04-14 23:37:57.52: SIM {TimeUS : 65535442, Roll : 0.15, Pitch : -18.0, Yaw : 54.98, Alt : 49.3400001526, Lat : 49.2837704, Lng : -123.1145737, Q1 : 0.876063108444, Q2 : 0.0733912363648, Q3 : -0.138213261962, Q4 : 0.456096857786}
2019-04-14 23:37:57.61: SIM {TimeUS : 65635402, Roll : 0.13, Pitch : -18.02, Yaw : 54.97, Alt : 49.3400001526, Lat : 49.2837729, Lng : -123.1145682, Q1 : 0.876090884209, Q2 : 0.0733055323362, Q3 : -0.138409256935, Q4 : 0.455997765064}
2019-04-14 23:37:57.71: SIM {TimeUS : 65735362, Roll : 0.13, Pitch : -18.03, Yaw : 54.96, Alt : 49.3400001526, Lat : 49.2837753, Lng : -123.1145627, Q1 : 0.876109182835, Q2 : 0.0733614116907, Q3 : -0.138522073627, Q4 : 0.455919325352}
2019-04-14 23:37:57.81: SIM {TimeUS : 65835322, Roll : 0.14, Pitch : -18.04, Yaw : 54.95, Alt : 49.3400001526, Lat : 49.2837778, Lng : -123.1145573, Q1 : 0.876122176647, Q2 : 0.0734725296497, Q3 : -0.138592600822, Q4 : 0.455855071545}
2019-04-14 23:37:57.91: SIM {TimeUS : 65935282, Roll : 0.17, Pitch : -18.06, Yaw : 54.94, Alt : 49.3400001526, Lat : 49.2837802, Lng : -123.1145518, Q1 : 0.876107394695, Q2 : 0.0737525746226, Q3 : -0.138615056872, Q4 : 0.455831408501}
2019-04-14 23:37:58.01: SIM {TimeUS : 66035242, Roll : 0.19, Pitch : -18.08, Yaw : 54.94, Alt : 49.3400001526, Lat : 49.2837828, Lng : -123.1145463, Q1 : 0.876087784767, Q2 : 0.0739711746573, Q3 : -0.138706892729, Q4 : 0.455805748701}
2019-04-14 23:37:58.11: SIM {TimeUS : 66135202, Roll : 0.2, Pitch : -18.11, Yaw : 54.93, Alt : 49.3400001526, Lat : 49.2837851, Lng : -123.1145408, Q1 : 0.876067340374, Q2 : 0.0741787701845, Q3 : -0.138816937804, Q4 : 0.455777794123}
2019-04-14 23:37:58.21: SIM {TimeUS : 66235162, Roll : 0.22, Pitch : -18.12, Yaw : 54.93, Alt : 49.3400001526, Lat : 49.2837877, Lng : -123.1145353, Q1 : 0.876054406166, Q2 : 0.0743540748954, Q3 : -0.138880804181, Q4 : 0.455754607916}
2019-04-14 23:37:58.31: SIM {TimeUS : 66335122, Roll : 0.24, Pitch : -18.13, Yaw : 54.93, Alt : 49.3400001526, Lat : 49.2837902, Lng : -123.1145298, Q1 : 0.876044809818, Q2 : 0.0745670720935, Q3 : -0.138857111335, Q4 : 0.455745518208}
2019-04-14 23:37:58.41: SIM {TimeUS : 66435082, Roll : 0.26, Pitch : -18.14, Yaw : 54.92, Alt : 49.3499984741, Lat : 49.2837926, Lng : -123.1145243, Q1 : 0.876036942005, Q2 : 0.0747757032514, Q3 : -0.138865783811, Q4 : 0.455723822117}
