2019-04-14 23:32:08.70: SIM {TimeUS : 40516287, Roll : 0.0, Pitch : 0.0, Yaw : 0.0, Alt : 30.1000003815, Lat : 49.28357, Lng : -123.11502, Q1 : 1.0, Q2 : 0.0, Q3 : 0.0, Q4 : 0.0}
2019-04-14 23:32:08.81: SIM {TimeUS : 40635406, Roll : 0.0, Pitch : 0.0, Yaw : 0.0, Alt : 30.1000003815, Lat : 49.28357, Lng : -123.11502, Q1 : 1.0, Q2 : 0.0, Q3 : 0.0, Q4 : 0.0}
2019-04-14 23:32:08.91: SIM {TimeUS : 40735366, Roll : 0.0, Pitch : 0.0, Yaw : 0.0, Alt : 30.1000003815, Lat : 49.28357, Lng : -123.11502, Q1 : 1.0, Q2 : 0.0, Q3 : 0.0, Q4 : 0.0}
2019-04-14 23:32:09.01: SIM {TimeUS : 40835326, Roll : 0.0, Pitch : 0.0, Yaw : 0.0, Alt : 30.1000003815, Lat : 49.28357, Lng : -123.11502, Q1 : 1.0, Q2 : 0.0, Q3 : 0.0, Q4 : 0.0}
2019-04-14 23:32:09.11: SIM {TimeUS : 40935286, Roll : 0.0, Pitch : 0.0, Yaw : 0.0, Alt : 30.1000003815, Lat : 49.28357, Lng : -123.11502, Q1 : 1.0, Q2 : 0.0, Q3 : 0.0, Q4 : 0.0}
2019-04-14 23:32:09.21: SIM {TimeUS : 41035246, Roll : 0.0, Pitch : 0.0, Yaw : 0.0, Alt : 30.1000003815, Lat : 49.28357, Lng : -123.11502, Q1 : 1.0, Q2 : 0.0, Q3 : 0.0, Q4 : 0.0}
2019-04-14 23:32:09.31: SIM {TimeUS : 41135206, Roll : 0.0, Pitch : 0.0, Yaw : 0.0, Alt : 30.1000003815, Lat : 49.28357, Lng : -123.11502, Q1 : 1.0, Q2 : 0.0, Q3 : 0.0, Q4 : 0.0}
2019-04-14 23:32:09.41: SIM {TimeUS : 41235166, Roll : 0.0, Pitch : 0.0, Yaw : 0.0, Alt : 30.1000003815, Lat : 49.28357, Lng : -123.11502, Q1 : 1.0, Q2 : 0.0, Q3 : 0.0, Q4 : 0.0}
2019-04-14 23:32:09.51: SIM {TimeUS : 41335126, Roll : 0.0, Pitch : 0.0, Yaw : 0.0, Alt : 30.1000003815, Lat : 49.28357, Lng : -123.11502, Q1 : 1.0, Q2 : 0.0, Q3 : 0.0, Q4 : 0.0}
2019-04-14 23:32:09.61: SIM {TimeUS : 41435086, Roll : 0.0, Pitch : 0.0, Yaw : 0.0, Alt : 30.1000003815, Lat : 49.28357, Lng : -123.11502, Q1 : 1.0, Q2 : 0.0, Q3 : 0.0, Q4 : 0.0}
2019-04-14 23:32:09.71: SIM {TimeUS : 41535046, Roll : 0.0, Pitch : 0.0, Yaw : 0.0, Alt : 30.1000003815, Lat : 49.28357, Lng : -123.11502, Q1 : 1.0, Q2 : 0.0, Q3 : 0.0, Q4 : 0.0}
2019-04-14 23:32:09.81: SIM {TimeUS : 41635006, Roll : 0.0, Pitch : 0.0, Yaw : 0.0, Alt : 30.1000003815, Lat : 49.28357, Lng : -123.11502, Q1 : 1.0, Q2 : 0.0, Q3 : 0.0, Q4 : 0.0}
2019-04-14 23:32:09.91: SIM {TimeUS : 41734966, Roll : 0.0, Pitch : 0.0, Yaw : 0.0, Alt : 30.1000003815, Lat : 49.28357, Lng : -123.11502, Q1 : 1.0, Q2 : 0.0, Q3 : 0.0, Q4 : 0.0}
2019-04-14 23:32:10.01: SIM {TimeUS : 41834926, Roll : 0.0, Pitch : 0.0, Yaw : 0.0, Alt : 30.1000003815, Lat : 49.28357, Lng : -123.11502, Q1 : 1.0, Q2 : 0.0, Q3 : 0.0, Q4 : 0.0}
2019-04-14 23:32:10.11: SIM {TimeUS : 41934886, Roll : 0.0, Pitch : 0.0, Yaw : 0.0, Alt : 30.1000003815, Lat : 49.28357, Lng : -123.11502, Q1 : 1.0, Q2 : 0.0, Q3 : 0.0, Q4 : 0.0}
2019-04-14 23:32:10.21: SIM {TimeUS : 42034846, Roll : 0.0, Pitch : 0.0, Yaw : 0.0, Alt : 30.1000003815, Lat : 49.28357, Lng : -123.11502, Q1 : 1.0, Q2 : 0.0, Q3 : 0.0, Q4 : 0.0}
2019-04-14 23:32:10.31: SIM {TimeUS : 42134806, Roll : 0.0, Pitch : 0.0, Yaw : 0.0, Alt : 30.1000003815, Lat : 49.28357, Lng : -123.11502, Q1 : 1.0, Q2 : 0.0, Q3 : 0.0, Q4 : 0.0}
2019-04-14 23:32:10.41: SIM {TimeUS : 42234766, Roll : 0.0, Pitch : 0.0, Yaw : 0.0, Alt : 30.1000003815, Lat : 49.28357, Lng : -123.11502, Q1 : 1.0, Q2 : 0.0, Q3 : 0.0, Q4 : 0.0}
2019-04-14 23:32:10.51: SIM {TimeUS : 42334726, Roll : 0.0, Pitch : 0.0, Yaw : 0.0, Alt : 30.1000003815, Lat : 49.28357, Lng : -123.11502, Q1 : 1.0, Q2 : 0.0, Q3 : 0.0, Q4 : 0.0}
2019-04-14 23:32:10.61: SIM {TimeUS : 42434686, Roll : 0.0, Pitch : 0.0, Yaw : 0.0, Alt : 30.1000003815, Lat : 49.28357, Lng : -123.11502, Q1 : 1.0, Q2 : 0.0, Q3 : 0.0, Q4 : 0.0}
2019-04-14 23:32:10.71: SIM {TimeUS : 42534646, Roll : 0.0, Pitch : 0.0, Yaw : 0.0, Alt : 30.1000003815, Lat : 49.28357, Lng : -123.11502, Q1 : 1.0, Q2 : 0.0, Q3 : 0.0, Q4 : 0.0}
2019-04-14 23:32:10.82: SIM {TimeUS : 42635439, Roll : 0.0, Pitch : 0.0, Yaw : 0.0, Alt : 30.1000003815, Lat : 49.28357, Lng : -123.11502, Q1 : 1.0, Q2 : 0.0, Q3 : 0.0, Q4 : 0.0}
2019-04-14 23:32:10.91: SIM {TimeUS : 42735399, Roll : 0.0, Pitch : 0.0, Yaw : 0.0, Alt : 30.1000003815, Lat : 49.28357, Lng : -123.11502, Q1 : 1.0, Q2 : 0.0, Q3 : 0.0, Q4 : 0.0}
2019-04-14 23:32:11.01: SIM {TimeUS : 42835359, Roll : 0.0, Pitch : 0.0, Yaw : 360.0, Alt : 30.1000003815, Lat : 49.28357, Lng : -123.11502, Q1 : 1.0, Q2 : 0.0, Q3 : 0.0, Q4 : -2.77582514266e-12}
2019-04-14 23:32:11.11: SIM {TimeUS : 42935319, Roll : 0.0, Pitch : 0.0, Yaw : 360.0, Alt : 30.1000003815, Lat : 49.28357, Lng : -123.11502, Q1 : 1.0, Q2 : 0.0, Q3 : 0.0, Q4 : -1.29439896301e-11}
2019-04-14 23:32:11.21: SIM {TimeUS : 43035279, Roll : 0.0, Pitch : 0.0, Yaw : 360.0, Alt : 30.1000003815, Lat : 49.28357, Lng : -123.11502, Q1 : 1.0, Q2 : 0.0, Q3 : 0.0, Q4 : -1.13559650572e-07}
2019-04-14 23:32:11.31: SIM {TimeUS : 43135239, Roll : 0.0, Pitch : 0.0, Yaw : 359.99, Alt : 30.1000003815, Lat : 49.28357, Lng : -123.11502, Q1 : 1.0, Q2 : 0.0, Q3 : 0.0, Q4 : -3.15055700639e-07}
2019-04-14 23:32:11.41: SIM {TimeUS : 43235199, Roll : 0.0, Pitch : 0.0, Yaw : 359.99, Alt : 30.1000003815, Lat : 49.28357, Lng : -123.11502, Q1 : 1.0, Q2 : 0.0, Q3 : 0.0, Q4 : -4.59855954205e-07}
2019-04-14 23:32:11.51: SIM {TimeUS : 43335159, Roll : 0.0, Pitch : 0.0, Yaw : 359.99, Alt : 30.1000003815, Lat : 49.28357, Lng : -123.11502, Q1 : 1.0, Q2 : 0.0, Q3 : 0.0, Q4 : -6.60598175273e-07}
2019-04-14 23:32:11.61: SIM {TimeUS : 43435119, Roll : 0.0, Pitch : 0.0, Yaw : 359.99, Alt : 30.1000003815, Lat : 49.28357, Lng : -123.11502, Q1 : 1.0, Q2 : 0.0, Q3 : 0.0, Q4 : -8.41901282911e-07}
2019-04-14 23:32:11.71: SIM {TimeUS : 43535079, Roll : 0.0, Pitch : 0.0, Yaw : 359.99, Alt : 30.1000003815, Lat : 49.28357, Lng : -123.11502, Q1 : 1.0, Q2 : 0.0, Q3 : 0.0, Q4 : -1.06359664187e-06}
2019-04-14 23:32:11.81: SIM {TimeUS : 43635039, Roll : 0.0, Pitch : 0.0, Yaw : 359.99, Alt : 30.1000003815, Lat : 49.28357, Lng : -123.11502, Q1 : 1.0, Q2 : 0.0, Q3 : 0.0, Q4 : -1.24155144476e-06}
2019-04-14 23:32:11.91: SIM {TimeUS : 43734999, Roll : 0.0, Pitch : 0.0, Yaw : 359.99, Alt : 30.1100006104, Lat : 49.28357, Lng : -123.11502, Q1 : 1.0, Q2 : 0.0, Q3 : 0.0, Q4 : -1.43734314406e-06}
2019-04-14 23:32:12.01: SIM {TimeUS : 43834959, Roll : 0.0, Pitch : 0.0, Yaw : 359.99, Alt : 30.1299991608, Lat : 49.28357, Lng : -123.11502, Q1 : 1.0, Q2 : 0.0, Q3 : 0.0, Q4 : -1.66173037996e-06}
2019-04-14 23:32:12.11: SIM {TimeUS : 43934919, Roll : 0.0, Pitch : 0.0, Yaw : 359.99, Alt : 30.1599998474, Lat : 49.28357, Lng : -123.11502, Q1 : 1.0, Q2 : 0.0, Q3 : 0.0, Q4 : -1.84495070243e-06}
2019-04-14 23:32:12.21: SIM {TimeUS : 44034879, Roll : 0.0, Pitch : 0.0, Yaw : 359.99, Alt : 30.1900005341, Lat : 49.28357, Lng : -123.11502, Q1 : 1.0, Q2 : 0.0, Q3 : 0.0, Q4 : -2.09411086871e-06}
2019-04-14 23:32:12.31: SIM {TimeUS : 44134839, Roll : -0.04, Pitch : -0.03, Yaw : 359.99, Alt : 30.2299995422, Lat : 49.28357, Lng : -123.11502, Q1 : 0.999999880791, Q2 : -0.00036219964386, Q3 : -0.000314039702062, Q4 : -4.86865883431e-06}
2019-04-14 23:32:12.41: SIM {TimeUS : 44234799, Roll : -0.3, Pitch : -0.27, Yaw : 359.99, Alt : 30.3099994659, Lat : 49.28357, Lng : -123.11502, Q1 : 0.999993622303, Q2 : -0.00267633120529, Q3 : -0.00236418307759, Q4 : -3.08154631057e-05}
2019-04-14 23:32:12.51: SIM {TimeUS : 44334759, Roll : -0.61, Pitch : -0.55, Yaw : 359.99, Alt : 30.4400005341, Lat : 49.28357, Lng : -123.11502, Q1 : 0.99997395277, Q2 : -0.00537062902004, Q3 : -0.00481776660308, Q4 : -8.34902530187e-05}
2019-04-14 23:32:12.61: SIM {TimeUS : 44434719, Roll : -0.79, Pitch : -0.74, Yaw : 359.98, Alt : 30.6000003815, Lat : 49.28357, Lng : -123.11502, Q1 : 0.99995470047, Q2 : -0.00691335136071, Q3 : -0.00653533311561, Q4 : -0.000155743808136}
2019-04-14 23:32:12.71: SIM {TimeUS : 44534679, Roll : -0.81, Pitch : -0.78, Yaw : 359.97, Alt : 30.7600002289, Lat : 49.28357, Lng : -123.11502, Q1 : 0.999950885773, Q2 : -0.00712573900819, Q3 : -0.00688037835062, Q4 : -0.000242140202317}
2019-04-14 23:32:12.81: SIM {TimeUS : 44634639, Roll : -0.72, Pitch : -0.68, Yaw : 359.96, Alt : 30.9099998474, Lat : 49.28357, Lng : -123.1150201, Q1 : 0.999961972237, Q2 : -0.00631948048249, Q3 : -0.00600654864684, Q4 : -0.000329168251483}
2019-04-14 23:32:12.92: SIM {TimeUS : 44735432, Roll : -0.53, Pitch : -0.5, Yaw : 359.95, Alt : 31.0599994659, Lat : 49.2835701, Lng : -123.1150202, Q1 : 0.999979257584, Q2 : -0.00471133738756, Q3 : -0.0043651945889, Q4 : -0.000406689068768}
2019-04-14 23:32:13.01: SIM {TimeUS : 44835392, Roll : -0.32, Pitch : -0.28, Yaw : 359.94, Alt : 31.2199993134, Lat : 49.2835701, Lng : -123.1150202, Q1 : 0.999992728233, Q2 : -0.00283038895577, Q3 : -0.00252681761049, Q4 : -0.000472019601148}
2019-04-14 23:32:13.11: SIM {TimeUS : 44935352, Roll : -0.13, Pitch : -0.11, Yaw : 359.94, Alt : 31.3899993896, Lat : 49.2835702, Lng : -123.1150203, Q1 : 0.999998748302, Q2 : -0.00113727361895, Q3 : -0.000965939543676, Q4 : -0.000520373578183}
2019-04-14 23:32:13.21: SIM {TimeUS : 45035312, Roll : 0.01, Pitch : 0.0, Yaw : 359.93, Alt : 31.5599994659, Lat : 49.2835702, Lng : -123.1150204, Q1 : 0.999999821186, Q2 : 8.94538607099e-05, Q3 : 1.81042578333e-05, Q4 : -0.00055159337353}
2019-04-14 23:32:13.31: SIM {TimeUS : 45135272, Roll : 0.08, Pitch : 0.04, Yaw : 359.93, Alt : 31.7399997711, Lat : 49.2835702, Lng : -123.1150205, Q1 : 0.999999463558, Q2 : 0.000761446368415, Q3 : 0.000406950566685, Q4 : -0.00056657200912}
2019-04-14 23:32:13.41: SIM {TimeUS : 45235232, Roll : 0.11, Pitch : 0.06, Yaw : 359.93, Alt : 31.9200000763, Lat : 49.2835703, Lng : -123.1150205, Q1 : 0.99999922514, Q2 : 0.000969823740888, Q3 : 0.000535713217687, Q4 : -0.000570373260416}
2019-04-14 23:32:13.51: SIM {TimeUS : 45335192, Roll : 0.1, Pitch : 0.07, Yaw : 359.93, Alt : 32.0999984741, Lat : 49.2835703, Lng : -123.1150206, Q1 : 0.999999284744, Q2 : 0.000874903227668, Q3 : 0.000622215098701, Q4 : -0.000564706337173}
2019-04-14 23:32:13.61: SIM {TimeUS : 45435152, Roll : 0.07, Pitch : 0.08, Yaw : 359.93, Alt : 32.2900009155, Lat : 49.2835703, Lng : -123.1150206, Q1 : 0.999999344349, Q2 : 0.0006413438241, Q3 : 0.000733338412829, Q4 : -0.000548990094103}
2019-04-14 23:32:13.71: SIM {TimeUS : 45535112, Roll : 0.06, Pitch : 0.1, Yaw : 359.93, Alt : 32.4799995422, Lat : 49.2835703, Lng : -123.1150207, Q1 : 0.999999284744, Q2 : 0.000553794379812, Q3 : 0.00090171105694, Q4 : -0.000533927639481}
2019-04-14 23:32:13.81: SIM {TimeUS : 45635072, Roll : 0.08, Pitch : 0.12, Yaw : 359.94, Alt : 32.6800003052, Lat : 49.2835703, Lng : -123.1150207, Q1 : 0.999998986721, Q2 : 0.00072551087942, Q3 : 0.00112761813216, Q4 : -0.000521186448168}
2019-04-14 23:32:13.91: SIM {TimeUS : 45735032, Roll : 0.11, Pitch : 0.15, Yaw : 359.94, Alt : 32.8800010681, Lat : 49.2835704, Lng : -123.1150208, Q1 : 0.999998450279, Q2 : 0.00101035076659, Q3 : 0.0013568457216, Q4 : -0.000505224277731}
2019-04-14 23:32:14.01: SIM {TimeUS : 45834992, Roll : 0.13, Pitch : 0.18, Yaw : 359.94, Alt : 33.0800018311, Lat : 49.2835704, Lng : -123.1150208, Q1 : 0.999997913837, Q2 : 0.001221467508, Q3 : 0.00158127187751, Q4 : -0.000485678290715}
2019-04-14 23:32:14.11: SIM {TimeUS : 45934952, Roll : 0.15, Pitch : 0.17, Yaw : 359.94, Alt : 33.2799987793, Lat : 49.2835704, Lng : -123.1150208, Q1 : 0.999997735023, Q2 : 0.00135181867518, Q3 : 0.00156318442896, Q4 : -0.000464668351924}
2019-04-14 23:32:14.21: SIM {TimeUS : 46034912, Roll : 0.15, Pitch : 0.14, Yaw : 359.94, Alt : 33.4900016785, Lat : 49.2835704, Lng : -123.1150208, Q1 : 0.999998152256, Q2 : 0.00136799598113, Q3 : 0.00127854919992, Q4 : -0.00045366451377}
2019-04-14 23:32:14.31: SIM {TimeUS : 46134872, Roll : 0.15, Pitch : 0.12, Yaw : 359.94, Alt : 33.6899986267, Lat : 49.2835704, Lng : -123.1150208, Q1 : 0.999998450279, Q2 : 0.00130989786703, Q3 : 0.00110364949796, Q4 : -0.000453442335129}
2019-04-14 23:32:14.41: SIM {TimeUS : 46234832, Roll : 0.14, Pitch : 0.12, Yaw : 359.94, Alt : 33.9000015259, Lat : 49.2835704, Lng : -123.1150208, Q1 : 0.999998509884, Q2 : 0.00127437594347, Q3 : 0.00105971121229, Q4 : -0.00046951987315}
2019-04-14 23:32:14.51: SIM {TimeUS : 46334792, Roll : 0.15, Pitch : 0.12, Yaw : 359.94, Alt : 34.1100006104, Lat : 49.2835704, Lng : -123.1150209, Q1 : 0.999998390675, Q2 : 0.00131778931245, Q3 : 0.00112018955406, Q4 : -0.000496574211866}
2019-04-14 23:32:14.61: SIM {TimeUS : 46434752, Roll : 0.14, Pitch : 0.11, Yaw : 359.94, Alt : 34.3199996948, Lat : 49.2835704, Lng : -123.1150208, Q1 : 0.999998569489, Q2 : 0.00125025107991, Q3 : 0.000991279026493, Q4 : -0.000518765475135}
2019-04-14 23:32:14.71: SIM {TimeUS : 46534712, Roll : 0.12, Pitch : 0.09, Yaw : 359.93, Alt : 34.5299987793, Lat : 49.2835704, Lng : -123.1150208, Q1 : 0.999998927116, Q2 : 0.00109375407919, Q3 : 0.000829272088595, Q4 : -0.000539569184184}
2019-04-14 23:32:14.81: SIM {TimeUS : 46634672, Roll : 0.09, Pitch : 0.07, Yaw : 359.93, Alt : 34.75, Lat : 49.2835704, Lng : -123.1150208, Q1 : 0.99999922514, Q2 : 0.000871300813742, Q3 : 0.000687551044393, Q4 : -0.000566305767279}
2019-04-14 23:32:14.91: SIM {TimeUS : 46734632, Roll : 0.06, Pitch : 0.06, Yaw : 359.93, Alt : 34.9599990845, Lat : 49.2835704, Lng : -123.1150208, Q1 : 0.999999463558, Q2 : 0.000599418010097, Q3 : 0.000585830188356, Q4 : -0.000597225152887}
2019-04-14 23:32:15.02: SIM {TimeUS : 46835425, Roll : 0.04, Pitch : 0.03, Yaw : 359.92, Alt : 35.1800003052, Lat : 49.2835704, Lng : -123.1150208, Q1 : 0.999999642372, Q2 : 0.000420476222644, Q3 : 0.000288205308607, Q4 : -0.000628974405117}
2019-04-14 23:32:15.11: SIM {TimeUS : 46935385, Roll : 0.03, Pitch : 0.0, Yaw : 359.92, Alt : 35.4000015259, Lat : 49.2835704, Lng : -123.1150208, Q1 : 0.999999701977, Q2 : 0.000343847379554, Q3 : 7.4171104643e-05, Q4 : -0.000654859468341}
2019-04-14 23:32:15.21: SIM {TimeUS : 47035345, Roll : 0.01, Pitch : 0.0, Yaw : 359.92, Alt : 35.6199989319, Lat : 49.2835704, Lng : -123.1150208, Q1 : 0.999999761581, Q2 : 0.000170885919943, Q3 : 7.72927342041e-06, Q4 : -0.000673605070915}
2019-04-14 23:32:15.31: SIM {TimeUS : 47135305, Roll : 0.01, Pitch : 0.0, Yaw : 359.92, Alt : 35.8400001526, Lat : 49.2835704, Lng : -123.1150208, Q1 : 0.999999761581, Q2 : 0.000115129951155, Q3 : 2.4633925932e-05, Q4 : -0.000689260312356}
2019-04-14 23:32:15.41: SIM {TimeUS : 47235265, Roll : 0.01, Pitch : 0.0, Yaw : 359.91, Alt : 36.0600013733, Lat : 49.2835704, Lng : -123.1150207, Q1 : 0.999999761581, Q2 : 0.000151178828673, Q3 : 5.44105314475e-05, Q4 : -0.00070492643863}
2019-04-14 23:32:15.51: SIM {TimeUS : 47335225, Roll : 0.0, Pitch : -0.01, Yaw : 359.91, Alt : 36.2799987793, Lat : 49.2835704, Lng : -123.1150207, Q1 : 0.999999701977, Q2 : 2.83904955722e-06, Q3 : -0.000136764792842, Q4 : -0.000724845565856}
2019-04-14 23:32:15.61: SIM {TimeUS : 47435185, Roll : -0.03, Pitch : -0.05, Yaw : 359.91, Alt : 36.5, Lat : 49.2835704, Lng : -123.1150207, Q1 : 0.999999582767, Q2 : -0.000276091974229, Q3 : -0.000474633037811, Q4 : -0.000748424965423}
2019-04-14 23:32:15.71: SIM {TimeUS : 47535145, Roll : -0.06, Pitch : -0.08, Yaw : 359.91, Alt : 36.7200012207, Lat : 49.2835704, Lng : -123.1150207, Q1 : 0.999999284744, Q2 : -0.000607728841715, Q3 : -0.000708322913852, Q4 : -0.000775585242081}
2019-04-14 23:32:15.81: SIM {TimeUS : 47635105, Roll : -0.1, Pitch : -0.1, Yaw : 359.9, Alt : 36.9500007629, Lat : 49.2835704, Lng : -123.1150207, Q1 : 0.999998867512, Q2 : -0.000901668041479, Q3 : -0.000889034534339, Q4 : -0.000802446040325}
2019-04-14 23:32:15.91: SIM {TimeUS : 47735065, Roll : -0.1, Pitch : -0.1, Yaw : 359.9, Alt : 37.1699981689, Lat : 49.2835704, Lng : -123.1150207, Q1 : 0.999998807907, Q2 : -0.000936320924666, Q3 : -0.000879134517163, Q4 : -0.000831266108435}
2019-04-14 23:32:16.01: SIM {TimeUS : 47835025, Roll : -0.09, Pitch : -0.08, Yaw : 359.9, Alt : 37.3899993896, Lat : 49.2835704, Lng : -123.1150207, Q1 : 0.999998986721, Q2 : -0.00084262539167, Q3 : -0.000726590398699, Q4 : -0.000862170185428}
2019-04-14 23:32:16.11: SIM {TimeUS : 47934985, Roll : -0.07, Pitch : -0.05, Yaw : 359.89, Alt : 37.6199989319, Lat : 49.2835704, Lng : -123.1150207, Q1 : 0.999999284744, Q2 : -0.000676823896356, Q3 : -0.000470169412438, Q4 : -0.000892536307219}
2019-04-14 23:32:16.21: SIM {TimeUS : 48034945, Roll : -0.05, Pitch : -0.03, Yaw : 359.89, Alt : 37.8499984741, Lat : 49.2835704, Lng : -123.1150207, Q1 : 0.999999403954, Q2 : -0.000512994418386, Q3 : -0.00028128962731, Q4 : -0.000916880380828}
2019-04-14 23:32:16.31: SIM {TimeUS : 48134905, Roll : -0.06, Pitch : -0.03, Yaw : 359.89, Alt : 38.0699996948, Lat : 49.2835704, Lng : -123.1150207, Q1 : 0.999999344349, Q2 : -0.000543404137716, Q3 : -0.000277023005765, Q4 : -0.000934416020755}
2019-04-14 23:32:16.41: SIM {TimeUS : 48234865, Roll : -0.07, Pitch : -0.02, Yaw : 359.89, Alt : 38.2999992371, Lat : 49.2835704, Lng : -123.1150207, Q1 : 0.999999284744, Q2 : -0.000665639352519, Q3 : -0.000200315756956, Q4 : -0.000945195148233}
2019-04-14 23:32:16.51: SIM {TimeUS : 48334825, Roll : -0.1, Pitch : 0.0, Yaw : 359.89, Alt : 38.5299987793, Lat : 49.2835704, Lng : -123.1150206, Q1 : 0.999999165535, Q2 : -0.000876324775163, Q3 : -7.14534544386e-05, Q4 : -0.000954625895247}
2019-04-14 23:32:16.61: SIM {TimeUS : 48434785, Roll : -0.09, Pitch : 0.0, Yaw : 359.89, Alt : 38.7599983215, Lat : 49.2835704, Lng : -123.1150207, Q1 : 0.999999165535, Q2 : -0.000869141425937, Q3 : 4.67581594421e-05, Q4 : -0.000957578769885}
2019-04-14 23:32:16.71: SIM {TimeUS : 48534745, Roll : -0.07, Pitch : 0.03, Yaw : 359.88, Alt : 38.9900016785, Lat : 49.2835706, Lng : -123.1150207, Q1 : 0.999999284744, Q2 : -0.00064677244518, Q3 : 0.000263924041064, Q4 : -0.000964245642535}
2019-04-14 23:32:16.81: SIM {TimeUS : 48634705, Roll : -0.04, Pitch : 0.02, Yaw : 359.88, Alt : 39.2099990845, Lat : 49.2835706, Lng : -123.1150207, Q1 : 0.999999403954, Q2 : -0.000367075786926, Q3 : 0.000248785392614, Q4 : -0.000975352188107}
2019-04-14 23:32:16.91: SIM {TimeUS : 48734665, Roll : 0.0, Pitch : 0.02, Yaw : 359.88, Alt : 39.4399986267, Lat : 49.2835706, Lng : -123.1150207, Q1 : 0.999999463558, Q2 : -5.09375313413e-05, Q3 : 0.000197451750864, Q4 : -0.00098800577689}
2019-04-14 23:32:17.01: SIM {TimeUS : 48834625, Roll : 0.03, Pitch : 0.04, Yaw : 359.88, Alt : 39.6699981689, Lat : 49.2835706, Lng : -123.1150207, Q1 : 0.999999403954, Q2 : 0.000307006819639, Q3 : 0.000361182232155, Q4 : -0.000998720875941}
2019-04-14 23:32:17.12: SIM {TimeUS : 48935418, Roll : 0.07, Pitch : 0.07, Yaw : 359.88, Alt : 39.9099998474, Lat : 49.2835706, Lng : -123.1150207, Q1 : 0.999999046326, Q2 : 0.000663374143187, Q3 : 0.00065541343065, Q4 : -0.00101743009873}
2019-04-14 23:32:17.21: SIM {TimeUS : 49035378, Roll : 0.1, Pitch : 0.1, Yaw : 359.88, Alt : 40.1399993896, Lat : 49.2835706, Lng : -123.1150207, Q1 : 0.999998569489, Q2 : 0.000917825091165, Q3 : 0.000934371491894, Q4 : -0.00104526930954}
2019-04-14 23:32:17.31: SIM {TimeUS : 49135338, Roll : 0.09, Pitch : 0.13, Yaw : 359.87, Alt : 40.3699989319, Lat : 49.2835706, Lng : -123.1150207, Q1 : 0.99999833107, Q2 : 0.000837916042656, Q3 : 0.00121164764278, Q4 : -0.00106609868817}
2019-04-14 23:32:17.41: SIM {TimeUS : 49235298, Roll : 0.04, Pitch : 0.16, Yaw : 359.87, Alt : 40.5999984741, Lat : 49.2835706, Lng : -123.1150207, Q1 : 0.999998271465, Q2 : 0.00040577002801, Q3 : 0.00146485748701, Q4 : -0.00110026937909}
2019-04-14 23:32:17.51: SIM {TimeUS : 49335258, Roll : 0.0, Pitch : 0.18, Yaw : 359.87, Alt : 40.8300018311, Lat : 49.2835706, Lng : -123.1150207, Q1 : 0.999998092651, Q2 : -1.50537562149e-05, Q3 : 0.00160243315622, Q4 : -0.00112530286424}
2019-04-14 23:32:17.61: SIM {TimeUS : 49435218, Roll : -0.03, Pitch : 0.16, Yaw : 359.86, Alt : 41.0699996948, Lat : 49.2835706, Lng : -123.1150207, Q1 : 0.999998271465, Q2 : -0.000267732830252, Q3 : 0.0014597887639, Q4 : -0.00114100810606}
2019-04-14 23:32:17.71: SIM {TimeUS : 49535178, Roll : -0.04, Pitch : 0.14, Yaw : 359.86, Alt : 41.2999992371, Lat : 49.2835706, Lng : -123.1150207, Q1 : 0.999998509884, Q2 : -0.000352444156306, Q3 : 0.00124073040206, Q4 : -0.00116424181033}
2019-04-14 23:32:17.81: SIM {TimeUS : 49635138, Roll : -0.02, Pitch : 0.13, Yaw : 359.86, Alt : 41.5299987793, Lat : 49.2835706, Lng : -123.1150207, Q1 : 0.999998569489, Q2 : -0.00024022332218, Q3 : 0.00121006427798, Q4 : -0.00120053568389}
2019-04-14 23:32:17.91: SIM {TimeUS : 49735098, Roll : 0.01, Pitch : 0.14, Yaw : 359.85, Alt : 41.7700004578, Lat : 49.2835706, Lng : -123.1150207, Q1 : 0.999998390675, Q2 : 0.000134125279146, Q3 : 0.00130149978213, Q4 : -0.00124766328372}
2019-04-14 23:32:18.01: SIM {TimeUS : 49835058, Roll : 0.06, Pitch : 0.15, Yaw : 359.85, Alt : 42.0, Lat : 49.2835706, Lng : -123.1150207, Q1 : 0.999998092651, Q2 : 0.000582575390581, Q3 : 0.00132866681088, Q4 : -0.00129436294083}
2019-04-14 23:32:18.11: SIM {TimeUS : 49935018, Roll : 0.1, Pitch : 0.12, Yaw : 359.84, Alt : 42.2299995422, Lat : 49.2835706, Lng : -123.1150207, Q1 : 0.999998152256, Q2 : 0.000884455861524, Q3 : 0.00107376871165, Q4 : -0.00133844593074}
2019-04-14 23:32:18.21: SIM {TimeUS : 50034978, Roll : 0.1, Pitch : 0.08, Yaw : 359.84, Alt : 42.4700012207, Lat : 49.2835706, Lng : -123.1150207, Q1 : 0.999998390675, Q2 : 0.000886610418092, Q3 : 0.000733357912395, Q4 : -0.00138123554643}
2019-04-14 23:32:18.31: SIM {TimeUS : 50134938, Roll : 0.06, Pitch : 0.05, Yaw : 359.83, Alt : 42.7000007629, Lat : 49.2835706, Lng : -123.1150207, Q1 : 0.999998748302, Q2 : 0.000559190521017, Q3 : 0.000502882467117, Q4 : -0.00140538241249}
2019-04-14 23:32:18.41: SIM {TimeUS : 50234898, Roll : 0.0, Pitch : 0.05, Yaw : 359.83, Alt : 42.9399986267, Lat : 49.2835706, Lng : -123.1150207, Q1 : 0.999998927116, Q2 : 8.76373742358e-05, Q3 : 0.000440947245806, Q4 : -0.00141950917896}
2019-04-14 23:32:18.51: SIM {TimeUS : 50334858, Roll : -0.03, Pitch : 0.07, Yaw : 359.83, Alt : 43.1699981689, Lat : 49.2835704, Lng : -123.1150207, Q1 : 0.999998748302, Q2 : -0.000280309061054, Q3 : 0.000647987006232, Q4 : -0.00142339861486}
2019-04-14 23:32:18.61: SIM {TimeUS : 50434818, Roll : -0.05, Pitch : 0.08, Yaw : 359.83, Alt : 43.4099998474, Lat : 49.2835704, Lng : -123.1150207, Q1 : 0.999998569489, Q2 : -0.000483223295305, Q3 : 0.000782432092819, Q4 : -0.00142240652349}
2019-04-14 23:32:18.71: SIM {TimeUS : 50534778, Roll : -0.05, Pitch : 0.08, Yaw : 359.83, Alt : 43.6399993896, Lat : 49.2835704, Lng : -123.1150207, Q1 : 0.999998629093, Q2 : -0.000465795747004, Q3 : 0.000699552940205, Q4 : -0.00142679899}
2019-04-14 23:32:18.81: SIM {TimeUS : 50634738, Roll : -0.05, Pitch : 0.06, Yaw : 359.83, Alt : 43.8800010681, Lat : 49.2835704, Lng : -123.1150206, Q1 : 0.999998688698, Q2 : -0.000467284000479, Q3 : 0.000572021759581, Q4 : -0.00144066358916}
2019-04-14 23:32:18.91: SIM {TimeUS : 50734698, Roll : -0.04, Pitch : 0.04, Yaw : 359.83, Alt : 44.1100006104, Lat : 49.2835704, Lng : -123.1150206, Q1 : 0.999998807907, Q2 : -0.000396843563067, Q3 : 0.000415321497712, Q4 : -0.00145845825318}
2019-04-14 23:32:19.01: SIM {TimeUS : 50834658, Roll : -0.02, Pitch : 0.03, Yaw : 359.83, Alt : 44.3499984741, Lat : 49.2835704, Lng : -123.1150206, Q1 : 0.999998807907, Q2 : -0.00024597463198, Q3 : 0.00030087120831, Q4 : -0.00148311525118}
2019-04-14 23:32:19.11: SIM {TimeUS : 50934618, Roll : -0.01, Pitch : 0.02, Yaw : 359.82, Alt : 44.5900001526, Lat : 49.2835704, Lng : -123.1150206, Q1 : 0.999998807907, Q2 : -0.000147332015331, Q3 : 0.000244262599153, Q4 : -0.001511689974}
2019-04-14 23:32:19.21: SIM {TimeUS : 51035411, Roll : -0.02, Pitch : 0.0, Yaw : 359.82, Alt : 44.8199996948, Lat : 49.2835704, Lng : -123.1150206, Q1 : 0.999998807907, Q2 : -0.000189188722288, Q3 : 7.16661597835e-05, Q4 : -0.00154015095904}
2019-04-14 23:32:19.31: SIM {TimeUS : 51135371, Roll : -0.03, Pitch : -0.02, Yaw : 359.81, Alt : 45.0600013733, Lat : 49.2835704, Lng : -123.1150206, Q1 : 0.999998688698, Q2 : -0.000305765890516, Q3 : -0.000231230354984, Q4 : -0.00157472165301}
2019-04-14 23:32:19.41: SIM {TimeUS : 51235331, Roll : -0.04, Pitch : -0.04, Yaw : 359.81, Alt : 45.2999992371, Lat : 49.2835703, Lng : -123.1150206, Q1 : 0.999998569489, Q2 : -0.000388086395105, Q3 : -0.000426351383794, Q4 : -0.00161296874285}
2019-04-14 23:32:19.51: SIM {TimeUS : 51335291, Roll : -0.03, Pitch : -0.05, Yaw : 359.81, Alt : 45.5299987793, Lat : 49.2835703, Lng : -123.1150206, Q1 : 0.999998450279, Q2 : -0.000345615029801, Q3 : -0.000491770799272, Q4 : -0.00164782360662}
2019-04-14 23:32:19.61: SIM {TimeUS : 51435251, Roll : -0.04, Pitch : -0.05, Yaw : 359.8, Alt : 45.7700004578, Lat : 49.2835703, Lng : -123.1150206, Q1 : 0.999998450279, Q2 : -0.000376495881937, Q3 : -0.000444701348897, Q4 : -0.00167883071117}
2019-04-14 23:32:19.71: SIM {TimeUS : 51535211, Roll : -0.06, Pitch : -0.03, Yaw : 359.8, Alt : 46.0, Lat : 49.2835703, Lng : -123.1150206, Q1 : 0.99999833107, Q2 : -0.000533327402081, Q3 : -0.000327227084199, Q4 : -0.00170601624995}
2019-04-14 23:32:19.81: SIM {TimeUS : 51635171, Roll : -0.08, Pitch : -0.02, Yaw : 359.8, Alt : 46.2299995422, Lat : 49.2835703, Lng : -123.1150206, Q1 : 0.999998152256, Q2 : -0.000785582815297, Q3 : -0.000237998581724, Q4 : -0.00173088524025}
2019-04-14 23:32:19.91: SIM {TimeUS : 51735131, Roll : -0.11, Pitch : -0.02, Yaw : 359.79, Alt : 46.4500007629, Lat : 49.2835703, Lng : -123.1150206, Q1 : 0.999997973442, Q2 : -0.000988114625216, Q3 : -0.000203767034691, Q4 : -0.00175794854295}
2019-04-14 23:32:20.01: SIM {TimeUS : 51835091, Roll : -0.11, Pitch : -0.01, Yaw : 359.79, Alt : 46.6699981689, Lat : 49.2835703, Lng : -123.1150206, Q1 : 0.999997854233, Q2 : -0.00103333010338, Q3 : -0.000133079272928, Q4 : -0.00178667379078}
2019-04-14 23:32:20.11: SIM {TimeUS : 51935051, Roll : -0.1, Pitch : 0.0, Yaw : 359.79, Alt : 46.8800010681, Lat : 49.2835703, Lng : -123.1150206, Q1 : 0.999997913837, Q2 : -0.000930531590711, Q3 : 1.49094785229e-06, Q4 : -0.00181751081254}
2019-04-14 23:32:20.21: SIM {TimeUS : 52035011, Roll : -0.08, Pitch : 0.0, Yaw : 359.78, Alt : 47.0900001526, Lat : 49.2835703, Lng : -123.1150206, Q1 : 0.999998033047, Q2 : -0.000720976968296, Q3 : 5.54646430828e-05, Q4 : -0.00184757320676}
2019-04-14 23:32:20.31: SIM {TimeUS : 52134971, Roll : -0.05, Pitch : 0.0, Yaw : 359.78, Alt : 47.2900009155, Lat : 49.2835703, Lng : -123.1150206, Q1 : 0.999998092651, Q2 : -0.000522685761098, Q3 : 9.54114693741e-06, Q4 : -0.00187391031068}
2019-04-14 23:32:20.41: SIM {TimeUS : 52234931, Roll : -0.04, Pitch : -0.01, Yaw : 359.78, Alt : 47.4900016785, Lat : 49.2835703, Lng : -123.1150206, Q1 : 0.999998092651, Q2 : -0.000420986674726, Q3 : -0.00011776987958, Q4 : -0.00189866509754}
2019-04-14 23:32:20.51: SIM {TimeUS : 52334891, Roll : -0.03, Pitch : -0.03, Yaw : 359.78, Alt : 47.6699981689, Lat : 49.2835703, Lng : -123.1150206, Q1 : 0.999998033047, Q2 : -0.000337560661137, Q3 : -0.000339244434144, Q4 : -0.00191998609807}
2019-04-14 23:32:20.61: SIM {TimeUS : 52434851, Roll : -0.03, Pitch : -0.06, Yaw : 359.77, Alt : 47.8400001526, Lat : 49.2835703, Lng : -123.1150206, Q1 : 0.999997854233, Q2 : -0.000295443285722, Q3 : -0.000596058904193, Q4 : -0.00193930254318}
2019-04-14 23:32:20.71: SIM {TimeUS : 52534811, Roll : -0.03, Pitch : -0.09, Yaw : 359.77, Alt : 48.0, Lat : 49.2835703, Lng : -123.1150206, Q1 : 0.999997675419, Q2 : -0.000270009564701, Q3 : -0.000856076658238, Q4 : -0.00195893179625}
2019-04-14 23:32:20.81: SIM {TimeUS : 52634771, Roll : -0.03, Pitch : -0.12, Yaw : 359.77, Alt : 48.1500015259, Lat : 49.2835703, Lng : -123.1150206, Q1 : 0.999997437, Q2 : -0.000287312519504, Q3 : -0.00105285493191, Q4 : -0.00197674194351}
2019-04-14 23:32:20.91: SIM {TimeUS : 52734731, Roll : 0.0, Pitch : -0.12, Yaw : 359.77, Alt : 48.2799987793, Lat : 49.2835703, Lng : -123.1150206, Q1 : 0.999997437, Q2 : -5.71526470594e-05, Q3 : -0.00105395936407, Q4 : -0.00199178932235}
2019-04-14 23:32:21.01: SIM {TimeUS : 52834691, Roll : 0.02, Pitch : -0.1, Yaw : 359.76, Alt : 48.4099998474, Lat : 49.2835703, Lng : -123.1150206, Q1 : 0.99999755621, Q2 : 0.000249323289609, Q3 : -0.000909880502149, Q4 : -0.00201145582832}
2019-04-14 23:32:21.11: SIM {TimeUS : 52934651, Roll : 0.05, Pitch : -0.07, Yaw : 359.76, Alt : 48.5200004578, Lat : 49.2835703, Lng : -123.1150207, Q1 : 0.99999755621, Q2 : 0.000504455238115, Q3 : -0.000682505895384, Q4 : -0.00203850562684}
2019-04-14 23:32:21.22: SIM {TimeUS : 53035444, Roll : 0.06, Pitch : -0.05, Yaw : 359.76, Alt : 48.6199989319, Lat : 49.2835703, Lng : -123.1150207, Q1 : 0.999997615814, Q2 : 0.00059364491608, Q3 : -0.000449344952358, Q4 : -0.00206536776386}
2019-04-14 23:32:21.31: SIM {TimeUS : 53135404, Roll : 0.07, Pitch : -0.03, Yaw : 359.75, Alt : 48.7099990845, Lat : 49.2835703, Lng : -123.1150207, Q1 : 0.99999755621, Q2 : 0.000648337649181, Q3 : -0.000327913032379, Q4 : -0.00209468137473}
2019-04-14 23:32:21.41: SIM {TimeUS : 53235364, Roll : 0.06, Pitch : -0.04, Yaw : 359.75, Alt : 48.7799987793, Lat : 49.2835703, Lng : -123.1150207, Q1 : 0.999997496605, Q2 : 0.000578738516197, Q3 : -0.000383506907383, Q4 : -0.00212713307701}
2019-04-14 23:32:21.51: SIM {TimeUS : 53335324, Roll : 0.03, Pitch : -0.04, Yaw : 359.75, Alt : 48.8499984741, Lat : 49.2835703, Lng : -123.1150207, Q1 : 0.99999755621, Q2 : 0.000342938612448, Q3 : -0.00039825818385, Q4 : -0.00216051447205}
2019-04-14 23:32:21.61: SIM {TimeUS : 53435284, Roll : 0.01, Pitch : -0.03, Yaw : 359.74, Alt : 48.9099998474, Lat : 49.2835704, Lng : -123.1150207, Q1 : 0.99999755621, Q2 : 0.000160667783348, Q3 : -0.00032381946221, Q4 : -0.00219254172407}
2019-04-14 23:32:21.71: SIM {TimeUS : 53535244, Roll : 0.0, Pitch : -0.02, Yaw : 359.74, Alt : 48.9599990845, Lat : 49.2835704, Lng : -123.1150207, Q1 : 0.999997496605, Q2 : 2.33720747929e-05, Q3 : -0.000234873426962, Q4 : -0.00222235405818}
2019-04-14 23:32:21.81: SIM {TimeUS : 53635204, Roll : 0.0, Pitch : -0.01, Yaw : 359.74, Alt : 49.0, Lat : 49.2835704, Lng : -123.1150207, Q1 : 0.999997437, Q2 : 4.78691945318e-05, Q3 : -0.000167537786183, Q4 : -0.00224412768148}
2019-04-14 23:32:21.91: SIM {TimeUS : 53735164, Roll : 0.12, Pitch : -0.06, Yaw : 359.74, Alt : 49.0299987793, Lat : 49.2835704, Lng : -123.1150207, Q1 : 0.99999666214, Q2 : 0.00110860890709, Q3 : -0.000590080569964, Q4 : -0.00225809169933}
2019-04-14 23:32:22.01: SIM {TimeUS : 53835124, Roll : 0.45, Pitch : -0.25, Yaw : 359.73, Alt : 49.0699996948, Lat : 49.2835704, Lng : -123.1150207, Q1 : 0.999987006187, Q2 : 0.00396588025615, Q3 : -0.00225894595496, Q4 : -0.00227031507529}
2019-04-14 23:32:22.11: SIM {TimeUS : 53935084, Roll : 0.99, Pitch : -0.63, Yaw : 359.73, Alt : 49.0900001526, Lat : 49.2835704, Lng : -123.1150207, Q1 : 0.999944031239, Q2 : 0.00870401319116, Q3 : -0.00556413223967, Q4 : -0.00228309258819}
2019-04-14 23:32:22.21: SIM {TimeUS : 54035044, Roll : 1.71, Pitch : -1.14, Yaw : 359.72, Alt : 49.1100006104, Lat : 49.2835704, Lng : -123.1150207, Q1 : 0.99983561039, Q2 : 0.0149230044335, Q3 : -0.0100456504151, Q4 : -0.00228327652439}
2019-04-14 23:32:22.31: SIM {TimeUS : 54135004, Roll : 2.52, Pitch : -1.75, Yaw : 359.7, Alt : 49.1300010681, Lat : 49.2835704, Lng : -123.1150206, Q1 : 0.999636828899, Q2 : 0.0220342222601, Q3 : -0.0153515990824, Q4 : -0.00224861688912}
2019-04-14 23:32:22.41: SIM {TimeUS : 54234964, Roll : 3.35, Pitch : -2.36, Yaw : 359.68, Alt : 49.1500015259, Lat : 49.2835706, Lng : -123.1150205, Q1 : 0.999356865883, Q2 : 0.0292234458029, Q3 : -0.020668618381, Q4 : -0.00216217665002}
2019-04-14 23:32:22.51: SIM {TimeUS : 54334924, Roll : 4.07, Pitch : -2.86, Yaw : 359.66, Alt : 49.1699981689, Lat : 49.2835707, Lng : -123.1150203, Q1 : 0.99905538559, Q2 : 0.0354438200593, Q3 : -0.025060782209, Q4 : -0.00201100669801}
2019-04-14 23:32:22.61: SIM {TimeUS : 54434884, Roll : 4.61, Pitch : -3.24, Yaw : 359.66, Alt : 49.1800003052, Lat : 49.2835708, Lng : -123.11502, Q1 : 0.998789489269, Q2 : 0.0401295870543, Q3 : -0.0283876676112, Q4 : -0.00180739152711}
2019-04-14 23:32:22.71: SIM {TimeUS : 54534844, Roll : 5.0, Pitch : -3.51, Yaw : 359.66, Alt : 49.1899986267, Lat : 49.2835709, Lng : -123.1150198, Q1 : 0.998577833176, Q2 : 0.0435158498585, Q3 : -0.0307610109448, Q4 : -0.00157411780674}
2019-04-14 23:32:22.81: SIM {TimeUS : 54634804, Roll : 5.29, Pitch : -3.72, Yaw : 359.67, Alt : 49.2000007629, Lat : 49.2835712, Lng : -123.1150193, Q1 : 0.998404800892, Q2 : 0.046085268259, Q3 : -0.0325932241976, Q4 : -0.00131212058477}
2019-04-14 23:32:22.91: SIM {TimeUS : 54734764, Roll : 5.57, Pitch : -3.92, Yaw : 359.68, Alt : 49.2099990845, Lat : 49.2835715, Lng : -123.1150188, Q1 : 0.998232603073, Q2 : 0.0484793260694, Q3 : -0.0343559980392, Q4 : -0.00104502227623}
2019-04-14 23:32:23.01: SIM {TimeUS : 54834724, Roll : 5.88, Pitch : -4.15, Yaw : 359.69, Alt : 49.2200012207, Lat : 49.2835716, Lng : -123.1150181, Q1 : 0.998025715351, Q2 : 0.0512115061283, Q3 : -0.0363517515361, Q4 : -0.000775916909333}
2019-04-14 23:32:23.11: SIM {TimeUS : 54934684, Roll : 6.22, Pitch : -4.38, Yaw : 359.7, Alt : 49.2200012207, Lat : 49.2835721, Lng : -123.1150174, Q1 : 0.997798740864, Q2 : 0.0541147440672, Q3 : -0.0383272022009, Q4 : -0.000504167750478}
2019-04-14 23:32:23.21: SIM {TimeUS : 55034644, Roll : 6.49, Pitch : -4.56, Yaw : 359.71, Alt : 49.2299995422, Lat : 49.2835725, Lng : -123.1150166, Q1 : 0.997605204582, Q2 : 0.0564705953002, Q3 : -0.0399357751012, Q4 : -0.000257878069533}
2019-04-14 23:32:23.32: SIM {TimeUS : 55135437, Roll : 6.69, Pitch : -4.71, Yaw : 359.71, Alt : 49.2400016785, Lat : 49.2835728, Lng : -123.1150157, Q1 : 0.997451424599, Q2 : 0.0582310222089, Q3 : -0.04122851789, Q4 : -5.35823673999e-05}
2019-04-14 23:32:23.41: SIM {TimeUS : 55235397, Roll : 6.81, Pitch : -4.81, Yaw : 359.72, Alt : 49.2400016785, Lat : 49.2835733, Lng : -123.1150146, Q1 : 0.997352004051, Q2 : 0.05929030478, Q3 : -0.0421153977513, Q4 : 0.000108978223579}
2019-04-14 23:32:23.51: SIM {TimeUS : 55335357, Roll : 6.9, Pitch : -4.88, Yaw : 359.73, Alt : 49.25, Lat : 49.2835739, Lng : -123.1150135, Q1 : 0.997279465199, Q2 : 0.0601014457643, Q3 : -0.0426785126328, Q4 : 0.000239009561483}
2019-04-14 23:32:23.61: SIM {TimeUS : 55435317, Roll : 6.99, Pitch : -4.94, Yaw : 359.73, Alt : 49.25, Lat : 49.2835744, Lng : -123.1150123, Q1 : 0.99721133709, Q2 : 0.060871373862, Q3 : -0.0431758724153, Q4 : 0.000315380137181}
2019-04-14 23:32:23.71: SIM {TimeUS : 55535277, Roll : 7.17, Pitch : -4.98, Yaw : 359.75, Alt : 49.25, Lat : 49.283575, Lng : -123.115011, Q1 : 0.997101187706, Q2 : 0.0624073781073, Q3 : -0.0435234829783, Q4 : 0.00056258222321}
2019-04-14 23:32:23.81: SIM {TimeUS : 55635237, Roll : 7.58, Pitch : -4.86, Yaw : 0.09, Alt : 49.2599983215, Lat : 49.2835756, Lng : -123.1150096, Q1 : 0.99690502882, Q2 : 0.0661478042603, Q3 : -0.0423253029585, Q4 : 0.00366392009892}
2019-04-14 23:32:23.91: SIM {TimeUS : 55735197, Roll : 8.23, Pitch : -4.67, Yaw : 1.42, Alt : 49.2599983215, Lat : 49.2835763, Lng : -123.1150082, Q1 : 0.996478378773, Q2 : 0.0722174271941, Q3 : -0.0397601053119, Q4 : 0.0153157804161}
2019-04-14 23:32:24.01: SIM {TimeUS : 55835157, Roll : 8.84, Pitch : -4.73, Yaw : 4.25, Alt : 49.2599983215, Lat : 49.283577, Lng : -123.1150067, Q1 : 0.995366811752, Q2 : 0.078490242362, Q3 : -0.0383302755654, Q4 : 0.0401864573359}
2019-04-14 23:32:24.11: SIM {TimeUS : 55935117, Roll : 9.14, Pitch : -5.29, Yaw : 8.65, Alt : 49.2599983215, Lat : 49.2835776, Lng : -123.115005, Q1 : 0.992638528347, Q2 : 0.0828392654657, Q3 : -0.0398771688342, Q4 : 0.0788432881236}
2019-04-14 23:32:24.21: SIM {TimeUS : 56035077, Roll : 8.92, Pitch : -6.34, Yaw : 14.44, Alt : 49.2700004578, Lat : 49.2835783, Lng : -123.1150032, Q1 : 0.986989855766, Q2 : 0.0840510874987, Q3 : -0.0449954159558, Q4 : 0.129467695951}
2019-04-14 23:32:24.31: SIM {TimeUS : 56135037, Roll : 8.11, Pitch : -7.79, Yaw : 21.37, Alt : 49.2700004578, Lat : 49.2835791, Lng : -123.1150013, Q1 : 0.977024674416, Q2 : 0.0819321870804, Q3 : -0.0535678267479, Q4 : 0.189315631986}
2019-04-14 23:32:24.41: SIM {TimeUS : 56234997, Roll : 6.68, Pitch : -9.43, Yaw : 29.19, Alt : 49.2700004578, Lat : 49.2835799, Lng : -123.1149993, Q1 : 0.961594939232, Q2 : 0.0769573301077, Q3 : -0.0647996664047, Q4 : 0.255369722843}
2019-04-14 23:32:24.51: SIM {TimeUS : 56334957, Roll : 4.71, Pitch : -10.99, Yaw : 37.64, Alt : 49.2700004578, Lat : 49.2835806, Lng : -123.1149971, Q1 : 0.940100610256, Q2 : 0.0696598291397, Q3 : -0.0773977637291, Q4 : 0.32460424304}
2019-04-14 23:32:24.61: SIM {TimeUS : 56434917, Roll : 2.15, Pitch : -12.25, Yaw : 46.4, Alt : 49.2700004578, Lat : 49.2835814, Lng : -123.1149949, Q1 : 0.912928402424, Q2 : 0.0591894313693, Q3 : -0.0906962603331, Q4 : 0.393487781286}
2019-04-14 23:32:24.71: SIM {TimeUS : 56534877, Roll : -0.95, Pitch : -13.0, Yaw : 54.76, Alt : 49.2700004578, Lat : 49.2835823, Lng : -123.1149925, Q1 : 0.882672071457, Q2 : 0.0446777679026, Q3 : -0.104347474873, Q4 : 0.456076264381}
2019-04-14 23:32:24.81: SIM {TimeUS : 56634837, Roll : -4.07, Pitch : -13.18, Yaw : 61.81, Alt : 49.2700004578, Lat : 49.2835832, Lng : -123.1149901, Q1 : 0.853876948357, Q2 : 0.0286550968885, Q3 : -0.116592943668, Q4 : 0.506437659264}
2019-04-14 23:32:24.91: SIM {TimeUS : 56734797, Roll : -6.54, Pitch : -13.0, Yaw : 66.93, Alt : 49.2799987793, Lat : 49.2835843, Lng : -123.1149876, Q1 : 0.831044018269, Q2 : 0.0150234699249, Q3 : -0.125551193953, Q4 : 0.541642904282}
2019-04-14 23:32:25.01: SIM {TimeUS : 56834757, Roll : -8.0, Pitch : -12.72, Yaw : 69.95, Alt : 49.2799987793, Lat : 49.2835854, Lng : -123.114985, Q1 : 0.816777050495, Q2 : 0.00658023869619, Q3 : -0.130360528827, Q4 : 0.561994791031}
2019-04-14 23:32:25.11: SIM {TimeUS : 56934717, Roll : -8.39, Pitch : -12.58, Yaw : 71.06, Alt : 49.2700004578, Lat : 49.2835867, Lng : -123.1149824, Q1 : 0.811388909817, Q2 : 0.00428649317473, Q3 : -0.131266593933, Q4 : 0.569560170174}
2019-04-14 23:32:25.21: SIM {TimeUS : 57034677, Roll : -7.87, Pitch : -12.69, Yaw : 70.6, Alt : 49.2700004578, Lat : 49.2835879, Lng : -123.1149798, Q1 : 0.813594818115, Q2 : 0.00800389889628, Q3 : -0.129457250237, Q4 : 0.566780626774}
2019-04-14 23:32:25.31: SIM {TimeUS : 57134637, Roll : -6.66, Pitch : -13.07, Yaw : 68.94, Alt : 49.2700004578, Lat : 49.2835893, Lng : -123.114977, Q1 : 0.821400761604, Q2 : 0.0167304798961, Q3 : -0.126422524452, Q4 : 0.555912077427}
2019-04-14 23:32:25.42: SIM {TimeUS : 57235430, Roll : -4.99, Pitch : -13.69, Yaw : 66.4, Alt : 49.2799987793, Lat : 49.283591, Lng : -123.1149742, Q1 : 0.832813918591, Q2 : 0.0289933644235, Q3 : -0.123354934156, Q4 : 0.538854300976}
2019-04-14 23:32:25.51: SIM {TimeUS : 57335390, Roll : -3.11, Pitch : -14.39, Yaw : 63.35, Alt : 49.2799987793, Lat : 49.2835925, Lng : -123.1149713, Q1 : 0.845777690411, Q2 : 0.0428250171244, Q3 : -0.120792515576, Q4 : 0.517914414406}
2019-04-14 23:32:25.61: SIM {TimeUS : 57435350, Roll : -1.21, Pitch : -15.06, Yaw : 60.08, Alt : 49.2799987793, Lat : 49.283594, Lng : -123.1149685, Q1 : 0.858845829964, Q2 : 0.0565094314516, Q3 : -0.118776462972, Q4 : 0.495058268309}
2019-04-14 23:32:25.71: SIM {TimeUS : 57535310, Roll : 0.53, Pitch : -15.56, Yaw : 56.9, Alt : 49.2799987793, Lat : 49.2835958, Lng : -123.1149654, Q1 : 0.870780706406, Q2 : 0.0685977265239, Q3 : -0.116884760559, Q4 : 0.472623765469}
2019-04-14 23:32:25.81: SIM {TimeUS : 57635270, Roll : 1.98, Pitch : -15.84, Yaw : 54.16, Alt : 49.2799987793, Lat : 49.2835974, Lng : -123.1149622, Q1 : 0.880647003651, Q2 : 0.0779758542776, Q3 : -0.114890947938, Q4 : 0.452968806028}
2019-04-14 23:32:25.91: SIM {TimeUS : 57735230, Roll : 3.0, Pitch : -15.91, Yaw : 52.08, Alt : 49.2799987793, Lat : 49.283599, Lng : -123.114959, Q1 : 0.88792437315, Q2 : 0.0840957015753, Q3 : -0.11290153116, Q4 : 0.437917232513}
2019-04-14 23:32:26.01: SIM {TimeUS : 57835190, Roll : 3.57, Pitch : -15.86, Yaw : 50.79, Alt : 49.2799987793, Lat : 49.2836007, Lng : -123.1149555, Q1 : 0.892437636852, Q2 : 0.0870572701097, Q3 : -0.111333884299, Q4 : 0.428463459015}
2019-04-14 23:32:26.11: SIM {TimeUS : 57935150, Roll : 3.69, Pitch : -15.8, Yaw : 50.29, Alt : 49.2799987793, Lat : 49.2836025, Lng : -123.114952, Q1 : 0.894265651703, Q2 : 0.0872881710529, Q3 : -0.110848270357, Q4 : 0.424714505672}
2019-04-14 23:32:26.21: SIM {TimeUS : 58035110, Roll : 3.39, Pitch : -15.8, Yaw : 50.5, Alt : 49.2799987793, Lat : 49.2836041, Lng : -123.1149484, Q1 : 0.89371329546, Q2 : 0.0851363912225, Q3 : -0.111774511635, Q4 : 0.426069021225}
2019-04-14 23:32:26.31: SIM {TimeUS : 58135070, Roll : 2.75, Pitch : -15.87, Yaw : 51.28, Alt : 49.2799987793, Lat : 49.2836057, Lng : -123.1149446, Q1 : 0.891200304031, Q2 : 0.0812060087919, Q3 : -0.114130474627, Q4 : 0.431441634893}
2019-04-14 23:32:26.41: SIM {TimeUS : 58235030, Roll : 1.91, Pitch : -15.97, Yaw : 52.43, Alt : 49.2799987793, Lat : 49.2836074, Lng : -123.1149408, Q1 : 0.887256145477, Q2 : 0.0762724429369, Q3 : -0.11734496057, Q4 : 0.439532995224}
2019-04-14 23:32:26.51: SIM {TimeUS : 58334990, Roll : 1.02, Pitch : -16.09, Yaw : 53.78, Alt : 49.2799987793, Lat : 49.2836092, Lng : -123.1149368, Q1 : 0.882461905479, Q2 : 0.0712460353971, Q3 : -0.120872236788, Q4 : 0.448970913887}
2019-04-14 23:32:26.61: SIM {TimeUS : 58434950, Roll : 0.16, Pitch : -16.21, Yaw : 55.14, Alt : 49.2799987793, Lat : 49.283611, Lng : -123.1149328, Q1 : 0.877458691597, Q2 : 0.066537514329, Q3 : -0.124365627766, Q4 : 0.458445429802}
2019-04-14 23:32:26.71: SIM {TimeUS : 58534910, Roll : -0.55, Pitch : -16.31, Yaw : 56.37, Alt : 49.2900009155, Lat : 49.2836128, Lng : -123.1149287, Q1 : 0.87281370163, Q2 : 0.0627874732018, Q3 : -0.127341523767, Q4 : 0.466945558786}
2019-04-14 23:32:26.81: SIM {TimeUS : 58634870, Roll : -1.06, Pitch : -16.37, Yaw : 57.34, Alt : 49.2900009155, Lat : 49.2836146, Lng : -123.1149246, Q1 : 0.869024455547, Q2 : 0.0602386333048, Q3 : -0.129342705011, Q4 : 0.473749220371}
2019-04-14 23:32:26.91: SIM {TimeUS : 58734830, Roll : -1.36, Pitch : -16.39, Yaw : 58.01, Alt : 49.2900009155, Lat : 49.2836164, Lng : -123.1149204, Q1 : 0.866399168968, Q2 : 0.0588141530752, Q3 : -0.13044282794, Q4 : 0.47841206193}
2019-04-14 23:32:27.01: SIM {TimeUS : 58834790, Roll : -1.48, Pitch : -16.42, Yaw : 58.34, Alt : 49.2900009155, Lat : 49.2836183, Lng : -123.1149162, Q1 : 0.865039408207, Q2 : 0.0584180168808, Q3 : -0.130975112319, Q4 : 0.480769902468}
2019-04-14 23:32:27.11: SIM {TimeUS : 58934750, Roll : -1.43, Pitch : -16.46, Yaw : 58.36, Alt : 49.2900009155, Lat : 49.2836201, Lng : -123.114912, Q1 : 0.864877164364, Q2 : 0.059020537883, Q3 : -0.131038978696, Q4 : 0.480970829725}
2019-04-14 23:32:27.21: SIM {TimeUS : 59034710, Roll : -1.23, Pitch : -16.52, Yaw : 58.12, Alt : 49.2900009155, Lat : 49.2836221, Lng : -123.1149077, Q1 : 0.865707695484, Q2 : 0.0605008713901, Q3 : -0.130784794688, Q4 : 0.479359120131}
2019-04-14 23:32:27.31: SIM {TimeUS : 59134670, Roll : -0.93, Pitch : -16.58, Yaw : 57.69, Alt : 49.2900009155, Lat : 49.2836241, Lng : -123.1149033, Q1 : 0.867276012897, Q2 : 0.0625069588423, Q3 : -0.130201727152, Q4 : 0.476416558027}
2019-04-14 23:32:27.41: SIM {TimeUS : 59234630, Roll : -0.57, Pitch : -16.63, Yaw : 57.15, Alt : 49.2900009155, Lat : 49.2836261, Lng : -123.1148989, Q1 : 0.869262874126, Q2 : 0.064809396863, Q3 : -0.12942121923, Q4 : 0.472685843706}
2019-04-14 23:32:27.52: SIM {TimeUS : 59335423, Roll : -0.2, Pitch : -16.67, Yaw : 56.57, Alt : 49.2900009155, Lat : 49.283628, Lng : -123.1148945, Q1 : 0.871385574341, Q2 : 0.0671569183469, Q3 : -0.128565818071, Q4 : 0.468666195869}
2019-04-14 23:32:27.61: SIM {TimeUS : 59435383, Roll : 0.12, Pitch : -16.71, Yaw : 56.03, Alt : 49.2900009155, Lat : 49.2836302, Lng : -123.11489, Q1 : 0.873362123966, Q2 : 0.0692306235433, Q3 : -0.127767801285, Q4 : 0.46488827467}
2019-04-14 23:32:27.71: SIM {TimeUS : 59535343, Roll : 0.4, Pitch : -16.73, Yaw : 55.57, Alt : 49.2900009155, Lat : 49.2836322, Lng : -123.1148855, Q1 : 0.875020027161, Q2 : 0.0708964467049, Q3 : -0.127121239901, Q4 : 0.461685925722}
2019-04-14 23:32:27.81: SIM {TimeUS : 59635303, Roll : 0.59, Pitch : -16.76, Yaw : 55.23, Alt : 49.2900009155, Lat : 49.2836342, Lng : -123.1148809, Q1 : 0.876229286194, Q2 : 0.0721170827746, Q3 : -0.126778319478, Q4 : 0.459291487932}
2019-04-14 23:32:27.91: SIM {TimeUS : 59735263, Roll : 0.68, Pitch : -16.79, Yaw : 55.03, Alt : 49.2900009155, Lat : 49.2836363, Lng : -123.1148763, Q1 : 0.876960277557, Q2 : 0.0727170109749, Q3 : -0.126763552427, Q4 : 0.457803338766}
2019-04-14 23:32:28.01: SIM {TimeUS : 59835223, Roll : 0.68, Pitch : -16.82, Yaw : 54.95, Alt : 49.2900009155, Lat : 49.2836384, Lng : -123.1148716, Q1 : 0.877220630646, Q2 : 0.0727728232741, Q3 : -0.127024754882, Q4 : 0.457222938538}
2019-04-14 23:32:28.11: SIM {TimeUS : 59935183, Roll : 0.61, Pitch : -16.86, Yaw : 54.99, Alt : 49.2900009155, Lat : 49.2836405, Lng : -123.114867, Q1 : 0.877068281174, Q2 : 0.0723702758551, Q3 : -0.127625018358, Q4 : 0.457411944866}
2019-04-14 23:32:28.21: SIM {TimeUS : 60035143, Roll : 0.47, Pitch : -16.91, Yaw : 55.12, Alt : 49.2999992371, Lat : 49.2836426, Lng : -123.1148622, Q1 : 0.87659150362, Q2 : 0.0716840028763, Q3 : -0.128475919366, Q4 : 0.458195060492}
2019-04-14 23:32:28.31: SIM {TimeUS : 60135103, Roll : 0.3, Pitch : -16.95, Yaw : 55.3, Alt : 49.2999992371, Lat : 49.2836445, Lng : -123.1148575, Q1 : 0.875912368298, Q2 : 0.0707697793841, Q3 : -0.129387274384, Q4 : 0.459378004074}
2019-04-14 23:32:28.41: SIM {TimeUS : 60235063, Roll : 0.12, Pitch : -16.98, Yaw : 55.51, Alt : 49.2999992371, Lat : 49.2836468, Lng : -123.1148527, Q1 : 0.875156164169, Q2 : 0.0697486996651, Q3 : -0.130173146725, Q4 : 0.46075129509}
2019-04-14 23:32:28.51: SIM {TimeUS : 60335023, Roll : -0.03, Pitch : -17.01, Yaw : 55.71, Alt : 49.2999992371, Lat : 49.2836488, Lng : -123.1148479, Q1 : 0.874405026436, Q2 : 0.0688185915351, Q3 : -0.130918964744, Q4 : 0.462104022503}
2019-04-14 23:32:28.61: SIM {TimeUS : 60434983, Roll : -0.15, Pitch : -17.04, Yaw : 55.89, Alt : 49.2999992371, Lat : 49.283651, Lng : -123.114843, Q1 : 0.873724222183, Q2 : 0.0682583302259, Q3 : -0.13156670332, Q4 : 0.463289380074}
2019-04-14 23:32:28.71: SIM {TimeUS : 60534943, Roll : -0.22, Pitch : -17.08, Yaw : 56.02, Alt : 49.2999992371, Lat : 49.283653, Lng : -123.1148381, Q1 : 0.873191952705, Q2 : 0.0680208131671, Q3 : -0.1320489645, Q4 : 0.464189708233}
2019-04-14 23:32:28.81: SIM {TimeUS : 60634903, Roll : -0.24, Pitch : -17.12, Yaw : 56.1, Alt : 49.2999992371, Lat : 49.2836553, Lng : -123.1148333, Q1 : 0.872834324837, Q2 : 0.0681477189064, Q3 : -0.132402762771, Q4 : 0.464742541313}
2019-04-14 23:32:28.91: SIM {TimeUS : 60734863, Roll : -0.22, Pitch : -17.17, Yaw : 56.12, Alt : 49.2999992371, Lat : 49.2836574, Lng : -123.1148283, Q1 : 0.872672021389, Q2 : 0.0685061961412, Q3 : -0.132662549615, Q4 : 0.46492049098}
2019-04-14 23:32:29.01: SIM {TimeUS : 60834823, Roll : -0.18, Pitch : -17.21, Yaw : 56.1, Alt : 49.2999992371, Lat : 49.2836597, Lng : -123.1148234, Q1 : 0.872696518898, Q2 : 0.0689616203308, Q3 : -0.132887870073, Q4 : 0.464742839336}
2019-04-14 23:32:29.11: SIM {TimeUS : 60934783, Roll : -0.14, Pitch : -17.25, Yaw : 56.03, Alt : 49.2999992371, Lat : 49.2836618, Lng : -123.1148184, Q1 : 0.872904598713, Q2 : 0.0693295672536, Q3 : -0.133004233241, Q4 : 0.464263856411}
2019-04-14 23:32:29.21: SIM {TimeUS : 61034743, Roll : -0.1, Pitch : -17.26, Yaw : 55.94, Alt : 49.3100013733, Lat : 49.283664, Lng : -123.1148135, Q1 : 0.873255074024, Q2 : 0.0695569515228, Q3 : -0.133000031114, Q4 : 0.463571339846}
2019-04-14 23:32:29.31: SIM {TimeUS : 61134703, Roll : -0.05, Pitch : -17.26, Yaw : 55.82, Alt : 49.3100013733, Lat : 49.2836663, Lng : -123.1148085, Q1 : 0.873670995235, Q2 : 0.0698470473289, Q3 : -0.132819324732, Q4 : 0.462795197964}
2019-04-14 23:32:29.41: SIM {TimeUS : 61234663, Roll : 0.01, Pitch : -17.26, Yaw : 55.71, Alt : 49.3100013733, Lat : 49.2836685, Lng : -123.1148035, Q1 : 0.874083340168, Q2 : 0.0702467337251, Q3 : -0.132620662451, Q4 : 0.462012410164}
2019-04-14 23:32:29.51: SIM {TimeUS : 61334623, Roll : 0.1, Pitch : -17.29, Yaw : 55.61, Alt : 49.3100013733, Lat : 49.2836706, Lng : -123.1147984, Q1 : 0.874421775341, Q2 : 0.0708909034729, Q3 : -0.132550820708, Q4 : 0.461293041706}
2019-04-14 23:32:29.62: SIM {TimeUS : 61435416, Roll : 0.18, Pitch : -17.34, Yaw : 55.52, Alt : 49.3100013733, Lat : 49.283673, Lng : -123.1147933, Q1 : 0.874664127827, Q2 : 0.0716253221035, Q3 : -0.132739648223, Q4 : 0.460665494204}
2019-04-14 23:32:29.71: SIM {TimeUS : 61535376, Roll : 0.22, Pitch : -17.37, Yaw : 55.45, Alt : 49.3100013733, Lat : 49.2836752, Lng : -123.1147883, Q1 : 0.874873399734, Q2 : 0.0720141604543, Q3 : -0.132829725742, Q4 : 0.460181236267}
2019-04-14 23:32:29.81: SIM {TimeUS : 61635336, Roll : 0.24, Pitch : -17.37, Yaw : 55.4, Alt : 49.3100013733, Lat : 49.2836774, Lng : -123.1147832, Q1 : 0.875052154064, Q2 : 0.0720575898886, Q3 : -0.132751315832, Q4 : 0.459857016802}
2019-04-14 23:32:29.91: SIM {TimeUS : 61735296, Roll : 0.21, Pitch : -17.37, Yaw : 55.38, Alt : 49.3100013733, Lat : 49.2836797, Lng : -123.1147781, Q1 : 0.875153362751, Q2 : 0.0718739554286, Q3 : -0.132904559374, Q4 : 0.459648907185}
2019-04-14 23:32:30.01: SIM {TimeUS : 61835256, Roll : 0.17, Pitch : -17.41, Yaw : 55.38, Alt : 49.3100013733, Lat : 49.283682, Lng : -123.1147729, Q1 : 0.875162422657, Q2 : 0.071681343019, Q3 : -0.13331130147, Q4 : 0.459543883801}
2019-04-14 23:32:30.11: SIM {TimeUS : 61935216, Roll : 0.14, Pitch : -17.44, Yaw : 55.38, Alt : 49.3100013733, Lat : 49.2836843, Lng : -123.1147678, Q1 : 0.875111818314, Q2 : 0.0716058164835, Q3 : -0.133674517274, Q4 : 0.459546625614}
2019-04-14 23:32:30.21: SIM {TimeUS : 62035176, Roll : 0.12, Pitch : -17.47, Yaw : 55.4, Alt : 49.3100013733, Lat : 49.2836865, Lng : -123.1147626, Q1 : 0.875021994114, Q2 : 0.071550488472, Q3 : -0.134035676718, Q4 : 0.459621042013}
2019-04-14 23:32:30.31: SIM {TimeUS : 62135136, Roll : 0.1, Pitch : -17.5, Yaw : 55.42, Alt : 49.3100013733, Lat : 49.2836888, Lng : -123.1147575, Q1 : 0.874918520451, Q2 : 0.0715235546231, Q3 : -0.134289309382, Q4 : 0.45974817872}
2019-04-14 23:32:30.41: SIM {TimeUS : 62235096, Roll : 0.08, Pitch : -17.52, Yaw : 55.44, Alt : 49.3199996948, Lat : 49.2836912, Lng : -123.1147523, Q1 : 0.87481880188, Q2 : 0.0715289413929, Q3 : -0.134488254786, Q4 : 0.459878921509}
2019-04-14 23:32:30.51: SIM {TimeUS : 62335056, Roll : 0.08, Pitch : -17.53, Yaw : 55.46, Alt : 49.3199996948, Lat : 49.2836935, Lng : -123.1147471, Q1 : 0.874743402004, Q2 : 0.0715704262257, Q3 : -0.13457891345, Q4 : 0.459989398718}
2019-04-14 23:32:30.61: SIM {TimeUS : 62435016, Roll : 0.09, Pitch : -17.55, Yaw : 55.47, Alt : 49.3199996948, Lat : 49.2836957, Lng : -123.1147419, Q1 : 0.874680638313, Q2 : 0.0717045366764, Q3 : -0.134699076414, Q4 : 0.460052698851}
2019-04-14 23:32:30.71: SIM {TimeUS : 62534976, Roll : 0.1, Pitch : -17.57, Yaw : 55.47, Alt : 49.3199996948, Lat : 49.283698, Lng : -123.1147367, Q1 : 0.874653458595, Q2 : 0.0718753784895, Q3 : -0.134808957577, Q4 : 0.460045456886}
2019-04-14 23:32:30.81: SIM {TimeUS : 62634936, Roll : 0.1, Pitch : -17.6, Yaw : 55.45, Alt : 49.3199996948, Lat : 49.2837004, Lng : -123.1147315, Q1 : 0.874659657478, Q2 : 0.0719924718142, Q3 : -0.13508169353, Q4 : 0.45993539691}
2019-04-14 23:32:30.91: SIM {TimeUS : 62734896, Roll : 0.07, Pitch : -17.65, Yaw : 55.43, Alt : 49.3199996948, Lat : 49.2837027, Lng : -123.1147262, Q1 : 0.87469804287, Q2 : 0.072001375258, Q3 : -0.135559126735, Q4 : 0.459720432758}
2019-04-14 23:32:31.01: SIM {TimeUS : 62834856, Roll : 0.07, Pitch : -17.71, Yaw : 55.41, Alt : 49.3199996948, Lat : 49.283705, Lng : -123.114721, Q1 : 0.87474668026, Q2 : 0.0721251741052, Q3 : -0.136011570692, Q4 : 0.459474682808}
2019-04-14 23:32:31.11: SIM {TimeUS : 62934816, Roll : 0.09, Pitch : -17.74, Yaw : 55.38, Alt : 49.3199996948, Lat : 49.2837074, Lng : -123.1147157, Q1 : 0.874809801579, Q2 : 0.0724336653948, Q3 : -0.13620737195, Q4 : 0.459248036146}
2019-04-14 23:32:31.21: SIM {TimeUS : 63034776, Roll : 0.13, Pitch : -17.74, Yaw : 55.34, Alt : 49.3199996948, Lat : 49.2837096, Lng : -123.1147104, Q1 : 0.874917864799, Q2 : 0.0726498290896, Q3 : -0.136088266969, Q4 : 0.459043323994}
2019-04-14 23:32:31.31: SIM {TimeUS : 63134736, Roll : 0.16, Pitch : -17.72, Yaw : 55.31, Alt : 49.3199996948, Lat : 49.283712, Lng : -123.1147051, Q1 : 0.875058531761, Q2 : 0.0727295577526, Q3 : -0.135780140758, Q4 : 0.458853811026}
2019-04-14 23:32:31.41: SIM {TimeUS : 63234696, Roll : 0.15, Pitch : -17.69, Yaw : 55.28, Alt : 49.3199996948, Lat : 49.2837144, Lng : -123.1146998, Q1 : 0.875202775002, Q2 : 0.0725776702166, Q3 : -0.135621905327, Q4 : 0.458649486303}
2019-04-14 23:32:31.51: SIM {TimeUS : 63334656, Roll : 0.15, Pitch : -17.67, Yaw : 55.26, Alt : 49.3199996948, Lat : 49.2837168, Lng : -123.1146945, Q1 : 0.875337898731, Q2 : 0.0724244937301, Q3 : -0.135488644242, Q4 : 0.458455145359}
2019-04-14 23:32:31.61: SIM {TimeUS : 63434616, Roll : 0.15, Pitch : -17.65, Yaw : 55.23, Alt : 49.3199996948, Lat : 49.2837192, Lng : -123.1146892, Q1 : 0.875450313091, Q2 : 0.0723188892007, Q3 : -0.135399878025, Q4 : 0.45828333497}
2019-04-14 23:32:31.71: SIM {TimeUS : 63535409, Roll : 0.14, Pitch : -17.67, Yaw : 55.21, Alt : 49.3199996948, Lat : 49.2837215, Lng : -123.1146838, Q1 : 0.875520646572, Q2 : 0.0723018422723, Q3 : -0.135522812605, Q4 : 0.458115309477}
2019-04-14 23:32:31.81: SIM {TimeUS : 63635369, Roll : 0.14, Pitch : -17.7, Yaw : 55.2, Alt : 49.3199996948, Lat : 49.2837239, Lng : -123.1146784, Q1 : 0.875550568104, Q2 : 0.0724138319492, Q3 : -0.135777041316, Q4 : 0.457965165377}
2019-04-14 23:32:31.91: SIM {TimeUS : 63735329, Roll : 0.14, Pitch : -17.75, Yaw : 55.18, Alt : 49.3300018311, Lat : 49.2837263, Lng : -123.1146731, Q1 : 0.875540316105, Q2 : 0.0725709497929, Q3 : -0.136227488518, Q4 : 0.457826137543}
2019-04-14 23:32:32.01: SIM {TimeUS : 63835289, Roll : 0.13, Pitch : -17.81, Yaw : 55.17, Alt : 49.3300018311, Lat : 49.2837287, Lng : -123.1146677, Q1 : 0.875510275364, Q2 : 0.0727773010731, Q3 : -0.136699661613, Q4 : 0.45770996809}
2019-04-14 23:32:32.11: SIM {TimeUS : 63935249, Roll : 0.13, Pitch : -17.85, Yaw : 55.17, Alt : 49.3300018311, Lat : 49.2837309, Lng : -123.1146624, Q1 : 0.875495553017, Q2 : 0.0729166269302, Q3 : -0.136953935027, Q4 : 0.457639932632}
2019-04-14 23:32:32.21: SIM {TimeUS : 64035209, Roll : 0.12, Pitch : -17.88, Yaw : 55.16, Alt : 49.3300018311, Lat : 49.2837333, Lng : -123.114657, Q1 : 0.875489354134, Q2 : 0.072952516377, Q3 : -0.137227803469, Q4 : 0.457564115524}
2019-04-14 23:32:32.31: SIM {TimeUS : 64135169, Roll : 0.11, Pitch : -17.9, Yaw : 55.15, Alt : 49.3300018311, Lat : 49.2837357, Lng : -123.1146515, Q1 : 0.875498235226, Q2 : 0.0729316025972, Q3 : -0.137438192964, Q4 : 0.457487314939}
2019-04-14 23:32:32.41: SIM {TimeUS : 64235129, Roll : 0.12, Pitch : -17.89, Yaw : 55.15, Alt : 49.3300018311, Lat : 49.2837381, Lng : -123.1146462, Q1 : 0.875532865524, Q2 : 0.0729433298111, Q3 : -0.137344762683, Q4 : 0.457447171211}
2019-04-14 23:32:32.51: SIM {TimeUS : 64335089, Roll : 0.14, Pitch : -17.89, Yaw : 55.14, Alt : 49.3300018311, Lat : 49.2837405, Lng : -123.1146408, Q1 : 0.875557005405, Q2 : 0.0731030106544, Q3 : -0.137284472585, Q4 : 0.457393527031}
2019-04-14 23:32:32.61: SIM {TimeUS : 64435049, Roll : 0.15, Pitch : -17.9, Yaw : 55.13, Alt : 49.3300018311, Lat : 49.283743, Lng : -123.1146354, Q1 : 0.87557810545, Q2 : 0.0732378289104, Q3 : -0.137340247631, Q4 : 0.457314878702}
2019-04-14 23:32:32.71: SIM {TimeUS : 64535009, Roll : 0.17, Pitch : -17.91, Yaw : 55.12, Alt : 49.3300018311, Lat : 49.2837454, Lng : -123.11463, Q1 : 0.875602781773, Q2 : 0.0733614936471, Q3 : -0.137367740273, Q4 : 0.457239568233}
2019-04-14 23:32:32.81: SIM {TimeUS : 64634969, Roll : 0.18, Pitch : -17.91, Yaw : 55.1, Alt : 49.3300018311, Lat : 49.2837478, Lng : -123.1146246, Q1 : 0.875644981861, Q2 : 0.073474176228, Q3 : -0.137304514647, Q4 : 0.457159638405}
2019-04-14 23:32:32.91: SIM {TimeUS : 64734929, Roll : 0.19, Pitch : -17.91, Yaw : 55.09, Alt : 49.3300018311, Lat : 49.2837503, Lng : -123.1146192, Q1 : 0.875697135925, Q2 : 0.0734990388155, Q3 : -0.137282505631, Q4 : 0.457062333822}
2019-04-14 23:32:33.01: SIM {TimeUS : 64834889, Roll : 0.17, Pitch : -17.93, Yaw : 55.07, Alt : 49.3300018311, Lat : 49.2837527, Lng : -123.1146138, Q1 : 0.875739574432, Q2 : 0.0734298676252, Q3 : -0.13751360774, Q4 : 0.45692256093}
2019-04-14 23:32:33.11: SIM {TimeUS : 64934849, Roll : 0.14, Pitch : -17.97, Yaw : 55.06, Alt : 49.3300018311, Lat : 49.2837551, Lng : -123.1146083, Q1 : 0.875771045685, Q2 : 0.0733160674572, Q3 : -0.137923881412, Q4 : 0.45675688982}
2019-04-14 23:32:33.21: SIM {TimeUS : 65034809, Roll : 0.12, Pitch : -17.97, Yaw : 55.05, Alt : 49.3300018311, Lat : 49.2837575, Lng : -123.1146029, Q1 : 0.875832915306, Q2 : 0.0731688067317, Q3 : -0.138035714626, Q4 : 0.45662805438}
2019-04-14 23:32:33.31: SIM {TimeUS : 65134769, Roll : 0.13, Pitch : -17.96, Yaw : 55.03, Alt : 49.3300018311, Lat : 49.2837599, Lng : -123.1145974, Q1 : 0.875896036625, Q2 : 0.0731334835291, Q3 : -0.13792912662, Q4 : 0.456544786692}
2019-04-14 23:32:33.41: SIM {TimeUS : 65234729, Roll : 0.15, Pitch : -17.95, Yaw : 55.02, Alt : 49.3400001526, Lat : 49.2837624, Lng : -123.1145919, Q1 : 0.875947773457, Q2 : 0.0732206329703, Q3 : -0.137765914202, Q4 : 0.456480950117}
2019-04-14 23:32:33.51: SIM {TimeUS : 65334689, Roll : 0.17, Pitch : -17.96, Yaw : 55.01, Alt : 49.3400001526, Lat : 49.2837648, Lng : -123.1145865, Q1 : 0.875970244408, Q2 : 0.0734004303813, Q3 : -0.137783244252, Q4 : 0.456403672695}
2019-04-14 23:32:33.61: SIM {TimeUS : 65434649, Roll : 0.16, Pitch : -17.98, Yaw : 55.0, Alt : 49.3400001526, Lat : 49.2837673, Lng : -123.114581, Q1 : 0.875982344151, Q2 : 0.0734686627984, Q3 : -0.137990787625, Q4 : 0.45630672574}
2019-04-14 23:32:33.72: SIM {TimeUS : 65535442, Roll : 0.14, Pitch : -18.01, Yaw : 54.99, Alt : 49.3400001526, Lat : 49.2837697, Lng : -123.1145755, Q1 : 0.876002967358, Q2 : 0.0733819827437, Q3 : -0.138275131583, Q4 : 0.456195026636}
2019-04-14 23:32:33.81: SIM {TimeUS : 65635402, Roll : 0.13, Pitch : -18.02, Yaw : 54.98, Alt : 49.3400001526, Lat : 49.2837721, Lng : -123.11457, Q1 : 0.876025080681, Q2 : 0.0733422487974, Q3 : -0.138449504972, Q4 : 0.456106036901}
2019-04-14 23:32:33.91: SIM {TimeUS : 65735362, Roll : 0.13, Pitch : -18.04, Yaw : 54.97, Alt : 49.3400001526, Lat : 49.2837746, Lng : -123.1145646, Q1 : 0.876042246819, Q2 : 0.0734360218048, Q3 : -0.138533040881, Q4 : 0.456032663584}
2019-04-14 23:32:34.01: SIM {TimeUS : 65835322, Roll : 0.15, Pitch : -18.05, Yaw : 54.96, Alt : 49.3400001526, Lat : 49.283777, Lng : -123.1145591, Q1 : 0.876057386398, Q2 : 0.0735611096025, Q3 : -0.138573512435, Q4 : 0.455971062183}
2019-04-14 23:32:34.11: SIM {TimeUS : 65935282, Roll : 0.17, Pitch : -18.06, Yaw : 54.96, Alt : 49.3400001526, Lat : 49.2837794, Lng : -123.1145536, Q1 : 0.87606459856, Q2 : 0.0737494006753, Q3 : -0.138567581773, Q4 : 0.455928653479}
2019-04-14 23:32:34.21: SIM {TimeUS : 66035242, Roll : 0.18, Pitch : -18.07, Yaw : 54.95, Alt : 49.3400001526, Lat : 49.2837819, Lng : -123.1145481, Q1 : 0.876067101955, Q2 : 0.0738805159926, Q3 : -0.13866224885, Q4 : 0.455873727798}
2019-04-14 23:32:34.31: SIM {TimeUS : 66135202, Roll : 0.19, Pitch : -18.09, Yaw : 54.94, Alt : 49.3400001526, Lat : 49.2837843, Lng : -123.1145426, Q1 : 0.876064479351, Q2 : 0.0740286558867, Q3 : -0.13877402246, Q4 : 0.455820769072}
2019-04-14 23:32:34.41: SIM {TimeUS : 66235162, Roll : 0.2, Pitch : -18.11, Yaw : 54.93, Alt : 49.3400001526, Lat : 49.2837867, Lng : -123.1145371, Q1 : 0.87605702877, Q2 : 0.0742108672857, Q3 : -0.138865277171, Q4 : 0.455777704716}
2019-04-14 23:32:34.51: SIM {TimeUS : 66335122, Roll : 0.23, Pitch : -18.13, Yaw : 54.93, Alt : 49.3400001526, Lat : 49.2837892, Lng : -123.1145316, Q1 : 0.876046597958, Q2 : 0.0744549334049, Q3 : -0.138871327043, Q4 : 0.455756098032}
2019-04-14 23:32:34.61: SIM {TimeUS : 66435082, Roll : 0.25, Pitch : -18.14, Yaw : 54.92, Alt : 49.3499984741, Lat : 49.2837917, Lng : -123.1145261, Q1 : 0.876036047935, Q2 : 0.0746936202049, Q3 : -0.138888388872, Q4 : 0.455732166767}
