2019-04-14 23:26:40.00: SIM {TimeUS : 40416327, Roll : 0.0, Pitch : 0.0, Yaw : 0.0, Alt : 30.1000003815, Lat : 49.28357, Lng : -123.11502, Q1 : 1.0, Q2 : 0.0, Q3 : 0.0, Q4 : 0.0}
2019-04-14 23:26:40.11: SIM {TimeUS : 40535446, Roll : 0.0, Pitch : 0.0, Yaw : 0.0, Alt : 30.1000003815, Lat : 49.28357, Lng : -123.11502, Q1 : 1.0, Q2 : 0.0, Q3 : 0.0, Q4 : 0.0}
2019-04-14 23:26:40.21: SIM {TimeUS : 40635406, Roll : 0.0, Pitch : 0.0, Yaw : 0.0, Alt : 30.1000003815, Lat : 49.28357, Lng : -123.11502, Q1 : 1.0, Q2 : 0.0, Q3 : 0.0, Q4 : 0.0}
2019-04-14 23:26:40.31: SIM {TimeUS : 40735366, Roll : 0.0, Pitch : 0.0, Yaw : 0.0, Alt : 30.1000003815, Lat : 49.28357, Lng : -123.11502, Q1 : 1.0, Q2 : 0.0, Q3 : 0.0, Q4 : 0.0}
2019-04-14 23:26:40.41: SIM {TimeUS : 40835326, Roll : 0.0, Pitch : 0.0, Yaw : 0.0, Alt : 30.1000003815, Lat : 49.28357, Lng : -123.11502, Q1 : 1.0, Q2 : 0.0, Q3 : 0.0, Q4 : 0.0}
2019-04-14 23:26:40.51: SIM {TimeUS : 40935286, Roll : 0.0, Pitch : 0.0, Yaw : 0.0, Alt : 30.1000003815, Lat : 49.28357, Lng : -123.11502, Q1 : 1.0, Q2 : 0.0, Q3 : 0.0, Q4 : 0.0}
2019-04-14 23:26:40.61: SIM {TimeUS : 41035246, Roll : 0.0, Pitch : 0.0, Yaw : 0.0, Alt : 30.1000003815, Lat : 49.28357, Lng : -123.11502, Q1 : 1.0, Q2 : 0.0, Q3 : 0.0, Q4 : 0.0}
2019-04-14 23:26:40.71: SIM {TimeUS : 41135206, Roll : 0.0, Pitch : 0.0, Yaw : 0.0, Alt : 30.1000003815, Lat : 49.28357, Lng : -123.11502, Q1 : 1.0, Q2 : 0.0, Q3 : 0.0, Q4 : 0.0}
2019-04-14 23:26:40.81: SIM {TimeUS : 41235166, Roll : 0.0, Pitch : 0.0, Yaw : 0.0, Alt : 30.1000003815, Lat : 49.28357, Lng : -123.11502, Q1 : 1.0, Q2 : 0.0, Q3 : 0.0, Q4 : 0.0}
2019-04-14 23:26:40.91: SIM {TimeUS : 41335126, Roll : 0.0, Pitch : 0.0, Yaw : 0.0, Alt : 30.1000003815, Lat : 49.28357, Lng : -123.11502, Q1 : 1.0, Q2 : 0.0, Q3 : 0.0, Q4 : 0.0}
2019-04-14 23:26:41.01: SIM {TimeUS : 41435086, Roll : 0.0, Pitch : 0.0, Yaw : 0.0, Alt : 30.1000003815, Lat : 49.28357, Lng : -123.11502, Q1 : 1.0, Q2 : 0.0, Q3 : 0.0, Q4 : 0.0}
2019-04-14 23:26:41.11: SIM {TimeUS : 41535046, Roll : 0.0, Pitch : 0.0, Yaw : 0.0, Alt : 30.1000003815, Lat : 49.28357, Lng : -123.11502, Q1 : 1.0, Q2 : 0.0, Q3 : 0.0, Q4 : 0.0}
2019-04-14 23:26:41.21: SIM {TimeUS : 41635006, Roll : 0.0, Pitch : 0.0, Yaw : 0.0, Alt : 30.1000003815, Lat : 49.28357, Lng : -123.11502, Q1 : 1.0, Q2 : 0.0, Q3 : 0.0, Q4 : 0.0}
2019-04-14 23:26:41.31: SIM {TimeUS : 41734966, Roll : 0.0, Pitch : 0.0, Yaw : 0.0, Alt : 30.1000003815, Lat : 49.28357, Lng : -123.11502, Q1 : 1.0, Q2 : 0.0, Q3 : 0.0, Q4 : 0.0}
2019-04-14 23:26:41.41: SIM {TimeUS : 41834926, Roll : 0.0, Pitch : 0.0, Yaw : 0.0, Alt : 30.1000003815, Lat : 49.28357, Lng : -123.11502, Q1 : 1.0, Q2 : 0.0, Q3 : 0.0, Q4 : 0.0}
2019-04-14 23:26:41.51: SIM {TimeUS : 41934886, Roll : 0.0, Pitch : 0.0, Yaw : 0.0, Alt : 30.1000003815, Lat : 49.28357, Lng : -123.11502, Q1 : 1.0, Q2 : 0.0, Q3 : 0.0, Q4 : 0.0}
2019-04-14 23:26:41.61: SIM {TimeUS : 42034846, Roll : 0.0, Pitch : 0.0, Yaw : 0.0, Alt : 30.1000003815, Lat : 49.28357, Lng : -123.11502, Q1 : 1.0, Q2 : 0.0, Q3 : 0.0, Q4 : 0.0}
2019-04-14 23:26:41.71: SIM {TimeUS : 42134806, Roll : 0.0, Pitch : 0.0, Yaw : 0.0, Alt : 30.1000003815, Lat : 49.28357, Lng : -123.11502, Q1 : 1.0, Q2 : 0.0, Q3 : 0.0, Q4 : 0.0}
2019-04-14 23:26:41.81: SIM {TimeUS : 42234766, Roll : 0.0, Pitch : 0.0, Yaw : 0.0, Alt : 30.1000003815, Lat : 49.28357, Lng : -123.11502, Q1 : 1.0, Q2 : 0.0, Q3 : 0.0, Q4 : 0.0}
2019-04-14 23:26:41.91: SIM {TimeUS : 42334726, Roll : 0.0, Pitch : 0.0, Yaw : 0.0, Alt : 30.1000003815, Lat : 49.28357, Lng : -123.11502, Q1 : 1.0, Q2 : 0.0, Q3 : 0.0, Q4 : 0.0}
2019-04-14 23:26:42.01: SIM {TimeUS : 42434686, Roll : 0.0, Pitch : 0.0, Yaw : 0.0, Alt : 30.1000003815, Lat : 49.28357, Lng : -123.11502, Q1 : 1.0, Q2 : 0.0, Q3 : 0.0, Q4 : 0.0}
2019-04-14 23:26:42.11: SIM {TimeUS : 42535479, Roll : 0.0, Pitch : 0.0, Yaw : 0.0, Alt : 30.1000003815, Lat : 49.28357, Lng : -123.11502, Q1 : 1.0, Q2 : 0.0, Q3 : 0.0, Q4 : 0.0}
2019-04-14 23:26:42.21: SIM {TimeUS : 42635439, Roll : 0.0, Pitch : 0.0, Yaw : 0.0, Alt : 30.1000003815, Lat : 49.28357, Lng : -123.11502, Q1 : 1.0, Q2 : 0.0, Q3 : 0.0, Q4 : 0.0}
2019-04-14 23:26:42.31: SIM {TimeUS : 42735399, Roll : 0.0, Pitch : 0.0, Yaw : 0.0, Alt : 30.1000003815, Lat : 49.28357, Lng : -123.11502, Q1 : 1.0, Q2 : 0.0, Q3 : 0.0, Q4 : 6.82903594784e-11}
2019-04-14 23:26:42.41: SIM {TimeUS : 42835359, Roll : 0.0, Pitch : 0.0, Yaw : 0.0, Alt : 30.1000003815, Lat : 49.28357, Lng : -123.11502, Q1 : 1.0, Q2 : 0.0, Q3 : 0.0, Q4 : 2.50326148699e-10}
2019-04-14 23:26:42.51: SIM {TimeUS : 42935319, Roll : 0.0, Pitch : 0.0, Yaw : 359.99, Alt : 30.1000003815, Lat : 49.28357, Lng : -123.11502, Q1 : 1.0, Q2 : 0.0, Q3 : 0.0, Q4 : -1.85517620821e-07}
2019-04-14 23:26:42.61: SIM {TimeUS : 43035279, Roll : 0.0, Pitch : 0.0, Yaw : 359.99, Alt : 30.1000003815, Lat : 49.28357, Lng : -123.11502, Q1 : 1.0, Q2 : 0.0, Q3 : 0.0, Q4 : -3.89423973957e-07}
2019-04-14 23:26:42.71: SIM {TimeUS : 43135239, Roll : 0.0, Pitch : 0.0, Yaw : 359.99, Alt : 30.1000003815, Lat : 49.28357, Lng : -123.11502, Q1 : 1.0, Q2 : 0.0, Q3 : 0.0, Q4 : -6.06902574418e-07}
2019-04-14 23:26:42.81: SIM {TimeUS : 43235199, Roll : 0.0, Pitch : 0.0, Yaw : 359.99, Alt : 30.1000003815, Lat : 49.28357, Lng : -123.11502, Q1 : 1.0, Q2 : 0.0, Q3 : 0.0, Q4 : -8.08082063486e-07}
2019-04-14 23:26:42.91: SIM {TimeUS : 43335159, Roll : 0.0, Pitch : 0.0, Yaw : 359.99, Alt : 30.1000003815, Lat : 49.28357, Lng : -123.11502, Q1 : 1.0, Q2 : 0.0, Q3 : 0.0, Q4 : -1.02473563857e-06}
2019-04-14 23:26:43.01: SIM {TimeUS : 43435119, Roll : 0.0, Pitch : 0.0, Yaw : 359.99, Alt : 30.1000003815, Lat : 49.28357, Lng : -123.11502, Q1 : 1.0, Q2 : 0.0, Q3 : 0.0, Q4 : -1.25368796944e-06}
2019-04-14 23:26:43.11: SIM {TimeUS : 43535079, Roll : 0.0, Pitch : 0.0, Yaw : 359.99, Alt : 30.1000003815, Lat : 49.28357, Lng : -123.11502, Q1 : 1.0, Q2 : 0.0, Q3 : 0.0, Q4 : -1.47588195887e-06}
2019-04-14 23:26:43.21: SIM {TimeUS : 43635039, Roll : 0.0, Pitch : 0.0, Yaw : 359.99, Alt : 30.1100006104, Lat : 49.28357, Lng : -123.11502, Q1 : 1.0, Q2 : 0.0, Q3 : 0.0, Q4 : -1.66192819506e-06}
2019-04-14 23:26:43.31: SIM {TimeUS : 43734999, Roll : 0.0, Pitch : 0.0, Yaw : 359.99, Alt : 30.1399993896, Lat : 49.28357, Lng : -123.11502, Q1 : 1.0, Q2 : 0.0, Q3 : 0.0, Q4 : -1.85719045476e-06}
2019-04-14 23:26:43.41: SIM {TimeUS : 43834959, Roll : 0.0, Pitch : 0.0, Yaw : 359.99, Alt : 30.1700000763, Lat : 49.28357, Lng : -123.11502, Q1 : 1.0, Q2 : 0.0, Q3 : 0.0, Q4 : -2.06529239222e-06}
2019-04-14 23:26:43.51: SIM {TimeUS : 43934919, Roll : 0.0, Pitch : 0.0, Yaw : 359.99, Alt : 30.2000007629, Lat : 49.28357, Lng : -123.11502, Q1 : 1.0, Q2 : 0.0, Q3 : 0.0, Q4 : -2.2718704713e-06}
2019-04-14 23:26:43.61: SIM {TimeUS : 44034879, Roll : -0.1, Pitch : -0.09, Yaw : 359.99, Alt : 30.25, Lat : 49.28357, Lng : -123.11502, Q1 : 0.999999284744, Q2 : -0.000897193676792, Q3 : -0.00081119814422, Q4 : -1.08008498501e-05}
2019-04-14 23:26:43.71: SIM {TimeUS : 44134839, Roll : -0.4, Pitch : -0.36, Yaw : 359.99, Alt : 30.3500003815, Lat : 49.28357, Lng : -123.11502, Q1 : 0.999988496304, Q2 : -0.00357453315519, Q3 : -0.00320072332397, Q4 : -4.20178330387e-05}
2019-04-14 23:26:43.81: SIM {TimeUS : 44234799, Roll : -0.72, Pitch : -0.63, Yaw : 359.99, Alt : 30.4899997711, Lat : 49.28357, Lng : -123.11502, Q1 : 0.99996471405, Q2 : -0.00630592741072, Q3 : -0.00555303366855, Q4 : -0.000103691127151}
2019-04-14 23:26:43.91: SIM {TimeUS : 44334759, Roll : -0.89, Pitch : -0.77, Yaw : 359.98, Alt : 30.6499996185, Lat : 49.28357, Lng : -123.11502, Q1 : 0.999946892262, Q2 : -0.00776823982596, Q3 : -0.00677076913416, Q4 : -0.000182186689926}
2019-04-14 23:26:44.01: SIM {TimeUS : 44434719, Roll : -0.86, Pitch : -0.77, Yaw : 359.97, Alt : 30.8099994659, Lat : 49.28357, Lng : -123.11502, Q1 : 0.99994879961, Q2 : -0.00753902317956, Q3 : -0.00674351863563, Q4 : -0.000267905532382}
2019-04-14 23:26:44.11: SIM {TimeUS : 44534679, Roll : -0.7, Pitch : -0.63, Yaw : 359.96, Alt : 30.9599990845, Lat : 49.28357, Lng : -123.1150201, Q1 : 0.999965548515, Q2 : -0.00613720947877, Q3 : -0.00558167649433, Q4 : -0.000351591093931}
2019-04-14 23:26:44.21: SIM {TimeUS : 44635472, Roll : -0.48, Pitch : -0.43, Yaw : 359.95, Alt : 31.1200008392, Lat : 49.2835701, Lng : -123.1150202, Q1 : 0.999983906746, Q2 : -0.00422395020723, Q3 : -0.003757186234, Q4 : -0.000425229314715}
2019-04-14 23:26:44.31: SIM {TimeUS : 44735432, Roll : -0.26, Pitch : -0.22, Yaw : 359.94, Alt : 31.2800006866, Lat : 49.2835701, Lng : -123.1150203, Q1 : 0.999995350838, Q2 : -0.0022984908428, Q3 : -0.00195243884809, Q4 : -0.00048569572391}
2019-04-14 23:26:44.41: SIM {TimeUS : 44835392, Roll : -0.07, Pitch : -0.06, Yaw : 359.93, Alt : 31.4400005341, Lat : 49.2835702, Lng : -123.1150203, Q1 : 0.999999463558, Q2 : -0.000690886168741, Q3 : -0.000567734590732, Q4 : -0.000531556725036}
2019-04-14 23:26:44.51: SIM {TimeUS : 44935352, Roll : 0.03, Pitch : 0.02, Yaw : 359.93, Alt : 31.6200008392, Lat : 49.2835702, Lng : -123.1150204, Q1 : 0.999999761581, Q2 : 0.000346646644175, Q3 : 0.00021890278731, Q4 : -0.000561809167266}
2019-04-14 23:26:44.61: SIM {TimeUS : 45035312, Roll : 0.09, Pitch : 0.05, Yaw : 359.93, Alt : 31.7999992371, Lat : 49.2835703, Lng : -123.1150205, Q1 : 0.999999344349, Q2 : 0.000843800371513, Q3 : 0.000464163604192, Q4 : -0.000564963091165}
2019-04-14 23:26:44.71: SIM {TimeUS : 45135272, Roll : 0.11, Pitch : 0.04, Yaw : 359.93, Alt : 31.9799995422, Lat : 49.2835703, Lng : -123.1150206, Q1 : 0.999999284744, Q2 : 0.000986243481748, Q3 : 0.000378247030312, Q4 : -0.000543219211977}
2019-04-14 23:26:44.81: SIM {TimeUS : 45235232, Roll : 0.1, Pitch : 0.03, Yaw : 359.94, Alt : 32.1699981689, Lat : 49.2835703, Lng : -123.1150206, Q1 : 0.999999403954, Q2 : 0.000926217995584, Q3 : 0.000292546872515, Q4 : -0.000507354503497}
2019-04-14 23:26:44.91: SIM {TimeUS : 45335192, Roll : 0.09, Pitch : 0.04, Yaw : 359.94, Alt : 32.3600006104, Lat : 49.2835703, Lng : -123.1150207, Q1 : 0.999999523163, Q2 : 0.000797548505943, Q3 : 0.000353808747604, Q4 : -0.000465371587779}
2019-04-14 23:26:45.01: SIM {TimeUS : 45435152, Roll : 0.06, Pitch : 0.08, Yaw : 359.94, Alt : 32.5499992371, Lat : 49.2835703, Lng : -123.1150207, Q1 : 0.999999463558, Q2 : 0.000572673685383, Q3 : 0.000715850736015, Q4 : -0.000445241632406}
2019-04-14 23:26:45.11: SIM {TimeUS : 45535112, Roll : 0.07, Pitch : 0.13, Yaw : 359.95, Alt : 32.75, Lat : 49.2835703, Lng : -123.1150208, Q1 : 0.999998986721, Q2 : 0.000629981106613, Q3 : 0.00117894262075, Q4 : -0.000435451191152}
2019-04-14 23:26:45.21: SIM {TimeUS : 45635072, Roll : 0.1, Pitch : 0.17, Yaw : 359.94, Alt : 32.9500007629, Lat : 49.2835704, Lng : -123.1150208, Q1 : 0.99999833107, Q2 : 0.000923632236663, Q3 : 0.00152050075121, Q4 : -0.000440467701992}
2019-04-14 23:26:45.31: SIM {TimeUS : 45735032, Roll : 0.14, Pitch : 0.2, Yaw : 359.94, Alt : 33.1500015259, Lat : 49.2835704, Lng : -123.1150208, Q1 : 0.999997615814, Q2 : 0.00123084045481, Q3 : 0.00175984494854, Q4 : -0.000447017460829}
2019-04-14 23:26:45.41: SIM {TimeUS : 45834992, Roll : 0.15, Pitch : 0.21, Yaw : 359.94, Alt : 33.3499984741, Lat : 49.2835704, Lng : -123.1150208, Q1 : 0.999997198582, Q2 : 0.00134646217339, Q3 : 0.00189717952162, Q4 : -0.000452456413768}
2019-04-14 23:26:45.51: SIM {TimeUS : 45934952, Roll : 0.15, Pitch : 0.18, Yaw : 359.94, Alt : 33.5600013733, Lat : 49.2835704, Lng : -123.1150209, Q1 : 0.99999755621, Q2 : 0.00138914340641, Q3 : 0.00165308755822, Q4 : -0.000476852233987}
2019-04-14 23:26:45.61: SIM {TimeUS : 46034912, Roll : 0.15, Pitch : 0.14, Yaw : 359.94, Alt : 33.7599983215, Lat : 49.2835704, Lng : -123.1150209, Q1 : 0.999998092651, Q2 : 0.00138783780858, Q3 : 0.00128332606982, Q4 : -0.000509085075464}
2019-04-14 23:26:45.71: SIM {TimeUS : 46134872, Roll : 0.15, Pitch : 0.11, Yaw : 359.93, Alt : 33.9700012207, Lat : 49.2835704, Lng : -123.1150209, Q1 : 0.999998390675, Q2 : 0.00134690280538, Q3 : 0.0010316381231, Q4 : -0.000535760598723}
2019-04-14 23:26:45.81: SIM {TimeUS : 46234832, Roll : 0.15, Pitch : 0.1, Yaw : 359.93, Alt : 34.1800003052, Lat : 49.2835704, Lng : -123.1150209, Q1 : 0.999998569489, Q2 : 0.00132105592638, Q3 : 0.000890102703124, Q4 : -0.000563264999073}
2019-04-14 23:26:45.91: SIM {TimeUS : 46334792, Roll : 0.15, Pitch : 0.1, Yaw : 359.93, Alt : 34.3899993896, Lat : 49.2835704, Lng : -123.1150209, Q1 : 0.999998509884, Q2 : 0.00133911462035, Q3 : 0.000914048578124, Q4 : -0.000592308118939}
2019-04-14 23:26:46.01: SIM {TimeUS : 46434752, Roll : 0.14, Pitch : 0.09, Yaw : 359.92, Alt : 34.6100006104, Lat : 49.2835704, Lng : -123.1150209, Q1 : 0.999998748302, Q2 : 0.00123211729806, Q3 : 0.00078912632307, Q4 : -0.000612423056737}
2019-04-14 23:26:46.11: SIM {TimeUS : 46534712, Roll : 0.11, Pitch : 0.07, Yaw : 359.92, Alt : 34.8199996948, Lat : 49.2835704, Lng : -123.1150209, Q1 : 0.999999046326, Q2 : 0.00103816192131, Q3 : 0.000665558327455, Q4 : -0.000629532034509}
2019-04-14 23:26:46.21: SIM {TimeUS : 46634672, Roll : 0.09, Pitch : 0.06, Yaw : 359.92, Alt : 35.0400009155, Lat : 49.2835704, Lng : -123.1150208, Q1 : 0.999999284744, Q2 : 0.000808294455055, Q3 : 0.000572154123802, Q4 : -0.000648296670988}
2019-04-14 23:26:46.31: SIM {TimeUS : 46735465, Roll : 0.06, Pitch : 0.05, Yaw : 359.92, Alt : 35.2599983215, Lat : 49.2835704, Lng : -123.1150208, Q1 : 0.999999523163, Q2 : 0.000553355144802, Q3 : 0.000499058864079, Q4 : -0.00066853070166}
2019-04-14 23:26:46.41: SIM {TimeUS : 46835425, Roll : 0.04, Pitch : 0.02, Yaw : 359.92, Alt : 35.4700012207, Lat : 49.2835704, Lng : -123.1150208, Q1 : 0.999999701977, Q2 : 0.000402089353884, Q3 : 0.00019067976973, Q4 : -0.000682607351337}
2019-04-14 23:26:46.51: SIM {TimeUS : 46935385, Roll : 0.03, Pitch : 0.0, Yaw : 359.92, Alt : 35.6899986267, Lat : 49.2835704, Lng : -123.1150208, Q1 : 0.999999701977, Q2 : 0.000318752921885, Q3 : -4.17761511926e-05, Q4 : -0.000698135991115}
2019-04-14 23:26:46.61: SIM {TimeUS : 47035345, Roll : 0.01, Pitch : -0.01, Yaw : 359.91, Alt : 35.9099998474, Lat : 49.2835704, Lng : -123.1150208, Q1 : 0.999999701977, Q2 : 0.000125786304125, Q3 : -0.000128333369503, Q4 : -0.000720754847862}
2019-04-14 23:26:46.71: SIM {TimeUS : 47135305, Roll : 0.0, Pitch : -0.01, Yaw : 359.91, Alt : 36.1300010681, Lat : 49.2835704, Lng : -123.1150207, Q1 : 0.999999701977, Q2 : 7.08358638803e-05, Q3 : -0.000104607061076, Q4 : -0.000738050788641}
2019-04-14 23:26:46.81: SIM {TimeUS : 47235265, Roll : 0.01, Pitch : 0.0, Yaw : 359.91, Alt : 36.3499984741, Lat : 49.2835704, Lng : -123.1150207, Q1 : 0.999999701977, Q2 : 0.000117092546134, Q3 : -4.65567136416e-05, Q4 : -0.000754375709221}
2019-04-14 23:26:46.91: SIM {TimeUS : 47335225, Roll : 0.0, Pitch : -0.01, Yaw : 359.91, Alt : 36.5800018311, Lat : 49.2835704, Lng : -123.1150207, Q1 : 0.999999701977, Q2 : 3.25059249917e-06, Q3 : -0.000165408186149, Q4 : -0.000772656116169}
2019-04-14 23:26:47.01: SIM {TimeUS : 47435185, Roll : -0.03, Pitch : -0.05, Yaw : 359.9, Alt : 36.7999992371, Lat : 49.2835704, Lng : -123.1150207, Q1 : 0.999999523163, Q2 : -0.000290557625704, Q3 : -0.000457179063233, Q4 : -0.000796564505436}
2019-04-14 23:26:47.11: SIM {TimeUS : 47535145, Roll : -0.07, Pitch : -0.07, Yaw : 359.9, Alt : 37.0200004578, Lat : 49.2835704, Lng : -123.1150207, Q1 : 0.99999922514, Q2 : -0.000642191793304, Q3 : -0.000696034810971, Q4 : -0.000824097078294}
2019-04-14 23:26:47.21: SIM {TimeUS : 47635105, Roll : -0.11, Pitch : -0.1, Yaw : 359.9, Alt : 37.25, Lat : 49.2835704, Lng : -123.1150207, Q1 : 0.999998748302, Q2 : -0.000984509824775, Q3 : -0.000901682593394, Q4 : -0.000853232864756}
2019-04-14 23:26:47.31: SIM {TimeUS : 47735065, Roll : -0.12, Pitch : -0.11, Yaw : 359.89, Alt : 37.4700012207, Lat : 49.2835704, Lng : -123.1150207, Q1 : 0.999998509884, Q2 : -0.00110968551598, Q3 : -0.00097846146673, Q4 : -0.000889534712769}
2019-04-14 23:26:47.41: SIM {TimeUS : 47835025, Roll : -0.11, Pitch : -0.1, Yaw : 359.89, Alt : 37.7000007629, Lat : 49.2835704, Lng : -123.1150206, Q1 : 0.999998629093, Q2 : -0.00104664615355, Q3 : -0.000899271690287, Q4 : -0.000928419933189}
2019-04-14 23:26:47.51: SIM {TimeUS : 47934985, Roll : -0.09, Pitch : -0.06, Yaw : 359.88, Alt : 37.9199981689, Lat : 49.2835704, Lng : -123.1150206, Q1 : 0.999998986721, Q2 : -0.000860187516082, Q3 : -0.000592844793573, Q4 : -0.000962038233411}
2019-04-14 23:26:47.61: SIM {TimeUS : 48034945, Roll : -0.07, Pitch : -0.03, Yaw : 359.88, Alt : 38.1500015259, Lat : 49.2835704, Lng : -123.1150206, Q1 : 0.99999922514, Q2 : -0.000648369255941, Q3 : -0.000324908760376, Q4 : -0.000991942477413}
2019-04-14 23:26:47.71: SIM {TimeUS : 48134905, Roll : -0.06, Pitch : -0.03, Yaw : 359.88, Alt : 38.3800010681, Lat : 49.2835704, Lng : -123.1150206, Q1 : 0.999999284744, Q2 : -0.000596548372414, Q3 : -0.000262164772721, Q4 : -0.00102152838372}
2019-04-14 23:26:47.81: SIM {TimeUS : 48234865, Roll : -0.07, Pitch : -0.01, Yaw : 359.88, Alt : 38.6100006104, Lat : 49.2835704, Lng : -123.1150206, Q1 : 0.999999284744, Q2 : -0.000615244964138, Q3 : -0.00012114308629, Q4 : -0.00103466119617}
2019-04-14 23:26:47.91: SIM {TimeUS : 48334825, Roll : -0.08, Pitch : 0.0, Yaw : 359.88, Alt : 38.8400001526, Lat : 49.2835704, Lng : -123.1150206, Q1 : 0.999999165535, Q2 : -0.000768633733969, Q3 : 4.72759675176e-05, Q4 : -0.00103493442293}
2019-04-14 23:26:48.01: SIM {TimeUS : 48434785, Roll : -0.08, Pitch : 0.02, Yaw : 359.88, Alt : 39.0600013733, Lat : 49.2835706, Lng : -123.1150206, Q1 : 0.999999165535, Q2 : -0.000766220444348, Q3 : 0.000184940683539, Q4 : -0.00102958327625}
2019-04-14 23:26:48.11: SIM {TimeUS : 48534745, Roll : -0.06, Pitch : 0.04, Yaw : 359.88, Alt : 39.2900009155, Lat : 49.2835706, Lng : -123.1150206, Q1 : 0.99999922514, Q2 : -0.000572131364606, Q3 : 0.000398669479182, Q4 : -0.00102688185871}
2019-04-14 23:26:48.21: SIM {TimeUS : 48634705, Roll : -0.04, Pitch : 0.04, Yaw : 359.88, Alt : 39.5200004578, Lat : 49.2835706, Lng : -123.1150207, Q1 : 0.999999344349, Q2 : -0.000362670805771, Q3 : 0.000376410665922, Q4 : -0.00102119427174}
2019-04-14 23:26:48.31: SIM {TimeUS : 48734665, Roll : -0.01, Pitch : 0.03, Yaw : 359.88, Alt : 39.7599983215, Lat : 49.2835706, Lng : -123.1150207, Q1 : 0.999999403954, Q2 : -0.000128546816995, Q3 : 0.000303742766846, Q4 : -0.00101719459053}
2019-04-14 23:26:48.41: SIM {TimeUS : 48835458, Roll : 0.01, Pitch : 0.05, Yaw : 359.88, Alt : 39.9900016785, Lat : 49.2835706, Lng : -123.1150207, Q1 : 0.999999344349, Q2 : 0.000165931705851, Q3 : 0.000443917757366, Q4 : -0.00101961055771}
2019-04-14 23:26:48.51: SIM {TimeUS : 48935418, Roll : 0.05, Pitch : 0.07, Yaw : 359.88, Alt : 40.2200012207, Lat : 49.2835706, Lng : -123.1150207, Q1 : 0.99999910593, Q2 : 0.000470167899039, Q3 : 0.000690312765073, Q4 : -0.00103081949055}
2019-04-14 23:26:48.61: SIM {TimeUS : 49035378, Roll : 0.08, Pitch : 0.11, Yaw : 359.87, Alt : 40.4500007629, Lat : 49.2835706, Lng : -123.1150207, Q1 : 0.999998688698, Q2 : 0.000759219110478, Q3 : 0.000989833148196, Q4 : -0.00105063663796}
2019-04-14 23:26:48.71: SIM {TimeUS : 49135338, Roll : 0.08, Pitch : 0.14, Yaw : 359.87, Alt : 40.6800003052, Lat : 49.2835706, Lng : -123.1150207, Q1 : 0.99999833107, Q2 : 0.000726730853785, Q3 : 0.00129767158069, Q4 : -0.00106651347596}
2019-04-14 23:26:48.81: SIM {TimeUS : 49235298, Roll : 0.03, Pitch : 0.17, Yaw : 359.87, Alt : 40.9099998474, Lat : 49.2835706, Lng : -123.1150207, Q1 : 0.999998152256, Q2 : 0.000329805217916, Q3 : 0.00153534207493, Q4 : -0.0010995232733}
2019-04-14 23:26:48.91: SIM {TimeUS : 49335258, Roll : 0.0, Pitch : 0.18, Yaw : 359.87, Alt : 41.1500015259, Lat : 49.2835706, Lng : -123.1150207, Q1 : 0.999998033047, Q2 : -3.70336711057e-05, Q3 : 0.00164603232406, Q4 : -0.00113023817539}
2019-04-14 23:26:49.01: SIM {TimeUS : 49435218, Roll : -0.02, Pitch : 0.16, Yaw : 359.86, Alt : 41.3800010681, Lat : 49.2835706, Lng : -123.1150207, Q1 : 0.999998211861, Q2 : -0.000241946021561, Q3 : 0.00147235172335, Q4 : -0.00115980010014}
2019-04-14 23:26:49.11: SIM {TimeUS : 49535178, Roll : -0.03, Pitch : 0.13, Yaw : 359.86, Alt : 41.6100006104, Lat : 49.2835706, Lng : -123.1150207, Q1 : 0.999998509884, Q2 : -0.00030024946318, Q3 : 0.00120868778322, Q4 : -0.00119717174675}
2019-04-14 23:26:49.21: SIM {TimeUS : 49635138, Roll : -0.02, Pitch : 0.13, Yaw : 359.85, Alt : 41.8499984741, Lat : 49.2835706, Lng : -123.1150207, Q1 : 0.999998569489, Q2 : -0.000193921368918, Q3 : 0.00116004422307, Q4 : -0.00124609249178}
2019-04-14 23:26:49.31: SIM {TimeUS : 49735098, Roll : 0.01, Pitch : 0.14, Yaw : 359.85, Alt : 42.0800018311, Lat : 49.2835706, Lng : -123.1150207, Q1 : 0.99999833107, Q2 : 0.000137995069963, Q3 : 0.00126113381702, Q4 : -0.00130033853929}
2019-04-14 23:26:49.41: SIM {TimeUS : 49835058, Roll : 0.06, Pitch : 0.14, Yaw : 359.84, Alt : 42.3199996948, Lat : 49.2835706, Lng : -123.1150207, Q1 : 0.999998092651, Q2 : 0.00056583218975, Q3 : 0.00130424508825, Q4 : -0.00135541916825}
2019-04-14 23:26:49.51: SIM {TimeUS : 49935018, Roll : 0.1, Pitch : 0.12, Yaw : 359.83, Alt : 42.5499992371, Lat : 49.2835706, Lng : -123.1150207, Q1 : 0.999998033047, Q2 : 0.000884171458893, Q3 : 0.0010745623149, Q4 : -0.00140444561839}
2019-04-14 23:26:49.61: SIM {TimeUS : 50034978, Roll : 0.1, Pitch : 0.08, Yaw : 359.83, Alt : 42.7799987793, Lat : 49.2835706, Lng : -123.1150207, Q1 : 0.999998271465, Q2 : 0.000915492128115, Q3 : 0.000742749660276, Q4 : -0.00144734140486}
2019-04-14 23:26:49.71: SIM {TimeUS : 50134938, Roll : 0.06, Pitch : 0.05, Yaw : 359.83, Alt : 43.0200004578, Lat : 49.2835706, Lng : -123.1150207, Q1 : 0.999998629093, Q2 : 0.000594069540966, Q3 : 0.000502580311149, Q4 : -0.00147540157195}
2019-04-14 23:26:49.81: SIM {TimeUS : 50234898, Roll : 0.01, Pitch : 0.05, Yaw : 359.82, Alt : 43.25, Lat : 49.2835706, Lng : -123.1150207, Q1 : 0.999998748302, Q2 : 0.000129783307784, Q3 : 0.000457636197098, Q4 : -0.00149459880777}
2019-04-14 23:26:49.91: SIM {TimeUS : 50334858, Roll : -0.02, Pitch : 0.07, Yaw : 359.82, Alt : 43.4900016785, Lat : 49.2835704, Lng : -123.1150207, Q1 : 0.999998629093, Q2 : -0.000198219102458, Q3 : 0.000665326952003, Q4 : -0.00150437280536}
2019-04-14 23:26:50.01: SIM {TimeUS : 50434818, Roll : -0.04, Pitch : 0.09, Yaw : 359.82, Alt : 43.7200012207, Lat : 49.2835704, Lng : -123.1150207, Q1 : 0.999998450279, Q2 : -0.000352077215211, Q3 : 0.000806369760539, Q4 : -0.00151005119551}
2019-04-14 23:26:50.11: SIM {TimeUS : 50534778, Roll : -0.03, Pitch : 0.08, Yaw : 359.82, Alt : 43.9599990845, Lat : 49.2835704, Lng : -123.1150207, Q1 : 0.999998509884, Q2 : -0.000327892863424, Q3 : 0.000712897395715, Q4 : -0.0015110631939}
2019-04-14 23:26:50.21: SIM {TimeUS : 50634738, Roll : -0.04, Pitch : 0.06, Yaw : 359.82, Alt : 44.1899986267, Lat : 49.2835704, Lng : -123.1150206, Q1 : 0.999998629093, Q2 : -0.000374427880161, Q3 : 0.000569424999412, Q4 : -0.00152158038691}
2019-04-14 23:26:50.31: SIM {TimeUS : 50734698, Roll : -0.04, Pitch : 0.04, Yaw : 359.82, Alt : 44.4300003052, Lat : 49.2835704, Lng : -123.1150206, Q1 : 0.999998688698, Q2 : -0.00035147491144, Q3 : 0.000401103810873, Q4 : -0.00153487885837}
2019-04-14 23:26:50.41: SIM {TimeUS : 50834658, Roll : -0.02, Pitch : 0.03, Yaw : 359.82, Alt : 44.6699981689, Lat : 49.2835704, Lng : -123.1150206, Q1 : 0.999998748302, Q2 : -0.000237668922637, Q3 : 0.000288930052193, Q4 : -0.00155350391287}
2019-04-14 23:26:50.51: SIM {TimeUS : 50935451, Roll : -0.01, Pitch : 0.02, Yaw : 359.81, Alt : 44.9000015259, Lat : 49.2835704, Lng : -123.1150206, Q1 : 0.999998688698, Q2 : -0.000167075180798, Q3 : 0.000250457203947, Q4 : -0.00157571397722}
2019-04-14 23:26:50.61: SIM {TimeUS : 51035411, Roll : -0.02, Pitch : 0.01, Yaw : 359.81, Alt : 45.1399993896, Lat : 49.2835704, Lng : -123.1150206, Q1 : 0.999998688698, Q2 : -0.000179453592864, Q3 : 0.000109058790258, Q4 : -0.00159833102953}
2019-04-14 23:26:50.71: SIM {TimeUS : 51135371, Roll : -0.02, Pitch : -0.02, Yaw : 359.81, Alt : 45.3800010681, Lat : 49.2835703, Lng : -123.1150206, Q1 : 0.999998629093, Q2 : -0.000261565786786, Q3 : -0.000180250615813, Q4 : -0.00162448675837}
2019-04-14 23:26:50.81: SIM {TimeUS : 51235331, Roll : -0.03, Pitch : -0.04, Yaw : 359.81, Alt : 45.6100006104, Lat : 49.2835703, Lng : -123.1150206, Q1 : 0.999998509884, Q2 : -0.000333695468726, Q3 : -0.000392786110751, Q4 : -0.00165077333804}
2019-04-14 23:26:50.91: SIM {TimeUS : 51335291, Roll : -0.03, Pitch : -0.05, Yaw : 359.8, Alt : 45.8400001526, Lat : 49.2835703, Lng : -123.1150206, Q1 : 0.999998390675, Q2 : -0.000310747971525, Q3 : -0.000480435031932, Q4 : -0.00167701253667}
2019-04-14 23:26:51.01: SIM {TimeUS : 51435251, Roll : -0.04, Pitch : -0.05, Yaw : 359.8, Alt : 46.0800018311, Lat : 49.2835703, Lng : -123.1150206, Q1 : 0.999998390675, Q2 : -0.000350398098817, Q3 : -0.00046888779616, Q4 : -0.00170429958962}
2019-04-14 23:26:51.11: SIM {TimeUS : 51535211, Roll : -0.06, Pitch : -0.04, Yaw : 359.8, Alt : 46.2999992371, Lat : 49.2835703, Lng : -123.1150206, Q1 : 0.999998271465, Q2 : -0.000529452809133, Q3 : -0.00038221621071, Q4 : -0.00173388957046}
2019-04-14 23:26:51.21: SIM {TimeUS : 51635171, Roll : -0.09, Pitch : -0.03, Yaw : 359.79, Alt : 46.5299987793, Lat : 49.2835703, Lng : -123.1150206, Q1 : 0.999998092651, Q2 : -0.000814021506812, Q3 : -0.000264925562078, Q4 : -0.0017631779192}
2019-04-14 23:26:51.31: SIM {TimeUS : 51735131, Roll : -0.11, Pitch : -0.02, Yaw : 359.79, Alt : 46.7400016785, Lat : 49.2835703, Lng : -123.1150206, Q1 : 0.999997854233, Q2 : -0.0010055731982, Q3 : -0.000226903401199, Q4 : -0.00179086916614}
2019-04-14 23:26:51.41: SIM {TimeUS : 51835091, Roll : -0.12, Pitch : -0.02, Yaw : 359.79, Alt : 46.9599990845, Lat : 49.2835703, Lng : -123.1150206, Q1 : 0.999997735023, Q2 : -0.00105926359538, Q3 : -0.000175034758286, Q4 : -0.00181647937279}
2019-04-14 23:26:51.51: SIM {TimeUS : 51935051, Roll : -0.1, Pitch : 0.0, Yaw : 359.78, Alt : 47.1599998474, Lat : 49.2835703, Lng : -123.1150206, Q1 : 0.999997854233, Q2 : -0.000953396491241, Q3 : -2.28551016335e-05, Q4 : -0.001843166654}
2019-04-14 23:26:51.61: SIM {TimeUS : 52035011, Roll : -0.08, Pitch : 0.0, Yaw : 359.78, Alt : 47.3600006104, Lat : 49.2835703, Lng : -123.1150206, Q1 : 0.999998033047, Q2 : -0.000711735105142, Q3 : 7.21496035112e-05, Q4 : -0.00186806428246}
2019-04-14 23:26:51.71: SIM {TimeUS : 52134971, Roll : -0.05, Pitch : 0.0, Yaw : 359.78, Alt : 47.5499992371, Lat : 49.2835703, Lng : -123.1150206, Q1 : 0.999998092651, Q2 : -0.000482490082504, Q3 : 5.32824196853e-05, Q4 : -0.00189111952204}
2019-04-14 23:26:51.81: SIM {TimeUS : 52234931, Roll : -0.05, Pitch : -0.01, Yaw : 359.78, Alt : 47.7299995422, Lat : 49.2835703, Lng : -123.1150206, Q1 : 0.999998033047, Q2 : -0.000464209355414, Q3 : -0.000124541853438, Q4 : -0.00191690050997}
2019-04-14 23:26:51.91: SIM {TimeUS : 52334891, Roll : -0.05, Pitch : -0.04, Yaw : 359.77, Alt : 47.8899993896, Lat : 49.2835703, Lng : -123.1150206, Q1 : 0.999997913837, Q2 : -0.00046231909073, Q3 : -0.000397629482904, Q4 : -0.00194474298041}
2019-04-14 23:26:52.01: SIM {TimeUS : 52434851, Roll : -0.03, Pitch : -0.07, Yaw : 359.77, Alt : 48.0499992371, Lat : 49.2835703, Lng : -123.1150206, Q1 : 0.999997794628, Q2 : -0.000347342167515, Q3 : -0.000655986659694, Q4 : -0.00197053956799}
2019-04-14 23:26:52.11: SIM {TimeUS : 52534811, Roll : -0.02, Pitch : -0.09, Yaw : 359.77, Alt : 48.1899986267, Lat : 49.2835703, Lng : -123.1150206, Q1 : 0.999997615814, Q2 : -0.000262204033788, Q3 : -0.000845842936542, Q4 : -0.0019908125978}
2019-04-14 23:26:52.21: SIM {TimeUS : 52634771, Roll : -0.02, Pitch : -0.1, Yaw : 359.76, Alt : 48.3300018311, Lat : 49.2835703, Lng : -123.1150206, Q1 : 0.999997496605, Q2 : -0.000246910116402, Q3 : -0.000954520364758, Q4 : -0.00201243814081}
2019-04-14 23:26:52.31: SIM {TimeUS : 52734731, Roll : 0.0, Pitch : -0.1, Yaw : 359.76, Alt : 48.4500007629, Lat : 49.2835703, Lng : -123.1150206, Q1 : 0.999997496605, Q2 : -4.15666181652e-05, Q3 : -0.000893724383786, Q4 : -0.0020376003813}
2019-04-14 23:26:52.41: SIM {TimeUS : 52834691, Roll : 0.02, Pitch : -0.08, Yaw : 359.76, Alt : 48.5499992371, Lat : 49.2835703, Lng : -123.1150206, Q1 : 0.999997615814, Q2 : 0.000239094428252, Q3 : -0.000715586182196, Q4 : -0.0020661202725}
2019-04-14 23:26:52.51: SIM {TimeUS : 52935484, Roll : 0.05, Pitch : -0.05, Yaw : 359.75, Alt : 48.6500015259, Lat : 49.2835703, Lng : -123.1150206, Q1 : 0.99999755621, Q2 : 0.000486974400701, Q3 : -0.000459158589365, Q4 : -0.00209571933374}
2019-04-14 23:26:52.61: SIM {TimeUS : 53035444, Roll : 0.06, Pitch : -0.02, Yaw : 359.75, Alt : 48.7299995422, Lat : 49.2835703, Lng : -123.1150206, Q1 : 0.99999755621, Q2 : 0.000593248289078, Q3 : -0.000255584949628, Q4 : -0.00212500616908}
2019-04-14 23:26:52.71: SIM {TimeUS : 53135404, Roll : 0.07, Pitch : -0.01, Yaw : 359.75, Alt : 48.8100013733, Lat : 49.2835703, Lng : -123.1150207, Q1 : 0.999997437, Q2 : 0.000647891487461, Q3 : -0.000160375086125, Q4 : -0.00215259287506}
2019-04-14 23:26:52.81: SIM {TimeUS : 53235364, Roll : 0.06, Pitch : -0.03, Yaw : 359.75, Alt : 48.8699989319, Lat : 49.2835703, Lng : -123.1150207, Q1 : 0.999997437, Q2 : 0.000553533260245, Q3 : -0.000270207005087, Q4 : -0.00217860401608}
2019-04-14 23:26:52.91: SIM {TimeUS : 53335324, Roll : 0.03, Pitch : -0.03, Yaw : 359.74, Alt : 48.9300003052, Lat : 49.2835703, Lng : -123.1150207, Q1 : 0.999997496605, Q2 : 0.00030729608261, Q3 : -0.000325398170389, Q4 : -0.00220219651237}
2019-04-14 23:26:53.01: SIM {TimeUS : 53435284, Roll : 0.01, Pitch : -0.03, Yaw : 359.74, Alt : 48.9700012207, Lat : 49.2835703, Lng : -123.1150207, Q1 : 0.999997496605, Q2 : 0.000136838702019, Q3 : -0.000287830102025, Q4 : -0.00222153076902}
2019-04-14 23:26:53.11: SIM {TimeUS : 53535244, Roll : 0.05, Pitch : -0.06, Yaw : 359.74, Alt : 49.0099983215, Lat : 49.2835703, Lng : -123.1150207, Q1 : 0.999997198582, Q2 : 0.000517661625054, Q3 : -0.000579200976063, Q4 : -0.00224149832502}
2019-04-14 23:26:53.21: SIM {TimeUS : 53635204, Roll : 0.28, Pitch : -0.2, Yaw : 359.73, Alt : 49.0499992371, Lat : 49.2835703, Lng : -123.1150207, Q1 : 0.999992728233, Q2 : 0.00248075299896, Q3 : -0.00182194635272, Q4 : -0.00226609711535}
2019-04-14 23:26:53.31: SIM {TimeUS : 53735164, Roll : 0.75, Pitch : -0.49, Yaw : 359.73, Alt : 49.0800018311, Lat : 49.2835704, Lng : -123.1150207, Q1 : 0.99996638298, Q2 : 0.00657742284238, Q3 : -0.00433247396722, Q4 : -0.00228910124861}
2019-04-14 23:26:53.41: SIM {TimeUS : 53835124, Roll : 1.44, Pitch : -0.93, Yaw : 359.72, Alt : 49.0999984741, Lat : 49.2835704, Lng : -123.1150207, Q1 : 0.999884665012, Q2 : 0.0125704342499, Q3 : -0.00820843875408, Q4 : -0.00230378261767}
2019-04-14 23:26:53.51: SIM {TimeUS : 53935084, Roll : 2.26, Pitch : -1.51, Yaw : 359.7, Alt : 49.1199989319, Lat : 49.2835704, Lng : -123.1150206, Q1 : 0.999714076519, Q2 : 0.0197484139353, Q3 : -0.0132889319211, Q4 : -0.00228466652334}
2019-04-14 23:26:53.61: SIM {TimeUS : 54035044, Roll : 3.12, Pitch : -2.13, Yaw : 359.68, Alt : 49.1399993896, Lat : 49.2835704, Lng : -123.1150205, Q1 : 0.999452531338, Q2 : 0.0271854400635, Q3 : -0.0187234599143, Q4 : -0.00222173333168}
2019-04-14 23:26:53.71: SIM {TimeUS : 54135004, Roll : 3.87, Pitch : -2.7, Yaw : 359.66, Alt : 49.1599998474, Lat : 49.2835706, Lng : -123.1150203, Q1 : 0.999148309231, Q2 : 0.0337342843413, Q3 : -0.0236703492701, Q4 : -0.00208779517561}
2019-04-14 23:26:53.81: SIM {TimeUS : 54234964, Roll : 4.46, Pitch : -3.15, Yaw : 359.66, Alt : 49.1699981689, Lat : 49.2835707, Lng : -123.1150201, Q1 : 0.998862147331, Q2 : 0.0388572849333, Q3 : -0.0275855790824, Q4 : -0.00188940775115}
2019-04-14 23:26:53.91: SIM {TimeUS : 54334924, Roll : 4.9, Pitch : -3.46, Yaw : 359.66, Alt : 49.1800003052, Lat : 49.2835709, Lng : -123.1150199, Q1 : 0.998628914356, Q2 : 0.0426589474082, Q3 : -0.0302956625819, Q4 : -0.00163687556051}
2019-04-14 23:26:54.01: SIM {TimeUS : 54434884, Roll : 5.22, Pitch : -3.68, Yaw : 359.67, Alt : 49.2000007629, Lat : 49.283571, Lng : -123.1150195, Q1 : 0.998441576958, Q2 : 0.045508928597, Q3 : -0.0322733446956, Q4 : -0.00136265170295}
2019-04-14 23:26:54.11: SIM {TimeUS : 54534844, Roll : 5.5, Pitch : -3.87, Yaw : 359.68, Alt : 49.2000007629, Lat : 49.2835713, Lng : -123.115019, Q1 : 0.998273730278, Q2 : 0.047929380089, Q3 : -0.0339300557971, Q4 : -0.00108219019603}
2019-04-14 23:26:54.21: SIM {TimeUS : 54634804, Roll : 5.78, Pitch : -4.07, Yaw : 359.7, Alt : 49.2099990845, Lat : 49.2835715, Lng : -123.1150184, Q1 : 0.998098790646, Q2 : 0.0503077842295, Q3 : -0.0355994552374, Q4 : -0.000811888137832}
2019-04-14 23:26:54.31: SIM {TimeUS : 54734764, Roll : 6.07, Pitch : -4.29, Yaw : 359.7, Alt : 49.2200012207, Lat : 49.2835719, Lng : -123.1150177, Q1 : 0.997893452644, Q2 : 0.0528734996915, Q3 : -0.0375870838761, Q4 : -0.000559156178497}
2019-04-14 23:26:54.41: SIM {TimeUS : 54834724, Roll : 6.37, Pitch : -4.52, Yaw : 359.71, Alt : 49.2299995422, Lat : 49.2835722, Lng : -123.1150169, Q1 : 0.997679173946, Q2 : 0.0554204769433, Q3 : -0.0395574942231, Q4 : -0.000317138561513}
2019-04-14 23:26:54.51: SIM {TimeUS : 54934684, Roll : 6.62, Pitch : -4.7, Yaw : 359.71, Alt : 49.2299995422, Lat : 49.2835727, Lng : -123.115016, Q1 : 0.997490882874, Q2 : 0.0576080828905, Q3 : -0.0411486625671, Q4 : -8.80288789631e-05}
2019-04-14 23:26:54.61: SIM {TimeUS : 55035477, Roll : 6.79, Pitch : -4.82, Yaw : 359.72, Alt : 49.2400016785, Lat : 49.2835732, Lng : -123.115015, Q1 : 0.997361123562, Q2 : 0.0591332241893, Q3 : -0.04212012887, Q4 : 0.00010776821}
2019-04-14 23:26:54.71: SIM {TimeUS : 55135437, Roll : 6.91, Pitch : -4.88, Yaw : 359.73, Alt : 49.2400016785, Lat : 49.2835735, Lng : -123.1150139, Q1 : 0.997275531292, Q2 : 0.0601433776319, Q3 : -0.0427116379142, Q4 : 0.00025007018121}
2019-04-14 23:26:54.81: SIM {TimeUS : 55235397, Roll : 6.99, Pitch : -4.94, Yaw : 359.73, Alt : 49.25, Lat : 49.2835741, Lng : -123.1150127, Q1 : 0.997209429741, Q2 : 0.0608713626862, Q3 : -0.0432199761271, Q4 : 0.000337275647325}
2019-04-14 23:26:54.91: SIM {TimeUS : 55335357, Roll : 7.13, Pitch : -4.99, Yaw : 359.73, Alt : 49.25, Lat : 49.2835747, Lng : -123.1150115, Q1 : 0.997119426727, Q2 : 0.0620499923825, Q3 : -0.04361711815, Q4 : 0.000442390155513}
2019-04-14 23:26:55.01: SIM {TimeUS : 55435317, Roll : 7.45, Pitch : -4.91, Yaw : 359.92, Alt : 49.2599983215, Lat : 49.2835753, Lng : -123.1150101, Q1 : 0.996970415115, Q2 : 0.0649011582136, Q3 : -0.0428194440901, Q4 : 0.00209395447746}
2019-04-14 23:26:55.11: SIM {TimeUS : 55535277, Roll : 8.0, Pitch : -4.7, Yaw : 0.85, Alt : 49.2599983215, Lat : 49.2835759, Lng : -123.1150087, Q1 : 0.996669650078, Q2 : 0.0700643360615, Q3 : -0.0404384173453, Q4 : 0.0102643882856}
2019-04-14 23:26:55.21: SIM {TimeUS : 55635237, Roll : 8.62, Pitch : -4.66, Yaw : 3.16, Alt : 49.2599983215, Lat : 49.2835767, Lng : -123.1150072, Q1 : 0.995882689953, Q2 : 0.0761873871088, Q3 : -0.038461368531, Q4 : 0.0305597316474}
2019-04-14 23:26:55.31: SIM {TimeUS : 55735197, Roll : 9.04, Pitch : -5.06, Yaw : 7.06, Alt : 49.2599983215, Lat : 49.2835774, Lng : -123.1150056, Q1 : 0.993806362152, Q2 : 0.0813192278147, Q3 : -0.0391408465803, Q4 : 0.0648392438889}
2019-04-14 23:26:55.41: SIM {TimeUS : 55835157, Roll : 9.03, Pitch : -5.98, Yaw : 12.42, Alt : 49.2599983215, Lat : 49.2835781, Lng : -123.1150038, Q1 : 0.989241302013, Q2 : 0.0838259384036, Q3 : -0.0432077683508, Q4 : 0.1118388623}
2019-04-14 23:26:55.51: SIM {TimeUS : 55935117, Roll : 8.43, Pitch : -7.31, Yaw : 19.01, Alt : 49.2700004578, Lat : 49.2835788, Lng : -123.1150019, Q1 : 0.980811834335, Q2 : 0.0829279795289, Q3 : -0.050592828542, Q4 : 0.169031053782}
2019-04-14 23:26:55.61: SIM {TimeUS : 56035077, Roll : 7.21, Pitch : -8.87, Yaw : 26.57, Alt : 49.2700004578, Lat : 49.2835795, Lng : -123.1149999, Q1 : 0.967270731926, Q2 : 0.0787931382656, Q3 : -0.0607024468482, Q4 : 0.233439877629}
2019-04-14 23:26:55.71: SIM {TimeUS : 56135037, Roll : 5.41, Pitch : -10.44, Yaw : 34.84, Alt : 49.2700004578, Lat : 49.2835804, Lng : -123.1149978, Q1 : 0.94779586792, Q2 : 0.0721342638135, Q3 : -0.072696775198, Q4 : 0.30198481679}
2019-04-14 23:26:55.81: SIM {TimeUS : 56234997, Roll : 3.07, Pitch : -11.82, Yaw : 43.55, Alt : 49.2700004578, Lat : 49.2835812, Lng : -123.1149956, Q1 : 0.922322452068, Q2 : 0.0630082413554, Q3 : -0.0857045352459, Q4 : 0.371491551399}
2019-04-14 23:26:55.91: SIM {TimeUS : 56334957, Roll : 0.09, Pitch : -12.76, Yaw : 52.13, Alt : 49.2700004578, Lat : 49.2835819, Lng : -123.1149933, Q1 : 0.892648398876, Q2 : 0.0496154054999, Q3 : -0.0994998887181, Q4 : 0.436826020479}
2019-04-14 23:26:56.01: SIM {TimeUS : 56434917, Roll : -3.1, Pitch : -13.13, Yaw : 59.7, Alt : 49.2700004578, Lat : 49.2835829, Lng : -123.1149909, Q1 : 0.86285674572, Q2 : 0.0335749275982, Q3 : -0.112548433244, Q4 : 0.491613507271}
2019-04-14 23:26:56.11: SIM {TimeUS : 56534877, Roll : -5.84, Pitch : -13.05, Yaw : 65.49, Alt : 49.2700004578, Lat : 49.2835838, Lng : -123.1149884, Q1 : 0.837671935558, Q2 : 0.0187971498817, Q3 : -0.122884333134, Q4 : 0.531838178635}
2019-04-14 23:26:56.21: SIM {TimeUS : 56634837, Roll : -7.65, Pitch : -12.79, Yaw : 69.18, Alt : 49.2700004578, Lat : 49.2835849, Lng : -123.1149859, Q1 : 0.820470154285, Q2 : 0.00852830987424, Q3 : -0.129153415561, Q4 : 0.556844174862}
2019-04-14 23:26:56.31: SIM {TimeUS : 56734797, Roll : -8.36, Pitch : -12.6, Yaw : 70.88, Alt : 49.2700004578, Lat : 49.2835861, Lng : -123.1149833, Q1 : 0.812254726887, Q2 : 0.00446953810751, Q3 : -0.131243765354, Q4 : 0.568328619003}
2019-04-14 23:26:56.41: SIM {TimeUS : 56834757, Roll : -8.09, Pitch : -12.66, Yaw : 70.89, Alt : 49.2700004578, Lat : 49.2835874, Lng : -123.1149806, Q1 : 0.812160789967, Q2 : 0.00664556538686, Q3 : -0.130279868841, Q4 : 0.568663239479}
2019-04-14 23:26:56.51: SIM {TimeUS : 56934717, Roll : -7.08, Pitch : -12.97, Yaw : 69.58, Alt : 49.2700004578, Lat : 49.2835889, Lng : -123.114978, Q1 : 0.818368315697, Q2 : 0.0139461075887, Q3 : -0.127647891641, Q4 : 0.560164928436}
2019-04-14 23:26:56.61: SIM {TimeUS : 57034677, Roll : -5.55, Pitch : -13.51, Yaw : 67.31, Alt : 49.2799987793, Lat : 49.2835903, Lng : -123.1149752, Q1 : 0.82876086235, Q2 : 0.0250827167183, Q3 : -0.1245245561, Q4 : 0.544995367527}
2019-04-14 23:26:56.71: SIM {TimeUS : 57135470, Roll : -3.71, Pitch : -14.2, Yaw : 64.38, Alt : 49.2799987793, Lat : 49.283592, Lng : -123.1149724, Q1 : 0.841471195221, Q2 : 0.0385792218149, Q3 : -0.121711716056, Q4 : 0.524999260902}
2019-04-14 23:26:56.81: SIM {TimeUS : 57235430, Roll : -1.8, Pitch : -14.87, Yaw : 61.14, Alt : 49.2799987793, Lat : 49.2835935, Lng : -123.1149695, Q1 : 0.85465413332, Q2 : 0.052366822958, Q3 : -0.119405046105, Q4 : 0.502559959888}
2019-04-14 23:26:56.91: SIM {TimeUS : 57335390, Roll : 0.01, Pitch : -15.41, Yaw : 57.91, Alt : 49.2799987793, Lat : 49.2835952, Lng : -123.1149665, Q1 : 0.867085039616, Q2 : 0.0650171786547, Q3 : -0.117253400385, Q4 : 0.479779064655}
2019-04-14 23:26:57.01: SIM {TimeUS : 57435350, Roll : 1.57, Pitch : -15.74, Yaw : 55.0, Alt : 49.2799987793, Lat : 49.2835968, Lng : -123.1149634, Q1 : 0.87769138813, Q2 : 0.0753018110991, Q3 : -0.115215882659, Q4 : 0.459034621716}
2019-04-14 23:26:57.11: SIM {TimeUS : 57535310, Roll : 2.74, Pitch : -15.88, Yaw : 52.69, Alt : 49.2799987793, Lat : 49.2835984, Lng : -123.1149601, Q1 : 0.885815680027, Q2 : 0.0825164020061, Q3 : -0.113244064152, Q4 : 0.442377060652}
2019-04-14 23:26:57.21: SIM {TimeUS : 57635270, Roll : 3.44, Pitch : -15.87, Yaw : 51.14, Alt : 49.2799987793, Lat : 49.2836001, Lng : -123.1149567, Q1 : 0.891206204891, Q2 : 0.0864160731435, Q3 : -0.111635006964, Q4 : 0.43107008934}
2019-04-14 23:26:57.31: SIM {TimeUS : 57735230, Roll : 3.66, Pitch : -15.8, Yaw : 50.4, Alt : 49.2799987793, Lat : 49.2836019, Lng : -123.1149531, Q1 : 0.893898010254, Q2 : 0.0871856510639, Q3 : -0.110847838223, Q4 : 0.425508826971}
2019-04-14 23:26:57.41: SIM {TimeUS : 57835190, Roll : 3.47, Pitch : -15.76, Yaw : 50.4, Alt : 49.2799987793, Lat : 49.2836035, Lng : -123.1149496, Q1 : 0.894095897675, Q2 : 0.085531257093, Q3 : -0.111222170293, Q4 : 0.425331145525}
2019-04-14 23:26:57.51: SIM {TimeUS : 57935150, Roll : 2.94, Pitch : -15.8, Yaw : 51.01, Alt : 49.2799987793, Lat : 49.2836051, Lng : -123.1149459, Q1 : 0.892151713371, Q2 : 0.0821810811758, Q3 : -0.113046050072, Q4 : 0.429572194815}
2019-04-14 23:26:57.61: SIM {TimeUS : 58035110, Roll : 2.19, Pitch : -15.91, Yaw : 52.06, Alt : 49.2900009155, Lat : 49.2836068, Lng : -123.1149421, Q1 : 0.888571083546, Q2 : 0.0777618288994, Q3 : -0.116074115038, Q4 : 0.43694549799}
2019-04-14 23:26:57.71: SIM {TimeUS : 58135070, Roll : 1.3, Pitch : -16.07, Yaw : 53.36, Alt : 49.2900009155, Lat : 49.2836086, Lng : -123.1149382, Q1 : 0.883942425251, Q2 : 0.0728762000799, Q3 : -0.119892790914, Q4 : 0.44604998827}
2019-04-14 23:26:57.81: SIM {TimeUS : 58235030, Roll : 0.42, Pitch : -16.22, Yaw : 54.74, Alt : 49.2900009155, Lat : 49.2836104, Lng : -123.1149342, Q1 : 0.878924012184, Q2 : 0.0680980160832, Q3 : -0.123638056219, Q4 : 0.455597341061}
2019-04-14 23:26:57.91: SIM {TimeUS : 58334990, Roll : -0.34, Pitch : -16.32, Yaw : 56.01, Alt : 49.2900009155, Lat : 49.2836121, Lng : -123.1149301, Q1 : 0.874119639397, Q2 : 0.0640549212694, Q3 : -0.126767605543, Q4 : 0.464480161667}
2019-04-14 23:26:58.01: SIM {TimeUS : 58434950, Roll : -0.95, Pitch : -16.39, Yaw : 57.07, Alt : 49.2900009155, Lat : 49.2836139, Lng : -123.114926, Q1 : 0.87005597353, Q2 : 0.0608595944941, Q3 : -0.12916508317, Q4 : 0.471821039915}
2019-04-14 23:26:58.11: SIM {TimeUS : 58534910, Roll : -1.33, Pitch : -16.42, Yaw : 57.83, Alt : 49.2900009155, Lat : 49.2836158, Lng : -123.1149219, Q1 : 0.867063760757, Q2 : 0.0589799359441, Q3 : -0.130629867315, Q4 : 0.477134823799}
2019-04-14 23:26:58.21: SIM {TimeUS : 58634870, Roll : -1.48, Pitch : -16.42, Yaw : 58.26, Alt : 49.2900009155, Lat : 49.2836176, Lng : -123.1149177, Q1 : 0.865345954895, Q2 : 0.0583294592798, Q3 : -0.13103248179, Q4 : 0.480213046074}
2019-04-14 23:26:58.31: SIM {TimeUS : 58734830, Roll : -1.44, Pitch : -16.42, Yaw : 58.38, Alt : 49.2900009155, Lat : 49.2836195, Lng : -123.1149134, Q1 : 0.864868164062, Q2 : 0.0587317086756, Q3 : -0.130776777864, Q4 : 0.481093615294}
2019-04-14 23:26:58.41: SIM {TimeUS : 58834790, Roll : -1.26, Pitch : -16.44, Yaw : 58.21, Alt : 49.2900009155, Lat : 49.2836214, Lng : -123.1149091, Q1 : 0.86544829607, Q2 : 0.0600019618869, Q3 : -0.130320325494, Q4 : 0.480016291142}
2019-04-14 23:26:58.51: SIM {TimeUS : 58934750, Roll : -0.99, Pitch : -16.5, Yaw : 57.83, Alt : 49.2900009155, Lat : 49.2836233, Lng : -123.1149048, Q1 : 0.866823196411, Q2 : 0.0619178004563, Q3 : -0.12981005013, Q4 : 0.477423399687}
2019-04-14 23:26:58.61: SIM {TimeUS : 59034710, Roll : -0.65, Pitch : -16.59, Yaw : 57.31, Alt : 49.2900009155, Lat : 49.2836254, Lng : -123.1149004, Q1 : 0.868682682514, Q2 : 0.0642212256789, Q3 : -0.129363402724, Q4 : 0.473847150803}
2019-04-14 23:26:58.71: SIM {TimeUS : 59134670, Roll : -0.31, Pitch : -16.67, Yaw : 56.74, Alt : 49.2900009155, Lat : 49.2836274, Lng : -123.1148959, Q1 : 0.870756626129, Q2 : 0.0665148198605, Q3 : -0.128854349256, Q4 : 0.469845980406}
2019-04-14 23:26:58.81: SIM {TimeUS : 59235463, Roll : 0.01, Pitch : -16.72, Yaw : 56.18, Alt : 49.2900009155, Lat : 49.2836293, Lng : -123.1148915, Q1 : 0.872798740864, Q2 : 0.0686276257038, Q3 : -0.128265053034, Q4 : 0.465897709131}
2019-04-14 23:26:58.91: SIM {TimeUS : 59335423, Roll : 0.29, Pitch : -16.76, Yaw : 55.69, Alt : 49.2900009155, Lat : 49.2836315, Lng : -123.114887, Q1 : 0.874568343163, Q2 : 0.0703471079469, Q3 : -0.127690538764, Q4 : 0.462468028069}
2019-04-14 23:26:59.01: SIM {TimeUS : 59435383, Roll : 0.5, Pitch : -16.79, Yaw : 55.31, Alt : 49.2900009155, Lat : 49.2836335, Lng : -123.1148824, Q1 : 0.875927984715, Q2 : 0.0716163292527, Q3 : -0.127301052213, Q4 : 0.459799736738}
2019-04-14 23:26:59.11: SIM {TimeUS : 59535343, Roll : 0.62, Pitch : -16.81, Yaw : 55.07, Alt : 49.2900009155, Lat : 49.2836355, Lng : -123.1148777, Q1 : 0.87681221962, Q2 : 0.0723790004849, Q3 : -0.127149119973, Q4 : 0.458033561707}
2019-04-14 23:26:59.21: SIM {TimeUS : 59635303, Roll : 0.66, Pitch : -16.83, Yaw : 54.95, Alt : 49.2900009155, Lat : 49.2836376, Lng : -123.1148732, Q1 : 0.877216398716, Q2 : 0.0726849213243, Q3 : -0.127227440476, Q4 : 0.457188636065}
2019-04-14 23:26:59.31: SIM {TimeUS : 59735263, Roll : 0.63, Pitch : -16.86, Yaw : 54.96, Alt : 49.2900009155, Lat : 49.2836396, Lng : -123.1148685, Q1 : 0.877191603184, Q2 : 0.0725117102265, Q3 : -0.127533465624, Q4 : 0.457178533077}
2019-04-14 23:26:59.41: SIM {TimeUS : 59835223, Roll : 0.53, Pitch : -16.88, Yaw : 55.06, Alt : 49.2900009155, Lat : 49.2836418, Lng : -123.1148638, Q1 : 0.876814723015, Q2 : 0.0719884037971, Q3 : -0.128030285239, Q4 : 0.457844823599}
2019-04-14 23:26:59.51: SIM {TimeUS : 59935183, Roll : 0.39, Pitch : -16.92, Yaw : 55.23, Alt : 49.2999992371, Lat : 49.2836439, Lng : -123.1148591, Q1 : 0.876182079315, Q2 : 0.0712164342403, Q3 : -0.128786563873, Q4 : 0.458963185549}
2019-04-14 23:26:59.61: SIM {TimeUS : 60035143, Roll : 0.23, Pitch : -16.96, Yaw : 55.43, Alt : 49.2999992371, Lat : 49.283646, Lng : -123.1148543, Q1 : 0.875406444073, Q2 : 0.0704024136066, Q3 : -0.129658743739, Q4 : 0.460321307182}
2019-04-14 23:26:59.71: SIM {TimeUS : 60135103, Roll : 0.06, Pitch : -17.0, Yaw : 55.64, Alt : 49.2999992371, Lat : 49.2836481, Lng : -123.1148495, Q1 : 0.874623954296, Q2 : 0.0694758966565, Q3 : -0.130525246263, Q4 : 0.461702466011}
2019-04-14 23:26:59.81: SIM {TimeUS : 60235063, Roll : -0.09, Pitch : -17.03, Yaw : 55.83, Alt : 49.2999992371, Lat : 49.2836501, Lng : -123.1148446, Q1 : 0.873920857906, Q2 : 0.0686302483082, Q3 : -0.131263449788, Q4 : 0.46294939518}
2019-04-14 23:26:59.91: SIM {TimeUS : 60335023, Roll : -0.21, Pitch : -17.06, Yaw : 55.98, Alt : 49.2999992371, Lat : 49.2836524, Lng : -123.1148398, Q1 : 0.873366594315, Q2 : 0.067962013185, Q3 : -0.131894186139, Q4 : 0.463913649321}
2019-04-14 23:27:00.01: SIM {TimeUS : 60434983, Roll : -0.28, Pitch : -17.1, Yaw : 56.08, Alt : 49.2999992371, Lat : 49.2836545, Lng : -123.1148349, Q1 : 0.872974812984, Q2 : 0.0677325502038, Q3 : -0.132392734289, Q4 : 0.464542239904}
2019-04-14 23:27:00.11: SIM {TimeUS : 60534943, Roll : -0.29, Pitch : -17.14, Yaw : 56.12, Alt : 49.2999992371, Lat : 49.2836566, Lng : -123.11483, Q1 : 0.872773528099, Q2 : 0.0678379237652, Q3 : -0.132723420858, Q4 : 0.464810609818}
2019-04-14 23:27:00.21: SIM {TimeUS : 60634903, Roll : -0.26, Pitch : -17.18, Yaw : 56.1, Alt : 49.2999992371, Lat : 49.2836589, Lng : -123.1148251, Q1 : 0.87275904417, Q2 : 0.0682472959161, Q3 : -0.132890462875, Q4 : 0.464730203152}
2019-04-14 23:27:00.31: SIM {TimeUS : 60734863, Roll : -0.19, Pitch : -17.22, Yaw : 56.05, Alt : 49.2999992371, Lat : 49.283661, Lng : -123.1148201, Q1 : 0.872903645039, Q2 : 0.0688660889864, Q3 : -0.132973074913, Q4 : 0.464343518019}
2019-04-14 23:27:00.41: SIM {TimeUS : 60834823, Roll : -0.12, Pitch : -17.25, Yaw : 55.95, Alt : 49.2999992371, Lat : 49.2836633, Lng : -123.1148152, Q1 : 0.873189032078, Q2 : 0.0694690570235, Q3 : -0.13299408555, Q4 : 0.463710725307}
2019-04-14 23:27:00.51: SIM {TimeUS : 60934783, Roll : -0.06, Pitch : -17.28, Yaw : 55.84, Alt : 49.3100013733, Lat : 49.2836655, Lng : -123.1148102, Q1 : 0.87356877327, Q2 : 0.0699184015393, Q3 : -0.133023455739, Q4 : 0.46291872859}
2019-04-14 23:27:00.61: SIM {TimeUS : 61034743, Roll : -0.01, Pitch : -17.29, Yaw : 55.73, Alt : 49.3100013733, Lat : 49.2836676, Lng : -123.1148052, Q1 : 0.873998224735, Q2 : 0.0701790824533, Q3 : -0.133012890816, Q4 : 0.462071031332}
2019-04-14 23:27:00.71: SIM {TimeUS : 61134703, Roll : 0.04, Pitch : -17.3, Yaw : 55.62, Alt : 49.3100013733, Lat : 49.2836699, Lng : -123.1148001, Q1 : 0.874406635761, Q2 : 0.0704884827137, Q3 : -0.132888033986, Q4 : 0.461286485195}
2019-04-14 23:27:00.81: SIM {TimeUS : 61234663, Roll : 0.09, Pitch : -17.3, Yaw : 55.52, Alt : 49.3100013733, Lat : 49.2836722, Lng : -123.1147951, Q1 : 0.87475913763, Q2 : 0.0708074867725, Q3 : -0.132767319679, Q4 : 0.460603505373}
2019-04-14 23:27:00.91: SIM {TimeUS : 61335456, Roll : 0.16, Pitch : -17.34, Yaw : 55.44, Alt : 49.3100013733, Lat : 49.2836743, Lng : -123.11479, Q1 : 0.874993979931, Q2 : 0.0713524073362, Q3 : -0.132802769542, Q4 : 0.460062801838}
2019-04-14 23:27:01.01: SIM {TimeUS : 61435416, Roll : 0.21, Pitch : -17.39, Yaw : 55.39, Alt : 49.3100013733, Lat : 49.2836767, Lng : -123.1147849, Q1 : 0.875123560429, Q2 : 0.0718661621213, Q3 : -0.133012294769, Q4 : 0.459675729275}
2019-04-14 23:27:01.11: SIM {TimeUS : 61535376, Roll : 0.23, Pitch : -17.41, Yaw : 55.35, Alt : 49.3100013733, Lat : 49.283679, Lng : -123.1147798, Q1 : 0.875203490257, Q2 : 0.0721020102501, Q3 : -0.133150339127, Q4 : 0.459446489811}
2019-04-14 23:27:01.21: SIM {TimeUS : 61635336, Roll : 0.23, Pitch : -17.41, Yaw : 55.34, Alt : 49.3100013733, Lat : 49.2836811, Lng : -123.1147747, Q1 : 0.875244259834, Q2 : 0.0720970183611, Q3 : -0.133137613535, Q4 : 0.459373384714}
2019-04-14 23:27:01.31: SIM {TimeUS : 61735296, Roll : 0.2, Pitch : -17.42, Yaw : 55.35, Alt : 49.3100013733, Lat : 49.2836834, Lng : -123.1147695, Q1 : 0.875220119953, Q2 : 0.0719183981419, Q3 : -0.133358731866, Q4 : 0.459383249283}
2019-04-14 23:27:01.41: SIM {TimeUS : 61835256, Roll : 0.15, Pitch : -17.46, Yaw : 55.37, Alt : 49.3100013733, Lat : 49.2836858, Lng : -123.1147644, Q1 : 0.875139892101, Q2 : 0.0716881304979, Q3 : -0.133791461587, Q4 : 0.459446251392}
2019-04-14 23:27:01.51: SIM {TimeUS : 61935216, Roll : 0.11, Pitch : -17.49, Yaw : 55.39, Alt : 49.3100013733, Lat : 49.2836881, Lng : -123.1147592, Q1 : 0.875033199787, Q2 : 0.0715234726667, Q3 : -0.134176775813, Q4 : 0.459562748671}
2019-04-14 23:27:01.61: SIM {TimeUS : 62035176, Roll : 0.08, Pitch : -17.52, Yaw : 55.42, Alt : 49.3100013733, Lat : 49.2836904, Lng : -123.1147541, Q1 : 0.874912917614, Q2 : 0.0714784935117, Q3 : -0.134549349546, Q4 : 0.459689766169}
2019-04-14 23:27:01.71: SIM {TimeUS : 62135136, Roll : 0.06, Pitch : -17.55, Yaw : 55.44, Alt : 49.3199996948, Lat : 49.2836926, Lng : -123.1147489, Q1 : 0.874817609787, Q2 : 0.0714851096272, Q3 : -0.134774759412, Q4 : 0.459804207087}
2019-04-14 23:27:01.81: SIM {TimeUS : 62235096, Roll : 0.06, Pitch : -17.57, Yaw : 55.45, Alt : 49.3199996948, Lat : 49.2836949, Lng : -123.1147437, Q1 : 0.874751031399, Q2 : 0.0715507864952, Q3 : -0.134948268533, Q4 : 0.459869682789}
2019-04-14 23:27:01.91: SIM {TimeUS : 62335056, Roll : 0.07, Pitch : -17.57, Yaw : 55.45, Alt : 49.3199996948, Lat : 49.2836973, Lng : -123.1147385, Q1 : 0.874728381634, Q2 : 0.0716513544321, Q3 : -0.13494348526, Q4 : 0.459898501635}
2019-04-14 23:27:02.01: SIM {TimeUS : 62435016, Roll : 0.09, Pitch : -17.58, Yaw : 55.44, Alt : 49.3199996948, Lat : 49.2836996, Lng : -123.1147332, Q1 : 0.874726593494, Q2 : 0.0718763023615, Q3 : -0.134947091341, Q4 : 0.45986571908}
2019-04-14 23:27:02.11: SIM {TimeUS : 62534976, Roll : 0.12, Pitch : -17.6, Yaw : 55.43, Alt : 49.3199996948, Lat : 49.2837018, Lng : -123.114728, Q1 : 0.874751389027, Q2 : 0.0721325799823, Q3 : -0.134991064668, Q4 : 0.45976549387}
2019-04-14 23:27:02.21: SIM {TimeUS : 62634936, Roll : 0.13, Pitch : -17.63, Yaw : 55.41, Alt : 49.3199996948, Lat : 49.2837042, Lng : -123.1147227, Q1 : 0.87479943037, Q2 : 0.0722861140966, Q3 : -0.135215505958, Q4 : 0.459583997726}
2019-04-14 23:27:02.31: SIM {TimeUS : 62734896, Roll : 0.11, Pitch : -17.68, Yaw : 55.38, Alt : 49.3199996948, Lat : 49.2837065, Lng : -123.1147175, Q1 : 0.874862372875, Q2 : 0.0723186358809, Q3 : -0.135602325201, Q4 : 0.459345042706}
2019-04-14 23:27:02.41: SIM {TimeUS : 62834856, Roll : 0.1, Pitch : -17.72, Yaw : 55.35, Alt : 49.3199996948, Lat : 49.2837089, Lng : -123.1147122, Q1 : 0.874931335449, Q2 : 0.0723820477724, Q3 : -0.135979115963, Q4 : 0.459092199802}
2019-04-14 23:27:02.51: SIM {TimeUS : 62934816, Roll : 0.12, Pitch : -17.75, Yaw : 55.32, Alt : 49.3199996948, Lat : 49.2837113, Lng : -123.1147068, Q1 : 0.875004410744, Q2 : 0.0725662186742, Q3 : -0.136165201664, Q4 : 0.458868682384}
2019-04-14 23:27:02.61: SIM {TimeUS : 63034776, Roll : 0.13, Pitch : -17.76, Yaw : 55.29, Alt : 49.3199996948, Lat : 49.2837136, Lng : -123.1147016, Q1 : 0.875095486641, Q2 : 0.0726975724101, Q3 : -0.136190250516, Q4 : 0.458666741848}
2019-04-14 23:27:02.71: SIM {TimeUS : 63134736, Roll : 0.15, Pitch : -17.74, Yaw : 55.27, Alt : 49.3199996948, Lat : 49.283716, Lng : -123.1146963, Q1 : 0.875209212303, Q2 : 0.0727241635323, Q3 : -0.136043176055, Q4 : 0.458489120007}
2019-04-14 23:27:02.81: SIM {TimeUS : 63234696, Roll : 0.15, Pitch : -17.73, Yaw : 55.25, Alt : 49.3199996948, Lat : 49.2837184, Lng : -123.114691, Q1 : 0.875311970711, Q2 : 0.0726320296526, Q3 : -0.135950788856, Q4 : 0.458334922791}
2019-04-14 23:27:02.91: SIM {TimeUS : 63334656, Roll : 0.15, Pitch : -17.71, Yaw : 55.23, Alt : 49.3199996948, Lat : 49.2837206, Lng : -123.1146857, Q1 : 0.875402510166, Q2 : 0.0725487247109, Q3 : -0.135852590203, Q4 : 0.458204388618}
2019-04-14 23:27:03.01: SIM {TimeUS : 63435449, Roll : 0.15, Pitch : -17.7, Yaw : 55.22, Alt : 49.3199996948, Lat : 49.283723, Lng : -123.1146803, Q1 : 0.875470459461, Q2 : 0.0724874138832, Q3 : -0.1357447505, Q4 : 0.458116203547}
2019-04-14 23:27:03.11: SIM {TimeUS : 63535409, Roll : 0.14, Pitch : -17.7, Yaw : 55.21, Alt : 49.3199996948, Lat : 49.2837254, Lng : -123.1146749, Q1 : 0.875504732132, Q2 : 0.0724710300565, Q3 : -0.135809585452, Q4 : 0.458034068346}
2019-04-14 23:27:03.21: SIM {TimeUS : 63635369, Roll : 0.15, Pitch : -17.72, Yaw : 55.2, Alt : 49.3300018311, Lat : 49.2837278, Lng : -123.1146696, Q1 : 0.875522911549, Q2 : 0.0725244283676, Q3 : -0.135908201337, Q4 : 0.457961589098}
2019-04-14 23:27:03.31: SIM {TimeUS : 63735329, Roll : 0.13, Pitch : -17.76, Yaw : 55.19, Alt : 49.3300018311, Lat : 49.2837302, Lng : -123.1146642, Q1 : 0.87550586462, Q2 : 0.0726158246398, Q3 : -0.136314570904, Q4 : 0.457858890295}
2019-04-14 23:27:03.41: SIM {TimeUS : 63835289, Roll : 0.13, Pitch : -17.82, Yaw : 55.18, Alt : 49.3300018311, Lat : 49.2837326, Lng : -123.1146588, Q1 : 0.875477790833, Q2 : 0.072763107717, Q3 : -0.136779546738, Q4 : 0.457750469446}
2019-04-14 23:27:03.51: SIM {TimeUS : 63935249, Roll : 0.13, Pitch : -17.86, Yaw : 55.17, Alt : 49.3300018311, Lat : 49.283735, Lng : -123.1146535, Q1 : 0.87545722723, Q2 : 0.072970405221, Q3 : -0.137095883489, Q4 : 0.457662194967}
2019-04-14 23:27:03.61: SIM {TimeUS : 64035209, Roll : 0.13, Pitch : -17.9, Yaw : 55.16, Alt : 49.3300018311, Lat : 49.2837374, Lng : -123.1146481, Q1 : 0.8754529953, Q2 : 0.0730944350362, Q3 : -0.137386634946, Q4 : 0.457563340664}
2019-04-14 23:27:03.71: SIM {TimeUS : 64135169, Roll : 0.13, Pitch : -17.92, Yaw : 55.15, Alt : 49.3300018311, Lat : 49.2837398, Lng : -123.1146427, Q1 : 0.87547069788, Q2 : 0.0731352642179, Q3 : -0.13757494092, Q4 : 0.4574662745}
2019-04-14 23:27:03.81: SIM {TimeUS : 64235129, Roll : 0.14, Pitch : -17.91, Yaw : 55.14, Alt : 49.3300018311, Lat : 49.2837422, Lng : -123.1146373, Q1 : 0.875516355038, Q2 : 0.0731850117445, Q3 : -0.137465164065, Q4 : 0.457404047251}
2019-04-14 23:27:03.91: SIM {TimeUS : 64335089, Roll : 0.16, Pitch : -17.92, Yaw : 55.13, Alt : 49.3300018311, Lat : 49.2837446, Lng : -123.1146319, Q1 : 0.875550985336, Q2 : 0.0733550414443, Q3 : -0.137403890491, Q4 : 0.457328885794}
2019-04-14 23:27:04.01: SIM {TimeUS : 64435049, Roll : 0.17, Pitch : -17.93, Yaw : 55.11, Alt : 49.3300018311, Lat : 49.283747, Lng : -123.1146265, Q1 : 0.875585019588, Q2 : 0.0734604224563, Q3 : -0.137470722198, Q4 : 0.457226663828}
2019-04-14 23:27:04.11: SIM {TimeUS : 64535009, Roll : 0.18, Pitch : -17.93, Yaw : 55.1, Alt : 49.3300018311, Lat : 49.2837494, Lng : -123.114621, Q1 : 0.875627815723, Q2 : 0.0735331550241, Q3 : -0.137483552098, Q4 : 0.457129180431}
2019-04-14 23:27:04.21: SIM {TimeUS : 64634969, Roll : 0.19, Pitch : -17.92, Yaw : 55.09, Alt : 49.3300018311, Lat : 49.2837519, Lng : -123.1146156, Q1 : 0.875688195229, Q2 : 0.0735321044922, Q3 : -0.137387737632, Q4 : 0.457042485476}
2019-04-14 23:27:04.31: SIM {TimeUS : 64734929, Roll : 0.19, Pitch : -17.92, Yaw : 55.07, Alt : 49.3300018311, Lat : 49.2837543, Lng : -123.1146102, Q1 : 0.875744819641, Q2 : 0.073509670794, Q3 : -0.137352004647, Q4 : 0.456948280334}
2019-04-14 23:27:04.41: SIM {TimeUS : 64834889, Roll : 0.17, Pitch : -17.94, Yaw : 55.06, Alt : 49.3300018311, Lat : 49.2837567, Lng : -123.1146047, Q1 : 0.875783920288, Q2 : 0.0734221711755, Q3 : -0.137584894896, Q4 : 0.456817418337}
2019-04-14 23:27:04.51: SIM {TimeUS : 64934849, Roll : 0.14, Pitch : -17.98, Yaw : 55.05, Alt : 49.3300018311, Lat : 49.2837591, Lng : -123.1145993, Q1 : 0.875797092915, Q2 : 0.0733397901058, Q3 : -0.13807092607, Q4 : 0.45665872097}
2019-04-14 23:27:04.61: SIM {TimeUS : 65034809, Roll : 0.12, Pitch : -18.0, Yaw : 55.04, Alt : 49.3300018311, Lat : 49.2837616, Lng : -123.1145938, Q1 : 0.875830888748, Q2 : 0.0732738301158, Q3 : -0.138255044818, Q4 : 0.456548780203}
2019-04-14 23:27:04.71: SIM {TimeUS : 65134769, Roll : 0.13, Pitch : -17.99, Yaw : 55.03, Alt : 49.3400001526, Lat : 49.283764, Lng : -123.1145884, Q1 : 0.875881075859, Q2 : 0.0732834339142, Q3 : -0.138163328171, Q4 : 0.456478625536}
2019-04-14 23:27:04.81: SIM {TimeUS : 65234729, Roll : 0.15, Pitch : -17.98, Yaw : 55.02, Alt : 49.3400001526, Lat : 49.2837664, Lng : -123.1145828, Q1 : 0.875926017761, Q2 : 0.0733575895429, Q3 : -0.138032644987, Q4 : 0.456420093775}
2019-04-14 23:27:04.91: SIM {TimeUS : 65334689, Roll : 0.16, Pitch : -17.99, Yaw : 55.0, Alt : 49.3400001526, Lat : 49.2837689, Lng : -123.1145773, Q1 : 0.875956773758, Q2 : 0.0734658762813, Q3 : -0.138034164906, Q4 : 0.456343084574}
2019-04-14 23:27:05.01: SIM {TimeUS : 65435482, Roll : 0.15, Pitch : -18.0, Yaw : 54.99, Alt : 49.3400001526, Lat : 49.2837713, Lng : -123.1145719, Q1 : 0.87598991394, Q2 : 0.0734307318926, Q3 : -0.138199746609, Q4 : 0.456235140562}
2019-04-14 23:27:05.11: SIM {TimeUS : 65535442, Roll : 0.12, Pitch : -18.02, Yaw : 54.98, Alt : 49.3400001526, Lat : 49.2837738, Lng : -123.1145664, Q1 : 0.876023590565, Q2 : 0.0732994750142, Q3 : -0.138470798731, Q4 : 0.456109255552}
2019-04-14 23:27:05.21: SIM {TimeUS : 65635402, Roll : 0.11, Pitch : -18.04, Yaw : 54.97, Alt : 49.3400001526, Lat : 49.2837762, Lng : -123.114561, Q1 : 0.876057982445, Q2 : 0.073264695704, Q3 : -0.138649091125, Q4 : 0.455994606018}
2019-04-14 23:27:05.31: SIM {TimeUS : 65735362, Roll : 0.12, Pitch : -18.05, Yaw : 54.96, Alt : 49.3400001526, Lat : 49.2837787, Lng : -123.1145555, Q1 : 0.876085460186, Q2 : 0.0733731538057, Q3 : -0.138747960329, Q4 : 0.455894380808}
2019-04-14 23:27:05.41: SIM {TimeUS : 65835322, Roll : 0.13, Pitch : -18.07, Yaw : 54.95, Alt : 49.3400001526, Lat : 49.2837811, Lng : -123.11455, Q1 : 0.876111030579, Q2 : 0.0735115259886, Q3 : -0.138814911246, Q4 : 0.455802559853}
2019-04-14 23:27:05.51: SIM {TimeUS : 65935282, Roll : 0.16, Pitch : -18.08, Yaw : 54.93, Alt : 49.3400001526, Lat : 49.2837836, Lng : -123.1145445, Q1 : 0.876122713089, Q2 : 0.0737427994609, Q3 : -0.138830259442, Q4 : 0.455738008022}
2019-04-14 23:27:05.61: SIM {TimeUS : 66035242, Roll : 0.16, Pitch : -18.1, Yaw : 54.93, Alt : 49.3400001526, Lat : 49.283786, Lng : -123.114539, Q1 : 0.876130282879, Q2 : 0.0738640353084, Q3 : -0.138953998685, Q4 : 0.455666154623}
2019-04-14 23:27:05.71: SIM {TimeUS : 66135202, Roll : 0.17, Pitch : -18.12, Yaw : 54.92, Alt : 49.3400001526, Lat : 49.2837885, Lng : -123.1145335, Q1 : 0.876135587692, Q2 : 0.0739716663957, Q3 : -0.139091268182, Q4 : 0.455596625805}
2019-04-14 23:27:05.81: SIM {TimeUS : 66235162, Roll : 0.18, Pitch : -18.13, Yaw : 54.91, Alt : 49.3400001526, Lat : 49.2837909, Lng : -123.114528, Q1 : 0.876141428947, Q2 : 0.0741296932101, Q3 : -0.139131367207, Q4 : 0.455547422171}
2019-04-14 23:27:05.91: SIM {TimeUS : 66335122, Roll : 0.22, Pitch : -18.14, Yaw : 54.9, Alt : 49.3400001526, Lat : 49.2837934, Lng : -123.1145225, Q1 : 0.876134574413, Q2 : 0.0744229033589, Q3 : -0.139040514827, Q4 : 0.455540597439}
