2019-04-14 20:50:36.10: SIM {TimeUS : 40516287, Roll : 0.0, Pitch : 0.0, Yaw : 0.0, Alt : 30.1000003815, Lat : 49.28357, Lng : -123.11502, Q1 : 1.0, Q2 : 0.0, Q3 : 0.0, Q4 : 0.0}
2019-04-14 20:50:36.21: SIM {TimeUS : 40635406, Roll : 0.0, Pitch : 0.0, Yaw : 0.0, Alt : 30.1000003815, Lat : 49.28357, Lng : -123.11502, Q1 : 1.0, Q2 : 0.0, Q3 : 0.0, Q4 : 0.0}
2019-04-14 20:50:36.31: SIM {TimeUS : 40735366, Roll : 0.0, Pitch : 0.0, Yaw : 0.0, Alt : 30.1000003815, Lat : 49.28357, Lng : -123.11502, Q1 : 1.0, Q2 : 0.0, Q3 : 0.0, Q4 : 0.0}
2019-04-14 20:50:36.41: SIM {TimeUS : 40835326, Roll : 0.0, Pitch : 0.0, Yaw : 0.0, Alt : 30.1000003815, Lat : 49.28357, Lng : -123.11502, Q1 : 1.0, Q2 : 0.0, Q3 : 0.0, Q4 : 0.0}
2019-04-14 20:50:36.51: SIM {TimeUS : 40935286, Roll : 0.0, Pitch : 0.0, Yaw : 0.0, Alt : 30.1000003815, Lat : 49.28357, Lng : -123.11502, Q1 : 1.0, Q2 : 0.0, Q3 : 0.0, Q4 : 0.0}
2019-04-14 20:50:36.61: SIM {TimeUS : 41035246, Roll : 0.0, Pitch : 0.0, Yaw : 0.0, Alt : 30.1000003815, Lat : 49.28357, Lng : -123.11502, Q1 : 1.0, Q2 : 0.0, Q3 : 0.0, Q4 : 0.0}
2019-04-14 20:50:36.71: SIM {TimeUS : 41135206, Roll : 0.0, Pitch : 0.0, Yaw : 0.0, Alt : 30.1000003815, Lat : 49.28357, Lng : -123.11502, Q1 : 1.0, Q2 : 0.0, Q3 : 0.0, Q4 : 0.0}
2019-04-14 20:50:36.81: SIM {TimeUS : 41235166, Roll : 0.0, Pitch : 0.0, Yaw : 0.0, Alt : 30.1000003815, Lat : 49.28357, Lng : -123.11502, Q1 : 1.0, Q2 : 0.0, Q3 : 0.0, Q4 : 0.0}
2019-04-14 20:50:36.91: SIM {TimeUS : 41335126, Roll : 0.0, Pitch : 0.0, Yaw : 0.0, Alt : 30.1000003815, Lat : 49.28357, Lng : -123.11502, Q1 : 1.0, Q2 : 0.0, Q3 : 0.0, Q4 : 0.0}
2019-04-14 20:50:37.01: SIM {TimeUS : 41435086, Roll : 0.0, Pitch : 0.0, Yaw : 0.0, Alt : 30.1000003815, Lat : 49.28357, Lng : -123.11502, Q1 : 1.0, Q2 : 0.0, Q3 : 0.0, Q4 : 0.0}
2019-04-14 20:50:37.11: SIM {TimeUS : 41535046, Roll : 0.0, Pitch : 0.0, Yaw : 0.0, Alt : 30.1000003815, Lat : 49.28357, Lng : -123.11502, Q1 : 1.0, Q2 : 0.0, Q3 : 0.0, Q4 : 0.0}
2019-04-14 20:50:37.21: SIM {TimeUS : 41635006, Roll : 0.0, Pitch : 0.0, Yaw : 0.0, Alt : 30.1000003815, Lat : 49.28357, Lng : -123.11502, Q1 : 1.0, Q2 : 0.0, Q3 : 0.0, Q4 : 0.0}
2019-04-14 20:50:37.31: SIM {TimeUS : 41734966, Roll : 0.0, Pitch : 0.0, Yaw : 0.0, Alt : 30.1000003815, Lat : 49.28357, Lng : -123.11502, Q1 : 1.0, Q2 : 0.0, Q3 : 0.0, Q4 : 0.0}
2019-04-14 20:50:37.41: SIM {TimeUS : 41834926, Roll : 0.0, Pitch : 0.0, Yaw : 0.0, Alt : 30.1000003815, Lat : 49.28357, Lng : -123.11502, Q1 : 1.0, Q2 : 0.0, Q3 : 0.0, Q4 : 0.0}
2019-04-14 20:50:37.51: SIM {TimeUS : 41934886, Roll : 0.0, Pitch : 0.0, Yaw : 0.0, Alt : 30.1000003815, Lat : 49.28357, Lng : -123.11502, Q1 : 1.0, Q2 : 0.0, Q3 : 0.0, Q4 : 0.0}
2019-04-14 20:50:37.61: SIM {TimeUS : 42034846, Roll : 0.0, Pitch : 0.0, Yaw : 0.0, Alt : 30.1000003815, Lat : 49.28357, Lng : -123.11502, Q1 : 1.0, Q2 : 0.0, Q3 : 0.0, Q4 : 0.0}
2019-04-14 20:50:37.71: SIM {TimeUS : 42134806, Roll : 0.0, Pitch : 0.0, Yaw : 0.0, Alt : 30.1000003815, Lat : 49.28357, Lng : -123.11502, Q1 : 1.0, Q2 : 0.0, Q3 : 0.0, Q4 : 0.0}
2019-04-14 20:50:37.81: SIM {TimeUS : 42234766, Roll : 0.0, Pitch : 0.0, Yaw : 0.0, Alt : 30.1000003815, Lat : 49.28357, Lng : -123.11502, Q1 : 1.0, Q2 : 0.0, Q3 : 0.0, Q4 : 0.0}
2019-04-14 20:50:37.91: SIM {TimeUS : 42334726, Roll : 0.0, Pitch : 0.0, Yaw : 0.0, Alt : 30.1000003815, Lat : 49.28357, Lng : -123.11502, Q1 : 1.0, Q2 : 0.0, Q3 : 0.0, Q4 : 0.0}
2019-04-14 20:50:38.01: SIM {TimeUS : 42434686, Roll : 0.0, Pitch : 0.0, Yaw : 0.0, Alt : 30.1000003815, Lat : 49.28357, Lng : -123.11502, Q1 : 1.0, Q2 : 0.0, Q3 : 0.0, Q4 : 0.0}
2019-04-14 20:50:38.11: SIM {TimeUS : 42534646, Roll : 0.0, Pitch : 0.0, Yaw : 0.0, Alt : 30.1000003815, Lat : 49.28357, Lng : -123.11502, Q1 : 1.0, Q2 : 0.0, Q3 : 0.0, Q4 : 0.0}
2019-04-14 20:50:38.22: SIM {TimeUS : 42635439, Roll : 0.0, Pitch : 0.0, Yaw : 0.0, Alt : 30.1000003815, Lat : 49.28357, Lng : -123.11502, Q1 : 1.0, Q2 : 0.0, Q3 : 0.0, Q4 : 0.0}
2019-04-14 20:50:38.31: SIM {TimeUS : 42735399, Roll : 0.0, Pitch : 0.0, Yaw : 0.0, Alt : 30.1000003815, Lat : 49.28357, Lng : -123.11502, Q1 : 1.0, Q2 : 0.0, Q3 : 0.0, Q4 : 0.0}
2019-04-14 20:50:38.41: SIM {TimeUS : 42835359, Roll : 0.0, Pitch : 0.0, Yaw : 0.0, Alt : 30.1000003815, Lat : 49.28357, Lng : -123.11502, Q1 : 1.0, Q2 : 0.0, Q3 : 0.0, Q4 : 3.50114867653e-11}
2019-04-14 20:50:38.51: SIM {TimeUS : 42935319, Roll : 0.0, Pitch : 0.0, Yaw : 360.0, Alt : 30.1000003815, Lat : 49.28357, Lng : -123.11502, Q1 : 1.0, Q2 : 0.0, Q3 : 0.0, Q4 : -1.62090429967e-08}
2019-04-14 20:50:38.61: SIM {TimeUS : 43035279, Roll : 0.0, Pitch : 0.0, Yaw : 359.99, Alt : 30.1000003815, Lat : 49.28357, Lng : -123.11502, Q1 : 1.0, Q2 : 0.0, Q3 : 0.0, Q4 : -2.43933925503e-07}
2019-04-14 20:50:38.71: SIM {TimeUS : 43135239, Roll : 0.0, Pitch : 0.0, Yaw : 359.99, Alt : 30.1000003815, Lat : 49.28357, Lng : -123.11502, Q1 : 1.0, Q2 : 0.0, Q3 : 0.0, Q4 : -4.21109291437e-07}
2019-04-14 20:50:38.81: SIM {TimeUS : 43235199, Roll : 0.0, Pitch : 0.0, Yaw : 359.99, Alt : 30.1000003815, Lat : 49.28357, Lng : -123.11502, Q1 : 1.0, Q2 : 0.0, Q3 : 0.0, Q4 : -5.90064928474e-07}
2019-04-14 20:50:38.91: SIM {TimeUS : 43335159, Roll : 0.0, Pitch : 0.0, Yaw : 359.99, Alt : 30.1000003815, Lat : 49.28357, Lng : -123.11502, Q1 : 1.0, Q2 : 0.0, Q3 : 0.0, Q4 : -7.58393809974e-07}
2019-04-14 20:50:39.01: SIM {TimeUS : 43435119, Roll : 0.0, Pitch : 0.0, Yaw : 359.99, Alt : 30.1000003815, Lat : 49.28357, Lng : -123.11502, Q1 : 1.0, Q2 : 0.0, Q3 : 0.0, Q4 : -9.47376236127e-07}
2019-04-14 20:50:39.11: SIM {TimeUS : 43535079, Roll : 0.0, Pitch : 0.0, Yaw : 359.99, Alt : 30.1000003815, Lat : 49.28357, Lng : -123.11502, Q1 : 1.0, Q2 : 0.0, Q3 : 0.0, Q4 : -1.12091652227e-06}
2019-04-14 20:50:39.21: SIM {TimeUS : 43635039, Roll : 0.0, Pitch : 0.0, Yaw : 359.99, Alt : 30.1000003815, Lat : 49.28357, Lng : -123.11502, Q1 : 1.0, Q2 : 0.0, Q3 : 0.0, Q4 : -1.37154063395e-06}
2019-04-14 20:50:39.31: SIM {TimeUS : 43734999, Roll : 0.0, Pitch : 0.0, Yaw : 359.99, Alt : 30.1200008392, Lat : 49.28357, Lng : -123.11502, Q1 : 1.0, Q2 : 0.0, Q3 : 0.0, Q4 : -1.58322529842e-06}
2019-04-14 20:50:39.41: SIM {TimeUS : 43834959, Roll : 0.0, Pitch : 0.0, Yaw : 359.99, Alt : 30.1499996185, Lat : 49.28357, Lng : -123.11502, Q1 : 1.0, Q2 : 0.0, Q3 : 0.0, Q4 : -1.79139419743e-06}
2019-04-14 20:50:39.51: SIM {TimeUS : 43934919, Roll : 0.0, Pitch : 0.0, Yaw : 359.99, Alt : 30.1800003052, Lat : 49.28357, Lng : -123.11502, Q1 : 1.0, Q2 : 0.0, Q3 : 0.0, Q4 : -1.9580497792e-06}
2019-04-14 20:50:39.61: SIM {TimeUS : 44034879, Roll : 0.0, Pitch : 0.0, Yaw : 359.99, Alt : 30.2099990845, Lat : 49.28357, Lng : -123.11502, Q1 : 1.0, Q2 : -1.2304604752e-05, Q3 : -1.21115408547e-05, Q4 : -2.24000700655e-06}
2019-04-14 20:50:39.71: SIM {TimeUS : 44134839, Roll : -0.2, Pitch : -0.17, Yaw : 359.99, Alt : 30.2700004578, Lat : 49.28357, Lng : -123.11502, Q1 : 0.999997258186, Q2 : -0.00175485759974, Q3 : -0.00156313879415, Q4 : -1.71062401932e-05}
2019-04-14 20:50:39.81: SIM {TimeUS : 44234799, Roll : -0.54, Pitch : -0.46, Yaw : 359.99, Alt : 30.3899993896, Lat : 49.28357, Lng : -123.11502, Q1 : 0.999980688095, Q2 : -0.00472786929458, Q3 : -0.0040300800465, Q4 : -6.01280371484e-05}
2019-04-14 20:50:39.91: SIM {TimeUS : 44334759, Roll : -0.81, Pitch : -0.67, Yaw : 359.99, Alt : 30.5400009155, Lat : 49.28357, Lng : -123.11502, Q1 : 0.999957501888, Q2 : -0.00707448646426, Q3 : -0.00590986432508, Q4 : -0.000125683553051}
2019-04-14 20:50:40.01: SIM {TimeUS : 44434719, Roll : -0.89, Pitch : -0.77, Yaw : 359.98, Alt : 30.7000007629, Lat : 49.28357, Lng : -123.11502, Q1 : 0.999947071075, Q2 : -0.00777377188206, Q3 : -0.00673569738865, Q4 : -0.000206375480047}
2019-04-14 20:50:40.11: SIM {TimeUS : 44534679, Roll : -0.81, Pitch : -0.72, Yaw : 359.97, Alt : 30.8600006104, Lat : 49.28357, Lng : -123.1150201, Q1 : 0.999954938889, Q2 : -0.00708253728226, Q3 : -0.0063155326061, Q4 : -0.000291756266961}
2019-04-14 20:50:40.21: SIM {TimeUS : 44634639, Roll : -0.63, Pitch : -0.56, Yaw : 359.96, Alt : 31.0100002289, Lat : 49.28357, Lng : -123.1150201, Q1 : 0.999972581863, Q2 : -0.0055236662738, Q3 : -0.00491133751348, Q4 : -0.000374309049221}
2019-04-14 20:50:40.32: SIM {TimeUS : 44735432, Roll : -0.4, Pitch : -0.35, Yaw : 359.95, Alt : 31.1700000763, Lat : 49.2835701, Lng : -123.1150202, Q1 : 0.999988913536, Q2 : -0.0035139140673, Q3 : -0.00310256984085, Q4 : -0.000445540761575}
2019-04-14 20:50:40.41: SIM {TimeUS : 44835392, Roll : -0.18, Pitch : -0.16, Yaw : 359.94, Alt : 31.3299999237, Lat : 49.2835701, Lng : -123.1150203, Q1 : 0.999997496605, Q2 : -0.00161664991174, Q3 : -0.00145096972119, Q4 : -0.000497043889482}
2019-04-14 20:50:40.51: SIM {TimeUS : 44935352, Roll : -0.02, Pitch : -0.03, Yaw : 359.93, Alt : 31.5, Lat : 49.2835702, Lng : -123.1150204, Q1 : 0.999999821186, Q2 : -0.000206629818422, Q3 : -0.000269151467364, Q4 : -0.000532008358277}
2019-04-14 20:50:40.61: SIM {TimeUS : 45035312, Roll : 0.06, Pitch : 0.03, Yaw : 359.93, Alt : 31.6700000763, Lat : 49.2835702, Lng : -123.1150205, Q1 : 0.999999642372, Q2 : 0.000606774468906, Q3 : 0.000306154368445, Q4 : -0.000544243084732}
2019-04-14 20:50:40.71: SIM {TimeUS : 45135272, Roll : 0.1, Pitch : 0.05, Yaw : 359.93, Alt : 31.8500003815, Lat : 49.2835703, Lng : -123.1150205, Q1 : 0.999999344349, Q2 : 0.000941481848713, Q3 : 0.000449840881629, Q4 : -0.0005287581007}
2019-04-14 20:50:40.81: SIM {TimeUS : 45235232, Roll : 0.09, Pitch : 0.05, Yaw : 359.94, Alt : 32.0299987793, Lat : 49.2835703, Lng : -123.1150206, Q1 : 0.999999403954, Q2 : 0.000859530584421, Q3 : 0.000443665136117, Q4 : -0.000505964912008}
2019-04-14 20:50:40.91: SIM {TimeUS : 45335192, Roll : 0.08, Pitch : 0.05, Yaw : 359.94, Alt : 32.2200012207, Lat : 49.2835703, Lng : -123.1150206, Q1 : 0.999999523163, Q2 : 0.000702772173099, Q3 : 0.00046535601723, Q4 : -0.000482359086163}
2019-04-14 20:50:41.01: SIM {TimeUS : 45435152, Roll : 0.05, Pitch : 0.06, Yaw : 359.94, Alt : 32.4099998474, Lat : 49.2835703, Lng : -123.1150207, Q1 : 0.999999582767, Q2 : 0.000513072940521, Q3 : 0.000605881563388, Q4 : -0.000462176423753}
2019-04-14 20:50:41.11: SIM {TimeUS : 45535112, Roll : 0.06, Pitch : 0.1, Yaw : 359.94, Alt : 32.6100006104, Lat : 49.2835703, Lng : -123.1150207, Q1 : 0.999999284744, Q2 : 0.000602745625656, Q3 : 0.00092412478989, Q4 : -0.000444013014203}
2019-04-14 20:50:41.21: SIM {TimeUS : 45635072, Roll : 0.1, Pitch : 0.13, Yaw : 359.95, Alt : 32.7999992371, Lat : 49.2835703, Lng : -123.1150208, Q1 : 0.999998748302, Q2 : 0.000932455412112, Q3 : 0.00119938142598, Q4 : -0.000435930181993}
2019-04-14 20:50:41.31: SIM {TimeUS : 45735032, Roll : 0.14, Pitch : 0.16, Yaw : 359.95, Alt : 33.0, Lat : 49.2835704, Lng : -123.1150208, Q1 : 0.999998152256, Q2 : 0.00123091868591, Q3 : 0.00139840261545, Q4 : -0.000436516565969}
2019-04-14 20:50:41.41: SIM {TimeUS : 45834992, Roll : 0.16, Pitch : 0.18, Yaw : 359.94, Alt : 33.2000007629, Lat : 49.2835704, Lng : -123.1150208, Q1 : 0.999997615814, Q2 : 0.00143677508458, Q3 : 0.00158488831948, Q4 : -0.000441232405137}
2019-04-14 20:50:41.51: SIM {TimeUS : 45934952, Roll : 0.17, Pitch : 0.17, Yaw : 359.94, Alt : 33.4099998474, Lat : 49.2835704, Lng : -123.1150208, Q1 : 0.99999755621, Q2 : 0.00154718244448, Q3 : 0.0015223948285, Q4 : -0.000447763071861}
2019-04-14 20:50:41.61: SIM {TimeUS : 46034912, Roll : 0.17, Pitch : 0.13, Yaw : 359.94, Alt : 33.6100006104, Lat : 49.2835704, Lng : -123.1150209, Q1 : 0.999997973442, Q2 : 0.00153066322673, Q3 : 0.00120152824093, Q4 : -0.000470758444862}
2019-04-14 20:50:41.71: SIM {TimeUS : 46134872, Roll : 0.16, Pitch : 0.11, Yaw : 359.94, Alt : 33.8199996948, Lat : 49.2835704, Lng : -123.1150209, Q1 : 0.99999833107, Q2 : 0.00143279449549, Q3 : 0.000998076051474, Q4 : -0.000491956248879}
2019-04-14 20:50:41.81: SIM {TimeUS : 46234832, Roll : 0.15, Pitch : 0.1, Yaw : 359.94, Alt : 34.0299987793, Lat : 49.2835704, Lng : -123.1150209, Q1 : 0.999998509884, Q2 : 0.00133512949105, Q3 : 0.000947088119574, Q4 : -0.000510543293785}
2019-04-14 20:50:41.91: SIM {TimeUS : 46334792, Roll : 0.15, Pitch : 0.11, Yaw : 359.93, Alt : 34.2400016785, Lat : 49.2835704, Lng : -123.1150209, Q1 : 0.999998450279, Q2 : 0.00134799838997, Q3 : 0.00100328179542, Q4 : -0.000530380173586}
2019-04-14 20:50:42.01: SIM {TimeUS : 46434752, Roll : 0.14, Pitch : 0.1, Yaw : 359.93, Alt : 34.4500007629, Lat : 49.2835704, Lng : -123.1150209, Q1 : 0.999998629093, Q2 : 0.0012776494259, Q3 : 0.000902937201317, Q4 : -0.000546003051568}
2019-04-14 20:50:42.11: SIM {TimeUS : 46534712, Roll : 0.12, Pitch : 0.08, Yaw : 359.93, Alt : 34.6599998474, Lat : 49.2835704, Lng : -123.1150208, Q1 : 0.999998927116, Q2 : 0.0011024386622, Q3 : 0.000770891725551, Q4 : -0.000559966661967}
2019-04-14 20:50:42.21: SIM {TimeUS : 46634672, Roll : 0.1, Pitch : 0.07, Yaw : 359.93, Alt : 34.8800010681, Lat : 49.2835704, Lng : -123.1150208, Q1 : 0.99999922514, Q2 : 0.000886855297722, Q3 : 0.000680096214637, Q4 : -0.000574372767005}
2019-04-14 20:50:42.31: SIM {TimeUS : 46734632, Roll : 0.07, Pitch : 0.06, Yaw : 359.93, Alt : 35.0900001526, Lat : 49.2835704, Lng : -123.1150208, Q1 : 0.999999463558, Q2 : 0.000640507496428, Q3 : 0.000594296259806, Q4 : -0.000593341479544}
2019-04-14 20:50:42.42: SIM {TimeUS : 46835425, Roll : 0.05, Pitch : 0.03, Yaw : 359.92, Alt : 35.3100013733, Lat : 49.2835704, Lng : -123.1150208, Q1 : 0.999999642372, Q2 : 0.000509860517923, Q3 : 0.000277718558209, Q4 : -0.000611933413893}
2019-04-14 20:50:42.51: SIM {TimeUS : 46935385, Roll : 0.05, Pitch : 0.0, Yaw : 359.92, Alt : 35.5299987793, Lat : 49.2835704, Lng : -123.1150208, Q1 : 0.999999701977, Q2 : 0.000437181908637, Q3 : 6.77368188917e-06, Q4 : -0.000637254270259}
2019-04-14 20:50:42.61: SIM {TimeUS : 47035345, Roll : 0.02, Pitch : -0.01, Yaw : 359.92, Alt : 35.75, Lat : 49.2835704, Lng : -123.1150208, Q1 : 0.999999761581, Q2 : 0.000235853309277, Q3 : -0.000111932080472, Q4 : -0.000666374282446}
2019-04-14 20:50:42.71: SIM {TimeUS : 47135305, Roll : 0.01, Pitch : -0.01, Yaw : 359.92, Alt : 35.9700012207, Lat : 49.2835704, Lng : -123.1150207, Q1 : 0.999999761581, Q2 : 0.000159282804816, Q3 : -0.000112125839223, Q4 : -0.000689633714501}
2019-04-14 20:50:42.81: SIM {TimeUS : 47235265, Roll : 0.02, Pitch : 0.0, Yaw : 359.91, Alt : 36.1899986267, Lat : 49.2835704, Lng : -123.1150207, Q1 : 0.999999761581, Q2 : 0.00017538559041, Q3 : -7.45085490053e-05, Q4 : -0.000710907566827}
2019-04-14 20:50:42.91: SIM {TimeUS : 47335225, Roll : 0.0, Pitch : -0.02, Yaw : 359.91, Alt : 36.4099998474, Lat : 49.2835704, Lng : -123.1150207, Q1 : 0.999999701977, Q2 : 3.36751945724e-05, Q3 : -0.000188543024706, Q4 : -0.000737621623557}
2019-04-14 20:50:43.01: SIM {TimeUS : 47435185, Roll : -0.03, Pitch : -0.05, Yaw : 359.91, Alt : 36.6399993896, Lat : 49.2835704, Lng : -123.1150207, Q1 : 0.999999582767, Q2 : -0.000276184844552, Q3 : -0.000449205253972, Q4 : -0.000768418307416}
2019-04-14 20:50:43.11: SIM {TimeUS : 47535145, Roll : -0.07, Pitch : -0.07, Yaw : 359.9, Alt : 36.8600006104, Lat : 49.2835704, Lng : -123.1150207, Q1 : 0.999999284744, Q2 : -0.000639416277409, Q3 : -0.000652274175081, Q4 : -0.000800083507784}
2019-04-14 20:50:43.21: SIM {TimeUS : 47635105, Roll : -0.11, Pitch : -0.09, Yaw : 359.9, Alt : 37.0800018311, Lat : 49.2835704, Lng : -123.1150207, Q1 : 0.999998807907, Q2 : -0.000997545663267, Q3 : -0.000824692251626, Q4 : -0.000833015306853}
2019-04-14 20:50:43.31: SIM {TimeUS : 47735065, Roll : -0.13, Pitch : -0.1, Yaw : 359.9, Alt : 37.3100013733, Lat : 49.2835704, Lng : -123.1150206, Q1 : 0.999998569489, Q2 : -0.0011381234508, Q3 : -0.000893850694411, Q4 : -0.000872029282618}
2019-04-14 20:50:43.41: SIM {TimeUS : 47835025, Roll : -0.12, Pitch : -0.09, Yaw : 359.89, Alt : 37.5299987793, Lat : 49.2835704, Lng : -123.1150206, Q1 : 0.999998688698, Q2 : -0.00108620547689, Q3 : -0.000804168579634, Q4 : -0.000910124334041}
2019-04-14 20:50:43.51: SIM {TimeUS : 47934985, Roll : -0.1, Pitch : -0.05, Yaw : 359.89, Alt : 37.7599983215, Lat : 49.2835704, Lng : -123.1150206, Q1 : 0.999998986721, Q2 : -0.000908132991754, Q3 : -0.000522351649124, Q4 : -0.000941908918321}
2019-04-14 20:50:43.61: SIM {TimeUS : 48034945, Roll : -0.08, Pitch : -0.03, Yaw : 359.88, Alt : 37.9900016785, Lat : 49.2835704, Lng : -123.1150206, Q1 : 0.99999922514, Q2 : -0.000708517211024, Q3 : -0.000315904559102, Q4 : -0.0009752647602}
2019-04-14 20:50:43.71: SIM {TimeUS : 48134905, Roll : -0.07, Pitch : -0.03, Yaw : 359.88, Alt : 38.2099990845, Lat : 49.2835704, Lng : -123.1150206, Q1 : 0.99999922514, Q2 : -0.000623328844085, Q3 : -0.000313335302053, Q4 : -0.00100773281883}
2019-04-14 20:50:43.81: SIM {TimeUS : 48234865, Roll : -0.07, Pitch : -0.02, Yaw : 359.88, Alt : 38.4399986267, Lat : 49.2835706, Lng : -123.1150206, Q1 : 0.99999922514, Q2 : -0.000655134790577, Q3 : -0.000199750516913, Q4 : -0.00102667917963}
2019-04-14 20:50:43.91: SIM {TimeUS : 48334825, Roll : -0.09, Pitch : 0.0, Yaw : 359.88, Alt : 38.6699981689, Lat : 49.2835706, Lng : -123.1150206, Q1 : 0.999999165535, Q2 : -0.00081362813944, Q3 : -5.60064472666e-05, Q4 : -0.00103660731111}
2019-04-14 20:50:44.01: SIM {TimeUS : 48434785, Roll : -0.09, Pitch : 0.0, Yaw : 359.88, Alt : 38.9000015259, Lat : 49.2835706, Lng : -123.1150206, Q1 : 0.99999910593, Q2 : -0.000835693499539, Q3 : 7.57387388148e-05, Q4 : -0.00103964563459}
2019-04-14 20:50:44.11: SIM {TimeUS : 48534745, Roll : -0.07, Pitch : 0.03, Yaw : 359.88, Alt : 39.1300010681, Lat : 49.2835706, Lng : -123.1150206, Q1 : 0.999999165535, Q2 : -0.000685162027366, Q3 : 0.000308483111439, Q4 : -0.00103711977135}
2019-04-14 20:50:44.21: SIM {TimeUS : 48634705, Roll : -0.05, Pitch : 0.03, Yaw : 359.88, Alt : 39.3600006104, Lat : 49.2835706, Lng : -123.1150206, Q1 : 0.999999284744, Q2 : -0.000489093828946, Q3 : 0.000342560379067, Q4 : -0.00102577614598}
2019-04-14 20:50:44.31: SIM {TimeUS : 48734665, Roll : -0.02, Pitch : 0.04, Yaw : 359.88, Alt : 39.5900001526, Lat : 49.2835706, Lng : -123.1150206, Q1 : 0.999999403954, Q2 : -0.000243722170126, Q3 : 0.000351751135895, Q4 : -0.00101375312079}
2019-04-14 20:50:44.41: SIM {TimeUS : 48834625, Roll : 0.01, Pitch : 0.06, Yaw : 359.88, Alt : 39.8199996948, Lat : 49.2835706, Lng : -123.1150207, Q1 : 0.999999344349, Q2 : 0.00011493859347, Q3 : 0.000593385775574, Q4 : -0.00100109516643}
2019-04-14 20:50:44.52: SIM {TimeUS : 48935418, Roll : 0.05, Pitch : 0.11, Yaw : 359.88, Alt : 40.0499992371, Lat : 49.2835706, Lng : -123.1150207, Q1 : 0.999998867512, Q2 : 0.000505239935592, Q3 : 0.000992175890133, Q4 : -0.00100104231387}
2019-04-14 20:50:44.61: SIM {TimeUS : 49035378, Roll : 0.09, Pitch : 0.15, Yaw : 359.88, Alt : 40.2799987793, Lat : 49.2835706, Lng : -123.1150207, Q1 : 0.999998271465, Q2 : 0.000799324596301, Q3 : 0.00135159085039, Q4 : -0.00101220561191}
2019-04-14 20:50:44.71: SIM {TimeUS : 49135338, Roll : 0.08, Pitch : 0.19, Yaw : 359.88, Alt : 40.5099983215, Lat : 49.2835706, Lng : -123.1150207, Q1 : 0.999997854233, Q2 : 0.000723443867173, Q3 : 0.00167398899794, Q4 : -0.00101909833029}
2019-04-14 20:50:44.81: SIM {TimeUS : 49235298, Roll : 0.03, Pitch : 0.21, Yaw : 359.87, Alt : 40.75, Lat : 49.2835706, Lng : -123.1150207, Q1 : 0.999997675419, Q2 : 0.000273192767054, Q3 : 0.00187738344539, Q4 : -0.00104864593595}
2019-04-14 20:50:44.91: SIM {TimeUS : 49335258, Roll : -0.01, Pitch : 0.21, Yaw : 359.87, Alt : 40.9799995422, Lat : 49.2835706, Lng : -123.1150207, Q1 : 0.999997615814, Q2 : -0.000136304923217, Q3 : 0.00188444706146, Q4 : -0.00107911741361}
2019-04-14 20:50:45.01: SIM {TimeUS : 49435218, Roll : -0.03, Pitch : 0.17, Yaw : 359.87, Alt : 41.2099990845, Lat : 49.2835706, Lng : -123.1150207, Q1 : 0.999998152256, Q2 : -0.000324850872857, Q3 : 0.00156292773318, Q4 : -0.00110788526945}
2019-04-14 20:50:45.11: SIM {TimeUS : 49535178, Roll : -0.03, Pitch : 0.13, Yaw : 359.86, Alt : 41.4500007629, Lat : 49.2835706, Lng : -123.1150207, Q1 : 0.999998629093, Q2 : -0.000336985802278, Q3 : 0.00114572152961, Q4 : -0.00114491826389}
2019-04-14 20:50:45.21: SIM {TimeUS : 49635138, Roll : -0.02, Pitch : 0.11, Yaw : 359.86, Alt : 41.6800003052, Lat : 49.2835706, Lng : -123.1150207, Q1 : 0.999998748302, Q2 : -0.000194933236344, Q3 : 0.0010188909946, Q4 : -0.00118666701019}
2019-04-14 20:50:45.31: SIM {TimeUS : 49735098, Roll : 0.01, Pitch : 0.12, Yaw : 359.85, Alt : 41.9099998474, Lat : 49.2835706, Lng : -123.1150207, Q1 : 0.999998629093, Q2 : 0.000149122672155, Q3 : 0.00109174323734, Q4 : -0.0012311025057}
2019-04-14 20:50:45.41: SIM {TimeUS : 49835058, Roll : 0.06, Pitch : 0.13, Yaw : 359.85, Alt : 42.1500015259, Lat : 49.2835706, Lng : -123.1150207, Q1 : 0.99999833107, Q2 : 0.000608727394138, Q3 : 0.00114876404405, Q4 : -0.00127538689412}
2019-04-14 20:50:45.51: SIM {TimeUS : 49935018, Roll : 0.1, Pitch : 0.11, Yaw : 359.84, Alt : 42.3800010681, Lat : 49.2835706, Lng : -123.1150207, Q1 : 0.999998152256, Q2 : 0.000954425602686, Q3 : 0.000995313283056, Q4 : -0.00132102344651}
2019-04-14 20:50:45.61: SIM {TimeUS : 50034978, Roll : 0.1, Pitch : 0.08, Yaw : 359.84, Alt : 42.6199989319, Lat : 49.2835706, Lng : -123.1150207, Q1 : 0.99999833107, Q2 : 0.000958150369115, Q3 : 0.00072605261812, Q4 : -0.00135992944706}
2019-04-14 20:50:45.71: SIM {TimeUS : 50134938, Roll : 0.06, Pitch : 0.06, Yaw : 359.84, Alt : 42.8499984741, Lat : 49.2835706, Lng : -123.1150207, Q1 : 0.999998748302, Q2 : 0.000607644615229, Q3 : 0.000548356736545, Q4 : -0.001382016344}
2019-04-14 20:50:45.81: SIM {TimeUS : 50234898, Roll : 0.01, Pitch : 0.05, Yaw : 359.83, Alt : 43.0900001526, Lat : 49.2835706, Lng : -123.1150207, Q1 : 0.999998867512, Q2 : 0.000109621389129, Q3 : 0.000511885446031, Q4 : -0.00139658502303}
2019-04-14 20:50:45.91: SIM {TimeUS : 50334858, Roll : -0.02, Pitch : 0.07, Yaw : 359.83, Alt : 43.3199996948, Lat : 49.2835704, Lng : -123.1150207, Q1 : 0.999998748302, Q2 : -0.000237812433625, Q3 : 0.000636682379991, Q4 : -0.00141238665674}
2019-04-14 20:50:46.01: SIM {TimeUS : 50434818, Roll : -0.04, Pitch : 0.08, Yaw : 359.83, Alt : 43.5600013733, Lat : 49.2835704, Lng : -123.1150207, Q1 : 0.999998629093, Q2 : -0.000395992334234, Q3 : 0.000700786767993, Q4 : -0.00142700469587}
2019-04-14 20:50:46.11: SIM {TimeUS : 50534778, Roll : -0.04, Pitch : 0.06, Yaw : 359.83, Alt : 43.7900009155, Lat : 49.2835704, Lng : -123.1150207, Q1 : 0.999998688698, Q2 : -0.000368457695004, Q3 : 0.000601971813012, Q4 : -0.0014368816046}
2019-04-14 20:50:46.21: SIM {TimeUS : 50634738, Roll : -0.04, Pitch : 0.05, Yaw : 359.83, Alt : 44.0299987793, Lat : 49.2835704, Lng : -123.1150206, Q1 : 0.999998807907, Q2 : -0.000389329332393, Q3 : 0.000438163348008, Q4 : -0.00145233783405}
2019-04-14 20:50:46.31: SIM {TimeUS : 50734698, Roll : -0.03, Pitch : 0.03, Yaw : 359.83, Alt : 44.2599983215, Lat : 49.2835704, Lng : -123.1150206, Q1 : 0.999998807907, Q2 : -0.000341947481502, Q3 : 0.000290182506433, Q4 : -0.00147351401392}
2019-04-14 20:50:46.41: SIM {TimeUS : 50834658, Roll : -0.02, Pitch : 0.02, Yaw : 359.82, Alt : 44.5, Lat : 49.2835704, Lng : -123.1150206, Q1 : 0.999998807907, Q2 : -0.000216091866605, Q3 : 0.000243971051532, Q4 : -0.00150027778}
2019-04-14 20:50:46.51: SIM {TimeUS : 50934618, Roll : -0.01, Pitch : 0.02, Yaw : 359.82, Alt : 44.7400016785, Lat : 49.2835704, Lng : -123.1150206, Q1 : 0.999998807907, Q2 : -0.000147136539454, Q3 : 0.000247464806307, Q4 : -0.00152750557754}
2019-04-14 20:50:46.61: SIM {TimeUS : 51035411, Roll : -0.02, Pitch : 0.01, Yaw : 359.82, Alt : 44.9700012207, Lat : 49.2835704, Lng : -123.1150206, Q1 : 0.999998748302, Q2 : -0.000176325469511, Q3 : 0.000149218918523, Q4 : -0.00156093935948}
2019-04-14 20:50:46.71: SIM {TimeUS : 51135371, Roll : -0.02, Pitch : -0.01, Yaw : 359.81, Alt : 45.2099990845, Lat : 49.2835703, Lng : -123.1150206, Q1 : 0.999998688698, Q2 : -0.000222419010242, Q3 : -0.000120837285067, Q4 : -0.00159486592747}
2019-04-14 20:50:46.81: SIM {TimeUS : 51235331, Roll : -0.03, Pitch : -0.03, Yaw : 359.81, Alt : 45.4500007629, Lat : 49.2835703, Lng : -123.1150206, Q1 : 0.999998569489, Q2 : -0.000266842514975, Q3 : -0.000325848726789, Q4 : -0.00162993837148}
2019-04-14 20:50:46.91: SIM {TimeUS : 51335291, Roll : -0.02, Pitch : -0.05, Yaw : 359.8, Alt : 45.6800003052, Lat : 49.2835703, Lng : -123.1150206, Q1 : 0.999998509884, Q2 : -0.000255886960076, Q3 : -0.000447588361567, Q4 : -0.00166378205176}
2019-04-14 20:50:47.01: SIM {TimeUS : 51435251, Roll : -0.03, Pitch : -0.05, Yaw : 359.8, Alt : 45.9099998474, Lat : 49.2835703, Lng : -123.1150206, Q1 : 0.999998390675, Q2 : -0.000290720898192, Q3 : -0.000468162237667, Q4 : -0.00169707916211}
2019-04-14 20:50:47.11: SIM {TimeUS : 51535211, Roll : -0.05, Pitch : -0.04, Yaw : 359.8, Alt : 46.1399993896, Lat : 49.2835703, Lng : -123.1150206, Q1 : 0.99999833107, Q2 : -0.000480836024508, Q3 : -0.000411828921642, Q4 : -0.00172625493724}
2019-04-14 20:50:47.21: SIM {TimeUS : 51635171, Roll : -0.08, Pitch : -0.04, Yaw : 359.79, Alt : 46.3699989319, Lat : 49.2835703, Lng : -123.1150206, Q1 : 0.999998092651, Q2 : -0.000763560645282, Q3 : -0.00035330009996, Q4 : -0.00175033765845}
2019-04-14 20:50:47.31: SIM {TimeUS : 51735131, Roll : -0.11, Pitch : -0.03, Yaw : 359.79, Alt : 46.5900001526, Lat : 49.2835703, Lng : -123.1150206, Q1 : 0.999997913837, Q2 : -0.000966644205619, Q3 : -0.000307004054775, Q4 : -0.00177198811434}
2019-04-14 20:50:47.41: SIM {TimeUS : 51835091, Roll : -0.11, Pitch : -0.02, Yaw : 359.79, Alt : 46.8100013733, Lat : 49.2835703, Lng : -123.1150206, Q1 : 0.999997854233, Q2 : -0.00099758291617, Q3 : -0.000201906543225, Q4 : -0.00179149082396}
2019-04-14 20:50:47.51: SIM {TimeUS : 51935051, Roll : -0.1, Pitch : 0.0, Yaw : 359.79, Alt : 47.0200004578, Lat : 49.2835703, Lng : -123.1150206, Q1 : 0.999997973442, Q2 : -0.000874620571267, Q3 : 8.17939053377e-07, Q4 : -0.00181258865632}
2019-04-14 20:50:47.61: SIM {TimeUS : 52035011, Roll : -0.07, Pitch : 0.01, Yaw : 359.78, Alt : 47.2200012207, Lat : 49.2835703, Lng : -123.1150206, Q1 : 0.999998092651, Q2 : -0.000679353135638, Q3 : 0.000114207839943, Q4 : -0.00183399254456}
2019-04-14 20:50:47.71: SIM {TimeUS : 52134971, Roll : -0.05, Pitch : 0.01, Yaw : 359.78, Alt : 47.4199981689, Lat : 49.2835703, Lng : -123.1150206, Q1 : 0.999998152256, Q2 : -0.000506984302774, Q3 : 9.19589001569e-05, Q4 : -0.00185761519242}
2019-04-14 20:50:47.81: SIM {TimeUS : 52234931, Roll : -0.04, Pitch : 0.0, Yaw : 359.78, Alt : 47.5999984741, Lat : 49.2835703, Lng : -123.1150206, Q1 : 0.999998152256, Q2 : -0.000426956423325, Q3 : -6.41941369395e-05, Q4 : -0.00188229582272}
2019-04-14 20:50:47.91: SIM {TimeUS : 52334891, Roll : -0.05, Pitch : -0.04, Yaw : 359.78, Alt : 47.7799987793, Lat : 49.2835703, Lng : -123.1150206, Q1 : 0.999997973442, Q2 : -0.000470755359856, Q3 : -0.000400742166676, Q4 : -0.00190643686801}
2019-04-14 20:50:48.01: SIM {TimeUS : 52434851, Roll : -0.04, Pitch : -0.08, Yaw : 359.77, Alt : 47.9399986267, Lat : 49.2835703, Lng : -123.1150206, Q1 : 0.999997794628, Q2 : -0.000431337422924, Q3 : -0.000708547479007, Q4 : -0.00193293055054}
2019-04-14 20:50:48.11: SIM {TimeUS : 52534811, Roll : -0.04, Pitch : -0.1, Yaw : 359.77, Alt : 48.0900001526, Lat : 49.2835703, Lng : -123.1150206, Q1 : 0.99999755621, Q2 : -0.000383205653634, Q3 : -0.000938409415539, Q4 : -0.00196096883155}
2019-04-14 20:50:48.21: SIM {TimeUS : 52634771, Roll : -0.03, Pitch : -0.12, Yaw : 359.77, Alt : 48.2299995422, Lat : 49.2835703, Lng : -123.1150206, Q1 : 0.999997377396, Q2 : -0.000343937863363, Q3 : -0.00107343378477, Q4 : -0.00198833830655}
2019-04-14 20:50:48.31: SIM {TimeUS : 52734731, Roll : 0.0, Pitch : -0.11, Yaw : 359.76, Alt : 48.3600006104, Lat : 49.2835703, Lng : -123.1150206, Q1 : 0.999997496605, Q2 : -7.4195995694e-05, Q3 : -0.000997724942863, Q4 : -0.00201441952959}
2019-04-14 20:50:48.41: SIM {TimeUS : 52834691, Roll : 0.03, Pitch : -0.08, Yaw : 359.76, Alt : 48.4799995422, Lat : 49.2835703, Lng : -123.1150206, Q1 : 0.99999755621, Q2 : 0.000260966393398, Q3 : -0.000783354684245, Q4 : -0.00204062019475}
2019-04-14 20:50:48.51: SIM {TimeUS : 52934651, Roll : 0.05, Pitch : -0.06, Yaw : 359.76, Alt : 48.5800018311, Lat : 49.2835703, Lng : -123.1150206, Q1 : 0.99999755621, Q2 : 0.000518729444593, Q3 : -0.000531638273969, Q4 : -0.00206950493157}
2019-04-14 20:50:48.62: SIM {TimeUS : 53035444, Roll : 0.06, Pitch : -0.03, Yaw : 359.75, Alt : 48.6699981689, Lat : 49.2835703, Lng : -123.1150206, Q1 : 0.99999755621, Q2 : 0.000596074794885, Q3 : -0.000297950318782, Q4 : -0.00210345676169}
2019-04-14 20:50:48.71: SIM {TimeUS : 53135404, Roll : 0.07, Pitch : -0.02, Yaw : 359.75, Alt : 48.7599983215, Lat : 49.2835703, Lng : -123.1150207, Q1 : 0.999997496605, Q2 : 0.000629744899925, Q3 : -0.00019744981546, Q4 : -0.00213293125853}
2019-04-14 20:50:48.81: SIM {TimeUS : 53235364, Roll : 0.06, Pitch : -0.02, Yaw : 359.75, Alt : 48.8199996948, Lat : 49.2835703, Lng : -123.1150207, Q1 : 0.999997437, Q2 : 0.000573839584831, Q3 : -0.00026061013341, Q4 : -0.00216052401811}
2019-04-14 20:50:48.91: SIM {TimeUS : 53335324, Roll : 0.03, Pitch : -0.03, Yaw : 359.74, Alt : 48.8899993896, Lat : 49.2835703, Lng : -123.1150207, Q1 : 0.999997496605, Q2 : 0.000329898030031, Q3 : -0.000290324300295, Q4 : -0.00218389928341}
2019-04-14 20:50:49.01: SIM {TimeUS : 53435284, Roll : 0.01, Pitch : -0.02, Yaw : 359.74, Alt : 48.9399986267, Lat : 49.2835703, Lng : -123.1150207, Q1 : 0.99999755621, Q2 : 0.000126210725284, Q3 : -0.000257095816778, Q4 : -0.00220404169522}
2019-04-14 20:50:49.11: SIM {TimeUS : 53535244, Roll : 0.0, Pitch : -0.02, Yaw : 359.74, Alt : 48.9799995422, Lat : 49.2835703, Lng : -123.1150207, Q1 : 0.999997496605, Q2 : 7.58711248636e-05, Q3 : -0.00025736365933, Q4 : -0.00222498644143}
2019-04-14 20:50:49.21: SIM {TimeUS : 53635204, Roll : 0.1, Pitch : -0.08, Yaw : 359.74, Alt : 49.0200004578, Lat : 49.2835703, Lng : -123.1150207, Q1 : 0.999996781349, Q2 : 0.000942684127949, Q3 : -0.000727375270799, Q4 : -0.00225137197413}
2019-04-14 20:50:49.31: SIM {TimeUS : 53735164, Roll : 0.43, Pitch : -0.26, Yaw : 359.73, Alt : 49.0499992371, Lat : 49.2835704, Lng : -123.1150207, Q1 : 0.999987661839, Q2 : 0.00375564070418, Q3 : -0.00231979670934, Q4 : -0.00227697449736}
2019-04-14 20:50:49.41: SIM {TimeUS : 53835124, Roll : 0.98, Pitch : -0.61, Yaw : 359.73, Alt : 49.0800018311, Lat : 49.2835704, Lng : -123.1150207, Q1 : 0.999945998192, Q2 : 0.00858536921442, Q3 : -0.00539026549086, Q4 : -0.00229734927416}
2019-04-14 20:50:49.51: SIM {TimeUS : 53935084, Roll : 1.71, Pitch : -1.12, Yaw : 359.71, Alt : 49.1100006104, Lat : 49.2835704, Lng : -123.1150206, Q1 : 0.999836802483, Q2 : 0.0149753419682, Q3 : -0.00983642786741, Q4 : -0.00230824877508}
2019-04-14 20:50:49.61: SIM {TimeUS : 54035044, Roll : 2.55, Pitch : -1.72, Yaw : 359.7, Alt : 49.1300010681, Lat : 49.2835704, Lng : -123.1150206, Q1 : 0.999636173248, Q2 : 0.022233620286, Q3 : -0.0151013815776, Q4 : -0.00227998918854}
2019-04-14 20:50:49.71: SIM {TimeUS : 54135004, Roll : 3.36, Pitch : -2.34, Yaw : 359.67, Alt : 49.1399993896, Lat : 49.2835706, Lng : -123.1150205, Q1 : 0.99935567379, Q2 : 0.0293319802731, Q3 : -0.0205696541816, Q4 : -0.00220805266872}
2019-04-14 20:50:49.81: SIM {TimeUS : 54234964, Roll : 4.07, Pitch : -2.88, Yaw : 359.66, Alt : 49.1599998474, Lat : 49.2835707, Lng : -123.1150203, Q1 : 0.999050617218, Q2 : 0.035449244082, Q3 : -0.025239104405, Q4 : -0.00206019147299}
2019-04-14 20:50:49.91: SIM {TimeUS : 54334924, Roll : 4.61, Pitch : -3.26, Yaw : 359.65, Alt : 49.1699981689, Lat : 49.2835708, Lng : -123.11502, Q1 : 0.998784184456, Q2 : 0.0401321277022, Q3 : -0.0285699274391, Q4 : -0.00183542410377}
2019-04-14 20:50:50.01: SIM {TimeUS : 54434884, Roll : 4.99, Pitch : -3.53, Yaw : 359.66, Alt : 49.1800003052, Lat : 49.2835709, Lng : -123.1150198, Q1 : 0.998573243618, Q2 : 0.0435047149658, Q3 : -0.030925411731, Q4 : -0.00157129974104}
2019-04-14 20:50:50.11: SIM {TimeUS : 54534844, Roll : 5.3, Pitch : -3.74, Yaw : 359.68, Alt : 49.2000007629, Lat : 49.2835712, Lng : -123.1150193, Q1 : 0.998393654823, Q2 : 0.0461985431612, Q3 : -0.032774604857, Q4 : -0.00127125193831}
2019-04-14 20:50:50.21: SIM {TimeUS : 54634804, Roll : 5.58, Pitch : -3.94, Yaw : 359.69, Alt : 49.2000007629, Lat : 49.2835714, Lng : -123.1150188, Q1 : 0.998221993446, Q2 : 0.0486201941967, Q3 : -0.0344666540623, Q4 : -0.000968301668763}
2019-04-14 20:50:50.31: SIM {TimeUS : 54734764, Roll : 5.88, Pitch : -4.16, Yaw : 359.7, Alt : 49.2099990845, Lat : 49.2835716, Lng : -123.1150181, Q1 : 0.998022437096, Q2 : 0.0512177534401, Q3 : -0.0364352501929, Q4 : -0.000686752493493}
2019-04-14 20:50:50.41: SIM {TimeUS : 54834724, Roll : 6.19, Pitch : -4.39, Yaw : 359.71, Alt : 49.2200012207, Lat : 49.283572, Lng : -123.1150174, Q1 : 0.997803926468, Q2 : 0.0539260394871, Q3 : -0.038460534066, Q4 : -0.000416976225097}
2019-04-14 20:50:50.51: SIM {TimeUS : 54934684, Roll : 6.49, Pitch : -4.59, Yaw : 359.72, Alt : 49.2299995422, Lat : 49.2835724, Lng : -123.1150166, Q1 : 0.997594714165, Q2 : 0.0564752146602, Q3 : -0.0401903428137, Q4 : -0.000160632873303}
2019-04-14 20:50:50.61: SIM {TimeUS : 55034644, Roll : 6.7, Pitch : -4.73, Yaw : 359.73, Alt : 49.2299995422, Lat : 49.2835727, Lng : -123.1150157, Q1 : 0.997441053391, Q2 : 0.0583326779306, Q3 : -0.0413353145123, Q4 : 6.99569645803e-05}
2019-04-14 20:50:50.72: SIM {TimeUS : 55135437, Roll : 6.84, Pitch : -4.81, Yaw : 359.74, Alt : 49.2400016785, Lat : 49.2835733, Lng : -123.1150146, Q1 : 0.997339308262, Q2 : 0.0595341138542, Q3 : -0.0420717932284, Q4 : 0.00024870960624}
2019-04-14 20:50:50.81: SIM {TimeUS : 55235397, Roll : 6.92, Pitch : -4.88, Yaw : 359.74, Alt : 49.2400016785, Lat : 49.2835738, Lng : -123.1150135, Q1 : 0.997269868851, Q2 : 0.0602488219738, Q3 : -0.04269329831, Q4 : 0.000343159976183}
2019-04-14 20:50:50.91: SIM {TimeUS : 55335357, Roll : 7.01, Pitch : -4.94, Yaw : 359.74, Alt : 49.25, Lat : 49.2835744, Lng : -123.1150123, Q1 : 0.997198045254, Q2 : 0.0610538013279, Q3 : -0.0432242043316, Q4 : 0.000388875225326}
2019-04-14 20:50:51.01: SIM {TimeUS : 55435317, Roll : 7.19, Pitch : -4.97, Yaw : 359.75, Alt : 49.25, Lat : 49.283575, Lng : -123.115011, Q1 : 0.997094035149, Q2 : 0.0625793337822, Q3 : -0.0434385202825, Q4 : 0.000621554849204}
2019-04-14 20:50:51.11: SIM {TimeUS : 55535277, Roll : 7.59, Pitch : -4.85, Yaw : 0.1, Alt : 49.2599983215, Lat : 49.2835756, Lng : -123.1150096, Q1 : 0.996909201145, Q2 : 0.0661805793643, Q3 : -0.0421725809574, Q4 : 0.00369407865219}
2019-04-14 20:50:51.21: SIM {TimeUS : 55635237, Roll : 8.2, Pitch : -4.65, Yaw : 1.42, Alt : 49.2599983215, Lat : 49.2835763, Lng : -123.1150082, Q1 : 0.99650067091, Q2 : 0.0719980597496, Q3 : -0.039603985846, Q4 : 0.0153062259778}
2019-04-14 20:50:51.31: SIM {TimeUS : 55735197, Roll : 8.8, Pitch : -4.73, Yaw : 4.25, Alt : 49.2599983215, Lat : 49.2835769, Lng : -123.1150067, Q1 : 0.995391786098, Q2 : 0.078202418983, Q3 : -0.0383129902184, Q4 : 0.0401459373534}
2019-04-14 20:50:51.41: SIM {TimeUS : 55835157, Roll : 9.12, Pitch : -5.3, Yaw : 8.65, Alt : 49.2599983215, Lat : 49.2835776, Lng : -123.115005, Q1 : 0.992651820183, Q2 : 0.0826822817326, Q3 : -0.0400032289326, Q4 : 0.0787767767906}
2019-04-14 20:50:51.51: SIM {TimeUS : 55935117, Roll : 8.92, Pitch : -6.36, Yaw : 14.43, Alt : 49.2599983215, Lat : 49.2835783, Lng : -123.1150032, Q1 : 0.986990332603, Q2 : 0.0840612277389, Q3 : -0.0451797842979, Q4 : 0.129393160343}
2019-04-14 20:50:51.61: SIM {TimeUS : 56035077, Roll : 8.12, Pitch : -7.8, Yaw : 21.37, Alt : 49.2599983215, Lat : 49.2835791, Lng : -123.1150013, Q1 : 0.977026879787, Q2 : 0.0820185020566, Q3 : -0.0535781607032, Q4 : 0.189263939857}
2019-04-14 20:50:51.71: SIM {TimeUS : 56135037, Roll : 6.69, Pitch : -9.41, Yaw : 29.18, Alt : 49.2700004578, Lat : 49.2835798, Lng : -123.1149993, Q1 : 0.961614131927, Q2 : 0.0769926682115, Q3 : -0.0645897760987, Q4 : 0.255340099335}
2019-04-14 20:50:51.81: SIM {TimeUS : 56234997, Roll : 4.73, Pitch : -10.96, Yaw : 37.64, Alt : 49.2700004578, Lat : 49.2835806, Lng : -123.1149971, Q1 : 0.940129339695, Q2 : 0.0697017014027, Q3 : -0.0771096125245, Q4 : 0.324580788612}
2019-04-14 20:50:51.91: SIM {TimeUS : 56334957, Roll : 2.16, Pitch : -12.22, Yaw : 46.39, Alt : 49.2700004578, Lat : 49.2835813, Lng : -123.1149948, Q1 : 0.912967443466, Q2 : 0.0591938681901, Q3 : -0.0904954969883, Q4 : 0.393442600965}
2019-04-14 20:50:52.01: SIM {TimeUS : 56434917, Roll : -0.97, Pitch : -12.97, Yaw : 54.75, Alt : 49.2700004578, Lat : 49.2835823, Lng : -123.1149925, Q1 : 0.882736861706, Q2 : 0.0444800034165, Q3 : -0.104205794632, Q4 : 0.456002563238}
2019-04-14 20:50:52.11: SIM {TimeUS : 56534877, Roll : -4.09, Pitch : -13.16, Yaw : 61.8, Alt : 49.2700004578, Lat : 49.2835831, Lng : -123.1149901, Q1 : 0.853946626186, Q2 : 0.0284266490489, Q3 : -0.116545647383, Q4 : 0.506344020367}
2019-04-14 20:50:52.21: SIM {TimeUS : 56634837, Roll : -6.56, Pitch : -12.98, Yaw : 66.92, Alt : 49.2700004578, Lat : 49.2835843, Lng : -123.1149876, Q1 : 0.831112265587, Q2 : 0.0147728146985, Q3 : -0.125558525324, Q4 : 0.541543364525}
2019-04-14 20:50:52.31: SIM {TimeUS : 56734797, Roll : -8.01, Pitch : -12.71, Yaw : 69.94, Alt : 49.2700004578, Lat : 49.2835854, Lng : -123.114985, Q1 : 0.816843926907, Q2 : 0.00642106914893, Q3 : -0.130343481898, Q4 : 0.561903297901}
2019-04-14 20:50:52.41: SIM {TimeUS : 56834757, Roll : -8.39, Pitch : -12.6, Yaw : 71.05, Alt : 49.2700004578, Lat : 49.2835866, Lng : -123.1149824, Q1 : 0.811438500881, Q2 : 0.00441612815484, Q3 : -0.131323650479, Q4 : 0.569475352764}
2019-04-14 20:50:52.51: SIM {TimeUS : 56934717, Roll : -7.86, Pitch : -12.72, Yaw : 70.59, Alt : 49.2700004578, Lat : 49.2835879, Lng : -123.1149797, Q1 : 0.813639223576, Q2 : 0.00826834887266, Q3 : -0.129644677043, Q4 : 0.566670179367}
2019-04-14 20:50:52.61: SIM {TimeUS : 57034677, Roll : -6.65, Pitch : -13.11, Yaw : 68.92, Alt : 49.2700004578, Lat : 49.2835893, Lng : -123.114977, Q1 : 0.821451365948, Q2 : 0.0169810317457, Q3 : -0.126673966646, Q4 : 0.555772483349}
2019-04-14 20:50:52.71: SIM {TimeUS : 57134637, Roll : -5.0, Pitch : -13.72, Yaw : 66.41, Alt : 49.2700004578, Lat : 49.2835909, Lng : -123.1149743, Q1 : 0.832764565945, Q2 : 0.0291383750737, Q3 : -0.123627074063, Q4 : 0.538860321045}
2019-04-14 20:50:52.82: SIM {TimeUS : 57235430, Roll : -3.11, Pitch : -14.43, Yaw : 63.33, Alt : 49.2799987793, Lat : 49.2835925, Lng : -123.1149713, Q1 : 0.845830917358, Q2 : 0.0430018082261, Q3 : -0.121038332582, Q4 : 0.517755389214}
2019-04-14 20:50:52.91: SIM {TimeUS : 57335390, Roll : -1.2, Pitch : -15.07, Yaw : 60.06, Alt : 49.2799987793, Lat : 49.283594, Lng : -123.1149685, Q1 : 0.858917295933, Q2 : 0.0565906725824, Q3 : -0.118806302547, Q4 : 0.494917809963}
2019-04-14 20:50:53.01: SIM {TimeUS : 57435350, Roll : 0.54, Pitch : -15.55, Yaw : 56.89, Alt : 49.2799987793, Lat : 49.2835958, Lng : -123.1149654, Q1 : 0.870862662792, Q2 : 0.0685821771622, Q3 : -0.116774126887, Q4 : 0.472502410412}
2019-04-14 20:50:53.11: SIM {TimeUS : 57535310, Roll : 1.99, Pitch : -15.82, Yaw : 54.14, Alt : 49.2799987793, Lat : 49.2835974, Lng : -123.1149622, Q1 : 0.880722403526, Q2 : 0.0779500305653, Q3 : -0.114700086415, Q4 : 0.452874958515}
2019-04-14 20:50:53.21: SIM {TimeUS : 57635270, Roll : 3.01, Pitch : -15.89, Yaw : 52.07, Alt : 49.2799987793, Lat : 49.283599, Lng : -123.114959, Q1 : 0.887982368469, Q2 : 0.0841000452638, Q3 : -0.112712711096, Q4 : 0.437847435474}
2019-04-14 20:50:53.31: SIM {TimeUS : 57735230, Roll : 3.57, Pitch : -15.84, Yaw : 50.78, Alt : 49.2799987793, Lat : 49.2836007, Lng : -123.1149555, Q1 : 0.892489492893, Q2 : 0.0869721621275, Q3 : -0.111187338829, Q4 : 0.428410679102}
2019-04-14 20:50:53.41: SIM {TimeUS : 57835190, Roll : 3.67, Pitch : -15.77, Yaw : 50.29, Alt : 49.2799987793, Lat : 49.2836024, Lng : -123.114952, Q1 : 0.894330322742, Q2 : 0.0870087817311, Q3 : -0.110640622675, Q4 : 0.424689799547}
2019-04-14 20:50:53.51: SIM {TimeUS : 57935150, Roll : 3.37, Pitch : -15.76, Yaw : 50.51, Alt : 49.2799987793, Lat : 49.2836041, Lng : -123.1149484, Q1 : 0.89376103878, Q2 : 0.0848435908556, Q3 : -0.11156322062, Q4 : 0.426082670689}
2019-04-14 20:50:53.61: SIM {TimeUS : 58035110, Roll : 2.75, Pitch : -15.84, Yaw : 51.28, Alt : 49.2799987793, Lat : 49.2836057, Lng : -123.1149446, Q1 : 0.891208469868, Q2 : 0.0810841470957, Q3 : -0.113902762532, Q4 : 0.431507766247}
2019-04-14 20:50:53.71: SIM {TimeUS : 58135070, Roll : 1.92, Pitch : -15.98, Yaw : 52.44, Alt : 49.2799987793, Lat : 49.2836074, Lng : -123.1149408, Q1 : 0.887208938599, Q2 : 0.0763401165605, Q3 : -0.11737640202, Q4 : 0.439608097076}
2019-04-14 20:50:53.81: SIM {TimeUS : 58235030, Roll : 1.01, Pitch : -16.13, Yaw : 53.79, Alt : 49.2799987793, Lat : 49.2836092, Lng : -123.1149368, Q1 : 0.882390081882, Q2 : 0.0712981522083, Q3 : -0.121156096458, Q4 : 0.449027299881}
2019-04-14 20:50:53.91: SIM {TimeUS : 58334990, Roll : 0.16, Pitch : -16.25, Yaw : 55.15, Alt : 49.2799987793, Lat : 49.283611, Lng : -123.1149328, Q1 : 0.877370476723, Q2 : 0.0667111948133, Q3 : -0.124626100063, Q4 : 0.458518207073}
2019-04-14 20:50:54.01: SIM {TimeUS : 58434950, Roll : -0.56, Pitch : -16.34, Yaw : 56.38, Alt : 49.2900009155, Lat : 49.2836127, Lng : -123.1149287, Q1 : 0.872747480869, Q2 : 0.0628330782056, Q3 : -0.127562120557, Q4 : 0.467002928257}
2019-04-14 20:50:54.11: SIM {TimeUS : 58534910, Roll : -1.09, Pitch : -16.4, Yaw : 57.35, Alt : 49.2900009155, Lat : 49.2836146, Lng : -123.1149246, Q1 : 0.868974328041, Q2 : 0.0601301454008, Q3 : -0.129687711596, Q4 : 0.473760634661}
2019-04-14 20:50:54.21: SIM {TimeUS : 58634870, Roll : -1.39, Pitch : -16.42, Yaw : 58.01, Alt : 49.2900009155, Lat : 49.2836164, Lng : -123.1149204, Q1 : 0.866367936134, Q2 : 0.0587254576385, Q3 : -0.130755156279, Q4 : 0.478394240141}
2019-04-14 20:50:54.31: SIM {TimeUS : 58734830, Roll : -1.48, Pitch : -16.42, Yaw : 58.34, Alt : 49.2900009155, Lat : 49.2836183, Lng : -123.1149162, Q1 : 0.865049540997, Q2 : 0.0583951920271, Q3 : -0.13100938499, Q4 : 0.480745106936}
2019-04-14 20:50:54.41: SIM {TimeUS : 58834790, Roll : -1.41, Pitch : -16.44, Yaw : 58.35, Alt : 49.2900009155, Lat : 49.2836201, Lng : -123.114912, Q1 : 0.864927589893, Q2 : 0.0590341612697, Q3 : -0.13083563745, Q4 : 0.480933785439}
2019-04-14 20:50:54.51: SIM {TimeUS : 58934750, Roll : -1.2, Pitch : -16.48, Yaw : 58.11, Alt : 49.2900009155, Lat : 49.283622, Lng : -123.1149077, Q1 : 0.865796148777, Q2 : 0.0605151355267, Q3 : -0.130395829678, Q4 : 0.479303538799}
2019-04-14 20:50:54.61: SIM {TimeUS : 59034710, Roll : -0.9, Pitch : -16.55, Yaw : 57.67, Alt : 49.2900009155, Lat : 49.2836241, Lng : -123.1149033, Q1 : 0.867370128632, Q2 : 0.0625741034746, Q3 : -0.129880234599, Q4 : 0.476324141026}
2019-04-14 20:50:54.71: SIM {TimeUS : 59134670, Roll : -0.56, Pitch : -16.61, Yaw : 57.13, Alt : 49.2900009155, Lat : 49.2836261, Lng : -123.1148989, Q1 : 0.869362473488, Q2 : 0.0648289099336, Q3 : -0.12922950089, Q4 : 0.47255256772}
2019-04-14 20:50:54.81: SIM {TimeUS : 59234630, Roll : -0.2, Pitch : -16.67, Yaw : 56.55, Alt : 49.2900009155, Lat : 49.283628, Lng : -123.1148945, Q1 : 0.871465921402, Q2 : 0.0670996308327, Q3 : -0.128541469574, Q4 : 0.468531697989}
2019-04-14 20:50:54.92: SIM {TimeUS : 59335423, Roll : 0.11, Pitch : -16.72, Yaw : 56.01, Alt : 49.2900009155, Lat : 49.28363, Lng : -123.11489, Q1 : 0.873446643353, Q2 : 0.0691794380546, Q3 : -0.12789298594, Q4 : 0.464702695608}
2019-04-14 20:50:55.01: SIM {TimeUS : 59435383, Roll : 0.38, Pitch : -16.75, Yaw : 55.55, Alt : 49.2900009155, Lat : 49.2836322, Lng : -123.1148855, Q1 : 0.875089228153, Q2 : 0.0708447396755, Q3 : -0.127343952656, Q4 : 0.461501210928}
2019-04-14 20:50:55.11: SIM {TimeUS : 59535343, Roll : 0.57, Pitch : -16.77, Yaw : 55.21, Alt : 49.2900009155, Lat : 49.2836341, Lng : -123.1148809, Q1 : 0.876297712326, Q2 : 0.0719935446978, Q3 : -0.126950025558, Q4 : 0.45913285017}
2019-04-14 20:50:55.21: SIM {TimeUS : 59635303, Roll : 0.66, Pitch : -16.79, Yaw : 55.01, Alt : 49.2900009155, Lat : 49.2836363, Lng : -123.1148763, Q1 : 0.877027928829, Q2 : 0.0725724026561, Q3 : -0.126849606633, Q4 : 0.457672923803}
2019-04-14 20:50:55.31: SIM {TimeUS : 59735263, Roll : 0.67, Pitch : -16.81, Yaw : 54.94, Alt : 49.2900009155, Lat : 49.2836384, Lng : -123.1148716, Q1 : 0.877286314964, Q2 : 0.0726408287883, Q3 : -0.127064481378, Q4 : 0.457106888294}
2019-04-14 20:50:55.41: SIM {TimeUS : 59835223, Roll : 0.6, Pitch : -16.84, Yaw : 54.98, Alt : 49.2900009155, Lat : 49.2836403, Lng : -123.114867, Q1 : 0.877130270004, Q2 : 0.0722834467888, Q3 : -0.127531975508, Q4 : 0.457332670689}
2019-04-14 20:50:55.51: SIM {TimeUS : 59935183, Roll : 0.48, Pitch : -16.89, Yaw : 55.11, Alt : 49.2900009155, Lat : 49.2836425, Lng : -123.1148622, Q1 : 0.876637637615, Q2 : 0.0716825500131, Q3 : -0.128293827176, Q4 : 0.458158105612}
2019-04-14 20:50:55.61: SIM {TimeUS : 60035143, Roll : 0.33, Pitch : -16.95, Yaw : 55.3, Alt : 49.2999992371, Lat : 49.2836445, Lng : -123.1148575, Q1 : 0.875918865204, Q2 : 0.0709669291973, Q3 : -0.129220321774, Q4 : 0.459382176399}
2019-04-14 20:50:55.71: SIM {TimeUS : 60135103, Roll : 0.15, Pitch : -16.99, Yaw : 55.51, Alt : 49.2999992371, Lat : 49.2836467, Lng : -123.1148527, Q1 : 0.875127315521, Q2 : 0.0700331553817, Q3 : -0.130150839686, Q4 : 0.460769295692}
2019-04-14 20:50:55.81: SIM {TimeUS : 60235063, Roll : -0.01, Pitch : -17.02, Yaw : 55.71, Alt : 49.2999992371, Lat : 49.2836488, Lng : -123.1148479, Q1 : 0.874373614788, Q2 : 0.0690451487899, Q3 : -0.130931317806, Q4 : 0.462126106024}
2019-04-14 20:50:55.91: SIM {TimeUS : 60335023, Roll : -0.16, Pitch : -17.04, Yaw : 55.89, Alt : 49.2999992371, Lat : 49.283651, Lng : -123.114843, Q1 : 0.873726725578, Q2 : 0.0681720748544, Q3 : -0.131619632244, Q4 : 0.463282287121}
2019-04-14 20:50:56.01: SIM {TimeUS : 60434983, Roll : -0.26, Pitch : -17.08, Yaw : 56.02, Alt : 49.2999992371, Lat : 49.283653, Lng : -123.1148382, Q1 : 0.873216509819, Q2 : 0.0677525252104, Q3 : -0.132164314389, Q4 : 0.46414989233}
2019-04-14 20:50:56.11: SIM {TimeUS : 60534943, Roll : -0.29, Pitch : -17.12, Yaw : 56.09, Alt : 49.2999992371, Lat : 49.2836553, Lng : -123.1148333, Q1 : 0.87288326025, Q2 : 0.0677644982934, Q3 : -0.1325545609, Q4 : 0.464663416147}
2019-04-14 20:50:56.21: SIM {TimeUS : 60634903, Roll : -0.27, Pitch : -17.16, Yaw : 56.12, Alt : 49.2999992371, Lat : 49.2836574, Lng : -123.1148283, Q1 : 0.872737526894, Q2 : 0.0681324824691, Q3 : -0.132778733969, Q4 : 0.464819282293}
2019-04-14 20:50:56.31: SIM {TimeUS : 60734863, Roll : -0.2, Pitch : -17.2, Yaw : 56.08, Alt : 49.2999992371, Lat : 49.2836596, Lng : -123.1148234, Q1 : 0.872775018215, Q2 : 0.0687757954001, Q3 : -0.132821038365, Q4 : 0.464642137289}
2019-04-14 20:50:56.41: SIM {TimeUS : 60834823, Roll : -0.12, Pitch : -17.23, Yaw : 56.01, Alt : 49.2999992371, Lat : 49.2836618, Lng : -123.1148185, Q1 : 0.872980296612, Q2 : 0.0693869590759, Q3 : -0.13282802701, Q4 : 0.464163303375}
2019-04-14 20:50:56.51: SIM {TimeUS : 60934783, Roll : -0.06, Pitch : -17.25, Yaw : 55.92, Alt : 49.3100013733, Lat : 49.2836639, Lng : -123.1148135, Q1 : 0.873323857784, Q2 : 0.0697835162282, Q3 : -0.132743567228, Q4 : 0.46348118782}
2019-04-14 20:50:56.61: SIM {TimeUS : 61034743, Roll : -0.02, Pitch : -17.25, Yaw : 55.81, Alt : 49.3100013733, Lat : 49.2836663, Lng : -123.1148085, Q1 : 0.873731195927, Q2 : 0.0700630992651, Q3 : -0.132682085037, Q4 : 0.462688326836}
2019-04-14 20:50:56.71: SIM {TimeUS : 61134703, Roll : 0.03, Pitch : -17.27, Yaw : 55.69, Alt : 49.3100013733, Lat : 49.2836685, Lng : -123.1148035, Q1 : 0.874137401581, Q2 : 0.0703846737742, Q3 : -0.132646918297, Q4 : 0.461881607771}
2019-04-14 20:50:56.81: SIM {TimeUS : 61234663, Roll : 0.07, Pitch : -17.29, Yaw : 55.59, Alt : 49.3100013733, Lat : 49.2836706, Lng : -123.1147984, Q1 : 0.874504864216, Q2 : 0.0706892758608, Q3 : -0.13266722858, Q4 : 0.461133092642}
2019-04-14 20:50:56.91: SIM {TimeUS : 61334623, Roll : 0.13, Pitch : -17.32, Yaw : 55.5, Alt : 49.3100013733, Lat : 49.283673, Lng : -123.1147934, Q1 : 0.874785065651, Q2 : 0.0711571723223, Q3 : -0.132787644863, Q4 : 0.460494488478}
2019-04-14 20:50:57.02: SIM {TimeUS : 61435416, Roll : 0.17, Pitch : -17.38, Yaw : 55.43, Alt : 49.3100013733, Lat : 49.2836752, Lng : -123.1147883, Q1 : 0.874965071678, Q2 : 0.0716716051102, Q3 : -0.13310906291, Q4 : 0.459979772568}
2019-04-14 20:50:57.11: SIM {TimeUS : 61535376, Roll : 0.2, Pitch : -17.42, Yaw : 55.38, Alt : 49.3100013733, Lat : 49.2836774, Lng : -123.1147832, Q1 : 0.875097453594, Q2 : 0.0719437450171, Q3 : -0.13327345252, Q4 : 0.459637641907}
2019-04-14 20:50:57.21: SIM {TimeUS : 61635336, Roll : 0.21, Pitch : -17.41, Yaw : 55.36, Alt : 49.3100013733, Lat : 49.2836797, Lng : -123.1147781, Q1 : 0.875190556049, Q2 : 0.0719859153032, Q3 : -0.133204326034, Q4 : 0.459473758936}
2019-04-14 20:50:57.31: SIM {TimeUS : 61735296, Roll : 0.2, Pitch : -17.41, Yaw : 55.36, Alt : 49.3100013733, Lat : 49.283682, Lng : -123.114773, Q1 : 0.875213682652, Q2 : 0.0718761757016, Q3 : -0.13328923285, Q4 : 0.459422260523}
2019-04-14 20:50:57.41: SIM {TimeUS : 61835256, Roll : 0.16, Pitch : -17.44, Yaw : 55.37, Alt : 49.3100013733, Lat : 49.2836843, Lng : -123.1147678, Q1 : 0.875167250633, Q2 : 0.0717187002301, Q3 : -0.133604958653, Q4 : 0.459443688393}
2019-04-14 20:50:57.51: SIM {TimeUS : 61935216, Roll : 0.13, Pitch : -17.47, Yaw : 55.39, Alt : 49.3100013733, Lat : 49.2836865, Lng : -123.1147627, Q1 : 0.875077605247, Q2 : 0.0716084092855, Q3 : -0.133946940303, Q4 : 0.459531962872}
2019-04-14 20:50:57.61: SIM {TimeUS : 62035176, Roll : 0.1, Pitch : -17.5, Yaw : 55.41, Alt : 49.3100013733, Lat : 49.2836888, Lng : -123.1147575, Q1 : 0.874963879585, Q2 : 0.0715210139751, Q3 : -0.134293019772, Q4 : 0.459661126137}
2019-04-14 20:50:57.71: SIM {TimeUS : 62135136, Roll : 0.07, Pitch : -17.52, Yaw : 55.43, Alt : 49.3199996948, Lat : 49.2836912, Lng : -123.1147523, Q1 : 0.874862074852, Q2 : 0.0714735463262, Q3 : -0.134554758668, Q4 : 0.459785789251}
2019-04-14 20:50:57.81: SIM {TimeUS : 62235096, Roll : 0.06, Pitch : -17.55, Yaw : 55.45, Alt : 49.3199996948, Lat : 49.2836935, Lng : -123.1147471, Q1 : 0.874776601791, Q2 : 0.0714614763856, Q3 : -0.134798526764, Q4 : 0.459878832102}
2019-04-14 20:50:57.91: SIM {TimeUS : 62335056, Roll : 0.06, Pitch : -17.56, Yaw : 55.46, Alt : 49.3199996948, Lat : 49.2836957, Lng : -123.1147419, Q1 : 0.874731957912, Q2 : 0.0715172290802, Q3 : -0.134852007031, Q4 : 0.459939390421}
2019-04-14 20:50:58.01: SIM {TimeUS : 62435016, Roll : 0.08, Pitch : -17.57, Yaw : 55.45, Alt : 49.3199996948, Lat : 49.283698, Lng : -123.1147367, Q1 : 0.874708354473, Q2 : 0.0717491656542, Q3 : -0.134884804487, Q4 : 0.459938615561}
2019-04-14 20:50:58.11: SIM {TimeUS : 62534976, Roll : 0.11, Pitch : -17.59, Yaw : 55.44, Alt : 49.3199996948, Lat : 49.2837004, Lng : -123.1147315, Q1 : 0.874718129635, Q2 : 0.0720214471221, Q3 : -0.134911462665, Q4 : 0.459869652987}
2019-04-14 20:50:58.21: SIM {TimeUS : 62634936, Roll : 0.12, Pitch : -17.62, Yaw : 55.42, Alt : 49.3199996948, Lat : 49.2837027, Lng : -123.1147262, Q1 : 0.874761044979, Q2 : 0.0722046121955, Q3 : -0.135078430176, Q4 : 0.459710180759}
2019-04-14 20:50:58.31: SIM {TimeUS : 62734896, Roll : 0.1, Pitch : -17.66, Yaw : 55.4, Alt : 49.3199996948, Lat : 49.2837051, Lng : -123.114721, Q1 : 0.874822676182, Q2 : 0.0722057968378, Q3 : -0.135527923703, Q4 : 0.459460347891}
2019-04-14 20:50:58.41: SIM {TimeUS : 62834856, Roll : 0.09, Pitch : -17.71, Yaw : 55.37, Alt : 49.3199996948, Lat : 49.2837074, Lng : -123.1147157, Q1 : 0.874885737896, Q2 : 0.0722978711128, Q3 : -0.135985568166, Q4 : 0.459190517664}
2019-04-14 20:50:58.51: SIM {TimeUS : 62934816, Roll : 0.11, Pitch : -17.75, Yaw : 55.33, Alt : 49.3199996948, Lat : 49.2837096, Lng : -123.1147104, Q1 : 0.874957501888, Q2 : 0.0725388079882, Q3 : -0.13620442152, Q4 : 0.458950847387}
2019-04-14 20:50:58.61: SIM {TimeUS : 63034776, Roll : 0.13, Pitch : -17.76, Yaw : 55.3, Alt : 49.3199996948, Lat : 49.283712, Lng : -123.1147052, Q1 : 0.875061571598, Q2 : 0.0726823806763, Q3 : -0.136191740632, Q4 : 0.45873349905}
2019-04-14 20:50:58.71: SIM {TimeUS : 63134736, Roll : 0.15, Pitch : -17.74, Yaw : 55.27, Alt : 49.3199996948, Lat : 49.2837144, Lng : -123.1146999, Q1 : 0.875193059444, Q2 : 0.072697147727, Q3 : -0.136004567146, Q4 : 0.458535730839}
2019-04-14 20:50:58.81: SIM {TimeUS : 63234696, Roll : 0.15, Pitch : -17.72, Yaw : 55.25, Alt : 49.3199996948, Lat : 49.2837168, Lng : -123.1146945, Q1 : 0.875315904617, Q2 : 0.072599761188, Q3 : -0.13586679101, Q4 : 0.458357453346}
2019-04-14 20:50:58.91: SIM {TimeUS : 63334656, Roll : 0.15, Pitch : -17.7, Yaw : 55.23, Alt : 49.3199996948, Lat : 49.2837192, Lng : -123.1146892, Q1 : 0.875423789024, Q2 : 0.0725136548281, Q3 : -0.135738417506, Q4 : 0.458203047514}
2019-04-14 20:50:59.01: SIM {TimeUS : 63434616, Roll : 0.15, Pitch : -17.68, Yaw : 55.21, Alt : 49.3199996948, Lat : 49.2837215, Lng : -123.1146839, Q1 : 0.875505566597, Q2 : 0.0724527090788, Q3 : -0.135624006391, Q4 : 0.458090364933}
2019-04-14 20:50:59.11: SIM {TimeUS : 63535409, Roll : 0.15, Pitch : -17.69, Yaw : 55.2, Alt : 49.3199996948, Lat : 49.2837239, Lng : -123.1146785, Q1 : 0.875549376011, Q2 : 0.0724630281329, Q3 : -0.135691002011, Q4 : 0.457985192537}
2019-04-14 20:50:59.21: SIM {TimeUS : 63635369, Roll : 0.16, Pitch : -17.71, Yaw : 55.19, Alt : 49.3300018311, Lat : 49.2837263, Lng : -123.1146731, Q1 : 0.875564157963, Q2 : 0.0725861787796, Q3 : -0.135821595788, Q4 : 0.457898616791}
2019-04-14 20:50:59.31: SIM {TimeUS : 63735329, Roll : 0.16, Pitch : -17.76, Yaw : 55.18, Alt : 49.3300018311, Lat : 49.2837287, Lng : -123.1146678, Q1 : 0.875538468361, Q2 : 0.072753533721, Q3 : -0.136232331395, Q4 : 0.457799136639}
2019-04-14 20:50:59.41: SIM {TimeUS : 63835289, Roll : 0.15, Pitch : -17.82, Yaw : 55.17, Alt : 49.3300018311, Lat : 49.2837311, Lng : -123.1146624, Q1 : 0.875504553318, Q2 : 0.0729314237833, Q3 : -0.136672705412, Q4 : 0.457704484463}
2019-04-14 20:50:59.51: SIM {TimeUS : 63935249, Roll : 0.15, Pitch : -17.85, Yaw : 55.17, Alt : 49.3300018311, Lat : 49.2837333, Lng : -123.114657, Q1 : 0.875486791134, Q2 : 0.0730604156852, Q3 : -0.136924505234, Q4 : 0.457642555237}
2019-04-14 20:50:59.61: SIM {TimeUS : 64035209, Roll : 0.14, Pitch : -17.88, Yaw : 55.16, Alt : 49.3300018311, Lat : 49.2837357, Lng : -123.1146517, Q1 : 0.875480830669, Q2 : 0.0730752199888, Q3 : -0.137197345495, Q4 : 0.457569926977}
2019-04-14 20:50:59.71: SIM {TimeUS : 64135169, Roll : 0.12, Pitch : -17.9, Yaw : 55.15, Alt : 49.3300018311, Lat : 49.2837381, Lng : -123.1146463, Q1 : 0.875490307808, Q2 : 0.073029525578, Q3 : -0.137404680252, Q4 : 0.457496881485}
2019-04-14 20:50:59.81: SIM {TimeUS : 64235129, Roll : 0.13, Pitch : -17.89, Yaw : 55.15, Alt : 49.3300018311, Lat : 49.2837405, Lng : -123.1146409, Q1 : 0.875518620014, Q2 : 0.0730570703745, Q3 : -0.137349769473, Q4 : 0.457454770803}
2019-04-14 20:50:59.91: SIM {TimeUS : 64335089, Roll : 0.15, Pitch : -17.9, Yaw : 55.14, Alt : 49.3300018311, Lat : 49.283743, Lng : -123.1146355, Q1 : 0.875531733036, Q2 : 0.0732408687472, Q3 : -0.137347593904, Q4 : 0.457400888205}
2019-04-14 20:51:00.01: SIM {TimeUS : 64435049, Roll : 0.16, Pitch : -17.92, Yaw : 55.13, Alt : 49.3300018311, Lat : 49.2837454, Lng : -123.1146301, Q1 : 0.875542759895, Q2 : 0.0733863115311, Q3 : -0.137457296252, Q4 : 0.457323670387}
2019-04-14 20:51:00.11: SIM {TimeUS : 64535009, Roll : 0.17, Pitch : -17.93, Yaw : 55.12, Alt : 49.3300018311, Lat : 49.2837478, Lng : -123.1146246, Q1 : 0.875565588474, Q2 : 0.0734940469265, Q3 : -0.137497663498, Q4 : 0.457250446081}
2019-04-14 20:51:00.21: SIM {TimeUS : 64634969, Roll : 0.19, Pitch : -17.93, Yaw : 55.1, Alt : 49.3300018311, Lat : 49.2837503, Lng : -123.1146192, Q1 : 0.875612020493, Q2 : 0.0735634341836, Q3 : -0.137427091599, Q4 : 0.457171499729}
2019-04-14 20:51:00.31: SIM {TimeUS : 64734929, Roll : 0.19, Pitch : -17.92, Yaw : 55.09, Alt : 49.3300018311, Lat : 49.2837527, Lng : -123.1146138, Q1 : 0.875671446323, Q2 : 0.0735464245081, Q3 : -0.137384712696, Q4 : 0.45707321167}
2019-04-14 20:51:00.41: SIM {TimeUS : 64834889, Roll : 0.17, Pitch : -17.94, Yaw : 55.08, Alt : 49.3300018311, Lat : 49.2837551, Lng : -123.1146084, Q1 : 0.875720560551, Q2 : 0.0734524056315, Q3 : -0.137594088912, Q4 : 0.456931173801}
2019-04-14 20:51:00.51: SIM {TimeUS : 64934849, Roll : 0.14, Pitch : -17.98, Yaw : 55.06, Alt : 49.3300018311, Lat : 49.2837575, Lng : -123.1146029, Q1 : 0.875756680965, Q2 : 0.0733402147889, Q3 : -0.138011798263, Q4 : 0.456753969193}
2019-04-14 20:51:00.61: SIM {TimeUS : 65034809, Roll : 0.12, Pitch : -17.99, Yaw : 55.05, Alt : 49.3300018311, Lat : 49.28376, Lng : -123.1145974, Q1 : 0.875816345215, Q2 : 0.0732338055968, Q3 : -0.138144895434, Q4 : 0.456616342068}
2019-04-14 20:51:00.71: SIM {TimeUS : 65134769, Roll : 0.13, Pitch : -17.97, Yaw : 55.03, Alt : 49.3400001526, Lat : 49.2837624, Lng : -123.1145919, Q1 : 0.875882267952, Q2 : 0.0732444226742, Q3 : -0.138006836176, Q4 : 0.456530064344}
2019-04-14 20:51:00.81: SIM {TimeUS : 65234729, Roll : 0.15, Pitch : -17.96, Yaw : 55.02, Alt : 49.3400001526, Lat : 49.2837648, Lng : -123.1145865, Q1 : 0.875941514969, Q2 : 0.0733257681131, Q3 : -0.137828305364, Q4 : 0.456457197666}
2019-04-14 20:51:00.91: SIM {TimeUS : 65334689, Roll : 0.17, Pitch : -17.97, Yaw : 55.01, Alt : 49.3400001526, Lat : 49.2837673, Lng : -123.1145811, Q1 : 0.875975191593, Q2 : 0.0734524205327, Q3 : -0.13784660399, Q4 : 0.456366628408}
2019-04-14 20:51:01.01: SIM {TimeUS : 65434649, Roll : 0.16, Pitch : -17.99, Yaw : 54.99, Alt : 49.3400001526, Lat : 49.2837697, Lng : -123.1145756, Q1 : 0.876000285149, Q2 : 0.0734905302525, Q3 : -0.13802048564, Q4 : 0.456259787083}
2019-04-14 20:51:01.12: SIM {TimeUS : 65535442, Roll : 0.14, Pitch : -18.01, Yaw : 54.98, Alt : 49.3400001526, Lat : 49.2837721, Lng : -123.1145701, Q1 : 0.876026153564, Q2 : 0.0734150037169, Q3 : -0.138293594122, Q4 : 0.456139594316}
2019-04-14 20:51:01.21: SIM {TimeUS : 65635402, Roll : 0.13, Pitch : -18.03, Yaw : 54.97, Alt : 49.3400001526, Lat : 49.2837746, Lng : -123.1145646, Q1 : 0.876050770283, Q2 : 0.0733929499984, Q3 : -0.138485983014, Q4 : 0.45603749156}
2019-04-14 20:51:01.31: SIM {TimeUS : 65735362, Roll : 0.14, Pitch : -18.04, Yaw : 54.96, Alt : 49.3400001526, Lat : 49.283777, Lng : -123.1145591, Q1 : 0.87607139349, Q2 : 0.0734885036945, Q3 : -0.138573735952, Q4 : 0.455955803394}
2019-04-14 20:51:01.41: SIM {TimeUS : 65835322, Roll : 0.15, Pitch : -18.06, Yaw : 54.95, Alt : 49.3400001526, Lat : 49.2837794, Lng : -123.1145536, Q1 : 0.876089274883, Q2 : 0.0736109390855, Q3 : -0.138634338975, Q4 : 0.455883234739}
2019-04-14 20:51:01.51: SIM {TimeUS : 65935282, Roll : 0.17, Pitch : -18.07, Yaw : 54.94, Alt : 49.3400001526, Lat : 49.2837819, Lng : -123.1145481, Q1 : 0.876087367535, Q2 : 0.0738440454006, Q3 : -0.138655841351, Q4 : 0.455842703581}
2019-04-14 20:51:01.61: SIM {TimeUS : 66035242, Roll : 0.18, Pitch : -18.09, Yaw : 54.94, Alt : 49.3400001526, Lat : 49.2837843, Lng : -123.1145426, Q1 : 0.876080214977, Q2 : 0.0739760398865, Q3 : -0.138792395592, Q4 : 0.455793559551}
2019-04-14 20:51:01.71: SIM {TimeUS : 66135202, Roll : 0.19, Pitch : -18.11, Yaw : 54.93, Alt : 49.3400001526, Lat : 49.2837867, Lng : -123.1145371, Q1 : 0.87607228756, Q2 : 0.0740952119231, Q3 : -0.138941779733, Q4 : 0.455743849277}
2019-04-14 20:51:01.81: SIM {TimeUS : 66235162, Roll : 0.2, Pitch : -18.13, Yaw : 54.93, Alt : 49.3400001526, Lat : 49.2837892, Lng : -123.1145316, Q1 : 0.876067578793, Q2 : 0.0742479115725, Q3 : -0.139014080167, Q4 : 0.455705910921}
2019-04-14 20:51:01.91: SIM {TimeUS : 66335122, Roll : 0.23, Pitch : -18.13, Yaw : 54.92, Alt : 49.3400001526, Lat : 49.2837917, Lng : -123.1145261, Q1 : 0.876070320606, Q2 : 0.0744595751166, Q3 : -0.138938188553, Q4 : 0.45568934083}
2019-04-14 20:51:02.01: SIM {TimeUS : 66435082, Roll : 0.25, Pitch : -18.14, Yaw : 54.91, Alt : 49.3499984741, Lat : 49.2837941, Lng : -123.1145206, Q1 : 0.8760663867, Q2 : 0.074703425169, Q3 : -0.138892203569, Q4 : 0.455670952797}
