2019-04-14 21:44:26.00: SIM {TimeUS : 40216407, Roll : 0.0, Pitch : 0.0, Yaw : 0.0, Alt : 30.1000003815, Lat : 49.28357, Lng : -123.11502, Q1 : 1.0, Q2 : 0.0, Q3 : 0.0, Q4 : 0.0}
2019-04-14 21:44:26.11: SIM {TimeUS : 40335526, Roll : 0.0, Pitch : 0.0, Yaw : 0.0, Alt : 30.1000003815, Lat : 49.28357, Lng : -123.11502, Q1 : 1.0, Q2 : 0.0, Q3 : 0.0, Q4 : 0.0}
2019-04-14 21:44:26.21: SIM {TimeUS : 40435486, Roll : 0.0, Pitch : 0.0, Yaw : 0.0, Alt : 30.1000003815, Lat : 49.28357, Lng : -123.11502, Q1 : 1.0, Q2 : 0.0, Q3 : 0.0, Q4 : 0.0}
2019-04-14 21:44:26.31: SIM {TimeUS : 40535446, Roll : 0.0, Pitch : 0.0, Yaw : 0.0, Alt : 30.1000003815, Lat : 49.28357, Lng : -123.11502, Q1 : 1.0, Q2 : 0.0, Q3 : 0.0, Q4 : 0.0}
2019-04-14 21:44:26.41: SIM {TimeUS : 40635406, Roll : 0.0, Pitch : 0.0, Yaw : 0.0, Alt : 30.1000003815, Lat : 49.28357, Lng : -123.11502, Q1 : 1.0, Q2 : 0.0, Q3 : 0.0, Q4 : 0.0}
2019-04-14 21:44:26.51: SIM {TimeUS : 40735366, Roll : 0.0, Pitch : 0.0, Yaw : 0.0, Alt : 30.1000003815, Lat : 49.28357, Lng : -123.11502, Q1 : 1.0, Q2 : 0.0, Q3 : 0.0, Q4 : 0.0}
2019-04-14 21:44:26.61: SIM {TimeUS : 40835326, Roll : 0.0, Pitch : 0.0, Yaw : 0.0, Alt : 30.1000003815, Lat : 49.28357, Lng : -123.11502, Q1 : 1.0, Q2 : 0.0, Q3 : 0.0, Q4 : 0.0}
2019-04-14 21:44:26.71: SIM {TimeUS : 40935286, Roll : 0.0, Pitch : 0.0, Yaw : 0.0, Alt : 30.1000003815, Lat : 49.28357, Lng : -123.11502, Q1 : 1.0, Q2 : 0.0, Q3 : 0.0, Q4 : 0.0}
2019-04-14 21:44:26.81: SIM {TimeUS : 41035246, Roll : 0.0, Pitch : 0.0, Yaw : 0.0, Alt : 30.1000003815, Lat : 49.28357, Lng : -123.11502, Q1 : 1.0, Q2 : 0.0, Q3 : 0.0, Q4 : 0.0}
2019-04-14 21:44:26.91: SIM {TimeUS : 41135206, Roll : 0.0, Pitch : 0.0, Yaw : 0.0, Alt : 30.1000003815, Lat : 49.28357, Lng : -123.11502, Q1 : 1.0, Q2 : 0.0, Q3 : 0.0, Q4 : 0.0}
2019-04-14 21:44:27.01: SIM {TimeUS : 41235166, Roll : 0.0, Pitch : 0.0, Yaw : 0.0, Alt : 30.1000003815, Lat : 49.28357, Lng : -123.11502, Q1 : 1.0, Q2 : 0.0, Q3 : 0.0, Q4 : 0.0}
2019-04-14 21:44:27.11: SIM {TimeUS : 41335126, Roll : 0.0, Pitch : 0.0, Yaw : 0.0, Alt : 30.1000003815, Lat : 49.28357, Lng : -123.11502, Q1 : 1.0, Q2 : 0.0, Q3 : 0.0, Q4 : 0.0}
2019-04-14 21:44:27.21: SIM {TimeUS : 41435086, Roll : 0.0, Pitch : 0.0, Yaw : 0.0, Alt : 30.1000003815, Lat : 49.28357, Lng : -123.11502, Q1 : 1.0, Q2 : 0.0, Q3 : 0.0, Q4 : 0.0}
2019-04-14 21:44:27.31: SIM {TimeUS : 41535046, Roll : 0.0, Pitch : 0.0, Yaw : 0.0, Alt : 30.1000003815, Lat : 49.28357, Lng : -123.11502, Q1 : 1.0, Q2 : 0.0, Q3 : 0.0, Q4 : 0.0}
2019-04-14 21:44:27.41: SIM {TimeUS : 41635006, Roll : 0.0, Pitch : 0.0, Yaw : 0.0, Alt : 30.1000003815, Lat : 49.28357, Lng : -123.11502, Q1 : 1.0, Q2 : 0.0, Q3 : 0.0, Q4 : 0.0}
2019-04-14 21:44:27.51: SIM {TimeUS : 41734966, Roll : 0.0, Pitch : 0.0, Yaw : 0.0, Alt : 30.1000003815, Lat : 49.28357, Lng : -123.11502, Q1 : 1.0, Q2 : 0.0, Q3 : 0.0, Q4 : 0.0}
2019-04-14 21:44:27.61: SIM {TimeUS : 41834926, Roll : 0.0, Pitch : 0.0, Yaw : 0.0, Alt : 30.1000003815, Lat : 49.28357, Lng : -123.11502, Q1 : 1.0, Q2 : 0.0, Q3 : 0.0, Q4 : 0.0}
2019-04-14 21:44:27.71: SIM {TimeUS : 41934886, Roll : 0.0, Pitch : 0.0, Yaw : 0.0, Alt : 30.1000003815, Lat : 49.28357, Lng : -123.11502, Q1 : 1.0, Q2 : 0.0, Q3 : 0.0, Q4 : 0.0}
2019-04-14 21:44:27.81: SIM {TimeUS : 42034846, Roll : 0.0, Pitch : 0.0, Yaw : 0.0, Alt : 30.1000003815, Lat : 49.28357, Lng : -123.11502, Q1 : 1.0, Q2 : 0.0, Q3 : 0.0, Q4 : 0.0}
2019-04-14 21:44:27.91: SIM {TimeUS : 42134806, Roll : 0.0, Pitch : 0.0, Yaw : 0.0, Alt : 30.1000003815, Lat : 49.28357, Lng : -123.11502, Q1 : 1.0, Q2 : 0.0, Q3 : 0.0, Q4 : 0.0}
2019-04-14 21:44:28.01: SIM {TimeUS : 42234766, Roll : 0.0, Pitch : 0.0, Yaw : 0.0, Alt : 30.1000003815, Lat : 49.28357, Lng : -123.11502, Q1 : 1.0, Q2 : 0.0, Q3 : 0.0, Q4 : 0.0}
2019-04-14 21:44:28.11: SIM {TimeUS : 42335559, Roll : 0.0, Pitch : 0.0, Yaw : 0.0, Alt : 30.1000003815, Lat : 49.28357, Lng : -123.11502, Q1 : 1.0, Q2 : 0.0, Q3 : 0.0, Q4 : 0.0}
2019-04-14 21:44:28.21: SIM {TimeUS : 42435519, Roll : 0.0, Pitch : 0.0, Yaw : 0.0, Alt : 30.1000003815, Lat : 49.28357, Lng : -123.11502, Q1 : 1.0, Q2 : 0.0, Q3 : 0.0, Q4 : 0.0}
2019-04-14 21:44:28.31: SIM {TimeUS : 42535479, Roll : 0.0, Pitch : 0.0, Yaw : 360.0, Alt : 30.1000003815, Lat : 49.28357, Lng : -123.11502, Q1 : 1.0, Q2 : 0.0, Q3 : 0.0, Q4 : -2.81975723153e-12}
2019-04-14 21:44:28.41: SIM {TimeUS : 42635439, Roll : 0.0, Pitch : 0.0, Yaw : 0.0, Alt : 30.1000003815, Lat : 49.28357, Lng : -123.11502, Q1 : 1.0, Q2 : 0.0, Q3 : 0.0, Q4 : 2.10149987689e-11}
2019-04-14 21:44:28.51: SIM {TimeUS : 42735399, Roll : 0.0, Pitch : 0.0, Yaw : 360.0, Alt : 30.1000003815, Lat : 49.28357, Lng : -123.11502, Q1 : 1.0, Q2 : 0.0, Q3 : 0.0, Q4 : -1.12031898425e-07}
2019-04-14 21:44:28.61: SIM {TimeUS : 42835359, Roll : 0.0, Pitch : 0.0, Yaw : 359.99, Alt : 30.1000003815, Lat : 49.28357, Lng : -123.11502, Q1 : 1.0, Q2 : 0.0, Q3 : 0.0, Q4 : -2.63743800133e-07}
2019-04-14 21:44:28.71: SIM {TimeUS : 42935319, Roll : 0.0, Pitch : 0.0, Yaw : 359.99, Alt : 30.1000003815, Lat : 49.28357, Lng : -123.11502, Q1 : 1.0, Q2 : 0.0, Q3 : 0.0, Q4 : -4.74530423844e-07}
2019-04-14 21:44:28.81: SIM {TimeUS : 43035279, Roll : 0.0, Pitch : 0.0, Yaw : 359.99, Alt : 30.1000003815, Lat : 49.28357, Lng : -123.11502, Q1 : 1.0, Q2 : 0.0, Q3 : 0.0, Q4 : -6.54935774946e-07}
2019-04-14 21:44:28.91: SIM {TimeUS : 43135239, Roll : 0.0, Pitch : 0.0, Yaw : 359.99, Alt : 30.1000003815, Lat : 49.28357, Lng : -123.11502, Q1 : 1.0, Q2 : 0.0, Q3 : 0.0, Q4 : -8.64173273385e-07}
2019-04-14 21:44:29.01: SIM {TimeUS : 43235199, Roll : 0.0, Pitch : 0.0, Yaw : 359.99, Alt : 30.1000003815, Lat : 49.28357, Lng : -123.11502, Q1 : 1.0, Q2 : 0.0, Q3 : 0.0, Q4 : -1.08132974219e-06}
2019-04-14 21:44:29.11: SIM {TimeUS : 43335159, Roll : 0.0, Pitch : 0.0, Yaw : 359.99, Alt : 30.1000003815, Lat : 49.28357, Lng : -123.11502, Q1 : 1.0, Q2 : 0.0, Q3 : 0.0, Q4 : -1.26538884615e-06}
2019-04-14 21:44:29.21: SIM {TimeUS : 43435119, Roll : 0.0, Pitch : 0.0, Yaw : 359.99, Alt : 30.1100006104, Lat : 49.28357, Lng : -123.11502, Q1 : 1.0, Q2 : 0.0, Q3 : 0.0, Q4 : -1.46940237755e-06}
2019-04-14 21:44:29.31: SIM {TimeUS : 43535079, Roll : 0.0, Pitch : 0.0, Yaw : 359.99, Alt : 30.1299991608, Lat : 49.28357, Lng : -123.11502, Q1 : 1.0, Q2 : 0.0, Q3 : 0.0, Q4 : -1.67590940237e-06}
2019-04-14 21:44:29.41: SIM {TimeUS : 43635039, Roll : 0.0, Pitch : 0.0, Yaw : 359.99, Alt : 30.1599998474, Lat : 49.28357, Lng : -123.11502, Q1 : 1.0, Q2 : 0.0, Q3 : 0.0, Q4 : -1.93465120901e-06}
2019-04-14 21:44:29.51: SIM {TimeUS : 43734999, Roll : 0.0, Pitch : 0.0, Yaw : 359.99, Alt : 30.1900005341, Lat : 49.28357, Lng : -123.11502, Q1 : 1.0, Q2 : 0.0, Q3 : 0.0, Q4 : -2.12115537579e-06}
2019-04-14 21:44:29.61: SIM {TimeUS : 43834959, Roll : -0.04, Pitch : -0.03, Yaw : 359.99, Alt : 30.2299995422, Lat : 49.28357, Lng : -123.11502, Q1 : 0.999999880791, Q2 : -0.000349960318999, Q3 : -0.000275802332908, Q4 : -5.46154342373e-06}
2019-04-14 21:44:29.71: SIM {TimeUS : 43934919, Roll : -0.29, Pitch : -0.25, Yaw : 359.99, Alt : 30.3099994659, Lat : 49.28357, Lng : -123.11502, Q1 : 0.99999409914, Q2 : -0.00261233793572, Q3 : -0.00222410308197, Q4 : -2.68496060016e-05}
2019-04-14 21:44:29.81: SIM {TimeUS : 44034879, Roll : -0.59, Pitch : -0.53, Yaw : 359.99, Alt : 30.4400005341, Lat : 49.28357, Lng : -123.11502, Q1 : 0.999975442886, Q2 : -0.00521507160738, Q3 : -0.00468014506623, Q4 : -7.25496356608e-05}
2019-04-14 21:44:29.91: SIM {TimeUS : 44134839, Roll : -0.79, Pitch : -0.72, Yaw : 359.98, Alt : 30.6000003815, Lat : 49.28357, Lng : -123.11502, Q1 : 0.999955773354, Q2 : -0.00691894488409, Q3 : -0.00636898120865, Q4 : -0.000137020921102}
2019-04-14 21:44:30.01: SIM {TimeUS : 44234799, Roll : -0.84, Pitch : -0.77, Yaw : 359.98, Alt : 30.7600002289, Lat : 49.28357, Lng : -123.11502, Q1 : 0.999950110912, Q2 : -0.0073374658823, Q3 : -0.00676867319271, Q4 : -0.000214855608647}
2019-04-14 21:44:30.11: SIM {TimeUS : 44334759, Roll : -0.74, Pitch : -0.68, Yaw : 359.97, Alt : 30.9099998474, Lat : 49.28357, Lng : -123.1150201, Q1 : 0.999960839748, Q2 : -0.00650948705152, Q3 : -0.0059872684069, Q4 : -0.000295672332868}
2019-04-14 21:44:30.21: SIM {TimeUS : 44435552, Roll : -0.53, Pitch : -0.52, Yaw : 359.96, Alt : 31.0699996948, Lat : 49.2835701, Lng : -123.1150202, Q1 : 0.999978542328, Q2 : -0.00469820573926, Q3 : -0.00454987492412, Q4 : -0.000368409702787}
2019-04-14 21:44:30.31: SIM {TimeUS : 44535512, Roll : -0.29, Pitch : -0.31, Yaw : 359.95, Alt : 31.2199993134, Lat : 49.2835701, Lng : -123.1150202, Q1 : 0.999992609024, Q2 : -0.0026168350596, Q3 : -0.00278521771543, Q4 : -0.000430314481491}
2019-04-14 21:44:30.41: SIM {TimeUS : 44635472, Roll : -0.11, Pitch : -0.13, Yaw : 359.94, Alt : 31.3899993896, Lat : 49.2835702, Lng : -123.1150203, Q1 : 0.999998748302, Q2 : -0.000987570616417, Q3 : -0.00114124733955, Q4 : -0.00048532456276}
2019-04-14 21:44:30.51: SIM {TimeUS : 44735432, Roll : 0.0, Pitch : 0.0, Yaw : 359.93, Alt : 31.5599994659, Lat : 49.2835702, Lng : -123.1150204, Q1 : 0.999999880791, Q2 : 2.67407995125e-05, Q3 : -4.73815853184e-05, Q4 : -0.000528259610292}
2019-04-14 21:44:30.61: SIM {TimeUS : 44835392, Roll : 0.05, Pitch : 0.04, Yaw : 359.93, Alt : 31.7399997711, Lat : 49.2835703, Lng : -123.1150205, Q1 : 0.999999642372, Q2 : 0.000477682246128, Q3 : 0.000423891557148, Q4 : -0.000558927131351}
2019-04-14 21:44:30.71: SIM {TimeUS : 44935352, Roll : 0.06, Pitch : 0.05, Yaw : 359.93, Alt : 31.9200000763, Lat : 49.2835703, Lng : -123.1150206, Q1 : 0.999999582767, Q2 : 0.000531039724592, Q3 : 0.000459417467937, Q4 : -0.000584830413572}
2019-04-14 21:44:30.81: SIM {TimeUS : 45035312, Roll : 0.06, Pitch : 0.03, Yaw : 359.93, Alt : 32.0999984741, Lat : 49.2835703, Lng : -123.1150206, Q1 : 0.999999642372, Q2 : 0.000525643408764, Q3 : 0.000317105877912, Q4 : -0.000600078259595}
2019-04-14 21:44:30.91: SIM {TimeUS : 45135272, Roll : 0.06, Pitch : 0.02, Yaw : 359.93, Alt : 32.2900009155, Lat : 49.2835703, Lng : -123.1150207, Q1 : 0.999999642372, Q2 : 0.000588727882132, Q3 : 0.000191820246982, Q4 : -0.000605410023127}
2019-04-14 21:44:31.01: SIM {TimeUS : 45235232, Roll : 0.08, Pitch : 0.02, Yaw : 359.93, Alt : 32.4799995422, Lat : 49.2835703, Lng : -123.1150207, Q1 : 0.999999523163, Q2 : 0.000707825878635, Q3 : 0.000240892797592, Q4 : -0.000597091566306}
2019-04-14 21:44:31.11: SIM {TimeUS : 45335192, Roll : 0.09, Pitch : 0.05, Yaw : 359.93, Alt : 32.6800003052, Lat : 49.2835703, Lng : -123.1150208, Q1 : 0.999999403954, Q2 : 0.000811243546195, Q3 : 0.000447714672191, Q4 : -0.000582757464144}
2019-04-14 21:44:31.21: SIM {TimeUS : 45435152, Roll : 0.1, Pitch : 0.09, Yaw : 359.93, Alt : 32.8800010681, Lat : 49.2835704, Lng : -123.1150208, Q1 : 0.99999910593, Q2 : 0.000897760153748, Q3 : 0.000818995933514, Q4 : -0.000569787982386}
2019-04-14 21:44:31.31: SIM {TimeUS : 45535112, Roll : 0.12, Pitch : 0.14, Yaw : 359.93, Alt : 33.0800018311, Lat : 49.2835704, Lng : -123.1150208, Q1 : 0.999998390675, Q2 : 0.00112684792839, Q3 : 0.00128100148868, Q4 : -0.000553793797735}
2019-04-14 21:44:31.41: SIM {TimeUS : 45635072, Roll : 0.16, Pitch : 0.18, Yaw : 359.93, Alt : 33.2799987793, Lat : 49.2835704, Lng : -123.1150209, Q1 : 0.999997496605, Q2 : 0.00146763282828, Q3 : 0.00159666640684, Q4 : -0.000541858084034}
2019-04-14 21:44:31.51: SIM {TimeUS : 45735032, Roll : 0.18, Pitch : 0.2, Yaw : 359.93, Alt : 33.4799995422, Lat : 49.2835704, Lng : -123.1150209, Q1 : 0.999996960163, Q2 : 0.00164528924506, Q3 : 0.0017506229924, Q4 : -0.000534312217496}
2019-04-14 21:44:31.61: SIM {TimeUS : 45834992, Roll : 0.18, Pitch : 0.21, Yaw : 359.93, Alt : 33.6899986267, Lat : 49.2835704, Lng : -123.1150209, Q1 : 0.999996781349, Q2 : 0.00165761634707, Q3 : 0.00186017912347, Q4 : -0.000529014447238}
2019-04-14 21:44:31.71: SIM {TimeUS : 45934952, Roll : 0.18, Pitch : 0.18, Yaw : 359.93, Alt : 33.9000015259, Lat : 49.2835706, Lng : -123.1150209, Q1 : 0.999997198582, Q2 : 0.00161547691096, Q3 : 0.00165227719117, Q4 : -0.000538792810403}
2019-04-14 21:44:31.81: SIM {TimeUS : 46034912, Roll : 0.16, Pitch : 0.15, Yaw : 359.93, Alt : 34.1100006104, Lat : 49.2835706, Lng : -123.1150209, Q1 : 0.999997913837, Q2 : 0.0014606132172, Q3 : 0.00132319598924, Q4 : -0.000540983804967}
2019-04-14 21:44:31.91: SIM {TimeUS : 46134872, Roll : 0.13, Pitch : 0.12, Yaw : 359.93, Alt : 34.3199996948, Lat : 49.2835706, Lng : -123.1150209, Q1 : 0.999998569489, Q2 : 0.00120801280718, Q3 : 0.00104755035136, Q4 : -0.000542873458471}
2019-04-14 21:44:32.01: SIM {TimeUS : 46234832, Roll : 0.11, Pitch : 0.1, Yaw : 359.93, Alt : 34.5299987793, Lat : 49.2835706, Lng : -123.1150209, Q1 : 0.999998927116, Q2 : 0.00103454501368, Q3 : 0.000875761848874, Q4 : -0.000554312427994}
2019-04-14 21:44:32.11: SIM {TimeUS : 46334792, Roll : 0.11, Pitch : 0.09, Yaw : 359.93, Alt : 34.75, Lat : 49.2835706, Lng : -123.1150209, Q1 : 0.999999046326, Q2 : 0.000994877074845, Q3 : 0.000790115445852, Q4 : -0.000581629108638}
2019-04-14 21:44:32.21: SIM {TimeUS : 46434752, Roll : 0.1, Pitch : 0.07, Yaw : 359.93, Alt : 34.9599990845, Lat : 49.2835706, Lng : -123.1150209, Q1 : 0.99999922514, Q2 : 0.000901798892301, Q3 : 0.000622723309789, Q4 : -0.000609841139521}
2019-04-14 21:44:32.31: SIM {TimeUS : 46535545, Roll : 0.08, Pitch : 0.05, Yaw : 359.92, Alt : 35.1800003052, Lat : 49.2835706, Lng : -123.1150208, Q1 : 0.999999463558, Q2 : 0.00070084433537, Q3 : 0.000486158562126, Q4 : -0.000633689109236}
2019-04-14 21:44:32.41: SIM {TimeUS : 46635505, Roll : 0.05, Pitch : 0.05, Yaw : 359.92, Alt : 35.4000015259, Lat : 49.2835706, Lng : -123.1150208, Q1 : 0.999999582767, Q2 : 0.000464520417154, Q3 : 0.000451463478385, Q4 : -0.000660134770442}
2019-04-14 21:44:32.51: SIM {TimeUS : 46735465, Roll : 0.02, Pitch : 0.05, Yaw : 359.92, Alt : 35.6100006104, Lat : 49.2835706, Lng : -123.1150208, Q1 : 0.999999582767, Q2 : 0.000257520441664, Q3 : 0.000514233950526, Q4 : -0.00068566534901}
2019-04-14 21:44:32.61: SIM {TimeUS : 46835425, Roll : 0.01, Pitch : 0.04, Yaw : 359.91, Alt : 35.8300018311, Lat : 49.2835706, Lng : -123.1150208, Q1 : 0.999999642372, Q2 : 0.00016515913012, Q3 : 0.000416244060034, Q4 : -0.00070825725561}
2019-04-14 21:44:32.71: SIM {TimeUS : 46935385, Roll : 0.01, Pitch : 0.03, Yaw : 359.91, Alt : 36.0499992371, Lat : 49.2835706, Lng : -123.1150208, Q1 : 0.999999701977, Q2 : 0.000107009742351, Q3 : 0.000338294747053, Q4 : -0.000733704597224}
2019-04-14 21:44:32.81: SIM {TimeUS : 47035345, Roll : 0.0, Pitch : 0.03, Yaw : 359.91, Alt : 36.2799987793, Lat : 49.2835704, Lng : -123.1150207, Q1 : 0.999999642372, Q2 : 3.5137204577e-06, Q3 : 0.000308036920615, Q4 : -0.000763941323385}
2019-04-14 21:44:32.91: SIM {TimeUS : 47135305, Roll : 0.0, Pitch : 0.04, Yaw : 359.9, Alt : 36.5, Lat : 49.2835704, Lng : -123.1150207, Q1 : 0.999999582767, Q2 : -8.20930290502e-06, Q3 : 0.000366870051948, Q4 : -0.000799536996055}
2019-04-14 21:44:33.01: SIM {TimeUS : 47235265, Roll : 0.01, Pitch : 0.04, Yaw : 359.9, Alt : 36.7200012207, Lat : 49.2835704, Lng : -123.1150207, Q1 : 0.999999582767, Q2 : 0.000108881562483, Q3 : 0.000353456416633, Q4 : -0.00083436537534}
2019-04-14 21:44:33.11: SIM {TimeUS : 47335225, Roll : 0.0, Pitch : 0.02, Yaw : 359.9, Alt : 36.9399986267, Lat : 49.2835704, Lng : -123.1150207, Q1 : 0.999999582767, Q2 : 5.86898640904e-05, Q3 : 0.000231722558965, Q4 : -0.000868568546139}
2019-04-14 21:44:33.21: SIM {TimeUS : 47435185, Roll : -0.02, Pitch : 0.0, Yaw : 359.89, Alt : 37.1699981689, Lat : 49.2835704, Lng : -123.1150207, Q1 : 0.999999582767, Q2 : -0.000213795399759, Q3 : -7.8053715697e-05, Q4 : -0.000900987535715}
2019-04-14 21:44:33.31: SIM {TimeUS : 47535145, Roll : -0.06, Pitch : -0.04, Yaw : 359.89, Alt : 37.3899993896, Lat : 49.2835704, Lng : -123.1150207, Q1 : 0.999999284744, Q2 : -0.000606672663707, Q3 : -0.000388701620977, Q4 : -0.00093201326672}
2019-04-14 21:44:33.41: SIM {TimeUS : 47635105, Roll : -0.11, Pitch : -0.07, Yaw : 359.89, Alt : 37.6199989319, Lat : 49.2835704, Lng : -123.1150206, Q1 : 0.999998867512, Q2 : -0.000990414759144, Q3 : -0.000619612052105, Q4 : -0.000958580349106}
2019-04-14 21:44:33.51: SIM {TimeUS : 47735065, Roll : -0.14, Pitch : -0.09, Yaw : 359.88, Alt : 37.8400001526, Lat : 49.2835704, Lng : -123.1150206, Q1 : 0.999998450279, Q2 : -0.00123093090951, Q3 : -0.00079057586845, Q4 : -0.000985320308246}
2019-04-14 21:44:33.61: SIM {TimeUS : 47835025, Roll : -0.14, Pitch : -0.09, Yaw : 359.88, Alt : 38.0699996948, Lat : 49.2835704, Lng : -123.1150206, Q1 : 0.99999833107, Q2 : -0.00127543439157, Q3 : -0.000818863685708, Q4 : -0.00101300620008}
2019-04-14 21:44:33.71: SIM {TimeUS : 47934985, Roll : -0.12, Pitch : -0.06, Yaw : 359.88, Alt : 38.2999992371, Lat : 49.2835704, Lng : -123.1150206, Q1 : 0.999998688698, Q2 : -0.00109826307744, Q3 : -0.000607824709732, Q4 : -0.00103546341415}
2019-04-14 21:44:33.81: SIM {TimeUS : 48034945, Roll : -0.09, Pitch : -0.05, Yaw : 359.87, Alt : 38.5299987793, Lat : 49.2835704, Lng : -123.1150206, Q1 : 0.999998986721, Q2 : -0.000808644515928, Q3 : -0.000470539933303, Q4 : -0.00105215620715}
2019-04-14 21:44:33.91: SIM {TimeUS : 48134905, Roll : -0.07, Pitch : -0.04, Yaw : 359.87, Alt : 38.75, Lat : 49.2835704, Lng : -123.1150206, Q1 : 0.99999910593, Q2 : -0.000648595450912, Q3 : -0.000431905791629, Q4 : -0.00107308092993}
2019-04-14 21:44:34.01: SIM {TimeUS : 48234865, Roll : -0.06, Pitch : -0.02, Yaw : 359.87, Alt : 38.9799995422, Lat : 49.2835704, Lng : -123.1150206, Q1 : 0.99999922514, Q2 : -0.000588659546338, Q3 : -0.000255014252616, Q4 : -0.00108957290649}
2019-04-14 21:44:34.11: SIM {TimeUS : 48334825, Roll : -0.08, Pitch : 0.0, Yaw : 359.87, Alt : 39.2099990845, Lat : 49.2835704, Lng : -123.1150206, Q1 : 0.99999910593, Q2 : -0.000715510046575, Q3 : -3.93423324567e-05, Q4 : -0.00110008521006}
2019-04-14 21:44:34.21: SIM {TimeUS : 48434785, Roll : -0.08, Pitch : 0.01, Yaw : 359.87, Alt : 39.4399986267, Lat : 49.2835704, Lng : -123.1150206, Q1 : 0.99999910593, Q2 : -0.000729410501663, Q3 : 0.000114137685159, Q4 : -0.00110632379074}
2019-04-14 21:44:34.31: SIM {TimeUS : 48534745, Roll : -0.06, Pitch : 0.03, Yaw : 359.87, Alt : 39.6699981689, Lat : 49.2835704, Lng : -123.1150206, Q1 : 0.999999165535, Q2 : -0.000585004338063, Q3 : 0.00033451829222, Q4 : -0.00111121905502}
2019-04-14 21:44:34.41: SIM {TimeUS : 48635538, Roll : -0.04, Pitch : 0.03, Yaw : 359.87, Alt : 39.9099998474, Lat : 49.2835704, Lng : -123.1150206, Q1 : 0.999999284744, Q2 : -0.000374051131075, Q3 : 0.000313219585223, Q4 : -0.00110414752271}
2019-04-14 21:44:34.51: SIM {TimeUS : 48735498, Roll : 0.0, Pitch : 0.02, Yaw : 359.87, Alt : 40.1399993896, Lat : 49.2835704, Lng : -123.1150207, Q1 : 0.999999403954, Q2 : -8.25527895358e-05, Q3 : 0.000225761265028, Q4 : -0.00109677156433}
2019-04-14 21:44:34.61: SIM {TimeUS : 48835458, Roll : 0.02, Pitch : 0.04, Yaw : 359.87, Alt : 40.3699989319, Lat : 49.2835704, Lng : -123.1150207, Q1 : 0.999999284744, Q2 : 0.000238732784055, Q3 : 0.000372061069356, Q4 : -0.00109036487993}
2019-04-14 21:44:34.71: SIM {TimeUS : 48935418, Roll : 0.07, Pitch : 0.08, Yaw : 359.87, Alt : 40.5999984741, Lat : 49.2835704, Lng : -123.1150207, Q1 : 0.999998927116, Q2 : 0.000644205254503, Q3 : 0.000730386876967, Q4 : -0.00109143415466}
2019-04-14 21:44:34.81: SIM {TimeUS : 49035378, Roll : 0.1, Pitch : 0.12, Yaw : 359.87, Alt : 40.8300018311, Lat : 49.2835704, Lng : -123.1150207, Q1 : 0.999998390675, Q2 : 0.000904158805497, Q3 : 0.00106137013063, Q4 : -0.00110825197771}
2019-04-14 21:44:34.91: SIM {TimeUS : 49135338, Roll : 0.09, Pitch : 0.14, Yaw : 359.87, Alt : 41.0699996948, Lat : 49.2835704, Lng : -123.1150207, Q1 : 0.999998211861, Q2 : 0.000798150140326, Q3 : 0.00127792870626, Q4 : -0.00112572917715}
2019-04-14 21:44:35.01: SIM {TimeUS : 49235298, Roll : 0.03, Pitch : 0.15, Yaw : 359.86, Alt : 41.2999992371, Lat : 49.2835706, Lng : -123.1150207, Q1 : 0.99999833107, Q2 : 0.00032974302303, Q3 : 0.00138266175054, Q4 : -0.00115510204341}
2019-04-14 21:44:35.11: SIM {TimeUS : 49335258, Roll : -0.01, Pitch : 0.15, Yaw : 359.86, Alt : 41.5299987793, Lat : 49.2835706, Lng : -123.1150207, Q1 : 0.999998390675, Q2 : -0.000105572202301, Q3 : 0.00135588750709, Q4 : -0.00119120639283}
2019-04-14 21:44:35.21: SIM {TimeUS : 49435218, Roll : -0.02, Pitch : 0.11, Yaw : 359.85, Alt : 41.7700004578, Lat : 49.2835706, Lng : -123.1150207, Q1 : 0.999998688698, Q2 : -0.000251238991041, Q3 : 0.00104650296271, Q4 : -0.00123248412274}
2019-04-14 21:44:35.31: SIM {TimeUS : 49535178, Roll : -0.02, Pitch : 0.07, Yaw : 359.85, Alt : 42.0, Lat : 49.2835704, Lng : -123.1150207, Q1 : 0.999998986721, Q2 : -0.000243663322181, Q3 : 0.00064463581657, Q4 : -0.0012742447434}
2019-04-14 21:44:35.41: SIM {TimeUS : 49635138, Roll : -0.01, Pitch : 0.06, Yaw : 359.84, Alt : 42.2299995422, Lat : 49.2835704, Lng : -123.1150207, Q1 : 0.999998986721, Q2 : -9.60365359788e-05, Q3 : 0.000565829104744, Q4 : -0.00131284503732}
2019-04-14 21:44:35.51: SIM {TimeUS : 49735098, Roll : 0.02, Pitch : 0.08, Yaw : 359.84, Alt : 42.4700012207, Lat : 49.2835704, Lng : -123.1150207, Q1 : 0.999998807907, Q2 : 0.000226641728659, Q3 : 0.00074228370795, Q4 : -0.00135178479832}
2019-04-14 21:44:35.61: SIM {TimeUS : 49835058, Roll : 0.07, Pitch : 0.1, Yaw : 359.84, Alt : 42.7000007629, Lat : 49.2835704, Lng : -123.1150207, Q1 : 0.999998390675, Q2 : 0.000685398408677, Q3 : 0.000921452068724, Q4 : -0.00138827704359}
2019-04-14 21:44:35.71: SIM {TimeUS : 49935018, Roll : 0.11, Pitch : 0.1, Yaw : 359.83, Alt : 42.9399986267, Lat : 49.2835704, Lng : -123.1150207, Q1 : 0.999998033047, Q2 : 0.00102207693271, Q3 : 0.000910332542844, Q4 : -0.00142540666275}
2019-04-14 21:44:35.81: SIM {TimeUS : 50034978, Roll : 0.11, Pitch : 0.09, Yaw : 359.83, Alt : 43.1699981689, Lat : 49.2835704, Lng : -123.1150207, Q1 : 0.999998092651, Q2 : 0.00103016127832, Q3 : 0.00080311531201, Q4 : -0.001459137653}
2019-04-14 21:44:35.91: SIM {TimeUS : 50134938, Roll : 0.07, Pitch : 0.07, Yaw : 359.83, Alt : 43.4099998474, Lat : 49.2835704, Lng : -123.1150207, Q1 : 0.999998450279, Q2 : 0.000643266190309, Q3 : 0.000694087822922, Q4 : -0.00147023797035}
2019-04-14 21:44:36.01: SIM {TimeUS : 50234898, Roll : 0.01, Pitch : 0.06, Yaw : 359.83, Alt : 43.6399993896, Lat : 49.2835704, Lng : -123.1150207, Q1 : 0.999998748302, Q2 : 9.93252106127e-05, Q3 : 0.000570328789763, Q4 : -0.00147463625763}
2019-04-14 21:44:36.11: SIM {TimeUS : 50334858, Roll : -0.02, Pitch : 0.06, Yaw : 359.83, Alt : 43.8800010681, Lat : 49.2835704, Lng : -123.1150207, Q1 : 0.999998748302, Q2 : -0.000251861318247, Q3 : 0.000528857053723, Q4 : -0.00148268230259}
2019-04-14 21:44:36.21: SIM {TimeUS : 50434818, Roll : -0.04, Pitch : 0.04, Yaw : 359.82, Alt : 44.1100006104, Lat : 49.2835704, Lng : -123.1150207, Q1 : 0.999998748302, Q2 : -0.000402033154387, Q3 : 0.00041275145486, Q4 : -0.0014927071752}
2019-04-14 21:44:36.31: SIM {TimeUS : 50534778, Roll : -0.04, Pitch : 0.02, Yaw : 359.82, Alt : 44.3499984741, Lat : 49.2835704, Lng : -123.1150206, Q1 : 0.999998807907, Q2 : -0.000349463371094, Q3 : 0.000193982559722, Q4 : -0.00150729471352}
2019-04-14 21:44:36.41: SIM {TimeUS : 50634738, Roll : -0.04, Pitch : 0.0, Yaw : 359.82, Alt : 44.5900001526, Lat : 49.2835704, Lng : -123.1150206, Q1 : 0.999998748302, Q2 : -0.00036199297756, Q3 : -6.55023086438e-06, Q4 : -0.0015353806084}
2019-04-14 21:44:36.51: SIM {TimeUS : 50735531, Roll : -0.03, Pitch : -0.01, Yaw : 359.82, Alt : 44.8199996948, Lat : 49.2835704, Lng : -123.1150206, Q1 : 0.999998688698, Q2 : -0.000320501363603, Q3 : -0.000160573632456, Q4 : -0.00156764243729}
2019-04-14 21:44:36.61: SIM {TimeUS : 50835491, Roll : -0.02, Pitch : -0.02, Yaw : 359.81, Alt : 45.0600013733, Lat : 49.2835704, Lng : -123.1150206, Q1 : 0.999998688698, Q2 : -0.00021003933216, Q3 : -0.000220572910621, Q4 : -0.00159824290313}
2019-04-14 21:44:36.71: SIM {TimeUS : 50935451, Roll : -0.01, Pitch : -0.01, Yaw : 359.81, Alt : 45.2999992371, Lat : 49.2835704, Lng : -123.1150206, Q1 : 0.999998629093, Q2 : -0.000163512930158, Q3 : -0.000125753635075, Q4 : -0.00163115968462}
2019-04-14 21:44:36.81: SIM {TimeUS : 51035411, Roll : -0.02, Pitch : 0.0, Yaw : 359.8, Alt : 45.5299987793, Lat : 49.2835704, Lng : -123.1150206, Q1 : 0.999998629093, Q2 : -0.000199868329219, Q3 : -7.40014511393e-05, Q4 : -0.00166445295326}
2019-04-14 21:44:36.91: SIM {TimeUS : 51135371, Roll : -0.02, Pitch : -0.01, Yaw : 359.8, Alt : 45.7700004578, Lat : 49.2835704, Lng : -123.1150206, Q1 : 0.999998509884, Q2 : -0.000242918802542, Q3 : -0.000154585111886, Q4 : -0.00169809628278}
2019-04-14 21:44:37.01: SIM {TimeUS : 51235331, Roll : -0.02, Pitch : -0.02, Yaw : 359.8, Alt : 46.0, Lat : 49.2835704, Lng : -123.1150206, Q1 : 0.999998450279, Q2 : -0.000254520447925, Q3 : -0.00019757168775, Q4 : -0.00173354300205}
2019-04-14 21:44:37.11: SIM {TimeUS : 51335291, Roll : -0.02, Pitch : -0.02, Yaw : 359.79, Alt : 46.2299995422, Lat : 49.2835703, Lng : -123.1150206, Q1 : 0.999998390675, Q2 : -0.000213389779674, Q3 : -0.000183636962902, Q4 : -0.00176503125113}
2019-04-14 21:44:37.21: SIM {TimeUS : 51435251, Roll : -0.02, Pitch : -0.01, Yaw : 359.79, Alt : 46.4500007629, Lat : 49.2835703, Lng : -123.1150206, Q1 : 0.999998390675, Q2 : -0.000260000117123, Q3 : -0.00011652115063, Q4 : -0.00179372832645}
2019-04-14 21:44:37.31: SIM {TimeUS : 51535211, Roll : -0.05, Pitch : 0.0, Yaw : 359.79, Alt : 46.6699981689, Lat : 49.2835703, Lng : -123.1150206, Q1 : 0.999998271465, Q2 : -0.000446606922196, Q3 : -2.61326458713e-05, Q4 : -0.00181922491174}
2019-04-14 21:44:37.41: SIM {TimeUS : 51635171, Roll : -0.08, Pitch : 0.0, Yaw : 359.78, Alt : 46.8800010681, Lat : 49.2835703, Lng : -123.1150205, Q1 : 0.999998033047, Q2 : -0.0007372716791, Q3 : 2.2732967409e-05, Q4 : -0.00184611405712}
2019-04-14 21:44:37.51: SIM {TimeUS : 51735131, Roll : -0.1, Pitch : 0.0, Yaw : 359.78, Alt : 47.0900001526, Lat : 49.2835703, Lng : -123.1150205, Q1 : 0.999997794628, Q2 : -0.000936265743803, Q3 : 4.72210849694e-05, Q4 : -0.00187459914014}
2019-04-14 21:44:37.61: SIM {TimeUS : 51835091, Roll : -0.11, Pitch : 0.01, Yaw : 359.78, Alt : 47.2900009155, Lat : 49.2835703, Lng : -123.1150205, Q1 : 0.999997675419, Q2 : -0.000968843291048, Q3 : 0.000126569153508, Q4 : -0.00190199934877}
2019-04-14 21:44:37.71: SIM {TimeUS : 51935051, Roll : -0.09, Pitch : 0.03, Yaw : 359.77, Alt : 47.4799995422, Lat : 49.2835703, Lng : -123.1150205, Q1 : 0.999997735023, Q2 : -0.000867260736413, Q3 : 0.000269754877081, Q4 : -0.00192382687237}
2019-04-14 21:44:37.81: SIM {TimeUS : 52035011, Roll : -0.09, Pitch : 0.03, Yaw : 359.77, Alt : 47.6699981689, Lat : 49.2835703, Lng : -123.1150205, Q1 : 0.999997735023, Q2 : -0.000805961259175, Q3 : 0.0003207429545, Q4 : -0.00194347137585}
2019-04-14 21:44:37.91: SIM {TimeUS : 52134971, Roll : -0.1, Pitch : 0.02, Yaw : 359.77, Alt : 47.8400001526, Lat : 49.2835703, Lng : -123.1150205, Q1 : 0.999997615814, Q2 : -0.000920442922506, Q3 : 0.000249881588388, Q4 : -0.00196135416627}
2019-04-14 21:44:38.01: SIM {TimeUS : 52234931, Roll : -0.11, Pitch : 0.01, Yaw : 359.77, Alt : 48.0, Lat : 49.2835703, Lng : -123.1150205, Q1 : 0.999997496605, Q2 : -0.00103905180003, Q3 : 0.000109396220068, Q4 : -0.00198277388699}
2019-04-14 21:44:38.11: SIM {TimeUS : 52334891, Roll : -0.11, Pitch : -0.01, Yaw : 359.77, Alt : 48.1500015259, Lat : 49.2835703, Lng : -123.1150206, Q1 : 0.999997496605, Q2 : -0.000993035850115, Q3 : -0.000124715515994, Q4 : -0.0020052602049}
2019-04-14 21:44:38.21: SIM {TimeUS : 52434851, Roll : -0.08, Pitch : -0.04, Yaw : 359.76, Alt : 48.2799987793, Lat : 49.2835703, Lng : -123.1150206, Q1 : 0.99999755621, Q2 : -0.000759960268624, Q3 : -0.000399000186007, Q4 : -0.00203055981547}
2019-04-14 21:44:38.31: SIM {TimeUS : 52534811, Roll : -0.06, Pitch : -0.07, Yaw : 359.76, Alt : 48.4099998474, Lat : 49.2835703, Lng : -123.1150206, Q1 : 0.999997496605, Q2 : -0.000566385569982, Q3 : -0.000620382314082, Q4 : -0.0020592615474}
2019-04-14 21:44:38.41: SIM {TimeUS : 52634771, Roll : -0.05, Pitch : -0.08, Yaw : 359.76, Alt : 48.5200004578, Lat : 49.2835703, Lng : -123.1150206, Q1 : 0.999997437, Q2 : -0.000508567551151, Q3 : -0.000749265018385, Q4 : -0.00209136959165}
2019-04-14 21:44:38.51: SIM {TimeUS : 52735564, Roll : -0.02, Pitch : -0.08, Yaw : 359.75, Alt : 48.6199989319, Lat : 49.2835703, Lng : -123.1150206, Q1 : 0.999997437, Q2 : -0.000233021797612, Q3 : -0.000722526863683, Q4 : -0.00212343572639}
2019-04-14 21:44:38.61: SIM {TimeUS : 52835524, Roll : 0.01, Pitch : -0.06, Yaw : 359.75, Alt : 48.7099990845, Lat : 49.2835703, Lng : -123.1150206, Q1 : 0.999997496605, Q2 : 8.89026632649e-05, Q3 : -0.000565531430766, Q4 : -0.00215730117634}
2019-04-14 21:44:38.71: SIM {TimeUS : 52935484, Roll : 0.03, Pitch : -0.03, Yaw : 359.74, Alt : 48.7799987793, Lat : 49.2835703, Lng : -123.1150206, Q1 : 0.999997496605, Q2 : 0.000320489751175, Q3 : -0.000340145255905, Q4 : -0.0021926946938}
2019-04-14 21:44:38.81: SIM {TimeUS : 53035444, Roll : 0.05, Pitch : -0.01, Yaw : 359.74, Alt : 48.8499984741, Lat : 49.2835703, Lng : -123.1150206, Q1 : 0.999997437, Q2 : 0.000476986460853, Q3 : -0.000144292949699, Q4 : -0.00222451658919}
2019-04-14 21:44:38.91: SIM {TimeUS : 53135404, Roll : 0.06, Pitch : -0.01, Yaw : 359.74, Alt : 48.9099998474, Lat : 49.2835703, Lng : -123.1150206, Q1 : 0.999997317791, Q2 : 0.000565164606087, Q3 : -9.82267665677e-05, Q4 : -0.00225702812895}
2019-04-14 21:44:39.01: SIM {TimeUS : 53235364, Roll : 0.05, Pitch : -0.02, Yaw : 359.73, Alt : 48.9599990845, Lat : 49.2835703, Lng : -123.1150207, Q1 : 0.999997258186, Q2 : 0.000504518975504, Q3 : -0.000256057974184, Q4 : -0.00228975829668}
2019-04-14 21:44:39.11: SIM {TimeUS : 53335324, Roll : 0.05, Pitch : -0.05, Yaw : 359.73, Alt : 49.0, Lat : 49.2835703, Lng : -123.1150207, Q1 : 0.999997019768, Q2 : 0.000513218692504, Q3 : -0.00050961819943, Q4 : -0.00232042279094}
2019-04-14 21:44:39.21: SIM {TimeUS : 53435284, Roll : 0.19, Pitch : -0.16, Yaw : 359.73, Alt : 49.0400009155, Lat : 49.2835703, Lng : -123.1150207, Q1 : 0.999994814396, Q2 : 0.00168893311638, Q3 : -0.00140084209852, Q4 : -0.00234837038442}
2019-04-14 21:44:39.31: SIM {TimeUS : 53535244, Roll : 0.54, Pitch : -0.4, Yaw : 359.72, Alt : 49.0699996948, Lat : 49.2835703, Lng : -123.1150207, Q1 : 0.999979555607, Q2 : 0.00477357860655, Q3 : -0.00353885418735, Q4 : -0.00237067812122}
2019-04-14 21:44:39.41: SIM {TimeUS : 53635204, Roll : 1.13, Pitch : -0.79, Yaw : 359.71, Alt : 49.0900001526, Lat : 49.2835704, Lng : -123.1150207, Q1 : 0.999924719334, Q2 : 0.00984801910818, Q3 : -0.00691967317834, Q4 : -0.00237691518851}
2019-04-14 21:44:39.51: SIM {TimeUS : 53735164, Roll : 1.91, Pitch : -1.28, Yaw : 359.7, Alt : 49.1199989319, Lat : 49.2835704, Lng : -123.1150206, Q1 : 0.999793767929, Q2 : 0.0167126730084, Q3 : -0.0112947933376, Q4 : -0.00235593714751}
2019-04-14 21:44:39.61: SIM {TimeUS : 53835124, Roll : 2.81, Pitch : -1.86, Yaw : 359.69, Alt : 49.1399993896, Lat : 49.2835704, Lng : -123.1150206, Q1 : 0.999564051628, Q2 : 0.0244784783572, Q3 : -0.0163481961936, Q4 : -0.00229512876831}
2019-04-14 21:44:39.71: SIM {TimeUS : 53935084, Roll : 3.64, Pitch : -2.45, Yaw : 359.67, Alt : 49.1500015259, Lat : 49.2835706, Lng : -123.1150204, Q1 : 0.999262332916, Q2 : 0.0317609272897, Q3 : -0.0214768052101, Q4 : -0.00218630372547}
2019-04-14 21:44:39.81: SIM {TimeUS : 54035044, Roll : 4.3, Pitch : -2.93, Yaw : 359.65, Alt : 49.1699981689, Lat : 49.2835707, Lng : -123.1150202, Q1 : 0.998963057995, Q2 : 0.037506274879, Q3 : -0.0257303230464, Q4 : -0.00201554922387}
2019-04-14 21:44:39.91: SIM {TimeUS : 54135004, Roll : 4.77, Pitch : -3.31, Yaw : 359.65, Alt : 49.1800003052, Lat : 49.2835708, Lng : -123.11502, Q1 : 0.998712658882, Q2 : 0.0415743328631, Q3 : -0.0290067493916, Q4 : -0.00178731710184}
2019-04-14 21:44:40.01: SIM {TimeUS : 54234964, Roll : 5.11, Pitch : -3.59, Yaw : 359.66, Alt : 49.1899986267, Lat : 49.2835709, Lng : -123.1150197, Q1 : 0.998513758183, Q2 : 0.0445030033588, Q3 : -0.0314238853753, Q4 : -0.00152429717127}
2019-04-14 21:44:40.11: SIM {TimeUS : 54334924, Roll : 5.39, Pitch : -3.79, Yaw : 359.67, Alt : 49.2000007629, Lat : 49.2835712, Lng : -123.1150192, Q1 : 0.998345077038, Q2 : 0.0469208061695, Q3 : -0.0332279913127, Q4 : -0.00124568666797}
2019-04-14 21:44:40.21: SIM {TimeUS : 54434884, Roll : 5.67, Pitch : -4.0, Yaw : 359.69, Alt : 49.2099990845, Lat : 49.2835715, Lng : -123.1150186, Q1 : 0.998164594173, Q2 : 0.049411918968, Q3 : -0.0350004732609, Q4 : -0.00096962187672}
2019-04-14 21:44:40.31: SIM {TimeUS : 54534844, Roll : 6.0, Pitch : -4.21, Yaw : 359.69, Alt : 49.2200012207, Lat : 49.2835718, Lng : -123.115018, Q1 : 0.997955024242, Q2 : 0.0522124171257, Q3 : -0.0368669182062, Q4 : -0.000704759731889}
2019-04-14 21:44:40.41: SIM {TimeUS : 54634804, Roll : 6.31, Pitch : -4.42, Yaw : 359.7, Alt : 49.2299995422, Lat : 49.2835721, Lng : -123.1150172, Q1 : 0.997742533684, Q2 : 0.0549051240087, Q3 : -0.038666266948, Q4 : -0.000452375010354}
2019-04-14 21:44:40.51: SIM {TimeUS : 54734764, Roll : 6.55, Pitch : -4.61, Yaw : 359.7, Alt : 49.2299995422, Lat : 49.2835725, Lng : -123.1150163, Q1 : 0.997558474541, Q2 : 0.0570323355496, Q3 : -0.0403035730124, Q4 : -0.000236142717768}
2019-04-14 21:44:40.61: SIM {TimeUS : 54835557, Roll : 6.74, Pitch : -4.75, Yaw : 359.71, Alt : 49.2400016785, Lat : 49.2835729, Lng : -123.1150154, Q1 : 0.997412383556, Q2 : 0.0586557164788, Q3 : -0.0415699072182, Q4 : -4.53144566563e-05}
2019-04-14 21:44:40.71: SIM {TimeUS : 54935517, Roll : 6.88, Pitch : -4.85, Yaw : 359.72, Alt : 49.2400016785, Lat : 49.2835733, Lng : -123.1150144, Q1 : 0.997302949429, Q2 : 0.0598794296384, Q3 : -0.042442124337, Q4 : 0.000113236885227}
2019-04-14 21:44:40.81: SIM {TimeUS : 55035477, Roll : 6.98, Pitch : -4.91, Yaw : 359.72, Alt : 49.25, Lat : 49.2835739, Lng : -123.1150132, Q1 : 0.997230768204, Q2 : 0.0607426054776, Q3 : -0.0429084002972, Q4 : 0.000241178320721}
2019-04-14 21:44:40.91: SIM {TimeUS : 55135437, Roll : 7.09, Pitch : -4.96, Yaw : 359.72, Alt : 49.25, Lat : 49.2835745, Lng : -123.115012, Q1 : 0.997151792049, Q2 : 0.0616962201893, Q3 : -0.043379560113, Q4 : 0.000320042512612}
2019-04-14 21:44:41.01: SIM {TimeUS : 55235397, Roll : 7.31, Pitch : -4.96, Yaw : 359.79, Alt : 49.25, Lat : 49.2835751, Lng : -123.1150107, Q1 : 0.997027814388, Q2 : 0.0636899024248, Q3 : -0.0433384664357, Q4 : 0.000958773016464}
2019-04-14 21:44:41.11: SIM {TimeUS : 55335357, Roll : 7.78, Pitch : -4.8, Yaw : 0.35, Alt : 49.2599983215, Lat : 49.2835757, Lng : -123.1150093, Q1 : 0.996801614761, Q2 : 0.0679796487093, Q3 : -0.0415928028524, Q4 : 0.00594861991704}
2019-04-14 21:44:41.21: SIM {TimeUS : 55435317, Roll : 8.4, Pitch : -4.64, Yaw : 2.1, Alt : 49.2599983215, Lat : 49.2835764, Lng : -123.1150078, Q1 : 0.996270895004, Q2 : 0.0739541724324, Q3 : -0.0390399247408, Q4 : 0.0212361440063}
2019-04-14 21:44:41.31: SIM {TimeUS : 55535277, Roll : 8.89, Pitch : -4.84, Yaw : 5.41, Alt : 49.2599983215, Lat : 49.283577, Lng : -123.1150062, Q1 : 0.994828343391, Q2 : 0.079422108829, Q3 : -0.038464024663, Q4 : 0.0502921678126}
2019-04-14 21:44:41.41: SIM {TimeUS : 55635237, Roll : 9.05, Pitch : -5.57, Yaw : 10.25, Alt : 49.2599983215, Lat : 49.2835777, Lng : -123.1150045, Q1 : 0.991381168365, Q2 : 0.0828225985169, Q3 : -0.041212849319, Q4 : 0.0927650257945}
2019-04-14 21:44:41.51: SIM {TimeUS : 55735197, Roll : 8.69, Pitch : -6.77, Yaw : 16.4, Alt : 49.2599983215, Lat : 49.2835785, Lng : -123.1150027, Q1 : 0.984556436539, Q2 : 0.0832887366414, Q3 : -0.0475061833858, Q4 : 0.14647436142}
2019-04-14 21:44:41.61: SIM {TimeUS : 55835157, Roll : 7.72, Pitch : -8.28, Yaw : 23.63, Alt : 49.2700004578, Lat : 49.2835793, Lng : -123.1150007, Q1 : 0.973033726215, Q2 : 0.0805556550622, Q3 : -0.0567698404193, Q4 : 0.208550438285}
2019-04-14 21:44:41.71: SIM {TimeUS : 55935117, Roll : 6.15, Pitch : -9.87, Yaw : 31.67, Alt : 49.2700004578, Lat : 49.28358, Lng : -123.1149987, Q1 : 0.9558339715, Q2 : 0.0749130621552, Q3 : -0.0680562108755, Q4 : 0.2759308815}
2019-04-14 21:44:41.81: SIM {TimeUS : 56035077, Roll : 4.04, Pitch : -11.3, Yaw : 40.26, Alt : 49.2700004578, Lat : 49.2835807, Lng : -123.1149965, Q1 : 0.932556986809, Q2 : 0.0668703317642, Q3 : -0.0803494527936, Q4 : 0.345557272434}
2019-04-14 21:44:41.91: SIM {TimeUS : 56135037, Roll : 1.3, Pitch : -12.41, Yaw : 48.98, Alt : 49.2700004578, Lat : 49.2835816, Lng : -123.1149942, Q1 : 0.904097795486, Q2 : 0.055104650557, Q3 : -0.0936723649502, Q4 : 0.413274854422}
2019-04-14 21:44:42.01: SIM {TimeUS : 56234997, Roll : -1.87, Pitch : -13.0, Yaw : 57.03, Alt : 49.2700004578, Lat : 49.2835824, Lng : -123.1149918, Q1 : 0.873773932457, Q2 : 0.0397577509284, Q3 : -0.107232183218, Q4 : 0.472694069147}
2019-04-14 21:44:42.11: SIM {TimeUS : 56334957, Roll : -4.87, Pitch : -13.08, Yaw : 63.55, Alt : 49.2700004578, Lat : 49.2835835, Lng : -123.1149894, Q1 : 0.846335947514, Q2 : 0.023994686082, Q3 : -0.119037821889, Q4 : 0.518622934818}
2019-04-14 21:44:42.21: SIM {TimeUS : 56434917, Roll : -7.1, Pitch : -12.86, Yaw : 68.04, Alt : 49.2700004578, Lat : 49.2835844, Lng : -123.1149869, Q1 : 0.825900971889, Q2 : 0.0115481810644, Q3 : -0.127104058862, Q4 : 0.549180030823}
2019-04-14 21:44:42.31: SIM {TimeUS : 56534877, Roll : -8.24, Pitch : -12.63, Yaw : 70.46, Alt : 49.2700004578, Lat : 49.2835856, Lng : -123.1149843, Q1 : 0.814342200756, Q2 : 0.00496640615165, Q3 : -0.130834668875, Q4 : 0.565424144268}
2019-04-14 21:44:42.41: SIM {TimeUS : 56634837, Roll : -8.32, Pitch : -12.58, Yaw : 71.06, Alt : 49.2700004578, Lat : 49.2835868, Lng : -123.1149817, Q1 : 0.811398208141, Q2 : 0.00476749613881, Q3 : -0.130883023143, Q4 : 0.56963133812}
2019-04-14 21:44:42.51: SIM {TimeUS : 56734797, Roll : -7.54, Pitch : -12.8, Yaw : 70.2, Alt : 49.2700004578, Lat : 49.2835883, Lng : -123.114979, Q1 : 0.815496504307, Q2 : 0.0104522360489, Q3 : -0.128638103604, Q4 : 0.564188361168}
2019-04-14 21:44:42.61: SIM {TimeUS : 56834757, Roll : -6.15, Pitch : -13.3, Yaw : 68.25, Alt : 49.2799987793, Lat : 49.2835897, Lng : -123.1149763, Q1 : 0.824545741081, Q2 : 0.0207040887326, Q3 : -0.125660598278, Q4 : 0.551275849342}
2019-04-14 21:44:42.71: SIM {TimeUS : 56935550, Roll : -4.39, Pitch : -13.97, Yaw : 65.51, Alt : 49.2799987793, Lat : 49.2835913, Lng : -123.1149735, Q1 : 0.83662289381, Q2 : 0.0337730273604, Q3 : -0.122821412981, Q4 : 0.532763004303}
2019-04-14 21:44:42.81: SIM {TimeUS : 57035510, Roll : -2.48, Pitch : -14.66, Yaw : 62.36, Alt : 49.2799987793, Lat : 49.2835928, Lng : -123.1149706, Q1 : 0.849766969681, Q2 : 0.0476758852601, Q3 : -0.120333023369, Q4 : 0.511021614075}
2019-04-14 21:44:42.91: SIM {TimeUS : 57135470, Roll : -0.6, Pitch : -15.26, Yaw : 59.08, Alt : 49.2799987793, Lat : 49.2835945, Lng : -123.1149677, Q1 : 0.862623870373, Q2 : 0.0609009563923, Q3 : -0.118112392724, Q4 : 0.488078534603}
2019-04-14 21:44:43.01: SIM {TimeUS : 57235430, Roll : 1.06, Pitch : -15.66, Yaw : 56.01, Alt : 49.2799987793, Lat : 49.283596, Lng : -123.1149646, Q1 : 0.874023854733, Q2 : 0.0720858797431, Q3 : -0.115966014564, Q4 : 0.46630230546}
2019-04-14 21:44:43.11: SIM {TimeUS : 57335390, Roll : 2.38, Pitch : -15.84, Yaw : 53.45, Alt : 49.2799987793, Lat : 49.2835977, Lng : -123.1149614, Q1 : 0.883149564266, Q2 : 0.0803507342935, Q3 : -0.113785803318, Q4 : 0.447932422161}
2019-04-14 21:44:43.21: SIM {TimeUS : 57435350, Roll : 3.24, Pitch : -15.86, Yaw : 51.61, Alt : 49.2799987793, Lat : 49.2835995, Lng : -123.1149581, Q1 : 0.889589190483, Q2 : 0.0853180214763, Q3 : -0.112003467977, Q4 : 0.43451949954}
2019-04-14 21:44:43.31: SIM {TimeUS : 57535310, Roll : 3.63, Pitch : -15.81, Yaw : 50.57, Alt : 49.2799987793, Lat : 49.2836011, Lng : -123.1149546, Q1 : 0.893280863762, Q2 : 0.0871163830161, Q3 : -0.110939145088, Q4 : 0.426793336868}
2019-04-14 21:44:43.41: SIM {TimeUS : 57635270, Roll : 3.56, Pitch : -15.76, Yaw : 50.3, Alt : 49.2799987793, Lat : 49.2836028, Lng : -123.1149511, Q1 : 0.89438611269, Q2 : 0.0861674547195, Q3 : -0.11102129519, Q4 : 0.424644440413}
2019-04-14 21:44:43.51: SIM {TimeUS : 57735230, Roll : 3.12, Pitch : -15.77, Yaw : 50.7, Alt : 49.2799987793, Lat : 49.2836044, Lng : -123.1149474, Q1 : 0.893216133118, Q2 : 0.0831751748919, Q3 : -0.112389594316, Q4 : 0.427335232496}
2019-04-14 21:44:43.61: SIM {TimeUS : 57835190, Roll : 2.44, Pitch : -15.84, Yaw : 51.61, Alt : 49.2900009155, Lat : 49.2836062, Lng : -123.1149436, Q1 : 0.890204489231, Q2 : 0.0789846032858, Q3 : -0.114892408252, Q4 : 0.433701694012}
2019-04-14 21:44:43.71: SIM {TimeUS : 57935150, Roll : 1.61, Pitch : -15.98, Yaw : 52.84, Alt : 49.2900009155, Lat : 49.2836079, Lng : -123.1149397, Q1 : 0.885890483856, Q2 : 0.0743358582258, Q3 : -0.118323944509, Q4 : 0.442347973585}
2019-04-14 21:44:43.81: SIM {TimeUS : 58035110, Roll : 0.74, Pitch : -16.15, Yaw : 54.2, Alt : 49.2900009155, Lat : 49.2836096, Lng : -123.1149357, Q1 : 0.88091391325, Q2 : 0.0697434172034, Q3 : -0.122118659317, Q4 : 0.451899975538}
2019-04-14 21:44:43.91: SIM {TimeUS : 58135070, Roll : -0.07, Pitch : -16.31, Yaw : 55.53, Alt : 49.2900009155, Lat : 49.2836114, Lng : -123.1149317, Q1 : 0.875920772552, Q2 : 0.0655553936958, Q3 : -0.125821053982, Q4 : 0.461122959852}
2019-04-14 21:44:44.01: SIM {TimeUS : 58235030, Roll : -0.75, Pitch : -16.41, Yaw : 56.69, Alt : 49.2900009155, Lat : 49.283613, Lng : -123.1149276, Q1 : 0.871509313583, Q2 : 0.0620694234967, Q3 : -0.128709241748, Q4 : 0.469097882509}
2019-04-14 21:44:44.11: SIM {TimeUS : 58334990, Roll : -1.21, Pitch : -16.45, Yaw : 57.57, Alt : 49.2900009155, Lat : 49.283615, Lng : -123.1149235, Q1 : 0.86809027195, Q2 : 0.059688821435, Q3 : -0.13051392138, Q4 : 0.475208073854}
2019-04-14 21:44:44.21: SIM {TimeUS : 58434950, Roll : -1.48, Pitch : -16.47, Yaw : 58.12, Alt : 49.2900009155, Lat : 49.2836168, Lng : -123.1149193, Q1 : 0.865907609463, Q2 : 0.0583577789366, Q3 : -0.131430447102, Q4 : 0.479087024927}
2019-04-14 21:44:44.31: SIM {TimeUS : 58534910, Roll : -1.52, Pitch : -16.48, Yaw : 58.35, Alt : 49.2900009155, Lat : 49.2836187, Lng : -123.1149151, Q1 : 0.864969193935, Q2 : 0.0583533681929, Q3 : -0.131602808833, Q4 : 0.480732649565}
2019-04-14 21:44:44.41: SIM {TimeUS : 58634870, Roll : -1.37, Pitch : -16.48, Yaw : 58.27, Alt : 49.2900009155, Lat : 49.2836206, Lng : -123.1149108, Q1 : 0.865183711052, Q2 : 0.0594670102, Q3 : -0.130972310901, Q4 : 0.480382233858}
2019-04-14 21:44:44.51: SIM {TimeUS : 58734830, Roll : -1.08, Pitch : -16.48, Yaw : 57.97, Alt : 49.2900009155, Lat : 49.2836226, Lng : -123.1149065, Q1 : 0.866328120232, Q2 : 0.0612330548465, Q3 : -0.129952147603, Q4 : 0.478370815516}
2019-04-14 21:44:44.61: SIM {TimeUS : 58834790, Roll : -0.75, Pitch : -16.51, Yaw : 57.49, Alt : 49.2900009155, Lat : 49.2836245, Lng : -123.1149021, Q1 : 0.868073701859, Q2 : 0.0633758679032, Q3 : -0.129077762365, Q4 : 0.475153148174}
2019-04-14 21:44:44.71: SIM {TimeUS : 58934750, Roll : -0.4, Pitch : -16.58, Yaw : 56.94, Alt : 49.2900009155, Lat : 49.2836266, Lng : -123.1148977, Q1 : 0.870111584663, Q2 : 0.0656663551927, Q3 : -0.128416210413, Q4 : 0.471278071404}
2019-04-14 21:44:44.81: SIM {TimeUS : 59035543, Roll : -0.07, Pitch : -16.66, Yaw : 56.36, Alt : 49.2900009155, Lat : 49.2836286, Lng : -123.1148933, Q1 : 0.872179090977, Q2 : 0.06789752841, Q3 : -0.128000721335, Q4 : 0.467235833406}
2019-04-14 21:44:44.91: SIM {TimeUS : 59135503, Roll : 0.21, Pitch : -16.72, Yaw : 55.84, Alt : 49.2900009155, Lat : 49.2836305, Lng : -123.1148888, Q1 : 0.874047458172, Q2 : 0.0697267353535, Q3 : -0.12760001421, Q4 : 0.463570415974}
2019-04-14 21:44:45.01: SIM {TimeUS : 59235463, Roll : 0.43, Pitch : -16.76, Yaw : 55.42, Alt : 49.2900009155, Lat : 49.2836327, Lng : -123.1148842, Q1 : 0.875554800034, Q2 : 0.0711373835802, Q3 : -0.127333074808, Q4 : 0.460575312376}
2019-04-14 21:44:45.11: SIM {TimeUS : 59335423, Roll : 0.57, Pitch : -16.8, Yaw : 55.13, Alt : 49.2900009155, Lat : 49.2836347, Lng : -123.1148797, Q1 : 0.876611709595, Q2 : 0.072058968246, Q3 : -0.12724031508, Q4 : 0.458442270756}
2019-04-14 21:44:45.21: SIM {TimeUS : 59435383, Roll : 0.64, Pitch : -16.84, Yaw : 54.96, Alt : 49.2900009155, Lat : 49.2836367, Lng : -123.114875, Q1 : 0.877184569836, Q2 : 0.0725018680096, Q3 : -0.127347514033, Q4 : 0.457245349884}
2019-04-14 21:44:45.31: SIM {TimeUS : 59535343, Roll : 0.63, Pitch : -16.86, Yaw : 54.93, Alt : 49.2900009155, Lat : 49.2836388, Lng : -123.1148704, Q1 : 0.877305269241, Q2 : 0.0724826753139, Q3 : -0.127619668841, Q4 : 0.456940919161}
2019-04-14 21:44:45.41: SIM {TimeUS : 59635303, Roll : 0.56, Pitch : -16.89, Yaw : 55.0, Alt : 49.2900009155, Lat : 49.2836408, Lng : -123.1148657, Q1 : 0.87703871727, Q2 : 0.0721489861608, Q3 : -0.128031462431, Q4 : 0.457390010357}
2019-04-14 21:44:45.51: SIM {TimeUS : 59735263, Roll : 0.43, Pitch : -16.91, Yaw : 55.15, Alt : 49.2900009155, Lat : 49.283643, Lng : -123.114861, Q1 : 0.876489341259, Q2 : 0.071460545063, Q3 : -0.12863188982, Q4 : 0.45838162303}
2019-04-14 21:44:45.61: SIM {TimeUS : 59835223, Roll : 0.28, Pitch : -16.94, Yaw : 55.34, Alt : 49.2900009155, Lat : 49.2836451, Lng : -123.1148562, Q1 : 0.875765800476, Q2 : 0.0706364586949, Q3 : -0.129339247942, Q4 : 0.459691375494}
2019-04-14 21:44:45.71: SIM {TimeUS : 59935183, Roll : 0.13, Pitch : -16.98, Yaw : 55.55, Alt : 49.2999992371, Lat : 49.2836472, Lng : -123.1148514, Q1 : 0.874965846539, Q2 : 0.0698412507772, Q3 : -0.1301227808, Q4 : 0.461112856865}
2019-04-14 21:44:45.81: SIM {TimeUS : 60035143, Roll : -0.01, Pitch : -17.02, Yaw : 55.75, Alt : 49.2999992371, Lat : 49.2836493, Lng : -123.1148466, Q1 : 0.874196588993, Q2 : 0.0691581591964, Q3 : -0.13091596961, Q4 : 0.46244841814}
2019-04-14 21:44:45.91: SIM {TimeUS : 60135103, Roll : -0.14, Pitch : -17.06, Yaw : 55.92, Alt : 49.2999992371, Lat : 49.2836515, Lng : -123.1148417, Q1 : 0.873561024666, Q2 : 0.068504832685, Q3 : -0.131635382771, Q4 : 0.463541150093}
2019-04-14 21:44:46.01: SIM {TimeUS : 60235063, Roll : -0.24, Pitch : -17.08, Yaw : 56.04, Alt : 49.2999992371, Lat : 49.2836536, Lng : -123.1148368, Q1 : 0.873124301434, Q2 : 0.0679431185126, Q3 : -0.132153466344, Q4 : 0.464298516512}
2019-04-14 21:44:46.11: SIM {TimeUS : 60335023, Roll : -0.3, Pitch : -17.11, Yaw : 56.1, Alt : 49.2999992371, Lat : 49.2836558, Lng : -123.1148319, Q1 : 0.872889697552, Q2 : 0.0676565617323, Q3 : -0.132570967078, Q4 : 0.464662432671}
2019-04-14 21:44:46.21: SIM {TimeUS : 60434983, Roll : -0.3, Pitch : -17.15, Yaw : 56.1, Alt : 49.2999992371, Lat : 49.2836579, Lng : -123.114827, Q1 : 0.872832775116, Q2 : 0.0677934587002, Q3 : -0.132841035724, Q4 : 0.464672267437}
2019-04-14 21:44:46.31: SIM {TimeUS : 60534943, Roll : -0.25, Pitch : -17.19, Yaw : 56.06, Alt : 49.2999992371, Lat : 49.2836602, Lng : -123.1148221, Q1 : 0.872929751873, Q2 : 0.0682913437486, Q3 : -0.133009836078, Q4 : 0.464368760586}
2019-04-14 21:44:46.41: SIM {TimeUS : 60634903, Roll : -0.17, Pitch : -17.23, Yaw : 55.98, Alt : 49.2999992371, Lat : 49.2836624, Lng : -123.1148171, Q1 : 0.873158276081, Q2 : 0.0690059661865, Q3 : -0.133049190044, Q4 : 0.46382188797}
2019-04-14 21:44:46.51: SIM {TimeUS : 60734863, Roll : -0.07, Pitch : -17.28, Yaw : 55.87, Alt : 49.2999992371, Lat : 49.2836645, Lng : -123.1148121, Q1 : 0.873476564884, Q2 : 0.0697746798396, Q3 : -0.133042171597, Q4 : 0.463109135628}
2019-04-14 21:44:46.61: SIM {TimeUS : 60834823, Roll : 0.0, Pitch : -17.31, Yaw : 55.76, Alt : 49.3100013733, Lat : 49.2836668, Lng : -123.1148071, Q1 : 0.873852372169, Q2 : 0.0704163238406, Q3 : -0.132994443178, Q4 : 0.462316036224}
2019-04-14 21:44:46.71: SIM {TimeUS : 60934783, Roll : 0.06, Pitch : -17.33, Yaw : 55.65, Alt : 49.3100013733, Lat : 49.2836689, Lng : -123.1148021, Q1 : 0.874236404896, Q2 : 0.0708365663886, Q3 : -0.133003637195, Q4 : 0.461522400379}
2019-04-14 21:44:46.81: SIM {TimeUS : 61034743, Roll : 0.1, Pitch : -17.33, Yaw : 55.55, Alt : 49.3100013733, Lat : 49.2836712, Lng : -123.1147971, Q1 : 0.874604344368, Q2 : 0.0710152238607, Q3 : -0.132968038321, Q4 : 0.46080750227}
2019-04-14 21:44:46.91: SIM {TimeUS : 61135536, Roll : 0.13, Pitch : -17.33, Yaw : 55.47, Alt : 49.3100013733, Lat : 49.2836735, Lng : -123.114792, Q1 : 0.874910473824, Q2 : 0.071173876524, Q3 : -0.132853418589, Q4 : 0.460234612226}
2019-04-14 21:44:47.01: SIM {TimeUS : 61235496, Roll : 0.16, Pitch : -17.33, Yaw : 55.41, Alt : 49.3100013733, Lat : 49.2836758, Lng : -123.1147869, Q1 : 0.875124454498, Q2 : 0.0713165998459, Q3 : -0.13277952373, Q4 : 0.459826946259}
2019-04-14 21:44:47.11: SIM {TimeUS : 61335456, Roll : 0.19, Pitch : -17.37, Yaw : 55.37, Alt : 49.3100013733, Lat : 49.2836779, Lng : -123.1147818, Q1 : 0.875199019909, Q2 : 0.0716618299484, Q3 : -0.132959932089, Q4 : 0.459579020739}
2019-04-14 21:44:47.21: SIM {TimeUS : 61435416, Roll : 0.21, Pitch : -17.43, Yaw : 55.36, Alt : 49.3100013733, Lat : 49.2836803, Lng : -123.1147767, Q1 : 0.875172317028, Q2 : 0.0720346346498, Q3 : -0.133374765515, Q4 : 0.459451466799}
2019-04-14 21:44:47.31: SIM {TimeUS : 61535376, Roll : 0.2, Pitch : -17.47, Yaw : 55.36, Alt : 49.3100013733, Lat : 49.2836826, Lng : -123.1147716, Q1 : 0.87512922287, Q2 : 0.0721302032471, Q3 : -0.133674576879, Q4 : 0.459431290627}
2019-04-14 21:44:47.41: SIM {TimeUS : 61635336, Roll : 0.18, Pitch : -17.47, Yaw : 55.37, Alt : 49.3100013733, Lat : 49.2836847, Lng : -123.1147664, Q1 : 0.875086784363, Q2 : 0.0720314309001, Q3 : -0.133746609092, Q4 : 0.459506779909}
2019-04-14 21:44:47.51: SIM {TimeUS : 61735296, Roll : 0.16, Pitch : -17.47, Yaw : 55.39, Alt : 49.3100013733, Lat : 49.283687, Lng : -123.1147613, Q1 : 0.875017166138, Q2 : 0.0718839913607, Q3 : -0.133857950568, Q4 : 0.45962998271}
2019-04-14 21:44:47.61: SIM {TimeUS : 61835256, Roll : 0.12, Pitch : -17.49, Yaw : 55.42, Alt : 49.3100013733, Lat : 49.2836894, Lng : -123.1147561, Q1 : 0.874936282635, Q2 : 0.0716615319252, Q3 : -0.134136855602, Q4 : 0.45973739028}
2019-04-14 21:44:47.71: SIM {TimeUS : 61935216, Roll : 0.09, Pitch : -17.51, Yaw : 55.43, Alt : 49.3100013733, Lat : 49.2836917, Lng : -123.1147509, Q1 : 0.874855279922, Q2 : 0.0715385451913, Q3 : -0.1343793571, Q4 : 0.459839850664}
2019-04-14 21:44:47.81: SIM {TimeUS : 62035176, Roll : 0.07, Pitch : -17.53, Yaw : 55.45, Alt : 49.3199996948, Lat : 49.2836939, Lng : -123.1147457, Q1 : 0.874800443649, Q2 : 0.071443721652, Q3 : -0.134633466601, Q4 : 0.459884554148}
2019-04-14 21:44:47.91: SIM {TimeUS : 62135136, Roll : 0.05, Pitch : -17.55, Yaw : 55.45, Alt : 49.3199996948, Lat : 49.2836962, Lng : -123.1147405, Q1 : 0.874774813652, Q2 : 0.0714092627168, Q3 : -0.134869232774, Q4 : 0.459869623184}
2019-04-14 21:44:48.01: SIM {TimeUS : 62235096, Roll : 0.05, Pitch : -17.58, Yaw : 55.44, Alt : 49.3199996948, Lat : 49.2836986, Lng : -123.1147353, Q1 : 0.874772667885, Q2 : 0.0714868381619, Q3 : -0.135093644261, Q4 : 0.459795773029}
2019-04-14 21:44:48.11: SIM {TimeUS : 62335056, Roll : 0.06, Pitch : -17.6, Yaw : 55.43, Alt : 49.3199996948, Lat : 49.283701, Lng : -123.11473, Q1 : 0.874802589417, Q2 : 0.0716710314155, Q3 : -0.135178476572, Q4 : 0.459685146809}
2019-04-14 21:44:48.21: SIM {TimeUS : 62435016, Roll : 0.09, Pitch : -17.62, Yaw : 55.41, Alt : 49.3199996948, Lat : 49.2837033, Lng : -123.1147248, Q1 : 0.874845206738, Q2 : 0.0719567537308, Q3 : -0.135209411383, Q4 : 0.459550410509}
2019-04-14 21:44:48.31: SIM {TimeUS : 62534976, Roll : 0.12, Pitch : -17.64, Yaw : 55.38, Alt : 49.3199996948, Lat : 49.2837056, Lng : -123.1147195, Q1 : 0.874900519848, Q2 : 0.0722589567304, Q3 : -0.135299637914, Q4 : 0.459370970726}
2019-04-14 21:44:48.41: SIM {TimeUS : 62634936, Roll : 0.13, Pitch : -17.68, Yaw : 55.35, Alt : 49.3199996948, Lat : 49.283708, Lng : -123.1147143, Q1 : 0.874973714352, Q2 : 0.0724281966686, Q3 : -0.13554738462, Q4 : 0.459131807089}
2019-04-14 21:44:48.51: SIM {TimeUS : 62734896, Roll : 0.13, Pitch : -17.71, Yaw : 55.32, Alt : 49.3199996948, Lat : 49.2837102, Lng : -123.114709, Q1 : 0.875050544739, Q2 : 0.0725425630808, Q3 : -0.135869145393, Q4 : 0.458872228861}
2019-04-14 21:44:48.61: SIM {TimeUS : 62834856, Roll : 0.12, Pitch : -17.76, Yaw : 55.29, Alt : 49.3199996948, Lat : 49.2837126, Lng : -123.1147037, Q1 : 0.875126123428, Q2 : 0.072608537972, Q3 : -0.136233702302, Q4 : 0.458609521389}
2019-04-14 21:44:48.71: SIM {TimeUS : 62934816, Roll : 0.13, Pitch : -17.78, Yaw : 55.26, Alt : 49.3199996948, Lat : 49.283715, Lng : -123.1146984, Q1 : 0.875199794769, Q2 : 0.0727421343327, Q3 : -0.136445209384, Q4 : 0.458384811878}
2019-04-14 21:44:48.81: SIM {TimeUS : 63034776, Roll : 0.14, Pitch : -17.79, Yaw : 55.23, Alt : 49.3199996948, Lat : 49.2837174, Lng : -123.1146931, Q1 : 0.875289022923, Q2 : 0.0728444904089, Q3 : -0.136445969343, Q4 : 0.458197891712}
2019-04-14 21:44:48.91: SIM {TimeUS : 63134736, Roll : 0.16, Pitch : -17.77, Yaw : 55.21, Alt : 49.3199996948, Lat : 49.2837197, Lng : -123.1146878, Q1 : 0.875389814377, Q2 : 0.0728802382946, Q3 : -0.136250004172, Q4 : 0.458057969809}
2019-04-14 21:44:49.01: SIM {TimeUS : 63235529, Roll : 0.16, Pitch : -17.75, Yaw : 55.2, Alt : 49.3199996948, Lat : 49.2837221, Lng : -123.1146824, Q1 : 0.875481128693, Q2 : 0.0727699697018, Q3 : -0.136084139347, Q4 : 0.457950294018}
2019-04-14 21:44:49.11: SIM {TimeUS : 63335489, Roll : 0.16, Pitch : -17.72, Yaw : 55.18, Alt : 49.3199996948, Lat : 49.2837245, Lng : -123.1146771, Q1 : 0.87556296587, Q2 : 0.0726174712181, Q3 : -0.135929331183, Q4 : 0.457863986492}
2019-04-14 21:44:49.21: SIM {TimeUS : 63435449, Roll : 0.15, Pitch : -17.71, Yaw : 55.18, Alt : 49.3199996948, Lat : 49.2837269, Lng : -123.1146717, Q1 : 0.875612080097, Q2 : 0.0725336372852, Q3 : -0.135856598616, Q4 : 0.457804948092}
2019-04-14 21:44:49.31: SIM {TimeUS : 63535409, Roll : 0.15, Pitch : -17.73, Yaw : 55.17, Alt : 49.3300018311, Lat : 49.2837293, Lng : -123.1146663, Q1 : 0.875620305538, Q2 : 0.0725578963757, Q3 : -0.135979607701, Q4 : 0.457748770714}
2019-04-14 21:44:49.41: SIM {TimeUS : 63635369, Roll : 0.16, Pitch : -17.75, Yaw : 55.16, Alt : 49.3300018311, Lat : 49.2837317, Lng : -123.114661, Q1 : 0.875610172749, Q2 : 0.0726865381002, Q3 : -0.136139586568, Q4 : 0.457700282335}
2019-04-14 21:44:49.51: SIM {TimeUS : 63735329, Roll : 0.15, Pitch : -17.79, Yaw : 55.16, Alt : 49.3300018311, Lat : 49.2837339, Lng : -123.1146556, Q1 : 0.875581800938, Q2 : 0.072803363204, Q3 : -0.136514037848, Q4 : 0.457624435425}
2019-04-14 21:44:49.61: SIM {TimeUS : 63835289, Roll : 0.14, Pitch : -17.85, Yaw : 55.15, Alt : 49.3300018311, Lat : 49.2837363, Lng : -123.1146502, Q1 : 0.875547647476, Q2 : 0.0729431062937, Q3 : -0.136944875121, Q4 : 0.457538813353}
2019-04-14 21:44:49.71: SIM {TimeUS : 63935249, Roll : 0.14, Pitch : -17.89, Yaw : 55.15, Alt : 49.3300018311, Lat : 49.2837387, Lng : -123.1146448, Q1 : 0.875529766083, Q2 : 0.0730744600296, Q3 : -0.137269973755, Q4 : 0.457454621792}
2019-04-14 21:44:49.81: SIM {TimeUS : 64035209, Roll : 0.13, Pitch : -17.92, Yaw : 55.14, Alt : 49.3300018311, Lat : 49.2837411, Lng : -123.1146394, Q1 : 0.875530838966, Q2 : 0.0731258094311, Q3 : -0.137574478984, Q4 : 0.457352817059}
2019-04-14 21:44:49.91: SIM {TimeUS : 64135169, Roll : 0.12, Pitch : -17.94, Yaw : 55.13, Alt : 49.3300018311, Lat : 49.2837436, Lng : -123.114634, Q1 : 0.87555450201, Q2 : 0.0731292366982, Q3 : -0.137758523226, Q4 : 0.457251608372}
2019-04-14 21:44:50.01: SIM {TimeUS : 64235129, Roll : 0.14, Pitch : -17.93, Yaw : 55.11, Alt : 49.3300018311, Lat : 49.283746, Lng : -123.1146286, Q1 : 0.875602424145, Q2 : 0.0732046589255, Q3 : -0.137640371919, Q4 : 0.457183271646}
2019-04-14 21:44:50.11: SIM {TimeUS : 64335089, Roll : 0.17, Pitch : -17.93, Yaw : 55.1, Alt : 49.3300018311, Lat : 49.2837484, Lng : -123.1146232, Q1 : 0.875639498234, Q2 : 0.0734225735068, Q3 : -0.137553557754, Q4 : 0.457103550434}
2019-04-14 21:44:50.21: SIM {TimeUS : 64435049, Roll : 0.18, Pitch : -17.95, Yaw : 55.08, Alt : 49.3300018311, Lat : 49.2837509, Lng : -123.1146178, Q1 : 0.875677227974, Q2 : 0.0735561326146, Q3 : -0.137607097626, Q4 : 0.456993609667}
2019-04-14 21:44:50.31: SIM {TimeUS : 64535009, Roll : 0.19, Pitch : -17.96, Yaw : 55.07, Alt : 49.3300018311, Lat : 49.2837533, Lng : -123.1146123, Q1 : 0.875720500946, Q2 : 0.0736544281244, Q3 : -0.137664616108, Q4 : 0.456877589226}
2019-04-14 21:44:50.41: SIM {TimeUS : 64634969, Roll : 0.2, Pitch : -17.96, Yaw : 55.05, Alt : 49.3300018311, Lat : 49.2837557, Lng : -123.1146069, Q1 : 0.875778138638, Q2 : 0.0736848637462, Q3 : -0.137616813183, Q4 : 0.456776618958}
2019-04-14 21:44:50.51: SIM {TimeUS : 64734929, Roll : 0.2, Pitch : -17.95, Yaw : 55.04, Alt : 49.3300018311, Lat : 49.2837581, Lng : -123.1146015, Q1 : 0.87583398819, Q2 : 0.0736918896437, Q3 : -0.137589812279, Q4 : 0.456676483154}
2019-04-14 21:44:50.61: SIM {TimeUS : 64834889, Roll : 0.19, Pitch : -17.97, Yaw : 55.03, Alt : 49.3300018311, Lat : 49.2837606, Lng : -123.114596, Q1 : 0.875873804092, Q2 : 0.0736357942224, Q3 : -0.137766316533, Q4 : 0.456555902958}
2019-04-14 21:44:50.71: SIM {TimeUS : 64934849, Roll : 0.16, Pitch : -18.0, Yaw : 55.02, Alt : 49.3400001526, Lat : 49.283763, Lng : -123.1145905, Q1 : 0.875893950462, Q2 : 0.0735429599881, Q3 : -0.138139247894, Q4 : 0.456419557333}
2019-04-14 21:44:50.81: SIM {TimeUS : 65034809, Roll : 0.14, Pitch : -18.01, Yaw : 55.01, Alt : 49.3400001526, Lat : 49.2837654, Lng : -123.1145851, Q1 : 0.875936806202, Q2 : 0.0734081044793, Q3 : -0.138249009848, Q4 : 0.456325739622}
2019-04-14 21:44:50.91: SIM {TimeUS : 65134769, Roll : 0.15, Pitch : -17.99, Yaw : 55.0, Alt : 49.3400001526, Lat : 49.2837679, Lng : -123.1145796, Q1 : 0.875978052616, Q2 : 0.0734091103077, Q3 : -0.138112336397, Q4 : 0.456287801266}
2019-04-14 21:44:51.01: SIM {TimeUS : 65235562, Roll : 0.17, Pitch : -17.98, Yaw : 54.99, Alt : 49.3400001526, Lat : 49.2837703, Lng : -123.1145741, Q1 : 0.876009225845, Q2 : 0.0734744742513, Q3 : -0.137960091233, Q4 : 0.456263512373}
2019-04-14 21:44:51.11: SIM {TimeUS : 65335522, Roll : 0.17, Pitch : -17.99, Yaw : 54.99, Alt : 49.3400001526, Lat : 49.2837728, Lng : -123.1145686, Q1 : 0.876026153564, Q2 : 0.0735469907522, Q3 : -0.138001218438, Q4 : 0.45620688796}
2019-04-14 21:44:51.21: SIM {TimeUS : 65435482, Roll : 0.16, Pitch : -18.0, Yaw : 54.98, Alt : 49.3400001526, Lat : 49.2837752, Lng : -123.1145631, Q1 : 0.876043975353, Q2 : 0.0734847411513, Q3 : -0.138203635812, Q4 : 0.456121385098}
2019-04-14 21:44:51.31: SIM {TimeUS : 65535442, Roll : 0.13, Pitch : -18.03, Yaw : 54.97, Alt : 49.3400001526, Lat : 49.2837776, Lng : -123.1145576, Q1 : 0.876061320305, Q2 : 0.0733715742826, Q3 : -0.138469353318, Q4 : 0.456025749445}
2019-04-14 21:44:51.41: SIM {TimeUS : 65635402, Roll : 0.12, Pitch : -18.05, Yaw : 54.96, Alt : 49.3400001526, Lat : 49.2837801, Lng : -123.1145522, Q1 : 0.876072764397, Q2 : 0.073367357254, Q3 : -0.138687953353, Q4 : 0.455938011408}
2019-04-14 21:44:51.51: SIM {TimeUS : 65735362, Roll : 0.13, Pitch : -18.07, Yaw : 54.95, Alt : 49.3400001526, Lat : 49.2837825, Lng : -123.1145467, Q1 : 0.876075923443, Q2 : 0.0735240876675, Q3 : -0.138820037246, Q4 : 0.455866426229}
2019-04-14 21:44:51.61: SIM {TimeUS : 65835322, Roll : 0.15, Pitch : -18.09, Yaw : 54.94, Alt : 49.3400001526, Lat : 49.2837849, Lng : -123.1145412, Q1 : 0.876079440117, Q2 : 0.0737036988139, Q3 : -0.138912811875, Q4 : 0.455802440643}
2019-04-14 21:44:51.71: SIM {TimeUS : 65935282, Roll : 0.17, Pitch : -18.1, Yaw : 54.93, Alt : 49.3400001526, Lat : 49.2837874, Lng : -123.1145357, Q1 : 0.876084804535, Q2 : 0.0739517956972, Q3 : -0.138911351562, Q4 : 0.455752313137}
2019-04-14 21:44:51.81: SIM {TimeUS : 66035242, Roll : 0.19, Pitch : -18.12, Yaw : 54.93, Alt : 49.3400001526, Lat : 49.2837898, Lng : -123.1145302, Q1 : 0.876095890999, Q2 : 0.0741114169359, Q3 : -0.13895277679, Q4 : 0.455692499876}
2019-04-14 21:44:51.91: SIM {TimeUS : 66135202, Roll : 0.2, Pitch : -18.13, Yaw : 54.92, Alt : 49.3400001526, Lat : 49.2837923, Lng : -123.1145246, Q1 : 0.876105308533, Q2 : 0.074263766408, Q3 : -0.139002352953, Q4 : 0.455634444952}
