2019-04-14 02:42:30.40: SIM {TimeUS : 40216407, Roll : 0.0, Pitch : 0.0, Yaw : 0.0, Alt : 30.1000003815, Lat : 49.28357, Lng : -123.11502, Q1 : 1.0, Q2 : 0.0, Q3 : 0.0, Q4 : 0.0}
2019-04-14 02:42:30.51: SIM {TimeUS : 40335526, Roll : 0.0, Pitch : 0.0, Yaw : 0.0, Alt : 30.1000003815, Lat : 49.28357, Lng : -123.11502, Q1 : 1.0, Q2 : 0.0, Q3 : 0.0, Q4 : 0.0}
2019-04-14 02:42:30.61: SIM {TimeUS : 40435486, Roll : 0.0, Pitch : 0.0, Yaw : 0.0, Alt : 30.1000003815, Lat : 49.28357, Lng : -123.11502, Q1 : 1.0, Q2 : 0.0, Q3 : 0.0, Q4 : 0.0}
2019-04-14 02:42:30.71: SIM {TimeUS : 40535446, Roll : 0.0, Pitch : 0.0, Yaw : 0.0, Alt : 30.1000003815, Lat : 49.28357, Lng : -123.11502, Q1 : 1.0, Q2 : 0.0, Q3 : 0.0, Q4 : 0.0}
2019-04-14 02:42:30.81: SIM {TimeUS : 40635406, Roll : 0.0, Pitch : 0.0, Yaw : 0.0, Alt : 30.1000003815, Lat : 49.28357, Lng : -123.11502, Q1 : 1.0, Q2 : 0.0, Q3 : 0.0, Q4 : 0.0}
2019-04-14 02:42:30.91: SIM {TimeUS : 40735366, Roll : 0.0, Pitch : 0.0, Yaw : 0.0, Alt : 30.1000003815, Lat : 49.28357, Lng : -123.11502, Q1 : 1.0, Q2 : 0.0, Q3 : 0.0, Q4 : 0.0}
2019-04-14 02:42:31.01: SIM {TimeUS : 40835326, Roll : 0.0, Pitch : 0.0, Yaw : 0.0, Alt : 30.1000003815, Lat : 49.28357, Lng : -123.11502, Q1 : 1.0, Q2 : 0.0, Q3 : 0.0, Q4 : 0.0}
2019-04-14 02:42:31.11: SIM {TimeUS : 40935286, Roll : 0.0, Pitch : 0.0, Yaw : 0.0, Alt : 30.1000003815, Lat : 49.28357, Lng : -123.11502, Q1 : 1.0, Q2 : 0.0, Q3 : 0.0, Q4 : 0.0}
2019-04-14 02:42:31.21: SIM {TimeUS : 41035246, Roll : 0.0, Pitch : 0.0, Yaw : 0.0, Alt : 30.1000003815, Lat : 49.28357, Lng : -123.11502, Q1 : 1.0, Q2 : 0.0, Q3 : 0.0, Q4 : 0.0}
2019-04-14 02:42:31.31: SIM {TimeUS : 41135206, Roll : 0.0, Pitch : 0.0, Yaw : 0.0, Alt : 30.1000003815, Lat : 49.28357, Lng : -123.11502, Q1 : 1.0, Q2 : 0.0, Q3 : 0.0, Q4 : 0.0}
2019-04-14 02:42:31.41: SIM {TimeUS : 41235166, Roll : 0.0, Pitch : 0.0, Yaw : 0.0, Alt : 30.1000003815, Lat : 49.28357, Lng : -123.11502, Q1 : 1.0, Q2 : 0.0, Q3 : 0.0, Q4 : 0.0}
2019-04-14 02:42:31.51: SIM {TimeUS : 41335126, Roll : 0.0, Pitch : 0.0, Yaw : 0.0, Alt : 30.1000003815, Lat : 49.28357, Lng : -123.11502, Q1 : 1.0, Q2 : 0.0, Q3 : 0.0, Q4 : 0.0}
2019-04-14 02:42:31.61: SIM {TimeUS : 41435086, Roll : 0.0, Pitch : 0.0, Yaw : 0.0, Alt : 30.1000003815, Lat : 49.28357, Lng : -123.11502, Q1 : 1.0, Q2 : 0.0, Q3 : 0.0, Q4 : 0.0}
2019-04-14 02:42:31.71: SIM {TimeUS : 41535046, Roll : 0.0, Pitch : 0.0, Yaw : 0.0, Alt : 30.1000003815, Lat : 49.28357, Lng : -123.11502, Q1 : 1.0, Q2 : 0.0, Q3 : 0.0, Q4 : 0.0}
2019-04-14 02:42:31.81: SIM {TimeUS : 41635006, Roll : 0.0, Pitch : 0.0, Yaw : 0.0, Alt : 30.1000003815, Lat : 49.28357, Lng : -123.11502, Q1 : 1.0, Q2 : 0.0, Q3 : 0.0, Q4 : 0.0}
2019-04-14 02:42:31.91: SIM {TimeUS : 41734966, Roll : 0.0, Pitch : 0.0, Yaw : 0.0, Alt : 30.1000003815, Lat : 49.28357, Lng : -123.11502, Q1 : 1.0, Q2 : 0.0, Q3 : 0.0, Q4 : 0.0}
2019-04-14 02:42:32.01: SIM {TimeUS : 41834926, Roll : 0.0, Pitch : 0.0, Yaw : 0.0, Alt : 30.1000003815, Lat : 49.28357, Lng : -123.11502, Q1 : 1.0, Q2 : 0.0, Q3 : 0.0, Q4 : 0.0}
2019-04-14 02:42:32.11: SIM {TimeUS : 41934886, Roll : 0.0, Pitch : 0.0, Yaw : 0.0, Alt : 30.1000003815, Lat : 49.28357, Lng : -123.11502, Q1 : 1.0, Q2 : 0.0, Q3 : 0.0, Q4 : 0.0}
2019-04-14 02:42:32.21: SIM {TimeUS : 42034846, Roll : 0.0, Pitch : 0.0, Yaw : 0.0, Alt : 30.1000003815, Lat : 49.28357, Lng : -123.11502, Q1 : 1.0, Q2 : 0.0, Q3 : 0.0, Q4 : 0.0}
2019-04-14 02:42:32.31: SIM {TimeUS : 42134806, Roll : 0.0, Pitch : 0.0, Yaw : 0.0, Alt : 30.1000003815, Lat : 49.28357, Lng : -123.11502, Q1 : 1.0, Q2 : 0.0, Q3 : 0.0, Q4 : 0.0}
2019-04-14 02:42:32.41: SIM {TimeUS : 42234766, Roll : 0.0, Pitch : 0.0, Yaw : 0.0, Alt : 30.1000003815, Lat : 49.28357, Lng : -123.11502, Q1 : 1.0, Q2 : 0.0, Q3 : 0.0, Q4 : 0.0}
2019-04-14 02:42:32.51: SIM {TimeUS : 42335559, Roll : 0.0, Pitch : 0.0, Yaw : 0.0, Alt : 30.1000003815, Lat : 49.28357, Lng : -123.11502, Q1 : 1.0, Q2 : 0.0, Q3 : 0.0, Q4 : 0.0}
2019-04-14 02:42:32.61: SIM {TimeUS : 42435519, Roll : 0.0, Pitch : 0.0, Yaw : 0.0, Alt : 30.1000003815, Lat : 49.28357, Lng : -123.11502, Q1 : 1.0, Q2 : 0.0, Q3 : 0.0, Q4 : 0.0}
2019-04-14 02:42:32.71: SIM {TimeUS : 42535479, Roll : 0.0, Pitch : 0.0, Yaw : 360.0, Alt : 30.1000003815, Lat : 49.28357, Lng : -123.11502, Q1 : 1.0, Q2 : 0.0, Q3 : 0.0, Q4 : -2.81975723153e-12}
2019-04-14 02:42:32.81: SIM {TimeUS : 42635439, Roll : 0.0, Pitch : 0.0, Yaw : 0.0, Alt : 30.1000003815, Lat : 49.28357, Lng : -123.11502, Q1 : 1.0, Q2 : 0.0, Q3 : 0.0, Q4 : 2.10149987689e-11}
2019-04-14 02:42:32.91: SIM {TimeUS : 42735399, Roll : 0.0, Pitch : 0.0, Yaw : 360.0, Alt : 30.1000003815, Lat : 49.28357, Lng : -123.11502, Q1 : 1.0, Q2 : 0.0, Q3 : 0.0, Q4 : -1.12031898425e-07}
2019-04-14 02:42:33.01: SIM {TimeUS : 42835359, Roll : 0.0, Pitch : 0.0, Yaw : 359.99, Alt : 30.1000003815, Lat : 49.28357, Lng : -123.11502, Q1 : 1.0, Q2 : 0.0, Q3 : 0.0, Q4 : -2.55668823002e-07}
2019-04-14 02:42:33.11: SIM {TimeUS : 42935319, Roll : 0.0, Pitch : 0.0, Yaw : 359.99, Alt : 30.1000003815, Lat : 49.28357, Lng : -123.11502, Q1 : 1.0, Q2 : 0.0, Q3 : 0.0, Q4 : -4.5030898832e-07}
2019-04-14 02:42:33.21: SIM {TimeUS : 43035279, Roll : 0.0, Pitch : 0.0, Yaw : 359.99, Alt : 30.1000003815, Lat : 49.28357, Lng : -123.11502, Q1 : 1.0, Q2 : 0.0, Q3 : 0.0, Q4 : -6.3878559331e-07}
2019-04-14 02:42:33.31: SIM {TimeUS : 43135239, Roll : 0.0, Pitch : 0.0, Yaw : 359.99, Alt : 30.1000003815, Lat : 49.28357, Lng : -123.11502, Q1 : 1.0, Q2 : 0.0, Q3 : 0.0, Q4 : -8.64169635406e-07}
2019-04-14 02:42:33.41: SIM {TimeUS : 43235199, Roll : 0.0, Pitch : 0.0, Yaw : 359.99, Alt : 30.1000003815, Lat : 49.28357, Lng : -123.11502, Q1 : 1.0, Q2 : 0.0, Q3 : 0.0, Q4 : -1.07325229237e-06}
2019-04-14 02:42:33.51: SIM {TimeUS : 43335159, Roll : 0.0, Pitch : 0.0, Yaw : 359.99, Alt : 30.1000003815, Lat : 49.28357, Lng : -123.11502, Q1 : 1.0, Q2 : 0.0, Q3 : 0.0, Q4 : -1.27346186218e-06}
2019-04-14 02:42:33.61: SIM {TimeUS : 43435119, Roll : 0.0, Pitch : 0.0, Yaw : 359.99, Alt : 30.1100006104, Lat : 49.28357, Lng : -123.11502, Q1 : 1.0, Q2 : 0.0, Q3 : 0.0, Q4 : -1.48555193391e-06}
2019-04-14 02:42:33.71: SIM {TimeUS : 43535079, Roll : 0.0, Pitch : 0.0, Yaw : 359.99, Alt : 30.1299991608, Lat : 49.28357, Lng : -123.11502, Q1 : 1.0, Q2 : 0.0, Q3 : 0.0, Q4 : -1.72434181422e-06}
2019-04-14 02:42:33.81: SIM {TimeUS : 43635039, Roll : 0.0, Pitch : 0.0, Yaw : 359.99, Alt : 30.1499996185, Lat : 49.28357, Lng : -123.11502, Q1 : 1.0, Q2 : 0.0, Q3 : 0.0, Q4 : -1.91042227016e-06}
2019-04-14 02:42:33.91: SIM {TimeUS : 43734999, Roll : 0.0, Pitch : 0.0, Yaw : 359.99, Alt : 30.1900005341, Lat : 49.28357, Lng : -123.11502, Q1 : 1.0, Q2 : 0.0, Q3 : 0.0, Q4 : -2.12923055187e-06}
2019-04-14 02:42:34.01: SIM {TimeUS : 43834959, Roll : -0.03, Pitch : -0.02, Yaw : 359.99, Alt : 30.2299995422, Lat : 49.28357, Lng : -123.11502, Q1 : 0.999999940395, Q2 : -0.000316864607157, Q3 : -0.000255165679846, Q4 : -3.66894732906e-06}
2019-04-14 02:42:34.11: SIM {TimeUS : 43934919, Roll : -0.28, Pitch : -0.24, Yaw : 359.99, Alt : 30.3099994659, Lat : 49.28357, Lng : -123.11502, Q1 : 0.999994456768, Q2 : -0.00252986536361, Q3 : -0.00217340933159, Q4 : -2.47117077379e-05}
2019-04-14 02:42:34.21: SIM {TimeUS : 44034879, Roll : -0.59, Pitch : -0.53, Yaw : 359.99, Alt : 30.4400005341, Lat : 49.28357, Lng : -123.11502, Q1 : 0.999975919724, Q2 : -0.00516814459115, Q3 : -0.00463657267392, Q4 : -6.80224911775e-05}
2019-04-14 02:42:34.31: SIM {TimeUS : 44134839, Roll : -0.79, Pitch : -0.73, Yaw : 359.98, Alt : 30.5900001526, Lat : 49.28357, Lng : -123.11502, Q1 : 0.999955773354, Q2 : -0.00691413599998, Q3 : -0.00637866603211, Q4 : -0.000131768669235}
2019-04-14 02:42:34.41: SIM {TimeUS : 44234799, Roll : -0.84, Pitch : -0.78, Yaw : 359.98, Alt : 30.75, Lat : 49.28357, Lng : -123.11502, Q1 : 0.999949038029, Q2 : -0.00741826510057, Q3 : -0.00684317993, Q4 : -0.000215748295886}
2019-04-14 02:42:34.51: SIM {TimeUS : 44334759, Roll : -0.76, Pitch : -0.69, Yaw : 359.96, Alt : 30.9099998474, Lat : 49.28357, Lng : -123.1150201, Q1 : 0.999959051609, Q2 : -0.00668077589944, Q3 : -0.00609621033072, Q4 : -0.000313094205922}
2019-04-14 02:42:34.61: SIM {TimeUS : 44435552, Roll : -0.55, Pitch : -0.53, Yaw : 359.95, Alt : 31.0599994659, Lat : 49.2835701, Lng : -123.1150202, Q1 : 0.99997729063, Q2 : -0.00484133558348, Q3 : -0.00466410117224, Q4 : -0.000401357276132}
2019-04-14 02:42:34.71: SIM {TimeUS : 44535512, Roll : -0.3, Pitch : -0.32, Yaw : 359.94, Alt : 31.2199993134, Lat : 49.2835701, Lng : -123.1150202, Q1 : 0.999992191792, Q2 : -0.0026949881576, Q3 : -0.00285088736564, Q4 : -0.000475287146401}
2019-04-14 02:42:34.81: SIM {TimeUS : 44635472, Roll : -0.11, Pitch : -0.13, Yaw : 359.93, Alt : 31.3799991608, Lat : 49.2835702, Lng : -123.1150203, Q1 : 0.999998688698, Q2 : -0.00099017994944, Q3 : -0.00115253357217, Q4 : -0.000534699182026}
2019-04-14 02:42:34.91: SIM {TimeUS : 44735432, Roll : 0.01, Pitch : 0.0, Yaw : 359.93, Alt : 31.5599994659, Lat : 49.2835702, Lng : -123.1150204, Q1 : 0.999999821186, Q2 : 9.03644540813e-05, Q3 : -9.18693967833e-06, Q4 : -0.000576156424358}
2019-04-14 02:42:35.01: SIM {TimeUS : 44835392, Roll : 0.06, Pitch : 0.05, Yaw : 359.93, Alt : 31.7299995422, Lat : 49.2835703, Lng : -123.1150205, Q1 : 0.999999523163, Q2 : 0.000578086532187, Q3 : 0.000507282908075, Q4 : -0.000600209750701}
2019-04-14 02:42:35.11: SIM {TimeUS : 44935352, Roll : 0.07, Pitch : 0.06, Yaw : 359.92, Alt : 31.9099998474, Lat : 49.2835703, Lng : -123.1150206, Q1 : 0.999999463558, Q2 : 0.000653001246974, Q3 : 0.000547701783944, Q4 : -0.000618276419118}
2019-04-14 02:42:35.21: SIM {TimeUS : 45035312, Roll : 0.06, Pitch : 0.04, Yaw : 359.92, Alt : 32.0999984741, Lat : 49.2835703, Lng : -123.1150206, Q1 : 0.999999582767, Q2 : 0.00058705592528, Q3 : 0.000379094912205, Q4 : -0.000622762716375}
2019-04-14 02:42:35.31: SIM {TimeUS : 45135272, Roll : 0.07, Pitch : 0.02, Yaw : 359.92, Alt : 32.2900009155, Lat : 49.2835703, Lng : -123.1150207, Q1 : 0.999999582767, Q2 : 0.000611038238276, Q3 : 0.00022813117539, Q4 : -0.000613666255958}
2019-04-14 02:42:35.41: SIM {TimeUS : 45235232, Roll : 0.08, Pitch : 0.03, Yaw : 359.93, Alt : 32.4799995422, Lat : 49.2835703, Lng : -123.1150207, Q1 : 0.999999523163, Q2 : 0.000702535151504, Q3 : 0.000267654308118, Q4 : -0.000590583134908}
2019-04-14 02:42:35.51: SIM {TimeUS : 45335192, Roll : 0.08, Pitch : 0.05, Yaw : 359.93, Alt : 32.6800003052, Lat : 49.2835703, Lng : -123.1150208, Q1 : 0.999999463558, Q2 : 0.000783259107266, Q3 : 0.000449967919849, Q4 : -0.000568613468204}
2019-04-14 02:42:35.61: SIM {TimeUS : 45435152, Roll : 0.09, Pitch : 0.09, Yaw : 359.93, Alt : 32.8699989319, Lat : 49.2835704, Lng : -123.1150208, Q1 : 0.999999165535, Q2 : 0.000866777962074, Q3 : 0.000829801778309, Q4 : -0.000552505720407}
2019-04-14 02:42:35.71: SIM {TimeUS : 45535112, Roll : 0.12, Pitch : 0.14, Yaw : 359.93, Alt : 33.0699996948, Lat : 49.2835704, Lng : -123.1150208, Q1 : 0.999998390675, Q2 : 0.00110839982517, Q3 : 0.00128765613772, Q4 : -0.000533213664312}
2019-04-14 02:42:35.81: SIM {TimeUS : 45635072, Roll : 0.17, Pitch : 0.17, Yaw : 359.94, Alt : 33.2799987793, Lat : 49.2835704, Lng : -123.1150209, Q1 : 0.999997496605, Q2 : 0.00149988150224, Q3 : 0.00156699633226, Q4 : -0.0005177326384}
2019-04-14 02:42:35.91: SIM {TimeUS : 45735032, Roll : 0.19, Pitch : 0.19, Yaw : 359.94, Alt : 33.4799995422, Lat : 49.2835704, Lng : -123.1150209, Q1 : 0.999996960163, Q2 : 0.00170851766597, Q3 : 0.00169265829027, Q4 : -0.000506282842252}
2019-04-14 02:42:36.01: SIM {TimeUS : 45834992, Roll : 0.19, Pitch : 0.2, Yaw : 359.94, Alt : 33.6899986267, Lat : 49.2835704, Lng : -123.1150209, Q1 : 0.999996840954, Q2 : 0.00173316441942, Q3 : 0.00176834699232, Q4 : -0.000496359134559}
2019-04-14 02:42:36.11: SIM {TimeUS : 45934952, Roll : 0.19, Pitch : 0.17, Yaw : 359.94, Alt : 33.9000015259, Lat : 49.2835706, Lng : -123.1150209, Q1 : 0.999997198582, Q2 : 0.00169555749744, Q3 : 0.00156637327746, Q4 : -0.000501912203617}
2019-04-14 02:42:36.21: SIM {TimeUS : 46034912, Roll : 0.17, Pitch : 0.14, Yaw : 359.94, Alt : 34.1100006104, Lat : 49.2835706, Lng : -123.1150209, Q1 : 0.999997913837, Q2 : 0.00154706812464, Q3 : 0.00125294644386, Q4 : -0.000507203454617}
2019-04-14 02:42:36.31: SIM {TimeUS : 46134872, Roll : 0.14, Pitch : 0.11, Yaw : 359.94, Alt : 34.3199996948, Lat : 49.2835706, Lng : -123.1150209, Q1 : 0.999998569489, Q2 : 0.00124876736663, Q3 : 0.00101723172702, Q4 : -0.000518676650245}
2019-04-14 02:42:36.41: SIM {TimeUS : 46234832, Roll : 0.11, Pitch : 0.09, Yaw : 359.93, Alt : 34.5299987793, Lat : 49.2835706, Lng : -123.1150209, Q1 : 0.999999046326, Q2 : 0.000968455453403, Q3 : 0.000842956302222, Q4 : -0.00053978478536}
2019-04-14 02:42:36.51: SIM {TimeUS : 46334792, Roll : 0.09, Pitch : 0.08, Yaw : 359.93, Alt : 34.7400016785, Lat : 49.2835706, Lng : -123.1150209, Q1 : 0.999999165535, Q2 : 0.000840183987748, Q3 : 0.000782045884989, Q4 : -0.000570023083128}
2019-04-14 02:42:36.61: SIM {TimeUS : 46434752, Roll : 0.08, Pitch : 0.07, Yaw : 359.93, Alt : 34.9599990845, Lat : 49.2835706, Lng : -123.1150208, Q1 : 0.999999403954, Q2 : 0.000711803499144, Q3 : 0.000620746461209, Q4 : -0.000597480044235}
2019-04-14 02:42:36.71: SIM {TimeUS : 46535545, Roll : 0.06, Pitch : 0.06, Yaw : 359.92, Alt : 35.1800003052, Lat : 49.2835706, Lng : -123.1150208, Q1 : 0.999999523163, Q2 : 0.000537040061317, Q3 : 0.000532374077011, Q4 : -0.000628314504866}
2019-04-14 02:42:36.81: SIM {TimeUS : 46635505, Roll : 0.03, Pitch : 0.05, Yaw : 359.92, Alt : 35.3899993896, Lat : 49.2835706, Lng : -123.1150208, Q1 : 0.999999582767, Q2 : 0.000345176726114, Q3 : 0.00051864690613, Q4 : -0.00065843394259}
2019-04-14 02:42:36.91: SIM {TimeUS : 46735465, Roll : 0.02, Pitch : 0.06, Yaw : 359.92, Alt : 35.6100006104, Lat : 49.2835706, Lng : -123.1150208, Q1 : 0.999999582767, Q2 : 0.000183778291102, Q3 : 0.000565464317333, Q4 : -0.000687296094839}
2019-04-14 02:42:37.01: SIM {TimeUS : 46835425, Roll : 0.01, Pitch : 0.05, Yaw : 359.91, Alt : 35.8300018311, Lat : 49.2835706, Lng : -123.1150208, Q1 : 0.999999642372, Q2 : 0.000146827893332, Q3 : 0.00043638938223, Q4 : -0.000714339315891}
2019-04-14 02:42:37.11: SIM {TimeUS : 46935385, Roll : 0.01, Pitch : 0.04, Yaw : 359.91, Alt : 36.0499992371, Lat : 49.2835706, Lng : -123.1150208, Q1 : 0.999999642372, Q2 : 0.000147664075484, Q3 : 0.000349066685885, Q4 : -0.000745316501707}
2019-04-14 02:42:37.21: SIM {TimeUS : 47035345, Roll : 0.0, Pitch : 0.03, Yaw : 359.91, Alt : 36.2700004578, Lat : 49.2835704, Lng : -123.1150207, Q1 : 0.999999642372, Q2 : 6.3519422838e-05, Q3 : 0.000303316657664, Q4 : -0.000783624709584}
2019-04-14 02:42:37.31: SIM {TimeUS : 47135305, Roll : 0.0, Pitch : 0.04, Yaw : 359.9, Alt : 36.4900016785, Lat : 49.2835704, Lng : -123.1150207, Q1 : 0.999999582767, Q2 : 1.51367148646e-05, Q3 : 0.000355095427949, Q4 : -0.000820921035483}
2019-04-14 02:42:37.41: SIM {TimeUS : 47235265, Roll : 0.01, Pitch : 0.03, Yaw : 359.9, Alt : 36.7200012207, Lat : 49.2835704, Lng : -123.1150207, Q1 : 0.999999582767, Q2 : 0.000102523830719, Q3 : 0.000346038868884, Q4 : -0.000856982776895}
2019-04-14 02:42:37.51: SIM {TimeUS : 47335225, Roll : 0.0, Pitch : 0.02, Yaw : 359.89, Alt : 36.9399986267, Lat : 49.2835704, Lng : -123.1150207, Q1 : 0.999999582767, Q2 : 1.60696836247e-05, Q3 : 0.000223009192268, Q4 : -0.000891940377187}
2019-04-14 02:42:37.61: SIM {TimeUS : 47435185, Roll : -0.03, Pitch : -0.01, Yaw : 359.89, Alt : 37.1599998474, Lat : 49.2835704, Lng : -123.1150207, Q1 : 0.999999523163, Q2 : -0.000270427321084, Q3 : -8.74344550539e-05, Q4 : -0.000925479223952}
2019-04-14 02:42:37.71: SIM {TimeUS : 47535145, Roll : -0.07, Pitch : -0.04, Yaw : 359.89, Alt : 37.3899993896, Lat : 49.2835704, Lng : -123.1150207, Q1 : 0.99999922514, Q2 : -0.000659117242321, Q3 : -0.000415410002461, Q4 : -0.000954994815402}
2019-04-14 02:42:37.81: SIM {TimeUS : 47635105, Roll : -0.11, Pitch : -0.07, Yaw : 359.88, Alt : 37.6100006104, Lat : 49.2835704, Lng : -123.1150207, Q1 : 0.999998807907, Q2 : -0.000989688909613, Q3 : -0.000657093769405, Q4 : -0.000980412121862}
2019-04-14 02:42:37.91: SIM {TimeUS : 47735065, Roll : -0.13, Pitch : -0.09, Yaw : 359.88, Alt : 37.8400001526, Lat : 49.2835704, Lng : -123.1150206, Q1 : 0.999998450279, Q2 : -0.00121123017743, Q3 : -0.000815215869807, Q4 : -0.00100586470217}
2019-04-14 02:42:38.01: SIM {TimeUS : 47835025, Roll : -0.14, Pitch : -0.09, Yaw : 359.88, Alt : 38.0699996948, Lat : 49.2835704, Lng : -123.1150206, Q1 : 0.99999833107, Q2 : -0.00126673025079, Q3 : -0.000803289702162, Q4 : -0.00102395017166}
2019-04-14 02:42:38.11: SIM {TimeUS : 47934985, Roll : -0.12, Pitch : -0.06, Yaw : 359.88, Alt : 38.2900009155, Lat : 49.2835704, Lng : -123.1150206, Q1 : 0.999998688698, Q2 : -0.00109789986163, Q3 : -0.000565173162613, Q4 : -0.00103159679566}
2019-04-14 02:42:38.21: SIM {TimeUS : 48034945, Roll : -0.09, Pitch : -0.04, Yaw : 359.88, Alt : 38.5200004578, Lat : 49.2835704, Lng : -123.1150206, Q1 : 0.999999046326, Q2 : -0.000819053908344, Q3 : -0.000420074851718, Q4 : -0.00103794771712}
2019-04-14 02:42:38.31: SIM {TimeUS : 48134905, Roll : -0.07, Pitch : -0.04, Yaw : 359.87, Alt : 38.75, Lat : 49.2835704, Lng : -123.1150206, Q1 : 0.999999165535, Q2 : -0.000632427574601, Q3 : -0.000401066965424, Q4 : -0.00105464668013}
2019-04-14 02:42:38.41: SIM {TimeUS : 48234865, Roll : -0.06, Pitch : -0.02, Yaw : 359.87, Alt : 38.9799995422, Lat : 49.2835704, Lng : -123.1150206, Q1 : 0.999999284744, Q2 : -0.000524858711287, Q3 : -0.00024304582621, Q4 : -0.00106563523877}
2019-04-14 02:42:38.51: SIM {TimeUS : 48334825, Roll : -0.07, Pitch : 0.0, Yaw : 359.87, Alt : 39.2099990845, Lat : 49.2835704, Lng : -123.1150206, Q1 : 0.99999922514, Q2 : -0.00061789737083, Q3 : -4.47647398687e-05, Q4 : -0.00107458711136}
2019-04-14 02:42:38.61: SIM {TimeUS : 48434785, Roll : -0.06, Pitch : 0.01, Yaw : 359.87, Alt : 39.4399986267, Lat : 49.2835704, Lng : -123.1150206, Q1 : 0.99999922514, Q2 : -0.000606521032751, Q3 : 0.000113862195576, Q4 : -0.00107998203021}
2019-04-14 02:42:38.71: SIM {TimeUS : 48534745, Roll : -0.05, Pitch : 0.03, Yaw : 359.87, Alt : 39.6699981689, Lat : 49.2835704, Lng : -123.1150206, Q1 : 0.99999922514, Q2 : -0.000491765735205, Q3 : 0.000319861603202, Q4 : -0.00108703540172}
2019-04-14 02:42:38.81: SIM {TimeUS : 48635538, Roll : -0.03, Pitch : 0.03, Yaw : 359.87, Alt : 39.9000015259, Lat : 49.2835704, Lng : -123.1150207, Q1 : 0.999999344349, Q2 : -0.000328985479428, Q3 : 0.00030481434078, Q4 : -0.0010900386842}
2019-04-14 02:42:38.91: SIM {TimeUS : 48735498, Roll : -0.01, Pitch : 0.02, Yaw : 359.87, Alt : 40.1300010681, Lat : 49.2835704, Lng : -123.1150207, Q1 : 0.999999344349, Q2 : -9.25346539589e-05, Q3 : 0.000227420823649, Q4 : -0.00109616701957}
2019-04-14 02:42:39.01: SIM {TimeUS : 48835458, Roll : 0.02, Pitch : 0.04, Yaw : 359.87, Alt : 40.3699989319, Lat : 49.2835704, Lng : -123.1150207, Q1 : 0.999999284744, Q2 : 0.000189933125512, Q3 : 0.00036549512879, Q4 : -0.00109953864012}
2019-04-14 02:42:39.11: SIM {TimeUS : 48935418, Roll : 0.06, Pitch : 0.07, Yaw : 359.87, Alt : 40.5999984741, Lat : 49.2835704, Lng : -123.1150207, Q1 : 0.999998986721, Q2 : 0.000572766177356, Q3 : 0.000688296044245, Q4 : -0.00111023371574}
2019-04-14 02:42:39.21: SIM {TimeUS : 49035378, Roll : 0.09, Pitch : 0.11, Yaw : 359.87, Alt : 40.8300018311, Lat : 49.2835704, Lng : -123.1150207, Q1 : 0.999998509884, Q2 : 0.0008317300817, Q3 : 0.00102569011506, Q4 : -0.00113197416067}
2019-04-14 02:42:39.31: SIM {TimeUS : 49135338, Roll : 0.08, Pitch : 0.14, Yaw : 359.86, Alt : 41.0600013733, Lat : 49.2835704, Lng : -123.1150207, Q1 : 0.999998271465, Q2 : 0.000737087801099, Q3 : 0.00125491362996, Q4 : -0.00115466269199}
2019-04-14 02:42:39.41: SIM {TimeUS : 49235298, Roll : 0.03, Pitch : 0.15, Yaw : 359.86, Alt : 41.2999992371, Lat : 49.2835706, Lng : -123.1150207, Q1 : 0.99999833107, Q2 : 0.000306465168251, Q3 : 0.00137333711609, Q4 : -0.00118770066183}
2019-04-14 02:42:39.51: SIM {TimeUS : 49335258, Roll : -0.01, Pitch : 0.15, Yaw : 359.85, Alt : 41.5299987793, Lat : 49.2835706, Lng : -123.1150207, Q1 : 0.99999833107, Q2 : -0.00011631243251, Q3 : 0.00137289299164, Q4 : -0.0012228860287}
2019-04-14 02:42:39.61: SIM {TimeUS : 49435218, Roll : -0.02, Pitch : 0.12, Yaw : 359.85, Alt : 41.7599983215, Lat : 49.2835706, Lng : -123.1150207, Q1 : 0.999998629093, Q2 : -0.000259771506535, Q3 : 0.00106813677121, Q4 : -0.00125480780844}
2019-04-14 02:42:39.71: SIM {TimeUS : 49535178, Roll : -0.02, Pitch : 0.07, Yaw : 359.85, Alt : 42.0, Lat : 49.2835706, Lng : -123.1150207, Q1 : 0.999998927116, Q2 : -0.000258128711721, Q3 : 0.000674788607284, Q4 : -0.00128677650355}
2019-04-14 02:42:39.81: SIM {TimeUS : 49635138, Roll : -0.01, Pitch : 0.06, Yaw : 359.84, Alt : 42.2299995422, Lat : 49.2835706, Lng : -123.1150207, Q1 : 0.999998927116, Q2 : -0.000117334559036, Q3 : 0.000596529280301, Q4 : -0.00131865171716}
2019-04-14 02:42:39.91: SIM {TimeUS : 49735098, Roll : 0.02, Pitch : 0.08, Yaw : 359.84, Alt : 42.4599990845, Lat : 49.2835704, Lng : -123.1150207, Q1 : 0.999998807907, Q2 : 0.000193610190763, Q3 : 0.000749167462345, Q4 : -0.00135306315497}
2019-04-14 02:42:40.01: SIM {TimeUS : 49835058, Roll : 0.07, Pitch : 0.1, Yaw : 359.84, Alt : 42.7000007629, Lat : 49.2835704, Lng : -123.1150207, Q1 : 0.999998390675, Q2 : 0.00065126066329, Q3 : 0.000902827596292, Q4 : -0.00138538691681}
2019-04-14 02:42:40.11: SIM {TimeUS : 49935018, Roll : 0.11, Pitch : 0.1, Yaw : 359.83, Alt : 42.9300003052, Lat : 49.2835704, Lng : -123.1150207, Q1 : 0.999998092651, Q2 : 0.00101165508386, Q3 : 0.000890297524165, Q4 : -0.00142355111893}
2019-04-14 02:42:40.21: SIM {TimeUS : 50034978, Roll : 0.11, Pitch : 0.08, Yaw : 359.83, Alt : 43.1699981689, Lat : 49.2835704, Lng : -123.1150207, Q1 : 0.999998092651, Q2 : 0.00103895447683, Q3 : 0.000780641741585, Q4 : -0.00145615451038}
2019-04-14 02:42:40.31: SIM {TimeUS : 50134938, Roll : 0.07, Pitch : 0.08, Yaw : 359.83, Alt : 43.4000015259, Lat : 49.2835704, Lng : -123.1150207, Q1 : 0.999998450279, Q2 : 0.000689575390425, Q3 : 0.000716905924492, Q4 : -0.00146745878737}
2019-04-14 02:42:40.41: SIM {TimeUS : 50234898, Roll : 0.01, Pitch : 0.07, Yaw : 359.83, Alt : 43.6399993896, Lat : 49.2835704, Lng : -123.1150207, Q1 : 0.999998629093, Q2 : 0.000168331403984, Q3 : 0.000695366761647, Q4 : -0.00147150212433}
2019-04-14 02:42:40.51: SIM {TimeUS : 50334858, Roll : -0.02, Pitch : 0.08, Yaw : 359.83, Alt : 43.8699989319, Lat : 49.2835704, Lng : -123.1150207, Q1 : 0.999998629093, Q2 : -0.000194958265638, Q3 : 0.000723348930478, Q4 : -0.0014835128095}
2019-04-14 02:42:40.61: SIM {TimeUS : 50434818, Roll : -0.04, Pitch : 0.07, Yaw : 359.82, Alt : 44.1100006104, Lat : 49.2835704, Lng : -123.1150207, Q1 : 0.999998629093, Q2 : -0.000369318004232, Q3 : 0.000634699186776, Q4 : -0.00149927882012}
2019-04-14 02:42:40.71: SIM {TimeUS : 50534778, Roll : -0.03, Pitch : 0.04, Yaw : 359.82, Alt : 44.3499984741, Lat : 49.2835704, Lng : -123.1150207, Q1 : 0.999998688698, Q2 : -0.000337966543157, Q3 : 0.000387749401852, Q4 : -0.00152057979722}
2019-04-14 02:42:40.81: SIM {TimeUS : 50634738, Roll : -0.04, Pitch : 0.01, Yaw : 359.82, Alt : 44.5800018311, Lat : 49.2835704, Lng : -123.1150206, Q1 : 0.999998748302, Q2 : -0.000387050735299, Q3 : 0.000101709985756, Q4 : -0.00155164592434}
2019-04-14 02:42:40.91: SIM {TimeUS : 50735531, Roll : -0.04, Pitch : -0.01, Yaw : 359.81, Alt : 44.8199996948, Lat : 49.2835704, Lng : -123.1150206, Q1 : 0.999998688698, Q2 : -0.000365854531992, Q3 : -9.52814079938e-05, Q4 : -0.00158701650798}
2019-04-14 02:42:41.01: SIM {TimeUS : 50835491, Roll : -0.03, Pitch : -0.02, Yaw : 359.81, Alt : 45.0600013733, Lat : 49.2835704, Lng : -123.1150206, Q1 : 0.999998629093, Q2 : -0.000272631848929, Q3 : -0.000199828122277, Q4 : -0.00162106601056}
2019-04-14 02:42:41.11: SIM {TimeUS : 50935451, Roll : -0.02, Pitch : -0.01, Yaw : 359.81, Alt : 45.2900009155, Lat : 49.2835704, Lng : -123.1150206, Q1 : 0.999998629093, Q2 : -0.000203098592465, Q3 : -0.000125627877424, Q4 : -0.00165359210223}
2019-04-14 02:42:41.21: SIM {TimeUS : 51035411, Roll : -0.02, Pitch : 0.0, Yaw : 359.8, Alt : 45.5299987793, Lat : 49.2835704, Lng : -123.1150206, Q1 : 0.999998569489, Q2 : -0.000213845210965, Q3 : -7.04159901943e-05, Q4 : -0.00168493995443}
2019-04-14 02:42:41.31: SIM {TimeUS : 51135371, Roll : -0.02, Pitch : -0.01, Yaw : 359.8, Alt : 45.7599983215, Lat : 49.2835703, Lng : -123.1150206, Q1 : 0.999998509884, Q2 : -0.000254272919847, Q3 : -0.000169450300746, Q4 : -0.00171633483842}
2019-04-14 02:42:41.41: SIM {TimeUS : 51235331, Roll : -0.02, Pitch : -0.02, Yaw : 359.79, Alt : 45.9900016785, Lat : 49.2835703, Lng : -123.1150206, Q1 : 0.999998390675, Q2 : -0.000257798761595, Q3 : -0.000210844809772, Q4 : -0.00174866337329}
2019-04-14 02:42:41.51: SIM {TimeUS : 51335291, Roll : -0.02, Pitch : -0.02, Yaw : 359.79, Alt : 46.2200012207, Lat : 49.2835703, Lng : -123.1150206, Q1 : 0.99999833107, Q2 : -0.000248529133387, Q3 : -0.000246124400292, Q4 : -0.00177639781032}
2019-04-14 02:42:41.61: SIM {TimeUS : 51435251, Roll : -0.03, Pitch : -0.02, Yaw : 359.79, Alt : 46.4500007629, Lat : 49.2835703, Lng : -123.1150206, Q1 : 0.999998271465, Q2 : -0.000315946090268, Q3 : -0.000228496792261, Q4 : -0.00180502899457}
2019-04-14 02:42:41.71: SIM {TimeUS : 51535211, Roll : -0.05, Pitch : -0.01, Yaw : 359.79, Alt : 46.6699981689, Lat : 49.2835703, Lng : -123.1150206, Q1 : 0.999998211861, Q2 : -0.000502267677803, Q3 : -0.000161515825312, Q4 : -0.00183225632645}
2019-04-14 02:42:41.81: SIM {TimeUS : 51635171, Roll : -0.08, Pitch : -0.01, Yaw : 359.78, Alt : 46.8800010681, Lat : 49.2835703, Lng : -123.1150206, Q1 : 0.999997973442, Q2 : -0.000759888556786, Q3 : -0.000108254127554, Q4 : -0.00185507419519}
2019-04-14 02:42:41.91: SIM {TimeUS : 51735131, Roll : -0.1, Pitch : -0.01, Yaw : 359.78, Alt : 47.0900001526, Lat : 49.2835703, Lng : -123.1150206, Q1 : 0.999997794628, Q2 : -0.000926195818465, Q3 : -8.66982809384e-05, Q4 : -0.00187564606313}
2019-04-14 02:42:42.01: SIM {TimeUS : 51835091, Roll : -0.1, Pitch : 0.0, Yaw : 359.78, Alt : 47.2900009155, Lat : 49.2835703, Lng : -123.1150206, Q1 : 0.999997735023, Q2 : -0.000953321170527, Q3 : 1.18454599942e-05, Q4 : -0.00189624610357}
2019-04-14 02:42:42.11: SIM {TimeUS : 51935051, Roll : -0.09, Pitch : 0.02, Yaw : 359.78, Alt : 47.4799995422, Lat : 49.2835703, Lng : -123.1150206, Q1 : 0.999997794628, Q2 : -0.000829715863802, Q3 : 0.000196709210286, Q4 : -0.00191729504149}
2019-04-14 02:42:42.21: SIM {TimeUS : 52035011, Roll : -0.08, Pitch : 0.02, Yaw : 359.77, Alt : 47.6599998474, Lat : 49.2835703, Lng : -123.1150206, Q1 : 0.999997794628, Q2 : -0.000752100779209, Q3 : 0.000253346952377, Q4 : -0.00193981954362}
2019-04-14 02:42:42.31: SIM {TimeUS : 52134971, Roll : -0.09, Pitch : 0.02, Yaw : 359.77, Alt : 47.8400001526, Lat : 49.2835703, Lng : -123.1150206, Q1 : 0.999997675419, Q2 : -0.000859573774505, Q3 : 0.000185870056157, Q4 : -0.00196243426763}
2019-04-14 02:42:42.41: SIM {TimeUS : 52234931, Roll : -0.1, Pitch : 0.0, Yaw : 359.77, Alt : 48.0, Lat : 49.2835703, Lng : -123.1150206, Q1 : 0.999997615814, Q2 : -0.000905808468815, Q3 : 2.88316550723e-05, Q4 : -0.0019845594652}
2019-04-14 02:42:42.51: SIM {TimeUS : 52334891, Roll : -0.09, Pitch : -0.02, Yaw : 359.76, Alt : 48.1399993896, Lat : 49.2835703, Lng : -123.1150206, Q1 : 0.999997615814, Q2 : -0.000793643877842, Q3 : -0.000243557879003, Q4 : -0.00200971821323}
2019-04-14 02:42:42.61: SIM {TimeUS : 52434851, Roll : -0.05, Pitch : -0.05, Yaw : 359.76, Alt : 48.2799987793, Lat : 49.2835703, Lng : -123.1150206, Q1 : 0.999997675419, Q2 : -0.00051795336185, Q3 : -0.000490124570206, Q4 : -0.00203733891249}
2019-04-14 02:42:42.71: SIM {TimeUS : 52534811, Roll : -0.03, Pitch : -0.07, Yaw : 359.76, Alt : 48.4099998474, Lat : 49.2835703, Lng : -123.1150206, Q1 : 0.999997615814, Q2 : -0.000304878980387, Q3 : -0.000667569343932, Q4 : -0.00206482200883}
2019-04-14 02:42:42.81: SIM {TimeUS : 52634771, Roll : -0.02, Pitch : -0.08, Yaw : 359.76, Alt : 48.5200004578, Lat : 49.2835703, Lng : -123.1150206, Q1 : 0.999997496605, Q2 : -0.000215008374653, Q3 : -0.000775784312282, Q4 : -0.00208842963912}
2019-04-14 02:42:42.91: SIM {TimeUS : 52735564, Roll : 0.0, Pitch : -0.08, Yaw : 359.75, Alt : 48.6199989319, Lat : 49.2835703, Lng : -123.1150206, Q1 : 0.999997496605, Q2 : 5.24973947904e-05, Q3 : -0.000735695823096, Q4 : -0.00211504567415}
2019-04-14 02:42:43.01: SIM {TimeUS : 52835524, Roll : 0.03, Pitch : -0.06, Yaw : 359.75, Alt : 48.7099990845, Lat : 49.2835703, Lng : -123.1150206, Q1 : 0.999997437, Q2 : 0.000338565296261, Q3 : -0.000588654947933, Q4 : -0.00214443495497}
2019-04-14 02:42:43.11: SIM {TimeUS : 52935484, Roll : 0.05, Pitch : -0.04, Yaw : 359.75, Alt : 48.7799987793, Lat : 49.2835703, Lng : -123.1150206, Q1 : 0.999997437, Q2 : 0.000521467824001, Q3 : -0.000381702819141, Q4 : -0.0021768505685}
2019-04-14 02:42:43.21: SIM {TimeUS : 53035444, Roll : 0.06, Pitch : -0.02, Yaw : 359.74, Alt : 48.8499984741, Lat : 49.2835703, Lng : -123.1150206, Q1 : 0.999997377396, Q2 : 0.000571168027818, Q3 : -0.000181316572707, Q4 : -0.00221345876344}
2019-04-14 02:42:43.31: SIM {TimeUS : 53135404, Roll : 0.07, Pitch : -0.01, Yaw : 359.74, Alt : 48.9099998474, Lat : 49.2835703, Lng : -123.1150206, Q1 : 0.999997258186, Q2 : 0.000612321600784, Q3 : -0.000102351732494, Q4 : -0.0022541063372}
2019-04-14 02:42:43.41: SIM {TimeUS : 53235364, Roll : 0.06, Pitch : -0.02, Yaw : 359.73, Alt : 48.9599990845, Lat : 49.2835703, Lng : -123.1150206, Q1 : 0.999997198582, Q2 : 0.000529174751136, Q3 : -0.000236016247072, Q4 : -0.00229066424072}
2019-04-14 02:42:43.51: SIM {TimeUS : 53335324, Roll : 0.06, Pitch : -0.05, Yaw : 359.73, Alt : 49.0, Lat : 49.2835703, Lng : -123.1150207, Q1 : 0.999997079372, Q2 : 0.000524080649484, Q3 : -0.000509711913764, Q4 : -0.00231948681176}
2019-04-14 02:42:43.61: SIM {TimeUS : 53435284, Roll : 0.19, Pitch : -0.16, Yaw : 359.73, Alt : 49.0299987793, Lat : 49.2835703, Lng : -123.1150207, Q1 : 0.999994814396, Q2 : 0.00172498240136, Q3 : -0.00141910254024, Q4 : -0.00233903131448}
2019-04-14 02:42:43.71: SIM {TimeUS : 53535244, Roll : 0.55, Pitch : -0.4, Yaw : 359.72, Alt : 49.0699996948, Lat : 49.2835703, Lng : -123.1150207, Q1 : 0.999979257584, Q2 : 0.00481044128537, Q3 : -0.00356689235196, Q4 : -0.00235460908152}
2019-04-14 02:42:43.81: SIM {TimeUS : 53635204, Roll : 1.13, Pitch : -0.79, Yaw : 359.72, Alt : 49.0900001526, Lat : 49.2835704, Lng : -123.1150206, Q1 : 0.999924659729, Q2 : 0.00984758790582, Q3 : -0.00693933898583, Q4 : -0.00235490081832}
2019-04-14 02:42:43.91: SIM {TimeUS : 53735164, Roll : 1.91, Pitch : -1.29, Yaw : 359.71, Alt : 49.1100006104, Lat : 49.2835704, Lng : -123.1150206, Q1 : 0.999794840813, Q2 : 0.0166453775018, Q3 : -0.0113028148189, Q4 : -0.00233279308304}
2019-04-14 02:42:44.01: SIM {TimeUS : 53835124, Roll : 2.79, Pitch : -1.86, Yaw : 359.69, Alt : 49.1300010681, Lat : 49.2835704, Lng : -123.1150205, Q1 : 0.999566376209, Q2 : 0.0243727825582, Q3 : -0.0163680892438, Q4 : -0.00227529276162}
2019-04-14 02:42:44.11: SIM {TimeUS : 53935084, Roll : 3.63, Pitch : -2.45, Yaw : 359.67, Alt : 49.1500015259, Lat : 49.2835706, Lng : -123.1150204, Q1 : 0.99926584959, Q2 : 0.0316385813057, Q3 : -0.0214953031391, Q4 : -0.00216689845547}
2019-04-14 02:42:44.21: SIM {TimeUS : 54035044, Roll : 4.29, Pitch : -2.93, Yaw : 359.66, Alt : 49.1699981689, Lat : 49.2835707, Lng : -123.1150202, Q1 : 0.998967051506, Q2 : 0.0374004915357, Q3 : -0.0257314052433, Q4 : -0.00199702964164}
2019-04-14 02:42:44.31: SIM {TimeUS : 54135004, Roll : 4.76, Pitch : -3.31, Yaw : 359.65, Alt : 49.1800003052, Lat : 49.2835708, Lng : -123.11502, Q1 : 0.998717486858, Q2 : 0.0414584539831, Q3 : -0.0290083959699, Q4 : -0.00177796452772}
2019-04-14 02:42:44.41: SIM {TimeUS : 54234964, Roll : 5.1, Pitch : -3.59, Yaw : 359.66, Alt : 49.1899986267, Lat : 49.2835709, Lng : -123.1150196, Q1 : 0.99851834774, Q2 : 0.0443824082613, Q3 : -0.0314490608871, Q4 : -0.00152543152217}
2019-04-14 02:42:44.51: SIM {TimeUS : 54334924, Roll : 5.37, Pitch : -3.8, Yaw : 359.67, Alt : 49.2000007629, Lat : 49.2835712, Lng : -123.1150191, Q1 : 0.9983497262, Q2 : 0.0467976741493, Q3 : -0.0332601629198, Q4 : -0.00125511595979}
2019-04-14 02:42:44.61: SIM {TimeUS : 54434884, Roll : 5.66, Pitch : -4.0, Yaw : 359.68, Alt : 49.2099990845, Lat : 49.2835715, Lng : -123.1150186, Q1 : 0.998167455196, Q2 : 0.0493315048516, Q3 : -0.0350324325264, Q4 : -0.000978390802629}
2019-04-14 02:42:44.71: SIM {TimeUS : 54534844, Roll : 5.99, Pitch : -4.21, Yaw : 359.69, Alt : 49.2200012207, Lat : 49.2835718, Lng : -123.1150179, Q1 : 0.997955679893, Q2 : 0.0521763078868, Q3 : -0.0368996374309, Q4 : -0.000712560780812}
2019-04-14 02:42:44.81: SIM {TimeUS : 54634804, Roll : 6.31, Pitch : -4.42, Yaw : 359.7, Alt : 49.2200012207, Lat : 49.2835721, Lng : -123.1150172, Q1 : 0.997741281986, Q2 : 0.0549026653171, Q3 : -0.0387024730444, Q4 : -0.000459175731521}
2019-04-14 02:42:44.91: SIM {TimeUS : 54734764, Roll : 6.55, Pitch : -4.61, Yaw : 359.7, Alt : 49.2299995422, Lat : 49.2835725, Lng : -123.1150163, Q1 : 0.997555971146, Q2 : 0.0570508278906, Q3 : -0.0403390228748, Q4 : -0.000236356179812}
2019-04-14 02:42:45.01: SIM {TimeUS : 54835557, Roll : 6.74, Pitch : -4.76, Yaw : 359.71, Alt : 49.2400016785, Lat : 49.2835729, Lng : -123.1150154, Q1 : 0.997409760952, Q2 : 0.0586761049926, Q3 : -0.0416036769748, Q4 : -3.40061524184e-05}
2019-04-14 02:42:45.11: SIM {TimeUS : 54935517, Roll : 6.88, Pitch : -4.85, Yaw : 359.72, Alt : 49.2400016785, Lat : 49.2835733, Lng : -123.1150143, Q1 : 0.997300982475, Q2 : 0.0599043592811, Q3 : -0.042453289032, Q4 : 0.000135188369313}
2019-04-14 02:42:45.21: SIM {TimeUS : 55035477, Roll : 6.98, Pitch : -4.91, Yaw : 359.72, Alt : 49.2400016785, Lat : 49.2835739, Lng : -123.1150132, Q1 : 0.997230052948, Q2 : 0.0607468448579, Q3 : -0.0429191701114, Q4 : 0.000257829757174}
2019-04-14 02:42:45.31: SIM {TimeUS : 55135437, Roll : 7.08, Pitch : -4.96, Yaw : 359.72, Alt : 49.25, Lat : 49.2835745, Lng : -123.115012, Q1 : 0.997153401375, Q2 : 0.0616536475718, Q3 : -0.043402839452, Q4 : 0.000327853340423}
2019-04-14 02:42:45.41: SIM {TimeUS : 55235397, Roll : 7.3, Pitch : -4.96, Yaw : 359.79, Alt : 49.25, Lat : 49.2835751, Lng : -123.1150106, Q1 : 0.997032642365, Q2 : 0.0636005401611, Q3 : -0.0433593541384, Q4 : 0.000959645141847}
2019-04-14 02:42:45.51: SIM {TimeUS : 55335357, Roll : 7.77, Pitch : -4.8, Yaw : 0.35, Alt : 49.2599983215, Lat : 49.2835758, Lng : -123.1150093, Q1 : 0.996809303761, Q2 : 0.067866653204, Q3 : -0.0415947437286, Q4 : 0.00594463292509}
2019-04-14 02:42:45.61: SIM {TimeUS : 55435317, Roll : 8.39, Pitch : -4.64, Yaw : 2.1, Alt : 49.2599983215, Lat : 49.2835764, Lng : -123.1150078, Q1 : 0.996277689934, Q2 : 0.0738718360662, Q3 : -0.0390264652669, Q4 : 0.0212282668799}
2019-04-14 02:42:45.71: SIM {TimeUS : 55535277, Roll : 8.89, Pitch : -4.84, Yaw : 5.4, Alt : 49.2599983215, Lat : 49.283577, Lng : -123.1150062, Q1 : 0.994834125042, Q2 : 0.0793763399124, Q3 : -0.0384238138795, Q4 : 0.0502802878618}
2019-04-14 02:42:45.81: SIM {TimeUS : 55635237, Roll : 9.04, Pitch : -5.56, Yaw : 10.24, Alt : 49.2599983215, Lat : 49.2835777, Lng : -123.1150045, Q1 : 0.991388261318, Q2 : 0.0827875509858, Q3 : -0.0411421060562, Q4 : 0.0927515178919}
2019-04-14 02:42:45.91: SIM {TimeUS : 55735197, Roll : 8.69, Pitch : -6.76, Yaw : 16.4, Alt : 49.2599983215, Lat : 49.2835785, Lng : -123.1150026, Q1 : 0.984562933445, Q2 : 0.0832790434361, Q3 : -0.0474389120936, Q4 : 0.14645807445}
2019-04-14 02:42:46.01: SIM {TimeUS : 55835157, Roll : 7.73, Pitch : -8.27, Yaw : 23.63, Alt : 49.2599983215, Lat : 49.2835793, Lng : -123.1150007, Q1 : 0.973037719727, Q2 : 0.0805841162801, Q3 : -0.0567285120487, Q4 : 0.208532303572}
2019-04-14 02:42:46.11: SIM {TimeUS : 55935117, Roll : 6.16, Pitch : -9.87, Yaw : 31.66, Alt : 49.2700004578, Lat : 49.28358, Lng : -123.1149986, Q1 : 0.955836594105, Q2 : 0.0749626979232, Q3 : -0.0680565237999, Q4 : 0.275908231735}
2019-04-14 02:42:46.21: SIM {TimeUS : 56035077, Roll : 4.05, Pitch : -11.31, Yaw : 40.25, Alt : 49.2700004578, Lat : 49.2835807, Lng : -123.1149964, Q1 : 0.932560563087, Q2 : 0.0669236704707, Q3 : -0.0803704634309, Q4 : 0.345532298088}
2019-04-14 02:42:46.31: SIM {TimeUS : 56135037, Roll : 1.3, Pitch : -12.41, Yaw : 48.98, Alt : 49.2700004578, Lat : 49.2835816, Lng : -123.1149942, Q1 : 0.904106140137, Q2 : 0.0551327206194, Q3 : -0.093681961298, Q4 : 0.413250744343}
2019-04-14 02:42:46.41: SIM {TimeUS : 56234997, Roll : -1.87, Pitch : -13.0, Yaw : 57.03, Alt : 49.2700004578, Lat : 49.2835824, Lng : -123.1149918, Q1 : 0.873785614967, Q2 : 0.0397703126073, Q3 : -0.107233732939, Q4 : 0.472671031952}
2019-04-14 02:42:46.51: SIM {TimeUS : 56334957, Roll : -4.88, Pitch : -13.08, Yaw : 63.55, Alt : 49.2700004578, Lat : 49.2835835, Lng : -123.1149893, Q1 : 0.846346080303, Q2 : 0.023994307965, Q3 : -0.11906452477, Q4 : 0.518600285053}
2019-04-14 02:42:46.61: SIM {TimeUS : 56434917, Roll : -7.1, Pitch : -12.86, Yaw : 68.04, Alt : 49.2700004578, Lat : 49.2835844, Lng : -123.1149868, Q1 : 0.825906097889, Q2 : 0.0115336598828, Q3 : -0.127156808972, Q4 : 0.549160480499}
2019-04-14 02:42:46.71: SIM {TimeUS : 56534877, Roll : -8.24, Pitch : -12.63, Yaw : 70.45, Alt : 49.2700004578, Lat : 49.2835856, Lng : -123.1149843, Q1 : 0.814346194267, Q2 : 0.0049277767539, Q3 : -0.130885869265, Q4 : 0.565406799316}
2019-04-14 02:42:46.81: SIM {TimeUS : 56634837, Roll : -8.33, Pitch : -12.58, Yaw : 71.05, Alt : 49.2700004578, Lat : 49.2835868, Lng : -123.1149816, Q1 : 0.811403274536, Q2 : 0.00472250487655, Q3 : -0.130922392011, Q4 : 0.569615483284}
2019-04-14 02:42:46.91: SIM {TimeUS : 56734797, Roll : -7.55, Pitch : -12.8, Yaw : 70.2, Alt : 49.2700004578, Lat : 49.2835883, Lng : -123.114979, Q1 : 0.815503060818, Q2 : 0.0104128941894, Q3 : -0.128669261932, Q4 : 0.564172446728}
2019-04-14 02:42:47.01: SIM {TimeUS : 56834757, Roll : -6.16, Pitch : -13.29, Yaw : 68.24, Alt : 49.2700004578, Lat : 49.2835897, Lng : -123.1149763, Q1 : 0.824553966522, Q2 : 0.0206779874861, Q3 : -0.125666067004, Q4 : 0.551263272762}
2019-04-14 02:42:47.11: SIM {TimeUS : 56935550, Roll : -4.39, Pitch : -13.97, Yaw : 65.51, Alt : 49.2799987793, Lat : 49.2835913, Lng : -123.1149735, Q1 : 0.836629450321, Q2 : 0.0337732993066, Q3 : -0.122807867825, Q4 : 0.53275591135}
2019-04-14 02:42:47.21: SIM {TimeUS : 57035510, Roll : -2.48, Pitch : -14.66, Yaw : 62.36, Alt : 49.2799987793, Lat : 49.2835928, Lng : -123.1149706, Q1 : 0.849770247936, Q2 : 0.0477021597326, Q3 : -0.120298981667, Q4 : 0.511021673679}
2019-04-14 02:42:47.31: SIM {TimeUS : 57135470, Roll : -0.6, Pitch : -15.25, Yaw : 59.08, Alt : 49.2799987793, Lat : 49.2835945, Lng : -123.1149677, Q1 : 0.862624049187, Q2 : 0.0609308369458, Q3 : -0.11806871742, Q4 : 0.488085001707}
2019-04-14 02:42:47.41: SIM {TimeUS : 57235430, Roll : 1.06, Pitch : -15.65, Yaw : 56.01, Alt : 49.2799987793, Lat : 49.2835962, Lng : -123.1149646, Q1 : 0.874020457268, Q2 : 0.072109028697, Q3 : -0.115919522941, Q4 : 0.466316640377}
2019-04-14 02:42:47.51: SIM {TimeUS : 57335390, Roll : 2.38, Pitch : -15.83, Yaw : 53.46, Alt : 49.2799987793, Lat : 49.2835977, Lng : -123.1149614, Q1 : 0.883137285709, Q2 : 0.0803832933307, Q3 : -0.113724522293, Q4 : 0.447966396809}
2019-04-14 02:42:47.61: SIM {TimeUS : 57435350, Roll : 3.25, Pitch : -15.86, Yaw : 51.61, Alt : 49.2799987793, Lat : 49.2835995, Lng : -123.1149581, Q1 : 0.889569997787, Q2 : 0.0853614509106, Q3 : -0.111906953156, Q4 : 0.434575051069}
2019-04-14 02:42:47.71: SIM {TimeUS : 57535310, Roll : 3.63, Pitch : -15.8, Yaw : 50.57, Alt : 49.2799987793, Lat : 49.2836012, Lng : -123.1149546, Q1 : 0.893253684044, Q2 : 0.0871549546719, Q3 : -0.110838785768, Q4 : 0.426868468523}
2019-04-14 02:42:47.81: SIM {TimeUS : 57635270, Roll : 3.57, Pitch : -15.76, Yaw : 50.31, Alt : 49.2799987793, Lat : 49.2836028, Lng : -123.114951, Q1 : 0.894349753857, Q2 : 0.0862036570907, Q3 : -0.11094392091, Q4 : 0.424733966589}
2019-04-14 02:42:47.91: SIM {TimeUS : 57735230, Roll : 3.13, Pitch : -15.77, Yaw : 50.71, Alt : 49.2799987793, Lat : 49.2836044, Lng : -123.1149473, Q1 : 0.893177211285, Q2 : 0.0831791609526, Q3 : -0.112335987389, Q4 : 0.427429914474}
2019-04-14 02:42:48.01: SIM {TimeUS : 57835190, Roll : 2.43, Pitch : -15.84, Yaw : 51.62, Alt : 49.2900009155, Lat : 49.2836062, Lng : -123.1149435, Q1 : 0.890161275864, Q2 : 0.078973159194, Q3 : -0.11489302665, Q4 : 0.433792322874}
2019-04-14 02:42:48.11: SIM {TimeUS : 57935150, Roll : 1.6, Pitch : -15.99, Yaw : 52.85, Alt : 49.2900009155, Lat : 49.2836079, Lng : -123.1149397, Q1 : 0.885843515396, Q2 : 0.0743138864636, Q3 : -0.118401587009, Q4 : 0.442424923182}
2019-04-14 02:42:48.21: SIM {TimeUS : 58035110, Roll : 0.73, Pitch : -16.16, Yaw : 54.21, Alt : 49.2900009155, Lat : 49.2836096, Lng : -123.1149357, Q1 : 0.880869686604, Q2 : 0.0697197318077, Q3 : -0.122251749039, Q4 : 0.451953858137}
2019-04-14 02:42:48.31: SIM {TimeUS : 58135070, Roll : -0.08, Pitch : -16.32, Yaw : 55.54, Alt : 49.2900009155, Lat : 49.2836114, Lng : -123.1149317, Q1 : 0.875887453556, Q2 : 0.0655118599534, Q3 : -0.125935211778, Q4 : 0.461161255836}
2019-04-14 02:42:48.41: SIM {TimeUS : 58235030, Roll : -0.76, Pitch : -16.41, Yaw : 56.69, Alt : 49.2900009155, Lat : 49.2836132, Lng : -123.1149276, Q1 : 0.871488273144, Q2 : 0.0620122887194, Q3 : -0.128772169352, Q4 : 0.469127357006}
2019-04-14 02:42:48.51: SIM {TimeUS : 58334990, Roll : -1.22, Pitch : -16.45, Yaw : 57.57, Alt : 49.2900009155, Lat : 49.283615, Lng : -123.1149235, Q1 : 0.868077874184, Q2 : 0.0596388727427, Q3 : -0.130527794361, Q4 : 0.47523316741}
2019-04-14 02:42:48.61: SIM {TimeUS : 58434950, Roll : -1.48, Pitch : -16.46, Yaw : 58.12, Alt : 49.2900009155, Lat : 49.2836168, Lng : -123.1149193, Q1 : 0.865896701813, Q2 : 0.0583546422422, Q3 : -0.131412953138, Q4 : 0.479111939669}
2019-04-14 02:42:48.71: SIM {TimeUS : 58534910, Roll : -1.52, Pitch : -16.48, Yaw : 58.35, Alt : 49.2900009155, Lat : 49.2836187, Lng : -123.1149151, Q1 : 0.864960134029, Q2 : 0.0583764649928, Q3 : -0.131571754813, Q4 : 0.480754613876}
2019-04-14 02:42:48.81: SIM {TimeUS : 58634870, Roll : -1.36, Pitch : -16.48, Yaw : 58.28, Alt : 49.2900009155, Lat : 49.2836206, Lng : -123.1149108, Q1 : 0.865176141262, Q2 : 0.0595033019781, Q3 : -0.130947515368, Q4 : 0.480398178101}
2019-04-14 02:42:48.91: SIM {TimeUS : 58734830, Roll : -1.08, Pitch : -16.48, Yaw : 57.97, Alt : 49.2900009155, Lat : 49.2836226, Lng : -123.1149065, Q1 : 0.866321623325, Q2 : 0.0612598210573, Q3 : -0.129958242178, Q4 : 0.478377431631}
2019-04-14 02:42:49.01: SIM {TimeUS : 58834790, Roll : -0.75, Pitch : -16.52, Yaw : 57.49, Alt : 49.2900009155, Lat : 49.2836245, Lng : -123.1149021, Q1 : 0.868073046207, Q2 : 0.0633695051074, Q3 : -0.129100710154, Q4 : 0.475149035454}
2019-04-14 02:42:49.11: SIM {TimeUS : 58934750, Roll : -0.41, Pitch : -16.58, Yaw : 56.94, Alt : 49.2900009155, Lat : 49.2836266, Lng : -123.1148977, Q1 : 0.870117783546, Q2 : 0.0656243264675, Q3 : -0.128461018205, Q4 : 0.471260309219}
2019-04-14 02:42:49.21: SIM {TimeUS : 59035543, Roll : -0.07, Pitch : -16.66, Yaw : 56.36, Alt : 49.2900009155, Lat : 49.2836286, Lng : -123.1148932, Q1 : 0.872188806534, Q2 : 0.0678595677018, Q3 : -0.128058969975, Q4 : 0.467207342386}
2019-04-14 02:42:49.31: SIM {TimeUS : 59135503, Roll : 0.2, Pitch : -16.72, Yaw : 55.84, Alt : 49.2900009155, Lat : 49.2836305, Lng : -123.1148887, Q1 : 0.87405872345, Q2 : 0.0696990713477, Q3 : -0.127643570304, Q4 : 0.463541328907}
2019-04-14 02:42:49.41: SIM {TimeUS : 59235463, Roll : 0.43, Pitch : -16.77, Yaw : 55.42, Alt : 49.2900009155, Lat : 49.2836327, Lng : -123.1148842, Q1 : 0.875563919544, Q2 : 0.0711258426309, Q3 : -0.127359315753, Q4 : 0.460552453995}
2019-04-14 02:42:49.51: SIM {TimeUS : 59335423, Roll : 0.58, Pitch : -16.8, Yaw : 55.12, Alt : 49.2900009155, Lat : 49.2836347, Lng : -123.1148796, Q1 : 0.876614928246, Q2 : 0.0720897912979, Q3 : -0.127238720655, Q4 : 0.458431661129}
2019-04-14 02:42:49.61: SIM {TimeUS : 59435383, Roll : 0.65, Pitch : -16.84, Yaw : 54.96, Alt : 49.2900009155, Lat : 49.2836367, Lng : -123.114875, Q1 : 0.877181768417, Q2 : 0.0725775361061, Q3 : -0.127317249775, Q4 : 0.457247138023}
2019-04-14 02:42:49.71: SIM {TimeUS : 59535343, Roll : 0.64, Pitch : -16.86, Yaw : 54.93, Alt : 49.2900009155, Lat : 49.2836389, Lng : -123.1148704, Q1 : 0.877300977707, Q2 : 0.0725789517164, Q3 : -0.127559959888, Q4 : 0.456950455904}
2019-04-14 02:42:49.81: SIM {TimeUS : 59635303, Roll : 0.57, Pitch : -16.88, Yaw : 55.0, Alt : 49.2900009155, Lat : 49.2836408, Lng : -123.1148657, Q1 : 0.877038419247, Q2 : 0.0722224861383, Q3 : -0.127965822816, Q4 : 0.457397341728}
2019-04-14 02:42:49.91: SIM {TimeUS : 59735263, Roll : 0.44, Pitch : -16.91, Yaw : 55.15, Alt : 49.2900009155, Lat : 49.283643, Lng : -123.1148609, Q1 : 0.876492381096, Q2 : 0.0715113505721, Q3 : -0.128553211689, Q4 : 0.458389908075}
2019-04-14 02:42:50.01: SIM {TimeUS : 59835223, Roll : 0.29, Pitch : -16.93, Yaw : 55.34, Alt : 49.2999992371, Lat : 49.2836451, Lng : -123.1148562, Q1 : 0.87577098608, Q2 : 0.0706456899643, Q3 : -0.129257500172, Q4 : 0.459703087807}
2019-04-14 02:42:50.11: SIM {TimeUS : 59935183, Roll : 0.13, Pitch : -16.97, Yaw : 55.56, Alt : 49.2999992371, Lat : 49.2836472, Lng : -123.1148514, Q1 : 0.874972045422, Q2 : 0.0698034986854, Q3 : -0.13005925715, Q4 : 0.46112459898}
2019-04-14 02:42:50.21: SIM {TimeUS : 60035143, Roll : -0.01, Pitch : -17.01, Yaw : 55.76, Alt : 49.2999992371, Lat : 49.2836493, Lng : -123.1148465, Q1 : 0.874201834202, Q2 : 0.069098636508, Q3 : -0.130846381187, Q4 : 0.462467044592}
2019-04-14 02:42:50.31: SIM {TimeUS : 60135103, Roll : -0.14, Pitch : -17.05, Yaw : 55.92, Alt : 49.2999992371, Lat : 49.2836515, Lng : -123.1148417, Q1 : 0.873560428619, Q2 : 0.068445533514, Q3 : -0.131564840674, Q4 : 0.463571071625}
2019-04-14 02:42:50.41: SIM {TimeUS : 60235063, Roll : -0.24, Pitch : -17.08, Yaw : 56.04, Alt : 49.2999992371, Lat : 49.2836536, Lng : -123.1148368, Q1 : 0.87311643362, Q2 : 0.0678850933909, Q3 : -0.132094204426, Q4 : 0.464338749647}
2019-04-14 02:42:50.51: SIM {TimeUS : 60335023, Roll : -0.3, Pitch : -17.11, Yaw : 56.1, Alt : 49.2999992371, Lat : 49.2836558, Lng : -123.1148319, Q1 : 0.872862994671, Q2 : 0.0676453709602, Q3 : -0.132546558976, Q4 : 0.464721143246}
2019-04-14 02:42:50.61: SIM {TimeUS : 60434983, Roll : -0.3, Pitch : -17.15, Yaw : 56.11, Alt : 49.2999992371, Lat : 49.2836579, Lng : -123.114827, Q1 : 0.872789621353, Q2 : 0.0678251236677, Q3 : -0.13283573091, Q4 : 0.464750140905}
2019-04-14 02:42:50.71: SIM {TimeUS : 60534943, Roll : -0.25, Pitch : -17.19, Yaw : 56.07, Alt : 49.2999992371, Lat : 49.2836602, Lng : -123.1148221, Q1 : 0.872882306576, Q2 : 0.0683020502329, Q3 : -0.133019179106, Q4 : 0.464453727007}
2019-04-14 02:42:50.81: SIM {TimeUS : 60634903, Roll : -0.17, Pitch : -17.23, Yaw : 55.99, Alt : 49.2999992371, Lat : 49.2836624, Lng : -123.1148171, Q1 : 0.873113512993, Q2 : 0.0689952298999, Q3 : -0.133036375046, Q4 : 0.463911443949}
2019-04-14 02:42:50.91: SIM {TimeUS : 60734863, Roll : -0.08, Pitch : -17.27, Yaw : 55.88, Alt : 49.2999992371, Lat : 49.2836645, Lng : -123.1148121, Q1 : 0.873437464237, Q2 : 0.069741666317, Q3 : -0.133011937141, Q4 : 0.463196456432}
2019-04-14 02:42:51.01: SIM {TimeUS : 60834823, Roll : 0.0, Pitch : -17.3, Yaw : 55.77, Alt : 49.3100013733, Lat : 49.2836668, Lng : -123.1148071, Q1 : 0.873818635941, Q2 : 0.0703705027699, Q3 : -0.132992476225, Q4 : 0.46238732338}
2019-04-14 02:42:51.11: SIM {TimeUS : 60934783, Roll : 0.05, Pitch : -17.33, Yaw : 55.65, Alt : 49.3100013733, Lat : 49.2836689, Lng : -123.1148021, Q1 : 0.87421631813, Q2 : 0.070785716176, Q3 : -0.133003383875, Q4 : 0.461568295956}
2019-04-14 02:42:51.21: SIM {TimeUS : 61034743, Roll : 0.09, Pitch : -17.33, Yaw : 55.55, Alt : 49.3100013733, Lat : 49.2836712, Lng : -123.1147971, Q1 : 0.87459975481, Q2 : 0.0709394216537, Q3 : -0.132980808616, Q4 : 0.460824251175}
2019-04-14 02:42:51.31: SIM {TimeUS : 61135536, Roll : 0.12, Pitch : -17.33, Yaw : 55.47, Alt : 49.3100013733, Lat : 49.2836735, Lng : -123.114792, Q1 : 0.874918162823, Q2 : 0.0711018741131, Q3 : -0.132845312357, Q4 : 0.460233479738}
2019-04-14 02:42:51.41: SIM {TimeUS : 61235496, Roll : 0.16, Pitch : -17.33, Yaw : 55.41, Alt : 49.3100013733, Lat : 49.2836758, Lng : -123.1147869, Q1 : 0.875135660172, Q2 : 0.0712953433394, Q3 : -0.132784679532, Q4 : 0.459807366133}
2019-04-14 02:42:51.51: SIM {TimeUS : 61335456, Roll : 0.18, Pitch : -17.37, Yaw : 55.37, Alt : 49.3100013733, Lat : 49.2836779, Lng : -123.1147818, Q1 : 0.875224947929, Q2 : 0.0716153383255, Q3 : -0.132964864373, Q4 : 0.459535509348}
2019-04-14 02:42:51.61: SIM {TimeUS : 61435416, Roll : 0.2, Pitch : -17.43, Yaw : 55.35, Alt : 49.3100013733, Lat : 49.2836803, Lng : -123.1147767, Q1 : 0.875211536884, Q2 : 0.071949236095, Q3 : -0.133394032717, Q4 : 0.459384530783}
2019-04-14 02:42:51.71: SIM {TimeUS : 61535376, Roll : 0.19, Pitch : -17.47, Yaw : 55.35, Alt : 49.3100013733, Lat : 49.2836826, Lng : -123.1147716, Q1 : 0.875170171261, Q2 : 0.0720478519797, Q3 : -0.133714064956, Q4 : 0.45935484767}
2019-04-14 02:42:51.81: SIM {TimeUS : 61635336, Roll : 0.18, Pitch : -17.47, Yaw : 55.37, Alt : 49.3100013733, Lat : 49.2836849, Lng : -123.1147664, Q1 : 0.875119388103, Q2 : 0.0719681978226, Q3 : -0.133802264929, Q4 : 0.459438383579}
2019-04-14 02:42:51.91: SIM {TimeUS : 61735296, Roll : 0.15, Pitch : -17.48, Yaw : 55.39, Alt : 49.3100013733, Lat : 49.283687, Lng : -123.1147613, Q1 : 0.875040173531, Q2 : 0.0718504413962, Q3 : -0.133919462562, Q4 : 0.459573477507}
2019-04-14 02:42:52.01: SIM {TimeUS : 61835256, Roll : 0.12, Pitch : -17.5, Yaw : 55.41, Alt : 49.3100013733, Lat : 49.2836894, Lng : -123.1147561, Q1 : 0.874947249889, Q2 : 0.0716681405902, Q3 : -0.134211987257, Q4 : 0.459693551064}
2019-04-14 02:42:52.11: SIM {TimeUS : 61935216, Roll : 0.09, Pitch : -17.52, Yaw : 55.43, Alt : 49.3199996948, Lat : 49.2836917, Lng : -123.1147509, Q1 : 0.874855458736, Q2 : 0.0715837478638, Q3 : -0.134467080235, Q4 : 0.459806859493}
2019-04-14 02:42:52.21: SIM {TimeUS : 62035176, Roll : 0.07, Pitch : -17.54, Yaw : 55.44, Alt : 49.3199996948, Lat : 49.2836939, Lng : -123.1147457, Q1 : 0.874794483185, Q2 : 0.071510605514, Q3 : -0.134723007679, Q4 : 0.459859341383}
2019-04-14 02:42:52.31: SIM {TimeUS : 62135136, Roll : 0.06, Pitch : -17.56, Yaw : 55.45, Alt : 49.3199996948, Lat : 49.2836962, Lng : -123.1147405, Q1 : 0.874762952328, Q2 : 0.0715195685625, Q3 : -0.1349363029, Q4 : 0.459855407476}
2019-04-14 02:42:52.41: SIM {TimeUS : 62235096, Roll : 0.06, Pitch : -17.59, Yaw : 55.44, Alt : 49.3199996948, Lat : 49.2836986, Lng : -123.1147353, Q1 : 0.874761819839, Q2 : 0.071598879993, Q3 : -0.135126441717, Q4 : 0.45978936553}
2019-04-14 02:42:52.51: SIM {TimeUS : 62335056, Roll : 0.07, Pitch : -17.6, Yaw : 55.42, Alt : 49.3199996948, Lat : 49.283701, Lng : -123.11473, Q1 : 0.874796569347, Q2 : 0.071766294539, Q3 : -0.135184377432, Q4 : 0.459680050611}
2019-04-14 02:42:52.61: SIM {TimeUS : 62435016, Roll : 0.1, Pitch : -17.62, Yaw : 55.4, Alt : 49.3199996948, Lat : 49.2837033, Lng : -123.1147248, Q1 : 0.874847888947, Q2 : 0.0720176175237, Q3 : -0.135192170739, Q4 : 0.459540903568}
2019-04-14 02:42:52.71: SIM {TimeUS : 62534976, Roll : 0.13, Pitch : -17.64, Yaw : 55.38, Alt : 49.3199996948, Lat : 49.2837057, Lng : -123.1147195, Q1 : 0.87490940094, Q2 : 0.0722773894668, Q3 : -0.135274365544, Q4 : 0.459358662367}
2019-04-14 02:42:52.81: SIM {TimeUS : 62634936, Roll : 0.14, Pitch : -17.68, Yaw : 55.35, Alt : 49.3199996948, Lat : 49.283708, Lng : -123.1147143, Q1 : 0.874977231026, Q2 : 0.0724649205804, Q3 : -0.135532736778, Q4 : 0.459123671055}
2019-04-14 02:42:52.91: SIM {TimeUS : 62734896, Roll : 0.14, Pitch : -17.72, Yaw : 55.32, Alt : 49.3199996948, Lat : 49.2837102, Lng : -123.114709, Q1 : 0.875046789646, Q2 : 0.0725900232792, Q3 : -0.135882019997, Q4 : 0.45886811614}
2019-04-14 02:42:53.01: SIM {TimeUS : 62834856, Roll : 0.13, Pitch : -17.76, Yaw : 55.29, Alt : 49.3199996948, Lat : 49.2837126, Lng : -123.1147037, Q1 : 0.875117540359, Q2 : 0.0726472958922, Q3 : -0.1362670362, Q4 : 0.458609819412}
2019-04-14 02:42:53.11: SIM {TimeUS : 62934816, Roll : 0.13, Pitch : -17.79, Yaw : 55.26, Alt : 49.3199996948, Lat : 49.283715, Lng : -123.1146984, Q1 : 0.875193238258, Q2 : 0.0727435052395, Q3 : -0.136457890272, Q4 : 0.458393365145}
2019-04-14 02:42:53.21: SIM {TimeUS : 63034776, Roll : 0.15, Pitch : -17.79, Yaw : 55.24, Alt : 49.3199996948, Lat : 49.2837174, Lng : -123.1146931, Q1 : 0.875276863575, Q2 : 0.072876162827, Q3 : -0.136412397027, Q4 : 0.458226114511}
2019-04-14 02:42:53.31: SIM {TimeUS : 63134736, Roll : 0.17, Pitch : -17.77, Yaw : 55.22, Alt : 49.3199996948, Lat : 49.2837198, Lng : -123.1146878, Q1 : 0.87536907196, Q2 : 0.0729315876961, Q3 : -0.136230051517, Q4 : 0.458095341921}
2019-04-14 02:42:53.41: SIM {TimeUS : 63235529, Roll : 0.17, Pitch : -17.75, Yaw : 55.2, Alt : 49.3199996948, Lat : 49.2837222, Lng : -123.1146824, Q1 : 0.875455021858, Q2 : 0.0728342533112, Q3 : -0.136090368032, Q4 : 0.457988113165}
2019-04-14 02:42:53.51: SIM {TimeUS : 63335489, Roll : 0.16, Pitch : -17.73, Yaw : 55.19, Alt : 49.3199996948, Lat : 49.2837245, Lng : -123.114677, Q1 : 0.875530004501, Q2 : 0.0726861655712, Q3 : -0.135967031121, Q4 : 0.457904905081}
2019-04-14 02:42:53.61: SIM {TimeUS : 63435449, Roll : 0.15, Pitch : -17.72, Yaw : 55.18, Alt : 49.3199996948, Lat : 49.2837269, Lng : -123.1146717, Q1 : 0.875577926636, Q2 : 0.0725736990571, Q3 : -0.135891988873, Q4 : 0.45785343647}
2019-04-14 02:42:53.71: SIM {TimeUS : 63535409, Roll : 0.15, Pitch : -17.73, Yaw : 55.18, Alt : 49.3300018311, Lat : 49.2837293, Lng : -123.1146663, Q1 : 0.875587105751, Q2 : 0.0725577101111, Q3 : -0.136015042663, Q4 : 0.457801789045}
2019-04-14 02:42:53.81: SIM {TimeUS : 63635369, Roll : 0.15, Pitch : -17.75, Yaw : 55.17, Alt : 49.3300018311, Lat : 49.2837317, Lng : -123.1146609, Q1 : 0.875579893589, Q2 : 0.072633266449, Q3 : -0.136192366481, Q4 : 0.457750916481}
2019-04-14 02:42:53.91: SIM {TimeUS : 63735329, Roll : 0.14, Pitch : -17.8, Yaw : 55.17, Alt : 49.3300018311, Lat : 49.283734, Lng : -123.1146556, Q1 : 0.875555098057, Q2 : 0.07272066921, Q3 : -0.136574685574, Q4 : 0.457670539618}
2019-04-14 02:42:54.01: SIM {TimeUS : 63835289, Roll : 0.13, Pitch : -17.85, Yaw : 55.16, Alt : 49.3300018311, Lat : 49.2837364, Lng : -123.1146502, Q1 : 0.875524580479, Q2 : 0.0728626176715, Q3 : -0.136989831924, Q4 : 0.457582265139}
2019-04-14 02:42:54.11: SIM {TimeUS : 63935249, Roll : 0.13, Pitch : -17.89, Yaw : 55.15, Alt : 49.3300018311, Lat : 49.2837387, Lng : -123.1146448, Q1 : 0.875510394573, Q2 : 0.0730232596397, Q3 : -0.137278273702, Q4 : 0.457497298717}
2019-04-14 02:42:54.21: SIM {TimeUS : 64035209, Roll : 0.13, Pitch : -17.92, Yaw : 55.14, Alt : 49.3300018311, Lat : 49.2837411, Lng : -123.1146394, Q1 : 0.875513255596, Q2 : 0.0731134563684, Q3 : -0.137558117509, Q4 : 0.457393407822}
2019-04-14 02:42:54.31: SIM {TimeUS : 64135169, Roll : 0.12, Pitch : -17.94, Yaw : 55.13, Alt : 49.3300018311, Lat : 49.2837436, Lng : -123.114634, Q1 : 0.875538051128, Q2 : 0.0731271952391, Q3 : -0.137751638889, Q4 : 0.457285553217}
2019-04-14 02:42:54.41: SIM {TimeUS : 64235129, Roll : 0.14, Pitch : -17.93, Yaw : 55.12, Alt : 49.3300018311, Lat : 49.283746, Lng : -123.1146286, Q1 : 0.875587105751, Q2 : 0.0732065737247, Q3 : -0.137646630406, Q4 : 0.457210451365}
2019-04-14 02:42:54.51: SIM {TimeUS : 64335089, Roll : 0.17, Pitch : -17.94, Yaw : 55.1, Alt : 49.3300018311, Lat : 49.2837484, Lng : -123.1146232, Q1 : 0.875623524189, Q2 : 0.0734450668097, Q3 : -0.137580633163, Q4 : 0.457122325897}
2019-04-14 02:42:54.61: SIM {TimeUS : 64435049, Roll : 0.18, Pitch : -17.96, Yaw : 55.09, Alt : 49.3300018311, Lat : 49.2837509, Lng : -123.1146177, Q1 : 0.875656366348, Q2 : 0.0736250951886, Q3 : -0.137662217021, Q4 : 0.457005858421}
2019-04-14 02:42:54.71: SIM {TimeUS : 64535009, Roll : 0.19, Pitch : -17.96, Yaw : 55.07, Alt : 49.3300018311, Lat : 49.2837533, Lng : -123.1146123, Q1 : 0.875706911087, Q2 : 0.0737203508615, Q3 : -0.137670084834, Q4 : 0.456891357899}
2019-04-14 02:42:54.81: SIM {TimeUS : 64634969, Roll : 0.2, Pitch : -17.95, Yaw : 55.05, Alt : 49.3300018311, Lat : 49.2837557, Lng : -123.1146069, Q1 : 0.875774800777, Q2 : 0.0737097784877, Q3 : -0.13757917285, Q4 : 0.456790298223}
2019-04-14 02:42:54.91: SIM {TimeUS : 64734929, Roll : 0.2, Pitch : -17.95, Yaw : 55.04, Alt : 49.3300018311, Lat : 49.2837582, Lng : -123.1146014, Q1 : 0.875835478306, Q2 : 0.0736756101251, Q3 : -0.137541353703, Q4 : 0.456690758467}
2019-04-14 02:42:55.01: SIM {TimeUS : 64834889, Roll : 0.18, Pitch : -17.96, Yaw : 55.03, Alt : 49.3300018311, Lat : 49.2837606, Lng : -123.114596, Q1 : 0.875878036022, Q2 : 0.0735788941383, Q3 : -0.137733921409, Q4 : 0.456566751003}
2019-04-14 02:42:55.11: SIM {TimeUS : 64934849, Roll : 0.15, Pitch : -18.0, Yaw : 55.02, Alt : 49.3400001526, Lat : 49.283763, Lng : -123.1145905, Q1 : 0.875891506672, Q2 : 0.0734940618277, Q3 : -0.138145416975, Q4 : 0.456430256367}
2019-04-14 02:42:55.21: SIM {TimeUS : 65034809, Roll : 0.14, Pitch : -18.01, Yaw : 55.01, Alt : 49.3400001526, Lat : 49.2837654, Lng : -123.114585, Q1 : 0.875923812389, Q2 : 0.0733785107732, Q3 : -0.138298407197, Q4 : 0.456340461969}
2019-04-14 02:42:55.31: SIM {TimeUS : 65134769, Roll : 0.14, Pitch : -18.0, Yaw : 55.0, Alt : 49.3400001526, Lat : 49.2837679, Lng : -123.1145796, Q1 : 0.875965237617, Q2 : 0.0733664631844, Q3 : -0.138178661466, Q4 : 0.456299155951}
2019-04-14 02:42:55.41: SIM {TimeUS : 65235562, Roll : 0.16, Pitch : -17.98, Yaw : 54.99, Alt : 49.3400001526, Lat : 49.2837703, Lng : -123.1145741, Q1 : 0.875999093056, Q2 : 0.0734516233206, Q3 : -0.138017952442, Q4 : 0.456269174814}
2019-04-14 02:42:55.51: SIM {TimeUS : 65335522, Roll : 0.17, Pitch : -17.99, Yaw : 54.99, Alt : 49.3400001526, Lat : 49.2837728, Lng : -123.1145686, Q1 : 0.876020610332, Q2 : 0.0735609531403, Q3 : -0.138001650572, Q4 : 0.456215202808}
2019-04-14 02:42:55.61: SIM {TimeUS : 65435482, Roll : 0.16, Pitch : -18.0, Yaw : 54.98, Alt : 49.3400001526, Lat : 49.2837752, Lng : -123.1145631, Q1 : 0.876051068306, Q2 : 0.0735196322203, Q3 : -0.138127818704, Q4 : 0.456125110388}
2019-04-14 02:42:55.71: SIM {TimeUS : 65535442, Roll : 0.14, Pitch : -18.02, Yaw : 54.97, Alt : 49.3400001526, Lat : 49.2837776, Lng : -123.1145576, Q1 : 0.876079082489, Q2 : 0.0734068006277, Q3 : -0.138366952538, Q4 : 0.45601695776}
2019-04-14 02:42:55.81: SIM {TimeUS : 65635402, Roll : 0.13, Pitch : -18.04, Yaw : 54.96, Alt : 49.3400001526, Lat : 49.2837801, Lng : -123.1145521, Q1 : 0.876101374626, Q2 : 0.0733690559864, Q3 : -0.138593748212, Q4 : 0.455911397934}
2019-04-14 02:42:55.91: SIM {TimeUS : 65735362, Roll : 0.13, Pitch : -18.06, Yaw : 54.95, Alt : 49.3400001526, Lat : 49.2837825, Lng : -123.1145466, Q1 : 0.876111865044, Q2 : 0.0734917521477, Q3 : -0.138752028346, Q4 : 0.455823212862}
2019-04-14 02:42:56.01: SIM {TimeUS : 65835322, Roll : 0.14, Pitch : -18.08, Yaw : 54.94, Alt : 49.3400001526, Lat : 49.2837849, Lng : -123.1145411, Q1 : 0.876118123531, Q2 : 0.0736482515931, Q3 : -0.138890266418, Q4 : 0.455743908882}
2019-04-14 02:42:56.11: SIM {TimeUS : 65935282, Roll : 0.17, Pitch : -18.1, Yaw : 54.93, Alt : 49.3400001526, Lat : 49.2837874, Lng : -123.1145356, Q1 : 0.876117169857, Q2 : 0.0739007741213, Q3 : -0.138913989067, Q4 : 0.455697536469}
2019-04-14 02:42:56.21: SIM {TimeUS : 66035242, Roll : 0.19, Pitch : -18.12, Yaw : 54.92, Alt : 49.3400001526, Lat : 49.2837898, Lng : -123.1145301, Q1 : 0.876119315624, Q2 : 0.0740858912468, Q3 : -0.138963907957, Q4 : 0.45564815402}
2019-04-14 02:42:56.31: SIM {TimeUS : 66135202, Roll : 0.2, Pitch : -18.13, Yaw : 54.91, Alt : 49.3400001526, Lat : 49.2837923, Lng : -123.1145246, Q1 : 0.876121878624, Q2 : 0.0742493495345, Q3 : -0.139024034142, Q4 : 0.455598294735}
