2019-04-14 02:02:16.40: SIM {TimeUS : 40616247, Roll : 0.0, Pitch : 0.0, Yaw : 0.0, Alt : 30.1000003815, Lat : 49.28357, Lng : -123.11502, Q1 : 1.0, Q2 : 0.0, Q3 : 0.0, Q4 : 0.0}
2019-04-14 02:02:16.51: SIM {TimeUS : 40735366, Roll : 0.0, Pitch : 0.0, Yaw : 0.0, Alt : 30.1000003815, Lat : 49.28357, Lng : -123.11502, Q1 : 1.0, Q2 : 0.0, Q3 : 0.0, Q4 : 0.0}
2019-04-14 02:02:16.61: SIM {TimeUS : 40835326, Roll : 0.0, Pitch : 0.0, Yaw : 0.0, Alt : 30.1000003815, Lat : 49.28357, Lng : -123.11502, Q1 : 1.0, Q2 : 0.0, Q3 : 0.0, Q4 : 0.0}
2019-04-14 02:02:16.71: SIM {TimeUS : 40935286, Roll : 0.0, Pitch : 0.0, Yaw : 0.0, Alt : 30.1000003815, Lat : 49.28357, Lng : -123.11502, Q1 : 1.0, Q2 : 0.0, Q3 : 0.0, Q4 : 0.0}
2019-04-14 02:02:16.81: SIM {TimeUS : 41035246, Roll : 0.0, Pitch : 0.0, Yaw : 0.0, Alt : 30.1000003815, Lat : 49.28357, Lng : -123.11502, Q1 : 1.0, Q2 : 0.0, Q3 : 0.0, Q4 : 0.0}
2019-04-14 02:02:16.91: SIM {TimeUS : 41135206, Roll : 0.0, Pitch : 0.0, Yaw : 0.0, Alt : 30.1000003815, Lat : 49.28357, Lng : -123.11502, Q1 : 1.0, Q2 : 0.0, Q3 : 0.0, Q4 : 0.0}
2019-04-14 02:02:17.01: SIM {TimeUS : 41235166, Roll : 0.0, Pitch : 0.0, Yaw : 0.0, Alt : 30.1000003815, Lat : 49.28357, Lng : -123.11502, Q1 : 1.0, Q2 : 0.0, Q3 : 0.0, Q4 : 0.0}
2019-04-14 02:02:17.11: SIM {TimeUS : 41335126, Roll : 0.0, Pitch : 0.0, Yaw : 0.0, Alt : 30.1000003815, Lat : 49.28357, Lng : -123.11502, Q1 : 1.0, Q2 : 0.0, Q3 : 0.0, Q4 : 0.0}
2019-04-14 02:02:17.21: SIM {TimeUS : 41435086, Roll : 0.0, Pitch : 0.0, Yaw : 0.0, Alt : 30.1000003815, Lat : 49.28357, Lng : -123.11502, Q1 : 1.0, Q2 : 0.0, Q3 : 0.0, Q4 : 0.0}
2019-04-14 02:02:17.31: SIM {TimeUS : 41535046, Roll : 0.0, Pitch : 0.0, Yaw : 0.0, Alt : 30.1000003815, Lat : 49.28357, Lng : -123.11502, Q1 : 1.0, Q2 : 0.0, Q3 : 0.0, Q4 : 0.0}
2019-04-14 02:02:17.41: SIM {TimeUS : 41635006, Roll : 0.0, Pitch : 0.0, Yaw : 0.0, Alt : 30.1000003815, Lat : 49.28357, Lng : -123.11502, Q1 : 1.0, Q2 : 0.0, Q3 : 0.0, Q4 : 0.0}
2019-04-14 02:02:17.51: SIM {TimeUS : 41734966, Roll : 0.0, Pitch : 0.0, Yaw : 0.0, Alt : 30.1000003815, Lat : 49.28357, Lng : -123.11502, Q1 : 1.0, Q2 : 0.0, Q3 : 0.0, Q4 : 0.0}
2019-04-14 02:02:17.61: SIM {TimeUS : 41834926, Roll : 0.0, Pitch : 0.0, Yaw : 0.0, Alt : 30.1000003815, Lat : 49.28357, Lng : -123.11502, Q1 : 1.0, Q2 : 0.0, Q3 : 0.0, Q4 : 0.0}
2019-04-14 02:02:17.71: SIM {TimeUS : 41934886, Roll : 0.0, Pitch : 0.0, Yaw : 0.0, Alt : 30.1000003815, Lat : 49.28357, Lng : -123.11502, Q1 : 1.0, Q2 : 0.0, Q3 : 0.0, Q4 : 0.0}
2019-04-14 02:02:17.81: SIM {TimeUS : 42034846, Roll : 0.0, Pitch : 0.0, Yaw : 0.0, Alt : 30.1000003815, Lat : 49.28357, Lng : -123.11502, Q1 : 1.0, Q2 : 0.0, Q3 : 0.0, Q4 : 0.0}
2019-04-14 02:02:17.91: SIM {TimeUS : 42134806, Roll : 0.0, Pitch : 0.0, Yaw : 0.0, Alt : 30.1000003815, Lat : 49.28357, Lng : -123.11502, Q1 : 1.0, Q2 : 0.0, Q3 : 0.0, Q4 : 0.0}
2019-04-14 02:02:18.01: SIM {TimeUS : 42234766, Roll : 0.0, Pitch : 0.0, Yaw : 0.0, Alt : 30.1000003815, Lat : 49.28357, Lng : -123.11502, Q1 : 1.0, Q2 : 0.0, Q3 : 0.0, Q4 : 0.0}
2019-04-14 02:02:18.11: SIM {TimeUS : 42334726, Roll : 0.0, Pitch : 0.0, Yaw : 0.0, Alt : 30.1000003815, Lat : 49.28357, Lng : -123.11502, Q1 : 1.0, Q2 : 0.0, Q3 : 0.0, Q4 : 0.0}
2019-04-14 02:02:18.21: SIM {TimeUS : 42434686, Roll : 0.0, Pitch : 0.0, Yaw : 0.0, Alt : 30.1000003815, Lat : 49.28357, Lng : -123.11502, Q1 : 1.0, Q2 : 0.0, Q3 : 0.0, Q4 : 0.0}
2019-04-14 02:02:18.31: SIM {TimeUS : 42534646, Roll : 0.0, Pitch : 0.0, Yaw : 0.0, Alt : 30.1000003815, Lat : 49.28357, Lng : -123.11502, Q1 : 1.0, Q2 : 0.0, Q3 : 0.0, Q4 : 0.0}
2019-04-14 02:02:18.41: SIM {TimeUS : 42634606, Roll : 0.0, Pitch : 0.0, Yaw : 0.0, Alt : 30.1000003815, Lat : 49.28357, Lng : -123.11502, Q1 : 1.0, Q2 : 0.0, Q3 : 0.0, Q4 : 0.0}
2019-04-14 02:02:18.51: SIM {TimeUS : 42735399, Roll : 0.0, Pitch : 0.0, Yaw : 0.0, Alt : 30.1000003815, Lat : 49.28357, Lng : -123.11502, Q1 : 1.0, Q2 : 0.0, Q3 : 0.0, Q4 : 0.0}
2019-04-14 02:02:18.61: SIM {TimeUS : 42835359, Roll : 0.0, Pitch : 0.0, Yaw : 0.0, Alt : 30.1000003815, Lat : 49.28357, Lng : -123.11502, Q1 : 1.0, Q2 : 0.0, Q3 : 0.0, Q4 : 0.0}
2019-04-14 02:02:18.71: SIM {TimeUS : 42935319, Roll : 0.0, Pitch : 0.0, Yaw : 360.0, Alt : 30.1000003815, Lat : 49.28357, Lng : -123.11502, Q1 : 1.0, Q2 : 0.0, Q3 : 0.0, Q4 : -2.34232576911e-12}
2019-04-14 02:02:18.81: SIM {TimeUS : 43035279, Roll : 0.0, Pitch : 0.0, Yaw : 360.0, Alt : 30.1000003815, Lat : 49.28357, Lng : -123.11502, Q1 : 1.0, Q2 : 0.0, Q3 : 0.0, Q4 : -1.59578156245e-10}
2019-04-14 02:02:18.91: SIM {TimeUS : 43135239, Roll : 0.0, Pitch : 0.0, Yaw : 360.0, Alt : 30.1000003815, Lat : 49.28357, Lng : -123.11502, Q1 : 1.0, Q2 : 0.0, Q3 : 0.0, Q4 : -8.89988100994e-08}
2019-04-14 02:02:19.01: SIM {TimeUS : 43235199, Roll : 0.0, Pitch : 0.0, Yaw : 359.99, Alt : 30.1000003815, Lat : 49.28357, Lng : -123.11502, Q1 : 1.0, Q2 : 0.0, Q3 : 0.0, Q4 : -2.25867196946e-07}
2019-04-14 02:02:19.11: SIM {TimeUS : 43335159, Roll : 0.0, Pitch : 0.0, Yaw : 359.99, Alt : 30.1000003815, Lat : 49.28357, Lng : -123.11502, Q1 : 1.0, Q2 : 0.0, Q3 : 0.0, Q4 : -4.02568360869e-07}
2019-04-14 02:02:19.21: SIM {TimeUS : 43435119, Roll : 0.0, Pitch : 0.0, Yaw : 359.99, Alt : 30.1000003815, Lat : 49.28357, Lng : -123.11502, Q1 : 1.0, Q2 : 0.0, Q3 : 0.0, Q4 : -6.16779686879e-07}
2019-04-14 02:02:19.31: SIM {TimeUS : 43535079, Roll : 0.0, Pitch : 0.0, Yaw : 359.99, Alt : 30.1000003815, Lat : 49.28357, Lng : -123.11502, Q1 : 1.0, Q2 : 0.0, Q3 : 0.0, Q4 : -8.21860851374e-07}
2019-04-14 02:02:19.41: SIM {TimeUS : 43635039, Roll : 0.0, Pitch : 0.0, Yaw : 359.99, Alt : 30.1000003815, Lat : 49.28357, Lng : -123.11502, Q1 : 1.0, Q2 : 0.0, Q3 : 0.0, Q4 : -1.02398951185e-06}
2019-04-14 02:02:19.51: SIM {TimeUS : 43734999, Roll : 0.0, Pitch : 0.0, Yaw : 359.99, Alt : 30.1000003815, Lat : 49.28357, Lng : -123.11502, Q1 : 1.0, Q2 : 0.0, Q3 : 0.0, Q4 : -1.20400397918e-06}
2019-04-14 02:02:19.61: SIM {TimeUS : 43834959, Roll : 0.0, Pitch : 0.0, Yaw : 359.99, Alt : 30.1100006104, Lat : 49.28357, Lng : -123.11502, Q1 : 1.0, Q2 : 0.0, Q3 : 0.0, Q4 : -1.38005441386e-06}
2019-04-14 02:02:19.71: SIM {TimeUS : 43934919, Roll : 0.0, Pitch : 0.0, Yaw : 359.99, Alt : 30.1299991608, Lat : 49.28357, Lng : -123.11502, Q1 : 1.0, Q2 : 0.0, Q3 : 0.0, Q4 : -1.53162227434e-06}
2019-04-14 02:02:19.81: SIM {TimeUS : 44034879, Roll : 0.0, Pitch : 0.0, Yaw : 359.99, Alt : 30.1599998474, Lat : 49.28357, Lng : -123.11502, Q1 : 1.0, Q2 : 0.0, Q3 : 0.0, Q4 : -1.76422156528e-06}
2019-04-14 02:02:19.91: SIM {TimeUS : 44134839, Roll : 0.0, Pitch : 0.0, Yaw : 359.99, Alt : 30.1900005341, Lat : 49.28357, Lng : -123.11502, Q1 : 1.0, Q2 : 0.0, Q3 : 0.0, Q4 : -1.97009103431e-06}
2019-04-14 02:02:20.01: SIM {TimeUS : 44234799, Roll : -0.03, Pitch : -0.03, Yaw : 359.99, Alt : 30.2299995422, Lat : 49.28357, Lng : -123.11502, Q1 : 0.999999880791, Q2 : -0.000323128915625, Q3 : -0.00027705411776, Q4 : -4.47854381491e-06}
2019-04-14 02:02:20.11: SIM {TimeUS : 44334759, Roll : -0.29, Pitch : -0.24, Yaw : 359.99, Alt : 30.3099994659, Lat : 49.28357, Lng : -123.11502, Q1 : 0.999994337559, Q2 : -0.00257236300968, Q3 : -0.00217941123992, Q4 : -2.91085634672e-05}
2019-04-14 02:02:20.21: SIM {TimeUS : 44434719, Roll : -0.58, Pitch : -0.53, Yaw : 359.99, Alt : 30.4400005341, Lat : 49.28357, Lng : -123.11502, Q1 : 0.999976336956, Q2 : -0.00506867328659, Q3 : -0.00465838424861, Q4 : -7.88386169006e-05}
2019-04-14 02:02:20.31: SIM {TimeUS : 44534679, Roll : -0.76, Pitch : -0.72, Yaw : 359.98, Alt : 30.5900001526, Lat : 49.28357, Lng : -123.11502, Q1 : 0.999957621098, Q2 : -0.006681275554, Q3 : -0.00633763801306, Q4 : -0.000148503488163}
2019-04-14 02:02:20.41: SIM {TimeUS : 44634639, Roll : -0.81, Pitch : -0.76, Yaw : 359.97, Alt : 30.75, Lat : 49.28357, Lng : -123.11502, Q1 : 0.999951899052, Q2 : -0.00714757386595, Q3 : -0.0067130648531, Q4 : -0.000227755095693}
2019-04-14 02:02:20.51: SIM {TimeUS : 44734599, Roll : -0.73, Pitch : -0.68, Yaw : 359.96, Alt : 30.9099998474, Lat : 49.28357, Lng : -123.1150201, Q1 : 0.999961435795, Q2 : -0.0064217611216, Q3 : -0.0059842444025, Q4 : -0.000304651097395}
2019-04-14 02:02:20.61: SIM {TimeUS : 44835392, Roll : -0.54, Pitch : -0.51, Yaw : 359.95, Alt : 31.0599994659, Lat : 49.2835701, Lng : -123.1150202, Q1 : 0.999978363514, Q2 : -0.00479096500203, Q3 : -0.00449348660186, Q4 : -0.000372477632482}
2019-04-14 02:02:20.71: SIM {TimeUS : 44935352, Roll : -0.32, Pitch : -0.3, Yaw : 359.95, Alt : 31.2199993134, Lat : 49.2835701, Lng : -123.1150202, Q1 : 0.999992251396, Q2 : -0.00282275094651, Q3 : -0.00270151719451, Q4 : -0.000430697080446}
2019-04-14 02:02:20.81: SIM {TimeUS : 45035312, Roll : -0.11, Pitch : -0.12, Yaw : 359.94, Alt : 31.3799991608, Lat : 49.2835702, Lng : -123.1150203, Q1 : 0.999998748302, Q2 : -0.0010049365228, Q3 : -0.00113284075633, Q4 : -0.000475804728922}
2019-04-14 02:02:20.91: SIM {TimeUS : 45135272, Roll : 0.03, Pitch : 0.0, Yaw : 359.94, Alt : 31.5599994659, Lat : 49.2835702, Lng : -123.1150204, Q1 : 0.999999821186, Q2 : 0.00029700997402, Q3 : -6.47428969387e-05, Q4 : -0.000507589022163}
2019-04-14 02:02:21.01: SIM {TimeUS : 45235232, Roll : 0.1, Pitch : 0.06, Yaw : 359.93, Alt : 31.7299995422, Lat : 49.2835703, Lng : -123.1150205, Q1 : 0.999999344349, Q2 : 0.000873203040101, Q3 : 0.000525460578501, Q4 : -0.000524802366272}
2019-04-14 02:02:21.11: SIM {TimeUS : 45335192, Roll : 0.1, Pitch : 0.08, Yaw : 359.93, Alt : 31.9099998474, Lat : 49.2835703, Lng : -123.1150205, Q1 : 0.999999165535, Q2 : 0.00088948517805, Q3 : 0.000745637225918, Q4 : -0.000539199914783}
2019-04-14 02:02:21.21: SIM {TimeUS : 45435152, Roll : 0.07, Pitch : 0.09, Yaw : 359.93, Alt : 32.0999984741, Lat : 49.2835703, Lng : -123.1150206, Q1 : 0.999999284744, Q2 : 0.000664514023811, Q3 : 0.000824475893751, Q4 : -0.000544262933545}
2019-04-14 02:02:21.31: SIM {TimeUS : 45535112, Roll : 0.06, Pitch : 0.1, Yaw : 359.93, Alt : 32.2900009155, Lat : 49.2835703, Lng : -123.1150206, Q1 : 0.999999284744, Q2 : 0.000594606739469, Q3 : 0.000896749843378, Q4 : -0.000528524979018}
2019-04-14 02:02:21.41: SIM {TimeUS : 45635072, Roll : 0.07, Pitch : 0.1, Yaw : 359.94, Alt : 32.4799995422, Lat : 49.2835703, Lng : -123.1150207, Q1 : 0.99999922514, Q2 : 0.000655751384329, Q3 : 0.000931707327254, Q4 : -0.000507813354488}
2019-04-14 02:02:21.51: SIM {TimeUS : 45735032, Roll : 0.08, Pitch : 0.11, Yaw : 359.94, Alt : 32.6699981689, Lat : 49.2835703, Lng : -123.1150207, Q1 : 0.999999046326, Q2 : 0.000773134815972, Q3 : 0.00102159997914, Q4 : -0.000484252203023}
2019-04-14 02:02:21.61: SIM {TimeUS : 45834992, Roll : 0.1, Pitch : 0.14, Yaw : 359.94, Alt : 32.8699989319, Lat : 49.2835704, Lng : -123.1150208, Q1 : 0.999998688698, Q2 : 0.000901003018953, Q3 : 0.00126887415536, Q4 : -0.000458514201455}
2019-04-14 02:02:21.71: SIM {TimeUS : 45934952, Roll : 0.12, Pitch : 0.14, Yaw : 359.94, Alt : 33.0699996948, Lat : 49.2835704, Lng : -123.1150208, Q1 : 0.999998450279, Q2 : 0.00108591432218, Q3 : 0.00130373251159, Q4 : -0.000442286749603}
2019-04-14 02:02:21.81: SIM {TimeUS : 46034912, Roll : 0.14, Pitch : 0.14, Yaw : 359.95, Alt : 33.2700004578, Lat : 49.2835704, Lng : -123.1150208, Q1 : 0.99999833107, Q2 : 0.00127373542637, Q3 : 0.00124192819931, Q4 : -0.000422024808358}
2019-04-14 02:02:21.91: SIM {TimeUS : 46134872, Roll : 0.16, Pitch : 0.13, Yaw : 359.95, Alt : 33.4799995422, Lat : 49.2835704, Lng : -123.1150208, Q1 : 0.999998211861, Q2 : 0.00141260155942, Q3 : 0.00118722673506, Q4 : -0.000407253392041}
2019-04-14 02:02:22.01: SIM {TimeUS : 46234832, Roll : 0.16, Pitch : 0.13, Yaw : 359.95, Alt : 33.6899986267, Lat : 49.2835704, Lng : -123.1150208, Q1 : 0.999998092651, Q2 : 0.0014576355461, Q3 : 0.00121929077432, Q4 : -0.000411924818764}
2019-04-14 02:02:22.11: SIM {TimeUS : 46334792, Roll : 0.17, Pitch : 0.14, Yaw : 359.95, Alt : 33.8899993896, Lat : 49.2835704, Lng : -123.1150208, Q1 : 0.999997913837, Q2 : 0.00151672388893, Q3 : 0.00128639943432, Q4 : -0.000428155617556}
2019-04-14 02:02:22.21: SIM {TimeUS : 46434752, Roll : 0.16, Pitch : 0.13, Yaw : 359.94, Alt : 34.0999984741, Lat : 49.2835704, Lng : -123.1150208, Q1 : 0.999998152256, Q2 : 0.00144880195148, Q3 : 0.0011851816671, Q4 : -0.00044915502076}
2019-04-14 02:02:22.31: SIM {TimeUS : 46534712, Roll : 0.14, Pitch : 0.12, Yaw : 359.94, Alt : 34.3100013733, Lat : 49.2835704, Lng : -123.1150208, Q1 : 0.999998509884, Q2 : 0.0012748290319, Q3 : 0.00105496274773, Q4 : -0.000470471684821}
2019-04-14 02:02:22.41: SIM {TimeUS : 46634672, Roll : 0.11, Pitch : 0.11, Yaw : 359.94, Alt : 34.5299987793, Lat : 49.2835704, Lng : -123.1150208, Q1 : 0.999998867512, Q2 : 0.00103362323716, Q3 : 0.000968097650912, Q4 : -0.000496244058013}
2019-04-14 02:02:22.51: SIM {TimeUS : 46734632, Roll : 0.08, Pitch : 0.1, Yaw : 359.93, Alt : 34.7400016785, Lat : 49.2835704, Lng : -123.1150208, Q1 : 0.999999165535, Q2 : 0.000784534378909, Q3 : 0.000879672064912, Q4 : -0.000526874559}
2019-04-14 02:02:22.61: SIM {TimeUS : 46834592, Roll : 0.07, Pitch : 0.06, Yaw : 359.93, Alt : 34.9599990845, Lat : 49.2835704, Lng : -123.1150208, Q1 : 0.999999523163, Q2 : 0.000627314439043, Q3 : 0.000556085433345, Q4 : -0.000561429478694}
2019-04-14 02:02:22.71: SIM {TimeUS : 46935385, Roll : 0.06, Pitch : 0.02, Yaw : 359.93, Alt : 35.1699981689, Lat : 49.2835704, Lng : -123.1150208, Q1 : 0.999999642372, Q2 : 0.000526777177583, Q3 : 0.000247806485277, Q4 : -0.000599530758336}
2019-04-14 02:02:22.81: SIM {TimeUS : 47035345, Roll : 0.03, Pitch : 0.0, Yaw : 359.92, Alt : 35.3899993896, Lat : 49.2835704, Lng : -123.1150208, Q1 : 0.999999701977, Q2 : 0.000335806573275, Q3 : 6.7936591222e-05, Q4 : -0.000639300385956}
2019-04-14 02:02:22.91: SIM {TimeUS : 47135305, Roll : 0.02, Pitch : 0.0, Yaw : 359.92, Alt : 35.6100006104, Lat : 49.2835704, Lng : -123.1150208, Q1 : 0.999999761581, Q2 : 0.000214581057662, Q3 : 3.82616963179e-05, Q4 : -0.000674090813845}
2019-04-14 02:02:23.01: SIM {TimeUS : 47235265, Roll : 0.02, Pitch : 0.0, Yaw : 359.91, Alt : 35.8300018311, Lat : 49.2835704, Lng : -123.1150207, Q1 : 0.999999761581, Q2 : 0.000191660757991, Q3 : 7.06046776031e-05, Q4 : -0.000706706836354}
2019-04-14 02:02:23.11: SIM {TimeUS : 47335225, Roll : 0.0, Pitch : -0.01, Yaw : 359.91, Alt : 36.0499992371, Lat : 49.2835704, Lng : -123.1150207, Q1 : 0.999999701977, Q2 : -3.3094115679e-06, Q3 : -9.61767946137e-05, Q4 : -0.000734461704269}
2019-04-14 02:02:23.21: SIM {TimeUS : 47435185, Roll : -0.03, Pitch : -0.04, Yaw : 359.91, Alt : 36.2700004578, Lat : 49.2835704, Lng : -123.1150207, Q1 : 0.999999582767, Q2 : -0.000322093866998, Q3 : -0.000378032360459, Q4 : -0.000759014335927}
2019-04-14 02:02:23.31: SIM {TimeUS : 47535145, Roll : -0.07, Pitch : -0.06, Yaw : 359.91, Alt : 36.4900016785, Lat : 49.2835704, Lng : -123.1150207, Q1 : 0.999999344349, Q2 : -0.00061755272327, Q3 : -0.000537365383934, Q4 : -0.000780767935794}
2019-04-14 02:02:23.41: SIM {TimeUS : 47635105, Roll : -0.1, Pitch : -0.07, Yaw : 359.9, Alt : 36.7099990845, Lat : 49.2835704, Lng : -123.1150207, Q1 : 0.99999910593, Q2 : -0.000877479731571, Q3 : -0.000647931010462, Q4 : -0.000803385162726}
2019-04-14 02:02:23.51: SIM {TimeUS : 47735065, Roll : -0.1, Pitch : -0.07, Yaw : 359.9, Alt : 36.9399986267, Lat : 49.2835704, Lng : -123.1150207, Q1 : 0.999999046326, Q2 : -0.000889640476089, Q3 : -0.00066028063884, Q4 : -0.000825585331768}
2019-04-14 02:02:23.61: SIM {TimeUS : 47835025, Roll : -0.09, Pitch : -0.06, Yaw : 359.9, Alt : 37.1599998474, Lat : 49.2835704, Lng : -123.1150207, Q1 : 0.99999910593, Q2 : -0.00080549629638, Q3 : -0.000604229106102, Q4 : -0.000844085414428}
2019-04-14 02:02:23.71: SIM {TimeUS : 47934985, Roll : -0.07, Pitch : -0.05, Yaw : 359.9, Alt : 37.3899993896, Lat : 49.2835704, Lng : -123.1150207, Q1 : 0.999999284744, Q2 : -0.000658771605231, Q3 : -0.000457148329588, Q4 : -0.000860115280375}
2019-04-14 02:02:23.81: SIM {TimeUS : 48034945, Roll : -0.05, Pitch : -0.03, Yaw : 359.9, Alt : 37.6100006104, Lat : 49.2835704, Lng : -123.1150206, Q1 : 0.999999403954, Q2 : -0.000496758904774, Q3 : -0.00034587434493, Q4 : -0.000871727999765}
2019-04-14 02:02:23.91: SIM {TimeUS : 48134905, Roll : -0.06, Pitch : -0.04, Yaw : 359.89, Alt : 37.8400001526, Lat : 49.2835704, Lng : -123.1150206, Q1 : 0.999999403954, Q2 : -0.000534913211595, Q3 : -0.000370089372154, Q4 : -0.000878823630046}
2019-04-14 02:02:24.01: SIM {TimeUS : 48234865, Roll : -0.07, Pitch : -0.03, Yaw : 359.89, Alt : 38.0699996948, Lat : 49.2835704, Lng : -123.1150206, Q1 : 0.999999344349, Q2 : -0.000656075717416, Q3 : -0.000274663587334, Q4 : -0.000890894036274}
2019-04-14 02:02:24.11: SIM {TimeUS : 48334825, Roll : -0.1, Pitch : -0.01, Yaw : 359.89, Alt : 38.2900009155, Lat : 49.2835704, Lng : -123.1150206, Q1 : 0.999999165535, Q2 : -0.000883842352778, Q3 : -0.00011270242976, Q4 : -0.000908719433937}
2019-04-14 02:02:24.21: SIM {TimeUS : 48434785, Roll : -0.1, Pitch : 0.0, Yaw : 359.89, Alt : 38.5200004578, Lat : 49.2835704, Lng : -123.1150206, Q1 : 0.99999910593, Q2 : -0.000940298778005, Q3 : 4.05906394008e-05, Q4 : -0.000924581778236}
2019-04-14 02:02:24.31: SIM {TimeUS : 48534745, Roll : -0.08, Pitch : 0.03, Yaw : 359.89, Alt : 38.75, Lat : 49.2835704, Lng : -123.1150206, Q1 : 0.99999922514, Q2 : -0.000749026541598, Q3 : 0.000284885289147, Q4 : -0.000947500870097}
2019-04-14 02:02:24.41: SIM {TimeUS : 48634705, Roll : -0.05, Pitch : 0.02, Yaw : 359.88, Alt : 38.9799995422, Lat : 49.2835706, Lng : -123.1150207, Q1 : 0.999999403954, Q2 : -0.00050202634884, Q3 : 0.000259156135144, Q4 : -0.00096431793645}
2019-04-14 02:02:24.51: SIM {TimeUS : 48734665, Roll : -0.02, Pitch : 0.01, Yaw : 359.88, Alt : 39.2099990845, Lat : 49.2835706, Lng : -123.1150207, Q1 : 0.999999463558, Q2 : -0.000236419145949, Q3 : 0.000168001439306, Q4 : -0.00097719556652}
2019-04-14 02:02:24.61: SIM {TimeUS : 48834625, Roll : 0.01, Pitch : 0.03, Yaw : 359.88, Alt : 39.4399986267, Lat : 49.2835706, Lng : -123.1150207, Q1 : 0.999999463558, Q2 : 9.79579708655e-05, Q3 : 0.000310977862682, Q4 : -0.000989548512734}
2019-04-14 02:02:24.71: SIM {TimeUS : 48934585, Roll : 0.05, Pitch : 0.06, Yaw : 359.88, Alt : 39.6699981689, Lat : 49.2835706, Lng : -123.1150207, Q1 : 0.99999922514, Q2 : 0.000455860688817, Q3 : 0.0005979569396, Q4 : -0.0010078510968}
2019-04-14 02:02:24.81: SIM {TimeUS : 49035378, Roll : 0.08, Pitch : 0.1, Yaw : 359.88, Alt : 39.9000015259, Lat : 49.2835706, Lng : -123.1150207, Q1 : 0.999998807907, Q2 : 0.000734001456294, Q3 : 0.000872967066243, Q4 : -0.00103212508839}
2019-04-14 02:02:24.91: SIM {TimeUS : 49135338, Roll : 0.07, Pitch : 0.12, Yaw : 359.87, Alt : 40.1300010681, Lat : 49.2835706, Lng : -123.1150207, Q1 : 0.999998569489, Q2 : 0.000657466938719, Q3 : 0.00112550461199, Q4 : -0.00105639651883}
2019-04-14 02:02:25.01: SIM {TimeUS : 49235298, Roll : 0.02, Pitch : 0.15, Yaw : 359.87, Alt : 40.3600006104, Lat : 49.2835706, Lng : -123.1150207, Q1 : 0.999998450279, Q2 : 0.000221313413931, Q3 : 0.00135741033591, Q4 : -0.00109548505861}
2019-04-14 02:02:25.11: SIM {TimeUS : 49335258, Roll : -0.01, Pitch : 0.16, Yaw : 359.87, Alt : 40.5999984741, Lat : 49.2835706, Lng : -123.1150207, Q1 : 0.999998271465, Q2 : -0.000161568939802, Q3 : 0.00146381976083, Q4 : -0.00112815469038}
2019-04-14 02:02:25.21: SIM {TimeUS : 49435218, Roll : -0.03, Pitch : 0.15, Yaw : 359.86, Alt : 40.8300018311, Lat : 49.2835706, Lng : -123.1150207, Q1 : 0.999998390675, Q2 : -0.000346969492966, Q3 : 0.00132661743555, Q4 : -0.00115060084499}
2019-04-14 02:02:25.31: SIM {TimeUS : 49535178, Roll : -0.04, Pitch : 0.13, Yaw : 359.86, Alt : 41.0600013733, Lat : 49.2835706, Lng : -123.1150207, Q1 : 0.999998569489, Q2 : -0.000387545966078, Q3 : 0.00117945903912, Q4 : -0.00117312127259}
2019-04-14 02:02:25.41: SIM {TimeUS : 49635138, Roll : -0.02, Pitch : 0.13, Yaw : 359.86, Alt : 41.2900009155, Lat : 49.2835706, Lng : -123.1150207, Q1 : 0.999998509884, Q2 : -0.000254665443208, Q3 : 0.00122156413272, Q4 : -0.00120320857968}
2019-04-14 02:02:25.51: SIM {TimeUS : 49735098, Roll : 0.01, Pitch : 0.15, Yaw : 359.85, Alt : 41.5299987793, Lat : 49.2835706, Lng : -123.1150207, Q1 : 0.999998271465, Q2 : 0.000124144382426, Q3 : 0.0013859559549, Q4 : -0.00124270701781}
2019-04-14 02:02:25.61: SIM {TimeUS : 49835058, Roll : 0.06, Pitch : 0.16, Yaw : 359.85, Alt : 41.7599983215, Lat : 49.2835706, Lng : -123.1150207, Q1 : 0.999997973442, Q2 : 0.000570346717723, Q3 : 0.00146162987221, Q4 : -0.00128309451975}
2019-04-14 02:02:25.71: SIM {TimeUS : 49935018, Roll : 0.1, Pitch : 0.13, Yaw : 359.84, Alt : 41.9900016785, Lat : 49.2835706, Lng : -123.1150207, Q1 : 0.999998033047, Q2 : 0.000886752968654, Q3 : 0.00117178645451, Q4 : -0.00131795043126}
2019-04-14 02:02:25.81: SIM {TimeUS : 50034978, Roll : 0.1, Pitch : 0.08, Yaw : 359.84, Alt : 42.2299995422, Lat : 49.2835706, Lng : -123.1150207, Q1 : 0.999998390675, Q2 : 0.000921195896808, Q3 : 0.000752643623855, Q4 : -0.00134608650114}
2019-04-14 02:02:25.91: SIM {TimeUS : 50134938, Roll : 0.07, Pitch : 0.05, Yaw : 359.84, Alt : 42.4599990845, Lat : 49.2835706, Lng : -123.1150207, Q1 : 0.999998807907, Q2 : 0.000615593569819, Q3 : 0.000463055883301, Q4 : -0.00136130442843}
2019-04-14 02:02:26.01: SIM {TimeUS : 50234898, Roll : 0.01, Pitch : 0.04, Yaw : 359.84, Alt : 42.7000007629, Lat : 49.2835706, Lng : -123.1150207, Q1 : 0.999998986721, Q2 : 0.000119757409266, Q3 : 0.000371510483092, Q4 : -0.00136894406751}
2019-04-14 02:02:26.11: SIM {TimeUS : 50334858, Roll : -0.02, Pitch : 0.06, Yaw : 359.84, Alt : 42.9300003052, Lat : 49.2835704, Lng : -123.1150207, Q1 : 0.999998867512, Q2 : -0.000251339515671, Q3 : 0.000561602646485, Q4 : -0.001369709149}
2019-04-14 02:02:26.21: SIM {TimeUS : 50434818, Roll : -0.05, Pitch : 0.08, Yaw : 359.84, Alt : 43.1699981689, Lat : 49.2835704, Lng : -123.1150207, Q1 : 0.999998748302, Q2 : -0.000460219220258, Q3 : 0.000701742130332, Q4 : -0.00136967760045}
2019-04-14 02:02:26.31: SIM {TimeUS : 50534778, Roll : -0.05, Pitch : 0.07, Yaw : 359.84, Alt : 43.4000015259, Lat : 49.2835704, Lng : -123.1150207, Q1 : 0.999998748302, Q2 : -0.000470397586469, Q3 : 0.000652819639072, Q4 : -0.00137217657175}
2019-04-14 02:02:26.41: SIM {TimeUS : 50634738, Roll : -0.05, Pitch : 0.05, Yaw : 359.84, Alt : 43.6399993896, Lat : 49.2835704, Lng : -123.1150207, Q1 : 0.999998807907, Q2 : -0.000503633520566, Q3 : 0.000514891115017, Q4 : -0.00138195417821}
2019-04-14 02:02:26.51: SIM {TimeUS : 50734698, Roll : -0.04, Pitch : 0.04, Yaw : 359.83, Alt : 43.8699989319, Lat : 49.2835704, Lng : -123.1150207, Q1 : 0.999998867512, Q2 : -0.00043473704136, Q3 : 0.000363749568351, Q4 : -0.00139939168002}
2019-04-14 02:02:26.61: SIM {TimeUS : 50834658, Roll : -0.02, Pitch : 0.03, Yaw : 359.83, Alt : 44.1100006104, Lat : 49.2835704, Lng : -123.1150207, Q1 : 0.999998927116, Q2 : -0.000246055191383, Q3 : 0.000282997469185, Q4 : -0.00142443890218}
2019-04-14 02:02:26.71: SIM {TimeUS : 50934618, Roll : -0.01, Pitch : 0.02, Yaw : 359.83, Alt : 44.3400001526, Lat : 49.2835704, Lng : -123.1150207, Q1 : 0.999998927116, Q2 : -0.00013052119175, Q3 : 0.000258687039604, Q4 : -0.00145266402978}
2019-04-14 02:02:26.81: SIM {TimeUS : 51034578, Roll : -0.01, Pitch : 0.01, Yaw : 359.82, Alt : 44.5800018311, Lat : 49.2835704, Lng : -123.1150206, Q1 : 0.999998867512, Q2 : -0.000150165054947, Q3 : 0.000129248786834, Q4 : -0.00148468581028}
2019-04-14 02:02:26.91: SIM {TimeUS : 51135371, Roll : -0.02, Pitch : -0.01, Yaw : 359.82, Alt : 44.8199996948, Lat : 49.2835704, Lng : -123.1150206, Q1 : 0.999998807907, Q2 : -0.000228098695516, Q3 : -0.000150944033521, Q4 : -0.00151691806968}
2019-04-14 02:02:27.01: SIM {TimeUS : 51235331, Roll : -0.03, Pitch : -0.03, Yaw : 359.82, Alt : 45.0499992371, Lat : 49.2835703, Lng : -123.1150206, Q1 : 0.999998688698, Q2 : -0.000281547690975, Q3 : -0.000331059767632, Q4 : -0.00155556388199}
2019-04-14 02:02:27.11: SIM {TimeUS : 51335291, Roll : -0.02, Pitch : -0.04, Yaw : 359.81, Alt : 45.2900009155, Lat : 49.2835703, Lng : -123.1150206, Q1 : 0.999998569489, Q2 : -0.000232197649893, Q3 : -0.000425601057941, Q4 : -0.00160041963682}
2019-04-14 02:02:27.21: SIM {TimeUS : 51435251, Roll : -0.02, Pitch : -0.05, Yaw : 359.81, Alt : 45.5299987793, Lat : 49.2835703, Lng : -123.1150206, Q1 : 0.999998509884, Q2 : -0.000258930551354, Q3 : -0.000447848608019, Q4 : -0.00164147873875}
2019-04-14 02:02:27.31: SIM {TimeUS : 51535211, Roll : -0.04, Pitch : -0.04, Yaw : 359.8, Alt : 45.7599983215, Lat : 49.2835703, Lng : -123.1150206, Q1 : 0.999998450279, Q2 : -0.000405922968639, Q3 : -0.000392560119508, Q4 : -0.00168005761225}
2019-04-14 02:02:27.41: SIM {TimeUS : 51635171, Roll : -0.08, Pitch : -0.03, Yaw : 359.8, Alt : 45.9900016785, Lat : 49.2835703, Lng : -123.1150206, Q1 : 0.999998211861, Q2 : -0.000703096273355, Q3 : -0.000346623768564, Q4 : -0.0017171051586}
2019-04-14 02:02:27.51: SIM {TimeUS : 51735131, Roll : -0.1, Pitch : -0.03, Yaw : 359.79, Alt : 46.2200012207, Lat : 49.2835703, Lng : -123.1150206, Q1 : 0.999997973442, Q2 : -0.000927911023609, Q3 : -0.000336655561114, Q4 : -0.00175072508864}
2019-04-14 02:02:27.61: SIM {TimeUS : 51835091, Roll : -0.11, Pitch : -0.02, Yaw : 359.79, Alt : 46.4500007629, Lat : 49.2835703, Lng : -123.1150206, Q1 : 0.999997913837, Q2 : -0.000989656196907, Q3 : -0.000239346496528, Q4 : -0.00177933136001}
2019-04-14 02:02:27.71: SIM {TimeUS : 51935051, Roll : -0.1, Pitch : 0.0, Yaw : 359.79, Alt : 46.6699981689, Lat : 49.2835703, Lng : -123.1150206, Q1 : 0.999997973442, Q2 : -0.00090355752036, Q3 : -2.74342055491e-05, Q4 : -0.00180419709068}
2019-04-14 02:02:27.81: SIM {TimeUS : 52035011, Roll : -0.08, Pitch : 0.0, Yaw : 359.79, Alt : 46.8800010681, Lat : 49.2835703, Lng : -123.1150206, Q1 : 0.999998092651, Q2 : -0.000725403544493, Q3 : 8.59545398271e-05, Q4 : -0.0018255491741}
2019-04-14 02:02:27.91: SIM {TimeUS : 52134971, Roll : -0.06, Pitch : 0.0, Yaw : 359.78, Alt : 47.0900001526, Lat : 49.2835703, Lng : -123.1150206, Q1 : 0.999998152256, Q2 : -0.000552948389668, Q3 : 5.51728007849e-05, Q4 : -0.00184342474677}
2019-04-14 02:02:28.01: SIM {TimeUS : 52234931, Roll : -0.05, Pitch : -0.01, Yaw : 359.78, Alt : 47.2900009155, Lat : 49.2835703, Lng : -123.1150206, Q1 : 0.999998152256, Q2 : -0.000451878440799, Q3 : -0.000111565474072, Q4 : -0.00186503166333}
2019-04-14 02:02:28.11: SIM {TimeUS : 52334891, Roll : -0.03, Pitch : -0.04, Yaw : 359.78, Alt : 47.4799995422, Lat : 49.2835703, Lng : -123.1150206, Q1 : 0.999998092651, Q2 : -0.000326383044012, Q3 : -0.000356171658495, Q4 : -0.00188822555356}
2019-04-14 02:02:28.21: SIM {TimeUS : 52434851, Roll : -0.02, Pitch : -0.07, Yaw : 359.78, Alt : 47.6599998474, Lat : 49.2835703, Lng : -123.1150206, Q1 : 0.999997973442, Q2 : -0.000177414462087, Q3 : -0.000632667564787, Q4 : -0.00191399047617}
2019-04-14 02:02:28.31: SIM {TimeUS : 52534811, Roll : -0.02, Pitch : -0.11, Yaw : 359.77, Alt : 47.8300018311, Lat : 49.2835703, Lng : -123.1150206, Q1 : 0.999997615814, Q2 : -0.000220824149437, Q3 : -0.00101294042543, Q4 : -0.00193549552932}
2019-04-14 02:02:28.41: SIM {TimeUS : 52634771, Roll : -0.03, Pitch : -0.14, Yaw : 359.77, Alt : 47.9900016785, Lat : 49.2835703, Lng : -123.1150206, Q1 : 0.999997198582, Q2 : -0.000317028927384, Q3 : -0.00128620199393, Q4 : -0.00195597857237}
2019-04-14 02:02:28.51: SIM {TimeUS : 52734731, Roll : -0.01, Pitch : -0.14, Yaw : 359.77, Alt : 48.1399993896, Lat : 49.2835703, Lng : -123.1150207, Q1 : 0.999997258186, Q2 : -0.000118532007036, Q3 : -0.00127585092559, Q4 : -0.00196901615709}
2019-04-14 02:02:28.61: SIM {TimeUS : 52834691, Roll : 0.02, Pitch : -0.12, Yaw : 359.77, Alt : 48.2799987793, Lat : 49.2835703, Lng : -123.1150207, Q1 : 0.999997437, Q2 : 0.000177920956048, Q3 : -0.00108449091204, Q4 : -0.00198484072462}
2019-04-14 02:02:28.71: SIM {TimeUS : 52934651, Roll : 0.05, Pitch : -0.09, Yaw : 359.77, Alt : 48.4000015259, Lat : 49.2835703, Lng : -123.1150207, Q1 : 0.999997615814, Q2 : 0.000441402400611, Q3 : -0.0007889859844, Q4 : -0.00200124946423}
2019-04-14 02:02:28.81: SIM {TimeUS : 53034611, Roll : 0.06, Pitch : -0.05, Yaw : 359.76, Alt : 48.5200004578, Lat : 49.2835703, Lng : -123.1150207, Q1 : 0.999997675419, Q2 : 0.000543689820915, Q3 : -0.00047730258666, Q4 : -0.00202072015963}
2019-04-14 02:02:28.91: SIM {TimeUS : 53135404, Roll : 0.06, Pitch : -0.03, Yaw : 359.76, Alt : 48.6199989319, Lat : 49.2835703, Lng : -123.1150207, Q1 : 0.999997675419, Q2 : 0.000599672144745, Q3 : -0.000289102288662, Q4 : -0.00204332498834}
2019-04-14 02:02:29.01: SIM {TimeUS : 53235364, Roll : 0.06, Pitch : -0.03, Yaw : 359.76, Alt : 48.7000007629, Lat : 49.2835704, Lng : -123.1150207, Q1 : 0.999997615814, Q2 : 0.000565030961297, Q3 : -0.000319615355693, Q4 : -0.00207459437661}
2019-04-14 02:02:29.11: SIM {TimeUS : 53335324, Roll : 0.04, Pitch : -0.04, Yaw : 359.75, Alt : 48.7799987793, Lat : 49.2835704, Lng : -123.1150207, Q1 : 0.999997675419, Q2 : 0.000357898563379, Q3 : -0.000368885113858, Q4 : -0.00210650870577}
2019-04-14 02:02:29.21: SIM {TimeUS : 53435284, Roll : 0.02, Pitch : -0.03, Yaw : 359.75, Alt : 48.8499984741, Lat : 49.2835704, Lng : -123.1150207, Q1 : 0.999997615814, Q2 : 0.000197460700292, Q3 : -0.000327487650793, Q4 : -0.00213714689016}
2019-04-14 02:02:29.31: SIM {TimeUS : 53535244, Roll : 0.01, Pitch : -0.03, Yaw : 359.75, Alt : 48.9099998474, Lat : 49.2835704, Lng : -123.1150207, Q1 : 0.999997615814, Q2 : 9.77506279014e-05, Q3 : -0.000285276182694, Q4 : -0.00216766633093}
2019-04-14 02:02:29.41: SIM {TimeUS : 53635204, Roll : 0.0, Pitch : -0.01, Yaw : 359.74, Alt : 48.9500007629, Lat : 49.2835704, Lng : -123.1150207, Q1 : 0.99999755621, Q2 : 5.88237089687e-05, Q3 : -0.000147409780766, Q4 : -0.00219857925549}
2019-04-14 02:02:29.51: SIM {TimeUS : 53735164, Roll : 0.05, Pitch : -0.01, Yaw : 359.74, Alt : 49.0, Lat : 49.2835704, Lng : -123.1150207, Q1 : 0.999997437, Q2 : 0.000457256071968, Q3 : -9.53182025114e-05, Q4 : -0.00222601764835}
2019-04-14 02:02:29.61: SIM {TimeUS : 53835124, Roll : 0.23, Pitch : -0.1, Yaw : 359.74, Alt : 49.0299987793, Lat : 49.2835704, Lng : -123.1150207, Q1 : 0.99999499321, Q2 : 0.00204622582532, Q3 : -0.000892732932698, Q4 : -0.00224566692486}
2019-04-14 02:02:29.71: SIM {TimeUS : 53935084, Roll : 0.62, Pitch : -0.37, Yaw : 359.73, Alt : 49.0600013733, Lat : 49.2835704, Lng : -123.1150207, Q1 : 0.999977231026, Q2 : 0.00546429632232, Q3 : -0.00325112976134, Q4 : -0.0022602842655}
2019-04-14 02:02:29.81: SIM {TimeUS : 54035044, Roll : 1.21, Pitch : -0.79, Yaw : 359.73, Alt : 49.0900001526, Lat : 49.2835704, Lng : -123.1150207, Q1 : 0.999917268753, Q2 : 0.0105828400701, Q3 : -0.00695418007672, Q4 : -0.00227258796804}
2019-04-14 02:02:29.91: SIM {TimeUS : 54135004, Roll : 1.95, Pitch : -1.35, Yaw : 359.71, Alt : 49.1100006104, Lat : 49.2835704, Lng : -123.1150207, Q1 : 0.999781668186, Q2 : 0.0170700866729, Q3 : -0.0118371276185, Q4 : -0.00227600685321}
2019-04-14 02:02:30.01: SIM {TimeUS : 54234964, Roll : 2.79, Pitch : -1.96, Yaw : 359.69, Alt : 49.1300010681, Lat : 49.2835706, Lng : -123.1150206, Q1 : 0.999551534653, Q2 : 0.0243817642331, Q3 : -0.0172404181212, Q4 : -0.00223496975377}
2019-04-14 02:02:30.11: SIM {TimeUS : 54334924, Roll : 3.61, Pitch : -2.54, Yaw : 359.67, Alt : 49.1500015259, Lat : 49.2835707, Lng : -123.1150204, Q1 : 0.999255537987, Q2 : 0.0314459502697, Q3 : -0.0222493130714, Q4 : -0.00212445366196}
2019-04-14 02:02:30.21: SIM {TimeUS : 54434884, Roll : 4.27, Pitch : -3.0, Yaw : 359.66, Alt : 49.1699981689, Lat : 49.2835708, Lng : -123.1150202, Q1 : 0.998958945274, Q2 : 0.0372280403972, Q3 : -0.026293983683, Q4 : -0.0019473269349}
2019-04-14 02:02:30.31: SIM {TimeUS : 54534844, Roll : 4.76, Pitch : -3.33, Yaw : 359.66, Alt : 49.1800003052, Lat : 49.2835709, Lng : -123.11502, Q1 : 0.998710811138, Q2 : 0.0414733216166, Q3 : -0.0292191971093, Q4 : -0.0017067398876}
2019-04-14 02:02:30.41: SIM {TimeUS : 54634804, Roll : 5.11, Pitch : -3.57, Yaw : 359.67, Alt : 49.1899986267, Lat : 49.283571, Lng : -123.1150196, Q1 : 0.99851924181, Q2 : 0.0444720648229, Q3 : -0.0312971547246, Q4 : -0.00144408585038}
2019-04-14 02:02:30.51: SIM {TimeUS : 54734764, Roll : 5.38, Pitch : -3.78, Yaw : 359.68, Alt : 49.2000007629, Lat : 49.2835713, Lng : -123.1150192, Q1 : 0.998353004456, Q2 : 0.0468184575438, Q3 : -0.0331343561411, Q4 : -0.00118319282774}
2019-04-14 02:02:30.61: SIM {TimeUS : 54834724, Roll : 5.65, Pitch : -4.0, Yaw : 359.69, Alt : 49.2099990845, Lat : 49.2835715, Lng : -123.1150186, Q1 : 0.998172938824, Q2 : 0.0492313466966, Q3 : -0.0350181050599, Q4 : -0.000923605170101}
2019-04-14 02:02:30.71: SIM {TimeUS : 54934684, Roll : 5.98, Pitch : -4.22, Yaw : 359.7, Alt : 49.2200012207, Lat : 49.2835719, Lng : -123.1150179, Q1 : 0.997957646847, Q2 : 0.0520772188902, Q3 : -0.0369879826903, Q4 : -0.000656062038615}
2019-04-14 02:02:30.81: SIM {TimeUS : 55034644, Roll : 6.29, Pitch : -4.43, Yaw : 359.71, Alt : 49.2200012207, Lat : 49.2835721, Lng : -123.1150172, Q1 : 0.997745335102, Q2 : 0.0547915734351, Q3 : -0.0387550592422, Q4 : -0.000396243442083}
2019-04-14 02:02:30.91: SIM {TimeUS : 55134604, Roll : 6.54, Pitch : -4.59, Yaw : 359.71, Alt : 49.2299995422, Lat : 49.2835726, Lng : -123.1150163, Q1 : 0.997567296028, Q2 : 0.0569690652192, Q3 : -0.0401747189462, Q4 : -0.000160196752404}
2019-04-14 02:02:31.01: SIM {TimeUS : 55235397, Roll : 6.72, Pitch : -4.73, Yaw : 359.72, Alt : 49.2400016785, Lat : 49.2835731, Lng : -123.1150153, Q1 : 0.997430026531, Q2 : 0.0585193969309, Q3 : -0.0413379855454, Q4 : 2.7445714295e-05}
2019-04-14 02:02:31.11: SIM {TimeUS : 55335357, Roll : 6.85, Pitch : -4.81, Yaw : 359.73, Alt : 49.2400016785, Lat : 49.2835734, Lng : -123.1150143, Q1 : 0.997333526611, Q2 : 0.0596260353923, Q3 : -0.0420776903629, Q4 : 0.000170899133082}
2019-04-14 02:02:31.21: SIM {TimeUS : 55435317, Roll : 6.95, Pitch : -4.87, Yaw : 359.73, Alt : 49.25, Lat : 49.283574, Lng : -123.1150132, Q1 : 0.99726241827, Q2 : 0.0604727827013, Q3 : -0.0425521321595, Q4 : 0.000281318847556}
2019-04-14 02:02:31.31: SIM {TimeUS : 55535277, Roll : 7.05, Pitch : -4.94, Yaw : 359.73, Alt : 49.25, Lat : 49.2835745, Lng : -123.1150119, Q1 : 0.997182071209, Q2 : 0.0613394863904, Q3 : -0.0431888662279, Q4 : 0.000341253733495}
2019-04-14 02:02:31.41: SIM {TimeUS : 55635237, Roll : 7.29, Pitch : -4.94, Yaw : 359.79, Alt : 49.25, Lat : 49.2835751, Lng : -123.1150106, Q1 : 0.997048199177, Q2 : 0.0634603351355, Q3 : -0.043205268681, Q4 : 0.000984681886621}
2019-04-14 02:02:31.51: SIM {TimeUS : 55735197, Roll : 7.79, Pitch : -4.79, Yaw : 0.36, Alt : 49.2599983215, Lat : 49.2835758, Lng : -123.1150092, Q1 : 0.99679851532, Q2 : 0.0680647715926, Q3 : -0.0415217317641, Q4 : 0.00598555011675}
2019-04-14 02:02:31.61: SIM {TimeUS : 55835157, Roll : 8.45, Pitch : -4.63, Yaw : 2.1, Alt : 49.2599983215, Lat : 49.2835764, Lng : -123.1150077, Q1 : 0.996237039566, Q2 : 0.0744161456823, Q3 : -0.0389975756407, Q4 : 0.0212896764278}
2019-04-14 02:02:31.71: SIM {TimeUS : 55935117, Roll : 8.98, Pitch : -4.83, Yaw : 5.41, Alt : 49.2599983215, Lat : 49.2835771, Lng : -123.115006, Q1 : 0.9947707057, Q2 : 0.0801486000419, Q3 : -0.0383461788297, Q4 : 0.0503696538508}
2019-04-14 02:02:31.81: SIM {TimeUS : 56035077, Roll : 9.13, Pitch : -5.54, Yaw : 10.25, Alt : 49.2599983215, Lat : 49.2835779, Lng : -123.1150044, Q1 : 0.991325557232, Q2 : 0.083523966372, Q3 : -0.0409464128315, Q4 : 0.0928481519222}
2019-04-14 02:02:31.91: SIM {TimeUS : 56135037, Roll : 8.74, Pitch : -6.75, Yaw : 16.41, Alt : 49.2599983215, Lat : 49.2835786, Lng : -123.1150026, Q1 : 0.984525084496, Q2 : 0.0837050899863, Q3 : -0.0472695715725, Q4 : 0.146524325013}
2019-04-14 02:02:32.01: SIM {TimeUS : 56234997, Roll : 7.74, Pitch : -8.29, Yaw : 23.63, Alt : 49.2700004578, Lat : 49.2835794, Lng : -123.1150005, Q1 : 0.973015189171, Q2 : 0.0807294100523, Q3 : -0.056833781302, Q4 : 0.208552628756}
2019-04-14 02:02:32.11: SIM {TimeUS : 56334957, Roll : 6.15, Pitch : -9.93, Yaw : 31.66, Alt : 49.2700004578, Lat : 49.28358, Lng : -123.1149986, Q1 : 0.955800294876, Q2 : 0.074997715652, Q3 : -0.0685725584626, Q4 : 0.275896638632}
2019-04-14 02:02:32.21: SIM {TimeUS : 56434917, Roll : 4.02, Pitch : -11.41, Yaw : 40.26, Alt : 49.2700004578, Lat : 49.2835808, Lng : -123.1149964, Q1 : 0.932481348515, Q2 : 0.0670300424099, Q3 : -0.0812425538898, Q4 : 0.34552153945}
2019-04-14 02:02:32.31: SIM {TimeUS : 56534877, Roll : 1.28, Pitch : -12.53, Yaw : 48.99, Alt : 49.2700004578, Lat : 49.2835817, Lng : -123.1149941, Q1 : 0.903961479664, Q2 : 0.0554247014225, Q3 : -0.094729103148, Q4 : 0.41328945756}
2019-04-14 02:02:32.41: SIM {TimeUS : 56634837, Roll : -1.89, Pitch : -13.11, Yaw : 57.06, Alt : 49.2700004578, Lat : 49.2835825, Lng : -123.1149917, Q1 : 0.873586058617, Q2 : 0.0401128605008, Q3 : -0.108142144978, Q4 : 0.472804039717}
2019-04-14 02:02:32.51: SIM {TimeUS : 56734797, Roll : -4.87, Pitch : -13.16, Yaw : 63.59, Alt : 49.2700004578, Lat : 49.2835836, Lng : -123.1149893, Q1 : 0.846109926701, Q2 : 0.0244156830013, Q3 : -0.119583763182, Q4 : 0.518846452236}
2019-04-14 02:02:32.61: SIM {TimeUS : 56834757, Roll : -7.08, Pitch : -12.92, Yaw : 68.09, Alt : 49.2700004578, Lat : 49.2835846, Lng : -123.1149868, Q1 : 0.82563585043, Q2 : 0.0119965197518, Q3 : -0.127457812428, Q4 : 0.549487054348}
2019-04-14 02:02:32.71: SIM {TimeUS : 56934717, Roll : -8.24, Pitch : -12.66, Yaw : 70.51, Alt : 49.2700004578, Lat : 49.2835858, Lng : -123.1149842, Q1 : 0.814064621925, Q2 : 0.00511861825362, Q3 : -0.131063848734, Q4 : 0.565769314766}
2019-04-14 02:02:32.81: SIM {TimeUS : 57034677, Roll : -8.35, Pitch : -12.57, Yaw : 71.11, Alt : 49.2700004578, Lat : 49.2835871, Lng : -123.1149815, Q1 : 0.811124682426, Q2 : 0.00458699651062, Q3 : -0.130962267518, Q4 : 0.570004045963}
2019-04-14 02:02:32.91: SIM {TimeUS : 57134637, Roll : -7.6, Pitch : -12.75, Yaw : 70.25, Alt : 49.2700004578, Lat : 49.2835884, Lng : -123.1149789, Q1 : 0.81524181366, Q2 : 0.00990577973425, Q3 : -0.128590077162, Q4 : 0.564577102661}
2019-04-14 02:02:33.01: SIM {TimeUS : 57234597, Roll : -6.23, Pitch : -13.21, Yaw : 68.3, Alt : 49.2700004578, Lat : 49.2835898, Lng : -123.1149761, Q1 : 0.824339807034, Q2 : 0.0197852831334, Q3 : -0.125424593687, Q4 : 0.551671147346}
2019-04-14 02:02:33.11: SIM {TimeUS : 57335390, Roll : -4.47, Pitch : -13.87, Yaw : 65.57, Alt : 49.2799987793, Lat : 49.2835914, Lng : -123.1149733, Q1 : 0.836462438107, Q2 : 0.0327739715576, Q3 : -0.122436985373, Q4 : 0.533165633678}
2019-04-14 02:02:33.21: SIM {TimeUS : 57435350, Roll : -2.56, Pitch : -14.59, Yaw : 62.41, Alt : 49.2799987793, Lat : 49.2835929, Lng : -123.1149705, Q1 : 0.849623680115, Q2 : 0.0467991903424, Q3 : -0.120137766004, Q4 : 0.511386632919}
2019-04-14 02:02:33.31: SIM {TimeUS : 57535310, Roll : -0.68, Pitch : -15.23, Yaw : 59.13, Alt : 49.2799987793, Lat : 49.2835946, Lng : -123.1149675, Q1 : 0.862496614456, Q2 : 0.0602183453739, Q3 : -0.118224814534, Q4 : 0.488360762596}
2019-04-14 02:02:33.41: SIM {TimeUS : 57635270, Roll : 0.99, Pitch : -15.66, Yaw : 56.04, Alt : 49.2799987793, Lat : 49.2835963, Lng : -123.1149644, Q1 : 0.873925447464, Q2 : 0.0716069564223, Q3 : -0.116307854652, Q4 : 0.466475397348}
2019-04-14 02:02:33.51: SIM {TimeUS : 57735230, Roll : 2.32, Pitch : -15.87, Yaw : 53.47, Alt : 49.2799987793, Lat : 49.283598, Lng : -123.1149612, Q1 : 0.883085787296, Q2 : 0.0800622850657, Q3 : -0.114230774343, Q4 : 0.447996556759}
2019-04-14 02:02:33.61: SIM {TimeUS : 57835190, Roll : 3.23, Pitch : -15.89, Yaw : 51.61, Alt : 49.2799987793, Lat : 49.2835995, Lng : -123.1149579, Q1 : 0.889555752277, Q2 : 0.0853430554271, Q3 : -0.112234637141, Q4 : 0.434523373842}
2019-04-14 02:02:33.71: SIM {TimeUS : 57935150, Roll : 3.67, Pitch : -15.84, Yaw : 50.56, Alt : 49.2799987793, Lat : 49.2836013, Lng : -123.1149543, Q1 : 0.89324682951, Q2 : 0.0875572264194, Q3 : -0.110976941884, Q4 : 0.426764458418}
2019-04-14 02:02:33.81: SIM {TimeUS : 58035110, Roll : 3.65, Pitch : -15.8, Yaw : 50.28, Alt : 49.2799987793, Lat : 49.283603, Lng : -123.1149509, Q1 : 0.89433658123, Q2 : 0.0870018750429, Q3 : -0.110930018127, Q4 : 0.42460244894}
2019-04-14 02:02:33.91: SIM {TimeUS : 58135070, Roll : 3.23, Pitch : -15.82, Yaw : 50.68, Alt : 49.2799987793, Lat : 49.2836047, Lng : -123.1149472, Q1 : 0.893157064915, Q2 : 0.0841799303889, Q3 : -0.112369269133, Q4 : 0.427267372608}
2019-04-14 02:02:34.01: SIM {TimeUS : 58235030, Roll : 2.52, Pitch : -15.89, Yaw : 51.58, Alt : 49.2799987793, Lat : 49.2836063, Lng : -123.1149434, Q1 : 0.890169978142, Q2 : 0.0797962546349, Q3 : -0.114937707782, Q4 : 0.433611929417}
2019-04-14 02:02:34.11: SIM {TimeUS : 58334990, Roll : 1.66, Pitch : -15.99, Yaw : 52.82, Alt : 49.2799987793, Lat : 49.283608, Lng : -123.1149395, Q1 : 0.885903060436, Q2 : 0.0748108550906, Q3 : -0.118198566139, Q4 : 0.44227617979}
2019-04-14 02:02:34.21: SIM {TimeUS : 58434950, Roll : 0.76, Pitch : -16.12, Yaw : 54.19, Alt : 49.2799987793, Lat : 49.2836098, Lng : -123.1149355, Q1 : 0.880974113941, Q2 : 0.0697665736079, Q3 : -0.121851444244, Q4 : 0.451851129532}
2019-04-14 02:02:34.31: SIM {TimeUS : 58534910, Roll : -0.05, Pitch : -16.25, Yaw : 55.53, Alt : 49.2799987793, Lat : 49.2836115, Lng : -123.1149315, Q1 : 0.87599414587, Q2 : 0.0653971359134, Q3 : -0.125301927328, Q4 : 0.461147397757}
2019-04-14 02:02:34.41: SIM {TimeUS : 58634870, Roll : -0.71, Pitch : -16.33, Yaw : 56.69, Alt : 49.2900009155, Lat : 49.2836133, Lng : -123.1149274, Q1 : 0.871551692486, Q2 : 0.0620418339968, Q3 : -0.127941980958, Q4 : 0.469232797623}
2019-04-14 02:02:34.51: SIM {TimeUS : 58734830, Roll : -1.17, Pitch : -16.37, Yaw : 57.58, Alt : 49.2900009155, Lat : 49.2836152, Lng : -123.1149233, Q1 : 0.868088185787, Q2 : 0.0597113072872, Q3 : -0.129709526896, Q4 : 0.475429147482}
2019-04-14 02:02:34.61: SIM {TimeUS : 58834790, Roll : -1.43, Pitch : -16.41, Yaw : 58.15, Alt : 49.2900009155, Lat : 49.283617, Lng : -123.1149191, Q1 : 0.865829527378, Q2 : 0.0585146397352, Q3 : -0.130808025599, Q4 : 0.479379355907}
2019-04-14 02:02:34.71: SIM {TimeUS : 58934750, Roll : -1.5, Pitch : -16.45, Yaw : 58.38, Alt : 49.2900009155, Lat : 49.2836189, Lng : -123.1149148, Q1 : 0.864842295647, Q2 : 0.0584483072162, Q3 : -0.131296277046, Q4 : 0.481033205986}
2019-04-14 02:02:34.81: SIM {TimeUS : 59034710, Roll : -1.4, Pitch : -16.51, Yaw : 58.31, Alt : 49.2900009155, Lat : 49.2836207, Lng : -123.1149105, Q1 : 0.865018785, Q2 : 0.059353493154, Q3 : -0.131288290024, Q4 : 0.480607002974}
2019-04-14 02:02:34.91: SIM {TimeUS : 59134670, Roll : -1.16, Pitch : -16.55, Yaw : 58.0, Alt : 49.2900009155, Lat : 49.2836227, Lng : -123.1149063, Q1 : 0.866136550903, Q2 : 0.0609743781388, Q3 : -0.130800843239, Q4 : 0.47851935029}
2019-04-14 02:02:35.01: SIM {TimeUS : 59234630, Roll : -0.84, Pitch : -16.6, Yaw : 57.53, Alt : 49.2900009155, Lat : 49.2836247, Lng : -123.1149019, Q1 : 0.867886841297, Q2 : 0.0631098002195, Q3 : -0.130029037595, Q4 : 0.475270569324}
2019-04-14 02:02:35.11: SIM {TimeUS : 59334590, Roll : -0.46, Pitch : -16.64, Yaw : 56.97, Alt : 49.2900009155, Lat : 49.2836267, Lng : -123.1148975, Q1 : 0.869955539703, Q2 : 0.065462090075, Q3 : -0.129120483994, Q4 : 0.471402138472}
2019-04-14 02:02:35.21: SIM {TimeUS : 59435383, Roll : -0.09, Pitch : -16.67, Yaw : 56.39, Alt : 49.2900009155, Lat : 49.2836287, Lng : -123.114893, Q1 : 0.872072815895, Q2 : 0.067775323987, Q3 : -0.128222435713, Q4 : 0.467391163111}
2019-04-14 02:02:35.31: SIM {TimeUS : 59535343, Roll : 0.22, Pitch : -16.7, Yaw : 55.86, Alt : 49.2900009155, Lat : 49.2836308, Lng : -123.1148885, Q1 : 0.873971104622, Q2 : 0.0697923898697, Q3 : -0.1274227947, Q4 : 0.46375310421}
2019-04-14 02:02:35.41: SIM {TimeUS : 59635303, Roll : 0.48, Pitch : -16.73, Yaw : 55.44, Alt : 49.2900009155, Lat : 49.2836328, Lng : -123.114884, Q1 : 0.875496089458, Q2 : 0.071387052536, Q3 : -0.126881539822, Q4 : 0.460772812366}
2019-04-14 02:02:35.51: SIM {TimeUS : 59735263, Roll : 0.64, Pitch : -16.76, Yaw : 55.14, Alt : 49.2900009155, Lat : 49.2836348, Lng : -123.1148794, Q1 : 0.8765578866, Q2 : 0.072405397892, Q3 : -0.126659035683, Q4 : 0.458651572466}
2019-04-14 02:02:35.61: SIM {TimeUS : 59835223, Roll : 0.7, Pitch : -16.8, Yaw : 54.98, Alt : 49.2900009155, Lat : 49.283637, Lng : -123.1148748, Q1 : 0.877134203911, Q2 : 0.0728504657745, Q3 : -0.1267863065, Q4 : 0.457442462444}
2019-04-14 02:02:35.71: SIM {TimeUS : 59935183, Roll : 0.67, Pitch : -16.84, Yaw : 54.94, Alt : 49.2900009155, Lat : 49.283639, Lng : -123.1148702, Q1 : 0.877242743969, Q2 : 0.0727748945355, Q3 : -0.127275675535, Q4 : 0.457110404968}
2019-04-14 02:02:35.81: SIM {TimeUS : 60035143, Roll : 0.57, Pitch : -16.89, Yaw : 55.01, Alt : 49.2900009155, Lat : 49.283641, Lng : -123.1148655, Q1 : 0.876964747906, Q2 : 0.0722568109632, Q3 : -0.128006741405, Q4 : 0.457521617413}
2019-04-14 02:02:35.91: SIM {TimeUS : 60135103, Roll : 0.41, Pitch : -16.93, Yaw : 55.16, Alt : 49.2999992371, Lat : 49.2836432, Lng : -123.1148607, Q1 : 0.876415848732, Q2 : 0.0713703483343, Q3 : -0.128873378038, Q4 : 0.458468347788}
2019-04-14 02:02:36.01: SIM {TimeUS : 60235063, Roll : 0.22, Pitch : -16.96, Yaw : 55.36, Alt : 49.2999992371, Lat : 49.2836452, Lng : -123.114856, Q1 : 0.875713169575, Q2 : 0.0702586323023, Q3 : -0.12968467176, Q4 : 0.459752202034}
2019-04-14 02:02:36.11: SIM {TimeUS : 60335023, Roll : 0.04, Pitch : -16.98, Yaw : 55.57, Alt : 49.2999992371, Lat : 49.2836474, Lng : -123.1148512, Q1 : 0.874942243099, Q2 : 0.0691757425666, Q3 : -0.130518972874, Q4 : 0.461145937443}
2019-04-14 02:02:36.21: SIM {TimeUS : 60434983, Roll : -0.1, Pitch : -17.02, Yaw : 55.77, Alt : 49.2999992371, Lat : 49.2836494, Lng : -123.1148463, Q1 : 0.874179959297, Q2 : 0.0684729292989, Q3 : -0.13127951324, Q4 : 0.4624786973}
2019-04-14 02:02:36.31: SIM {TimeUS : 60534943, Roll : -0.19, Pitch : -17.07, Yaw : 55.94, Alt : 49.2999992371, Lat : 49.2836516, Lng : -123.1148415, Q1 : 0.873522758484, Q2 : 0.0681171044707, Q3 : -0.131922513247, Q4 : 0.463588684797}
2019-04-14 02:02:36.41: SIM {TimeUS : 60634903, Roll : -0.24, Pitch : -17.11, Yaw : 56.05, Alt : 49.2999992371, Lat : 49.2836537, Lng : -123.1148366, Q1 : 0.873039662838, Q2 : 0.0680883228779, Q3 : -0.132373586297, Q4 : 0.464373767376}
2019-04-14 02:02:36.51: SIM {TimeUS : 60734863, Roll : -0.24, Pitch : -17.16, Yaw : 56.11, Alt : 49.2999992371, Lat : 49.283656, Lng : -123.1148317, Q1 : 0.872761905193, Q2 : 0.0683098211884, Q3 : -0.132665634155, Q4 : 0.464779794216}
2019-04-14 02:02:36.61: SIM {TimeUS : 60834823, Roll : -0.22, Pitch : -17.19, Yaw : 56.11, Alt : 49.2999992371, Lat : 49.283658, Lng : -123.1148268, Q1 : 0.872705936432, Q2 : 0.0685851052403, Q3 : -0.132831543684, Q4 : 0.464796960354}
2019-04-14 02:02:36.71: SIM {TimeUS : 60934783, Roll : -0.19, Pitch : -17.2, Yaw : 56.06, Alt : 49.2999992371, Lat : 49.2836603, Lng : -123.1148218, Q1 : 0.872849881649, Q2 : 0.0688019394875, Q3 : -0.132871687412, Q4 : 0.464483082294}
2019-04-14 02:02:36.81: SIM {TimeUS : 61034743, Roll : -0.16, Pitch : -17.22, Yaw : 55.98, Alt : 49.2999992371, Lat : 49.2836625, Lng : -123.1148169, Q1 : 0.873138129711, Q2 : 0.0690254569054, Q3 : -0.132861703634, Q4 : 0.463910669088}
2019-04-14 02:02:36.91: SIM {TimeUS : 61134703, Roll : -0.1, Pitch : -17.22, Yaw : 55.88, Alt : 49.3100013733, Lat : 49.2836646, Lng : -123.1148119, Q1 : 0.873512685299, Q2 : 0.0694270655513, Q3 : -0.13273306191, Q4 : 0.46318179369}
2019-04-14 02:02:37.01: SIM {TimeUS : 61234663, Roll : -0.02, Pitch : -17.24, Yaw : 55.76, Alt : 49.3100013733, Lat : 49.283667, Lng : -123.1148069, Q1 : 0.873913526535, Q2 : 0.0699114352465, Q3 : -0.132672816515, Q4 : 0.462369441986}
2019-04-14 02:02:37.11: SIM {TimeUS : 61334623, Roll : 0.05, Pitch : -17.29, Yaw : 55.65, Alt : 49.3100013733, Lat : 49.2836692, Lng : -123.1148019, Q1 : 0.87427431345, Q2 : 0.0705757588148, Q3 : -0.132752791047, Q4 : 0.461562871933}
2019-04-14 02:02:37.21: SIM {TimeUS : 61434583, Roll : 0.12, Pitch : -17.35, Yaw : 55.55, Alt : 49.3100013733, Lat : 49.2836713, Lng : -123.1147968, Q1 : 0.87456458807, Q2 : 0.071289665997, Q3 : -0.132964596152, Q4 : 0.460841625929}
2019-04-14 02:02:37.31: SIM {TimeUS : 61535376, Roll : 0.18, Pitch : -17.38, Yaw : 55.47, Alt : 49.3100013733, Lat : 49.2836736, Lng : -123.1147917, Q1 : 0.874822556973, Q2 : 0.0717313140631, Q3 : -0.13304746151, Q4 : 0.46025916934}
2019-04-14 02:02:37.41: SIM {TimeUS : 61635336, Roll : 0.21, Pitch : -17.37, Yaw : 55.41, Alt : 49.3100013733, Lat : 49.2836759, Lng : -123.1147867, Q1 : 0.875045478344, Q2 : 0.0718556940556, Q3 : -0.13290348649, Q4 : 0.45985737443}
2019-04-14 02:02:37.51: SIM {TimeUS : 61735296, Roll : 0.21, Pitch : -17.37, Yaw : 55.37, Alt : 49.3100013733, Lat : 49.2836782, Lng : -123.1147816, Q1 : 0.875187337399, Q2 : 0.0718095079064, Q3 : -0.13289116323, Q4 : 0.459598273039}
2019-04-14 02:02:37.61: SIM {TimeUS : 61835256, Roll : 0.19, Pitch : -17.39, Yaw : 55.36, Alt : 49.3100013733, Lat : 49.2836804, Lng : -123.1147765, Q1 : 0.875234305859, Q2 : 0.0717341899872, Q3 : -0.133108556271, Q4 : 0.459457606077}
2019-04-14 02:02:37.71: SIM {TimeUS : 61935216, Roll : 0.18, Pitch : -17.41, Yaw : 55.36, Alt : 49.3100013733, Lat : 49.2836827, Lng : -123.1147713, Q1 : 0.875215411186, Q2 : 0.0717188417912, Q3 : -0.133340984583, Q4 : 0.459428489208}
2019-04-14 02:02:37.81: SIM {TimeUS : 62035176, Roll : 0.16, Pitch : -17.44, Yaw : 55.37, Alt : 49.3100013733, Lat : 49.283685, Lng : -123.1147662, Q1 : 0.875140190125, Q2 : 0.0717517957091, Q3 : -0.133644238114, Q4 : 0.459478527308}
2019-04-14 02:02:37.91: SIM {TimeUS : 62135136, Roll : 0.14, Pitch : -17.47, Yaw : 55.39, Alt : 49.3100013733, Lat : 49.2836872, Lng : -123.114761, Q1 : 0.875045835972, Q2 : 0.0717433467507, Q3 : -0.133896023035, Q4 : 0.459586322308}
2019-04-14 02:02:38.01: SIM {TimeUS : 62235096, Roll : 0.13, Pitch : -17.49, Yaw : 55.41, Alt : 49.3100013733, Lat : 49.2836895, Lng : -123.1147559, Q1 : 0.874949514866, Q2 : 0.0717326402664, Q3 : -0.134127929807, Q4 : 0.459703683853}
2019-04-14 02:02:38.11: SIM {TimeUS : 62335056, Roll : 0.11, Pitch : -17.51, Yaw : 55.43, Alt : 49.3199996948, Lat : 49.2836919, Lng : -123.1147506, Q1 : 0.874863147736, Q2 : 0.0717232599854, Q3 : -0.134304657578, Q4 : 0.45981785655}
2019-04-14 02:02:38.21: SIM {TimeUS : 62435016, Roll : 0.11, Pitch : -17.53, Yaw : 55.44, Alt : 49.3199996948, Lat : 49.2836942, Lng : -123.1147455, Q1 : 0.874791800976, Q2 : 0.0717492848635, Q3 : -0.134479671717, Q4 : 0.459898471832}
2019-04-14 02:02:38.31: SIM {TimeUS : 62534976, Roll : 0.11, Pitch : -17.56, Yaw : 55.45, Alt : 49.3199996948, Lat : 49.2836965, Lng : -123.1147403, Q1 : 0.874729990959, Q2 : 0.0718877613544, Q3 : -0.134730368853, Q4 : 0.459920972586}
2019-04-14 02:02:38.41: SIM {TimeUS : 62634936, Roll : 0.1, Pitch : -17.6, Yaw : 55.44, Alt : 49.3199996948, Lat : 49.2836987, Lng : -123.1147351, Q1 : 0.874698102474, Q2 : 0.072004109621, Q3 : -0.135080456734, Q4 : 0.459860801697}
2019-04-14 02:02:38.51: SIM {TimeUS : 62734896, Roll : 0.07, Pitch : -17.65, Yaw : 55.43, Alt : 49.3199996948, Lat : 49.283701, Lng : -123.1147298, Q1 : 0.874705731869, Q2 : 0.0719927325845, Q3 : -0.13554918766, Q4 : 0.459710091352}
2019-04-14 02:02:38.61: SIM {TimeUS : 62834856, Roll : 0.06, Pitch : -17.7, Yaw : 55.41, Alt : 49.3199996948, Lat : 49.2837034, Lng : -123.1147246, Q1 : 0.874736905098, Q2 : 0.0720634385943, Q3 : -0.135935127735, Q4 : 0.459525734186}
2019-04-14 02:02:38.71: SIM {TimeUS : 62934816, Roll : 0.09, Pitch : -17.73, Yaw : 55.39, Alt : 49.3199996948, Lat : 49.2837058, Lng : -123.1147193, Q1 : 0.874788045883, Q2 : 0.0723194628954, Q3 : -0.136089861393, Q4 : 0.459342300892}
2019-04-14 02:02:38.81: SIM {TimeUS : 63034776, Roll : 0.12, Pitch : -17.72, Yaw : 55.36, Alt : 49.3199996948, Lat : 49.2837081, Lng : -123.114714, Q1 : 0.874882221222, Q2 : 0.0725344270468, Q3 : -0.135960787535, Q4 : 0.459167152643}
2019-04-14 02:02:38.91: SIM {TimeUS : 63134736, Roll : 0.15, Pitch : -17.7, Yaw : 55.33, Alt : 49.3199996948, Lat : 49.2837105, Lng : -123.1147088, Q1 : 0.875008106232, Q2 : 0.0726546570659, Q3 : -0.135648801923, Q4 : 0.459000557661}
2019-04-14 02:02:39.01: SIM {TimeUS : 63234696, Roll : 0.16, Pitch : -17.68, Yaw : 55.3, Alt : 49.3199996948, Lat : 49.2837127, Lng : -123.1147035, Q1 : 0.875138998032, Q2 : 0.0725789889693, Q3 : -0.135478839278, Q4 : 0.458813160658}
2019-04-14 02:02:39.11: SIM {TimeUS : 63334656, Roll : 0.16, Pitch : -17.66, Yaw : 55.28, Alt : 49.3199996948, Lat : 49.2837151, Lng : -123.1146982, Q1 : 0.87526267767, Q2 : 0.0724674910307, Q3 : -0.135374560952, Q4 : 0.458625644445}
2019-04-14 02:02:39.21: SIM {TimeUS : 63434616, Roll : 0.15, Pitch : -17.65, Yaw : 55.26, Alt : 49.3199996948, Lat : 49.2837175, Lng : -123.1146928, Q1 : 0.875372886658, Q2 : 0.0723575800657, Q3 : -0.135292038321, Q4 : 0.458456903696}
2019-04-14 02:02:39.31: SIM {TimeUS : 63534576, Roll : 0.14, Pitch : -17.66, Yaw : 55.24, Alt : 49.3199996948, Lat : 49.2837199, Lng : -123.1146874, Q1 : 0.875443339348, Q2 : 0.0722995698452, Q3 : -0.135464340448, Q4 : 0.458280652761}
2019-04-14 02:02:39.41: SIM {TimeUS : 63635369, Roll : 0.13, Pitch : -17.69, Yaw : 55.22, Alt : 49.3199996948, Lat : 49.2837223, Lng : -123.1146821, Q1 : 0.875478386879, Q2 : 0.072346739471, Q3 : -0.135779470205, Q4 : 0.458112925291}
2019-04-14 02:02:39.51: SIM {TimeUS : 63735329, Roll : 0.12, Pitch : -17.75, Yaw : 55.2, Alt : 49.3199996948, Lat : 49.2837247, Lng : -123.1146768, Q1 : 0.875472664833, Q2 : 0.0724769830704, Q3 : -0.13625408709, Q4 : 0.457962363958}
2019-04-14 02:02:39.61: SIM {TimeUS : 63835289, Roll : 0.12, Pitch : -17.81, Yaw : 55.19, Alt : 49.3300018311, Lat : 49.283727, Lng : -123.1146714, Q1 : 0.875449061394, Q2 : 0.0726948082447, Q3 : -0.13673466444, Q4 : 0.457829713821}
2019-04-14 02:02:39.71: SIM {TimeUS : 63935249, Roll : 0.13, Pitch : -17.84, Yaw : 55.18, Alt : 49.3300018311, Lat : 49.2837294, Lng : -123.1146661, Q1 : 0.875441968441, Q2 : 0.0728997290134, Q3 : -0.136944890022, Q4 : 0.457747846842}
2019-04-14 02:02:39.81: SIM {TimeUS : 64035209, Roll : 0.13, Pitch : -17.87, Yaw : 55.17, Alt : 49.3300018311, Lat : 49.2837318, Lng : -123.1146606, Q1 : 0.875450909138, Q2 : 0.0729686766863, Q3 : -0.137139558792, Q4 : 0.457661449909}
2019-04-14 02:02:39.91: SIM {TimeUS : 64135169, Roll : 0.12, Pitch : -17.88, Yaw : 55.16, Alt : 49.3300018311, Lat : 49.2837342, Lng : -123.1146553, Q1 : 0.875474750996, Q2 : 0.0729713216424, Q3 : -0.137263581157, Q4 : 0.457578241825}
2019-04-14 02:02:40.01: SIM {TimeUS : 64235129, Roll : 0.14, Pitch : -17.87, Yaw : 55.15, Alt : 49.3300018311, Lat : 49.2837366, Lng : -123.1146499, Q1 : 0.875516831875, Q2 : 0.0730173140764, Q3 : -0.137118414044, Q4 : 0.457533955574}
2019-04-14 02:02:40.11: SIM {TimeUS : 64335089, Roll : 0.16, Pitch : -17.88, Yaw : 55.14, Alt : 49.3300018311, Lat : 49.283739, Lng : -123.1146445, Q1 : 0.875528633595, Q2 : 0.0732323154807, Q3 : -0.137083515525, Q4 : 0.457487404346}
2019-04-14 02:02:40.21: SIM {TimeUS : 64435049, Roll : 0.18, Pitch : -17.9, Yaw : 55.14, Alt : 49.3300018311, Lat : 49.2837413, Lng : -123.1146391, Q1 : 0.875535309315, Q2 : 0.0733923390508, Q3 : -0.137195974588, Q4 : 0.457415312529}
2019-04-14 02:02:40.31: SIM {TimeUS : 64535009, Roll : 0.18, Pitch : -17.91, Yaw : 55.13, Alt : 49.3300018311, Lat : 49.2837437, Lng : -123.1146337, Q1 : 0.875549435616, Q2 : 0.0735109448433, Q3 : -0.137293159962, Q4 : 0.457340091467}
2019-04-14 02:02:40.41: SIM {TimeUS : 64634969, Roll : 0.18, Pitch : -17.91, Yaw : 55.11, Alt : 49.3300018311, Lat : 49.2837461, Lng : -123.1146283, Q1 : 0.875602900982, Q2 : 0.0734688788652, Q3 : -0.137257099152, Q4 : 0.457255244255}
2019-04-14 02:02:40.51: SIM {TimeUS : 64734929, Roll : 0.17, Pitch : -17.91, Yaw : 55.1, Alt : 49.3300018311, Lat : 49.2837485, Lng : -123.1146229, Q1 : 0.875661492348, Q2 : 0.0733766853809, Q3 : -0.137288600206, Q4 : 0.457148492336}
2019-04-14 02:02:40.61: SIM {TimeUS : 64834889, Roll : 0.15, Pitch : -17.92, Yaw : 55.09, Alt : 49.3300018311, Lat : 49.2837509, Lng : -123.1146175, Q1 : 0.87571054697, Q2 : 0.073239043355, Q3 : -0.137532517314, Q4 : 0.457003176212}
2019-04-14 02:02:40.71: SIM {TimeUS : 64934849, Roll : 0.12, Pitch : -17.96, Yaw : 55.07, Alt : 49.3300018311, Lat : 49.2837533, Lng : -123.114612, Q1 : 0.875746369362, Q2 : 0.0731283128262, Q3 : -0.137953355908, Q4 : 0.456825375557}
2019-04-14 02:02:40.81: SIM {TimeUS : 65034809, Roll : 0.11, Pitch : -17.97, Yaw : 55.06, Alt : 49.3300018311, Lat : 49.2837558, Lng : -123.1146065, Q1 : 0.875808656216, Q2 : 0.0730592235923, Q3 : -0.138073548675, Q4 : 0.456680655479}
2019-04-14 02:02:40.91: SIM {TimeUS : 65134769, Roll : 0.12, Pitch : -17.96, Yaw : 55.04, Alt : 49.3300018311, Lat : 49.2837582, Lng : -123.114601, Q1 : 0.875879824162, Q2 : 0.0730888918042, Q3 : -0.137939363718, Q4 : 0.456580042839}
2019-04-14 02:02:41.01: SIM {TimeUS : 65234729, Roll : 0.14, Pitch : -17.95, Yaw : 55.02, Alt : 49.3300018311, Lat : 49.2837606, Lng : -123.1145957, Q1 : 0.875938713551, Q2 : 0.0732190161943, Q3 : -0.137766316533, Q4 : 0.456498473883}
2019-04-14 02:02:41.11: SIM {TimeUS : 65334689, Roll : 0.16, Pitch : -17.95, Yaw : 55.01, Alt : 49.3400001526, Lat : 49.2837631, Lng : -123.1145902, Q1 : 0.87597900629, Q2 : 0.0733700543642, Q3 : -0.137746617198, Q4 : 0.45640283823}
2019-04-14 02:02:41.21: SIM {TimeUS : 65434649, Roll : 0.16, Pitch : -17.97, Yaw : 55.0, Alt : 49.3400001526, Lat : 49.2837655, Lng : -123.1145848, Q1 : 0.876008093357, Q2 : 0.0734112784266, Q3 : -0.137937054038, Q4 : 0.456282824278}
2019-04-14 02:02:41.31: SIM {TimeUS : 65534609, Roll : 0.14, Pitch : -18.0, Yaw : 54.98, Alt : 49.3400001526, Lat : 49.2837679, Lng : -123.1145793, Q1 : 0.876042664051, Q2 : 0.0733130797744, Q3 : -0.138204678893, Q4 : 0.45615118742}
2019-04-14 02:02:41.41: SIM {TimeUS : 65635402, Roll : 0.12, Pitch : -18.02, Yaw : 54.97, Alt : 49.3400001526, Lat : 49.2837704, Lng : -123.1145737, Q1 : 0.876071870327, Q2 : 0.0732469260693, Q3 : -0.138443633914, Q4 : 0.456033319235}
2019-04-14 02:02:41.51: SIM {TimeUS : 65735362, Roll : 0.12, Pitch : -18.04, Yaw : 54.96, Alt : 49.3400001526, Lat : 49.2837728, Lng : -123.1145682, Q1 : 0.876088857651, Q2 : 0.0733321234584, Q3 : -0.138627260923, Q4 : 0.455931186676}
2019-04-14 02:02:41.61: SIM {TimeUS : 65835322, Roll : 0.13, Pitch : -18.06, Yaw : 54.95, Alt : 49.3400001526, Lat : 49.2837753, Lng : -123.1145627, Q1 : 0.876104772091, Q2 : 0.0734654590487, Q3 : -0.138715535402, Q4 : 0.455852299929}
2019-04-14 02:02:41.71: SIM {TimeUS : 65935282, Roll : 0.16, Pitch : -18.06, Yaw : 54.94, Alt : 49.3400001526, Lat : 49.2837777, Lng : -123.1145574, Q1 : 0.876109957695, Q2 : 0.0737103074789, Q3 : -0.138637632132, Q4 : 0.455826401711}
2019-04-14 02:02:41.81: SIM {TimeUS : 66035242, Roll : 0.18, Pitch : -18.07, Yaw : 54.94, Alt : 49.3400001526, Lat : 49.2837802, Lng : -123.1145519, Q1 : 0.876105546951, Q2 : 0.0739107728004, Q3 : -0.138615742326, Q4 : 0.455809146166}
2019-04-14 02:02:41.91: SIM {TimeUS : 66135202, Roll : 0.21, Pitch : -18.08, Yaw : 54.93, Alt : 49.3400001526, Lat : 49.2837826, Lng : -123.1145464, Q1 : 0.876098334789, Q2 : 0.0741074085236, Q3 : -0.138621747494, Q4 : 0.455789238214}
2019-04-14 02:02:42.01: SIM {TimeUS : 66235162, Roll : 0.22, Pitch : -18.09, Yaw : 54.93, Alt : 49.3400001526, Lat : 49.2837851, Lng : -123.1145409, Q1 : 0.876090109348, Q2 : 0.0742753148079, Q3 : -0.138646677136, Q4 : 0.455770075321}
2019-04-14 02:02:42.11: SIM {TimeUS : 66335122, Roll : 0.24, Pitch : -18.1, Yaw : 54.92, Alt : 49.3400001526, Lat : 49.2837875, Lng : -123.1145354, Q1 : 0.876077115536, Q2 : 0.0744785368443, Q3 : -0.138659596443, Q4 : 0.455758035183}
2019-04-14 02:02:42.21: SIM {TimeUS : 66435082, Roll : 0.27, Pitch : -18.12, Yaw : 54.92, Alt : 49.3400001526, Lat : 49.2837901, Lng : -123.1145299, Q1 : 0.876056492329, Q2 : 0.0747162476182, Q3 : -0.138689115644, Q4 : 0.45574977994}
2019-04-14 02:02:42.31: SIM {TimeUS : 66535042, Roll : 0.26, Pitch : -18.12, Yaw : 54.92, Alt : 49.3499984741, Lat : 49.2837926, Lng : -123.1145244, Q1 : 0.876072585583, Q2 : 0.0746470019221, Q3 : -0.138738334179, Q4 : 0.455715239048}
