2019-04-14 01:29:36.80: SIM {TimeUS : 40416327, Roll : 0.0, Pitch : 0.0, Yaw : 0.0, Alt : 30.1000003815, Lat : 49.28357, Lng : -123.11502, Q1 : 1.0, Q2 : 0.0, Q3 : 0.0, Q4 : 0.0}
2019-04-14 01:29:36.91: SIM {TimeUS : 40535446, Roll : 0.0, Pitch : 0.0, Yaw : 0.0, Alt : 30.1000003815, Lat : 49.28357, Lng : -123.11502, Q1 : 1.0, Q2 : 0.0, Q3 : 0.0, Q4 : 0.0}
2019-04-14 01:29:37.01: SIM {TimeUS : 40635406, Roll : 0.0, Pitch : 0.0, Yaw : 0.0, Alt : 30.1000003815, Lat : 49.28357, Lng : -123.11502, Q1 : 1.0, Q2 : 0.0, Q3 : 0.0, Q4 : 0.0}
2019-04-14 01:29:37.11: SIM {TimeUS : 40735366, Roll : 0.0, Pitch : 0.0, Yaw : 0.0, Alt : 30.1000003815, Lat : 49.28357, Lng : -123.11502, Q1 : 1.0, Q2 : 0.0, Q3 : 0.0, Q4 : 0.0}
2019-04-14 01:29:37.21: SIM {TimeUS : 40835326, Roll : 0.0, Pitch : 0.0, Yaw : 0.0, Alt : 30.1000003815, Lat : 49.28357, Lng : -123.11502, Q1 : 1.0, Q2 : 0.0, Q3 : 0.0, Q4 : 0.0}
2019-04-14 01:29:37.31: SIM {TimeUS : 40935286, Roll : 0.0, Pitch : 0.0, Yaw : 0.0, Alt : 30.1000003815, Lat : 49.28357, Lng : -123.11502, Q1 : 1.0, Q2 : 0.0, Q3 : 0.0, Q4 : 0.0}
2019-04-14 01:29:37.41: SIM {TimeUS : 41035246, Roll : 0.0, Pitch : 0.0, Yaw : 0.0, Alt : 30.1000003815, Lat : 49.28357, Lng : -123.11502, Q1 : 1.0, Q2 : 0.0, Q3 : 0.0, Q4 : 0.0}
2019-04-14 01:29:37.51: SIM {TimeUS : 41135206, Roll : 0.0, Pitch : 0.0, Yaw : 0.0, Alt : 30.1000003815, Lat : 49.28357, Lng : -123.11502, Q1 : 1.0, Q2 : 0.0, Q3 : 0.0, Q4 : 0.0}
2019-04-14 01:29:37.61: SIM {TimeUS : 41235166, Roll : 0.0, Pitch : 0.0, Yaw : 0.0, Alt : 30.1000003815, Lat : 49.28357, Lng : -123.11502, Q1 : 1.0, Q2 : 0.0, Q3 : 0.0, Q4 : 0.0}
2019-04-14 01:29:37.71: SIM {TimeUS : 41335126, Roll : 0.0, Pitch : 0.0, Yaw : 0.0, Alt : 30.1000003815, Lat : 49.28357, Lng : -123.11502, Q1 : 1.0, Q2 : 0.0, Q3 : 0.0, Q4 : 0.0}
2019-04-14 01:29:37.81: SIM {TimeUS : 41435086, Roll : 0.0, Pitch : 0.0, Yaw : 0.0, Alt : 30.1000003815, Lat : 49.28357, Lng : -123.11502, Q1 : 1.0, Q2 : 0.0, Q3 : 0.0, Q4 : 0.0}
2019-04-14 01:29:37.91: SIM {TimeUS : 41535046, Roll : 0.0, Pitch : 0.0, Yaw : 0.0, Alt : 30.1000003815, Lat : 49.28357, Lng : -123.11502, Q1 : 1.0, Q2 : 0.0, Q3 : 0.0, Q4 : 0.0}
2019-04-14 01:29:38.01: SIM {TimeUS : 41635006, Roll : 0.0, Pitch : 0.0, Yaw : 0.0, Alt : 30.1000003815, Lat : 49.28357, Lng : -123.11502, Q1 : 1.0, Q2 : 0.0, Q3 : 0.0, Q4 : 0.0}
2019-04-14 01:29:38.11: SIM {TimeUS : 41734966, Roll : 0.0, Pitch : 0.0, Yaw : 0.0, Alt : 30.1000003815, Lat : 49.28357, Lng : -123.11502, Q1 : 1.0, Q2 : 0.0, Q3 : 0.0, Q4 : 0.0}
2019-04-14 01:29:38.21: SIM {TimeUS : 41834926, Roll : 0.0, Pitch : 0.0, Yaw : 0.0, Alt : 30.1000003815, Lat : 49.28357, Lng : -123.11502, Q1 : 1.0, Q2 : 0.0, Q3 : 0.0, Q4 : 0.0}
2019-04-14 01:29:38.31: SIM {TimeUS : 41934886, Roll : 0.0, Pitch : 0.0, Yaw : 0.0, Alt : 30.1000003815, Lat : 49.28357, Lng : -123.11502, Q1 : 1.0, Q2 : 0.0, Q3 : 0.0, Q4 : 0.0}
2019-04-14 01:29:38.41: SIM {TimeUS : 42034846, Roll : 0.0, Pitch : 0.0, Yaw : 0.0, Alt : 30.1000003815, Lat : 49.28357, Lng : -123.11502, Q1 : 1.0, Q2 : 0.0, Q3 : 0.0, Q4 : 0.0}
2019-04-14 01:29:38.51: SIM {TimeUS : 42134806, Roll : 0.0, Pitch : 0.0, Yaw : 0.0, Alt : 30.1000003815, Lat : 49.28357, Lng : -123.11502, Q1 : 1.0, Q2 : 0.0, Q3 : 0.0, Q4 : 0.0}
2019-04-14 01:29:38.61: SIM {TimeUS : 42234766, Roll : 0.0, Pitch : 0.0, Yaw : 0.0, Alt : 30.1000003815, Lat : 49.28357, Lng : -123.11502, Q1 : 1.0, Q2 : 0.0, Q3 : 0.0, Q4 : 0.0}
2019-04-14 01:29:38.71: SIM {TimeUS : 42334726, Roll : 0.0, Pitch : 0.0, Yaw : 0.0, Alt : 30.1000003815, Lat : 49.28357, Lng : -123.11502, Q1 : 1.0, Q2 : 0.0, Q3 : 0.0, Q4 : 0.0}
2019-04-14 01:29:38.81: SIM {TimeUS : 42434686, Roll : 0.0, Pitch : 0.0, Yaw : 0.0, Alt : 30.1000003815, Lat : 49.28357, Lng : -123.11502, Q1 : 1.0, Q2 : 0.0, Q3 : 0.0, Q4 : 0.0}
2019-04-14 01:29:38.91: SIM {TimeUS : 42535479, Roll : 0.0, Pitch : 0.0, Yaw : 0.0, Alt : 30.1000003815, Lat : 49.28357, Lng : -123.11502, Q1 : 1.0, Q2 : 0.0, Q3 : 0.0, Q4 : 0.0}
2019-04-14 01:29:39.01: SIM {TimeUS : 42635439, Roll : 0.0, Pitch : 0.0, Yaw : 0.0, Alt : 30.1000003815, Lat : 49.28357, Lng : -123.11502, Q1 : 1.0, Q2 : 0.0, Q3 : 0.0, Q4 : 0.0}
2019-04-14 01:29:39.11: SIM {TimeUS : 42735399, Roll : 0.0, Pitch : 0.0, Yaw : 0.0, Alt : 30.1000003815, Lat : 49.28357, Lng : -123.11502, Q1 : 1.0, Q2 : 0.0, Q3 : 0.0, Q4 : 1.50531601073e-10}
2019-04-14 01:29:39.21: SIM {TimeUS : 42835359, Roll : 0.0, Pitch : 0.0, Yaw : 360.0, Alt : 30.1000003815, Lat : 49.28357, Lng : -123.11502, Q1 : 1.0, Q2 : 0.0, Q3 : 0.0, Q4 : -2.38275070785e-08}
2019-04-14 01:29:39.31: SIM {TimeUS : 42935319, Roll : 0.0, Pitch : 0.0, Yaw : 359.99, Alt : 30.1000003815, Lat : 49.28357, Lng : -123.11502, Q1 : 1.0, Q2 : 0.0, Q3 : 0.0, Q4 : -2.01679497991e-07}
2019-04-14 01:29:39.41: SIM {TimeUS : 43035279, Roll : 0.0, Pitch : 0.0, Yaw : 359.99, Alt : 30.1000003815, Lat : 49.28357, Lng : -123.11502, Q1 : 1.0, Q2 : 0.0, Q3 : 0.0, Q4 : -3.89572733184e-07}
2019-04-14 01:29:39.51: SIM {TimeUS : 43135239, Roll : 0.0, Pitch : 0.0, Yaw : 359.99, Alt : 30.1000003815, Lat : 49.28357, Lng : -123.11502, Q1 : 1.0, Q2 : 0.0, Q3 : 0.0, Q4 : -6.07020183452e-07}
2019-04-14 01:29:39.61: SIM {TimeUS : 43235199, Roll : 0.0, Pitch : 0.0, Yaw : 359.99, Alt : 30.1000003815, Lat : 49.28357, Lng : -123.11502, Q1 : 1.0, Q2 : 0.0, Q3 : 0.0, Q4 : -7.5972701552e-07}
2019-04-14 01:29:39.71: SIM {TimeUS : 43335159, Roll : 0.0, Pitch : 0.0, Yaw : 359.99, Alt : 30.1000003815, Lat : 49.28357, Lng : -123.11502, Q1 : 1.0, Q2 : 0.0, Q3 : 0.0, Q4 : -9.11729387099e-07}
2019-04-14 01:29:39.81: SIM {TimeUS : 43435119, Roll : 0.0, Pitch : 0.0, Yaw : 359.99, Alt : 30.1000003815, Lat : 49.28357, Lng : -123.11502, Q1 : 1.0, Q2 : 0.0, Q3 : 0.0, Q4 : -1.10014946131e-06}
2019-04-14 01:29:39.91: SIM {TimeUS : 43535079, Roll : 0.0, Pitch : 0.0, Yaw : 359.99, Alt : 30.1000003815, Lat : 49.28357, Lng : -123.11502, Q1 : 1.0, Q2 : 0.0, Q3 : 0.0, Q4 : -1.31435115236e-06}
2019-04-14 01:29:40.01: SIM {TimeUS : 43635039, Roll : 0.0, Pitch : 0.0, Yaw : 359.99, Alt : 30.1200008392, Lat : 49.28357, Lng : -123.11502, Q1 : 1.0, Q2 : 0.0, Q3 : 0.0, Q4 : -1.52462439473e-06}
2019-04-14 01:29:40.11: SIM {TimeUS : 43734999, Roll : 0.0, Pitch : 0.0, Yaw : 359.99, Alt : 30.1399993896, Lat : 49.28357, Lng : -123.11502, Q1 : 1.0, Q2 : 0.0, Q3 : 0.0, Q4 : -1.80049914889e-06}
2019-04-14 01:29:40.21: SIM {TimeUS : 43834959, Roll : 0.0, Pitch : 0.0, Yaw : 359.99, Alt : 30.1800003052, Lat : 49.28357, Lng : -123.11502, Q1 : 1.0, Q2 : 0.0, Q3 : 0.0, Q4 : -2.01663533517e-06}
2019-04-14 01:29:40.31: SIM {TimeUS : 43934919, Roll : 0.0, Pitch : 0.0, Yaw : 359.99, Alt : 30.2099990845, Lat : 49.28357, Lng : -123.11502, Q1 : 1.0, Q2 : -7.53965878175e-06, Q3 : -6.58930548525e-06, Q4 : -2.28496946875e-06}
2019-04-14 01:29:40.41: SIM {TimeUS : 44034879, Roll : -0.17, Pitch : -0.16, Yaw : 359.99, Alt : 30.2700004578, Lat : 49.28357, Lng : -123.11502, Q1 : 0.999997794628, Q2 : -0.00155693921261, Q3 : -0.00142096017953, Q4 : -1.98314046429e-05}
2019-04-14 01:29:40.51: SIM {TimeUS : 44134839, Roll : -0.49, Pitch : -0.45, Yaw : 359.99, Alt : 30.3899993896, Lat : 49.28357, Lng : -123.11502, Q1 : 0.999982774258, Q2 : -0.00432531163096, Q3 : -0.00397233571857, Q4 : -6.52131566312e-05}
2019-04-14 01:29:40.61: SIM {TimeUS : 44234799, Roll : -0.76, Pitch : -0.69, Yaw : 359.98, Alt : 30.5400009155, Lat : 49.28357, Lng : -123.11502, Q1 : 0.999959111214, Q2 : -0.00671455636621, Q3 : -0.00606052111834, Q4 : -0.000136214337545}
2019-04-14 01:29:40.71: SIM {TimeUS : 44334759, Roll : -0.88, Pitch : -0.78, Yaw : 359.98, Alt : 30.7000007629, Lat : 49.28357, Lng : -123.11502, Q1 : 0.999946653843, Q2 : -0.00771363824606, Q3 : -0.00686798291281, Q4 : -0.000224102303036}
2019-04-14 01:29:40.81: SIM {TimeUS : 44434719, Roll : -0.82, Pitch : -0.74, Yaw : 359.96, Alt : 30.8600006104, Lat : 49.28357, Lng : -123.1150201, Q1 : 0.999953389168, Q2 : -0.00715983426198, Q3 : -0.00646954448894, Q4 : -0.000318862381391}
2019-04-14 01:29:40.91: SIM {TimeUS : 44534679, Roll : -0.63, Pitch : -0.58, Yaw : 359.95, Alt : 31.0100002289, Lat : 49.28357, Lng : -123.1150201, Q1 : 0.99997150898, Q2 : -0.00554181775078, Q3 : -0.00510900141671, Q4 : -0.000404618156608}
2019-04-14 01:29:41.01: SIM {TimeUS : 44635472, Roll : -0.4, Pitch : -0.36, Yaw : 359.94, Alt : 31.1700000763, Lat : 49.2835701, Lng : -123.1150202, Q1 : 0.999988436699, Q2 : -0.00353604834527, Q3 : -0.00322299450636, Q4 : -0.000474211468827}
2019-04-14 01:29:41.11: SIM {TimeUS : 44735432, Roll : -0.18, Pitch : -0.17, Yaw : 359.93, Alt : 31.3299999237, Lat : 49.2835701, Lng : -123.1150203, Q1 : 0.999997377396, Q2 : -0.00165405811276, Q3 : -0.00148641818669, Q4 : -0.000526387535501}
2019-04-14 01:29:41.21: SIM {TimeUS : 44835392, Roll : -0.02, Pitch : -0.02, Yaw : 359.93, Alt : 31.5, Lat : 49.2835702, Lng : -123.1150204, Q1 : 0.999999761581, Q2 : -0.000249403470661, Q3 : -0.000248632597504, Q4 : -0.000563217268791}
2019-04-14 01:29:41.31: SIM {TimeUS : 44935352, Roll : 0.06, Pitch : 0.04, Yaw : 359.93, Alt : 31.6700000763, Lat : 49.2835702, Lng : -123.1150205, Q1 : 0.999999642372, Q2 : 0.000549752556253, Q3 : 0.000393374939449, Q4 : -0.000581945816521}
2019-04-14 01:29:41.41: SIM {TimeUS : 45035312, Roll : 0.1, Pitch : 0.06, Yaw : 359.93, Alt : 31.8500003815, Lat : 49.2835703, Lng : -123.1150205, Q1 : 0.999999284744, Q2 : 0.00088227581, Q3 : 0.000563939742278, Q4 : -0.000581488304306}
2019-04-14 01:29:41.51: SIM {TimeUS : 45135272, Roll : 0.1, Pitch : 0.04, Yaw : 359.93, Alt : 32.0400009155, Lat : 49.2835703, Lng : -123.1150206, Q1 : 0.999999344349, Q2 : 0.000940649188124, Q3 : 0.00040094013093, Q4 : -0.000558567116968}
2019-04-14 01:29:41.61: SIM {TimeUS : 45235232, Roll : 0.1, Pitch : 0.03, Yaw : 359.93, Alt : 32.2299995422, Lat : 49.2835703, Lng : -123.1150206, Q1 : 0.999999463558, Q2 : 0.000884268549271, Q3 : 0.000271564524155, Q4 : -0.000526635383721}
2019-04-14 01:29:41.71: SIM {TimeUS : 45335192, Roll : 0.08, Pitch : 0.04, Yaw : 359.94, Alt : 32.4199981689, Lat : 49.2835703, Lng : -123.1150207, Q1 : 0.999999523163, Q2 : 0.000749662576709, Q3 : 0.000364453095244, Q4 : -0.000483690237161}
2019-04-14 01:29:41.81: SIM {TimeUS : 45435152, Roll : 0.06, Pitch : 0.08, Yaw : 359.94, Alt : 32.6100006104, Lat : 49.2835703, Lng : -123.1150207, Q1 : 0.999999523163, Q2 : 0.000534812745173, Q3 : 0.00070056237746, Q4 : -0.000455488916487}
2019-04-14 01:29:41.91: SIM {TimeUS : 45535112, Roll : 0.06, Pitch : 0.13, Yaw : 359.94, Alt : 32.8100013733, Lat : 49.2835703, Lng : -123.1150208, Q1 : 0.999999046326, Q2 : 0.000595035671722, Q3 : 0.00114465702791, Q4 : -0.000443321507191}
2019-04-14 01:29:42.01: SIM {TimeUS : 45635072, Roll : 0.1, Pitch : 0.17, Yaw : 359.94, Alt : 33.0099983215, Lat : 49.2835704, Lng : -123.1150208, Q1 : 0.99999833107, Q2 : 0.000916885212064, Q3 : 0.00151427090168, Q4 : -0.000445076671895}
2019-04-14 01:29:42.11: SIM {TimeUS : 45735032, Roll : 0.14, Pitch : 0.19, Yaw : 359.94, Alt : 33.2099990845, Lat : 49.2835704, Lng : -123.1150208, Q1 : 0.99999755621, Q2 : 0.00125868828036, Q3 : 0.00174256495666, Q4 : -0.000458723370684}
2019-04-14 01:29:42.21: SIM {TimeUS : 45834992, Roll : 0.16, Pitch : 0.21, Yaw : 359.94, Alt : 33.4199981689, Lat : 49.2835704, Lng : -123.1150208, Q1 : 0.999997079372, Q2 : 0.00142186926678, Q3 : 0.00191257637925, Q4 : -0.000472219922813}
2019-04-14 01:29:42.31: SIM {TimeUS : 45934952, Roll : 0.17, Pitch : 0.19, Yaw : 359.94, Alt : 33.6199989319, Lat : 49.2835704, Lng : -123.1150209, Q1 : 0.999997317791, Q2 : 0.00149355060421, Q3 : 0.00170979113318, Q4 : -0.000502488866914}
2019-04-14 01:29:42.41: SIM {TimeUS : 46034912, Roll : 0.16, Pitch : 0.15, Yaw : 359.93, Alt : 33.8300018311, Lat : 49.2835704, Lng : -123.1150209, Q1 : 0.999997854233, Q2 : 0.00146074325312, Q3 : 0.00136060186196, Q4 : -0.000531636411324}
2019-04-14 01:29:42.51: SIM {TimeUS : 46134872, Roll : 0.15, Pitch : 0.12, Yaw : 359.93, Alt : 34.0400009155, Lat : 49.2835704, Lng : -123.1150209, Q1 : 0.999998390675, Q2 : 0.00131327146664, Q3 : 0.00108136434574, Q4 : -0.000560952350497}
2019-04-14 01:29:42.61: SIM {TimeUS : 46234832, Roll : 0.13, Pitch : 0.1, Yaw : 359.93, Alt : 34.25, Lat : 49.2835704, Lng : -123.1150209, Q1 : 0.999998688698, Q2 : 0.00122144911438, Q3 : 0.000883994856849, Q4 : -0.000585029716603}
2019-04-14 01:29:42.71: SIM {TimeUS : 46334792, Roll : 0.14, Pitch : 0.09, Yaw : 359.93, Alt : 34.4599990845, Lat : 49.2835704, Lng : -123.1150209, Q1 : 0.999998688698, Q2 : 0.00122542283498, Q3 : 0.000859602703713, Q4 : -0.000609383161645}
2019-04-14 01:29:42.81: SIM {TimeUS : 46434752, Roll : 0.12, Pitch : 0.08, Yaw : 359.92, Alt : 34.6800003052, Lat : 49.2835704, Lng : -123.1150209, Q1 : 0.999998867512, Q2 : 0.00112883269321, Q3 : 0.00073639297625, Q4 : -0.000622737687081}
2019-04-14 01:29:42.91: SIM {TimeUS : 46534712, Roll : 0.1, Pitch : 0.07, Yaw : 359.92, Alt : 34.8899993896, Lat : 49.2835704, Lng : -123.1150208, Q1 : 0.999999165535, Q2 : 0.000949838198721, Q3 : 0.00062850874383, Q4 : -0.000632545037661}
2019-04-14 01:29:43.01: SIM {TimeUS : 46634672, Roll : 0.08, Pitch : 0.06, Yaw : 359.92, Alt : 35.1100006104, Lat : 49.2835704, Lng : -123.1150208, Q1 : 0.999999403954, Q2 : 0.000726230267901, Q3 : 0.00055993971182, Q4 : -0.000644095300231}
2019-04-14 01:29:43.11: SIM {TimeUS : 46735465, Roll : 0.05, Pitch : 0.05, Yaw : 359.92, Alt : 35.3199996948, Lat : 49.2835704, Lng : -123.1150208, Q1 : 0.999999523163, Q2 : 0.000504715135321, Q3 : 0.000502928043716, Q4 : -0.000656821823213}
2019-04-14 01:29:43.21: SIM {TimeUS : 46835425, Roll : 0.04, Pitch : 0.02, Yaw : 359.92, Alt : 35.5400009155, Lat : 49.2835704, Lng : -123.1150208, Q1 : 0.999999642372, Q2 : 0.000387632841012, Q3 : 0.000220491856453, Q4 : -0.00066665338818}
2019-04-14 01:29:43.31: SIM {TimeUS : 46935385, Roll : 0.03, Pitch : 0.0, Yaw : 359.92, Alt : 35.7599983215, Lat : 49.2835704, Lng : -123.1150208, Q1 : 0.999999761581, Q2 : 0.000319719867548, Q3 : 4.21340791945e-06, Q4 : -0.000681698846165}
2019-04-14 01:29:43.41: SIM {TimeUS : 47035345, Roll : 0.01, Pitch : 0.0, Yaw : 359.91, Alt : 35.9799995422, Lat : 49.2835704, Lng : -123.1150208, Q1 : 0.999999761581, Q2 : 0.00011339316552, Q3 : -6.71734160278e-05, Q4 : -0.000705608050339}
2019-04-14 01:29:43.51: SIM {TimeUS : 47135305, Roll : 0.0, Pitch : 0.0, Yaw : 359.91, Alt : 36.2000007629, Lat : 49.2835704, Lng : -123.1150207, Q1 : 0.999999701977, Q2 : 5.52989768039e-05, Q3 : -5.83121000091e-05, Q4 : -0.000724441139027}
2019-04-14 01:29:43.61: SIM {TimeUS : 47235265, Roll : 0.01, Pitch : 0.0, Yaw : 359.91, Alt : 36.4199981689, Lat : 49.2835704, Lng : -123.1150207, Q1 : 0.999999701977, Q2 : 0.000102123471152, Q3 : -4.27572740591e-05, Q4 : -0.000743349140976}
2019-04-14 01:29:43.71: SIM {TimeUS : 47335225, Roll : 0.0, Pitch : -0.02, Yaw : 359.91, Alt : 36.6500015259, Lat : 49.2835704, Lng : -123.1150207, Q1 : 0.999999701977, Q2 : 7.56552753955e-06, Q3 : -0.000177389592864, Q4 : -0.000761207425967}
2019-04-14 01:29:43.81: SIM {TimeUS : 47435185, Roll : -0.03, Pitch : -0.05, Yaw : 359.91, Alt : 36.8699989319, Lat : 49.2835704, Lng : -123.1150207, Q1 : 0.999999523163, Q2 : -0.000270533026196, Q3 : -0.00049124401994, Q4 : -0.000784884323366}
2019-04-14 01:29:43.91: SIM {TimeUS : 47535145, Roll : -0.07, Pitch : -0.08, Yaw : 359.9, Alt : 37.0900001526, Lat : 49.2835704, Lng : -123.1150207, Q1 : 0.99999922514, Q2 : -0.000631720235106, Q3 : -0.000725488353055, Q4 : -0.000815930136014}
2019-04-14 01:29:44.01: SIM {TimeUS : 47635105, Roll : -0.11, Pitch : -0.1, Yaw : 359.9, Alt : 37.3199996948, Lat : 49.2835704, Lng : -123.1150207, Q1 : 0.999998748302, Q2 : -0.000986766186543, Q3 : -0.000902438652702, Q4 : -0.000849652918987}
2019-04-14 01:29:44.11: SIM {TimeUS : 47735065, Roll : -0.12, Pitch : -0.1, Yaw : 359.89, Alt : 37.5400009155, Lat : 49.2835704, Lng : -123.1150206, Q1 : 0.999998509884, Q2 : -0.00111666577868, Q3 : -0.00095080723986, Q4 : -0.000886164430995}
2019-04-14 01:29:44.21: SIM {TimeUS : 47835025, Roll : -0.12, Pitch : -0.09, Yaw : 359.89, Alt : 37.7700004578, Lat : 49.2835704, Lng : -123.1150206, Q1 : 0.999998688698, Q2 : -0.00105945195537, Q3 : -0.000831371115055, Q4 : -0.000921524595469}
2019-04-14 01:29:44.31: SIM {TimeUS : 47934985, Roll : -0.1, Pitch : -0.05, Yaw : 359.89, Alt : 38.0, Lat : 49.2835704, Lng : -123.1150206, Q1 : 0.999999046326, Q2 : -0.000877395737916, Q3 : -0.000513124512509, Q4 : -0.000952910399064}
2019-04-14 01:29:44.41: SIM {TimeUS : 48034945, Roll : -0.07, Pitch : -0.03, Yaw : 359.88, Alt : 38.2200012207, Lat : 49.2835704, Lng : -123.1150206, Q1 : 0.999999284744, Q2 : -0.000654224480968, Q3 : -0.000279273925116, Q4 : -0.000986151164398}
2019-04-14 01:29:44.51: SIM {TimeUS : 48134905, Roll : -0.06, Pitch : -0.03, Yaw : 359.88, Alt : 38.4500007629, Lat : 49.2835704, Lng : -123.1150206, Q1 : 0.999999284744, Q2 : -0.000550888187718, Q3 : -0.000261602748651, Q4 : -0.00101670366712}
2019-04-14 01:29:44.61: SIM {TimeUS : 48234865, Roll : -0.06, Pitch : -0.01, Yaw : 359.88, Alt : 38.6800003052, Lat : 49.2835704, Lng : -123.1150206, Q1 : 0.999999344349, Q2 : -0.000561047869269, Q3 : -0.00015055500262, Q4 : -0.00103206466883}
2019-04-14 01:29:44.71: SIM {TimeUS : 48334825, Roll : -0.08, Pitch : 0.0, Yaw : 359.88, Alt : 38.9099998474, Lat : 49.2835704, Lng : -123.1150206, Q1 : 0.99999922514, Q2 : -0.000720975687727, Q3 : -2.74666740552e-06, Q4 : -0.0010372545803}
2019-04-14 01:29:44.81: SIM {TimeUS : 48434785, Roll : -0.08, Pitch : 0.01, Yaw : 359.88, Alt : 39.1399993896, Lat : 49.2835704, Lng : -123.1150206, Q1 : 0.99999922514, Q2 : -0.000736654503271, Q3 : 0.000107731437311, Q4 : -0.00103519042023}
2019-04-14 01:29:44.91: SIM {TimeUS : 48534745, Roll : -0.06, Pitch : 0.03, Yaw : 359.88, Alt : 39.3699989319, Lat : 49.2835704, Lng : -123.1150206, Q1 : 0.999999284744, Q2 : -0.000586642418057, Q3 : 0.000308614689857, Q4 : -0.00102865800727}
2019-04-14 01:29:45.01: SIM {TimeUS : 48634705, Roll : -0.04, Pitch : 0.03, Yaw : 359.88, Alt : 39.5999984741, Lat : 49.2835706, Lng : -123.1150206, Q1 : 0.999999344349, Q2 : -0.000413872214267, Q3 : 0.000323662330629, Q4 : -0.00101486546919}
2019-04-14 01:29:45.11: SIM {TimeUS : 48734665, Roll : -0.02, Pitch : 0.03, Yaw : 359.88, Alt : 39.8300018311, Lat : 49.2835706, Lng : -123.1150207, Q1 : 0.999999403954, Q2 : -0.000191629515029, Q3 : 0.00031284999568, Q4 : -0.00100357236806}
2019-04-14 01:29:45.21: SIM {TimeUS : 48835458, Roll : 0.01, Pitch : 0.05, Yaw : 359.88, Alt : 40.0600013733, Lat : 49.2835706, Lng : -123.1150207, Q1 : 0.999999344349, Q2 : 0.000126829603687, Q3 : 0.00047815873404, Q4 : -0.00100075220689}
2019-04-14 01:29:45.31: SIM {TimeUS : 48935418, Roll : 0.05, Pitch : 0.08, Yaw : 359.88, Alt : 40.2900009155, Lat : 49.2835706, Lng : -123.1150207, Q1 : 0.99999910593, Q2 : 0.000462713825982, Q3 : 0.000737150025088, Q4 : -0.0010085470276}
2019-04-14 01:29:45.41: SIM {TimeUS : 49035378, Roll : 0.08, Pitch : 0.11, Yaw : 359.88, Alt : 40.5200004578, Lat : 49.2835706, Lng : -123.1150207, Q1 : 0.999998688698, Q2 : 0.000753208587412, Q3 : 0.00101559888572, Q4 : -0.00103293871507}
2019-04-14 01:29:45.51: SIM {TimeUS : 49135338, Roll : 0.08, Pitch : 0.14, Yaw : 359.87, Alt : 40.7599983215, Lat : 49.2835706, Lng : -123.1150207, Q1 : 0.99999833107, Q2 : 0.000728855316993, Q3 : 0.00128850550391, Q4 : -0.00105577649083}
2019-04-14 01:29:45.61: SIM {TimeUS : 49235298, Roll : 0.03, Pitch : 0.17, Yaw : 359.87, Alt : 40.9900016785, Lat : 49.2835706, Lng : -123.1150207, Q1 : 0.999998211861, Q2 : 0.000335982564138, Q3 : 0.00148963171523, Q4 : -0.00109320040792}
2019-04-14 01:29:45.71: SIM {TimeUS : 49335258, Roll : 0.0, Pitch : 0.18, Yaw : 359.87, Alt : 41.2200012207, Lat : 49.2835706, Lng : -123.1150207, Q1 : 0.999998092651, Q2 : -4.01273609896e-05, Q3 : 0.00158895249479, Q4 : -0.00112832919694}
2019-04-14 01:29:45.81: SIM {TimeUS : 49435218, Roll : -0.02, Pitch : 0.16, Yaw : 359.86, Alt : 41.4500007629, Lat : 49.2835706, Lng : -123.1150207, Q1 : 0.999998271465, Q2 : -0.000241559682763, Q3 : 0.00144694442861, Q4 : -0.00116381410044}
2019-04-14 01:29:45.91: SIM {TimeUS : 49535178, Roll : -0.03, Pitch : 0.13, Yaw : 359.86, Alt : 41.6899986267, Lat : 49.2835706, Lng : -123.1150207, Q1 : 0.999998509884, Q2 : -0.000308268441586, Q3 : 0.00121587421745, Q4 : -0.00120590173174}
2019-04-14 01:29:46.01: SIM {TimeUS : 49635138, Roll : -0.02, Pitch : 0.13, Yaw : 359.85, Alt : 41.9199981689, Lat : 49.2835706, Lng : -123.1150207, Q1 : 0.999998509884, Q2 : -0.000215422842302, Q3 : 0.00116743415128, Q4 : -0.00125627289526}
2019-04-14 01:29:46.11: SIM {TimeUS : 49735098, Roll : 0.01, Pitch : 0.14, Yaw : 359.84, Alt : 42.1500015259, Lat : 49.2835706, Lng : -123.1150207, Q1 : 0.99999833107, Q2 : 0.000117854680866, Q3 : 0.00127387209795, Q4 : -0.00131258356851}
2019-04-14 01:29:46.21: SIM {TimeUS : 49835058, Roll : 0.06, Pitch : 0.15, Yaw : 359.84, Alt : 42.3899993896, Lat : 49.2835706, Lng : -123.1150207, Q1 : 0.999998033047, Q2 : 0.000579496088903, Q3 : 0.00133073842153, Q4 : -0.00136311270762}
2019-04-14 01:29:46.31: SIM {TimeUS : 49935018, Roll : 0.1, Pitch : 0.12, Yaw : 359.83, Alt : 42.6199989319, Lat : 49.2835706, Lng : -123.1150207, Q1 : 0.999997913837, Q2 : 0.000944925006479, Q3 : 0.00111352442764, Q4 : -0.00140248797834}
2019-04-14 01:29:46.41: SIM {TimeUS : 50034978, Roll : 0.11, Pitch : 0.08, Yaw : 359.83, Alt : 42.8600006104, Lat : 49.2835706, Lng : -123.1150207, Q1 : 0.999998211861, Q2 : 0.000986096565612, Q3 : 0.000757588481065, Q4 : -0.00143258972093}
2019-04-14 01:29:46.51: SIM {TimeUS : 50134938, Roll : 0.07, Pitch : 0.05, Yaw : 359.83, Alt : 43.0900001526, Lat : 49.2835706, Lng : -123.1150207, Q1 : 0.999998569489, Q2 : 0.000664775434416, Q3 : 0.000512427475769, Q4 : -0.0014497381635}
2019-04-14 01:29:46.61: SIM {TimeUS : 50234898, Roll : 0.01, Pitch : 0.05, Yaw : 359.83, Alt : 43.3300018311, Lat : 49.2835704, Lng : -123.1150207, Q1 : 0.999998807907, Q2 : 0.000174947155756, Q3 : 0.000475583190564, Q4 : -0.00146170530934}
2019-04-14 01:29:46.71: SIM {TimeUS : 50334858, Roll : -0.02, Pitch : 0.07, Yaw : 359.83, Alt : 43.5600013733, Lat : 49.2835704, Lng : -123.1150207, Q1 : 0.999998688698, Q2 : -0.000177429421456, Q3 : 0.000681550300214, Q4 : -0.00146759825293}
2019-04-14 01:29:46.81: SIM {TimeUS : 50434818, Roll : -0.04, Pitch : 0.09, Yaw : 359.83, Alt : 43.7999992371, Lat : 49.2835704, Lng : -123.1150207, Q1 : 0.999998509884, Q2 : -0.000348680827301, Q3 : 0.000820104207378, Q4 : -0.00147523067426}
2019-04-14 01:29:46.91: SIM {TimeUS : 50534778, Roll : -0.03, Pitch : 0.08, Yaw : 359.82, Alt : 44.0299987793, Lat : 49.2835704, Lng : -123.1150206, Q1 : 0.999998509884, Q2 : -0.000338793906849, Q3 : 0.000752885942347, Q4 : -0.0014866454294}
2019-04-14 01:29:47.01: SIM {TimeUS : 50634738, Roll : -0.04, Pitch : 0.06, Yaw : 359.82, Alt : 44.2700004578, Lat : 49.2835704, Lng : -123.1150206, Q1 : 0.999998629093, Q2 : -0.000403445126722, Q3 : 0.000599980121478, Q4 : -0.00150843895972}
2019-04-14 01:29:47.11: SIM {TimeUS : 50734698, Roll : -0.04, Pitch : 0.04, Yaw : 359.82, Alt : 44.5, Lat : 49.2835704, Lng : -123.1150206, Q1 : 0.999998629093, Q2 : -0.000384958519135, Q3 : 0.000407647632528, Q4 : -0.00153397431131}
2019-04-14 01:29:47.21: SIM {TimeUS : 50834658, Roll : -0.02, Pitch : 0.02, Yaw : 359.82, Alt : 44.7400016785, Lat : 49.2835704, Lng : -123.1150206, Q1 : 0.999998688698, Q2 : -0.000250140757998, Q3 : 0.000250910379691, Q4 : -0.00156168849207}
2019-04-14 01:29:47.31: SIM {TimeUS : 50935451, Roll : -0.01, Pitch : 0.01, Yaw : 359.81, Alt : 44.9799995422, Lat : 49.2835704, Lng : -123.1150206, Q1 : 0.999998688698, Q2 : -0.000159571267432, Q3 : 0.000139085008414, Q4 : -0.0015901774168}
2019-04-14 01:29:47.41: SIM {TimeUS : 51035411, Roll : -0.02, Pitch : 0.0, Yaw : 359.81, Alt : 45.2200012207, Lat : 49.2835703, Lng : -123.1150206, Q1 : 0.999998688698, Q2 : -0.000183283686056, Q3 : -4.77312823932e-05, Q4 : -0.00162011862267}
2019-04-14 01:29:47.51: SIM {TimeUS : 51135371, Roll : -0.02, Pitch : -0.03, Yaw : 359.81, Alt : 45.4500007629, Lat : 49.2835703, Lng : -123.1150206, Q1 : 0.999998569489, Q2 : -0.000247552612564, Q3 : -0.00031097541796, Q4 : -0.00164470088203}
2019-04-14 01:29:47.61: SIM {TimeUS : 51235331, Roll : -0.03, Pitch : -0.05, Yaw : 359.8, Alt : 45.6899986267, Lat : 49.2835703, Lng : -123.1150206, Q1 : 0.999998450279, Q2 : -0.000285975198494, Q3 : -0.000469914753921, Q4 : -0.00166504504159}
2019-04-14 01:29:47.71: SIM {TimeUS : 51335291, Roll : -0.02, Pitch : -0.05, Yaw : 359.8, Alt : 45.9199981689, Lat : 49.2835703, Lng : -123.1150206, Q1 : 0.999998390675, Q2 : -0.000251307676081, Q3 : -0.000519184395671, Q4 : -0.00168340594973}
2019-04-14 01:29:47.81: SIM {TimeUS : 51435251, Roll : -0.03, Pitch : -0.05, Yaw : 359.8, Alt : 46.1500015259, Lat : 49.2835703, Lng : -123.1150206, Q1 : 0.999998390675, Q2 : -0.000288361829007, Q3 : -0.000481947296066, Q4 : -0.00170325534418}
2019-04-14 01:29:47.91: SIM {TimeUS : 51535211, Roll : -0.05, Pitch : -0.04, Yaw : 359.8, Alt : 46.3699989319, Lat : 49.2835703, Lng : -123.1150206, Q1 : 0.99999833107, Q2 : -0.000464673241368, Q3 : -0.000377649383154, Q4 : -0.00172665982973}
2019-04-14 01:29:48.01: SIM {TimeUS : 51635171, Roll : -0.08, Pitch : -0.03, Yaw : 359.79, Alt : 46.5999984741, Lat : 49.2835703, Lng : -123.1150206, Q1 : 0.999998152256, Q2 : -0.000737073656637, Q3 : -0.000345685752109, Q4 : -0.00174998305738}
2019-04-14 01:29:48.11: SIM {TimeUS : 51735131, Roll : -0.1, Pitch : -0.03, Yaw : 359.79, Alt : 46.8100013733, Lat : 49.2835703, Lng : -123.1150206, Q1 : 0.999997913837, Q2 : -0.000928292109165, Q3 : -0.00033892079955, Q4 : -0.00177868979517}
2019-04-14 01:29:48.21: SIM {TimeUS : 51835091, Roll : -0.11, Pitch : -0.03, Yaw : 359.79, Alt : 47.0200004578, Lat : 49.2835703, Lng : -123.1150206, Q1 : 0.999997854233, Q2 : -0.000968236359768, Q3 : -0.000265637412667, Q4 : -0.0018088639481}
2019-04-14 01:29:48.31: SIM {TimeUS : 51935051, Roll : -0.1, Pitch : 0.0, Yaw : 359.78, Alt : 47.2200012207, Lat : 49.2835703, Lng : -123.1150206, Q1 : 0.999997913837, Q2 : -0.000889778486453, Q3 : -5.7541357819e-05, Q4 : -0.00184141437057}
2019-04-14 01:29:48.41: SIM {TimeUS : 52035011, Roll : -0.08, Pitch : 0.0, Yaw : 359.78, Alt : 47.4199981689, Lat : 49.2835703, Lng : -123.1150206, Q1 : 0.999997973442, Q2 : -0.000713057757821, Q3 : 7.36327128834e-05, Q4 : -0.00187261600513}
2019-04-14 01:29:48.51: SIM {TimeUS : 52134971, Roll : -0.06, Pitch : 0.0, Yaw : 359.78, Alt : 47.6100006104, Lat : 49.2835703, Lng : -123.1150206, Q1 : 0.999998033047, Q2 : -0.000537677318789, Q3 : 8.09223638498e-05, Q4 : -0.00190139468759}
2019-04-14 01:29:48.61: SIM {TimeUS : 52234931, Roll : -0.06, Pitch : 0.0, Yaw : 359.77, Alt : 47.7799987793, Lat : 49.2835703, Lng : -123.1150206, Q1 : 0.999997973442, Q2 : -0.000595131481532, Q3 : -5.98528931732e-05, Q4 : -0.00193337351084}
2019-04-14 01:29:48.71: SIM {TimeUS : 52334891, Roll : -0.06, Pitch : -0.03, Yaw : 359.77, Alt : 47.9399986267, Lat : 49.2835703, Lng : -123.1150206, Q1 : 0.999997794628, Q2 : -0.000595111108851, Q3 : -0.000305817316985, Q4 : -0.00196698750369}
2019-04-14 01:29:48.81: SIM {TimeUS : 52434851, Roll : -0.05, Pitch : -0.06, Yaw : 359.77, Alt : 48.0999984741, Lat : 49.2835703, Lng : -123.1150206, Q1 : 0.999997735023, Q2 : -0.000443818658823, Q3 : -0.000550080672838, Q4 : -0.00199845363386}
2019-04-14 01:29:48.91: SIM {TimeUS : 52534811, Roll : -0.03, Pitch : -0.08, Yaw : 359.76, Alt : 48.2400016785, Lat : 49.2835703, Lng : -123.1150206, Q1 : 0.999997615814, Q2 : -0.0003114293213, Q3 : -0.000759619870223, Q4 : -0.00202652509324}
2019-04-14 01:29:49.01: SIM {TimeUS : 52634771, Roll : -0.02, Pitch : -0.1, Yaw : 359.76, Alt : 48.3699989319, Lat : 49.2835703, Lng : -123.1150206, Q1 : 0.999997496605, Q2 : -0.000241102607106, Q3 : -0.000891094387043, Q4 : -0.0020511217881}
2019-04-14 01:29:49.11: SIM {TimeUS : 52734731, Roll : 0.0, Pitch : -0.09, Yaw : 359.76, Alt : 48.4799995422, Lat : 49.2835703, Lng : -123.1150206, Q1 : 0.999997496605, Q2 : 1.89817474165e-05, Q3 : -0.000833982368931, Q4 : -0.00207562698051}
2019-04-14 01:29:49.21: SIM {TimeUS : 52834691, Roll : 0.03, Pitch : -0.07, Yaw : 359.75, Alt : 48.5900001526, Lat : 49.2835703, Lng : -123.1150206, Q1 : 0.99999755621, Q2 : 0.00031564195524, Q3 : -0.000668001419399, Q4 : -0.00209777872078}
2019-04-14 01:29:49.31: SIM {TimeUS : 52935484, Roll : 0.06, Pitch : -0.04, Yaw : 359.75, Alt : 48.6800003052, Lat : 49.2835703, Lng : -123.1150206, Q1 : 0.99999755621, Q2 : 0.0005369578721, Q3 : -0.000426173734013, Q4 : -0.00211829645559}
2019-04-14 01:29:49.41: SIM {TimeUS : 53035444, Roll : 0.07, Pitch : -0.02, Yaw : 359.75, Alt : 48.7599983215, Lat : 49.2835703, Lng : -123.1150206, Q1 : 0.999997496605, Q2 : 0.000613086274825, Q3 : -0.000225510608288, Q4 : -0.00213810731657}
2019-04-14 01:29:49.51: SIM {TimeUS : 53135404, Roll : 0.07, Pitch : -0.01, Yaw : 359.75, Alt : 48.8300018311, Lat : 49.2835703, Lng : -123.1150206, Q1 : 0.999997437, Q2 : 0.000640811456833, Q3 : -0.000149386905832, Q4 : -0.00215908046812}
2019-04-14 01:29:49.61: SIM {TimeUS : 53235364, Roll : 0.06, Pitch : -0.03, Yaw : 359.74, Alt : 48.8899993896, Lat : 49.2835703, Lng : -123.1150206, Q1 : 0.999997437, Q2 : 0.000560589018278, Q3 : -0.000267381838057, Q4 : -0.00218516262248}
2019-04-14 01:29:49.71: SIM {TimeUS : 53335324, Roll : 0.03, Pitch : -0.03, Yaw : 359.74, Alt : 48.9399986267, Lat : 49.2835703, Lng : -123.1150206, Q1 : 0.999997437, Q2 : 0.000343866355252, Q3 : -0.000319532700814, Q4 : -0.00221084244549}
2019-04-14 01:29:49.81: SIM {TimeUS : 53435284, Roll : 0.07, Pitch : -0.06, Yaw : 359.74, Alt : 48.9900016785, Lat : 49.2835703, Lng : -123.1150206, Q1 : 0.999997138977, Q2 : 0.000685551553033, Q3 : -0.00058450672077, Q4 : -0.00223421934061}
2019-04-14 01:29:49.91: SIM {TimeUS : 53535244, Roll : 0.28, Pitch : -0.2, Yaw : 359.74, Alt : 49.0200004578, Lat : 49.2835703, Lng : -123.1150206, Q1 : 0.999992609024, Q2 : 0.00252595776692, Q3 : -0.00181955331936, Q4 : -0.00224966229871}
2019-04-14 01:29:50.01: SIM {TimeUS : 53635204, Roll : 0.72, Pitch : -0.49, Yaw : 359.73, Alt : 49.0600013733, Lat : 49.2835703, Lng : -123.1150206, Q1 : 0.999967694283, Q2 : 0.00635884096846, Q3 : -0.00436987215653, Q4 : -0.00225578132086}
2019-04-14 01:29:50.11: SIM {TimeUS : 53735164, Roll : 1.4, Pitch : -0.93, Yaw : 359.73, Alt : 49.0800018311, Lat : 49.2835704, Lng : -123.1150206, Q1 : 0.999889433384, Q2 : 0.0122348899022, Q3 : -0.0081474846229, Q4 : -0.00225558341481}
2019-04-14 01:29:50.21: SIM {TimeUS : 53835124, Roll : 2.24, Pitch : -1.47, Yaw : 359.71, Alt : 49.1100006104, Lat : 49.2835704, Lng : -123.1150206, Q1 : 0.999723255634, Q2 : 0.0195207111537, Q3 : -0.0129362102598, Q4 : -0.00223826360889}
2019-04-14 01:29:50.31: SIM {TimeUS : 53935084, Roll : 3.11, Pitch : -2.09, Yaw : 359.69, Alt : 49.1300010681, Lat : 49.2835704, Lng : -123.1150205, Q1 : 0.999462068081, Q2 : 0.0271121896803, Q3 : -0.0183236226439, Q4 : -0.00218324735761}
2019-04-14 01:29:50.41: SIM {TimeUS : 54035044, Roll : 3.87, Pitch : -2.65, Yaw : 359.67, Alt : 49.1500015259, Lat : 49.2835706, Lng : -123.1150203, Q1 : 0.999158084393, Q2 : 0.0337304733694, Q3 : -0.0232609696686, Q4 : -0.00207458599471}
2019-04-14 01:29:50.51: SIM {TimeUS : 54135004, Roll : 4.45, Pitch : -3.11, Yaw : 359.65, Alt : 49.1599998474, Lat : 49.2835707, Lng : -123.1150201, Q1 : 0.998872995377, Q2 : 0.0387848652899, Q3 : -0.0272916574031, Q4 : -0.00191341910977}
2019-04-14 01:29:50.61: SIM {TimeUS : 54234964, Roll : 4.87, Pitch : -3.45, Yaw : 359.65, Alt : 49.1800003052, Lat : 49.2835709, Lng : -123.1150199, Q1 : 0.998638987541, Q2 : 0.0424604602158, Q3 : -0.0302384607494, Q4 : -0.00169429788366}
2019-04-14 01:29:50.71: SIM {TimeUS : 54334924, Roll : 5.21, Pitch : -3.68, Yaw : 359.66, Alt : 49.1899986267, Lat : 49.283571, Lng : -123.1150194, Q1 : 0.998449325562, Q2 : 0.0453729443252, Q3 : -0.0322210788727, Q4 : -0.0014248319203}
2019-04-14 01:29:50.81: SIM {TimeUS : 54434884, Roll : 5.5, Pitch : -3.87, Yaw : 359.68, Alt : 49.2000007629, Lat : 49.2835713, Lng : -123.1150189, Q1 : 0.998276054859, Q2 : 0.0478920266032, Q3 : -0.0339118130505, Q4 : -0.00114145933185}
2019-04-14 01:29:50.91: SIM {TimeUS : 54534844, Roll : 5.79, Pitch : -4.07, Yaw : 359.69, Alt : 49.2099990845, Lat : 49.2835715, Lng : -123.1150183, Q1 : 0.998091220856, Q2 : 0.0504532642663, Q3 : -0.0356030724943, Q4 : -0.000860177155118}
2019-04-14 01:29:51.01: SIM {TimeUS : 54634804, Roll : 6.1, Pitch : -4.28, Yaw : 359.7, Alt : 49.2099990845, Lat : 49.2835719, Lng : -123.1150177, Q1 : 0.997883737087, Q2 : 0.0531426854432, Q3 : -0.0374645404518, Q4 : -0.000588608207181}
2019-04-14 01:29:51.11: SIM {TimeUS : 54734764, Roll : 6.38, Pitch : -4.5, Yaw : 359.7, Alt : 49.2200012207, Lat : 49.2835722, Lng : -123.1150169, Q1 : 0.997679591179, Q2 : 0.0555567406118, Q3 : -0.0393557995558, Q4 : -0.000345052481862}
2019-04-14 01:29:51.21: SIM {TimeUS : 54834724, Roll : 6.61, Pitch : -4.68, Yaw : 359.71, Alt : 49.2299995422, Lat : 49.2835727, Lng : -123.115016, Q1 : 0.997499465942, Q2 : 0.0575805976987, Q3 : -0.0409801490605, Q4 : -0.000124091558973}
2019-04-14 01:29:51.31: SIM {TimeUS : 54934684, Roll : 6.8, Pitch : -4.81, Yaw : 359.72, Alt : 49.2299995422, Lat : 49.2835731, Lng : -123.115015, Q1 : 0.99735891819, Q2 : 0.0591834969819, Q3 : -0.0421014726162, Q4 : 7.56043227739e-05}
2019-04-14 01:29:51.41: SIM {TimeUS : 55035477, Roll : 6.92, Pitch : -4.88, Yaw : 359.73, Alt : 49.2400016785, Lat : 49.2835735, Lng : -123.1150139, Q1 : 0.997268199921, Q2 : 0.0602806061506, Q3 : -0.0426894202828, Q4 : 0.000248037686106}
2019-04-14 01:29:51.51: SIM {TimeUS : 55135437, Roll : 7.01, Pitch : -4.93, Yaw : 359.74, Alt : 49.2400016785, Lat : 49.283574, Lng : -123.1150127, Q1 : 0.997204840183, Q2 : 0.0610462278128, Q3 : -0.043077327311, Q4 : 0.000371792208171}
2019-04-14 01:29:51.61: SIM {TimeUS : 55235397, Roll : 7.12, Pitch : -4.98, Yaw : 359.74, Alt : 49.25, Lat : 49.2835746, Lng : -123.1150115, Q1 : 0.997126042843, Q2 : 0.0619808137417, Q3 : -0.0435648374259, Q4 : 0.000474130501971}
2019-04-14 01:29:51.71: SIM {TimeUS : 55335357, Roll : 7.43, Pitch : -4.92, Yaw : 359.91, Alt : 49.25, Lat : 49.2835752, Lng : -123.1150101, Q1 : 0.996980011463, Q2 : 0.0647087022662, Q3 : -0.0428887940943, Q4 : 0.00204364862293}
2019-04-14 01:29:51.81: SIM {TimeUS : 55435317, Roll : 7.97, Pitch : -4.71, Yaw : 0.81, Alt : 49.2599983215, Lat : 49.2835759, Lng : -123.1150087, Q1 : 0.996687650681, Q2 : 0.069802492857, Q3 : -0.0405196845531, Q4 : 0.00997627899051}
2019-04-14 01:29:51.91: SIM {TimeUS : 55535277, Roll : 8.59, Pitch : -4.65, Yaw : 3.09, Alt : 49.2599983215, Lat : 49.2835767, Lng : -123.1150072, Q1 : 0.995923817158, Q2 : 0.0758976116776, Q3 : -0.0384791940451, Q4 : 0.0299125500023}
2019-04-14 01:29:52.01: SIM {TimeUS : 55635237, Roll : 9.0, Pitch : -5.04, Yaw : 6.95, Alt : 49.2599983215, Lat : 49.2835774, Lng : -123.1150056, Q1 : 0.993905901909, Q2 : 0.0809520557523, Q3 : -0.0390257723629, Q4 : 0.0638344064355}
2019-04-14 01:29:52.11: SIM {TimeUS : 55735197, Roll : 9.01, Pitch : -5.95, Yaw : 12.27, Alt : 49.2599983215, Lat : 49.2835781, Lng : -123.1150038, Q1 : 0.989417254925, Q2 : 0.083542175591, Q3 : -0.0430801175535, Q4 : 0.110536523163}
2019-04-14 01:29:52.21: SIM {TimeUS : 55835157, Roll : 8.45, Pitch : -7.28, Yaw : 18.83, Alt : 49.2599983215, Lat : 49.2835788, Lng : -123.115002, Q1 : 0.981081485748, Q2 : 0.0829038769007, Q3 : -0.0504739843309, Q4 : 0.167506799102}
2019-04-14 01:29:52.31: SIM {TimeUS : 55935117, Roll : 7.25, Pitch : -8.84, Yaw : 26.37, Alt : 49.2599983215, Lat : 49.2835794, Lng : -123.115, Q1 : 0.967663347721, Q2 : 0.0790071412921, Q3 : -0.060538765043, Q4 : 0.231776833534}
2019-04-14 01:29:52.41: SIM {TimeUS : 56035077, Roll : 5.47, Pitch : -10.4, Yaw : 34.63, Alt : 49.2700004578, Lat : 49.2835802, Lng : -123.1149979, Q1 : 0.948347628117, Q2 : 0.0724059939384, Q3 : -0.0723140761256, Q4 : 0.300274521112}
2019-04-14 01:29:52.51: SIM {TimeUS : 56135037, Roll : 3.15, Pitch : -11.76, Yaw : 43.34, Alt : 49.2700004578, Lat : 49.2835811, Lng : -123.1149956, Q1 : 0.92303353548, Q2 : 0.0632602199912, Q3 : -0.0850945487618, Q4 : 0.369819104671}
2019-04-14 01:29:52.61: SIM {TimeUS : 56234997, Roll : 0.19, Pitch : -12.71, Yaw : 51.93, Alt : 49.2700004578, Lat : 49.2835818, Lng : -123.1149933, Q1 : 0.893436551094, Q2 : 0.0499746464193, Q3 : -0.0987874343991, Q4 : 0.435332864523}
2019-04-14 01:29:52.71: SIM {TimeUS : 56334957, Roll : -3.01, Pitch : -13.1, Yaw : 59.52, Alt : 49.2700004578, Lat : 49.2835828, Lng : -123.1149909, Q1 : 0.863608896732, Q2 : 0.0339298956096, Q3 : -0.111995480955, Q4 : 0.490393161774}
2019-04-14 01:29:52.81: SIM {TimeUS : 56434917, Roll : -5.79, Pitch : -13.03, Yaw : 65.35, Alt : 49.2700004578, Lat : 49.2835837, Lng : -123.1149884, Q1 : 0.838301122189, Q2 : 0.0189145747572, Q3 : -0.122538395226, Q4 : 0.530921697617}
2019-04-14 01:29:52.91: SIM {TimeUS : 56534877, Roll : -7.63, Pitch : -12.77, Yaw : 69.09, Alt : 49.2700004578, Lat : 49.2835849, Lng : -123.1149859, Q1 : 0.820918619633, Q2 : 0.00845060870051, Q3 : -0.128971353173, Q4 : 0.5562261343}
2019-04-14 01:29:53.01: SIM {TimeUS : 56634837, Roll : -8.38, Pitch : -12.58, Yaw : 70.83, Alt : 49.2700004578, Lat : 49.2835861, Lng : -123.1149833, Q1 : 0.812520861626, Q2 : 0.00414564879611, Q3 : -0.131160125136, Q4 : 0.567969799042}
2019-04-14 01:29:53.11: SIM {TimeUS : 56734797, Roll : -8.12, Pitch : -12.62, Yaw : 70.87, Alt : 49.2700004578, Lat : 49.2835873, Lng : -123.1149807, Q1 : 0.812270581722, Q2 : 0.00623482465744, Q3 : -0.130200400949, Q4 : 0.568529248238}
2019-04-14 01:29:53.21: SIM {TimeUS : 56834757, Roll : -7.1, Pitch : -12.95, Yaw : 69.59, Alt : 49.2700004578, Lat : 49.2835887, Lng : -123.114978, Q1 : 0.818339765072, Q2 : 0.0137415584177, Q3 : -0.127598375082, Q4 : 0.56022298336}
2019-04-14 01:29:53.31: SIM {TimeUS : 56934717, Roll : -5.57, Pitch : -13.52, Yaw : 67.34, Alt : 49.2700004578, Lat : 49.2835903, Lng : -123.1149753, Q1 : 0.82863086462, Q2 : 0.0250289794058, Q3 : -0.124616004527, Q4 : 0.545174598694}
2019-04-14 01:29:53.41: SIM {TimeUS : 57034677, Roll : -3.75, Pitch : -14.21, Yaw : 64.44, Alt : 49.2799987793, Lat : 49.2835919, Lng : -123.1149725, Q1 : 0.841174006462, Q2 : 0.0384652726352, Q3 : -0.121923431754, Q4 : 0.525434494019}
2019-04-14 01:29:53.51: SIM {TimeUS : 57135470, Roll : -1.82, Pitch : -14.9, Yaw : 61.19, Alt : 49.2799987793, Lat : 49.2835934, Lng : -123.1149696, Q1 : 0.854438126087, Q2 : 0.0524057634175, Q3 : -0.11966893822, Q4 : 0.502860307693}
2019-04-14 01:29:53.61: SIM {TimeUS : 57235430, Roll : -0.01, Pitch : -15.43, Yaw : 57.95, Alt : 49.2799987793, Lat : 49.2835951, Lng : -123.1149666, Q1 : 0.866888105869, Q2 : 0.0649765133858, Q3 : -0.117530845106, Q4 : 0.480072498322}
2019-04-14 01:29:53.71: SIM {TimeUS : 57335390, Roll : 1.55, Pitch : -15.74, Yaw : 55.03, Alt : 49.2799987793, Lat : 49.2835968, Lng : -123.1149634, Q1 : 0.877554416656, Q2 : 0.0751923248172, Q3 : -0.115282766521, Q4 : 0.459297537804}
2019-04-14 01:29:53.81: SIM {TimeUS : 57435350, Roll : 2.72, Pitch : -15.86, Yaw : 52.71, Alt : 49.2799987793, Lat : 49.2835983, Lng : -123.1149602, Q1 : 0.885746955872, Q2 : 0.0823411494493, Q3 : -0.113195158541, Q4 : 0.442559838295}
2019-04-14 01:29:53.91: SIM {TimeUS : 57535310, Roll : 3.42, Pitch : -15.85, Yaw : 51.15, Alt : 49.2799987793, Lat : 49.2836001, Lng : -123.1149567, Q1 : 0.891197264194, Q2 : 0.0862500071526, Q3 : -0.11154705286, Q4 : 0.431144505739}
2019-04-14 01:29:54.01: SIM {TimeUS : 57635270, Roll : 3.66, Pitch : -15.78, Yaw : 50.39, Alt : 49.2799987793, Lat : 49.2836018, Lng : -123.1149533, Q1 : 0.893946409225, Q2 : 0.0870666503906, Q3 : -0.11074706167, Q4 : 0.425457715988}
2019-04-14 01:29:54.11: SIM {TimeUS : 57735230, Roll : 3.46, Pitch : -15.74, Yaw : 50.37, Alt : 49.2799987793, Lat : 49.2836033, Lng : -123.1149497, Q1 : 0.894202411175, Q2 : 0.0853533446789, Q3 : -0.111184559762, Q4 : 0.425152778625}
2019-04-14 01:29:54.21: SIM {TimeUS : 57835190, Roll : 2.93, Pitch : -15.77, Yaw : 50.97, Alt : 49.2799987793, Lat : 49.283605, Lng : -123.114946, Q1 : 0.892312705517, Q2 : 0.0819199159741, Q3 : -0.112965643406, Q4 : 0.429308712482}
2019-04-14 01:29:54.31: SIM {TimeUS : 57935150, Roll : 2.17, Pitch : -15.89, Yaw : 52.02, Alt : 49.2799987793, Lat : 49.2836068, Lng : -123.1149421, Q1 : 0.888749480247, Q2 : 0.0775444731116, Q3 : -0.116007849574, Q4 : 0.436638712883}
2019-04-14 01:29:54.41: SIM {TimeUS : 58035110, Roll : 1.3, Pitch : -16.06, Yaw : 53.32, Alt : 49.2799987793, Lat : 49.2836085, Lng : -123.1149383, Q1 : 0.884115338326, Q2 : 0.072813488543, Q3 : -0.119786351919, Q4 : 0.445746004581}
2019-04-14 01:29:54.51: SIM {TimeUS : 58135070, Roll : 0.43, Pitch : -16.23, Yaw : 54.7, Alt : 49.2900009155, Lat : 49.2836103, Lng : -123.1149342, Q1 : 0.879059910774, Q2 : 0.0682129859924, Q3 : -0.123733401299, Q4 : 0.455291897058}
2019-04-14 01:29:54.61: SIM {TimeUS : 58235030, Roll : -0.34, Pitch : -16.36, Yaw : 55.98, Alt : 49.2900009155, Lat : 49.283612, Lng : -123.1149302, Q1 : 0.874234855175, Q2 : 0.0641166716814, Q3 : -0.127063497901, Q4 : 0.4641738832}
2019-04-14 01:29:54.71: SIM {TimeUS : 58334990, Roll : -0.94, Pitch : -16.42, Yaw : 57.04, Alt : 49.2900009155, Lat : 49.2836138, Lng : -123.1149261, Q1 : 0.870143771172, Q2 : 0.0610387548804, Q3 : -0.129399806261, Q4 : 0.471571564674}
2019-04-14 01:29:54.81: SIM {TimeUS : 58434950, Roll : -1.34, Pitch : -16.45, Yaw : 57.81, Alt : 49.2900009155, Lat : 49.2836156, Lng : -123.114922, Q1 : 0.867146968842, Q2 : 0.0589768625796, Q3 : -0.130859464407, Q4 : 0.476921021938}
2019-04-14 01:29:54.91: SIM {TimeUS : 58534910, Roll : -1.51, Pitch : -16.46, Yaw : 58.25, Alt : 49.2900009155, Lat : 49.2836175, Lng : -123.1149178, Q1 : 0.865393579006, Q2 : 0.0582333989441, Q3 : -0.131450220942, Q4 : 0.480024695396}
2019-04-14 01:29:55.01: SIM {TimeUS : 58634870, Roll : -1.46, Pitch : -16.45, Yaw : 58.36, Alt : 49.2900009155, Lat : 49.2836194, Lng : -123.1149135, Q1 : 0.864887058735, Q2 : 0.058725990355, Q3 : -0.131117776036, Q4 : 0.480967611074}
2019-04-14 01:29:55.11: SIM {TimeUS : 58734830, Roll : -1.26, Pitch : -16.45, Yaw : 58.2, Alt : 49.2900009155, Lat : 49.2836214, Lng : -123.1149093, Q1 : 0.865467309952, Q2 : 0.0600367300212, Q3 : -0.130314096808, Q4 : 0.479979306459}
2019-04-14 01:29:55.21: SIM {TimeUS : 58834790, Roll : -0.97, Pitch : -16.48, Yaw : 57.83, Alt : 49.2900009155, Lat : 49.2836232, Lng : -123.1149049, Q1 : 0.866841375828, Q2 : 0.0619554035366, Q3 : -0.129538267851, Q4 : 0.47745937109}
2019-04-14 01:29:55.31: SIM {TimeUS : 58934750, Roll : -0.63, Pitch : -16.54, Yaw : 57.32, Alt : 49.2900009155, Lat : 49.2836253, Lng : -123.1149006, Q1 : 0.868702769279, Q2 : 0.0642061084509, Q3 : -0.128917843103, Q4 : 0.473933845758}
2019-04-14 01:29:55.41: SIM {TimeUS : 59034710, Roll : -0.29, Pitch : -16.63, Yaw : 56.75, Alt : 49.2900009155, Lat : 49.2836273, Lng : -123.1148961, Q1 : 0.870753884315, Q2 : 0.0665370449424, Q3 : -0.128486722708, Q4 : 0.469948589802}
2019-04-14 01:29:55.51: SIM {TimeUS : 59134670, Roll : 0.02, Pitch : -16.7, Yaw : 56.19, Alt : 49.2900009155, Lat : 49.2836293, Lng : -123.1148917, Q1 : 0.872761428356, Q2 : 0.0686016231775, Q3 : -0.12808328867, Q4 : 0.466021418571}
2019-04-14 01:29:55.61: SIM {TimeUS : 59235463, Roll : 0.29, Pitch : -16.76, Yaw : 55.7, Alt : 49.2900009155, Lat : 49.2836314, Lng : -123.1148871, Q1 : 0.874522089958, Q2 : 0.0703352317214, Q3 : -0.127732396126, Q4 : 0.462545752525}
2019-04-14 01:29:55.71: SIM {TimeUS : 59335423, Roll : 0.48, Pitch : -16.8, Yaw : 55.32, Alt : 49.2900009155, Lat : 49.2836334, Lng : -123.1148826, Q1 : 0.875873923302, Q2 : 0.0715926736593, Q3 : -0.127468749881, Q4 : 0.459859907627}
2019-04-14 01:29:55.81: SIM {TimeUS : 59435383, Roll : 0.61, Pitch : -16.82, Yaw : 55.08, Alt : 49.2900009155, Lat : 49.2836354, Lng : -123.114878, Q1 : 0.876761734486, Q2 : 0.0723703056574, Q3 : -0.127288341522, Q4 : 0.45809289813}
2019-04-14 01:29:55.91: SIM {TimeUS : 59535343, Roll : 0.66, Pitch : -16.84, Yaw : 54.96, Alt : 49.2900009155, Lat : 49.2836375, Lng : -123.1148734, Q1 : 0.877176105976, Q2 : 0.072663359344, Q3 : -0.127326503396, Q4 : 0.457241773605}
2019-04-14 01:29:56.01: SIM {TimeUS : 59635303, Roll : 0.62, Pitch : -16.86, Yaw : 54.96, Alt : 49.2900009155, Lat : 49.2836396, Lng : -123.1148687, Q1 : 0.877160251141, Q2 : 0.0724594518542, Q3 : -0.127612680197, Q4 : 0.457224845886}
2019-04-14 01:29:56.11: SIM {TimeUS : 59735263, Roll : 0.52, Pitch : -16.88, Yaw : 55.07, Alt : 49.2900009155, Lat : 49.2836416, Lng : -123.114864, Q1 : 0.876788258553, Q2 : 0.0718807652593, Q3 : -0.128098398447, Q4 : 0.457893311977}
2019-04-14 01:29:56.21: SIM {TimeUS : 59835223, Roll : 0.38, Pitch : -16.91, Yaw : 55.24, Alt : 49.2900009155, Lat : 49.2836438, Lng : -123.1148592, Q1 : 0.87616610527, Q2 : 0.0711085870862, Q3 : -0.128748446703, Q4 : 0.459021151066}
2019-04-14 01:29:56.31: SIM {TimeUS : 59935183, Roll : 0.22, Pitch : -16.94, Yaw : 55.44, Alt : 49.2900009155, Lat : 49.2836458, Lng : -123.1148545, Q1 : 0.875394761562, Q2 : 0.0703102052212, Q3 : -0.129535615444, Q4 : 0.460392326117}
2019-04-14 01:29:56.41: SIM {TimeUS : 60035143, Roll : 0.07, Pitch : -16.99, Yaw : 55.65, Alt : 49.2999992371, Lat : 49.283648, Lng : -123.1148496, Q1 : 0.874591708183, Q2 : 0.0695371776819, Q3 : -0.130399078131, Q4 : 0.46178996563}
2019-04-14 01:29:56.51: SIM {TimeUS : 60135103, Roll : -0.07, Pitch : -17.03, Yaw : 55.84, Alt : 49.2999992371, Lat : 49.28365, Lng : -123.1148448, Q1 : 0.873867094517, Q2 : 0.0688070505857, Q3 : -0.131189957261, Q4 : 0.463045477867}
2019-04-14 01:29:56.61: SIM {TimeUS : 60235063, Roll : -0.19, Pitch : -17.06, Yaw : 55.99, Alt : 49.2999992371, Lat : 49.2836523, Lng : -123.1148399, Q1 : 0.87330698967, Q2 : 0.0681801214814, Q3 : -0.131779208779, Q4 : 0.464026600122}
2019-04-14 01:29:56.71: SIM {TimeUS : 60335023, Roll : -0.27, Pitch : -17.09, Yaw : 56.09, Alt : 49.2999992371, Lat : 49.2836543, Lng : -123.1148351, Q1 : 0.872930526733, Q2 : 0.0677500069141, Q3 : -0.132305473089, Q4 : 0.464647710323}
2019-04-14 01:29:56.81: SIM {TimeUS : 60434983, Roll : -0.31, Pitch : -17.13, Yaw : 56.13, Alt : 49.2999992371, Lat : 49.2836566, Lng : -123.1148302, Q1 : 0.872739255428, Q2 : 0.067715793848, Q3 : -0.13268238306, Q4 : 0.464904516935}
2019-04-14 01:29:56.91: SIM {TimeUS : 60534943, Roll : -0.29, Pitch : -17.16, Yaw : 56.12, Alt : 49.2999992371, Lat : 49.2836588, Lng : -123.1148252, Q1 : 0.872736155987, Q2 : 0.067986369133, Q3 : -0.132892295718, Q4 : 0.464810788631}
2019-04-14 01:29:57.01: SIM {TimeUS : 60634903, Roll : -0.22, Pitch : -17.2, Yaw : 56.06, Alt : 49.2999992371, Lat : 49.2836609, Lng : -123.1148203, Q1 : 0.872888147831, Q2 : 0.0685608163476, Q3 : -0.13296186924, Q4 : 0.464421004057}
2019-04-14 01:29:57.11: SIM {TimeUS : 60734863, Roll : -0.12, Pitch : -17.24, Yaw : 55.97, Alt : 49.2999992371, Lat : 49.2836632, Lng : -123.1148153, Q1 : 0.873144805431, Q2 : 0.0694251358509, Q3 : -0.132928982377, Q4 : 0.463819175959}
2019-04-14 01:29:57.21: SIM {TimeUS : 60834823, Roll : -0.02, Pitch : -17.28, Yaw : 55.86, Alt : 49.2999992371, Lat : 49.2836653, Lng : -123.1148102, Q1 : 0.873497068882, Q2 : 0.070183083415, Q3 : -0.132844567299, Q4 : 0.463065356016}
2019-04-14 01:29:57.31: SIM {TimeUS : 60934783, Roll : 0.04, Pitch : -17.29, Yaw : 55.74, Alt : 49.3100013733, Lat : 49.2836676, Lng : -123.1148053, Q1 : 0.87390601635, Q2 : 0.0706657916307, Q3 : -0.13272510469, Q4 : 0.462253987789}
2019-04-14 01:29:57.41: SIM {TimeUS : 61034743, Roll : 0.08, Pitch : -17.3, Yaw : 55.63, Alt : 49.3100013733, Lat : 49.2836698, Lng : -123.1148003, Q1 : 0.874319136143, Q2 : 0.0708579793572, Q3 : -0.132693916559, Q4 : 0.461451500654}
2019-04-14 01:29:57.51: SIM {TimeUS : 61134703, Roll : 0.11, Pitch : -17.31, Yaw : 55.53, Alt : 49.3100013733, Lat : 49.283672, Lng : -123.1147952, Q1 : 0.8746778965, Q2 : 0.0710346549749, Q3 : -0.132692113519, Q4 : 0.460744470358}
2019-04-14 01:29:57.61: SIM {TimeUS : 61234663, Roll : 0.15, Pitch : -17.33, Yaw : 55.46, Alt : 49.3100013733, Lat : 49.2836743, Lng : -123.1147901, Q1 : 0.874941289425, Q2 : 0.0712765678763, Q3 : -0.132779940963, Q4 : 0.460181385279}
2019-04-14 01:29:57.71: SIM {TimeUS : 61335456, Roll : 0.18, Pitch : -17.37, Yaw : 55.4, Alt : 49.3100013733, Lat : 49.2836766, Lng : -123.1147851, Q1 : 0.875081419945, Q2 : 0.0716243609786, Q3 : -0.13302923739, Q4 : 0.459788799286}
2019-04-14 01:29:57.81: SIM {TimeUS : 61435416, Roll : 0.2, Pitch : -17.43, Yaw : 55.38, Alt : 49.3100013733, Lat : 49.2836789, Lng : -123.11478, Q1 : 0.87512087822, Q2 : 0.0719487145543, Q3 : -0.133379504085, Q4 : 0.459561496973}
2019-04-14 01:29:57.91: SIM {TimeUS : 61535376, Roll : 0.2, Pitch : -17.46, Yaw : 55.37, Alt : 49.3100013733, Lat : 49.283681, Lng : -123.1147748, Q1 : 0.875120103359, Q2 : 0.0720760971308, Q3 : -0.133602678776, Q4 : 0.45947816968}
2019-04-14 01:29:58.01: SIM {TimeUS : 61635336, Roll : 0.19, Pitch : -17.46, Yaw : 55.37, Alt : 49.3100013733, Lat : 49.2836834, Lng : -123.1147697, Q1 : 0.875097692013, Q2 : 0.0720295608044, Q3 : -0.133623361588, Q4 : 0.459522098303}
2019-04-14 01:29:58.11: SIM {TimeUS : 61735296, Roll : 0.17, Pitch : -17.46, Yaw : 55.39, Alt : 49.3100013733, Lat : 49.2836857, Lng : -123.1147646, Q1 : 0.875044047832, Q2 : 0.0719214901328, Q3 : -0.133700743318, Q4 : 0.459618657827}
2019-04-14 01:29:58.21: SIM {TimeUS : 61835256, Roll : 0.13, Pitch : -17.48, Yaw : 55.41, Alt : 49.3100013733, Lat : 49.283688, Lng : -123.1147594, Q1 : 0.874969124794, Q2 : 0.0716736242175, Q3 : -0.134015277028, Q4 : 0.459708422422}
2019-04-14 01:29:58.31: SIM {TimeUS : 61935216, Roll : 0.09, Pitch : -17.5, Yaw : 55.43, Alt : 49.3100013733, Lat : 49.2836902, Lng : -123.1147542, Q1 : 0.874890685081, Q2 : 0.0714993625879, Q3 : -0.134288772941, Q4 : 0.459805101156}
2019-04-14 01:29:58.41: SIM {TimeUS : 62035176, Roll : 0.07, Pitch : -17.52, Yaw : 55.44, Alt : 49.3100013733, Lat : 49.2836925, Lng : -123.114749, Q1 : 0.874816894531, Q2 : 0.0714396312833, Q3 : -0.134598478675, Q4 : 0.459864109755}
2019-04-14 01:29:58.51: SIM {TimeUS : 62135136, Roll : 0.05, Pitch : -17.55, Yaw : 55.45, Alt : 49.3199996948, Lat : 49.2836949, Lng : -123.1147438, Q1 : 0.874767363071, Q2 : 0.0714444890618, Q3 : -0.134823694825, Q4 : 0.4598916471}
2019-04-14 01:29:58.61: SIM {TimeUS : 62235096, Roll : 0.05, Pitch : -17.57, Yaw : 55.45, Alt : 49.3199996948, Lat : 49.2836972, Lng : -123.1147386, Q1 : 0.874742925167, Q2 : 0.0715289786458, Q3 : -0.135002180934, Q4 : 0.459872663021}
2019-04-14 01:29:58.71: SIM {TimeUS : 62335056, Roll : 0.07, Pitch : -17.58, Yaw : 55.44, Alt : 49.3199996948, Lat : 49.2836995, Lng : -123.1147334, Q1 : 0.874758481979, Q2 : 0.0716491118073, Q3 : -0.13502715528, Q4 : 0.459817022085}
2019-04-14 01:29:58.81: SIM {TimeUS : 62435016, Roll : 0.09, Pitch : -17.59, Yaw : 55.43, Alt : 49.3199996948, Lat : 49.2837017, Lng : -123.1147281, Q1 : 0.874784052372, Q2 : 0.0718798041344, Q3 : -0.135037273169, Q4 : 0.45972943306}
2019-04-14 01:29:58.91: SIM {TimeUS : 62534976, Roll : 0.12, Pitch : -17.61, Yaw : 55.41, Alt : 49.3199996948, Lat : 49.283704, Lng : -123.1147229, Q1 : 0.874825894833, Q2 : 0.0721338838339, Q3 : -0.135107174516, Q4 : 0.459589451551}
2019-04-14 01:29:59.01: SIM {TimeUS : 62634936, Roll : 0.12, Pitch : -17.65, Yaw : 55.38, Alt : 49.3199996948, Lat : 49.2837065, Lng : -123.1147176, Q1 : 0.874887168407, Q2 : 0.0722698122263, Q3 : -0.135370522738, Q4 : 0.459373921156}
2019-04-14 01:29:59.11: SIM {TimeUS : 62734896, Roll : 0.11, Pitch : -17.69, Yaw : 55.35, Alt : 49.3199996948, Lat : 49.2837088, Lng : -123.1147123, Q1 : 0.874956607819, Q2 : 0.0723314061761, Q3 : -0.135763719678, Q4 : 0.459115833044}
2019-04-14 01:29:59.21: SIM {TimeUS : 62834856, Roll : 0.1, Pitch : -17.74, Yaw : 55.32, Alt : 49.3199996948, Lat : 49.2837112, Lng : -123.1147071, Q1 : 0.875029563904, Q2 : 0.0723964348435, Q3 : -0.136164054275, Q4 : 0.458847820759}
2019-04-14 01:29:59.31: SIM {TimeUS : 62934816, Roll : 0.11, Pitch : -17.77, Yaw : 55.29, Alt : 49.3199996948, Lat : 49.2837135, Lng : -123.1147018, Q1 : 0.875102579594, Q2 : 0.0725834146142, Q3 : -0.136380791664, Q4 : 0.458614677191}
2019-04-14 01:29:59.41: SIM {TimeUS : 63034776, Roll : 0.13, Pitch : -17.78, Yaw : 55.26, Alt : 49.3199996948, Lat : 49.2837159, Lng : -123.1146965, Q1 : 0.875194728374, Q2 : 0.0727281719446, Q3 : -0.136365398765, Q4 : 0.458420425653}
2019-04-14 01:29:59.51: SIM {TimeUS : 63134736, Roll : 0.15, Pitch : -17.76, Yaw : 55.24, Alt : 49.3199996948, Lat : 49.2837181, Lng : -123.1146912, Q1 : 0.875300168991, Q2 : 0.0728006511927, Q3 : -0.136158585548, Q4 : 0.458269000053}
2019-04-14 01:29:59.61: SIM {TimeUS : 63234696, Roll : 0.16, Pitch : -17.74, Yaw : 55.22, Alt : 49.3199996948, Lat : 49.2837205, Lng : -123.1146858, Q1 : 0.875393688679, Q2 : 0.0727330595255, Q3 : -0.136017307639, Q4 : 0.458143085241}
2019-04-14 01:29:59.71: SIM {TimeUS : 63334656, Roll : 0.15, Pitch : -17.72, Yaw : 55.21, Alt : 49.3199996948, Lat : 49.2837229, Lng : -123.1146805, Q1 : 0.875475943089, Q2 : 0.072620652616, Q3 : -0.135922878981, Q4 : 0.458031833172}
2019-04-14 01:29:59.81: SIM {TimeUS : 63435449, Roll : 0.15, Pitch : -17.71, Yaw : 55.2, Alt : 49.3199996948, Lat : 49.2837253, Lng : -123.1146751, Q1 : 0.875537157059, Q2 : 0.0725160762668, Q3 : -0.135844796896, Q4 : 0.457954466343}
2019-04-14 01:29:59.91: SIM {TimeUS : 63535409, Roll : 0.14, Pitch : -17.72, Yaw : 55.19, Alt : 49.3199996948, Lat : 49.2837277, Lng : -123.1146698, Q1 : 0.875563442707, Q2 : 0.072470754385, Q3 : -0.135934457183, Q4 : 0.457884818316}
2019-04-14 01:30:00.01: SIM {TimeUS : 63635369, Roll : 0.14, Pitch : -17.74, Yaw : 55.18, Alt : 49.3199996948, Lat : 49.2837301, Lng : -123.1146644, Q1 : 0.875569045544, Q2 : 0.0725321397185, Q3 : -0.136074140668, Q4 : 0.45782288909}
2019-04-14 01:30:00.11: SIM {TimeUS : 63735329, Roll : 0.13, Pitch : -17.78, Yaw : 55.18, Alt : 49.3300018311, Lat : 49.2837325, Lng : -123.114659, Q1 : 0.875540614128, Q2 : 0.0726602897048, Q3 : -0.136441156268, Q4 : 0.457747668028}
2019-04-14 01:30:00.21: SIM {TimeUS : 63835289, Roll : 0.13, Pitch : -17.83, Yaw : 55.17, Alt : 49.3300018311, Lat : 49.2837349, Lng : -123.1146536, Q1 : 0.875500202179, Q2 : 0.0728475302458, Q3 : -0.136869087815, Q4 : 0.457667440176}
2019-04-14 01:30:00.31: SIM {TimeUS : 63935249, Roll : 0.14, Pitch : -17.87, Yaw : 55.16, Alt : 49.3300018311, Lat : 49.2837373, Lng : -123.1146483, Q1 : 0.87547236681, Q2 : 0.0730650648475, Q3 : -0.137149617076, Q4 : 0.457602053881}
2019-04-14 01:30:00.41: SIM {TimeUS : 64035209, Roll : 0.14, Pitch : -17.91, Yaw : 55.16, Alt : 49.3300018311, Lat : 49.2837397, Lng : -123.1146429, Q1 : 0.87546479702, Q2 : 0.0731652975082, Q3 : -0.137420609593, Q4 : 0.457519203424}
2019-04-14 01:30:00.51: SIM {TimeUS : 64135169, Roll : 0.13, Pitch : -17.93, Yaw : 55.15, Alt : 49.3300018311, Lat : 49.2837421, Lng : -123.1146375, Q1 : 0.875480949879, Q2 : 0.0731659159064, Q3 : -0.137617871165, Q4 : 0.45742893219}
2019-04-14 01:30:00.61: SIM {TimeUS : 64235129, Roll : 0.14, Pitch : -17.92, Yaw : 55.14, Alt : 49.3300018311, Lat : 49.2837445, Lng : -123.1146321, Q1 : 0.875522613525, Q2 : 0.0732024312019, Q3 : -0.137547105551, Q4 : 0.457364618778}
2019-04-14 01:30:00.71: SIM {TimeUS : 64335089, Roll : 0.16, Pitch : -17.93, Yaw : 55.12, Alt : 49.3300018311, Lat : 49.2837469, Lng : -123.1146266, Q1 : 0.875557303429, Q2 : 0.0733548477292, Q3 : -0.137529179454, Q4 : 0.45727917552}
2019-04-14 01:30:00.81: SIM {TimeUS : 64435049, Roll : 0.16, Pitch : -17.95, Yaw : 55.11, Alt : 49.3300018311, Lat : 49.2837492, Lng : -123.1146211, Q1 : 0.875591278076, Q2 : 0.0734474658966, Q3 : -0.137647524476, Q4 : 0.457163661718}
2019-04-14 01:30:00.91: SIM {TimeUS : 64535009, Roll : 0.17, Pitch : -17.96, Yaw : 55.09, Alt : 49.3300018311, Lat : 49.2837516, Lng : -123.1146158, Q1 : 0.875634729862, Q2 : 0.0735200792551, Q3 : -0.137705162168, Q4 : 0.457051336765}
2019-04-14 01:30:01.01: SIM {TimeUS : 64634969, Roll : 0.18, Pitch : -17.95, Yaw : 55.08, Alt : 49.3300018311, Lat : 49.2837542, Lng : -123.1146104, Q1 : 0.875690877438, Q2 : 0.0735706761479, Q3 : -0.137668281794, Q4 : 0.456946760416}
2019-04-14 01:30:01.11: SIM {TimeUS : 64734929, Roll : 0.18, Pitch : -17.96, Yaw : 55.06, Alt : 49.3300018311, Lat : 49.2837565, Lng : -123.1146049, Q1 : 0.875745296478, Q2 : 0.0736031830311, Q3 : -0.137661203742, Q4 : 0.456839323044}
2019-04-14 01:30:01.21: SIM {TimeUS : 64834889, Roll : 0.17, Pitch : -17.97, Yaw : 55.05, Alt : 49.3300018311, Lat : 49.2837589, Lng : -123.1145995, Q1 : 0.875788629055, Q2 : 0.0735328570008, Q3 : -0.137883961201, Q4 : 0.456700444221}
2019-04-14 01:30:01.31: SIM {TimeUS : 64934849, Roll : 0.14, Pitch : -18.01, Yaw : 55.04, Alt : 49.3300018311, Lat : 49.2837613, Lng : -123.114594, Q1 : 0.875818371773, Q2 : 0.0734212026, Q3 : -0.138265579939, Q4 : 0.456545948982}
2019-04-14 01:30:01.41: SIM {TimeUS : 65034809, Roll : 0.12, Pitch : -18.01, Yaw : 55.03, Alt : 49.3300018311, Lat : 49.2837638, Lng : -123.1145886, Q1 : 0.875871777534, Q2 : 0.0732826367021, Q3 : -0.138365343213, Q4 : 0.45643556118}
2019-04-14 01:30:01.51: SIM {TimeUS : 65134769, Roll : 0.13, Pitch : -17.99, Yaw : 55.01, Alt : 49.3300018311, Lat : 49.2837662, Lng : -123.1145831, Q1 : 0.875929474831, Q2 : 0.0732796266675, Q3 : -0.138193100691, Q4 : 0.456377446651}
2019-04-14 01:30:01.61: SIM {TimeUS : 65234729, Roll : 0.15, Pitch : -17.98, Yaw : 55.0, Alt : 49.3400001526, Lat : 49.2837686, Lng : -123.1145776, Q1 : 0.875977098942, Q2 : 0.0733553096652, Q3 : -0.138008341193, Q4 : 0.456329792738}
2019-04-14 01:30:01.71: SIM {TimeUS : 65334689, Roll : 0.17, Pitch : -17.98, Yaw : 54.99, Alt : 49.3400001526, Lat : 49.2837711, Lng : -123.1145722, Q1 : 0.8760009408, Q2 : 0.0735079646111, Q3 : -0.137995541096, Q4 : 0.456263333559}
2019-04-14 01:30:01.81: SIM {TimeUS : 65435482, Roll : 0.16, Pitch : -18.0, Yaw : 54.98, Alt : 49.3400001526, Lat : 49.2837735, Lng : -123.1145666, Q1 : 0.876021802425, Q2 : 0.0735154673457, Q3 : -0.138181015849, Q4 : 0.456165850163}
2019-04-14 01:30:01.91: SIM {TimeUS : 65535442, Roll : 0.13, Pitch : -18.03, Yaw : 54.97, Alt : 49.3400001526, Lat : 49.2837761, Lng : -123.1145611, Q1 : 0.876045882702, Q2 : 0.0733867138624, Q3 : -0.138470619917, Q4 : 0.45605251193}
2019-04-14 01:30:02.01: SIM {TimeUS : 65635402, Roll : 0.12, Pitch : -18.04, Yaw : 54.96, Alt : 49.3400001526, Lat : 49.2837784, Lng : -123.1145557, Q1 : 0.876073598862, Q2 : 0.0733183026314, Q3 : -0.138667792082, Q4 : 0.455950379372}
2019-04-14 01:30:02.11: SIM {TimeUS : 65735362, Roll : 0.12, Pitch : -18.06, Yaw : 54.95, Alt : 49.3400001526, Lat : 49.283781, Lng : -123.1145502, Q1 : 0.876094281673, Q2 : 0.0733873620629, Q3 : -0.138793408871, Q4 : 0.455861210823}
2019-04-14 01:30:02.21: SIM {TimeUS : 65835322, Roll : 0.13, Pitch : -18.08, Yaw : 54.94, Alt : 49.3400001526, Lat : 49.2837834, Lng : -123.1145447, Q1 : 0.876109421253, Q2 : 0.0735184326768, Q3 : -0.138868287206, Q4 : 0.455788314342}
2019-04-14 01:30:02.31: SIM {TimeUS : 65935282, Roll : 0.16, Pitch : -18.09, Yaw : 54.93, Alt : 49.3400001526, Lat : 49.2837859, Lng : -123.1145392, Q1 : 0.876110672951, Q2 : 0.0737867206335, Q3 : -0.138863101602, Q4 : 0.455744117498}
2019-04-14 01:30:02.41: SIM {TimeUS : 66035242, Roll : 0.18, Pitch : -18.11, Yaw : 54.93, Alt : 49.3400001526, Lat : 49.2837884, Lng : -123.1145337, Q1 : 0.876106500626, Q2 : 0.0740042850375, Q3 : -0.138937935233, Q4 : 0.45569396019}
2019-04-14 01:30:02.51: SIM {TimeUS : 66135202, Roll : 0.2, Pitch : -18.13, Yaw : 54.92, Alt : 49.3400001526, Lat : 49.2837908, Lng : -123.1145282, Q1 : 0.876101374626, Q2 : 0.0742080509663, Q3 : -0.139030352235, Q4 : 0.455642551184}
2019-04-14 01:30:02.61: SIM {TimeUS : 66235162, Roll : 0.22, Pitch : -18.15, Yaw : 54.91, Alt : 49.3400001526, Lat : 49.2837933, Lng : -123.1145227, Q1 : 0.87609231472, Q2 : 0.0744187533855, Q3 : -0.139095440507, Q4 : 0.455605715513}
2019-04-14 01:30:02.71: SIM {TimeUS : 66335122, Roll : 0.24, Pitch : -18.16, Yaw : 54.91, Alt : 49.3400001526, Lat : 49.2837958, Lng : -123.1145171, Q1 : 0.87608140707, Q2 : 0.0746781304479, Q3 : -0.139064729214, Q4 : 0.455593675375}
