2019-04-14 11:49:16.30: SIM {TimeUS : 40916127, Roll : 0.0, Pitch : 0.0, Yaw : 0.0, Alt : 30.1000003815, Lat : 49.28357, Lng : -123.11502, Q1 : 1.0, Q2 : 0.0, Q3 : 0.0, Q4 : 0.0}
2019-04-14 11:49:16.41: SIM {TimeUS : 41035246, Roll : 0.0, Pitch : 0.0, Yaw : 0.0, Alt : 30.1000003815, Lat : 49.28357, Lng : -123.11502, Q1 : 1.0, Q2 : 0.0, Q3 : 0.0, Q4 : 0.0}
2019-04-14 11:49:16.51: SIM {TimeUS : 41135206, Roll : 0.0, Pitch : 0.0, Yaw : 0.0, Alt : 30.1000003815, Lat : 49.28357, Lng : -123.11502, Q1 : 1.0, Q2 : 0.0, Q3 : 0.0, Q4 : 0.0}
2019-04-14 11:49:16.61: SIM {TimeUS : 41235166, Roll : 0.0, Pitch : 0.0, Yaw : 0.0, Alt : 30.1000003815, Lat : 49.28357, Lng : -123.11502, Q1 : 1.0, Q2 : 0.0, Q3 : 0.0, Q4 : 0.0}
2019-04-14 11:49:16.71: SIM {TimeUS : 41335126, Roll : 0.0, Pitch : 0.0, Yaw : 0.0, Alt : 30.1000003815, Lat : 49.28357, Lng : -123.11502, Q1 : 1.0, Q2 : 0.0, Q3 : 0.0, Q4 : 0.0}
2019-04-14 11:49:16.81: SIM {TimeUS : 41435086, Roll : 0.0, Pitch : 0.0, Yaw : 0.0, Alt : 30.1000003815, Lat : 49.28357, Lng : -123.11502, Q1 : 1.0, Q2 : 0.0, Q3 : 0.0, Q4 : 0.0}
2019-04-14 11:49:16.91: SIM {TimeUS : 41535046, Roll : 0.0, Pitch : 0.0, Yaw : 0.0, Alt : 30.1000003815, Lat : 49.28357, Lng : -123.11502, Q1 : 1.0, Q2 : 0.0, Q3 : 0.0, Q4 : 0.0}
2019-04-14 11:49:17.01: SIM {TimeUS : 41635006, Roll : 0.0, Pitch : 0.0, Yaw : 0.0, Alt : 30.1000003815, Lat : 49.28357, Lng : -123.11502, Q1 : 1.0, Q2 : 0.0, Q3 : 0.0, Q4 : 0.0}
2019-04-14 11:49:17.11: SIM {TimeUS : 41734966, Roll : 0.0, Pitch : 0.0, Yaw : 0.0, Alt : 30.1000003815, Lat : 49.28357, Lng : -123.11502, Q1 : 1.0, Q2 : 0.0, Q3 : 0.0, Q4 : 0.0}
2019-04-14 11:49:17.21: SIM {TimeUS : 41834926, Roll : 0.0, Pitch : 0.0, Yaw : 0.0, Alt : 30.1000003815, Lat : 49.28357, Lng : -123.11502, Q1 : 1.0, Q2 : 0.0, Q3 : 0.0, Q4 : 0.0}
2019-04-14 11:49:17.31: SIM {TimeUS : 41934886, Roll : 0.0, Pitch : 0.0, Yaw : 0.0, Alt : 30.1000003815, Lat : 49.28357, Lng : -123.11502, Q1 : 1.0, Q2 : 0.0, Q3 : 0.0, Q4 : 0.0}
2019-04-14 11:49:17.41: SIM {TimeUS : 42034846, Roll : 0.0, Pitch : 0.0, Yaw : 0.0, Alt : 30.1000003815, Lat : 49.28357, Lng : -123.11502, Q1 : 1.0, Q2 : 0.0, Q3 : 0.0, Q4 : 0.0}
2019-04-14 11:49:17.51: SIM {TimeUS : 42134806, Roll : 0.0, Pitch : 0.0, Yaw : 0.0, Alt : 30.1000003815, Lat : 49.28357, Lng : -123.11502, Q1 : 1.0, Q2 : 0.0, Q3 : 0.0, Q4 : 0.0}
2019-04-14 11:49:17.61: SIM {TimeUS : 42234766, Roll : 0.0, Pitch : 0.0, Yaw : 0.0, Alt : 30.1000003815, Lat : 49.28357, Lng : -123.11502, Q1 : 1.0, Q2 : 0.0, Q3 : 0.0, Q4 : 0.0}
2019-04-14 11:49:17.71: SIM {TimeUS : 42334726, Roll : 0.0, Pitch : 0.0, Yaw : 0.0, Alt : 30.1000003815, Lat : 49.28357, Lng : -123.11502, Q1 : 1.0, Q2 : 0.0, Q3 : 0.0, Q4 : 0.0}
2019-04-14 11:49:17.81: SIM {TimeUS : 42434686, Roll : 0.0, Pitch : 0.0, Yaw : 0.0, Alt : 30.1000003815, Lat : 49.28357, Lng : -123.11502, Q1 : 1.0, Q2 : 0.0, Q3 : 0.0, Q4 : 0.0}
2019-04-14 11:49:17.91: SIM {TimeUS : 42534646, Roll : 0.0, Pitch : 0.0, Yaw : 0.0, Alt : 30.1000003815, Lat : 49.28357, Lng : -123.11502, Q1 : 1.0, Q2 : 0.0, Q3 : 0.0, Q4 : 0.0}
2019-04-14 11:49:18.01: SIM {TimeUS : 42634606, Roll : 0.0, Pitch : 0.0, Yaw : 0.0, Alt : 30.1000003815, Lat : 49.28357, Lng : -123.11502, Q1 : 1.0, Q2 : 0.0, Q3 : 0.0, Q4 : 0.0}
2019-04-14 11:49:18.11: SIM {TimeUS : 42734566, Roll : 0.0, Pitch : 0.0, Yaw : 0.0, Alt : 30.1000003815, Lat : 49.28357, Lng : -123.11502, Q1 : 1.0, Q2 : 0.0, Q3 : 0.0, Q4 : 0.0}
2019-04-14 11:49:18.21: SIM {TimeUS : 42834526, Roll : 0.0, Pitch : 0.0, Yaw : 0.0, Alt : 30.1000003815, Lat : 49.28357, Lng : -123.11502, Q1 : 1.0, Q2 : 0.0, Q3 : 0.0, Q4 : 0.0}
2019-04-14 11:49:18.31: SIM {TimeUS : 42934486, Roll : 0.0, Pitch : 0.0, Yaw : 0.0, Alt : 30.1000003815, Lat : 49.28357, Lng : -123.11502, Q1 : 1.0, Q2 : 0.0, Q3 : 0.0, Q4 : 0.0}
2019-04-14 11:49:18.42: SIM {TimeUS : 43035279, Roll : 0.0, Pitch : 0.0, Yaw : 0.0, Alt : 30.1000003815, Lat : 49.28357, Lng : -123.11502, Q1 : 1.0, Q2 : 0.0, Q3 : 0.0, Q4 : 0.0}
2019-04-14 11:49:18.51: SIM {TimeUS : 43135239, Roll : 0.0, Pitch : 0.0, Yaw : 0.0, Alt : 30.1000003815, Lat : 49.28357, Lng : -123.11502, Q1 : 1.0, Q2 : 0.0, Q3 : 0.0, Q4 : 0.0}
2019-04-14 11:49:18.61: SIM {TimeUS : 43235199, Roll : 0.0, Pitch : 0.0, Yaw : 0.0, Alt : 30.1000003815, Lat : 49.28357, Lng : -123.11502, Q1 : 1.0, Q2 : 0.0, Q3 : 0.0, Q4 : 3.54646693956e-12}
2019-04-14 11:49:18.71: SIM {TimeUS : 43335159, Roll : 0.0, Pitch : 0.0, Yaw : 360.0, Alt : 30.1000003815, Lat : 49.28357, Lng : -123.11502, Q1 : 1.0, Q2 : 0.0, Q3 : 0.0, Q4 : -2.41191848716e-08}
2019-04-14 11:49:18.81: SIM {TimeUS : 43435119, Roll : 0.0, Pitch : 0.0, Yaw : 359.99, Alt : 30.1000003815, Lat : 49.28357, Lng : -123.11502, Q1 : 1.0, Q2 : 0.0, Q3 : 0.0, Q4 : -1.75602494323e-07}
2019-04-14 11:49:18.91: SIM {TimeUS : 43535079, Roll : 0.0, Pitch : 0.0, Yaw : 359.99, Alt : 30.1000003815, Lat : 49.28357, Lng : -123.11502, Q1 : 1.0, Q2 : 0.0, Q3 : 0.0, Q4 : -3.71579204739e-07}
2019-04-14 11:49:19.01: SIM {TimeUS : 43635039, Roll : 0.0, Pitch : 0.0, Yaw : 359.99, Alt : 30.1000003815, Lat : 49.28357, Lng : -123.11502, Q1 : 1.0, Q2 : 0.0, Q3 : 0.0, Q4 : -5.41329370662e-07}
2019-04-14 11:49:19.11: SIM {TimeUS : 43734999, Roll : 0.0, Pitch : 0.0, Yaw : 359.99, Alt : 30.1000003815, Lat : 49.28357, Lng : -123.11502, Q1 : 1.0, Q2 : 0.0, Q3 : 0.0, Q4 : -7.30714646124e-07}
2019-04-14 11:49:19.21: SIM {TimeUS : 43834959, Roll : 0.0, Pitch : 0.0, Yaw : 359.99, Alt : 30.1000003815, Lat : 49.28357, Lng : -123.11502, Q1 : 1.0, Q2 : 0.0, Q3 : 0.0, Q4 : -8.90855517355e-07}
2019-04-14 11:49:19.31: SIM {TimeUS : 43934919, Roll : 0.0, Pitch : 0.0, Yaw : 359.99, Alt : 30.1000003815, Lat : 49.28357, Lng : -123.11502, Q1 : 1.0, Q2 : 0.0, Q3 : 0.0, Q4 : -1.04385355826e-06}
2019-04-14 11:49:19.41: SIM {TimeUS : 44034879, Roll : 0.0, Pitch : 0.0, Yaw : 359.99, Alt : 30.1000003815, Lat : 49.28357, Lng : -123.11502, Q1 : 1.0, Q2 : 0.0, Q3 : 0.0, Q4 : -1.24327777939e-06}
2019-04-14 11:49:19.51: SIM {TimeUS : 44134839, Roll : 0.0, Pitch : 0.0, Yaw : 359.99, Alt : 30.1200008392, Lat : 49.28357, Lng : -123.11502, Q1 : 1.0, Q2 : 0.0, Q3 : 0.0, Q4 : -1.44968873883e-06}
2019-04-14 11:49:19.61: SIM {TimeUS : 44234799, Roll : 0.0, Pitch : 0.0, Yaw : 359.99, Alt : 30.1399993896, Lat : 49.28357, Lng : -123.11502, Q1 : 1.0, Q2 : 0.0, Q3 : 0.0, Q4 : -1.63616346072e-06}
2019-04-14 11:49:19.71: SIM {TimeUS : 44334759, Roll : 0.0, Pitch : 0.0, Yaw : 359.99, Alt : 30.1800003052, Lat : 49.28357, Lng : -123.11502, Q1 : 1.0, Q2 : 0.0, Q3 : 0.0, Q4 : -1.82403903182e-06}
2019-04-14 11:49:19.81: SIM {TimeUS : 44434719, Roll : 0.0, Pitch : 0.0, Yaw : 359.99, Alt : 30.2099990845, Lat : 49.28357, Lng : -123.11502, Q1 : 1.0, Q2 : -4.03033664043e-06, Q3 : -3.52913320967e-06, Q4 : -2.06832532967e-06}
2019-04-14 11:49:19.91: SIM {TimeUS : 44534679, Roll : -0.17, Pitch : -0.14, Yaw : 359.99, Alt : 30.2700004578, Lat : 49.28357, Lng : -123.11502, Q1 : 0.999998033047, Q2 : -0.00155892665498, Q3 : -0.00123377831187, Q4 : -1.72883828782e-05}
2019-04-14 11:49:20.01: SIM {TimeUS : 44634639, Roll : -0.48, Pitch : -0.39, Yaw : 359.99, Alt : 30.3799991608, Lat : 49.28357, Lng : -123.11502, Q1 : 0.999984920025, Q2 : -0.00426819827408, Q3 : -0.00346653559245, Q4 : -5.85002271691e-05}
2019-04-14 11:49:20.11: SIM {TimeUS : 44734599, Roll : -0.73, Pitch : -0.62, Yaw : 359.99, Alt : 30.5400009155, Lat : 49.28357, Lng : -123.11502, Q1 : 0.999964773655, Q2 : -0.00637797452509, Q3 : -0.00545388320461, Q4 : -0.000117492971185}
2019-04-14 11:49:20.21: SIM {TimeUS : 44834559, Roll : -0.81, Pitch : -0.73, Yaw : 359.98, Alt : 30.7000007629, Lat : 49.28357, Lng : -123.11502, Q1 : 0.999954223633, Q2 : -0.00712760444731, Q3 : -0.00638282392174, Q4 : -0.000189579208381}
2019-04-14 11:49:20.31: SIM {TimeUS : 44934519, Roll : -0.74, Pitch : -0.7, Yaw : 359.97, Alt : 30.8500003815, Lat : 49.28357, Lng : -123.11502, Q1 : 0.999959886074, Q2 : -0.00653545884416, Q3 : -0.0061191204004, Q4 : -0.000268157105893}
2019-04-14 11:49:20.41: SIM {TimeUS : 45034479, Roll : -0.57, Pitch : -0.56, Yaw : 359.96, Alt : 31.0100002289, Lat : 49.28357, Lng : -123.1150201, Q1 : 0.999975204468, Q2 : -0.00499436678365, Q3 : -0.00494990264997, Q4 : -0.000341273407685}
2019-04-14 11:49:20.52: SIM {TimeUS : 45135272, Roll : -0.34, Pitch : -0.37, Yaw : 359.95, Alt : 31.1599998474, Lat : 49.2835701, Lng : -123.1150202, Q1 : 0.99998998642, Q2 : -0.00300496816635, Q3 : -0.00328703247942, Q4 : -0.000406121485867}
2019-04-14 11:49:20.61: SIM {TimeUS : 45235232, Roll : -0.13, Pitch : -0.17, Yaw : 359.94, Alt : 31.3199996948, Lat : 49.2835701, Lng : -123.1150203, Q1 : 0.999998033047, Q2 : -0.0012143132044, Q3 : -0.00152544630691, Q4 : -0.000459286820842}
2019-04-14 11:49:20.71: SIM {TimeUS : 45335192, Roll : 0.0, Pitch : 0.0, Yaw : 359.94, Alt : 31.4899997711, Lat : 49.2835702, Lng : -123.1150203, Q1 : 0.999999880791, Q2 : -4.84852862428e-05, Q3 : -7.86302771303e-05, Q4 : -0.000499690242577}
2019-04-14 11:49:20.81: SIM {TimeUS : 45435152, Roll : 0.05, Pitch : 0.08, Yaw : 359.93, Alt : 31.6700000763, Lat : 49.2835702, Lng : -123.1150204, Q1 : 0.999999463558, Q2 : 0.000438863382442, Q3 : 0.000784282863606, Q4 : -0.000528693781234}
2019-04-14 11:49:20.91: SIM {TimeUS : 45535112, Roll : 0.07, Pitch : 0.13, Yaw : 359.93, Alt : 31.8500003815, Lat : 49.2835703, Lng : -123.1150205, Q1 : 0.999998986721, Q2 : 0.000636403914541, Q3 : 0.00116361980326, Q4 : -0.000540055800229}
2019-04-14 11:49:21.01: SIM {TimeUS : 45635072, Roll : 0.07, Pitch : 0.12, Yaw : 359.93, Alt : 32.0299987793, Lat : 49.2835703, Lng : -123.1150205, Q1 : 0.999998986721, Q2 : 0.000671370245982, Q3 : 0.00112806260586, Q4 : -0.000540477165487}
2019-04-14 11:49:21.11: SIM {TimeUS : 45735032, Roll : 0.07, Pitch : 0.11, Yaw : 359.93, Alt : 32.2200012207, Lat : 49.2835703, Lng : -123.1150206, Q1 : 0.99999910593, Q2 : 0.000655210693367, Q3 : 0.00101517071016, Q4 : -0.000529183424078}
2019-04-14 11:49:21.21: SIM {TimeUS : 45834992, Roll : 0.06, Pitch : 0.1, Yaw : 359.94, Alt : 32.4099998474, Lat : 49.2835703, Lng : -123.1150206, Q1 : 0.999999284744, Q2 : 0.000562768720556, Q3 : 0.000939440389629, Q4 : -0.000509740551934}
2019-04-14 11:49:21.31: SIM {TimeUS : 45934952, Roll : 0.06, Pitch : 0.09, Yaw : 359.94, Alt : 32.5999984741, Lat : 49.2835703, Lng : -123.1150206, Q1 : 0.999999403954, Q2 : 0.000559178413823, Q3 : 0.000799584318884, Q4 : -0.000488736550324}
2019-04-14 11:49:21.41: SIM {TimeUS : 46034912, Roll : 0.06, Pitch : 0.07, Yaw : 359.94, Alt : 32.7900009155, Lat : 49.2835703, Lng : -123.1150207, Q1 : 0.999999463558, Q2 : 0.000589401519392, Q3 : 0.000680553726852, Q4 : -0.000469920254545}
2019-04-14 11:49:21.51: SIM {TimeUS : 46134872, Roll : 0.08, Pitch : 0.08, Yaw : 359.94, Alt : 32.9900016785, Lat : 49.2835704, Lng : -123.1150207, Q1 : 0.999999344349, Q2 : 0.00074378203135, Q3 : 0.00074947567191, Q4 : -0.00045592468814}
2019-04-14 11:49:21.61: SIM {TimeUS : 46234832, Roll : 0.12, Pitch : 0.11, Yaw : 359.94, Alt : 33.1899986267, Lat : 49.2835704, Lng : -123.1150207, Q1 : 0.999998807907, Q2 : 0.00107457593549, Q3 : 0.000997154507786, Q4 : -0.000451241969131}
2019-04-14 11:49:21.71: SIM {TimeUS : 46334792, Roll : 0.16, Pitch : 0.14, Yaw : 359.94, Alt : 33.4000015259, Lat : 49.2835704, Lng : -123.1150208, Q1 : 0.999998092651, Q2 : 0.00141277315561, Q3 : 0.00128807604779, Q4 : -0.000450593710411}
2019-04-14 11:49:21.81: SIM {TimeUS : 46434752, Roll : 0.18, Pitch : 0.16, Yaw : 359.94, Alt : 33.5999984741, Lat : 49.2835704, Lng : -123.1150208, Q1 : 0.999997615814, Q2 : 0.0016214925563, Q3 : 0.00141650403384, Q4 : -0.000454882479971}
2019-04-14 11:49:21.91: SIM {TimeUS : 46534712, Roll : 0.17, Pitch : 0.15, Yaw : 359.94, Alt : 33.8100013733, Lat : 49.2835704, Lng : -123.1150208, Q1 : 0.999997794628, Q2 : 0.00154657103121, Q3 : 0.00132686924189, Q4 : -0.000465895747766}
2019-04-14 11:49:22.01: SIM {TimeUS : 46634672, Roll : 0.15, Pitch : 0.13, Yaw : 359.94, Alt : 34.0200004578, Lat : 49.2835704, Lng : -123.1150208, Q1 : 0.99999833107, Q2 : 0.00132468598895, Q3 : 0.00118710298557, Q4 : -0.000477204506751}
2019-04-14 11:49:22.11: SIM {TimeUS : 46734632, Roll : 0.12, Pitch : 0.12, Yaw : 359.94, Alt : 34.2299995422, Lat : 49.2835704, Lng : -123.1150208, Q1 : 0.999998748302, Q2 : 0.0010586414719, Q3 : 0.001096958993, Q4 : -0.000494435487781}
2019-04-14 11:49:22.21: SIM {TimeUS : 46834592, Roll : 0.1, Pitch : 0.09, Yaw : 359.94, Alt : 34.4399986267, Lat : 49.2835704, Lng : -123.1150208, Q1 : 0.99999910593, Q2 : 0.000924933585338, Q3 : 0.000787295575719, Q4 : -0.000509841192979}
2019-04-14 11:49:22.31: SIM {TimeUS : 46934552, Roll : 0.09, Pitch : 0.05, Yaw : 359.93, Alt : 34.6599998474, Lat : 49.2835704, Lng : -123.1150208, Q1 : 0.999999344349, Q2 : 0.000858631799929, Q3 : 0.000519039807841, Q4 : -0.000526892370544}
2019-04-14 11:49:22.41: SIM {TimeUS : 47034512, Roll : 0.07, Pitch : 0.04, Yaw : 359.93, Alt : 34.8699989319, Lat : 49.2835704, Lng : -123.1150207, Q1 : 0.999999523163, Q2 : 0.000675594608765, Q3 : 0.000367309170542, Q4 : -0.000547025236301}
2019-04-14 11:49:22.51: SIM {TimeUS : 47134472, Roll : 0.06, Pitch : 0.03, Yaw : 359.93, Alt : 35.0900001526, Lat : 49.2835704, Lng : -123.1150207, Q1 : 0.999999642372, Q2 : 0.000550956290681, Q3 : 0.00033941003494, Q4 : -0.000565678754356}
2019-04-14 11:49:22.62: SIM {TimeUS : 47235265, Roll : 0.05, Pitch : 0.03, Yaw : 359.93, Alt : 35.3100013733, Lat : 49.2835704, Lng : -123.1150207, Q1 : 0.999999642372, Q2 : 0.000509464822244, Q3 : 0.000328686030116, Q4 : -0.000587468093727}
2019-04-14 11:49:22.71: SIM {TimeUS : 47335225, Roll : 0.03, Pitch : 0.01, Yaw : 359.92, Alt : 35.5200004578, Lat : 49.2835704, Lng : -123.1150207, Q1 : 0.999999761581, Q2 : 0.000313696218655, Q3 : 0.000130128843011, Q4 : -0.000616991892457}
2019-04-14 11:49:22.81: SIM {TimeUS : 47435185, Roll : 0.0, Pitch : -0.02, Yaw : 359.92, Alt : 35.7400016785, Lat : 49.2835704, Lng : -123.1150207, Q1 : 0.999999761581, Q2 : -1.7503842173e-05, Q3 : -0.000189191414393, Q4 : -0.000645612191875}
2019-04-14 11:49:22.91: SIM {TimeUS : 47535145, Roll : -0.04, Pitch : -0.05, Yaw : 359.92, Alt : 35.9599990845, Lat : 49.2835704, Lng : -123.1150207, Q1 : 0.999999582767, Q2 : -0.000363888830179, Q3 : -0.000436644360889, Q4 : -0.00067547877552}
2019-04-14 11:49:23.01: SIM {TimeUS : 47635105, Roll : -0.07, Pitch : -0.06, Yaw : 359.91, Alt : 36.1800003052, Lat : 49.2835704, Lng : -123.1150207, Q1 : 0.999999344349, Q2 : -0.000657172349747, Q3 : -0.000607001886237, Q4 : -0.000703706638888}
2019-04-14 11:49:23.11: SIM {TimeUS : 47735065, Roll : -0.08, Pitch : -0.07, Yaw : 359.91, Alt : 36.4000015259, Lat : 49.2835704, Lng : -123.1150206, Q1 : 0.999999284744, Q2 : -0.000698925345205, Q3 : -0.000655463663861, Q4 : -0.000725185032934}
2019-04-14 11:49:23.21: SIM {TimeUS : 47835025, Roll : -0.07, Pitch : -0.06, Yaw : 359.91, Alt : 36.6300010681, Lat : 49.2835704, Lng : -123.1150206, Q1 : 0.999999344349, Q2 : -0.000660450721625, Q3 : -0.00061036500847, Q4 : -0.000744842400309}
2019-04-14 11:49:23.31: SIM {TimeUS : 47934985, Roll : -0.06, Pitch : -0.05, Yaw : 359.91, Alt : 36.8499984741, Lat : 49.2835704, Lng : -123.1150206, Q1 : 0.999999403954, Q2 : -0.000592193217017, Q3 : -0.000476667832118, Q4 : -0.000764952274039}
2019-04-14 11:49:23.41: SIM {TimeUS : 48034945, Roll : -0.05, Pitch : -0.04, Yaw : 359.91, Alt : 37.0699996948, Lat : 49.2835704, Lng : -123.1150206, Q1 : 0.999999463558, Q2 : -0.000499070622027, Q3 : -0.000402605975978, Q4 : -0.000780603324529}
2019-04-14 11:49:23.51: SIM {TimeUS : 48134905, Roll : -0.06, Pitch : -0.05, Yaw : 359.9, Alt : 37.2999992371, Lat : 49.2835704, Lng : -123.1150206, Q1 : 0.999999463558, Q2 : -0.000557363033295, Q3 : -0.000448756152764, Q4 : -0.000791839091107}
2019-04-14 11:49:23.61: SIM {TimeUS : 48234865, Roll : -0.07, Pitch : -0.03, Yaw : 359.9, Alt : 37.5200004578, Lat : 49.2835704, Lng : -123.1150206, Q1 : 0.999999344349, Q2 : -0.000689402339049, Q3 : -0.000331958581228, Q4 : -0.000806128547993}
2019-04-14 11:49:23.71: SIM {TimeUS : 48334825, Roll : -0.1, Pitch : -0.01, Yaw : 359.9, Alt : 37.75, Lat : 49.2835704, Lng : -123.1150206, Q1 : 0.99999922514, Q2 : -0.000915799872018, Q3 : -0.000161843941896, Q4 : -0.000825007737149}
2019-04-14 11:49:23.81: SIM {TimeUS : 48434785, Roll : -0.11, Pitch : 0.0, Yaw : 359.9, Alt : 37.9799995422, Lat : 49.2835704, Lng : -123.1150206, Q1 : 0.999999165535, Q2 : -0.000974411144853, Q3 : -1.16262317533e-05, Q4 : -0.000841349945404}
2019-04-14 11:49:23.91: SIM {TimeUS : 48534745, Roll : -0.08, Pitch : 0.02, Yaw : 359.9, Alt : 38.2000007629, Lat : 49.2835704, Lng : -123.1150206, Q1 : 0.999999284744, Q2 : -0.000777225359343, Q3 : 0.000253187841736, Q4 : -0.000865341920871}
2019-04-14 11:49:24.01: SIM {TimeUS : 48634705, Roll : -0.06, Pitch : 0.02, Yaw : 359.89, Alt : 38.4300003052, Lat : 49.2835704, Lng : -123.1150206, Q1 : 0.999999403954, Q2 : -0.000555756152608, Q3 : 0.000221299182158, Q4 : -0.000887228583451}
2019-04-14 11:49:24.11: SIM {TimeUS : 48734665, Roll : -0.03, Pitch : 0.01, Yaw : 359.89, Alt : 38.6599998474, Lat : 49.2835704, Lng : -123.1150206, Q1 : 0.999999523163, Q2 : -0.00029986698064, Q3 : 0.00010925973038, Q4 : -0.000905539200176}
2019-04-14 11:49:24.21: SIM {TimeUS : 48834625, Roll : 0.0, Pitch : 0.02, Yaw : 359.89, Alt : 38.8899993896, Lat : 49.2835704, Lng : -123.1150206, Q1 : 0.999999523163, Q2 : 2.66406659648e-05, Q3 : 0.000208695200854, Q4 : -0.000921063590795}
2019-04-14 11:49:24.31: SIM {TimeUS : 48934585, Roll : 0.04, Pitch : 0.04, Yaw : 359.89, Alt : 39.1199989319, Lat : 49.2835706, Lng : -123.1150206, Q1 : 0.999999403954, Q2 : 0.000365757819964, Q3 : 0.000433156557847, Q4 : -0.000939342775382}
2019-04-14 11:49:24.41: SIM {TimeUS : 49034545, Roll : 0.07, Pitch : 0.07, Yaw : 359.89, Alt : 39.3499984741, Lat : 49.2835706, Lng : -123.1150206, Q1 : 0.99999910593, Q2 : 0.000628398032859, Q3 : 0.000668843626045, Q4 : -0.000959675468039}
2019-04-14 11:49:24.51: SIM {TimeUS : 49134505, Roll : 0.06, Pitch : 0.1, Yaw : 359.88, Alt : 39.5800018311, Lat : 49.2835706, Lng : -123.1150206, Q1 : 0.999998986721, Q2 : 0.000575136276893, Q3 : 0.000903115374967, Q4 : -0.000972694891971}
2019-04-14 11:49:24.61: SIM {TimeUS : 49234465, Roll : 0.01, Pitch : 0.12, Yaw : 359.88, Alt : 39.8100013733, Lat : 49.2835706, Lng : -123.1150206, Q1 : 0.999998927116, Q2 : 0.000135694528581, Q3 : 0.00107979017776, Q4 : -0.00100403267425}
2019-04-14 11:49:24.72: SIM {TimeUS : 49335258, Roll : -0.02, Pitch : 0.12, Yaw : 359.88, Alt : 40.0400009155, Lat : 49.2835706, Lng : -123.1150206, Q1 : 0.999998807907, Q2 : -0.000257907697232, Q3 : 0.00110734475311, Q4 : -0.00103770662099}
2019-04-14 11:49:24.81: SIM {TimeUS : 49435218, Roll : -0.04, Pitch : 0.1, Yaw : 359.87, Alt : 40.2700004578, Lat : 49.2835706, Lng : -123.1150207, Q1 : 0.999998927116, Q2 : -0.000420912110712, Q3 : 0.000890526396688, Q4 : -0.00106856343336}
2019-04-14 11:49:24.91: SIM {TimeUS : 49535178, Roll : -0.05, Pitch : 0.08, Yaw : 359.87, Alt : 40.5099983215, Lat : 49.2835706, Lng : -123.1150207, Q1 : 0.999999046326, Q2 : -0.000444646022515, Q3 : 0.000747843179852, Q4 : -0.00109605898615}
2019-04-14 11:49:25.01: SIM {TimeUS : 49635138, Roll : -0.03, Pitch : 0.09, Yaw : 359.87, Alt : 40.7400016785, Lat : 49.2835706, Lng : -123.1150207, Q1 : 0.999998927116, Q2 : -0.000304361310555, Q3 : 0.00086792150978, Q4 : -0.00112779717892}
2019-04-14 11:49:25.11: SIM {TimeUS : 49735098, Roll : 0.0, Pitch : 0.13, Yaw : 359.86, Alt : 40.9700012207, Lat : 49.2835706, Lng : -123.1150207, Q1 : 0.999998688698, Q2 : 7.76949746069e-05, Q3 : 0.00115617772099, Q4 : -0.00115872418974}
2019-04-14 11:49:25.21: SIM {TimeUS : 49835058, Roll : 0.06, Pitch : 0.15, Yaw : 359.86, Alt : 41.2000007629, Lat : 49.2835706, Lng : -123.1150207, Q1 : 0.999998271465, Q2 : 0.000527597381733, Q3 : 0.00134571595117, Q4 : -0.00119008426555}
2019-04-14 11:49:25.31: SIM {TimeUS : 49935018, Roll : 0.09, Pitch : 0.12, Yaw : 359.86, Alt : 41.4399986267, Lat : 49.2835706, Lng : -123.1150207, Q1 : 0.99999833107, Q2 : 0.000815576291643, Q3 : 0.00111030193511, Q4 : -0.00122159556486}
2019-04-14 11:49:25.41: SIM {TimeUS : 50034978, Roll : 0.09, Pitch : 0.07, Yaw : 359.85, Alt : 41.6699981689, Lat : 49.2835706, Lng : -123.1150207, Q1 : 0.999998688698, Q2 : 0.000830906617921, Q3 : 0.000673375150654, Q4 : -0.00124728796072}
2019-04-14 11:49:25.51: SIM {TimeUS : 50134938, Roll : 0.06, Pitch : 0.04, Yaw : 359.85, Alt : 41.9099998474, Lat : 49.2835706, Lng : -123.1150207, Q1 : 0.999998986721, Q2 : 0.000560292275622, Q3 : 0.00035159572144, Q4 : -0.0012671778677}
2019-04-14 11:49:25.61: SIM {TimeUS : 50234898, Roll : 0.01, Pitch : 0.03, Yaw : 359.85, Alt : 42.1399993896, Lat : 49.2835706, Lng : -123.1150207, Q1 : 0.999999165535, Q2 : 0.000133205656311, Q3 : 0.000267668627203, Q4 : -0.00128208950628}
2019-04-14 11:49:25.71: SIM {TimeUS : 50334858, Roll : -0.01, Pitch : 0.05, Yaw : 359.85, Alt : 42.3699989319, Lat : 49.2835706, Lng : -123.1150207, Q1 : 0.999999046326, Q2 : -0.000153758926899, Q3 : 0.00049011426745, Q4 : -0.00128790631425}
2019-04-14 11:49:25.81: SIM {TimeUS : 50434818, Roll : -0.03, Pitch : 0.07, Yaw : 359.85, Alt : 42.6100006104, Lat : 49.2835706, Lng : -123.1150207, Q1 : 0.999998867512, Q2 : -0.000294958095765, Q3 : 0.000677376345266, Q4 : -0.00129400612786}
2019-04-14 11:49:25.91: SIM {TimeUS : 50534778, Roll : -0.03, Pitch : 0.07, Yaw : 359.85, Alt : 42.8400001526, Lat : 49.2835706, Lng : -123.1150207, Q1 : 0.999998867512, Q2 : -0.000327323941747, Q3 : 0.000686411338393, Q4 : -0.00130317069124}
2019-04-14 11:49:26.01: SIM {TimeUS : 50634738, Roll : -0.04, Pitch : 0.06, Yaw : 359.84, Alt : 43.0800018311, Lat : 49.2835704, Lng : -123.1150206, Q1 : 0.999998867512, Q2 : -0.000420903903432, Q3 : 0.000599498627707, Q4 : -0.00132046302315}
2019-04-14 11:49:26.11: SIM {TimeUS : 50734698, Roll : -0.04, Pitch : 0.05, Yaw : 359.84, Alt : 43.3100013733, Lat : 49.2835704, Lng : -123.1150206, Q1 : 0.999998867512, Q2 : -0.000418769108364, Q3 : 0.000482044735691, Q4 : -0.00134243769571}
2019-04-14 11:49:26.21: SIM {TimeUS : 50834658, Roll : -0.02, Pitch : 0.05, Yaw : 359.84, Alt : 43.5499992371, Lat : 49.2835704, Lng : -123.1150206, Q1 : 0.999998927116, Q2 : -0.000259183580056, Q3 : 0.0004467216786, Q4 : -0.0013699271949}
2019-04-14 11:49:26.31: SIM {TimeUS : 50934618, Roll : -0.01, Pitch : 0.05, Yaw : 359.83, Alt : 43.7799987793, Lat : 49.2835704, Lng : -123.1150206, Q1 : 0.999998927116, Q2 : -0.00013196177315, Q3 : 0.000478749745525, Q4 : -0.00139701401349}
2019-04-14 11:49:26.41: SIM {TimeUS : 51034578, Roll : -0.01, Pitch : 0.04, Yaw : 359.83, Alt : 44.0200004578, Lat : 49.2835704, Lng : -123.1150206, Q1 : 0.999998927116, Q2 : -0.000110235196189, Q3 : 0.000371219532099, Q4 : -0.00142458861228}
2019-04-14 11:49:26.51: SIM {TimeUS : 51134538, Roll : -0.01, Pitch : 0.01, Yaw : 359.83, Alt : 44.2599983215, Lat : 49.2835704, Lng : -123.1150206, Q1 : 0.999998927116, Q2 : -0.000146448786836, Q3 : 0.000115402501251, Q4 : -0.00145475275349}
2019-04-14 11:49:26.61: SIM {TimeUS : 51234498, Roll : -0.02, Pitch : 0.0, Yaw : 359.82, Alt : 44.4900016785, Lat : 49.2835704, Lng : -123.1150206, Q1 : 0.999998867512, Q2 : -0.000175749592017, Q3 : -7.47703888919e-05, Q4 : -0.00148950400762}
2019-04-14 11:49:26.71: SIM {TimeUS : 51334458, Roll : -0.01, Pitch : -0.02, Yaw : 359.82, Alt : 44.7299995422, Lat : 49.2835704, Lng : -123.1150206, Q1 : 0.999998807907, Q2 : -0.000120087177493, Q3 : -0.000236037492868, Q4 : -0.00152266584337}
2019-04-14 11:49:26.81: SIM {TimeUS : 51435251, Roll : -0.01, Pitch : -0.04, Yaw : 359.82, Alt : 44.9700012207, Lat : 49.2835704, Lng : -123.1150206, Q1 : 0.999998748302, Q2 : -0.000172485495568, Q3 : -0.000355503725586, Q4 : -0.00155500706751}
2019-04-14 11:49:26.91: SIM {TimeUS : 51535211, Roll : -0.05, Pitch : -0.04, Yaw : 359.81, Alt : 45.2000007629, Lat : 49.2835704, Lng : -123.1150206, Q1 : 0.999998569489, Q2 : -0.000452634529211, Q3 : -0.000387786974898, Q4 : -0.00158477493096}
2019-04-14 11:49:27.01: SIM {TimeUS : 51635171, Roll : -0.09, Pitch : -0.04, Yaw : 359.81, Alt : 45.4399986267, Lat : 49.2835704, Lng : -123.1150206, Q1 : 0.999998271465, Q2 : -0.000818851287477, Q3 : -0.000373978749849, Q4 : -0.0016111205332}
2019-04-14 11:49:27.11: SIM {TimeUS : 51735131, Roll : -0.11, Pitch : -0.04, Yaw : 359.81, Alt : 45.6699981689, Lat : 49.2835703, Lng : -123.1150206, Q1 : 0.999998092651, Q2 : -0.0010303958552, Q3 : -0.00036410978646, Q4 : -0.00163383409381}
2019-04-14 11:49:27.21: SIM {TimeUS : 51835091, Roll : -0.11, Pitch : -0.02, Yaw : 359.81, Alt : 45.9099998474, Lat : 49.2835703, Lng : -123.1150206, Q1 : 0.999998092651, Q2 : -0.00102504703682, Q3 : -0.000232369216974, Q4 : -0.00165323948022}
2019-04-14 11:49:27.31: SIM {TimeUS : 51935051, Roll : -0.09, Pitch : 0.0, Yaw : 359.8, Alt : 46.1399993896, Lat : 49.2835704, Lng : -123.1150206, Q1 : 0.999998211861, Q2 : -0.000829849101137, Q3 : 3.5279095755e-05, Q4 : -0.00167826726101}
2019-04-14 11:49:27.41: SIM {TimeUS : 52035011, Roll : -0.06, Pitch : 0.02, Yaw : 359.8, Alt : 46.3600006104, Lat : 49.2835704, Lng : -123.1150206, Q1 : 0.999998390675, Q2 : -0.000557277409825, Q3 : 0.000209733028896, Q4 : -0.00170232309029}
2019-04-14 11:49:27.51: SIM {TimeUS : 52134971, Roll : -0.04, Pitch : 0.02, Yaw : 359.8, Alt : 46.5800018311, Lat : 49.2835704, Lng : -123.1150206, Q1 : 0.999998390675, Q2 : -0.000373480928829, Q3 : 0.000230581674259, Q4 : -0.00172697706148}
2019-04-14 11:49:27.61: SIM {TimeUS : 52234931, Roll : -0.03, Pitch : 0.01, Yaw : 359.79, Alt : 46.7999992371, Lat : 49.2835704, Lng : -123.1150206, Q1 : 0.999998390675, Q2 : -0.000312579999445, Q3 : 0.000138928357046, Q4 : -0.00175263150595}
2019-04-14 11:49:27.71: SIM {TimeUS : 52334891, Roll : -0.02, Pitch : -0.01, Yaw : 359.79, Alt : 47.0099983215, Lat : 49.2835703, Lng : -123.1150206, Q1 : 0.999998390675, Q2 : -0.000205821590498, Q3 : -0.000104700251541, Q4 : -0.00177991448436}
2019-04-14 11:49:27.81: SIM {TimeUS : 52434851, Roll : 0.0, Pitch : -0.04, Yaw : 359.79, Alt : 47.2200012207, Lat : 49.2835703, Lng : -123.1150206, Q1 : 0.999998271465, Q2 : -2.83369645331e-05, Q3 : -0.000389904336771, Q4 : -0.0018052685773}
2019-04-14 11:49:27.91: SIM {TimeUS : 52534811, Roll : 0.0, Pitch : -0.07, Yaw : 359.79, Alt : 47.4099998474, Lat : 49.2835703, Lng : -123.1150206, Q1 : 0.999998092651, Q2 : 3.3179687307e-05, Q3 : -0.000644928135443, Q4 : -0.0018309741281}
2019-04-14 11:49:28.01: SIM {TimeUS : 52634771, Roll : 0.0, Pitch : -0.09, Yaw : 359.78, Alt : 47.5999984741, Lat : 49.2835703, Lng : -123.1150206, Q1 : 0.999997913837, Q2 : -1.90976024896e-05, Q3 : -0.000828210497275, Q4 : -0.00185554556083}
2019-04-14 11:49:28.11: SIM {TimeUS : 52734731, Roll : 0.0, Pitch : -0.12, Yaw : 359.78, Alt : 47.7700004578, Lat : 49.2835703, Lng : -123.1150206, Q1 : 0.999997615814, Q2 : 8.29431301099e-05, Q3 : -0.00112945551518, Q4 : -0.00187836028636}
2019-04-14 11:49:28.21: SIM {TimeUS : 52834691, Roll : 0.03, Pitch : -0.14, Yaw : 359.78, Alt : 47.9399986267, Lat : 49.2835703, Lng : -123.1150206, Q1 : 0.999997377396, Q2 : 0.000290678668534, Q3 : -0.00124976271763, Q4 : -0.00190194265451}
2019-04-14 11:49:28.31: SIM {TimeUS : 52934651, Roll : 0.06, Pitch : -0.12, Yaw : 359.77, Alt : 48.0900001526, Lat : 49.2835704, Lng : -123.1150206, Q1 : 0.999997377396, Q2 : 0.000547314237338, Q3 : -0.00113172316924, Q4 : -0.00192298891488}
2019-04-14 11:49:28.41: SIM {TimeUS : 53034611, Roll : 0.07, Pitch : -0.09, Yaw : 359.77, Alt : 48.2299995422, Lat : 49.2835704, Lng : -123.1150206, Q1 : 0.999997496605, Q2 : 0.000673081900459, Q3 : -0.000849888892844, Q4 : -0.0019411847461}
2019-04-14 11:49:28.51: SIM {TimeUS : 53134571, Roll : 0.08, Pitch : -0.06, Yaw : 359.77, Alt : 48.3600006104, Lat : 49.2835704, Lng : -123.1150206, Q1 : 0.999997615814, Q2 : 0.000761259405408, Q3 : -0.000588252441958, Q4 : -0.00196169153787}
2019-04-14 11:49:28.61: SIM {TimeUS : 53234531, Roll : 0.08, Pitch : -0.06, Yaw : 359.77, Alt : 48.4799995422, Lat : 49.2835704, Lng : -123.1150206, Q1 : 0.999997675419, Q2 : 0.000713396002539, Q3 : -0.000534659076948, Q4 : -0.00198422721587}
2019-04-14 11:49:28.71: SIM {TimeUS : 53334491, Roll : 0.05, Pitch : -0.05, Yaw : 359.76, Alt : 48.5800018311, Lat : 49.2835704, Lng : -123.1150206, Q1 : 0.999997735023, Q2 : 0.00048287055688, Q3 : -0.000482075934997, Q4 : -0.00201533455402}
2019-04-14 11:49:28.82: SIM {TimeUS : 53435284, Roll : 0.03, Pitch : -0.03, Yaw : 359.76, Alt : 48.6699981689, Lat : 49.2835704, Lng : -123.1150206, Q1 : 0.999997794628, Q2 : 0.0002972598013, Q3 : -0.000346138229361, Q4 : -0.00205008382909}
2019-04-14 11:49:28.91: SIM {TimeUS : 53535244, Roll : 0.01, Pitch : -0.02, Yaw : 359.76, Alt : 48.75, Lat : 49.2835704, Lng : -123.1150206, Q1 : 0.999997794628, Q2 : 0.000141561860801, Q3 : -0.000199066940695, Q4 : -0.00208157068118}
2019-04-14 11:49:29.01: SIM {TimeUS : 53635204, Roll : 0.0, Pitch : 0.0, Yaw : 359.75, Alt : 48.8199996948, Lat : 49.2835704, Lng : -123.1150206, Q1 : 0.999997794628, Q2 : 5.77799255552e-05, Q3 : 1.75120512722e-05, Q4 : -0.00210719695315}
2019-04-14 11:49:29.11: SIM {TimeUS : 53735164, Roll : 0.01, Pitch : 0.03, Yaw : 359.75, Alt : 48.8800010681, Lat : 49.2835704, Lng : -123.1150206, Q1 : 0.999997675419, Q2 : 0.000163725140737, Q3 : 0.000304427463561, Q4 : -0.00213427096605}
2019-04-14 11:49:29.21: SIM {TimeUS : 53835124, Roll : 0.03, Pitch : 0.05, Yaw : 359.75, Alt : 48.9399986267, Lat : 49.2835704, Lng : -123.1150206, Q1 : 0.999997496605, Q2 : 0.000344006053638, Q3 : 0.000446772988653, Q4 : -0.00216339319013}
2019-04-14 11:49:29.31: SIM {TimeUS : 53935084, Roll : 0.06, Pitch : 0.02, Yaw : 359.74, Alt : 48.9799995422, Lat : 49.2835704, Lng : -123.1150206, Q1 : 0.999997437, Q2 : 0.000561306427699, Q3 : 0.000226036645472, Q4 : -0.00218974333256}
2019-04-14 11:49:29.41: SIM {TimeUS : 54035044, Roll : 0.16, Pitch : -0.06, Yaw : 359.74, Alt : 49.0200004578, Lat : 49.2835704, Lng : -123.1150206, Q1 : 0.999996423721, Q2 : 0.00140556343831, Q3 : -0.00060745695373, Q4 : -0.00221276562661}
2019-04-14 11:49:29.51: SIM {TimeUS : 54135004, Roll : 0.43, Pitch : -0.3, Yaw : 359.74, Alt : 49.0499992371, Lat : 49.2835704, Lng : -123.1150206, Q1 : 0.999986708164, Q2 : 0.00378693873063, Q3 : -0.00268372893333, Q4 : -0.00223356252536}
2019-04-14 11:49:29.61: SIM {TimeUS : 54234964, Roll : 0.94, Pitch : -0.69, Yaw : 359.73, Alt : 49.0800018311, Lat : 49.2835704, Lng : -123.1150206, Q1 : 0.999945223331, Q2 : 0.00821097474545, Q3 : -0.00608894973993, Q4 : -0.00224728276953}
2019-04-14 11:49:29.71: SIM {TimeUS : 54334924, Roll : 1.65, Pitch : -1.19, Yaw : 359.72, Alt : 49.0999984741, Lat : 49.2835706, Lng : -123.1150206, Q1 : 0.999839067459, Q2 : 0.0143956113607, Q3 : -0.0104653025046, Q4 : -0.00224570650607}
2019-04-14 11:49:29.81: SIM {TimeUS : 54434884, Roll : 2.49, Pitch : -1.78, Yaw : 359.7, Alt : 49.1300010681, Lat : 49.2835706, Lng : -123.1150205, Q1 : 0.999639987946, Q2 : 0.0217103473842, Q3 : -0.0156112378463, Q4 : -0.00220897560939}
2019-04-14 11:49:29.91: SIM {TimeUS : 54534844, Roll : 3.33, Pitch : -2.36, Yaw : 359.68, Alt : 49.1399993896, Lat : 49.2835707, Lng : -123.1150204, Q1 : 0.999361038208, Q2 : 0.0290356986225, Q3 : -0.0207346845418, Q4 : -0.00212222803384}
2019-04-14 11:49:30.01: SIM {TimeUS : 54634804, Roll : 4.04, Pitch : -2.86, Yaw : 359.67, Alt : 49.1599998474, Lat : 49.2835708, Lng : -123.1150202, Q1 : 0.999062001705, Q2 : 0.0352521203458, Q3 : -0.0250704288483, Q4 : -0.00197171838954}
2019-04-14 11:49:30.11: SIM {TimeUS : 54734764, Roll : 4.58, Pitch : -3.24, Yaw : 359.66, Alt : 49.1699981689, Lat : 49.2835709, Lng : -123.11502, Q1 : 0.998798251152, Q2 : 0.0398789756, Q3 : -0.0284358337522, Q4 : -0.00176302110776}
2019-04-14 11:49:30.21: SIM {TimeUS : 54834724, Roll : 4.97, Pitch : -3.53, Yaw : 359.67, Alt : 49.1800003052, Lat : 49.2835709, Lng : -123.1150197, Q1 : 0.99857956171, Q2 : 0.0433247983456, Q3 : -0.0309774000198, Q4 : -0.00150762870908}
2019-04-14 11:49:30.31: SIM {TimeUS : 54934684, Roll : 5.29, Pitch : -3.76, Yaw : 359.68, Alt : 49.1899986267, Lat : 49.2835712, Lng : -123.1150192, Q1 : 0.998392879963, Q2 : 0.0460859239101, Q3 : -0.0329580642283, Q4 : -0.00123261846602}
2019-04-14 11:49:30.41: SIM {TimeUS : 55034644, Roll : 5.57, Pitch : -3.95, Yaw : 359.69, Alt : 49.2000007629, Lat : 49.2835715, Lng : -123.1150187, Q1 : 0.99822384119, Q2 : 0.0484963804483, Q3 : -0.0345893725753, Q4 : -0.000947424443439}
2019-04-14 11:49:30.51: SIM {TimeUS : 55134604, Roll : 5.85, Pitch : -4.14, Yaw : 359.7, Alt : 49.2099990845, Lat : 49.2835718, Lng : -123.1150181, Q1 : 0.998043358326, Q2 : 0.0509529933333, Q3 : -0.0362324491143, Q4 : -0.000683093443513}
2019-04-14 11:49:30.61: SIM {TimeUS : 55234564, Roll : 6.15, Pitch : -4.35, Yaw : 359.71, Alt : 49.2200012207, Lat : 49.2835721, Lng : -123.1150173, Q1 : 0.997840642929, Q2 : 0.0535295456648, Q3 : -0.0380581095815, Q4 : -0.000447409576736}
2019-04-14 11:49:30.71: SIM {TimeUS : 55334524, Roll : 6.43, Pitch : -4.53, Yaw : 359.71, Alt : 49.2299995422, Lat : 49.2835725, Lng : -123.1150165, Q1 : 0.997644245625, Q2 : 0.0559711642563, Q3 : -0.0396630913019, Q4 : -0.000225533600315}
2019-04-14 11:49:30.81: SIM {TimeUS : 55434484, Roll : 6.64, Pitch : -4.66, Yaw : 359.72, Alt : 49.2299995422, Lat : 49.2835728, Lng : -123.1150156, Q1 : 0.997492611408, Q2 : 0.0578316487372, Q3 : -0.0407928079367, Q4 : -2.38531210925e-05}
2019-04-14 11:49:30.92: SIM {TimeUS : 55535277, Roll : 6.8, Pitch : -4.76, Yaw : 359.73, Alt : 49.2400016785, Lat : 49.2835733, Lng : -123.1150146, Q1 : 0.997377514839, Q2 : 0.0591729953885, Q3 : -0.0416726991534, Q4 : 0.000134588437504}
2019-04-14 11:49:31.01: SIM {TimeUS : 55635237, Roll : 6.91, Pitch : -4.85, Yaw : 359.73, Alt : 49.2400016785, Lat : 49.2835739, Lng : -123.1150134, Q1 : 0.997290194035, Q2 : 0.060125451535, Q3 : -0.0423929281533, Q4 : 0.000239489672822}
2019-04-14 11:49:31.11: SIM {TimeUS : 55735197, Roll : 7.02, Pitch : -4.91, Yaw : 359.73, Alt : 49.25, Lat : 49.2835745, Lng : -123.1150123, Q1 : 0.997207403183, Q2 : 0.0610963813961, Q3 : -0.0429484881461, Q4 : 0.000296181737212}
2019-04-14 11:49:31.21: SIM {TimeUS : 55835157, Roll : 7.21, Pitch : -4.95, Yaw : 359.74, Alt : 49.25, Lat : 49.2835751, Lng : -123.115011, Q1 : 0.997089445591, Q2 : 0.0627529174089, Q3 : -0.043295301497, Q4 : 0.000497266009916}
2019-04-14 11:49:31.31: SIM {TimeUS : 55935117, Roll : 7.61, Pitch : -4.84, Yaw : 0.06, Alt : 49.2599983215, Lat : 49.2835757, Lng : -123.1150096, Q1 : 0.996902167797, Q2 : 0.0663519054651, Q3 : -0.0421004407108, Q4 : 0.00332928309217}
2019-04-14 11:49:31.41: SIM {TimeUS : 56035077, Roll : 8.21, Pitch : -4.62, Yaw : 1.32, Alt : 49.2599983215, Lat : 49.2835763, Lng : -123.1150081, Q1 : 0.996518850327, Q2 : 0.0720240473747, Q3 : -0.039442025125, Q4 : 0.0143919466063}
2019-04-14 11:49:31.51: SIM {TimeUS : 56135037, Roll : 8.79, Pitch : -4.68, Yaw : 4.07, Alt : 49.2599983215, Lat : 49.283577, Lng : -123.1150066, Q1 : 0.995482563972, Q2 : 0.0779939368367, Q3 : -0.038042537868, Q4 : 0.0385251715779}
2019-04-14 11:49:31.61: SIM {TimeUS : 56234997, Roll : 9.09, Pitch : -5.25, Yaw : 8.39, Alt : 49.2599983215, Lat : 49.2835776, Lng : -123.1150049, Q1 : 0.992868065834, Q2 : 0.0823227465153, Q3 : -0.0398110188544, Q4 : 0.0764921307564}
2019-04-14 11:49:31.71: SIM {TimeUS : 56334957, Roll : 8.91, Pitch : -6.33, Yaw : 14.11, Alt : 49.2599983215, Lat : 49.2835783, Lng : -123.1150031, Q1 : 0.987380504608, Q2 : 0.0837631002069, Q3 : -0.0451774671674, Q4 : 0.126579836011}
2019-04-14 11:49:31.81: SIM {TimeUS : 56434917, Roll : 8.13, Pitch : -7.79, Yaw : 21.0, Alt : 49.2700004578, Lat : 49.2835792, Lng : -123.1150012, Q1 : 0.97763055563, Q2 : 0.0819575786591, Q3 : -0.053738001734, Q4 : 0.186101123691}
2019-04-14 11:49:31.91: SIM {TimeUS : 56534877, Roll : 6.76, Pitch : -9.41, Yaw : 28.78, Alt : 49.2700004578, Lat : 49.2835799, Lng : -123.1149992, Q1 : 0.96245187521, Q2 : 0.0773186609149, Q3 : -0.0647750124335, Q4 : 0.252016663551}
2019-04-14 11:49:32.01: SIM {TimeUS : 56634837, Roll : 4.85, Pitch : -10.96, Yaw : 37.22, Alt : 49.2700004578, Lat : 49.2835806, Lng : -123.1149971, Q1 : 0.941220164299, Q2 : 0.0704029798508, Q3 : -0.0770391598344, Q4 : 0.321267843246}
2019-04-14 11:49:32.11: SIM {TimeUS : 56734797, Roll : 2.35, Pitch : -12.22, Yaw : 45.99, Alt : 49.2700004578, Lat : 49.2835814, Lng : -123.1149948, Q1 : 0.914257764816, Q2 : 0.0603662952781, Q3 : -0.0900153592229, Q4 : 0.390366405249}
2019-04-14 11:49:32.21: SIM {TimeUS : 56834757, Roll : -0.74, Pitch : -12.98, Yaw : 54.39, Alt : 49.2700004578, Lat : 49.2835824, Lng : -123.1149925, Q1 : 0.884047985077, Q2 : 0.0459774769843, Q3 : -0.103531032801, Q4 : 0.453460603952}
2019-04-14 11:49:32.31: SIM {TimeUS : 56934717, Roll : -3.89, Pitch : -13.17, Yaw : 61.53, Alt : 49.2700004578, Lat : 49.2835832, Lng : -123.11499, Q1 : 0.855079889297, Q2 : 0.0296543221921, Q3 : -0.115781143308, Q4 : 0.504533171654}
2019-04-14 11:49:32.41: SIM {TimeUS : 57034677, Roll : -6.44, Pitch : -12.96, Yaw : 66.75, Alt : 49.2700004578, Lat : 49.2835843, Lng : -123.1149875, Q1 : 0.83188354969, Q2 : 0.0154273528606, Q3 : -0.124858193099, Q4 : 0.540501892567}
2019-04-14 11:49:32.51: SIM {TimeUS : 57134637, Roll : -7.97, Pitch : -12.66, Yaw : 69.87, Alt : 49.2700004578, Lat : 49.2835854, Lng : -123.114985, Q1 : 0.817181408405, Q2 : 0.00635102577507, Q3 : -0.129778578877, Q4 : 0.561544120312}
2019-04-14 11:49:32.61: SIM {TimeUS : 57234597, Roll : -8.43, Pitch : -12.5, Yaw : 71.07, Alt : 49.2700004578, Lat : 49.2835867, Lng : -123.1149824, Q1 : 0.811380207539, Q2 : 0.0036181055475, Q3 : -0.130850628018, Q4 : 0.569672882557}
2019-04-14 11:49:32.71: SIM {TimeUS : 57334557, Roll : -7.95, Pitch : -12.6, Yaw : 70.67, Alt : 49.2700004578, Lat : 49.2835879, Lng : -123.1149797, Q1 : 0.813266336918, Q2 : 0.00709947524592, Q3 : -0.129223495722, Q4 : 0.567317128181}
2019-04-14 11:49:32.81: SIM {TimeUS : 57434517, Roll : -6.78, Pitch : -13.01, Yaw : 69.06, Alt : 49.2700004578, Lat : 49.2835893, Lng : -123.114977, Q1 : 0.820848941803, Q2 : 0.0157008655369, Q3 : -0.126496464014, Q4 : 0.556739747524}
2019-04-14 11:49:32.91: SIM {TimeUS : 57534477, Roll : -5.14, Pitch : -13.64, Yaw : 66.58, Alt : 49.2700004578, Lat : 49.2835909, Lng : -123.1149742, Q1 : 0.832032382488, Q2 : 0.0278754904866, Q3 : -0.12369608134, Q4 : 0.540041029453}
2019-04-14 11:49:33.02: SIM {TimeUS : 57635270, Roll : -3.26, Pitch : -14.39, Yaw : 63.52, Alt : 49.2799987793, Lat : 49.2835925, Lng : -123.1149713, Q1 : 0.845055878162, Q2 : 0.0418933108449, Q3 : -0.121352918446, Q4 : 0.519036591053}
2019-04-14 11:49:33.11: SIM {TimeUS : 57735230, Roll : -1.34, Pitch : -15.06, Yaw : 60.25, Alt : 49.2799987793, Lat : 49.283594, Lng : -123.1149685, Q1 : 0.858176827431, Q2 : 0.0557110123336, Q3 : -0.119271092117, Q4 : 0.496188700199}
2019-04-14 11:49:33.21: SIM {TimeUS : 57835190, Roll : 0.44, Pitch : -15.56, Yaw : 57.05, Alt : 49.2799987793, Lat : 49.2835958, Lng : -123.1149654, Q1 : 0.870226383209, Q2 : 0.0680440440774, Q3 : -0.117101691663, Q4 : 0.473670065403}
2019-04-14 11:49:33.31: SIM {TimeUS : 57935150, Roll : 1.95, Pitch : -15.83, Yaw : 54.27, Alt : 49.2799987793, Lat : 49.2835974, Lng : -123.1149622, Q1 : 0.880212903023, Q2 : 0.0778671205044, Q3 : -0.114894196391, Q4 : 0.453829556704}
2019-04-14 11:49:33.41: SIM {TimeUS : 58035110, Roll : 3.04, Pitch : -15.92, Yaw : 52.15, Alt : 49.2799987793, Lat : 49.283599, Lng : -123.114959, Q1 : 0.887601077557, Q2 : 0.0845036432147, Q3 : -0.112820714712, Q4 : 0.438514441252}
2019-04-14 11:49:33.51: SIM {TimeUS : 58135070, Roll : 3.63, Pitch : -15.9, Yaw : 50.82, Alt : 49.2799987793, Lat : 49.2836007, Lng : -123.1149555, Q1 : 0.892238199711, Q2 : 0.0876941159368, Q3 : -0.111422330141, Q4 : 0.428725749254}
2019-04-14 11:49:33.61: SIM {TimeUS : 58235030, Roll : 3.73, Pitch : -15.83, Yaw : 50.28, Alt : 49.2799987793, Lat : 49.2836025, Lng : -123.1149521, Q1 : 0.894237816334, Q2 : 0.0877332538366, Q3 : -0.110900528729, Q4 : 0.424667805433}
2019-04-14 11:49:33.71: SIM {TimeUS : 58334990, Roll : 3.44, Pitch : -15.78, Yaw : 50.46, Alt : 49.2799987793, Lat : 49.2836041, Lng : -123.1149484, Q1 : 0.89383906126, Q2 : 0.0854390114546, Q3 : -0.111488640308, Q4 : 0.425819426775}
2019-04-14 11:49:33.81: SIM {TimeUS : 58434950, Roll : 2.81, Pitch : -15.81, Yaw : 51.22, Alt : 49.2799987793, Lat : 49.2836057, Lng : -123.1149446, Q1 : 0.891444921494, Q2 : 0.0813705548644, Q3 : -0.113485112786, Q4 : 0.431075334549}
2019-04-14 11:49:33.91: SIM {TimeUS : 58534910, Roll : 1.99, Pitch : -15.91, Yaw : 52.37, Alt : 49.2799987793, Lat : 49.2836074, Lng : -123.1149408, Q1 : 0.887534022331, Q2 : 0.076530225575, Q3 : -0.116615191102, Q4 : 0.439121097326}
2019-04-14 11:49:34.01: SIM {TimeUS : 58634870, Roll : 1.11, Pitch : -16.04, Yaw : 53.72, Alt : 49.2799987793, Lat : 49.2836092, Lng : -123.1149369, Q1 : 0.882723391056, Q2 : 0.071643397212, Q3 : -0.12013245374, Q4 : 0.448592096567}
2019-04-14 11:49:34.11: SIM {TimeUS : 58734830, Roll : 0.26, Pitch : -16.16, Yaw : 55.09, Alt : 49.2799987793, Lat : 49.283611, Lng : -123.1149328, Q1 : 0.877665698528, Q2 : 0.0670822039247, Q3 : -0.123585738242, Q4 : 0.458180606365}
2019-04-14 11:49:34.21: SIM {TimeUS : 58834790, Roll : -0.47, Pitch : -16.27, Yaw : 56.33, Alt : 49.2799987793, Lat : 49.2836128, Lng : -123.1149288, Q1 : 0.872951805592, Q2 : 0.0632048174739, Q3 : -0.126751631498, Q4 : 0.46679148078}
2019-04-14 11:49:34.31: SIM {TimeUS : 58934750, Roll : -1.05, Pitch : -16.37, Yaw : 57.33, Alt : 49.2900009155, Lat : 49.2836146, Lng : -123.1149247, Q1 : 0.869069635868, Q2 : 0.0603395439684, Q3 : -0.129281058908, Q4 : 0.473670303822}
2019-04-14 11:49:34.41: SIM {TimeUS : 59034710, Roll : -1.41, Pitch : -16.44, Yaw : 58.01, Alt : 49.2900009155, Lat : 49.2836164, Lng : -123.1149205, Q1 : 0.866336286068, Q2 : 0.0586716905236, Q3 : -0.131011366844, Q4 : 0.478388041258}
2019-04-14 11:49:34.51: SIM {TimeUS : 59134670, Roll : -1.56, Pitch : -16.49, Yaw : 58.36, Alt : 49.2900009155, Lat : 49.2836183, Lng : -123.1149163, Q1 : 0.864904046059, Q2 : 0.0581109412014, Q3 : -0.131815105677, Q4 : 0.480821073055}
2019-04-14 11:49:34.61: SIM {TimeUS : 59234630, Roll : -1.51, Pitch : -16.52, Yaw : 58.4, Alt : 49.2900009155, Lat : 49.2836201, Lng : -123.114912, Q1 : 0.864704191685, Q2 : 0.0586957894266, Q3 : -0.13180103898, Q4 : 0.481113195419}
2019-04-14 11:49:34.71: SIM {TimeUS : 59334590, Roll : -1.28, Pitch : -16.54, Yaw : 58.16, Alt : 49.2900009155, Lat : 49.283622, Lng : -123.1149077, Q1 : 0.865538835526, Q2 : 0.0602241232991, Q3 : -0.131139963865, Q4 : 0.479601860046}
2019-04-14 11:49:34.81: SIM {TimeUS : 59434550, Roll : -0.95, Pitch : -16.57, Yaw : 57.74, Alt : 49.2900009155, Lat : 49.2836241, Lng : -123.1149034, Q1 : 0.867117762566, Q2 : 0.0623548254371, Q3 : -0.13016654551, Q4 : 0.476734042168}
2019-04-14 11:49:34.91: SIM {TimeUS : 59534510, Roll : -0.56, Pitch : -16.59, Yaw : 57.19, Alt : 49.2900009155, Lat : 49.2836261, Lng : -123.114899, Q1 : 0.869123220444, Q2 : 0.0647956132889, Q3 : -0.12907473743, Q4 : 0.473039209843}
2019-04-14 11:49:35.01: SIM {TimeUS : 59634470, Roll : -0.17, Pitch : -16.63, Yaw : 56.61, Alt : 49.2900009155, Lat : 49.283628, Lng : -123.1148945, Q1 : 0.871243476868, Q2 : 0.0672737956047, Q3 : -0.128112688661, Q4 : 0.469037532806}
2019-04-14 11:49:35.12: SIM {TimeUS : 59735263, Roll : 0.16, Pitch : -16.68, Yaw : 56.06, Alt : 49.2900009155, Lat : 49.28363, Lng : -123.11489, Q1 : 0.873253941536, Q2 : 0.0694522187114, Q3 : -0.12736749649, Q4 : 0.465168267488}
2019-04-14 11:49:35.21: SIM {TimeUS : 59835223, Roll : 0.43, Pitch : -16.72, Yaw : 55.59, Alt : 49.2900009155, Lat : 49.2836322, Lng : -123.1148855, Q1 : 0.874938905239, Q2 : 0.0710967630148, Q3 : -0.126893341541, Q4 : 0.461871445179}
2019-04-14 11:49:35.31: SIM {TimeUS : 59935183, Roll : 0.59, Pitch : -16.76, Yaw : 55.24, Alt : 49.2900009155, Lat : 49.2836341, Lng : -123.114881, Q1 : 0.87618637085, Q2 : 0.0721549391747, Q3 : -0.126763492823, Q4 : 0.459371447563}
2019-04-14 11:49:35.41: SIM {TimeUS : 60035143, Roll : 0.67, Pitch : -16.8, Yaw : 55.03, Alt : 49.2900009155, Lat : 49.2836363, Lng : -123.1148764, Q1 : 0.876940965652, Q2 : 0.0726730376482, Q3 : -0.12695248425, Q4 : 0.45779505372}
2019-04-14 11:49:35.51: SIM {TimeUS : 60135103, Roll : 0.64, Pitch : -16.85, Yaw : 54.95, Alt : 49.2900009155, Lat : 49.2836383, Lng : -123.1148717, Q1 : 0.87724173069, Q2 : 0.0725308582187, Q3 : -0.127422600985, Q4 : 0.457110226154}
2019-04-14 11:49:35.61: SIM {TimeUS : 60235063, Roll : 0.54, Pitch : -16.87, Yaw : 54.98, Alt : 49.2900009155, Lat : 49.2836403, Lng : -123.114867, Q1 : 0.877147495747, Q2 : 0.071887947619, Q3 : -0.12797267735, Q4 : 0.457238912582}
2019-04-14 11:49:35.71: SIM {TimeUS : 60335023, Roll : 0.39, Pitch : -16.9, Yaw : 55.1, Alt : 49.2999992371, Lat : 49.2836425, Lng : -123.1148623, Q1 : 0.876715123653, Q2 : 0.0710147321224, Q3 : -0.128711715341, Q4 : 0.45799651742}
2019-04-14 11:49:35.81: SIM {TimeUS : 60434983, Roll : 0.24, Pitch : -16.94, Yaw : 55.28, Alt : 49.2999992371, Lat : 49.2836445, Lng : -123.1148575, Q1 : 0.87603700161, Q2 : 0.0702088326216, Q3 : -0.12954211235, Q4 : 0.459182739258}
2019-04-14 11:49:35.91: SIM {TimeUS : 60534943, Roll : 0.09, Pitch : -16.98, Yaw : 55.49, Alt : 49.2999992371, Lat : 49.2836467, Lng : -123.1148527, Q1 : 0.875244438648, Q2 : 0.0695189908147, Q3 : -0.130318701267, Q4 : 0.460577219725}
2019-04-14 11:49:36.01: SIM {TimeUS : 60634903, Roll : -0.01, Pitch : -17.03, Yaw : 55.69, Alt : 49.2999992371, Lat : 49.2836487, Lng : -123.1148479, Q1 : 0.874441862106, Q2 : 0.0690471082926, Q3 : -0.131004989147, Q4 : 0.46197578311}
2019-04-14 11:49:36.11: SIM {TimeUS : 60734863, Roll : -0.09, Pitch : -17.07, Yaw : 55.87, Alt : 49.2999992371, Lat : 49.2836509, Lng : -123.114843, Q1 : 0.873719453812, Q2 : 0.0688367262483, Q3 : -0.13155823946, Q4 : 0.463215231895}
2019-04-14 11:49:36.21: SIM {TimeUS : 60834823, Roll : -0.15, Pitch : -17.12, Yaw : 56.01, Alt : 49.2999992371, Lat : 49.283653, Lng : -123.1148382, Q1 : 0.873159706593, Q2 : 0.0687372758985, Q3 : -0.132056027651, Q4 : 0.464142769575}
2019-04-14 11:49:36.31: SIM {TimeUS : 60934783, Roll : -0.19, Pitch : -17.15, Yaw : 56.09, Alt : 49.2999992371, Lat : 49.2836552, Lng : -123.1148333, Q1 : 0.872823417187, Q2 : 0.0686200782657, Q3 : -0.132393091917, Q4 : 0.464696347713}
2019-04-14 11:49:36.41: SIM {TimeUS : 61034743, Roll : -0.22, Pitch : -17.16, Yaw : 56.11, Alt : 49.2999992371, Lat : 49.2836573, Lng : -123.1148284, Q1 : 0.872718214989, Q2 : 0.068497300148, Q3 : -0.132605850697, Q4 : 0.464851349592}
2019-04-14 11:49:36.51: SIM {TimeUS : 61134703, Roll : -0.21, Pitch : -17.17, Yaw : 56.09, Alt : 49.2999992371, Lat : 49.2836596, Lng : -123.1148235, Q1 : 0.872804760933, Q2 : 0.0685764253139, Q3 : -0.132651925087, Q4 : 0.464663982391}
2019-04-14 11:49:36.61: SIM {TimeUS : 61234663, Roll : -0.17, Pitch : -17.18, Yaw : 56.02, Alt : 49.2999992371, Lat : 49.2836618, Lng : -123.1148185, Q1 : 0.873035490513, Q2 : 0.0688579827547, Q3 : -0.132636249065, Q4 : 0.464193165302}
2019-04-14 11:49:36.71: SIM {TimeUS : 61334623, Roll : -0.1, Pitch : -17.22, Yaw : 55.93, Alt : 49.3100013733, Lat : 49.2836639, Lng : -123.1148136, Q1 : 0.873337328434, Q2 : 0.0694395825267, Q3 : -0.132674559951, Q4 : 0.463527351618}
2019-04-14 11:49:36.81: SIM {TimeUS : 61434583, Roll : -0.01, Pitch : -17.28, Yaw : 55.81, Alt : 49.3100013733, Lat : 49.2836662, Lng : -123.1148086, Q1 : 0.873665690422, Q2 : 0.0702016279101, Q3 : -0.132853388786, Q4 : 0.462741792202}
2019-04-14 11:49:36.91: SIM {TimeUS : 61534543, Roll : 0.06, Pitch : -17.31, Yaw : 55.7, Alt : 49.3100013733, Lat : 49.2836683, Lng : -123.1148035, Q1 : 0.874039709568, Q2 : 0.0707983523607, Q3 : -0.132844254375, Q4 : 0.461946517229}
2019-04-14 11:49:37.01: SIM {TimeUS : 61634503, Roll : 0.12, Pitch : -17.31, Yaw : 55.6, Alt : 49.3100013733, Lat : 49.2836706, Lng : -123.1147985, Q1 : 0.874419569969, Q2 : 0.0711989179254, Q3 : -0.132645428181, Q4 : 0.461222618818}
2019-04-14 11:49:37.11: SIM {TimeUS : 61734463, Roll : 0.17, Pitch : -17.33, Yaw : 55.51, Alt : 49.3100013733, Lat : 49.2836729, Lng : -123.1147935, Q1 : 0.874730110168, Q2 : 0.0715386122465, Q3 : -0.132614001632, Q4 : 0.460589855909}
2019-04-14 11:49:37.22: SIM {TimeUS : 61835256, Roll : 0.19, Pitch : -17.36, Yaw : 55.44, Alt : 49.3100013733, Lat : 49.2836752, Lng : -123.1147884, Q1 : 0.874965906143, Q2 : 0.0716841593385, Q3 : -0.132828772068, Q4 : 0.460057199001}
2019-04-14 11:49:37.31: SIM {TimeUS : 61935216, Roll : 0.19, Pitch : -17.38, Yaw : 55.39, Alt : 49.3100013733, Lat : 49.2836773, Lng : -123.1147833, Q1 : 0.875117957592, Q2 : 0.0717433691025, Q3 : -0.132985949516, Q4 : 0.459713190794}
2019-04-14 11:49:37.41: SIM {TimeUS : 62035176, Roll : 0.18, Pitch : -17.4, Yaw : 55.37, Alt : 49.3100013733, Lat : 49.2836797, Lng : -123.1147782, Q1 : 0.87519133091, Q2 : 0.0717251971364, Q3 : -0.133210644126, Q4 : 0.459511250257}
2019-04-14 11:49:37.51: SIM {TimeUS : 62135136, Roll : 0.17, Pitch : -17.42, Yaw : 55.36, Alt : 49.3100013733, Lat : 49.283682, Lng : -123.114773, Q1 : 0.875201284885, Q2 : 0.0716925114393, Q3 : -0.133416593075, Q4 : 0.459437608719}
2019-04-14 11:49:37.61: SIM {TimeUS : 62235096, Roll : 0.15, Pitch : -17.44, Yaw : 55.37, Alt : 49.3100013733, Lat : 49.2836841, Lng : -123.1147679, Q1 : 0.875144660473, Q2 : 0.0716931000352, Q3 : -0.133667513728, Q4 : 0.459472447634}
2019-04-14 11:49:37.71: SIM {TimeUS : 62335056, Roll : 0.13, Pitch : -17.46, Yaw : 55.39, Alt : 49.3100013733, Lat : 49.2836864, Lng : -123.1147628, Q1 : 0.875065624714, Q2 : 0.0716167390347, Q3 : -0.133911073208, Q4 : 0.459564000368}
2019-04-14 11:49:37.81: SIM {TimeUS : 62435016, Roll : 0.12, Pitch : -17.49, Yaw : 55.41, Alt : 49.3100013733, Lat : 49.2836888, Lng : -123.1147576, Q1 : 0.874962508678, Q2 : 0.0716637820005, Q3 : -0.134130343795, Q4 : 0.459689021111}
2019-04-14 11:49:37.91: SIM {TimeUS : 62534976, Roll : 0.12, Pitch : -17.51, Yaw : 55.43, Alt : 49.3199996948, Lat : 49.2836911, Lng : -123.1147524, Q1 : 0.874860405922, Q2 : 0.071801751852, Q3 : -0.134303301573, Q4 : 0.459811329842}
2019-04-14 11:49:38.01: SIM {TimeUS : 62634936, Roll : 0.11, Pitch : -17.55, Yaw : 55.44, Alt : 49.3199996948, Lat : 49.2836934, Lng : -123.1147472, Q1 : 0.874772906303, Q2 : 0.0718978941441, Q3 : -0.134626790881, Q4 : 0.459868133068}
2019-04-14 11:49:38.11: SIM {TimeUS : 62734896, Roll : 0.08, Pitch : -17.6, Yaw : 55.44, Alt : 49.3199996948, Lat : 49.2836956, Lng : -123.114742, Q1 : 0.874716103077, Q2 : 0.07184099406, Q3 : -0.135108157992, Q4 : 0.459843933582}
2019-04-14 11:49:38.21: SIM {TimeUS : 62834856, Roll : 0.05, Pitch : -17.64, Yaw : 55.44, Alt : 49.3199996948, Lat : 49.283698, Lng : -123.1147368, Q1 : 0.874687552452, Q2 : 0.0718197152019, Q3 : -0.135566204786, Q4 : 0.459766745567}
2019-04-14 11:49:38.31: SIM {TimeUS : 62934816, Roll : 0.06, Pitch : -17.68, Yaw : 55.43, Alt : 49.3199996948, Lat : 49.2837003, Lng : -123.1147316, Q1 : 0.874688386917, Q2 : 0.0719783604145, Q3 : -0.135780155659, Q4 : 0.459677159786}
2019-04-14 11:49:38.41: SIM {TimeUS : 63034776, Roll : 0.09, Pitch : -17.67, Yaw : 55.41, Alt : 49.3199996948, Lat : 49.2837027, Lng : -123.1147263, Q1 : 0.874747574329, Q2 : 0.0721661671996, Q3 : -0.135660856962, Q4 : 0.459570348263}
2019-04-14 11:49:38.51: SIM {TimeUS : 63134736, Roll : 0.12, Pitch : -17.64, Yaw : 55.39, Alt : 49.3199996948, Lat : 49.283705, Lng : -123.1147211, Q1 : 0.874862253666, Q2 : 0.0722387507558, Q3 : -0.135337367654, Q4 : 0.459435999393}
2019-04-14 11:49:38.61: SIM {TimeUS : 63234696, Roll : 0.13, Pitch : -17.63, Yaw : 55.36, Alt : 49.3199996948, Lat : 49.2837074, Lng : -123.1147158, Q1 : 0.87497985363, Q2 : 0.0722522884607, Q3 : -0.135200798512, Q4 : 0.459250122309}
2019-04-14 11:49:38.71: SIM {TimeUS : 63334656, Roll : 0.13, Pitch : -17.62, Yaw : 55.33, Alt : 49.3199996948, Lat : 49.2837096, Lng : -123.1147105, Q1 : 0.87510830164, Q2 : 0.0721582844853, Q3 : -0.135179772973, Q4 : 0.459026217461}
2019-04-14 11:49:38.81: SIM {TimeUS : 63434616, Roll : 0.12, Pitch : -17.62, Yaw : 55.3, Alt : 49.3199996948, Lat : 49.283712, Lng : -123.1147052, Q1 : 0.875234544277, Q2 : 0.0720650851727, Q3 : -0.135183170438, Q4 : 0.458799093962}
2019-04-14 11:49:38.91: SIM {TimeUS : 63534576, Roll : 0.12, Pitch : -17.64, Yaw : 55.27, Alt : 49.3199996948, Lat : 49.2837144, Lng : -123.1146999, Q1 : 0.875330388546, Q2 : 0.072072185576, Q3 : -0.13535360992, Q4 : 0.458564847708}
2019-04-14 11:49:39.01: SIM {TimeUS : 63634536, Roll : 0.12, Pitch : -17.67, Yaw : 55.25, Alt : 49.3199996948, Lat : 49.2837168, Lng : -123.1146946, Q1 : 0.875396728516, Q2 : 0.0722028613091, Q3 : -0.135603129864, Q4 : 0.45834389329}
2019-04-14 11:49:39.11: SIM {TimeUS : 63734496, Roll : 0.12, Pitch : -17.72, Yaw : 55.22, Alt : 49.3199996948, Lat : 49.2837191, Lng : -123.1146893, Q1 : 0.875431537628, Q2 : 0.0723416134715, Q3 : -0.136010214686, Q4 : 0.4581348598}
2019-04-14 11:49:39.21: SIM {TimeUS : 63834456, Roll : 0.12, Pitch : -17.78, Yaw : 55.21, Alt : 49.3199996948, Lat : 49.2837215, Lng : -123.1146839, Q1 : 0.875433146954, Q2 : 0.0725822374225, Q3 : -0.136465743184, Q4 : 0.45795828104}
2019-04-14 11:49:39.31: SIM {TimeUS : 63935249, Roll : 0.14, Pitch : -17.81, Yaw : 55.19, Alt : 49.3199996948, Lat : 49.2837239, Lng : -123.1146785, Q1 : 0.875447511673, Q2 : 0.0728060603142, Q3 : -0.136616200209, Q4 : 0.457850337029}
2019-04-14 11:49:39.41: SIM {TimeUS : 64035209, Roll : 0.14, Pitch : -17.82, Yaw : 55.18, Alt : 49.3300018311, Lat : 49.2837261, Lng : -123.1146732, Q1 : 0.875473797321, Q2 : 0.0728836506605, Q3 : -0.136738657951, Q4 : 0.4577511549}
2019-04-14 11:49:39.51: SIM {TimeUS : 64135169, Roll : 0.14, Pitch : -17.83, Yaw : 55.17, Alt : 49.3300018311, Lat : 49.2837285, Lng : -123.1146678, Q1 : 0.875508010387, Q2 : 0.0728894248605, Q3 : -0.136811956763, Q4 : 0.457662940025}
2019-04-14 11:49:39.61: SIM {TimeUS : 64235129, Roll : 0.15, Pitch : -17.82, Yaw : 55.16, Alt : 49.3300018311, Lat : 49.2837309, Lng : -123.1146625, Q1 : 0.875543296337, Q2 : 0.0729579776525, Q3 : -0.136700943112, Q4 : 0.457617670298}
2019-04-14 11:49:39.71: SIM {TimeUS : 64335089, Roll : 0.17, Pitch : -17.83, Yaw : 55.15, Alt : 49.3300018311, Lat : 49.2837333, Lng : -123.114657, Q1 : 0.875557661057, Q2 : 0.0731154233217, Q3 : -0.136685088277, Q4 : 0.45756983757}
2019-04-14 11:49:39.81: SIM {TimeUS : 64435049, Roll : 0.18, Pitch : -17.85, Yaw : 55.14, Alt : 49.3300018311, Lat : 49.2837357, Lng : -123.1146517, Q1 : 0.875561356544, Q2 : 0.0732267200947, Q3 : -0.136844858527, Q4 : 0.457497149706}
2019-04-14 11:49:39.91: SIM {TimeUS : 64535009, Roll : 0.17, Pitch : -17.87, Yaw : 55.13, Alt : 49.3300018311, Lat : 49.2837381, Lng : -123.1146463, Q1 : 0.875573337078, Q2 : 0.0732770040631, Q3 : -0.136997014284, Q4 : 0.457420706749}
2019-04-14 11:49:40.01: SIM {TimeUS : 64634969, Roll : 0.18, Pitch : -17.87, Yaw : 55.12, Alt : 49.3300018311, Lat : 49.2837405, Lng : -123.1146409, Q1 : 0.875602781773, Q2 : 0.073305927217, Q3 : -0.137021556497, Q4 : 0.457352280617}
2019-04-14 11:49:40.11: SIM {TimeUS : 64734929, Roll : 0.17, Pitch : -17.88, Yaw : 55.11, Alt : 49.3300018311, Lat : 49.283743, Lng : -123.1146355, Q1 : 0.875637233257, Q2 : 0.0732940360904, Q3 : -0.137101337314, Q4 : 0.457264393568}
2019-04-14 11:49:40.21: SIM {TimeUS : 64834889, Roll : 0.15, Pitch : -17.9, Yaw : 55.1, Alt : 49.3300018311, Lat : 49.2837454, Lng : -123.1146301, Q1 : 0.875668406487, Q2 : 0.0732089355588, Q3 : -0.137361824512, Q4 : 0.457140147686}
2019-04-14 11:49:40.31: SIM {TimeUS : 64934849, Roll : 0.12, Pitch : -17.94, Yaw : 55.09, Alt : 49.3300018311, Lat : 49.2837478, Lng : -123.1146247, Q1 : 0.875693380833, Q2 : 0.073111705482, Q3 : -0.137760564685, Q4 : 0.456987768412}
2019-04-14 11:49:40.41: SIM {TimeUS : 65034809, Roll : 0.11, Pitch : -17.94, Yaw : 55.08, Alt : 49.3300018311, Lat : 49.2837502, Lng : -123.1146193, Q1 : 0.875748336315, Q2 : 0.0730416923761, Q3 : -0.137842312455, Q4 : 0.456868946552}
2019-04-14 11:49:40.51: SIM {TimeUS : 65134769, Roll : 0.12, Pitch : -17.93, Yaw : 55.06, Alt : 49.3300018311, Lat : 49.2837526, Lng : -123.1146138, Q1 : 0.875815033913, Q2 : 0.0730376690626, Q3 : -0.137703210115, Q4 : 0.456783741713}
2019-04-14 11:49:40.61: SIM {TimeUS : 65234729, Roll : 0.15, Pitch : -17.92, Yaw : 55.05, Alt : 49.3300018311, Lat : 49.2837551, Lng : -123.1146084, Q1 : 0.875868856907, Q2 : 0.0731544941664, Q3 : -0.137522161007, Q4 : 0.456716358662}
2019-04-14 11:49:40.71: SIM {TimeUS : 65334689, Roll : 0.16, Pitch : -17.92, Yaw : 55.04, Alt : 49.3300018311, Lat : 49.2837575, Lng : -123.114603, Q1 : 0.875904381275, Q2 : 0.0732944831252, Q3 : -0.137522608042, Q4 : 0.456625640392}
2019-04-14 11:49:40.81: SIM {TimeUS : 65434649, Roll : 0.16, Pitch : -17.94, Yaw : 55.02, Alt : 49.3300018311, Lat : 49.2837599, Lng : -123.1145974, Q1 : 0.875933289528, Q2 : 0.0733178332448, Q3 : -0.13770635426, Q4 : 0.45651102066}
2019-04-14 11:49:40.91: SIM {TimeUS : 65534609, Roll : 0.14, Pitch : -17.97, Yaw : 55.01, Alt : 49.3400001526, Lat : 49.2837623, Lng : -123.1145919, Q1 : 0.875963687897, Q2 : 0.0732566267252, Q3 : -0.137962266803, Q4 : 0.456385284662}
2019-04-14 11:49:41.01: SIM {TimeUS : 65634569, Roll : 0.13, Pitch : -17.99, Yaw : 55.0, Alt : 49.3400001526, Lat : 49.2837648, Lng : -123.1145866, Q1 : 0.875988602638, Q2 : 0.0732417106628, Q3 : -0.138181045651, Q4 : 0.456273645163}
2019-04-14 11:49:41.11: SIM {TimeUS : 65734529, Roll : 0.13, Pitch : -18.01, Yaw : 54.99, Alt : 49.3400001526, Lat : 49.2837672, Lng : -123.1145811, Q1 : 0.876001596451, Q2 : 0.0733637660742, Q3 : -0.138336449862, Q4 : 0.456181943417}
2019-04-14 11:49:41.21: SIM {TimeUS : 65834489, Roll : 0.15, Pitch : -18.03, Yaw : 54.98, Alt : 49.3400001526, Lat : 49.2837696, Lng : -123.1145757, Q1 : 0.876012563705, Q2 : 0.0735090449452, Q3 : -0.138451933861, Q4 : 0.456102520227}
2019-04-14 11:49:41.32: SIM {TimeUS : 65935282, Roll : 0.17, Pitch : -18.05, Yaw : 54.97, Alt : 49.3400001526, Lat : 49.2837721, Lng : -123.1145701, Q1 : 0.876011610031, Q2 : 0.0737385749817, Q3 : -0.138495594263, Q4 : 0.456054002047}
2019-04-14 11:49:41.41: SIM {TimeUS : 66035242, Roll : 0.18, Pitch : -18.06, Yaw : 54.96, Alt : 49.3400001526, Lat : 49.2837746, Lng : -123.1145647, Q1 : 0.876016557217, Q2 : 0.0738510191441, Q3 : -0.138574510813, Q4 : 0.456002354622}
2019-04-14 11:49:41.51: SIM {TimeUS : 66135202, Roll : 0.18, Pitch : -18.08, Yaw : 54.96, Alt : 49.3400001526, Lat : 49.283777, Lng : -123.1145591, Q1 : 0.876021146774, Q2 : 0.0739563554525, Q3 : -0.138651952147, Q4 : 0.455952972174}
2019-04-14 11:49:41.61: SIM {TimeUS : 66235162, Roll : 0.19, Pitch : -18.09, Yaw : 54.95, Alt : 49.3400001526, Lat : 49.2837794, Lng : -123.1145536, Q1 : 0.876026153564, Q2 : 0.0740760937333, Q3 : -0.138702809811, Q4 : 0.455908328295}
2019-04-14 11:49:41.71: SIM {TimeUS : 66335122, Roll : 0.22, Pitch : -18.1, Yaw : 54.94, Alt : 49.3400001526, Lat : 49.2837819, Lng : -123.1145481, Q1 : 0.876029491425, Q2 : 0.0742557197809, Q3 : -0.138684928417, Q4 : 0.455878198147}
2019-04-14 11:49:41.81: SIM {TimeUS : 66435082, Roll : 0.24, Pitch : -18.11, Yaw : 54.94, Alt : 49.3400001526, Lat : 49.2837843, Lng : -123.1145427, Q1 : 0.876020908356, Q2 : 0.0745238959789, Q3 : -0.138665780425, Q4 : 0.455856740475}
2019-04-14 11:49:41.91: SIM {TimeUS : 66535042, Roll : 0.24, Pitch : -18.11, Yaw : 54.93, Alt : 49.3400001526, Lat : 49.2837867, Lng : -123.1145372, Q1 : 0.876045584679, Q2 : 0.0745050236583, Q3 : -0.138662323356, Q4 : 0.455813497305}
2019-04-14 11:49:42.01: SIM {TimeUS : 66635002, Roll : 0.22, Pitch : -18.11, Yaw : 54.93, Alt : 49.3400001526, Lat : 49.2837892, Lng : -123.1145317, Q1 : 0.876075208187, Q2 : 0.074337773025, Q3 : -0.138827249408, Q4 : 0.455733627081}
2019-04-14 11:49:42.11: SIM {TimeUS : 66734962, Roll : 0.19, Pitch : -18.14, Yaw : 54.92, Alt : 49.3499984741, Lat : 49.2837916, Lng : -123.1145262, Q1 : 0.876087903976, Q2 : 0.0742121860385, Q3 : -0.139110684395, Q4 : 0.455643206835}
2019-04-14 11:49:42.21: SIM {TimeUS : 66834922, Roll : 0.16, Pitch : -18.16, Yaw : 54.91, Alt : 49.3499984741, Lat : 49.2837941, Lng : -123.1145207, Q1 : 0.87611168623, Q2 : 0.0740352794528, Q3 : -0.139381542802, Q4 : 0.455543577671}
