2019-04-14 02:39:59.50: SIM {TimeUS : 40716207, Roll : 0.0, Pitch : 0.0, Yaw : 0.0, Alt : 30.1000003815, Lat : 49.28357, Lng : -123.11502, Q1 : 1.0, Q2 : 0.0, Q3 : 0.0, Q4 : 0.0}
2019-04-14 02:39:59.61: SIM {TimeUS : 40835326, Roll : 0.0, Pitch : 0.0, Yaw : 0.0, Alt : 30.1000003815, Lat : 49.28357, Lng : -123.11502, Q1 : 1.0, Q2 : 0.0, Q3 : 0.0, Q4 : 0.0}
2019-04-14 02:39:59.71: SIM {TimeUS : 40935286, Roll : 0.0, Pitch : 0.0, Yaw : 0.0, Alt : 30.1000003815, Lat : 49.28357, Lng : -123.11502, Q1 : 1.0, Q2 : 0.0, Q3 : 0.0, Q4 : 0.0}
2019-04-14 02:39:59.81: SIM {TimeUS : 41035246, Roll : 0.0, Pitch : 0.0, Yaw : 0.0, Alt : 30.1000003815, Lat : 49.28357, Lng : -123.11502, Q1 : 1.0, Q2 : 0.0, Q3 : 0.0, Q4 : 0.0}
2019-04-14 02:39:59.91: SIM {TimeUS : 41135206, Roll : 0.0, Pitch : 0.0, Yaw : 0.0, Alt : 30.1000003815, Lat : 49.28357, Lng : -123.11502, Q1 : 1.0, Q2 : 0.0, Q3 : 0.0, Q4 : 0.0}
2019-04-14 02:40:00.01: SIM {TimeUS : 41235166, Roll : 0.0, Pitch : 0.0, Yaw : 0.0, Alt : 30.1000003815, Lat : 49.28357, Lng : -123.11502, Q1 : 1.0, Q2 : 0.0, Q3 : 0.0, Q4 : 0.0}
2019-04-14 02:40:00.11: SIM {TimeUS : 41335126, Roll : 0.0, Pitch : 0.0, Yaw : 0.0, Alt : 30.1000003815, Lat : 49.28357, Lng : -123.11502, Q1 : 1.0, Q2 : 0.0, Q3 : 0.0, Q4 : 0.0}
2019-04-14 02:40:00.21: SIM {TimeUS : 41435086, Roll : 0.0, Pitch : 0.0, Yaw : 0.0, Alt : 30.1000003815, Lat : 49.28357, Lng : -123.11502, Q1 : 1.0, Q2 : 0.0, Q3 : 0.0, Q4 : 0.0}
2019-04-14 02:40:00.31: SIM {TimeUS : 41535046, Roll : 0.0, Pitch : 0.0, Yaw : 0.0, Alt : 30.1000003815, Lat : 49.28357, Lng : -123.11502, Q1 : 1.0, Q2 : 0.0, Q3 : 0.0, Q4 : 0.0}
2019-04-14 02:40:00.41: SIM {TimeUS : 41635006, Roll : 0.0, Pitch : 0.0, Yaw : 0.0, Alt : 30.1000003815, Lat : 49.28357, Lng : -123.11502, Q1 : 1.0, Q2 : 0.0, Q3 : 0.0, Q4 : 0.0}
2019-04-14 02:40:00.51: SIM {TimeUS : 41734966, Roll : 0.0, Pitch : 0.0, Yaw : 0.0, Alt : 30.1000003815, Lat : 49.28357, Lng : -123.11502, Q1 : 1.0, Q2 : 0.0, Q3 : 0.0, Q4 : 0.0}
2019-04-14 02:40:00.61: SIM {TimeUS : 41834926, Roll : 0.0, Pitch : 0.0, Yaw : 0.0, Alt : 30.1000003815, Lat : 49.28357, Lng : -123.11502, Q1 : 1.0, Q2 : 0.0, Q3 : 0.0, Q4 : 0.0}
2019-04-14 02:40:00.71: SIM {TimeUS : 41934886, Roll : 0.0, Pitch : 0.0, Yaw : 0.0, Alt : 30.1000003815, Lat : 49.28357, Lng : -123.11502, Q1 : 1.0, Q2 : 0.0, Q3 : 0.0, Q4 : 0.0}
2019-04-14 02:40:00.81: SIM {TimeUS : 42034846, Roll : 0.0, Pitch : 0.0, Yaw : 0.0, Alt : 30.1000003815, Lat : 49.28357, Lng : -123.11502, Q1 : 1.0, Q2 : 0.0, Q3 : 0.0, Q4 : 0.0}
2019-04-14 02:40:00.91: SIM {TimeUS : 42134806, Roll : 0.0, Pitch : 0.0, Yaw : 0.0, Alt : 30.1000003815, Lat : 49.28357, Lng : -123.11502, Q1 : 1.0, Q2 : 0.0, Q3 : 0.0, Q4 : 0.0}
2019-04-14 02:40:01.01: SIM {TimeUS : 42234766, Roll : 0.0, Pitch : 0.0, Yaw : 0.0, Alt : 30.1000003815, Lat : 49.28357, Lng : -123.11502, Q1 : 1.0, Q2 : 0.0, Q3 : 0.0, Q4 : 0.0}
2019-04-14 02:40:01.11: SIM {TimeUS : 42334726, Roll : 0.0, Pitch : 0.0, Yaw : 0.0, Alt : 30.1000003815, Lat : 49.28357, Lng : -123.11502, Q1 : 1.0, Q2 : 0.0, Q3 : 0.0, Q4 : 0.0}
2019-04-14 02:40:01.21: SIM {TimeUS : 42434686, Roll : 0.0, Pitch : 0.0, Yaw : 0.0, Alt : 30.1000003815, Lat : 49.28357, Lng : -123.11502, Q1 : 1.0, Q2 : 0.0, Q3 : 0.0, Q4 : 0.0}
2019-04-14 02:40:01.31: SIM {TimeUS : 42534646, Roll : 0.0, Pitch : 0.0, Yaw : 0.0, Alt : 30.1000003815, Lat : 49.28357, Lng : -123.11502, Q1 : 1.0, Q2 : 0.0, Q3 : 0.0, Q4 : 0.0}
2019-04-14 02:40:01.41: SIM {TimeUS : 42634606, Roll : 0.0, Pitch : 0.0, Yaw : 0.0, Alt : 30.1000003815, Lat : 49.28357, Lng : -123.11502, Q1 : 1.0, Q2 : 0.0, Q3 : 0.0, Q4 : 0.0}
2019-04-14 02:40:01.51: SIM {TimeUS : 42734566, Roll : 0.0, Pitch : 0.0, Yaw : 0.0, Alt : 30.1000003815, Lat : 49.28357, Lng : -123.11502, Q1 : 1.0, Q2 : 0.0, Q3 : 0.0, Q4 : 0.0}
2019-04-14 02:40:01.62: SIM {TimeUS : 42835359, Roll : 0.0, Pitch : 0.0, Yaw : 0.0, Alt : 30.1000003815, Lat : 49.28357, Lng : -123.11502, Q1 : 1.0, Q2 : 0.0, Q3 : 0.0, Q4 : 0.0}
2019-04-14 02:40:01.71: SIM {TimeUS : 42935319, Roll : 0.0, Pitch : 0.0, Yaw : 0.0, Alt : 30.1000003815, Lat : 49.28357, Lng : -123.11502, Q1 : 1.0, Q2 : 0.0, Q3 : 0.0, Q4 : 0.0}
2019-04-14 02:40:01.81: SIM {TimeUS : 43035279, Roll : 0.0, Pitch : 0.0, Yaw : 360.0, Alt : 30.1000003815, Lat : 49.28357, Lng : -123.11502, Q1 : 1.0, Q2 : 0.0, Q3 : 0.0, Q4 : -7.94657811776e-11}
2019-04-14 02:40:01.91: SIM {TimeUS : 43135239, Roll : 0.0, Pitch : 0.0, Yaw : 360.0, Alt : 30.1000003815, Lat : 49.28357, Lng : -123.11502, Q1 : 1.0, Q2 : 0.0, Q3 : 0.0, Q4 : -2.43134365974e-08}
2019-04-14 02:40:02.01: SIM {TimeUS : 43235199, Roll : 0.0, Pitch : 0.0, Yaw : 359.99, Alt : 30.1000003815, Lat : 49.28357, Lng : -123.11502, Q1 : 1.0, Q2 : 0.0, Q3 : 0.0, Q4 : -1.77324835704e-07}
2019-04-14 02:40:02.11: SIM {TimeUS : 43335159, Roll : 0.0, Pitch : 0.0, Yaw : 359.99, Alt : 30.1000003815, Lat : 49.28357, Lng : -123.11502, Q1 : 1.0, Q2 : 0.0, Q3 : 0.0, Q4 : -3.21791020497e-07}
2019-04-14 02:40:02.21: SIM {TimeUS : 43435119, Roll : 0.0, Pitch : 0.0, Yaw : 359.99, Alt : 30.1000003815, Lat : 49.28357, Lng : -123.11502, Q1 : 1.0, Q2 : 0.0, Q3 : 0.0, Q4 : -5.03919011408e-07}
2019-04-14 02:40:02.31: SIM {TimeUS : 43535079, Roll : 0.0, Pitch : 0.0, Yaw : 359.99, Alt : 30.1000003815, Lat : 49.28357, Lng : -123.11502, Q1 : 1.0, Q2 : 0.0, Q3 : 0.0, Q4 : -7.16915394605e-07}
2019-04-14 02:40:02.41: SIM {TimeUS : 43635039, Roll : 0.0, Pitch : 0.0, Yaw : 359.99, Alt : 30.1000003815, Lat : 49.28357, Lng : -123.11502, Q1 : 1.0, Q2 : 0.0, Q3 : 0.0, Q4 : -9.02877729914e-07}
2019-04-14 02:40:02.51: SIM {TimeUS : 43734999, Roll : 0.0, Pitch : 0.0, Yaw : 359.99, Alt : 30.1000003815, Lat : 49.28357, Lng : -123.11502, Q1 : 1.0, Q2 : 0.0, Q3 : 0.0, Q4 : -1.16376304504e-06}
2019-04-14 02:40:02.61: SIM {TimeUS : 43834959, Roll : 0.0, Pitch : 0.0, Yaw : 359.99, Alt : 30.1000003815, Lat : 49.28357, Lng : -123.11502, Q1 : 1.0, Q2 : 0.0, Q3 : 0.0, Q4 : -1.34792264816e-06}
2019-04-14 02:40:02.71: SIM {TimeUS : 43934919, Roll : 0.0, Pitch : 0.0, Yaw : 359.99, Alt : 30.1200008392, Lat : 49.28357, Lng : -123.11502, Q1 : 1.0, Q2 : 0.0, Q3 : 0.0, Q4 : -1.54007636866e-06}
2019-04-14 02:40:02.81: SIM {TimeUS : 44034879, Roll : 0.0, Pitch : 0.0, Yaw : 359.99, Alt : 30.1499996185, Lat : 49.28357, Lng : -123.11502, Q1 : 1.0, Q2 : 0.0, Q3 : 0.0, Q4 : -1.74831041022e-06}
2019-04-14 02:40:02.91: SIM {TimeUS : 44134839, Roll : 0.0, Pitch : 0.0, Yaw : 359.99, Alt : 30.1800003052, Lat : 49.28357, Lng : -123.11502, Q1 : 1.0, Q2 : 0.0, Q3 : 0.0, Q4 : -1.97041526917e-06}
2019-04-14 02:40:03.01: SIM {TimeUS : 44234799, Roll : 0.0, Pitch : 0.0, Yaw : 359.99, Alt : 30.2099990845, Lat : 49.28357, Lng : -123.11502, Q1 : 1.0, Q2 : -5.64826132177e-06, Q3 : -4.94225696457e-06, Q4 : -2.26604743148e-06}
2019-04-14 02:40:03.11: SIM {TimeUS : 44334759, Roll : -0.17, Pitch : -0.15, Yaw : 359.99, Alt : 30.2700004578, Lat : 49.28357, Lng : -123.11502, Q1 : 0.999997794628, Q2 : -0.00156723358668, Q3 : -0.00139600411057, Q4 : -1.81707800948e-05}
2019-04-14 02:40:03.21: SIM {TimeUS : 44434719, Roll : -0.46, Pitch : -0.45, Yaw : 359.99, Alt : 30.3899993896, Lat : 49.28357, Lng : -123.11502, Q1 : 0.999983906746, Q2 : -0.00404669856653, Q3 : -0.0039732074365, Q4 : -6.19965794613e-05}
2019-04-14 02:40:03.31: SIM {TimeUS : 44534679, Roll : -0.69, Pitch : -0.69, Yaw : 359.98, Alt : 30.5400009155, Lat : 49.28357, Lng : -123.11502, Q1 : 0.999963343143, Q2 : -0.00605558790267, Q3 : -0.00604988820851, Q4 : -0.000125162609038}
2019-04-14 02:40:03.41: SIM {TimeUS : 44634639, Roll : -0.8, Pitch : -0.78, Yaw : 359.98, Alt : 30.7000007629, Lat : 49.28357, Lng : -123.11502, Q1 : 0.999951660633, Q2 : -0.00704743154347, Q3 : -0.00685505475849, Q4 : -0.000206750162761}
2019-04-14 02:40:03.51: SIM {TimeUS : 44734599, Roll : -0.77, Pitch : -0.74, Yaw : 359.97, Alt : 30.8500003815, Lat : 49.28357, Lng : -123.1150201, Q1 : 0.999956071377, Q2 : -0.00676734372973, Q3 : -0.00647387234494, Q4 : -0.00029567303136}
2019-04-14 02:40:03.61: SIM {TimeUS : 44834559, Roll : -0.62, Pitch : -0.59, Yaw : 359.96, Alt : 31.0100002289, Lat : 49.28357, Lng : -123.1150201, Q1 : 0.999971807003, Q2 : -0.00545064546168, Q3 : -0.00514961127192, Q4 : -0.000375713978428}
2019-04-14 02:40:03.72: SIM {TimeUS : 44935352, Roll : -0.4, Pitch : -0.38, Yaw : 359.95, Alt : 31.1599998474, Lat : 49.2835701, Lng : -123.1150202, Q1 : 0.999987900257, Q2 : -0.00356537266634, Q3 : -0.00336034758948, Q4 : -0.00043876649579}
2019-04-14 02:40:03.81: SIM {TimeUS : 45035312, Roll : -0.18, Pitch : -0.19, Yaw : 359.94, Alt : 31.3199996948, Lat : 49.2835701, Lng : -123.1150203, Q1 : 0.999997138977, Q2 : -0.00163771607913, Q3 : -0.00167351507116, Q4 : -0.000484093325213}
2019-04-14 02:40:03.91: SIM {TimeUS : 45135272, Roll : -0.01, Pitch : -0.04, Yaw : 359.94, Alt : 31.4899997711, Lat : 49.2835702, Lng : -123.1150204, Q1 : 0.999999821186, Q2 : -0.000105741892185, Q3 : -0.000378338212613, Q4 : -0.000511201447807}
2019-04-14 02:40:04.01: SIM {TimeUS : 45235232, Roll : 0.08, Pitch : 0.05, Yaw : 359.94, Alt : 31.6700000763, Lat : 49.2835702, Lng : -123.1150204, Q1 : 0.999999523163, Q2 : 0.00072637188714, Q3 : 0.000465873861685, Q4 : -0.000523378956132}
2019-04-14 02:40:04.11: SIM {TimeUS : 45335192, Roll : 0.1, Pitch : 0.09, Yaw : 359.93, Alt : 31.8400001526, Lat : 49.2835703, Lng : -123.1150205, Q1 : 0.999999046326, Q2 : 0.000954830204137, Q3 : 0.000845555274282, Q4 : -0.000529382552486}
2019-04-14 02:40:04.21: SIM {TimeUS : 45435152, Roll : 0.08, Pitch : 0.1, Yaw : 359.93, Alt : 32.0299987793, Lat : 49.2835703, Lng : -123.1150206, Q1 : 0.999999165535, Q2 : 0.000755273678806, Q3 : 0.000914491771255, Q4 : -0.000533273385372}
2019-04-14 02:40:04.31: SIM {TimeUS : 45535112, Roll : 0.07, Pitch : 0.11, Yaw : 359.94, Alt : 32.2099990845, Lat : 49.2835703, Lng : -123.1150206, Q1 : 0.999999165535, Q2 : 0.00063543318538, Q3 : 0.000983740552329, Q4 : -0.000519498891663}
2019-04-14 02:40:04.41: SIM {TimeUS : 45635072, Roll : 0.07, Pitch : 0.11, Yaw : 359.94, Alt : 32.4000015259, Lat : 49.2835703, Lng : -123.1150207, Q1 : 0.999999046326, Q2 : 0.000697011535522, Q3 : 0.00103977520484, Q4 : -0.000502560171299}
2019-04-14 02:40:04.51: SIM {TimeUS : 45735032, Roll : 0.09, Pitch : 0.12, Yaw : 359.94, Alt : 32.5999984741, Lat : 49.2835703, Lng : -123.1150207, Q1 : 0.999998867512, Q2 : 0.000848334864713, Q3 : 0.00113314855844, Q4 : -0.000480544025777}
2019-04-14 02:40:04.61: SIM {TimeUS : 45834992, Roll : 0.1, Pitch : 0.14, Yaw : 359.94, Alt : 32.7900009155, Lat : 49.2835704, Lng : -123.1150207, Q1 : 0.999998629093, Q2 : 0.000939698948059, Q3 : 0.00127494020853, Q4 : -0.000457197020296}
2019-04-14 02:40:04.71: SIM {TimeUS : 45934952, Roll : 0.11, Pitch : 0.14, Yaw : 359.95, Alt : 32.9900016785, Lat : 49.2835704, Lng : -123.1150208, Q1 : 0.999998509884, Q2 : 0.00104129884858, Q3 : 0.00128358695656, Q4 : -0.00043651269516}
2019-04-14 02:40:04.81: SIM {TimeUS : 46034912, Roll : 0.12, Pitch : 0.13, Yaw : 359.95, Alt : 33.1899986267, Lat : 49.2835704, Lng : -123.1150208, Q1 : 0.999998569489, Q2 : 0.00111455016304, Q3 : 0.00121273717377, Q4 : -0.000421654811362}
2019-04-14 02:40:04.91: SIM {TimeUS : 46134872, Roll : 0.13, Pitch : 0.12, Yaw : 359.95, Alt : 33.4000015259, Lat : 49.2835704, Lng : -123.1150208, Q1 : 0.999998629093, Q2 : 0.00115393684246, Q3 : 0.00113330304157, Q4 : -0.000410439621191}
2019-04-14 02:40:05.01: SIM {TimeUS : 46234832, Roll : 0.13, Pitch : 0.12, Yaw : 359.95, Alt : 33.5999984741, Lat : 49.2835704, Lng : -123.1150208, Q1 : 0.999998629093, Q2 : 0.0011851626914, Q3 : 0.0011112325592, Q4 : -0.000399372336688}
2019-04-14 02:40:05.11: SIM {TimeUS : 46334792, Roll : 0.14, Pitch : 0.13, Yaw : 359.95, Alt : 33.8100013733, Lat : 49.2835704, Lng : -123.1150208, Q1 : 0.999998390675, Q2 : 0.00130337558221, Q3 : 0.00116408860777, Q4 : -0.000397480122047}
2019-04-14 02:40:05.21: SIM {TimeUS : 46434752, Roll : 0.15, Pitch : 0.13, Yaw : 359.95, Alt : 34.0200004578, Lat : 49.2835704, Lng : -123.1150208, Q1 : 0.99999833107, Q2 : 0.00135971303098, Q3 : 0.00114027364179, Q4 : -0.000402165955165}
2019-04-14 02:40:05.31: SIM {TimeUS : 46534712, Roll : 0.14, Pitch : 0.11, Yaw : 359.95, Alt : 34.2299995422, Lat : 49.2835704, Lng : -123.1150208, Q1 : 0.999998569489, Q2 : 0.00129493558779, Q3 : 0.00103429565206, Q4 : -0.000414620910306}
2019-04-14 02:40:05.41: SIM {TimeUS : 46634672, Roll : 0.13, Pitch : 0.11, Yaw : 359.95, Alt : 34.4399986267, Lat : 49.2835704, Lng : -123.1150208, Q1 : 0.999998748302, Q2 : 0.00115788774565, Q3 : 0.000967175408732, Q4 : -0.000434958637925}
2019-04-14 02:40:05.51: SIM {TimeUS : 46734632, Roll : 0.1, Pitch : 0.1, Yaw : 359.94, Alt : 34.6599998474, Lat : 49.2835704, Lng : -123.1150208, Q1 : 0.999999046326, Q2 : 0.000937904638704, Q3 : 0.000916531775147, Q4 : -0.00046571335406}
2019-04-14 02:40:05.61: SIM {TimeUS : 46834592, Roll : 0.08, Pitch : 0.07, Yaw : 359.94, Alt : 34.8699989319, Lat : 49.2835704, Lng : -123.1150208, Q1 : 0.999999344349, Q2 : 0.000754149747081, Q3 : 0.00064468907658, Q4 : -0.000506921380293}
2019-04-14 02:40:05.71: SIM {TimeUS : 46934552, Roll : 0.07, Pitch : 0.04, Yaw : 359.93, Alt : 35.0900001526, Lat : 49.2835704, Lng : -123.1150208, Q1 : 0.999999582767, Q2 : 0.000617847777903, Q3 : 0.000371157948393, Q4 : -0.000553462072276}
2019-04-14 02:40:05.82: SIM {TimeUS : 47035345, Roll : 0.03, Pitch : 0.02, Yaw : 359.93, Alt : 35.2999992371, Lat : 49.2835704, Lng : -123.1150208, Q1 : 0.999999761581, Q2 : 0.000338644138537, Q3 : 0.000203164629056, Q4 : -0.000602667685598}
2019-04-14 02:40:05.91: SIM {TimeUS : 47135305, Roll : 0.02, Pitch : 0.01, Yaw : 359.92, Alt : 35.5200004578, Lat : 49.2835704, Lng : -123.1150208, Q1 : 0.999999761581, Q2 : 0.000191500570509, Q3 : 0.000139544543345, Q4 : -0.000647470995318}
2019-04-14 02:40:06.01: SIM {TimeUS : 47235265, Roll : 0.02, Pitch : 0.01, Yaw : 359.92, Alt : 35.7400016785, Lat : 49.2835704, Lng : -123.1150207, Q1 : 0.999999761581, Q2 : 0.000184544725926, Q3 : 0.000100847209978, Q4 : -0.000693562265951}
2019-04-14 02:40:06.11: SIM {TimeUS : 47335225, Roll : 0.0, Pitch : -0.01, Yaw : 359.91, Alt : 35.9599990845, Lat : 49.2835704, Lng : -123.1150207, Q1 : 0.999999761581, Q2 : 2.95643731079e-05, Q3 : -0.00011814069876, Q4 : -0.000731123902369}
2019-04-14 02:40:06.21: SIM {TimeUS : 47435185, Roll : -0.02, Pitch : -0.05, Yaw : 359.91, Alt : 36.1800003052, Lat : 49.2835704, Lng : -123.1150207, Q1 : 0.999999582767, Q2 : -0.00024254930031, Q3 : -0.000436303496826, Q4 : -0.000761522038374}
2019-04-14 02:40:06.31: SIM {TimeUS : 47535145, Roll : -0.06, Pitch : -0.06, Yaw : 359.91, Alt : 36.4000015259, Lat : 49.2835704, Lng : -123.1150207, Q1 : 0.999999403954, Q2 : -0.000528752745595, Q3 : -0.00059318379499, Q4 : -0.000781511189416}
2019-04-14 02:40:06.41: SIM {TimeUS : 47635105, Roll : -0.09, Pitch : -0.08, Yaw : 359.9, Alt : 36.6300010681, Lat : 49.2835704, Lng : -123.1150207, Q1 : 0.99999910593, Q2 : -0.00078919500811, Q3 : -0.000700530421454, Q4 : -0.000799963949248}
2019-04-14 02:40:06.51: SIM {TimeUS : 47735065, Roll : -0.09, Pitch : -0.08, Yaw : 359.9, Alt : 36.8499984741, Lat : 49.2835704, Lng : -123.1150207, Q1 : 0.999999046326, Q2 : -0.000805069168564, Q3 : -0.000720524694771, Q4 : -0.000820161716547}
2019-04-14 02:40:06.61: SIM {TimeUS : 47835025, Roll : -0.08, Pitch : -0.07, Yaw : 359.9, Alt : 37.0699996948, Lat : 49.2835704, Lng : -123.1150207, Q1 : 0.999999165535, Q2 : -0.000709496904165, Q3 : -0.000655467156321, Q4 : -0.000840023392811}
2019-04-14 02:40:06.71: SIM {TimeUS : 47934985, Roll : -0.06, Pitch : -0.05, Yaw : 359.9, Alt : 37.2999992371, Lat : 49.2835704, Lng : -123.1150207, Q1 : 0.999999344349, Q2 : -0.000584158638958, Q3 : -0.000479730893858, Q4 : -0.000855654187035}
2019-04-14 02:40:06.81: SIM {TimeUS : 48034945, Roll : -0.05, Pitch : -0.04, Yaw : 359.9, Alt : 37.5200004578, Lat : 49.2835704, Lng : -123.1150207, Q1 : 0.999999463558, Q2 : -0.000464395998279, Q3 : -0.000349131791154, Q4 : -0.000865637557581}
2019-04-14 02:40:06.91: SIM {TimeUS : 48134905, Roll : -0.05, Pitch : -0.04, Yaw : 359.9, Alt : 37.75, Lat : 49.2835704, Lng : -123.1150206, Q1 : 0.999999403954, Q2 : -0.000508811266627, Q3 : -0.000374724448193, Q4 : -0.000869478157256}
2019-04-14 02:40:07.01: SIM {TimeUS : 48234865, Roll : -0.07, Pitch : -0.03, Yaw : 359.89, Alt : 37.9799995422, Lat : 49.2835704, Lng : -123.1150206, Q1 : 0.999999344349, Q2 : -0.000682030338794, Q3 : -0.000290888157906, Q4 : -0.00087396503659}
2019-04-14 02:40:07.11: SIM {TimeUS : 48334825, Roll : -0.1, Pitch : -0.01, Yaw : 359.89, Alt : 38.2000007629, Lat : 49.2835704, Lng : -123.1150206, Q1 : 0.999999165535, Q2 : -0.000915093289223, Q3 : -0.000164187382325, Q4 : -0.00088328687707}
2019-04-14 02:40:07.21: SIM {TimeUS : 48434785, Roll : -0.1, Pitch : 0.0, Yaw : 359.89, Alt : 38.4300003052, Lat : 49.2835704, Lng : -123.1150206, Q1 : 0.999999165535, Q2 : -0.000934377952944, Q3 : -3.45777007169e-05, Q4 : -0.000889646529686}
2019-04-14 02:40:07.31: SIM {TimeUS : 48534745, Roll : -0.08, Pitch : 0.02, Yaw : 359.89, Alt : 38.6599998474, Lat : 49.2835706, Lng : -123.1150206, Q1 : 0.999999284744, Q2 : -0.000755763088819, Q3 : 0.000204711395781, Q4 : -0.000903494714294}
2019-04-14 02:40:07.41: SIM {TimeUS : 48634705, Roll : -0.05, Pitch : 0.02, Yaw : 359.89, Alt : 38.8899993896, Lat : 49.2835706, Lng : -123.1150207, Q1 : 0.999999403954, Q2 : -0.000502677808981, Q3 : 0.000220061148866, Q4 : -0.000922247883864}
2019-04-14 02:40:07.51: SIM {TimeUS : 48734665, Roll : -0.02, Pitch : 0.02, Yaw : 359.89, Alt : 39.1199989319, Lat : 49.2835706, Lng : -123.1150207, Q1 : 0.999999523163, Q2 : -0.000220245929086, Q3 : 0.000187192141311, Q4 : -0.000939361518249}
2019-04-14 02:40:07.61: SIM {TimeUS : 48834625, Roll : 0.01, Pitch : 0.04, Yaw : 359.89, Alt : 39.3499984741, Lat : 49.2835706, Lng : -123.1150207, Q1 : 0.999999463558, Q2 : 0.000103599348222, Q3 : 0.000357965443982, Q4 : -0.000951781286858}
2019-04-14 02:40:07.71: SIM {TimeUS : 48934585, Roll : 0.05, Pitch : 0.07, Yaw : 359.88, Alt : 39.5800018311, Lat : 49.2835706, Lng : -123.1150207, Q1 : 0.99999922514, Q2 : 0.000445292389486, Q3 : 0.000631422968581, Q4 : -0.000970465654973}
2019-04-14 02:40:07.81: SIM {TimeUS : 49034545, Roll : 0.07, Pitch : 0.1, Yaw : 359.88, Alt : 39.8100013733, Lat : 49.2835706, Lng : -123.1150207, Q1 : 0.999998867512, Q2 : 0.000678556680214, Q3 : 0.000924057152588, Q4 : -0.000993441790342}
2019-04-14 02:40:07.92: SIM {TimeUS : 49135338, Roll : 0.06, Pitch : 0.13, Yaw : 359.88, Alt : 40.0400009155, Lat : 49.2835706, Lng : -123.1150207, Q1 : 0.999998569489, Q2 : 0.000594383804128, Q3 : 0.00119831250049, Q4 : -0.00101353088394}
2019-04-14 02:40:08.01: SIM {TimeUS : 49235298, Roll : 0.02, Pitch : 0.16, Yaw : 359.87, Alt : 40.2700004578, Lat : 49.2835706, Lng : -123.1150207, Q1 : 0.999998390675, Q2 : 0.000209399368032, Q3 : 0.00143576180562, Q4 : -0.00105427100789}
2019-04-14 02:40:08.11: SIM {TimeUS : 49335258, Roll : -0.01, Pitch : 0.17, Yaw : 359.87, Alt : 40.5099983215, Lat : 49.2835706, Lng : -123.1150207, Q1 : 0.999998211861, Q2 : -0.00010422480409, Q3 : 0.00153973395936, Q4 : -0.00108951248694}
2019-04-14 02:40:08.21: SIM {TimeUS : 49435218, Roll : -0.03, Pitch : 0.15, Yaw : 359.87, Alt : 40.7400016785, Lat : 49.2835706, Lng : -123.1150207, Q1 : 0.999998390675, Q2 : -0.000295575882774, Q3 : 0.00137394573539, Q4 : -0.00111721432768}
2019-04-14 02:40:08.31: SIM {TimeUS : 49535178, Roll : -0.04, Pitch : 0.13, Yaw : 359.86, Alt : 40.9700012207, Lat : 49.2835706, Lng : -123.1150207, Q1 : 0.999998569489, Q2 : -0.000366647553165, Q3 : 0.00114990770817, Q4 : -0.00115102878772}
2019-04-14 02:40:08.41: SIM {TimeUS : 49635138, Roll : -0.03, Pitch : 0.12, Yaw : 359.86, Alt : 41.2000007629, Lat : 49.2835706, Lng : -123.1150207, Q1 : 0.999998629093, Q2 : -0.000267253693892, Q3 : 0.00110227603, Q4 : -0.00118919729721}
2019-04-14 02:40:08.51: SIM {TimeUS : 49735098, Roll : 0.0, Pitch : 0.13, Yaw : 359.85, Alt : 41.4399986267, Lat : 49.2835706, Lng : -123.1150207, Q1 : 0.999998509884, Q2 : 6.73169415677e-05, Q3 : 0.00121245975606, Q4 : -0.00123283034191}
2019-04-14 02:40:08.61: SIM {TimeUS : 49835058, Roll : 0.05, Pitch : 0.14, Yaw : 359.85, Alt : 41.6699981689, Lat : 49.2835706, Lng : -123.1150207, Q1 : 0.999998271465, Q2 : 0.000508410215843, Q3 : 0.0012642260408, Q4 : -0.00127716129646}
2019-04-14 02:40:08.71: SIM {TimeUS : 49935018, Roll : 0.09, Pitch : 0.11, Yaw : 359.84, Alt : 41.9099998474, Lat : 49.2835706, Lng : -123.1150207, Q1 : 0.999998271465, Q2 : 0.000840356049594, Q3 : 0.00101577036548, Q4 : -0.00131705089007}
2019-04-14 02:40:08.81: SIM {TimeUS : 50034978, Roll : 0.1, Pitch : 0.07, Yaw : 359.84, Alt : 42.1399993896, Lat : 49.2835706, Lng : -123.1150207, Q1 : 0.999998509884, Q2 : 0.000886590161826, Q3 : 0.00063626235351, Q4 : -0.00134813890327}
2019-04-14 02:40:08.91: SIM {TimeUS : 50134938, Roll : 0.06, Pitch : 0.04, Yaw : 359.84, Alt : 42.3699989319, Lat : 49.2835706, Lng : -123.1150207, Q1 : 0.999998807907, Q2 : 0.000584782334045, Q3 : 0.000431302119978, Q4 : -0.00136201793794}
2019-04-14 02:40:09.01: SIM {TimeUS : 50234898, Roll : 0.01, Pitch : 0.04, Yaw : 359.84, Alt : 42.6100006104, Lat : 49.2835706, Lng : -123.1150207, Q1 : 0.999998986721, Q2 : 0.000121509881865, Q3 : 0.000406297214795, Q4 : -0.00136944744736}
2019-04-14 02:40:09.11: SIM {TimeUS : 50334858, Roll : -0.02, Pitch : 0.06, Yaw : 359.84, Alt : 42.8400001526, Lat : 49.2835706, Lng : -123.1150207, Q1 : 0.999998867512, Q2 : -0.000246253970545, Q3 : 0.000610148359556, Q4 : -0.00136826327071}
2019-04-14 02:40:09.21: SIM {TimeUS : 50434818, Roll : -0.05, Pitch : 0.08, Yaw : 359.84, Alt : 43.0800018311, Lat : 49.2835704, Lng : -123.1150207, Q1 : 0.999998688698, Q2 : -0.000446987454779, Q3 : 0.000748208549339, Q4 : -0.00136427825782}
2019-04-14 02:40:09.31: SIM {TimeUS : 50534778, Roll : -0.05, Pitch : 0.07, Yaw : 359.84, Alt : 43.3100013733, Lat : 49.2835704, Lng : -123.1150207, Q1 : 0.999998748302, Q2 : -0.000455139146652, Q3 : 0.000689128588419, Q4 : -0.00136405893136}
2019-04-14 02:40:09.41: SIM {TimeUS : 50634738, Roll : -0.05, Pitch : 0.06, Yaw : 359.84, Alt : 43.5499992371, Lat : 49.2835704, Lng : -123.1150207, Q1 : 0.999998807907, Q2 : -0.000484931719257, Q3 : 0.000545860792045, Q4 : -0.00137370196171}
2019-04-14 02:40:09.51: SIM {TimeUS : 50734698, Roll : -0.05, Pitch : 0.04, Yaw : 359.84, Alt : 43.7799987793, Lat : 49.2835704, Lng : -123.1150207, Q1 : 0.999998867512, Q2 : -0.000439007038949, Q3 : 0.000401395955123, Q4 : -0.00138794514351}
2019-04-14 02:40:09.61: SIM {TimeUS : 50834658, Roll : -0.03, Pitch : 0.03, Yaw : 359.83, Alt : 44.0200004578, Lat : 49.2835704, Lng : -123.1150207, Q1 : 0.999998927116, Q2 : -0.000298619241221, Q3 : 0.000341588631272, Q4 : -0.00141449831426}
2019-04-14 02:40:09.71: SIM {TimeUS : 50934618, Roll : -0.02, Pitch : 0.03, Yaw : 359.83, Alt : 44.2599983215, Lat : 49.2835704, Lng : -123.1150207, Q1 : 0.999998867512, Q2 : -0.000199397240067, Q3 : 0.000325537286699, Q4 : -0.00144588667899}
2019-04-14 02:40:09.81: SIM {TimeUS : 51034578, Roll : -0.02, Pitch : 0.01, Yaw : 359.83, Alt : 44.4900016785, Lat : 49.2835704, Lng : -123.1150206, Q1 : 0.999998867512, Q2 : -0.000204695970751, Q3 : 0.00016135648184, Q4 : -0.00147657061461}
2019-04-14 02:40:09.91: SIM {TimeUS : 51134538, Roll : -0.02, Pitch : -0.01, Yaw : 359.82, Alt : 44.7299995422, Lat : 49.2835704, Lng : -123.1150206, Q1 : 0.999998867512, Q2 : -0.000245542672928, Q3 : -0.000164935176144, Q4 : -0.00150261458475}
2019-04-14 02:40:10.01: SIM {TimeUS : 51235331, Roll : -0.02, Pitch : -0.04, Yaw : 359.82, Alt : 44.9700012207, Lat : 49.2835704, Lng : -123.1150206, Q1 : 0.999998748302, Q2 : -0.000247104821028, Q3 : -0.000398568721721, Q4 : -0.0015302435495}
2019-04-14 02:40:10.11: SIM {TimeUS : 51335291, Roll : -0.01, Pitch : -0.05, Yaw : 359.82, Alt : 45.2000007629, Lat : 49.2835703, Lng : -123.1150206, Q1 : 0.999998629093, Q2 : -0.00016653642524, Q3 : -0.000514983432367, Q4 : -0.00155346631072}
2019-04-14 02:40:10.21: SIM {TimeUS : 51435251, Roll : -0.02, Pitch : -0.05, Yaw : 359.81, Alt : 45.4399986267, Lat : 49.2835703, Lng : -123.1150206, Q1 : 0.999998569489, Q2 : -0.000188624078874, Q3 : -0.000512784754392, Q4 : -0.00158296967857}
2019-04-14 02:40:10.31: SIM {TimeUS : 51535211, Roll : -0.04, Pitch : -0.04, Yaw : 359.81, Alt : 45.6699981689, Lat : 49.2835703, Lng : -123.1150206, Q1 : 0.999998509884, Q2 : -0.000376636889996, Q3 : -0.000401425088057, Q4 : -0.00161707412917}
2019-04-14 02:40:10.41: SIM {TimeUS : 51635171, Roll : -0.07, Pitch : -0.03, Yaw : 359.81, Alt : 45.9099998474, Lat : 49.2835703, Lng : -123.1150206, Q1 : 0.99999833107, Q2 : -0.000682282843627, Q3 : -0.000308306509396, Q4 : -0.00164998555556}
2019-04-14 02:40:10.51: SIM {TimeUS : 51735131, Roll : -0.1, Pitch : -0.02, Yaw : 359.8, Alt : 46.1399993896, Lat : 49.2835703, Lng : -123.1150206, Q1 : 0.999998152256, Q2 : -0.000931391958147, Q3 : -0.000216504253331, Q4 : -0.00168274308089}
2019-04-14 02:40:10.61: SIM {TimeUS : 51835091, Roll : -0.11, Pitch : 0.0, Yaw : 359.8, Alt : 46.3600006104, Lat : 49.2835703, Lng : -123.1150206, Q1 : 0.999998033047, Q2 : -0.00101227348205, Q3 : -6.18677222519e-05, Q4 : -0.0017125090817}
2019-04-14 02:40:10.71: SIM {TimeUS : 51935051, Roll : -0.1, Pitch : 0.01, Yaw : 359.8, Alt : 46.5800018311, Lat : 49.2835703, Lng : -123.1150206, Q1 : 0.999998033047, Q2 : -0.000921665283386, Q3 : 0.000144283330883, Q4 : -0.00174484145828}
2019-04-14 02:40:10.81: SIM {TimeUS : 52035011, Roll : -0.08, Pitch : 0.02, Yaw : 359.79, Alt : 46.7999992371, Lat : 49.2835703, Lng : -123.1150206, Q1 : 0.999998152256, Q2 : -0.00071660859976, Q3 : 0.000213950799662, Q4 : -0.0017789270496}
2019-04-14 02:40:10.91: SIM {TimeUS : 52134971, Roll : -0.06, Pitch : 0.01, Yaw : 359.79, Alt : 47.0099983215, Lat : 49.2835703, Lng : -123.1150206, Q1 : 0.999998211861, Q2 : -0.00052433257224, Q3 : 0.000112837733468, Q4 : -0.0018091427628}
2019-04-14 02:40:11.01: SIM {TimeUS : 52234931, Roll : -0.05, Pitch : 0.0, Yaw : 359.78, Alt : 47.2099990845, Lat : 49.2835703, Lng : -123.1150206, Q1 : 0.999998211861, Q2 : -0.000439641968114, Q3 : -5.91929965594e-05, Q4 : -0.00184029457159}
2019-04-14 02:40:11.11: SIM {TimeUS : 52334891, Roll : -0.03, Pitch : -0.03, Yaw : 359.78, Alt : 47.4099998474, Lat : 49.2835703, Lng : -123.1150206, Q1 : 0.999998152256, Q2 : -0.00030899856938, Q3 : -0.000318841950502, Q4 : -0.00186771852896}
2019-04-14 02:40:11.21: SIM {TimeUS : 52434851, Roll : -0.01, Pitch : -0.06, Yaw : 359.78, Alt : 47.5999984741, Lat : 49.2835703, Lng : -123.1150206, Q1 : 0.999998033047, Q2 : -0.000121182289149, Q3 : -0.000577104103286, Q4 : -0.00189058412798}
2019-04-14 02:40:11.31: SIM {TimeUS : 52534811, Roll : -0.01, Pitch : -0.11, Yaw : 359.78, Alt : 47.7700004578, Lat : 49.2835703, Lng : -123.1150206, Q1 : 0.999997735023, Q2 : -0.000137371724122, Q3 : -0.000981929595582, Q4 : -0.00190691475291}
2019-04-14 02:40:11.41: SIM {TimeUS : 52634771, Roll : -0.02, Pitch : -0.15, Yaw : 359.77, Alt : 47.9399986267, Lat : 49.2835703, Lng : -123.1150207, Q1 : 0.999997258186, Q2 : -0.000262194807874, Q3 : -0.00131437939126, Q4 : -0.00192361313384}
2019-04-14 02:40:11.51: SIM {TimeUS : 52734731, Roll : 0.0, Pitch : -0.15, Yaw : 359.77, Alt : 48.0900001526, Lat : 49.2835703, Lng : -123.1150207, Q1 : 0.999997198582, Q2 : -8.97744976101e-05, Q3 : -0.00135689147282, Q4 : -0.00193827121984}
2019-04-14 02:40:11.61: SIM {TimeUS : 52834691, Roll : 0.02, Pitch : -0.13, Yaw : 359.77, Alt : 48.2299995422, Lat : 49.2835703, Lng : -123.1150207, Q1 : 0.999997377396, Q2 : 0.000198054840439, Q3 : -0.00117541966029, Q4 : -0.00195541558787}
2019-04-14 02:40:11.71: SIM {TimeUS : 52934651, Roll : 0.05, Pitch : -0.1, Yaw : 359.77, Alt : 48.3600006104, Lat : 49.2835703, Lng : -123.1150207, Q1 : 0.99999755621, Q2 : 0.000453814398497, Q3 : -0.000880563107785, Q4 : -0.00197637500241}
2019-04-14 02:40:11.81: SIM {TimeUS : 53034611, Roll : 0.06, Pitch : -0.06, Yaw : 359.77, Alt : 48.4799995422, Lat : 49.2835703, Lng : -123.1150207, Q1 : 0.999997675419, Q2 : 0.00054592336528, Q3 : -0.000564336718526, Q4 : -0.00199938192964}
2019-04-14 02:40:11.91: SIM {TimeUS : 53134571, Roll : 0.06, Pitch : -0.04, Yaw : 359.76, Alt : 48.5800018311, Lat : 49.2835704, Lng : -123.1150207, Q1 : 0.999997735023, Q2 : 0.000597681675572, Q3 : -0.000365160114598, Q4 : -0.00202676467597}
2019-04-14 02:40:12.02: SIM {TimeUS : 53235364, Roll : 0.05, Pitch : -0.04, Yaw : 359.76, Alt : 48.6699981689, Lat : 49.2835704, Lng : -123.1150207, Q1 : 0.999997675419, Q2 : 0.000495037063956, Q3 : -0.000431314692833, Q4 : -0.00205865316093}
2019-04-14 02:40:12.11: SIM {TimeUS : 53335324, Roll : 0.03, Pitch : -0.05, Yaw : 359.76, Alt : 48.75, Lat : 49.2835704, Lng : -123.1150207, Q1 : 0.999997675419, Q2 : 0.000305088004097, Q3 : -0.000451664382126, Q4 : -0.00208893441595}
2019-04-14 02:40:12.21: SIM {TimeUS : 53435284, Roll : 0.02, Pitch : -0.03, Yaw : 359.75, Alt : 48.8199996948, Lat : 49.2835704, Lng : -123.1150207, Q1 : 0.999997675419, Q2 : 0.000181385723408, Q3 : -0.000342340150382, Q4 : -0.00212422478944}
2019-04-14 02:40:12.31: SIM {TimeUS : 53535244, Roll : 0.01, Pitch : -0.02, Yaw : 359.75, Alt : 48.8800010681, Lat : 49.2835704, Lng : -123.1150207, Q1 : 0.999997675419, Q2 : 0.000135608075652, Q3 : -0.000219213499804, Q4 : -0.00215780176222}
2019-04-14 02:40:12.41: SIM {TimeUS : 53635204, Roll : 0.01, Pitch : 0.0, Yaw : 359.74, Alt : 48.9399986267, Lat : 49.2835704, Lng : -123.1150207, Q1 : 0.999997615814, Q2 : 0.000110603126814, Q3 : -3.15025936288e-05, Q4 : -0.00218851538375}
2019-04-14 02:40:12.51: SIM {TimeUS : 53735164, Roll : 0.04, Pitch : 0.02, Yaw : 359.74, Alt : 48.9799995422, Lat : 49.2835704, Lng : -123.1150207, Q1 : 0.999997496605, Q2 : 0.000364610197721, Q3 : 0.000189214377315, Q4 : -0.00221877428703}
2019-04-14 02:40:12.61: SIM {TimeUS : 53835124, Roll : 0.17, Pitch : -0.02, Yaw : 359.74, Alt : 49.0200004578, Lat : 49.2835704, Lng : -123.1150207, Q1 : 0.999996244907, Q2 : 0.00152977439575, Q3 : -0.000246607378358, Q4 : -0.00224794214591}
2019-04-14 02:40:12.71: SIM {TimeUS : 53935084, Roll : 0.49, Pitch : -0.24, Yaw : 359.73, Alt : 49.0499992371, Lat : 49.2835704, Lng : -123.1150207, Q1 : 0.999985814095, Q2 : 0.00430144136772, Q3 : -0.00217487406917, Q4 : -0.00227244058624}
2019-04-14 02:40:12.81: SIM {TimeUS : 54035044, Roll : 1.0, Pitch : -0.63, Yaw : 359.73, Alt : 49.0800018311, Lat : 49.2835704, Lng : -123.1150207, Q1 : 0.999943614006, Q2 : 0.00877319369465, Q3 : -0.00552724767476, Q4 : -0.00228757387958}
2019-04-14 02:40:12.91: SIM {TimeUS : 54135004, Roll : 1.69, Pitch : -1.15, Yaw : 359.72, Alt : 49.0999984741, Lat : 49.2835704, Lng : -123.1150207, Q1 : 0.999836921692, Q2 : 0.0147708151489, Q3 : -0.0101379882544, Q4 : -0.00227828556672}
2019-04-14 02:40:13.01: SIM {TimeUS : 54234964, Roll : 2.5, Pitch : -1.77, Yaw : 359.7, Alt : 49.1300010681, Lat : 49.2835706, Lng : -123.1150206, Q1 : 0.999638319016, Q2 : 0.0218520816416, Q3 : -0.0155163109303, Q4 : -0.00223535764962}
2019-04-14 02:40:13.11: SIM {TimeUS : 54334924, Roll : 3.33, Pitch : -2.36, Yaw : 359.68, Alt : 49.1399993896, Lat : 49.2835706, Lng : -123.1150205, Q1 : 0.999360859394, Q2 : 0.0290521662682, Q3 : -0.0207210183144, Q4 : -0.0021391233895}
2019-04-14 02:40:13.21: SIM {TimeUS : 54434884, Roll : 4.04, Pitch : -2.87, Yaw : 359.66, Alt : 49.1599998474, Lat : 49.2835707, Lng : -123.1150203, Q1 : 0.999058902264, Q2 : 0.0352474190295, Q3 : -0.0251991786063, Q4 : -0.00199248222634}
2019-04-14 02:40:13.31: SIM {TimeUS : 54534844, Roll : 4.59, Pitch : -3.25, Yaw : 359.66, Alt : 49.1699981689, Lat : 49.2835709, Lng : -123.11502, Q1 : 0.998791158199, Q2 : 0.0399942994118, Q3 : -0.0285217985511, Q4 : -0.00179206801113}
2019-04-14 02:40:13.41: SIM {TimeUS : 54634804, Roll : 4.99, Pitch : -3.52, Yaw : 359.66, Alt : 49.1800003052, Lat : 49.2835709, Lng : -123.1150198, Q1 : 0.998579323292, Q2 : 0.0434311069548, Q3 : -0.0308350678533, Q4 : -0.00154490512796}
2019-04-14 02:40:13.51: SIM {TimeUS : 54734764, Roll : 5.29, Pitch : -3.73, Yaw : 359.68, Alt : 49.1899986267, Lat : 49.2835712, Lng : -123.1150193, Q1 : 0.998402178288, Q2 : 0.0460527800024, Q3 : -0.032721478492, Q4 : -0.00127765757497}
2019-04-14 02:40:13.61: SIM {TimeUS : 54834724, Roll : 5.58, Pitch : -3.94, Yaw : 359.69, Alt : 49.2000007629, Lat : 49.2835715, Lng : -123.1150188, Q1 : 0.998223006725, Q2 : 0.0485849678516, Q3 : -0.0344880633056, Q4 : -0.00099015806336}
2019-04-14 02:40:13.71: SIM {TimeUS : 54934684, Roll : 5.9, Pitch : -4.15, Yaw : 359.7, Alt : 49.2099990845, Lat : 49.2835718, Lng : -123.1150182, Q1 : 0.998019576073, Q2 : 0.0513506866992, Q3 : -0.0363254621625, Q4 : -0.000703677767888}
2019-04-14 02:40:13.81: SIM {TimeUS : 55034644, Roll : 6.21, Pitch : -4.35, Yaw : 359.71, Alt : 49.2200012207, Lat : 49.2835721, Lng : -123.1150174, Q1 : 0.997811555862, Q2 : 0.0540745891631, Q3 : -0.0380509160459, Q4 : -0.000435644935351}
2019-04-14 02:40:13.91: SIM {TimeUS : 55134604, Roll : 6.48, Pitch : -4.52, Yaw : 359.72, Alt : 49.2299995422, Lat : 49.2835725, Lng : -123.1150166, Q1 : 0.997624576092, Q2 : 0.0563853755593, Q3 : -0.039571467787, Q4 : -0.000190452919924}
2019-04-14 02:40:14.01: SIM {TimeUS : 55234564, Roll : 6.67, Pitch : -4.67, Yaw : 359.72, Alt : 49.2299995422, Lat : 49.2835728, Lng : -123.1150157, Q1 : 0.997478246689, Q2 : 0.05803431198, Q3 : -0.040856089443, Q4 : 1.5104560589e-06}
2019-04-14 02:40:14.12: SIM {TimeUS : 55335357, Roll : 6.8, Pitch : -4.77, Yaw : 359.73, Alt : 49.2400016785, Lat : 49.2835733, Lng : -123.1150146, Q1 : 0.997370481491, Q2 : 0.0592426285148, Q3 : -0.0417421832681, Q4 : 0.000153982560732}
2019-04-14 02:40:14.21: SIM {TimeUS : 55435317, Roll : 6.91, Pitch : -4.84, Yaw : 359.73, Alt : 49.2400016785, Lat : 49.2835739, Lng : -123.1150135, Q1 : 0.997293770313, Q2 : 0.0601264573634, Q3 : -0.042307022959, Q4 : 0.000273793673841}
2019-04-14 02:40:14.31: SIM {TimeUS : 55535277, Roll : 7.0, Pitch : -4.91, Yaw : 359.73, Alt : 49.25, Lat : 49.2835744, Lng : -123.1150123, Q1 : 0.997218906879, Q2 : 0.0609424188733, Q3 : -0.0428999997675, Q4 : 0.000350258604158}
2019-04-14 02:40:14.41: SIM {TimeUS : 55635237, Roll : 7.19, Pitch : -4.96, Yaw : 359.75, Alt : 49.25, Lat : 49.283575, Lng : -123.1150111, Q1 : 0.997099876404, Q2 : 0.0625598281622, Q3 : -0.0433326996863, Q4 : 0.000582832202781}
2019-04-14 02:40:14.51: SIM {TimeUS : 55735197, Roll : 7.61, Pitch : -4.85, Yaw : 0.08, Alt : 49.2599983215, Lat : 49.2835757, Lng : -123.1150096, Q1 : 0.996892333031, Q2 : 0.066412769258, Q3 : -0.0422182939947, Q4 : 0.00355632998981}
2019-04-14 02:40:14.61: SIM {TimeUS : 55835157, Roll : 8.25, Pitch : -4.65, Yaw : 1.37, Alt : 49.2599983215, Lat : 49.2835763, Lng : -123.1150082, Q1 : 0.996476352215, Q2 : 0.0723949968815, Q3 : -0.0396428890526, Q4 : 0.0149114662781}
2019-04-14 02:40:14.71: SIM {TimeUS : 55935117, Roll : 8.84, Pitch : -4.71, Yaw : 4.17, Alt : 49.2599983215, Lat : 49.283577, Lng : -123.1150067, Q1 : 0.995406210423, Q2 : 0.0784610584378, Q3 : -0.0381676182151, Q4 : 0.0394162423909}
2019-04-14 02:40:14.81: SIM {TimeUS : 56035077, Roll : 9.13, Pitch : -5.25, Yaw : 8.53, Alt : 49.2599983215, Lat : 49.2835776, Lng : -123.115005, Q1 : 0.992746055126, Q2 : 0.0827075317502, Q3 : -0.0396652333438, Q4 : 0.0777267664671}
2019-04-14 02:40:14.91: SIM {TimeUS : 56135037, Roll : 8.92, Pitch : -6.32, Yaw : 14.28, Alt : 49.2599983215, Lat : 49.2835783, Lng : -123.1150032, Q1 : 0.987184762955, Q2 : 0.0839694589376, Q3 : -0.044928971678, Q4 : 0.128049597144}
2019-04-14 02:40:15.01: SIM {TimeUS : 56234997, Roll : 8.13, Pitch : -7.79, Yaw : 21.18, Alt : 49.2700004578, Lat : 49.2835791, Lng : -123.1150013, Q1 : 0.977329671383, Q2 : 0.0819940418005, Q3 : -0.053639434278, Q4 : 0.187687277794}
2019-04-14 02:40:15.11: SIM {TimeUS : 56334957, Roll : 6.71, Pitch : -9.43, Yaw : 28.98, Alt : 49.2700004578, Lat : 49.2835799, Lng : -123.1149993, Q1 : 0.962041139603, Q2 : 0.0770800560713, Q3 : -0.06483694911, Q4 : 0.253636986017}
2019-04-14 02:40:15.21: SIM {TimeUS : 56434917, Roll : 4.76, Pitch : -10.98, Yaw : 37.42, Alt : 49.2700004578, Lat : 49.2835806, Lng : -123.1149971, Q1 : 0.940694987774, Q2 : 0.0698445364833, Q3 : -0.0772675573826, Q4 : 0.322869062424}
2019-04-14 02:40:15.31: SIM {TimeUS : 56534877, Roll : 2.23, Pitch : -12.24, Yaw : 46.19, Alt : 49.2700004578, Lat : 49.2835814, Lng : -123.1149949, Q1 : 0.91361862421, Q2 : 0.059630446136, Q3 : -0.0904652923346, Q4 : 0.391869008541}
2019-04-14 02:40:15.41: SIM {TimeUS : 56634837, Roll : -0.86, Pitch : -13.0, Yaw : 54.57, Alt : 49.2700004578, Lat : 49.2835823, Lng : -123.1149925, Q1 : 0.883365929127, Q2 : 0.045238494873, Q3 : -0.104057319462, Q4 : 0.454741895199}
2019-04-14 02:40:15.51: SIM {TimeUS : 56734797, Roll : -3.98, Pitch : -13.2, Yaw : 61.67, Alt : 49.2700004578, Lat : 49.2835832, Lng : -123.1149901, Q1 : 0.854451596737, Q2 : 0.0292465500534, Q3 : -0.116357788444, Q4 : 0.505487859249}
2019-04-14 02:40:15.61: SIM {TimeUS : 56834757, Roll : -6.48, Pitch : -13.02, Yaw : 66.85, Alt : 49.2700004578, Lat : 49.2835843, Lng : -123.1149876, Q1 : 0.831410288811, Q2 : 0.0154595728964, Q3 : -0.125495955348, Q4 : 0.541081011295}
2019-04-14 02:40:15.71: SIM {TimeUS : 56934717, Roll : -7.99, Pitch : -12.73, Yaw : 69.92, Alt : 49.2700004578, Lat : 49.2835854, Lng : -123.114985, Q1 : 0.816927611828, Q2 : 0.00659646838903, Q3 : -0.130378752947, Q4 : 0.561771512032}
2019-04-14 02:40:15.81: SIM {TimeUS : 57034677, Roll : -8.42, Pitch : -12.56, Yaw : 71.07, Alt : 49.2700004578, Lat : 49.2835867, Lng : -123.1149824, Q1 : 0.811334967613, Q2 : 0.00401665223762, Q3 : -0.13128452003, Q4 : 0.569634795189}
2019-04-14 02:40:15.91: SIM {TimeUS : 57134637, Roll : -7.92, Pitch : -12.66, Yaw : 70.64, Alt : 49.2700004578, Lat : 49.2835879, Lng : -123.1149797, Q1 : 0.813381075859, Q2 : 0.00757468910888, Q3 : -0.12948846817, Q4 : 0.567086100578}
2019-04-14 02:40:16.01: SIM {TimeUS : 57234597, Roll : -6.73, Pitch : -13.04, Yaw : 69.01, Alt : 49.2700004578, Lat : 49.2835893, Lng : -123.114977, Q1 : 0.821088016033, Q2 : 0.0161529835314, Q3 : -0.126500502229, Q4 : 0.556373298168}
2019-04-14 02:40:16.11: SIM {TimeUS : 57334557, Roll : -5.08, Pitch : -13.65, Yaw : 66.51, Alt : 49.2700004578, Lat : 49.2835909, Lng : -123.1149743, Q1 : 0.832355439663, Q2 : 0.0282676834613, Q3 : -0.123463496566, Q4 : 0.53957593441}
2019-04-14 02:40:16.22: SIM {TimeUS : 57435350, Roll : -3.2, Pitch : -14.38, Yaw : 63.44, Alt : 49.2799987793, Lat : 49.2835925, Lng : -123.1149713, Q1 : 0.845403254032, Q2 : 0.0422391034663, Q3 : -0.12105473876, Q4 : 0.518512308598}
2019-04-14 02:40:16.31: SIM {TimeUS : 57535310, Roll : -1.29, Pitch : -15.07, Yaw : 60.17, Alt : 49.2799987793, Lat : 49.283594, Lng : -123.1149685, Q1 : 0.85849583149, Q2 : 0.0560279861093, Q3 : -0.119103372097, Q4 : 0.495641171932}
2019-04-14 02:40:16.41: SIM {TimeUS : 57635270, Roll : 0.46, Pitch : -15.57, Yaw : 56.98, Alt : 49.2799987793, Lat : 49.2835958, Lng : -123.1149654, Q1 : 0.870501816273, Q2 : 0.0681990683079, Q3 : -0.117164768279, Q4 : 0.473125606775}
2019-04-14 02:40:16.51: SIM {TimeUS : 57735230, Roll : 1.93, Pitch : -15.84, Yaw : 54.21, Alt : 49.2799987793, Lat : 49.2835974, Lng : -123.1149622, Q1 : 0.880461096764, Q2 : 0.0776987224817, Q3 : -0.115031793714, Q4 : 0.453341931105}
2019-04-14 02:40:16.61: SIM {TimeUS : 57835190, Roll : 3.0, Pitch : -15.9, Yaw : 52.11, Alt : 49.2799987793, Lat : 49.283599, Lng : -123.114959, Q1 : 0.887817263603, Q2 : 0.0840932279825, Q3 : -0.112871684134, Q4 : 0.438142508268}
2019-04-14 02:40:16.71: SIM {TimeUS : 57935150, Roll : 3.6, Pitch : -15.86, Yaw : 50.79, Alt : 49.2799987793, Lat : 49.2836007, Lng : -123.1149555, Q1 : 0.892396390438, Q2 : 0.0873111188412, Q3 : -0.111272104084, Q4 : 0.428513765335}
2019-04-14 02:40:16.81: SIM {TimeUS : 58035110, Roll : 3.72, Pitch : -15.81, Yaw : 50.27, Alt : 49.2799987793, Lat : 49.2836024, Lng : -123.114952, Q1 : 0.894307911396, Q2 : 0.0875549167395, Q3 : -0.110768824816, Q4 : 0.424591332674}
2019-04-14 02:40:16.91: SIM {TimeUS : 58135070, Roll : 3.42, Pitch : -15.8, Yaw : 50.46, Alt : 49.2799987793, Lat : 49.2836041, Lng : -123.1149484, Q1 : 0.893825113773, Q2 : 0.0853458940983, Q3 : -0.11174505204, Q4 : 0.425800204277}
2019-04-14 02:40:17.01: SIM {TimeUS : 58235030, Roll : 2.78, Pitch : -15.86, Yaw : 51.23, Alt : 49.2799987793, Lat : 49.2836057, Lng : -123.1149446, Q1 : 0.891371786594, Q2 : 0.0813587978482, Q3 : -0.113947570324, Q4 : 0.431106775999}
2019-04-14 02:40:17.11: SIM {TimeUS : 58334990, Roll : 1.97, Pitch : -15.95, Yaw : 52.38, Alt : 49.2799987793, Lat : 49.2836074, Lng : -123.1149408, Q1 : 0.887446045876, Q2 : 0.0765365585685, Q3 : -0.117001026869, Q4 : 0.439195245504}
2019-04-14 02:40:17.21: SIM {TimeUS : 58434950, Roll : 1.06, Pitch : -16.08, Yaw : 53.73, Alt : 49.2799987793, Lat : 49.2836092, Lng : -123.1149368, Q1 : 0.882656395435, Q2 : 0.0714127570391, Q3 : -0.120606526732, Q4 : 0.448633521795}
2019-04-14 02:40:17.31: SIM {TimeUS : 58534910, Roll : 0.2, Pitch : -16.21, Yaw : 55.1, Alt : 49.2799987793, Lat : 49.283611, Lng : -123.1149328, Q1 : 0.877608060837, Q2 : 0.0668237432837, Q3 : -0.124179087579, Q4 : 0.458168357611}
2019-04-14 02:40:17.41: SIM {TimeUS : 58634870, Roll : -0.49, Pitch : -16.3, Yaw : 56.34, Alt : 49.2900009155, Lat : 49.2836128, Lng : -123.1149288, Q1 : 0.872920632362, Q2 : 0.0631514191628, Q3 : -0.127068474889, Q4 : 0.466770917177}
2019-04-14 02:40:17.51: SIM {TimeUS : 58734830, Roll : -1.03, Pitch : -16.36, Yaw : 57.32, Alt : 49.2900009155, Lat : 49.2836146, Lng : -123.1149246, Q1 : 0.869091808796, Q2 : 0.0604380778968, Q3 : -0.129154384136, Q4 : 0.473651528358}
2019-04-14 02:40:17.61: SIM {TimeUS : 58834790, Roll : -1.37, Pitch : -16.4, Yaw : 58.0, Alt : 49.2900009155, Lat : 49.2836164, Lng : -123.1149204, Q1 : 0.866420567036, Q2 : 0.0587599426508, Q3 : -0.130543962121, Q4 : 0.478352367878}
2019-04-14 02:40:17.71: SIM {TimeUS : 58934750, Roll : -1.51, Pitch : -16.44, Yaw : 58.34, Alt : 49.2900009155, Lat : 49.2836183, Lng : -123.1149162, Q1 : 0.865018188953, Q2 : 0.058274473995, Q3 : -0.13126295805, Q4 : 0.480747014284}
2019-04-14 02:40:17.81: SIM {TimeUS : 59034710, Roll : -1.46, Pitch : -16.49, Yaw : 58.37, Alt : 49.2900009155, Lat : 49.2836201, Lng : -123.114912, Q1 : 0.864819824696, Q2 : 0.0589109249413, Q3 : -0.131408467889, Q4 : 0.480986535549}
2019-04-14 02:40:17.91: SIM {TimeUS : 59134670, Roll : -1.26, Pitch : -16.53, Yaw : 58.13, Alt : 49.2900009155, Lat : 49.2836221, Lng : -123.1149077, Q1 : 0.86566054821, Q2 : 0.0603073090315, Q3 : -0.131016895175, Q4 : 0.479405254126}
2019-04-14 02:40:18.01: SIM {TimeUS : 59234630, Roll : -0.95, Pitch : -16.58, Yaw : 57.71, Alt : 49.2900009155, Lat : 49.2836241, Lng : -123.1149033, Q1 : 0.867240309715, Q2 : 0.0623295344412, Q3 : -0.130273714662, Q4 : 0.476485162973}
2019-04-14 02:40:18.11: SIM {TimeUS : 59334590, Roll : -0.59, Pitch : -16.62, Yaw : 57.16, Alt : 49.2900009155, Lat : 49.2836261, Lng : -123.1148989, Q1 : 0.869240403175, Q2 : 0.0646742284298, Q3 : -0.129376545548, Q4 : 0.472757995129}
2019-04-14 02:40:18.21: SIM {TimeUS : 59434550, Roll : -0.21, Pitch : -16.66, Yaw : 56.58, Alt : 49.2900009155, Lat : 49.283628, Lng : -123.1148945, Q1 : 0.87136310339, Q2 : 0.067029863596, Q3 : -0.128475919366, Q4 : 0.468750804663}
2019-04-14 02:40:18.32: SIM {TimeUS : 59535343, Roll : 0.13, Pitch : -16.69, Yaw : 56.03, Alt : 49.2900009155, Lat : 49.2836302, Lng : -123.11489, Q1 : 0.873367071152, Q2 : 0.0692173615098, Q3 : -0.127655044198, Q4 : 0.464911907911}
2019-04-14 02:40:18.41: SIM {TimeUS : 59635303, Roll : 0.41, Pitch : -16.73, Yaw : 55.57, Alt : 49.2900009155, Lat : 49.2836322, Lng : -123.1148855, Q1 : 0.875028014183, Q2 : 0.0709979683161, Q3 : -0.127092584968, Q4 : 0.461663067341}
2019-04-14 02:40:18.51: SIM {TimeUS : 59735263, Roll : 0.59, Pitch : -16.76, Yaw : 55.22, Alt : 49.2900009155, Lat : 49.2836342, Lng : -123.1148809, Q1 : 0.876270473003, Q2 : 0.0721468105912, Q3 : -0.126800641418, Q4 : 0.459201991558}
2019-04-14 02:40:18.61: SIM {TimeUS : 59835223, Roll : 0.68, Pitch : -16.79, Yaw : 55.01, Alt : 49.2900009155, Lat : 49.2836363, Lng : -123.1148763, Q1 : 0.877033531666, Q2 : 0.0727100595832, Q3 : -0.126825883985, Q4 : 0.457646876574}
2019-04-14 02:40:18.71: SIM {TimeUS : 59935183, Roll : 0.68, Pitch : -16.84, Yaw : 54.92, Alt : 49.2900009155, Lat : 49.2836384, Lng : -123.1148717, Q1 : 0.877315998077, Q2 : 0.0727522522211, Q3 : -0.127225384116, Q4 : 0.456987410784}
2019-04-14 02:40:18.81: SIM {TimeUS : 60035143, Roll : 0.6, Pitch : -16.88, Yaw : 54.96, Alt : 49.2900009155, Lat : 49.2836405, Lng : -123.114867, Q1 : 0.877180755138, Q2 : 0.0723610594869, Q3 : -0.127863794565, Q4 : 0.457130908966}
2019-04-14 02:40:18.91: SIM {TimeUS : 60135103, Roll : 0.45, Pitch : -16.92, Yaw : 55.08, Alt : 49.2999992371, Lat : 49.2836425, Lng : -123.1148622, Q1 : 0.876735091209, Q2 : 0.0714989006519, Q3 : -0.128650963306, Q4 : 0.4579000175}
2019-04-14 02:40:19.01: SIM {TimeUS : 60235063, Roll : 0.27, Pitch : -16.94, Yaw : 55.27, Alt : 49.2999992371, Lat : 49.2836445, Lng : -123.1148575, Q1 : 0.876083374023, Q2 : 0.0704223886132, Q3 : -0.129423499107, Q4 : 0.459094971418}
2019-04-14 02:40:19.11: SIM {TimeUS : 60335023, Roll : 0.09, Pitch : -16.96, Yaw : 55.48, Alt : 49.2999992371, Lat : 49.2836467, Lng : -123.1148527, Q1 : 0.875319302082, Q2 : 0.0693850889802, Q3 : -0.130204990506, Q4 : 0.460487306118}
2019-04-14 02:40:19.21: SIM {TimeUS : 60434983, Roll : -0.05, Pitch : -17.0, Yaw : 55.68, Alt : 49.2999992371, Lat : 49.2836488, Lng : -123.1148479, Q1 : 0.874528288841, Q2 : 0.0686685666442, Q3 : -0.130976200104, Q4 : 0.461876779795}
2019-04-14 02:40:19.31: SIM {TimeUS : 60534943, Roll : -0.15, Pitch : -17.05, Yaw : 55.86, Alt : 49.2999992371, Lat : 49.283651, Lng : -123.114843, Q1 : 0.873814165592, Q2 : 0.0683007910848, Q3 : -0.131605297327, Q4 : 0.463102519512}
2019-04-14 02:40:19.41: SIM {TimeUS : 60634903, Roll : -0.2, Pitch : -17.1, Yaw : 56.0, Alt : 49.2999992371, Lat : 49.283653, Lng : -123.1148382, Q1 : 0.873240351677, Q2 : 0.0682414621115, Q3 : -0.132171407342, Q4 : 0.464031428099}
2019-04-14 02:40:19.51: SIM {TimeUS : 60734863, Roll : -0.22, Pitch : -17.15, Yaw : 56.08, Alt : 49.2999992371, Lat : 49.2836553, Lng : -123.1148333, Q1 : 0.872867286205, Q2 : 0.0684390738606, Q3 : -0.132561609149, Q4 : 0.464592635632}
2019-04-14 02:40:19.61: SIM {TimeUS : 60834823, Roll : -0.21, Pitch : -17.19, Yaw : 56.1, Alt : 49.2999992371, Lat : 49.2836574, Lng : -123.1148284, Q1 : 0.872722268105, Q2 : 0.0686597600579, Q3 : -0.13278464973, Q4 : 0.464768648148}
2019-04-14 02:40:19.71: SIM {TimeUS : 60934783, Roll : -0.2, Pitch : -17.2, Yaw : 56.08, Alt : 49.2999992371, Lat : 49.2836597, Lng : -123.1148234, Q1 : 0.872801423073, Q2 : 0.0687936246395, Q3 : -0.13284060359, Q4 : 0.464584201574}
2019-04-14 02:40:19.81: SIM {TimeUS : 61034743, Roll : -0.17, Pitch : -17.21, Yaw : 56.01, Alt : 49.3100013733, Lat : 49.2836619, Lng : -123.1148185, Q1 : 0.873039901257, Q2 : 0.0689504519105, Q3 : -0.132883951068, Q4 : 0.464100182056}
2019-04-14 02:40:19.91: SIM {TimeUS : 61134703, Roll : -0.12, Pitch : -17.22, Yaw : 55.92, Alt : 49.3100013733, Lat : 49.283664, Lng : -123.1148135, Q1 : 0.873382627964, Q2 : 0.069262765348, Q3 : -0.132783398032, Q4 : 0.463437229395}
2019-04-14 02:40:20.01: SIM {TimeUS : 61234663, Roll : -0.05, Pitch : -17.23, Yaw : 55.81, Alt : 49.3100013733, Lat : 49.2836663, Lng : -123.1148085, Q1 : 0.873770177364, Q2 : 0.0697465613484, Q3 : -0.132640391588, Q4 : 0.462674438953}
2019-04-14 02:40:20.11: SIM {TimeUS : 61334623, Roll : 0.04, Pitch : -17.27, Yaw : 55.69, Alt : 49.3100013733, Lat : 49.2836685, Lng : -123.1148035, Q1 : 0.874135315418, Q2 : 0.0704658553004, Q3 : -0.132591441274, Q4 : 0.461889058352}
2019-04-14 02:40:20.21: SIM {TimeUS : 61434583, Roll : 0.12, Pitch : -17.33, Yaw : 55.59, Alt : 49.3100013733, Lat : 49.2836706, Lng : -123.1147985, Q1 : 0.874444484711, Q2 : 0.0712168067694, Q3 : -0.132773652673, Q4 : 0.461135774851}
2019-04-14 02:40:20.31: SIM {TimeUS : 61534543, Roll : 0.17, Pitch : -17.36, Yaw : 55.5, Alt : 49.3100013733, Lat : 49.283673, Lng : -123.1147934, Q1 : 0.874730885029, Q2 : 0.0716581046581, Q3 : -0.132866337895, Q4 : 0.46049708128}
2019-04-14 02:40:20.42: SIM {TimeUS : 61635336, Roll : 0.21, Pitch : -17.36, Yaw : 55.43, Alt : 49.3100013733, Lat : 49.2836753, Lng : -123.1147883, Q1 : 0.874980986118, Q2 : 0.0718356966972, Q3 : -0.132801830769, Q4 : 0.460012614727}
2019-04-14 02:40:20.51: SIM {TimeUS : 61735296, Roll : 0.21, Pitch : -17.37, Yaw : 55.38, Alt : 49.3100013733, Lat : 49.2836774, Lng : -123.1147832, Q1 : 0.875149786472, Q2 : 0.0718403980136, Q3 : -0.132850781083, Q4 : 0.459676504135}
2019-04-14 02:40:20.61: SIM {TimeUS : 61835256, Roll : 0.2, Pitch : -17.39, Yaw : 55.36, Alt : 49.3100013733, Lat : 49.2836797, Lng : -123.1147781, Q1 : 0.875223696232, Q2 : 0.0717989653349, Q3 : -0.133110195398, Q4 : 0.45946726203}
2019-04-14 02:40:20.71: SIM {TimeUS : 61935216, Roll : 0.19, Pitch : -17.42, Yaw : 55.35, Alt : 49.3100013733, Lat : 49.283682, Lng : -123.114773, Q1 : 0.875220000744, Q2 : 0.0718174502254, Q3 : -0.13337276876, Q4 : 0.459395170212}
2019-04-14 02:40:20.81: SIM {TimeUS : 62035176, Roll : 0.17, Pitch : -17.46, Yaw : 55.36, Alt : 49.3100013733, Lat : 49.2836843, Lng : -123.1147678, Q1 : 0.875155210495, Q2 : 0.0718586370349, Q3 : -0.133723348379, Q4 : 0.459410190582}
2019-04-14 02:40:20.91: SIM {TimeUS : 62135136, Roll : 0.15, Pitch : -17.48, Yaw : 55.38, Alt : 49.3100013733, Lat : 49.2836865, Lng : -123.1147627, Q1 : 0.87507134676, Q2 : 0.071840249002, Q3 : -0.133998036385, Q4 : 0.459492832422}
2019-04-14 02:40:21.01: SIM {TimeUS : 62235096, Roll : 0.14, Pitch : -17.51, Yaw : 55.4, Alt : 49.3199996948, Lat : 49.2836888, Lng : -123.1147575, Q1 : 0.874978840351, Q2 : 0.0718516930938, Q3 : -0.134228721261, Q4 : 0.459599912167}
2019-04-14 02:40:21.11: SIM {TimeUS : 62335056, Roll : 0.12, Pitch : -17.52, Yaw : 55.41, Alt : 49.3199996948, Lat : 49.2836912, Lng : -123.1147523, Q1 : 0.874902307987, Q2 : 0.0718106850982, Q3 : -0.134366720915, Q4 : 0.459711611271}
2019-04-14 02:40:21.21: SIM {TimeUS : 62435016, Roll : 0.12, Pitch : -17.53, Yaw : 55.43, Alt : 49.3199996948, Lat : 49.2836935, Lng : -123.1147471, Q1 : 0.874831736088, Q2 : 0.0718215331435, Q3 : -0.13446700573, Q4 : 0.459814935923}
2019-04-14 02:40:21.31: SIM {TimeUS : 62534976, Roll : 0.12, Pitch : -17.55, Yaw : 55.44, Alt : 49.3199996948, Lat : 49.2836957, Lng : -123.1147419, Q1 : 0.874774158001, Q2 : 0.0719049274921, Q3 : -0.134571328759, Q4 : 0.45988085866}
2019-04-14 02:40:21.41: SIM {TimeUS : 62634936, Roll : 0.11, Pitch : -17.58, Yaw : 55.44, Alt : 49.3199996948, Lat : 49.283698, Lng : -123.1147367, Q1 : 0.874739050865, Q2 : 0.0719640478492, Q3 : -0.134861156344, Q4 : 0.45985352993}
2019-04-14 02:40:21.51: SIM {TimeUS : 62734896, Roll : 0.08, Pitch : -17.62, Yaw : 55.43, Alt : 49.3199996948, Lat : 49.2837004, Lng : -123.1147315, Q1 : 0.874732971191, Q2 : 0.0719124898314, Q3 : -0.13531729579, Q4 : 0.459739089012}
2019-04-14 02:40:21.61: SIM {TimeUS : 62834856, Roll : 0.06, Pitch : -17.67, Yaw : 55.42, Alt : 49.3199996948, Lat : 49.2837027, Lng : -123.1147262, Q1 : 0.874747514725, Q2 : 0.0719136595726, Q3 : -0.135768562555, Q4 : 0.459578216076}
2019-04-14 02:40:21.71: SIM {TimeUS : 62934816, Roll : 0.07, Pitch : -17.71, Yaw : 55.4, Alt : 49.3199996948, Lat : 49.2837051, Lng : -123.114721, Q1 : 0.874779582024, Q2 : 0.0721404924989, Q3 : -0.135994449258, Q4 : 0.459414720535}
2019-04-14 02:40:21.81: SIM {TimeUS : 63034776, Roll : 0.11, Pitch : -17.71, Yaw : 55.37, Alt : 49.3199996948, Lat : 49.2837074, Lng : -123.1147157, Q1 : 0.874855458736, Q2 : 0.0724137946963, Q3 : -0.135892599821, Q4 : 0.459257423878}
2019-04-14 02:40:21.91: SIM {TimeUS : 63134736, Roll : 0.15, Pitch : -17.69, Yaw : 55.34, Alt : 49.3199996948, Lat : 49.2837097, Lng : -123.1147104, Q1 : 0.874971687794, Q2 : 0.0725948289037, Q3 : -0.1355933249, Q4 : 0.459095925093}
2019-04-14 02:40:22.01: SIM {TimeUS : 63234696, Roll : 0.16, Pitch : -17.67, Yaw : 55.31, Alt : 49.3199996948, Lat : 49.283712, Lng : -123.1147051, Q1 : 0.875104248524, Q2 : 0.0725546404719, Q3 : -0.135431036353, Q4 : 0.458897382021}
2019-04-14 02:40:22.11: SIM {TimeUS : 63334656, Roll : 0.16, Pitch : -17.65, Yaw : 55.29, Alt : 49.3199996948, Lat : 49.2837144, Lng : -123.1146998, Q1 : 0.875235497952, Q2 : 0.0724687725306, Q3 : -0.135321363807, Q4 : 0.458692997694}
2019-04-14 02:40:22.21: SIM {TimeUS : 63434616, Roll : 0.15, Pitch : -17.64, Yaw : 55.26, Alt : 49.3199996948, Lat : 49.2837168, Lng : -123.1146945, Q1 : 0.875365018845, Q2 : 0.0723215788603, Q3 : -0.135256752372, Q4 : 0.458488017321}
2019-04-14 02:40:22.31: SIM {TimeUS : 63534576, Roll : 0.14, Pitch : -17.65, Yaw : 55.24, Alt : 49.3199996948, Lat : 49.2837192, Lng : -123.1146892, Q1 : 0.875453174114, Q2 : 0.0722573772073, Q3 : -0.13540814817, Q4 : 0.458285182714}
2019-04-14 02:40:22.41: SIM {TimeUS : 63634536, Roll : 0.13, Pitch : -17.69, Yaw : 55.21, Alt : 49.3199996948, Lat : 49.2837215, Lng : -123.1146839, Q1 : 0.875500440598, Q2 : 0.0723092332482, Q3 : -0.1357178092, Q4 : 0.4580950737}
2019-04-14 02:40:22.51: SIM {TimeUS : 63735329, Roll : 0.12, Pitch : -17.74, Yaw : 55.2, Alt : 49.3199996948, Lat : 49.2837239, Lng : -123.1146785, Q1 : 0.875504672527, Q2 : 0.0724330544472, Q3 : -0.136182710528, Q4 : 0.457929372787}
2019-04-14 02:40:22.61: SIM {TimeUS : 63835289, Roll : 0.12, Pitch : -17.8, Yaw : 55.19, Alt : 49.3300018311, Lat : 49.2837263, Lng : -123.1146731, Q1 : 0.875487685204, Q2 : 0.0726392790675, Q3 : -0.136645540595, Q4 : 0.457791298628}
2019-04-14 02:40:22.71: SIM {TimeUS : 63935249, Roll : 0.13, Pitch : -17.83, Yaw : 55.18, Alt : 49.3300018311, Lat : 49.2837287, Lng : -123.1146678, Q1 : 0.875487923622, Q2 : 0.0728131309152, Q3 : -0.13684129715, Q4 : 0.457704693079}
2019-04-14 02:40:22.81: SIM {TimeUS : 64035209, Roll : 0.13, Pitch : -17.85, Yaw : 55.17, Alt : 49.3300018311, Lat : 49.2837311, Lng : -123.1146624, Q1 : 0.875496387482, Q2 : 0.0728997439146, Q3 : -0.137030526996, Q4 : 0.45761808753}
2019-04-14 02:40:22.91: SIM {TimeUS : 64135169, Roll : 0.13, Pitch : -17.87, Yaw : 55.16, Alt : 49.3300018311, Lat : 49.2837334, Lng : -123.114657, Q1 : 0.875518143177, Q2 : 0.0729075446725, Q3 : -0.137150228024, Q4 : 0.457539409399}
2019-04-14 02:40:23.01: SIM {TimeUS : 64235129, Roll : 0.14, Pitch : -17.86, Yaw : 55.15, Alt : 49.3300018311, Lat : 49.2837357, Lng : -123.1146515, Q1 : 0.875551521778, Q2 : 0.0729572176933, Q3 : -0.137035503983, Q4 : 0.45750194788}
2019-04-14 02:40:23.11: SIM {TimeUS : 64335089, Roll : 0.16, Pitch : -17.87, Yaw : 55.14, Alt : 49.3300018311, Lat : 49.2837381, Lng : -123.1146463, Q1 : 0.875559091568, Q2 : 0.0731622055173, Q3 : -0.137022435665, Q4 : 0.45745870471}
2019-04-14 02:40:23.21: SIM {TimeUS : 64435049, Roll : 0.17, Pitch : -17.89, Yaw : 55.13, Alt : 49.3300018311, Lat : 49.2837405, Lng : -123.1146409, Q1 : 0.875560522079, Q2 : 0.0733362138271, Q3 : -0.137143969536, Q4 : 0.457391649485}
2019-04-14 02:40:23.31: SIM {TimeUS : 64535009, Roll : 0.18, Pitch : -17.91, Yaw : 55.12, Alt : 49.3300018311, Lat : 49.283743, Lng : -123.1146355, Q1 : 0.875569999218, Q2 : 0.0734646394849, Q3 : -0.13726939261, Q4 : 0.457315325737}
2019-04-14 02:40:23.41: SIM {TimeUS : 64634969, Roll : 0.19, Pitch : -17.91, Yaw : 55.11, Alt : 49.3300018311, Lat : 49.2837454, Lng : -123.11463, Q1 : 0.875612556934, Q2 : 0.0734921097755, Q3 : -0.137244179845, Q4 : 0.457236915827}
2019-04-14 02:40:23.51: SIM {TimeUS : 64734929, Roll : 0.18, Pitch : -17.91, Yaw : 55.1, Alt : 49.3300018311, Lat : 49.2837478, Lng : -123.1146246, Q1 : 0.875661075115, Q2 : 0.0734629333019, Q3 : -0.137278482318, Q4 : 0.457138448954}
2019-04-14 02:40:23.61: SIM {TimeUS : 64834889, Roll : 0.16, Pitch : -17.93, Yaw : 55.09, Alt : 49.3300018311, Lat : 49.2837503, Lng : -123.1146192, Q1 : 0.875705361366, Q2 : 0.0733412057161, Q3 : -0.1375105232, Q4 : 0.457003384829}
2019-04-14 02:40:23.71: SIM {TimeUS : 64934849, Roll : 0.13, Pitch : -17.96, Yaw : 55.07, Alt : 49.3300018311, Lat : 49.2837527, Lng : -123.1146138, Q1 : 0.875738859177, Q2 : 0.0732060447335, Q3 : -0.137914478779, Q4 : 0.456839084625}
2019-04-14 02:40:23.81: SIM {TimeUS : 65034809, Roll : 0.12, Pitch : -17.97, Yaw : 55.06, Alt : 49.3300018311, Lat : 49.2837551, Lng : -123.1146083, Q1 : 0.875796437263, Q2 : 0.0731111466885, Q3 : -0.138011783361, Q4 : 0.456714481115}
2019-04-14 02:40:23.91: SIM {TimeUS : 65134769, Roll : 0.12, Pitch : -17.95, Yaw : 55.04, Alt : 49.3300018311, Lat : 49.2837575, Lng : -123.1146029, Q1 : 0.875866115093, Q2 : 0.0731006339192, Q3 : -0.137857884169, Q4 : 0.456629067659}
2019-04-14 02:40:24.01: SIM {TimeUS : 65234729, Roll : 0.15, Pitch : -17.94, Yaw : 55.03, Alt : 49.3300018311, Lat : 49.28376, Lng : -123.1145974, Q1 : 0.875923752785, Q2 : 0.0731980055571, Q3 : -0.137676239014, Q4 : 0.456557661295}
2019-04-14 02:40:24.11: SIM {TimeUS : 65334689, Roll : 0.16, Pitch : -17.94, Yaw : 55.02, Alt : 49.3400001526, Lat : 49.2837624, Lng : -123.1145919, Q1 : 0.875958859921, Q2 : 0.0733383744955, Q3 : -0.137688577175, Q4 : 0.456464082003}
2019-04-14 02:40:24.21: SIM {TimeUS : 65434649, Roll : 0.16, Pitch : -17.97, Yaw : 55.0, Alt : 49.3400001526, Lat : 49.2837648, Lng : -123.1145865, Q1 : 0.875980198383, Q2 : 0.0733861923218, Q3 : -0.137889266014, Q4 : 0.456354916096}
2019-04-14 02:40:24.31: SIM {TimeUS : 65534609, Roll : 0.14, Pitch : -17.99, Yaw : 54.99, Alt : 49.3400001526, Lat : 49.2837673, Lng : -123.1145811, Q1 : 0.876004517078, Q2 : 0.0733354687691, Q3 : -0.138150021434, Q4 : 0.456237465143}
2019-04-14 02:40:24.41: SIM {TimeUS : 65634569, Roll : 0.13, Pitch : -18.01, Yaw : 54.98, Alt : 49.3400001526, Lat : 49.2837697, Lng : -123.1145756, Q1 : 0.87602865696, Q2 : 0.073306247592, Q3 : -0.138355776668, Q4 : 0.456133425236}
2019-04-14 02:40:24.52: SIM {TimeUS : 65735362, Roll : 0.13, Pitch : -18.03, Yaw : 54.97, Alt : 49.3400001526, Lat : 49.2837721, Lng : -123.1145701, Q1 : 0.876047313213, Q2 : 0.0733990892768, Q3 : -0.13847373426, Q4 : 0.456046849489}
2019-04-14 02:40:24.61: SIM {TimeUS : 65835322, Roll : 0.15, Pitch : -18.04, Yaw : 54.96, Alt : 49.3400001526, Lat : 49.2837746, Lng : -123.1145646, Q1 : 0.876063942909, Q2 : 0.0735282078385, Q3 : -0.138534158468, Q4 : 0.45597577095}
2019-04-14 02:40:24.71: SIM {TimeUS : 65935282, Roll : 0.17, Pitch : -18.05, Yaw : 54.96, Alt : 49.3400001526, Lat : 49.283777, Lng : -123.1145591, Q1 : 0.876068949699, Q2 : 0.0737349316478, Q3 : -0.138519763947, Q4 : 0.455937117338}
2019-04-14 02:40:24.81: SIM {TimeUS : 66035242, Roll : 0.18, Pitch : -18.07, Yaw : 54.95, Alt : 49.3400001526, Lat : 49.2837794, Lng : -123.1145536, Q1 : 0.876069307327, Q2 : 0.073875464499, Q3 : -0.138600751758, Q4 : 0.455889046192}
2019-04-14 02:40:24.91: SIM {TimeUS : 66135202, Roll : 0.19, Pitch : -18.09, Yaw : 54.94, Alt : 49.3400001526, Lat : 49.2837819, Lng : -123.1145481, Q1 : 0.876064300537, Q2 : 0.0740204378963, Q3 : -0.138719156384, Q4 : 0.455839127302}
2019-04-14 02:40:25.01: SIM {TimeUS : 66235162, Roll : 0.2, Pitch : -18.11, Yaw : 54.94, Alt : 49.3400001526, Lat : 49.2837843, Lng : -123.1145426, Q1 : 0.876056015491, Q2 : 0.0741899088025, Q3 : -0.138816580176, Q4 : 0.455797821283}
2019-04-14 02:40:25.11: SIM {TimeUS : 66335122, Roll : 0.23, Pitch : -18.12, Yaw : 54.93, Alt : 49.3400001526, Lat : 49.2837868, Lng : -123.1145371, Q1 : 0.876046538353, Q2 : 0.0744203403592, Q3 : -0.138815298676, Q4 : 0.455778956413}
2019-04-14 02:40:25.21: SIM {TimeUS : 66435082, Roll : 0.26, Pitch : -18.13, Yaw : 54.93, Alt : 49.3400001526, Lat : 49.2837892, Lng : -123.1145316, Q1 : 0.876034379005, Q2 : 0.0746844261885, Q3 : -0.138757020235, Q4 : 0.455776780844}
2019-04-14 02:40:25.31: SIM {TimeUS : 66535042, Roll : 0.26, Pitch : -18.12, Yaw : 54.92, Alt : 49.3499984741, Lat : 49.2837917, Lng : -123.1145261, Q1 : 0.876058876514, Q2 : 0.0746343508363, Q3 : -0.138728603721, Q4 : 0.455746561289}
2019-04-14 02:40:25.41: SIM {TimeUS : 66635002, Roll : 0.23, Pitch : -18.12, Yaw : 54.92, Alt : 49.3499984741, Lat : 49.2837941, Lng : -123.1145206, Q1 : 0.87609231472, Q2 : 0.0744141340256, Q3 : -0.138880506158, Q4 : 0.455672085285}
