2019-04-14 01:32:06.80: SIM {TimeUS : 40416327, Roll : 0.0, Pitch : 0.0, Yaw : 0.0, Alt : 30.1000003815, Lat : 49.28357, Lng : -123.11502, Q1 : 1.0, Q2 : 0.0, Q3 : 0.0, Q4 : 0.0}
2019-04-14 01:32:06.91: SIM {TimeUS : 40535446, Roll : 0.0, Pitch : 0.0, Yaw : 0.0, Alt : 30.1000003815, Lat : 49.28357, Lng : -123.11502, Q1 : 1.0, Q2 : 0.0, Q3 : 0.0, Q4 : 0.0}
2019-04-14 01:32:07.01: SIM {TimeUS : 40635406, Roll : 0.0, Pitch : 0.0, Yaw : 0.0, Alt : 30.1000003815, Lat : 49.28357, Lng : -123.11502, Q1 : 1.0, Q2 : 0.0, Q3 : 0.0, Q4 : 0.0}
2019-04-14 01:32:07.11: SIM {TimeUS : 40735366, Roll : 0.0, Pitch : 0.0, Yaw : 0.0, Alt : 30.1000003815, Lat : 49.28357, Lng : -123.11502, Q1 : 1.0, Q2 : 0.0, Q3 : 0.0, Q4 : 0.0}
2019-04-14 01:32:07.21: SIM {TimeUS : 40835326, Roll : 0.0, Pitch : 0.0, Yaw : 0.0, Alt : 30.1000003815, Lat : 49.28357, Lng : -123.11502, Q1 : 1.0, Q2 : 0.0, Q3 : 0.0, Q4 : 0.0}
2019-04-14 01:32:07.31: SIM {TimeUS : 40935286, Roll : 0.0, Pitch : 0.0, Yaw : 0.0, Alt : 30.1000003815, Lat : 49.28357, Lng : -123.11502, Q1 : 1.0, Q2 : 0.0, Q3 : 0.0, Q4 : 0.0}
2019-04-14 01:32:07.41: SIM {TimeUS : 41035246, Roll : 0.0, Pitch : 0.0, Yaw : 0.0, Alt : 30.1000003815, Lat : 49.28357, Lng : -123.11502, Q1 : 1.0, Q2 : 0.0, Q3 : 0.0, Q4 : 0.0}
2019-04-14 01:32:07.51: SIM {TimeUS : 41135206, Roll : 0.0, Pitch : 0.0, Yaw : 0.0, Alt : 30.1000003815, Lat : 49.28357, Lng : -123.11502, Q1 : 1.0, Q2 : 0.0, Q3 : 0.0, Q4 : 0.0}
2019-04-14 01:32:07.61: SIM {TimeUS : 41235166, Roll : 0.0, Pitch : 0.0, Yaw : 0.0, Alt : 30.1000003815, Lat : 49.28357, Lng : -123.11502, Q1 : 1.0, Q2 : 0.0, Q3 : 0.0, Q4 : 0.0}
2019-04-14 01:32:07.71: SIM {TimeUS : 41335126, Roll : 0.0, Pitch : 0.0, Yaw : 0.0, Alt : 30.1000003815, Lat : 49.28357, Lng : -123.11502, Q1 : 1.0, Q2 : 0.0, Q3 : 0.0, Q4 : 0.0}
2019-04-14 01:32:07.81: SIM {TimeUS : 41435086, Roll : 0.0, Pitch : 0.0, Yaw : 0.0, Alt : 30.1000003815, Lat : 49.28357, Lng : -123.11502, Q1 : 1.0, Q2 : 0.0, Q3 : 0.0, Q4 : 0.0}
2019-04-14 01:32:07.91: SIM {TimeUS : 41535046, Roll : 0.0, Pitch : 0.0, Yaw : 0.0, Alt : 30.1000003815, Lat : 49.28357, Lng : -123.11502, Q1 : 1.0, Q2 : 0.0, Q3 : 0.0, Q4 : 0.0}
2019-04-14 01:32:08.01: SIM {TimeUS : 41635006, Roll : 0.0, Pitch : 0.0, Yaw : 0.0, Alt : 30.1000003815, Lat : 49.28357, Lng : -123.11502, Q1 : 1.0, Q2 : 0.0, Q3 : 0.0, Q4 : 0.0}
2019-04-14 01:32:08.11: SIM {TimeUS : 41734966, Roll : 0.0, Pitch : 0.0, Yaw : 0.0, Alt : 30.1000003815, Lat : 49.28357, Lng : -123.11502, Q1 : 1.0, Q2 : 0.0, Q3 : 0.0, Q4 : 0.0}
2019-04-14 01:32:08.21: SIM {TimeUS : 41834926, Roll : 0.0, Pitch : 0.0, Yaw : 0.0, Alt : 30.1000003815, Lat : 49.28357, Lng : -123.11502, Q1 : 1.0, Q2 : 0.0, Q3 : 0.0, Q4 : 0.0}
2019-04-14 01:32:08.31: SIM {TimeUS : 41934886, Roll : 0.0, Pitch : 0.0, Yaw : 0.0, Alt : 30.1000003815, Lat : 49.28357, Lng : -123.11502, Q1 : 1.0, Q2 : 0.0, Q3 : 0.0, Q4 : 0.0}
2019-04-14 01:32:08.41: SIM {TimeUS : 42034846, Roll : 0.0, Pitch : 0.0, Yaw : 0.0, Alt : 30.1000003815, Lat : 49.28357, Lng : -123.11502, Q1 : 1.0, Q2 : 0.0, Q3 : 0.0, Q4 : 0.0}
2019-04-14 01:32:08.51: SIM {TimeUS : 42134806, Roll : 0.0, Pitch : 0.0, Yaw : 0.0, Alt : 30.1000003815, Lat : 49.28357, Lng : -123.11502, Q1 : 1.0, Q2 : 0.0, Q3 : 0.0, Q4 : 0.0}
2019-04-14 01:32:08.61: SIM {TimeUS : 42234766, Roll : 0.0, Pitch : 0.0, Yaw : 0.0, Alt : 30.1000003815, Lat : 49.28357, Lng : -123.11502, Q1 : 1.0, Q2 : 0.0, Q3 : 0.0, Q4 : 0.0}
2019-04-14 01:32:08.71: SIM {TimeUS : 42334726, Roll : 0.0, Pitch : 0.0, Yaw : 0.0, Alt : 30.1000003815, Lat : 49.28357, Lng : -123.11502, Q1 : 1.0, Q2 : 0.0, Q3 : 0.0, Q4 : 0.0}
2019-04-14 01:32:08.81: SIM {TimeUS : 42434686, Roll : 0.0, Pitch : 0.0, Yaw : 0.0, Alt : 30.1000003815, Lat : 49.28357, Lng : -123.11502, Q1 : 1.0, Q2 : 0.0, Q3 : 0.0, Q4 : 0.0}
2019-04-14 01:32:08.91: SIM {TimeUS : 42535479, Roll : 0.0, Pitch : 0.0, Yaw : 0.0, Alt : 30.1000003815, Lat : 49.28357, Lng : -123.11502, Q1 : 1.0, Q2 : 0.0, Q3 : 0.0, Q4 : 0.0}
2019-04-14 01:32:09.01: SIM {TimeUS : 42635439, Roll : 0.0, Pitch : 0.0, Yaw : 0.0, Alt : 30.1000003815, Lat : 49.28357, Lng : -123.11502, Q1 : 1.0, Q2 : 0.0, Q3 : 0.0, Q4 : 0.0}
2019-04-14 01:32:09.11: SIM {TimeUS : 42735399, Roll : 0.0, Pitch : 0.0, Yaw : 0.0, Alt : 30.1000003815, Lat : 49.28357, Lng : -123.11502, Q1 : 1.0, Q2 : 0.0, Q3 : 0.0, Q4 : 7.39073472561e-12}
2019-04-14 01:32:09.21: SIM {TimeUS : 42835359, Roll : 0.0, Pitch : 0.0, Yaw : 0.0, Alt : 30.1000003815, Lat : 49.28357, Lng : -123.11502, Q1 : 1.0, Q2 : 0.0, Q3 : 0.0, Q4 : 1.15506416931e-10}
2019-04-14 01:32:09.31: SIM {TimeUS : 42935319, Roll : 0.0, Pitch : 0.0, Yaw : 360.0, Alt : 30.1000003815, Lat : 49.28357, Lng : -123.11502, Q1 : 1.0, Q2 : 0.0, Q3 : 0.0, Q4 : -1.05012851748e-07}
2019-04-14 01:32:09.41: SIM {TimeUS : 43035279, Roll : 0.0, Pitch : 0.0, Yaw : 359.99, Alt : 30.1000003815, Lat : 49.28357, Lng : -123.11502, Q1 : 1.0, Q2 : 0.0, Q3 : 0.0, Q4 : -2.76464362514e-07}
2019-04-14 01:32:09.51: SIM {TimeUS : 43135239, Roll : 0.0, Pitch : 0.0, Yaw : 359.99, Alt : 30.1000003815, Lat : 49.28357, Lng : -123.11502, Q1 : 1.0, Q2 : 0.0, Q3 : 0.0, Q4 : -4.53608208772e-07}
2019-04-14 01:32:09.61: SIM {TimeUS : 43235199, Roll : 0.0, Pitch : 0.0, Yaw : 359.99, Alt : 30.1000003815, Lat : 49.28357, Lng : -123.11502, Q1 : 1.0, Q2 : 0.0, Q3 : 0.0, Q4 : -6.54826692426e-07}
2019-04-14 01:32:09.71: SIM {TimeUS : 43335159, Roll : 0.0, Pitch : 0.0, Yaw : 359.99, Alt : 30.1000003815, Lat : 49.28357, Lng : -123.11502, Q1 : 1.0, Q2 : 0.0, Q3 : 0.0, Q4 : -8.23090999802e-07}
2019-04-14 01:32:09.81: SIM {TimeUS : 43435119, Roll : 0.0, Pitch : 0.0, Yaw : 359.99, Alt : 30.1000003815, Lat : 49.28357, Lng : -123.11502, Q1 : 1.0, Q2 : 0.0, Q3 : 0.0, Q4 : -1.02801436697e-06}
2019-04-14 01:32:09.91: SIM {TimeUS : 43535079, Roll : 0.0, Pitch : 0.0, Yaw : 359.99, Alt : 30.1000003815, Lat : 49.28357, Lng : -123.11502, Q1 : 1.0, Q2 : 0.0, Q3 : 0.0, Q4 : -1.22589267448e-06}
2019-04-14 01:32:10.01: SIM {TimeUS : 43635039, Roll : 0.0, Pitch : 0.0, Yaw : 359.99, Alt : 30.1100006104, Lat : 49.28357, Lng : -123.11502, Q1 : 1.0, Q2 : 0.0, Q3 : 0.0, Q4 : -1.42000465075e-06}
2019-04-14 01:32:10.11: SIM {TimeUS : 43734999, Roll : 0.0, Pitch : 0.0, Yaw : 359.99, Alt : 30.1299991608, Lat : 49.28357, Lng : -123.11502, Q1 : 1.0, Q2 : 0.0, Q3 : 0.0, Q4 : -1.66384847944e-06}
2019-04-14 01:32:10.21: SIM {TimeUS : 43834959, Roll : 0.0, Pitch : 0.0, Yaw : 359.99, Alt : 30.1599998474, Lat : 49.28357, Lng : -123.11502, Q1 : 1.0, Q2 : 0.0, Q3 : 0.0, Q4 : -1.89620004676e-06}
2019-04-14 01:32:10.31: SIM {TimeUS : 43934919, Roll : 0.0, Pitch : 0.0, Yaw : 359.99, Alt : 30.1900005341, Lat : 49.28357, Lng : -123.11502, Q1 : 1.0, Q2 : 0.0, Q3 : 0.0, Q4 : -2.11915175896e-06}
2019-04-14 01:32:10.41: SIM {TimeUS : 44034879, Roll : -0.03, Pitch : -0.03, Yaw : 359.99, Alt : 30.2299995422, Lat : 49.28357, Lng : -123.11502, Q1 : 0.999999940395, Q2 : -0.000322392152157, Q3 : -0.00028604248655, Q4 : -4.77876392324e-06}
2019-04-14 01:32:10.51: SIM {TimeUS : 44134839, Roll : -0.3, Pitch : -0.26, Yaw : 359.99, Alt : 30.3099994659, Lat : 49.28357, Lng : -123.11502, Q1 : 0.999993741512, Q2 : -0.00264267227612, Q3 : -0.0023554970976, Q4 : -2.87695311272e-05}
2019-04-14 01:32:10.61: SIM {TimeUS : 44234799, Roll : -0.63, Pitch : -0.55, Yaw : 359.99, Alt : 30.4400005341, Lat : 49.28357, Lng : -123.11502, Q1 : 0.999972641468, Q2 : -0.00556956650689, Q3 : -0.00486845243722, Q4 : -8.01901624072e-05}
2019-04-14 01:32:10.71: SIM {TimeUS : 44334759, Roll : -0.85, Pitch : -0.74, Yaw : 359.98, Alt : 30.5900001526, Lat : 49.28357, Lng : -123.11502, Q1 : 0.999950706959, Q2 : -0.00750259077176, Q3 : -0.00650628516451, Q4 : -0.000154481866048}
2019-04-14 01:32:10.81: SIM {TimeUS : 44434719, Roll : -0.88, Pitch : -0.78, Yaw : 359.97, Alt : 30.75, Lat : 49.28357, Lng : -123.11502, Q1 : 0.99994635582, Q2 : -0.00772865768522, Q3 : -0.00688948389143, Q4 : -0.000243232978391}
2019-04-14 01:32:10.91: SIM {TimeUS : 44534679, Roll : -0.75, Pitch : -0.68, Yaw : 359.96, Alt : 30.9099998474, Lat : 49.28357, Lng : -123.1150201, Q1 : 0.999960124493, Q2 : -0.0066227815114, Q3 : -0.00598846236244, Q4 : -0.000336900819093}
2019-04-14 01:32:11.01: SIM {TimeUS : 44635472, Roll : -0.55, Pitch : -0.49, Yaw : 359.95, Alt : 31.0599994659, Lat : 49.2835701, Lng : -123.1150201, Q1 : 0.99997895956, Q2 : -0.00484098959714, Q3 : -0.00429277215153, Q4 : -0.000416564318584}
2019-04-14 01:32:11.11: SIM {TimeUS : 44735432, Roll : -0.32, Pitch : -0.28, Yaw : 359.94, Alt : 31.2199993134, Lat : 49.2835701, Lng : -123.1150202, Q1 : 0.999992787838, Q2 : -0.00284965103492, Q3 : -0.00245946832001, Q4 : -0.00047783437185}
2019-04-14 01:32:11.21: SIM {TimeUS : 44835392, Roll : -0.12, Pitch : -0.1, Yaw : 359.94, Alt : 31.3799991608, Lat : 49.2835702, Lng : -123.1150203, Q1 : 0.999998807907, Q2 : -0.00111052917782, Q3 : -0.000949293782469, Q4 : -0.00051983713638}
2019-04-14 01:32:11.31: SIM {TimeUS : 44935352, Roll : 0.0, Pitch : 0.0, Yaw : 359.93, Alt : 31.5599994659, Lat : 49.2835702, Lng : -123.1150204, Q1 : 0.999999821186, Q2 : 7.63876960264e-05, Q3 : 2.80636613752e-05, Q4 : -0.000542946043424}
2019-04-14 01:32:11.41: SIM {TimeUS : 45035312, Roll : 0.08, Pitch : 0.04, Yaw : 359.93, Alt : 31.7299995422, Lat : 49.2835702, Lng : -123.1150205, Q1 : 0.999999523163, Q2 : 0.000716400449164, Q3 : 0.000402734294767, Q4 : -0.000548812851775}
2019-04-14 01:32:11.51: SIM {TimeUS : 45135272, Roll : 0.1, Pitch : 0.04, Yaw : 359.93, Alt : 31.9099998474, Lat : 49.2835703, Lng : -123.1150205, Q1 : 0.999999344349, Q2 : 0.000928015564568, Q3 : 0.00034984422382, Q4 : -0.000533408368938}
2019-04-14 01:32:11.61: SIM {TimeUS : 45235232, Roll : 0.1, Pitch : 0.02, Yaw : 359.94, Alt : 32.0999984741, Lat : 49.2835703, Lng : -123.1150206, Q1 : 0.999999463558, Q2 : 0.000883883971255, Q3 : 0.000257720443187, Q4 : -0.000518212968018}
2019-04-14 01:32:11.71: SIM {TimeUS : 45335192, Roll : 0.08, Pitch : 0.02, Yaw : 359.94, Alt : 32.2900009155, Lat : 49.2835703, Lng : -123.1150207, Q1 : 0.999999582767, Q2 : 0.00075218064012, Q3 : 0.000238484572037, Q4 : -0.000504164723679}
2019-04-14 01:32:11.81: SIM {TimeUS : 45435152, Roll : 0.06, Pitch : 0.05, Yaw : 359.94, Alt : 32.4799995422, Lat : 49.2835703, Lng : -123.1150207, Q1 : 0.999999642372, Q2 : 0.00057263096096, Q3 : 0.000462412077468, Q4 : -0.000497127068229}
2019-04-14 01:32:11.91: SIM {TimeUS : 45535112, Roll : 0.07, Pitch : 0.1, Yaw : 359.94, Alt : 32.6800003052, Lat : 49.2835703, Lng : -123.1150207, Q1 : 0.999999284744, Q2 : 0.000646118191071, Q3 : 0.000885118904989, Q4 : -0.000483790703584}
2019-04-14 01:32:12.01: SIM {TimeUS : 45635072, Roll : 0.1, Pitch : 0.13, Yaw : 359.94, Alt : 32.8699989319, Lat : 49.2835704, Lng : -123.1150208, Q1 : 0.999998748302, Q2 : 0.000925233529415, Q3 : 0.00119300291408, Q4 : -0.000470031023724}
2019-04-14 01:32:12.11: SIM {TimeUS : 45735032, Roll : 0.13, Pitch : 0.17, Yaw : 359.94, Alt : 33.0699996948, Lat : 49.2835704, Lng : -123.1150208, Q1 : 0.999998033047, Q2 : 0.0011989378836, Q3 : 0.00149832863826, Q4 : -0.000457093905425}
2019-04-14 01:32:12.21: SIM {TimeUS : 45834992, Roll : 0.15, Pitch : 0.19, Yaw : 359.94, Alt : 33.2799987793, Lat : 49.2835704, Lng : -123.1150208, Q1 : 0.99999755621, Q2 : 0.00131129601505, Q3 : 0.00172967393883, Q4 : -0.000451704894658}
2019-04-14 01:32:12.31: SIM {TimeUS : 45934952, Roll : 0.15, Pitch : 0.17, Yaw : 359.94, Alt : 33.4799995422, Lat : 49.2835704, Lng : -123.1150208, Q1 : 0.999997735023, Q2 : 0.00136966921855, Q3 : 0.00156618026085, Q4 : -0.000452481443062}
2019-04-14 01:32:12.41: SIM {TimeUS : 46034912, Roll : 0.15, Pitch : 0.14, Yaw : 359.94, Alt : 33.6899986267, Lat : 49.2835704, Lng : -123.1150209, Q1 : 0.999998211861, Q2 : 0.00137673865538, Q3 : 0.00123588333372, Q4 : -0.00046933509293}
2019-04-14 01:32:12.51: SIM {TimeUS : 46134872, Roll : 0.15, Pitch : 0.11, Yaw : 359.94, Alt : 33.9000015259, Lat : 49.2835704, Lng : -123.1150209, Q1 : 0.999998450279, Q2 : 0.00134782132227, Q3 : 0.00102647743188, Q4 : -0.000499500951264}
2019-04-14 01:32:12.61: SIM {TimeUS : 46234832, Roll : 0.15, Pitch : 0.1, Yaw : 359.93, Alt : 34.1100006104, Lat : 49.2835704, Lng : -123.1150209, Q1 : 0.999998569489, Q2 : 0.00131673878059, Q3 : 0.000934965966735, Q4 : -0.000537302927114}
2019-04-14 01:32:12.71: SIM {TimeUS : 46334792, Roll : 0.15, Pitch : 0.11, Yaw : 359.93, Alt : 34.3199996948, Lat : 49.2835704, Lng : -123.1150209, Q1 : 0.999998450279, Q2 : 0.00135749136098, Q3 : 0.000981644843705, Q4 : -0.000578291306738}
2019-04-14 01:32:12.81: SIM {TimeUS : 46434752, Roll : 0.14, Pitch : 0.09, Yaw : 359.93, Alt : 34.5299987793, Lat : 49.2835704, Lng : -123.1150209, Q1 : 0.999998629093, Q2 : 0.00129215035122, Q3 : 0.000854775891639, Q4 : -0.000605938839726}
2019-04-14 01:32:12.91: SIM {TimeUS : 46534712, Roll : 0.12, Pitch : 0.08, Yaw : 359.92, Alt : 34.7400016785, Lat : 49.2835704, Lng : -123.1150208, Q1 : 0.999998927116, Q2 : 0.00109651335515, Q3 : 0.000721751246601, Q4 : -0.000626074732281}
2019-04-14 01:32:13.01: SIM {TimeUS : 46634672, Roll : 0.09, Pitch : 0.07, Yaw : 359.92, Alt : 34.9599990845, Lat : 49.2835704, Lng : -123.1150208, Q1 : 0.99999922514, Q2 : 0.00086610391736, Q3 : 0.000627742381766, Q4 : -0.000647028384265}
2019-04-14 01:32:13.11: SIM {TimeUS : 46735465, Roll : 0.06, Pitch : 0.06, Yaw : 359.92, Alt : 35.1800003052, Lat : 49.2835704, Lng : -123.1150208, Q1 : 0.999999463558, Q2 : 0.000599186401814, Q3 : 0.00052349967882, Q4 : -0.000662828329951}
2019-04-14 01:32:13.21: SIM {TimeUS : 46835425, Roll : 0.05, Pitch : 0.02, Yaw : 359.92, Alt : 35.3899993896, Lat : 49.2835704, Lng : -123.1150208, Q1 : 0.999999642372, Q2 : 0.000457499583717, Q3 : 0.000222714865231, Q4 : -0.000671550398692}
2019-04-14 01:32:13.31: SIM {TimeUS : 46935385, Roll : 0.04, Pitch : 0.0, Yaw : 359.92, Alt : 35.6100006104, Lat : 49.2835704, Lng : -123.1150208, Q1 : 0.999999701977, Q2 : 0.000380735727958, Q3 : -1.52648481162e-05, Q4 : -0.000680069730151}
2019-04-14 01:32:13.41: SIM {TimeUS : 47035345, Roll : 0.01, Pitch : -0.01, Yaw : 359.91, Alt : 35.8300018311, Lat : 49.2835704, Lng : -123.1150208, Q1 : 0.999999761581, Q2 : 0.000174008702743, Q3 : -8.80841180333e-05, Q4 : -0.000699294323567}
2019-04-14 01:32:13.51: SIM {TimeUS : 47135305, Roll : 0.01, Pitch : 0.0, Yaw : 359.91, Alt : 36.0499992371, Lat : 49.2835704, Lng : -123.1150207, Q1 : 0.999999761581, Q2 : 0.000111356603156, Q3 : -4.89113263029e-05, Q4 : -0.000714273715857}
2019-04-14 01:32:13.61: SIM {TimeUS : 47235265, Roll : 0.01, Pitch : 0.0, Yaw : 359.91, Alt : 36.2700004578, Lat : 49.2835704, Lng : -123.1150207, Q1 : 0.999999701977, Q2 : 0.000154982189997, Q3 : 1.2147535017e-05, Q4 : -0.000727375154383}
2019-04-14 01:32:13.71: SIM {TimeUS : 47335225, Roll : 0.0, Pitch : -0.01, Yaw : 359.91, Alt : 36.4900016785, Lat : 49.2835704, Lng : -123.1150207, Q1 : 0.999999701977, Q2 : 1.42131402754e-05, Q3 : -0.000121595578094, Q4 : -0.000743032665923}
2019-04-14 01:32:13.81: SIM {TimeUS : 47435185, Roll : -0.03, Pitch : -0.04, Yaw : 359.91, Alt : 36.7200012207, Lat : 49.2835704, Lng : -123.1150207, Q1 : 0.999999582767, Q2 : -0.000290532305371, Q3 : -0.000431752006989, Q4 : -0.000763798889238}
2019-04-14 01:32:13.91: SIM {TimeUS : 47535145, Roll : -0.07, Pitch : -0.07, Yaw : 359.9, Alt : 36.9399986267, Lat : 49.2835704, Lng : -123.1150207, Q1 : 0.999999284744, Q2 : -0.000636358628981, Q3 : -0.000697464740369, Q4 : -0.000790153513663}
2019-04-14 01:32:14.01: SIM {TimeUS : 47635105, Roll : -0.11, Pitch : -0.1, Yaw : 359.9, Alt : 37.1699981689, Lat : 49.2835704, Lng : -123.1150207, Q1 : 0.999998807907, Q2 : -0.000964221544564, Q3 : -0.000904435466509, Q4 : -0.000819289358333}
2019-04-14 01:32:14.11: SIM {TimeUS : 47735065, Roll : -0.11, Pitch : -0.1, Yaw : 359.9, Alt : 37.3899993896, Lat : 49.2835704, Lng : -123.1150207, Q1 : 0.999998688698, Q2 : -0.00103783910163, Q3 : -0.000941311998758, Q4 : -0.000852079945616}
2019-04-14 01:32:14.21: SIM {TimeUS : 47835025, Roll : -0.1, Pitch : -0.09, Yaw : 359.89, Alt : 37.6199989319, Lat : 49.2835704, Lng : -123.1150206, Q1 : 0.999998807907, Q2 : -0.000956588948611, Q3 : -0.000805551710073, Q4 : -0.000885234912857}
2019-04-14 01:32:14.31: SIM {TimeUS : 47934985, Roll : -0.09, Pitch : -0.05, Yaw : 359.89, Alt : 37.8400001526, Lat : 49.2835704, Lng : -123.1150206, Q1 : 0.999999165535, Q2 : -0.000811198842712, Q3 : -0.000502130191308, Q4 : -0.000915251963306}
2019-04-14 01:32:14.41: SIM {TimeUS : 48034945, Roll : -0.07, Pitch : -0.03, Yaw : 359.89, Alt : 38.0699996948, Lat : 49.2835704, Lng : -123.1150206, Q1 : 0.999999284744, Q2 : -0.000650479109026, Q3 : -0.000262917543296, Q4 : -0.000945526175201}
2019-04-14 01:32:14.51: SIM {TimeUS : 48134905, Roll : -0.07, Pitch : -0.02, Yaw : 359.88, Alt : 38.2999992371, Lat : 49.2835706, Lng : -123.1150206, Q1 : 0.999999284744, Q2 : -0.000617644982412, Q3 : -0.000239327753661, Q4 : -0.00097636616556}
2019-04-14 01:32:14.61: SIM {TimeUS : 48234865, Roll : -0.07, Pitch : -0.01, Yaw : 359.88, Alt : 38.5200004578, Lat : 49.2835706, Lng : -123.1150206, Q1 : 0.999999284744, Q2 : -0.000657922937535, Q3 : -0.000130784945213, Q4 : -0.00100349215791}
2019-04-14 01:32:14.71: SIM {TimeUS : 48334825, Roll : -0.09, Pitch : 0.0, Yaw : 359.88, Alt : 38.75, Lat : 49.2835706, Lng : -123.1150206, Q1 : 0.999999165535, Q2 : -0.00082166667562, Q3 : 8.3145168901e-06, Q4 : -0.00103031296749}
2019-04-14 01:32:14.81: SIM {TimeUS : 48434785, Roll : -0.09, Pitch : 0.01, Yaw : 359.87, Alt : 38.9799995422, Lat : 49.2835706, Lng : -123.1150206, Q1 : 0.99999910593, Q2 : -0.000817227584776, Q3 : 0.000117373878311, Q4 : -0.00104743801057}
2019-04-14 01:32:14.91: SIM {TimeUS : 48534745, Roll : -0.07, Pitch : 0.03, Yaw : 359.87, Alt : 39.2099990845, Lat : 49.2835706, Lng : -123.1150206, Q1 : 0.999999165535, Q2 : -0.000667716260068, Q3 : 0.000327934219968, Q4 : -0.00105564575642}
2019-04-14 01:32:15.01: SIM {TimeUS : 48634705, Roll : -0.05, Pitch : 0.04, Yaw : 359.87, Alt : 39.4399986267, Lat : 49.2835706, Lng : -123.1150206, Q1 : 0.99999922514, Q2 : -0.000495284795761, Q3 : 0.000361365411663, Q4 : -0.00105372897815}
2019-04-14 01:32:15.11: SIM {TimeUS : 48734665, Roll : -0.02, Pitch : 0.04, Yaw : 359.87, Alt : 39.6699981689, Lat : 49.2835706, Lng : -123.1150207, Q1 : 0.999999344349, Q2 : -0.000248241529334, Q3 : 0.000374394177925, Q4 : -0.00105289928615}
2019-04-14 01:32:15.21: SIM {TimeUS : 48835458, Roll : 0.01, Pitch : 0.07, Yaw : 359.87, Alt : 39.9000015259, Lat : 49.2835706, Lng : -123.1150207, Q1 : 0.99999922514, Q2 : 0.000130341868498, Q3 : 0.000642619794235, Q4 : -0.00104790681507}
2019-04-14 01:32:15.31: SIM {TimeUS : 48935418, Roll : 0.06, Pitch : 0.11, Yaw : 359.87, Alt : 40.1399993896, Lat : 49.2835706, Lng : -123.1150207, Q1 : 0.999998807907, Q2 : 0.000533179088961, Q3 : 0.00102200859692, Q4 : -0.0010489920387}
2019-04-14 01:32:15.41: SIM {TimeUS : 49035378, Roll : 0.09, Pitch : 0.15, Yaw : 359.87, Alt : 40.3699989319, Lat : 49.2835706, Lng : -123.1150207, Q1 : 0.999998152256, Q2 : 0.000825680675916, Q3 : 0.00138709694147, Q4 : -0.0010568612488}
2019-04-14 01:32:15.51: SIM {TimeUS : 49135338, Roll : 0.08, Pitch : 0.19, Yaw : 359.87, Alt : 40.5999984741, Lat : 49.2835706, Lng : -123.1150207, Q1 : 0.999997735023, Q2 : 0.000745829718653, Q3 : 0.00168494752143, Q4 : -0.00105846941005}
2019-04-14 01:32:15.61: SIM {TimeUS : 49235298, Roll : 0.03, Pitch : 0.21, Yaw : 359.87, Alt : 40.8300018311, Lat : 49.2835706, Lng : -123.1150207, Q1 : 0.999997615814, Q2 : 0.000319946848322, Q3 : 0.00185781763867, Q4 : -0.00108130532317}
2019-04-14 01:32:15.71: SIM {TimeUS : 49335258, Roll : 0.0, Pitch : 0.21, Yaw : 359.87, Alt : 41.0600013733, Lat : 49.2835706, Lng : -123.1150207, Q1 : 0.999997615814, Q2 : -7.84853764344e-05, Q3 : 0.00186813855544, Q4 : -0.00110793078784}
2019-04-14 01:32:15.81: SIM {TimeUS : 49435218, Roll : -0.03, Pitch : 0.17, Yaw : 359.86, Alt : 41.2999992371, Lat : 49.2835706, Lng : -123.1150207, Q1 : 0.999998092651, Q2 : -0.000287760136416, Q3 : 0.00156518723816, Q4 : -0.00113463436719}
2019-04-14 01:32:15.91: SIM {TimeUS : 49535178, Roll : -0.03, Pitch : 0.13, Yaw : 359.86, Alt : 41.5299987793, Lat : 49.2835706, Lng : -123.1150207, Q1 : 0.999998569489, Q2 : -0.000343381863786, Q3 : 0.00116596673615, Q4 : -0.00116954138502}
2019-04-14 01:32:16.01: SIM {TimeUS : 49635138, Roll : -0.02, Pitch : 0.11, Yaw : 359.86, Alt : 41.7599983215, Lat : 49.2835706, Lng : -123.1150207, Q1 : 0.999998688698, Q2 : -0.000229447803576, Q3 : 0.00103357061744, Q4 : -0.00121661671437}
2019-04-14 01:32:16.11: SIM {TimeUS : 49735098, Roll : 0.01, Pitch : 0.12, Yaw : 359.85, Alt : 42.0, Lat : 49.2835706, Lng : -123.1150207, Q1 : 0.999998569489, Q2 : 0.000114880262117, Q3 : 0.0011007435387, Q4 : -0.00127011782024}
2019-04-14 01:32:16.21: SIM {TimeUS : 49835058, Roll : 0.06, Pitch : 0.13, Yaw : 359.84, Alt : 42.2299995422, Lat : 49.2835706, Lng : -123.1150207, Q1 : 0.999998271465, Q2 : 0.000588803144637, Q3 : 0.00115630205255, Q4 : -0.00131872657221}
2019-04-14 01:32:16.31: SIM {TimeUS : 49935018, Roll : 0.1, Pitch : 0.11, Yaw : 359.84, Alt : 42.4700012207, Lat : 49.2835706, Lng : -123.1150207, Q1 : 0.999998092651, Q2 : 0.000951280526351, Q3 : 0.000998372444883, Q4 : -0.00136506953277}
2019-04-14 01:32:16.41: SIM {TimeUS : 50034978, Roll : 0.11, Pitch : 0.08, Yaw : 359.83, Alt : 42.7000007629, Lat : 49.2835706, Lng : -123.1150207, Q1 : 0.999998271465, Q2 : 0.000981373596005, Q3 : 0.00075018312782, Q4 : -0.00140710303094}
2019-04-14 01:32:16.51: SIM {TimeUS : 50134938, Roll : 0.07, Pitch : 0.06, Yaw : 359.83, Alt : 42.9399986267, Lat : 49.2835706, Lng : -123.1150207, Q1 : 0.999998629093, Q2 : 0.000620466365945, Q3 : 0.000571751093958, Q4 : -0.00143211183604}
2019-04-14 01:32:16.61: SIM {TimeUS : 50234898, Roll : 0.01, Pitch : 0.05, Yaw : 359.83, Alt : 43.1699981689, Lat : 49.2835704, Lng : -123.1150207, Q1 : 0.999998807907, Q2 : 0.000122463548905, Q3 : 0.000494135543704, Q4 : -0.00144818518311}
2019-04-14 01:32:16.71: SIM {TimeUS : 50334858, Roll : -0.02, Pitch : 0.07, Yaw : 359.83, Alt : 43.4099998474, Lat : 49.2835704, Lng : -123.1150207, Q1 : 0.999998748302, Q2 : -0.000230021294556, Q3 : 0.000617360987235, Q4 : -0.00146041461267}
2019-04-14 01:32:16.81: SIM {TimeUS : 50434818, Roll : -0.04, Pitch : 0.07, Yaw : 359.83, Alt : 43.6399993896, Lat : 49.2835704, Lng : -123.1150207, Q1 : 0.999998629093, Q2 : -0.00041045708349, Q3 : 0.000672343710903, Q4 : -0.00146844610572}
2019-04-14 01:32:16.91: SIM {TimeUS : 50534778, Roll : -0.04, Pitch : 0.06, Yaw : 359.83, Alt : 43.8800010681, Lat : 49.2835704, Lng : -123.1150207, Q1 : 0.999998629093, Q2 : -0.000404605380027, Q3 : 0.000560597458389, Q4 : -0.00147554615978}
2019-04-14 01:32:17.01: SIM {TimeUS : 50634738, Roll : -0.04, Pitch : 0.04, Yaw : 359.82, Alt : 44.1100006104, Lat : 49.2835704, Lng : -123.1150206, Q1 : 0.999998748302, Q2 : -0.000426726677688, Q3 : 0.00039603249752, Q4 : -0.0014917467488}
2019-04-14 01:32:17.11: SIM {TimeUS : 50734698, Roll : -0.04, Pitch : 0.02, Yaw : 359.82, Alt : 44.3499984741, Lat : 49.2835704, Lng : -123.1150206, Q1 : 0.999998748302, Q2 : -0.000386115134461, Q3 : 0.000196994733415, Q4 : -0.00150931440294}
2019-04-14 01:32:17.21: SIM {TimeUS : 50834658, Roll : -0.02, Pitch : 0.0, Yaw : 359.82, Alt : 44.5800018311, Lat : 49.2835704, Lng : -123.1150206, Q1 : 0.999998807907, Q2 : -0.000247262098128, Q3 : 5.82545289944e-05, Q4 : -0.00152835715562}
2019-04-14 01:32:17.31: SIM {TimeUS : 50935451, Roll : -0.01, Pitch : 0.0, Yaw : 359.82, Alt : 44.8199996948, Lat : 49.2835704, Lng : -123.1150206, Q1 : 0.999998807907, Q2 : -0.00014256965369, Q3 : 1.80285553597e-06, Q4 : -0.00154845928773}
2019-04-14 01:32:17.41: SIM {TimeUS : 51035411, Roll : -0.01, Pitch : -0.01, Yaw : 359.81, Alt : 45.0600013733, Lat : 49.2835703, Lng : -123.1150206, Q1 : 0.999998748302, Q2 : -0.000105687751784, Q3 : -0.000100043565908, Q4 : -0.00157142954413}
2019-04-14 01:32:17.51: SIM {TimeUS : 51135371, Roll : -0.01, Pitch : -0.03, Yaw : 359.81, Alt : 45.2900009155, Lat : 49.2835703, Lng : -123.1150206, Q1 : 0.999998629093, Q2 : -0.000170322397025, Q3 : -0.000299893436022, Q4 : -0.00159999774769}
2019-04-14 01:32:17.61: SIM {TimeUS : 51235331, Roll : -0.03, Pitch : -0.05, Yaw : 359.81, Alt : 45.5299987793, Lat : 49.2835703, Lng : -123.1150206, Q1 : 0.999998509884, Q2 : -0.000265052396571, Q3 : -0.000439544470282, Q4 : -0.00163215573411}
2019-04-14 01:32:17.71: SIM {TimeUS : 51335291, Roll : -0.03, Pitch : -0.05, Yaw : 359.8, Alt : 45.7599983215, Lat : 49.2835703, Lng : -123.1150206, Q1 : 0.999998450279, Q2 : -0.000306218804326, Q3 : -0.000505470030475, Q4 : -0.00165982020553}
2019-04-14 01:32:17.81: SIM {TimeUS : 51435251, Roll : -0.04, Pitch : -0.05, Yaw : 359.8, Alt : 46.0, Lat : 49.2835703, Lng : -123.1150206, Q1 : 0.999998390675, Q2 : -0.000406534032663, Q3 : -0.000481048336951, Q4 : -0.00168886198662}
2019-04-14 01:32:17.91: SIM {TimeUS : 51535211, Roll : -0.06, Pitch : -0.04, Yaw : 359.8, Alt : 46.2200012207, Lat : 49.2835703, Lng : -123.1150206, Q1 : 0.999998271465, Q2 : -0.000607798516285, Q3 : -0.000379058619728, Q4 : -0.00171919330023}
2019-04-14 01:32:18.01: SIM {TimeUS : 51635171, Roll : -0.1, Pitch : -0.03, Yaw : 359.79, Alt : 46.4500007629, Lat : 49.2835703, Lng : -123.1150206, Q1 : 0.999998033047, Q2 : -0.000883915752638, Q3 : -0.000304755260004, Q4 : -0.00174819724634}
2019-04-14 01:32:18.11: SIM {TimeUS : 51735131, Roll : -0.11, Pitch : -0.02, Yaw : 359.79, Alt : 46.6699981689, Lat : 49.2835703, Lng : -123.1150206, Q1 : 0.999997854233, Q2 : -0.00103770603891, Q3 : -0.000249327596975, Q4 : -0.00177315121982}
2019-04-14 01:32:18.21: SIM {TimeUS : 51835091, Roll : -0.11, Pitch : -0.01, Yaw : 359.79, Alt : 46.8800010681, Lat : 49.2835703, Lng : -123.1150206, Q1 : 0.999997854233, Q2 : -0.00101694313344, Q3 : -0.000139625873999, Q4 : -0.001797099947}
2019-04-14 01:32:18.31: SIM {TimeUS : 51935051, Roll : -0.1, Pitch : 0.0, Yaw : 359.79, Alt : 47.0900001526, Lat : 49.2835703, Lng : -123.1150206, Q1 : 0.999997973442, Q2 : -0.000878700462636, Q3 : 6.12509466009e-05, Q4 : -0.00182242994197}
2019-04-14 01:32:18.41: SIM {TimeUS : 52035011, Roll : -0.07, Pitch : 0.01, Yaw : 359.78, Alt : 47.2900009155, Lat : 49.2835703, Lng : -123.1150206, Q1 : 0.999998092651, Q2 : -0.000658298609778, Q3 : 0.000157854243298, Q4 : -0.00184904015623}
2019-04-14 01:32:18.51: SIM {TimeUS : 52134971, Roll : -0.05, Pitch : 0.01, Yaw : 359.78, Alt : 47.4799995422, Lat : 49.2835703, Lng : -123.1150206, Q1 : 0.999998092651, Q2 : -0.000483991054352, Q3 : 0.000120760560094, Q4 : -0.00187932897825}
2019-04-14 01:32:18.61: SIM {TimeUS : 52234931, Roll : -0.05, Pitch : 0.0, Yaw : 359.78, Alt : 47.6699981689, Lat : 49.2835703, Lng : -123.1150206, Q1 : 0.999998092651, Q2 : -0.00044137032819, Q3 : -3.59919577022e-05, Q4 : -0.00191159837414}
2019-04-14 01:32:18.71: SIM {TimeUS : 52334891, Roll : -0.05, Pitch : -0.03, Yaw : 359.77, Alt : 47.8400001526, Lat : 49.2835703, Lng : -123.1150206, Q1 : 0.999997913837, Q2 : -0.0004650412302, Q3 : -0.000338695361279, Q4 : -0.00194532366004}
2019-04-14 01:32:18.81: SIM {TimeUS : 52434851, Roll : -0.04, Pitch : -0.07, Yaw : 359.77, Alt : 48.0, Lat : 49.2835703, Lng : -123.1150206, Q1 : 0.999997794628, Q2 : -0.000368031440303, Q3 : -0.000616233155597, Q4 : -0.00197742437012}
2019-04-14 01:32:18.91: SIM {TimeUS : 52534811, Roll : -0.03, Pitch : -0.09, Yaw : 359.76, Alt : 48.1500015259, Lat : 49.2835703, Lng : -123.1150206, Q1 : 0.999997615814, Q2 : -0.000291492964607, Q3 : -0.000830967212096, Q4 : -0.00200783298351}
2019-04-14 01:32:19.01: SIM {TimeUS : 52634771, Roll : -0.03, Pitch : -0.1, Yaw : 359.76, Alt : 48.2799987793, Lat : 49.2835703, Lng : -123.1150206, Q1 : 0.999997437, Q2 : -0.000282817345578, Q3 : -0.000950584886596, Q4 : -0.00203628418967}
2019-04-14 01:32:19.11: SIM {TimeUS : 52734731, Roll : 0.0, Pitch : -0.1, Yaw : 359.76, Alt : 48.4099998474, Lat : 49.2835703, Lng : -123.1150206, Q1 : 0.999997496605, Q2 : -2.75591592072e-05, Q3 : -0.000889598974027, Q4 : -0.0020625567995}
2019-04-14 01:32:19.21: SIM {TimeUS : 52834691, Roll : 0.03, Pitch : -0.08, Yaw : 359.76, Alt : 48.5200004578, Lat : 49.2835703, Lng : -123.1150206, Q1 : 0.99999755621, Q2 : 0.000287614704575, Q3 : -0.000717432354577, Q4 : -0.00208401214331}
2019-04-14 01:32:19.31: SIM {TimeUS : 52935484, Roll : 0.06, Pitch : -0.05, Yaw : 359.75, Alt : 48.6199989319, Lat : 49.2835703, Lng : -123.1150206, Q1 : 0.999997496605, Q2 : 0.000541243003681, Q3 : -0.000485615368234, Q4 : -0.00210488750599}
2019-04-14 01:32:19.41: SIM {TimeUS : 53035444, Roll : 0.07, Pitch : -0.02, Yaw : 359.75, Alt : 48.7099990845, Lat : 49.2835703, Lng : -123.1150207, Q1 : 0.99999755621, Q2 : 0.000614388147369, Q3 : -0.000255187245784, Q4 : -0.00212580524385}
2019-04-14 01:32:19.51: SIM {TimeUS : 53135404, Roll : 0.07, Pitch : -0.01, Yaw : 359.75, Alt : 48.7799987793, Lat : 49.2835703, Lng : -123.1150207, Q1 : 0.999997496605, Q2 : 0.000622109684628, Q3 : -0.000123260193504, Q4 : -0.00214984198101}
2019-04-14 01:32:19.61: SIM {TimeUS : 53235364, Roll : 0.06, Pitch : -0.02, Yaw : 359.75, Alt : 48.8499984741, Lat : 49.2835703, Lng : -123.1150207, Q1 : 0.999997496605, Q2 : 0.000536281557288, Q3 : -0.00022729630291, Q4 : -0.00218098913319}
2019-04-14 01:32:19.71: SIM {TimeUS : 53335324, Roll : 0.03, Pitch : -0.03, Yaw : 359.74, Alt : 48.9099998474, Lat : 49.2835703, Lng : -123.1150207, Q1 : 0.999997496605, Q2 : 0.000341260281857, Q3 : -0.00028241390828, Q4 : -0.00221321033314}
2019-04-14 01:32:19.81: SIM {TimeUS : 53435284, Roll : 0.02, Pitch : -0.02, Yaw : 359.74, Alt : 48.9599990845, Lat : 49.2835703, Lng : -123.1150207, Q1 : 0.999997437, Q2 : 0.000183213473065, Q3 : -0.000229763827519, Q4 : -0.00224133743905}
2019-04-14 01:32:19.91: SIM {TimeUS : 53535244, Roll : 0.01, Pitch : -0.02, Yaw : 359.73, Alt : 49.0, Lat : 49.2835703, Lng : -123.1150207, Q1 : 0.999997377396, Q2 : 0.000126537590404, Q3 : -0.000261837034486, Q4 : -0.00227179424837}
2019-04-14 01:32:20.01: SIM {TimeUS : 53635204, Roll : 0.11, Pitch : -0.08, Yaw : 359.73, Alt : 49.0299987793, Lat : 49.2835704, Lng : -123.1150207, Q1 : 0.999996602535, Q2 : 0.000968056032434, Q3 : -0.000726108672097, Q4 : -0.00230791466311}
2019-04-14 01:32:20.11: SIM {TimeUS : 53735164, Roll : 0.42, Pitch : -0.25, Yaw : 359.73, Alt : 49.0699996948, Lat : 49.2835704, Lng : -123.1150207, Q1 : 0.999987781048, Q2 : 0.00370815419592, Q3 : -0.00227556889877, Q4 : -0.00233839824796}
2019-04-14 01:32:20.21: SIM {TimeUS : 53835124, Roll : 0.97, Pitch : -0.6, Yaw : 359.72, Alt : 49.0900001526, Lat : 49.2835704, Lng : -123.1150207, Q1 : 0.999946773052, Q2 : 0.00851993914694, Q3 : -0.00532109010965, Q4 : -0.00236223777756}
2019-04-14 01:32:20.31: SIM {TimeUS : 53935084, Roll : 1.71, Pitch : -1.12, Yaw : 359.71, Alt : 49.1199989319, Lat : 49.2835704, Lng : -123.1150206, Q1 : 0.999836862087, Q2 : 0.0149349160492, Q3 : -0.00988461915404, Q4 : -0.00236306060106}
2019-04-14 01:32:20.41: SIM {TimeUS : 54035044, Roll : 2.54, Pitch : -1.74, Yaw : 359.69, Alt : 49.1300010681, Lat : 49.2835704, Lng : -123.1150206, Q1 : 0.999635398388, Q2 : 0.0221569240093, Q3 : -0.0152541222051, Q4 : -0.00232954905368}
2019-04-14 01:32:20.51: SIM {TimeUS : 54135004, Roll : 3.36, Pitch : -2.36, Yaw : 359.67, Alt : 49.1500015259, Lat : 49.2835706, Lng : -123.1150205, Q1 : 0.999353051186, Q2 : 0.0293182525784, Q3 : -0.0207111332566, Q4 : -0.00223875697702}
2019-04-14 01:32:20.61: SIM {TimeUS : 54234964, Roll : 4.07, Pitch : -2.89, Yaw : 359.65, Alt : 49.1699981689, Lat : 49.2835707, Lng : -123.1150203, Q1 : 0.999047040939, Q2 : 0.0354761146009, Q3 : -0.0253413245082, Q4 : -0.002078946447}
2019-04-14 01:32:20.71: SIM {TimeUS : 54334924, Roll : 4.61, Pitch : -3.26, Yaw : 359.65, Alt : 49.1800003052, Lat : 49.2835708, Lng : -123.11502, Q1 : 0.998780429363, Q2 : 0.0401879958808, Q3 : -0.0286209657788, Q4 : -0.00184970721602}
2019-04-14 01:32:20.81: SIM {TimeUS : 54434884, Roll : 5.0, Pitch : -3.53, Yaw : 359.66, Alt : 49.1899986267, Lat : 49.2835709, Lng : -123.1150198, Q1 : 0.998572051525, Q2 : 0.043531127274, Q3 : -0.0309247225523, Q4 : -0.00158462545369}
2019-04-14 01:32:20.91: SIM {TimeUS : 54534844, Roll : 5.3, Pitch : -3.74, Yaw : 359.67, Alt : 49.2000007629, Lat : 49.2835712, Lng : -123.1150193, Q1 : 0.998395144939, Q2 : 0.0461792722344, Q3 : -0.0327545851469, Q4 : -0.00129094882868}
2019-04-14 01:32:21.01: SIM {TimeUS : 54634804, Roll : 5.58, Pitch : -3.93, Yaw : 359.69, Alt : 49.2099990845, Lat : 49.2835714, Lng : -123.1150188, Q1 : 0.998226583004, Q2 : 0.0485720969737, Q3 : -0.0344018451869, Q4 : -0.000994310597889}
2019-04-14 01:32:21.11: SIM {TimeUS : 54734764, Roll : 5.87, Pitch : -4.15, Yaw : 359.7, Alt : 49.2200012207, Lat : 49.2835716, Lng : -123.1150181, Q1 : 0.998030662537, Q2 : 0.0511283501983, Q3 : -0.0363343060017, Q4 : -0.000714878144208}
2019-04-14 01:32:21.21: SIM {TimeUS : 54834724, Roll : 6.18, Pitch : -4.38, Yaw : 359.71, Alt : 49.2200012207, Lat : 49.283572, Lng : -123.1150174, Q1 : 0.997814059258, Q2 : 0.0538051500916, Q3 : -0.0383655317128, Q4 : -0.000450853578513}
2019-04-14 01:32:21.31: SIM {TimeUS : 54934684, Roll : 6.48, Pitch : -4.59, Yaw : 359.71, Alt : 49.2299995422, Lat : 49.2835724, Lng : -123.1150166, Q1 : 0.997601687908, Q2 : 0.0563887320459, Q3 : -0.0401389114559, Q4 : -0.000204911164474}
2019-04-14 01:32:21.41: SIM {TimeUS : 55035477, Roll : 6.7, Pitch : -4.72, Yaw : 359.72, Alt : 49.2400016785, Lat : 49.2835728, Lng : -123.1150157, Q1 : 0.997443199158, Q2 : 0.0583090111613, Q3 : -0.0413179919124, Q4 : 2.07967532333e-05}
2019-04-14 01:32:21.51: SIM {TimeUS : 55135437, Roll : 6.83, Pitch : -4.81, Yaw : 359.73, Alt : 49.2400016785, Lat : 49.2835733, Lng : -123.1150146, Q1 : 0.997343599796, Q2 : 0.0594738163054, Q3 : -0.0420550331473, Q4 : 0.00019860357861}
2019-04-14 01:32:21.61: SIM {TimeUS : 55235397, Roll : 6.92, Pitch : -4.88, Yaw : 359.73, Alt : 49.25, Lat : 49.2835738, Lng : -123.1150135, Q1 : 0.997273087502, Q2 : 0.0602004490793, Q3 : -0.0426875762641, Q4 : 0.000305174908135}
2019-04-14 01:32:21.71: SIM {TimeUS : 55335357, Roll : 7.01, Pitch : -4.94, Yaw : 359.73, Alt : 49.25, Lat : 49.2835744, Lng : -123.1150123, Q1 : 0.997198760509, Q2 : 0.0610607229173, Q3 : -0.0431982390583, Q4 : 0.00036852931953}
2019-04-14 01:32:21.81: SIM {TimeUS : 55435317, Roll : 7.19, Pitch : -4.96, Yaw : 359.75, Alt : 49.25, Lat : 49.283575, Lng : -123.115011, Q1 : 0.997093141079, Q2 : 0.0626242235303, Q3 : -0.0433946847916, Q4 : 0.000612121832091}
2019-04-14 01:32:21.91: SIM {TimeUS : 55535277, Roll : 7.59, Pitch : -4.84, Yaw : 0.1, Alt : 49.2599983215, Lat : 49.2835756, Lng : -123.1150096, Q1 : 0.996906399727, Q2 : 0.0662425085902, Q3 : -0.0421423241496, Q4 : 0.00369151588529}
2019-04-14 01:32:22.01: SIM {TimeUS : 55635237, Roll : 8.21, Pitch : -4.65, Yaw : 1.42, Alt : 49.2599983215, Lat : 49.2835763, Lng : -123.1150082, Q1 : 0.996497750282, Q2 : 0.0720484927297, Q3 : -0.0395854897797, Q4 : 0.0153064969927}
2019-04-14 01:32:22.11: SIM {TimeUS : 55735197, Roll : 8.81, Pitch : -4.73, Yaw : 4.25, Alt : 49.2599983215, Lat : 49.2835769, Lng : -123.1150067, Q1 : 0.995390236378, Q2 : 0.0782353356481, Q3 : -0.0382812172174, Q4 : 0.0401504151523}
2019-04-14 01:32:22.21: SIM {TimeUS : 55835157, Roll : 9.12, Pitch : -5.29, Yaw : 8.65, Alt : 49.2599983215, Lat : 49.2835776, Lng : -123.115005, Q1 : 0.992650866508, Q2 : 0.0827098637819, Q3 : -0.0399559810758, Q4 : 0.0787835791707}
2019-04-14 01:32:22.31: SIM {TimeUS : 55935117, Roll : 8.92, Pitch : -6.36, Yaw : 14.44, Alt : 49.2700004578, Lat : 49.2835783, Lng : -123.1150032, Q1 : 0.986994206905, Q2 : 0.0840410813689, Q3 : -0.0451203808188, Q4 : 0.129397526383}
2019-04-14 01:32:22.41: SIM {TimeUS : 56035077, Roll : 8.11, Pitch : -7.79, Yaw : 21.37, Alt : 49.2700004578, Lat : 49.2835791, Lng : -123.1150013, Q1 : 0.97703564167, Q2 : 0.0819548889995, Q3 : -0.0535256192088, Q4 : 0.189261108637}
2019-04-14 01:32:22.51: SIM {TimeUS : 56135037, Roll : 6.69, Pitch : -9.4, Yaw : 29.18, Alt : 49.2700004578, Lat : 49.2835798, Lng : -123.1149993, Q1 : 0.961628913879, Q2 : 0.0768941789865, Q3 : -0.0645286440849, Q4 : 0.255329698324}
2019-04-14 01:32:22.61: SIM {TimeUS : 56234997, Roll : 4.72, Pitch : -10.95, Yaw : 37.63, Alt : 49.2700004578, Lat : 49.2835806, Lng : -123.1149971, Q1 : 0.940147161484, Q2 : 0.0696128904819, Q3 : -0.0770413354039, Q4 : 0.32456433773}
2019-04-14 01:32:22.71: SIM {TimeUS : 56334957, Roll : 2.16, Pitch : -12.21, Yaw : 46.39, Alt : 49.2700004578, Lat : 49.2835813, Lng : -123.1149949, Q1 : 0.912985384464, Q2 : 0.0591506399214, Q3 : -0.0904171466827, Q4 : 0.393425554037}
2019-04-14 01:32:22.81: SIM {TimeUS : 56434917, Roll : -0.96, Pitch : -12.97, Yaw : 54.74, Alt : 49.2700004578, Lat : 49.2835823, Lng : -123.1149925, Q1 : 0.882748126984, Q2 : 0.0445123724639, Q3 : -0.104135356843, Q4 : 0.455993711948}
2019-04-14 01:32:22.91: SIM {TimeUS : 56534877, Roll : -4.08, Pitch : -13.16, Yaw : 61.8, Alt : 49.2700004578, Lat : 49.2835831, Lng : -123.1149901, Q1 : 0.853949546814, Q2 : 0.0284949056804, Q3 : -0.116492189467, Q4 : 0.506347537041}
2019-04-14 01:32:23.01: SIM {TimeUS : 56634837, Roll : -6.55, Pitch : -12.98, Yaw : 66.92, Alt : 49.2700004578, Lat : 49.2835843, Lng : -123.1149876, Q1 : 0.831102967262, Q2 : 0.0148694003001, Q3 : -0.125535473228, Q4 : 0.541560292244}
2019-04-14 01:32:23.11: SIM {TimeUS : 56734797, Roll : -8.0, Pitch : -12.72, Yaw : 69.94, Alt : 49.2700004578, Lat : 49.2835854, Lng : -123.114985, Q1 : 0.816828727722, Q2 : 0.00651304516941, Q3 : -0.130320355296, Q4 : 0.561929762363}
2019-04-14 01:32:23.21: SIM {TimeUS : 56834757, Roll : -8.38, Pitch : -12.6, Yaw : 71.05, Alt : 49.2700004578, Lat : 49.2835866, Lng : -123.1149824, Q1 : 0.811421453953, Q2 : 0.00447468785569, Q3 : -0.131287902594, Q4 : 0.569507479668}
2019-04-14 01:32:23.31: SIM {TimeUS : 56934717, Roll : -7.85, Pitch : -12.72, Yaw : 70.59, Alt : 49.2700004578, Lat : 49.2835879, Lng : -123.1149798, Q1 : 0.813624680042, Q2 : 0.00828816648573, Q3 : -0.129581034184, Q4 : 0.566705405712}
2019-04-14 01:32:23.41: SIM {TimeUS : 57034677, Roll : -6.65, Pitch : -13.11, Yaw : 68.93, Alt : 49.2700004578, Lat : 49.2835893, Lng : -123.1149771, Q1 : 0.821441233158, Q2 : 0.0169471874833, Q3 : -0.126599431038, Q4 : 0.555805444717}
2019-04-14 01:32:23.51: SIM {TimeUS : 57135470, Roll : -4.98, Pitch : -13.72, Yaw : 66.39, Alt : 49.2799987793, Lat : 49.2835909, Lng : -123.1149743, Q1 : 0.832862615585, Q2 : 0.0291785057634, Q3 : -0.123516261578, Q4 : 0.538731992245}
2019-04-14 01:32:23.61: SIM {TimeUS : 57235430, Roll : -3.11, Pitch : -14.41, Yaw : 63.34, Alt : 49.2799987793, Lat : 49.2835925, Lng : -123.1149713, Q1 : 0.845837771893, Q2 : 0.0429011844099, Q3 : -0.120904877782, Q4 : 0.517783641815}
2019-04-14 01:32:23.71: SIM {TimeUS : 57335390, Roll : -1.21, Pitch : -15.05, Yaw : 60.06, Alt : 49.2799987793, Lat : 49.283594, Lng : -123.1149685, Q1 : 0.858923971653, Q2 : 0.0565091818571, Q3 : -0.118679620326, Q4 : 0.494945913553}
2019-04-14 01:32:23.81: SIM {TimeUS : 57435350, Roll : 0.54, Pitch : -15.54, Yaw : 56.89, Alt : 49.2799987793, Lat : 49.2835957, Lng : -123.1149654, Q1 : 0.870862662792, Q2 : 0.0685455128551, Q3 : -0.116692095995, Q4 : 0.472528010607}
2019-04-14 01:32:23.91: SIM {TimeUS : 57535310, Roll : 1.99, Pitch : -15.81, Yaw : 54.15, Alt : 49.2799987793, Lat : 49.2835974, Lng : -123.1149622, Q1 : 0.880716085434, Q2 : 0.0779569968581, Q3 : -0.114662334323, Q4 : 0.452895581722}
2019-04-14 01:32:24.01: SIM {TimeUS : 57635270, Roll : 3.02, Pitch : -15.89, Yaw : 52.07, Alt : 49.2799987793, Lat : 49.283599, Lng : -123.114959, Q1 : 0.887975215912, Q2 : 0.084116011858, Q3 : -0.112704470754, Q4 : 0.437861025333}
2019-04-14 01:32:24.11: SIM {TimeUS : 57735230, Roll : 3.57, Pitch : -15.84, Yaw : 50.78, Alt : 49.2799987793, Lat : 49.2836007, Lng : -123.1149555, Q1 : 0.892483413219, Q2 : 0.0869785621762, Q3 : -0.111235767603, Q4 : 0.428409546614}
2019-04-14 01:32:24.21: SIM {TimeUS : 57835190, Roll : 3.66, Pitch : -15.77, Yaw : 50.29, Alt : 49.2799987793, Lat : 49.2836024, Lng : -123.114952, Q1 : 0.894329369068, Q2 : 0.0869887843728, Q3 : -0.110719308257, Q4 : 0.424675375223}
2019-04-14 01:32:24.31: SIM {TimeUS : 57935150, Roll : 3.36, Pitch : -15.77, Yaw : 50.5, Alt : 49.2799987793, Lat : 49.2836041, Lng : -123.1149484, Q1 : 0.89376527071, Q2 : 0.084807023406, Q3 : -0.111640125513, Q4 : 0.4260610044}
2019-04-14 01:32:24.41: SIM {TimeUS : 58035110, Roll : 2.74, Pitch : -15.84, Yaw : 51.28, Alt : 49.2799987793, Lat : 49.2836057, Lng : -123.1149446, Q1 : 0.891219854355, Q2 : 0.0810359045863, Q3 : -0.113935776055, Q4 : 0.431484609842}
2019-04-14 01:32:24.51: SIM {TimeUS : 58135070, Roll : 1.92, Pitch : -15.97, Yaw : 52.44, Alt : 49.2799987793, Lat : 49.2836074, Lng : -123.1149408, Q1 : 0.887225985527, Q2 : 0.0762942135334, Q3 : -0.117336556315, Q4 : 0.43959236145}
2019-04-14 01:32:24.61: SIM {TimeUS : 58235030, Roll : 1.01, Pitch : -16.12, Yaw : 53.79, Alt : 49.2799987793, Lat : 49.2836092, Lng : -123.1149368, Q1 : 0.882405281067, Q2 : 0.0712734535336, Q3 : -0.121074452996, Q4 : 0.449023395777}
2019-04-14 01:32:24.71: SIM {TimeUS : 58334990, Roll : 0.17, Pitch : -16.24, Yaw : 55.15, Alt : 49.2900009155, Lat : 49.283611, Lng : -123.1149328, Q1 : 0.87737929821, Q2 : 0.066718287766, Q3 : -0.124556660652, Q4 : 0.458519250154}
2019-04-14 01:32:24.81: SIM {TimeUS : 58434950, Roll : -0.56, Pitch : -16.33, Yaw : 56.38, Alt : 49.2900009155, Lat : 49.2836127, Lng : -123.1149288, Q1 : 0.872748911381, Q2 : 0.0628498420119, Q3 : -0.127535641193, Q4 : 0.467005342245}
2019-04-14 01:32:24.91: SIM {TimeUS : 58534910, Roll : -1.09, Pitch : -16.4, Yaw : 57.35, Alt : 49.2900009155, Lat : 49.2836145, Lng : -123.1149246, Q1 : 0.868970036507, Q2 : 0.0601491890848, Q3 : -0.129684492946, Q4 : 0.473766952753}
2019-04-14 01:32:25.01: SIM {TimeUS : 58634870, Roll : -1.39, Pitch : -16.42, Yaw : 58.01, Alt : 49.2900009155, Lat : 49.2836164, Lng : -123.1149205, Q1 : 0.866358876228, Q2 : 0.0587491802871, Q3 : -0.130754470825, Q4 : 0.478407979012}
2019-04-14 01:32:25.11: SIM {TimeUS : 58734830, Roll : -1.48, Pitch : -16.42, Yaw : 58.34, Alt : 49.2900009155, Lat : 49.2836183, Lng : -123.1149163, Q1 : 0.865030705929, Q2 : 0.0584702342749, Q3 : -0.130977571011, Q4 : 0.480778574944}
2019-04-14 01:32:25.21: SIM {TimeUS : 58834790, Roll : -1.4, Pitch : -16.44, Yaw : 58.36, Alt : 49.2900009155, Lat : 49.2836201, Lng : -123.114912, Q1 : 0.864900529385, Q2 : 0.0591327212751, Q3 : -0.130790457129, Q4 : 0.480982631445}
2019-04-14 01:32:25.31: SIM {TimeUS : 58934750, Roll : -1.19, Pitch : -16.48, Yaw : 58.11, Alt : 49.2900009155, Lat : 49.283622, Lng : -123.1149077, Q1 : 0.865762531757, Q2 : 0.0605957321823, Q3 : -0.130359321833, Q4 : 0.479363977909}
2019-04-14 01:32:25.41: SIM {TimeUS : 59034710, Roll : -0.9, Pitch : -16.55, Yaw : 57.68, Alt : 49.2900009155, Lat : 49.2836241, Lng : -123.1149033, Q1 : 0.867330610752, Q2 : 0.0626324862242, Q3 : -0.129848152399, Q4 : 0.476397126913}
2019-04-14 01:32:25.51: SIM {TimeUS : 59134670, Roll : -0.56, Pitch : -16.61, Yaw : 57.14, Alt : 49.2900009155, Lat : 49.2836261, Lng : -123.114899, Q1 : 0.869320333004, Q2 : 0.0648483410478, Q3 : -0.12922488153, Q4 : 0.472628593445}
2019-04-14 01:32:25.61: SIM {TimeUS : 59235463, Roll : -0.2, Pitch : -16.67, Yaw : 56.56, Alt : 49.2900009155, Lat : 49.283628, Lng : -123.1148945, Q1 : 0.871442914009, Q2 : 0.06710678339, Q3 : -0.128549993038, Q4 : 0.468571156263}
2019-04-14 01:32:25.71: SIM {TimeUS : 59335423, Roll : 0.11, Pitch : -16.72, Yaw : 56.02, Alt : 49.2900009155, Lat : 49.28363, Lng : -123.11489, Q1 : 0.873409211636, Q2 : 0.0691718906164, Q3 : -0.127896443009, Q4 : 0.464773207903}
2019-04-14 01:32:25.81: SIM {TimeUS : 59435383, Roll : 0.38, Pitch : -16.75, Yaw : 55.56, Alt : 49.2900009155, Lat : 49.2836322, Lng : -123.1148855, Q1 : 0.875059187412, Q2 : 0.0708313286304, Q3 : -0.127323329449, Q4 : 0.461565941572}
2019-04-14 01:32:25.91: SIM {TimeUS : 59535343, Roll : 0.57, Pitch : -16.77, Yaw : 55.22, Alt : 49.2900009155, Lat : 49.2836341, Lng : -123.1148809, Q1 : 0.876273036003, Q2 : 0.0720030516386, Q3 : -0.126934841275, Q4 : 0.459182590246}
2019-04-14 01:32:26.01: SIM {TimeUS : 59635303, Roll : 0.67, Pitch : -16.79, Yaw : 55.01, Alt : 49.2900009155, Lat : 49.2836363, Lng : -123.1148763, Q1 : 0.877010941505, Q2 : 0.072598233819, Q3 : -0.126846924424, Q4 : 0.457702100277}
2019-04-14 01:32:26.11: SIM {TimeUS : 59735263, Roll : 0.67, Pitch : -16.82, Yaw : 54.94, Alt : 49.2900009155, Lat : 49.2836383, Lng : -123.1148717, Q1 : 0.877280652523, Q2 : 0.0726482272148, Q3 : -0.127082586288, Q4 : 0.457111507654}
2019-04-14 01:32:26.21: SIM {TimeUS : 59835223, Roll : 0.6, Pitch : -16.85, Yaw : 54.98, Alt : 49.2900009155, Lat : 49.2836403, Lng : -123.114867, Q1 : 0.87713354826, Q2 : 0.072273671627, Q3 : -0.127581179142, Q4 : 0.457314193249}
2019-04-14 01:32:26.31: SIM {TimeUS : 59935183, Roll : 0.47, Pitch : -16.9, Yaw : 55.11, Alt : 49.2900009155, Lat : 49.2836425, Lng : -123.1148623, Q1 : 0.876649975777, Q2 : 0.0716243237257, Q3 : -0.128380656242, Q4 : 0.458119213581}
2019-04-14 01:32:26.41: SIM {TimeUS : 60035143, Roll : 0.32, Pitch : -16.95, Yaw : 55.29, Alt : 49.2999992371, Lat : 49.2836445, Lng : -123.1148575, Q1 : 0.87594127655, Q2 : 0.0708681046963, Q3 : -0.129314810038, Q4 : 0.459328114986}
2019-04-14 01:32:26.51: SIM {TimeUS : 60135103, Roll : 0.14, Pitch : -17.0, Yaw : 55.5, Alt : 49.2999992371, Lat : 49.2836467, Lng : -123.1148527, Q1 : 0.875150740147, Q2 : 0.0699524208903, Q3 : -0.130260556936, Q4 : 0.460705965757}
2019-04-14 01:32:26.61: SIM {TimeUS : 60235063, Roll : -0.02, Pitch : -17.02, Yaw : 55.71, Alt : 49.2999992371, Lat : 49.2836487, Lng : -123.1148479, Q1 : 0.874398767948, Q2 : 0.0689842998981, Q3 : -0.131016895175, Q4 : 0.462063372135}
2019-04-14 01:32:26.71: SIM {TimeUS : 60335023, Roll : -0.17, Pitch : -17.04, Yaw : 55.88, Alt : 49.2999992371, Lat : 49.2836509, Lng : -123.114843, Q1 : 0.873754560947, Q2 : 0.0681243091822, Q3 : -0.1316665411, Q4 : 0.463223457336}
2019-04-14 01:32:26.81: SIM {TimeUS : 60434983, Roll : -0.26, Pitch : -17.08, Yaw : 56.01, Alt : 49.2999992371, Lat : 49.283653, Lng : -123.1148382, Q1 : 0.873242676258, Q2 : 0.0677471905947, Q3 : -0.132171437144, Q4 : 0.464099466801}
2019-04-14 01:32:26.91: SIM {TimeUS : 60534943, Roll : -0.28, Pitch : -17.12, Yaw : 56.09, Alt : 49.2999992371, Lat : 49.2836553, Lng : -123.1148333, Q1 : 0.872905135155, Q2 : 0.0677946954966, Q3 : -0.13253775239, Q4 : 0.464622676373}
2019-04-14 01:32:27.01: SIM {TimeUS : 60634903, Roll : -0.26, Pitch : -17.16, Yaw : 56.11, Alt : 49.2999992371, Lat : 49.2836573, Lng : -123.1148284, Q1 : 0.872755646706, Q2 : 0.0681911855936, Q3 : -0.132748857141, Q4 : 0.464785248041}
2019-04-14 01:32:27.11: SIM {TimeUS : 60734863, Roll : -0.19, Pitch : -17.2, Yaw : 56.08, Alt : 49.2999992371, Lat : 49.2836596, Lng : -123.1148234, Q1 : 0.872787594795, Q2 : 0.0688475221395, Q3 : -0.132791683078, Q4 : 0.464616209269}
2019-04-14 01:32:27.21: SIM {TimeUS : 60834823, Roll : -0.12, Pitch : -17.23, Yaw : 56.01, Alt : 49.2999992371, Lat : 49.2836618, Lng : -123.1148185, Q1 : 0.872993707657, Q2 : 0.0694287419319, Q3 : -0.132775947452, Q4 : 0.464146763086}
2019-04-14 01:32:27.31: SIM {TimeUS : 60934783, Roll : -0.06, Pitch : -17.24, Yaw : 55.91, Alt : 49.2999992371, Lat : 49.2836639, Lng : -123.1148135, Q1 : 0.873335599899, Q2 : 0.0697999224067, Q3 : -0.132694706321, Q4 : 0.463470697403}
2019-04-14 01:32:27.41: SIM {TimeUS : 61034743, Roll : -0.01, Pitch : -17.25, Yaw : 55.8, Alt : 49.3100013733, Lat : 49.2836662, Lng : -123.1148085, Q1 : 0.873744189739, Q2 : 0.0700563490391, Q3 : -0.132633969188, Q4 : 0.462678521872}
2019-04-14 01:32:27.51: SIM {TimeUS : 61134703, Roll : 0.03, Pitch : -17.26, Yaw : 55.69, Alt : 49.3100013733, Lat : 49.2836683, Lng : -123.1148035, Q1 : 0.874147415161, Q2 : 0.0703906044364, Q3 : -0.132605850697, Q4 : 0.461873531342}
2019-04-14 01:32:27.61: SIM {TimeUS : 61234663, Roll : 0.08, Pitch : -17.28, Yaw : 55.59, Alt : 49.3100013733, Lat : 49.2836706, Lng : -123.1147985, Q1 : 0.874511182308, Q2 : 0.0707166865468, Q3 : -0.132633566856, Q4 : 0.461126536131}
2019-04-14 01:32:27.71: SIM {TimeUS : 61335456, Roll : 0.13, Pitch : -17.32, Yaw : 55.5, Alt : 49.3100013733, Lat : 49.2836729, Lng : -123.1147934, Q1 : 0.874790906906, Q2 : 0.071189314127, Q3 : -0.132745876908, Q4 : 0.460490494967}
2019-04-14 01:32:27.81: SIM {TimeUS : 61435416, Roll : 0.18, Pitch : -17.38, Yaw : 55.43, Alt : 49.3100013733, Lat : 49.2836752, Lng : -123.1147883, Q1 : 0.874971270561, Q2 : 0.0716926306486, Q3 : -0.133027508855, Q4 : 0.459988236427}
2019-04-14 01:32:27.91: SIM {TimeUS : 61535376, Roll : 0.21, Pitch : -17.41, Yaw : 55.38, Alt : 49.3100013733, Lat : 49.2836773, Lng : -123.1147832, Q1 : 0.875099599361, Q2 : 0.0719904154539, Q3 : -0.13317887485, Q4 : 0.459653675556}
2019-04-14 01:32:28.01: SIM {TimeUS : 61635336, Roll : 0.22, Pitch : -17.41, Yaw : 55.36, Alt : 49.3100013733, Lat : 49.2836797, Lng : -123.1147781, Q1 : 0.875185906887, Q2 : 0.072054669261, Q3 : -0.133131936193, Q4 : 0.45949280262}
2019-04-14 01:32:28.11: SIM {TimeUS : 61735296, Roll : 0.2, Pitch : -17.42, Yaw : 55.36, Alt : 49.3100013733, Lat : 49.283682, Lng : -123.114773, Q1 : 0.875205218792, Q2 : 0.0719149857759, Q3 : -0.133283078671, Q4 : 0.459434151649}
2019-04-14 01:32:28.21: SIM {TimeUS : 61835256, Roll : 0.16, Pitch : -17.44, Yaw : 55.37, Alt : 49.3100013733, Lat : 49.2836843, Lng : -123.1147679, Q1 : 0.875159680843, Q2 : 0.0717114284635, Q3 : -0.133643805981, Q4 : 0.459447950125}
2019-04-14 01:32:28.31: SIM {TimeUS : 61935216, Roll : 0.12, Pitch : -17.47, Yaw : 55.39, Alt : 49.3100013733, Lat : 49.2836864, Lng : -123.1147627, Q1 : 0.875070869923, Q2 : 0.0715661868453, Q3 : -0.134015321732, Q4 : 0.459531456232}
2019-04-14 01:32:28.41: SIM {TimeUS : 62035176, Roll : 0.09, Pitch : -17.5, Yaw : 55.41, Alt : 49.3100013733, Lat : 49.2836888, Lng : -123.1147575, Q1 : 0.874962210655, Q2 : 0.0714636743069, Q3 : -0.13435344398, Q4 : 0.459655553102}
2019-04-14 01:32:28.51: SIM {TimeUS : 62135136, Roll : 0.07, Pitch : -17.52, Yaw : 55.43, Alt : 49.3199996948, Lat : 49.2836911, Lng : -123.1147524, Q1 : 0.874866843224, Q2 : 0.0714100003242, Q3 : -0.134572476149, Q4 : 0.459781378508}
2019-04-14 01:32:28.61: SIM {TimeUS : 62235096, Roll : 0.06, Pitch : -17.54, Yaw : 55.45, Alt : 49.3199996948, Lat : 49.2836934, Lng : -123.1147472, Q1 : 0.874788880348, Q2 : 0.0714183077216, Q3 : -0.134761735797, Q4 : 0.459872990847}
2019-04-14 01:32:28.71: SIM {TimeUS : 62335056, Roll : 0.06, Pitch : -17.55, Yaw : 55.45, Alt : 49.3199996948, Lat : 49.2836956, Lng : -123.114742, Q1 : 0.87474745512, Q2 : 0.0714993402362, Q3 : -0.13479450345, Q4 : 0.459929555655}
2019-04-14 01:32:28.81: SIM {TimeUS : 62435016, Roll : 0.08, Pitch : -17.57, Yaw : 55.45, Alt : 49.3199996948, Lat : 49.283698, Lng : -123.1147367, Q1 : 0.874718129635, Q2 : 0.0717425495386, Q3 : -0.134856492281, Q4 : 0.459929257631}
2019-04-14 01:32:28.91: SIM {TimeUS : 62534976, Roll : 0.11, Pitch : -17.59, Yaw : 55.44, Alt : 49.3199996948, Lat : 49.2837004, Lng : -123.1147315, Q1 : 0.874722242355, Q2 : 0.0720156505704, Q3 : -0.134936571121, Q4 : 0.459855318069}
2019-04-14 01:32:29.01: SIM {TimeUS : 62634936, Roll : 0.12, Pitch : -17.62, Yaw : 55.42, Alt : 49.3199996948, Lat : 49.2837027, Lng : -123.1147263, Q1 : 0.874760746956, Q2 : 0.0722041353583, Q3 : -0.135139584541, Q4 : 0.459692835808}
2019-04-14 01:32:29.11: SIM {TimeUS : 62734896, Roll : 0.1, Pitch : -17.67, Yaw : 55.39, Alt : 49.3199996948, Lat : 49.283705, Lng : -123.114721, Q1 : 0.874823868275, Q2 : 0.0722070559859, Q3 : -0.135574713349, Q4 : 0.459444105625}
2019-04-14 01:32:29.21: SIM {TimeUS : 62834856, Roll : 0.09, Pitch : -17.71, Yaw : 55.36, Alt : 49.3199996948, Lat : 49.2837074, Lng : -123.1147158, Q1 : 0.874894797802, Q2 : 0.0722591727972, Q3 : -0.136013880372, Q4 : 0.459170907736}
2019-04-14 01:32:29.31: SIM {TimeUS : 62934816, Roll : 0.1, Pitch : -17.75, Yaw : 55.33, Alt : 49.3199996948, Lat : 49.2837096, Lng : -123.1147105, Q1 : 0.874971449375, Q2 : 0.0724904239178, Q3 : -0.136227279902, Q4 : 0.458925098181}
2019-04-14 01:32:29.41: SIM {TimeUS : 63034776, Roll : 0.13, Pitch : -17.75, Yaw : 55.3, Alt : 49.3199996948, Lat : 49.283712, Lng : -123.1147052, Q1 : 0.87507802248, Q2 : 0.0726424902678, Q3 : -0.136199057102, Q4 : 0.458706200123}
2019-04-14 01:32:29.51: SIM {TimeUS : 63134736, Roll : 0.14, Pitch : -17.74, Yaw : 55.27, Alt : 49.3199996948, Lat : 49.2837144, Lng : -123.1146999, Q1 : 0.875206172466, Q2 : 0.0726771354675, Q3 : -0.136018529534, Q4 : 0.458509743214}
2019-04-14 01:32:29.61: SIM {TimeUS : 63234696, Roll : 0.15, Pitch : -17.72, Yaw : 55.25, Alt : 49.3199996948, Lat : 49.2837168, Lng : -123.1146946, Q1 : 0.875326216221, Q2 : 0.0725947543979, Q3 : -0.135879635811, Q4 : 0.458334743977}
2019-04-14 01:32:29.71: SIM {TimeUS : 63334656, Roll : 0.15, Pitch : -17.7, Yaw : 55.22, Alt : 49.3199996948, Lat : 49.2837191, Lng : -123.1146892, Q1 : 0.875430881977, Q2 : 0.0725185275078, Q3 : -0.135757133365, Q4 : 0.458183199167}
2019-04-14 01:32:29.81: SIM {TimeUS : 63435449, Roll : 0.15, Pitch : -17.69, Yaw : 55.21, Alt : 49.3199996948, Lat : 49.2837215, Lng : -123.1146839, Q1 : 0.875512123108, Q2 : 0.0724448114634, Q3 : -0.135641828179, Q4 : 0.458073824644}
2019-04-14 01:32:29.91: SIM {TimeUS : 63535409, Roll : 0.15, Pitch : -17.69, Yaw : 55.2, Alt : 49.3199996948, Lat : 49.2837239, Lng : -123.1146785, Q1 : 0.875553846359, Q2 : 0.0724395886064, Q3 : -0.135706529021, Q4 : 0.457975655794}
2019-04-14 01:32:30.01: SIM {TimeUS : 63635369, Roll : 0.15, Pitch : -17.71, Yaw : 55.19, Alt : 49.3300018311, Lat : 49.2837263, Lng : -123.1146732, Q1 : 0.875564932823, Q2 : 0.0725573524833, Q3 : -0.135853752494, Q4 : 0.457892209291}
2019-04-14 01:32:30.11: SIM {TimeUS : 63735329, Roll : 0.15, Pitch : -17.77, Yaw : 55.18, Alt : 49.3300018311, Lat : 49.2837285, Lng : -123.1146678, Q1 : 0.875539660454, Q2 : 0.0727022066712, Q3 : -0.136285007, Q4 : 0.457789361477}
2019-04-14 01:32:30.21: SIM {TimeUS : 63835289, Roll : 0.14, Pitch : -17.82, Yaw : 55.17, Alt : 49.3300018311, Lat : 49.2837309, Lng : -123.1146625, Q1 : 0.875504970551, Q2 : 0.0728709995747, Q3 : -0.136750921607, Q4 : 0.457689940929}
2019-04-14 01:32:30.31: SIM {TimeUS : 63935249, Roll : 0.14, Pitch : -17.86, Yaw : 55.17, Alt : 49.3300018311, Lat : 49.2837333, Lng : -123.114657, Q1 : 0.875481128693, Q2 : 0.0730317309499, Q3 : -0.137028753757, Q4 : 0.457626819611}
2019-04-14 01:32:30.41: SIM {TimeUS : 64035209, Roll : 0.13, Pitch : -17.89, Yaw : 55.16, Alt : 49.3300018311, Lat : 49.2837357, Lng : -123.1146517, Q1 : 0.875475823879, Q2 : 0.0730549618602, Q3 : -0.137296378613, Q4 : 0.45755302906}
2019-04-14 01:32:30.51: SIM {TimeUS : 64135169, Roll : 0.12, Pitch : -17.91, Yaw : 55.15, Alt : 49.3300018311, Lat : 49.2837381, Lng : -123.1146463, Q1 : 0.87548750639, Q2 : 0.0730071812868, Q3 : -0.13749435544, Q4 : 0.457478821278}
2019-04-14 01:32:30.61: SIM {TimeUS : 64235129, Roll : 0.12, Pitch : -17.9, Yaw : 55.15, Alt : 49.3300018311, Lat : 49.2837405, Lng : -123.1146409, Q1 : 0.875522375107, Q2 : 0.0730063021183, Q3 : -0.137405186892, Q4 : 0.457439094782}
2019-04-14 01:32:30.71: SIM {TimeUS : 64335089, Roll : 0.14, Pitch : -17.9, Yaw : 55.14, Alt : 49.3300018311, Lat : 49.283743, Lng : -123.1146355, Q1 : 0.875545322895, Q2 : 0.0731632784009, Q3 : -0.13735537231, Q4 : 0.457385033369}
2019-04-14 01:32:30.81: SIM {TimeUS : 64435049, Roll : 0.16, Pitch : -17.92, Yaw : 55.13, Alt : 49.3300018311, Lat : 49.2837454, Lng : -123.1146301, Q1 : 0.875563442707, Q2 : 0.0733178183436, Q3 : -0.137417584658, Q4 : 0.457306861877}
2019-04-14 01:32:30.91: SIM {TimeUS : 64535009, Roll : 0.17, Pitch : -17.93, Yaw : 55.11, Alt : 49.3300018311, Lat : 49.2837478, Lng : -123.1146247, Q1 : 0.875586867332, Q2 : 0.0734613090754, Q3 : -0.137442603707, Q4 : 0.457231491804}
2019-04-14 01:32:31.01: SIM {TimeUS : 64634969, Roll : 0.19, Pitch : -17.92, Yaw : 55.1, Alt : 49.3300018311, Lat : 49.2837502, Lng : -123.1146193, Q1 : 0.875631332397, Q2 : 0.0735648423433, Q3 : -0.137350469828, Q4 : 0.457157403231}
2019-04-14 01:32:31.11: SIM {TimeUS : 64734929, Roll : 0.2, Pitch : -17.92, Yaw : 55.09, Alt : 49.3300018311, Lat : 49.2837527, Lng : -123.1146138, Q1 : 0.875682651997, Q2 : 0.0735842660069, Q3 : -0.137330591679, Q4 : 0.45706191659}
2019-04-14 01:32:31.21: SIM {TimeUS : 64834889, Roll : 0.18, Pitch : -17.94, Yaw : 55.07, Alt : 49.3300018311, Lat : 49.2837551, Lng : -123.1146084, Q1 : 0.875726103783, Q2 : 0.0735117793083, Q3 : -0.137556031346, Q4 : 0.456922441721}
2019-04-14 01:32:31.31: SIM {TimeUS : 64934849, Roll : 0.15, Pitch : -17.98, Yaw : 55.06, Alt : 49.3300018311, Lat : 49.2837575, Lng : -123.114603, Q1 : 0.875755906105, Q2 : 0.0734076723456, Q3 : -0.137975618243, Q4 : 0.45675560832}
2019-04-14 01:32:31.41: SIM {TimeUS : 65034809, Roll : 0.13, Pitch : -17.98, Yaw : 55.05, Alt : 49.3300018311, Lat : 49.2837599, Lng : -123.1145974, Q1 : 0.875811040401, Q2 : 0.0733094960451, Q3 : -0.138090565801, Q4 : 0.456630825996}
2019-04-14 01:32:31.51: SIM {TimeUS : 65134769, Roll : 0.14, Pitch : -17.97, Yaw : 55.03, Alt : 49.3400001526, Lat : 49.2837624, Lng : -123.1145919, Q1 : 0.875876247883, Q2 : 0.073299266398, Q3 : -0.137965813279, Q4 : 0.456545174122}
2019-04-14 01:32:31.61: SIM {TimeUS : 65234729, Roll : 0.16, Pitch : -17.96, Yaw : 55.02, Alt : 49.3400001526, Lat : 49.2837648, Lng : -123.1145866, Q1 : 0.875924646854, Q2 : 0.0733946934342, Q3 : -0.137839883566, Q4 : 0.456474989653}
2019-04-14 01:32:31.71: SIM {TimeUS : 65334689, Roll : 0.18, Pitch : -17.97, Yaw : 55.01, Alt : 49.3400001526, Lat : 49.2837672, Lng : -123.1145811, Q1 : 0.875951111317, Q2 : 0.0735592544079, Q3 : -0.137821748853, Q4 : 0.456403195858}
2019-04-14 01:32:31.81: SIM {TimeUS : 65435482, Roll : 0.17, Pitch : -17.99, Yaw : 55.0, Alt : 49.3400001526, Lat : 49.2837697, Lng : -123.1145756, Q1 : 0.875973880291, Q2 : 0.0735649242997, Q3 : -0.137998312712, Q4 : 0.456305265427}
2019-04-14 01:32:31.91: SIM {TimeUS : 65535442, Roll : 0.15, Pitch : -18.01, Yaw : 54.99, Alt : 49.3400001526, Lat : 49.2837721, Lng : -123.1145701, Q1 : 0.876001894474, Q2 : 0.0734243765473, Q3 : -0.138253286481, Q4 : 0.456196904182}
2019-04-14 01:32:32.01: SIM {TimeUS : 65635402, Roll : 0.13, Pitch : -18.02, Yaw : 54.98, Alt : 49.3400001526, Lat : 49.2837746, Lng : -123.1145646, Q1 : 0.876025319099, Q2 : 0.0733625814319, Q3 : -0.138420909643, Q4 : 0.456110954285}
2019-04-14 01:32:32.11: SIM {TimeUS : 65735362, Roll : 0.13, Pitch : -18.04, Yaw : 54.97, Alt : 49.3400001526, Lat : 49.283777, Lng : -123.1145591, Q1 : 0.876039922237, Q2 : 0.0734341666102, Q3 : -0.138532698154, Q4 : 0.456037551165}
2019-04-14 01:32:32.21: SIM {TimeUS : 65835322, Roll : 0.14, Pitch : -18.05, Yaw : 54.96, Alt : 49.3400001526, Lat : 49.2837794, Lng : -123.1145536, Q1 : 0.876053631306, Q2 : 0.0735446885228, Q3 : -0.138607621193, Q4 : 0.455970555544}
2019-04-14 01:32:32.31: SIM {TimeUS : 65935282, Roll : 0.17, Pitch : -18.06, Yaw : 54.96, Alt : 49.3400001526, Lat : 49.2837819, Lng : -123.1145481, Q1 : 0.876055717468, Q2 : 0.0737634673715, Q3 : -0.138636216521, Q4 : 0.455922544003}
2019-04-14 01:32:32.41: SIM {TimeUS : 66035242, Roll : 0.18, Pitch : -18.08, Yaw : 54.95, Alt : 49.3400001526, Lat : 49.2837843, Lng : -123.1145427, Q1 : 0.876054167747, Q2 : 0.0739201307297, Q3 : -0.138753861189, Q4 : 0.455864220858}
2019-04-14 01:32:32.51: SIM {TimeUS : 66135202, Roll : 0.19, Pitch : -18.11, Yaw : 54.94, Alt : 49.3400001526, Lat : 49.2837867, Lng : -123.1145372, Q1 : 0.876049816608, Q2 : 0.0740702226758, Q3 : -0.138887271285, Q4 : 0.455807685852}
2019-04-14 01:32:32.61: SIM {TimeUS : 66235162, Roll : 0.2, Pitch : -18.12, Yaw : 54.93, Alt : 49.3400001526, Lat : 49.2837892, Lng : -123.1145317, Q1 : 0.876047790051, Q2 : 0.0742386132479, Q3 : -0.138964697719, Q4 : 0.455760627985}
2019-04-14 01:32:32.71: SIM {TimeUS : 66335122, Roll : 0.23, Pitch : -18.13, Yaw : 54.93, Alt : 49.3400001526, Lat : 49.2837916, Lng : -123.1145262, Q1 : 0.87604111433, Q2 : 0.0744995102286, Q3 : -0.138931393623, Q4 : 0.455740988255}
