2019-04-14 02:07:18.10: SIM {TimeUS : 40716207, Roll : 0.0, Pitch : 0.0, Yaw : 0.0, Alt : 30.1000003815, Lat : 49.28357, Lng : -123.11502, Q1 : 1.0, Q2 : 0.0, Q3 : 0.0, Q4 : 0.0}
2019-04-14 02:07:18.21: SIM {TimeUS : 40835326, Roll : 0.0, Pitch : 0.0, Yaw : 0.0, Alt : 30.1000003815, Lat : 49.28357, Lng : -123.11502, Q1 : 1.0, Q2 : 0.0, Q3 : 0.0, Q4 : 0.0}
2019-04-14 02:07:18.31: SIM {TimeUS : 40935286, Roll : 0.0, Pitch : 0.0, Yaw : 0.0, Alt : 30.1000003815, Lat : 49.28357, Lng : -123.11502, Q1 : 1.0, Q2 : 0.0, Q3 : 0.0, Q4 : 0.0}
2019-04-14 02:07:18.41: SIM {TimeUS : 41035246, Roll : 0.0, Pitch : 0.0, Yaw : 0.0, Alt : 30.1000003815, Lat : 49.28357, Lng : -123.11502, Q1 : 1.0, Q2 : 0.0, Q3 : 0.0, Q4 : 0.0}
2019-04-14 02:07:18.51: SIM {TimeUS : 41135206, Roll : 0.0, Pitch : 0.0, Yaw : 0.0, Alt : 30.1000003815, Lat : 49.28357, Lng : -123.11502, Q1 : 1.0, Q2 : 0.0, Q3 : 0.0, Q4 : 0.0}
2019-04-14 02:07:18.61: SIM {TimeUS : 41235166, Roll : 0.0, Pitch : 0.0, Yaw : 0.0, Alt : 30.1000003815, Lat : 49.28357, Lng : -123.11502, Q1 : 1.0, Q2 : 0.0, Q3 : 0.0, Q4 : 0.0}
2019-04-14 02:07:18.71: SIM {TimeUS : 41335126, Roll : 0.0, Pitch : 0.0, Yaw : 0.0, Alt : 30.1000003815, Lat : 49.28357, Lng : -123.11502, Q1 : 1.0, Q2 : 0.0, Q3 : 0.0, Q4 : 0.0}
2019-04-14 02:07:18.81: SIM {TimeUS : 41435086, Roll : 0.0, Pitch : 0.0, Yaw : 0.0, Alt : 30.1000003815, Lat : 49.28357, Lng : -123.11502, Q1 : 1.0, Q2 : 0.0, Q3 : 0.0, Q4 : 0.0}
2019-04-14 02:07:18.91: SIM {TimeUS : 41535046, Roll : 0.0, Pitch : 0.0, Yaw : 0.0, Alt : 30.1000003815, Lat : 49.28357, Lng : -123.11502, Q1 : 1.0, Q2 : 0.0, Q3 : 0.0, Q4 : 0.0}
2019-04-14 02:07:19.01: SIM {TimeUS : 41635006, Roll : 0.0, Pitch : 0.0, Yaw : 0.0, Alt : 30.1000003815, Lat : 49.28357, Lng : -123.11502, Q1 : 1.0, Q2 : 0.0, Q3 : 0.0, Q4 : 0.0}
2019-04-14 02:07:19.11: SIM {TimeUS : 41734966, Roll : 0.0, Pitch : 0.0, Yaw : 0.0, Alt : 30.1000003815, Lat : 49.28357, Lng : -123.11502, Q1 : 1.0, Q2 : 0.0, Q3 : 0.0, Q4 : 0.0}
2019-04-14 02:07:19.21: SIM {TimeUS : 41834926, Roll : 0.0, Pitch : 0.0, Yaw : 0.0, Alt : 30.1000003815, Lat : 49.28357, Lng : -123.11502, Q1 : 1.0, Q2 : 0.0, Q3 : 0.0, Q4 : 0.0}
2019-04-14 02:07:19.31: SIM {TimeUS : 41934886, Roll : 0.0, Pitch : 0.0, Yaw : 0.0, Alt : 30.1000003815, Lat : 49.28357, Lng : -123.11502, Q1 : 1.0, Q2 : 0.0, Q3 : 0.0, Q4 : 0.0}
2019-04-14 02:07:19.41: SIM {TimeUS : 42034846, Roll : 0.0, Pitch : 0.0, Yaw : 0.0, Alt : 30.1000003815, Lat : 49.28357, Lng : -123.11502, Q1 : 1.0, Q2 : 0.0, Q3 : 0.0, Q4 : 0.0}
2019-04-14 02:07:19.51: SIM {TimeUS : 42134806, Roll : 0.0, Pitch : 0.0, Yaw : 0.0, Alt : 30.1000003815, Lat : 49.28357, Lng : -123.11502, Q1 : 1.0, Q2 : 0.0, Q3 : 0.0, Q4 : 0.0}
2019-04-14 02:07:19.61: SIM {TimeUS : 42234766, Roll : 0.0, Pitch : 0.0, Yaw : 0.0, Alt : 30.1000003815, Lat : 49.28357, Lng : -123.11502, Q1 : 1.0, Q2 : 0.0, Q3 : 0.0, Q4 : 0.0}
2019-04-14 02:07:19.71: SIM {TimeUS : 42334726, Roll : 0.0, Pitch : 0.0, Yaw : 0.0, Alt : 30.1000003815, Lat : 49.28357, Lng : -123.11502, Q1 : 1.0, Q2 : 0.0, Q3 : 0.0, Q4 : 0.0}
2019-04-14 02:07:19.81: SIM {TimeUS : 42434686, Roll : 0.0, Pitch : 0.0, Yaw : 0.0, Alt : 30.1000003815, Lat : 49.28357, Lng : -123.11502, Q1 : 1.0, Q2 : 0.0, Q3 : 0.0, Q4 : 0.0}
2019-04-14 02:07:19.91: SIM {TimeUS : 42534646, Roll : 0.0, Pitch : 0.0, Yaw : 0.0, Alt : 30.1000003815, Lat : 49.28357, Lng : -123.11502, Q1 : 1.0, Q2 : 0.0, Q3 : 0.0, Q4 : 0.0}
2019-04-14 02:07:20.01: SIM {TimeUS : 42634606, Roll : 0.0, Pitch : 0.0, Yaw : 0.0, Alt : 30.1000003815, Lat : 49.28357, Lng : -123.11502, Q1 : 1.0, Q2 : 0.0, Q3 : 0.0, Q4 : 0.0}
2019-04-14 02:07:20.11: SIM {TimeUS : 42734566, Roll : 0.0, Pitch : 0.0, Yaw : 0.0, Alt : 30.1000003815, Lat : 49.28357, Lng : -123.11502, Q1 : 1.0, Q2 : 0.0, Q3 : 0.0, Q4 : 0.0}
2019-04-14 02:07:20.22: SIM {TimeUS : 42835359, Roll : 0.0, Pitch : 0.0, Yaw : 0.0, Alt : 30.1000003815, Lat : 49.28357, Lng : -123.11502, Q1 : 1.0, Q2 : 0.0, Q3 : 0.0, Q4 : 0.0}
2019-04-14 02:07:20.31: SIM {TimeUS : 42935319, Roll : 0.0, Pitch : 0.0, Yaw : 0.0, Alt : 30.1000003815, Lat : 49.28357, Lng : -123.11502, Q1 : 1.0, Q2 : 0.0, Q3 : 0.0, Q4 : 0.0}
2019-04-14 02:07:20.41: SIM {TimeUS : 43035279, Roll : 0.0, Pitch : 0.0, Yaw : 360.0, Alt : 30.1000003815, Lat : 49.28357, Lng : -123.11502, Q1 : 1.0, Q2 : 0.0, Q3 : 0.0, Q4 : -1.2311567564e-11}
2019-04-14 02:07:20.51: SIM {TimeUS : 43135239, Roll : 0.0, Pitch : 0.0, Yaw : 0.0, Alt : 30.1000003815, Lat : 49.28357, Lng : -123.11502, Q1 : 1.0, Q2 : 0.0, Q3 : 0.0, Q4 : 5.47755590885e-12}
2019-04-14 02:07:20.61: SIM {TimeUS : 43235199, Roll : 0.0, Pitch : 0.0, Yaw : 360.0, Alt : 30.1000003815, Lat : 49.28357, Lng : -123.11502, Q1 : 1.0, Q2 : 0.0, Q3 : 0.0, Q4 : -1.20905085055e-07}
2019-04-14 02:07:20.71: SIM {TimeUS : 43335159, Roll : 0.0, Pitch : 0.0, Yaw : 359.99, Alt : 30.1000003815, Lat : 49.28357, Lng : -123.11502, Q1 : 1.0, Q2 : 0.0, Q3 : 0.0, Q4 : -2.4927777531e-07}
2019-04-14 02:07:20.81: SIM {TimeUS : 43435119, Roll : 0.0, Pitch : 0.0, Yaw : 359.99, Alt : 30.1000003815, Lat : 49.28357, Lng : -123.11502, Q1 : 1.0, Q2 : 0.0, Q3 : 0.0, Q4 : -4.47744213261e-07}
2019-04-14 02:07:20.91: SIM {TimeUS : 43535079, Roll : 0.0, Pitch : 0.0, Yaw : 359.99, Alt : 30.1000003815, Lat : 49.28357, Lng : -123.11502, Q1 : 1.0, Q2 : 0.0, Q3 : 0.0, Q4 : -6.36380320884e-07}
2019-04-14 02:07:21.01: SIM {TimeUS : 43635039, Roll : 0.0, Pitch : 0.0, Yaw : 359.99, Alt : 30.1000003815, Lat : 49.28357, Lng : -123.11502, Q1 : 1.0, Q2 : 0.0, Q3 : 0.0, Q4 : -8.30406236219e-07}
2019-04-14 02:07:21.11: SIM {TimeUS : 43734999, Roll : 0.0, Pitch : 0.0, Yaw : 359.99, Alt : 30.1000003815, Lat : 49.28357, Lng : -123.11502, Q1 : 1.0, Q2 : 0.0, Q3 : 0.0, Q4 : -9.7032557278e-07}
2019-04-14 02:07:21.21: SIM {TimeUS : 43834959, Roll : 0.0, Pitch : 0.0, Yaw : 359.99, Alt : 30.1000003815, Lat : 49.28357, Lng : -123.11502, Q1 : 1.0, Q2 : 0.0, Q3 : 0.0, Q4 : -1.17065758332e-06}
2019-04-14 02:07:21.31: SIM {TimeUS : 43934919, Roll : 0.0, Pitch : 0.0, Yaw : 359.99, Alt : 30.1100006104, Lat : 49.28357, Lng : -123.11502, Q1 : 1.0, Q2 : 0.0, Q3 : 0.0, Q4 : -1.38722941756e-06}
2019-04-14 02:07:21.41: SIM {TimeUS : 44034879, Roll : 0.0, Pitch : 0.0, Yaw : 359.99, Alt : 30.1399993896, Lat : 49.28357, Lng : -123.11502, Q1 : 1.0, Q2 : 0.0, Q3 : 0.0, Q4 : -1.58726970767e-06}
2019-04-14 02:07:21.51: SIM {TimeUS : 44134839, Roll : 0.0, Pitch : 0.0, Yaw : 359.99, Alt : 30.1700000763, Lat : 49.28357, Lng : -123.11502, Q1 : 1.0, Q2 : 0.0, Q3 : 0.0, Q4 : -1.84981229268e-06}
2019-04-14 02:07:21.61: SIM {TimeUS : 44234799, Roll : 0.0, Pitch : 0.0, Yaw : 359.99, Alt : 30.2000007629, Lat : 49.28357, Lng : -123.11502, Q1 : 1.0, Q2 : 0.0, Q3 : 0.0, Q4 : -2.09288646147e-06}
2019-04-14 02:07:21.71: SIM {TimeUS : 44334759, Roll : -0.09, Pitch : -0.08, Yaw : 359.99, Alt : 30.25, Lat : 49.28357, Lng : -123.11502, Q1 : 0.999999403954, Q2 : -0.000806122028735, Q3 : -0.000760657363571, Q4 : -7.24328174329e-06}
2019-04-14 02:07:21.81: SIM {TimeUS : 44434719, Roll : -0.35, Pitch : -0.35, Yaw : 359.99, Alt : 30.3400001526, Lat : 49.28357, Lng : -123.11502, Q1 : 0.999990403652, Q2 : -0.00311320880428, Q3 : -0.00309294834733, Q4 : -3.3347572753e-05}
2019-04-14 02:07:21.91: SIM {TimeUS : 44534679, Roll : -0.62, Pitch : -0.61, Yaw : 359.99, Alt : 30.4899997711, Lat : 49.28357, Lng : -123.11502, Q1 : 0.999970912933, Q2 : -0.0054504852742, Q3 : -0.00533445319161, Q4 : -8.51993463584e-05}
2019-04-14 02:07:22.01: SIM {TimeUS : 44634639, Roll : -0.79, Pitch : -0.74, Yaw : 359.98, Alt : 30.6499996185, Lat : 49.28357, Lng : -123.11502, Q1 : 0.999954640865, Q2 : -0.00695451581851, Q3 : -0.00650580972433, Q4 : -0.000154231689521}
2019-04-14 02:07:22.11: SIM {TimeUS : 44734599, Roll : -0.81, Pitch : -0.74, Yaw : 359.97, Alt : 30.7999992371, Lat : 49.28357, Lng : -123.11502, Q1 : 0.999953389168, Q2 : -0.00711879925802, Q3 : -0.00651889853179, Q4 : -0.000238151827944}
2019-04-14 02:07:22.21: SIM {TimeUS : 44834559, Roll : -0.69, Pitch : -0.63, Yaw : 359.96, Alt : 30.9599990845, Lat : 49.28357, Lng : -123.1150201, Q1 : 0.999966323376, Q2 : -0.0060722604394, Q3 : -0.00551346736029, Q4 : -0.000325214437908}
2019-04-14 02:07:22.32: SIM {TimeUS : 44935352, Roll : -0.48, Pitch : -0.44, Yaw : 359.95, Alt : 31.1100006104, Lat : 49.2835701, Lng : -123.1150202, Q1 : 0.999983489513, Q2 : -0.00425205426291, Q3 : -0.00385255157016, Q4 : -0.000404038903071}
2019-04-14 02:07:22.41: SIM {TimeUS : 45035312, Roll : -0.24, Pitch : -0.24, Yaw : 359.94, Alt : 31.2700004578, Lat : 49.2835701, Lng : -123.1150202, Q1 : 0.999995231628, Q2 : -0.00218227482401, Q3 : -0.00213532615453, Q4 : -0.000465003482532}
2019-04-14 02:07:22.51: SIM {TimeUS : 45135272, Roll : -0.04, Pitch : -0.08, Yaw : 359.94, Alt : 31.4400005341, Lat : 49.2835702, Lng : -123.1150203, Q1 : 0.999999523163, Q2 : -0.000411359796999, Q3 : -0.000720431795344, Q4 : -0.000509083154611}
2019-04-14 02:07:22.61: SIM {TimeUS : 45235232, Roll : 0.07, Pitch : 0.03, Yaw : 359.93, Alt : 31.6100006104, Lat : 49.2835702, Lng : -123.1150204, Q1 : 0.999999582767, Q2 : 0.000667903048452, Q3 : 0.000275920756394, Q4 : -0.000534063437954}
2019-04-14 02:07:22.71: SIM {TimeUS : 45335192, Roll : 0.1, Pitch : 0.09, Yaw : 359.93, Alt : 31.7900009155, Lat : 49.2835703, Lng : -123.1150205, Q1 : 0.999999046326, Q2 : 0.000954027869739, Q3 : 0.000844247289933, Q4 : -0.00053295417456}
2019-04-14 02:07:22.81: SIM {TimeUS : 45435152, Roll : 0.08, Pitch : 0.11, Yaw : 359.94, Alt : 31.9699993134, Lat : 49.2835703, Lng : -123.1150205, Q1 : 0.99999910593, Q2 : 0.00075516582001, Q3 : 0.0010120109655, Q4 : -0.000521047972143}
2019-04-14 02:07:22.91: SIM {TimeUS : 45535112, Roll : 0.07, Pitch : 0.11, Yaw : 359.94, Alt : 32.1599998474, Lat : 49.2835703, Lng : -123.1150206, Q1 : 0.999999165535, Q2 : 0.000633626885246, Q3 : 0.00102013733704, Q4 : -0.000494683627039}
2019-04-14 02:07:23.01: SIM {TimeUS : 45635072, Roll : 0.07, Pitch : 0.11, Yaw : 359.94, Alt : 32.3499984741, Lat : 49.2835703, Lng : -123.1150206, Q1 : 0.999999165535, Q2 : 0.000630877504591, Q3 : 0.00099847081583, Q4 : -0.000471331382869}
2019-04-14 02:07:23.11: SIM {TimeUS : 45735032, Roll : 0.08, Pitch : 0.11, Yaw : 359.94, Alt : 32.5400009155, Lat : 49.2835703, Lng : -123.1150207, Q1 : 0.99999910593, Q2 : 0.000711655186024, Q3 : 0.00101560808253, Q4 : -0.000455106084701}
2019-04-14 02:07:23.21: SIM {TimeUS : 45834992, Roll : 0.09, Pitch : 0.13, Yaw : 359.94, Alt : 32.7299995422, Lat : 49.2835703, Lng : -123.1150207, Q1 : 0.999998927116, Q2 : 0.00081070093438, Q3 : 0.00114267796744, Q4 : -0.000445292622317}
2019-04-14 02:07:23.31: SIM {TimeUS : 45934952, Roll : 0.11, Pitch : 0.13, Yaw : 359.95, Alt : 32.9300003052, Lat : 49.2835704, Lng : -123.1150207, Q1 : 0.999998748302, Q2 : 0.000974927155767, Q3 : 0.00117458647583, Q4 : -0.000437452428741}
2019-04-14 02:07:23.41: SIM {TimeUS : 46034912, Roll : 0.12, Pitch : 0.13, Yaw : 359.95, Alt : 33.1300010681, Lat : 49.2835704, Lng : -123.1150208, Q1 : 0.999998569489, Q2 : 0.00112318701576, Q3 : 0.00116809853353, Q4 : -0.000433973473264}
2019-04-14 02:07:23.51: SIM {TimeUS : 46134872, Roll : 0.14, Pitch : 0.13, Yaw : 359.95, Alt : 33.3400001526, Lat : 49.2835704, Lng : -123.1150208, Q1 : 0.999998390675, Q2 : 0.00125026504975, Q3 : 0.00119705044199, Q4 : -0.000432326924056}
2019-04-14 02:07:23.61: SIM {TimeUS : 46234832, Roll : 0.15, Pitch : 0.14, Yaw : 359.95, Alt : 33.5400009155, Lat : 49.2835704, Lng : -123.1150208, Q1 : 0.999998271465, Q2 : 0.00133592146449, Q3 : 0.00123865925707, Q4 : -0.000433770474046}
2019-04-14 02:07:23.71: SIM {TimeUS : 46334792, Roll : 0.16, Pitch : 0.14, Yaw : 359.94, Alt : 33.75, Lat : 49.2835704, Lng : -123.1150208, Q1 : 0.999997973442, Q2 : 0.00147152913269, Q3 : 0.00130154937506, Q4 : -0.000443335651653}
2019-04-14 02:07:23.81: SIM {TimeUS : 46434752, Roll : 0.17, Pitch : 0.14, Yaw : 359.94, Alt : 33.9599990845, Lat : 49.2835704, Lng : -123.1150208, Q1 : 0.999998033047, Q2 : 0.00151425111108, Q3 : 0.0012219552882, Q4 : -0.000454125896795}
2019-04-14 02:07:23.91: SIM {TimeUS : 46534712, Roll : 0.16, Pitch : 0.12, Yaw : 359.94, Alt : 34.1699981689, Lat : 49.2835704, Lng : -123.1150208, Q1 : 0.99999833107, Q2 : 0.00141386198811, Q3 : 0.00106636737473, Q4 : -0.000464512471808}
2019-04-14 02:07:24.01: SIM {TimeUS : 46634672, Roll : 0.14, Pitch : 0.1, Yaw : 359.94, Alt : 34.3800010681, Lat : 49.2835704, Lng : -123.1150208, Q1 : 0.999998629093, Q2 : 0.00124414439779, Q3 : 0.000955240800977, Q4 : -0.000479285430629}
2019-04-14 02:07:24.11: SIM {TimeUS : 46734632, Roll : 0.11, Pitch : 0.1, Yaw : 359.94, Alt : 34.5900001526, Lat : 49.2835704, Lng : -123.1150208, Q1 : 0.999999046326, Q2 : 0.000970775843598, Q3 : 0.000874335994013, Q4 : -0.000504356925376}
2019-04-14 02:07:24.21: SIM {TimeUS : 46834592, Roll : 0.08, Pitch : 0.06, Yaw : 359.93, Alt : 34.8100013733, Lat : 49.2835704, Lng : -123.1150208, Q1 : 0.999999403954, Q2 : 0.000764281896409, Q3 : 0.000568046409171, Q4 : -0.000535422412213}
2019-04-14 02:07:24.31: SIM {TimeUS : 46934552, Roll : 0.07, Pitch : 0.03, Yaw : 359.93, Alt : 35.0200004578, Lat : 49.2835704, Lng : -123.1150208, Q1 : 0.999999582767, Q2 : 0.000621862243861, Q3 : 0.000291757314699, Q4 : -0.00057024176931}
2019-04-14 02:07:24.42: SIM {TimeUS : 47035345, Roll : 0.04, Pitch : 0.01, Yaw : 359.93, Alt : 35.2400016785, Lat : 49.2835704, Lng : -123.1150207, Q1 : 0.999999701977, Q2 : 0.000394348346163, Q3 : 0.000123890815303, Q4 : -0.000610412971582}
2019-04-14 02:07:24.51: SIM {TimeUS : 47135305, Roll : 0.02, Pitch : 0.01, Yaw : 359.92, Alt : 35.4599990845, Lat : 49.2835704, Lng : -123.1150207, Q1 : 0.999999761581, Q2 : 0.000260358152445, Q3 : 8.94265031093e-05, Q4 : -0.000645063875709}
2019-04-14 02:07:24.61: SIM {TimeUS : 47235265, Roll : 0.02, Pitch : 0.01, Yaw : 359.92, Alt : 35.6800003052, Lat : 49.2835704, Lng : -123.1150207, Q1 : 0.999999761581, Q2 : 0.000252426776569, Q3 : 0.000105302249722, Q4 : -0.000680849363562}
2019-04-14 02:07:24.71: SIM {TimeUS : 47335225, Roll : 0.01, Pitch : 0.0, Yaw : 359.91, Alt : 35.9000015259, Lat : 49.2835704, Lng : -123.1150207, Q1 : 0.999999761581, Q2 : 8.87853748281e-05, Q3 : -7.48313759686e-05, Q4 : -0.000715834263247}
2019-04-14 02:07:24.81: SIM {TimeUS : 47435185, Roll : -0.02, Pitch : -0.04, Yaw : 359.91, Alt : 36.1199989319, Lat : 49.2835704, Lng : -123.1150207, Q1 : 0.999999642372, Q2 : -0.000189503494767, Q3 : -0.000398338335799, Q4 : -0.000742232485209}
2019-04-14 02:07:24.91: SIM {TimeUS : 47535145, Roll : -0.05, Pitch : -0.06, Yaw : 359.91, Alt : 36.3400001526, Lat : 49.2835704, Lng : -123.1150207, Q1 : 0.999999403954, Q2 : -0.0005122993025, Q3 : -0.000571349053644, Q4 : -0.000764918571804}
2019-04-14 02:07:25.01: SIM {TimeUS : 47635105, Roll : -0.09, Pitch : -0.07, Yaw : 359.9, Alt : 36.5600013733, Lat : 49.2835704, Lng : -123.1150206, Q1 : 0.999999165535, Q2 : -0.000790997059084, Q3 : -0.000676499679685, Q4 : -0.00078792963177}
2019-04-14 02:07:25.11: SIM {TimeUS : 47735065, Roll : -0.09, Pitch : -0.07, Yaw : 359.9, Alt : 36.7799987793, Lat : 49.2835704, Lng : -123.1150206, Q1 : 0.99999910593, Q2 : -0.000831921992358, Q3 : -0.000692800269462, Q4 : -0.000807367498055}
2019-04-14 02:07:25.21: SIM {TimeUS : 47835025, Roll : -0.08, Pitch : -0.07, Yaw : 359.9, Alt : 37.0099983215, Lat : 49.2835704, Lng : -123.1150206, Q1 : 0.999999165535, Q2 : -0.000785508949775, Q3 : -0.000653924245853, Q4 : -0.000827331852634}
2019-04-14 02:07:25.31: SIM {TimeUS : 47934985, Roll : -0.07, Pitch : -0.05, Yaw : 359.9, Alt : 37.2299995422, Lat : 49.2835704, Lng : -123.1150206, Q1 : 0.999999284744, Q2 : -0.000666739011649, Q3 : -0.000491902814247, Q4 : -0.00085078534903}
2019-04-14 02:07:25.41: SIM {TimeUS : 48034945, Roll : -0.06, Pitch : -0.04, Yaw : 359.9, Alt : 37.4599990845, Lat : 49.2835704, Lng : -123.1150206, Q1 : 0.999999403954, Q2 : -0.000526776595507, Q3 : -0.000360276753781, Q4 : -0.000871113559697}
2019-04-14 02:07:25.51: SIM {TimeUS : 48134905, Roll : -0.06, Pitch : -0.04, Yaw : 359.89, Alt : 37.6800003052, Lat : 49.2835704, Lng : -123.1150206, Q1 : 0.999999403954, Q2 : -0.000540676235687, Q3 : -0.000359674246283, Q4 : -0.000882772554178}
2019-04-14 02:07:25.61: SIM {TimeUS : 48234865, Roll : -0.07, Pitch : -0.02, Yaw : 359.89, Alt : 37.9099998474, Lat : 49.2835704, Lng : -123.1150206, Q1 : 0.999999403954, Q2 : -0.000624295440502, Q3 : -0.00023249827791, Q4 : -0.000891150033567}
2019-04-14 02:07:25.71: SIM {TimeUS : 48334825, Roll : -0.09, Pitch : 0.0, Yaw : 359.89, Alt : 38.1399993896, Lat : 49.2835704, Lng : -123.1150206, Q1 : 0.99999922514, Q2 : -0.000840738939587, Q3 : -8.38330670376e-05, Q4 : -0.000901002553292}
2019-04-14 02:07:25.81: SIM {TimeUS : 48434785, Roll : -0.1, Pitch : 0.0, Yaw : 359.89, Alt : 38.3600006104, Lat : 49.2835704, Lng : -123.1150206, Q1 : 0.99999922514, Q2 : -0.000886264955625, Q3 : 4.35746478615e-05, Q4 : -0.000907203648239}
2019-04-14 02:07:25.91: SIM {TimeUS : 48534745, Roll : -0.07, Pitch : 0.03, Yaw : 359.89, Alt : 38.5900001526, Lat : 49.2835704, Lng : -123.1150206, Q1 : 0.999999284744, Q2 : -0.000695496622939, Q3 : 0.000278242427157, Q4 : -0.000916323449928}
2019-04-14 02:07:26.01: SIM {TimeUS : 48634705, Roll : -0.05, Pitch : 0.02, Yaw : 359.89, Alt : 38.8199996948, Lat : 49.2835706, Lng : -123.1150206, Q1 : 0.999999463558, Q2 : -0.000448831822723, Q3 : 0.000233924001805, Q4 : -0.000919915852137}
2019-04-14 02:07:26.11: SIM {TimeUS : 48734665, Roll : -0.01, Pitch : 0.01, Yaw : 359.89, Alt : 39.0499992371, Lat : 49.2835706, Lng : -123.1150206, Q1 : 0.999999523163, Q2 : -0.000172552245203, Q3 : 0.000127605526359, Q4 : -0.000921349797864}
2019-04-14 02:07:26.21: SIM {TimeUS : 48834625, Roll : 0.01, Pitch : 0.03, Yaw : 359.89, Alt : 39.2799987793, Lat : 49.2835706, Lng : -123.1150206, Q1 : 0.999999523163, Q2 : 0.000157521557412, Q3 : 0.000277626008028, Q4 : -0.000927036395296}
2019-04-14 02:07:26.31: SIM {TimeUS : 48934585, Roll : 0.05, Pitch : 0.06, Yaw : 359.89, Alt : 39.5099983215, Lat : 49.2835706, Lng : -123.1150206, Q1 : 0.999999284744, Q2 : 0.000494985841215, Q3 : 0.000566299946513, Q4 : -0.000944245199207}
2019-04-14 02:07:26.41: SIM {TimeUS : 49034545, Roll : 0.08, Pitch : 0.1, Yaw : 359.88, Alt : 39.7400016785, Lat : 49.2835706, Lng : -123.1150206, Q1 : 0.999998867512, Q2 : 0.000729805906303, Q3 : 0.000905656605028, Q4 : -0.000970016524661}
2019-04-14 02:07:26.52: SIM {TimeUS : 49135338, Roll : 0.07, Pitch : 0.14, Yaw : 359.88, Alt : 39.9700012207, Lat : 49.2835706, Lng : -123.1150206, Q1 : 0.999998569489, Q2 : 0.000640862621367, Q3 : 0.00123146933038, Q4 : -0.000986974453554}
2019-04-14 02:07:26.61: SIM {TimeUS : 49235298, Roll : 0.02, Pitch : 0.17, Yaw : 359.88, Alt : 40.2000007629, Lat : 49.2835706, Lng : -123.1150206, Q1 : 0.99999833107, Q2 : 0.000229497440159, Q3 : 0.00151397706941, Q4 : -0.00102208007593}
2019-04-14 02:07:26.71: SIM {TimeUS : 49335258, Roll : -0.01, Pitch : 0.18, Yaw : 359.88, Alt : 40.4399986267, Lat : 49.2835706, Lng : -123.1150206, Q1 : 0.999998152256, Q2 : -0.000121279721498, Q3 : 0.00159953348339, Q4 : -0.00104632822331}
2019-04-14 02:07:26.81: SIM {TimeUS : 49435218, Roll : -0.04, Pitch : 0.16, Yaw : 359.87, Alt : 40.6699981689, Lat : 49.2835706, Lng : -123.1150206, Q1 : 0.99999833107, Q2 : -0.000357542157872, Q3 : 0.00141363649163, Q4 : -0.00106929265894}
2019-04-14 02:07:26.91: SIM {TimeUS : 49535178, Roll : -0.05, Pitch : 0.13, Yaw : 359.87, Alt : 40.9000015259, Lat : 49.2835706, Lng : -123.1150206, Q1 : 0.999998629093, Q2 : -0.000469274702482, Q3 : 0.00116040802095, Q4 : -0.00110492436215}
2019-04-14 02:07:27.01: SIM {TimeUS : 49635138, Roll : -0.04, Pitch : 0.12, Yaw : 359.86, Alt : 41.1300010681, Lat : 49.2835706, Lng : -123.1150206, Q1 : 0.999998688698, Q2 : -0.000359030265827, Q3 : 0.0010766168125, Q4 : -0.00115140900016}
2019-04-14 02:07:27.11: SIM {TimeUS : 49735098, Roll : 0.0, Pitch : 0.13, Yaw : 359.86, Alt : 41.3699989319, Lat : 49.2835706, Lng : -123.1150206, Q1 : 0.999998569489, Q2 : 2.41705020017e-05, Q3 : 0.00117735809181, Q4 : -0.00120444211643}
2019-04-14 02:07:27.21: SIM {TimeUS : 49835058, Roll : 0.05, Pitch : 0.13, Yaw : 359.85, Alt : 41.5999984741, Lat : 49.2835706, Lng : -123.1150207, Q1 : 0.99999833107, Q2 : 0.000496853492223, Q3 : 0.00121885316912, Q4 : -0.00125732470769}
2019-04-14 02:07:27.31: SIM {TimeUS : 49935018, Roll : 0.09, Pitch : 0.11, Yaw : 359.85, Alt : 41.8300018311, Lat : 49.2835706, Lng : -123.1150207, Q1 : 0.99999833107, Q2 : 0.000834700651467, Q3 : 0.000980777665973, Q4 : -0.00130368827377}
2019-04-14 02:07:27.41: SIM {TimeUS : 50034978, Roll : 0.09, Pitch : 0.07, Yaw : 359.84, Alt : 42.0699996948, Lat : 49.2835706, Lng : -123.1150207, Q1 : 0.999998569489, Q2 : 0.000844543974381, Q3 : 0.000623440544587, Q4 : -0.00134182209149}
2019-04-14 02:07:27.51: SIM {TimeUS : 50134938, Roll : 0.05, Pitch : 0.04, Yaw : 359.84, Alt : 42.2999992371, Lat : 49.2835706, Lng : -123.1150207, Q1 : 0.999998867512, Q2 : 0.000523518538103, Q3 : 0.000429133215221, Q4 : -0.00136240653228}
2019-04-14 02:07:27.61: SIM {TimeUS : 50234898, Roll : 0.0, Pitch : 0.04, Yaw : 359.84, Alt : 42.5400009155, Lat : 49.2835706, Lng : -123.1150207, Q1 : 0.999998986721, Q2 : 3.72743379558e-05, Q3 : 0.00040377973346, Q4 : -0.00137153349351}
2019-04-14 02:07:27.71: SIM {TimeUS : 50334858, Roll : -0.03, Pitch : 0.07, Yaw : 359.84, Alt : 42.7700004578, Lat : 49.2835704, Lng : -123.1150206, Q1 : 0.999998807907, Q2 : -0.000283381843474, Q3 : 0.000631215807516, Q4 : -0.00137392780744}
2019-04-14 02:07:27.81: SIM {TimeUS : 50434818, Roll : -0.04, Pitch : 0.08, Yaw : 359.84, Alt : 43.0099983215, Lat : 49.2835704, Lng : -123.1150206, Q1 : 0.999998688698, Q2 : -0.00040574837476, Q3 : 0.000763558258768, Q4 : -0.00137428648304}
2019-04-14 02:07:27.91: SIM {TimeUS : 50534778, Roll : -0.03, Pitch : 0.07, Yaw : 359.84, Alt : 43.2400016785, Lat : 49.2835704, Lng : -123.1150206, Q1 : 0.999998748302, Q2 : -0.000341345119523, Q3 : 0.000667942571454, Q4 : -0.00137508485932}
2019-04-14 02:07:28.01: SIM {TimeUS : 50634738, Roll : -0.03, Pitch : 0.06, Yaw : 359.84, Alt : 43.4799995422, Lat : 49.2835704, Lng : -123.1150206, Q1 : 0.999998867512, Q2 : -0.000334120093612, Q3 : 0.000536831445061, Q4 : -0.00138101237826}
2019-04-14 02:07:28.11: SIM {TimeUS : 50734698, Roll : -0.02, Pitch : 0.04, Yaw : 359.84, Alt : 43.7099990845, Lat : 49.2835704, Lng : -123.1150206, Q1 : 0.999998927116, Q2 : -0.000256104132859, Q3 : 0.000379641074687, Q4 : -0.001388746663}
2019-04-14 02:07:28.21: SIM {TimeUS : 50834658, Roll : -0.01, Pitch : 0.03, Yaw : 359.83, Alt : 43.9500007629, Lat : 49.2835704, Lng : -123.1150206, Q1 : 0.999998986721, Q2 : -9.60582474363e-05, Q3 : 0.000279779196717, Q4 : -0.0013999606017}
2019-04-14 02:07:28.31: SIM {TimeUS : 50934618, Roll : 0.0, Pitch : 0.02, Yaw : 359.83, Alt : 44.1800003052, Lat : 49.2835704, Lng : -123.1150206, Q1 : 0.999998986721, Q2 : 3.76898174181e-06, Q3 : 0.000240307184868, Q4 : -0.00141371111386}
2019-04-14 02:07:28.41: SIM {TimeUS : 51034578, Roll : 0.0, Pitch : 0.0, Yaw : 359.83, Alt : 44.4199981689, Lat : 49.2835704, Lng : -123.1150206, Q1 : 0.999998986721, Q2 : -4.19820134994e-05, Q3 : 8.55337566463e-05, Q4 : -0.00143727986142}
2019-04-14 02:07:28.51: SIM {TimeUS : 51134538, Roll : -0.01, Pitch : -0.01, Yaw : 359.83, Alt : 44.6599998474, Lat : 49.2835704, Lng : -123.1150206, Q1 : 0.999998867512, Q2 : -0.000163931210409, Q3 : -0.000161446849233, Q4 : -0.0014724386856}
2019-04-14 02:07:28.61: SIM {TimeUS : 51235331, Roll : -0.02, Pitch : -0.03, Yaw : 359.82, Alt : 44.8899993896, Lat : 49.2835704, Lng : -123.1150206, Q1 : 0.999998748302, Q2 : -0.000251567835221, Q3 : -0.000331217830535, Q4 : -0.00151585461572}
2019-04-14 02:07:28.71: SIM {TimeUS : 51335291, Roll : -0.03, Pitch : -0.04, Yaw : 359.82, Alt : 45.1300010681, Lat : 49.2835703, Lng : -123.1150206, Q1 : 0.999998629093, Q2 : -0.000267596566118, Q3 : -0.000430816144217, Q4 : -0.00155895436183}
2019-04-14 02:07:28.81: SIM {TimeUS : 51435251, Roll : -0.03, Pitch : -0.05, Yaw : 359.81, Alt : 45.3699989319, Lat : 49.2835703, Lng : -123.1150206, Q1 : 0.999998569489, Q2 : -0.000325616798364, Q3 : -0.000451020314358, Q4 : -0.00159915944096}
2019-04-14 02:07:28.91: SIM {TimeUS : 51535211, Roll : -0.06, Pitch : -0.04, Yaw : 359.81, Alt : 45.5999984741, Lat : 49.2835703, Lng : -123.1150206, Q1 : 0.999998450279, Q2 : -0.000525788054802, Q3 : -0.000377756194212, Q4 : -0.00163957942277}
2019-04-14 02:07:29.01: SIM {TimeUS : 51635171, Roll : -0.08, Pitch : -0.03, Yaw : 359.8, Alt : 45.8300018311, Lat : 49.2835703, Lng : -123.1150206, Q1 : 0.999998211861, Q2 : -0.000774957647081, Q3 : -0.000334056821885, Q4 : -0.00167873967439}
2019-04-14 02:07:29.11: SIM {TimeUS : 51735131, Roll : -0.1, Pitch : -0.03, Yaw : 359.8, Alt : 46.0699996948, Lat : 49.2835703, Lng : -123.1150205, Q1 : 0.999998092651, Q2 : -0.000913395022508, Q3 : -0.000261608249275, Q4 : -0.00171339185908}
2019-04-14 02:07:29.21: SIM {TimeUS : 51835091, Roll : -0.1, Pitch : -0.01, Yaw : 359.8, Alt : 46.2900009155, Lat : 49.2835703, Lng : -123.1150205, Q1 : 0.999998033047, Q2 : -0.000923745741602, Q3 : -0.000128856554511, Q4 : -0.00174484762829}
2019-04-14 02:07:29.31: SIM {TimeUS : 51935051, Roll : -0.09, Pitch : 0.0, Yaw : 359.79, Alt : 46.5200004578, Lat : 49.2835703, Lng : -123.1150205, Q1 : 0.999998092651, Q2 : -0.000800954177976, Q3 : 7.17628790881e-05, Q4 : -0.00177225004882}
2019-04-14 02:07:29.41: SIM {TimeUS : 52035011, Roll : -0.06, Pitch : 0.01, Yaw : 359.79, Alt : 46.7299995422, Lat : 49.2835703, Lng : -123.1150205, Q1 : 0.999998211861, Q2 : -0.000593894219492, Q3 : 0.000155293921125, Q4 : -0.00179775059223}
2019-04-14 02:07:29.51: SIM {TimeUS : 52134971, Roll : -0.04, Pitch : 0.0, Yaw : 359.79, Alt : 46.9500007629, Lat : 49.2835703, Lng : -123.1150206, Q1 : 0.999998271465, Q2 : -0.000407219602494, Q3 : 7.13326298865e-05, Q4 : -0.00181804364547}
2019-04-14 02:07:29.61: SIM {TimeUS : 52234931, Roll : -0.03, Pitch : -0.01, Yaw : 359.78, Alt : 47.1500015259, Lat : 49.2835703, Lng : -123.1150206, Q1 : 0.999998271465, Q2 : -0.000311245792545, Q3 : -9.26688953768e-05, Q4 : -0.00183581234887}
2019-04-14 02:07:29.71: SIM {TimeUS : 52334891, Roll : -0.02, Pitch : -0.03, Yaw : 359.78, Alt : 47.3499984741, Lat : 49.2835703, Lng : -123.1150206, Q1 : 0.999998211861, Q2 : -0.000205662567168, Q3 : -0.000320758612361, Q4 : -0.00185377686284}
2019-04-14 02:07:29.81: SIM {TimeUS : 52434851, Roll : 0.0, Pitch : -0.06, Yaw : 359.78, Alt : 47.5400009155, Lat : 49.2835703, Lng : -123.1150206, Q1 : 0.999998092651, Q2 : -6.20087230345e-05, Q3 : -0.000538104621228, Q4 : -0.00186969537754}
2019-04-14 02:07:29.91: SIM {TimeUS : 52534811, Roll : 0.0, Pitch : -0.1, Yaw : 359.78, Alt : 47.7200012207, Lat : 49.2835703, Lng : -123.1150206, Q1 : 0.999997794628, Q2 : -4.49790568382e-05, Q3 : -0.000906713190489, Q4 : -0.00188574101776}
2019-04-14 02:07:30.01: SIM {TimeUS : 52634771, Roll : 0.0, Pitch : -0.14, Yaw : 359.78, Alt : 47.8899993896, Lat : 49.2835703, Lng : -123.1150206, Q1 : 0.999997377396, Q2 : -6.97630675859e-05, Q3 : -0.00129925005604, Q4 : -0.00189930049237}
2019-04-14 02:07:30.11: SIM {TimeUS : 52734731, Roll : 0.01, Pitch : -0.16, Yaw : 359.78, Alt : 48.0400009155, Lat : 49.2835703, Lng : -123.1150206, Q1 : 0.999997138977, Q2 : 0.000149981249706, Q3 : -0.00140970584471, Q4 : -0.0019197127549}
2019-04-14 02:07:30.21: SIM {TimeUS : 52834691, Roll : 0.04, Pitch : -0.14, Yaw : 359.77, Alt : 48.1899986267, Lat : 49.2835703, Lng : -123.1150206, Q1 : 0.999997258186, Q2 : 0.000430269836215, Q3 : -0.00125026737805, Q4 : -0.00194449094124}
2019-04-14 02:07:30.31: SIM {TimeUS : 52934651, Roll : 0.07, Pitch : -0.1, Yaw : 359.77, Alt : 48.3199996948, Lat : 49.2835703, Lng : -123.1150206, Q1 : 0.999997377396, Q2 : 0.000650721194688, Q3 : -0.000956425385084, Q4 : -0.0019749479834}
2019-04-14 02:07:30.41: SIM {TimeUS : 53034611, Roll : 0.08, Pitch : -0.06, Yaw : 359.76, Alt : 48.4399986267, Lat : 49.2835703, Lng : -123.1150206, Q1 : 0.99999755621, Q2 : 0.000698260264471, Q3 : -0.000599980412517, Q4 : -0.0020070571918}
2019-04-14 02:07:30.51: SIM {TimeUS : 53134571, Roll : 0.08, Pitch : -0.04, Yaw : 359.76, Alt : 48.5499992371, Lat : 49.2835704, Lng : -123.1150206, Q1 : 0.999997615814, Q2 : 0.000720149080735, Q3 : -0.000357280950993, Q4 : -0.00203470536508}
2019-04-14 02:07:30.62: SIM {TimeUS : 53235364, Roll : 0.06, Pitch : -0.04, Yaw : 359.76, Alt : 48.6500015259, Lat : 49.2835704, Lng : -123.1150206, Q1 : 0.999997615814, Q2 : 0.000586298585404, Q3 : -0.000359182595275, Q4 : -0.00206022663042}
2019-04-14 02:07:30.71: SIM {TimeUS : 53335324, Roll : 0.03, Pitch : -0.04, Yaw : 359.76, Alt : 48.7299995422, Lat : 49.2835704, Lng : -123.1150206, Q1 : 0.999997675419, Q2 : 0.000298120430671, Q3 : -0.000419678399339, Q4 : -0.00208447757177}
2019-04-14 02:07:30.81: SIM {TimeUS : 53435284, Roll : 0.01, Pitch : -0.04, Yaw : 359.75, Alt : 48.7999992371, Lat : 49.2835704, Lng : -123.1150206, Q1 : 0.999997675419, Q2 : 0.000117684357974, Q3 : -0.000373516202671, Q4 : -0.00210985424928}
2019-04-14 02:07:30.91: SIM {TimeUS : 53535244, Roll : 0.0, Pitch : -0.03, Yaw : 359.75, Alt : 48.8699989319, Lat : 49.2835704, Lng : -123.1150206, Q1 : 0.999997675419, Q2 : -2.85507866238e-07, Q3 : -0.000294135155855, Q4 : -0.00213878368959}
2019-04-14 02:07:31.01: SIM {TimeUS : 53635204, Roll : 0.0, Pitch : -0.01, Yaw : 359.75, Alt : 48.9199981689, Lat : 49.2835704, Lng : -123.1150206, Q1 : 0.999997615814, Q2 : -6.69429573463e-05, Q3 : -0.00012437539408, Q4 : -0.00217253225856}
2019-04-14 02:07:31.11: SIM {TimeUS : 53735164, Roll : 0.01, Pitch : 0.02, Yaw : 359.74, Alt : 48.9700012207, Lat : 49.2835704, Lng : -123.1150206, Q1 : 0.99999755621, Q2 : 0.000114085691166, Q3 : 0.000174453612999, Q4 : -0.00220778002404}
2019-04-14 02:07:31.21: SIM {TimeUS : 53835124, Roll : 0.07, Pitch : 0.02, Yaw : 359.74, Alt : 49.0099983215, Lat : 49.2835704, Lng : -123.1150206, Q1 : 0.999997258186, Q2 : 0.000623487692792, Q3 : 0.000222579285037, Q4 : -0.00223803101107}
2019-04-14 02:07:31.31: SIM {TimeUS : 53935084, Roll : 0.25, Pitch : -0.09, Yaw : 359.73, Alt : 49.0400009155, Lat : 49.2835704, Lng : -123.1150206, Q1 : 0.999994635582, Q2 : 0.00222496595234, Q3 : -0.000795088650193, Q4 : -0.00226824078709}
2019-04-14 02:07:31.41: SIM {TimeUS : 54035044, Roll : 0.62, Pitch : -0.36, Yaw : 359.73, Alt : 49.0699996948, Lat : 49.2835704, Lng : -123.1150206, Q1 : 0.99997740984, Q2 : 0.00545708509162, Q3 : -0.00318652018905, Q4 : -0.00229296158068}
2019-04-14 02:07:31.51: SIM {TimeUS : 54135004, Roll : 1.19, Pitch : -0.8, Yaw : 359.72, Alt : 49.0999984741, Lat : 49.2835704, Lng : -123.1150206, Q1 : 0.999917864799, Q2 : 0.0104347970337, Q3 : -0.0070738401264, Q4 : -0.00231395056471}
2019-04-14 02:07:31.61: SIM {TimeUS : 54234964, Roll : 1.94, Pitch : -1.37, Yaw : 359.71, Alt : 49.1199989319, Lat : 49.2835706, Lng : -123.1150205, Q1 : 0.999781250954, Q2 : 0.0169623494148, Q3 : -0.0120188416913, Q4 : -0.00230989442207}
2019-04-14 02:07:31.71: SIM {TimeUS : 54334924, Roll : 2.79, Pitch : -1.97, Yaw : 359.69, Alt : 49.1399993896, Lat : 49.2835706, Lng : -123.1150205, Q1 : 0.999551892281, Q2 : 0.0243192221969, Q3 : -0.0173045825213, Q4 : -0.00226058578119}
2019-04-14 02:07:31.81: SIM {TimeUS : 54434884, Roll : 3.59, Pitch : -2.54, Yaw : 359.67, Alt : 49.1500015259, Lat : 49.2835707, Lng : -123.1150203, Q1 : 0.9992582798, Q2 : 0.031324993819, Q3 : -0.022292913869, Q4 : -0.00215558242053}
2019-04-14 02:07:31.91: SIM {TimeUS : 54534844, Roll : 4.26, Pitch : -3.0, Yaw : 359.66, Alt : 49.1699981689, Lat : 49.2835708, Lng : -123.1150201, Q1 : 0.998963236809, Q2 : 0.0371040776372, Q3 : -0.0263036936522, Q4 : -0.00197493517771}
2019-04-14 02:07:32.01: SIM {TimeUS : 54634804, Roll : 4.74, Pitch : -3.33, Yaw : 359.66, Alt : 49.1800003052, Lat : 49.2835709, Lng : -123.1150199, Q1 : 0.998718976974, Q2 : 0.0413060262799, Q3 : -0.0291753225029, Q4 : -0.00174359092489}
2019-04-14 02:07:32.11: SIM {TimeUS : 54734764, Roll : 5.09, Pitch : -3.58, Yaw : 359.67, Alt : 49.1899986267, Lat : 49.283571, Lng : -123.1150195, Q1 : 0.998525619507, Q2 : 0.0442959517241, Q3 : -0.0313407443464, Q4 : -0.00148798024748}
2019-04-14 02:07:32.21: SIM {TimeUS : 54834724, Roll : 5.37, Pitch : -3.8, Yaw : 359.68, Alt : 49.2000007629, Lat : 49.2835713, Lng : -123.115019, Q1 : 0.998349249363, Q2 : 0.0467877052724, Q3 : -0.0332902669907, Q4 : -0.00121834920719}
2019-04-14 02:07:32.31: SIM {TimeUS : 54934684, Roll : 5.67, Pitch : -4.01, Yaw : 359.69, Alt : 49.2099990845, Lat : 49.2835715, Lng : -123.1150185, Q1 : 0.998160898685, Q2 : 0.049408338964, Q3 : -0.0351126268506, Q4 : -0.000933432485908}
2019-04-14 02:07:32.41: SIM {TimeUS : 55034644, Roll : 5.99, Pitch : -4.21, Yaw : 359.7, Alt : 49.2200012207, Lat : 49.2835719, Lng : -123.1150178, Q1 : 0.997959554195, Q2 : 0.0521200299263, Q3 : -0.0368767827749, Q4 : -0.000649276422337}
2019-04-14 02:07:32.51: SIM {TimeUS : 55134604, Roll : 6.28, Pitch : -4.41, Yaw : 359.71, Alt : 49.2200012207, Lat : 49.2835721, Lng : -123.115017, Q1 : 0.997756481171, Q2 : 0.0547038428485, Q3 : -0.0385924316943, Q4 : -0.000381689664209}
2019-04-14 02:07:32.61: SIM {TimeUS : 55234564, Roll : 6.52, Pitch : -4.58, Yaw : 359.72, Alt : 49.2299995422, Lat : 49.2835726, Lng : -123.1150162, Q1 : 0.997583091259, Q2 : 0.0567629672587, Q3 : -0.0400746427476, Q4 : -0.000146561505971}
2019-04-14 02:07:32.72: SIM {TimeUS : 55335357, Roll : 6.7, Pitch : -4.7, Yaw : 359.73, Alt : 49.2400016785, Lat : 49.2835731, Lng : -123.1150151, Q1 : 0.997449576855, Q2 : 0.0583326034248, Q3 : -0.0411292165518, Q4 : 5.33589627594e-05}
2019-04-14 02:07:32.81: SIM {TimeUS : 55435317, Roll : 6.82, Pitch : -4.78, Yaw : 359.73, Alt : 49.2400016785, Lat : 49.2835734, Lng : -123.1150142, Q1 : 0.997357904911, Q2 : 0.059397302568, Q3 : -0.0418221205473, Q4 : 0.00020196098194}
2019-04-14 02:07:32.91: SIM {TimeUS : 55535277, Roll : 6.92, Pitch : -4.85, Yaw : 359.74, Alt : 49.25, Lat : 49.283574, Lng : -123.115013, Q1 : 0.997281610966, Q2 : 0.0602566190064, Q3 : -0.0424085110426, Q4 : 0.000301877735183}
2019-04-14 02:07:33.01: SIM {TimeUS : 55635237, Roll : 7.04, Pitch : -4.93, Yaw : 359.73, Alt : 49.25, Lat : 49.2835745, Lng : -123.1150118, Q1 : 0.997186124325, Q2 : 0.0613275319338, Q3 : -0.0431127958, Q4 : 0.000357372686267}
2019-04-14 02:07:33.11: SIM {TimeUS : 55735197, Roll : 7.32, Pitch : -4.94, Yaw : 359.79, Alt : 49.25, Lat : 49.2835751, Lng : -123.1150105, Q1 : 0.997029542923, Q2 : 0.0637672170997, Q3 : -0.043183658272, Q4 : 0.000998687348329}
2019-04-14 02:07:33.21: SIM {TimeUS : 55835157, Roll : 7.84, Pitch : -4.78, Yaw : 0.36, Alt : 49.2599983215, Lat : 49.2835758, Lng : -123.1150091, Q1 : 0.996773898602, Q2 : 0.0684686005116, Q3 : -0.041446801275, Q4 : 0.00600367225707}
2019-04-14 02:07:33.31: SIM {TimeUS : 55935117, Roll : 8.49, Pitch : -4.62, Yaw : 2.1, Alt : 49.2599983215, Lat : 49.2835764, Lng : -123.1150076, Q1 : 0.996220111847, Q2 : 0.0746915563941, Q3 : -0.0388934910297, Q4 : 0.021306199953}
2019-04-14 02:07:33.41: SIM {TimeUS : 56035077, Roll : 8.99, Pitch : -4.82, Yaw : 5.41, Alt : 49.2599983215, Lat : 49.2835771, Lng : -123.115006, Q1 : 0.994767069817, Q2 : 0.0802327394485, Q3 : -0.0382445901632, Q4 : 0.050383746624}
2019-04-14 02:07:33.51: SIM {TimeUS : 56135037, Roll : 9.12, Pitch : -5.56, Yaw : 10.25, Alt : 49.2599983215, Lat : 49.2835779, Lng : -123.1150043, Q1 : 0.991323411465, Q2 : 0.0834917500615, Q3 : -0.0410650186241, Q4 : 0.0928473472595}
2019-04-14 02:07:33.61: SIM {TimeUS : 56234997, Roll : 8.73, Pitch : -6.79, Yaw : 16.4, Alt : 49.2599983215, Lat : 49.2835786, Lng : -123.1150025, Q1 : 0.984511911869, Q2 : 0.0836798846722, Q3 : -0.0476167537272, Q4 : 0.146514832973}
2019-04-14 02:07:33.71: SIM {TimeUS : 56334957, Roll : 7.73, Pitch : -8.34, Yaw : 23.63, Alt : 49.2700004578, Lat : 49.2835794, Lng : -123.1150005, Q1 : 0.972994625568, Q2 : 0.0806678831577, Q3 : -0.0572773553431, Q4 : 0.208550959826}
2019-04-14 02:07:33.81: SIM {TimeUS : 56434917, Roll : 6.13, Pitch : -9.97, Yaw : 31.67, Alt : 49.2700004578, Lat : 49.28358, Lng : -123.1149984, Q1 : 0.955767929554, Q2 : 0.0749681591988, Q3 : -0.0689386278391, Q4 : 0.275925576687}
2019-04-14 02:07:33.91: SIM {TimeUS : 56534877, Roll : 4.02, Pitch : -11.45, Yaw : 40.26, Alt : 49.2700004578, Lat : 49.2835808, Lng : -123.1149962, Q1 : 0.932423591614, Q2 : 0.0671351775527, Q3 : -0.0815969258547, Q4 : 0.345573604107}
2019-04-14 02:07:34.01: SIM {TimeUS : 56634837, Roll : 1.28, Pitch : -12.57, Yaw : 49.0, Alt : 49.2700004578, Lat : 49.2835817, Lng : -123.114994, Q1 : 0.903907775879, Q2 : 0.0555648058653, Q3 : -0.0949922502041, Q4 : 0.413327723742}
2019-04-14 02:07:34.11: SIM {TimeUS : 56734797, Roll : -1.88, Pitch : -13.14, Yaw : 57.06, Alt : 49.2700004578, Lat : 49.2835825, Lng : -123.1149916, Q1 : 0.873566627502, Q2 : 0.0402614325285, Q3 : -0.108354978263, Q4 : 0.472778618336}
2019-04-14 02:07:34.21: SIM {TimeUS : 56834757, Roll : -4.88, Pitch : -13.18, Yaw : 63.58, Alt : 49.2700004578, Lat : 49.2835836, Lng : -123.1149891, Q1 : 0.846151530743, Q2 : 0.0244627129287, Q3 : -0.119809597731, Q4 : 0.518724262714}
2019-04-14 02:07:34.31: SIM {TimeUS : 56934717, Roll : -7.1, Pitch : -12.91, Yaw : 68.06, Alt : 49.2700004578, Lat : 49.2835847, Lng : -123.1149866, Q1 : 0.825760304928, Q2 : 0.0118202902377, Q3 : -0.127511441708, Q4 : 0.549291372299}
2019-04-14 02:07:34.41: SIM {TimeUS : 57034677, Roll : -8.25, Pitch : -12.62, Yaw : 70.47, Alt : 49.2700004578, Lat : 49.2835858, Lng : -123.114984, Q1 : 0.814253985882, Q2 : 0.0048497300595, Q3 : -0.13089427352, Q4 : 0.565538406372}
2019-04-14 02:07:34.51: SIM {TimeUS : 57134637, Roll : -8.35, Pitch : -12.53, Yaw : 71.07, Alt : 49.2700004578, Lat : 49.2835871, Lng : -123.1149814, Q1 : 0.811345696449, Q2 : 0.00434979004785, Q3 : -0.130737990141, Q4 : 0.569742798805}
2019-04-14 02:07:34.61: SIM {TimeUS : 57234597, Roll : -7.6, Pitch : -12.73, Yaw : 70.21, Alt : 49.2700004578, Lat : 49.2835885, Lng : -123.1149787, Q1 : 0.815478622913, Q2 : 0.0096824048087, Q3 : -0.128426611423, Q4 : 0.5642760396}
2019-04-14 02:07:34.71: SIM {TimeUS : 57334557, Roll : -6.23, Pitch : -13.2, Yaw : 68.25, Alt : 49.2700004578, Lat : 49.2835898, Lng : -123.114976, Q1 : 0.824570596218, Q2 : 0.0196699164808, Q3 : -0.125360012054, Q4 : 0.55134499073}
2019-04-14 02:07:34.82: SIM {TimeUS : 57435350, Roll : -4.48, Pitch : -13.89, Yaw : 65.52, Alt : 49.2700004578, Lat : 49.2835915, Lng : -123.1149732, Q1 : 0.83666485548, Q2 : 0.032743293792, Q3 : -0.122620373964, Q4 : 0.532807707787}
2019-04-14 02:07:34.91: SIM {TimeUS : 57535310, Roll : -2.57, Pitch : -14.62, Yaw : 62.37, Alt : 49.2799987793, Lat : 49.2835929, Lng : -123.1149703, Q1 : 0.8498031497, Q2 : 0.0468226186931, Q3 : -0.120435044169, Q4 : 0.511016249657}
2019-04-14 02:07:35.01: SIM {TimeUS : 57635270, Roll : -0.69, Pitch : -15.26, Yaw : 59.08, Alt : 49.2799987793, Lat : 49.2835946, Lng : -123.1149673, Q1 : 0.862660706043, Q2 : 0.0602581240237, Q3 : -0.118506900966, Q4 : 0.487997502089}
2019-04-14 02:07:35.11: SIM {TimeUS : 57735230, Roll : 0.99, Pitch : -15.68, Yaw : 56.0, Alt : 49.2799987793, Lat : 49.2835963, Lng : -123.1149642, Q1 : 0.874074041843, Q2 : 0.0716653317213, Q3 : -0.116463162005, Q4 : 0.466149091721}
2019-04-14 02:07:35.21: SIM {TimeUS : 57835190, Roll : 2.35, Pitch : -15.88, Yaw : 53.43, Alt : 49.2799987793, Lat : 49.283598, Lng : -123.114961, Q1 : 0.8832026124, Q2 : 0.0802627652884, Q3 : -0.114225581288, Q4 : 0.447731524706}
2019-04-14 02:07:35.31: SIM {TimeUS : 57935150, Roll : 3.27, Pitch : -15.91, Yaw : 51.58, Alt : 49.2799987793, Lat : 49.2835996, Lng : -123.1149577, Q1 : 0.889628589153, Q2 : 0.085667155683, Q3 : -0.112247526646, Q4 : 0.434307038784}
2019-04-14 02:07:35.41: SIM {TimeUS : 58035110, Roll : 3.7, Pitch : -15.86, Yaw : 50.53, Alt : 49.2799987793, Lat : 49.2836013, Lng : -123.1149543, Q1 : 0.89330381155, Q2 : 0.0878290310502, Q3 : -0.111048191786, Q4 : 0.426570802927}
2019-04-14 02:07:35.51: SIM {TimeUS : 58135070, Roll : 3.66, Pitch : -15.82, Yaw : 50.26, Alt : 49.2799987793, Lat : 49.283603, Lng : -123.1149507, Q1 : 0.894396305084, Q2 : 0.0870752856135, Q3 : -0.111136481166, Q4 : 0.424407631159}
2019-04-14 02:07:35.61: SIM {TimeUS : 58235030, Roll : 3.22, Pitch : -15.82, Yaw : 50.66, Alt : 49.2799987793, Lat : 49.2836047, Lng : -123.114947, Q1 : 0.893236637115, Q2 : 0.0840751975775, Q3 : -0.112436808646, Q4 : 0.427103787661}
2019-04-14 02:07:35.71: SIM {TimeUS : 58334990, Roll : 2.53, Pitch : -15.87, Yaw : 51.57, Alt : 49.2799987793, Lat : 49.2836063, Lng : -123.1149432, Q1 : 0.890247404575, Q2 : 0.0797599181533, Q3 : -0.114811047912, Q4 : 0.433493167162}
2019-04-14 02:07:35.81: SIM {TimeUS : 58434950, Roll : 1.66, Pitch : -15.98, Yaw : 52.81, Alt : 49.2799987793, Lat : 49.283608, Lng : -123.1149393, Q1 : 0.885984361172, Q2 : 0.074689052999, Q3 : -0.118113160133, Q4 : 0.442156732082}
2019-04-14 02:07:35.91: SIM {TimeUS : 58534910, Roll : 0.77, Pitch : -16.12, Yaw : 54.18, Alt : 49.2799987793, Lat : 49.2836098, Lng : -123.1149354, Q1 : 0.881030797958, Q2 : 0.069784604013, Q3 : -0.12179312855, Q4 : 0.451753616333}
2019-04-14 02:07:36.01: SIM {TimeUS : 58634870, Roll : -0.02, Pitch : -16.23, Yaw : 55.52, Alt : 49.2799987793, Lat : 49.2836116, Lng : -123.1149313, Q1 : 0.876040101051, Q2 : 0.0655573233962, Q3 : -0.125076621771, Q4 : 0.461098521948}
2019-04-14 02:07:36.11: SIM {TimeUS : 58734830, Roll : -0.68, Pitch : -16.31, Yaw : 56.68, Alt : 49.2799987793, Lat : 49.2836134, Lng : -123.1149272, Q1 : 0.87159538269, Q2 : 0.0621612071991, Q3 : -0.127693742514, Q4 : 0.46920338273}
2019-04-14 02:07:36.21: SIM {TimeUS : 58834790, Roll : -1.16, Pitch : -16.37, Yaw : 57.57, Alt : 49.2900009155, Lat : 49.2836152, Lng : -123.1149231, Q1 : 0.868115186691, Q2 : 0.059755962342, Q3 : -0.129666179419, Q4 : 0.475386053324}
2019-04-14 02:07:36.31: SIM {TimeUS : 58934750, Roll : -1.44, Pitch : -16.42, Yaw : 58.14, Alt : 49.2900009155, Lat : 49.2836171, Lng : -123.1149189, Q1 : 0.865845620632, Q2 : 0.0584935992956, Q3 : -0.130927413702, Q4 : 0.479320198298}
2019-04-14 02:07:36.41: SIM {TimeUS : 59034710, Roll : -1.52, Pitch : -16.47, Yaw : 58.38, Alt : 49.2900009155, Lat : 49.2836189, Lng : -123.1149147, Q1 : 0.86484926939, Q2 : 0.0583708919585, Q3 : -0.131536781788, Q4 : 0.480964303017}
2019-04-14 02:07:36.51: SIM {TimeUS : 59134670, Roll : -1.43, Pitch : -16.52, Yaw : 58.31, Alt : 49.2900009155, Lat : 49.2836208, Lng : -123.1149104, Q1 : 0.865028858185, Q2 : 0.059193469584, Q3 : -0.131476864219, Q4 : 0.480557024479}
2019-04-14 02:07:36.61: SIM {TimeUS : 59234630, Roll : -1.18, Pitch : -16.56, Yaw : 58.0, Alt : 49.2900009155, Lat : 49.2836227, Lng : -123.1149061, Q1 : 0.866141915321, Q2 : 0.0608563274145, Q3 : -0.130928039551, Q4 : 0.478489905596}
2019-04-14 02:07:36.71: SIM {TimeUS : 59334590, Roll : -0.84, Pitch : -16.59, Yaw : 57.53, Alt : 49.2900009155, Lat : 49.2836248, Lng : -123.1149017, Q1 : 0.867892026901, Q2 : 0.0630589798093, Q3 : -0.130048751831, Q4 : 0.47526243329}
2019-04-14 02:07:36.81: SIM {TimeUS : 59434550, Roll : -0.46, Pitch : -16.63, Yaw : 56.97, Alt : 49.2900009155, Lat : 49.2836268, Lng : -123.1148973, Q1 : 0.869960546494, Q2 : 0.0654798075557, Q3 : -0.129070192575, Q4 : 0.471404224634}
2019-04-14 02:07:36.92: SIM {TimeUS : 59535343, Roll : -0.08, Pitch : -16.67, Yaw : 56.39, Alt : 49.2900009155, Lat : 49.2836287, Lng : -123.1148928, Q1 : 0.872076570988, Q2 : 0.0678831636906, Q3 : -0.128093481064, Q4 : 0.467403948307}
2019-04-14 02:07:37.01: SIM {TimeUS : 59635303, Roll : 0.25, Pitch : -16.7, Yaw : 55.86, Alt : 49.2900009155, Lat : 49.2836308, Lng : -123.1148884, Q1 : 0.873972058296, Q2 : 0.0699542835355, Q3 : -0.127326801419, Q4 : 0.463753283024}
2019-04-14 02:07:37.11: SIM {TimeUS : 59735263, Roll : 0.49, Pitch : -16.73, Yaw : 55.43, Alt : 49.2900009155, Lat : 49.2836329, Lng : -123.1148838, Q1 : 0.875516891479, Q2 : 0.0714420229197, Q3 : -0.126817271113, Q4 : 0.460742413998}
2019-04-14 02:07:37.21: SIM {TimeUS : 59835223, Roll : 0.63, Pitch : -16.76, Yaw : 55.13, Alt : 49.2900009155, Lat : 49.2836348, Lng : -123.1148793, Q1 : 0.876595616341, Q2 : 0.0723499208689, Q3 : -0.126690030098, Q4 : 0.458579659462}
2019-04-14 02:07:37.31: SIM {TimeUS : 59935183, Roll : 0.68, Pitch : -16.81, Yaw : 54.97, Alt : 49.2900009155, Lat : 49.283637, Lng : -123.1148746, Q1 : 0.877168953419, Q2 : 0.072737403214, Q3 : -0.126925364137, Q4 : 0.457355320454}
2019-04-14 02:07:37.41: SIM {TimeUS : 60035143, Roll : 0.65, Pitch : -16.86, Yaw : 54.93, Alt : 49.2900009155, Lat : 49.283639, Lng : -123.11487, Q1 : 0.877278089523, Q2 : 0.0726463794708, Q3 : -0.127483204007, Q4 : 0.457005172968}
2019-04-14 02:07:37.51: SIM {TimeUS : 60135103, Roll : 0.53, Pitch : -16.9, Yaw : 55.0, Alt : 49.2900009155, Lat : 49.2836412, Lng : -123.1148653, Q1 : 0.877020835876, Q2 : 0.0720025897026, Q3 : -0.128206819296, Q4 : 0.457398235798}
2019-04-14 02:07:37.61: SIM {TimeUS : 60235063, Roll : 0.37, Pitch : -16.93, Yaw : 55.15, Alt : 49.2999992371, Lat : 49.2836432, Lng : -123.1148605, Q1 : 0.87649923563, Q2 : 0.0709953084588, Q3 : -0.128995910287, Q4 : 0.458332657814}
2019-04-14 02:07:37.71: SIM {TimeUS : 60335023, Roll : 0.18, Pitch : -16.95, Yaw : 55.34, Alt : 49.2999992371, Lat : 49.2836452, Lng : -123.1148558, Q1 : 0.875804007053, Q2 : 0.0699055418372, Q3 : -0.129837483168, Q4 : 0.459589868784}
2019-04-14 02:07:37.81: SIM {TimeUS : 60434983, Roll : 0.02, Pitch : -16.99, Yaw : 55.55, Alt : 49.2999992371, Lat : 49.2836475, Lng : -123.1148509, Q1 : 0.875023841858, Q2 : 0.0690470337868, Q3 : -0.130642548203, Q4 : 0.460975408554}
2019-04-14 02:07:37.91: SIM {TimeUS : 60534943, Roll : -0.09, Pitch : -17.03, Yaw : 55.75, Alt : 49.2999992371, Lat : 49.2836495, Lng : -123.1148461, Q1 : 0.874263107777, Q2 : 0.068524941802, Q3 : -0.131281390786, Q4 : 0.462313294411}
2019-04-14 02:07:38.01: SIM {TimeUS : 60634903, Roll : -0.16, Pitch : -17.07, Yaw : 55.91, Alt : 49.2999992371, Lat : 49.2836517, Lng : -123.1148413, Q1 : 0.87359559536, Q2 : 0.0683887451887, Q3 : -0.13181643188, Q4 : 0.463441640139}
2019-04-14 02:07:38.11: SIM {TimeUS : 60734863, Roll : -0.18, Pitch : -17.13, Yaw : 56.03, Alt : 49.2999992371, Lat : 49.2836539, Lng : -123.1148364, Q1 : 0.873086571693, Q2 : 0.0685407817364, Q3 : -0.132240757346, Q4 : 0.464256882668}
2019-04-14 02:07:38.21: SIM {TimeUS : 60834823, Roll : -0.2, Pitch : -17.16, Yaw : 56.09, Alt : 49.2999992371, Lat : 49.283656, Lng : -123.1148315, Q1 : 0.872802078724, Q2 : 0.0686518326402, Q3 : -0.132543757558, Q4 : 0.464688688517}
2019-04-14 02:07:38.31: SIM {TimeUS : 60934783, Roll : -0.2, Pitch : -17.18, Yaw : 56.1, Alt : 49.2999992371, Lat : 49.2836582, Lng : -123.1148266, Q1 : 0.872750997543, Q2 : 0.0686999633908, Q3 : -0.132727518678, Q4 : 0.464725106955}
2019-04-14 02:07:38.41: SIM {TimeUS : 61034743, Roll : -0.19, Pitch : -17.2, Yaw : 56.05, Alt : 49.2999992371, Lat : 49.2836603, Lng : -123.1148217, Q1 : 0.872895002365, Q2 : 0.0688072890043, Q3 : -0.132837444544, Q4 : 0.464407235384}
2019-04-14 02:07:38.51: SIM {TimeUS : 61134703, Roll : -0.15, Pitch : -17.21, Yaw : 55.98, Alt : 49.3100013733, Lat : 49.2836626, Lng : -123.1148167, Q1 : 0.873176336288, Q2 : 0.0690849050879, Q3 : -0.132759347558, Q4 : 0.46385923028}
2019-04-14 02:07:38.61: SIM {TimeUS : 61234663, Roll : -0.08, Pitch : -17.22, Yaw : 55.87, Alt : 49.3100013733, Lat : 49.2836647, Lng : -123.1148117, Q1 : 0.873536407948, Q2 : 0.0694967135787, Q3 : -0.132605701685, Q4 : 0.463163167238}
2019-04-14 02:07:38.71: SIM {TimeUS : 61334623, Roll : 0.0, Pitch : -17.24, Yaw : 55.76, Alt : 49.3100013733, Lat : 49.283667, Lng : -123.1148067, Q1 : 0.873897373676, Q2 : 0.0701476708055, Q3 : -0.132533237338, Q4 : 0.462404161692}
2019-04-14 02:07:38.81: SIM {TimeUS : 61434583, Roll : 0.09, Pitch : -17.3, Yaw : 55.65, Alt : 49.3100013733, Lat : 49.2836693, Lng : -123.1148017, Q1 : 0.874225854874, Q2 : 0.0709090009332, Q3 : -0.132658272982, Q4 : 0.461630731821}
2019-04-14 02:07:38.91: SIM {TimeUS : 61534543, Roll : 0.15, Pitch : -17.33, Yaw : 55.55, Alt : 49.3100013733, Lat : 49.2836714, Lng : -123.1147967, Q1 : 0.874543488026, Q2 : 0.0714693814516, Q3 : -0.132729709148, Q4 : 0.460921496153}
2019-04-14 02:07:39.02: SIM {TimeUS : 61635336, Roll : 0.2, Pitch : -17.35, Yaw : 55.47, Alt : 49.3100013733, Lat : 49.2836737, Lng : -123.1147916, Q1 : 0.874829232693, Q2 : 0.0717899352312, Q3 : -0.132677972317, Q4 : 0.46034398675}
2019-04-14 02:07:39.11: SIM {TimeUS : 61735296, Roll : 0.22, Pitch : -17.36, Yaw : 55.41, Alt : 49.3100013733, Lat : 49.283676, Lng : -123.1147865, Q1 : 0.875044882298, Q2 : 0.0718726143241, Q3 : -0.132721245289, Q4 : 0.459908604622}
2019-04-14 02:07:39.21: SIM {TimeUS : 61835256, Roll : 0.21, Pitch : -17.38, Yaw : 55.38, Alt : 49.3100013733, Lat : 49.2836783, Lng : -123.1147814, Q1 : 0.875168919563, Q2 : 0.0718518048525, Q3 : -0.132973104715, Q4 : 0.459602922201}
2019-04-14 02:07:39.31: SIM {TimeUS : 61935216, Roll : 0.19, Pitch : -17.41, Yaw : 55.36, Alt : 49.3100013733, Lat : 49.2836804, Lng : -123.1147763, Q1 : 0.87520802021, Q2 : 0.0718349143863, Q3 : -0.133229106665, Q4 : 0.459456950426}
2019-04-14 02:07:39.41: SIM {TimeUS : 62035176, Roll : 0.17, Pitch : -17.44, Yaw : 55.36, Alt : 49.3100013733, Lat : 49.2836828, Lng : -123.1147711, Q1 : 0.875182807446, Q2 : 0.0717898830771, Q3 : -0.133542835712, Q4 : 0.459420949221}
2019-04-14 02:07:39.51: SIM {TimeUS : 62135136, Roll : 0.15, Pitch : -17.46, Yaw : 55.37, Alt : 49.3100013733, Lat : 49.2836851, Lng : -123.114766, Q1 : 0.875121355057, Q2 : 0.0717296227813, Q3 : -0.133800730109, Q4 : 0.45947226882}
2019-04-14 02:07:39.61: SIM {TimeUS : 62235096, Roll : 0.14, Pitch : -17.49, Yaw : 55.39, Alt : 49.3100013733, Lat : 49.2836874, Lng : -123.1147608, Q1 : 0.875028610229, Q2 : 0.0717463865876, Q3 : -0.134049341083, Q4 : 0.459573954344}
2019-04-14 02:07:39.71: SIM {TimeUS : 62335056, Roll : 0.12, Pitch : -17.5, Yaw : 55.41, Alt : 49.3199996948, Lat : 49.2836896, Lng : -123.1147557, Q1 : 0.874939918518, Q2 : 0.0717455372214, Q3 : -0.134238243103, Q4 : 0.459687769413}
2019-04-14 02:07:39.81: SIM {TimeUS : 62435016, Roll : 0.12, Pitch : -17.52, Yaw : 55.43, Alt : 49.3199996948, Lat : 49.2836919, Lng : -123.1147505, Q1 : 0.874854981899, Q2 : 0.0718276649714, Q3 : -0.134376913309, Q4 : 0.459796100855}
2019-04-14 02:07:39.91: SIM {TimeUS : 62534976, Roll : 0.13, Pitch : -17.54, Yaw : 55.44, Alt : 49.3199996948, Lat : 49.2836943, Lng : -123.1147453, Q1 : 0.874785244465, Q2 : 0.0719655007124, Q3 : -0.134509891272, Q4 : 0.45986828208}
2019-04-14 02:07:40.01: SIM {TimeUS : 62634936, Roll : 0.12, Pitch : -17.58, Yaw : 55.44, Alt : 49.3199996948, Lat : 49.2836966, Lng : -123.1147401, Q1 : 0.874736368656, Q2 : 0.0720640867949, Q3 : -0.134799093008, Q4 : 0.459861218929}
2019-04-14 02:07:40.11: SIM {TimeUS : 62734896, Roll : 0.09, Pitch : -17.62, Yaw : 55.44, Alt : 49.3199996948, Lat : 49.2836989, Lng : -123.1147348, Q1 : 0.874718666077, Q2 : 0.0719700083137, Q3 : -0.135273769498, Q4 : 0.459770083427}
2019-04-14 02:07:40.21: SIM {TimeUS : 62834856, Roll : 0.06, Pitch : -17.66, Yaw : 55.43, Alt : 49.3199996948, Lat : 49.2837011, Lng : -123.1147296, Q1 : 0.87472474575, Q2 : 0.0719218850136, Q3 : -0.135709583759, Q4 : 0.459637761116}
2019-04-14 02:07:40.31: SIM {TimeUS : 62934816, Roll : 0.07, Pitch : -17.7, Yaw : 55.41, Alt : 49.3199996948, Lat : 49.2837034, Lng : -123.1147244, Q1 : 0.874747395515, Q2 : 0.0720838755369, Q3 : -0.135927498341, Q4 : 0.459504753351}
2019-04-14 02:07:40.41: SIM {TimeUS : 63034776, Roll : 0.1, Pitch : -17.69, Yaw : 55.39, Alt : 49.3199996948, Lat : 49.2837059, Lng : -123.114719, Q1 : 0.874821186066, Q2 : 0.072276674211, Q3 : -0.13580955565, Q4 : 0.459368795156}
2019-04-14 02:07:40.51: SIM {TimeUS : 63134736, Roll : 0.13, Pitch : -17.67, Yaw : 55.36, Alt : 49.3199996948, Lat : 49.2837082, Lng : -123.1147138, Q1 : 0.874931693077, Q2 : 0.0724030435085, Q3 : -0.135522559285, Q4 : 0.459223300219}
2019-04-14 02:07:40.61: SIM {TimeUS : 63234696, Roll : 0.14, Pitch : -17.66, Yaw : 55.33, Alt : 49.3199996948, Lat : 49.2837106, Lng : -123.1147085, Q1 : 0.875048220158, Q2 : 0.0724342986941, Q3 : -0.13536092639, Q4 : 0.45904392004}
2019-04-14 02:07:40.71: SIM {TimeUS : 63334656, Roll : 0.15, Pitch : -17.64, Yaw : 55.31, Alt : 49.3199996948, Lat : 49.2837129, Lng : -123.1147032, Q1 : 0.875173926353, Q2 : 0.0723563656211, Q3 : -0.135285824537, Q4 : 0.458838671446}
2019-04-14 02:07:40.81: SIM {TimeUS : 63434616, Roll : 0.14, Pitch : -17.63, Yaw : 55.28, Alt : 49.3199996948, Lat : 49.2837153, Lng : -123.1146979, Q1 : 0.875298321247, Q2 : 0.0722572952509, Q3 : -0.135234460235, Q4 : 0.458632051945}
2019-04-14 02:07:40.91: SIM {TimeUS : 63534576, Roll : 0.14, Pitch : -17.65, Yaw : 55.25, Alt : 49.3199996948, Lat : 49.2837175, Lng : -123.1146926, Q1 : 0.875385701656, Q2 : 0.0722670778632, Q3 : -0.135374799371, Q4 : 0.458422362804}
2019-04-14 02:07:41.01: SIM {TimeUS : 63634536, Roll : 0.14, Pitch : -17.68, Yaw : 55.23, Alt : 49.3199996948, Lat : 49.2837199, Lng : -123.1146873, Q1 : 0.875440239906, Q2 : 0.0723624527454, Q3 : -0.135648906231, Q4 : 0.458222150803}
2019-04-14 02:07:41.11: SIM {TimeUS : 63735329, Roll : 0.12, Pitch : -17.74, Yaw : 55.21, Alt : 49.3199996948, Lat : 49.2837223, Lng : -123.1146819, Q1 : 0.87546402216, Q2 : 0.0724479779601, Q3 : -0.13613550365, Q4 : 0.45801872015}
2019-04-14 02:07:41.21: SIM {TimeUS : 63835289, Roll : 0.12, Pitch : -17.79, Yaw : 55.19, Alt : 49.3300018311, Lat : 49.2837247, Lng : -123.1146766, Q1 : 0.87546902895, Q2 : 0.0725943893194, Q3 : -0.136609137058, Q4 : 0.457844942808}
2019-04-14 02:07:41.31: SIM {TimeUS : 63935249, Roll : 0.12, Pitch : -17.82, Yaw : 55.18, Alt : 49.3300018311, Lat : 49.2837271, Lng : -123.1146712, Q1 : 0.87548828125, Q2 : 0.0727399811149, Q3 : -0.136782348156, Q4 : 0.457733303308}
2019-04-14 02:07:41.41: SIM {TimeUS : 64035209, Roll : 0.13, Pitch : -17.84, Yaw : 55.17, Alt : 49.3300018311, Lat : 49.2837295, Lng : -123.1146658, Q1 : 0.875509440899, Q2 : 0.0728391185403, Q3 : -0.136928915977, Q4 : 0.457633256912}
2019-04-14 02:07:41.51: SIM {TimeUS : 64135169, Roll : 0.13, Pitch : -17.85, Yaw : 55.16, Alt : 49.3300018311, Lat : 49.2837319, Lng : -123.1146605, Q1 : 0.875541806221, Q2 : 0.0728753879666, Q3 : -0.137006148696, Q4 : 0.457542449236}
2019-04-14 02:07:41.61: SIM {TimeUS : 64235129, Roll : 0.15, Pitch : -17.84, Yaw : 55.15, Alt : 49.3300018311, Lat : 49.2837343, Lng : -123.1146551, Q1 : 0.875584959984, Q2 : 0.0729440897703, Q3 : -0.136872828007, Q4 : 0.457488745451}
2019-04-14 02:07:41.71: SIM {TimeUS : 64335089, Roll : 0.17, Pitch : -17.84, Yaw : 55.14, Alt : 49.3300018311, Lat : 49.2837367, Lng : -123.1146497, Q1 : 0.875602900982, Q2 : 0.0731446668506, Q3 : -0.136801362038, Q4 : 0.457443714142}
2019-04-14 02:07:41.81: SIM {TimeUS : 64435049, Roll : 0.19, Pitch : -17.87, Yaw : 55.13, Alt : 49.3300018311, Lat : 49.2837391, Lng : -123.1146443, Q1 : 0.875602662563, Q2 : 0.0733287706971, Q3 : -0.136927440763, Q4 : 0.457377046347}
2019-04-14 02:07:41.91: SIM {TimeUS : 64535009, Roll : 0.19, Pitch : -17.88, Yaw : 55.12, Alt : 49.3300018311, Lat : 49.2837415, Lng : -123.1146389, Q1 : 0.875610470772, Q2 : 0.0734485536814, Q3 : -0.137021973729, Q4 : 0.457314580679}
2019-04-14 02:07:42.01: SIM {TimeUS : 64634969, Roll : 0.2, Pitch : -17.88, Yaw : 55.11, Alt : 49.3300018311, Lat : 49.2837439, Lng : -123.1146335, Q1 : 0.87564009428, Q2 : 0.0734695866704, Q3 : -0.137026846409, Q4 : 0.457252979279}
2019-04-14 02:07:42.11: SIM {TimeUS : 64734929, Roll : 0.19, Pitch : -17.89, Yaw : 55.1, Alt : 49.3300018311, Lat : 49.2837463, Lng : -123.1146281, Q1 : 0.875675916672, Q2 : 0.0734020993114, Q3 : -0.137129515409, Q4 : 0.457164466381}
2019-04-14 02:07:42.21: SIM {TimeUS : 64834889, Roll : 0.16, Pitch : -17.92, Yaw : 55.09, Alt : 49.3300018311, Lat : 49.2837486, Lng : -123.1146227, Q1 : 0.875704944134, Q2 : 0.0732655152678, Q3 : -0.137461751699, Q4 : 0.457030951977}
2019-04-14 02:07:42.31: SIM {TimeUS : 64934849, Roll : 0.12, Pitch : -17.96, Yaw : 55.08, Alt : 49.3300018311, Lat : 49.283751, Lng : -123.1146173, Q1 : 0.875725150108, Q2 : 0.0731231421232, Q3 : -0.137963339686, Q4 : 0.456863880157}
2019-04-14 02:07:42.41: SIM {TimeUS : 65034809, Roll : 0.1, Pitch : -17.98, Yaw : 55.06, Alt : 49.3300018311, Lat : 49.2837534, Lng : -123.1146118, Q1 : 0.875775873661, Q2 : 0.0730361118913, Q3 : -0.138154149055, Q4 : 0.456722825766}
2019-04-14 02:07:42.51: SIM {TimeUS : 65134769, Roll : 0.11, Pitch : -17.96, Yaw : 55.05, Alt : 49.3300018311, Lat : 49.2837558, Lng : -123.1146064, Q1 : 0.875842988491, Q2 : 0.0730462670326, Q3 : -0.138039112091, Q4 : 0.456627339125}
2019-04-14 02:07:42.61: SIM {TimeUS : 65234729, Roll : 0.13, Pitch : -17.95, Yaw : 55.03, Alt : 49.3300018311, Lat : 49.2837583, Lng : -123.1146009, Q1 : 0.875902175903, Q2 : 0.0731635987759, Q3 : -0.137859880924, Q4 : 0.456549137831}
2019-04-14 02:07:42.71: SIM {TimeUS : 65334689, Roll : 0.15, Pitch : -17.96, Yaw : 55.02, Alt : 49.3300018311, Lat : 49.2837607, Lng : -123.1145955, Q1 : 0.875944256783, Q2 : 0.0733145028353, Q3 : -0.137839645147, Q4 : 0.45645031333}
2019-04-14 02:07:42.81: SIM {TimeUS : 65434649, Roll : 0.15, Pitch : -17.97, Yaw : 55.0, Alt : 49.3400001526, Lat : 49.2837631, Lng : -123.11459, Q1 : 0.875989198685, Q2 : 0.0733199343085, Q3 : -0.137976497412, Q4 : 0.456321835518}
2019-04-14 02:07:42.91: SIM {TimeUS : 65534609, Roll : 0.13, Pitch : -17.99, Yaw : 54.99, Alt : 49.3400001526, Lat : 49.2837655, Lng : -123.1145846, Q1 : 0.876034617424, Q2 : 0.0732240527868, Q3 : -0.138189122081, Q4 : 0.456185728312}
2019-04-14 02:07:43.01: SIM {TimeUS : 65634569, Roll : 0.12, Pitch : -18.01, Yaw : 54.98, Alt : 49.3400001526, Lat : 49.283768, Lng : -123.1145791, Q1 : 0.876066088676, Q2 : 0.0731948688626, Q3 : -0.138399913907, Q4 : 0.456066012383}
2019-04-14 02:07:43.12: SIM {TimeUS : 65735362, Roll : 0.12, Pitch : -18.03, Yaw : 54.96, Alt : 49.3400001526, Lat : 49.2837704, Lng : -123.1145736, Q1 : 0.876086235046, Q2 : 0.0733220204711, Q3 : -0.138557061553, Q4 : 0.455959171057}
2019-04-14 02:07:43.21: SIM {TimeUS : 65835322, Roll : 0.14, Pitch : -18.05, Yaw : 54.95, Alt : 49.3400001526, Lat : 49.2837729, Lng : -123.1145681, Q1 : 0.876105427742, Q2 : 0.0734744817019, Q3 : -0.138624310493, Q4 : 0.455877333879}
2019-04-14 02:07:43.31: SIM {TimeUS : 65935282, Roll : 0.16, Pitch : -18.05, Yaw : 54.94, Alt : 49.3400001526, Lat : 49.2837753, Lng : -123.1145626, Q1 : 0.876116037369, Q2 : 0.0736780166626, Q3 : -0.138566225767, Q4 : 0.455841690302}
2019-04-14 02:07:43.41: SIM {TimeUS : 66035242, Roll : 0.18, Pitch : -18.06, Yaw : 54.94, Alt : 49.3400001526, Lat : 49.2837778, Lng : -123.1145571, Q1 : 0.876112222672, Q2 : 0.0738528370857, Q3 : -0.138574048877, Q4 : 0.455818414688}
2019-04-14 02:07:43.51: SIM {TimeUS : 66135202, Roll : 0.2, Pitch : -18.08, Yaw : 54.93, Alt : 49.3400001526, Lat : 49.2837802, Lng : -123.1145517, Q1 : 0.876104652882, Q2 : 0.0740179792047, Q3 : -0.138619467616, Q4 : 0.455792307854}
2019-04-14 02:07:43.61: SIM {TimeUS : 66235162, Roll : 0.21, Pitch : -18.09, Yaw : 54.93, Alt : 49.3400001526, Lat : 49.2837828, Lng : -123.1145462, Q1 : 0.876094818115, Q2 : 0.0741966217756, Q3 : -0.138656973839, Q4 : 0.455770790577}
2019-04-14 02:07:43.71: SIM {TimeUS : 66335122, Roll : 0.24, Pitch : -18.1, Yaw : 54.93, Alt : 49.3400001526, Lat : 49.2837851, Lng : -123.1145407, Q1 : 0.876079380512, Q2 : 0.0744217634201, Q3 : -0.138654828072, Q4 : 0.45576441288}
2019-04-14 02:07:43.81: SIM {TimeUS : 66435082, Roll : 0.26, Pitch : -18.12, Yaw : 54.92, Alt : 49.3400001526, Lat : 49.2837877, Lng : -123.1145352, Q1 : 0.876058101654, Q2 : 0.074671305716, Q3 : -0.138667136431, Q4 : 0.455760717392}
2019-04-14 02:07:43.91: SIM {TimeUS : 66535042, Roll : 0.25, Pitch : -18.12, Yaw : 54.92, Alt : 49.3400001526, Lat : 49.2837902, Lng : -123.1145297, Q1 : 0.876068770885, Q2 : 0.0746235698462, Q3 : -0.138721272349, Q4 : 0.455731570721}
2019-04-14 02:07:44.01: SIM {TimeUS : 66635002, Roll : 0.22, Pitch : -18.13, Yaw : 54.92, Alt : 49.3499984741, Lat : 49.2837926, Lng : -123.1145242, Q1 : 0.876088559628, Q2 : 0.0744225084782, Q3 : -0.138947725296, Q4 : 0.455657422543}
