2019-04-14 01:37:08.10: SIM {TimeUS : 39915694, Roll : 0.0, Pitch : 0.0, Yaw : 0.0, Alt : 30.1000003815, Lat : 49.28357, Lng : -123.11502, Q1 : 1.0, Q2 : 0.0, Q3 : 0.0, Q4 : 0.0}
2019-04-14 01:37:08.21: SIM {TimeUS : 40034813, Roll : 0.0, Pitch : 0.0, Yaw : 0.0, Alt : 30.1000003815, Lat : 49.28357, Lng : -123.11502, Q1 : 1.0, Q2 : 0.0, Q3 : 0.0, Q4 : 0.0}
2019-04-14 01:37:08.31: SIM {TimeUS : 40134773, Roll : 0.0, Pitch : 0.0, Yaw : 0.0, Alt : 30.1000003815, Lat : 49.28357, Lng : -123.11502, Q1 : 1.0, Q2 : 0.0, Q3 : 0.0, Q4 : 0.0}
2019-04-14 01:37:08.41: SIM {TimeUS : 40234733, Roll : 0.0, Pitch : 0.0, Yaw : 0.0, Alt : 30.1000003815, Lat : 49.28357, Lng : -123.11502, Q1 : 1.0, Q2 : 0.0, Q3 : 0.0, Q4 : 0.0}
2019-04-14 01:37:08.51: SIM {TimeUS : 40334693, Roll : 0.0, Pitch : 0.0, Yaw : 0.0, Alt : 30.1000003815, Lat : 49.28357, Lng : -123.11502, Q1 : 1.0, Q2 : 0.0, Q3 : 0.0, Q4 : 0.0}
2019-04-14 01:37:08.61: SIM {TimeUS : 40434653, Roll : 0.0, Pitch : 0.0, Yaw : 0.0, Alt : 30.1000003815, Lat : 49.28357, Lng : -123.11502, Q1 : 1.0, Q2 : 0.0, Q3 : 0.0, Q4 : 0.0}
2019-04-14 01:37:08.71: SIM {TimeUS : 40534613, Roll : 0.0, Pitch : 0.0, Yaw : 0.0, Alt : 30.1000003815, Lat : 49.28357, Lng : -123.11502, Q1 : 1.0, Q2 : 0.0, Q3 : 0.0, Q4 : 0.0}
2019-04-14 01:37:08.81: SIM {TimeUS : 40634573, Roll : 0.0, Pitch : 0.0, Yaw : 0.0, Alt : 30.1000003815, Lat : 49.28357, Lng : -123.11502, Q1 : 1.0, Q2 : 0.0, Q3 : 0.0, Q4 : 0.0}
2019-04-14 01:37:08.91: SIM {TimeUS : 40734533, Roll : 0.0, Pitch : 0.0, Yaw : 0.0, Alt : 30.1000003815, Lat : 49.28357, Lng : -123.11502, Q1 : 1.0, Q2 : 0.0, Q3 : 0.0, Q4 : 0.0}
2019-04-14 01:37:09.01: SIM {TimeUS : 40834493, Roll : 0.0, Pitch : 0.0, Yaw : 0.0, Alt : 30.1000003815, Lat : 49.28357, Lng : -123.11502, Q1 : 1.0, Q2 : 0.0, Q3 : 0.0, Q4 : 0.0}
2019-04-14 01:37:09.11: SIM {TimeUS : 40934453, Roll : 0.0, Pitch : 0.0, Yaw : 0.0, Alt : 30.1000003815, Lat : 49.28357, Lng : -123.11502, Q1 : 1.0, Q2 : 0.0, Q3 : 0.0, Q4 : 0.0}
2019-04-14 01:37:09.21: SIM {TimeUS : 41034413, Roll : 0.0, Pitch : 0.0, Yaw : 0.0, Alt : 30.1000003815, Lat : 49.28357, Lng : -123.11502, Q1 : 1.0, Q2 : 0.0, Q3 : 0.0, Q4 : 0.0}
2019-04-14 01:37:09.31: SIM {TimeUS : 41134373, Roll : 0.0, Pitch : 0.0, Yaw : 0.0, Alt : 30.1000003815, Lat : 49.28357, Lng : -123.11502, Q1 : 1.0, Q2 : 0.0, Q3 : 0.0, Q4 : 0.0}
2019-04-14 01:37:09.41: SIM {TimeUS : 41234333, Roll : 0.0, Pitch : 0.0, Yaw : 0.0, Alt : 30.1000003815, Lat : 49.28357, Lng : -123.11502, Q1 : 1.0, Q2 : 0.0, Q3 : 0.0, Q4 : 0.0}
2019-04-14 01:37:09.51: SIM {TimeUS : 41334293, Roll : 0.0, Pitch : 0.0, Yaw : 0.0, Alt : 30.1000003815, Lat : 49.28357, Lng : -123.11502, Q1 : 1.0, Q2 : 0.0, Q3 : 0.0, Q4 : 0.0}
2019-04-14 01:37:09.61: SIM {TimeUS : 41434253, Roll : 0.0, Pitch : 0.0, Yaw : 0.0, Alt : 30.1000003815, Lat : 49.28357, Lng : -123.11502, Q1 : 1.0, Q2 : 0.0, Q3 : 0.0, Q4 : 0.0}
2019-04-14 01:37:09.71: SIM {TimeUS : 41534213, Roll : 0.0, Pitch : 0.0, Yaw : 0.0, Alt : 30.1000003815, Lat : 49.28357, Lng : -123.11502, Q1 : 1.0, Q2 : 0.0, Q3 : 0.0, Q4 : 0.0}
2019-04-14 01:37:09.81: SIM {TimeUS : 41634173, Roll : 0.0, Pitch : 0.0, Yaw : 0.0, Alt : 30.1000003815, Lat : 49.28357, Lng : -123.11502, Q1 : 1.0, Q2 : 0.0, Q3 : 0.0, Q4 : 0.0}
2019-04-14 01:37:09.91: SIM {TimeUS : 41734133, Roll : 0.0, Pitch : 0.0, Yaw : 0.0, Alt : 30.1000003815, Lat : 49.28357, Lng : -123.11502, Q1 : 1.0, Q2 : 0.0, Q3 : 0.0, Q4 : 0.0}
2019-04-14 01:37:10.01: SIM {TimeUS : 41834093, Roll : 0.0, Pitch : 0.0, Yaw : 0.0, Alt : 30.1000003815, Lat : 49.28357, Lng : -123.11502, Q1 : 1.0, Q2 : 0.0, Q3 : 0.0, Q4 : 0.0}
2019-04-14 01:37:10.11: SIM {TimeUS : 41934053, Roll : 0.0, Pitch : 0.0, Yaw : 0.0, Alt : 30.1000003815, Lat : 49.28357, Lng : -123.11502, Q1 : 1.0, Q2 : 0.0, Q3 : 0.0, Q4 : 0.0}
2019-04-14 01:37:10.22: SIM {TimeUS : 42034846, Roll : 0.0, Pitch : 0.0, Yaw : 0.0, Alt : 30.1000003815, Lat : 49.28357, Lng : -123.11502, Q1 : 1.0, Q2 : 0.0, Q3 : 0.0, Q4 : 0.0}
2019-04-14 01:37:10.31: SIM {TimeUS : 42134806, Roll : 0.0, Pitch : 0.0, Yaw : 0.0, Alt : 30.1000003815, Lat : 49.28357, Lng : -123.11502, Q1 : 1.0, Q2 : 0.0, Q3 : 0.0, Q4 : 0.0}
2019-04-14 01:37:10.41: SIM {TimeUS : 42234766, Roll : 0.0, Pitch : 0.0, Yaw : 0.0, Alt : 30.1000003815, Lat : 49.28357, Lng : -123.11502, Q1 : 1.0, Q2 : 0.0, Q3 : 0.0, Q4 : 2.50972402582e-11}
2019-04-14 01:37:10.51: SIM {TimeUS : 42334726, Roll : 0.0, Pitch : 0.0, Yaw : 360.0, Alt : 30.1000003815, Lat : 49.28357, Lng : -123.11502, Q1 : 1.0, Q2 : 0.0, Q3 : 0.0, Q4 : -2.4248850039e-08}
2019-04-14 01:37:10.61: SIM {TimeUS : 42434686, Roll : 0.0, Pitch : 0.0, Yaw : 359.99, Alt : 30.1000003815, Lat : 49.28357, Lng : -123.11502, Q1 : 1.0, Q2 : 0.0, Q3 : 0.0, Q4 : -2.24946290928e-07}
2019-04-14 01:37:10.71: SIM {TimeUS : 42534646, Roll : 0.0, Pitch : 0.0, Yaw : 359.99, Alt : 30.1000003815, Lat : 49.28357, Lng : -123.11502, Q1 : 1.0, Q2 : 0.0, Q3 : 0.0, Q4 : -4.41146369212e-07}
2019-04-14 01:37:10.81: SIM {TimeUS : 42634606, Roll : 0.0, Pitch : 0.0, Yaw : 359.99, Alt : 30.1000003815, Lat : 49.28357, Lng : -123.11502, Q1 : 1.0, Q2 : 0.0, Q3 : 0.0, Q4 : -6.34636421637e-07}
2019-04-14 01:37:10.91: SIM {TimeUS : 42734566, Roll : 0.0, Pitch : 0.0, Yaw : 359.99, Alt : 30.1000003815, Lat : 49.28357, Lng : -123.11502, Q1 : 1.0, Q2 : 0.0, Q3 : 0.0, Q4 : -8.50598155466e-07}
2019-04-14 01:37:11.01: SIM {TimeUS : 42834526, Roll : 0.0, Pitch : 0.0, Yaw : 359.99, Alt : 30.1000003815, Lat : 49.28357, Lng : -123.11502, Q1 : 1.0, Q2 : 0.0, Q3 : 0.0, Q4 : -1.04896457742e-06}
2019-04-14 01:37:11.11: SIM {TimeUS : 42934486, Roll : 0.0, Pitch : 0.0, Yaw : 359.99, Alt : 30.1000003815, Lat : 49.28357, Lng : -123.11502, Q1 : 1.0, Q2 : 0.0, Q3 : 0.0, Q4 : -1.26881343476e-06}
2019-04-14 01:37:11.21: SIM {TimeUS : 43034446, Roll : 0.0, Pitch : 0.0, Yaw : 359.99, Alt : 30.1000003815, Lat : 49.28357, Lng : -123.11502, Q1 : 1.0, Q2 : 0.0, Q3 : 0.0, Q4 : -1.48331662331e-06}
2019-04-14 01:37:11.31: SIM {TimeUS : 43134406, Roll : 0.0, Pitch : 0.0, Yaw : 359.99, Alt : 30.1200008392, Lat : 49.28357, Lng : -123.11502, Q1 : 1.0, Q2 : 0.0, Q3 : 0.0, Q4 : -1.74808667452e-06}
2019-04-14 01:37:11.41: SIM {TimeUS : 43234366, Roll : 0.0, Pitch : 0.0, Yaw : 359.99, Alt : 30.1399993896, Lat : 49.28357, Lng : -123.11502, Q1 : 1.0, Q2 : 0.0, Q3 : 0.0, Q4 : -1.94063659364e-06}
2019-04-14 01:37:11.51: SIM {TimeUS : 43334326, Roll : 0.0, Pitch : 0.0, Yaw : 359.99, Alt : 30.1800003052, Lat : 49.28357, Lng : -123.11502, Q1 : 1.0, Q2 : 0.0, Q3 : 0.0, Q4 : -2.23048232328e-06}
2019-04-14 01:37:11.61: SIM {TimeUS : 43434286, Roll : 0.0, Pitch : 0.0, Yaw : 359.99, Alt : 30.2099990845, Lat : 49.28357, Lng : -123.11502, Q1 : 1.0, Q2 : -7.53603580961e-06, Q3 : -6.59044508211e-06, Q4 : -2.50803668678e-06}
2019-04-14 01:37:11.71: SIM {TimeUS : 43534246, Roll : -0.16, Pitch : -0.15, Yaw : 359.99, Alt : 30.2700004578, Lat : 49.28357, Lng : -123.11502, Q1 : 0.999997973442, Q2 : -0.0014807113912, Q3 : -0.00134852342308, Q4 : -1.90674527403e-05}
2019-04-14 01:37:11.81: SIM {TimeUS : 43634206, Roll : -0.45, Pitch : -0.44, Yaw : 359.99, Alt : 30.3899993896, Lat : 49.28357, Lng : -123.11502, Q1 : 0.999984502792, Q2 : -0.00396450888366, Q3 : -0.00391767919064, Q4 : -6.35455362499e-05}
2019-04-14 01:37:11.91: SIM {TimeUS : 43734166, Roll : -0.69, Pitch : -0.72, Yaw : 359.98, Alt : 30.5400009155, Lat : 49.28357, Lng : -123.11502, Q1 : 0.999961733818, Q2 : -0.00603875610977, Q3 : -0.00632828380913, Q4 : -0.000136546092108}
2019-04-14 01:37:12.01: SIM {TimeUS : 43834126, Roll : -0.79, Pitch : -0.84, Yaw : 359.97, Alt : 30.7000007629, Lat : 49.28357, Lng : -123.11502, Q1 : 0.999948680401, Q2 : -0.00696569448337, Q3 : -0.00735736778006, Q4 : -0.000227443495532}
2019-04-14 01:37:12.11: SIM {TimeUS : 43934086, Roll : -0.75, Pitch : -0.76, Yaw : 359.96, Alt : 30.8500003815, Lat : 49.28357, Lng : -123.1150201, Q1 : 0.999955832958, Q2 : -0.00661854445934, Q3 : -0.00666266959161, Q4 : -0.000323150248732}
2019-04-14 01:37:12.21: SIM {TimeUS : 44034046, Roll : -0.6, Pitch : -0.55, Yaw : 359.95, Alt : 31.0100002289, Lat : 49.2835701, Lng : -123.1150201, Q1 : 0.999974012375, Q2 : -0.00530075235292, Q3 : -0.00486421072856, Q4 : -0.000413548696088}
2019-04-14 01:37:12.32: SIM {TimeUS : 44134839, Roll : -0.4, Pitch : -0.31, Yaw : 359.94, Alt : 31.1599998474, Lat : 49.2835701, Lng : -123.1150202, Q1 : 0.999989926815, Q2 : -0.00352659937926, Q3 : -0.00274483044632, Q4 : -0.000489699887112}
2019-04-14 01:37:12.41: SIM {TimeUS : 44234799, Roll : -0.21, Pitch : -0.11, Yaw : 359.93, Alt : 31.3199996948, Lat : 49.2835702, Lng : -123.1150203, Q1 : 0.99999755621, Q2 : -0.00189684017096, Q3 : -0.000993630499579, Q4 : -0.000541041663382}
2019-04-14 01:37:12.51: SIM {TimeUS : 44334759, Roll : -0.07, Pitch : 0.01, Yaw : 359.93, Alt : 31.4899997711, Lat : 49.2835702, Lng : -123.1150204, Q1 : 0.999999582767, Q2 : -0.000656522810459, Q3 : 0.000114210437459, Q4 : -0.000576407008339}
2019-04-14 01:37:12.61: SIM {TimeUS : 44434719, Roll : 0.02, Pitch : 0.04, Yaw : 359.93, Alt : 31.6700000763, Lat : 49.2835702, Lng : -123.1150205, Q1 : 0.999999701977, Q2 : 0.000209003934287, Q3 : 0.000418217096012, Q4 : -0.000595212855842}
2019-04-14 01:37:12.71: SIM {TimeUS : 44534679, Roll : 0.07, Pitch : 0.03, Yaw : 359.93, Alt : 31.8400001526, Lat : 49.2835703, Lng : -123.1150205, Q1 : 0.999999582767, Q2 : 0.000635764969047, Q3 : 0.000329210743075, Q4 : -0.000604104716331}
2019-04-14 01:37:12.81: SIM {TimeUS : 44634639, Roll : 0.07, Pitch : 0.01, Yaw : 359.93, Alt : 32.0299987793, Lat : 49.2835703, Lng : -123.1150206, Q1 : 0.999999642372, Q2 : 0.000656423624605, Q3 : 0.000102566780697, Q4 : -0.000595097662881}
2019-04-14 01:37:12.91: SIM {TimeUS : 44734599, Roll : 0.06, Pitch : 0.0, Yaw : 359.93, Alt : 32.2099990845, Lat : 49.2835703, Lng : -123.1150207, Q1 : 0.999999701977, Q2 : 0.000543336325791, Q3 : -7.27626729713e-06, Q4 : -0.000575066020247}
2019-04-14 01:37:13.01: SIM {TimeUS : 44834559, Roll : 0.05, Pitch : 0.0, Yaw : 359.93, Alt : 32.4099998474, Lat : 49.2835703, Lng : -123.1150207, Q1 : 0.999999701977, Q2 : 0.000468658661703, Q3 : -1.9578876163e-05, Q4 : -0.000547913077753}
2019-04-14 01:37:13.11: SIM {TimeUS : 44934519, Roll : 0.05, Pitch : 0.01, Yaw : 359.93, Alt : 32.5999984741, Lat : 49.2835703, Lng : -123.1150208, Q1 : 0.999999701977, Q2 : 0.000519170600455, Q3 : 0.00012238547788, Q4 : -0.00052987789968}
2019-04-14 01:37:13.21: SIM {TimeUS : 45034479, Roll : 0.09, Pitch : 0.03, Yaw : 359.94, Alt : 32.7999992371, Lat : 49.2835703, Lng : -123.1150208, Q1 : 0.999999463558, Q2 : 0.000820298446342, Q3 : 0.000343084742781, Q4 : -0.00051277683815}
2019-04-14 01:37:13.31: SIM {TimeUS : 45134439, Roll : 0.14, Pitch : 0.06, Yaw : 359.94, Alt : 32.9900016785, Lat : 49.2835704, Lng : -123.1150208, Q1 : 0.999998927116, Q2 : 0.00125892588403, Q3 : 0.000595076300669, Q4 : -0.000508103519678}
2019-04-14 01:37:13.41: SIM {TimeUS : 45234399, Roll : 0.17, Pitch : 0.1, Yaw : 359.94, Alt : 33.2000007629, Lat : 49.2835704, Lng : -123.1150209, Q1 : 0.999998211861, Q2 : 0.00156036927365, Q3 : 0.000936997646932, Q4 : -0.000510222802404}
2019-04-14 01:37:13.51: SIM {TimeUS : 45334359, Roll : 0.18, Pitch : 0.13, Yaw : 359.94, Alt : 33.4000015259, Lat : 49.2835704, Lng : -123.1150209, Q1 : 0.999997913837, Q2 : 0.00159279664513, Q3 : 0.001200728002, Q4 : -0.000506637326907}
2019-04-14 01:37:13.61: SIM {TimeUS : 45434319, Roll : 0.16, Pitch : 0.15, Yaw : 359.94, Alt : 33.6100006104, Lat : 49.2835704, Lng : -123.1150209, Q1 : 0.999997854233, Q2 : 0.00146083114669, Q3 : 0.00138029910158, Q4 : -0.000505106465425}
2019-04-14 01:37:13.71: SIM {TimeUS : 45534279, Roll : 0.15, Pitch : 0.17, Yaw : 359.94, Alt : 33.8100013733, Lat : 49.2835704, Lng : -123.1150209, Q1 : 0.999997794628, Q2 : 0.00134598370641, Q3 : 0.00152474350762, Q4 : -0.0005083620199}
2019-04-14 01:37:13.81: SIM {TimeUS : 45634239, Roll : 0.15, Pitch : 0.17, Yaw : 359.94, Alt : 34.0200004578, Lat : 49.2835704, Lng : -123.1150209, Q1 : 0.999997794628, Q2 : 0.00136275170371, Q3 : 0.00151695730165, Q4 : -0.000518350047059}
2019-04-14 01:37:13.91: SIM {TimeUS : 45734199, Roll : 0.15, Pitch : 0.16, Yaw : 359.93, Alt : 34.2299995422, Lat : 49.2835706, Lng : -123.1150209, Q1 : 0.999997854233, Q2 : 0.00135569414124, Q3 : 0.00145310955122, Q4 : -0.000535063270945}
2019-04-14 01:37:14.01: SIM {TimeUS : 45834159, Roll : 0.13, Pitch : 0.15, Yaw : 359.93, Alt : 34.4399986267, Lat : 49.2835706, Lng : -123.1150209, Q1 : 0.999998152256, Q2 : 0.00121766084339, Q3 : 0.00137193826959, Q4 : -0.00055065396009}
2019-04-14 01:37:14.11: SIM {TimeUS : 45934119, Roll : 0.12, Pitch : 0.11, Yaw : 359.93, Alt : 34.6599998474, Lat : 49.2835706, Lng : -123.1150209, Q1 : 0.999998748302, Q2 : 0.00105216167867, Q3 : 0.00103646598291, Q4 : -0.000557676539756}
2019-04-14 01:37:14.21: SIM {TimeUS : 46034079, Roll : 0.09, Pitch : 0.06, Yaw : 359.93, Alt : 34.8699989319, Lat : 49.2835706, Lng : -123.1150209, Q1 : 0.999999284744, Q2 : 0.000872391916346, Q3 : 0.000566022761632, Q4 : -0.000554154918063}
2019-04-14 01:37:14.31: SIM {TimeUS : 46134039, Roll : 0.07, Pitch : 0.03, Yaw : 359.93, Alt : 35.0900001526, Lat : 49.2835706, Lng : -123.1150209, Q1 : 0.999999582767, Q2 : 0.000638508412521, Q3 : 0.000272349570878, Q4 : -0.000571551674511}
2019-04-14 01:37:14.42: SIM {TimeUS : 46234832, Roll : 0.05, Pitch : 0.02, Yaw : 359.92, Alt : 35.3100013733, Lat : 49.2835706, Lng : -123.1150208, Q1 : 0.999999642372, Q2 : 0.000487489975058, Q3 : 0.000190314211068, Q4 : -0.000616551726125}
2019-04-14 01:37:14.51: SIM {TimeUS : 46334792, Roll : 0.05, Pitch : 0.02, Yaw : 359.92, Alt : 35.5200004578, Lat : 49.2835706, Lng : -123.1150208, Q1 : 0.999999642372, Q2 : 0.000466383527964, Q3 : 0.000255735329119, Q4 : -0.000679369142745}
2019-04-14 01:37:14.61: SIM {TimeUS : 46434752, Roll : 0.04, Pitch : 0.02, Yaw : 359.91, Alt : 35.7400016785, Lat : 49.2835706, Lng : -123.1150208, Q1 : 0.999999642372, Q2 : 0.000382787227863, Q3 : 0.000260923057795, Q4 : -0.000742437143344}
2019-04-14 01:37:14.71: SIM {TimeUS : 46534712, Roll : 0.01, Pitch : 0.02, Yaw : 359.9, Alt : 35.9599990845, Lat : 49.2835706, Lng : -123.1150208, Q1 : 0.999999642372, Q2 : 0.000168314174516, Q3 : 0.000203029761906, Q4 : -0.000799070985522}
2019-04-14 01:37:14.81: SIM {TimeUS : 46634672, Roll : 0.0, Pitch : 0.01, Yaw : 359.9, Alt : 36.1800003052, Lat : 49.2835706, Lng : -123.1150208, Q1 : 0.999999642372, Q2 : -5.06642682012e-05, Q3 : 0.000173644832103, Q4 : -0.000843849731609}
2019-04-14 01:37:14.91: SIM {TimeUS : 46734632, Roll : -0.02, Pitch : 0.03, Yaw : 359.89, Alt : 36.4000015259, Lat : 49.2835706, Lng : -123.1150208, Q1 : 0.999999523163, Q2 : -0.000199536429136, Q3 : 0.000347941124346, Q4 : -0.000882521097083}
2019-04-14 01:37:15.01: SIM {TimeUS : 46834592, Roll : -0.03, Pitch : 0.04, Yaw : 359.89, Alt : 36.6300010681, Lat : 49.2835706, Lng : -123.1150207, Q1 : 0.999999463558, Q2 : -0.000271825148957, Q3 : 0.000406544830184, Q4 : -0.000921196187846}
2019-04-14 01:37:15.11: SIM {TimeUS : 46934552, Roll : -0.02, Pitch : 0.03, Yaw : 359.88, Alt : 36.8499984741, Lat : 49.2835706, Lng : -123.1150207, Q1 : 0.999999463558, Q2 : -0.000261293811491, Q3 : 0.000340706377756, Q4 : -0.000961699348409}
2019-04-14 01:37:15.21: SIM {TimeUS : 47034512, Roll : -0.02, Pitch : 0.03, Yaw : 359.88, Alt : 37.0699996948, Lat : 49.2835706, Lng : -123.1150207, Q1 : 0.999999403954, Q2 : -0.000250209384831, Q3 : 0.000278557126876, Q4 : -0.000995740643702}
2019-04-14 01:37:15.31: SIM {TimeUS : 47134472, Roll : -0.02, Pitch : 0.02, Yaw : 359.88, Alt : 37.2999992371, Lat : 49.2835704, Lng : -123.1150207, Q1 : 0.999999463558, Q2 : -0.000175189750735, Q3 : 0.000230149511481, Q4 : -0.00101668748539}
2019-04-14 01:37:15.41: SIM {TimeUS : 47234432, Roll : 0.0, Pitch : 0.02, Yaw : 359.88, Alt : 37.5200004578, Lat : 49.2835704, Lng : -123.1150207, Q1 : 0.999999463558, Q2 : -4.8901867558e-05, Q3 : 0.000186024743016, Q4 : -0.00102228543255}
2019-04-14 01:37:15.51: SIM {TimeUS : 47334392, Roll : -0.01, Pitch : 0.0, Yaw : 359.88, Alt : 37.75, Lat : 49.2835704, Lng : -123.1150207, Q1 : 0.999999463558, Q2 : -0.000126703860587, Q3 : 4.52193744422e-05, Q4 : -0.00101600273047}
2019-04-14 01:37:15.61: SIM {TimeUS : 47434352, Roll : -0.04, Pitch : -0.02, Yaw : 359.88, Alt : 37.9799995422, Lat : 49.2835704, Lng : -123.1150207, Q1 : 0.999999403954, Q2 : -0.000363925268175, Q3 : -0.000204966636375, Q4 : -0.00100236339495}
2019-04-14 01:37:15.71: SIM {TimeUS : 47534312, Roll : -0.07, Pitch : -0.04, Yaw : 359.88, Alt : 38.2000007629, Lat : 49.2835704, Lng : -123.1150207, Q1 : 0.99999922514, Q2 : -0.000629681628197, Q3 : -0.000370498979464, Q4 : -0.000990981119685}
2019-04-14 01:37:15.81: SIM {TimeUS : 47634272, Roll : -0.1, Pitch : -0.04, Yaw : 359.88, Alt : 38.4300003052, Lat : 49.2835704, Lng : -123.1150207, Q1 : 0.99999910593, Q2 : -0.000874523830134, Q3 : -0.000354492658516, Q4 : -0.00098908750806}
2019-04-14 01:37:15.91: SIM {TimeUS : 47734232, Roll : -0.11, Pitch : -0.03, Yaw : 359.88, Alt : 38.6599998474, Lat : 49.2835704, Lng : -123.1150206, Q1 : 0.999998927116, Q2 : -0.00100916833617, Q3 : -0.000308493821649, Q4 : -0.000989706255496}
2019-04-14 01:37:16.01: SIM {TimeUS : 47834192, Roll : -0.11, Pitch : -0.03, Yaw : 359.88, Alt : 38.8899993896, Lat : 49.2835704, Lng : -123.1150206, Q1 : 0.999998986721, Q2 : -0.000998860225081, Q3 : -0.000281651562545, Q4 : -0.00099042407237}
2019-04-14 01:37:16.11: SIM {TimeUS : 47934152, Roll : -0.09, Pitch : -0.02, Yaw : 359.88, Alt : 39.1199989319, Lat : 49.2835704, Lng : -123.1150206, Q1 : 0.99999910593, Q2 : -0.000856914266478, Q3 : -0.00021119255689, Q4 : -0.000997157068923}
2019-04-14 01:37:16.21: SIM {TimeUS : 48034112, Roll : -0.07, Pitch : -0.03, Yaw : 359.88, Alt : 39.3499984741, Lat : 49.2835704, Lng : -123.1150206, Q1 : 0.99999922514, Q2 : -0.000643724633846, Q3 : -0.000323344895151, Q4 : -0.00101540028118}
2019-04-14 01:37:16.31: SIM {TimeUS : 48134072, Roll : -0.05, Pitch : -0.05, Yaw : 359.87, Alt : 39.5800018311, Lat : 49.2835704, Lng : -123.1150206, Q1 : 0.99999922514, Q2 : -0.000504989060573, Q3 : -0.000470841187052, Q4 : -0.00104870612267}
2019-04-14 01:37:16.41: SIM {TimeUS : 48234032, Roll : -0.04, Pitch : -0.05, Yaw : 359.87, Alt : 39.8100013733, Lat : 49.2835704, Lng : -123.1150206, Q1 : 0.99999922514, Q2 : -0.00042688974645, Q3 : -0.000437812355813, Q4 : -0.00107366091106}
2019-04-14 01:37:16.52: SIM {TimeUS : 48334825, Roll : -0.06, Pitch : -0.02, Yaw : 359.87, Alt : 40.0400009155, Lat : 49.2835704, Lng : -123.1150206, Q1 : 0.99999922514, Q2 : -0.000540659180842, Q3 : -0.000192729610717, Q4 : -0.00110144761857}
2019-04-14 01:37:16.61: SIM {TimeUS : 48434785, Roll : -0.06, Pitch : 0.0, Yaw : 359.86, Alt : 40.2700004578, Lat : 49.2835704, Lng : -123.1150206, Q1 : 0.99999922514, Q2 : -0.000547303061467, Q3 : 8.46446928335e-05, Q4 : -0.00113574007992}
2019-04-14 01:37:16.71: SIM {TimeUS : 48534745, Roll : -0.04, Pitch : 0.05, Yaw : 359.86, Alt : 40.5099983215, Lat : 49.2835704, Lng : -123.1150206, Q1 : 0.99999910593, Q2 : -0.000417568109697, Q3 : 0.000438750779722, Q4 : -0.00118533603381}
2019-04-14 01:37:16.81: SIM {TimeUS : 48634705, Roll : -0.02, Pitch : 0.06, Yaw : 359.85, Alt : 40.7400016785, Lat : 49.2835704, Lng : -123.1150207, Q1 : 0.999999046326, Q2 : -0.000253611244261, Q3 : 0.000591490534134, Q4 : -0.00122902961448}
2019-04-14 01:37:16.91: SIM {TimeUS : 48734665, Roll : 0.0, Pitch : 0.07, Yaw : 359.85, Alt : 40.9700012207, Lat : 49.2835704, Lng : -123.1150207, Q1 : 0.999998986721, Q2 : 1.96010696527e-05, Q3 : 0.000625320186373, Q4 : -0.00126718345564}
2019-04-14 01:37:17.01: SIM {TimeUS : 48834625, Roll : 0.04, Pitch : 0.08, Yaw : 359.85, Alt : 41.2000007629, Lat : 49.2835704, Lng : -123.1150207, Q1 : 0.999998807907, Q2 : 0.000363055645721, Q3 : 0.000723444216419, Q4 : -0.00130197789986}
2019-04-14 01:37:17.11: SIM {TimeUS : 48934585, Roll : 0.09, Pitch : 0.1, Yaw : 359.84, Alt : 41.4399986267, Lat : 49.2835704, Lng : -123.1150207, Q1 : 0.999998390675, Q2 : 0.000790529767983, Q3 : 0.000919999496546, Q4 : -0.00133174669463}
2019-04-14 01:37:17.21: SIM {TimeUS : 49034545, Roll : 0.11, Pitch : 0.12, Yaw : 359.84, Alt : 41.6699981689, Lat : 49.2835704, Lng : -123.1150207, Q1 : 0.999997913837, Q2 : 0.00104284693953, Q3 : 0.00110000115819, Q4 : -0.00135625712574}
2019-04-14 01:37:17.31: SIM {TimeUS : 49134505, Roll : 0.1, Pitch : 0.14, Yaw : 359.84, Alt : 41.9099998474, Lat : 49.2835704, Lng : -123.1150207, Q1 : 0.999997913837, Q2 : 0.000894270604476, Q3 : 0.00123172206804, Q4 : -0.00136497232597}
2019-04-14 01:37:17.41: SIM {TimeUS : 49234465, Roll : 0.05, Pitch : 0.14, Yaw : 359.84, Alt : 42.1399993896, Lat : 49.2835704, Lng : -123.1150207, Q1 : 0.999998092651, Q2 : 0.000471506180475, Q3 : 0.0013056268217, Q4 : -0.00136734358966}
2019-04-14 01:37:17.51: SIM {TimeUS : 49334425, Roll : 0.0, Pitch : 0.14, Yaw : 359.84, Alt : 42.3699989319, Lat : 49.2835704, Lng : -123.1150207, Q1 : 0.999998211861, Q2 : 3.44356049027e-05, Q3 : 0.00129523570649, Q4 : -0.00137519079726}
2019-04-14 01:37:17.61: SIM {TimeUS : 49434385, Roll : -0.01, Pitch : 0.11, Yaw : 359.84, Alt : 42.6100006104, Lat : 49.2835704, Lng : -123.1150207, Q1 : 0.999998509884, Q2 : -0.000161099553225, Q3 : 0.00101431738585, Q4 : -0.00138652231544}
2019-04-14 01:37:17.71: SIM {TimeUS : 49534345, Roll : -0.01, Pitch : 0.06, Yaw : 359.83, Alt : 42.8400001526, Lat : 49.2835704, Lng : -123.1150207, Q1 : 0.999998807907, Q2 : -0.000171349558514, Q3 : 0.000609593756963, Q4 : -0.00139800459146}
2019-04-14 01:37:17.81: SIM {TimeUS : 49634305, Roll : 0.0, Pitch : 0.05, Yaw : 359.83, Alt : 43.0800018311, Lat : 49.2835704, Lng : -123.1150207, Q1 : 0.999998867512, Q2 : -8.43763700686e-05, Q3 : 0.000491893792059, Q4 : -0.00141774665099}
2019-04-14 01:37:17.91: SIM {TimeUS : 49734265, Roll : 0.02, Pitch : 0.06, Yaw : 359.83, Alt : 43.3100013733, Lat : 49.2835704, Lng : -123.1150207, Q1 : 0.999998748302, Q2 : 0.000210140802665, Q3 : 0.000588155991863, Q4 : -0.00144989974797}
2019-04-14 01:37:18.01: SIM {TimeUS : 49834225, Roll : 0.07, Pitch : 0.08, Yaw : 359.83, Alt : 43.5499992371, Lat : 49.2835704, Lng : -123.1150207, Q1 : 0.999998390675, Q2 : 0.000661206315272, Q3 : 0.000762618030421, Q4 : -0.00147856818512}
2019-04-14 01:37:18.11: SIM {TimeUS : 49934185, Roll : 0.11, Pitch : 0.08, Yaw : 359.82, Alt : 43.7799987793, Lat : 49.2835704, Lng : -123.1150207, Q1 : 0.999998092651, Q2 : 0.000995408394374, Q3 : 0.000731668085791, Q4 : -0.00150421238504}
2019-04-14 01:37:18.21: SIM {TimeUS : 50034145, Roll : 0.11, Pitch : 0.06, Yaw : 359.82, Alt : 44.0200004578, Lat : 49.2835704, Lng : -123.1150207, Q1 : 0.999998152256, Q2 : 0.00102697918192, Q3 : 0.000582779175602, Q4 : -0.00152848986909}
2019-04-14 01:37:18.31: SIM {TimeUS : 50134105, Roll : 0.07, Pitch : 0.04, Yaw : 359.82, Alt : 44.2599983215, Lat : 49.2835704, Lng : -123.1150207, Q1 : 0.999998509884, Q2 : 0.000673245405778, Q3 : 0.000421829812694, Q4 : -0.00154021149501}
2019-04-14 01:37:18.41: SIM {TimeUS : 50234065, Roll : 0.01, Pitch : 0.03, Yaw : 359.82, Alt : 44.4900016785, Lat : 49.2835704, Lng : -123.1150207, Q1 : 0.999998748302, Q2 : 0.000143255660078, Q3 : 0.000313033582643, Q4 : -0.00154770596419}
2019-04-14 01:37:18.51: SIM {TimeUS : 50334025, Roll : -0.02, Pitch : 0.03, Yaw : 359.82, Alt : 44.7299995422, Lat : 49.2835704, Lng : -123.1150206, Q1 : 0.999998688698, Q2 : -0.00020426879928, Q3 : 0.000305947760353, Q4 : -0.00156249152496}
2019-04-14 01:37:18.61: SIM {TimeUS : 50434818, Roll : -0.04, Pitch : 0.03, Yaw : 359.81, Alt : 44.9700012207, Lat : 49.2835704, Lng : -123.1150206, Q1 : 0.999998629093, Q2 : -0.000386646133848, Q3 : 0.000276940903859, Q4 : -0.00158262089826}
2019-04-14 01:37:18.71: SIM {TimeUS : 50534778, Roll : -0.03, Pitch : 0.02, Yaw : 359.81, Alt : 45.2000007629, Lat : 49.2835704, Lng : -123.1150206, Q1 : 0.999998629093, Q2 : -0.000329105154378, Q3 : 0.000185883371159, Q4 : -0.0016264206497}
2019-04-14 01:37:18.81: SIM {TimeUS : 50634738, Roll : -0.03, Pitch : 0.01, Yaw : 359.8, Alt : 45.4399986267, Lat : 49.2835704, Lng : -123.1150206, Q1 : 0.999998509884, Q2 : -0.000343503197655, Q3 : 9.01325402083e-05, Q4 : -0.00167562440038}
2019-04-14 01:37:18.91: SIM {TimeUS : 50734698, Roll : -0.03, Pitch : 0.0, Yaw : 359.8, Alt : 45.6699981689, Lat : 49.2835704, Lng : -123.1150206, Q1 : 0.999998450279, Q2 : -0.00029690732481, Q3 : 1.54719546117e-05, Q4 : -0.00172636925709}
2019-04-14 01:37:19.01: SIM {TimeUS : 50834658, Roll : -0.01, Pitch : 0.0, Yaw : 359.79, Alt : 45.9099998474, Lat : 49.2835704, Lng : -123.1150206, Q1 : 0.999998450279, Q2 : -0.00016426401271, Q3 : 1.85243407032e-05, Q4 : -0.00177284853999}
2019-04-14 01:37:19.11: SIM {TimeUS : 50934618, Roll : -0.01, Pitch : 0.01, Yaw : 359.79, Alt : 46.1399993896, Lat : 49.2835704, Lng : -123.1150206, Q1 : 0.99999833107, Q2 : -0.000154358072905, Q3 : 0.000100584933534, Q4 : -0.00180976907723}
2019-04-14 01:37:19.21: SIM {TimeUS : 51034578, Roll : -0.02, Pitch : 0.0, Yaw : 359.78, Alt : 46.3600006104, Lat : 49.2835704, Lng : -123.1150205, Q1 : 0.999998271465, Q2 : -0.000198060792172, Q3 : 7.93839935795e-05, Q4 : -0.00183922762517}
2019-04-14 01:37:19.31: SIM {TimeUS : 51134538, Roll : -0.03, Pitch : 0.0, Yaw : 359.78, Alt : 46.5800018311, Lat : 49.2835704, Lng : -123.1150205, Q1 : 0.999998271465, Q2 : -0.000285805057501, Q3 : -5.68671130168e-05, Q4 : -0.00185951287858}
2019-04-14 01:37:19.41: SIM {TimeUS : 51234498, Roll : -0.03, Pitch : -0.01, Yaw : 359.78, Alt : 46.7999992371, Lat : 49.2835703, Lng : -123.1150205, Q1 : 0.999998152256, Q2 : -0.000319072016282, Q3 : -0.000138661067467, Q4 : -0.00187771115452}
2019-04-14 01:37:19.51: SIM {TimeUS : 51334458, Roll : -0.03, Pitch : -0.01, Yaw : 359.78, Alt : 47.0099983215, Lat : 49.2835703, Lng : -123.1150205, Q1 : 0.999998152256, Q2 : -0.000273548503174, Q3 : -0.000166445752257, Q4 : -0.00189729849808}
2019-04-14 01:37:19.61: SIM {TimeUS : 51434418, Roll : -0.03, Pitch : -0.01, Yaw : 359.78, Alt : 47.2099990845, Lat : 49.2835703, Lng : -123.1150205, Q1 : 0.999998092651, Q2 : -0.000300304964185, Q3 : -0.000114547714475, Q4 : -0.00191427918617}
2019-04-14 01:37:19.71: SIM {TimeUS : 51534378, Roll : -0.05, Pitch : 0.0, Yaw : 359.77, Alt : 47.4099998474, Lat : 49.2835703, Lng : -123.1150205, Q1 : 0.999998033047, Q2 : -0.000461830495624, Q3 : -8.00883663032e-06, Q4 : -0.00193498365115}
2019-04-14 01:37:19.81: SIM {TimeUS : 51634338, Roll : -0.08, Pitch : 0.0, Yaw : 359.77, Alt : 47.5999984741, Lat : 49.2835703, Lng : -123.1150205, Q1 : 0.999997794628, Q2 : -0.000776008004323, Q3 : 5.83035798627e-05, Q4 : -0.00195940653794}
2019-04-14 01:37:19.91: SIM {TimeUS : 51734298, Roll : -0.13, Pitch : 0.0, Yaw : 359.77, Alt : 47.7700004578, Lat : 49.2835703, Lng : -123.1150205, Q1 : 0.999997317791, Q2 : -0.00119195797015, Q3 : -5.99077757215e-05, Q4 : -0.0019851855468}
2019-04-14 01:37:20.01: SIM {TimeUS : 51834258, Roll : -0.16, Pitch : 0.0, Yaw : 359.76, Alt : 47.9300003052, Lat : 49.2835703, Lng : -123.1150205, Q1 : 0.999996900558, Q2 : -0.00145149056334, Q3 : -6.20946520939e-05, Q4 : -0.00201176968403}
2019-04-14 01:37:20.11: SIM {TimeUS : 51934218, Roll : -0.16, Pitch : 0.0, Yaw : 359.76, Alt : 48.0900001526, Lat : 49.2835703, Lng : -123.1150205, Q1 : 0.999996840954, Q2 : -0.00147536746226, Q3 : 8.98610960576e-05, Q4 : -0.0020351447165}
2019-04-14 01:37:20.21: SIM {TimeUS : 52034178, Roll : -0.14, Pitch : 0.02, Yaw : 359.76, Alt : 48.2299995422, Lat : 49.2835703, Lng : -123.1150205, Q1 : 0.999997019768, Q2 : -0.00128474656958, Q3 : 0.000196342982235, Q4 : -0.00205909833312}
2019-04-14 01:37:20.31: SIM {TimeUS : 52134138, Roll : -0.11, Pitch : 0.02, Yaw : 359.76, Alt : 48.3600006104, Lat : 49.2835703, Lng : -123.1150205, Q1 : 0.999997258186, Q2 : -0.00103391380981, Q3 : 0.000196918161237, Q4 : -0.00208429037593}
2019-04-14 01:37:20.41: SIM {TimeUS : 52234098, Roll : -0.09, Pitch : 0.01, Yaw : 359.75, Alt : 48.4700012207, Lat : 49.2835703, Lng : -123.1150205, Q1 : 0.999997377396, Q2 : -0.000844831345603, Q3 : 0.000105774110125, Q4 : -0.00211387453601}
2019-04-14 01:37:20.51: SIM {TimeUS : 52334058, Roll : -0.07, Pitch : 0.0, Yaw : 359.75, Alt : 48.5800018311, Lat : 49.2835703, Lng : -123.1150205, Q1 : 0.999997496605, Q2 : -0.000648098241072, Q3 : -8.53915771586e-05, Q4 : -0.00214607245289}
2019-04-14 01:37:20.62: SIM {TimeUS : 52434851, Roll : -0.04, Pitch : -0.03, Yaw : 359.74, Alt : 48.6699981689, Lat : 49.2835703, Lng : -123.1150205, Q1 : 0.999997496605, Q2 : -0.000416055379901, Q3 : -0.000272473989753, Q4 : -0.00218452699482}
2019-04-14 01:37:20.71: SIM {TimeUS : 52534811, Roll : -0.03, Pitch : -0.04, Yaw : 359.74, Alt : 48.75, Lat : 49.2835703, Lng : -123.1150205, Q1 : 0.999997377396, Q2 : -0.00027805994614, Q3 : -0.000430433137808, Q4 : -0.00221955985762}
2019-04-14 01:37:20.81: SIM {TimeUS : 52634771, Roll : -0.03, Pitch : -0.06, Yaw : 359.74, Alt : 48.8199996948, Lat : 49.2835703, Lng : -123.1150205, Q1 : 0.999997258186, Q2 : -0.000288616662147, Q3 : -0.000599160033744, Q4 : -0.00224870932288}
2019-04-14 01:37:20.91: SIM {TimeUS : 52734731, Roll : -0.01, Pitch : -0.06, Yaw : 359.73, Alt : 48.8800010681, Lat : 49.2835703, Lng : -123.1150206, Q1 : 0.999997198582, Q2 : -9.16728240554e-05, Q3 : -0.000602917687502, Q4 : -0.00227727298625}
2019-04-14 01:37:21.01: SIM {TimeUS : 52834691, Roll : 0.02, Pitch : -0.06, Yaw : 359.73, Alt : 48.9300003052, Lat : 49.2835703, Lng : -123.1150206, Q1 : 0.999997198582, Q2 : 0.000184269054444, Q3 : -0.000539375003427, Q4 : -0.00230463966727}
2019-04-14 01:37:21.11: SIM {TimeUS : 52934651, Roll : 0.05, Pitch : -0.05, Yaw : 359.73, Alt : 48.9799995422, Lat : 49.2835703, Lng : -123.1150206, Q1 : 0.999997019768, Q2 : 0.000507294491399, Q3 : -0.000446103309514, Q4 : -0.0023288866505}
2019-04-14 01:37:21.21: SIM {TimeUS : 53034611, Roll : 0.16, Pitch : -0.09, Yaw : 359.73, Alt : 49.0200004578, Lat : 49.2835703, Lng : -123.1150206, Q1 : 0.99999576807, Q2 : 0.00146422849502, Q3 : -0.000870311923791, Q4 : -0.00235378067009}
2019-04-14 01:37:21.31: SIM {TimeUS : 53134571, Roll : 0.46, Pitch : -0.29, Yaw : 359.72, Alt : 49.0499992371, Lat : 49.2835703, Lng : -123.1150206, Q1 : 0.999985814095, Q2 : 0.00402545882389, Q3 : -0.00255975918844, Q4 : -0.00237518758513}
2019-04-14 01:37:21.41: SIM {TimeUS : 53234531, Roll : 0.96, Pitch : -0.66, Yaw : 359.72, Alt : 49.0800018311, Lat : 49.2835703, Lng : -123.1150206, Q1 : 0.999944746494, Q2 : 0.00842567905784, Q3 : -0.00581564567983, Q4 : -0.00239099259488}
2019-04-14 01:37:21.51: SIM {TimeUS : 53334491, Roll : 1.65, Pitch : -1.16, Yaw : 359.7, Alt : 49.0999984741, Lat : 49.2835704, Lng : -123.1150206, Q1 : 0.999841809273, Q2 : 0.0143945887685, Q3 : -0.0101760923862, Q4 : -0.00238530593924}
2019-04-14 01:37:21.61: SIM {TimeUS : 53434451, Roll : 2.47, Pitch : -1.73, Yaw : 359.69, Alt : 49.1300010681, Lat : 49.2835704, Lng : -123.1150205, Q1 : 0.999650657177, Q2 : 0.021513549611, Q3 : -0.0151745788753, Q4 : -0.00234551704489}
2019-04-14 01:37:21.71: SIM {TimeUS : 53534411, Roll : 3.3, Pitch : -2.31, Yaw : 359.67, Alt : 49.1399993896, Lat : 49.2835704, Lng : -123.1150204, Q1 : 0.999377429485, Q2 : 0.0287986285985, Q3 : -0.0202566143125, Q4 : -0.00225051864982}
2019-04-14 01:37:21.81: SIM {TimeUS : 53634371, Roll : 4.02, Pitch : -2.79, Yaw : 359.66, Alt : 49.1599998474, Lat : 49.2835706, Lng : -123.1150202, Q1 : 0.999082565308, Q2 : 0.0350725278258, Q3 : -0.02448579669, Q4 : -0.00209488463588}
2019-04-14 01:37:21.91: SIM {TimeUS : 53734331, Roll : 4.59, Pitch : -3.14, Yaw : 359.65, Alt : 49.1699981689, Lat : 49.2835708, Lng : -123.11502, Q1 : 0.998817265034, Q2 : 0.0400315746665, Q3 : -0.0275333654135, Q4 : -0.00188292446546}
2019-04-14 01:37:22.01: SIM {TimeUS : 53834291, Roll : 5.02, Pitch : -3.4, Yaw : 359.66, Alt : 49.1800003052, Lat : 49.2835709, Lng : -123.1150197, Q1 : 0.998596429825, Q2 : 0.0437567606568, Q3 : -0.0297969412059, Q4 : -0.00163640943356}
2019-04-14 01:37:22.11: SIM {TimeUS : 53934251, Roll : 5.35, Pitch : -3.63, Yaw : 359.67, Alt : 49.2000007629, Lat : 49.283571, Lng : -123.1150193, Q1 : 0.998405516148, Q2 : 0.0466119684279, Q3 : -0.0318105481565, Q4 : -0.00138092460111}
2019-04-14 01:37:22.21: SIM {TimeUS : 54034211, Roll : 5.62, Pitch : -3.85, Yaw : 359.68, Alt : 49.2000007629, Lat : 49.2835714, Lng : -123.1150188, Q1 : 0.998229503632, Q2 : 0.04897614941, Q3 : -0.0337329283357, Q4 : -0.00112293369602}
2019-04-14 01:37:22.31: SIM {TimeUS : 54134171, Roll : 5.91, Pitch : -4.1, Yaw : 359.68, Alt : 49.2099990845, Lat : 49.2835716, Lng : -123.1150181, Q1 : 0.998029708862, Q2 : 0.051455359906, Q3 : -0.0358933582902, Q4 : -0.000867039663717}
2019-04-14 01:37:22.41: SIM {TimeUS : 54234131, Roll : 6.21, Pitch : -4.34, Yaw : 359.69, Alt : 49.2200012207, Lat : 49.283572, Lng : -123.1150174, Q1 : 0.997814893723, Q2 : 0.0540462695062, Q3 : -0.0380009151995, Q4 : -0.000600354454946}
2019-04-14 01:37:22.51: SIM {TimeUS : 54334091, Roll : 6.48, Pitch : -4.53, Yaw : 359.7, Alt : 49.2299995422, Lat : 49.2835724, Lng : -123.1150166, Q1 : 0.99761980772, Q2 : 0.0564038082957, Q3 : -0.0396641977131, Q4 : -0.000338335172273}
2019-04-14 01:37:22.61: SIM {TimeUS : 54434051, Roll : 6.69, Pitch : -4.68, Yaw : 359.71, Alt : 49.2299995422, Lat : 49.2835727, Lng : -123.1150157, Q1 : 0.997462391853, Q2 : 0.0582314804196, Q3 : -0.0409618280828, Q4 : -0.000124077734654}
2019-04-14 01:37:22.72: SIM {TimeUS : 54534844, Roll : 6.84, Pitch : -4.78, Yaw : 359.71, Alt : 49.2400016785, Lat : 49.2835732, Lng : -123.1150147, Q1 : 0.997347474098, Q2 : 0.0595492869616, Q3 : -0.041855905205, Q4 : 4.54469700344e-05}
2019-04-14 01:37:22.81: SIM {TimeUS : 54634804, Roll : 6.94, Pitch : -4.85, Yaw : 359.72, Alt : 49.2400016785, Lat : 49.2835737, Lng : -123.1150136, Q1 : 0.997270166874, Q2 : 0.0604359097779, Q3 : -0.0424232631922, Q4 : 0.000161243602633}
2019-04-14 01:37:22.91: SIM {TimeUS : 54734764, Roll : 7.03, Pitch : -4.92, Yaw : 359.72, Alt : 49.25, Lat : 49.2835743, Lng : -123.1150124, Q1 : 0.9971960783, Q2 : 0.0612075068057, Q3 : -0.0430536642671, Q4 : 0.000218722270802}
2019-04-14 01:37:23.01: SIM {TimeUS : 54834724, Roll : 7.21, Pitch : -4.99, Yaw : 359.73, Alt : 49.25, Lat : 49.2835749, Lng : -123.1150111, Q1 : 0.99707621336, Q2 : 0.0627453997731, Q3 : -0.0436110422015, Q4 : 0.000424210680649}
2019-04-14 01:37:23.11: SIM {TimeUS : 54934684, Roll : 7.62, Pitch : -4.9, Yaw : 0.04, Alt : 49.25, Lat : 49.2835755, Lng : -123.1150096, Q1 : 0.996872365475, Q2 : 0.0664541274309, Q3 : -0.0426451414824, Q4 : 0.00327537767589}
2019-04-14 01:37:23.21: SIM {TimeUS : 55034644, Roll : 8.23, Pitch : -4.69, Yaw : 1.31, Alt : 49.2599983215, Lat : 49.2835761, Lng : -123.1150083, Q1 : 0.996479868889, Q2 : 0.0722308158875, Q3 : -0.040052678436, Q4 : 0.014366443269}
2019-04-14 01:37:23.31: SIM {TimeUS : 55134604, Roll : 8.81, Pitch : -4.74, Yaw : 4.06, Alt : 49.2599983215, Lat : 49.2835768, Lng : -123.1150067, Q1 : 0.995447993279, Q2 : 0.0781965628266, Q3 : -0.0385328531265, Q4 : 0.0385202504694}
2019-04-14 01:37:23.41: SIM {TimeUS : 55234564, Roll : 9.09, Pitch : -5.28, Yaw : 8.38, Alt : 49.2599983215, Lat : 49.2835775, Lng : -123.1150051, Q1 : 0.992855191231, Q2 : 0.0823711156845, Q3 : -0.0400499887764, Q4 : 0.0764823183417}
2019-04-14 01:37:23.51: SIM {TimeUS : 55334524, Roll : 8.89, Pitch : -6.32, Yaw : 14.11, Alt : 49.2599983215, Lat : 49.2835782, Lng : -123.1150033, Q1 : 0.987402796745, Q2 : 0.0836394503713, Q3 : -0.0450747013092, Q4 : 0.126524552703}
2019-04-14 01:37:23.61: SIM {TimeUS : 55434484, Roll : 8.1, Pitch : -7.74, Yaw : 20.98, Alt : 49.2599983215, Lat : 49.2835788, Lng : -123.1150014, Q1 : 0.977706253529, Q2 : 0.0816353112459, Q3 : -0.0533543862402, Q4 : 0.185955762863}
2019-04-14 01:37:23.71: SIM {TimeUS : 55534444, Roll : 6.71, Pitch : -9.33, Yaw : 28.76, Alt : 49.2599983215, Lat : 49.2835797, Lng : -123.1149993, Q1 : 0.962604880333, Q2 : 0.0766898915172, Q3 : -0.0642194673419, Q4 : 0.251766622066}
2019-04-14 01:37:23.81: SIM {TimeUS : 55634404, Roll : 4.77, Pitch : -10.86, Yaw : 37.19, Alt : 49.2700004578, Lat : 49.2835805, Lng : -123.1149972, Q1 : 0.941447973251, Q2 : 0.0695109590888, Q3 : -0.076433159411, Q4 : 0.320939093828}
2019-04-14 01:37:23.91: SIM {TimeUS : 55734364, Roll : 2.28, Pitch : -12.11, Yaw : 45.94, Alt : 49.2700004578, Lat : 49.2835812, Lng : -123.114995, Q1 : 0.914536297321, Q2 : 0.0594491846859, Q3 : -0.0894361063838, Q4 : 0.389987647533}
2019-04-14 01:37:24.01: SIM {TimeUS : 55834324, Roll : -0.78, Pitch : -12.87, Yaw : 54.33, Alt : 49.2700004578, Lat : 49.283582, Lng : -123.1149926, Q1 : 0.884371757507, Q2 : 0.0451895035803, Q3 : -0.10287425667, Q4 : 0.45305788517}
2019-04-14 01:37:24.11: SIM {TimeUS : 55934284, Roll : -3.9, Pitch : -13.07, Yaw : 61.46, Alt : 49.2700004578, Lat : 49.2835831, Lng : -123.1149902, Q1 : 0.855436861515, Q2 : 0.0290842279792, Q3 : -0.115104936063, Q4 : 0.504115819931}
2019-04-14 01:37:24.21: SIM {TimeUS : 56034244, Roll : -6.42, Pitch : -12.88, Yaw : 66.68, Alt : 49.2700004578, Lat : 49.2835841, Lng : -123.1149877, Q1 : 0.832273721695, Q2 : 0.0150352660567, Q3 : -0.124183319509, Q4 : 0.540067493916}
2019-04-14 01:37:24.31: SIM {TimeUS : 56134204, Roll : -7.94, Pitch : -12.6, Yaw : 69.8, Alt : 49.2700004578, Lat : 49.2835852, Lng : -123.1149851, Q1 : 0.817581534386, Q2 : 0.00619066925719, Q3 : -0.129221752286, Q4 : 0.561091721058}
2019-04-14 01:37:24.41: SIM {TimeUS : 56234164, Roll : -8.38, Pitch : -12.48, Yaw : 70.99, Alt : 49.2700004578, Lat : 49.2835864, Lng : -123.1149825, Q1 : 0.811758935452, Q2 : 0.00382720655762, Q3 : -0.130476027727, Q4 : 0.569217741489}
2019-04-14 01:37:24.51: SIM {TimeUS : 56334124, Roll : -7.9, Pitch : -12.63, Yaw : 70.6, Alt : 49.2700004578, Lat : 49.2835878, Lng : -123.1149799, Q1 : 0.813602089882, Q2 : 0.00755079044029, Q3 : -0.129182174802, Q4 : 0.566839158535}
2019-04-14 01:37:24.61: SIM {TimeUS : 56434084, Roll : -6.73, Pitch : -13.06, Yaw : 68.99, Alt : 49.2700004578, Lat : 49.2835891, Lng : -123.1149772, Q1 : 0.821163475513, Q2 : 0.0162217132747, Q3 : -0.126613497734, Q4 : 0.556234180927}
2019-04-14 01:37:24.71: SIM {TimeUS : 56534044, Roll : -5.09, Pitch : -13.7, Yaw : 66.51, Alt : 49.2700004578, Lat : 49.2835907, Lng : -123.1149744, Q1 : 0.832319200039, Q2 : 0.0285061858594, Q3 : -0.123878963292, Q4 : 0.539524018764}
2019-04-14 01:37:24.82: SIM {TimeUS : 56634837, Roll : -3.18, Pitch : -14.45, Yaw : 63.45, Alt : 49.2799987793, Lat : 49.2835922, Lng : -123.1149716, Q1 : 0.845305085182, Q2 : 0.0426473841071, Q3 : -0.121443606913, Q4 : 0.51854801178}
2019-04-14 01:37:24.91: SIM {TimeUS : 56734797, Roll : -1.24, Pitch : -15.12, Yaw : 60.18, Alt : 49.2799987793, Lat : 49.2835939, Lng : -123.1149687, Q1 : 0.858365654945, Q2 : 0.0566467940807, Q3 : -0.119277581573, Q4 : 0.495754390955}
2019-04-14 01:37:25.01: SIM {TimeUS : 56834757, Roll : 0.55, Pitch : -15.61, Yaw : 56.99, Alt : 49.2799987793, Lat : 49.2835954, Lng : -123.1149657, Q1 : 0.870350658894, Q2 : 0.0690334290266, Q3 : -0.117137677968, Q4 : 0.473289489746}
2019-04-14 01:37:25.11: SIM {TimeUS : 56934717, Roll : 2.03, Pitch : -15.86, Yaw : 54.22, Alt : 49.2799987793, Lat : 49.2835971, Lng : -123.1149625, Q1 : 0.880322694778, Q2 : 0.0785411968827, Q3 : -0.114843897521, Q4 : 0.453513085842}
2019-04-14 01:37:25.21: SIM {TimeUS : 57034677, Roll : 3.08, Pitch : -15.91, Yaw : 52.11, Alt : 49.2799987793, Lat : 49.2835988, Lng : -123.1149593, Q1 : 0.887728214264, Q2 : 0.0847297012806, Q3 : -0.112594023347, Q4 : 0.438271701336}
2019-04-14 01:37:25.31: SIM {TimeUS : 57134637, Roll : 3.64, Pitch : -15.84, Yaw : 50.79, Alt : 49.2799987793, Lat : 49.2836005, Lng : -123.1149559, Q1 : 0.892385721207, Q2 : 0.0875508710742, Q3 : -0.110945977271, Q4 : 0.428571522236}
2019-04-14 01:37:25.41: SIM {TimeUS : 57234597, Roll : 3.71, Pitch : -15.76, Yaw : 50.27, Alt : 49.2799987793, Lat : 49.2836022, Lng : -123.1149523, Q1 : 0.89438688755, Q2 : 0.0873149782419, Q3 : -0.110428541899, Q4 : 0.424562960863}
2019-04-14 01:37:25.51: SIM {TimeUS : 57334557, Roll : 3.38, Pitch : -15.72, Yaw : 50.46, Alt : 49.2900009155, Lat : 49.2836038, Lng : -123.1149487, Q1 : 0.893982887268, Q2 : 0.0847324132919, Q3 : -0.111254252493, Q4 : 0.425719976425}
2019-04-14 01:37:25.61: SIM {TimeUS : 57434517, Roll : 2.72, Pitch : -15.78, Yaw : 51.21, Alt : 49.2900009155, Lat : 49.2836055, Lng : -123.1149449, Q1 : 0.891560435295, Q2 : 0.0805740728974, Q3 : -0.113565064967, Q4 : 0.430964976549}
2019-04-14 01:37:25.71: SIM {TimeUS : 57534477, Roll : 1.88, Pitch : -15.9, Yaw : 52.36, Alt : 49.2900009155, Lat : 49.2836073, Lng : -123.1149411, Q1 : 0.88763666153, Q2 : 0.0756571516395, Q3 : -0.116917923093, Q4 : 0.438984453678}
2019-04-14 01:37:25.81: SIM {TimeUS : 57634437, Roll : 0.98, Pitch : -16.05, Yaw : 53.71, Alt : 49.2900009155, Lat : 49.283609, Lng : -123.1149371, Q1 : 0.882817149162, Q2 : 0.0706650093198, Q3 : -0.120781861246, Q4 : 0.448388367891}
2019-04-14 01:37:25.91: SIM {TimeUS : 57734397, Roll : 0.12, Pitch : -16.2, Yaw : 55.08, Alt : 49.2900009155, Lat : 49.2836106, Lng : -123.114933, Q1 : 0.877752065659, Q2 : 0.0661358088255, Q3 : -0.124495781958, Q4 : 0.457906275988}
2019-04-14 01:37:26.01: SIM {TimeUS : 57834357, Roll : -0.59, Pitch : -16.32, Yaw : 56.31, Alt : 49.2900009155, Lat : 49.2836124, Lng : -123.1149291, Q1 : 0.873048126698, Q2 : 0.0624963417649, Q3 : -0.127565696836, Q4 : 0.466484963894}
2019-04-14 01:37:26.11: SIM {TimeUS : 57934317, Roll : -1.11, Pitch : -16.41, Yaw : 57.3, Alt : 49.2900009155, Lat : 49.2836142, Lng : -123.114925, Q1 : 0.869177341461, Q2 : 0.0600334666669, Q3 : -0.12986856699, Q4 : 0.473350763321}
2019-04-14 01:37:26.21: SIM {TimeUS : 58034277, Roll : -1.41, Pitch : -16.48, Yaw : 57.97, Alt : 49.2900009155, Lat : 49.283616, Lng : -123.1149208, Q1 : 0.866470336914, Q2 : 0.0587361529469, Q3 : -0.131295859814, Q4 : 0.47805929184}
2019-04-14 01:37:26.31: SIM {TimeUS : 58134237, Roll : -1.53, Pitch : -16.52, Yaw : 58.31, Alt : 49.2900009155, Lat : 49.283618, Lng : -123.1149166, Q1 : 0.86506319046, Q2 : 0.0584119074047, Q3 : -0.131961196661, Q4 : 0.480458110571}
2019-04-14 01:37:26.41: SIM {TimeUS : 58234197, Roll : -1.47, Pitch : -16.54, Yaw : 58.34, Alt : 49.2900009155, Lat : 49.2836199, Lng : -123.1149123, Q1 : 0.864902794361, Q2 : 0.0589884966612, Q3 : -0.131845280528, Q4 : 0.480708181858}
2019-04-14 01:37:26.51: SIM {TimeUS : 58334157, Roll : -1.25, Pitch : -16.55, Yaw : 58.1, Alt : 49.2900009155, Lat : 49.2836218, Lng : -123.114908, Q1 : 0.86577051878, Q2 : 0.0604474544525, Q3 : -0.131055995822, Q4 : 0.479178309441}
2019-04-14 01:37:26.61: SIM {TimeUS : 58434117, Roll : -0.93, Pitch : -16.55, Yaw : 57.67, Alt : 49.2900009155, Lat : 49.2836238, Lng : -123.1149037, Q1 : 0.867378950119, Q2 : 0.0623938553035, Q3 : -0.130020916462, Q4 : 0.476293385029}
2019-04-14 01:37:26.71: SIM {TimeUS : 58534077, Roll : -0.55, Pitch : -16.58, Yaw : 57.13, Alt : 49.2900009155, Lat : 49.2836257, Lng : -123.1148993, Q1 : 0.86938560009, Q2 : 0.0647287219763, Q3 : -0.128969907761, Q4 : 0.472594618797}
2019-04-14 01:37:26.81: SIM {TimeUS : 58634037, Roll : -0.16, Pitch : -16.61, Yaw : 56.56, Alt : 49.2900009155, Lat : 49.2836278, Lng : -123.1148949, Q1 : 0.871502041817, Q2 : 0.0671934336424, Q3 : -0.127873629332, Q4 : 0.468633770943}
2019-04-14 01:37:26.92: SIM {TimeUS : 58734830, Roll : 0.18, Pitch : -16.63, Yaw : 56.01, Alt : 49.2900009155, Lat : 49.2836299, Lng : -123.1148904, Q1 : 0.873501896858, Q2 : 0.0693572312593, Q3 : -0.12698662281, Q4 : 0.464820921421}
2019-04-14 01:37:27.01: SIM {TimeUS : 58834790, Roll : 0.44, Pitch : -16.68, Yaw : 55.55, Alt : 49.2900009155, Lat : 49.2836318, Lng : -123.1148859, Q1 : 0.875152051449, Q2 : 0.0709885433316, Q3 : -0.126574978232, Q4 : 0.461571604013}
2019-04-14 01:37:27.11: SIM {TimeUS : 58934750, Roll : 0.59, Pitch : -16.73, Yaw : 55.21, Alt : 49.2900009155, Lat : 49.283634, Lng : -123.1148813, Q1 : 0.876362025738, Q2 : 0.0720116049051, Q3 : -0.126591548324, Q4 : 0.459106236696}
2019-04-14 01:37:27.21: SIM {TimeUS : 59034710, Roll : 0.65, Pitch : -16.8, Yaw : 55.0, Alt : 49.2900009155, Lat : 49.2836359, Lng : -123.1148767, Q1 : 0.877068281174, Q2 : 0.0724987089634, Q3 : -0.127041220665, Q4 : 0.457554131746}
2019-04-14 01:37:27.31: SIM {TimeUS : 59134670, Roll : 0.62, Pitch : -16.87, Yaw : 54.93, Alt : 49.2900009155, Lat : 49.2836381, Lng : -123.114872, Q1 : 0.877309799194, Q2 : 0.0724311247468, Q3 : -0.12767547369, Q4 : 0.4569247365}
2019-04-14 01:37:27.41: SIM {TimeUS : 59234630, Roll : 0.53, Pitch : -16.91, Yaw : 54.97, Alt : 49.2900009155, Lat : 49.2836402, Lng : -123.1148674, Q1 : 0.877150475979, Q2 : 0.0719982460141, Q3 : -0.128378421068, Q4 : 0.457102030516}
2019-04-14 01:37:27.51: SIM {TimeUS : 59334590, Roll : 0.41, Pitch : -16.95, Yaw : 55.09, Alt : 49.2900009155, Lat : 49.2836421, Lng : -123.1148626, Q1 : 0.876676976681, Q2 : 0.0713660269976, Q3 : -0.129035651684, Q4 : 0.457923769951}
2019-04-14 01:37:27.61: SIM {TimeUS : 59434550, Roll : 0.28, Pitch : -16.97, Yaw : 55.28, Alt : 49.2999992371, Lat : 49.2836443, Lng : -123.1148579, Q1 : 0.875996291637, Q2 : 0.0706592574716, Q3 : -0.129634618759, Q4 : 0.459165155888}
2019-04-14 01:37:27.71: SIM {TimeUS : 59534510, Roll : 0.15, Pitch : -16.99, Yaw : 55.48, Alt : 49.2999992371, Lat : 49.2836464, Lng : -123.1148531, Q1 : 0.875217437744, Q2 : 0.0700048655272, Q3 : -0.130134791136, Q4 : 0.460606902838}
2019-04-14 01:37:27.81: SIM {TimeUS : 59634470, Roll : 0.05, Pitch : -17.01, Yaw : 55.69, Alt : 49.2999992371, Lat : 49.2836486, Lng : -123.1148483, Q1 : 0.874434411526, Q2 : 0.0694978758693, Q3 : -0.130608439445, Q4 : 0.462034583092}
2019-04-14 01:37:27.91: SIM {TimeUS : 59734430, Roll : -0.04, Pitch : -17.03, Yaw : 55.87, Alt : 49.2999992371, Lat : 49.2836506, Lng : -123.1148434, Q1 : 0.873748064041, Q2 : 0.0690335482359, Q3 : -0.131083145738, Q4 : 0.463266551495}
2019-04-14 01:37:28.01: SIM {TimeUS : 59834390, Roll : -0.12, Pitch : -17.06, Yaw : 56.0, Alt : 49.2999992371, Lat : 49.2836529, Lng : -123.1148386, Q1 : 0.873227000237, Q2 : 0.0686840415001, Q3 : -0.131510972977, Q4 : 0.464178800583}
2019-04-14 01:37:28.11: SIM {TimeUS : 59934350, Roll : -0.17, Pitch : -17.09, Yaw : 56.08, Alt : 49.2999992371, Lat : 49.2836549, Lng : -123.1148337, Q1 : 0.872894227505, Q2 : 0.0685460492969, Q3 : -0.131926968694, Q4 : 0.464706808329}
2019-04-14 01:37:28.21: SIM {TimeUS : 60034310, Roll : -0.19, Pitch : -17.14, Yaw : 56.11, Alt : 49.2999992371, Lat : 49.2836572, Lng : -123.1148288, Q1 : 0.872759521008, Q2 : 0.068566866219, Q3 : -0.132323876023, Q4 : 0.464843899012}
2019-04-14 01:37:28.31: SIM {TimeUS : 60134270, Roll : -0.2, Pitch : -17.17, Yaw : 56.08, Alt : 49.2999992371, Lat : 49.2836594, Lng : -123.1148238, Q1 : 0.872818231583, Q2 : 0.068641923368, Q3 : -0.132638305426, Q4 : 0.464632868767}
2019-04-14 01:37:28.41: SIM {TimeUS : 60234230, Roll : -0.19, Pitch : -17.2, Yaw : 56.02, Alt : 49.2999992371, Lat : 49.2836615, Lng : -123.1148189, Q1 : 0.873046576977, Q2 : 0.0687241479754, Q3 : -0.132840052247, Q4 : 0.464133858681}
2019-04-14 01:37:28.51: SIM {TimeUS : 60334190, Roll : -0.17, Pitch : -17.22, Yaw : 55.92, Alt : 49.2999992371, Lat : 49.2836638, Lng : -123.1148139, Q1 : 0.873380422592, Q2 : 0.0689354240894, Q3 : -0.132983401418, Q4 : 0.463432848454}
2019-04-14 01:37:28.61: SIM {TimeUS : 60434150, Roll : -0.11, Pitch : -17.26, Yaw : 55.81, Alt : 49.2999992371, Lat : 49.2836659, Lng : -123.1148089, Q1 : 0.873753190041, Q2 : 0.0693665742874, Q3 : -0.133061513305, Q4 : 0.462642729282}
2019-04-14 01:37:28.71: SIM {TimeUS : 60534110, Roll : -0.04, Pitch : -17.28, Yaw : 55.7, Alt : 49.3100013733, Lat : 49.2836682, Lng : -123.1148039, Q1 : 0.874128520489, Q2 : 0.0698930025101, Q3 : -0.133057549596, Q4 : 0.46185490489}
2019-04-14 01:37:28.81: SIM {TimeUS : 60634070, Roll : 0.04, Pitch : -17.32, Yaw : 55.6, Alt : 49.3100013733, Lat : 49.2836704, Lng : -123.1147989, Q1 : 0.874458909035, Q2 : 0.0705575942993, Q3 : -0.133039742708, Q4 : 0.46113306284}
2019-04-14 01:37:28.91: SIM {TimeUS : 60734030, Roll : 0.13, Pitch : -17.35, Yaw : 55.51, Alt : 49.3100013733, Lat : 49.2836726, Lng : -123.1147938, Q1 : 0.874729037285, Q2 : 0.0712819844484, Q3 : -0.132993295789, Q4 : 0.460522353649}
2019-04-14 01:37:29.02: SIM {TimeUS : 60834823, Roll : 0.19, Pitch : -17.38, Yaw : 55.44, Alt : 49.3100013733, Lat : 49.2836749, Lng : -123.1147887, Q1 : 0.874939322472, Q2 : 0.0717681199312, Q3 : -0.133052542806, Q4 : 0.460029989481}
2019-04-14 01:37:29.11: SIM {TimeUS : 60934783, Roll : 0.19, Pitch : -17.4, Yaw : 55.39, Alt : 49.3100013733, Lat : 49.2836772, Lng : -123.1147836, Q1 : 0.87510818243, Q2 : 0.0718111172318, Q3 : -0.133172750473, Q4 : 0.459667116404}
2019-04-14 01:37:29.21: SIM {TimeUS : 61034743, Roll : 0.16, Pitch : -17.41, Yaw : 55.36, Alt : 49.3100013733, Lat : 49.2836795, Lng : -123.1147785, Q1 : 0.875215947628, Q2 : 0.0716153159738, Q3 : -0.133360102773, Q4 : 0.459438085556}
2019-04-14 01:37:29.31: SIM {TimeUS : 61134703, Roll : 0.15, Pitch : -17.4, Yaw : 55.36, Alt : 49.3100013733, Lat : 49.2836816, Lng : -123.1147734, Q1 : 0.875257253647, Q2 : 0.0714892596006, Q3 : -0.133386731148, Q4 : 0.459371328354}
2019-04-14 01:37:29.41: SIM {TimeUS : 61234663, Roll : 0.14, Pitch : -17.41, Yaw : 55.36, Alt : 49.3100013733, Lat : 49.283684, Lng : -123.1147682, Q1 : 0.875231325626, Q2 : 0.0714122653008, Q3 : -0.13347145915, Q4 : 0.459408164024}
2019-04-14 01:37:29.51: SIM {TimeUS : 61334623, Roll : 0.14, Pitch : -17.44, Yaw : 55.38, Alt : 49.3100013733, Lat : 49.2836863, Lng : -123.1147631, Q1 : 0.875128507614, Q2 : 0.0715684145689, Q3 : -0.133737504482, Q4 : 0.459502309561}
2019-04-14 01:37:29.61: SIM {TimeUS : 61434583, Roll : 0.13, Pitch : -17.51, Yaw : 55.4, Alt : 49.3199996948, Lat : 49.2836886, Lng : -123.1147579, Q1 : 0.874972701073, Q2 : 0.0718345493078, Q3 : -0.134223550558, Q4 : 0.4596157372}
2019-04-14 01:37:29.71: SIM {TimeUS : 61534543, Roll : 0.12, Pitch : -17.55, Yaw : 55.42, Alt : 49.3199996948, Lat : 49.2836908, Lng : -123.1147527, Q1 : 0.874857127666, Q2 : 0.0719095692039, Q3 : -0.13455119729, Q4 : 0.459728240967}
2019-04-14 01:37:29.81: SIM {TimeUS : 61634503, Roll : 0.11, Pitch : -17.55, Yaw : 55.43, Alt : 49.3199996948, Lat : 49.2836931, Lng : -123.1147475, Q1 : 0.874802231789, Q2 : 0.0718276575208, Q3 : -0.134630322456, Q4 : 0.459822356701}
2019-04-14 01:37:29.91: SIM {TimeUS : 61734463, Roll : 0.09, Pitch : -17.55, Yaw : 55.44, Alt : 49.3199996948, Lat : 49.2836955, Lng : -123.1147423, Q1 : 0.874777972698, Q2 : 0.0717025026679, Q3 : -0.134744122624, Q4 : 0.459854662418}
2019-04-14 01:37:30.01: SIM {TimeUS : 61834423, Roll : 0.06, Pitch : -17.58, Yaw : 55.44, Alt : 49.3199996948, Lat : 49.2836978, Lng : -123.1147371, Q1 : 0.874769926071, Q2 : 0.0716147571802, Q3 : -0.13499969244, Q4 : 0.459808647633}
2019-04-14 01:37:30.11: SIM {TimeUS : 61934383, Roll : 0.06, Pitch : -17.6, Yaw : 55.43, Alt : 49.3199996948, Lat : 49.2837001, Lng : -123.1147319, Q1 : 0.874784290791, Q2 : 0.0716669559479, Q3 : -0.135185733438, Q4 : 0.45971852541}
2019-04-14 01:37:30.21: SIM {TimeUS : 62034343, Roll : 0.06, Pitch : -17.62, Yaw : 55.41, Alt : 49.3199996948, Lat : 49.2837023, Lng : -123.1147267, Q1 : 0.874829828739, Q2 : 0.0717215836048, Q3 : -0.135354876518, Q4 : 0.459573566914}
2019-04-14 01:37:30.31: SIM {TimeUS : 62134303, Roll : 0.07, Pitch : -17.63, Yaw : 55.39, Alt : 49.3199996948, Lat : 49.2837047, Lng : -123.1147214, Q1 : 0.874898016453, Q2 : 0.0718223303556, Q3 : -0.135436445475, Q4 : 0.459403961897}
2019-04-14 01:37:30.41: SIM {TimeUS : 62234263, Roll : 0.09, Pitch : -17.65, Yaw : 55.36, Alt : 49.3199996948, Lat : 49.2837071, Lng : -123.1147161, Q1 : 0.874980092049, Q2 : 0.0720096156001, Q3 : -0.13553288579, Q4 : 0.459189802408}
2019-04-14 01:37:30.51: SIM {TimeUS : 62334223, Roll : 0.11, Pitch : -17.66, Yaw : 55.33, Alt : 49.3199996948, Lat : 49.2837095, Lng : -123.1147109, Q1 : 0.875081241131, Q2 : 0.072173550725, Q3 : -0.13557843864, Q4 : 0.458957850933}
2019-04-14 01:37:30.61: SIM {TimeUS : 62434183, Roll : 0.13, Pitch : -17.68, Yaw : 55.3, Alt : 49.3199996948, Lat : 49.2837118, Lng : -123.1147056, Q1 : 0.875171720982, Q2 : 0.0723921731114, Q3 : -0.135603427887, Q4 : 0.458743453026}
2019-04-14 01:37:30.71: SIM {TimeUS : 62534143, Roll : 0.16, Pitch : -17.7, Yaw : 55.27, Alt : 49.3199996948, Lat : 49.2837142, Lng : -123.1147003, Q1 : 0.875243484974, Q2 : 0.0726685374975, Q3 : -0.135673463345, Q4 : 0.458542078733}
2019-04-14 01:37:30.81: SIM {TimeUS : 62634103, Roll : 0.17, Pitch : -17.73, Yaw : 55.24, Alt : 49.3199996948, Lat : 49.2837165, Lng : -123.114695, Q1 : 0.875306129456, Q2 : 0.0728327706456, Q3 : -0.135911256075, Q4 : 0.458326011896}
2019-04-14 01:37:30.91: SIM {TimeUS : 62734063, Roll : 0.15, Pitch : -17.77, Yaw : 55.22, Alt : 49.3199996948, Lat : 49.2837188, Lng : -123.1146897, Q1 : 0.875364303589, Q2 : 0.0727915838361, Q3 : -0.136282593012, Q4 : 0.458111077547}
2019-04-14 01:37:31.01: SIM {TimeUS : 62834023, Roll : 0.13, Pitch : -17.81, Yaw : 55.2, Alt : 49.3199996948, Lat : 49.2837211, Lng : -123.1146843, Q1 : 0.875407278538, Q2 : 0.0727645754814, Q3 : -0.136646226048, Q4 : 0.457924902439}
2019-04-14 01:37:31.11: SIM {TimeUS : 62934816, Roll : 0.14, Pitch : -17.83, Yaw : 55.19, Alt : 49.3300018311, Lat : 49.2837235, Lng : -123.114679, Q1 : 0.87542784214, Q2 : 0.0729294717312, Q3 : -0.136837080121, Q4 : 0.457802385092}
2019-04-14 01:37:31.21: SIM {TimeUS : 63034776, Roll : 0.17, Pitch : -17.84, Yaw : 55.17, Alt : 49.3300018311, Lat : 49.2837259, Lng : -123.1146736, Q1 : 0.875455975533, Q2 : 0.0731286108494, Q3 : -0.136776462197, Q4 : 0.457734882832}
2019-04-14 01:37:31.31: SIM {TimeUS : 63134736, Roll : 0.18, Pitch : -17.82, Yaw : 55.17, Alt : 49.3300018311, Lat : 49.2837284, Lng : -123.1146683, Q1 : 0.87551099062, Q2 : 0.0731479749084, Q3 : -0.136532649398, Q4 : 0.45769944787}
2019-04-14 01:37:31.41: SIM {TimeUS : 63234696, Roll : 0.18, Pitch : -17.8, Yaw : 55.16, Alt : 49.3300018311, Lat : 49.2837308, Lng : -123.1146629, Q1 : 0.875557243824, Q2 : 0.0730343535542, Q3 : -0.136412084103, Q4 : 0.457665026188}
2019-04-14 01:37:31.51: SIM {TimeUS : 63334656, Roll : 0.16, Pitch : -17.79, Yaw : 55.16, Alt : 49.3300018311, Lat : 49.2837332, Lng : -123.1146575, Q1 : 0.875593185425, Q2 : 0.0728743448853, Q3 : -0.136411964893, Q4 : 0.457621783018}
2019-04-14 01:37:31.61: SIM {TimeUS : 63434616, Roll : 0.15, Pitch : -17.78, Yaw : 55.15, Alt : 49.3300018311, Lat : 49.2837356, Lng : -123.1146522, Q1 : 0.875623345375, Q2 : 0.0727575048804, Q3 : -0.136424228549, Q4 : 0.457578986883}
2019-04-14 01:37:31.71: SIM {TimeUS : 63534576, Roll : 0.14, Pitch : -17.79, Yaw : 55.15, Alt : 49.3300018311, Lat : 49.283738, Lng : -123.1146468, Q1 : 0.875638008118, Q2 : 0.0727156251669, Q3 : -0.136555105448, Q4 : 0.45751863718}
2019-04-14 01:37:31.81: SIM {TimeUS : 63634536, Roll : 0.14, Pitch : -17.81, Yaw : 55.14, Alt : 49.3300018311, Lat : 49.2837404, Lng : -123.1146414, Q1 : 0.875643730164, Q2 : 0.072774194181, Q3 : -0.136690184474, Q4 : 0.457457900047}
2019-04-14 01:37:31.91: SIM {TimeUS : 63734496, Roll : 0.14, Pitch : -17.85, Yaw : 55.13, Alt : 49.3300018311, Lat : 49.2837428, Lng : -123.114636, Q1 : 0.875628948212, Q2 : 0.0728981494904, Q3 : -0.136993899941, Q4 : 0.45737567544}
2019-04-14 01:37:32.01: SIM {TimeUS : 63834456, Roll : 0.14, Pitch : -17.9, Yaw : 55.12, Alt : 49.3300018311, Lat : 49.2837452, Lng : -123.1146306, Q1 : 0.8756031394, Q2 : 0.0730865448713, Q3 : -0.137366741896, Q4 : 0.457283139229}
2019-04-14 01:37:32.11: SIM {TimeUS : 63934416, Roll : 0.15, Pitch : -17.93, Yaw : 55.11, Alt : 49.3300018311, Lat : 49.2837476, Lng : -123.1146251, Q1 : 0.875589728355, Q2 : 0.0732862204313, Q3 : -0.137625128031, Q4 : 0.457199156284}
2019-04-14 01:37:32.21: SIM {TimeUS : 64034376, Roll : 0.14, Pitch : -17.97, Yaw : 55.1, Alt : 49.3300018311, Lat : 49.28375, Lng : -123.1146197, Q1 : 0.875599682331, Q2 : 0.0733484253287, Q3 : -0.137892454863, Q4 : 0.457089692354}
2019-04-14 01:37:32.31: SIM {TimeUS : 64134336, Roll : 0.13, Pitch : -17.99, Yaw : 55.09, Alt : 49.3300018311, Lat : 49.2837524, Lng : -123.1146143, Q1 : 0.875627458096, Q2 : 0.0733663886786, Q3 : -0.138102993369, Q4 : 0.45697003603}
2019-04-14 01:37:32.41: SIM {TimeUS : 64234296, Roll : 0.14, Pitch : -17.98, Yaw : 55.08, Alt : 49.3300018311, Lat : 49.2837547, Lng : -123.1146089, Q1 : 0.875685274601, Q2 : 0.0734025016427, Q3 : -0.138049483299, Q4 : 0.456869482994}
2019-04-14 01:37:32.51: SIM {TimeUS : 64334256, Roll : 0.16, Pitch : -17.99, Yaw : 55.06, Alt : 49.3300018311, Lat : 49.2837571, Lng : -123.1146034, Q1 : 0.875737905502, Q2 : 0.0735403969884, Q3 : -0.137996375561, Q4 : 0.456762462854}
2019-04-14 01:37:32.61: SIM {TimeUS : 64434216, Roll : 0.17, Pitch : -18.0, Yaw : 55.04, Alt : 49.3400001526, Lat : 49.2837597, Lng : -123.114598, Q1 : 0.875780701637, Q2 : 0.0736674815416, Q3 : -0.138085544109, Q4 : 0.456633001566}
2019-04-14 01:37:32.71: SIM {TimeUS : 64534176, Roll : 0.18, Pitch : -18.01, Yaw : 55.03, Alt : 49.3400001526, Lat : 49.283762, Lng : -123.1145925, Q1 : 0.875832557678, Q2 : 0.0737584456801, Q3 : -0.138081401587, Q4 : 0.456520020962}
2019-04-14 01:37:32.81: SIM {TimeUS : 64634136, Roll : 0.19, Pitch : -18.0, Yaw : 55.01, Alt : 49.3400001526, Lat : 49.2837644, Lng : -123.1145871, Q1 : 0.875896394253, Q2 : 0.0737895146012, Q3 : -0.137975364923, Q4 : 0.456424623728}
2019-04-14 01:37:32.91: SIM {TimeUS : 64734096, Roll : 0.2, Pitch : -17.99, Yaw : 55.0, Alt : 49.3400001526, Lat : 49.283767, Lng : -123.1145816, Q1 : 0.87595552206, Q2 : 0.0737661272287, Q3 : -0.137919336557, Q4 : 0.456331878901}
2019-04-14 01:37:33.01: SIM {TimeUS : 64834056, Roll : 0.18, Pitch : -18.0, Yaw : 54.99, Alt : 49.3400001526, Lat : 49.2837694, Lng : -123.1145761, Q1 : 0.875996172428, Q2 : 0.073670424521, Q3 : -0.138101890683, Q4 : 0.456214100122}
2019-04-14 01:37:33.12: SIM {TimeUS : 64934849, Roll : 0.15, Pitch : -18.04, Yaw : 54.98, Alt : 49.3400001526, Lat : 49.2837719, Lng : -123.1145706, Q1 : 0.876011192799, Q2 : 0.0735993981361, Q3 : -0.138452634215, Q4 : 0.456090301275}
2019-04-14 01:37:33.21: SIM {TimeUS : 65034809, Roll : 0.14, Pitch : -18.04, Yaw : 54.97, Alt : 49.3400001526, Lat : 49.2837743, Lng : -123.1145651, Q1 : 0.876042068005, Q2 : 0.0735052227974, Q3 : -0.138568088412, Q4 : 0.456011205912}
2019-04-14 01:37:33.31: SIM {TimeUS : 65134769, Roll : 0.15, Pitch : -18.03, Yaw : 54.96, Alt : 49.3400001526, Lat : 49.2837768, Lng : -123.1145596, Q1 : 0.876079440117, Q2 : 0.0735369324684, Q3 : -0.138397857547, Q4 : 0.455985963345}
2019-04-14 01:37:33.41: SIM {TimeUS : 65234729, Roll : 0.17, Pitch : -18.02, Yaw : 54.96, Alt : 49.3400001526, Lat : 49.2837792, Lng : -123.1145541, Q1 : 0.876105904579, Q2 : 0.0736352577806, Q3 : -0.138232350349, Q4 : 0.455969393253}
2019-04-14 01:37:33.51: SIM {TimeUS : 65334689, Roll : 0.18, Pitch : -18.03, Yaw : 54.95, Alt : 49.3400001526, Lat : 49.2837817, Lng : -123.1145486, Q1 : 0.876117348671, Q2 : 0.073705367744, Q3 : -0.138300016522, Q4 : 0.455915540457}
2019-04-14 01:37:33.61: SIM {TimeUS : 65434649, Roll : 0.16, Pitch : -18.05, Yaw : 54.94, Alt : 49.3400001526, Lat : 49.2837841, Lng : -123.1145431, Q1 : 0.876128435135, Q2 : 0.0736699178815, Q3 : -0.138523936272, Q4 : 0.455832064152}
2019-04-14 01:37:33.71: SIM {TimeUS : 65534609, Roll : 0.13, Pitch : -18.07, Yaw : 54.94, Alt : 49.3400001526, Lat : 49.2837866, Lng : -123.1145376, Q1 : 0.876142084599, Q2 : 0.0735398903489, Q3 : -0.138835996389, Q4 : 0.455731928349}
2019-04-14 01:37:33.81: SIM {TimeUS : 65634569, Roll : 0.12, Pitch : -18.09, Yaw : 54.93, Alt : 49.3400001526, Lat : 49.283789, Lng : -123.1145321, Q1 : 0.876160860062, Q2 : 0.0734724029899, Q3 : -0.13906443119, Q4 : 0.455636978149}
2019-04-14 01:37:33.91: SIM {TimeUS : 65734529, Roll : 0.12, Pitch : -18.11, Yaw : 54.92, Alt : 49.3400001526, Lat : 49.2837915, Lng : -123.1145266, Q1 : 0.87617200613, Q2 : 0.0735553130507, Q3 : -0.139219745994, Q4 : 0.455554693937}
2019-04-14 01:37:34.01: SIM {TimeUS : 65834489, Roll : 0.13, Pitch : -18.12, Yaw : 54.91, Alt : 49.3400001526, Lat : 49.283794, Lng : -123.1145211, Q1 : 0.876185417175, Q2 : 0.0736937448382, Q3 : -0.139255851507, Q4 : 0.455495536327}
