2019-04-14 11:26:41.80: SIM {TimeUS : 40816167, Roll : 0.0, Pitch : 0.0, Yaw : 0.0, Alt : 30.1000003815, Lat : 49.28357, Lng : -123.11502, Q1 : 1.0, Q2 : 0.0, Q3 : 0.0, Q4 : 0.0}
2019-04-14 11:26:41.91: SIM {TimeUS : 40935286, Roll : 0.0, Pitch : 0.0, Yaw : 0.0, Alt : 30.1000003815, Lat : 49.28357, Lng : -123.11502, Q1 : 1.0, Q2 : 0.0, Q3 : 0.0, Q4 : 0.0}
2019-04-14 11:26:42.01: SIM {TimeUS : 41035246, Roll : 0.0, Pitch : 0.0, Yaw : 0.0, Alt : 30.1000003815, Lat : 49.28357, Lng : -123.11502, Q1 : 1.0, Q2 : 0.0, Q3 : 0.0, Q4 : 0.0}
2019-04-14 11:26:42.11: SIM {TimeUS : 41135206, Roll : 0.0, Pitch : 0.0, Yaw : 0.0, Alt : 30.1000003815, Lat : 49.28357, Lng : -123.11502, Q1 : 1.0, Q2 : 0.0, Q3 : 0.0, Q4 : 0.0}
2019-04-14 11:26:42.21: SIM {TimeUS : 41235166, Roll : 0.0, Pitch : 0.0, Yaw : 0.0, Alt : 30.1000003815, Lat : 49.28357, Lng : -123.11502, Q1 : 1.0, Q2 : 0.0, Q3 : 0.0, Q4 : 0.0}
2019-04-14 11:26:42.31: SIM {TimeUS : 41335126, Roll : 0.0, Pitch : 0.0, Yaw : 0.0, Alt : 30.1000003815, Lat : 49.28357, Lng : -123.11502, Q1 : 1.0, Q2 : 0.0, Q3 : 0.0, Q4 : 0.0}
2019-04-14 11:26:42.41: SIM {TimeUS : 41435086, Roll : 0.0, Pitch : 0.0, Yaw : 0.0, Alt : 30.1000003815, Lat : 49.28357, Lng : -123.11502, Q1 : 1.0, Q2 : 0.0, Q3 : 0.0, Q4 : 0.0}
2019-04-14 11:26:42.51: SIM {TimeUS : 41535046, Roll : 0.0, Pitch : 0.0, Yaw : 0.0, Alt : 30.1000003815, Lat : 49.28357, Lng : -123.11502, Q1 : 1.0, Q2 : 0.0, Q3 : 0.0, Q4 : 0.0}
2019-04-14 11:26:42.61: SIM {TimeUS : 41635006, Roll : 0.0, Pitch : 0.0, Yaw : 0.0, Alt : 30.1000003815, Lat : 49.28357, Lng : -123.11502, Q1 : 1.0, Q2 : 0.0, Q3 : 0.0, Q4 : 0.0}
2019-04-14 11:26:42.71: SIM {TimeUS : 41734966, Roll : 0.0, Pitch : 0.0, Yaw : 0.0, Alt : 30.1000003815, Lat : 49.28357, Lng : -123.11502, Q1 : 1.0, Q2 : 0.0, Q3 : 0.0, Q4 : 0.0}
2019-04-14 11:26:42.81: SIM {TimeUS : 41834926, Roll : 0.0, Pitch : 0.0, Yaw : 0.0, Alt : 30.1000003815, Lat : 49.28357, Lng : -123.11502, Q1 : 1.0, Q2 : 0.0, Q3 : 0.0, Q4 : 0.0}
2019-04-14 11:26:42.91: SIM {TimeUS : 41934886, Roll : 0.0, Pitch : 0.0, Yaw : 0.0, Alt : 30.1000003815, Lat : 49.28357, Lng : -123.11502, Q1 : 1.0, Q2 : 0.0, Q3 : 0.0, Q4 : 0.0}
2019-04-14 11:26:43.01: SIM {TimeUS : 42034846, Roll : 0.0, Pitch : 0.0, Yaw : 0.0, Alt : 30.1000003815, Lat : 49.28357, Lng : -123.11502, Q1 : 1.0, Q2 : 0.0, Q3 : 0.0, Q4 : 0.0}
2019-04-14 11:26:43.11: SIM {TimeUS : 42134806, Roll : 0.0, Pitch : 0.0, Yaw : 0.0, Alt : 30.1000003815, Lat : 49.28357, Lng : -123.11502, Q1 : 1.0, Q2 : 0.0, Q3 : 0.0, Q4 : 0.0}
2019-04-14 11:26:43.21: SIM {TimeUS : 42234766, Roll : 0.0, Pitch : 0.0, Yaw : 0.0, Alt : 30.1000003815, Lat : 49.28357, Lng : -123.11502, Q1 : 1.0, Q2 : 0.0, Q3 : 0.0, Q4 : 0.0}
2019-04-14 11:26:43.31: SIM {TimeUS : 42334726, Roll : 0.0, Pitch : 0.0, Yaw : 0.0, Alt : 30.1000003815, Lat : 49.28357, Lng : -123.11502, Q1 : 1.0, Q2 : 0.0, Q3 : 0.0, Q4 : 0.0}
2019-04-14 11:26:43.41: SIM {TimeUS : 42434686, Roll : 0.0, Pitch : 0.0, Yaw : 0.0, Alt : 30.1000003815, Lat : 49.28357, Lng : -123.11502, Q1 : 1.0, Q2 : 0.0, Q3 : 0.0, Q4 : 0.0}
2019-04-14 11:26:43.51: SIM {TimeUS : 42534646, Roll : 0.0, Pitch : 0.0, Yaw : 0.0, Alt : 30.1000003815, Lat : 49.28357, Lng : -123.11502, Q1 : 1.0, Q2 : 0.0, Q3 : 0.0, Q4 : 0.0}
2019-04-14 11:26:43.61: SIM {TimeUS : 42634606, Roll : 0.0, Pitch : 0.0, Yaw : 0.0, Alt : 30.1000003815, Lat : 49.28357, Lng : -123.11502, Q1 : 1.0, Q2 : 0.0, Q3 : 0.0, Q4 : 0.0}
2019-04-14 11:26:43.71: SIM {TimeUS : 42734566, Roll : 0.0, Pitch : 0.0, Yaw : 0.0, Alt : 30.1000003815, Lat : 49.28357, Lng : -123.11502, Q1 : 1.0, Q2 : 0.0, Q3 : 0.0, Q4 : 0.0}
2019-04-14 11:26:43.81: SIM {TimeUS : 42834526, Roll : 0.0, Pitch : 0.0, Yaw : 0.0, Alt : 30.1000003815, Lat : 49.28357, Lng : -123.11502, Q1 : 1.0, Q2 : 0.0, Q3 : 0.0, Q4 : 0.0}
2019-04-14 11:26:43.91: SIM {TimeUS : 42935319, Roll : 0.0, Pitch : 0.0, Yaw : 0.0, Alt : 30.1000003815, Lat : 49.28357, Lng : -123.11502, Q1 : 1.0, Q2 : 0.0, Q3 : 0.0, Q4 : 0.0}
2019-04-14 11:26:44.01: SIM {TimeUS : 43035279, Roll : 0.0, Pitch : 0.0, Yaw : 0.0, Alt : 30.1000003815, Lat : 49.28357, Lng : -123.11502, Q1 : 1.0, Q2 : 0.0, Q3 : 0.0, Q4 : 0.0}
2019-04-14 11:26:44.11: SIM {TimeUS : 43135239, Roll : 0.0, Pitch : 0.0, Yaw : 360.0, Alt : 30.1000003815, Lat : 49.28357, Lng : -123.11502, Q1 : 1.0, Q2 : 0.0, Q3 : 0.0, Q4 : -5.76911088346e-12}
2019-04-14 11:26:44.21: SIM {TimeUS : 43235199, Roll : 0.0, Pitch : 0.0, Yaw : 0.0, Alt : 30.1000003815, Lat : 49.28357, Lng : -123.11502, Q1 : 1.0, Q2 : 0.0, Q3 : 0.0, Q4 : 1.67138317075e-11}
2019-04-14 11:26:44.31: SIM {TimeUS : 43335159, Roll : 0.0, Pitch : 0.0, Yaw : 360.0, Alt : 30.1000003815, Lat : 49.28357, Lng : -123.11502, Q1 : 1.0, Q2 : 0.0, Q3 : 0.0, Q4 : -9.67275255448e-08}
2019-04-14 11:26:44.41: SIM {TimeUS : 43435119, Roll : 0.0, Pitch : 0.0, Yaw : 359.99, Alt : 30.1000003815, Lat : 49.28357, Lng : -123.11502, Q1 : 1.0, Q2 : 0.0, Q3 : 0.0, Q4 : -2.55648444636e-07}
2019-04-14 11:26:44.51: SIM {TimeUS : 43535079, Roll : 0.0, Pitch : 0.0, Yaw : 359.99, Alt : 30.1000003815, Lat : 49.28357, Lng : -123.11502, Q1 : 1.0, Q2 : 0.0, Q3 : 0.0, Q4 : -4.11411292589e-07}
2019-04-14 11:26:44.61: SIM {TimeUS : 43635039, Roll : 0.0, Pitch : 0.0, Yaw : 359.99, Alt : 30.1000003815, Lat : 49.28357, Lng : -123.11502, Q1 : 1.0, Q2 : 0.0, Q3 : 0.0, Q4 : -6.45757154416e-07}
2019-04-14 11:26:44.71: SIM {TimeUS : 43734999, Roll : 0.0, Pitch : 0.0, Yaw : 359.99, Alt : 30.1000003815, Lat : 49.28357, Lng : -123.11502, Q1 : 1.0, Q2 : 0.0, Q3 : 0.0, Q4 : -8.18779994916e-07}
2019-04-14 11:26:44.81: SIM {TimeUS : 43834959, Roll : 0.0, Pitch : 0.0, Yaw : 359.99, Alt : 30.1000003815, Lat : 49.28357, Lng : -123.11502, Q1 : 1.0, Q2 : 0.0, Q3 : 0.0, Q4 : -9.70793394117e-07}
2019-04-14 11:26:44.91: SIM {TimeUS : 43934919, Roll : 0.0, Pitch : 0.0, Yaw : 359.99, Alt : 30.1000003815, Lat : 49.28357, Lng : -123.11502, Q1 : 1.0, Q2 : 0.0, Q3 : 0.0, Q4 : -1.21235632378e-06}
2019-04-14 11:26:45.01: SIM {TimeUS : 44034879, Roll : 0.0, Pitch : 0.0, Yaw : 359.99, Alt : 30.1100006104, Lat : 49.28357, Lng : -123.11502, Q1 : 1.0, Q2 : 0.0, Q3 : 0.0, Q4 : -1.41997804803e-06}
2019-04-14 11:26:45.11: SIM {TimeUS : 44134839, Roll : 0.0, Pitch : 0.0, Yaw : 359.99, Alt : 30.1299991608, Lat : 49.28357, Lng : -123.11502, Q1 : 1.0, Q2 : 0.0, Q3 : 0.0, Q4 : -1.61016464517e-06}
2019-04-14 11:26:45.21: SIM {TimeUS : 44234799, Roll : 0.0, Pitch : 0.0, Yaw : 359.99, Alt : 30.1499996185, Lat : 49.28357, Lng : -123.11502, Q1 : 1.0, Q2 : 0.0, Q3 : 0.0, Q4 : -1.86124407264e-06}
2019-04-14 11:26:45.31: SIM {TimeUS : 44334759, Roll : 0.0, Pitch : 0.0, Yaw : 359.99, Alt : 30.1900005341, Lat : 49.28357, Lng : -123.11502, Q1 : 1.0, Q2 : 0.0, Q3 : 0.0, Q4 : -2.02494879886e-06}
2019-04-14 11:26:45.41: SIM {TimeUS : 44434719, Roll : -0.02, Pitch : -0.02, Yaw : 359.99, Alt : 30.2299995422, Lat : 49.28357, Lng : -123.11502, Q1 : 0.999999940395, Q2 : -0.000260012893705, Q3 : -0.000253097881796, Q4 : -3.27681595991e-06}
2019-04-14 11:26:45.51: SIM {TimeUS : 44534679, Roll : -0.27, Pitch : -0.23, Yaw : 359.99, Alt : 30.2999992371, Lat : 49.28357, Lng : -123.11502, Q1 : 0.99999499321, Q2 : -0.0024315752089, Q3 : -0.00202506477945, Q4 : -2.55753602687e-05}
2019-04-14 11:26:45.61: SIM {TimeUS : 44634639, Roll : -0.6, Pitch : -0.48, Yaw : 359.99, Alt : 30.4400005341, Lat : 49.28357, Lng : -123.11502, Q1 : 0.999977350235, Q2 : -0.00526110036299, Q3 : -0.00420214515179, Q4 : -7.23457196727e-05}
2019-04-14 11:26:45.71: SIM {TimeUS : 44734599, Roll : -0.81, Pitch : -0.66, Yaw : 359.98, Alt : 30.5900001526, Lat : 49.28357, Lng : -123.11502, Q1 : 0.999958217144, Q2 : -0.00708338432014, Q3 : -0.00577807473019, Q4 : -0.000136649454362}
2019-04-14 11:26:45.81: SIM {TimeUS : 44834559, Roll : -0.84, Pitch : -0.71, Yaw : 359.98, Alt : 30.75, Lat : 49.28357, Lng : -123.11502, Q1 : 0.999953150749, Q2 : -0.00737492833287, Q3 : -0.00626459158957, Q4 : -0.000207697405131}
2019-04-14 11:26:45.91: SIM {TimeUS : 44934519, Roll : -0.72, Pitch : -0.64, Yaw : 359.97, Alt : 30.9099998474, Lat : 49.28357, Lng : -123.1150201, Q1 : 0.999963998795, Q2 : -0.00633531855419, Q3 : -0.00564279127866, Q4 : -0.000277439015917}
2019-04-14 11:26:46.01: SIM {TimeUS : 45035312, Roll : -0.51, Pitch : -0.49, Yaw : 359.96, Alt : 31.0599994659, Lat : 49.2835701, Lng : -123.1150201, Q1 : 0.999980807304, Q2 : -0.00445908959955, Q3 : -0.00428969645873, Q4 : -0.000341069477145}
2019-04-14 11:26:46.11: SIM {TimeUS : 45135272, Roll : -0.27, Pitch : -0.29, Yaw : 359.95, Alt : 31.2199993134, Lat : 49.2835701, Lng : -123.1150202, Q1 : 0.999993681908, Q2 : -0.00239567621611, Q3 : -0.0026032414753, Q4 : -0.000391571811633}
2019-04-14 11:26:46.21: SIM {TimeUS : 45235232, Roll : -0.08, Pitch : -0.11, Yaw : 359.95, Alt : 31.3899993896, Lat : 49.2835702, Lng : -123.1150203, Q1 : 0.999999165535, Q2 : -0.000708926119842, Q3 : -0.000966747815255, Q4 : -0.000430293206591}
2019-04-14 11:26:46.31: SIM {TimeUS : 45335192, Roll : 0.03, Pitch : 0.02, Yaw : 359.94, Alt : 31.5599994659, Lat : 49.2835702, Lng : -123.1150203, Q1 : 0.999999821186, Q2 : 0.000277922197711, Q3 : 0.000256233674008, Q4 : -0.000460375595139}
2019-04-14 11:26:46.41: SIM {TimeUS : 45435152, Roll : 0.06, Pitch : 0.1, Yaw : 359.94, Alt : 31.7299995422, Lat : 49.2835702, Lng : -123.1150204, Q1 : 0.999999284744, Q2 : 0.000573386030737, Q3 : 0.000914333679248, Q4 : -0.000481604773086}
2019-04-14 11:26:46.51: SIM {TimeUS : 45535112, Roll : 0.07, Pitch : 0.13, Yaw : 359.94, Alt : 31.9099998474, Lat : 49.2835703, Lng : -123.1150205, Q1 : 0.999998927116, Q2 : 0.000674896931741, Q3 : 0.00119098939467, Q4 : -0.000483260955662}
2019-04-14 11:26:46.61: SIM {TimeUS : 45635072, Roll : 0.08, Pitch : 0.12, Yaw : 359.94, Alt : 32.0999984741, Lat : 49.2835703, Lng : -123.1150205, Q1 : 0.999999046326, Q2 : 0.000706053106114, Q3 : 0.00109253684059, Q4 : -0.000460805196781}
2019-04-14 11:26:46.71: SIM {TimeUS : 45735032, Roll : 0.08, Pitch : 0.11, Yaw : 359.95, Alt : 32.2900009155, Lat : 49.2835703, Lng : -123.1150206, Q1 : 0.999999165535, Q2 : 0.000701325188857, Q3 : 0.000978957512416, Q4 : -0.000436045840615}
2019-04-14 11:26:46.81: SIM {TimeUS : 45834992, Roll : 0.07, Pitch : 0.1, Yaw : 359.95, Alt : 32.4799995422, Lat : 49.2835703, Lng : -123.1150206, Q1 : 0.999999284744, Q2 : 0.000635334989056, Q3 : 0.000924204709008, Q4 : -0.000412249559304}
2019-04-14 11:26:46.91: SIM {TimeUS : 45934952, Roll : 0.07, Pitch : 0.08, Yaw : 359.95, Alt : 32.6699981689, Lat : 49.2835703, Lng : -123.1150207, Q1 : 0.999999403954, Q2 : 0.000676766328979, Q3 : 0.000784676056355, Q4 : -0.000402123434469}
2019-04-14 11:26:47.01: SIM {TimeUS : 46034912, Roll : 0.09, Pitch : 0.07, Yaw : 359.95, Alt : 32.8699989319, Lat : 49.2835703, Lng : -123.1150207, Q1 : 0.999999403954, Q2 : 0.000815068371594, Q3 : 0.000663872924633, Q4 : -0.000395339913666}
2019-04-14 11:26:47.11: SIM {TimeUS : 46134872, Roll : 0.11, Pitch : 0.09, Yaw : 359.95, Alt : 33.0699996948, Lat : 49.2835704, Lng : -123.1150207, Q1 : 0.99999910593, Q2 : 0.000976474548224, Q3 : 0.000816625601146, Q4 : -0.000391330220737}
2019-04-14 11:26:47.21: SIM {TimeUS : 46234832, Roll : 0.13, Pitch : 0.11, Yaw : 359.95, Alt : 33.2799987793, Lat : 49.2835704, Lng : -123.1150207, Q1 : 0.999998807907, Q2 : 0.00114299205597, Q3 : 0.000993116758764, Q4 : -0.000388519256376}
2019-04-14 11:26:47.31: SIM {TimeUS : 46334792, Roll : 0.15, Pitch : 0.13, Yaw : 359.95, Alt : 33.4799995422, Lat : 49.2835704, Lng : -123.1150208, Q1 : 0.99999833107, Q2 : 0.00134038354736, Q3 : 0.00118233857211, Q4 : -0.000392937334254}
2019-04-14 11:26:47.41: SIM {TimeUS : 46434752, Roll : 0.16, Pitch : 0.14, Yaw : 359.95, Alt : 33.6899986267, Lat : 49.2835704, Lng : -123.1150208, Q1 : 0.999998033047, Q2 : 0.00143980165012, Q3 : 0.00129259028472, Q4 : -0.000403647747589}
2019-04-14 11:26:47.51: SIM {TimeUS : 46534712, Roll : 0.15, Pitch : 0.14, Yaw : 359.95, Alt : 33.8899993896, Lat : 49.2835704, Lng : -123.1150208, Q1 : 0.999998211861, Q2 : 0.00136255717371, Q3 : 0.00125600898173, Q4 : -0.000427893246524}
2019-04-14 11:26:47.61: SIM {TimeUS : 46634672, Roll : 0.13, Pitch : 0.13, Yaw : 359.94, Alt : 34.0999984741, Lat : 49.2835704, Lng : -123.1150208, Q1 : 0.999998450279, Q2 : 0.0012126644142, Q3 : 0.00117706391029, Q4 : -0.000457124959212}
2019-04-14 11:26:47.71: SIM {TimeUS : 46734632, Roll : 0.11, Pitch : 0.12, Yaw : 359.94, Alt : 34.3199996948, Lat : 49.2835704, Lng : -123.1150208, Q1 : 0.999998807907, Q2 : 0.00100035651121, Q3 : 0.00108102767263, Q4 : -0.000490771257319}
2019-04-14 11:26:47.81: SIM {TimeUS : 46834592, Roll : 0.09, Pitch : 0.08, Yaw : 359.93, Alt : 34.5299987793, Lat : 49.2835704, Lng : -123.1150208, Q1 : 0.99999922514, Q2 : 0.000852514931466, Q3 : 0.000750308507122, Q4 : -0.000533302139957}
2019-04-14 11:26:47.91: SIM {TimeUS : 46934552, Roll : 0.08, Pitch : 0.05, Yaw : 359.93, Alt : 34.7400016785, Lat : 49.2835704, Lng : -123.1150208, Q1 : 0.999999463558, Q2 : 0.000769455102272, Q3 : 0.000448254548246, Q4 : -0.000574281846639}
2019-04-14 11:26:48.01: SIM {TimeUS : 47034512, Roll : 0.06, Pitch : 0.03, Yaw : 359.92, Alt : 34.9599990845, Lat : 49.2835704, Lng : -123.1150207, Q1 : 0.999999582767, Q2 : 0.000593416159973, Q3 : 0.000281075655948, Q4 : -0.000616061151959}
2019-04-14 11:26:48.11: SIM {TimeUS : 47135305, Roll : 0.05, Pitch : 0.02, Yaw : 359.92, Alt : 35.1800003052, Lat : 49.2835704, Lng : -123.1150207, Q1 : 0.999999642372, Q2 : 0.000492168415803, Q3 : 0.000240957597271, Q4 : -0.000649888359476}
2019-04-14 11:26:48.21: SIM {TimeUS : 47235265, Roll : 0.05, Pitch : 0.02, Yaw : 359.92, Alt : 35.3899993896, Lat : 49.2835704, Lng : -123.1150207, Q1 : 0.999999642372, Q2 : 0.000479307840578, Q3 : 0.00023308643722, Q4 : -0.000669416040182}
2019-04-14 11:26:48.31: SIM {TimeUS : 47335225, Roll : 0.03, Pitch : 0.0, Yaw : 359.92, Alt : 35.6100006104, Lat : 49.2835704, Lng : -123.1150207, Q1 : 0.999999701977, Q2 : 0.000284917099634, Q3 : 5.84587942285e-05, Q4 : -0.000684252474457}
2019-04-14 11:26:48.41: SIM {TimeUS : 47435185, Roll : 0.0, Pitch : -0.02, Yaw : 359.92, Alt : 35.8300018311, Lat : 49.2835704, Lng : -123.1150207, Q1 : 0.999999761581, Q2 : -1.87336627278e-05, Q3 : -0.000249881937634, Q4 : -0.000694652146194}
2019-04-14 11:26:48.51: SIM {TimeUS : 47535145, Roll : -0.04, Pitch : -0.05, Yaw : 359.91, Alt : 36.0499992371, Lat : 49.2835704, Lng : -123.1150207, Q1 : 0.999999582767, Q2 : -0.000356419855962, Q3 : -0.000479209498735, Q4 : -0.00070620974293}
2019-04-14 11:26:48.61: SIM {TimeUS : 47635105, Roll : -0.07, Pitch : -0.06, Yaw : 359.91, Alt : 36.2700004578, Lat : 49.2835704, Lng : -123.1150207, Q1 : 0.999999344349, Q2 : -0.000631157949101, Q3 : -0.000609655806329, Q4 : -0.000717463553883}
2019-04-14 11:26:48.71: SIM {TimeUS : 47735065, Roll : -0.08, Pitch : -0.07, Yaw : 359.91, Alt : 36.4900016785, Lat : 49.2835704, Lng : -123.1150206, Q1 : 0.999999284744, Q2 : -0.000724463898223, Q3 : -0.00063506339211, Q4 : -0.000727117527276}
2019-04-14 11:26:48.81: SIM {TimeUS : 47835025, Roll : -0.08, Pitch : -0.06, Yaw : 359.91, Alt : 36.7200012207, Lat : 49.2835704, Lng : -123.1150206, Q1 : 0.999999284744, Q2 : -0.000767299265135, Q3 : -0.000598792626988, Q4 : -0.000740319781471}
2019-04-14 11:26:48.91: SIM {TimeUS : 47934985, Roll : -0.07, Pitch : -0.05, Yaw : 359.91, Alt : 36.9399986267, Lat : 49.2835704, Lng : -123.1150206, Q1 : 0.999999344349, Q2 : -0.000698247516993, Q3 : -0.000442405667854, Q4 : -0.000757844187319}
2019-04-14 11:26:49.01: SIM {TimeUS : 48034945, Roll : -0.06, Pitch : -0.04, Yaw : 359.91, Alt : 37.1599998474, Lat : 49.2835704, Lng : -123.1150206, Q1 : 0.999999463558, Q2 : -0.000566984585021, Q3 : -0.000348930421751, Q4 : -0.000773277424742}
2019-04-14 11:26:49.11: SIM {TimeUS : 48134905, Roll : -0.06, Pitch : -0.04, Yaw : 359.9, Alt : 37.3899993896, Lat : 49.2835704, Lng : -123.1150206, Q1 : 0.999999463558, Q2 : -0.000577320053708, Q3 : -0.000383312552003, Q4 : -0.00078799208859}
2019-04-14 11:26:49.21: SIM {TimeUS : 48234865, Roll : -0.07, Pitch : -0.02, Yaw : 359.9, Alt : 37.6100006104, Lat : 49.2835704, Lng : -123.1150206, Q1 : 0.999999463558, Q2 : -0.000641368562356, Q3 : -0.000246651266934, Q4 : -0.00081242917804}
2019-04-14 11:26:49.31: SIM {TimeUS : 48334825, Roll : -0.09, Pitch : 0.0, Yaw : 359.9, Alt : 37.8400001526, Lat : 49.2835704, Lng : -123.1150206, Q1 : 0.999999284744, Q2 : -0.00082719657803, Q3 : -6.11365976511e-05, Q4 : -0.000839549931698}
2019-04-14 11:26:49.41: SIM {TimeUS : 48434785, Roll : -0.09, Pitch : 0.0, Yaw : 359.9, Alt : 38.0699996948, Lat : 49.2835704, Lng : -123.1150206, Q1 : 0.999999284744, Q2 : -0.000837921747006, Q3 : 7.67430028645e-05, Q4 : -0.000858822430018}
2019-04-14 11:26:49.51: SIM {TimeUS : 48534745, Roll : -0.07, Pitch : 0.03, Yaw : 359.89, Alt : 38.2900009155, Lat : 49.2835704, Lng : -123.1150206, Q1 : 0.999999344349, Q2 : -0.000642922474071, Q3 : 0.000335404474754, Q4 : -0.000881261774339}
2019-04-14 11:26:49.61: SIM {TimeUS : 48634705, Roll : -0.04, Pitch : 0.03, Yaw : 359.89, Alt : 38.5200004578, Lat : 49.2835704, Lng : -123.1150206, Q1 : 0.999999463558, Q2 : -0.000431624386692, Q3 : 0.000301037391182, Q4 : -0.000907217268832}
2019-04-14 11:26:49.71: SIM {TimeUS : 48734665, Roll : -0.02, Pitch : 0.01, Yaw : 359.89, Alt : 38.75, Lat : 49.2835704, Lng : -123.1150206, Q1 : 0.999999523163, Q2 : -0.000178470771061, Q3 : 0.000171303137904, Q4 : -0.000930303707719}
2019-04-14 11:26:49.81: SIM {TimeUS : 48834625, Roll : 0.01, Pitch : 0.02, Yaw : 359.89, Alt : 38.9799995422, Lat : 49.2835706, Lng : -123.1150206, Q1 : 0.999999523163, Q2 : 0.000116965486086, Q3 : 0.000219000779907, Q4 : -0.000951178953983}
2019-04-14 11:26:49.91: SIM {TimeUS : 48934585, Roll : 0.04, Pitch : 0.04, Yaw : 359.88, Alt : 39.2099990845, Lat : 49.2835706, Lng : -123.1150206, Q1 : 0.999999344349, Q2 : 0.000416821014369, Q3 : 0.000405789440265, Q4 : -0.000975987873971}
2019-04-14 11:26:50.01: SIM {TimeUS : 49034545, Roll : 0.07, Pitch : 0.07, Yaw : 359.88, Alt : 39.4399986267, Lat : 49.2835706, Lng : -123.1150206, Q1 : 0.999999046326, Q2 : 0.000659668818116, Q3 : 0.000660254445393, Q4 : -0.000999995041639}
2019-04-14 11:26:50.11: SIM {TimeUS : 49134505, Roll : 0.06, Pitch : 0.1, Yaw : 359.88, Alt : 39.6699981689, Lat : 49.2835706, Lng : -123.1150207, Q1 : 0.999998927116, Q2 : 0.000581765489187, Q3 : 0.00090668204939, Q4 : -0.00101876095869}
2019-04-14 11:26:50.21: SIM {TimeUS : 49235298, Roll : 0.01, Pitch : 0.12, Yaw : 359.87, Alt : 39.9000015259, Lat : 49.2835706, Lng : -123.1150206, Q1 : 0.999998807907, Q2 : 0.000168945698533, Q3 : 0.0011264460627, Q4 : -0.00105657381937}
2019-04-14 11:26:50.31: SIM {TimeUS : 49335258, Roll : -0.01, Pitch : 0.13, Yaw : 359.87, Alt : 40.1300010681, Lat : 49.2835706, Lng : -123.1150206, Q1 : 0.999998748302, Q2 : -0.000158542243298, Q3 : 0.0011591570219, Q4 : -0.0010879591573}
2019-04-14 11:26:50.41: SIM {TimeUS : 49435218, Roll : -0.04, Pitch : 0.11, Yaw : 359.87, Alt : 40.3699989319, Lat : 49.2835706, Lng : -123.1150206, Q1 : 0.999998748302, Q2 : -0.000382536411053, Q3 : 0.00104107544757, Q4 : -0.00111867743544}
2019-04-14 11:26:50.51: SIM {TimeUS : 49535178, Roll : -0.05, Pitch : 0.11, Yaw : 359.86, Alt : 40.5999984741, Lat : 49.2835706, Lng : -123.1150206, Q1 : 0.999998748302, Q2 : -0.000480452756165, Q3 : 0.00097330409335, Q4 : -0.00115105113946}
2019-04-14 11:26:50.61: SIM {TimeUS : 49635138, Roll : -0.04, Pitch : 0.12, Yaw : 359.86, Alt : 40.8300018311, Lat : 49.2835706, Lng : -123.1150206, Q1 : 0.999998629093, Q2 : -0.00039230560651, Q3 : 0.00108959164936, Q4 : -0.00118770310655}
2019-04-14 11:26:50.71: SIM {TimeUS : 49735098, Roll : 0.0, Pitch : 0.14, Yaw : 359.85, Alt : 41.0600013733, Lat : 49.2835706, Lng : -123.1150207, Q1 : 0.999998390675, Q2 : -3.96398900193e-05, Q3 : 0.00129157258198, Q4 : -0.00122753635515}
2019-04-14 11:26:50.81: SIM {TimeUS : 49835058, Roll : 0.04, Pitch : 0.15, Yaw : 359.85, Alt : 41.2999992371, Lat : 49.2835706, Lng : -123.1150207, Q1 : 0.999998152256, Q2 : 0.00040202550008, Q3 : 0.00139137194492, Q4 : -0.00126671802718}
2019-04-14 11:26:50.91: SIM {TimeUS : 49935018, Roll : 0.08, Pitch : 0.12, Yaw : 359.85, Alt : 41.5299987793, Lat : 49.2835706, Lng : -123.1150207, Q1 : 0.999998271465, Q2 : 0.000742797972634, Q3 : 0.00112149107736, Q4 : -0.00130058708601}
2019-04-14 11:26:51.01: SIM {TimeUS : 50034978, Roll : 0.09, Pitch : 0.07, Yaw : 359.84, Alt : 41.7599983215, Lat : 49.2835706, Lng : -123.1150207, Q1 : 0.999998569489, Q2 : 0.000806055031717, Q3 : 0.000680086726788, Q4 : -0.00132628995925}
2019-04-14 11:26:51.11: SIM {TimeUS : 50134938, Roll : 0.05, Pitch : 0.04, Yaw : 359.84, Alt : 42.0, Lat : 49.2835706, Lng : -123.1150207, Q1 : 0.999998867512, Q2 : 0.0005181604065, Q3 : 0.00040077464655, Q4 : -0.00134104781318}
2019-04-14 11:26:51.21: SIM {TimeUS : 50234898, Roll : 0.0, Pitch : 0.03, Yaw : 359.84, Alt : 42.2299995422, Lat : 49.2835706, Lng : -123.1150207, Q1 : 0.999999046326, Q2 : 6.17664773017e-05, Q3 : 0.000344900327036, Q4 : -0.00134549860377}
2019-04-14 11:26:51.31: SIM {TimeUS : 50334858, Roll : -0.02, Pitch : 0.06, Yaw : 359.84, Alt : 42.4599990845, Lat : 49.2835706, Lng : -123.1150207, Q1 : 0.999998867512, Q2 : -0.000235153769609, Q3 : 0.000581430562306, Q4 : -0.00134282186627}
2019-04-14 11:26:51.41: SIM {TimeUS : 50434818, Roll : -0.04, Pitch : 0.08, Yaw : 359.84, Alt : 42.7000007629, Lat : 49.2835704, Lng : -123.1150207, Q1 : 0.999998748302, Q2 : -0.00038281804882, Q3 : 0.000753792992327, Q4 : -0.0013380588498}
2019-04-14 11:26:51.51: SIM {TimeUS : 50534778, Roll : -0.04, Pitch : 0.07, Yaw : 359.84, Alt : 42.9300003052, Lat : 49.2835704, Lng : -123.1150206, Q1 : 0.999998807907, Q2 : -0.000358534947736, Q3 : 0.00069369468838, Q4 : -0.00133795524016}
2019-04-14 11:26:51.61: SIM {TimeUS : 50634738, Roll : -0.04, Pitch : 0.06, Yaw : 359.84, Alt : 43.1699981689, Lat : 49.2835704, Lng : -123.1150206, Q1 : 0.999998867512, Q2 : -0.00037960492773, Q3 : 0.000526797608472, Q4 : -0.00134487345349}
2019-04-14 11:26:51.71: SIM {TimeUS : 50734698, Roll : -0.03, Pitch : 0.04, Yaw : 359.84, Alt : 43.4000015259, Lat : 49.2835704, Lng : -123.1150206, Q1 : 0.999998986721, Q2 : -0.00031457139994, Q3 : 0.000360832927981, Q4 : -0.00135948171373}
2019-04-14 11:26:51.81: SIM {TimeUS : 50834658, Roll : -0.01, Pitch : 0.03, Yaw : 359.84, Alt : 43.6399993896, Lat : 49.2835704, Lng : -123.1150206, Q1 : 0.999998986721, Q2 : -0.000153533008415, Q3 : 0.000294935249258, Q4 : -0.00138475082349}
2019-04-14 11:26:51.91: SIM {TimeUS : 50934618, Roll : 0.0, Pitch : 0.03, Yaw : 359.83, Alt : 43.8699989319, Lat : 49.2835704, Lng : -123.1150206, Q1 : 0.999998986721, Q2 : -4.77241956105e-05, Q3 : 0.000292310025543, Q4 : -0.00141387141775}
2019-04-14 11:26:52.01: SIM {TimeUS : 51034578, Roll : -0.01, Pitch : 0.01, Yaw : 359.83, Alt : 44.1100006104, Lat : 49.2835704, Lng : -123.1150206, Q1 : 0.999998986721, Q2 : -8.75387922861e-05, Q3 : 0.00015369123139, Q4 : -0.00144265487324}
2019-04-14 11:26:52.11: SIM {TimeUS : 51134538, Roll : -0.01, Pitch : -0.01, Yaw : 359.83, Alt : 44.3499984741, Lat : 49.2835704, Lng : -123.1150206, Q1 : 0.999998867512, Q2 : -0.000160700335982, Q3 : -0.000122879311675, Q4 : -0.0014726461377}
2019-04-14 11:26:52.21: SIM {TimeUS : 51234498, Roll : -0.02, Pitch : -0.03, Yaw : 359.82, Alt : 44.5800018311, Lat : 49.2835704, Lng : -123.1150206, Q1 : 0.999998807907, Q2 : -0.000215484280488, Q3 : -0.000294499332085, Q4 : -0.00150593009312}
2019-04-14 11:26:52.31: SIM {TimeUS : 51335291, Roll : -0.02, Pitch : -0.04, Yaw : 359.82, Alt : 44.8199996948, Lat : 49.2835704, Lng : -123.1150206, Q1 : 0.999998748302, Q2 : -0.000177460548002, Q3 : -0.00037155020982, Q4 : -0.00154153280891}
2019-04-14 11:26:52.41: SIM {TimeUS : 51435251, Roll : -0.02, Pitch : -0.04, Yaw : 359.81, Alt : 45.0600013733, Lat : 49.2835704, Lng : -123.1150206, Q1 : 0.999998629093, Q2 : -0.000218417626456, Q3 : -0.000410784647102, Q4 : -0.00157649896573}
2019-04-14 11:26:52.51: SIM {TimeUS : 51535211, Roll : -0.05, Pitch : -0.04, Yaw : 359.81, Alt : 45.2900009155, Lat : 49.2835703, Lng : -123.1150206, Q1 : 0.999998509884, Q2 : -0.000442698801635, Q3 : -0.000393942580558, Q4 : -0.00161076185759}
2019-04-14 11:26:52.61: SIM {TimeUS : 51635171, Roll : -0.08, Pitch : -0.04, Yaw : 359.81, Alt : 45.5299987793, Lat : 49.2835703, Lng : -123.1150206, Q1 : 0.999998271465, Q2 : -0.000777825189289, Q3 : -0.000369206478354, Q4 : -0.00164484605193}
2019-04-14 11:26:52.71: SIM {TimeUS : 51735131, Roll : -0.11, Pitch : -0.03, Yaw : 359.8, Alt : 45.7599983215, Lat : 49.2835703, Lng : -123.1150206, Q1 : 0.999998033047, Q2 : -0.000987947103567, Q3 : -0.000331688526785, Q4 : -0.001675477135}
2019-04-14 11:26:52.81: SIM {TimeUS : 51835091, Roll : -0.11, Pitch : -0.02, Yaw : 359.8, Alt : 45.9900016785, Lat : 49.2835703, Lng : -123.1150206, Q1 : 0.999998033047, Q2 : -0.00100151554216, Q3 : -0.000191275583347, Q4 : -0.00170747120865}
2019-04-14 11:26:52.91: SIM {TimeUS : 51935051, Roll : -0.09, Pitch : 0.0, Yaw : 359.8, Alt : 46.2200012207, Lat : 49.2835703, Lng : -123.1150206, Q1 : 0.999998092651, Q2 : -0.000857760780491, Q3 : 5.93669719819e-05, Q4 : -0.00173798343167}
2019-04-14 11:26:53.01: SIM {TimeUS : 52035011, Roll : -0.06, Pitch : 0.02, Yaw : 359.79, Alt : 46.4500007629, Lat : 49.2835703, Lng : -123.1150206, Q1 : 0.999998211861, Q2 : -0.00060782575747, Q3 : 0.000209187550354, Q4 : -0.00176465290133}
2019-04-14 11:26:53.11: SIM {TimeUS : 52134971, Roll : -0.04, Pitch : 0.02, Yaw : 359.79, Alt : 46.6699981689, Lat : 49.2835703, Lng : -123.1150206, Q1 : 0.99999833107, Q2 : -0.00040174726746, Q3 : 0.000179663387826, Q4 : -0.00178630952723}
2019-04-14 11:26:53.21: SIM {TimeUS : 52234931, Roll : -0.03, Pitch : 0.0, Yaw : 359.79, Alt : 46.8800010681, Lat : 49.2835703, Lng : -123.1150206, Q1 : 0.99999833107, Q2 : -0.000298144412227, Q3 : 5.41401050214e-06, Q4 : -0.00180760503281}
2019-04-14 11:26:53.31: SIM {TimeUS : 52334891, Roll : -0.02, Pitch : -0.02, Yaw : 359.79, Alt : 47.0900001526, Lat : 49.2835703, Lng : -123.1150206, Q1 : 0.999998271465, Q2 : -0.000180138435098, Q3 : -0.000259339693002, Q4 : -0.00182520772796}
2019-04-14 11:26:53.41: SIM {TimeUS : 52434851, Roll : 0.0, Pitch : -0.05, Yaw : 359.78, Alt : 47.2900009155, Lat : 49.2835703, Lng : -123.1150206, Q1 : 0.999998152256, Q2 : 4.87849956698e-06, Q3 : -0.000517365639098, Q4 : -0.00183968152851}
2019-04-14 11:26:53.51: SIM {TimeUS : 52534811, Roll : 0.01, Pitch : -0.08, Yaw : 359.78, Alt : 47.4799995422, Lat : 49.2835703, Lng : -123.1150206, Q1 : 0.999998033047, Q2 : 8.69437644724e-05, Q3 : -0.000733876659069, Q4 : -0.00185862521175}
2019-04-14 11:26:53.61: SIM {TimeUS : 52634771, Roll : 0.0, Pitch : -0.11, Yaw : 359.78, Alt : 47.6599998474, Lat : 49.2835703, Lng : -123.1150206, Q1 : 0.999997735023, Q2 : 3.73048278561e-05, Q3 : -0.000997966970317, Q4 : -0.00188005820382}
2019-04-14 11:26:53.71: SIM {TimeUS : 52734731, Roll : 0.01, Pitch : -0.14, Yaw : 359.78, Alt : 47.8400001526, Lat : 49.2835703, Lng : -123.1150206, Q1 : 0.999997377396, Q2 : 0.000130757078296, Q3 : -0.00125481304713, Q4 : -0.00190108036622}
2019-04-14 11:26:53.81: SIM {TimeUS : 52834691, Roll : 0.04, Pitch : -0.15, Yaw : 359.77, Alt : 48.0, Lat : 49.2835703, Lng : -123.1150206, Q1 : 0.999997198582, Q2 : 0.000353777431883, Q3 : -0.0013203297276, Q4 : -0.00192434934434}
2019-04-14 11:26:53.91: SIM {TimeUS : 52934651, Roll : 0.07, Pitch : -0.13, Yaw : 359.77, Alt : 48.1399993896, Lat : 49.2835704, Lng : -123.1150206, Q1 : 0.999997258186, Q2 : 0.000610366754699, Q3 : -0.00118145230226, Q4 : -0.00194530677982}
2019-04-14 11:26:54.01: SIM {TimeUS : 53034611, Roll : 0.08, Pitch : -0.1, Yaw : 359.77, Alt : 48.2799987793, Lat : 49.2835704, Lng : -123.1150206, Q1 : 0.999997377396, Q2 : 0.00073362357216, Q3 : -0.000927396991756, Q4 : -0.0019656540826}
2019-04-14 11:26:54.11: SIM {TimeUS : 53134571, Roll : 0.09, Pitch : -0.08, Yaw : 359.77, Alt : 48.4099998474, Lat : 49.2835704, Lng : -123.1150206, Q1 : 0.999997437, Q2 : 0.000811946520116, Q3 : -0.000724011333659, Q4 : -0.00198598904535}
2019-04-14 11:26:54.21: SIM {TimeUS : 53234531, Roll : 0.08, Pitch : -0.07, Yaw : 359.76, Alt : 48.5200004578, Lat : 49.2835704, Lng : -123.1150206, Q1 : 0.999997496605, Q2 : 0.000726561353076, Q3 : -0.000655866111629, Q4 : -0.00201154733077}
2019-04-14 11:26:54.31: SIM {TimeUS : 53335324, Roll : 0.05, Pitch : -0.06, Yaw : 359.76, Alt : 48.6199989319, Lat : 49.2835704, Lng : -123.1150206, Q1 : 0.999997615814, Q2 : 0.000482664036099, Q3 : -0.000564446265344, Q4 : -0.0020394034218}
2019-04-14 11:26:54.41: SIM {TimeUS : 53435284, Roll : 0.03, Pitch : -0.04, Yaw : 359.76, Alt : 48.7099990845, Lat : 49.2835704, Lng : -123.1150206, Q1 : 0.999997735023, Q2 : 0.000295361707686, Q3 : -0.000405252998462, Q4 : -0.00206769653596}
2019-04-14 11:26:54.51: SIM {TimeUS : 53535244, Roll : 0.01, Pitch : -0.02, Yaw : 359.75, Alt : 48.7799987793, Lat : 49.2835704, Lng : -123.1150206, Q1 : 0.999997794628, Q2 : 0.000107100553578, Q3 : -0.000223988972721, Q4 : -0.00209657405503}
2019-04-14 11:26:54.61: SIM {TimeUS : 53635204, Roll : 0.0, Pitch : 0.0, Yaw : 359.75, Alt : 48.8499984741, Lat : 49.2835704, Lng : -123.1150206, Q1 : 0.999997735023, Q2 : -1.51901667778e-05, Q3 : -1.1958985624e-07, Q4 : -0.00212270324118}
2019-04-14 11:26:54.71: SIM {TimeUS : 53735164, Roll : 0.01, Pitch : 0.03, Yaw : 359.75, Alt : 48.9099998474, Lat : 49.2835704, Lng : -123.1150206, Q1 : 0.999997615814, Q2 : 0.000107567459054, Q3 : 0.000316984951496, Q4 : -0.00215129321441}
2019-04-14 11:26:54.81: SIM {TimeUS : 53835124, Roll : 0.04, Pitch : 0.05, Yaw : 359.74, Alt : 48.9500007629, Lat : 49.2835704, Lng : -123.1150206, Q1 : 0.999997437, Q2 : 0.000423870311351, Q3 : 0.000438404356828, Q4 : -0.00218301662244}
2019-04-14 11:26:54.91: SIM {TimeUS : 53935084, Roll : 0.17, Pitch : -0.03, Yaw : 359.74, Alt : 49.0, Lat : 49.2835704, Lng : -123.1150206, Q1 : 0.999996364117, Q2 : 0.00152766192332, Q3 : -0.000302836502669, Q4 : -0.00220975256525}
2019-04-14 11:26:55.01: SIM {TimeUS : 54035044, Roll : 0.47, Pitch : -0.26, Yaw : 359.74, Alt : 49.0299987793, Lat : 49.2835706, Lng : -123.1150206, Q1 : 0.999986469746, Q2 : 0.00410390412435, Q3 : -0.00229450664483, Q4 : -0.0022350223735}
2019-04-14 11:26:55.11: SIM {TimeUS : 54135004, Roll : 0.97, Pitch : -0.65, Yaw : 359.73, Alt : 49.0600013733, Lat : 49.2835706, Lng : -123.1150206, Q1 : 0.999944388866, Q2 : 0.0085352435708, Q3 : -0.00577174080536, Q4 : -0.00225605280139}
2019-04-14 11:26:55.21: SIM {TimeUS : 54234964, Roll : 1.68, Pitch : -1.19, Yaw : 359.72, Alt : 49.0900001526, Lat : 49.2835706, Lng : -123.1150206, Q1 : 0.999835550785, Q2 : 0.0146633246914, Q3 : -0.0104303341359, Q4 : -0.00225770357065}
2019-04-14 11:26:55.31: SIM {TimeUS : 54334924, Roll : 2.51, Pitch : -1.78, Yaw : 359.7, Alt : 49.1100006104, Lat : 49.2835706, Lng : -123.1150205, Q1 : 0.999634921551, Q2 : 0.021918412298, Q3 : -0.0156413707882, Q4 : -0.00222589937039}
2019-04-14 11:26:55.41: SIM {TimeUS : 54434884, Roll : 3.35, Pitch : -2.38, Yaw : 359.68, Alt : 49.1300010681, Lat : 49.2835707, Lng : -123.1150204, Q1 : 0.999352812767, Q2 : 0.0292290430516, Q3 : -0.0208563823253, Q4 : -0.00213969917968}
2019-04-14 11:26:55.51: SIM {TimeUS : 54534844, Roll : 4.07, Pitch : -2.88, Yaw : 359.67, Alt : 49.1500015259, Lat : 49.2835708, Lng : -123.1150202, Q1 : 0.999050915241, Q2 : 0.0354565270245, Q3 : -0.0252226404846, Q4 : -0.0019818872679}
2019-04-14 11:26:55.61: SIM {TimeUS : 54634804, Roll : 4.6, Pitch : -3.24, Yaw : 359.66, Alt : 49.1599998474, Lat : 49.2835709, Lng : -123.11502, Q1 : 0.998789548874, Q2 : 0.0400927849114, Q3 : -0.0284410770983, Q4 : -0.00175975554157}
2019-04-14 11:26:55.71: SIM {TimeUS : 54734764, Roll : 4.98, Pitch : -3.52, Yaw : 359.67, Alt : 49.1800003052, Lat : 49.283571, Lng : -123.1150197, Q1 : 0.998581647873, Q2 : 0.0433861576021, Q3 : -0.0308250747621, Q4 : -0.00149993412197}
2019-04-14 11:26:55.81: SIM {TimeUS : 54834724, Roll : 5.29, Pitch : -3.74, Yaw : 359.68, Alt : 49.1899986267, Lat : 49.2835713, Lng : -123.1150192, Q1 : 0.998399972916, Q2 : 0.0460631847382, Q3 : -0.0327748097479, Q4 : -0.001223134459}
2019-04-14 11:26:55.91: SIM {TimeUS : 54934684, Roll : 5.59, Pitch : -3.94, Yaw : 359.69, Alt : 49.2000007629, Lat : 49.2835715, Lng : -123.1150187, Q1 : 0.998217999935, Q2 : 0.0486508086324, Q3 : -0.0345401465893, Q4 : -0.000944001367316}
2019-04-14 11:26:56.01: SIM {TimeUS : 55034644, Roll : 5.89, Pitch : -4.14, Yaw : 359.7, Alt : 49.2099990845, Lat : 49.2835718, Lng : -123.115018, Q1 : 0.998025476933, Q2 : 0.0512864738703, Q3 : -0.0362547449768, Q4 : -0.000677533738781}
2019-04-14 11:26:56.11: SIM {TimeUS : 55134604, Roll : 6.2, Pitch : -4.35, Yaw : 359.71, Alt : 49.2200012207, Lat : 49.2835721, Lng : -123.1150173, Q1 : 0.997817158699, Q2 : 0.0539550371468, Q3 : -0.0380737259984, Q4 : -0.000437953945948}
2019-04-14 11:26:56.21: SIM {TimeUS : 55234564, Roll : 6.45, Pitch : -4.54, Yaw : 359.71, Alt : 49.2200012207, Lat : 49.2835725, Lng : -123.1150165, Q1 : 0.997629821301, Q2 : 0.0561941042542, Q3 : -0.0397104881704, Q4 : -0.00022933902801}
2019-04-14 11:26:56.31: SIM {TimeUS : 55334524, Roll : 6.65, Pitch : -4.67, Yaw : 359.72, Alt : 49.2299995422, Lat : 49.2835728, Lng : -123.1150155, Q1 : 0.997484922409, Q2 : 0.05792305246, Q3 : -0.0408502556384, Q4 : -3.46885572071e-05}
2019-04-14 11:26:56.41: SIM {TimeUS : 55435317, Roll : 6.79, Pitch : -4.76, Yaw : 359.73, Alt : 49.2400016785, Lat : 49.2835733, Lng : -123.1150145, Q1 : 0.997382819653, Q2 : 0.0591110438108, Q3 : -0.0416349023581, Q4 : 0.000115064649435}
2019-04-14 11:26:56.51: SIM {TimeUS : 55535277, Roll : 6.88, Pitch : -4.84, Yaw : 359.73, Alt : 49.2400016785, Lat : 49.2835739, Lng : -123.1150134, Q1 : 0.997305512428, Q2 : 0.0599292553961, Q3 : -0.0423113852739, Q4 : 0.000211172460695}
2019-04-14 11:26:56.61: SIM {TimeUS : 55635237, Roll : 6.99, Pitch : -4.91, Yaw : 359.73, Alt : 49.25, Lat : 49.2835745, Lng : -123.1150122, Q1 : 0.9972255826, Q2 : 0.0608290992677, Q3 : -0.0429057404399, Q4 : 0.000281281594653}
2019-04-14 11:26:56.71: SIM {TimeUS : 55735197, Roll : 7.2, Pitch : -4.95, Yaw : 359.74, Alt : 49.25, Lat : 49.2835751, Lng : -123.1150109, Q1 : 0.997095942497, Q2 : 0.0626549050212, Q3 : -0.0432869419456, Q4 : 0.000526986201294}
2019-04-14 11:26:56.81: SIM {TimeUS : 55835157, Roll : 7.63, Pitch : -4.84, Yaw : 0.08, Alt : 49.25, Lat : 49.2835757, Lng : -123.1150096, Q1 : 0.996886014938, Q2 : 0.0665777176619, Q3 : -0.0421115383506, Q4 : 0.00351548939943}
2019-04-14 11:26:56.91: SIM {TimeUS : 55935117, Roll : 8.26, Pitch : -4.63, Yaw : 1.37, Alt : 49.2599983215, Lat : 49.2835764, Lng : -123.1150081, Q1 : 0.99647551775, Q2 : 0.0725013241172, Q3 : -0.0394770018756, Q4 : 0.0148889422417}
2019-04-14 11:26:57.01: SIM {TimeUS : 56035077, Roll : 8.84, Pitch : -4.69, Yaw : 4.17, Alt : 49.2599983215, Lat : 49.283577, Lng : -123.1150065, Q1 : 0.99540990591, Q2 : 0.0785172730684, Q3 : -0.0379638187587, Q4 : 0.0394067205489}
2019-04-14 11:26:57.11: SIM {TimeUS : 56135037, Roll : 9.13, Pitch : -5.25, Yaw : 8.53, Alt : 49.2599983215, Lat : 49.2835776, Lng : -123.1150049, Q1 : 0.992745995522, Q2 : 0.0827322974801, Q3 : -0.0396424345672, Q4 : 0.0777130499482}
2019-04-14 11:26:57.21: SIM {TimeUS : 56234997, Roll : 8.93, Pitch : -6.34, Yaw : 14.28, Alt : 49.2599983215, Lat : 49.2835783, Lng : -123.1150031, Q1 : 0.987171947956, Q2 : 0.0840511992574, Q3 : -0.0450790151954, Q4 : 0.128042533994}
2019-04-14 11:26:57.31: SIM {TimeUS : 56334957, Roll : 8.13, Pitch : -7.81, Yaw : 21.18, Alt : 49.2599983215, Lat : 49.2835792, Lng : -123.1150012, Q1 : 0.977311849594, Q2 : 0.0820542648435, Q3 : -0.0537916570902, Q4 : 0.187710091472}
2019-04-14 11:26:57.41: SIM {TimeUS : 56434917, Roll : 6.72, Pitch : -9.43, Yaw : 28.99, Alt : 49.2700004578, Lat : 49.2835799, Lng : -123.1149991, Q1 : 0.962015092373, Q2 : 0.0771464407444, Q3 : -0.0648676007986, Q4 : 0.253707736731}
2019-04-14 11:26:57.51: SIM {TimeUS : 56534877, Roll : 4.78, Pitch : -10.98, Yaw : 37.43, Alt : 49.2700004578, Lat : 49.2835806, Lng : -123.114997, Q1 : 0.940643966198, Q2 : 0.0700517892838, Q3 : -0.0772792249918, Q4 : 0.322969973087}
2019-04-14 11:26:57.61: SIM {TimeUS : 56634837, Roll : 2.26, Pitch : -12.24, Yaw : 46.2, Alt : 49.2700004578, Lat : 49.2835814, Lng : -123.1149947, Q1 : 0.913556039333, Q2 : 0.0599198974669, Q3 : -0.0903959423304, Q4 : 0.391986727715}
2019-04-14 11:26:57.71: SIM {TimeUS : 56734797, Roll : -0.82, Pitch : -13.0, Yaw : 54.58, Alt : 49.2700004578, Lat : 49.2835824, Lng : -123.1149924, Q1 : 0.883294582367, Q2 : 0.0455854907632, Q3 : -0.103942334652, Q4 : 0.454872131348}
2019-04-14 11:26:57.81: SIM {TimeUS : 56834757, Roll : -3.95, Pitch : -13.21, Yaw : 61.69, Alt : 49.2700004578, Lat : 49.2835832, Lng : -123.1149899, Q1 : 0.854367852211, Q2 : 0.0295132398605, Q3 : -0.11628703028, Q4 : 0.505630195141}
2019-04-14 11:26:57.91: SIM {TimeUS : 56934717, Roll : -6.48, Pitch : -13.01, Yaw : 66.87, Alt : 49.2700004578, Lat : 49.2835843, Lng : -123.1149874, Q1 : 0.83132237196, Q2 : 0.0154315875843, Q3 : -0.12537188828, Q4 : 0.541245639324}
2019-04-14 11:26:58.01: SIM {TimeUS : 57034677, Roll : -7.99, Pitch : -12.69, Yaw : 69.94, Alt : 49.2700004578, Lat : 49.2835855, Lng : -123.1149849, Q1 : 0.816824913025, Q2 : 0.00644382601604, Q3 : -0.130130544305, Q4 : 0.561980068684}
2019-04-14 11:26:58.11: SIM {TimeUS : 57134637, Roll : -8.42, Pitch : -12.52, Yaw : 71.1, Alt : 49.2700004578, Lat : 49.2835867, Lng : -123.1149823, Q1 : 0.811212539673, Q2 : 0.00383889558725, Q3 : -0.131007522345, Q4 : 0.569874167442}
2019-04-14 11:26:58.21: SIM {TimeUS : 57234597, Roll : -7.93, Pitch : -12.62, Yaw : 70.67, Alt : 49.2700004578, Lat : 49.2835879, Lng : -123.1149796, Q1 : 0.813250899315, Q2 : 0.00733123952523, Q3 : -0.129274979234, Q4 : 0.567324638367}
2019-04-14 11:26:58.31: SIM {TimeUS : 57334557, Roll : -6.74, Pitch : -13.01, Yaw : 69.04, Alt : 49.2700004578, Lat : 49.2835895, Lng : -123.1149768, Q1 : 0.820958912373, Q2 : 0.0159537196159, Q3 : -0.126328453422, Q4 : 0.556608557701}
2019-04-14 11:26:58.41: SIM {TimeUS : 57434517, Roll : -5.1, Pitch : -13.64, Yaw : 66.54, Alt : 49.2700004578, Lat : 49.283591, Lng : -123.1149741, Q1 : 0.832215309143, Q2 : 0.0281443465501, Q3 : -0.123449191451, Q4 : 0.539801716805}
2019-04-14 11:26:58.51: SIM {TimeUS : 57535310, Roll : -3.21, Pitch : -14.38, Yaw : 63.48, Alt : 49.2799987793, Lat : 49.2835925, Lng : -123.1149713, Q1 : 0.845259308815, Q2 : 0.0422033108771, Q3 : -0.121106356382, Q4 : 0.518737733364}
2019-04-14 11:26:58.61: SIM {TimeUS : 57635270, Roll : -1.3, Pitch : -15.07, Yaw : 60.2, Alt : 49.2799987793, Lat : 49.283594, Lng : -123.1149683, Q1 : 0.858365297318, Q2 : 0.0560100898147, Q3 : -0.11913421005, Q4 : 0.495861798525}
2019-04-14 11:26:58.71: SIM {TimeUS : 57735230, Roll : 0.46, Pitch : -15.57, Yaw : 57.01, Alt : 49.2799987793, Lat : 49.2835958, Lng : -123.1149653, Q1 : 0.870388388634, Q2 : 0.068190574646, Q3 : -0.117116488516, Q4 : 0.473347455263}
2019-04-14 11:26:58.81: SIM {TimeUS : 57835190, Roll : 1.95, Pitch : -15.83, Yaw : 54.24, Alt : 49.2799987793, Lat : 49.2835974, Lng : -123.1149621, Q1 : 0.880355000496, Q2 : 0.077806763351, Q3 : -0.114861309528, Q4 : 0.453572690487}
2019-04-14 11:26:58.91: SIM {TimeUS : 57935150, Roll : 3.02, Pitch : -15.91, Yaw : 52.13, Alt : 49.2799987793, Lat : 49.283599, Lng : -123.1149589, Q1 : 0.887705504894, Q2 : 0.0843062251806, Q3 : -0.112775489688, Q4 : 0.438352674246}
2019-04-14 11:26:59.01: SIM {TimeUS : 58035110, Roll : 3.62, Pitch : -15.88, Yaw : 50.81, Alt : 49.2799987793, Lat : 49.2836007, Lng : -123.1149554, Q1 : 0.892287373543, Q2 : 0.0875491946936, Q3 : -0.111289121211, Q4 : 0.428687632084}
2019-04-14 11:26:59.11: SIM {TimeUS : 58135070, Roll : 3.73, Pitch : -15.83, Yaw : 50.29, Alt : 49.2799987793, Lat : 49.2836025, Lng : -123.1149519, Q1 : 0.894217550755, Q2 : 0.0876890644431, Q3 : -0.110936410725, Q4 : 0.424710154533}
2019-04-14 11:26:59.21: SIM {TimeUS : 58235030, Roll : 3.41, Pitch : -15.81, Yaw : 50.48, Alt : 49.2799987793, Lat : 49.2836041, Lng : -123.1149482, Q1 : 0.893775939941, Q2 : 0.0853242874146, Q3 : -0.111786499619, Q4 : 0.425896912813}
2019-04-14 11:26:59.31: SIM {TimeUS : 58334990, Roll : 2.79, Pitch : -15.84, Yaw : 51.24, Alt : 49.2799987793, Lat : 49.2836057, Lng : -123.1149445, Q1 : 0.891347289085, Q2 : 0.0813542157412, Q3 : -0.113813757896, Q4 : 0.431193679571}
2019-04-14 11:26:59.41: SIM {TimeUS : 58434950, Roll : 1.95, Pitch : -15.93, Yaw : 52.39, Alt : 49.2799987793, Lat : 49.2836074, Lng : -123.1149406, Q1 : 0.887454390526, Q2 : 0.0763677805662, Q3 : -0.11689632386, Q4 : 0.439235657454}
2019-04-14 11:26:59.51: SIM {TimeUS : 58534910, Roll : 1.05, Pitch : -16.06, Yaw : 53.73, Alt : 49.2799987793, Lat : 49.2836092, Lng : -123.1149367, Q1 : 0.882663667202, Q2 : 0.0713076889515, Q3 : -0.120558835566, Q4 : 0.448648750782}
2019-04-14 11:26:59.61: SIM {TimeUS : 58634870, Roll : 0.21, Pitch : -16.19, Yaw : 55.1, Alt : 49.2799987793, Lat : 49.283611, Lng : -123.1149327, Q1 : 0.877624332905, Q2 : 0.0668133869767, Q3 : -0.124006852508, Q4 : 0.458185374737}
2019-04-14 11:26:59.71: SIM {TimeUS : 58734830, Roll : -0.49, Pitch : -16.28, Yaw : 56.33, Alt : 49.2799987793, Lat : 49.2836128, Lng : -123.1149286, Q1 : 0.872950017452, Q2 : 0.0630863979459, Q3 : -0.126909792423, Q4 : 0.46676799655}
2019-04-14 11:26:59.81: SIM {TimeUS : 58834790, Roll : -1.04, Pitch : -16.36, Yaw : 57.32, Alt : 49.2799987793, Lat : 49.2836146, Lng : -123.1149245, Q1 : 0.869113922119, Q2 : 0.0603210888803, Q3 : -0.129225030541, Q4 : 0.473606675863}
2019-04-14 11:26:59.91: SIM {TimeUS : 58934750, Roll : -1.39, Pitch : -16.42, Yaw : 57.99, Alt : 49.2900009155, Lat : 49.2836164, Lng : -123.1149203, Q1 : 0.866431474686, Q2 : 0.0586904622614, Q3 : -0.130781680346, Q4 : 0.478276193142}
2019-04-14 11:27:00.01: SIM {TimeUS : 59034710, Roll : -1.53, Pitch : -16.48, Yaw : 58.34, Alt : 49.2900009155, Lat : 49.2836183, Lng : -123.114916, Q1 : 0.865021526814, Q2 : 0.0582408159971, Q3 : -0.131612554193, Q4 : 0.480649441481}
2019-04-14 11:27:00.11: SIM {TimeUS : 59134670, Roll : -1.49, Pitch : -16.52, Yaw : 58.36, Alt : 49.2900009155, Lat : 49.2836201, Lng : -123.1149117, Q1 : 0.864839732647, Q2 : 0.0588009059429, Q3 : -0.131735995412, Q4 : 0.480874598026}
2019-04-14 11:27:00.21: SIM {TimeUS : 59234630, Roll : -1.28, Pitch : -16.55, Yaw : 58.13, Alt : 49.2900009155, Lat : 49.2836221, Lng : -123.1149075, Q1 : 0.865688920021, Q2 : 0.0602287314832, Q3 : -0.131236970425, Q4 : 0.479303777218}
2019-04-14 11:27:00.31: SIM {TimeUS : 59334590, Roll : -0.96, Pitch : -16.58, Yaw : 57.7, Alt : 49.2900009155, Lat : 49.2836241, Lng : -123.1149032, Q1 : 0.867269635201, Q2 : 0.0623326599598, Q3 : -0.130358636379, Q4 : 0.476408094168}
2019-04-14 11:27:00.41: SIM {TimeUS : 59434550, Roll : -0.58, Pitch : -16.62, Yaw : 57.15, Alt : 49.2900009155, Lat : 49.2836261, Lng : -123.1148988, Q1 : 0.869268298149, Q2 : 0.0647405460477, Q3 : -0.129337713122, Q4 : 0.472708255053}
2019-04-14 11:27:00.51: SIM {TimeUS : 59534510, Roll : -0.19, Pitch : -16.65, Yaw : 56.58, Alt : 49.2900009155, Lat : 49.283628, Lng : -123.1148944, Q1 : 0.87138402462, Q2 : 0.0671794489026, Q3 : -0.128316044807, Q4 : 0.468734234571}
2019-04-14 11:27:00.61: SIM {TimeUS : 59635303, Roll : 0.15, Pitch : -16.69, Yaw : 56.03, Alt : 49.2900009155, Lat : 49.2836302, Lng : -123.1148899, Q1 : 0.873378157616, Q2 : 0.069390848279, Q3 : -0.127508193254, Q4 : 0.464905530214}
2019-04-14 11:27:00.71: SIM {TimeUS : 59735263, Roll : 0.42, Pitch : -16.72, Yaw : 55.56, Alt : 49.2900009155, Lat : 49.2836322, Lng : -123.1148853, Q1 : 0.875043988228, Q2 : 0.0710728913546, Q3 : -0.126960635185, Q4 : 0.461657553911}
2019-04-14 11:27:00.81: SIM {TimeUS : 59835223, Roll : 0.6, Pitch : -16.76, Yaw : 55.22, Alt : 49.2900009155, Lat : 49.2836342, Lng : -123.1148808, Q1 : 0.87627851963, Q2 : 0.0721794366837, Q3 : -0.126726478338, Q4 : 0.459201991558}
2019-04-14 11:27:00.91: SIM {TimeUS : 59935183, Roll : 0.68, Pitch : -16.79, Yaw : 55.01, Alt : 49.2900009155, Lat : 49.2836363, Lng : -123.1148762, Q1 : 0.877024054527, Q2 : 0.0727099776268, Q3 : -0.126830294728, Q4 : 0.457663744688}
2019-04-14 11:27:01.01: SIM {TimeUS : 60035143, Roll : 0.67, Pitch : -16.84, Yaw : 54.93, Alt : 49.2900009155, Lat : 49.2836384, Lng : -123.1148715, Q1 : 0.877285897732, Q2 : 0.0727126151323, Q3 : -0.127292275429, Q4 : 0.457032769918}
2019-04-14 11:27:01.11: SIM {TimeUS : 60135103, Roll : 0.57, Pitch : -16.88, Yaw : 54.97, Alt : 49.2900009155, Lat : 49.2836405, Lng : -123.1148668, Q1 : 0.877147078514, Q2 : 0.0721709057689, Q3 : -0.127994567156, Q4 : 0.45718896389}
2019-04-14 11:27:01.21: SIM {TimeUS : 60235063, Roll : 0.41, Pitch : -16.92, Yaw : 55.1, Alt : 49.2900009155, Lat : 49.2836425, Lng : -123.1148621, Q1 : 0.876703023911, Q2 : 0.0712552666664, Q3 : -0.12877291441, Q4 : 0.457965165377}
2019-04-14 11:27:01.31: SIM {TimeUS : 60335023, Roll : 0.23, Pitch : -16.94, Yaw : 55.28, Alt : 49.2999992371, Lat : 49.2836445, Lng : -123.1148573, Q1 : 0.876050055027, Q2 : 0.070172727108, Q3 : -0.129604294896, Q4 : 0.459145754576}
2019-04-14 11:27:01.41: SIM {TimeUS : 60434983, Roll : 0.07, Pitch : -16.98, Yaw : 55.49, Alt : 49.2999992371, Lat : 49.2836467, Lng : -123.1148526, Q1 : 0.875263154507, Q2 : 0.0693687349558, Q3 : -0.130396306515, Q4 : 0.460542321205}
2019-04-14 11:27:01.51: SIM {TimeUS : 60534943, Roll : -0.04, Pitch : -17.02, Yaw : 55.69, Alt : 49.2999992371, Lat : 49.2836488, Lng : -123.1148477, Q1 : 0.874469459057, Q2 : 0.0688162222505, Q3 : -0.131098270416, Q4 : 0.461931556463}
2019-04-14 11:27:01.61: SIM {TimeUS : 60634903, Roll : -0.13, Pitch : -17.07, Yaw : 55.87, Alt : 49.2999992371, Lat : 49.283651, Lng : -123.1148429, Q1 : 0.873758912086, Q2 : 0.0685232058167, Q3 : -0.131713032722, Q4 : 0.46314316988}
2019-04-14 11:27:01.71: SIM {TimeUS : 60734863, Roll : -0.17, Pitch : -17.12, Yaw : 56.0, Alt : 49.2999992371, Lat : 49.283653, Lng : -123.114838, Q1 : 0.873195052147, Q2 : 0.0685254111886, Q3 : -0.132149145007, Q4 : 0.464081168175}
2019-04-14 11:27:01.81: SIM {TimeUS : 60834823, Roll : -0.2, Pitch : -17.15, Yaw : 56.08, Alt : 49.2999992371, Lat : 49.2836553, Lng : -123.1148331, Q1 : 0.872846364975, Q2 : 0.0685460567474, Q3 : -0.132445022464, Q4 : 0.464649379253}
2019-04-14 11:27:01.91: SIM {TimeUS : 60934783, Roll : -0.21, Pitch : -17.16, Yaw : 56.11, Alt : 49.2999992371, Lat : 49.2836574, Lng : -123.1148282, Q1 : 0.872738063335, Q2 : 0.068514958024, Q3 : -0.132588148117, Q4 : 0.464816510677}
2019-04-14 11:27:02.01: SIM {TimeUS : 61034743, Roll : -0.21, Pitch : -17.17, Yaw : 56.08, Alt : 49.2999992371, Lat : 49.2836597, Lng : -123.1148233, Q1 : 0.872825801373, Q2 : 0.0685765817761, Q3 : -0.132692620158, Q4 : 0.464612811804}
2019-04-14 11:27:02.11: SIM {TimeUS : 61134703, Roll : -0.16, Pitch : -17.19, Yaw : 56.01, Alt : 49.2999992371, Lat : 49.2836619, Lng : -123.1148183, Q1 : 0.873055696487, Q2 : 0.0688929855824, Q3 : -0.13263592124, Q4 : 0.464149951935}
2019-04-14 11:27:02.21: SIM {TimeUS : 61234663, Roll : -0.1, Pitch : -17.2, Yaw : 55.92, Alt : 49.2999992371, Lat : 49.283664, Lng : -123.1148134, Q1 : 0.873381435871, Q2 : 0.0693416744471, Q3 : -0.132555559278, Q4 : 0.463492870331}
2019-04-14 11:27:02.31: SIM {TimeUS : 61334623, Roll : -0.01, Pitch : -17.24, Yaw : 55.81, Alt : 49.3100013733, Lat : 49.2836663, Lng : -123.1148084, Q1 : 0.87373393774, Q2 : 0.0700054094195, Q3 : -0.132542684674, Q4 : 0.462731748819}
2019-04-14 11:27:02.41: SIM {TimeUS : 61434583, Roll : 0.07, Pitch : -17.29, Yaw : 55.7, Alt : 49.3100013733, Lat : 49.2836685, Lng : -123.1148034, Q1 : 0.874063432217, Q2 : 0.0707942247391, Q3 : -0.13268725574, Q4 : 0.461947381496}
2019-04-14 11:27:02.51: SIM {TimeUS : 61534543, Roll : 0.14, Pitch : -17.33, Yaw : 55.59, Alt : 49.3100013733, Lat : 49.2836706, Lng : -123.1147983, Q1 : 0.874390363693, Q2 : 0.0713990777731, Q3 : -0.132766857743, Q4 : 0.461212068796}
2019-04-14 11:27:02.61: SIM {TimeUS : 61634503, Roll : 0.19, Pitch : -17.34, Yaw : 55.51, Alt : 49.3100013733, Lat : 49.283673, Lng : -123.1147933, Q1 : 0.87469881773, Q2 : 0.071706213057, Q3 : -0.132698848844, Q4 : 0.460598766804}
2019-04-14 11:27:02.71: SIM {TimeUS : 61735296, Roll : 0.2, Pitch : -17.35, Yaw : 55.44, Alt : 49.3100013733, Lat : 49.2836753, Lng : -123.1147882, Q1 : 0.874942183495, Q2 : 0.071799941361, Q3 : -0.13273511827, Q4 : 0.460111290216}
2019-04-14 11:27:02.81: SIM {TimeUS : 61835256, Roll : 0.2, Pitch : -17.38, Yaw : 55.4, Alt : 49.3100013733, Lat : 49.2836774, Lng : -123.1147831, Q1 : 0.875095307827, Q2 : 0.0717950463295, Q3 : -0.132952436805, Q4 : 0.459758013487}
2019-04-14 11:27:02.91: SIM {TimeUS : 61935216, Roll : 0.19, Pitch : -17.4, Yaw : 55.37, Alt : 49.3100013733, Lat : 49.2836797, Lng : -123.114778, Q1 : 0.875163018703, Q2 : 0.0717903152108, Q3 : -0.133181408048, Q4 : 0.459563434124}
2019-04-14 11:27:03.01: SIM {TimeUS : 62035176, Roll : 0.17, Pitch : -17.43, Yaw : 55.37, Alt : 49.3100013733, Lat : 49.283682, Lng : -123.1147728, Q1 : 0.875162541866, Q2 : 0.0717406496406, Q3 : -0.133508890867, Q4 : 0.459477156401}
2019-04-14 11:27:03.11: SIM {TimeUS : 62135136, Roll : 0.15, Pitch : -17.45, Yaw : 55.38, Alt : 49.3100013733, Lat : 49.2836843, Lng : -123.1147676, Q1 : 0.875124812126, Q2 : 0.0716719031334, Q3 : -0.133752599359, Q4 : 0.459488809109}
2019-04-14 11:27:03.21: SIM {TimeUS : 62235096, Roll : 0.14, Pitch : -17.48, Yaw : 55.39, Alt : 49.3100013733, Lat : 49.2836865, Lng : -123.1147626, Q1 : 0.875044763088, Q2 : 0.0717115327716, Q3 : -0.134002402425, Q4 : 0.459562301636}
2019-04-14 11:27:03.31: SIM {TimeUS : 62335056, Roll : 0.12, Pitch : -17.49, Yaw : 55.41, Alt : 49.3100013733, Lat : 49.2836888, Lng : -123.1147573, Q1 : 0.874969661236, Q2 : 0.0716994032264, Q3 : -0.134159684181, Q4 : 0.459661275148}
2019-04-14 11:27:03.41: SIM {TimeUS : 62435016, Roll : 0.12, Pitch : -17.51, Yaw : 55.42, Alt : 49.3100013733, Lat : 49.2836912, Lng : -123.1147522, Q1 : 0.874890089035, Q2 : 0.0717378854752, Q3 : -0.134318351746, Q4 : 0.459760308266}
2019-04-14 11:27:03.51: SIM {TimeUS : 62534976, Roll : 0.12, Pitch : -17.54, Yaw : 55.43, Alt : 49.3100013733, Lat : 49.2836935, Lng : -123.114747, Q1 : 0.874818742275, Q2 : 0.0718447044492, Q3 : -0.134489774704, Q4 : 0.459829360247}
2019-04-14 11:27:03.61: SIM {TimeUS : 62634936, Roll : 0.11, Pitch : -17.57, Yaw : 55.43, Alt : 49.3199996948, Lat : 49.2836957, Lng : -123.1147418, Q1 : 0.874767839909, Q2 : 0.0719158127904, Q3 : -0.134819075465, Q4 : 0.459818631411}
2019-04-14 11:27:03.71: SIM {TimeUS : 62734896, Roll : 0.07, Pitch : -17.62, Yaw : 55.43, Alt : 49.3199996948, Lat : 49.283698, Lng : -123.1147366, Q1 : 0.874749600887, Q2 : 0.0718282610178, Q3 : -0.135281905532, Q4 : 0.459731042385}
2019-04-14 11:27:03.81: SIM {TimeUS : 62834856, Roll : 0.05, Pitch : -17.66, Yaw : 55.42, Alt : 49.3199996948, Lat : 49.2837004, Lng : -123.1147314, Q1 : 0.87475079298, Q2 : 0.0718275159597, Q3 : -0.135691717267, Q4 : 0.45960816741}
2019-04-14 11:27:03.91: SIM {TimeUS : 62934816, Roll : 0.06, Pitch : -17.69, Yaw : 55.41, Alt : 49.3199996948, Lat : 49.2837027, Lng : -123.1147261, Q1 : 0.874771952629, Q2 : 0.0720254480839, Q3 : -0.135875344276, Q4 : 0.459482610226}
2019-04-14 11:27:04.01: SIM {TimeUS : 63034776, Roll : 0.09, Pitch : -17.69, Yaw : 55.38, Alt : 49.3199996948, Lat : 49.2837051, Lng : -123.1147209, Q1 : 0.874837696552, Q2 : 0.0722368806601, Q3 : -0.135780587792, Q4 : 0.459352195263}
2019-04-14 11:27:04.11: SIM {TimeUS : 63134736, Roll : 0.12, Pitch : -17.67, Yaw : 55.36, Alt : 49.3199996948, Lat : 49.2837074, Lng : -123.1147156, Q1 : 0.874943852425, Q2 : 0.072357237339, Q3 : -0.135513022542, Q4 : 0.459210157394}
2019-04-14 11:27:04.21: SIM {TimeUS : 63234696, Roll : 0.14, Pitch : -17.65, Yaw : 55.33, Alt : 49.3199996948, Lat : 49.2837097, Lng : -123.1147103, Q1 : 0.875061869621, Q2 : 0.0723595395684, Q3 : -0.135356500745, Q4 : 0.459031075239}
2019-04-14 11:27:04.31: SIM {TimeUS : 63334656, Roll : 0.14, Pitch : -17.64, Yaw : 55.31, Alt : 49.3199996948, Lat : 49.283712, Lng : -123.114705, Q1 : 0.875185787678, Q2 : 0.0722803249955, Q3 : -0.135275289416, Q4 : 0.458831131458}
2019-04-14 11:27:04.41: SIM {TimeUS : 63434616, Roll : 0.14, Pitch : -17.63, Yaw : 55.28, Alt : 49.3199996948, Lat : 49.2837144, Lng : -123.1146997, Q1 : 0.875303804874, Q2 : 0.0722046643496, Q3 : -0.135243356228, Q4 : 0.458627253771}
2019-04-14 11:27:04.51: SIM {TimeUS : 63534576, Roll : 0.13, Pitch : -17.65, Yaw : 55.25, Alt : 49.3199996948, Lat : 49.2837168, Lng : -123.1146944, Q1 : 0.875393152237, Q2 : 0.0721616819501, Q3 : -0.135423585773, Q4 : 0.458410292864}
2019-04-14 11:27:04.61: SIM {TimeUS : 63634536, Roll : 0.12, Pitch : -17.68, Yaw : 55.23, Alt : 49.3199996948, Lat : 49.2837192, Lng : -123.114689, Q1 : 0.8754529953, Q2 : 0.0722137391567, Q3 : -0.135709404945, Q4 : 0.458203226328}
2019-04-14 11:27:04.71: SIM {TimeUS : 63734496, Roll : 0.11, Pitch : -17.73, Yaw : 55.21, Alt : 49.3199996948, Lat : 49.2837216, Lng : -123.1146837, Q1 : 0.875471711159, Q2 : 0.0723484680057, Q3 : -0.136145308614, Q4 : 0.458016902208}
2019-04-14 11:27:04.81: SIM {TimeUS : 63835289, Roll : 0.12, Pitch : -17.79, Yaw : 55.19, Alt : 49.3199996948, Lat : 49.2837239, Lng : -123.1146783, Q1 : 0.875468254089, Q2 : 0.0725709274411, Q3 : -0.136582165956, Q4 : 0.457858234644}
2019-04-14 11:27:04.91: SIM {TimeUS : 63935249, Roll : 0.13, Pitch : -17.81, Yaw : 55.18, Alt : 49.3199996948, Lat : 49.2837263, Lng : -123.114673, Q1 : 0.87548416853, Q2 : 0.0727709308267, Q3 : -0.136686176062, Q4 : 0.457764923573}
2019-04-14 11:27:05.01: SIM {TimeUS : 64035209, Roll : 0.14, Pitch : -17.83, Yaw : 55.17, Alt : 49.3300018311, Lat : 49.2837287, Lng : -123.1146676, Q1 : 0.875506341457, Q2 : 0.0728638768196, Q3 : -0.136807635427, Q4 : 0.45767146349}
2019-04-14 11:27:05.11: SIM {TimeUS : 64135169, Roll : 0.14, Pitch : -17.84, Yaw : 55.16, Alt : 49.3300018311, Lat : 49.2837311, Lng : -123.1146623, Q1 : 0.875535726547, Q2 : 0.0728883966804, Q3 : -0.136907398701, Q4 : 0.457581609488}
2019-04-14 11:27:05.21: SIM {TimeUS : 64235129, Roll : 0.15, Pitch : -17.83, Yaw : 55.15, Alt : 49.3300018311, Lat : 49.2837334, Lng : -123.1146569, Q1 : 0.875572383404, Q2 : 0.0729594156146, Q3 : -0.136798590422, Q4 : 0.457532644272}
2019-04-14 11:27:05.31: SIM {TimeUS : 64335089, Roll : 0.17, Pitch : -17.84, Yaw : 55.14, Alt : 49.3300018311, Lat : 49.2837358, Lng : -123.1146515, Q1 : 0.875581383705, Q2 : 0.0731368586421, Q3 : -0.136803686619, Q4 : 0.457485496998}
2019-04-14 11:27:05.41: SIM {TimeUS : 64435049, Roll : 0.18, Pitch : -17.87, Yaw : 55.13, Alt : 49.3300018311, Lat : 49.2837382, Lng : -123.114646, Q1 : 0.875579297543, Q2 : 0.0732753872871, Q3 : -0.136975213885, Q4 : 0.457416057587}
2019-04-14 11:27:05.51: SIM {TimeUS : 64535009, Roll : 0.18, Pitch : -17.89, Yaw : 55.13, Alt : 49.3300018311, Lat : 49.2837406, Lng : -123.1146407, Q1 : 0.875586986542, Q2 : 0.0733409672976, Q3 : -0.137118726969, Q4 : 0.457347869873}
2019-04-14 11:27:05.61: SIM {TimeUS : 64634969, Roll : 0.18, Pitch : -17.89, Yaw : 55.12, Alt : 49.3300018311, Lat : 49.283743, Lng : -123.1146353, Q1 : 0.875620782375, Q2 : 0.0733512490988, Q3 : -0.137134686112, Q4 : 0.457276642323}
2019-04-14 11:27:05.71: SIM {TimeUS : 64734929, Roll : 0.17, Pitch : -17.89, Yaw : 55.11, Alt : 49.3300018311, Lat : 49.2837454, Lng : -123.1146299, Q1 : 0.875658392906, Q2 : 0.0733156204224, Q3 : -0.137220278382, Q4 : 0.457184642553}
2019-04-14 11:27:05.81: SIM {TimeUS : 64834889, Roll : 0.15, Pitch : -17.92, Yaw : 55.09, Alt : 49.3300018311, Lat : 49.2837478, Lng : -123.1146245, Q1 : 0.875688374043, Q2 : 0.0732189491391, Q3 : -0.137518003583, Q4 : 0.457053273916}
2019-04-14 11:27:05.91: SIM {TimeUS : 64934849, Roll : 0.12, Pitch : -17.96, Yaw : 55.08, Alt : 49.3300018311, Lat : 49.2837503, Lng : -123.1146191, Q1 : 0.875705361366, Q2 : 0.0731345415115, Q3 : -0.137978836894, Q4 : 0.456895291805}
2019-04-14 11:27:06.01: SIM {TimeUS : 65034809, Roll : 0.11, Pitch : -17.97, Yaw : 55.07, Alt : 49.3300018311, Lat : 49.2837527, Lng : -123.1146136, Q1 : 0.875747919083, Q2 : 0.073099039495, Q3 : -0.138100445271, Q4 : 0.456782728434}
2019-04-14 11:27:06.11: SIM {TimeUS : 65134769, Roll : 0.12, Pitch : -17.96, Yaw : 55.06, Alt : 49.3300018311, Lat : 49.2837551, Lng : -123.1146082, Q1 : 0.875808775425, Q2 : 0.0731284767389, Q3 : -0.137959122658, Q4 : 0.456703931093}
2019-04-14 11:27:06.21: SIM {TimeUS : 65234729, Roll : 0.15, Pitch : -17.95, Yaw : 55.04, Alt : 49.3300018311, Lat : 49.2837576, Lng : -123.1146028, Q1 : 0.875860393047, Q2 : 0.0732561349869, Q3 : -0.137776717544, Q4 : 0.456639617682}
2019-04-14 11:27:06.31: SIM {TimeUS : 65334689, Roll : 0.16, Pitch : -17.95, Yaw : 55.03, Alt : 49.3300018311, Lat : 49.28376, Lng : -123.1145973, Q1 : 0.875897169113, Q2 : 0.0733990445733, Q3 : -0.137748256326, Q4 : 0.456554681063}
2019-04-14 11:27:06.41: SIM {TimeUS : 65434649, Roll : 0.16, Pitch : -17.97, Yaw : 55.02, Alt : 49.3300018311, Lat : 49.2837624, Lng : -123.1145919, Q1 : 0.875935435295, Q2 : 0.0734037086368, Q3 : -0.137890189886, Q4 : 0.456437647343}
2019-04-14 11:27:06.51: SIM {TimeUS : 65534609, Roll : 0.14, Pitch : -17.98, Yaw : 55.0, Alt : 49.3400001526, Lat : 49.2837649, Lng : -123.1145864, Q1 : 0.875977873802, Q2 : 0.0732873156667, Q3 : -0.138112932444, Q4 : 0.456307590008}
2019-04-14 11:27:06.61: SIM {TimeUS : 65634569, Roll : 0.12, Pitch : -18.0, Yaw : 54.99, Alt : 49.3400001526, Lat : 49.2837673, Lng : -123.1145809, Q1 : 0.876011669636, Q2 : 0.0732288360596, Q3 : -0.138313665986, Q4 : 0.456191271544}
2019-04-14 11:27:06.71: SIM {TimeUS : 65734529, Roll : 0.13, Pitch : -18.02, Yaw : 54.98, Alt : 49.3400001526, Lat : 49.2837697, Lng : -123.1145755, Q1 : 0.876037061214, Q2 : 0.0733142867684, Q3 : -0.138445973396, Q4 : 0.456088632345}
2019-04-14 11:27:06.81: SIM {TimeUS : 65835322, Roll : 0.14, Pitch : -18.03, Yaw : 54.97, Alt : 49.3400001526, Lat : 49.2837721, Lng : -123.1145699, Q1 : 0.876059174538, Q2 : 0.0734415501356, Q3 : -0.138518124819, Q4 : 0.456003785133}
2019-04-14 11:27:06.91: SIM {TimeUS : 65935282, Roll : 0.16, Pitch : -18.04, Yaw : 54.96, Alt : 49.3400001526, Lat : 49.2837746, Lng : -123.1145645, Q1 : 0.876069009304, Q2 : 0.0736614242196, Q3 : -0.138480901718, Q4 : 0.455960720778}
2019-04-14 11:27:07.01: SIM {TimeUS : 66035242, Roll : 0.18, Pitch : -18.06, Yaw : 54.95, Alt : 49.3400001526, Lat : 49.283777, Lng : -123.114559, Q1 : 0.876071810722, Q2 : 0.0738321617246, Q3 : -0.138511300087, Q4 : 0.455918431282}
2019-04-14 11:27:07.11: SIM {TimeUS : 66135202, Roll : 0.2, Pitch : -18.07, Yaw : 54.95, Alt : 49.3400001526, Lat : 49.2837794, Lng : -123.1145535, Q1 : 0.87606626749, Q2 : 0.0740226358175, Q3 : -0.138574421406, Q4 : 0.455879092216}
2019-04-14 11:27:07.21: SIM {TimeUS : 66235162, Roll : 0.22, Pitch : -18.09, Yaw : 54.94, Alt : 49.3400001526, Lat : 49.2837819, Lng : -123.114548, Q1 : 0.876058220863, Q2 : 0.0742286518216, Q3 : -0.138626754284, Q4 : 0.455845117569}
2019-04-14 11:27:07.31: SIM {TimeUS : 66335122, Roll : 0.24, Pitch : -18.1, Yaw : 54.93, Alt : 49.3400001526, Lat : 49.2837843, Lng : -123.1145425, Q1 : 0.876047134399, Q2 : 0.0744510442019, Q3 : -0.138646557927, Q4 : 0.455824106932}
2019-04-14 11:27:07.41: SIM {TimeUS : 66435082, Roll : 0.26, Pitch : -18.12, Yaw : 54.93, Alt : 49.3400001526, Lat : 49.2837868, Lng : -123.114537, Q1 : 0.876025795937, Q2 : 0.0747112557292, Q3 : -0.138687908649, Q4 : 0.455809980631}
2019-04-14 11:27:07.51: SIM {TimeUS : 66535042, Roll : 0.25, Pitch : -18.12, Yaw : 54.93, Alt : 49.3400001526, Lat : 49.2837893, Lng : -123.1145315, Q1 : 0.876049876213, Q2 : 0.0746083632112, Q3 : -0.138716697693, Q4 : 0.455771803856}
2019-04-14 11:27:07.61: SIM {TimeUS : 66635002, Roll : 0.22, Pitch : -18.13, Yaw : 54.92, Alt : 49.3400001526, Lat : 49.2837917, Lng : -123.114526, Q1 : 0.87607640028, Q2 : 0.0743903517723, Q3 : -0.138908743858, Q4 : 0.455697953701}
2019-04-14 11:27:07.71: SIM {TimeUS : 66734962, Roll : 0.19, Pitch : -18.15, Yaw : 54.92, Alt : 49.3499984741, Lat : 49.2837942, Lng : -123.1145205, Q1 : 0.876087129116, Q2 : 0.0742178857327, Q3 : -0.139207750559, Q4 : 0.45561414957}
