2019-04-14 02:24:54.60: SIM {TimeUS : 40216407, Roll : 0.0, Pitch : 0.0, Yaw : 0.0, Alt : 30.1000003815, Lat : 49.28357, Lng : -123.11502, Q1 : 1.0, Q2 : 0.0, Q3 : 0.0, Q4 : 0.0}
2019-04-14 02:24:54.71: SIM {TimeUS : 40335526, Roll : 0.0, Pitch : 0.0, Yaw : 0.0, Alt : 30.1000003815, Lat : 49.28357, Lng : -123.11502, Q1 : 1.0, Q2 : 0.0, Q3 : 0.0, Q4 : 0.0}
2019-04-14 02:24:54.81: SIM {TimeUS : 40435486, Roll : 0.0, Pitch : 0.0, Yaw : 0.0, Alt : 30.1000003815, Lat : 49.28357, Lng : -123.11502, Q1 : 1.0, Q2 : 0.0, Q3 : 0.0, Q4 : 0.0}
2019-04-14 02:24:54.91: SIM {TimeUS : 40535446, Roll : 0.0, Pitch : 0.0, Yaw : 0.0, Alt : 30.1000003815, Lat : 49.28357, Lng : -123.11502, Q1 : 1.0, Q2 : 0.0, Q3 : 0.0, Q4 : 0.0}
2019-04-14 02:24:55.01: SIM {TimeUS : 40635406, Roll : 0.0, Pitch : 0.0, Yaw : 0.0, Alt : 30.1000003815, Lat : 49.28357, Lng : -123.11502, Q1 : 1.0, Q2 : 0.0, Q3 : 0.0, Q4 : 0.0}
2019-04-14 02:24:55.11: SIM {TimeUS : 40735366, Roll : 0.0, Pitch : 0.0, Yaw : 0.0, Alt : 30.1000003815, Lat : 49.28357, Lng : -123.11502, Q1 : 1.0, Q2 : 0.0, Q3 : 0.0, Q4 : 0.0}
2019-04-14 02:24:55.21: SIM {TimeUS : 40835326, Roll : 0.0, Pitch : 0.0, Yaw : 0.0, Alt : 30.1000003815, Lat : 49.28357, Lng : -123.11502, Q1 : 1.0, Q2 : 0.0, Q3 : 0.0, Q4 : 0.0}
2019-04-14 02:24:55.31: SIM {TimeUS : 40935286, Roll : 0.0, Pitch : 0.0, Yaw : 0.0, Alt : 30.1000003815, Lat : 49.28357, Lng : -123.11502, Q1 : 1.0, Q2 : 0.0, Q3 : 0.0, Q4 : 0.0}
2019-04-14 02:24:55.41: SIM {TimeUS : 41035246, Roll : 0.0, Pitch : 0.0, Yaw : 0.0, Alt : 30.1000003815, Lat : 49.28357, Lng : -123.11502, Q1 : 1.0, Q2 : 0.0, Q3 : 0.0, Q4 : 0.0}
2019-04-14 02:24:55.51: SIM {TimeUS : 41135206, Roll : 0.0, Pitch : 0.0, Yaw : 0.0, Alt : 30.1000003815, Lat : 49.28357, Lng : -123.11502, Q1 : 1.0, Q2 : 0.0, Q3 : 0.0, Q4 : 0.0}
2019-04-14 02:24:55.61: SIM {TimeUS : 41235166, Roll : 0.0, Pitch : 0.0, Yaw : 0.0, Alt : 30.1000003815, Lat : 49.28357, Lng : -123.11502, Q1 : 1.0, Q2 : 0.0, Q3 : 0.0, Q4 : 0.0}
2019-04-14 02:24:55.71: SIM {TimeUS : 41335126, Roll : 0.0, Pitch : 0.0, Yaw : 0.0, Alt : 30.1000003815, Lat : 49.28357, Lng : -123.11502, Q1 : 1.0, Q2 : 0.0, Q3 : 0.0, Q4 : 0.0}
2019-04-14 02:24:55.81: SIM {TimeUS : 41435086, Roll : 0.0, Pitch : 0.0, Yaw : 0.0, Alt : 30.1000003815, Lat : 49.28357, Lng : -123.11502, Q1 : 1.0, Q2 : 0.0, Q3 : 0.0, Q4 : 0.0}
2019-04-14 02:24:55.91: SIM {TimeUS : 41535046, Roll : 0.0, Pitch : 0.0, Yaw : 0.0, Alt : 30.1000003815, Lat : 49.28357, Lng : -123.11502, Q1 : 1.0, Q2 : 0.0, Q3 : 0.0, Q4 : 0.0}
2019-04-14 02:24:56.01: SIM {TimeUS : 41635006, Roll : 0.0, Pitch : 0.0, Yaw : 0.0, Alt : 30.1000003815, Lat : 49.28357, Lng : -123.11502, Q1 : 1.0, Q2 : 0.0, Q3 : 0.0, Q4 : 0.0}
2019-04-14 02:24:56.11: SIM {TimeUS : 41734966, Roll : 0.0, Pitch : 0.0, Yaw : 0.0, Alt : 30.1000003815, Lat : 49.28357, Lng : -123.11502, Q1 : 1.0, Q2 : 0.0, Q3 : 0.0, Q4 : 0.0}
2019-04-14 02:24:56.21: SIM {TimeUS : 41834926, Roll : 0.0, Pitch : 0.0, Yaw : 0.0, Alt : 30.1000003815, Lat : 49.28357, Lng : -123.11502, Q1 : 1.0, Q2 : 0.0, Q3 : 0.0, Q4 : 0.0}
2019-04-14 02:24:56.31: SIM {TimeUS : 41934886, Roll : 0.0, Pitch : 0.0, Yaw : 0.0, Alt : 30.1000003815, Lat : 49.28357, Lng : -123.11502, Q1 : 1.0, Q2 : 0.0, Q3 : 0.0, Q4 : 0.0}
2019-04-14 02:24:56.41: SIM {TimeUS : 42034846, Roll : 0.0, Pitch : 0.0, Yaw : 0.0, Alt : 30.1000003815, Lat : 49.28357, Lng : -123.11502, Q1 : 1.0, Q2 : 0.0, Q3 : 0.0, Q4 : 0.0}
2019-04-14 02:24:56.51: SIM {TimeUS : 42134806, Roll : 0.0, Pitch : 0.0, Yaw : 0.0, Alt : 30.1000003815, Lat : 49.28357, Lng : -123.11502, Q1 : 1.0, Q2 : 0.0, Q3 : 0.0, Q4 : 0.0}
2019-04-14 02:24:56.61: SIM {TimeUS : 42234766, Roll : 0.0, Pitch : 0.0, Yaw : 0.0, Alt : 30.1000003815, Lat : 49.28357, Lng : -123.11502, Q1 : 1.0, Q2 : 0.0, Q3 : 0.0, Q4 : 0.0}
2019-04-14 02:24:56.71: SIM {TimeUS : 42335559, Roll : 0.0, Pitch : 0.0, Yaw : 0.0, Alt : 30.1000003815, Lat : 49.28357, Lng : -123.11502, Q1 : 1.0, Q2 : 0.0, Q3 : 0.0, Q4 : 0.0}
2019-04-14 02:24:56.81: SIM {TimeUS : 42435519, Roll : 0.0, Pitch : 0.0, Yaw : 0.0, Alt : 30.1000003815, Lat : 49.28357, Lng : -123.11502, Q1 : 1.0, Q2 : 0.0, Q3 : 0.0, Q4 : 0.0}
2019-04-14 02:24:56.91: SIM {TimeUS : 42535479, Roll : 0.0, Pitch : 0.0, Yaw : 360.0, Alt : 30.1000003815, Lat : 49.28357, Lng : -123.11502, Q1 : 1.0, Q2 : 0.0, Q3 : 0.0, Q4 : -2.81975723153e-12}
2019-04-14 02:24:57.01: SIM {TimeUS : 42635439, Roll : 0.0, Pitch : 0.0, Yaw : 0.0, Alt : 30.1000003815, Lat : 49.28357, Lng : -123.11502, Q1 : 1.0, Q2 : 0.0, Q3 : 0.0, Q4 : 2.10149987689e-11}
2019-04-14 02:24:57.11: SIM {TimeUS : 42735399, Roll : 0.0, Pitch : 0.0, Yaw : 360.0, Alt : 30.1000003815, Lat : 49.28357, Lng : -123.11502, Q1 : 1.0, Q2 : 0.0, Q3 : 0.0, Q4 : -1.12031898425e-07}
2019-04-14 02:24:57.21: SIM {TimeUS : 42835359, Roll : 0.0, Pitch : 0.0, Yaw : 359.99, Alt : 30.1000003815, Lat : 49.28357, Lng : -123.11502, Q1 : 1.0, Q2 : 0.0, Q3 : 0.0, Q4 : -2.39521313006e-07}
2019-04-14 02:24:57.31: SIM {TimeUS : 42935319, Roll : 0.0, Pitch : 0.0, Yaw : 359.99, Alt : 30.1000003815, Lat : 49.28357, Lng : -123.11502, Q1 : 1.0, Q2 : 0.0, Q3 : 0.0, Q4 : -4.58383055957e-07}
2019-04-14 02:24:57.41: SIM {TimeUS : 43035279, Roll : 0.0, Pitch : 0.0, Yaw : 359.99, Alt : 30.1000003815, Lat : 49.28357, Lng : -123.11502, Q1 : 1.0, Q2 : 0.0, Q3 : 0.0, Q4 : -6.38786104901e-07}
2019-04-14 02:24:57.51: SIM {TimeUS : 43135239, Roll : 0.0, Pitch : 0.0, Yaw : 359.99, Alt : 30.1000003815, Lat : 49.28357, Lng : -123.11502, Q1 : 1.0, Q2 : 0.0, Q3 : 0.0, Q4 : -8.31875809126e-07}
2019-04-14 02:24:57.61: SIM {TimeUS : 43235199, Roll : 0.0, Pitch : 0.0, Yaw : 359.99, Alt : 30.1000003815, Lat : 49.28357, Lng : -123.11502, Q1 : 1.0, Q2 : 0.0, Q3 : 0.0, Q4 : -1.06518007215e-06}
2019-04-14 02:24:57.71: SIM {TimeUS : 43335159, Roll : 0.0, Pitch : 0.0, Yaw : 359.99, Alt : 30.1000003815, Lat : 49.28357, Lng : -123.11502, Q1 : 1.0, Q2 : 0.0, Q3 : 0.0, Q4 : -1.27346368117e-06}
2019-04-14 02:24:57.81: SIM {TimeUS : 43435119, Roll : 0.0, Pitch : 0.0, Yaw : 359.99, Alt : 30.1100006104, Lat : 49.28357, Lng : -123.11502, Q1 : 1.0, Q2 : 0.0, Q3 : 0.0, Q4 : -1.46940692503e-06}
2019-04-14 02:24:57.91: SIM {TimeUS : 43535079, Roll : 0.0, Pitch : 0.0, Yaw : 359.99, Alt : 30.1299991608, Lat : 49.28357, Lng : -123.11502, Q1 : 1.0, Q2 : 0.0, Q3 : 0.0, Q4 : -1.70819748746e-06}
2019-04-14 02:24:58.01: SIM {TimeUS : 43635039, Roll : 0.0, Pitch : 0.0, Yaw : 359.99, Alt : 30.1499996185, Lat : 49.28357, Lng : -123.11502, Q1 : 1.0, Q2 : 0.0, Q3 : 0.0, Q4 : -1.88620413155e-06}
2019-04-14 02:24:58.11: SIM {TimeUS : 43734999, Roll : 0.0, Pitch : 0.0, Yaw : 359.99, Alt : 30.1900005341, Lat : 49.28357, Lng : -123.11502, Q1 : 1.0, Q2 : 0.0, Q3 : 0.0, Q4 : -2.10501161746e-06}
2019-04-14 02:24:58.21: SIM {TimeUS : 43834959, Roll : -0.03, Pitch : -0.02, Yaw : 359.99, Alt : 30.2299995422, Lat : 49.28357, Lng : -123.11502, Q1 : 0.999999880791, Q2 : -0.000325113389408, Q3 : -0.000255165621638, Q4 : -3.87036334359e-06}
2019-04-14 02:24:58.31: SIM {TimeUS : 43934919, Roll : -0.29, Pitch : -0.24, Yaw : 359.99, Alt : 30.3099994659, Lat : 49.28357, Lng : -123.11502, Q1 : 0.999994397163, Q2 : -0.0025413390249, Q3 : -0.00217340746894, Q4 : -2.24014929699e-05}
2019-04-14 02:24:58.41: SIM {TimeUS : 44034879, Roll : -0.59, Pitch : -0.53, Yaw : 359.99, Alt : 30.4400005341, Lat : 49.28357, Lng : -123.11502, Q1 : 0.999975919724, Q2 : -0.00517198303714, Q3 : -0.00463643344119, Q4 : -6.21410290478e-05}
2019-04-14 02:24:58.51: SIM {TimeUS : 44134839, Roll : -0.79, Pitch : -0.73, Yaw : 359.99, Alt : 30.5900001526, Lat : 49.28357, Lng : -123.11502, Q1 : 0.999955534935, Q2 : -0.00691984267905, Q3 : -0.00640546577051, Q4 : -0.000124540980323}
2019-04-14 02:24:58.61: SIM {TimeUS : 44234799, Roll : -0.84, Pitch : -0.78, Yaw : 359.98, Alt : 30.75, Lat : 49.28357, Lng : -123.11502, Q1 : 0.999948918819, Q2 : -0.00741724763066, Q3 : -0.00686467485502, Q4 : -0.000211442617001}
2019-04-14 02:24:58.71: SIM {TimeUS : 44334759, Roll : -0.76, Pitch : -0.69, Yaw : 359.96, Alt : 30.9099998474, Lat : 49.28357, Lng : -123.1150201, Q1 : 0.999958992004, Q2 : -0.00668686395511, Q3 : -0.00610137591138, Q4 : -0.000311566254823}
2019-04-14 02:24:58.81: SIM {TimeUS : 44435552, Roll : -0.55, Pitch : -0.53, Yaw : 359.95, Alt : 31.0599994659, Lat : 49.2835701, Lng : -123.1150202, Q1 : 0.999977350235, Q2 : -0.00485808681697, Q3 : -0.00464504398406, Q4 : -0.000401434634114}
2019-04-14 02:24:58.91: SIM {TimeUS : 44535512, Roll : -0.31, Pitch : -0.32, Yaw : 359.94, Alt : 31.2199993134, Lat : 49.2835701, Lng : -123.1150202, Q1 : 0.999992251396, Q2 : -0.00271632988006, Q3 : -0.00281997444108, Q4 : -0.000476370478282}
2019-04-14 02:24:59.01: SIM {TimeUS : 44635472, Roll : -0.11, Pitch : -0.13, Yaw : 359.93, Alt : 31.3799991608, Lat : 49.2835702, Lng : -123.1150203, Q1 : 0.999998688698, Q2 : -0.00101103831548, Q3 : -0.00113763578702, Q4 : -0.000537017825991}
2019-04-14 02:24:59.11: SIM {TimeUS : 44735432, Roll : 0.0, Pitch : 0.0, Yaw : 359.93, Alt : 31.5599994659, Lat : 49.2835702, Lng : -123.1150204, Q1 : 0.999999821186, Q2 : 7.00767341186e-05, Q3 : -6.33805348116e-06, Q4 : -0.000579892017413}
2019-04-14 02:24:59.21: SIM {TimeUS : 44835392, Roll : 0.06, Pitch : 0.05, Yaw : 359.93, Alt : 31.7299995422, Lat : 49.2835703, Lng : -123.1150205, Q1 : 0.999999523163, Q2 : 0.000558356579859, Q3 : 0.000507001881488, Q4 : -0.000604172993917}
2019-04-14 02:24:59.31: SIM {TimeUS : 44935352, Roll : 0.07, Pitch : 0.06, Yaw : 359.92, Alt : 31.9099998474, Lat : 49.2835703, Lng : -123.1150206, Q1 : 0.999999463558, Q2 : 0.000634617870674, Q3 : 0.000543416303117, Q4 : -0.00062243710272}
2019-04-14 02:24:59.41: SIM {TimeUS : 45035312, Roll : 0.06, Pitch : 0.03, Yaw : 359.92, Alt : 32.0999984741, Lat : 49.2835703, Lng : -123.1150206, Q1 : 0.999999582767, Q2 : 0.000590287032537, Q3 : 0.000340063095791, Q4 : -0.000629861548077}
2019-04-14 02:24:59.51: SIM {TimeUS : 45135272, Roll : 0.07, Pitch : 0.02, Yaw : 359.92, Alt : 32.2900009155, Lat : 49.2835703, Lng : -123.1150207, Q1 : 0.999999582767, Q2 : 0.000622377614491, Q3 : 0.000190435588593, Q4 : -0.000624370062724}
2019-04-14 02:24:59.61: SIM {TimeUS : 45235232, Roll : 0.08, Pitch : 0.02, Yaw : 359.93, Alt : 32.4799995422, Lat : 49.2835703, Lng : -123.1150207, Q1 : 0.999999523163, Q2 : 0.000713569112122, Q3 : 0.000236767955357, Q4 : -0.000606281391811}
2019-04-14 02:24:59.71: SIM {TimeUS : 45335192, Roll : 0.09, Pitch : 0.04, Yaw : 359.93, Alt : 32.6800003052, Lat : 49.2835703, Lng : -123.1150208, Q1 : 0.999999403954, Q2 : 0.000792690785602, Q3 : 0.000432038999861, Q4 : -0.00058510445524}
2019-04-14 02:24:59.81: SIM {TimeUS : 45435152, Roll : 0.1, Pitch : 0.09, Yaw : 359.93, Alt : 32.8699989319, Lat : 49.2835704, Lng : -123.1150208, Q1 : 0.99999910593, Q2 : 0.0008808777784, Q3 : 0.000806075870059, Q4 : -0.000561882276088}
2019-04-14 02:24:59.91: SIM {TimeUS : 45535112, Roll : 0.12, Pitch : 0.14, Yaw : 359.93, Alt : 33.0699996948, Lat : 49.2835704, Lng : -123.1150208, Q1 : 0.999998450279, Q2 : 0.00110871356446, Q3 : 0.00126287073363, Q4 : -0.000539358588867}
2019-04-14 02:25:00.01: SIM {TimeUS : 45635072, Roll : 0.16, Pitch : 0.17, Yaw : 359.93, Alt : 33.2799987793, Lat : 49.2835704, Lng : -123.1150209, Q1 : 0.999997615814, Q2 : 0.00145161384717, Q3 : 0.00154164072592, Q4 : -0.000527434400283}
2019-04-14 02:25:00.11: SIM {TimeUS : 45735032, Roll : 0.18, Pitch : 0.19, Yaw : 359.94, Alt : 33.4799995422, Lat : 49.2835704, Lng : -123.1150209, Q1 : 0.999997138977, Q2 : 0.0016466609668, Q3 : 0.00166801013984, Q4 : -0.000520520086866}
2019-04-14 02:25:00.21: SIM {TimeUS : 45834992, Roll : 0.19, Pitch : 0.19, Yaw : 359.94, Alt : 33.6899986267, Lat : 49.2835704, Lng : -123.1150209, Q1 : 0.999996960163, Q2 : 0.00166110240389, Q3 : 0.00174438417889, Q4 : -0.000512718397658}
2019-04-14 02:25:00.31: SIM {TimeUS : 45934952, Roll : 0.18, Pitch : 0.17, Yaw : 359.94, Alt : 33.9000015259, Lat : 49.2835706, Lng : -123.1150209, Q1 : 0.999997377396, Q2 : 0.00161040970124, Q3 : 0.00154308008496, Q4 : -0.000520909146871}
2019-04-14 02:25:00.41: SIM {TimeUS : 46034912, Roll : 0.16, Pitch : 0.14, Yaw : 359.93, Alt : 34.1100006104, Lat : 49.2835706, Lng : -123.1150209, Q1 : 0.999998033047, Q2 : 0.00145947013516, Q3 : 0.00123050005641, Q4 : -0.000527205702383}
2019-04-14 02:25:00.51: SIM {TimeUS : 46134872, Roll : 0.13, Pitch : 0.11, Yaw : 359.93, Alt : 34.3199996948, Lat : 49.2835706, Lng : -123.1150209, Q1 : 0.999998688698, Q2 : 0.00119100266602, Q3 : 0.0009919089498, Q4 : -0.000540052889846}
2019-04-14 02:25:00.61: SIM {TimeUS : 46234832, Roll : 0.11, Pitch : 0.09, Yaw : 359.93, Alt : 34.5299987793, Lat : 49.2835706, Lng : -123.1150209, Q1 : 0.999998986721, Q2 : 0.00100863527041, Q3 : 0.000809977180324, Q4 : -0.000557720893994}
2019-04-14 02:25:00.71: SIM {TimeUS : 46334792, Roll : 0.11, Pitch : 0.08, Yaw : 359.93, Alt : 34.7400016785, Lat : 49.2835706, Lng : -123.1150209, Q1 : 0.99999910593, Q2 : 0.000963570841122, Q3 : 0.000748941267375, Q4 : -0.000584553461522}
2019-04-14 02:25:00.81: SIM {TimeUS : 46434752, Roll : 0.09, Pitch : 0.07, Yaw : 359.92, Alt : 34.9599990845, Lat : 49.2835706, Lng : -123.1150209, Q1 : 0.99999922514, Q2 : 0.000866695481818, Q3 : 0.000619468628429, Q4 : -0.000614892574959}
2019-04-14 02:25:00.91: SIM {TimeUS : 46535545, Roll : 0.07, Pitch : 0.05, Yaw : 359.92, Alt : 35.1800003052, Lat : 49.2835706, Lng : -123.1150208, Q1 : 0.999999403954, Q2 : 0.000689464330208, Q3 : 0.000519094930496, Q4 : -0.000644174113404}
2019-04-14 02:25:01.01: SIM {TimeUS : 46635505, Roll : 0.05, Pitch : 0.05, Yaw : 359.92, Alt : 35.3899993896, Lat : 49.2835706, Lng : -123.1150208, Q1 : 0.999999523163, Q2 : 0.000462905969471, Q3 : 0.000502182054333, Q4 : -0.000674679933582}
2019-04-14 02:25:01.11: SIM {TimeUS : 46735465, Roll : 0.02, Pitch : 0.06, Yaw : 359.91, Alt : 35.6100006104, Lat : 49.2835706, Lng : -123.1150208, Q1 : 0.999999582767, Q2 : 0.000259940105025, Q3 : 0.000563728972338, Q4 : -0.000702336838003}
2019-04-14 02:25:01.21: SIM {TimeUS : 46835425, Roll : 0.01, Pitch : 0.05, Yaw : 359.91, Alt : 35.8300018311, Lat : 49.2835706, Lng : -123.1150208, Q1 : 0.999999642372, Q2 : 0.000146770937135, Q3 : 0.000447828089818, Q4 : -0.000724058481865}
2019-04-14 02:25:01.31: SIM {TimeUS : 46935385, Roll : 0.0, Pitch : 0.04, Yaw : 359.91, Alt : 36.0499992371, Lat : 49.2835706, Lng : -123.1150208, Q1 : 0.999999642372, Q2 : 8.36548570078e-05, Q3 : 0.000358444696758, Q4 : -0.000745731114876}
2019-04-14 02:25:01.41: SIM {TimeUS : 47035345, Roll : 0.0, Pitch : 0.03, Yaw : 359.91, Alt : 36.2700004578, Lat : 49.2835706, Lng : -123.1150207, Q1 : 0.999999642372, Q2 : -2.01308066607e-05, Q3 : 0.00032298421138, Q4 : -0.000770266284235}
2019-04-14 02:25:01.51: SIM {TimeUS : 47135305, Roll : 0.0, Pitch : 0.04, Yaw : 359.9, Alt : 36.4900016785, Lat : 49.2835706, Lng : -123.1150207, Q1 : 0.999999642372, Q2 : -3.12640913762e-05, Q3 : 0.000358202349162, Q4 : -0.000798651366495}
2019-04-14 02:25:01.61: SIM {TimeUS : 47235265, Roll : 0.01, Pitch : 0.03, Yaw : 359.9, Alt : 36.7200012207, Lat : 49.2835704, Lng : -123.1150207, Q1 : 0.999999582767, Q2 : 9.53827038757e-05, Q3 : 0.000334626325639, Q4 : -0.000826161296573}
2019-04-14 02:25:01.71: SIM {TimeUS : 47335225, Roll : 0.0, Pitch : 0.02, Yaw : 359.9, Alt : 36.9399986267, Lat : 49.2835704, Lng : -123.1150207, Q1 : 0.999999582767, Q2 : 4.64154109068e-05, Q3 : 0.000206664888537, Q4 : -0.000854173093103}
2019-04-14 02:25:01.81: SIM {TimeUS : 47435185, Roll : -0.02, Pitch : 0.0, Yaw : 359.89, Alt : 37.1599998474, Lat : 49.2835704, Lng : -123.1150207, Q1 : 0.999999582767, Q2 : -0.000230176505283, Q3 : -5.34733408131e-05, Q4 : -0.000884160865098}
2019-04-14 02:25:01.91: SIM {TimeUS : 47535145, Roll : -0.06, Pitch : -0.03, Yaw : 359.89, Alt : 37.3899993896, Lat : 49.2835704, Lng : -123.1150207, Q1 : 0.999999344349, Q2 : -0.000611016817857, Q3 : -0.000282798660919, Q4 : -0.000912649207748}
2019-04-14 02:25:02.01: SIM {TimeUS : 47635105, Roll : -0.1, Pitch : -0.04, Yaw : 359.89, Alt : 37.6100006104, Lat : 49.2835704, Lng : -123.1150207, Q1 : 0.999999046326, Q2 : -0.000938173325267, Q3 : -0.000431797059719, Q4 : -0.000940282887314}
2019-04-14 02:25:02.11: SIM {TimeUS : 47735065, Roll : -0.13, Pitch : -0.06, Yaw : 359.88, Alt : 37.8400001526, Lat : 49.2835704, Lng : -123.1150206, Q1 : 0.999998748302, Q2 : -0.0011534311343, Q3 : -0.000536279694643, Q4 : -0.000966517894994}
2019-04-14 02:25:02.21: SIM {TimeUS : 47835025, Roll : -0.14, Pitch : -0.06, Yaw : 359.88, Alt : 38.0699996948, Lat : 49.2835704, Lng : -123.1150206, Q1 : 0.999998629093, Q2 : -0.00122276344337, Q3 : -0.000545903225429, Q4 : -0.000995302572846}
2019-04-14 02:25:02.31: SIM {TimeUS : 47934985, Roll : -0.12, Pitch : -0.04, Yaw : 359.88, Alt : 38.2900009155, Lat : 49.2835704, Lng : -123.1150206, Q1 : 0.999998807907, Q2 : -0.00110162061173, Q3 : -0.000392735440983, Q4 : -0.00102015002631}
2019-04-14 02:25:02.41: SIM {TimeUS : 48034945, Roll : -0.1, Pitch : -0.04, Yaw : 359.88, Alt : 38.5200004578, Lat : 49.2835704, Lng : -123.1150206, Q1 : 0.999998986721, Q2 : -0.000883404689375, Q3 : -0.000351588474587, Q4 : -0.00104651029687}
2019-04-14 02:25:02.51: SIM {TimeUS : 48134905, Roll : -0.08, Pitch : -0.04, Yaw : 359.87, Alt : 38.75, Lat : 49.2835704, Lng : -123.1150206, Q1 : 0.999999046326, Q2 : -0.000745093566366, Q3 : -0.000416934897657, Q4 : -0.0010793734109}
2019-04-14 02:25:02.61: SIM {TimeUS : 48234865, Roll : -0.07, Pitch : -0.03, Yaw : 359.87, Alt : 38.9799995422, Lat : 49.2835704, Lng : -123.1150206, Q1 : 0.999999165535, Q2 : -0.000649304769468, Q3 : -0.000306124711642, Q4 : -0.00110004213639}
2019-04-14 02:25:02.71: SIM {TimeUS : 48334825, Roll : -0.08, Pitch : -0.01, Yaw : 359.87, Alt : 39.2099990845, Lat : 49.2835704, Lng : -123.1150206, Q1 : 0.99999910593, Q2 : -0.000750184291974, Q3 : -0.00013249766198, Q4 : -0.00110684765968}
2019-04-14 02:25:02.81: SIM {TimeUS : 48434785, Roll : -0.08, Pitch : 0.0, Yaw : 359.87, Alt : 39.4399986267, Lat : 49.2835704, Lng : -123.1150206, Q1 : 0.99999910593, Q2 : -0.000751017825678, Q3 : 1.05421440821e-05, Q4 : -0.00110688770656}
2019-04-14 02:25:02.91: SIM {TimeUS : 48534745, Roll : -0.06, Pitch : 0.02, Yaw : 359.87, Alt : 39.6699981689, Lat : 49.2835704, Lng : -123.1150206, Q1 : 0.99999922514, Q2 : -0.000570563483052, Q3 : 0.000226826872677, Q4 : -0.00110638409387}
2019-04-14 02:25:03.01: SIM {TimeUS : 48635538, Roll : -0.03, Pitch : 0.02, Yaw : 359.87, Alt : 39.9000015259, Lat : 49.2835704, Lng : -123.1150207, Q1 : 0.999999284744, Q2 : -0.000327295274474, Q3 : 0.000212638697121, Q4 : -0.00110146950465}
2019-04-14 02:25:03.11: SIM {TimeUS : 48735498, Roll : 0.0, Pitch : 0.01, Yaw : 359.87, Alt : 40.1300010681, Lat : 49.2835704, Lng : -123.1150207, Q1 : 0.999999403954, Q2 : -4.15188733314e-05, Q3 : 0.000149251238327, Q4 : -0.00109878031071}
2019-04-14 02:25:03.21: SIM {TimeUS : 48835458, Roll : 0.03, Pitch : 0.03, Yaw : 359.87, Alt : 40.3699989319, Lat : 49.2835704, Lng : -123.1150207, Q1 : 0.999999284744, Q2 : 0.000270098913461, Q3 : 0.00031590659637, Q4 : -0.00109799939673}
2019-04-14 02:25:03.31: SIM {TimeUS : 48935418, Roll : 0.07, Pitch : 0.07, Yaw : 359.87, Alt : 40.5999984741, Lat : 49.2835704, Lng : -123.1150207, Q1 : 0.999998986721, Q2 : 0.000632594223134, Q3 : 0.000654705916531, Q4 : -0.00110403099097}
2019-04-14 02:25:03.41: SIM {TimeUS : 49035378, Roll : 0.09, Pitch : 0.11, Yaw : 359.87, Alt : 40.8300018311, Lat : 49.2835704, Lng : -123.1150207, Q1 : 0.999998509884, Q2 : 0.000869593117386, Q3 : 0.000972354086116, Q4 : -0.00112290075049}
2019-04-14 02:25:03.51: SIM {TimeUS : 49135338, Roll : 0.08, Pitch : 0.13, Yaw : 359.86, Alt : 41.0600013733, Lat : 49.2835704, Lng : -123.1150207, Q1 : 0.99999833107, Q2 : 0.000762067269534, Q3 : 0.00118644966278, Q4 : -0.00113811332267}
2019-04-14 02:25:03.61: SIM {TimeUS : 49235298, Roll : 0.03, Pitch : 0.14, Yaw : 359.86, Alt : 41.2999992371, Lat : 49.2835704, Lng : -123.1150207, Q1 : 0.999998450279, Q2 : 0.000299999694107, Q3 : 0.0012918356806, Q4 : -0.00116163992789}
2019-04-14 02:25:03.71: SIM {TimeUS : 49335258, Roll : -0.01, Pitch : 0.14, Yaw : 359.86, Alt : 41.5299987793, Lat : 49.2835706, Lng : -123.1150207, Q1 : 0.999998450279, Q2 : -0.000125014150399, Q3 : 0.00129427120555, Q4 : -0.00118895084597}
2019-04-14 02:25:03.81: SIM {TimeUS : 49435218, Roll : -0.03, Pitch : 0.11, Yaw : 359.86, Alt : 41.7599983215, Lat : 49.2835704, Lng : -123.1150207, Q1 : 0.999998688698, Q2 : -0.000282458757283, Q3 : 0.00102204026189, Q4 : -0.0012203308288}
2019-04-14 02:25:03.91: SIM {TimeUS : 49535178, Roll : -0.03, Pitch : 0.07, Yaw : 359.85, Alt : 42.0, Lat : 49.2835704, Lng : -123.1150207, Q1 : 0.999998986721, Q2 : -0.000282976892777, Q3 : 0.00064047583146, Q4 : -0.00125552283134}
2019-04-14 02:25:04.01: SIM {TimeUS : 49635138, Roll : -0.01, Pitch : 0.05, Yaw : 359.85, Alt : 42.2299995422, Lat : 49.2835704, Lng : -123.1150207, Q1 : 0.999998986721, Q2 : -0.000169246457517, Q3 : 0.000520840345416, Q4 : -0.00129908730742}
2019-04-14 02:25:04.11: SIM {TimeUS : 49735098, Roll : 0.01, Pitch : 0.06, Yaw : 359.84, Alt : 42.4599990845, Lat : 49.2835704, Lng : -123.1150207, Q1 : 0.999998927116, Q2 : 0.000164929399034, Q3 : 0.000605282082688, Q4 : -0.00134796404745}
2019-04-14 02:25:04.21: SIM {TimeUS : 49835058, Roll : 0.07, Pitch : 0.08, Yaw : 359.84, Alt : 42.7000007629, Lat : 49.2835704, Lng : -123.1150207, Q1 : 0.999998569489, Q2 : 0.00065069552511, Q3 : 0.000699798285495, Q4 : -0.00139262957964}
2019-04-14 02:25:04.31: SIM {TimeUS : 49935018, Roll : 0.11, Pitch : 0.07, Yaw : 359.83, Alt : 42.9300003052, Lat : 49.2835704, Lng : -123.1150207, Q1 : 0.999998211861, Q2 : 0.00101272726897, Q3 : 0.00066157465335, Q4 : -0.0014393941965}
2019-04-14 02:25:04.41: SIM {TimeUS : 50034978, Roll : 0.11, Pitch : 0.06, Yaw : 359.83, Alt : 43.1699981689, Lat : 49.2835704, Lng : -123.1150207, Q1 : 0.999998211861, Q2 : 0.0010380607564, Q3 : 0.000540503358934, Q4 : -0.00147888658103}
2019-04-14 02:25:04.51: SIM {TimeUS : 50134938, Roll : 0.07, Pitch : 0.05, Yaw : 359.82, Alt : 43.4000015259, Lat : 49.2835704, Lng : -123.1150207, Q1 : 0.999998569489, Q2 : 0.000683934136759, Q3 : 0.0004462642828, Q4 : -0.00148989260197}
2019-04-14 02:25:04.61: SIM {TimeUS : 50234898, Roll : 0.01, Pitch : 0.04, Yaw : 359.82, Alt : 43.6399993896, Lat : 49.2835704, Lng : -123.1150207, Q1 : 0.999998807907, Q2 : 0.000157834307174, Q3 : 0.000401253870223, Q4 : -0.00149115605745}
2019-04-14 02:25:04.71: SIM {TimeUS : 50334858, Roll : -0.02, Pitch : 0.05, Yaw : 359.82, Alt : 43.8699989319, Lat : 49.2835704, Lng : -123.1150207, Q1 : 0.999998748302, Q2 : -0.000230006349739, Q3 : 0.000454928784166, Q4 : -0.0014955176739}
2019-04-14 02:25:04.81: SIM {TimeUS : 50434818, Roll : -0.04, Pitch : 0.04, Yaw : 359.82, Alt : 44.1100006104, Lat : 49.2835704, Lng : -123.1150207, Q1 : 0.999998688698, Q2 : -0.000431958556874, Q3 : 0.000429541658377, Q4 : -0.00150230294093}
2019-04-14 02:25:04.91: SIM {TimeUS : 50534778, Roll : -0.04, Pitch : 0.02, Yaw : 359.82, Alt : 44.3499984741, Lat : 49.2835704, Lng : -123.1150207, Q1 : 0.999998748302, Q2 : -0.000415666261688, Q3 : 0.000256180966971, Q4 : -0.00151142245159}
2019-04-14 02:25:05.01: SIM {TimeUS : 50634738, Roll : -0.04, Pitch : 0.0, Yaw : 359.82, Alt : 44.5800018311, Lat : 49.2835704, Lng : -123.1150206, Q1 : 0.999998748302, Q2 : -0.000426893820986, Q3 : 2.12648446904e-05, Q4 : -0.00153172016144}
2019-04-14 02:25:05.11: SIM {TimeUS : 50735531, Roll : -0.04, Pitch : -0.01, Yaw : 359.82, Alt : 44.8199996948, Lat : 49.2835704, Lng : -123.1150206, Q1 : 0.999998688698, Q2 : -0.000363517116057, Q3 : -0.000124056488858, Q4 : -0.00155797752086}
2019-04-14 02:25:05.21: SIM {TimeUS : 50835491, Roll : -0.02, Pitch : -0.01, Yaw : 359.81, Alt : 45.0600013733, Lat : 49.2835704, Lng : -123.1150206, Q1 : 0.999998688698, Q2 : -0.000235035768128, Q3 : -0.000168220038177, Q4 : -0.00158497784287}
2019-04-14 02:25:05.31: SIM {TimeUS : 50935451, Roll : -0.01, Pitch : 0.0, Yaw : 359.81, Alt : 45.2900009155, Lat : 49.2835704, Lng : -123.1150206, Q1 : 0.999998688698, Q2 : -0.000172075320734, Q3 : -4.56433335785e-05, Q4 : -0.00161536596715}
2019-04-14 02:25:05.41: SIM {TimeUS : 51035411, Roll : -0.02, Pitch : 0.0, Yaw : 359.81, Alt : 45.5299987793, Lat : 49.2835704, Lng : -123.1150206, Q1 : 0.999998629093, Q2 : -0.000191751649254, Q3 : 1.44260575325e-05, Q4 : -0.00165227858815}
2019-04-14 02:25:05.51: SIM {TimeUS : 51135371, Roll : -0.02, Pitch : -0.01, Yaw : 359.8, Alt : 45.7599983215, Lat : 49.2835704, Lng : -123.1150206, Q1 : 0.999998569489, Q2 : -0.000222255184781, Q3 : -9.16963326745e-05, Q4 : -0.0016925096279}
2019-04-14 02:25:05.61: SIM {TimeUS : 51235331, Roll : -0.02, Pitch : -0.01, Yaw : 359.8, Alt : 45.9900016785, Lat : 49.2835704, Lng : -123.1150206, Q1 : 0.999998450279, Q2 : -0.000217671811697, Q3 : -0.000148042207002, Q4 : -0.00172977114562}
2019-04-14 02:25:05.71: SIM {TimeUS : 51335291, Roll : -0.01, Pitch : -0.01, Yaw : 359.79, Alt : 46.2200012207, Lat : 49.2835704, Lng : -123.1150206, Q1 : 0.999998390675, Q2 : -0.000149200379383, Q3 : -0.000154765046318, Q4 : -0.00176661950536}
2019-04-14 02:25:05.81: SIM {TimeUS : 51435251, Roll : -0.02, Pitch : -0.01, Yaw : 359.79, Alt : 46.4500007629, Lat : 49.2835704, Lng : -123.1150206, Q1 : 0.999998390675, Q2 : -0.000202781782718, Q3 : -0.000118616735563, Q4 : -0.00180091278162}
2019-04-14 02:25:05.91: SIM {TimeUS : 51535211, Roll : -0.05, Pitch : 0.0, Yaw : 359.79, Alt : 46.6699981689, Lat : 49.2835704, Lng : -123.1150206, Q1 : 0.999998211861, Q2 : -0.000442174234195, Q3 : -4.46724006906e-05, Q4 : -0.0018306421116}
2019-04-14 02:25:06.01: SIM {TimeUS : 51635171, Roll : -0.08, Pitch : 0.0, Yaw : 359.78, Alt : 46.8800010681, Lat : 49.2835704, Lng : -123.1150206, Q1 : 0.999997973442, Q2 : -0.000760567490943, Q3 : 4.50369816463e-06, Q4 : -0.00185600412078}
2019-04-14 02:25:06.11: SIM {TimeUS : 51735131, Roll : -0.11, Pitch : 0.0, Yaw : 359.78, Alt : 47.0900001526, Lat : 49.2835704, Lng : -123.1150206, Q1 : 0.999997735023, Q2 : -0.000971592613496, Q3 : 2.67454324785e-05, Q4 : -0.00187885400373}
2019-04-14 02:25:06.21: SIM {TimeUS : 51835091, Roll : -0.11, Pitch : 0.01, Yaw : 359.78, Alt : 47.2900009155, Lat : 49.2835704, Lng : -123.1150206, Q1 : 0.999997675419, Q2 : -0.0010190194007, Q3 : 0.000120212782349, Q4 : -0.00190341542475}
2019-04-14 02:25:06.31: SIM {TimeUS : 51935051, Roll : -0.1, Pitch : 0.03, Yaw : 359.77, Alt : 47.4799995422, Lat : 49.2835704, Lng : -123.1150206, Q1 : 0.999997675419, Q2 : -0.000898792874068, Q3 : 0.000332783412887, Q4 : -0.0019287308678}
2019-04-14 02:25:06.41: SIM {TimeUS : 52035011, Roll : -0.09, Pitch : 0.05, Yaw : 359.77, Alt : 47.6599998474, Lat : 49.2835704, Lng : -123.1150206, Q1 : 0.999997675419, Q2 : -0.000803374452516, Q3 : 0.000438165676314, Q4 : -0.00195480836555}
2019-04-14 02:25:06.51: SIM {TimeUS : 52134971, Roll : -0.1, Pitch : 0.04, Yaw : 359.77, Alt : 47.8400001526, Lat : 49.2835704, Lng : -123.1150206, Q1 : 0.999997496605, Q2 : -0.000914618780371, Q3 : 0.00042816621135, Q4 : -0.00197939923964}
2019-04-14 02:25:06.61: SIM {TimeUS : 52234931, Roll : -0.11, Pitch : 0.03, Yaw : 359.77, Alt : 48.0, Lat : 49.2835704, Lng : -123.1150206, Q1 : 0.999997437, Q2 : -0.000982258352451, Q3 : 0.000336554803653, Q4 : -0.0020051705651}
2019-04-14 02:25:06.71: SIM {TimeUS : 52334891, Roll : -0.09, Pitch : 0.01, Yaw : 359.76, Alt : 48.1399993896, Lat : 49.2835704, Lng : -123.1150206, Q1 : 0.99999755621, Q2 : -0.000866271322593, Q3 : 0.000124099824461, Q4 : -0.00203217356466}
2019-04-14 02:25:06.81: SIM {TimeUS : 52434851, Roll : -0.06, Pitch : -0.01, Yaw : 359.76, Alt : 48.2799987793, Lat : 49.2835704, Lng : -123.1150206, Q1 : 0.999997675419, Q2 : -0.000591590360273, Q3 : -0.000103718841274, Q4 : -0.00205990043469}
2019-04-14 02:25:06.91: SIM {TimeUS : 52534811, Roll : -0.04, Pitch : -0.03, Yaw : 359.76, Alt : 48.4000015259, Lat : 49.2835704, Lng : -123.1150206, Q1 : 0.999997735023, Q2 : -0.000381294870749, Q3 : -0.000307053676806, Q4 : -0.00208892393857}
2019-04-14 02:25:07.01: SIM {TimeUS : 52634771, Roll : -0.03, Pitch : -0.05, Yaw : 359.75, Alt : 48.5200004578, Lat : 49.2835703, Lng : -123.1150206, Q1 : 0.999997615814, Q2 : -0.000285864545731, Q3 : -0.00044966765563, Q4 : -0.00211312994361}
2019-04-14 02:25:07.11: SIM {TimeUS : 52735564, Roll : 0.0, Pitch : -0.04, Yaw : 359.75, Alt : 48.6199989319, Lat : 49.2835703, Lng : -123.1150206, Q1 : 0.999997615814, Q2 : -3.77451215172e-05, Q3 : -0.000419575721025, Q4 : -0.00213603139855}
2019-04-14 02:25:07.21: SIM {TimeUS : 52835524, Roll : 0.03, Pitch : -0.03, Yaw : 359.75, Alt : 48.7000007629, Lat : 49.2835703, Lng : -123.1150206, Q1 : 0.999997615814, Q2 : 0.000262178393314, Q3 : -0.000269854499493, Q4 : -0.00215854658745}
2019-04-14 02:25:07.31: SIM {TimeUS : 52935484, Roll : 0.05, Pitch : 0.0, Yaw : 359.75, Alt : 48.7799987793, Lat : 49.2835703, Lng : -123.1150206, Q1 : 0.999997496605, Q2 : 0.000461987685412, Q3 : -6.80527809891e-05, Q4 : -0.00218050344847}
2019-04-14 02:25:07.41: SIM {TimeUS : 53035444, Roll : 0.06, Pitch : 0.01, Yaw : 359.74, Alt : 48.8499984741, Lat : 49.2835703, Lng : -123.1150207, Q1 : 0.999997437, Q2 : 0.000545682501979, Q3 : 9.4079565315e-05, Q4 : -0.00220591458492}
2019-04-14 02:25:07.51: SIM {TimeUS : 53135404, Roll : 0.06, Pitch : 0.01, Yaw : 359.74, Alt : 48.9099998474, Lat : 49.2835703, Lng : -123.1150207, Q1 : 0.999997317791, Q2 : 0.000596901401877, Q3 : 0.00010960981308, Q4 : -0.00223667128012}
2019-04-14 02:25:07.61: SIM {TimeUS : 53235364, Roll : 0.06, Pitch : -0.01, Yaw : 359.73, Alt : 48.9599990845, Lat : 49.2835703, Lng : -123.1150207, Q1 : 0.999997258186, Q2 : 0.000536562118214, Q3 : -9.98832692858e-05, Q4 : -0.00227220240049}
2019-04-14 02:25:07.71: SIM {TimeUS : 53335324, Roll : 0.05, Pitch : -0.05, Yaw : 359.73, Alt : 49.0, Lat : 49.2835703, Lng : -123.1150207, Q1 : 0.999997138977, Q2 : 0.000509086996317, Q3 : -0.000441826094175, Q4 : -0.00230091135018}
2019-04-14 02:25:07.81: SIM {TimeUS : 53435284, Roll : 0.19, Pitch : -0.16, Yaw : 359.73, Alt : 49.0299987793, Lat : 49.2835703, Lng : -123.1150207, Q1 : 0.999994874001, Q2 : 0.00167505419813, Q3 : -0.00140429381281, Q4 : -0.00232517928816}
2019-04-14 02:25:07.91: SIM {TimeUS : 53535244, Roll : 0.54, Pitch : -0.4, Yaw : 359.72, Alt : 49.0699996948, Lat : 49.2835703, Lng : -123.1150207, Q1 : 0.999979615211, Q2 : 0.00474151223898, Q3 : -0.00357628846541, Q4 : -0.00234857108444}
2019-04-14 02:25:08.01: SIM {TimeUS : 53635204, Roll : 1.12, Pitch : -0.79, Yaw : 359.72, Alt : 49.0900001526, Lat : 49.2835704, Lng : -123.1150207, Q1 : 0.999925017357, Q2 : 0.00979320146143, Q3 : -0.00696177314967, Q4 : -0.002356212819}
2019-04-14 02:25:08.11: SIM {TimeUS : 53735164, Roll : 1.9, Pitch : -1.29, Yaw : 359.71, Alt : 49.1100006104, Lat : 49.2835704, Lng : -123.1150206, Q1 : 0.999794840813, Q2 : 0.0166262146086, Q3 : -0.0113309845328, Q4 : -0.0023416785989}
2019-04-14 02:25:08.21: SIM {TimeUS : 53835124, Roll : 2.79, Pitch : -1.87, Yaw : 359.69, Alt : 49.1300010681, Lat : 49.2835704, Lng : -123.1150206, Q1 : 0.999566078186, Q2 : 0.0243694875389, Q3 : -0.016389830038, Q4 : -0.002288230462}
2019-04-14 02:25:08.31: SIM {TimeUS : 53935084, Roll : 3.63, Pitch : -2.45, Yaw : 359.67, Alt : 49.1500015259, Lat : 49.2835706, Lng : -123.1150204, Q1 : 0.999265372753, Q2 : 0.0316431857646, Q3 : -0.0215091798455, Q4 : -0.00218310323544}
2019-04-14 02:25:08.41: SIM {TimeUS : 54035044, Roll : 4.29, Pitch : -2.94, Yaw : 359.65, Alt : 49.1699981689, Lat : 49.2835707, Lng : -123.1150202, Q1 : 0.998966217041, Q2 : 0.0374015904963, Q3 : -0.0257611908019, Q4 : -0.00201220042072}
2019-04-14 02:25:08.51: SIM {TimeUS : 54135004, Roll : 4.76, Pitch : -3.31, Yaw : 359.65, Alt : 49.1800003052, Lat : 49.2835708, Lng : -123.11502, Q1 : 0.998716533184, Q2 : 0.0414434596896, Q3 : -0.0290616732091, Q4 : -0.00178793608211}
2019-04-14 02:25:08.61: SIM {TimeUS : 54234964, Roll : 5.09, Pitch : -3.6, Yaw : 359.66, Alt : 49.1899986267, Lat : 49.2835709, Lng : -123.1150197, Q1 : 0.998516082764, Q2 : 0.0443718545139, Q3 : -0.0315358489752, Q4 : -0.00153079885058}
2019-04-14 02:25:08.71: SIM {TimeUS : 54334924, Roll : 5.37, Pitch : -3.81, Yaw : 359.67, Alt : 49.2000007629, Lat : 49.2835712, Lng : -123.1150192, Q1 : 0.998346924782, Q2 : 0.0467917248607, Q3 : -0.0333525463939, Q4 : -0.00125241128262}
2019-04-14 02:25:08.81: SIM {TimeUS : 54434884, Roll : 5.66, Pitch : -4.01, Yaw : 359.68, Alt : 49.2099990845, Lat : 49.2835715, Lng : -123.1150186, Q1 : 0.998165249825, Q2 : 0.0493046678603, Q3 : -0.0351323485374, Q4 : -0.000972944020759}
2019-04-14 02:25:08.91: SIM {TimeUS : 54534844, Roll : 5.99, Pitch : -4.23, Yaw : 359.69, Alt : 49.2200012207, Lat : 49.2835718, Lng : -123.115018, Q1 : 0.997953534126, Q2 : 0.0521259345114, Q3 : -0.0370291396976, Q4 : -0.000709680258296}
2019-04-14 02:25:09.01: SIM {TimeUS : 54634804, Roll : 6.3, Pitch : -4.44, Yaw : 359.7, Alt : 49.2200012207, Lat : 49.2835721, Lng : -123.1150172, Q1 : 0.997738957405, Q2 : 0.0548457913101, Q3 : -0.038842510432, Q4 : -0.000457725953311}
2019-04-14 02:25:09.11: SIM {TimeUS : 54734764, Roll : 6.55, Pitch : -4.62, Yaw : 359.7, Alt : 49.2299995422, Lat : 49.2835725, Lng : -123.1150163, Q1 : 0.99755448103, Q2 : 0.0569854415953, Q3 : -0.0404681526124, Q4 : -0.000234199076658}
2019-04-14 02:25:09.21: SIM {TimeUS : 54835557, Roll : 6.73, Pitch : -4.77, Yaw : 359.71, Alt : 49.2400016785, Lat : 49.2835728, Lng : -123.1150154, Q1 : 0.997409522533, Q2 : 0.0586017258465, Q3 : -0.0417143888772, Q4 : -2.9631817597e-05}
2019-04-14 02:25:09.31: SIM {TimeUS : 54935517, Roll : 6.87, Pitch : -4.87, Yaw : 359.72, Alt : 49.2400016785, Lat : 49.2835733, Lng : -123.1150144, Q1 : 0.997303247452, Q2 : 0.0597912333906, Q3 : -0.0425586625934, Q4 : 0.000141082578921}
2019-04-14 02:25:09.41: SIM {TimeUS : 55035477, Roll : 6.96, Pitch : -4.92, Yaw : 359.73, Alt : 49.2400016785, Lat : 49.2835739, Lng : -123.1150132, Q1 : 0.997233986855, Q2 : 0.0606205649674, Q3 : -0.0430057197809, Q4 : 0.000262687273789}
2019-04-14 02:25:09.51: SIM {TimeUS : 55135437, Roll : 7.07, Pitch : -4.97, Yaw : 359.73, Alt : 49.25, Lat : 49.2835745, Lng : -123.115012, Q1 : 0.997155427933, Q2 : 0.0615841001272, Q3 : -0.0434559769928, Q4 : 0.000330480310367}
2019-04-14 02:25:09.61: SIM {TimeUS : 55235397, Roll : 7.3, Pitch : -4.96, Yaw : 359.79, Alt : 49.25, Lat : 49.2835751, Lng : -123.1150107, Q1 : 0.997032105923, Q2 : 0.0635957419872, Q3 : -0.0433776825666, Q4 : 0.000962749647442}
2019-04-14 02:25:09.71: SIM {TimeUS : 55335357, Roll : 7.77, Pitch : -4.79, Yaw : 0.35, Alt : 49.2599983215, Lat : 49.2835757, Lng : -123.1150093, Q1 : 0.996807873249, Q2 : 0.0679045468569, Q3 : -0.0415650308132, Q4 : 0.00594782270491}
2019-04-14 02:25:09.81: SIM {TimeUS : 55435317, Roll : 8.4, Pitch : -4.63, Yaw : 2.1, Alt : 49.2599983215, Lat : 49.2835764, Lng : -123.1150078, Q1 : 0.996276497841, Q2 : 0.073910407722, Q3 : -0.0389858223498, Q4 : 0.0212265830487}
2019-04-14 02:25:09.91: SIM {TimeUS : 55535277, Roll : 8.89, Pitch : -4.84, Yaw : 5.4, Alt : 49.2599983215, Lat : 49.283577, Lng : -123.1150062, Q1 : 0.994834184647, Q2 : 0.0793855786324, Q3 : -0.0384171120822, Q4 : 0.0502696558833}
2019-04-14 02:25:10.01: SIM {TimeUS : 55635237, Roll : 9.04, Pitch : -5.56, Yaw : 10.24, Alt : 49.2599983215, Lat : 49.2835777, Lng : -123.1150045, Q1 : 0.991389989853, Q2 : 0.0827695727348, Q3 : -0.0411807149649, Q4 : 0.0927323698997}
2019-04-14 02:25:10.11: SIM {TimeUS : 55735197, Roll : 8.68, Pitch : -6.77, Yaw : 16.4, Alt : 49.2599983215, Lat : 49.2835785, Lng : -123.1150027, Q1 : 0.984567701817, Q2 : 0.0832380354404, Q3 : -0.0474991425872, Q4 : 0.146429941058}
2019-04-14 02:25:10.21: SIM {TimeUS : 55835157, Roll : 7.72, Pitch : -8.28, Yaw : 23.62, Alt : 49.2599983215, Lat : 49.2835792, Lng : -123.1150008, Q1 : 0.973046004772, Q2 : 0.0805328339338, Q3 : -0.0567742325366, Q4 : 0.208500936627}
2019-04-14 02:25:10.31: SIM {TimeUS : 55935117, Roll : 6.15, Pitch : -9.87, Yaw : 31.66, Alt : 49.2700004578, Lat : 49.28358, Lng : -123.1149987, Q1 : 0.955848038197, Q2 : 0.0749085322022, Q3 : -0.0680601224303, Q4 : 0.275882214308}
2019-04-14 02:25:10.41: SIM {TimeUS : 56035077, Roll : 4.04, Pitch : -11.3, Yaw : 40.25, Alt : 49.2700004578, Lat : 49.2835807, Lng : -123.1149965, Q1 : 0.932575583458, Q2 : 0.0668559893966, Q3 : -0.0803415849805, Q4 : 0.345511734486}
2019-04-14 02:25:10.51: SIM {TimeUS : 56135037, Roll : 1.3, Pitch : -12.4, Yaw : 48.98, Alt : 49.2700004578, Lat : 49.2835816, Lng : -123.1149942, Q1 : 0.904127538204, Q2 : 0.0550515390933, Q3 : -0.0936357080936, Q4 : 0.413225233555}
2019-04-14 02:25:10.61: SIM {TimeUS : 56234997, Roll : -1.88, Pitch : -12.99, Yaw : 57.02, Alt : 49.2700004578, Lat : 49.2835824, Lng : -123.1149919, Q1 : 0.873821973801, Q2 : 0.0396773070097, Q3 : -0.107176549733, Q4 : 0.472624719143}
2019-04-14 02:25:10.71: SIM {TimeUS : 56334957, Roll : -4.88, Pitch : -13.07, Yaw : 63.54, Alt : 49.2700004578, Lat : 49.2835834, Lng : -123.1149894, Q1 : 0.84641367197, Q2 : 0.023879788816, Q3 : -0.118986546993, Q4 : 0.518513143063}
2019-04-14 02:25:10.81: SIM {TimeUS : 56434917, Roll : -7.1, Pitch : -12.85, Yaw : 68.02, Alt : 49.2700004578, Lat : 49.2835844, Lng : -123.1149869, Q1 : 0.826008975506, Q2 : 0.011420452036, Q3 : -0.12706784904, Q4 : 0.54902869463}
2019-04-14 02:25:10.91: SIM {TimeUS : 56534877, Roll : -8.24, Pitch : -12.62, Yaw : 70.43, Alt : 49.2700004578, Lat : 49.2835856, Lng : -123.1149843, Q1 : 0.814476370811, Q2 : 0.00485204672441, Q3 : -0.130805507302, Q4 : 0.565238535404}
2019-04-14 02:25:11.01: SIM {TimeUS : 56634837, Roll : -8.33, Pitch : -12.57, Yaw : 71.03, Alt : 49.2700004578, Lat : 49.2835868, Lng : -123.1149817, Q1 : 0.811546623707, Q2 : 0.00470340112224, Q3 : -0.130880117416, Q4 : 0.569421052933}
2019-04-14 02:25:11.11: SIM {TimeUS : 56734797, Roll : -7.54, Pitch : -12.8, Yaw : 70.16, Alt : 49.2700004578, Lat : 49.2835883, Lng : -123.1149791, Q1 : 0.815651774406, Q2 : 0.0104514108971, Q3 : -0.128635555506, Q4 : 0.563964426517}
2019-04-14 02:25:11.21: SIM {TimeUS : 56834757, Roll : -6.14, Pitch : -13.3, Yaw : 68.21, Alt : 49.2700004578, Lat : 49.2835897, Lng : -123.1149764, Q1 : 0.824703574181, Q2 : 0.0207381807268, Q3 : -0.125620678067, Q4 : 0.551047563553}
2019-04-14 02:25:11.31: SIM {TimeUS : 56935550, Roll : -4.38, Pitch : -13.97, Yaw : 65.48, Alt : 49.2799987793, Lat : 49.2835913, Lng : -123.1149736, Q1 : 0.836773455143, Q2 : 0.0338235385716, Q3 : -0.122745737433, Q4 : 0.532540678978}
2019-04-14 02:25:11.41: SIM {TimeUS : 57035510, Roll : -2.47, Pitch : -14.66, Yaw : 62.33, Alt : 49.2799987793, Lat : 49.2835928, Lng : -123.1149707, Q1 : 0.849899232388, Q2 : 0.047733604908, Q3 : -0.120256476104, Q4 : 0.51081430912}
2019-04-14 02:25:11.51: SIM {TimeUS : 57135470, Roll : -0.59, Pitch : -15.25, Yaw : 59.05, Alt : 49.2799987793, Lat : 49.2835945, Lng : -123.1149677, Q1 : 0.862734615803, Q2 : 0.0609505660832, Q3 : -0.118039049208, Q4 : 0.487894296646}
2019-04-14 02:25:11.61: SIM {TimeUS : 57235430, Roll : 1.07, Pitch : -15.65, Yaw : 55.99, Alt : 49.2799987793, Lat : 49.283596, Lng : -123.1149646, Q1 : 0.874111354351, Q2 : 0.072111427784, Q3 : -0.11589448154, Q4 : 0.46615204215}
2019-04-14 02:25:11.71: SIM {TimeUS : 57335390, Roll : 2.38, Pitch : -15.83, Yaw : 53.44, Alt : 49.2799987793, Lat : 49.2835977, Lng : -123.1149615, Q1 : 0.883207798004, Q2 : 0.0803642272949, Q3 : -0.113746888936, Q4 : 0.447825014591}
2019-04-14 02:25:11.81: SIM {TimeUS : 57435350, Roll : 3.25, Pitch : -15.86, Yaw : 51.6, Alt : 49.2799987793, Lat : 49.2835995, Lng : -123.1149581, Q1 : 0.889615952969, Q2 : 0.0853568837047, Q3 : -0.111994303763, Q4 : 0.434459269047}
2019-04-14 02:25:11.91: SIM {TimeUS : 57535310, Roll : 3.63, Pitch : -15.81, Yaw : 50.56, Alt : 49.2799987793, Lat : 49.2836011, Lng : -123.1149547, Q1 : 0.893281280994, Q2 : 0.087159126997, Q3 : -0.110949233174, Q4 : 0.426781147718}
2019-04-14 02:25:12.01: SIM {TimeUS : 57635270, Roll : 3.57, Pitch : -15.77, Yaw : 50.3, Alt : 49.2799987793, Lat : 49.2836028, Lng : -123.1149511, Q1 : 0.894362747669, Q2 : 0.0862336754799, Q3 : -0.111045815051, Q4 : 0.424673855305}
2019-04-14 02:25:12.11: SIM {TimeUS : 57735230, Roll : 3.13, Pitch : -15.77, Yaw : 50.7, Alt : 49.2799987793, Lat : 49.2836044, Lng : -123.1149474, Q1 : 0.893179655075, Q2 : 0.0832341387868, Q3 : -0.112400591373, Q4 : 0.42739713192}
2019-04-14 02:25:12.21: SIM {TimeUS : 57835190, Roll : 2.44, Pitch : -15.84, Yaw : 51.62, Alt : 49.2900009155, Lat : 49.2836062, Lng : -123.1149436, Q1 : 0.890162110329, Q2 : 0.0790150687099, Q3 : -0.114905700088, Q4 : 0.43377956748}
2019-04-14 02:25:12.31: SIM {TimeUS : 57935150, Roll : 1.6, Pitch : -15.98, Yaw : 52.85, Alt : 49.2900009155, Lat : 49.2836079, Lng : -123.1149397, Q1 : 0.885848283768, Q2 : 0.0743259042501, Q3 : -0.118342243135, Q4 : 0.442429214716}
2019-04-14 02:25:12.41: SIM {TimeUS : 58035110, Roll : 0.74, Pitch : -16.15, Yaw : 54.21, Alt : 49.2900009155, Lat : 49.2836096, Lng : -123.1149358, Q1 : 0.880871117115, Q2 : 0.0697224289179, Q3 : -0.122156940401, Q4 : 0.451976299286}
2019-04-14 02:25:12.51: SIM {TimeUS : 58135070, Roll : -0.07, Pitch : -16.31, Yaw : 55.54, Alt : 49.2900009155, Lat : 49.2836112, Lng : -123.1149318, Q1 : 0.875883996487, Q2 : 0.0655134171247, Q3 : -0.125841289759, Q4 : 0.461193233728}
2019-04-14 02:25:12.61: SIM {TimeUS : 58235030, Roll : -0.75, Pitch : -16.41, Yaw : 56.7, Alt : 49.2900009155, Lat : 49.283613, Lng : -123.1149277, Q1 : 0.871478319168, Q2 : 0.062024332583, Q3 : -0.128707066178, Q4 : 0.469162136316}
2019-04-14 02:25:12.71: SIM {TimeUS : 58334990, Roll : -1.22, Pitch : -16.45, Yaw : 57.57, Alt : 49.2900009155, Lat : 49.2836148, Lng : -123.1149236, Q1 : 0.868067502975, Q2 : 0.0596386902034, Q3 : -0.130488693714, Q4 : 0.475262850523}
2019-04-14 02:25:12.81: SIM {TimeUS : 58434950, Roll : -1.48, Pitch : -16.46, Yaw : 58.13, Alt : 49.2900009155, Lat : 49.2836168, Lng : -123.1149194, Q1 : 0.865891695023, Q2 : 0.0583195649087, Q3 : -0.131388872862, Q4 : 0.479131937027}
2019-04-14 02:25:12.91: SIM {TimeUS : 58534910, Roll : -1.52, Pitch : -16.48, Yaw : 58.35, Alt : 49.2900009155, Lat : 49.2836187, Lng : -123.1149152, Q1 : 0.864954173565, Q2 : 0.0583617500961, Q3 : -0.131564408541, Q4 : 0.480769187212}
2019-04-14 02:25:13.01: SIM {TimeUS : 58634870, Roll : -1.36, Pitch : -16.48, Yaw : 58.28, Alt : 49.2900009155, Lat : 49.2836206, Lng : -123.1149109, Q1 : 0.865168869495, Q2 : 0.059517107904, Q3 : -0.130961582065, Q4 : 0.480405718088}
2019-04-14 02:25:13.11: SIM {TimeUS : 58734830, Roll : -1.08, Pitch : -16.48, Yaw : 57.97, Alt : 49.2900009155, Lat : 49.2836226, Lng : -123.1149066, Q1 : 0.866313874722, Q2 : 0.0613042749465, Q3 : -0.129956394434, Q4 : 0.478386312723}
2019-04-14 02:25:13.21: SIM {TimeUS : 58834790, Roll : -0.74, Pitch : -16.52, Yaw : 57.49, Alt : 49.2900009155, Lat : 49.2836244, Lng : -123.1149022, Q1 : 0.868063211441, Q2 : 0.0634447708726, Q3 : -0.129070624709, Q4 : 0.475165069103}
2019-04-14 02:25:13.31: SIM {TimeUS : 58934750, Roll : -0.39, Pitch : -16.58, Yaw : 56.94, Alt : 49.2900009155, Lat : 49.2836264, Lng : -123.1148978, Q1 : 0.870100796223, Q2 : 0.0657268464565, Q3 : -0.128414511681, Q4 : 0.471290022135}
2019-04-14 02:25:13.41: SIM {TimeUS : 59035543, Roll : -0.06, Pitch : -16.66, Yaw : 56.36, Alt : 49.2900009155, Lat : 49.2836286, Lng : -123.1148933, Q1 : 0.872164607048, Q2 : 0.0679441690445, Q3 : -0.127991870046, Q4 : 0.467258542776}
2019-04-14 02:25:13.51: SIM {TimeUS : 59135503, Roll : 0.21, Pitch : -16.71, Yaw : 55.85, Alt : 49.2900009155, Lat : 49.2836305, Lng : -123.1148888, Q1 : 0.874028265476, Q2 : 0.0697500109673, Q3 : -0.127578273416, Q4 : 0.463609099388}
2019-04-14 02:25:13.61: SIM {TimeUS : 59235463, Roll : 0.43, Pitch : -16.76, Yaw : 55.43, Alt : 49.2900009155, Lat : 49.2836326, Lng : -123.1148843, Q1 : 0.875529289246, Q2 : 0.0711368173361, Q3 : -0.127310022712, Q4 : 0.460630297661}
2019-04-14 02:25:13.71: SIM {TimeUS : 59335423, Roll : 0.57, Pitch : -16.8, Yaw : 55.14, Alt : 49.2900009155, Lat : 49.2836347, Lng : -123.1148797, Q1 : 0.876573562622, Q2 : 0.0720648989081, Q3 : -0.127230018377, Q4 : 0.458517163992}
2019-04-14 02:25:13.81: SIM {TimeUS : 59435383, Roll : 0.64, Pitch : -16.84, Yaw : 54.98, Alt : 49.2900009155, Lat : 49.2836367, Lng : -123.1148751, Q1 : 0.877130270004, Q2 : 0.0725592523813, Q3 : -0.127331241965, Q4 : 0.457344949245}
2019-04-14 02:25:13.91: SIM {TimeUS : 59535343, Roll : 0.64, Pitch : -16.86, Yaw : 54.94, Alt : 49.2900009155, Lat : 49.2836388, Lng : -123.1148705, Q1 : 0.877242743969, Q2 : 0.0725650116801, Q3 : -0.127580106258, Q4 : 0.457058876753}
2019-04-14 02:25:14.01: SIM {TimeUS : 59635303, Roll : 0.56, Pitch : -16.88, Yaw : 55.01, Alt : 49.2900009155, Lat : 49.2836408, Lng : -123.1148658, Q1 : 0.876980304718, Q2 : 0.0721854045987, Q3 : -0.127985015512, Q4 : 0.457509219646}
2019-04-14 02:25:14.11: SIM {TimeUS : 59735263, Roll : 0.44, Pitch : -16.91, Yaw : 55.16, Alt : 49.2900009155, Lat : 49.283643, Lng : -123.114861, Q1 : 0.876434206963, Q2 : 0.0714743807912, Q3 : -0.128579840064, Q4 : 0.458499401808}
2019-04-14 02:25:14.21: SIM {TimeUS : 59835223, Roll : 0.28, Pitch : -16.94, Yaw : 55.36, Alt : 49.2999992371, Lat : 49.2836451, Lng : -123.1148563, Q1 : 0.875713825226, Q2 : 0.0706351473927, Q3 : -0.129289001226, Q4 : 0.459804683924}
2019-04-14 02:25:14.31: SIM {TimeUS : 59935183, Roll : 0.13, Pitch : -16.98, Yaw : 55.57, Alt : 49.2999992371, Lat : 49.2836472, Lng : -123.1148515, Q1 : 0.8749153018, Q2 : 0.0698429644108, Q3 : -0.130106091499, Q4 : 0.46121314168}
2019-04-14 02:25:14.41: SIM {TimeUS : 60035143, Roll : -0.01, Pitch : -17.03, Yaw : 55.77, Alt : 49.2999992371, Lat : 49.2836493, Lng : -123.1148466, Q1 : 0.874148845673, Q2 : 0.0691453292966, Q3 : -0.130952432752, Q4 : 0.462530195713}
2019-04-14 02:25:14.51: SIM {TimeUS : 60135103, Roll : -0.14, Pitch : -17.07, Yaw : 55.93, Alt : 49.2999992371, Lat : 49.2836515, Lng : -123.1148418, Q1 : 0.873517096043, Q2 : 0.068475343287, Q3 : -0.131707325578, Q4 : 0.463607877493}
2019-04-14 02:25:14.61: SIM {TimeUS : 60235063, Roll : -0.25, Pitch : -17.09, Yaw : 56.05, Alt : 49.2999992371, Lat : 49.2836536, Lng : -123.1148369, Q1 : 0.873081803322, Q2 : 0.0679278001189, Q3 : -0.132242903113, Q4 : 0.464355260134}
2019-04-14 02:25:14.71: SIM {TimeUS : 60335023, Roll : -0.3, Pitch : -17.12, Yaw : 56.1, Alt : 49.2999992371, Lat : 49.2836558, Lng : -123.114832, Q1 : 0.872854471207, Q2 : 0.0676535740495, Q3 : -0.132620990276, Q4 : 0.464714676142}
2019-04-14 02:25:14.81: SIM {TimeUS : 60434983, Roll : -0.3, Pitch : -17.14, Yaw : 56.11, Alt : 49.2999992371, Lat : 49.2836579, Lng : -123.1148271, Q1 : 0.872811794281, Q2 : 0.0677837058902, Q3 : -0.13282866776, Q4 : 0.46471658349}
2019-04-14 02:25:14.91: SIM {TimeUS : 60534943, Roll : -0.25, Pitch : -17.18, Yaw : 56.06, Alt : 49.2999992371, Lat : 49.2836601, Lng : -123.1148222, Q1 : 0.87292188406, Q2 : 0.0682707503438, Q3 : -0.132955163717, Q4 : 0.464402288198}
2019-04-14 02:25:15.01: SIM {TimeUS : 60634903, Roll : -0.17, Pitch : -17.23, Yaw : 55.98, Alt : 49.2999992371, Lat : 49.2836622, Lng : -123.1148172, Q1 : 0.873153150082, Q2 : 0.0689915046096, Q3 : -0.133014306426, Q4 : 0.463843733072}
2019-04-14 02:25:15.11: SIM {TimeUS : 60734863, Roll : -0.08, Pitch : -17.27, Yaw : 55.87, Alt : 49.2999992371, Lat : 49.2836645, Lng : -123.1148122, Q1 : 0.873478770256, Q2 : 0.0697440057993, Q3 : -0.133003905416, Q4 : 0.463120520115}
2019-04-14 02:25:15.21: SIM {TimeUS : 60834823, Roll : 0.0, Pitch : -17.3, Yaw : 55.76, Alt : 49.3100013733, Lat : 49.2836668, Lng : -123.1148072, Q1 : 0.873860001564, Q2 : 0.0703947097063, Q3 : -0.1329690516, Q4 : 0.462312161922}
2019-04-14 02:25:15.31: SIM {TimeUS : 60934783, Roll : 0.06, Pitch : -17.32, Yaw : 55.64, Alt : 49.3100013733, Lat : 49.2836689, Lng : -123.1148022, Q1 : 0.874256074429, Q2 : 0.070822827518, Q3 : -0.132956236601, Q4 : 0.461500912905}
2019-04-14 02:25:15.41: SIM {TimeUS : 61034743, Roll : 0.1, Pitch : -17.33, Yaw : 55.54, Alt : 49.3100013733, Lat : 49.2836712, Lng : -123.1147972, Q1 : 0.874634444714, Q2 : 0.070998236537, Q3 : -0.132915988564, Q4 : 0.460768014193}
2019-04-14 02:25:15.51: SIM {TimeUS : 61135536, Roll : 0.13, Pitch : -17.32, Yaw : 55.46, Alt : 49.3100013733, Lat : 49.2836735, Lng : -123.114792, Q1 : 0.874945521355, Q2 : 0.0711604952812, Q3 : -0.132780730724, Q4 : 0.460191041231}
2019-04-14 02:25:15.61: SIM {TimeUS : 61235496, Roll : 0.16, Pitch : -17.33, Yaw : 55.4, Alt : 49.3100013733, Lat : 49.2836758, Lng : -123.114787, Q1 : 0.87515360117, Q2 : 0.0713134109974, Q3 : -0.132722377777, Q4 : 0.459788441658}
2019-04-14 02:25:15.71: SIM {TimeUS : 61335456, Roll : 0.19, Pitch : -17.36, Yaw : 55.37, Alt : 49.3100013733, Lat : 49.2836779, Lng : -123.1147819, Q1 : 0.875230669975, Q2 : 0.0716135427356, Q3 : -0.132881060243, Q4 : 0.459549129009}
2019-04-14 02:25:15.81: SIM {TimeUS : 61435416, Roll : 0.2, Pitch : -17.42, Yaw : 55.36, Alt : 49.3100013733, Lat : 49.2836803, Lng : -123.1147768, Q1 : 0.875202596188, Q2 : 0.0719447731972, Q3 : -0.133284822106, Q4 : 0.459433943033}
2019-04-14 02:25:15.91: SIM {TimeUS : 61535376, Roll : 0.19, Pitch : -17.46, Yaw : 55.36, Alt : 49.3100013733, Lat : 49.2836825, Lng : -123.1147716, Q1 : 0.875147283077, Q2 : 0.0720259994268, Q3 : -0.133620113134, Q4 : 0.459429174662}
2019-04-14 02:25:16.01: SIM {TimeUS : 61635336, Roll : 0.18, Pitch : -17.46, Yaw : 55.38, Alt : 49.3100013733, Lat : 49.2836847, Lng : -123.1147664, Q1 : 0.875089526176, Q2 : 0.0719585567713, Q3 : -0.133720070124, Q4 : 0.459520727396}
2019-04-14 02:25:16.11: SIM {TimeUS : 61735296, Roll : 0.15, Pitch : -17.47, Yaw : 55.4, Alt : 49.3100013733, Lat : 49.283687, Lng : -123.1147613, Q1 : 0.875006854534, Q2 : 0.0718367770314, Q3 : -0.133869618177, Q4 : 0.459653556347}
2019-04-14 02:25:16.21: SIM {TimeUS : 61835256, Roll : 0.11, Pitch : -17.49, Yaw : 55.42, Alt : 49.3100013733, Lat : 49.2836894, Lng : -123.1147561, Q1 : 0.874916374683, Q2 : 0.0716456472874, Q3 : -0.134190231562, Q4 : 0.45976215601}
2019-04-14 02:25:16.31: SIM {TimeUS : 61935216, Roll : 0.09, Pitch : -17.52, Yaw : 55.44, Alt : 49.3199996948, Lat : 49.2836917, Lng : -123.114751, Q1 : 0.874826908112, Q2 : 0.0715729221702, Q3 : -0.134465560317, Q4 : 0.459863364697}
2019-04-14 02:25:16.41: SIM {TimeUS : 62035176, Roll : 0.07, Pitch : -17.54, Yaw : 55.45, Alt : 49.3199996948, Lat : 49.2836939, Lng : -123.1147458, Q1 : 0.874767482281, Q2 : 0.0715166628361, Q3 : -0.13471660018, Q4 : 0.459911525249}
2019-04-14 02:25:16.51: SIM {TimeUS : 62135136, Roll : 0.06, Pitch : -17.56, Yaw : 55.45, Alt : 49.3199996948, Lat : 49.2836962, Lng : -123.1147406, Q1 : 0.874743640423, Q2 : 0.0714940205216, Q3 : -0.134894236922, Q4 : 0.459908425808}
2019-04-14 02:25:16.61: SIM {TimeUS : 62235096, Roll : 0.05, Pitch : -17.58, Yaw : 55.45, Alt : 49.3199996948, Lat : 49.2836986, Lng : -123.1147354, Q1 : 0.874748408794, Q2 : 0.0715543106198, Q3 : -0.135040059686, Q4 : 0.459847122431}
2019-04-14 02:25:16.71: SIM {TimeUS : 62335056, Roll : 0.07, Pitch : -17.59, Yaw : 55.43, Alt : 49.3199996948, Lat : 49.2837009, Lng : -123.1147301, Q1 : 0.874781608582, Q2 : 0.0717263892293, Q3 : -0.135091513395, Q4 : 0.459742099047}
2019-04-14 02:25:16.81: SIM {TimeUS : 62435016, Roll : 0.1, Pitch : -17.61, Yaw : 55.41, Alt : 49.3199996948, Lat : 49.2837033, Lng : -123.1147249, Q1 : 0.874822735786, Q2 : 0.072004750371, Q3 : -0.135137051344, Q4 : 0.459606915712}
2019-04-14 02:25:16.91: SIM {TimeUS : 62534976, Roll : 0.13, Pitch : -17.64, Yaw : 55.39, Alt : 49.3199996948, Lat : 49.2837056, Lng : -123.1147196, Q1 : 0.874875664711, Q2 : 0.072311796248, Q3 : -0.135228022933, Q4 : 0.45943108201}
2019-04-14 02:25:17.01: SIM {TimeUS : 62634936, Roll : 0.14, Pitch : -17.67, Yaw : 55.36, Alt : 49.3199996948, Lat : 49.2837078, Lng : -123.1147144, Q1 : 0.874941825867, Q2 : 0.0724981278181, Q3 : -0.135494738817, Q4 : 0.45919713378}
2019-04-14 02:25:17.11: SIM {TimeUS : 62734896, Roll : 0.14, Pitch : -17.72, Yaw : 55.33, Alt : 49.3199996948, Lat : 49.2837102, Lng : -123.1147091, Q1 : 0.875009477139, Q2 : 0.0726101100445, Q3 : -0.135861799121, Q4 : 0.458941996098}
2019-04-14 02:25:17.21: SIM {TimeUS : 62834856, Roll : 0.13, Pitch : -17.76, Yaw : 55.3, Alt : 49.3199996948, Lat : 49.2837126, Lng : -123.1147038, Q1 : 0.875079572201, Q2 : 0.0726674050093, Q3 : -0.136255174875, Q4 : 0.458682596684}
2019-04-14 02:25:17.31: SIM {TimeUS : 62934816, Roll : 0.13, Pitch : -17.79, Yaw : 55.27, Alt : 49.3199996948, Lat : 49.283715, Lng : -123.1146985, Q1 : 0.875155031681, Q2 : 0.0727799087763, Q3 : -0.136462643743, Q4 : 0.458459049463}
2019-04-14 02:25:17.41: SIM {TimeUS : 63034776, Roll : 0.15, Pitch : -17.79, Yaw : 55.24, Alt : 49.3199996948, Lat : 49.2837174, Lng : -123.1146932, Q1 : 0.875244140625, Q2 : 0.0728853940964, Q3 : -0.136470809579, Q4 : 0.458269774914}
2019-04-14 02:25:17.51: SIM {TimeUS : 63134736, Roll : 0.16, Pitch : -17.78, Yaw : 55.22, Alt : 49.3199996948, Lat : 49.2837197, Lng : -123.1146879, Q1 : 0.875348985195, Q2 : 0.0729042217135, Q3 : -0.136276245117, Q4 : 0.458124399185}
2019-04-14 02:25:17.61: SIM {TimeUS : 63235529, Roll : 0.16, Pitch : -17.75, Yaw : 55.2, Alt : 49.3199996948, Lat : 49.2837221, Lng : -123.1146825, Q1 : 0.875448644161, Q2 : 0.0727706030011, Q3 : -0.136102631688, Q4 : 0.458006799221}
2019-04-14 02:25:17.71: SIM {TimeUS : 63335489, Roll : 0.15, Pitch : -17.73, Yaw : 55.19, Alt : 49.3199996948, Lat : 49.2837245, Lng : -123.1146771, Q1 : 0.87553948164, Q2 : 0.0725963935256, Q3 : -0.135944992304, Q4 : 0.45790758729}
2019-04-14 02:25:17.81: SIM {TimeUS : 63435449, Roll : 0.15, Pitch : -17.72, Yaw : 55.18, Alt : 49.3199996948, Lat : 49.2837269, Lng : -123.1146718, Q1 : 0.875591039658, Q2 : 0.0725076720119, Q3 : -0.13590978086, Q4 : 0.457833528519}
2019-04-14 02:25:17.91: SIM {TimeUS : 63535409, Roll : 0.14, Pitch : -17.73, Yaw : 55.17, Alt : 49.3300018311, Lat : 49.2837291, Lng : -123.1146664, Q1 : 0.875606000423, Q2 : 0.0724998041987, Q3 : -0.136080697179, Q4 : 0.457755327225}
2019-04-14 02:25:18.01: SIM {TimeUS : 63635369, Roll : 0.14, Pitch : -17.76, Yaw : 55.17, Alt : 49.3300018311, Lat : 49.2837315, Lng : -123.114661, Q1 : 0.875606477261, Q2 : 0.0725843608379, Q3 : -0.136274933815, Q4 : 0.457683235407}
2019-04-14 02:25:18.11: SIM {TimeUS : 63735329, Roll : 0.13, Pitch : -17.8, Yaw : 55.16, Alt : 49.3300018311, Lat : 49.2837339, Lng : -123.1146557, Q1 : 0.875593304634, Q2 : 0.0726761072874, Q3 : -0.136624991894, Q4 : 0.457589507103}
2019-04-14 02:25:18.21: SIM {TimeUS : 63835289, Roll : 0.13, Pitch : -17.85, Yaw : 55.15, Alt : 49.3300018311, Lat : 49.2837363, Lng : -123.1146503, Q1 : 0.875568211079, Q2 : 0.0728334933519, Q3 : -0.137028351426, Q4 : 0.457491964102}
2019-04-14 02:25:18.31: SIM {TimeUS : 63935249, Roll : 0.13, Pitch : -17.89, Yaw : 55.14, Alt : 49.3300018311, Lat : 49.2837387, Lng : -123.1146448, Q1 : 0.875555634499, Q2 : 0.0730096399784, Q3 : -0.137305960059, Q4 : 0.4574046731}
2019-04-14 02:25:18.41: SIM {TimeUS : 64035209, Roll : 0.13, Pitch : -17.92, Yaw : 55.13, Alt : 49.3300018311, Lat : 49.2837411, Lng : -123.1146395, Q1 : 0.875559806824, Q2 : 0.0731060877442, Q3 : -0.137565627694, Q4 : 0.457303136587}
2019-04-14 02:25:18.51: SIM {TimeUS : 64135169, Roll : 0.12, Pitch : -17.94, Yaw : 55.12, Alt : 49.3300018311, Lat : 49.2837436, Lng : -123.1146341, Q1 : 0.87558567524, Q2 : 0.0731344595551, Q3 : -0.13774061203, Q4 : 0.45719653368}
2019-04-14 02:25:18.61: SIM {TimeUS : 64235129, Roll : 0.14, Pitch : -17.93, Yaw : 55.11, Alt : 49.3300018311, Lat : 49.283746, Lng : -123.1146287, Q1 : 0.875636816025, Q2 : 0.0732213482261, Q3 : -0.137615010142, Q4 : 0.457122474909}
2019-04-14 02:25:18.71: SIM {TimeUS : 64335089, Roll : 0.17, Pitch : -17.93, Yaw : 55.09, Alt : 49.3300018311, Lat : 49.2837484, Lng : -123.1146233, Q1 : 0.875675618649, Q2 : 0.0734207630157, Q3 : -0.137544065714, Q4 : 0.457037478685}
2019-04-14 02:25:18.81: SIM {TimeUS : 64435049, Roll : 0.18, Pitch : -17.95, Yaw : 55.07, Alt : 49.3300018311, Lat : 49.2837508, Lng : -123.1146178, Q1 : 0.875712394714, Q2 : 0.0735383555293, Q3 : -0.137625142932, Q4 : 0.456923753023}
2019-04-14 02:25:18.91: SIM {TimeUS : 64535009, Roll : 0.19, Pitch : -17.96, Yaw : 55.06, Alt : 49.3300018311, Lat : 49.2837533, Lng : -123.1146124, Q1 : 0.875754535198, Q2 : 0.0736301317811, Q3 : -0.137672185898, Q4 : 0.456814020872}
2019-04-14 02:25:19.01: SIM {TimeUS : 64634969, Roll : 0.2, Pitch : -17.95, Yaw : 55.05, Alt : 49.3300018311, Lat : 49.2837557, Lng : -123.114607, Q1 : 0.87580794096, Q2 : 0.0736682713032, Q3 : -0.137605503201, Q4 : 0.456725478172}
2019-04-14 02:25:19.11: SIM {TimeUS : 64734929, Roll : 0.21, Pitch : -17.95, Yaw : 55.03, Alt : 49.3300018311, Lat : 49.2837581, Lng : -123.1146015, Q1 : 0.87585246563, Q2 : 0.0737193599343, Q3 : -0.137553334236, Q4 : 0.456647664309}
2019-04-14 02:25:19.21: SIM {TimeUS : 64834889, Roll : 0.19, Pitch : -17.97, Yaw : 55.02, Alt : 49.3300018311, Lat : 49.2837605, Lng : -123.1145961, Q1 : 0.87588095665, Q2 : 0.0736842826009, Q3 : -0.137728840113, Q4 : 0.456545740366}
2019-04-14 02:25:19.31: SIM {TimeUS : 64934849, Roll : 0.17, Pitch : -18.0, Yaw : 55.02, Alt : 49.3400001526, Lat : 49.283763, Lng : -123.1145906, Q1 : 0.875887334347, Q2 : 0.0736021474004, Q3 : -0.138120830059, Q4 : 0.456428259611}
2019-04-14 02:25:19.41: SIM {TimeUS : 65034809, Roll : 0.15, Pitch : -18.01, Yaw : 55.01, Alt : 49.3400001526, Lat : 49.2837654, Lng : -123.1145852, Q1 : 0.875919282436, Q2 : 0.0734540894628, Q3 : -0.138246893883, Q4 : 0.456352680922}
2019-04-14 02:25:19.51: SIM {TimeUS : 65134769, Roll : 0.15, Pitch : -17.99, Yaw : 55.0, Alt : 49.3400001526, Lat : 49.2837678, Lng : -123.1145797, Q1 : 0.875956654549, Q2 : 0.0734310597181, Q3 : -0.138101994991, Q4 : 0.456328481436}
2019-04-14 02:25:19.61: SIM {TimeUS : 65235562, Roll : 0.17, Pitch : -17.98, Yaw : 55.0, Alt : 49.3400001526, Lat : 49.2837703, Lng : -123.1145742, Q1 : 0.875985085964, Q2 : 0.0734927579761, Q3 : -0.13793194294, Q4 : 0.456315487623}
2019-04-14 02:25:19.71: SIM {TimeUS : 65335522, Roll : 0.18, Pitch : -17.98, Yaw : 54.99, Alt : 49.3400001526, Lat : 49.2837727, Lng : -123.1145687, Q1 : 0.876005709171, Q2 : 0.073550529778, Q3 : -0.137934044003, Q4 : 0.456265956163}
2019-04-14 02:25:19.81: SIM {TimeUS : 65435482, Roll : 0.16, Pitch : -17.99, Yaw : 54.98, Alt : 49.3400001526, Lat : 49.2837752, Lng : -123.1145632, Q1 : 0.876032114029, Q2 : 0.0734744891524, Q3 : -0.138091906905, Q4 : 0.456179738045}
2019-04-14 02:25:19.91: SIM {TimeUS : 65535442, Roll : 0.13, Pitch : -18.01, Yaw : 54.98, Alt : 49.3400001526, Lat : 49.2837776, Lng : -123.1145577, Q1 : 0.876057267189, Q2 : 0.0733352079988, Q3 : -0.138372272253, Q4 : 0.456068813801}
2019-04-14 02:25:20.01: SIM {TimeUS : 65635402, Roll : 0.12, Pitch : -18.04, Yaw : 54.97, Alt : 49.3400001526, Lat : 49.2837801, Lng : -123.1145522, Q1 : 0.876074135303, Q2 : 0.0733460634947, Q3 : -0.138617500663, Q4 : 0.455960214138}
2019-04-14 02:25:20.11: SIM {TimeUS : 65735362, Roll : 0.13, Pitch : -18.07, Yaw : 54.95, Alt : 49.3400001526, Lat : 49.2837825, Lng : -123.1145467, Q1 : 0.876081943512, Q2 : 0.07351988554, Q3 : -0.138772279024, Q4 : 0.455870091915}
2019-04-14 02:25:20.21: SIM {TimeUS : 65835322, Roll : 0.15, Pitch : -18.09, Yaw : 54.94, Alt : 49.3400001526, Lat : 49.2837849, Lng : -123.1145412, Q1 : 0.876092076302, Q2 : 0.073703572154, Q3 : -0.13888797164, Q4 : 0.455785691738}
2019-04-14 02:25:20.31: SIM {TimeUS : 65935282, Roll : 0.17, Pitch : -18.1, Yaw : 54.93, Alt : 49.3400001526, Lat : 49.2837873, Lng : -123.1145357, Q1 : 0.876105070114, Q2 : 0.0739165470004, Q3 : -0.138923600316, Q4 : 0.455715358257}
2019-04-14 02:25:20.41: SIM {TimeUS : 66035242, Roll : 0.18, Pitch : -18.12, Yaw : 54.92, Alt : 49.3400001526, Lat : 49.2837898, Lng : -123.1145302, Q1 : 0.876119434834, Q2 : 0.0740601196885, Q3 : -0.139035835862, Q4 : 0.455630213022}
2019-04-14 02:25:20.51: SIM {TimeUS : 66135202, Roll : 0.19, Pitch : -18.14, Yaw : 54.91, Alt : 49.3400001526, Lat : 49.2837923, Lng : -123.1145247, Q1 : 0.876132726669, Q2 : 0.0741949081421, Q3 : -0.139160275459, Q4 : 0.455544739962}
