2019-04-14 01:47:10.50: SIM {TimeUS : 39915694, Roll : 0.0, Pitch : 0.0, Yaw : 0.0, Alt : 30.1000003815, Lat : 49.28357, Lng : -123.11502, Q1 : 1.0, Q2 : 0.0, Q3 : 0.0, Q4 : 0.0}
2019-04-14 01:47:10.61: SIM {TimeUS : 40034813, Roll : 0.0, Pitch : 0.0, Yaw : 0.0, Alt : 30.1000003815, Lat : 49.28357, Lng : -123.11502, Q1 : 1.0, Q2 : 0.0, Q3 : 0.0, Q4 : 0.0}
2019-04-14 01:47:10.71: SIM {TimeUS : 40134773, Roll : 0.0, Pitch : 0.0, Yaw : 0.0, Alt : 30.1000003815, Lat : 49.28357, Lng : -123.11502, Q1 : 1.0, Q2 : 0.0, Q3 : 0.0, Q4 : 0.0}
2019-04-14 01:47:10.81: SIM {TimeUS : 40234733, Roll : 0.0, Pitch : 0.0, Yaw : 0.0, Alt : 30.1000003815, Lat : 49.28357, Lng : -123.11502, Q1 : 1.0, Q2 : 0.0, Q3 : 0.0, Q4 : 0.0}
2019-04-14 01:47:10.91: SIM {TimeUS : 40334693, Roll : 0.0, Pitch : 0.0, Yaw : 0.0, Alt : 30.1000003815, Lat : 49.28357, Lng : -123.11502, Q1 : 1.0, Q2 : 0.0, Q3 : 0.0, Q4 : 0.0}
2019-04-14 01:47:11.01: SIM {TimeUS : 40434653, Roll : 0.0, Pitch : 0.0, Yaw : 0.0, Alt : 30.1000003815, Lat : 49.28357, Lng : -123.11502, Q1 : 1.0, Q2 : 0.0, Q3 : 0.0, Q4 : 0.0}
2019-04-14 01:47:11.11: SIM {TimeUS : 40534613, Roll : 0.0, Pitch : 0.0, Yaw : 0.0, Alt : 30.1000003815, Lat : 49.28357, Lng : -123.11502, Q1 : 1.0, Q2 : 0.0, Q3 : 0.0, Q4 : 0.0}
2019-04-14 01:47:11.21: SIM {TimeUS : 40634573, Roll : 0.0, Pitch : 0.0, Yaw : 0.0, Alt : 30.1000003815, Lat : 49.28357, Lng : -123.11502, Q1 : 1.0, Q2 : 0.0, Q3 : 0.0, Q4 : 0.0}
2019-04-14 01:47:11.31: SIM {TimeUS : 40734533, Roll : 0.0, Pitch : 0.0, Yaw : 0.0, Alt : 30.1000003815, Lat : 49.28357, Lng : -123.11502, Q1 : 1.0, Q2 : 0.0, Q3 : 0.0, Q4 : 0.0}
2019-04-14 01:47:11.41: SIM {TimeUS : 40834493, Roll : 0.0, Pitch : 0.0, Yaw : 0.0, Alt : 30.1000003815, Lat : 49.28357, Lng : -123.11502, Q1 : 1.0, Q2 : 0.0, Q3 : 0.0, Q4 : 0.0}
2019-04-14 01:47:11.51: SIM {TimeUS : 40934453, Roll : 0.0, Pitch : 0.0, Yaw : 0.0, Alt : 30.1000003815, Lat : 49.28357, Lng : -123.11502, Q1 : 1.0, Q2 : 0.0, Q3 : 0.0, Q4 : 0.0}
2019-04-14 01:47:11.61: SIM {TimeUS : 41034413, Roll : 0.0, Pitch : 0.0, Yaw : 0.0, Alt : 30.1000003815, Lat : 49.28357, Lng : -123.11502, Q1 : 1.0, Q2 : 0.0, Q3 : 0.0, Q4 : 0.0}
2019-04-14 01:47:11.71: SIM {TimeUS : 41134373, Roll : 0.0, Pitch : 0.0, Yaw : 0.0, Alt : 30.1000003815, Lat : 49.28357, Lng : -123.11502, Q1 : 1.0, Q2 : 0.0, Q3 : 0.0, Q4 : 0.0}
2019-04-14 01:47:11.81: SIM {TimeUS : 41234333, Roll : 0.0, Pitch : 0.0, Yaw : 0.0, Alt : 30.1000003815, Lat : 49.28357, Lng : -123.11502, Q1 : 1.0, Q2 : 0.0, Q3 : 0.0, Q4 : 0.0}
2019-04-14 01:47:11.91: SIM {TimeUS : 41334293, Roll : 0.0, Pitch : 0.0, Yaw : 0.0, Alt : 30.1000003815, Lat : 49.28357, Lng : -123.11502, Q1 : 1.0, Q2 : 0.0, Q3 : 0.0, Q4 : 0.0}
2019-04-14 01:47:12.01: SIM {TimeUS : 41434253, Roll : 0.0, Pitch : 0.0, Yaw : 0.0, Alt : 30.1000003815, Lat : 49.28357, Lng : -123.11502, Q1 : 1.0, Q2 : 0.0, Q3 : 0.0, Q4 : 0.0}
2019-04-14 01:47:12.11: SIM {TimeUS : 41534213, Roll : 0.0, Pitch : 0.0, Yaw : 0.0, Alt : 30.1000003815, Lat : 49.28357, Lng : -123.11502, Q1 : 1.0, Q2 : 0.0, Q3 : 0.0, Q4 : 0.0}
2019-04-14 01:47:12.21: SIM {TimeUS : 41634173, Roll : 0.0, Pitch : 0.0, Yaw : 0.0, Alt : 30.1000003815, Lat : 49.28357, Lng : -123.11502, Q1 : 1.0, Q2 : 0.0, Q3 : 0.0, Q4 : 0.0}
2019-04-14 01:47:12.31: SIM {TimeUS : 41734133, Roll : 0.0, Pitch : 0.0, Yaw : 0.0, Alt : 30.1000003815, Lat : 49.28357, Lng : -123.11502, Q1 : 1.0, Q2 : 0.0, Q3 : 0.0, Q4 : 0.0}
2019-04-14 01:47:12.41: SIM {TimeUS : 41834093, Roll : 0.0, Pitch : 0.0, Yaw : 0.0, Alt : 30.1000003815, Lat : 49.28357, Lng : -123.11502, Q1 : 1.0, Q2 : 0.0, Q3 : 0.0, Q4 : 0.0}
2019-04-14 01:47:12.51: SIM {TimeUS : 41934053, Roll : 0.0, Pitch : 0.0, Yaw : 0.0, Alt : 30.1000003815, Lat : 49.28357, Lng : -123.11502, Q1 : 1.0, Q2 : 0.0, Q3 : 0.0, Q4 : 0.0}
2019-04-14 01:47:12.62: SIM {TimeUS : 42034846, Roll : 0.0, Pitch : 0.0, Yaw : 0.0, Alt : 30.1000003815, Lat : 49.28357, Lng : -123.11502, Q1 : 1.0, Q2 : 0.0, Q3 : 0.0, Q4 : 0.0}
2019-04-14 01:47:12.71: SIM {TimeUS : 42134806, Roll : 0.0, Pitch : 0.0, Yaw : 0.0, Alt : 30.1000003815, Lat : 49.28357, Lng : -123.11502, Q1 : 1.0, Q2 : 0.0, Q3 : 0.0, Q4 : 0.0}
2019-04-14 01:47:12.81: SIM {TimeUS : 42234766, Roll : 0.0, Pitch : 0.0, Yaw : 360.0, Alt : 30.1000003815, Lat : 49.28357, Lng : -123.11502, Q1 : 1.0, Q2 : 0.0, Q3 : 0.0, Q4 : -2.28186089815e-12}
2019-04-14 01:47:12.91: SIM {TimeUS : 42334726, Roll : 0.0, Pitch : 0.0, Yaw : 0.0, Alt : 30.1000003815, Lat : 49.28357, Lng : -123.11502, Q1 : 1.0, Q2 : 0.0, Q3 : 0.0, Q4 : 3.4573906238e-14}
2019-04-14 01:47:13.01: SIM {TimeUS : 42434686, Roll : 0.0, Pitch : 0.0, Yaw : 359.99, Alt : 30.1000003815, Lat : 49.28357, Lng : -123.11502, Q1 : 1.0, Q2 : 0.0, Q3 : 0.0, Q4 : -1.76553456299e-07}
2019-04-14 01:47:13.11: SIM {TimeUS : 42534646, Roll : 0.0, Pitch : 0.0, Yaw : 359.99, Alt : 30.1000003815, Lat : 49.28357, Lng : -123.11502, Q1 : 1.0, Q2 : 0.0, Q3 : 0.0, Q4 : -3.76724131002e-07}
2019-04-14 01:47:13.21: SIM {TimeUS : 42634606, Roll : 0.0, Pitch : 0.0, Yaw : 359.99, Alt : 30.1000003815, Lat : 49.28357, Lng : -123.11502, Q1 : 1.0, Q2 : 0.0, Q3 : 0.0, Q4 : -5.78298909204e-07}
2019-04-14 01:47:13.31: SIM {TimeUS : 42734566, Roll : 0.0, Pitch : 0.0, Yaw : 359.99, Alt : 30.1000003815, Lat : 49.28357, Lng : -123.11502, Q1 : 1.0, Q2 : 0.0, Q3 : 0.0, Q4 : -7.8626993627e-07}
2019-04-14 01:47:13.41: SIM {TimeUS : 42834526, Roll : 0.0, Pitch : 0.0, Yaw : 359.99, Alt : 30.1000003815, Lat : 49.28357, Lng : -123.11502, Q1 : 1.0, Q2 : 0.0, Q3 : 0.0, Q4 : -9.68629478848e-07}
2019-04-14 01:47:13.51: SIM {TimeUS : 42934486, Roll : 0.0, Pitch : 0.0, Yaw : 359.99, Alt : 30.1000003815, Lat : 49.28357, Lng : -123.11502, Q1 : 1.0, Q2 : 0.0, Q3 : 0.0, Q4 : -1.18033187846e-06}
2019-04-14 01:47:13.61: SIM {TimeUS : 43034446, Roll : 0.0, Pitch : 0.0, Yaw : 359.99, Alt : 30.1000003815, Lat : 49.28357, Lng : -123.11502, Q1 : 1.0, Q2 : 0.0, Q3 : 0.0, Q4 : -1.39474138905e-06}
2019-04-14 01:47:13.71: SIM {TimeUS : 43134406, Roll : 0.0, Pitch : 0.0, Yaw : 359.99, Alt : 30.1100006104, Lat : 49.28357, Lng : -123.11502, Q1 : 1.0, Q2 : 0.0, Q3 : 0.0, Q4 : -1.61110563113e-06}
2019-04-14 01:47:13.81: SIM {TimeUS : 43234366, Roll : 0.0, Pitch : 0.0, Yaw : 359.99, Alt : 30.1399993896, Lat : 49.28357, Lng : -123.11502, Q1 : 1.0, Q2 : 0.0, Q3 : 0.0, Q4 : -1.79560311153e-06}
2019-04-14 01:47:13.91: SIM {TimeUS : 43334326, Roll : 0.0, Pitch : 0.0, Yaw : 359.99, Alt : 30.1599998474, Lat : 49.28357, Lng : -123.11502, Q1 : 1.0, Q2 : 0.0, Q3 : 0.0, Q4 : -1.99665487344e-06}
2019-04-14 01:47:14.01: SIM {TimeUS : 43434286, Roll : 0.0, Pitch : 0.0, Yaw : 359.99, Alt : 30.2000007629, Lat : 49.28357, Lng : -123.11502, Q1 : 1.0, Q2 : 0.0, Q3 : 0.0, Q4 : -2.26363727052e-06}
2019-04-14 01:47:14.11: SIM {TimeUS : 43534246, Roll : -0.08, Pitch : -0.08, Yaw : 359.99, Alt : 30.25, Lat : 49.28357, Lng : -123.11502, Q1 : 0.999999463558, Q2 : -0.000769249221776, Q3 : -0.000741615018342, Q4 : -8.5903911895e-06}
2019-04-14 01:47:14.21: SIM {TimeUS : 43634206, Roll : -0.35, Pitch : -0.35, Yaw : 359.99, Alt : 30.3400001526, Lat : 49.28357, Lng : -123.11502, Q1 : 0.999990403652, Q2 : -0.00307239941321, Q3 : -0.00312491040677, Q4 : -4.02704099542e-05}
2019-04-14 01:47:14.31: SIM {TimeUS : 43734166, Roll : -0.62, Pitch : -0.66, Yaw : 359.99, Alt : 30.4899997711, Lat : 49.28357, Lng : -123.11502, Q1 : 0.999968588352, Q2 : -0.00542491488159, Q3 : -0.00578264333308, Q4 : -9.59308890742e-05}
2019-04-14 01:47:14.41: SIM {TimeUS : 43834126, Roll : -0.78, Pitch : -0.82, Yaw : 359.98, Alt : 30.6499996185, Lat : 49.28357, Lng : -123.11502, Q1 : 0.999950766563, Q2 : -0.00683840503916, Q3 : -0.00718913041055, Q4 : -0.000169259568793}
2019-04-14 01:47:14.51: SIM {TimeUS : 43934086, Roll : -0.79, Pitch : -0.78, Yaw : 359.97, Alt : 30.7999992371, Lat : 49.28357, Lng : -123.11502, Q1 : 0.999952495098, Q2 : -0.00692841177806, Q3 : -0.00685258302838, Q4 : -0.000254930520896}
2019-04-14 01:47:14.61: SIM {TimeUS : 44034046, Roll : -0.67, Pitch : -0.6, Yaw : 359.96, Alt : 30.9599990845, Lat : 49.28357, Lng : -123.1150201, Q1 : 0.999968528748, Q2 : -0.00588404480368, Q3 : -0.00531154451892, Q4 : -0.00034322537249}
2019-04-14 01:47:14.72: SIM {TimeUS : 44134839, Roll : -0.48, Pitch : -0.37, Yaw : 359.95, Alt : 31.1100006104, Lat : 49.2835701, Lng : -123.1150202, Q1 : 0.999985694885, Q2 : -0.00419749412686, Q3 : -0.00328324735165, Q4 : -0.000426252954639}
2019-04-14 01:47:14.81: SIM {TimeUS : 44234799, Roll : -0.28, Pitch : -0.16, Yaw : 359.94, Alt : 31.2700004578, Lat : 49.2835701, Lng : -123.1150203, Q1 : 0.999995827675, Q2 : -0.00246007251553, Q3 : -0.00144246523269, Q4 : -0.00049925444182}
2019-04-14 01:47:14.91: SIM {TimeUS : 44334759, Roll : -0.11, Pitch : -0.02, Yaw : 359.93, Alt : 31.4400005341, Lat : 49.2835702, Lng : -123.1150203, Q1 : 0.999999284744, Q2 : -0.00103562814184, Q3 : -0.000177749519935, Q4 : -0.000554731988814}
2019-04-14 01:47:15.01: SIM {TimeUS : 44434719, Roll : 0.0, Pitch : 0.02, Yaw : 359.93, Alt : 31.6100006104, Lat : 49.2835702, Lng : -123.1150204, Q1 : 0.999999821186, Q2 : 5.69940348214e-05, Q3 : 0.000259269902017, Q4 : -0.000595732766669}
2019-04-14 01:47:15.11: SIM {TimeUS : 44534679, Roll : 0.07, Pitch : 0.02, Yaw : 359.92, Alt : 31.7900009155, Lat : 49.2835703, Lng : -123.1150205, Q1 : 0.999999582767, Q2 : 0.000675536633935, Q3 : 0.000241748231929, Q4 : -0.000615016499069}
2019-04-14 01:47:15.21: SIM {TimeUS : 44634639, Roll : 0.08, Pitch : 0.0, Yaw : 359.92, Alt : 31.9699993134, Lat : 49.2835703, Lng : -123.1150206, Q1 : 0.999999523163, Q2 : 0.000728037790395, Q3 : 8.53725941852e-05, Q4 : -0.00061474769609}
2019-04-14 01:47:15.31: SIM {TimeUS : 44734599, Roll : 0.06, Pitch : 0.0, Yaw : 359.93, Alt : 32.1599998474, Lat : 49.2835703, Lng : -123.1150206, Q1 : 0.999999701977, Q2 : 0.000533723621629, Q3 : -5.07252880197e-05, Q4 : -0.00059369992232}
2019-04-14 01:47:15.41: SIM {TimeUS : 44834559, Roll : 0.05, Pitch : 0.0, Yaw : 359.93, Alt : 32.3400001526, Lat : 49.2835703, Lng : -123.1150207, Q1 : 0.999999761581, Q2 : 0.000467064382974, Q3 : -2.10098914977e-05, Q4 : -0.00056042522192}
2019-04-14 01:47:15.51: SIM {TimeUS : 44934519, Roll : 0.06, Pitch : 0.02, Yaw : 359.93, Alt : 32.5400009155, Lat : 49.2835703, Lng : -123.1150207, Q1 : 0.999999701977, Q2 : 0.000547193631064, Q3 : 0.000175231165485, Q4 : -0.000529122597072}
2019-04-14 01:47:15.61: SIM {TimeUS : 45034479, Roll : 0.09, Pitch : 0.04, Yaw : 359.94, Alt : 32.7299995422, Lat : 49.2835703, Lng : -123.1150208, Q1 : 0.999999403954, Q2 : 0.00084125448484, Q3 : 0.000405166880228, Q4 : -0.000507008808199}
2019-04-14 01:47:15.71: SIM {TimeUS : 45134439, Roll : 0.13, Pitch : 0.07, Yaw : 359.94, Alt : 32.9300003052, Lat : 49.2835704, Lng : -123.1150208, Q1 : 0.999998927116, Q2 : 0.00121522403788, Q3 : 0.000640808022581, Q4 : -0.0004959681537}
2019-04-14 01:47:15.81: SIM {TimeUS : 45234399, Roll : 0.16, Pitch : 0.11, Yaw : 359.94, Alt : 33.1300010681, Lat : 49.2835704, Lng : -123.1150209, Q1 : 0.99999833107, Q2 : 0.00148093688767, Q3 : 0.000960776815191, Q4 : -0.00049148267135}
2019-04-14 01:47:15.91: SIM {TimeUS : 45334359, Roll : 0.17, Pitch : 0.13, Yaw : 359.94, Alt : 33.3400001526, Lat : 49.2835704, Lng : -123.1150209, Q1 : 0.999997973442, Q2 : 0.00152069632895, Q3 : 0.00122019031551, Q4 : -0.000490521953907}
2019-04-14 01:47:16.01: SIM {TimeUS : 45434319, Roll : 0.16, Pitch : 0.15, Yaw : 359.94, Alt : 33.5400009155, Lat : 49.2835704, Lng : -123.1150209, Q1 : 0.999997913837, Q2 : 0.00141295942012, Q3 : 0.00138710823376, Q4 : -0.000492971914355}
2019-04-14 01:47:16.11: SIM {TimeUS : 45534279, Roll : 0.15, Pitch : 0.17, Yaw : 359.94, Alt : 33.75, Lat : 49.2835704, Lng : -123.1150209, Q1 : 0.999997794628, Q2 : 0.00133229640778, Q3 : 0.00153728108853, Q4 : -0.000500659283716}
2019-04-14 01:47:16.21: SIM {TimeUS : 45634239, Roll : 0.15, Pitch : 0.17, Yaw : 359.94, Alt : 33.9599990845, Lat : 49.2835704, Lng : -123.1150209, Q1 : 0.999997794628, Q2 : 0.00135008408688, Q3 : 0.00152030272875, Q4 : -0.000510842946824}
2019-04-14 01:47:16.31: SIM {TimeUS : 45734199, Roll : 0.15, Pitch : 0.16, Yaw : 359.93, Alt : 34.1699981689, Lat : 49.2835706, Lng : -123.1150209, Q1 : 0.999997913837, Q2 : 0.00134237448219, Q3 : 0.00145300268196, Q4 : -0.000526457035448}
2019-04-14 01:47:16.41: SIM {TimeUS : 45834159, Roll : 0.13, Pitch : 0.15, Yaw : 359.93, Alt : 34.3800010681, Lat : 49.2835706, Lng : -123.1150209, Q1 : 0.999998152256, Q2 : 0.00119057309348, Q3 : 0.00137920945417, Q4 : -0.000546946248505}
2019-04-14 01:47:16.51: SIM {TimeUS : 45934119, Roll : 0.11, Pitch : 0.12, Yaw : 359.93, Alt : 34.5900001526, Lat : 49.2835706, Lng : -123.1150209, Q1 : 0.999998748302, Q2 : 0.00102069589775, Q3 : 0.00105823064223, Q4 : -0.000556912855245}
2019-04-14 01:47:16.61: SIM {TimeUS : 46034079, Roll : 0.09, Pitch : 0.06, Yaw : 359.93, Alt : 34.8100013733, Lat : 49.2835706, Lng : -123.1150209, Q1 : 0.999999284744, Q2 : 0.00084384472575, Q3 : 0.000592928670812, Q4 : -0.000558374624234}
2019-04-14 01:47:16.71: SIM {TimeUS : 46134039, Roll : 0.07, Pitch : 0.03, Yaw : 359.93, Alt : 35.0200004578, Lat : 49.2835706, Lng : -123.1150209, Q1 : 0.999999582767, Q2 : 0.000633285904769, Q3 : 0.000306360743707, Q4 : -0.000572982069571}
2019-04-14 01:47:16.82: SIM {TimeUS : 46234832, Roll : 0.05, Pitch : 0.02, Yaw : 359.92, Alt : 35.2400016785, Lat : 49.2835706, Lng : -123.1150208, Q1 : 0.999999701977, Q2 : 0.000450167892268, Q3 : 0.000237669344642, Q4 : -0.000612479110714}
2019-04-14 01:47:16.91: SIM {TimeUS : 46334792, Roll : 0.04, Pitch : 0.03, Yaw : 359.92, Alt : 35.4599990845, Lat : 49.2835706, Lng : -123.1150208, Q1 : 0.999999642372, Q2 : 0.000426542741479, Q3 : 0.000320240331348, Q4 : -0.000665021885652}
2019-04-14 01:47:17.01: SIM {TimeUS : 46434752, Roll : 0.04, Pitch : 0.03, Yaw : 359.91, Alt : 35.6699981689, Lat : 49.2835706, Lng : -123.1150208, Q1 : 0.999999642372, Q2 : 0.00036660747719, Q3 : 0.000311863375828, Q4 : -0.000715272850357}
2019-04-14 01:47:17.11: SIM {TimeUS : 46534712, Roll : 0.02, Pitch : 0.02, Yaw : 359.91, Alt : 35.8899993896, Lat : 49.2835704, Lng : -123.1150208, Q1 : 0.999999701977, Q2 : 0.000183900585398, Q3 : 0.000212790706428, Q4 : -0.000760762195569}
2019-04-14 01:47:17.21: SIM {TimeUS : 46634672, Roll : 0.0, Pitch : 0.01, Yaw : 359.9, Alt : 36.1100006104, Lat : 49.2835704, Lng : -123.1150208, Q1 : 0.999999642372, Q2 : -1.91847320821e-05, Q3 : 0.000169183302205, Q4 : -0.00080038968008}
2019-04-14 01:47:17.31: SIM {TimeUS : 46734632, Roll : -0.01, Pitch : 0.03, Yaw : 359.9, Alt : 36.3400001526, Lat : 49.2835704, Lng : -123.1150208, Q1 : 0.999999582767, Q2 : -0.000127099308884, Q3 : 0.000340185390087, Q4 : -0.000840458436869}
2019-04-14 01:47:17.41: SIM {TimeUS : 46834592, Roll : -0.02, Pitch : 0.04, Yaw : 359.89, Alt : 36.5600013733, Lat : 49.2835704, Lng : -123.1150207, Q1 : 0.999999463558, Q2 : -0.000216974440264, Q3 : 0.000425478967372, Q4 : -0.000879326718859}
2019-04-14 01:47:17.51: SIM {TimeUS : 46934552, Roll : -0.02, Pitch : 0.04, Yaw : 359.89, Alt : 36.7799987793, Lat : 49.2835704, Lng : -123.1150207, Q1 : 0.999999463558, Q2 : -0.00024775552447, Q3 : 0.000430149026215, Q4 : -0.000917287892662}
2019-04-14 01:47:17.61: SIM {TimeUS : 47034512, Roll : -0.03, Pitch : 0.03, Yaw : 359.89, Alt : 37.0, Lat : 49.2835704, Lng : -123.1150207, Q1 : 0.999999463558, Q2 : -0.000267732335487, Q3 : 0.000349005335011, Q4 : -0.000954455928877}
2019-04-14 01:47:17.71: SIM {TimeUS : 47134472, Roll : -0.02, Pitch : 0.02, Yaw : 359.88, Alt : 37.2299995422, Lat : 49.2835704, Lng : -123.1150207, Q1 : 0.999999463558, Q2 : -0.000222781789489, Q3 : 0.000193004947505, Q4 : -0.000985860242508}
2019-04-14 01:47:17.81: SIM {TimeUS : 47234432, Roll : 0.0, Pitch : 0.0, Yaw : 359.88, Alt : 37.4500007629, Lat : 49.2835704, Lng : -123.1150207, Q1 : 0.999999463558, Q2 : -4.55854060419e-05, Q3 : 2.4731818371e-07, Q4 : -0.00100382615346}
2019-04-14 01:47:17.91: SIM {TimeUS : 47334392, Roll : 0.0, Pitch : -0.03, Yaw : 359.88, Alt : 37.6800003052, Lat : 49.2835704, Lng : -123.1150207, Q1 : 0.999999463558, Q2 : -3.39769576385e-05, Q3 : -0.000280829961412, Q4 : -0.00100934552029}
2019-04-14 01:47:18.01: SIM {TimeUS : 47434352, Roll : -0.02, Pitch : -0.07, Yaw : 359.88, Alt : 37.9099998474, Lat : 49.2835704, Lng : -123.1150207, Q1 : 0.999999284744, Q2 : -0.000217280510697, Q3 : -0.000629089074209, Q4 : -0.00100498599932}
2019-04-14 01:47:18.11: SIM {TimeUS : 47534312, Roll : -0.05, Pitch : -0.09, Yaw : 359.88, Alt : 38.1300010681, Lat : 49.2835704, Lng : -123.1150207, Q1 : 0.999998986721, Q2 : -0.000482445786474, Q3 : -0.000866888265591, Q4 : -0.00100073276553}
2019-04-14 01:47:18.21: SIM {TimeUS : 47634272, Roll : -0.09, Pitch : -0.1, Yaw : 359.88, Alt : 38.3600006104, Lat : 49.2835704, Lng : -123.1150207, Q1 : 0.999998807907, Q2 : -0.000801895919722, Q3 : -0.000875326455571, Q4 : -0.00100491382182}
2019-04-14 01:47:18.31: SIM {TimeUS : 47734232, Roll : -0.11, Pitch : -0.09, Yaw : 359.88, Alt : 38.5900001526, Lat : 49.2835704, Lng : -123.1150207, Q1 : 0.999998629093, Q2 : -0.00101595697924, Q3 : -0.000817966123577, Q4 : -0.00101114343852}
2019-04-14 01:47:18.41: SIM {TimeUS : 47834192, Roll : -0.12, Pitch : -0.07, Yaw : 359.88, Alt : 38.8199996948, Lat : 49.2835704, Lng : -123.1150206, Q1 : 0.999998688698, Q2 : -0.0010684018489, Q3 : -0.000692016794346, Q4 : -0.00101307232399}
2019-04-14 01:47:18.51: SIM {TimeUS : 47934152, Roll : -0.1, Pitch : -0.05, Yaw : 359.88, Alt : 39.0499992371, Lat : 49.2835704, Lng : -123.1150206, Q1 : 0.999998927116, Q2 : -0.000945632054936, Q3 : -0.000465881486889, Q4 : -0.00101712904871}
2019-04-14 01:47:18.61: SIM {TimeUS : 48034112, Roll : -0.08, Pitch : -0.04, Yaw : 359.88, Alt : 39.2799987793, Lat : 49.2835704, Lng : -123.1150206, Q1 : 0.999999165535, Q2 : -0.000721704331227, Q3 : -0.00037498830352, Q4 : -0.00102446496021}
2019-04-14 01:47:18.71: SIM {TimeUS : 48134072, Roll : -0.06, Pitch : -0.04, Yaw : 359.88, Alt : 39.5099983215, Lat : 49.2835704, Lng : -123.1150206, Q1 : 0.99999922514, Q2 : -0.000557304825634, Q3 : -0.000360082747648, Q4 : -0.00104555417784}
2019-04-14 01:47:18.81: SIM {TimeUS : 48234032, Roll : -0.05, Pitch : -0.02, Yaw : 359.87, Alt : 39.7400016785, Lat : 49.2835704, Lng : -123.1150206, Q1 : 0.999999284744, Q2 : -0.00045190617675, Q3 : -0.000244133058004, Q4 : -0.00106335349847}
2019-04-14 01:47:18.92: SIM {TimeUS : 48334825, Roll : -0.06, Pitch : 0.0, Yaw : 359.87, Alt : 39.9700012207, Lat : 49.2835704, Lng : -123.1150206, Q1 : 0.999999284744, Q2 : -0.000530644727405, Q3 : -3.83657970815e-05, Q4 : -0.00109294068534}
2019-04-14 01:47:19.01: SIM {TimeUS : 48434785, Roll : -0.05, Pitch : 0.02, Yaw : 359.87, Alt : 40.2000007629, Lat : 49.2835704, Lng : -123.1150207, Q1 : 0.99999922514, Q2 : -0.00052097934531, Q3 : 0.000185089884326, Q4 : -0.00113319675438}
2019-04-14 01:47:19.11: SIM {TimeUS : 48534745, Roll : -0.04, Pitch : 0.05, Yaw : 359.86, Alt : 40.4300003052, Lat : 49.2835706, Lng : -123.1150207, Q1 : 0.99999910593, Q2 : -0.000397401687223, Q3 : 0.000484542018967, Q4 : -0.00117938162293}
2019-04-14 01:47:19.21: SIM {TimeUS : 48634705, Roll : -0.02, Pitch : 0.06, Yaw : 359.86, Alt : 40.6699981689, Lat : 49.2835706, Lng : -123.1150207, Q1 : 0.999999046326, Q2 : -0.000222426329856, Q3 : 0.000599244551267, Q4 : -0.00121405231766}
2019-04-14 01:47:19.31: SIM {TimeUS : 48734665, Roll : 0.0, Pitch : 0.07, Yaw : 359.85, Alt : 40.9000015259, Lat : 49.2835706, Lng : -123.1150207, Q1 : 0.999999046326, Q2 : 2.95466106763e-05, Q3 : 0.000635455013253, Q4 : -0.00124491844326}
2019-04-14 01:47:19.41: SIM {TimeUS : 48834625, Roll : 0.03, Pitch : 0.08, Yaw : 359.85, Alt : 41.1300010681, Lat : 49.2835706, Lng : -123.1150207, Q1 : 0.999998807907, Q2 : 0.0003395829699, Q3 : 0.000773778709117, Q4 : -0.00127314415295}
2019-04-14 01:47:19.51: SIM {TimeUS : 48934585, Roll : 0.08, Pitch : 0.11, Yaw : 359.85, Alt : 41.3600006104, Lat : 49.2835706, Lng : -123.1150207, Q1 : 0.999998390675, Q2 : 0.000722392112948, Q3 : 0.000981374178082, Q4 : -0.00130503345281}
2019-04-14 01:47:19.61: SIM {TimeUS : 49034545, Roll : 0.1, Pitch : 0.13, Yaw : 359.84, Alt : 41.5999984741, Lat : 49.2835706, Lng : -123.1150207, Q1 : 0.999997913837, Q2 : 0.000939912162721, Q3 : 0.00121847121045, Q4 : -0.00133739155717}
2019-04-14 01:47:19.71: SIM {TimeUS : 49134505, Roll : 0.09, Pitch : 0.16, Yaw : 359.84, Alt : 41.8300018311, Lat : 49.2835706, Lng : -123.1150207, Q1 : 0.999997735023, Q2 : 0.000810434343293, Q3 : 0.00142142106779, Q4 : -0.00135085638613}
2019-04-14 01:47:19.81: SIM {TimeUS : 49234465, Roll : 0.04, Pitch : 0.18, Yaw : 359.84, Alt : 42.0600013733, Lat : 49.2835706, Lng : -123.1150207, Q1 : 0.999997735023, Q2 : 0.000429394101957, Q3 : 0.00157480034977, Q4 : -0.00136008998379}
2019-04-14 01:47:19.91: SIM {TimeUS : 49334425, Roll : 0.0, Pitch : 0.19, Yaw : 359.84, Alt : 42.2999992371, Lat : 49.2835706, Lng : -123.1150207, Q1 : 0.999997615814, Q2 : 7.03811019775e-05, Q3 : 0.00168082758319, Q4 : -0.00137261091731}
2019-04-14 01:47:20.01: SIM {TimeUS : 49434385, Roll : -0.01, Pitch : 0.17, Yaw : 359.84, Alt : 42.5299987793, Lat : 49.2835706, Lng : -123.1150207, Q1 : 0.999997854233, Q2 : -8.92778552952e-05, Q3 : 0.00152770406567, Q4 : -0.00138682278339}
2019-04-14 01:47:20.11: SIM {TimeUS : 49534345, Roll : -0.01, Pitch : 0.13, Yaw : 359.83, Alt : 42.7700004578, Lat : 49.2835706, Lng : -123.1150207, Q1 : 0.999998271465, Q2 : -9.1515990789e-05, Q3 : 0.00121365184896, Q4 : -0.0014052396873}
2019-04-14 01:47:20.21: SIM {TimeUS : 49634305, Roll : 0.0, Pitch : 0.13, Yaw : 359.83, Alt : 43.0, Lat : 49.2835706, Lng : -123.1150207, Q1 : 0.99999833107, Q2 : -2.38818283833e-05, Q3 : 0.0011437505018, Q4 : -0.0014347928809}
2019-04-14 01:47:20.31: SIM {TimeUS : 49734265, Roll : 0.02, Pitch : 0.14, Yaw : 359.83, Alt : 43.2400016785, Lat : 49.2835706, Lng : -123.1150207, Q1 : 0.999998152256, Q2 : 0.00023711421818, Q3 : 0.00124083110131, Q4 : -0.00147015613038}
2019-04-14 01:47:20.41: SIM {TimeUS : 49834225, Roll : 0.07, Pitch : 0.15, Yaw : 359.82, Alt : 43.4700012207, Lat : 49.2835706, Lng : -123.1150207, Q1 : 0.999997735023, Q2 : 0.000675040122587, Q3 : 0.00134323979728, Q4 : -0.00149619788863}
2019-04-14 01:47:20.51: SIM {TimeUS : 49934185, Roll : 0.11, Pitch : 0.13, Yaw : 359.82, Alt : 43.7099990845, Lat : 49.2835704, Lng : -123.1150207, Q1 : 0.999997615814, Q2 : 0.00099986337591, Q3 : 0.00120515737217, Q4 : -0.00152179901488}
2019-04-14 01:47:20.61: SIM {TimeUS : 50034145, Roll : 0.11, Pitch : 0.11, Yaw : 359.82, Alt : 43.9500007629, Lat : 49.2835704, Lng : -123.1150207, Q1 : 0.999997854233, Q2 : 0.00100769824348, Q3 : 0.0009671356529, Q4 : -0.00154540268704}
2019-04-14 01:47:20.71: SIM {TimeUS : 50134105, Roll : 0.07, Pitch : 0.08, Yaw : 359.82, Alt : 44.1800003052, Lat : 49.2835704, Lng : -123.1150207, Q1 : 0.999998271465, Q2 : 0.000659092969727, Q3 : 0.000773865089286, Q4 : -0.00155681243632}
2019-04-14 01:47:20.81: SIM {TimeUS : 50234065, Roll : 0.01, Pitch : 0.07, Yaw : 359.82, Alt : 44.4199981689, Lat : 49.2835704, Lng : -123.1150207, Q1 : 0.999998569489, Q2 : 0.000138458184665, Q3 : 0.000675913121086, Q4 : -0.00156319478992}
2019-04-14 01:47:20.91: SIM {TimeUS : 50334025, Roll : -0.02, Pitch : 0.08, Yaw : 359.81, Alt : 44.6500015259, Lat : 49.2835704, Lng : -123.1150206, Q1 : 0.999998509884, Q2 : -0.000216485437704, Q3 : 0.000702088116668, Q4 : -0.00157550419681}
2019-04-14 01:47:21.01: SIM {TimeUS : 50434818, Roll : -0.04, Pitch : 0.07, Yaw : 359.81, Alt : 44.8899993896, Lat : 49.2835704, Lng : -123.1150206, Q1 : 0.999998450279, Q2 : -0.00041245558532, Q3 : 0.000669182278216, Q4 : -0.0015884891618}
2019-04-14 01:47:21.11: SIM {TimeUS : 50534778, Roll : -0.05, Pitch : 0.06, Yaw : 359.81, Alt : 45.1300010681, Lat : 49.2835704, Lng : -123.1150206, Q1 : 0.999998450279, Q2 : -0.000506967247929, Q3 : 0.000575537269469, Q4 : -0.00160082930233}
2019-04-14 01:47:21.21: SIM {TimeUS : 50634738, Roll : -0.05, Pitch : 0.04, Yaw : 359.81, Alt : 45.3600006104, Lat : 49.2835703, Lng : -123.1150206, Q1 : 0.999998509884, Q2 : -0.000518224493135, Q3 : 0.000377313495846, Q4 : -0.00162259803619}
2019-04-14 01:47:21.31: SIM {TimeUS : 50734698, Roll : -0.04, Pitch : 0.01, Yaw : 359.81, Alt : 45.5999984741, Lat : 49.2835703, Lng : -123.1150206, Q1 : 0.999998569489, Q2 : -0.000365262851119, Q3 : 0.000135616166517, Q4 : -0.00165629305411}
2019-04-14 01:47:21.41: SIM {TimeUS : 50834658, Roll : -0.01, Pitch : 0.0, Yaw : 359.8, Alt : 45.8300018311, Lat : 49.2835703, Lng : -123.1150206, Q1 : 0.999998569489, Q2 : -0.000122206489323, Q3 : -4.99568159285e-05, Q4 : -0.00169719650876}
2019-04-14 01:47:21.51: SIM {TimeUS : 50934618, Roll : 0.0, Pitch : -0.01, Yaw : 359.8, Alt : 46.0600013733, Lat : 49.2835703, Lng : -123.1150206, Q1 : 0.999998450279, Q2 : -4.02623008995e-05, Q3 : -0.000138099843753, Q4 : -0.00174200173933}
2019-04-14 01:47:21.61: SIM {TimeUS : 51034578, Roll : -0.01, Pitch : -0.02, Yaw : 359.79, Alt : 46.2900009155, Lat : 49.2835703, Lng : -123.1150206, Q1 : 0.999998390675, Q2 : -9.57281372393e-05, Q3 : -0.000233683298575, Q4 : -0.0017899380764}
2019-04-14 01:47:21.71: SIM {TimeUS : 51134538, Roll : -0.01, Pitch : -0.04, Yaw : 359.78, Alt : 46.5099983215, Lat : 49.2835703, Lng : -123.1150206, Q1 : 0.999998211861, Q2 : -0.000163809134392, Q3 : -0.000400735792937, Q4 : -0.00183852144983}
2019-04-14 01:47:21.81: SIM {TimeUS : 51234498, Roll : -0.02, Pitch : -0.05, Yaw : 359.78, Alt : 46.7299995422, Lat : 49.2835703, Lng : -123.1150205, Q1 : 0.999998092651, Q2 : -0.000190878476133, Q3 : -0.000476168293972, Q4 : -0.00189050461631}
2019-04-14 01:47:21.91: SIM {TimeUS : 51334458, Roll : -0.01, Pitch : -0.05, Yaw : 359.77, Alt : 46.9399986267, Lat : 49.2835703, Lng : -123.1150205, Q1 : 0.999997973442, Q2 : -0.000164816607139, Q3 : -0.000483561743749, Q4 : -0.00193539680913}
2019-04-14 01:47:22.01: SIM {TimeUS : 51434418, Roll : -0.02, Pitch : -0.05, Yaw : 359.77, Alt : 47.1500015259, Lat : 49.2835703, Lng : -123.1150205, Q1 : 0.999997913837, Q2 : -0.000225382827921, Q3 : -0.000446566438768, Q4 : -0.00197146972641}
2019-04-14 01:47:22.11: SIM {TimeUS : 51534378, Roll : -0.04, Pitch : -0.04, Yaw : 359.77, Alt : 47.3499984741, Lat : 49.2835703, Lng : -123.1150205, Q1 : 0.999997854233, Q2 : -0.000428430037573, Q3 : -0.000368702661945, Q4 : -0.00200156262144}
2019-04-14 01:47:22.21: SIM {TimeUS : 51634338, Roll : -0.08, Pitch : -0.03, Yaw : 359.76, Alt : 47.5400009155, Lat : 49.2835703, Lng : -123.1150205, Q1 : 0.999997615814, Q2 : -0.000719877309166, Q3 : -0.000316360034049, Q4 : -0.0020234787371}
2019-04-14 01:47:22.31: SIM {TimeUS : 51734298, Roll : -0.12, Pitch : -0.05, Yaw : 359.76, Alt : 47.7200012207, Lat : 49.2835703, Lng : -123.1150205, Q1 : 0.999997258186, Q2 : -0.00105185050052, Q3 : -0.000471474369988, Q4 : -0.00203829305246}
2019-04-14 01:47:22.41: SIM {TimeUS : 51834258, Roll : -0.15, Pitch : -0.06, Yaw : 359.76, Alt : 47.8800010681, Lat : 49.2835703, Lng : -123.1150205, Q1 : 0.999996840954, Q2 : -0.00134245981462, Q3 : -0.000576202815864, Q4 : -0.00204719090834}
2019-04-14 01:47:22.51: SIM {TimeUS : 51934218, Roll : -0.16, Pitch : -0.05, Yaw : 359.76, Alt : 48.0400009155, Lat : 49.2835703, Lng : -123.1150205, Q1 : 0.99999666214, Q2 : -0.00145438488107, Q3 : -0.000504626485053, Q4 : -0.0020545469597}
2019-04-14 01:47:22.61: SIM {TimeUS : 52034178, Roll : -0.15, Pitch : -0.04, Yaw : 359.76, Alt : 48.1800003052, Lat : 49.2835703, Lng : -123.1150205, Q1 : 0.999996840954, Q2 : -0.00137703260407, Q3 : -0.000414110865677, Q4 : -0.00206366623752}
2019-04-14 01:47:22.71: SIM {TimeUS : 52134138, Roll : -0.13, Pitch : -0.03, Yaw : 359.76, Alt : 48.3199996948, Lat : 49.2835703, Lng : -123.1150205, Q1 : 0.999997079372, Q2 : -0.00118499877863, Q3 : -0.000345122360159, Q4 : -0.00207594176754}
2019-04-14 01:47:22.81: SIM {TimeUS : 52234098, Roll : -0.11, Pitch : -0.03, Yaw : 359.76, Alt : 48.4399986267, Lat : 49.2835703, Lng : -123.1150205, Q1 : 0.999997258186, Q2 : -0.00101207871921, Q3 : -0.000315999786835, Q4 : -0.00209337752312}
2019-04-14 01:47:22.91: SIM {TimeUS : 52334058, Roll : -0.08, Pitch : -0.04, Yaw : 359.75, Alt : 48.5499992371, Lat : 49.2835703, Lng : -123.1150205, Q1 : 0.999997377396, Q2 : -0.000767781457398, Q3 : -0.000402776495321, Q4 : -0.00211490201764}
2019-04-14 01:47:23.02: SIM {TimeUS : 52434851, Roll : -0.05, Pitch : -0.05, Yaw : 359.75, Alt : 48.6399993896, Lat : 49.2835703, Lng : -123.1150205, Q1 : 0.999997437, Q2 : -0.000461217219708, Q3 : -0.000521483831108, Q4 : -0.00214415672235}
2019-04-14 01:47:23.11: SIM {TimeUS : 52534811, Roll : -0.03, Pitch : -0.07, Yaw : 359.75, Alt : 48.7299995422, Lat : 49.2835703, Lng : -123.1150205, Q1 : 0.999997377396, Q2 : -0.00030178335146, Q3 : -0.000636987795588, Q4 : -0.00218079425395}
2019-04-14 01:47:23.21: SIM {TimeUS : 52634771, Roll : -0.03, Pitch : -0.08, Yaw : 359.74, Alt : 48.7999992371, Lat : 49.2835703, Lng : -123.1150206, Q1 : 0.999997198582, Q2 : -0.000306460337015, Q3 : -0.000710512220394, Q4 : -0.00222504907288}
2019-04-14 01:47:23.31: SIM {TimeUS : 52734731, Roll : -0.01, Pitch : -0.07, Yaw : 359.73, Alt : 48.8600006104, Lat : 49.2835703, Lng : -123.1150206, Q1 : 0.999997198582, Q2 : -0.000158356153406, Q3 : -0.000648316869047, Q4 : -0.00227396422997}
2019-04-14 01:47:23.41: SIM {TimeUS : 52834691, Roll : 0.01, Pitch : -0.05, Yaw : 359.73, Alt : 48.9199981689, Lat : 49.2835703, Lng : -123.1150206, Q1 : 0.999997198582, Q2 : 9.48957822402e-05, Q3 : -0.0004870192206, Q4 : -0.00231619132683}
2019-04-14 01:47:23.51: SIM {TimeUS : 52934651, Roll : 0.04, Pitch : -0.03, Yaw : 359.73, Alt : 48.9700012207, Lat : 49.2835703, Lng : -123.1150206, Q1 : 0.999997138977, Q2 : 0.00035993612255, Q3 : -0.000306553207338, Q4 : -0.00235331780277}
2019-04-14 01:47:23.61: SIM {TimeUS : 53034611, Roll : 0.1, Pitch : -0.04, Yaw : 359.72, Alt : 49.0099983215, Lat : 49.2835703, Lng : -123.1150206, Q1 : 0.999996602535, Q2 : 0.0009369426989, Q3 : -0.000431463238783, Q4 : -0.00238624284975}
2019-04-14 01:47:23.71: SIM {TimeUS : 53134571, Roll : 0.33, Pitch : -0.18, Yaw : 359.72, Alt : 49.0400009155, Lat : 49.2835703, Lng : -123.1150206, Q1 : 0.999991595745, Q2 : 0.00289053376764, Q3 : -0.00162454578094, Q4 : -0.00241600372829}
2019-04-14 01:47:23.81: SIM {TimeUS : 53234531, Roll : 0.76, Pitch : -0.5, Yaw : 359.71, Alt : 49.0699996948, Lat : 49.2835703, Lng : -123.1150206, Q1 : 0.999965071678, Q2 : 0.0066681667231, Q3 : -0.00440490152687, Q4 : -0.00243900017813}
2019-04-14 01:47:23.91: SIM {TimeUS : 53334491, Roll : 1.39, Pitch : -0.96, Yaw : 359.7, Alt : 49.0999984741, Lat : 49.2835703, Lng : -123.1150206, Q1 : 0.999887526035, Q2 : 0.012156650424, Q3 : -0.0084368204698, Q4 : -0.00244920072146}
2019-04-14 01:47:24.01: SIM {TimeUS : 53434451, Roll : 2.18, Pitch : -1.51, Yaw : 359.69, Alt : 49.1199989319, Lat : 49.2835703, Lng : -123.1150206, Q1 : 0.999727487564, Q2 : 0.0190383661538, Q3 : -0.0132910693064, Q4 : -0.00242845993489}
2019-04-14 01:47:24.11: SIM {TimeUS : 53534411, Roll : 3.03, Pitch : -2.1, Yaw : 359.67, Alt : 49.1399993896, Lat : 49.2835704, Lng : -123.1150205, Q1 : 0.999478399754, Q2 : 0.0264096725732, Q3 : -0.0184370037168, Q4 : -0.00235147844069}
2019-04-14 01:47:24.21: SIM {TimeUS : 53634371, Roll : 3.8, Pitch : -2.62, Yaw : 359.65, Alt : 49.1500015259, Lat : 49.2835706, Lng : -123.1150203, Q1 : 0.999184131622, Q2 : 0.0331304594874, Q3 : -0.0229898877442, Q4 : -0.0022052731365}
2019-04-14 01:47:24.31: SIM {TimeUS : 53734331, Roll : 4.43, Pitch : -3.02, Yaw : 359.65, Alt : 49.1699981689, Lat : 49.2835707, Lng : -123.1150201, Q1 : 0.998901963234, Q2 : 0.0386041514575, Q3 : -0.026470195502, Q4 : -0.00199242727831}
2019-04-14 01:47:24.41: SIM {TimeUS : 53834291, Roll : 4.9, Pitch : -3.31, Yaw : 359.65, Alt : 49.1800003052, Lat : 49.2835708, Lng : -123.1150199, Q1 : 0.998666644096, Q2 : 0.0426728837192, Q3 : -0.0289990175515, Q4 : -0.00173773907591}
2019-04-14 01:47:24.51: SIM {TimeUS : 53934251, Roll : 5.25, Pitch : -3.55, Yaw : 359.66, Alt : 49.1899986267, Lat : 49.2835709, Lng : -123.1150195, Q1 : 0.998468339443, Q2 : 0.0456962175667, Q3 : -0.0311558991671, Q4 : -0.00148131919559}
2019-04-14 01:47:24.61: SIM {TimeUS : 54034211, Roll : 5.53, Pitch : -3.79, Yaw : 359.67, Alt : 49.2000007629, Lat : 49.2835713, Lng : -123.115019, Q1 : 0.998289167881, Q2 : 0.0481278859079, Q3 : -0.0331813953817, Q4 : -0.00122241827194}
2019-04-14 01:47:24.71: SIM {TimeUS : 54134171, Roll : 5.8, Pitch : -4.04, Yaw : 359.68, Alt : 49.2099990845, Lat : 49.2835715, Lng : -123.1150184, Q1 : 0.998097658157, Q2 : 0.0505031570792, Q3 : -0.0353490188718, Q4 : -0.00097699300386}
2019-04-14 01:47:24.81: SIM {TimeUS : 54234131, Roll : 6.1, Pitch : -4.29, Yaw : 359.68, Alt : 49.2200012207, Lat : 49.2835718, Lng : -123.1150177, Q1 : 0.997881352901, Q2 : 0.053121406585, Q3 : -0.037555873394, Q4 : -0.000717743532732}
2019-04-14 01:47:24.91: SIM {TimeUS : 54334091, Roll : 6.39, Pitch : -4.5, Yaw : 359.69, Alt : 49.2299995422, Lat : 49.2835721, Lng : -123.1150169, Q1 : 0.997676968575, Q2 : 0.0556045435369, Q3 : -0.0393518730998, Q4 : -0.000433254870586}
2019-04-14 01:47:25.01: SIM {TimeUS : 54434051, Roll : 6.62, Pitch : -4.66, Yaw : 359.71, Alt : 49.2299995422, Lat : 49.2835726, Lng : -123.115016, Q1 : 0.997507274151, Q2 : 0.057589057833, Q3 : -0.0407773330808, Q4 : -0.000173067644937}
2019-04-14 01:47:25.12: SIM {TimeUS : 54534844, Roll : 6.79, Pitch : -4.78, Yaw : 359.72, Alt : 49.2400016785, Lat : 49.2835731, Lng : -123.1150151, Q1 : 0.997376143932, Q2 : 0.0591103024781, Q3 : -0.041794385761, Q4 : 5.67681236134e-05}
2019-04-14 01:47:25.21: SIM {TimeUS : 54634804, Roll : 6.9, Pitch : -4.85, Yaw : 359.73, Alt : 49.2400016785, Lat : 49.2835735, Lng : -123.1150139, Q1 : 0.997288703918, Q2 : 0.0601111315191, Q3 : -0.0424481444061, Q4 : 0.000226711403229}
2019-04-14 01:47:25.31: SIM {TimeUS : 54734764, Roll : 6.99, Pitch : -4.93, Yaw : 359.73, Alt : 49.25, Lat : 49.283574, Lng : -123.1150128, Q1 : 0.997213363647, Q2 : 0.0608894191682, Q3 : -0.0431032814085, Q4 : 0.000321889878251}
2019-04-14 01:47:25.41: SIM {TimeUS : 54834724, Roll : 7.12, Pitch : -5.02, Yaw : 359.73, Alt : 49.25, Lat : 49.2835746, Lng : -123.1150116, Q1 : 0.997110784054, Q2 : 0.0620168633759, Q3 : -0.0438618063927, Q4 : 0.000400277465815}
2019-04-14 01:47:25.51: SIM {TimeUS : 54934684, Roll : 7.45, Pitch : -4.98, Yaw : 359.89, Alt : 49.25, Lat : 49.2835752, Lng : -123.1150102, Q1 : 0.996942818165, Q2 : 0.0649130791426, Q3 : -0.0434485971928, Q4 : 0.00188045983668}
2019-04-14 01:47:25.61: SIM {TimeUS : 55034644, Roll : 8.0, Pitch : -4.77, Yaw : 0.76, Alt : 49.2599983215, Lat : 49.2835758, Lng : -123.1150088, Q1 : 0.99665170908, Q2 : 0.0700438916683, Q3 : -0.0410769656301, Q4 : 0.00958950072527}
2019-04-14 01:47:25.71: SIM {TimeUS : 55134604, Roll : 8.62, Pitch : -4.69, Yaw : 3.0, Alt : 49.2599983215, Lat : 49.2835765, Lng : -123.1150072, Q1 : 0.995909571648, Q2 : 0.0761698931456, Q3 : -0.0388537235558, Q4 : 0.0291999839246}
2019-04-14 01:47:25.81: SIM {TimeUS : 55234564, Roll : 9.02, Pitch : -5.05, Yaw : 6.82, Alt : 49.2599983215, Lat : 49.2835773, Lng : -123.1150057, Q1 : 0.993953585625, Q2 : 0.081112369895, Q3 : -0.0392178893089, Q4 : 0.0627613887191}
2019-04-14 01:47:25.91: SIM {TimeUS : 55334524, Roll : 9.01, Pitch : -5.93, Yaw : 12.11, Alt : 49.2599983215, Lat : 49.283578, Lng : -123.1150039, Q1 : 0.989583432674, Q2 : 0.0834722816944, Q3 : -0.0430044308305, Q4 : 0.109122358263}
2019-04-14 01:47:26.01: SIM {TimeUS : 55434484, Roll : 8.42, Pitch : -7.23, Yaw : 18.64, Alt : 49.2599983215, Lat : 49.2835787, Lng : -123.1150021, Q1 : 0.981412649155, Q2 : 0.0825652852654, Q3 : -0.050187472254, Q4 : 0.165811344981}
2019-04-14 01:47:26.11: SIM {TimeUS : 55534444, Roll : 7.23, Pitch : -8.79, Yaw : 26.15, Alt : 49.2599983215, Lat : 49.2835794, Lng : -123.1150001, Q1 : 0.968170702457, Q2 : 0.0785609558225, Q3 : -0.0602686218917, Q4 : 0.229872494936}
2019-04-14 01:47:26.21: SIM {TimeUS : 55634404, Roll : 5.47, Pitch : -10.36, Yaw : 34.39, Alt : 49.2700004578, Lat : 49.2835801, Lng : -123.114998, Q1 : 0.949014186859, Q2 : 0.0720813348889, Q3 : -0.0721518620849, Q4 : 0.298279225826}
2019-04-14 01:47:26.31: SIM {TimeUS : 55734364, Roll : 3.18, Pitch : -11.73, Yaw : 43.09, Alt : 49.2700004578, Lat : 49.283581, Lng : -123.1149958, Q1 : 0.923827290535, Q2 : 0.0632726028562, Q3 : -0.0848888680339, Q4 : 0.36787712574}
2019-04-14 01:47:26.41: SIM {TimeUS : 55834324, Roll : 0.27, Pitch : -12.67, Yaw : 51.7, Alt : 49.2700004578, Lat : 49.2835818, Lng : -123.1149934, Q1 : 0.894291400909, Q2 : 0.050257820636, Q3 : -0.0982994958758, Q4 : 0.433652311563}
2019-04-14 01:47:26.51: SIM {TimeUS : 55934284, Roll : -2.9, Pitch : -13.04, Yaw : 59.34, Alt : 49.2700004578, Lat : 49.2835828, Lng : -123.114991, Q1 : 0.864405333996, Q2 : 0.0343343354762, Q3 : -0.111165873706, Q4 : 0.489148944616}
2019-04-14 01:47:26.61: SIM {TimeUS : 56034244, Roll : -5.68, Pitch : -12.95, Yaw : 65.22, Alt : 49.2700004578, Lat : 49.2835837, Lng : -123.1149886, Q1 : 0.838921606541, Q2 : 0.0192258544266, Q3 : -0.121476195753, Q4 : 0.530173957348}
2019-04-14 01:47:26.71: SIM {TimeUS : 56134204, Roll : -7.54, Pitch : -12.68, Yaw : 69.02, Alt : 49.2700004578, Lat : 49.2835848, Lng : -123.1149859, Q1 : 0.821286320686, Q2 : 0.00854870118201, Q3 : -0.127892881632, Q4 : 0.555930912495}
2019-04-14 01:47:26.81: SIM {TimeUS : 56234164, Roll : -8.32, Pitch : -12.49, Yaw : 70.82, Alt : 49.2700004578, Lat : 49.283586, Lng : -123.1149835, Q1 : 0.812613725662, Q2 : 0.00406853435561, Q3 : -0.130320698023, Q4 : 0.568030714989}
2019-04-14 01:47:26.91: SIM {TimeUS : 56334124, Roll : -8.13, Pitch : -12.55, Yaw : 70.91, Alt : 49.2700004578, Lat : 49.2835873, Lng : -123.1149808, Q1 : 0.812129676342, Q2 : 0.00584624428302, Q3 : -0.129770249128, Q4 : 0.568832933903}
2019-04-14 01:47:27.01: SIM {TimeUS : 56434084, Roll : -7.17, Pitch : -12.89, Yaw : 69.66, Alt : 49.2700004578, Lat : 49.2835886, Lng : -123.1149782, Q1 : 0.818050801754, Q2 : 0.0129971271381, Q3 : -0.127481222153, Q4 : 0.560689330101}
2019-04-14 01:47:27.11: SIM {TimeUS : 56534044, Roll : -5.65, Pitch : -13.47, Yaw : 67.43, Alt : 49.2700004578, Lat : 49.2835902, Lng : -123.1149754, Q1 : 0.828248500824, Q2 : 0.0242931190878, Q3 : -0.124684773386, Q4 : 0.545772850513}
2019-04-14 01:47:27.22: SIM {TimeUS : 56634837, Roll : -3.8, Pitch : -14.2, Yaw : 64.52, Alt : 49.2799987793, Lat : 49.2835917, Lng : -123.1149725, Q1 : 0.840855240822, Q2 : 0.038072232157, Q3 : -0.122080668807, Q4 : 0.525936543941}
2019-04-14 01:47:27.31: SIM {TimeUS : 56734797, Roll : -1.86, Pitch : -14.91, Yaw : 61.29, Alt : 49.2799987793, Lat : 49.2835933, Lng : -123.1149697, Q1 : 0.854011297226, Q2 : 0.0522396750748, Q3 : -0.11986117065, Q4 : 0.50355643034}
2019-04-14 01:47:27.41: SIM {TimeUS : 56834757, Roll : 0.0, Pitch : -15.47, Yaw : 58.04, Alt : 49.2799987793, Lat : 49.283595, Lng : -123.1149668, Q1 : 0.866476356983, Q2 : 0.0652703642845, Q3 : -0.117797642946, Q4 : 0.480710089207}
2019-04-14 01:47:27.51: SIM {TimeUS : 56934717, Roll : 1.58, Pitch : -15.81, Yaw : 55.1, Alt : 49.2799987793, Lat : 49.2835965, Lng : -123.1149637, Q1 : 0.877199292183, Q2 : 0.0757452100515, Q3 : -0.11559933424, Q4 : 0.459805220366}
2019-04-14 01:47:27.61: SIM {TimeUS : 57034677, Roll : 2.78, Pitch : -15.91, Yaw : 52.75, Alt : 49.2799987793, Lat : 49.2835983, Lng : -123.1149604, Q1 : 0.885489761829, Q2 : 0.083025559783, Q3 : -0.113318257034, Q4 : 0.442914962769}
2019-04-14 01:47:27.71: SIM {TimeUS : 57134637, Roll : 3.5, Pitch : -15.87, Yaw : 51.17, Alt : 49.2799987793, Lat : 49.2836, Lng : -123.1149571, Q1 : 0.891058146954, Q2 : 0.0868992209435, Q3 : -0.111431382596, Q4 : 0.431331604719}
2019-04-14 01:47:27.81: SIM {TimeUS : 57234597, Roll : 3.73, Pitch : -15.78, Yaw : 50.38, Alt : 49.2799987793, Lat : 49.2836016, Lng : -123.1149536, Q1 : 0.893918335438, Q2 : 0.0875956714153, Q3 : -0.110445655882, Q4 : 0.425486564636}
2019-04-14 01:47:27.91: SIM {TimeUS : 57334557, Roll : 3.52, Pitch : -15.72, Yaw : 50.35, Alt : 49.2900009155, Lat : 49.2836032, Lng : -123.11495, Q1 : 0.894271790981, Q2 : 0.0857072547078, Q3 : -0.110791906714, Q4 : 0.425038069487}
2019-04-14 01:47:28.01: SIM {TimeUS : 57434517, Roll : 2.95, Pitch : -15.75, Yaw : 50.94, Alt : 49.2900009155, Lat : 49.2836049, Lng : -123.1149462, Q1 : 0.892468690872, Q2 : 0.0819549784064, Q3 : -0.112697020173, Q4 : 0.429048210382}
2019-04-14 01:47:28.11: SIM {TimeUS : 57534477, Roll : 2.15, Pitch : -15.86, Yaw : 51.97, Alt : 49.2900009155, Lat : 49.2836067, Lng : -123.1149424, Q1 : 0.888983786106, Q2 : 0.0772064849734, Q3 : -0.115818962455, Q4 : 0.436271637678}
2019-04-14 01:47:28.21: SIM {TimeUS : 57634437, Roll : 1.25, Pitch : -16.01, Yaw : 53.27, Alt : 49.2900009155, Lat : 49.2836084, Lng : -123.1149385, Q1 : 0.884399533272, Q2 : 0.0721705928445, Q3 : -0.119638130069, Q4 : 0.445326387882}
2019-04-14 01:47:28.31: SIM {TimeUS : 57734397, Roll : 0.37, Pitch : -16.17, Yaw : 54.65, Alt : 49.2900009155, Lat : 49.2836101, Lng : -123.1149345, Q1 : 0.8793618083, Q2 : 0.067460604012, Q3 : -0.12345097959, Q4 : 0.454897552729}
2019-04-14 01:47:28.41: SIM {TimeUS : 57834357, Roll : -0.38, Pitch : -16.29, Yaw : 55.93, Alt : 49.2900009155, Lat : 49.2836118, Lng : -123.1149305, Q1 : 0.87449747324, Q2 : 0.0635414123535, Q3 : -0.126723080873, Q4 : 0.463851183653}
2019-04-14 01:47:28.51: SIM {TimeUS : 57934317, Roll : -0.96, Pitch : -16.39, Yaw : 57.01, Alt : 49.2900009155, Lat : 49.2836136, Lng : -123.1149263, Q1 : 0.870325267315, Q2 : 0.0607204772532, Q3 : -0.129285916686, Q4 : 0.471309006214}
2019-04-14 01:47:28.61: SIM {TimeUS : 58034277, Roll : -1.34, Pitch : -16.46, Yaw : 57.79, Alt : 49.2900009155, Lat : 49.2836154, Lng : -123.1149223, Q1 : 0.867234766483, Q2 : 0.0590029321611, Q3 : -0.130981534719, Q4 : 0.476724594831}
2019-04-14 01:47:28.71: SIM {TimeUS : 58134237, Roll : -1.53, Pitch : -16.51, Yaw : 58.23, Alt : 49.2900009155, Lat : 49.2836174, Lng : -123.1149181, Q1 : 0.865410089493, Q2 : 0.058325342834, Q3 : -0.13190895319, Q4 : 0.479857861996}
2019-04-14 01:47:28.81: SIM {TimeUS : 58234197, Roll : -1.52, Pitch : -16.52, Yaw : 58.36, Alt : 49.2900009155, Lat : 49.2836193, Lng : -123.1149138, Q1 : 0.864879190922, Q2 : 0.0585618652403, Q3 : -0.131901815534, Q4 : 0.480787217617}
2019-04-14 01:47:28.91: SIM {TimeUS : 58334157, Roll : -1.34, Pitch : -16.52, Yaw : 58.2, Alt : 49.2900009155, Lat : 49.2836212, Lng : -123.1149095, Q1 : 0.865450084209, Q2 : 0.0597752928734, Q3 : -0.131183207035, Q4 : 0.479806303978}
2019-04-14 01:47:29.01: SIM {TimeUS : 58434117, Roll : -1.04, Pitch : -16.53, Yaw : 57.82, Alt : 49.2900009155, Lat : 49.2836231, Lng : -123.1149052, Q1 : 0.866847574711, Q2 : 0.0615961365402, Q3 : -0.130221158266, Q4 : 0.477308809757}
2019-04-14 01:47:29.11: SIM {TimeUS : 58534077, Roll : -0.68, Pitch : -16.56, Yaw : 57.31, Alt : 49.2900009155, Lat : 49.283625, Lng : -123.1149009, Q1 : 0.868743538857, Q2 : 0.0638999417424, Q3 : -0.129207774997, Q4 : 0.473821520805}
2019-04-14 01:47:29.21: SIM {TimeUS : 58634037, Roll : -0.27, Pitch : -16.59, Yaw : 56.74, Alt : 49.2900009155, Lat : 49.283627, Lng : -123.1148964, Q1 : 0.870840966702, Q2 : 0.066446647048, Q3 : -0.128109261394, Q4 : 0.469903081656}
2019-04-14 01:47:29.32: SIM {TimeUS : 58734830, Roll : 0.09, Pitch : -16.62, Yaw : 56.17, Alt : 49.2900009155, Lat : 49.2836292, Lng : -123.1148919, Q1 : 0.872897922993, Q2 : 0.0687669962645, Q3 : -0.127192512155, Q4 : 0.465985417366}
2019-04-14 01:47:29.41: SIM {TimeUS : 58834790, Roll : 0.37, Pitch : -16.67, Yaw : 55.68, Alt : 49.2900009155, Lat : 49.2836311, Lng : -123.1148874, Q1 : 0.874665856361, Q2 : 0.0705633014441, Q3 : -0.126709297299, Q4 : 0.462520450354}
2019-04-14 01:47:29.51: SIM {TimeUS : 58934750, Roll : 0.55, Pitch : -16.73, Yaw : 55.3, Alt : 49.2900009155, Lat : 49.2836333, Lng : -123.1148829, Q1 : 0.876018404961, Q2 : 0.071786776185, Q3 : -0.126661479473, Q4 : 0.459777444601}
2019-04-14 01:47:29.61: SIM {TimeUS : 59034710, Roll : 0.64, Pitch : -16.8, Yaw : 55.05, Alt : 49.2900009155, Lat : 49.2836353, Lng : -123.1148783, Q1 : 0.876878023148, Q2 : 0.0724698230624, Q3 : -0.127001166344, Q4 : 0.457934230566}
2019-04-14 01:47:29.71: SIM {TimeUS : 59134670, Roll : 0.64, Pitch : -16.85, Yaw : 54.94, Alt : 49.2900009155, Lat : 49.2836373, Lng : -123.1148737, Q1 : 0.877270162106, Q2 : 0.0725267678499, Q3 : -0.127504646778, Q4 : 0.457033365965}
2019-04-14 01:47:29.81: SIM {TimeUS : 59234630, Roll : 0.57, Pitch : -16.89, Yaw : 54.95, Alt : 49.2900009155, Lat : 49.2836395, Lng : -123.114869, Q1 : 0.877233803272, Q2 : 0.0721932575107, Q3 : -0.12803658843, Q4 : 0.457007288933}
2019-04-14 01:47:29.91: SIM {TimeUS : 59334590, Roll : 0.47, Pitch : -16.92, Yaw : 55.05, Alt : 49.2900009155, Lat : 49.2836414, Lng : -123.1148643, Q1 : 0.876840651035, Q2 : 0.0716548934579, Q3 : -0.128600180149, Q4 : 0.457687735558}
2019-04-14 01:47:30.01: SIM {TimeUS : 59434550, Roll : 0.35, Pitch : -16.94, Yaw : 55.22, Alt : 49.2900009155, Lat : 49.2836436, Lng : -123.1148596, Q1 : 0.876197755337, Q2 : 0.0710222944617, Q3 : -0.129166692495, Q4 : 0.458856463432}
2019-04-14 01:47:30.11: SIM {TimeUS : 59534510, Roll : 0.22, Pitch : -16.97, Yaw : 55.43, Alt : 49.2999992371, Lat : 49.2836457, Lng : -123.1148548, Q1 : 0.875424623489, Q2 : 0.0703513547778, Q3 : -0.129718184471, Q4 : 0.460277765989}
2019-04-14 01:47:30.21: SIM {TimeUS : 59634470, Roll : 0.09, Pitch : -16.99, Yaw : 55.64, Alt : 49.2999992371, Lat : 49.2836479, Lng : -123.11485, Q1 : 0.874620854855, Q2 : 0.069730438292, Q3 : -0.130323365331, Q4 : 0.461727112532}
2019-04-14 01:47:30.31: SIM {TimeUS : 59734430, Roll : -0.01, Pitch : -17.02, Yaw : 55.83, Alt : 49.2999992371, Lat : 49.2836499, Lng : -123.1148451, Q1 : 0.873898923397, Q2 : 0.0691714435816, Q3 : -0.1309132725, Q4 : 0.463009476662}
2019-04-14 01:47:30.41: SIM {TimeUS : 59834390, Roll : -0.11, Pitch : -17.06, Yaw : 55.98, Alt : 49.2999992371, Lat : 49.2836521, Lng : -123.1148403, Q1 : 0.873320102692, Q2 : 0.0687589272857, Q3 : -0.131452068686, Q4 : 0.464009195566}
2019-04-14 01:47:30.51: SIM {TimeUS : 59934350, Roll : -0.17, Pitch : -17.09, Yaw : 56.07, Alt : 49.2999992371, Lat : 49.2836542, Lng : -123.1148354, Q1 : 0.872919201851, Q2 : 0.0685833469033, Q3 : -0.131909653544, Q4 : 0.464659303427}
2019-04-14 01:47:30.61: SIM {TimeUS : 60034310, Roll : -0.2, Pitch : -17.14, Yaw : 56.12, Alt : 49.2999992371, Lat : 49.2836565, Lng : -123.1148305, Q1 : 0.872723400593, Q2 : 0.0685414746404, Q3 : -0.132341876626, Q4 : 0.464910328388}
2019-04-14 01:47:30.71: SIM {TimeUS : 60134270, Roll : -0.22, Pitch : -17.17, Yaw : 56.11, Alt : 49.2999992371, Lat : 49.2836585, Lng : -123.1148256, Q1 : 0.872738480568, Q2 : 0.0685358420014, Q3 : -0.132641911507, Q4 : 0.464797288179}
2019-04-14 01:47:30.81: SIM {TimeUS : 60234230, Roll : -0.22, Pitch : -17.18, Yaw : 56.05, Alt : 49.2999992371, Lat : 49.2836608, Lng : -123.1148205, Q1 : 0.872938275337, Q2 : 0.0685218274593, Q3 : -0.132816627622, Q4 : 0.464374035597}
2019-04-14 01:47:30.91: SIM {TimeUS : 60334190, Roll : -0.21, Pitch : -17.21, Yaw : 55.96, Alt : 49.2999992371, Lat : 49.283663, Lng : -123.1148156, Q1 : 0.873260617256, Q2 : 0.0686029419303, Q3 : -0.132983893156, Q4 : 0.463707655668}
2019-04-14 01:47:31.01: SIM {TimeUS : 60434150, Roll : -0.15, Pitch : -17.24, Yaw : 55.85, Alt : 49.2999992371, Lat : 49.2836651, Lng : -123.1148107, Q1 : 0.873635053635, Q2 : 0.0690098851919, Q3 : -0.133093565702, Q4 : 0.4629098773}
2019-04-14 01:47:31.11: SIM {TimeUS : 60534110, Roll : -0.07, Pitch : -17.28, Yaw : 55.74, Alt : 49.3100013733, Lat : 49.2836674, Lng : -123.1148056, Q1 : 0.874016940594, Q2 : 0.0696776658297, Q3 : -0.133096858859, Q4 : 0.462087243795}
2019-04-14 01:47:31.21: SIM {TimeUS : 60634070, Roll : 0.02, Pitch : -17.31, Yaw : 55.62, Alt : 49.3100013733, Lat : 49.2836697, Lng : -123.1148006, Q1 : 0.87437659502, Q2 : 0.0704223662615, Q3 : -0.133031278849, Q4 : 0.461312204599}
2019-04-14 01:47:31.31: SIM {TimeUS : 60734030, Roll : 0.12, Pitch : -17.34, Yaw : 55.52, Alt : 49.3100013733, Lat : 49.2836718, Lng : -123.1147956, Q1 : 0.874683618546, Q2 : 0.0711698830128, Q3 : -0.132958739996, Q4 : 0.4606359303}
2019-04-14 01:47:31.42: SIM {TimeUS : 60834823, Roll : 0.18, Pitch : -17.37, Yaw : 55.44, Alt : 49.3100013733, Lat : 49.2836742, Lng : -123.1147905, Q1 : 0.874929189682, Q2 : 0.0716958865523, Q3 : -0.132983326912, Q4 : 0.460080444813}
2019-04-14 01:47:31.51: SIM {TimeUS : 60934783, Roll : 0.2, Pitch : -17.39, Yaw : 55.39, Alt : 49.3100013733, Lat : 49.2836764, Lng : -123.1147854, Q1 : 0.875122666359, Q2 : 0.0718161761761, Q3 : -0.133054479957, Q4 : 0.459673076868}
2019-04-14 01:47:31.61: SIM {TimeUS : 61034743, Roll : 0.18, Pitch : -17.39, Yaw : 55.36, Alt : 49.3100013733, Lat : 49.2836786, Lng : -123.1147803, Q1 : 0.875248253345, Q2 : 0.0716649442911, Q3 : -0.133209779859, Q4 : 0.459412544966}
2019-04-14 01:47:31.71: SIM {TimeUS : 61134703, Roll : 0.16, Pitch : -17.39, Yaw : 55.35, Alt : 49.3100013733, Lat : 49.2836809, Lng : -123.1147752, Q1 : 0.875294268131, Q2 : 0.0715448111296, Q3 : -0.133268937469, Q4 : 0.459326356649}
2019-04-14 01:47:31.81: SIM {TimeUS : 61234663, Roll : 0.15, Pitch : -17.4, Yaw : 55.35, Alt : 49.3100013733, Lat : 49.2836832, Lng : -123.11477, Q1 : 0.875273704529, Q2 : 0.07144164294, Q3 : -0.133362621069, Q4 : 0.459354311228}
2019-04-14 01:47:31.91: SIM {TimeUS : 61334623, Roll : 0.15, Pitch : -17.43, Yaw : 55.37, Alt : 49.3100013733, Lat : 49.2836855, Lng : -123.1147649, Q1 : 0.875176727772, Q2 : 0.0715647265315, Q3 : -0.133583381772, Q4 : 0.45945584774}
2019-04-14 01:47:32.01: SIM {TimeUS : 61434583, Roll : 0.15, Pitch : -17.49, Yaw : 55.39, Alt : 49.3199996948, Lat : 49.2836877, Lng : -123.1147597, Q1 : 0.875021159649, Q2 : 0.0718266218901, Q3 : -0.134038478136, Q4 : 0.459578722715}
2019-04-14 01:47:32.11: SIM {TimeUS : 61534543, Roll : 0.14, Pitch : -17.53, Yaw : 55.41, Alt : 49.3199996948, Lat : 49.2836901, Lng : -123.1147546, Q1 : 0.874887824059, Q2 : 0.0719656199217, Q3 : -0.134392097592, Q4 : 0.459707558155}
2019-04-14 01:47:32.21: SIM {TimeUS : 61634503, Roll : 0.13, Pitch : -17.54, Yaw : 55.43, Alt : 49.3199996948, Lat : 49.2836924, Lng : -123.1147494, Q1 : 0.874807715416, Q2 : 0.0719572603703, Q3 : -0.134509816766, Q4 : 0.459826916456}
2019-04-14 01:47:32.31: SIM {TimeUS : 61734463, Roll : 0.11, Pitch : -17.56, Yaw : 55.44, Alt : 49.3199996948, Lat : 49.2836947, Lng : -123.1147442, Q1 : 0.874759435654, Q2 : 0.0718567445874, Q3 : -0.134686499834, Q4 : 0.459882736206}
2019-04-14 01:47:32.41: SIM {TimeUS : 61834423, Roll : 0.08, Pitch : -17.58, Yaw : 55.44, Alt : 49.3199996948, Lat : 49.2836969, Lng : -123.114739, Q1 : 0.874739050865, Q2 : 0.0717349126935, Q3 : -0.134973526001, Q4 : 0.459856331348}
2019-04-14 01:47:32.51: SIM {TimeUS : 61934383, Roll : 0.07, Pitch : -17.6, Yaw : 55.44, Alt : 49.3199996948, Lat : 49.2836992, Lng : -123.1147336, Q1 : 0.874748110771, Q2 : 0.0717187672853, Q3 : -0.135144159198, Q4 : 0.459791451693}
2019-04-14 01:47:32.61: SIM {TimeUS : 62034343, Roll : 0.06, Pitch : -17.62, Yaw : 55.43, Alt : 49.3199996948, Lat : 49.2837016, Lng : -123.1147285, Q1 : 0.87478017807, Q2 : 0.0717531889677, Q3 : -0.135327383876, Q4 : 0.459671229124}
2019-04-14 01:47:32.71: SIM {TimeUS : 62134303, Roll : 0.07, Pitch : -17.63, Yaw : 55.41, Alt : 49.3199996948, Lat : 49.283704, Lng : -123.1147232, Q1 : 0.874840974808, Q2 : 0.0718213543296, Q3 : -0.13540057838, Q4 : 0.45952335}
2019-04-14 01:47:32.81: SIM {TimeUS : 62234263, Roll : 0.08, Pitch : -17.64, Yaw : 55.38, Alt : 49.3199996948, Lat : 49.2837063, Lng : -123.114718, Q1 : 0.874921023846, Q2 : 0.0719586387277, Q3 : -0.135475024581, Q4 : 0.459327399731}
2019-04-14 01:47:32.91: SIM {TimeUS : 62334223, Roll : 0.1, Pitch : -17.65, Yaw : 55.35, Alt : 49.3199996948, Lat : 49.2837086, Lng : -123.1147127, Q1 : 0.875019133091, Q2 : 0.0721274986863, Q3 : -0.135483965278, Q4 : 0.459111392498}
2019-04-14 01:47:33.01: SIM {TimeUS : 62434183, Roll : 0.13, Pitch : -17.67, Yaw : 55.32, Alt : 49.3199996948, Lat : 49.2837109, Lng : -123.1147074, Q1 : 0.875108540058, Q2 : 0.0723373070359, Q3 : -0.1355022192, Q4 : 0.45890250802}
2019-04-14 01:47:33.11: SIM {TimeUS : 62534143, Roll : 0.16, Pitch : -17.69, Yaw : 55.29, Alt : 49.3199996948, Lat : 49.2837132, Lng : -123.1147021, Q1 : 0.875180959702, Q2 : 0.0726031810045, Q3 : -0.135588511825, Q4 : 0.458696871996}
2019-04-14 01:47:33.21: SIM {TimeUS : 62634103, Roll : 0.16, Pitch : -17.73, Yaw : 55.26, Alt : 49.3199996948, Lat : 49.2837156, Lng : -123.1146968, Q1 : 0.875241398811, Q2 : 0.0727723911405, Q3 : -0.135857611895, Q4 : 0.458475112915}
2019-04-14 01:47:33.31: SIM {TimeUS : 62734063, Roll : 0.14, Pitch : -17.77, Yaw : 55.24, Alt : 49.3199996948, Lat : 49.283718, Lng : -123.1146915, Q1 : 0.875301539898, Q2 : 0.072749517858, Q3 : -0.136257976294, Q4 : 0.458245098591}
2019-04-14 01:47:33.41: SIM {TimeUS : 62834023, Roll : 0.12, Pitch : -17.81, Yaw : 55.22, Alt : 49.3199996948, Lat : 49.2837204, Lng : -123.1146862, Q1 : 0.875346958637, Q2 : 0.0727440863848, Q3 : -0.136662438512, Q4 : 0.458038717508}
2019-04-14 01:47:33.51: SIM {TimeUS : 62934816, Roll : 0.13, Pitch : -17.83, Yaw : 55.2, Alt : 49.3199996948, Lat : 49.2837228, Lng : -123.1146807, Q1 : 0.875376403332, Q2 : 0.072896271944, Q3 : -0.136849299073, Q4 : 0.457902401686}
2019-04-14 01:47:33.61: SIM {TimeUS : 63034776, Roll : 0.16, Pitch : -17.84, Yaw : 55.19, Alt : 49.3300018311, Lat : 49.2837252, Lng : -123.1146755, Q1 : 0.875416636467, Q2 : 0.0730862691998, Q3 : -0.136771485209, Q4 : 0.457818359137}
2019-04-14 01:47:33.71: SIM {TimeUS : 63134736, Roll : 0.18, Pitch : -17.81, Yaw : 55.17, Alt : 49.3300018311, Lat : 49.2837276, Lng : -123.1146702, Q1 : 0.875485181808, Q2 : 0.0731058865786, Q3 : -0.136491686106, Q4 : 0.457767754793}
2019-04-14 01:47:33.81: SIM {TimeUS : 63234696, Roll : 0.18, Pitch : -17.79, Yaw : 55.17, Alt : 49.3300018311, Lat : 49.2837299, Lng : -123.1146648, Q1 : 0.875542879105, Q2 : 0.0730044469237, Q3 : -0.136320322752, Q4 : 0.457724571228}
2019-04-14 01:47:33.91: SIM {TimeUS : 63334656, Roll : 0.17, Pitch : -17.77, Yaw : 55.16, Alt : 49.3300018311, Lat : 49.2837322, Lng : -123.1146594, Q1 : 0.875587821007, Q2 : 0.0728621333838, Q3 : -0.136272236705, Q4 : 0.457675695419}
2019-04-14 01:47:34.01: SIM {TimeUS : 63434616, Roll : 0.16, Pitch : -17.77, Yaw : 55.16, Alt : 49.3300018311, Lat : 49.2837346, Lng : -123.1146539, Q1 : 0.875619053841, Q2 : 0.0727604776621, Q3 : -0.136304199696, Q4 : 0.457622557878}
2019-04-14 01:47:34.11: SIM {TimeUS : 63534576, Roll : 0.14, Pitch : -17.79, Yaw : 55.15, Alt : 49.3300018311, Lat : 49.283737, Lng : -123.1146486, Q1 : 0.875630378723, Q2 : 0.0727338790894, Q3 : -0.136499628425, Q4 : 0.45754685998}
2019-04-14 01:47:34.21: SIM {TimeUS : 63634536, Roll : 0.14, Pitch : -17.81, Yaw : 55.14, Alt : 49.3300018311, Lat : 49.2837394, Lng : -123.1146432, Q1 : 0.875635683537, Q2 : 0.0727879628539, Q3 : -0.13669089973, Q4 : 0.457470953465}
2019-04-14 01:47:34.31: SIM {TimeUS : 63734496, Roll : 0.13, Pitch : -17.85, Yaw : 55.13, Alt : 49.3300018311, Lat : 49.2837418, Lng : -123.1146378, Q1 : 0.875630795956, Q2 : 0.0728626996279, Q3 : -0.137024492025, Q4 : 0.457368552685}
2019-04-14 01:47:34.41: SIM {TimeUS : 63834456, Roll : 0.13, Pitch : -17.9, Yaw : 55.12, Alt : 49.3300018311, Lat : 49.2837442, Lng : -123.1146324, Q1 : 0.875614702702, Q2 : 0.0730044543743, Q3 : -0.137435942888, Q4 : 0.457253307104}
2019-04-14 01:47:34.51: SIM {TimeUS : 63934416, Roll : 0.13, Pitch : -17.94, Yaw : 55.11, Alt : 49.3300018311, Lat : 49.2837466, Lng : -123.114627, Q1 : 0.87561404705, Q2 : 0.0731664448977, Q3 : -0.137701436877, Q4 : 0.457148790359}
2019-04-14 01:47:34.61: SIM {TimeUS : 64034376, Roll : 0.12, Pitch : -17.96, Yaw : 55.1, Alt : 49.3300018311, Lat : 49.283749, Lng : -123.1146216, Q1 : 0.875636577606, Q2 : 0.0732235088944, Q3 : -0.137946233153, Q4 : 0.457022726536}
2019-04-14 01:47:34.71: SIM {TimeUS : 64134336, Roll : 0.12, Pitch : -17.98, Yaw : 55.08, Alt : 49.3300018311, Lat : 49.2837515, Lng : -123.1146162, Q1 : 0.875673532486, Q2 : 0.0732633545995, Q3 : -0.138089478016, Q4 : 0.456902265549}
2019-04-14 01:47:34.81: SIM {TimeUS : 64234296, Roll : 0.14, Pitch : -17.97, Yaw : 55.07, Alt : 49.3300018311, Lat : 49.2837539, Lng : -123.1146108, Q1 : 0.875732660294, Q2 : 0.073359593749, Q3 : -0.137960359454, Q4 : 0.456812471151}
2019-04-14 01:47:34.91: SIM {TimeUS : 64334256, Roll : 0.17, Pitch : -17.98, Yaw : 55.05, Alt : 49.3300018311, Lat : 49.2837563, Lng : -123.1146053, Q1 : 0.875776410103, Q2 : 0.0735716447234, Q3 : -0.137869954109, Q4 : 0.456721693277}
2019-04-14 01:47:35.01: SIM {TimeUS : 64434216, Roll : 0.19, Pitch : -17.99, Yaw : 55.04, Alt : 49.3300018311, Lat : 49.2837588, Lng : -123.1145998, Q1 : 0.875807642937, Q2 : 0.0737589374185, Q3 : -0.137904837728, Q4 : 0.456621170044}
2019-04-14 01:47:35.11: SIM {TimeUS : 64534176, Roll : 0.21, Pitch : -18.0, Yaw : 55.02, Alt : 49.3400001526, Lat : 49.2837612, Lng : -123.1145944, Q1 : 0.875836133957, Q2 : 0.0738964602351, Q3 : -0.137912482023, Q4 : 0.456542044878}
2019-04-14 01:47:35.21: SIM {TimeUS : 64634136, Roll : 0.22, Pitch : -17.99, Yaw : 55.01, Alt : 49.3400001526, Lat : 49.2837636, Lng : -123.114589, Q1 : 0.875874221325, Q2 : 0.0739455372095, Q3 : -0.137860804796, Q4 : 0.456476539373}
2019-04-14 01:47:35.31: SIM {TimeUS : 64734096, Roll : 0.22, Pitch : -17.99, Yaw : 55.01, Alt : 49.3400001526, Lat : 49.2837661, Lng : -123.1145835, Q1 : 0.875910460949, Q2 : 0.0739371329546, Q3 : -0.137855216861, Q4 : 0.45641002059}
2019-04-14 01:47:35.41: SIM {TimeUS : 64834056, Roll : 0.19, Pitch : -18.01, Yaw : 55.0, Alt : 49.3400001526, Lat : 49.2837685, Lng : -123.114578, Q1 : 0.875938892365, Q2 : 0.0738067477942, Q3 : -0.138056755066, Q4 : 0.456315726042}
2019-04-14 01:47:35.52: SIM {TimeUS : 64934849, Roll : 0.16, Pitch : -18.04, Yaw : 54.99, Alt : 49.3400001526, Lat : 49.2837709, Lng : -123.1145725, Q1 : 0.875945150852, Q2 : 0.0736912786961, Q3 : -0.138422340155, Q4 : 0.456211596727}
2019-04-14 01:47:35.61: SIM {TimeUS : 65034809, Roll : 0.15, Pitch : -18.04, Yaw : 54.99, Alt : 49.3400001526, Lat : 49.2837734, Lng : -123.114567, Q1 : 0.875975906849, Q2 : 0.0735559016466, Q3 : -0.138493850827, Q4 : 0.456152617931}
2019-04-14 01:47:35.71: SIM {TimeUS : 65134769, Roll : 0.15, Pitch : -18.02, Yaw : 54.98, Alt : 49.3400001526, Lat : 49.2837758, Lng : -123.1145615, Q1 : 0.87601852417, Q2 : 0.0735189169645, Q3 : -0.138307705522, Q4 : 0.456133246422}
2019-04-14 01:47:35.81: SIM {TimeUS : 65234729, Roll : 0.17, Pitch : -18.0, Yaw : 54.98, Alt : 49.3400001526, Lat : 49.2837783, Lng : -123.1145561, Q1 : 0.876048445702, Q2 : 0.0735765397549, Q3 : -0.138140872121, Q4 : 0.456117004156}
2019-04-14 01:47:35.91: SIM {TimeUS : 65334689, Roll : 0.18, Pitch : -18.01, Yaw : 54.97, Alt : 49.3400001526, Lat : 49.2837807, Lng : -123.1145506, Q1 : 0.876061499119, Q2 : 0.073669038713, Q3 : -0.138193488121, Q4 : 0.456061094999}
2019-04-14 01:47:36.01: SIM {TimeUS : 65434649, Roll : 0.17, Pitch : -18.04, Yaw : 54.96, Alt : 49.3400001526, Lat : 49.2837832, Lng : -123.1145451, Q1 : 0.876074194908, Q2 : 0.0736588686705, Q3 : -0.138418331742, Q4 : 0.455970108509}
2019-04-14 01:47:36.11: SIM {TimeUS : 65534609, Roll : 0.14, Pitch : -18.06, Yaw : 54.95, Alt : 49.3400001526, Lat : 49.2837856, Lng : -123.1145396, Q1 : 0.876087069511, Q2 : 0.0735833719373, Q3 : -0.138735502958, Q4 : 0.455861240625}
2019-04-14 01:47:36.21: SIM {TimeUS : 65634569, Roll : 0.13, Pitch : -18.09, Yaw : 54.94, Alt : 49.3400001526, Lat : 49.2837881, Lng : -123.1145341, Q1 : 0.876107215881, Q2 : 0.073562681675, Q3 : -0.138984188437, Q4 : 0.455750137568}
2019-04-14 01:47:36.31: SIM {TimeUS : 65734529, Roll : 0.13, Pitch : -18.11, Yaw : 54.93, Alt : 49.3400001526, Lat : 49.2837905, Lng : -123.1145285, Q1 : 0.876121580601, Q2 : 0.0736762806773, Q3 : -0.139153927565, Q4 : 0.455652266741}
2019-04-14 01:47:36.41: SIM {TimeUS : 65834489, Roll : 0.15, Pitch : -18.12, Yaw : 54.92, Alt : 49.3400001526, Lat : 49.283793, Lng : -123.114523, Q1 : 0.876143276691, Q2 : 0.073816254735, Q3 : -0.139198765159, Q4 : 0.455574214458}
