2019-04-14 02:12:20.10: SIM {TimeUS : 40716207, Roll : 0.0, Pitch : 0.0, Yaw : 0.0, Alt : 30.1000003815, Lat : 49.28357, Lng : -123.11502, Q1 : 1.0, Q2 : 0.0, Q3 : 0.0, Q4 : 0.0}
2019-04-14 02:12:20.21: SIM {TimeUS : 40835326, Roll : 0.0, Pitch : 0.0, Yaw : 0.0, Alt : 30.1000003815, Lat : 49.28357, Lng : -123.11502, Q1 : 1.0, Q2 : 0.0, Q3 : 0.0, Q4 : 0.0}
2019-04-14 02:12:20.31: SIM {TimeUS : 40935286, Roll : 0.0, Pitch : 0.0, Yaw : 0.0, Alt : 30.1000003815, Lat : 49.28357, Lng : -123.11502, Q1 : 1.0, Q2 : 0.0, Q3 : 0.0, Q4 : 0.0}
2019-04-14 02:12:20.41: SIM {TimeUS : 41035246, Roll : 0.0, Pitch : 0.0, Yaw : 0.0, Alt : 30.1000003815, Lat : 49.28357, Lng : -123.11502, Q1 : 1.0, Q2 : 0.0, Q3 : 0.0, Q4 : 0.0}
2019-04-14 02:12:20.51: SIM {TimeUS : 41135206, Roll : 0.0, Pitch : 0.0, Yaw : 0.0, Alt : 30.1000003815, Lat : 49.28357, Lng : -123.11502, Q1 : 1.0, Q2 : 0.0, Q3 : 0.0, Q4 : 0.0}
2019-04-14 02:12:20.61: SIM {TimeUS : 41235166, Roll : 0.0, Pitch : 0.0, Yaw : 0.0, Alt : 30.1000003815, Lat : 49.28357, Lng : -123.11502, Q1 : 1.0, Q2 : 0.0, Q3 : 0.0, Q4 : 0.0}
2019-04-14 02:12:20.71: SIM {TimeUS : 41335126, Roll : 0.0, Pitch : 0.0, Yaw : 0.0, Alt : 30.1000003815, Lat : 49.28357, Lng : -123.11502, Q1 : 1.0, Q2 : 0.0, Q3 : 0.0, Q4 : 0.0}
2019-04-14 02:12:20.81: SIM {TimeUS : 41435086, Roll : 0.0, Pitch : 0.0, Yaw : 0.0, Alt : 30.1000003815, Lat : 49.28357, Lng : -123.11502, Q1 : 1.0, Q2 : 0.0, Q3 : 0.0, Q4 : 0.0}
2019-04-14 02:12:20.91: SIM {TimeUS : 41535046, Roll : 0.0, Pitch : 0.0, Yaw : 0.0, Alt : 30.1000003815, Lat : 49.28357, Lng : -123.11502, Q1 : 1.0, Q2 : 0.0, Q3 : 0.0, Q4 : 0.0}
2019-04-14 02:12:21.01: SIM {TimeUS : 41635006, Roll : 0.0, Pitch : 0.0, Yaw : 0.0, Alt : 30.1000003815, Lat : 49.28357, Lng : -123.11502, Q1 : 1.0, Q2 : 0.0, Q3 : 0.0, Q4 : 0.0}
2019-04-14 02:12:21.11: SIM {TimeUS : 41734966, Roll : 0.0, Pitch : 0.0, Yaw : 0.0, Alt : 30.1000003815, Lat : 49.28357, Lng : -123.11502, Q1 : 1.0, Q2 : 0.0, Q3 : 0.0, Q4 : 0.0}
2019-04-14 02:12:21.21: SIM {TimeUS : 41834926, Roll : 0.0, Pitch : 0.0, Yaw : 0.0, Alt : 30.1000003815, Lat : 49.28357, Lng : -123.11502, Q1 : 1.0, Q2 : 0.0, Q3 : 0.0, Q4 : 0.0}
2019-04-14 02:12:21.31: SIM {TimeUS : 41934886, Roll : 0.0, Pitch : 0.0, Yaw : 0.0, Alt : 30.1000003815, Lat : 49.28357, Lng : -123.11502, Q1 : 1.0, Q2 : 0.0, Q3 : 0.0, Q4 : 0.0}
2019-04-14 02:12:21.41: SIM {TimeUS : 42034846, Roll : 0.0, Pitch : 0.0, Yaw : 0.0, Alt : 30.1000003815, Lat : 49.28357, Lng : -123.11502, Q1 : 1.0, Q2 : 0.0, Q3 : 0.0, Q4 : 0.0}
2019-04-14 02:12:21.51: SIM {TimeUS : 42134806, Roll : 0.0, Pitch : 0.0, Yaw : 0.0, Alt : 30.1000003815, Lat : 49.28357, Lng : -123.11502, Q1 : 1.0, Q2 : 0.0, Q3 : 0.0, Q4 : 0.0}
2019-04-14 02:12:21.61: SIM {TimeUS : 42234766, Roll : 0.0, Pitch : 0.0, Yaw : 0.0, Alt : 30.1000003815, Lat : 49.28357, Lng : -123.11502, Q1 : 1.0, Q2 : 0.0, Q3 : 0.0, Q4 : 0.0}
2019-04-14 02:12:21.71: SIM {TimeUS : 42334726, Roll : 0.0, Pitch : 0.0, Yaw : 0.0, Alt : 30.1000003815, Lat : 49.28357, Lng : -123.11502, Q1 : 1.0, Q2 : 0.0, Q3 : 0.0, Q4 : 0.0}
2019-04-14 02:12:21.81: SIM {TimeUS : 42434686, Roll : 0.0, Pitch : 0.0, Yaw : 0.0, Alt : 30.1000003815, Lat : 49.28357, Lng : -123.11502, Q1 : 1.0, Q2 : 0.0, Q3 : 0.0, Q4 : 0.0}
2019-04-14 02:12:21.91: SIM {TimeUS : 42534646, Roll : 0.0, Pitch : 0.0, Yaw : 0.0, Alt : 30.1000003815, Lat : 49.28357, Lng : -123.11502, Q1 : 1.0, Q2 : 0.0, Q3 : 0.0, Q4 : 0.0}
2019-04-14 02:12:22.01: SIM {TimeUS : 42634606, Roll : 0.0, Pitch : 0.0, Yaw : 0.0, Alt : 30.1000003815, Lat : 49.28357, Lng : -123.11502, Q1 : 1.0, Q2 : 0.0, Q3 : 0.0, Q4 : 0.0}
2019-04-14 02:12:22.11: SIM {TimeUS : 42734566, Roll : 0.0, Pitch : 0.0, Yaw : 0.0, Alt : 30.1000003815, Lat : 49.28357, Lng : -123.11502, Q1 : 1.0, Q2 : 0.0, Q3 : 0.0, Q4 : 0.0}
2019-04-14 02:12:22.22: SIM {TimeUS : 42835359, Roll : 0.0, Pitch : 0.0, Yaw : 0.0, Alt : 30.1000003815, Lat : 49.28357, Lng : -123.11502, Q1 : 1.0, Q2 : 0.0, Q3 : 0.0, Q4 : 0.0}
2019-04-14 02:12:22.31: SIM {TimeUS : 42935319, Roll : 0.0, Pitch : 0.0, Yaw : 0.0, Alt : 30.1000003815, Lat : 49.28357, Lng : -123.11502, Q1 : 1.0, Q2 : 0.0, Q3 : 0.0, Q4 : 0.0}
2019-04-14 02:12:22.41: SIM {TimeUS : 43035279, Roll : 0.0, Pitch : 0.0, Yaw : 360.0, Alt : 30.1000003815, Lat : 49.28357, Lng : -123.11502, Q1 : 1.0, Q2 : 0.0, Q3 : 0.0, Q4 : -1.2311567564e-11}
2019-04-14 02:12:22.51: SIM {TimeUS : 43135239, Roll : 0.0, Pitch : 0.0, Yaw : 0.0, Alt : 30.1000003815, Lat : 49.28357, Lng : -123.11502, Q1 : 1.0, Q2 : 0.0, Q3 : 0.0, Q4 : 5.47755590885e-12}
2019-04-14 02:12:22.61: SIM {TimeUS : 43235199, Roll : 0.0, Pitch : 0.0, Yaw : 360.0, Alt : 30.1000003815, Lat : 49.28357, Lng : -123.11502, Q1 : 1.0, Q2 : 0.0, Q3 : 0.0, Q4 : -1.04757809538e-07}
2019-04-14 02:12:22.71: SIM {TimeUS : 43335159, Roll : 0.0, Pitch : 0.0, Yaw : 359.99, Alt : 30.1000003815, Lat : 49.28357, Lng : -123.11502, Q1 : 1.0, Q2 : 0.0, Q3 : 0.0, Q4 : -2.57351928212e-07}
2019-04-14 02:12:22.81: SIM {TimeUS : 43435119, Roll : 0.0, Pitch : 0.0, Yaw : 359.99, Alt : 30.1000003815, Lat : 49.28357, Lng : -123.11502, Q1 : 1.0, Q2 : 0.0, Q3 : 0.0, Q4 : -4.63892291691e-07}
2019-04-14 02:12:22.91: SIM {TimeUS : 43535079, Roll : 0.0, Pitch : 0.0, Yaw : 359.99, Alt : 30.1000003815, Lat : 49.28357, Lng : -123.11502, Q1 : 1.0, Q2 : 0.0, Q3 : 0.0, Q4 : -6.28306167982e-07}
2019-04-14 02:12:23.01: SIM {TimeUS : 43635039, Roll : 0.0, Pitch : 0.0, Yaw : 359.99, Alt : 30.1000003815, Lat : 49.28357, Lng : -123.11502, Q1 : 1.0, Q2 : 0.0, Q3 : 0.0, Q4 : -7.9811110254e-07}
2019-04-14 02:12:23.11: SIM {TimeUS : 43734999, Roll : 0.0, Pitch : 0.0, Yaw : 359.99, Alt : 30.1000003815, Lat : 49.28357, Lng : -123.11502, Q1 : 1.0, Q2 : 0.0, Q3 : 0.0, Q4 : -9.54174424805e-07}
2019-04-14 02:12:23.21: SIM {TimeUS : 43834959, Roll : 0.0, Pitch : 0.0, Yaw : 359.99, Alt : 30.1000003815, Lat : 49.28357, Lng : -123.11502, Q1 : 1.0, Q2 : 0.0, Q3 : 0.0, Q4 : -1.14643285087e-06}
2019-04-14 02:12:23.31: SIM {TimeUS : 43934919, Roll : 0.0, Pitch : 0.0, Yaw : 359.99, Alt : 30.1100006104, Lat : 49.28357, Lng : -123.11502, Q1 : 1.0, Q2 : 0.0, Q3 : 0.0, Q4 : -1.33878188535e-06}
2019-04-14 02:12:23.41: SIM {TimeUS : 44034879, Roll : 0.0, Pitch : 0.0, Yaw : 359.99, Alt : 30.1399993896, Lat : 49.28357, Lng : -123.11502, Q1 : 1.0, Q2 : 0.0, Q3 : 0.0, Q4 : -1.53882172071e-06}
2019-04-14 02:12:23.51: SIM {TimeUS : 44134839, Roll : 0.0, Pitch : 0.0, Yaw : 359.99, Alt : 30.1700000763, Lat : 49.28357, Lng : -123.11502, Q1 : 1.0, Q2 : 0.0, Q3 : 0.0, Q4 : -1.83365784778e-06}
2019-04-14 02:12:23.61: SIM {TimeUS : 44234799, Roll : 0.0, Pitch : 0.0, Yaw : 359.99, Alt : 30.2000007629, Lat : 49.28357, Lng : -123.11502, Q1 : 1.0, Q2 : 0.0, Q3 : 0.0, Q4 : -2.06865524888e-06}
2019-04-14 02:12:23.71: SIM {TimeUS : 44334759, Roll : -0.09, Pitch : -0.08, Yaw : 359.99, Alt : 30.25, Lat : 49.28357, Lng : -123.11502, Q1 : 0.999999403954, Q2 : -0.000820909743197, Q3 : -0.000757985631935, Q4 : -8.39500353322e-06}
2019-04-14 02:12:23.81: SIM {TimeUS : 44434719, Roll : -0.36, Pitch : -0.35, Yaw : 359.99, Alt : 30.3400001526, Lat : 49.28357, Lng : -123.11502, Q1 : 0.999990224838, Q2 : -0.00315614580177, Q3 : -0.00309424707666, Q4 : -3.98629963456e-05}
2019-04-14 02:12:23.91: SIM {TimeUS : 44534679, Roll : -0.63, Pitch : -0.61, Yaw : 359.99, Alt : 30.4899997711, Lat : 49.28357, Lng : -123.11502, Q1 : 0.999970495701, Q2 : -0.00553742749617, Q3 : -0.00533151533455, Q4 : -9.72095585894e-05}
2019-04-14 02:12:24.01: SIM {TimeUS : 44634639, Roll : -0.8, Pitch : -0.74, Yaw : 359.98, Alt : 30.6499996185, Lat : 49.28357, Lng : -123.11502, Q1 : 0.99995392561, Q2 : -0.00705578876659, Q3 : -0.00650585303083, Q4 : -0.000173948399606}
2019-04-14 02:12:24.11: SIM {TimeUS : 44734599, Roll : -0.82, Pitch : -0.74, Yaw : 359.97, Alt : 30.7999992371, Lat : 49.28357, Lng : -123.11502, Q1 : 0.999952733517, Q2 : -0.00720917340368, Q3 : -0.00651808641851, Q4 : -0.000263470225036}
2019-04-14 02:12:24.21: SIM {TimeUS : 44834559, Roll : -0.7, Pitch : -0.63, Yaw : 359.96, Alt : 30.9599990845, Lat : 49.28357, Lng : -123.1150201, Q1 : 0.999966084957, Q2 : -0.00611985987052, Q3 : -0.00549875758588, Q4 : -0.000351028080331}
2019-04-14 02:12:24.32: SIM {TimeUS : 44935352, Roll : -0.48, Pitch : -0.43, Yaw : 359.95, Alt : 31.1100006104, Lat : 49.2835701, Lng : -123.1150202, Q1 : 0.999983489513, Q2 : -0.00426681200042, Q3 : -0.00383228529245, Q4 : -0.000427065766416}
2019-04-14 02:12:24.41: SIM {TimeUS : 45035312, Roll : -0.25, Pitch : -0.24, Yaw : 359.94, Alt : 31.2700004578, Lat : 49.2835701, Lng : -123.1150202, Q1 : 0.999995231628, Q2 : -0.00219273706898, Q3 : -0.00211199349724, Q4 : -0.000484397925902}
2019-04-14 02:12:24.51: SIM {TimeUS : 45135272, Roll : -0.05, Pitch : -0.08, Yaw : 359.94, Alt : 31.4400005341, Lat : 49.2835702, Lng : -123.1150203, Q1 : 0.999999523163, Q2 : -0.000439570489107, Q3 : -0.000706703518517, Q4 : -0.000523782684468}
2019-04-14 02:12:24.61: SIM {TimeUS : 45235232, Roll : 0.06, Pitch : 0.03, Yaw : 359.93, Alt : 31.6100006104, Lat : 49.2835702, Lng : -123.1150204, Q1 : 0.999999642372, Q2 : 0.000606973131653, Q3 : 0.000282406137558, Q4 : -0.000546007358935}
2019-04-14 02:12:24.71: SIM {TimeUS : 45335192, Roll : 0.1, Pitch : 0.09, Yaw : 359.93, Alt : 31.7900009155, Lat : 49.2835703, Lng : -123.1150205, Q1 : 0.99999910593, Q2 : 0.000877572398167, Q3 : 0.000842151755933, Q4 : -0.000542498542927}
2019-04-14 02:12:24.81: SIM {TimeUS : 45435152, Roll : 0.07, Pitch : 0.11, Yaw : 359.93, Alt : 31.9699993134, Lat : 49.2835703, Lng : -123.1150205, Q1 : 0.99999910593, Q2 : 0.00067619769834, Q3 : 0.000998610048555, Q4 : -0.00052599288756}
2019-04-14 02:12:24.91: SIM {TimeUS : 45535112, Roll : 0.06, Pitch : 0.11, Yaw : 359.94, Alt : 32.1599998474, Lat : 49.2835703, Lng : -123.1150206, Q1 : 0.999999165535, Q2 : 0.000580227584578, Q3 : 0.00102267507464, Q4 : -0.000492650782689}
2019-04-14 02:12:25.01: SIM {TimeUS : 45635072, Roll : 0.06, Pitch : 0.11, Yaw : 359.94, Alt : 32.3499984741, Lat : 49.2835703, Lng : -123.1150206, Q1 : 0.999999165535, Q2 : 0.000602919317316, Q3 : 0.00101919088047, Q4 : -0.00046409261995}
2019-04-14 02:12:25.11: SIM {TimeUS : 45735032, Roll : 0.08, Pitch : 0.12, Yaw : 359.94, Alt : 32.5400009155, Lat : 49.2835703, Lng : -123.1150207, Q1 : 0.99999910593, Q2 : 0.000714806665201, Q3 : 0.00104947923683, Q4 : -0.000444490258815}
2019-04-14 02:12:25.21: SIM {TimeUS : 45834992, Roll : 0.09, Pitch : 0.13, Yaw : 359.95, Alt : 32.7299995422, Lat : 49.2835703, Lng : -123.1150207, Q1 : 0.999998807907, Q2 : 0.000836565217469, Q3 : 0.00119791948237, Q4 : -0.000434269837569}
2019-04-14 02:12:25.31: SIM {TimeUS : 45934952, Roll : 0.11, Pitch : 0.14, Yaw : 359.95, Alt : 32.9300003052, Lat : 49.2835704, Lng : -123.1150207, Q1 : 0.999998629093, Q2 : 0.00101026031189, Q3 : 0.0012453829404, Q4 : -0.000426868326031}
2019-04-14 02:12:25.41: SIM {TimeUS : 46034912, Roll : 0.13, Pitch : 0.14, Yaw : 359.95, Alt : 33.1300010681, Lat : 49.2835704, Lng : -123.1150208, Q1 : 0.999998450279, Q2 : 0.00115740124602, Q3 : 0.001221417333, Q4 : -0.000422570243245}
2019-04-14 02:12:25.51: SIM {TimeUS : 46134872, Roll : 0.14, Pitch : 0.13, Yaw : 359.95, Alt : 33.3400001526, Lat : 49.2835704, Lng : -123.1150208, Q1 : 0.999998390675, Q2 : 0.00127158639953, Q3 : 0.00121090223547, Q4 : -0.000421103322878}
2019-04-14 02:12:25.61: SIM {TimeUS : 46234832, Roll : 0.15, Pitch : 0.14, Yaw : 359.95, Alt : 33.5400009155, Lat : 49.2835704, Lng : -123.1150208, Q1 : 0.999998271465, Q2 : 0.00132385222241, Q3 : 0.00123225327116, Q4 : -0.000424408091931}
2019-04-14 02:12:25.71: SIM {TimeUS : 46334792, Roll : 0.16, Pitch : 0.14, Yaw : 359.95, Alt : 33.75, Lat : 49.2835704, Lng : -123.1150208, Q1 : 0.999998092651, Q2 : 0.00141138222534, Q3 : 0.00126266956795, Q4 : -0.000434215180576}
2019-04-14 02:12:25.81: SIM {TimeUS : 46434752, Roll : 0.16, Pitch : 0.13, Yaw : 359.94, Alt : 33.9599990845, Lat : 49.2835704, Lng : -123.1150208, Q1 : 0.999998211861, Q2 : 0.00140804320108, Q3 : 0.00117917486932, Q4 : -0.00044497041381}
2019-04-14 02:12:25.91: SIM {TimeUS : 46534712, Roll : 0.14, Pitch : 0.12, Yaw : 359.94, Alt : 34.1699981689, Lat : 49.2835704, Lng : -123.1150208, Q1 : 0.999998509884, Q2 : 0.00130206963513, Q3 : 0.0010491424473, Q4 : -0.000456887588371}
2019-04-14 02:12:26.01: SIM {TimeUS : 46634672, Roll : 0.13, Pitch : 0.11, Yaw : 359.94, Alt : 34.3800010681, Lat : 49.2835704, Lng : -123.1150208, Q1 : 0.999998748302, Q2 : 0.00114343129098, Q3 : 0.00096857821336, Q4 : -0.000474928936455}
2019-04-14 02:12:26.11: SIM {TimeUS : 46734632, Roll : 0.1, Pitch : 0.1, Yaw : 359.94, Alt : 34.5900001526, Lat : 49.2835704, Lng : -123.1150208, Q1 : 0.999999046326, Q2 : 0.000923231884371, Q3 : 0.000902361876797, Q4 : -0.000501645146869}
2019-04-14 02:12:26.21: SIM {TimeUS : 46834592, Roll : 0.08, Pitch : 0.06, Yaw : 359.93, Alt : 34.8100013733, Lat : 49.2835704, Lng : -123.1150208, Q1 : 0.999999403954, Q2 : 0.000784520874731, Q3 : 0.000603104475886, Q4 : -0.00053315499099}
2019-04-14 02:12:26.31: SIM {TimeUS : 46934552, Roll : 0.07, Pitch : 0.03, Yaw : 359.93, Alt : 35.0200004578, Lat : 49.2835704, Lng : -123.1150208, Q1 : 0.999999523163, Q2 : 0.000671513960697, Q3 : 0.000327120447764, Q4 : -0.000568857009057}
2019-04-14 02:12:26.42: SIM {TimeUS : 47035345, Roll : 0.04, Pitch : 0.01, Yaw : 359.93, Alt : 35.2400016785, Lat : 49.2835704, Lng : -123.1150208, Q1 : 0.999999701977, Q2 : 0.000431569962529, Q3 : 0.000155570844072, Q4 : -0.000608037633356}
2019-04-14 02:12:26.51: SIM {TimeUS : 47135305, Roll : 0.03, Pitch : 0.01, Yaw : 359.92, Alt : 35.4599990845, Lat : 49.2835704, Lng : -123.1150208, Q1 : 0.999999761581, Q2 : 0.000265923037659, Q3 : 0.000116269839054, Q4 : -0.000644191459287}
2019-04-14 02:12:26.61: SIM {TimeUS : 47235265, Roll : 0.02, Pitch : 0.01, Yaw : 359.92, Alt : 35.6800003052, Lat : 49.2835704, Lng : -123.1150207, Q1 : 0.999999761581, Q2 : 0.000220879359404, Q3 : 0.000115485650895, Q4 : -0.000677861215081}
2019-04-14 02:12:26.71: SIM {TimeUS : 47335225, Roll : 0.0, Pitch : 0.0, Yaw : 359.91, Alt : 35.9000015259, Lat : 49.2835704, Lng : -123.1150207, Q1 : 0.999999761581, Q2 : 3.0923387385e-05, Q3 : -8.64572575665e-05, Q4 : -0.000707787286956}
2019-04-14 02:12:26.81: SIM {TimeUS : 47435185, Roll : -0.03, Pitch : -0.04, Yaw : 359.91, Alt : 36.1199989319, Lat : 49.2835704, Lng : -123.1150207, Q1 : 0.999999582767, Q2 : -0.000274055753835, Q3 : -0.000415919203078, Q4 : -0.000734999077395}
2019-04-14 02:12:26.91: SIM {TimeUS : 47535145, Roll : -0.06, Pitch : -0.06, Yaw : 359.91, Alt : 36.3400001526, Lat : 49.2835704, Lng : -123.1150207, Q1 : 0.999999403954, Q2 : -0.000573693774641, Q3 : -0.0005955043016, Q4 : -0.000761368195526}
2019-04-14 02:12:27.01: SIM {TimeUS : 47635105, Roll : -0.09, Pitch : -0.07, Yaw : 359.91, Alt : 36.5600013733, Lat : 49.2835704, Lng : -123.1150207, Q1 : 0.99999910593, Q2 : -0.000839323038235, Q3 : -0.000693785783369, Q4 : -0.000784889678471}
2019-04-14 02:12:27.11: SIM {TimeUS : 47735065, Roll : -0.09, Pitch : -0.07, Yaw : 359.9, Alt : 36.7799987793, Lat : 49.2835704, Lng : -123.1150207, Q1 : 0.99999910593, Q2 : -0.000833952450193, Q3 : -0.000659724697471, Q4 : -0.00079995818669}
2019-04-14 02:12:27.21: SIM {TimeUS : 47835025, Roll : -0.08, Pitch : -0.06, Yaw : 359.9, Alt : 37.0099983215, Lat : 49.2835704, Lng : -123.1150207, Q1 : 0.99999922514, Q2 : -0.000745118246414, Q3 : -0.00055685749976, Q4 : -0.000811204256024}
2019-04-14 02:12:27.31: SIM {TimeUS : 47934985, Roll : -0.07, Pitch : -0.04, Yaw : 359.9, Alt : 37.2299995422, Lat : 49.2835704, Lng : -123.1150207, Q1 : 0.999999403954, Q2 : -0.000628272187896, Q3 : -0.000397092138883, Q4 : -0.000828950665891}
2019-04-14 02:12:27.41: SIM {TimeUS : 48034945, Roll : -0.05, Pitch : -0.03, Yaw : 359.9, Alt : 37.4599990845, Lat : 49.2835704, Lng : -123.1150207, Q1 : 0.999999463558, Q2 : -0.000491410610266, Q3 : -0.000308635528199, Q4 : -0.000842632725835}
2019-04-14 02:12:27.51: SIM {TimeUS : 48134905, Roll : -0.06, Pitch : -0.04, Yaw : 359.9, Alt : 37.6800003052, Lat : 49.2835704, Lng : -123.1150206, Q1 : 0.999999403954, Q2 : -0.000553002231754, Q3 : -0.000361457525287, Q4 : -0.000849127594847}
2019-04-14 02:12:27.61: SIM {TimeUS : 48234865, Roll : -0.07, Pitch : -0.03, Yaw : 359.9, Alt : 37.9099998474, Lat : 49.2835704, Lng : -123.1150206, Q1 : 0.999999403954, Q2 : -0.000688358210027, Q3 : -0.000287561153527, Q4 : -0.000852012250107}
2019-04-14 02:12:27.71: SIM {TimeUS : 48334825, Roll : -0.1, Pitch : -0.01, Yaw : 359.9, Alt : 38.1399993896, Lat : 49.2835704, Lng : -123.1150206, Q1 : 0.99999922514, Q2 : -0.000903021427803, Q3 : -0.000164412500453, Q4 : -0.000857250182889}
2019-04-14 02:12:27.81: SIM {TimeUS : 48434785, Roll : -0.1, Pitch : 0.0, Yaw : 359.9, Alt : 38.3600006104, Lat : 49.2835704, Lng : -123.1150206, Q1 : 0.999999165535, Q2 : -0.000943922670558, Q3 : -3.53167088178e-05, Q4 : -0.000858240528032}
2019-04-14 02:12:27.91: SIM {TimeUS : 48534745, Roll : -0.08, Pitch : 0.02, Yaw : 359.9, Alt : 38.5900001526, Lat : 49.2835704, Lng : -123.1150206, Q1 : 0.999999344349, Q2 : -0.000731139443815, Q3 : 0.000215698615648, Q4 : -0.00086497241864}
2019-04-14 02:12:28.01: SIM {TimeUS : 48634705, Roll : -0.05, Pitch : 0.02, Yaw : 359.89, Alt : 38.8199996948, Lat : 49.2835704, Lng : -123.1150207, Q1 : 0.999999463558, Q2 : -0.000464485056, Q3 : 0.000207613426028, Q4 : -0.000881617306732}
2019-04-14 02:12:28.11: SIM {TimeUS : 48734665, Roll : -0.01, Pitch : 0.01, Yaw : 359.89, Alt : 39.0499992371, Lat : 49.2835704, Lng : -123.1150207, Q1 : 0.999999582767, Q2 : -0.0001550304587, Q3 : 0.000159580769832, Q4 : -0.000900910818018}
2019-04-14 02:12:28.21: SIM {TimeUS : 48834625, Roll : 0.01, Pitch : 0.03, Yaw : 359.89, Alt : 39.2799987793, Lat : 49.2835706, Lng : -123.1150207, Q1 : 0.999999523163, Q2 : 0.000155828878633, Q3 : 0.000313948636176, Q4 : -0.000919063691981}
2019-04-14 02:12:28.31: SIM {TimeUS : 48934585, Roll : 0.05, Pitch : 0.06, Yaw : 359.89, Alt : 39.5099983215, Lat : 49.2835706, Lng : -123.1150207, Q1 : 0.99999922514, Q2 : 0.000463314296212, Q3 : 0.000588328985032, Q4 : -0.000947519845795}
2019-04-14 02:12:28.41: SIM {TimeUS : 49034545, Roll : 0.07, Pitch : 0.09, Yaw : 359.88, Alt : 39.7400016785, Lat : 49.2835706, Lng : -123.1150207, Q1 : 0.999998927116, Q2 : 0.000678329786751, Q3 : 0.000836528546643, Q4 : -0.00098314776551}
2019-04-14 02:12:28.52: SIM {TimeUS : 49135338, Roll : 0.06, Pitch : 0.12, Yaw : 359.88, Alt : 39.9700012207, Lat : 49.2835706, Lng : -123.1150207, Q1 : 0.999998748302, Q2 : 0.000557124847546, Q3 : 0.00105054269079, Q4 : -0.00101167627145}
2019-04-14 02:12:28.61: SIM {TimeUS : 49235298, Roll : 0.01, Pitch : 0.13, Yaw : 359.87, Alt : 40.2000007629, Lat : 49.2835706, Lng : -123.1150207, Q1 : 0.999998688698, Q2 : 0.000139668234624, Q3 : 0.0012200740166, Q4 : -0.00105784437619}
2019-04-14 02:12:28.71: SIM {TimeUS : 49335258, Roll : -0.02, Pitch : 0.14, Yaw : 359.87, Alt : 40.4399986267, Lat : 49.2835706, Lng : -123.1150207, Q1 : 0.999998569489, Q2 : -0.000191029132111, Q3 : 0.00126303243451, Q4 : -0.00109962327406}
2019-04-14 02:12:28.81: SIM {TimeUS : 49435218, Roll : -0.04, Pitch : 0.12, Yaw : 359.87, Alt : 40.6699981689, Lat : 49.2835706, Lng : -123.1150207, Q1 : 0.999998688698, Q2 : -0.000352367176674, Q3 : 0.00110714603215, Q4 : -0.00113094516564}
2019-04-14 02:12:28.91: SIM {TimeUS : 49535178, Roll : -0.04, Pitch : 0.11, Yaw : 359.86, Alt : 40.9000015259, Lat : 49.2835706, Lng : -123.1150207, Q1 : 0.999998748302, Q2 : -0.000387535372283, Q3 : 0.00100010575261, Q4 : -0.0011582702864}
2019-04-14 02:12:29.01: SIM {TimeUS : 49635138, Roll : -0.03, Pitch : 0.12, Yaw : 359.86, Alt : 41.1300010681, Lat : 49.2835706, Lng : -123.1150207, Q1 : 0.999998688698, Q2 : -0.000272852514172, Q3 : 0.0010859738104, Q4 : -0.0011887679575}
2019-04-14 02:12:29.11: SIM {TimeUS : 49735098, Roll : 0.0, Pitch : 0.15, Yaw : 359.85, Alt : 41.3699989319, Lat : 49.2835706, Lng : -123.1150207, Q1 : 0.999998390675, Q2 : 8.65572365001e-05, Q3 : 0.00131974031683, Q4 : -0.0012265132973}
2019-04-14 02:12:29.21: SIM {TimeUS : 49835058, Roll : 0.06, Pitch : 0.16, Yaw : 359.85, Alt : 41.5999984741, Lat : 49.2835706, Lng : -123.1150207, Q1 : 0.999997973442, Q2 : 0.000540933629964, Q3 : 0.00145682774018, Q4 : -0.00126516981982}
2019-04-14 02:12:29.31: SIM {TimeUS : 49935018, Roll : 0.09, Pitch : 0.13, Yaw : 359.85, Alt : 41.8300018311, Lat : 49.2835706, Lng : -123.1150207, Q1 : 0.999998092651, Q2 : 0.000869617972057, Q3 : 0.00119600852486, Q4 : -0.00129979907069}
2019-04-14 02:12:29.41: SIM {TimeUS : 50034978, Roll : 0.1, Pitch : 0.08, Yaw : 359.84, Alt : 42.0699996948, Lat : 49.2835706, Lng : -123.1150207, Q1 : 0.999998450279, Q2 : 0.000883404514752, Q3 : 0.00076176848961, Q4 : -0.00132699869573}
2019-04-14 02:12:29.51: SIM {TimeUS : 50134938, Roll : 0.06, Pitch : 0.05, Yaw : 359.84, Alt : 42.2999992371, Lat : 49.2835706, Lng : -123.1150207, Q1 : 0.999998807907, Q2 : 0.000549038464669, Q3 : 0.000474699801998, Q4 : -0.00134596426506}
2019-04-14 02:12:29.61: SIM {TimeUS : 50234898, Roll : 0.0, Pitch : 0.04, Yaw : 359.84, Alt : 42.5400009155, Lat : 49.2835706, Lng : -123.1150207, Q1 : 0.999998986721, Q2 : 7.03878467903e-05, Q3 : 0.000374271970941, Q4 : -0.00135921267793}
2019-04-14 02:12:29.71: SIM {TimeUS : 50334858, Roll : -0.02, Pitch : 0.06, Yaw : 359.84, Alt : 42.7700004578, Lat : 49.2835704, Lng : -123.1150207, Q1 : 0.999998867512, Q2 : -0.000251626741374, Q3 : 0.000555698294193, Q4 : -0.00136760668829}
2019-04-14 02:12:29.81: SIM {TimeUS : 50434818, Roll : -0.04, Pitch : 0.07, Yaw : 359.84, Alt : 43.0099983215, Lat : 49.2835704, Lng : -123.1150207, Q1 : 0.999998748302, Q2 : -0.000400939054089, Q3 : 0.000690219225362, Q4 : -0.00137514306698}
2019-04-14 02:12:29.91: SIM {TimeUS : 50534778, Roll : -0.04, Pitch : 0.07, Yaw : 359.84, Alt : 43.2400016785, Lat : 49.2835704, Lng : -123.1150207, Q1 : 0.999998807907, Q2 : -0.000361338927178, Q3 : 0.000640463724267, Q4 : -0.00138347013853}
2019-04-14 02:12:30.01: SIM {TimeUS : 50634738, Roll : -0.04, Pitch : 0.06, Yaw : 359.83, Alt : 43.4799995422, Lat : 49.2835704, Lng : -123.1150207, Q1 : 0.999998748302, Q2 : -0.000401745492127, Q3 : 0.000569877622183, Q4 : -0.00140165386256}
2019-04-14 02:12:30.11: SIM {TimeUS : 50734698, Roll : -0.04, Pitch : 0.05, Yaw : 359.83, Alt : 43.7099990845, Lat : 49.2835704, Lng : -123.1150207, Q1 : 0.999998807907, Q2 : -0.000388939253753, Q3 : 0.000464769633254, Q4 : -0.00142107403371}
2019-04-14 02:12:30.21: SIM {TimeUS : 50834658, Roll : -0.03, Pitch : 0.04, Yaw : 359.83, Alt : 43.9500007629, Lat : 49.2835704, Lng : -123.1150207, Q1 : 0.999998867512, Q2 : -0.000268207571935, Q3 : 0.000389724242268, Q4 : -0.00144187430851}
2019-04-14 02:12:30.31: SIM {TimeUS : 50934618, Roll : -0.02, Pitch : 0.04, Yaw : 359.83, Alt : 44.1800003052, Lat : 49.2835704, Lng : -123.1150207, Q1 : 0.999998867512, Q2 : -0.000178066678927, Q3 : 0.000349939102307, Q4 : -0.00146653642878}
2019-04-14 02:12:30.41: SIM {TimeUS : 51034578, Roll : -0.02, Pitch : 0.01, Yaw : 359.82, Alt : 44.4199981689, Lat : 49.2835704, Lng : -123.1150206, Q1 : 0.999998867512, Q2 : -0.00020918615337, Q3 : 0.00014355154417, Q4 : -0.00149198260624}
2019-04-14 02:12:30.51: SIM {TimeUS : 51134538, Roll : -0.02, Pitch : -0.02, Yaw : 359.82, Alt : 44.6599998474, Lat : 49.2835704, Lng : -123.1150206, Q1 : 0.999998807907, Q2 : -0.000260195985902, Q3 : -0.000186564269825, Q4 : -0.00151486322284}
2019-04-14 02:12:30.61: SIM {TimeUS : 51235331, Roll : -0.03, Pitch : -0.04, Yaw : 359.82, Alt : 44.8899993896, Lat : 49.2835704, Lng : -123.1150206, Q1 : 0.999998688698, Q2 : -0.000275737256743, Q3 : -0.000394470320316, Q4 : -0.00154073408339}
2019-04-14 02:12:30.71: SIM {TimeUS : 51335291, Roll : -0.02, Pitch : -0.05, Yaw : 359.82, Alt : 45.1300010681, Lat : 49.2835703, Lng : -123.1150206, Q1 : 0.999998629093, Q2 : -0.000210903977859, Q3 : -0.000484863470774, Q4 : -0.00156601367053}
2019-04-14 02:12:30.81: SIM {TimeUS : 51435251, Roll : -0.02, Pitch : -0.05, Yaw : 359.81, Alt : 45.3699989319, Lat : 49.2835703, Lng : -123.1150206, Q1 : 0.999998629093, Q2 : -0.000212003171328, Q3 : -0.000475177017506, Q4 : -0.00159040850122}
2019-04-14 02:12:30.91: SIM {TimeUS : 51535211, Roll : -0.04, Pitch : -0.04, Yaw : 359.81, Alt : 45.5999984741, Lat : 49.2835703, Lng : -123.1150206, Q1 : 0.999998569489, Q2 : -0.000391149864299, Q3 : -0.000348502944689, Q4 : -0.00161802000366}
2019-04-14 02:12:31.01: SIM {TimeUS : 51635171, Roll : -0.07, Pitch : -0.02, Yaw : 359.81, Alt : 45.8300018311, Lat : 49.2835703, Lng : -123.1150206, Q1 : 0.999998390675, Q2 : -0.000682823127136, Q3 : -0.000255953142187, Q4 : -0.00164993281942}
2019-04-14 02:12:31.11: SIM {TimeUS : 51735131, Roll : -0.1, Pitch : -0.02, Yaw : 359.8, Alt : 46.0600013733, Lat : 49.2835703, Lng : -123.1150206, Q1 : 0.999998152256, Q2 : -0.000902403437067, Q3 : -0.000223724593525, Q4 : -0.00168528489303}
2019-04-14 02:12:31.21: SIM {TimeUS : 51835091, Roll : -0.1, Pitch : -0.01, Yaw : 359.8, Alt : 46.2900009155, Lat : 49.2835703, Lng : -123.1150206, Q1 : 0.999998092651, Q2 : -0.000956272648182, Q3 : -0.000119945332699, Q4 : -0.0017204193864}
2019-04-14 02:12:31.31: SIM {TimeUS : 51935051, Roll : -0.09, Pitch : 0.0, Yaw : 359.79, Alt : 46.5200004578, Lat : 49.2835703, Lng : -123.1150206, Q1 : 0.999998092651, Q2 : -0.000847520306706, Q3 : 7.66994489823e-05, Q4 : -0.00175012415275}
2019-04-14 02:12:31.41: SIM {TimeUS : 52035011, Roll : -0.07, Pitch : 0.01, Yaw : 359.79, Alt : 46.7299995422, Lat : 49.2835703, Lng : -123.1150206, Q1 : 0.999998211861, Q2 : -0.000660507357679, Q3 : 0.000168849466718, Q4 : -0.00177468266338}
2019-04-14 02:12:31.51: SIM {TimeUS : 52134971, Roll : -0.05, Pitch : 0.01, Yaw : 359.79, Alt : 46.9500007629, Lat : 49.2835703, Lng : -123.1150206, Q1 : 0.999998271465, Q2 : -0.00051826791605, Q3 : 0.000124977756059, Q4 : -0.00179721147288}
2019-04-14 02:12:31.61: SIM {TimeUS : 52234931, Roll : -0.05, Pitch : 0.0, Yaw : 359.79, Alt : 47.1500015259, Lat : 49.2835703, Lng : -123.1150206, Q1 : 0.999998271465, Q2 : -0.000447783531854, Q3 : -2.10844937101e-05, Q4 : -0.00181494152639}
2019-04-14 02:12:31.71: SIM {TimeUS : 52334891, Roll : -0.03, Pitch : -0.02, Yaw : 359.78, Alt : 47.3499984741, Lat : 49.2835703, Lng : -123.1150206, Q1 : 0.999998271465, Q2 : -0.000312173360726, Q3 : -0.000260013708612, Q4 : -0.00183304783422}
2019-04-14 02:12:31.81: SIM {TimeUS : 52434851, Roll : -0.01, Pitch : -0.05, Yaw : 359.78, Alt : 47.5400009155, Lat : 49.2835703, Lng : -123.1150206, Q1 : 0.999998152256, Q2 : -0.000133475128678, Q3 : -0.000479603651911, Q4 : -0.00185319734737}
2019-04-14 02:12:31.91: SIM {TimeUS : 52534811, Roll : -0.01, Pitch : -0.09, Yaw : 359.78, Alt : 47.7200012207, Lat : 49.2835703, Lng : -123.1150206, Q1 : 0.999997913837, Q2 : -9.28345107241e-05, Q3 : -0.000819212931674, Q4 : -0.00187415699475}
2019-04-14 02:12:32.01: SIM {TimeUS : 52634771, Roll : -0.01, Pitch : -0.13, Yaw : 359.78, Alt : 47.8899993896, Lat : 49.2835703, Lng : -123.1150206, Q1 : 0.999997496605, Q2 : -0.000110550528916, Q3 : -0.00117431639228, Q4 : -0.00189540698193}
2019-04-14 02:12:32.11: SIM {TimeUS : 52734731, Roll : 0.01, Pitch : -0.14, Yaw : 359.78, Alt : 48.0400009155, Lat : 49.2835703, Lng : -123.1150207, Q1 : 0.999997317791, Q2 : 8.71980228112e-05, Q3 : -0.0012806012528, Q4 : -0.00191897049081}
2019-04-14 02:12:32.21: SIM {TimeUS : 52834691, Roll : 0.03, Pitch : -0.13, Yaw : 359.77, Alt : 48.1899986267, Lat : 49.2835703, Lng : -123.1150207, Q1 : 0.999997377396, Q2 : 0.000331155461026, Q3 : -0.00115400564391, Q4 : -0.00194906024262}
2019-04-14 02:12:32.31: SIM {TimeUS : 52934651, Roll : 0.05, Pitch : -0.1, Yaw : 359.77, Alt : 48.3199996948, Lat : 49.2835703, Lng : -123.1150207, Q1 : 0.999997496605, Q2 : 0.000508000492118, Q3 : -0.00089793006191, Q4 : -0.00198159576394}
2019-04-14 02:12:32.41: SIM {TimeUS : 53034611, Roll : 0.06, Pitch : -0.06, Yaw : 359.76, Alt : 48.4399986267, Lat : 49.2835703, Lng : -123.1150207, Q1 : 0.999997615814, Q2 : 0.000556398183107, Q3 : -0.000609321286902, Q4 : -0.00201297854073}
2019-04-14 02:12:32.51: SIM {TimeUS : 53134571, Roll : 0.06, Pitch : -0.04, Yaw : 359.76, Alt : 48.5499992371, Lat : 49.2835703, Lng : -123.1150207, Q1 : 0.999997675419, Q2 : 0.000590811367147, Q3 : -0.000414973561419, Q4 : -0.00204165047035}
2019-04-14 02:12:32.62: SIM {TimeUS : 53235364, Roll : 0.05, Pitch : -0.04, Yaw : 359.76, Alt : 48.6500015259, Lat : 49.2835704, Lng : -123.1150207, Q1 : 0.999997675419, Q2 : 0.000472467654618, Q3 : -0.00041966047138, Q4 : -0.00206225924194}
2019-04-14 02:12:32.71: SIM {TimeUS : 53335324, Roll : 0.02, Pitch : -0.05, Yaw : 359.76, Alt : 48.7299995422, Lat : 49.2835704, Lng : -123.1150207, Q1 : 0.999997675419, Q2 : 0.000212167098653, Q3 : -0.000444510835223, Q4 : -0.00208476674743}
2019-04-14 02:12:32.81: SIM {TimeUS : 53435284, Roll : 0.0, Pitch : -0.03, Yaw : 359.75, Alt : 48.7999992371, Lat : 49.2835704, Lng : -123.1150207, Q1 : 0.999997735023, Q2 : 6.88792133587e-05, Q3 : -0.000342655897839, Q4 : -0.00210694945417}
2019-04-14 02:12:32.91: SIM {TimeUS : 53535244, Roll : 0.0, Pitch : -0.02, Yaw : 359.75, Alt : 48.8699989319, Lat : 49.2835704, Lng : -123.1150207, Q1 : 0.999997735023, Q2 : 1.96046858036e-06, Q3 : -0.000221710870392, Q4 : -0.0021314707119}
2019-04-14 02:12:33.01: SIM {TimeUS : 53635204, Roll : 0.0, Pitch : 0.0, Yaw : 359.75, Alt : 48.9199981689, Lat : 49.2835704, Lng : -123.1150207, Q1 : 0.999997675419, Q2 : 1.25475435198e-06, Q3 : -4.82697469124e-05, Q4 : -0.00216187769547}
2019-04-14 02:12:33.11: SIM {TimeUS : 53735164, Roll : 0.03, Pitch : 0.01, Yaw : 359.74, Alt : 48.9700012207, Lat : 49.2835704, Lng : -123.1150207, Q1 : 0.99999755621, Q2 : 0.000291729578748, Q3 : 0.000120454824355, Q4 : -0.00219303113408}
2019-04-14 02:12:33.21: SIM {TimeUS : 53835124, Roll : 0.17, Pitch : -0.03, Yaw : 359.74, Alt : 49.0099983215, Lat : 49.2835704, Lng : -123.1150207, Q1 : 0.999996304512, Q2 : 0.00151345215272, Q3 : -0.000343777646776, Q4 : -0.00223080790602}
2019-04-14 02:12:33.31: SIM {TimeUS : 53935084, Roll : 0.49, Pitch : -0.25, Yaw : 359.73, Alt : 49.0400009155, Lat : 49.2835704, Lng : -123.1150207, Q1 : 0.999985694885, Q2 : 0.00429778732359, Q3 : -0.00224618660286, Q4 : -0.00226681004278}
2019-04-14 02:12:33.41: SIM {TimeUS : 54035044, Roll : 1.01, Pitch : -0.63, Yaw : 359.73, Alt : 49.0699996948, Lat : 49.2835704, Lng : -123.1150207, Q1 : 0.99994289875, Q2 : 0.00880555063486, Q3 : -0.00560237606987, Q4 : -0.00229378952645}
2019-04-14 02:12:33.51: SIM {TimeUS : 54135004, Roll : 1.7, Pitch : -1.17, Yaw : 359.71, Alt : 49.0999984741, Lat : 49.2835704, Lng : -123.1150207, Q1 : 0.999835073948, Q2 : 0.0148122115061, Q3 : -0.0102546522394, Q4 : -0.00230252579786}
2019-04-14 02:12:33.61: SIM {TimeUS : 54234964, Roll : 2.51, Pitch : -1.77, Yaw : 359.7, Alt : 49.1199989319, Lat : 49.2835706, Lng : -123.1150206, Q1 : 0.999635159969, Q2 : 0.0219424050301, Q3 : -0.0155847491696, Q4 : -0.00226887944154}
2019-04-14 02:12:33.71: SIM {TimeUS : 54334924, Roll : 3.35, Pitch : -2.37, Yaw : 359.68, Alt : 49.1399993896, Lat : 49.2835706, Lng : -123.1150205, Q1 : 0.999354243279, Q2 : 0.0292458385229, Q3 : -0.0207618959248, Q4 : -0.00216797064058}
2019-04-14 02:12:33.81: SIM {TimeUS : 54434884, Roll : 4.07, Pitch : -2.87, Yaw : 359.66, Alt : 49.1500015259, Lat : 49.2835707, Lng : -123.1150203, Q1 : 0.999051868916, Q2 : 0.0354894064367, Q3 : -0.0251373127103, Q4 : -0.00199262588285}
2019-04-14 02:12:33.91: SIM {TimeUS : 54534844, Roll : 4.61, Pitch : -3.24, Yaw : 359.66, Alt : 49.1699981689, Lat : 49.2835709, Lng : -123.11502, Q1 : 0.99878692627, Q2 : 0.0401997715235, Q3 : -0.0283839385957, Q4 : -0.00175349565689}
2019-04-14 02:12:34.01: SIM {TimeUS : 54634804, Roll : 4.99, Pitch : -3.5, Yaw : 359.67, Alt : 49.1800003052, Lat : 49.2835709, Lng : -123.1150198, Q1 : 0.998580574989, Q2 : 0.0435099042952, Q3 : -0.0306854788214, Q4 : -0.00147992931306}
2019-04-14 02:12:34.11: SIM {TimeUS : 54734764, Roll : 5.28, Pitch : -3.72, Yaw : 359.68, Alt : 49.1899986267, Lat : 49.2835712, Lng : -123.1150193, Q1 : 0.998408079147, Q2 : 0.0460206791759, Q3 : -0.0325885340571, Q4 : -0.00120311556384}
2019-04-14 02:12:34.21: SIM {TimeUS : 54834724, Roll : 5.57, Pitch : -3.94, Yaw : 359.7, Alt : 49.2000007629, Lat : 49.2835715, Lng : -123.1150188, Q1 : 0.998227894306, Q2 : 0.0484965443611, Q3 : -0.0344729833305, Q4 : -0.000928601075429}
2019-04-14 02:12:34.31: SIM {TimeUS : 54934684, Roll : 5.89, Pitch : -4.16, Yaw : 359.7, Alt : 49.2099990845, Lat : 49.2835718, Lng : -123.1150181, Q1 : 0.998019218445, Q2 : 0.0512940101326, Q3 : -0.03641570732, Q4 : -0.000658997916616}
2019-04-14 02:12:34.41: SIM {TimeUS : 55034644, Roll : 6.21, Pitch : -4.36, Yaw : 359.71, Alt : 49.2200012207, Lat : 49.2835721, Lng : -123.1150174, Q1 : 0.997806251049, Q2 : 0.0540808402002, Q3 : -0.038182079792, Q4 : -0.000401900964789}
2019-04-14 02:12:34.51: SIM {TimeUS : 55134604, Roll : 6.48, Pitch : -4.54, Yaw : 359.72, Alt : 49.2200012207, Lat : 49.2835725, Lng : -123.1150166, Q1 : 0.997618257999, Q2 : 0.0564197711647, Q3 : -0.0396815314889, Q4 : -0.000164600511198}
2019-04-14 02:12:34.61: SIM {TimeUS : 55234564, Roll : 6.67, Pitch : -4.68, Yaw : 359.72, Alt : 49.2299995422, Lat : 49.2835728, Lng : -123.1150157, Q1 : 0.997472047806, Q2 : 0.0580863021314, Q3 : -0.0409334525466, Q4 : 1.98021298274e-05}
2019-04-14 02:12:34.72: SIM {TimeUS : 55335357, Roll : 6.81, Pitch : -4.78, Yaw : 359.73, Alt : 49.2400016785, Lat : 49.2835733, Lng : -123.1150146, Q1 : 0.997365355492, Q2 : 0.0593097135425, Q3 : -0.0417705439031, Q4 : 0.000161276882864}
2019-04-14 02:12:34.81: SIM {TimeUS : 55435317, Roll : 6.92, Pitch : -4.84, Yaw : 359.73, Alt : 49.2400016785, Lat : 49.2835739, Lng : -123.1150135, Q1 : 0.997289419174, Q2 : 0.0602025687695, Q3 : -0.0423004031181, Q4 : 0.000270874239504}
2019-04-14 02:12:34.91: SIM {TimeUS : 55535277, Roll : 7.01, Pitch : -4.91, Yaw : 359.73, Alt : 49.25, Lat : 49.2835744, Lng : -123.1150123, Q1 : 0.997214853764, Q2 : 0.0610039383173, Q3 : -0.0429060310125, Q4 : 0.000332895462634}
2019-04-14 02:12:35.01: SIM {TimeUS : 55635237, Roll : 7.19, Pitch : -4.96, Yaw : 359.75, Alt : 49.25, Lat : 49.283575, Lng : -123.115011, Q1 : 0.997095525265, Q2 : 0.0626014024019, Q3 : -0.043373670429, Q4 : 0.00055670371512}
2019-04-14 02:12:35.11: SIM {TimeUS : 55735197, Roll : 7.62, Pitch : -4.86, Yaw : 0.08, Alt : 49.25, Lat : 49.2835756, Lng : -123.1150096, Q1 : 0.996889650822, Q2 : 0.0664194226265, Q3 : -0.0422730781138, Q4 : 0.00353272026405}
2019-04-14 02:12:35.21: SIM {TimeUS : 55835157, Roll : 8.25, Pitch : -4.65, Yaw : 1.37, Alt : 49.2599983215, Lat : 49.2835763, Lng : -123.1150082, Q1 : 0.996475219727, Q2 : 0.0723974406719, Q3 : -0.0396721474826, Q4 : 0.0148964002728}
2019-04-14 02:12:35.31: SIM {TimeUS : 55935117, Roll : 8.84, Pitch : -4.71, Yaw : 4.17, Alt : 49.2599983215, Lat : 49.283577, Lng : -123.1150066, Q1 : 0.995407700539, Q2 : 0.0784551277757, Q3 : -0.0381468646228, Q4 : 0.0394110381603}
2019-04-14 02:12:35.41: SIM {TimeUS : 56035077, Roll : 9.13, Pitch : -5.25, Yaw : 8.53, Alt : 49.2599983215, Lat : 49.2835776, Lng : -123.115005, Q1 : 0.992748439312, Q2 : 0.0826929062605, Q3 : -0.0396304726601, Q4 : 0.0777295604348}
2019-04-14 02:12:35.51: SIM {TimeUS : 56135037, Roll : 8.92, Pitch : -6.32, Yaw : 14.28, Alt : 49.2599983215, Lat : 49.2835783, Lng : -123.1150032, Q1 : 0.987186610699, Q2 : 0.0839455872774, Q3 : -0.0448975786567, Q4 : 0.128062441945}
2019-04-14 02:12:35.61: SIM {TimeUS : 56234997, Roll : 8.13, Pitch : -7.79, Yaw : 21.18, Alt : 49.2599983215, Lat : 49.2835791, Lng : -123.1150013, Q1 : 0.9773260355, Q2 : 0.0819994285703, Q3 : -0.0536147877574, Q4 : 0.187711030245}
2019-04-14 02:12:35.71: SIM {TimeUS : 56334957, Roll : 6.72, Pitch : -9.42, Yaw : 28.98, Alt : 49.2700004578, Lat : 49.2835799, Lng : -123.1149992, Q1 : 0.962033390999, Q2 : 0.0770918577909, Q3 : -0.0648214370012, Q4 : 0.253666698933}
2019-04-14 02:12:35.81: SIM {TimeUS : 56434917, Roll : 4.76, Pitch : -10.98, Yaw : 37.43, Alt : 49.2700004578, Lat : 49.2835806, Lng : -123.1149971, Q1 : 0.94068223238, Q2 : 0.0698839873075, Q3 : -0.0772592350841, Q4 : 0.322899669409}
2019-04-14 02:12:35.91: SIM {TimeUS : 56534877, Roll : 2.23, Pitch : -12.24, Yaw : 46.19, Alt : 49.2700004578, Lat : 49.2835814, Lng : -123.1149948, Q1 : 0.913603842258, Q2 : 0.0596827529371, Q3 : -0.0904644429684, Q4 : 0.39189568162}
2019-04-14 02:12:36.01: SIM {TimeUS : 56634837, Roll : -0.85, Pitch : -13.0, Yaw : 54.57, Alt : 49.2700004578, Lat : 49.2835823, Lng : -123.1149925, Q1 : 0.883354246616, Q2 : 0.0452867224813, Q3 : -0.104028686881, Q4 : 0.454766452312}
2019-04-14 02:12:36.11: SIM {TimeUS : 56734797, Roll : -3.97, Pitch : -13.19, Yaw : 61.68, Alt : 49.2700004578, Lat : 49.2835832, Lng : -123.11499, Q1 : 0.854444205761, Q2 : 0.0292618200183, Q3 : -0.116295643151, Q4 : 0.50551378727}
2019-04-14 02:12:36.21: SIM {TimeUS : 56834757, Roll : -6.48, Pitch : -13.01, Yaw : 66.85, Alt : 49.2700004578, Lat : 49.2835843, Lng : -123.1149875, Q1 : 0.831406593323, Q2 : 0.0154274301603, Q3 : -0.125425219536, Q4 : 0.541104018688}
2019-04-14 02:12:36.31: SIM {TimeUS : 56934717, Roll : -7.99, Pitch : -12.72, Yaw : 69.92, Alt : 49.2700004578, Lat : 49.2835854, Lng : -123.114985, Q1 : 0.816927969456, Q2 : 0.00654421560466, Q3 : -0.130310952663, Q4 : 0.561787307262}
2019-04-14 02:12:36.41: SIM {TimeUS : 57034677, Roll : -8.43, Pitch : -12.56, Yaw : 71.07, Alt : 49.2700004578, Lat : 49.2835866, Lng : -123.1149824, Q1 : 0.811340332031, Q2 : 0.00395500287414, Q3 : -0.131240531802, Q4 : 0.569637715816}
2019-04-14 02:12:36.51: SIM {TimeUS : 57134637, Roll : -7.93, Pitch : -12.65, Yaw : 70.64, Alt : 49.2700004578, Lat : 49.2835879, Lng : -123.1149797, Q1 : 0.813394188881, Q2 : 0.00750466808677, Q3 : -0.129475980997, Q4 : 0.567071020603}
2019-04-14 02:12:36.61: SIM {TimeUS : 57234597, Roll : -6.73, Pitch : -13.04, Yaw : 69.01, Alt : 49.2700004578, Lat : 49.2835893, Lng : -123.114977, Q1 : 0.821110963821, Q2 : 0.0160943865776, Q3 : -0.126506686211, Q4 : 0.556339740753}
2019-04-14 02:12:36.71: SIM {TimeUS : 57334557, Roll : -5.09, Pitch : -13.65, Yaw : 66.5, Alt : 49.2700004578, Lat : 49.2835909, Lng : -123.1149742, Q1 : 0.832385897636, Q2 : 0.0282441284508, Q3 : -0.123479172587, Q4 : 0.539526462555}
2019-04-14 02:12:36.82: SIM {TimeUS : 57435350, Roll : -3.2, Pitch : -14.39, Yaw : 63.44, Alt : 49.2799987793, Lat : 49.2835925, Lng : -123.1149713, Q1 : 0.845439970493, Q2 : 0.0422320067883, Q3 : -0.121088385582, Q4 : 0.518445134163}
2019-04-14 02:12:36.91: SIM {TimeUS : 57535310, Roll : -1.29, Pitch : -15.07, Yaw : 60.16, Alt : 49.2799987793, Lat : 49.283594, Lng : -123.1149684, Q1 : 0.858539402485, Q2 : 0.0560116916895, Q3 : -0.119116254151, Q4 : 0.495564460754}
2019-04-14 02:12:37.01: SIM {TimeUS : 57635270, Roll : 0.46, Pitch : -15.57, Yaw : 56.97, Alt : 49.2799987793, Lat : 49.2835958, Lng : -123.1149654, Q1 : 0.870544672012, Q2 : 0.0681806504726, Q3 : -0.11717774719, Q4 : 0.473046243191}
2019-04-14 02:12:37.11: SIM {TimeUS : 57735230, Roll : 1.93, Pitch : -15.84, Yaw : 54.2, Alt : 49.2799987793, Lat : 49.2835974, Lng : -123.1149622, Q1 : 0.88050031662, Q2 : 0.0776939764619, Q3 : -0.115046642721, Q4 : 0.453262805939}
2019-04-14 02:12:37.21: SIM {TimeUS : 57835190, Roll : 3.0, Pitch : -15.9, Yaw : 52.1, Alt : 49.2799987793, Lat : 49.283599, Lng : -123.1149589, Q1 : 0.887854456902, Q2 : 0.0840939283371, Q3 : -0.11287073046, Q4 : 0.4380671978}
2019-04-14 02:12:37.31: SIM {TimeUS : 57935150, Roll : 3.6, Pitch : -15.86, Yaw : 50.78, Alt : 49.2799987793, Lat : 49.2836007, Lng : -123.1149555, Q1 : 0.892428636551, Q2 : 0.0873273536563, Q3 : -0.111249551177, Q4 : 0.428449064493}
2019-04-14 02:12:37.41: SIM {TimeUS : 58035110, Roll : 3.73, Pitch : -15.8, Yaw : 50.26, Alt : 49.2799987793, Lat : 49.2836024, Lng : -123.114952, Q1 : 0.894333839417, Q2 : 0.0875743627548, Q3 : -0.110746599734, Q4 : 0.424538522959}
2019-04-14 02:12:37.51: SIM {TimeUS : 58135070, Roll : 3.42, Pitch : -15.8, Yaw : 50.46, Alt : 49.2799987793, Lat : 49.2836041, Lng : -123.1149483, Q1 : 0.893842458725, Q2 : 0.0853692442179, Q3 : -0.111723892391, Q4 : 0.425764679909}
2019-04-14 02:12:37.61: SIM {TimeUS : 58235030, Roll : 2.79, Pitch : -15.85, Yaw : 51.22, Alt : 49.2799987793, Lat : 49.2836057, Lng : -123.1149446, Q1 : 0.891383588314, Q2 : 0.0813665837049, Q3 : -0.113935418427, Q4 : 0.431084185839}
2019-04-14 02:12:37.71: SIM {TimeUS : 58334990, Roll : 1.96, Pitch : -15.95, Yaw : 52.38, Alt : 49.2799987793, Lat : 49.2836074, Lng : -123.1149407, Q1 : 0.887453436852, Q2 : 0.0765221267939, Q3 : -0.117014057934, Q4 : 0.439179390669}
2019-04-14 02:12:37.81: SIM {TimeUS : 58434950, Roll : 1.06, Pitch : -16.08, Yaw : 53.73, Alt : 49.2799987793, Lat : 49.2836092, Lng : -123.1149368, Q1 : 0.882659614086, Q2 : 0.0713846087456, Q3 : -0.120631493628, Q4 : 0.448624849319}
2019-04-14 02:12:37.91: SIM {TimeUS : 58534910, Roll : 0.2, Pitch : -16.21, Yaw : 55.1, Alt : 49.2799987793, Lat : 49.283611, Lng : -123.1149328, Q1 : 0.877609908581, Q2 : 0.0667778626084, Q3 : -0.124198138714, Q4 : 0.458166331053}
2019-04-14 02:12:38.01: SIM {TimeUS : 58634870, Roll : -0.5, Pitch : -16.3, Yaw : 56.34, Alt : 49.2799987793, Lat : 49.2836128, Lng : -123.1149287, Q1 : 0.872921526432, Q2 : 0.0631105452776, Q3 : -0.127064675093, Q4 : 0.466775745153}
2019-04-14 02:12:38.11: SIM {TimeUS : 58734830, Roll : -1.03, Pitch : -16.35, Yaw : 57.33, Alt : 49.2799987793, Lat : 49.2836146, Lng : -123.1149246, Q1 : 0.869092047215, Q2 : 0.0604258365929, Q3 : -0.129110336304, Q4 : 0.47366476059}
2019-04-14 02:12:38.21: SIM {TimeUS : 58834790, Roll : -1.37, Pitch : -16.4, Yaw : 58.0, Alt : 49.2900009155, Lat : 49.2836164, Lng : -123.1149204, Q1 : 0.86641651392, Q2 : 0.0587854348123, Q3 : -0.130486249924, Q4 : 0.478372305632}
2019-04-14 02:12:38.31: SIM {TimeUS : 58934750, Roll : -1.5, Pitch : -16.44, Yaw : 58.34, Alt : 49.2900009155, Lat : 49.2836183, Lng : -123.1149162, Q1 : 0.86501032114, Q2 : 0.0583254024386, Q3 : -0.131203427911, Q4 : 0.480771183968}
2019-04-14 02:12:38.41: SIM {TimeUS : 59034710, Roll : -1.45, Pitch : -16.49, Yaw : 58.37, Alt : 49.2900009155, Lat : 49.2836201, Lng : -123.1149119, Q1 : 0.864810407162, Q2 : 0.0589570105076, Q3 : -0.131358131766, Q4 : 0.481011539698}
2019-04-14 02:12:38.51: SIM {TimeUS : 59134670, Roll : -1.26, Pitch : -16.53, Yaw : 58.14, Alt : 49.2900009155, Lat : 49.283622, Lng : -123.1149076, Q1 : 0.865649759769, Q2 : 0.0603358186781, Q3 : -0.131010502577, Q4 : 0.479422986507}
2019-04-14 02:12:38.61: SIM {TimeUS : 59234630, Roll : -0.96, Pitch : -16.58, Yaw : 57.71, Alt : 49.2900009155, Lat : 49.2836241, Lng : -123.1149033, Q1 : 0.867231428623, Q2 : 0.0623288452625, Q3 : -0.130294442177, Q4 : 0.476495653391}
2019-04-14 02:12:38.71: SIM {TimeUS : 59334590, Roll : -0.59, Pitch : -16.62, Yaw : 57.16, Alt : 49.2900009155, Lat : 49.2836261, Lng : -123.1148989, Q1 : 0.869234025478, Q2 : 0.0646534189582, Q3 : -0.129408821464, Q4 : 0.47276365757}
2019-04-14 02:12:38.81: SIM {TimeUS : 59434550, Roll : -0.21, Pitch : -16.66, Yaw : 56.58, Alt : 49.2900009155, Lat : 49.283628, Lng : -123.1148945, Q1 : 0.871355831623, Q2 : 0.0670306906104, Q3 : -0.128497987986, Q4 : 0.468758136034}
2019-04-14 02:12:38.92: SIM {TimeUS : 59535343, Roll : 0.13, Pitch : -16.7, Yaw : 56.03, Alt : 49.2900009155, Lat : 49.2836302, Lng : -123.11489, Q1 : 0.873355865479, Q2 : 0.0692405775189, Q3 : -0.127689570189, Q4 : 0.464920014143}
2019-04-14 02:12:39.01: SIM {TimeUS : 59635303, Roll : 0.41, Pitch : -16.73, Yaw : 55.57, Alt : 49.2900009155, Lat : 49.2836322, Lng : -123.1148854, Q1 : 0.875017225742, Q2 : 0.0710181817412, Q3 : -0.127112999558, Q4 : 0.461674720049}
2019-04-14 02:12:39.11: SIM {TimeUS : 59735263, Roll : 0.59, Pitch : -16.76, Yaw : 55.22, Alt : 49.2900009155, Lat : 49.2836341, Lng : -123.1148809, Q1 : 0.876265227795, Q2 : 0.0721383690834, Q3 : -0.126778081059, Q4 : 0.459219604731}
2019-04-14 02:12:39.21: SIM {TimeUS : 59835223, Roll : 0.68, Pitch : -16.79, Yaw : 55.01, Alt : 49.2900009155, Lat : 49.2836363, Lng : -123.1148763, Q1 : 0.877026975155, Q2 : 0.0726905018091, Q3 : -0.126779600978, Q4 : 0.457675367594}
2019-04-14 02:12:39.31: SIM {TimeUS : 59935183, Roll : 0.68, Pitch : -16.83, Yaw : 54.93, Alt : 49.2900009155, Lat : 49.2836384, Lng : -123.1148716, Q1 : 0.877301573753, Q2 : 0.072739072144, Q3 : -0.127180173993, Q4 : 0.457029730082}
2019-04-14 02:12:39.41: SIM {TimeUS : 60035143, Roll : 0.59, Pitch : -16.88, Yaw : 54.96, Alt : 49.2900009155, Lat : 49.2836403, Lng : -123.1148669, Q1 : 0.877162218094, Q2 : 0.0723165944219, Q3 : -0.127851456404, Q4 : 0.457176953554}
2019-04-14 02:12:39.51: SIM {TimeUS : 60135103, Roll : 0.44, Pitch : -16.92, Yaw : 55.09, Alt : 49.2900009155, Lat : 49.2836425, Lng : -123.1148622, Q1 : 0.876707732677, Q2 : 0.0714634209871, Q3 : -0.128667846322, Q4 : 0.457953214645}
2019-04-14 02:12:39.61: SIM {TimeUS : 60235063, Roll : 0.27, Pitch : -16.94, Yaw : 55.27, Alt : 49.2999992371, Lat : 49.2836445, Lng : -123.1148575, Q1 : 0.876047849655, Q2 : 0.0704327747226, Q3 : -0.129461064935, Q4 : 0.459150522947}
2019-04-14 02:12:39.71: SIM {TimeUS : 60335023, Roll : 0.09, Pitch : -16.97, Yaw : 55.48, Alt : 49.2999992371, Lat : 49.2836467, Lng : -123.1148527, Q1 : 0.875285565853, Q2 : 0.0694207027555, Q3 : -0.13022916019, Q4 : 0.460539221764}
2019-04-14 02:12:39.81: SIM {TimeUS : 60434983, Roll : -0.05, Pitch : -17.01, Yaw : 55.69, Alt : 49.2999992371, Lat : 49.2836488, Lng : -123.1148478, Q1 : 0.874499678612, Q2 : 0.0687040239573, Q3 : -0.130997687578, Q4 : 0.461919635534}
2019-04-14 02:12:39.91: SIM {TimeUS : 60534943, Roll : -0.14, Pitch : -17.05, Yaw : 55.87, Alt : 49.2999992371, Lat : 49.283651, Lng : -123.114843, Q1 : 0.873793005943, Q2 : 0.068333119154, Q3 : -0.131607651711, Q4 : 0.463136911392}
2019-04-14 02:12:40.01: SIM {TimeUS : 60634903, Roll : -0.2, Pitch : -17.11, Yaw : 56.0, Alt : 49.2999992371, Lat : 49.283653, Lng : -123.1148381, Q1 : 0.873224258423, Q2 : 0.0682851150632, Q3 : -0.132176280022, Q4 : 0.464053839445}
2019-04-14 02:12:40.11: SIM {TimeUS : 60734863, Roll : -0.21, Pitch : -17.16, Yaw : 56.08, Alt : 49.2999992371, Lat : 49.2836553, Lng : -123.1148332, Q1 : 0.872857809067, Q2 : 0.0684821158648, Q3 : -0.132569789886, Q4 : 0.464601665735}
2019-04-14 02:12:40.21: SIM {TimeUS : 60834823, Roll : -0.21, Pitch : -17.19, Yaw : 56.1, Alt : 49.2999992371, Lat : 49.2836574, Lng : -123.1148283, Q1 : 0.872719049454, Q2 : 0.0686954259872, Q3 : -0.132786363363, Q4 : 0.464769005775}
2019-04-14 02:12:40.31: SIM {TimeUS : 60934783, Roll : -0.19, Pitch : -17.2, Yaw : 56.08, Alt : 49.2999992371, Lat : 49.2836596, Lng : -123.1148234, Q1 : 0.872805118561, Q2 : 0.0688197016716, Q3 : -0.132805243134, Q4 : 0.464583575726}
2019-04-14 02:12:40.41: SIM {TimeUS : 61034743, Roll : -0.17, Pitch : -17.21, Yaw : 56.01, Alt : 49.2999992371, Lat : 49.2836618, Lng : -123.1148184, Q1 : 0.873052835464, Q2 : 0.0689530670643, Q3 : -0.132798567414, Q4 : 0.464100033045}
2019-04-14 02:12:40.51: SIM {TimeUS : 61134703, Roll : -0.11, Pitch : -17.21, Yaw : 55.91, Alt : 49.3100013733, Lat : 49.2836639, Lng : -123.1148135, Q1 : 0.873396098614, Q2 : 0.0692745894194, Q3 : -0.132710069418, Q4 : 0.463431060314}
2019-04-14 02:12:40.61: SIM {TimeUS : 61234663, Roll : -0.04, Pitch : -17.23, Yaw : 55.8, Alt : 49.3100013733, Lat : 49.2836663, Lng : -123.1148085, Q1 : 0.873778223991, Q2 : 0.0697746500373, Q3 : -0.132613673806, Q4 : 0.462662667036}
2019-04-14 02:12:40.71: SIM {TimeUS : 61334623, Roll : 0.04, Pitch : -17.27, Yaw : 55.69, Alt : 49.3100013733, Lat : 49.2836685, Lng : -123.1148035, Q1 : 0.874134719372, Q2 : 0.0705237910151, Q3 : -0.132605865598, Q4 : 0.461877256632}
2019-04-14 02:12:40.81: SIM {TimeUS : 61434583, Roll : 0.12, Pitch : -17.33, Yaw : 55.58, Alt : 49.3100013733, Lat : 49.2836706, Lng : -123.1147984, Q1 : 0.874446153641, Q2 : 0.0712461322546, Q3 : -0.132774487138, Q4 : 0.461127847433}
2019-04-14 02:12:40.91: SIM {TimeUS : 61534543, Roll : 0.17, Pitch : -17.36, Yaw : 55.5, Alt : 49.3100013733, Lat : 49.283673, Lng : -123.1147934, Q1 : 0.874736011028, Q2 : 0.0716315880418, Q3 : -0.132868334651, Q4 : 0.46049079299}
2019-04-14 02:12:41.02: SIM {TimeUS : 61635336, Roll : 0.2, Pitch : -17.36, Yaw : 55.43, Alt : 49.3100013733, Lat : 49.2836752, Lng : -123.1147883, Q1 : 0.874984800816, Q2 : 0.071789547801, Q3 : -0.132780581713, Q4 : 0.460018664598}
2019-04-14 02:12:41.11: SIM {TimeUS : 61735296, Roll : 0.21, Pitch : -17.36, Yaw : 55.39, Alt : 49.3100013733, Lat : 49.2836774, Lng : -123.1147832, Q1 : 0.875149726868, Q2 : 0.0718105882406, Q3 : -0.132817670703, Q4 : 0.459690928459}
2019-04-14 02:12:41.21: SIM {TimeUS : 61835256, Roll : 0.2, Pitch : -17.39, Yaw : 55.36, Alt : 49.3100013733, Lat : 49.2836797, Lng : -123.1147781, Q1 : 0.875221908092, Q2 : 0.0717867165804, Q3 : -0.133056670427, Q4 : 0.459487944841}
2019-04-14 02:12:41.31: SIM {TimeUS : 61935216, Roll : 0.19, Pitch : -17.41, Yaw : 55.36, Alt : 49.3100013733, Lat : 49.283682, Lng : -123.1147729, Q1 : 0.875217318535, Q2 : 0.0718299150467, Q3 : -0.133310422301, Q4 : 0.459416359663}
2019-04-14 02:12:41.41: SIM {TimeUS : 62035176, Roll : 0.17, Pitch : -17.45, Yaw : 55.36, Alt : 49.3100013733, Lat : 49.2836843, Lng : -123.1147678, Q1 : 0.875152170658, Q2 : 0.0718731284142, Q3 : -0.133658319712, Q4 : 0.459432721138}
2019-04-14 02:12:41.51: SIM {TimeUS : 62135136, Roll : 0.15, Pitch : -17.48, Yaw : 55.38, Alt : 49.3100013733, Lat : 49.2836865, Lng : -123.1147627, Q1 : 0.875068962574, Q2 : 0.0718262642622, Q3 : -0.133950561285, Q4 : 0.459513425827}
2019-04-14 02:12:41.61: SIM {TimeUS : 62235096, Roll : 0.13, Pitch : -17.5, Yaw : 55.4, Alt : 49.3100013733, Lat : 49.2836888, Lng : -123.1147575, Q1 : 0.874977767467, Q2 : 0.0718124434352, Q3 : -0.134202092886, Q4 : 0.459615796804}
2019-04-14 02:12:41.71: SIM {TimeUS : 62335056, Roll : 0.12, Pitch : -17.52, Yaw : 55.42, Alt : 49.3100013733, Lat : 49.2836912, Lng : -123.1147523, Q1 : 0.874904096127, Q2 : 0.0717566162348, Q3 : -0.134359702468, Q4 : 0.459718763828}
2019-04-14 02:12:41.81: SIM {TimeUS : 62435016, Roll : 0.11, Pitch : -17.53, Yaw : 55.43, Alt : 49.3199996948, Lat : 49.2836935, Lng : -123.1147471, Q1 : 0.874840140343, Q2 : 0.0717661231756, Q3 : -0.134482577443, Q4 : 0.459802985191}
2019-04-14 02:12:41.91: SIM {TimeUS : 62534976, Roll : 0.11, Pitch : -17.55, Yaw : 55.44, Alt : 49.3199996948, Lat : 49.2836957, Lng : -123.1147419, Q1 : 0.874789476395, Q2 : 0.0718700289726, Q3 : -0.134616181254, Q4 : 0.459844052792}
2019-04-14 02:12:42.01: SIM {TimeUS : 62634936, Roll : 0.11, Pitch : -17.58, Yaw : 55.43, Alt : 49.3199996948, Lat : 49.283698, Lng : -123.1147367, Q1 : 0.874763667583, Q2 : 0.0719525665045, Q3 : -0.13488933444, Q4 : 0.459800183773}
2019-04-14 02:12:42.11: SIM {TimeUS : 62734896, Roll : 0.08, Pitch : -17.62, Yaw : 55.42, Alt : 49.3199996948, Lat : 49.2837004, Lng : -123.1147315, Q1 : 0.874770820141, Q2 : 0.0718987435102, Q3 : -0.135330483317, Q4 : 0.459665328264}
2019-04-14 02:12:42.21: SIM {TimeUS : 62834856, Roll : 0.06, Pitch : -17.67, Yaw : 55.41, Alt : 49.3199996948, Lat : 49.2837027, Lng : -123.1147262, Q1 : 0.874796926975, Q2 : 0.0718924626708, Q3 : -0.135769501328, Q4 : 0.459487199783}
2019-04-14 02:12:42.31: SIM {TimeUS : 62934816, Roll : 0.07, Pitch : -17.7, Yaw : 55.38, Alt : 49.3199996948, Lat : 49.2837051, Lng : -123.114721, Q1 : 0.874834120274, Q2 : 0.0721265375614, Q3 : -0.135985553265, Q4 : 0.459315747023}
2019-04-14 02:12:42.41: SIM {TimeUS : 63034776, Roll : 0.11, Pitch : -17.71, Yaw : 55.36, Alt : 49.3199996948, Lat : 49.2837074, Lng : -123.1147157, Q1 : 0.874915421009, Q2 : 0.0723864138126, Q3 : -0.135871097445, Q4 : 0.45915389061}
2019-04-14 02:12:42.51: SIM {TimeUS : 63134736, Roll : 0.15, Pitch : -17.69, Yaw : 55.33, Alt : 49.3199996948, Lat : 49.2837096, Lng : -123.1147104, Q1 : 0.875026166439, Q2 : 0.0725648701191, Q3 : -0.135601744056, Q4 : 0.458994299173}
2019-04-14 02:12:42.61: SIM {TimeUS : 63234696, Roll : 0.15, Pitch : -17.67, Yaw : 55.3, Alt : 49.3199996948, Lat : 49.283712, Lng : -123.1147051, Q1 : 0.875147461891, Q2 : 0.0725228637457, Q3 : -0.135467708111, Q4 : 0.458809196949}
2019-04-14 02:12:42.71: SIM {TimeUS : 63334656, Roll : 0.15, Pitch : -17.66, Yaw : 55.28, Alt : 49.3199996948, Lat : 49.2837144, Lng : -123.1146998, Q1 : 0.875267326832, Q2 : 0.0724128335714, Q3 : -0.13539712131, Q4 : 0.458618670702}
2019-04-14 02:12:42.81: SIM {TimeUS : 63434616, Roll : 0.14, Pitch : -17.65, Yaw : 55.25, Alt : 49.3199996948, Lat : 49.2837168, Lng : -123.1146945, Q1 : 0.875384449959, Q2 : 0.072276763618, Q3 : -0.135336264968, Q4 : 0.458434522152}
2019-04-14 02:12:42.91: SIM {TimeUS : 63534576, Roll : 0.13, Pitch : -17.66, Yaw : 55.23, Alt : 49.3199996948, Lat : 49.2837192, Lng : -123.1146892, Q1 : 0.875464737415, Q2 : 0.0722182244062, Q3 : -0.135488897562, Q4 : 0.458245337009}
2019-04-14 02:12:43.01: SIM {TimeUS : 63634536, Roll : 0.12, Pitch : -17.69, Yaw : 55.21, Alt : 49.3199996948, Lat : 49.2837215, Lng : -123.1146838, Q1 : 0.875511884689, Q2 : 0.0722572803497, Q3 : -0.135774880648, Q4 : 0.458064496517}
2019-04-14 02:12:43.11: SIM {TimeUS : 63735329, Roll : 0.11, Pitch : -17.74, Yaw : 55.2, Alt : 49.3199996948, Lat : 49.2837239, Lng : -123.1146784, Q1 : 0.875519931316, Q2 : 0.0723753944039, Q3 : -0.136216640472, Q4 : 0.457899212837}
2019-04-14 02:12:43.21: SIM {TimeUS : 63835289, Roll : 0.12, Pitch : -17.8, Yaw : 55.18, Alt : 49.3300018311, Lat : 49.2837263, Lng : -123.1146731, Q1 : 0.875505030155, Q2 : 0.072606138885, Q3 : -0.136644884944, Q4 : 0.457763552666}
2019-04-14 02:12:43.31: SIM {TimeUS : 63935249, Roll : 0.13, Pitch : -17.83, Yaw : 55.17, Alt : 49.3300018311, Lat : 49.2837287, Lng : -123.1146677, Q1 : 0.875499784946, Q2 : 0.0728398710489, Q3 : -0.136824011803, Q4 : 0.457682967186}
2019-04-14 02:12:43.41: SIM {TimeUS : 64035209, Roll : 0.14, Pitch : -17.85, Yaw : 55.16, Alt : 49.3300018311, Lat : 49.2837311, Lng : -123.1146624, Q1 : 0.875507116318, Q2 : 0.072946049273, Q3 : -0.136998727918, Q4 : 0.4575997293}
2019-04-14 02:12:43.51: SIM {TimeUS : 64135169, Roll : 0.13, Pitch : -17.87, Yaw : 55.15, Alt : 49.3300018311, Lat : 49.2837333, Lng : -123.114657, Q1 : 0.875527858734, Q2 : 0.0729791969061, Q3 : -0.13712182641, Q4 : 0.457517832518}
2019-04-14 02:12:43.61: SIM {TimeUS : 64235129, Roll : 0.14, Pitch : -17.86, Yaw : 55.14, Alt : 49.3300018311, Lat : 49.2837357, Lng : -123.1146515, Q1 : 0.87556797266, Q2 : 0.0730031579733, Q3 : -0.137012511492, Q4 : 0.45746999979}
2019-04-14 02:12:43.71: SIM {TimeUS : 64335089, Roll : 0.16, Pitch : -17.86, Yaw : 55.14, Alt : 49.3300018311, Lat : 49.2837381, Lng : -123.1146462, Q1 : 0.875582814217, Q2 : 0.0731636807323, Q3 : -0.137005999684, Q4 : 0.457417964935}
2019-04-14 02:12:43.81: SIM {TimeUS : 64435049, Roll : 0.17, Pitch : -17.89, Yaw : 55.13, Alt : 49.3300018311, Lat : 49.2837405, Lng : -123.1146408, Q1 : 0.875588953495, Q2 : 0.0732778534293, Q3 : -0.137153938413, Q4 : 0.457343578339}
2019-04-14 02:12:43.91: SIM {TimeUS : 64535009, Roll : 0.17, Pitch : -17.9, Yaw : 55.12, Alt : 49.3300018311, Lat : 49.283743, Lng : -123.1146354, Q1 : 0.875600099564, Q2 : 0.0733615607023, Q3 : -0.137280583382, Q4 : 0.45727083087}
2019-04-14 02:12:44.01: SIM {TimeUS : 64634969, Roll : 0.18, Pitch : -17.9, Yaw : 55.11, Alt : 49.3300018311, Lat : 49.2837454, Lng : -123.11463, Q1 : 0.875638306141, Q2 : 0.073413528502, Q3 : -0.137259751558, Q4 : 0.457195550203}
2019-04-14 02:12:44.11: SIM {TimeUS : 64734929, Roll : 0.18, Pitch : -17.9, Yaw : 55.09, Alt : 49.3300018311, Lat : 49.2837478, Lng : -123.1146246, Q1 : 0.875686168671, Q2 : 0.0734289065003, Q3 : -0.137258321047, Q4 : 0.457101821899}
2019-04-14 02:12:44.21: SIM {TimeUS : 64834889, Roll : 0.17, Pitch : -17.92, Yaw : 55.08, Alt : 49.3300018311, Lat : 49.2837503, Lng : -123.1146192, Q1 : 0.875727653503, Q2 : 0.0733601972461, Q3 : -0.137461289763, Q4 : 0.456972420216}
2019-04-14 02:12:44.31: SIM {TimeUS : 64934849, Roll : 0.14, Pitch : -17.96, Yaw : 55.07, Alt : 49.3300018311, Lat : 49.2837527, Lng : -123.1146138, Q1 : 0.875757992268, Q2 : 0.0732521042228, Q3 : -0.137865558267, Q4 : 0.456809788942}
2019-04-14 02:12:44.41: SIM {TimeUS : 65034809, Roll : 0.13, Pitch : -17.96, Yaw : 55.05, Alt : 49.3300018311, Lat : 49.2837551, Lng : -123.1146083, Q1 : 0.875811934471, Q2 : 0.0731837227941, Q3 : -0.137967646122, Q4 : 0.456686496735}
2019-04-14 02:12:44.51: SIM {TimeUS : 65134769, Roll : 0.14, Pitch : -17.96, Yaw : 55.04, Alt : 49.3300018311, Lat : 49.2837575, Lng : -123.1146029, Q1 : 0.875867366791, Q2 : 0.0732264146209, Q3 : -0.13786688447, Q4 : 0.456603825092}
2019-04-14 02:12:44.61: SIM {TimeUS : 65234729, Roll : 0.16, Pitch : -17.95, Yaw : 55.03, Alt : 49.3300018311, Lat : 49.28376, Lng : -123.1145974, Q1 : 0.875918030739, Q2 : 0.073323071003, Q3 : -0.137733727694, Q4 : 0.456531226635}
2019-04-14 02:12:44.71: SIM {TimeUS : 65334689, Roll : 0.17, Pitch : -17.95, Yaw : 55.01, Alt : 49.3300018311, Lat : 49.2837624, Lng : -123.1145919, Q1 : 0.875954449177, Q2 : 0.073413439095, Q3 : -0.137743249536, Q4 : 0.456443995237}
2019-04-14 02:12:44.81: SIM {TimeUS : 65434649, Roll : 0.16, Pitch : -17.97, Yaw : 55.0, Alt : 49.3400001526, Lat : 49.2837648, Lng : -123.1145865, Q1 : 0.875986993313, Q2 : 0.073381409049, Q3 : -0.137928545475, Q4 : 0.45633071661}
2019-04-14 02:12:44.91: SIM {TimeUS : 65534609, Roll : 0.13, Pitch : -17.99, Yaw : 54.99, Alt : 49.3400001526, Lat : 49.2837673, Lng : -123.114581, Q1 : 0.87601929903, Q2 : 0.0732789635658, Q3 : -0.138170272112, Q4 : 0.456211984158}
2019-04-14 02:12:45.01: SIM {TimeUS : 65634569, Roll : 0.12, Pitch : -18.01, Yaw : 54.98, Alt : 49.3400001526, Lat : 49.2837697, Lng : -123.1145756, Q1 : 0.876047611237, Q2 : 0.0732400417328, Q3 : -0.138368576765, Q4 : 0.456103771925}
2019-04-14 02:12:45.12: SIM {TimeUS : 65735362, Roll : 0.13, Pitch : -18.03, Yaw : 54.97, Alt : 49.3400001526, Lat : 49.2837721, Lng : -123.1145701, Q1 : 0.876062870026, Q2 : 0.0733500495553, Q3 : -0.13853392005, Q4 : 0.456006556749}
2019-04-14 02:12:45.21: SIM {TimeUS : 65835322, Roll : 0.14, Pitch : -18.05, Yaw : 54.96, Alt : 49.3400001526, Lat : 49.2837746, Lng : -123.1145646, Q1 : 0.876076877117, Q2 : 0.0735083073378, Q3 : -0.138614073396, Q4 : 0.455929815769}
2019-04-14 02:12:45.31: SIM {TimeUS : 65935282, Roll : 0.17, Pitch : -18.06, Yaw : 54.95, Alt : 49.3400001526, Lat : 49.283777, Lng : -123.1145591, Q1 : 0.876084804535, Q2 : 0.0737223401666, Q3 : -0.138569831848, Q4 : 0.455893456936}
2019-04-14 02:12:45.41: SIM {TimeUS : 66035242, Roll : 0.18, Pitch : -18.07, Yaw : 54.94, Alt : 49.3400001526, Lat : 49.2837794, Lng : -123.1145536, Q1 : 0.876088917255, Q2 : 0.0738602429628, Q3 : -0.13861772418, Q4 : 0.455848634243}
2019-04-14 02:12:45.51: SIM {TimeUS : 66135202, Roll : 0.19, Pitch : -18.08, Yaw : 54.94, Alt : 49.3400001526, Lat : 49.2837819, Lng : -123.1145481, Q1 : 0.876089155674, Q2 : 0.0739989131689, Q3 : -0.138685300946, Q4 : 0.455805122852}
2019-04-14 02:12:45.61: SIM {TimeUS : 66235162, Roll : 0.2, Pitch : -18.1, Yaw : 54.93, Alt : 49.3400001526, Lat : 49.2837843, Lng : -123.1145426, Q1 : 0.876087069511, Q2 : 0.0741532221437, Q3 : -0.138736188412, Q4 : 0.45576864481}
2019-04-14 02:12:45.71: SIM {TimeUS : 66335122, Roll : 0.23, Pitch : -18.1, Yaw : 54.93, Alt : 49.3400001526, Lat : 49.2837868, Lng : -123.1145371, Q1 : 0.876082420349, Q2 : 0.0743584036827, Q3 : -0.138714149594, Q4 : 0.455750912428}
2019-04-14 02:12:45.81: SIM {TimeUS : 66435082, Roll : 0.25, Pitch : -18.12, Yaw : 54.92, Alt : 49.3400001526, Lat : 49.2837892, Lng : -123.1145316, Q1 : 0.876068949699, Q2 : 0.0746062546968, Q3 : -0.138712465763, Q4 : 0.45573669672}
2019-04-14 02:12:45.91: SIM {TimeUS : 66535042, Roll : 0.25, Pitch : -18.11, Yaw : 54.92, Alt : 49.3400001526, Lat : 49.2837917, Lng : -123.1145261, Q1 : 0.876094162464, Q2 : 0.0745298340917, Q3 : -0.138725414872, Q4 : 0.455696880817}
2019-04-14 02:12:46.01: SIM {TimeUS : 66635002, Roll : 0.22, Pitch : -18.13, Yaw : 54.91, Alt : 49.3499984741, Lat : 49.2837941, Lng : -123.1145206, Q1 : 0.876116514206, Q2 : 0.0743505805731, Q3 : -0.138930827379, Q4 : 0.455620586872}
