2019-04-14 11:39:14.30: SIM {TimeUS : 39915694, Roll : 0.0, Pitch : 0.0, Yaw : 0.0, Alt : 30.1000003815, Lat : 49.28357, Lng : -123.11502, Q1 : 1.0, Q2 : 0.0, Q3 : 0.0, Q4 : 0.0}
2019-04-14 11:39:14.41: SIM {TimeUS : 40034813, Roll : 0.0, Pitch : 0.0, Yaw : 0.0, Alt : 30.1000003815, Lat : 49.28357, Lng : -123.11502, Q1 : 1.0, Q2 : 0.0, Q3 : 0.0, Q4 : 0.0}
2019-04-14 11:39:14.51: SIM {TimeUS : 40134773, Roll : 0.0, Pitch : 0.0, Yaw : 0.0, Alt : 30.1000003815, Lat : 49.28357, Lng : -123.11502, Q1 : 1.0, Q2 : 0.0, Q3 : 0.0, Q4 : 0.0}
2019-04-14 11:39:14.61: SIM {TimeUS : 40234733, Roll : 0.0, Pitch : 0.0, Yaw : 0.0, Alt : 30.1000003815, Lat : 49.28357, Lng : -123.11502, Q1 : 1.0, Q2 : 0.0, Q3 : 0.0, Q4 : 0.0}
2019-04-14 11:39:14.71: SIM {TimeUS : 40334693, Roll : 0.0, Pitch : 0.0, Yaw : 0.0, Alt : 30.1000003815, Lat : 49.28357, Lng : -123.11502, Q1 : 1.0, Q2 : 0.0, Q3 : 0.0, Q4 : 0.0}
2019-04-14 11:39:14.81: SIM {TimeUS : 40434653, Roll : 0.0, Pitch : 0.0, Yaw : 0.0, Alt : 30.1000003815, Lat : 49.28357, Lng : -123.11502, Q1 : 1.0, Q2 : 0.0, Q3 : 0.0, Q4 : 0.0}
2019-04-14 11:39:14.91: SIM {TimeUS : 40534613, Roll : 0.0, Pitch : 0.0, Yaw : 0.0, Alt : 30.1000003815, Lat : 49.28357, Lng : -123.11502, Q1 : 1.0, Q2 : 0.0, Q3 : 0.0, Q4 : 0.0}
2019-04-14 11:39:15.01: SIM {TimeUS : 40634573, Roll : 0.0, Pitch : 0.0, Yaw : 0.0, Alt : 30.1000003815, Lat : 49.28357, Lng : -123.11502, Q1 : 1.0, Q2 : 0.0, Q3 : 0.0, Q4 : 0.0}
2019-04-14 11:39:15.11: SIM {TimeUS : 40734533, Roll : 0.0, Pitch : 0.0, Yaw : 0.0, Alt : 30.1000003815, Lat : 49.28357, Lng : -123.11502, Q1 : 1.0, Q2 : 0.0, Q3 : 0.0, Q4 : 0.0}
2019-04-14 11:39:15.21: SIM {TimeUS : 40834493, Roll : 0.0, Pitch : 0.0, Yaw : 0.0, Alt : 30.1000003815, Lat : 49.28357, Lng : -123.11502, Q1 : 1.0, Q2 : 0.0, Q3 : 0.0, Q4 : 0.0}
2019-04-14 11:39:15.31: SIM {TimeUS : 40934453, Roll : 0.0, Pitch : 0.0, Yaw : 0.0, Alt : 30.1000003815, Lat : 49.28357, Lng : -123.11502, Q1 : 1.0, Q2 : 0.0, Q3 : 0.0, Q4 : 0.0}
2019-04-14 11:39:15.41: SIM {TimeUS : 41034413, Roll : 0.0, Pitch : 0.0, Yaw : 0.0, Alt : 30.1000003815, Lat : 49.28357, Lng : -123.11502, Q1 : 1.0, Q2 : 0.0, Q3 : 0.0, Q4 : 0.0}
2019-04-14 11:39:15.51: SIM {TimeUS : 41134373, Roll : 0.0, Pitch : 0.0, Yaw : 0.0, Alt : 30.1000003815, Lat : 49.28357, Lng : -123.11502, Q1 : 1.0, Q2 : 0.0, Q3 : 0.0, Q4 : 0.0}
2019-04-14 11:39:15.61: SIM {TimeUS : 41234333, Roll : 0.0, Pitch : 0.0, Yaw : 0.0, Alt : 30.1000003815, Lat : 49.28357, Lng : -123.11502, Q1 : 1.0, Q2 : 0.0, Q3 : 0.0, Q4 : 0.0}
2019-04-14 11:39:15.71: SIM {TimeUS : 41334293, Roll : 0.0, Pitch : 0.0, Yaw : 0.0, Alt : 30.1000003815, Lat : 49.28357, Lng : -123.11502, Q1 : 1.0, Q2 : 0.0, Q3 : 0.0, Q4 : 0.0}
2019-04-14 11:39:15.81: SIM {TimeUS : 41434253, Roll : 0.0, Pitch : 0.0, Yaw : 0.0, Alt : 30.1000003815, Lat : 49.28357, Lng : -123.11502, Q1 : 1.0, Q2 : 0.0, Q3 : 0.0, Q4 : 0.0}
2019-04-14 11:39:15.91: SIM {TimeUS : 41534213, Roll : 0.0, Pitch : 0.0, Yaw : 0.0, Alt : 30.1000003815, Lat : 49.28357, Lng : -123.11502, Q1 : 1.0, Q2 : 0.0, Q3 : 0.0, Q4 : 0.0}
2019-04-14 11:39:16.01: SIM {TimeUS : 41634173, Roll : 0.0, Pitch : 0.0, Yaw : 0.0, Alt : 30.1000003815, Lat : 49.28357, Lng : -123.11502, Q1 : 1.0, Q2 : 0.0, Q3 : 0.0, Q4 : 0.0}
2019-04-14 11:39:16.11: SIM {TimeUS : 41734133, Roll : 0.0, Pitch : 0.0, Yaw : 0.0, Alt : 30.1000003815, Lat : 49.28357, Lng : -123.11502, Q1 : 1.0, Q2 : 0.0, Q3 : 0.0, Q4 : 0.0}
2019-04-14 11:39:16.21: SIM {TimeUS : 41834093, Roll : 0.0, Pitch : 0.0, Yaw : 0.0, Alt : 30.1000003815, Lat : 49.28357, Lng : -123.11502, Q1 : 1.0, Q2 : 0.0, Q3 : 0.0, Q4 : 0.0}
2019-04-14 11:39:16.31: SIM {TimeUS : 41934053, Roll : 0.0, Pitch : 0.0, Yaw : 0.0, Alt : 30.1000003815, Lat : 49.28357, Lng : -123.11502, Q1 : 1.0, Q2 : 0.0, Q3 : 0.0, Q4 : 0.0}
2019-04-14 11:39:16.42: SIM {TimeUS : 42034846, Roll : 0.0, Pitch : 0.0, Yaw : 0.0, Alt : 30.1000003815, Lat : 49.28357, Lng : -123.11502, Q1 : 1.0, Q2 : 0.0, Q3 : 0.0, Q4 : 0.0}
2019-04-14 11:39:16.51: SIM {TimeUS : 42134806, Roll : 0.0, Pitch : 0.0, Yaw : 0.0, Alt : 30.1000003815, Lat : 49.28357, Lng : -123.11502, Q1 : 1.0, Q2 : 0.0, Q3 : 0.0, Q4 : 0.0}
2019-04-14 11:39:16.61: SIM {TimeUS : 42234766, Roll : 0.0, Pitch : 0.0, Yaw : 360.0, Alt : 30.1000003815, Lat : 49.28357, Lng : -123.11502, Q1 : 1.0, Q2 : 0.0, Q3 : 0.0, Q4 : -2.28186089815e-12}
2019-04-14 11:39:16.71: SIM {TimeUS : 42334726, Roll : 0.0, Pitch : 0.0, Yaw : 0.0, Alt : 30.1000003815, Lat : 49.28357, Lng : -123.11502, Q1 : 1.0, Q2 : 0.0, Q3 : 0.0, Q4 : 3.4573906238e-14}
2019-04-14 11:39:16.81: SIM {TimeUS : 42434686, Roll : 0.0, Pitch : 0.0, Yaw : 360.0, Alt : 30.1000003815, Lat : 49.28357, Lng : -123.11502, Q1 : 1.0, Q2 : 0.0, Q3 : 0.0, Q4 : -1.68479502349e-07}
2019-04-14 11:39:16.91: SIM {TimeUS : 42534646, Roll : 0.0, Pitch : 0.0, Yaw : 359.99, Alt : 30.1000003815, Lat : 49.28357, Lng : -123.11502, Q1 : 1.0, Q2 : 0.0, Q3 : 0.0, Q4 : -3.52501473344e-07}
2019-04-14 11:39:17.01: SIM {TimeUS : 42634606, Roll : 0.0, Pitch : 0.0, Yaw : 359.99, Alt : 30.1000003815, Lat : 49.28357, Lng : -123.11502, Q1 : 1.0, Q2 : 0.0, Q3 : 0.0, Q4 : -5.54076905246e-07}
2019-04-14 11:39:17.11: SIM {TimeUS : 42734566, Roll : 0.0, Pitch : 0.0, Yaw : 359.99, Alt : 30.1000003815, Lat : 49.28357, Lng : -123.11502, Q1 : 1.0, Q2 : 0.0, Q3 : 0.0, Q4 : -7.53974461531e-07}
2019-04-14 11:39:17.21: SIM {TimeUS : 42834526, Roll : 0.0, Pitch : 0.0, Yaw : 359.99, Alt : 30.1000003815, Lat : 49.28357, Lng : -123.11502, Q1 : 1.0, Q2 : 0.0, Q3 : 0.0, Q4 : -9.52481798322e-07}
2019-04-14 11:39:17.31: SIM {TimeUS : 42934486, Roll : 0.0, Pitch : 0.0, Yaw : 359.99, Alt : 30.1000003815, Lat : 49.28357, Lng : -123.11502, Q1 : 1.0, Q2 : 0.0, Q3 : 0.0, Q4 : -1.18840591767e-06}
2019-04-14 11:39:17.41: SIM {TimeUS : 43034446, Roll : 0.0, Pitch : 0.0, Yaw : 359.99, Alt : 30.1000003815, Lat : 49.28357, Lng : -123.11502, Q1 : 1.0, Q2 : 0.0, Q3 : 0.0, Q4 : -1.41088924011e-06}
2019-04-14 11:39:17.51: SIM {TimeUS : 43134406, Roll : 0.0, Pitch : 0.0, Yaw : 359.99, Alt : 30.1100006104, Lat : 49.28357, Lng : -123.11502, Q1 : 1.0, Q2 : 0.0, Q3 : 0.0, Q4 : -1.61918046615e-06}
2019-04-14 11:39:17.61: SIM {TimeUS : 43234366, Roll : 0.0, Pitch : 0.0, Yaw : 359.99, Alt : 30.1399993896, Lat : 49.28357, Lng : -123.11502, Q1 : 1.0, Q2 : 0.0, Q3 : 0.0, Q4 : -1.80367885605e-06}
2019-04-14 11:39:17.71: SIM {TimeUS : 43334326, Roll : 0.0, Pitch : 0.0, Yaw : 359.99, Alt : 30.1599998474, Lat : 49.28357, Lng : -123.11502, Q1 : 1.0, Q2 : 0.0, Q3 : 0.0, Q4 : -2.0370268885e-06}
2019-04-14 11:39:17.81: SIM {TimeUS : 43434286, Roll : 0.0, Pitch : 0.0, Yaw : 359.99, Alt : 30.2000007629, Lat : 49.28357, Lng : -123.11502, Q1 : 1.0, Q2 : 0.0, Q3 : 0.0, Q4 : -2.29593570111e-06}
2019-04-14 11:39:17.91: SIM {TimeUS : 43534246, Roll : -0.08, Pitch : -0.08, Yaw : 359.99, Alt : 30.25, Lat : 49.28357, Lng : -123.11502, Q1 : 0.999999403954, Q2 : -0.000771640567109, Q3 : -0.000743205775507, Q4 : -8.6039181042e-06}
2019-04-14 11:39:18.01: SIM {TimeUS : 43634206, Roll : -0.35, Pitch : -0.35, Yaw : 359.99, Alt : 30.3400001526, Lat : 49.28357, Lng : -123.11502, Q1 : 0.999990403652, Q2 : -0.00306760566309, Q3 : -0.00312284263782, Q4 : -4.0557632019e-05}
2019-04-14 11:39:18.11: SIM {TimeUS : 43734166, Roll : -0.62, Pitch : -0.66, Yaw : 359.99, Alt : 30.4899997711, Lat : 49.28357, Lng : -123.11502, Q1 : 0.999968647957, Q2 : -0.00541872624308, Q3 : -0.00577671686187, Q4 : -9.63153943303e-05}
2019-04-14 11:39:18.21: SIM {TimeUS : 43834126, Roll : -0.78, Pitch : -0.82, Yaw : 359.98, Alt : 30.6499996185, Lat : 49.28357, Lng : -123.11502, Q1 : 0.999950766563, Q2 : -0.00684203254059, Q3 : -0.00718654878438, Q4 : -0.0001737701823}
2019-04-14 11:39:18.31: SIM {TimeUS : 43934086, Roll : -0.79, Pitch : -0.78, Yaw : 359.97, Alt : 30.7999992371, Lat : 49.28357, Lng : -123.11502, Q1 : 0.999952375889, Q2 : -0.00694093853235, Q3 : -0.00685374764726, Q4 : -0.000263614725554}
2019-04-14 11:39:18.41: SIM {TimeUS : 44034046, Roll : -0.67, Pitch : -0.6, Yaw : 359.96, Alt : 30.9599990845, Lat : 49.28357, Lng : -123.1150201, Q1 : 0.999968409538, Q2 : -0.00589530356228, Q3 : -0.00531391659752, Q4 : -0.000356148579158}
2019-04-14 11:39:18.52: SIM {TimeUS : 44134839, Roll : -0.47, Pitch : -0.37, Yaw : 359.95, Alt : 31.1100006104, Lat : 49.2835701, Lng : -123.1150202, Q1 : 0.99998575449, Q2 : -0.00418633874506, Q3 : -0.00328499940224, Q4 : -0.000441735290224}
2019-04-14 11:39:18.61: SIM {TimeUS : 44234799, Roll : -0.27, Pitch : -0.16, Yaw : 359.94, Alt : 31.2700004578, Lat : 49.2835701, Lng : -123.1150203, Q1 : 0.99999588728, Q2 : -0.0024350353051, Q3 : -0.00143962691072, Q4 : -0.000517692358699}
2019-04-14 11:39:18.71: SIM {TimeUS : 44334759, Roll : -0.11, Pitch : -0.01, Yaw : 359.93, Alt : 31.4400005341, Lat : 49.2835702, Lng : -123.1150203, Q1 : 0.999999344349, Q2 : -0.000993600813672, Q3 : -0.000171306484845, Q4 : -0.000576725695282}
2019-04-14 11:39:18.81: SIM {TimeUS : 44434719, Roll : 0.01, Pitch : 0.03, Yaw : 359.92, Alt : 31.6100006104, Lat : 49.2835702, Lng : -123.1150204, Q1 : 0.999999761581, Q2 : 8.91384333954e-05, Q3 : 0.000274820951745, Q4 : -0.000617367739324}
2019-04-14 11:39:18.91: SIM {TimeUS : 44534679, Roll : 0.07, Pitch : 0.03, Yaw : 359.92, Alt : 31.7900009155, Lat : 49.2835703, Lng : -123.1150205, Q1 : 0.999999523163, Q2 : 0.000678632932249, Q3 : 0.000262586865574, Q4 : -0.000634866242763}
2019-04-14 11:39:19.01: SIM {TimeUS : 44634639, Roll : 0.08, Pitch : 0.01, Yaw : 359.92, Alt : 31.9699993134, Lat : 49.2835703, Lng : -123.1150206, Q1 : 0.999999523163, Q2 : 0.000715576694347, Q3 : 0.000105441220512, Q4 : -0.000636069860775}
2019-04-14 11:39:19.11: SIM {TimeUS : 44734599, Roll : 0.06, Pitch : 0.0, Yaw : 359.93, Alt : 32.1599998474, Lat : 49.2835703, Lng : -123.1150206, Q1 : 0.999999701977, Q2 : 0.000538547232281, Q3 : -2.9424099921e-05, Q4 : -0.000610970600974}
2019-04-14 11:39:19.21: SIM {TimeUS : 44834559, Roll : 0.05, Pitch : 0.0, Yaw : 359.93, Alt : 32.3499984741, Lat : 49.2835703, Lng : -123.1150207, Q1 : 0.999999701977, Q2 : 0.000476365472423, Q3 : -1.2248980056e-05, Q4 : -0.000572078686673}
2019-04-14 11:39:19.31: SIM {TimeUS : 44934519, Roll : 0.06, Pitch : 0.02, Yaw : 359.93, Alt : 32.5400009155, Lat : 49.2835703, Lng : -123.1150207, Q1 : 0.999999701977, Q2 : 0.000559160311241, Q3 : 0.000176608256879, Q4 : -0.000536729290616}
2019-04-14 11:39:19.41: SIM {TimeUS : 45034479, Roll : 0.09, Pitch : 0.04, Yaw : 359.94, Alt : 32.7299995422, Lat : 49.2835703, Lng : -123.1150208, Q1 : 0.999999403954, Q2 : 0.000860856089275, Q3 : 0.000394948467147, Q4 : -0.000510906567797}
2019-04-14 11:39:19.51: SIM {TimeUS : 45134439, Roll : 0.14, Pitch : 0.07, Yaw : 359.94, Alt : 32.9300003052, Lat : 49.2835704, Lng : -123.1150208, Q1 : 0.999998927116, Q2 : 0.0012340596877, Q3 : 0.000666499428917, Q4 : -0.000496870139614}
2019-04-14 11:39:19.61: SIM {TimeUS : 45234399, Roll : 0.17, Pitch : 0.11, Yaw : 359.94, Alt : 33.1300010681, Lat : 49.2835704, Lng : -123.1150209, Q1 : 0.999998271465, Q2 : 0.00148572027683, Q3 : 0.000994038768113, Q4 : -0.00049176911125}
2019-04-14 11:39:19.71: SIM {TimeUS : 45334359, Roll : 0.17, Pitch : 0.14, Yaw : 359.94, Alt : 33.3400001526, Lat : 49.2835704, Lng : -123.1150209, Q1 : 0.999997973442, Q2 : 0.00151203351561, Q3 : 0.00123657146469, Q4 : -0.000489952391945}
2019-04-14 11:39:19.81: SIM {TimeUS : 45434319, Roll : 0.16, Pitch : 0.15, Yaw : 359.94, Alt : 33.5400009155, Lat : 49.2835704, Lng : -123.1150209, Q1 : 0.999997973442, Q2 : 0.0014005464036, Q3 : 0.00138386548497, Q4 : -0.000492334074806}
2019-04-14 11:39:19.91: SIM {TimeUS : 45534279, Roll : 0.15, Pitch : 0.17, Yaw : 359.94, Alt : 33.75, Lat : 49.2835704, Lng : -123.1150209, Q1 : 0.999997854233, Q2 : 0.00131831609178, Q3 : 0.00150682637468, Q4 : -0.000496477587149}
2019-04-14 11:39:20.01: SIM {TimeUS : 45634239, Roll : 0.15, Pitch : 0.17, Yaw : 359.94, Alt : 33.9599990845, Lat : 49.2835704, Lng : -123.1150209, Q1 : 0.999997854233, Q2 : 0.00134921341669, Q3 : 0.00148980878294, Q4 : -0.000508811790496}
2019-04-14 11:39:20.11: SIM {TimeUS : 45734199, Roll : 0.15, Pitch : 0.16, Yaw : 359.93, Alt : 34.1699981689, Lat : 49.2835704, Lng : -123.1150209, Q1 : 0.999997973442, Q2 : 0.00134165247437, Q3 : 0.00142475927714, Q4 : -0.000532562553417}
2019-04-14 11:39:20.21: SIM {TimeUS : 45834159, Roll : 0.13, Pitch : 0.15, Yaw : 359.93, Alt : 34.3800010681, Lat : 49.2835706, Lng : -123.1150209, Q1 : 0.999998211861, Q2 : 0.00119843543507, Q3 : 0.00136750435922, Q4 : -0.000560488144401}
2019-04-14 11:39:20.31: SIM {TimeUS : 45934119, Roll : 0.11, Pitch : 0.12, Yaw : 359.93, Alt : 34.5900001526, Lat : 49.2835706, Lng : -123.1150209, Q1 : 0.999998748302, Q2 : 0.00102005922236, Q3 : 0.00105742213782, Q4 : -0.00057674315758}
2019-04-14 11:39:20.41: SIM {TimeUS : 46034079, Roll : 0.09, Pitch : 0.06, Yaw : 359.93, Alt : 34.8100013733, Lat : 49.2835706, Lng : -123.1150209, Q1 : 0.999999284744, Q2 : 0.000854109995998, Q3 : 0.000594944285695, Q4 : -0.000582156877499}
2019-04-14 11:39:20.51: SIM {TimeUS : 46134039, Roll : 0.07, Pitch : 0.03, Yaw : 359.93, Alt : 35.0200004578, Lat : 49.2835706, Lng : -123.1150209, Q1 : 0.999999582767, Q2 : 0.000676296825986, Q3 : 0.000293049175525, Q4 : -0.000600995030254}
2019-04-14 11:39:20.62: SIM {TimeUS : 46234832, Roll : 0.06, Pitch : 0.02, Yaw : 359.92, Alt : 35.2400016785, Lat : 49.2835706, Lng : -123.1150208, Q1 : 0.999999642372, Q2 : 0.000538964814041, Q3 : 0.000219566951273, Q4 : -0.000640033278614}
2019-04-14 11:39:20.71: SIM {TimeUS : 46334792, Roll : 0.06, Pitch : 0.03, Yaw : 359.92, Alt : 35.4599990845, Lat : 49.2835706, Lng : -123.1150208, Q1 : 0.999999582767, Q2 : 0.000525493756868, Q3 : 0.000316996272886, Q4 : -0.000688945583533}
2019-04-14 11:39:20.81: SIM {TimeUS : 46434752, Roll : 0.04, Pitch : 0.03, Yaw : 359.91, Alt : 35.6699981689, Lat : 49.2835706, Lng : -123.1150208, Q1 : 0.999999582767, Q2 : 0.000430503336247, Q3 : 0.000328450085362, Q4 : -0.000735679524951}
2019-04-14 11:39:20.91: SIM {TimeUS : 46534712, Roll : 0.02, Pitch : 0.02, Yaw : 359.91, Alt : 35.8899993896, Lat : 49.2835704, Lng : -123.1150208, Q1 : 0.999999642372, Q2 : 0.000175922759809, Q3 : 0.000249004311627, Q4 : -0.000777466746513}
2019-04-14 11:39:21.01: SIM {TimeUS : 46634672, Roll : 0.0, Pitch : 0.02, Yaw : 359.9, Alt : 36.1100006104, Lat : 49.2835704, Lng : -123.1150208, Q1 : 0.999999642372, Q2 : -4.87786055601e-05, Q3 : 0.000209939898923, Q4 : -0.000813409627881}
2019-04-14 11:39:21.11: SIM {TimeUS : 46734632, Roll : -0.02, Pitch : 0.04, Yaw : 359.9, Alt : 36.3400001526, Lat : 49.2835704, Lng : -123.1150208, Q1 : 0.999999582767, Q2 : -0.000183752621524, Q3 : 0.000376119918656, Q4 : -0.000849907752126}
2019-04-14 11:39:21.21: SIM {TimeUS : 46834592, Roll : -0.03, Pitch : 0.04, Yaw : 359.89, Alt : 36.5600013733, Lat : 49.2835704, Lng : -123.1150207, Q1 : 0.999999463558, Q2 : -0.000270654592896, Q3 : 0.000411889574025, Q4 : -0.000884597189724}
2019-04-14 11:39:21.31: SIM {TimeUS : 46934552, Roll : -0.03, Pitch : 0.04, Yaw : 359.89, Alt : 36.7799987793, Lat : 49.2835704, Lng : -123.1150207, Q1 : 0.999999463558, Q2 : -0.000327871122863, Q3 : 0.000373287330149, Q4 : -0.000921125872992}
2019-04-14 11:39:21.41: SIM {TimeUS : 47034512, Roll : -0.03, Pitch : 0.03, Yaw : 359.89, Alt : 37.0, Lat : 49.2835704, Lng : -123.1150207, Q1 : 0.999999463558, Q2 : -0.000347388238879, Q3 : 0.000289256247925, Q4 : -0.000953160866629}
2019-04-14 11:39:21.51: SIM {TimeUS : 47134472, Roll : -0.03, Pitch : 0.01, Yaw : 359.88, Alt : 37.2299995422, Lat : 49.2835704, Lng : -123.1150207, Q1 : 0.999999463558, Q2 : -0.000265622249572, Q3 : 0.000148213744978, Q4 : -0.000975660223048}
2019-04-14 11:39:21.61: SIM {TimeUS : 47234432, Roll : 0.0, Pitch : 0.0, Yaw : 359.88, Alt : 37.4500007629, Lat : 49.2835704, Lng : -123.1150207, Q1 : 0.999999523163, Q2 : -5.69191579416e-05, Q3 : -2.42996720772e-05, Q4 : -0.000981331104413}
2019-04-14 11:39:21.71: SIM {TimeUS : 47334392, Roll : 0.0, Pitch : -0.03, Yaw : 359.88, Alt : 37.6800003052, Lat : 49.2835704, Lng : -123.1150207, Q1 : 0.999999463558, Q2 : -4.01463767048e-05, Q3 : -0.000278912222711, Q4 : -0.000974917144049}
2019-04-14 11:39:21.81: SIM {TimeUS : 47434352, Roll : -0.02, Pitch : -0.07, Yaw : 359.88, Alt : 37.9099998474, Lat : 49.2835704, Lng : -123.1150207, Q1 : 0.999999344349, Q2 : -0.000197378292796, Q3 : -0.00061176775489, Q4 : -0.000963931321166}
2019-04-14 11:39:21.91: SIM {TimeUS : 47534312, Roll : -0.05, Pitch : -0.09, Yaw : 359.89, Alt : 38.1300010681, Lat : 49.2835704, Lng : -123.1150207, Q1 : 0.999999046326, Q2 : -0.000462258642074, Q3 : -0.000836611376144, Q4 : -0.000960146484431}
2019-04-14 11:39:22.01: SIM {TimeUS : 47634272, Roll : -0.09, Pitch : -0.09, Yaw : 359.88, Alt : 38.3600006104, Lat : 49.2835704, Lng : -123.1150207, Q1 : 0.999998867512, Q2 : -0.000796890351921, Q3 : -0.00083450821694, Q4 : -0.000977020827122}
2019-04-14 11:39:22.11: SIM {TimeUS : 47734232, Roll : -0.11, Pitch : -0.08, Yaw : 359.88, Alt : 38.5900001526, Lat : 49.2835704, Lng : -123.1150206, Q1 : 0.999998629093, Q2 : -0.0010323014576, Q3 : -0.000778266636189, Q4 : -0.000999885145575}
2019-04-14 11:39:22.21: SIM {TimeUS : 47834192, Roll : -0.12, Pitch : -0.07, Yaw : 359.88, Alt : 38.8199996948, Lat : 49.2835704, Lng : -123.1150206, Q1 : 0.999998688698, Q2 : -0.00108474423178, Q3 : -0.000661606143694, Q4 : -0.00101865443867}
2019-04-14 11:39:22.31: SIM {TimeUS : 47934152, Roll : -0.1, Pitch : -0.04, Yaw : 359.88, Alt : 39.0499992371, Lat : 49.2835704, Lng : -123.1150206, Q1 : 0.999998927116, Q2 : -0.000954341841862, Q3 : -0.00042640150059, Q4 : -0.00103840138763}
2019-04-14 11:39:22.41: SIM {TimeUS : 48034112, Roll : -0.08, Pitch : -0.04, Yaw : 359.87, Alt : 39.2799987793, Lat : 49.2835704, Lng : -123.1150206, Q1 : 0.99999910593, Q2 : -0.000730643281713, Q3 : -0.000355327763828, Q4 : -0.0010629943572}
2019-04-14 11:39:22.51: SIM {TimeUS : 48134072, Roll : -0.06, Pitch : -0.04, Yaw : 359.87, Alt : 39.5099983215, Lat : 49.2835704, Lng : -123.1150206, Q1 : 0.999999165535, Q2 : -0.000561573426239, Q3 : -0.00037131345016, Q4 : -0.00109690916725}
2019-04-14 11:39:22.61: SIM {TimeUS : 48234032, Roll : -0.05, Pitch : -0.03, Yaw : 359.87, Alt : 39.7400016785, Lat : 49.2835704, Lng : -123.1150206, Q1 : 0.99999922514, Q2 : -0.000456431269413, Q3 : -0.000264923000941, Q4 : -0.00112125428859}
2019-04-14 11:39:22.72: SIM {TimeUS : 48334825, Roll : -0.06, Pitch : 0.0, Yaw : 359.86, Alt : 39.9700012207, Lat : 49.2835704, Lng : -123.1150206, Q1 : 0.99999922514, Q2 : -0.000559162639547, Q3 : -5.2498664445e-05, Q4 : -0.00114574562758}
2019-04-14 11:39:22.81: SIM {TimeUS : 48434785, Roll : -0.06, Pitch : 0.01, Yaw : 359.86, Alt : 40.2000007629, Lat : 49.2835704, Lng : -123.1150206, Q1 : 0.99999910593, Q2 : -0.000570309173781, Q3 : 0.000167272548424, Q4 : -0.00117413431872}
2019-04-14 11:39:22.91: SIM {TimeUS : 48534745, Roll : -0.05, Pitch : 0.05, Yaw : 359.86, Alt : 40.4300003052, Lat : 49.2835706, Lng : -123.1150207, Q1 : 0.999999046326, Q2 : -0.000442393356934, Q3 : 0.000453008833574, Q4 : -0.00121198245324}
2019-04-14 11:39:23.01: SIM {TimeUS : 48634705, Roll : -0.03, Pitch : 0.06, Yaw : 359.85, Alt : 40.6699981689, Lat : 49.2835706, Lng : -123.1150207, Q1 : 0.999999046326, Q2 : -0.000269956362899, Q3 : 0.000558628060389, Q4 : -0.00124283786863}
2019-04-14 11:39:23.11: SIM {TimeUS : 48734665, Roll : 0.0, Pitch : 0.06, Yaw : 359.85, Alt : 40.9000015259, Lat : 49.2835706, Lng : -123.1150207, Q1 : 0.999999046326, Q2 : 6.58132876197e-06, Q3 : 0.000586216163356, Q4 : -0.00126765482128}
2019-04-14 11:39:23.21: SIM {TimeUS : 48834625, Roll : 0.03, Pitch : 0.08, Yaw : 359.85, Alt : 41.1300010681, Lat : 49.2835706, Lng : -123.1150207, Q1 : 0.999998867512, Q2 : 0.000333476549713, Q3 : 0.000735692272428, Q4 : -0.00129210867453}
2019-04-14 11:39:23.31: SIM {TimeUS : 48934585, Roll : 0.08, Pitch : 0.11, Yaw : 359.84, Alt : 41.3600006104, Lat : 49.2835706, Lng : -123.1150207, Q1 : 0.999998390675, Q2 : 0.000746886769775, Q3 : 0.000969501968939, Q4 : -0.00131694064476}
2019-04-14 11:39:23.41: SIM {TimeUS : 49034545, Roll : 0.11, Pitch : 0.14, Yaw : 359.84, Alt : 41.5999984741, Lat : 49.2835706, Lng : -123.1150207, Q1 : 0.999997854233, Q2 : 0.000993423629552, Q3 : 0.00124106474686, Q4 : -0.00133787712548}
2019-04-14 11:39:23.51: SIM {TimeUS : 49134505, Roll : 0.1, Pitch : 0.16, Yaw : 359.84, Alt : 41.8300018311, Lat : 49.2835706, Lng : -123.1150207, Q1 : 0.999997675419, Q2 : 0.000878863327671, Q3 : 0.0014676869614, Q4 : -0.00134208297823}
2019-04-14 11:39:23.61: SIM {TimeUS : 49234465, Roll : 0.05, Pitch : 0.18, Yaw : 359.84, Alt : 42.0600013733, Lat : 49.2835706, Lng : -123.1150207, Q1 : 0.999997675419, Q2 : 0.000468935613753, Q3 : 0.00161452917382, Q4 : -0.00134427472949}
2019-04-14 11:39:23.71: SIM {TimeUS : 49334425, Roll : 0.0, Pitch : 0.19, Yaw : 359.84, Alt : 42.2999992371, Lat : 49.2835706, Lng : -123.1150207, Q1 : 0.999997615814, Q2 : 5.31839759788e-05, Q3 : 0.00169763958547, Q4 : -0.00135139515623}
2019-04-14 11:39:23.81: SIM {TimeUS : 49434385, Roll : -0.01, Pitch : 0.17, Yaw : 359.84, Alt : 42.5299987793, Lat : 49.2835706, Lng : -123.1150207, Q1 : 0.999997913837, Q2 : -0.000119552933029, Q3 : 0.00150144984946, Q4 : -0.00136363785714}
2019-04-14 11:39:23.91: SIM {TimeUS : 49534345, Roll : -0.01, Pitch : 0.13, Yaw : 359.84, Alt : 42.7700004578, Lat : 49.2835706, Lng : -123.1150207, Q1 : 0.999998390675, Q2 : -0.000126137456391, Q3 : 0.00114913808648, Q4 : -0.00138236535713}
2019-04-14 11:39:24.01: SIM {TimeUS : 49634305, Roll : 0.0, Pitch : 0.12, Yaw : 359.83, Alt : 43.0, Lat : 49.2835706, Lng : -123.1150207, Q1 : 0.999998450279, Q2 : -1.82561052497e-05, Q3 : 0.00107180525083, Q4 : -0.00140807498246}
2019-04-14 11:39:24.11: SIM {TimeUS : 49734265, Roll : 0.03, Pitch : 0.13, Yaw : 359.83, Alt : 43.2400016785, Lat : 49.2835706, Lng : -123.1150207, Q1 : 0.999998211861, Q2 : 0.000294546043733, Q3 : 0.00117508182302, Q4 : -0.00145068927668}
2019-04-14 11:39:24.21: SIM {TimeUS : 49834225, Roll : 0.08, Pitch : 0.15, Yaw : 359.82, Alt : 43.4700012207, Lat : 49.2835706, Lng : -123.1150207, Q1 : 0.999997735023, Q2 : 0.000749949656893, Q3 : 0.00132802047301, Q4 : -0.00148711015936}
2019-04-14 11:39:24.31: SIM {TimeUS : 49934185, Roll : 0.12, Pitch : 0.14, Yaw : 359.82, Alt : 43.7099990845, Lat : 49.2835704, Lng : -123.1150207, Q1 : 0.999997437, Q2 : 0.00108469114639, Q3 : 0.00124895002227, Q4 : -0.00152067642193}
2019-04-14 11:39:24.41: SIM {TimeUS : 50034145, Roll : 0.12, Pitch : 0.12, Yaw : 359.82, Alt : 43.9500007629, Lat : 49.2835704, Lng : -123.1150207, Q1 : 0.999997615814, Q2 : 0.00109424139373, Q3 : 0.00107246171683, Q4 : -0.00155198911671}
2019-04-14 11:39:24.51: SIM {TimeUS : 50134105, Roll : 0.08, Pitch : 0.1, Yaw : 359.82, Alt : 44.1800003052, Lat : 49.2835704, Lng : -123.1150207, Q1 : 0.999998092651, Q2 : 0.000739374780096, Q3 : 0.000908738642465, Q4 : -0.00156373460777}
2019-04-14 11:39:24.61: SIM {TimeUS : 50234065, Roll : 0.02, Pitch : 0.09, Yaw : 359.82, Alt : 44.4199981689, Lat : 49.2835704, Lng : -123.1150207, Q1 : 0.999998450279, Q2 : 0.000197741857846, Q3 : 0.000789764861111, Q4 : -0.00156698666979}
2019-04-14 11:39:24.71: SIM {TimeUS : 50334025, Roll : -0.02, Pitch : 0.08, Yaw : 359.81, Alt : 44.6500015259, Lat : 49.2835704, Lng : -123.1150206, Q1 : 0.999998450279, Q2 : -0.000213211620576, Q3 : 0.000768104102463, Q4 : -0.00157336518168}
2019-04-14 11:39:24.81: SIM {TimeUS : 50434818, Roll : -0.05, Pitch : 0.07, Yaw : 359.81, Alt : 44.8899993896, Lat : 49.2835704, Lng : -123.1150206, Q1 : 0.999998390675, Q2 : -0.000452325417427, Q3 : 0.000686328450684, Q4 : -0.00158152717631}
2019-04-14 11:39:24.91: SIM {TimeUS : 50534778, Roll : -0.06, Pitch : 0.06, Yaw : 359.81, Alt : 45.1300010681, Lat : 49.2835704, Lng : -123.1150206, Q1 : 0.999998450279, Q2 : -0.000522961141542, Q3 : 0.000533779268153, Q4 : -0.00158590602223}
2019-04-14 11:39:25.01: SIM {TimeUS : 50634738, Roll : -0.05, Pitch : 0.03, Yaw : 359.81, Alt : 45.3600006104, Lat : 49.2835703, Lng : -123.1150206, Q1 : 0.999998509884, Q2 : -0.000517064647283, Q3 : 0.00029057028587, Q4 : -0.00159750250168}
2019-04-14 11:39:25.11: SIM {TimeUS : 50734698, Roll : -0.03, Pitch : 0.0, Yaw : 359.81, Alt : 45.5999984741, Lat : 49.2835703, Lng : -123.1150206, Q1 : 0.999998629093, Q2 : -0.000340958766174, Q3 : 4.73226282338e-05, Q4 : -0.00162414985243}
2019-04-14 11:39:25.21: SIM {TimeUS : 50834658, Roll : 0.0, Pitch : -0.01, Yaw : 359.8, Alt : 45.8300018311, Lat : 49.2835703, Lng : -123.1150206, Q1 : 0.999998629093, Q2 : -7.12901965016e-05, Q3 : -9.23550032894e-05, Q4 : -0.00166194385383}
2019-04-14 11:39:25.31: SIM {TimeUS : 50934618, Roll : 0.0, Pitch : -0.01, Yaw : 359.8, Alt : 46.0600013733, Lat : 49.2835703, Lng : -123.1150206, Q1 : 0.999998509884, Q2 : -1.61985474278e-06, Q3 : -0.000102554280602, Q4 : -0.0017056686338}
2019-04-14 11:39:25.41: SIM {TimeUS : 51034578, Roll : 0.0, Pitch : -0.01, Yaw : 359.79, Alt : 46.2900009155, Lat : 49.2835703, Lng : -123.1150205, Q1 : 0.999998450279, Q2 : -7.51834159018e-05, Q3 : -0.000168329308508, Q4 : -0.0017536933301}
2019-04-14 11:39:25.51: SIM {TimeUS : 51134538, Roll : -0.01, Pitch : -0.03, Yaw : 359.79, Alt : 46.5099983215, Lat : 49.2835703, Lng : -123.1150205, Q1 : 0.99999833107, Q2 : -0.000169435865246, Q3 : -0.000324136781273, Q4 : -0.00180379557423}
2019-04-14 11:39:25.61: SIM {TimeUS : 51234498, Roll : -0.02, Pitch : -0.04, Yaw : 359.78, Alt : 46.7299995422, Lat : 49.2835703, Lng : -123.1150205, Q1 : 0.999998211861, Q2 : -0.000228038188652, Q3 : -0.000405095604947, Q4 : -0.00184756191447}
2019-04-14 11:39:25.71: SIM {TimeUS : 51334458, Roll : -0.02, Pitch : -0.05, Yaw : 359.78, Alt : 46.9399986267, Lat : 49.2835703, Lng : -123.1150205, Q1 : 0.999998092651, Q2 : -0.000209853445995, Q3 : -0.000441470067017, Q4 : -0.00188491144218}
2019-04-14 11:39:25.81: SIM {TimeUS : 51434418, Roll : -0.02, Pitch : -0.05, Yaw : 359.77, Alt : 47.1500015259, Lat : 49.2835703, Lng : -123.1150205, Q1 : 0.999998033047, Q2 : -0.000262023560936, Q3 : -0.000458807422547, Q4 : -0.00192095898092}
2019-04-14 11:39:25.91: SIM {TimeUS : 51534378, Roll : -0.05, Pitch : -0.04, Yaw : 359.77, Alt : 47.3499984741, Lat : 49.2835703, Lng : -123.1150205, Q1 : 0.999997913837, Q2 : -0.000453720771475, Q3 : -0.000404016609536, Q4 : -0.00195541768335}
2019-04-14 11:39:26.01: SIM {TimeUS : 51634338, Roll : -0.08, Pitch : -0.04, Yaw : 359.77, Alt : 47.5400009155, Lat : 49.2835703, Lng : -123.1150205, Q1 : 0.999997675419, Q2 : -0.000747760583181, Q3 : -0.000362529972335, Q4 : -0.00198794854805}
2019-04-14 11:39:26.11: SIM {TimeUS : 51734298, Roll : -0.12, Pitch : -0.05, Yaw : 359.76, Alt : 47.7200012207, Lat : 49.2835703, Lng : -123.1150205, Q1 : 0.999997258186, Q2 : -0.00110622879583, Q3 : -0.000499305664562, Q4 : -0.0020177483093}
2019-04-14 11:39:26.21: SIM {TimeUS : 51834258, Roll : -0.15, Pitch : -0.06, Yaw : 359.76, Alt : 47.8800010681, Lat : 49.2835703, Lng : -123.1150205, Q1 : 0.999996781349, Q2 : -0.00137684610672, Q3 : -0.000586354406551, Q4 : -0.00204421347007}
2019-04-14 11:39:26.31: SIM {TimeUS : 51934218, Roll : -0.16, Pitch : -0.06, Yaw : 359.76, Alt : 48.0400009155, Lat : 49.2835703, Lng : -123.1150205, Q1 : 0.99999666214, Q2 : -0.00144539761823, Q3 : -0.000540107896086, Q4 : -0.00207231240347}
2019-04-14 11:39:26.41: SIM {TimeUS : 52034178, Roll : -0.15, Pitch : -0.05, Yaw : 359.75, Alt : 48.1800003052, Lat : 49.2835703, Lng : -123.1150205, Q1 : 0.999996840954, Q2 : -0.00133762997575, Q3 : -0.000451704428997, Q4 : -0.00209678104147}
2019-04-14 11:39:26.51: SIM {TimeUS : 52134138, Roll : -0.13, Pitch : -0.04, Yaw : 359.75, Alt : 48.3199996948, Lat : 49.2835703, Lng : -123.1150205, Q1 : 0.999997019768, Q2 : -0.00114129215945, Q3 : -0.000371431058738, Q4 : -0.00211646710522}
2019-04-14 11:39:26.61: SIM {TimeUS : 52234098, Roll : -0.1, Pitch : -0.03, Yaw : 359.75, Alt : 48.4399986267, Lat : 49.2835703, Lng : -123.1150205, Q1 : 0.999997198582, Q2 : -0.000960410106927, Q3 : -0.000343028659699, Q4 : -0.00213783700019}
2019-04-14 11:39:26.71: SIM {TimeUS : 52334058, Roll : -0.08, Pitch : -0.04, Yaw : 359.75, Alt : 48.5499992371, Lat : 49.2835703, Lng : -123.1150205, Q1 : 0.999997317791, Q2 : -0.000760232738685, Q3 : -0.000413688539993, Q4 : -0.00215609162115}
2019-04-14 11:39:26.82: SIM {TimeUS : 52434851, Roll : -0.05, Pitch : -0.05, Yaw : 359.75, Alt : 48.6399993896, Lat : 49.2835703, Lng : -123.1150205, Q1 : 0.999997377396, Q2 : -0.000499722256791, Q3 : -0.000491356651764, Q4 : -0.00217987340875}
2019-04-14 11:39:26.91: SIM {TimeUS : 52534811, Roll : -0.03, Pitch : -0.06, Yaw : 359.74, Alt : 48.7299995422, Lat : 49.2835703, Lng : -123.1150205, Q1 : 0.999997377396, Q2 : -0.000330570968799, Q3 : -0.000557566527277, Q4 : -0.00220664101653}
2019-04-14 11:39:27.01: SIM {TimeUS : 52634771, Roll : -0.03, Pitch : -0.07, Yaw : 359.74, Alt : 48.7999992371, Lat : 49.2835703, Lng : -123.1150205, Q1 : 0.999997258186, Q2 : -0.000290012132609, Q3 : -0.000643158680759, Q4 : -0.00223168032244}
2019-04-14 11:39:27.11: SIM {TimeUS : 52734731, Roll : -0.01, Pitch : -0.07, Yaw : 359.74, Alt : 48.8600006104, Lat : 49.2835703, Lng : -123.1150206, Q1 : 0.999997258186, Q2 : -0.000108891814307, Q3 : -0.000613421725575, Q4 : -0.00225633801892}
2019-04-14 11:39:27.21: SIM {TimeUS : 52834691, Roll : 0.01, Pitch : -0.05, Yaw : 359.73, Alt : 48.9199981689, Lat : 49.2835703, Lng : -123.1150206, Q1 : 0.999997258186, Q2 : 0.000152251959662, Q3 : -0.000479524722323, Q4 : -0.0022770173382}
2019-04-14 11:39:27.31: SIM {TimeUS : 52934651, Roll : 0.04, Pitch : -0.03, Yaw : 359.73, Alt : 48.9700012207, Lat : 49.2835703, Lng : -123.1150206, Q1 : 0.999997198582, Q2 : 0.000418982061092, Q3 : -0.000292168435408, Q4 : -0.00229554739781}
2019-04-14 11:39:27.41: SIM {TimeUS : 53034611, Roll : 0.1, Pitch : -0.04, Yaw : 359.73, Alt : 49.0099983215, Lat : 49.2835703, Lng : -123.1150206, Q1 : 0.999996781349, Q2 : 0.000949177425355, Q3 : -0.000398810108891, Q4 : -0.00231509050354}
2019-04-14 11:39:27.51: SIM {TimeUS : 53134571, Roll : 0.32, Pitch : -0.18, Yaw : 359.73, Alt : 49.0400009155, Lat : 49.2835703, Lng : -123.1150206, Q1 : 0.999991834164, Q2 : 0.00287450407632, Q3 : -0.00159658165649, Q4 : -0.00234387395903}
2019-04-14 11:39:27.61: SIM {TimeUS : 53234531, Roll : 0.76, Pitch : -0.49, Yaw : 359.72, Alt : 49.0699996948, Lat : 49.2835703, Lng : -123.1150206, Q1 : 0.99996560812, Q2 : 0.00662551773712, Q3 : -0.00437873834744, Q4 : -0.00237749726512}
2019-04-14 11:39:27.71: SIM {TimeUS : 53334491, Roll : 1.39, Pitch : -0.96, Yaw : 359.71, Alt : 49.0999984741, Lat : 49.2835703, Lng : -123.1150206, Q1 : 0.999888420105, Q2 : 0.0121101634577, Q3 : -0.00841276161373, Q4 : -0.00240052863955}
2019-04-14 11:39:27.81: SIM {TimeUS : 53434451, Roll : 2.18, Pitch : -1.51, Yaw : 359.69, Alt : 49.1199989319, Lat : 49.2835703, Lng : -123.1150205, Q1 : 0.999728441238, Q2 : 0.0190115403384, Q3 : -0.0132599221542, Q4 : -0.00239434628747}
2019-04-14 11:39:27.91: SIM {TimeUS : 53534411, Roll : 3.03, Pitch : -2.1, Yaw : 359.67, Alt : 49.1399993896, Lat : 49.2835704, Lng : -123.1150204, Q1 : 0.9994789958, Q2 : 0.026392724365, Q3 : -0.0184334628284, Q4 : -0.00233388436027}
2019-04-14 11:39:28.01: SIM {TimeUS : 53634371, Roll : 3.8, Pitch : -2.62, Yaw : 359.66, Alt : 49.1599998474, Lat : 49.2835706, Lng : -123.1150203, Q1 : 0.999184012413, Q2 : 0.0331211872399, Q3 : -0.0230095051229, Q4 : -0.00220210058615}
2019-04-14 11:39:28.11: SIM {TimeUS : 53734331, Roll : 4.43, Pitch : -3.02, Yaw : 359.65, Alt : 49.1699981689, Lat : 49.2835707, Lng : -123.1150201, Q1 : 0.998902082443, Q2 : 0.0385867767036, Q3 : -0.026489213109, Q4 : -0.00200138008222}
2019-04-14 11:39:28.21: SIM {TimeUS : 53834291, Roll : 4.9, Pitch : -3.31, Yaw : 359.65, Alt : 49.1800003052, Lat : 49.2835708, Lng : -123.1150199, Q1 : 0.998666703701, Q2 : 0.0426550507545, Q3 : -0.0290231760591, Q4 : -0.00175850605592}
2019-04-14 11:39:28.31: SIM {TimeUS : 53934251, Roll : 5.24, Pitch : -3.56, Yaw : 359.66, Alt : 49.1899986267, Lat : 49.2835709, Lng : -123.1150194, Q1 : 0.998468399048, Q2 : 0.0456776767969, Q3 : -0.0311783403158, Q4 : -0.0015133714769}
2019-04-14 11:39:28.41: SIM {TimeUS : 54034211, Roll : 5.52, Pitch : -3.79, Yaw : 359.67, Alt : 49.2000007629, Lat : 49.2835713, Lng : -123.115019, Q1 : 0.998290896416, Q2 : 0.0480949655175, Q3 : -0.0331734828651, Q4 : -0.00126164488029}
2019-04-14 11:39:28.51: SIM {TimeUS : 54134171, Roll : 5.8, Pitch : -4.03, Yaw : 359.67, Alt : 49.2099990845, Lat : 49.2835715, Lng : -123.1150184, Q1 : 0.998100817204, Q2 : 0.0504654124379, Q3 : -0.0353130660951, Q4 : -0.001016613096}
2019-04-14 11:39:28.61: SIM {TimeUS : 54234131, Roll : 6.09, Pitch : -4.28, Yaw : 359.68, Alt : 49.2200012207, Lat : 49.2835718, Lng : -123.1150177, Q1 : 0.997886002064, Q2 : 0.0530586354434, Q3 : -0.0375212356448, Q4 : -0.000753638974857}
2019-04-14 11:39:28.71: SIM {TimeUS : 54334091, Roll : 6.38, Pitch : -4.49, Yaw : 359.69, Alt : 49.2299995422, Lat : 49.2835721, Lng : -123.1150169, Q1 : 0.997681558132, Q2 : 0.0555449835956, Q3 : -0.0393211394548, Q4 : -0.000464417214971}
2019-04-14 11:39:28.81: SIM {TimeUS : 54434051, Roll : 6.61, Pitch : -4.66, Yaw : 359.7, Alt : 49.2299995422, Lat : 49.2835726, Lng : -123.115016, Q1 : 0.997511327267, Q2 : 0.0575452931225, Q3 : -0.0407389253378, Q4 : -0.000195426255232}
2019-04-14 11:39:28.92: SIM {TimeUS : 54534844, Roll : 6.79, Pitch : -4.78, Yaw : 359.72, Alt : 49.2400016785, Lat : 49.2835731, Lng : -123.115015, Q1 : 0.997377991676, Q2 : 0.0590873584151, Q3 : -0.0417834222317, Q4 : 4.52105050499e-05}
2019-04-14 11:39:29.01: SIM {TimeUS : 54634804, Roll : 6.9, Pitch : -4.86, Yaw : 359.73, Alt : 49.2400016785, Lat : 49.2835734, Lng : -123.1150139, Q1 : 0.997287809849, Q2 : 0.0601109042764, Q3 : -0.0424691066146, Q4 : 0.000224641014938}
2019-04-14 11:39:29.11: SIM {TimeUS : 54734764, Roll : 7.0, Pitch : -4.93, Yaw : 359.73, Alt : 49.25, Lat : 49.283574, Lng : -123.1150128, Q1 : 0.997208595276, Q2 : 0.0609382949769, Q3 : -0.0431451760232, Q4 : 0.00032960405224}
2019-04-14 11:39:29.21: SIM {TimeUS : 54834724, Roll : 7.13, Pitch : -5.02, Yaw : 359.73, Alt : 49.25, Lat : 49.2835745, Lng : -123.1150116, Q1 : 0.997105836868, Q2 : 0.0620499402285, Q3 : -0.0439268238842, Q4 : 0.000402641482651}
2019-04-14 11:39:29.31: SIM {TimeUS : 54934684, Roll : 7.45, Pitch : -4.99, Yaw : 359.88, Alt : 49.25, Lat : 49.2835752, Lng : -123.1150102, Q1 : 0.996939301491, Q2 : 0.0649111717939, Q3 : -0.0435345321894, Q4 : 0.00180325272959}
2019-04-14 11:39:29.41: SIM {TimeUS : 55034644, Roll : 8.0, Pitch : -4.78, Yaw : 0.73, Alt : 49.2599983215, Lat : 49.2835758, Lng : -123.1150088, Q1 : 0.996654331684, Q2 : 0.0699977874756, Q3 : -0.041162148118, Q4 : 0.00928243622184}
2019-04-14 11:39:29.51: SIM {TimeUS : 55134604, Roll : 8.61, Pitch : -4.69, Yaw : 2.92, Alt : 49.2599983215, Lat : 49.2835765, Lng : -123.1150072, Q1 : 0.995934009552, Q2 : 0.0760893896222, Q3 : -0.0388731248677, Q4 : 0.0285437833518}
2019-04-14 11:39:29.61: SIM {TimeUS : 55234564, Roll : 9.02, Pitch : -5.03, Yaw : 6.71, Alt : 49.2599983215, Lat : 49.2835773, Lng : -123.1150057, Q1 : 0.994027793407, Q2 : 0.0810085833073, Q3 : -0.0391567870975, Q4 : 0.0617502108216}
2019-04-14 11:39:29.71: SIM {TimeUS : 55334524, Roll : 9.01, Pitch : -5.9, Yaw : 11.96, Alt : 49.2599983215, Lat : 49.283578, Lng : -123.1150039, Q1 : 0.989736735821, Q2 : 0.0834201723337, Q3 : -0.0428973399103, Q4 : 0.107805892825}
2019-04-14 11:39:29.81: SIM {TimeUS : 55434484, Roll : 8.45, Pitch : -7.2, Yaw : 18.46, Alt : 49.2599983215, Lat : 49.2835787, Lng : -123.1150021, Q1 : 0.98167437315, Q2 : 0.0826322734356, Q3 : -0.0500714480877, Q4 : 0.164256736636}
2019-04-14 11:39:29.91: SIM {TimeUS : 55534444, Roll : 7.27, Pitch : -8.76, Yaw : 25.95, Alt : 49.2599983215, Lat : 49.2835794, Lng : -123.1150001, Q1 : 0.968567728996, Q2 : 0.0787450298667, Q3 : -0.0601376108825, Q4 : 0.228165015578}
2019-04-14 11:39:30.01: SIM {TimeUS : 55634404, Roll : 5.52, Pitch : -10.34, Yaw : 34.18, Alt : 49.2700004578, Lat : 49.2835801, Lng : -123.114998, Q1 : 0.949564516544, Q2 : 0.0723602920771, Q3 : -0.0719817951322, Q4 : 0.296495914459}
2019-04-14 11:39:30.11: SIM {TimeUS : 55734364, Roll : 3.26, Pitch : -11.72, Yaw : 42.87, Alt : 49.2700004578, Lat : 49.283581, Lng : -123.1149958, Q1 : 0.924522578716, Q2 : 0.0636607706547, Q3 : -0.084658280015, Q4 : 0.36611238122}
2019-04-14 11:39:30.21: SIM {TimeUS : 55834324, Roll : 0.36, Pitch : -12.67, Yaw : 51.49, Alt : 49.2700004578, Lat : 49.2835818, Lng : -123.1149934, Q1 : 0.895057618618, Q2 : 0.0507588870823, Q3 : -0.0980416983366, Q4 : 0.432068586349}
2019-04-14 11:39:30.31: SIM {TimeUS : 55934284, Roll : -2.83, Pitch : -13.05, Yaw : 59.16, Alt : 49.2700004578, Lat : 49.2835828, Lng : -123.114991, Q1 : 0.865132987499, Q2 : 0.0347609892488, Q3 : -0.110963411629, Q4 : 0.487876683474}
2019-04-14 11:39:30.41: SIM {TimeUS : 56034244, Roll : -5.64, Pitch : -12.96, Yaw : 65.1, Alt : 49.2700004578, Lat : 49.2835837, Lng : -123.1149886, Q1 : 0.839500486851, Q2 : 0.0194668639451, Q3 : -0.121395245194, Q4 : 0.529266655445}
2019-04-14 11:39:30.51: SIM {TimeUS : 56134204, Roll : -7.54, Pitch : -12.69, Yaw : 68.95, Alt : 49.2700004578, Lat : 49.2835848, Lng : -123.1149859, Q1 : 0.821656882763, Q2 : 0.00857458356768, Q3 : -0.127955242991, Q4 : 0.555368244648}
2019-04-14 11:39:30.61: SIM {TimeUS : 56234164, Roll : -8.35, Pitch : -12.5, Yaw : 70.78, Alt : 49.2700004578, Lat : 49.283586, Lng : -123.1149835, Q1 : 0.812778174877, Q2 : 0.00392609741539, Q3 : -0.130484655499, Q4 : 0.567758738995}
2019-04-14 11:39:30.71: SIM {TimeUS : 56334124, Roll : -8.17, Pitch : -12.56, Yaw : 70.91, Alt : 49.2700004578, Lat : 49.2835873, Lng : -123.1149808, Q1 : 0.81212502718, Q2 : 0.00555429561064, Q3 : -0.130012542009, Q4 : 0.56878721714}
2019-04-14 11:39:30.81: SIM {TimeUS : 56434084, Roll : -7.23, Pitch : -12.89, Yaw : 69.69, Alt : 49.2700004578, Lat : 49.2835886, Lng : -123.114978, Q1 : 0.817928493023, Q2 : 0.0125862872228, Q3 : -0.127745762467, Q4 : 0.560816884041}
2019-04-14 11:39:30.91: SIM {TimeUS : 56534044, Roll : -5.72, Pitch : -13.47, Yaw : 67.47, Alt : 49.2700004578, Lat : 49.2835902, Lng : -123.1149754, Q1 : 0.828056633472, Q2 : 0.0238495245576, Q3 : -0.124930091202, Q4 : 0.546027362347}
2019-04-14 11:39:31.02: SIM {TimeUS : 56634837, Roll : -3.87, Pitch : -14.19, Yaw : 64.57, Alt : 49.2799987793, Lat : 49.2835916, Lng : -123.1149725, Q1 : 0.840636968613, Q2 : 0.0376355424523, Q3 : -0.122285455465, Q4 : 0.526269257069}
2019-04-14 11:39:31.11: SIM {TimeUS : 56734797, Roll : -1.92, Pitch : -14.9, Yaw : 61.35, Alt : 49.2799987793, Lat : 49.2835933, Lng : -123.1149697, Q1 : 0.853797137737, Q2 : 0.0518670752645, Q3 : -0.120019458234, Q4 : 0.503920197487}
2019-04-14 11:39:31.21: SIM {TimeUS : 56834757, Roll : -0.05, Pitch : -15.47, Yaw : 58.09, Alt : 49.2799987793, Lat : 49.283595, Lng : -123.1149667, Q1 : 0.866293549538, Q2 : 0.0649736821651, Q3 : -0.117907337844, Q4 : 0.48105275631}
2019-04-14 11:39:31.31: SIM {TimeUS : 56934717, Roll : 1.55, Pitch : -15.8, Yaw : 55.14, Alt : 49.2799987793, Lat : 49.2835965, Lng : -123.1149636, Q1 : 0.877062737942, Q2 : 0.0755710750818, Q3 : -0.115675233305, Q4 : 0.460075229406}
2019-04-14 11:39:31.41: SIM {TimeUS : 57034677, Roll : 2.76, Pitch : -15.91, Yaw : 52.78, Alt : 49.2799987793, Lat : 49.2835983, Lng : -123.1149604, Q1 : 0.885409235954, Q2 : 0.0829668045044, Q3 : -0.113369472325, Q4 : 0.443073779345}
2019-04-14 11:39:31.51: SIM {TimeUS : 57134637, Roll : 3.5, Pitch : -15.88, Yaw : 51.17, Alt : 49.2799987793, Lat : 49.2836, Lng : -123.1149571, Q1 : 0.891034901142, Q2 : 0.0869520679116, Q3 : -0.111460134387, Q4 : 0.431361585855}
2019-04-14 11:39:31.61: SIM {TimeUS : 57234597, Roll : 3.74, Pitch : -15.78, Yaw : 50.37, Alt : 49.2799987793, Lat : 49.2836016, Lng : -123.1149536, Q1 : 0.893949151039, Q2 : 0.0877222716808, Q3 : -0.110442019999, Q4 : 0.42539665103}
2019-04-14 11:39:31.71: SIM {TimeUS : 57334557, Roll : 3.54, Pitch : -15.72, Yaw : 50.32, Alt : 49.2900009155, Lat : 49.2836032, Lng : -123.11495, Q1 : 0.894349992275, Q2 : 0.0858733057976, Q3 : -0.110743537545, Q4 : 0.424852669239}
2019-04-14 11:39:31.81: SIM {TimeUS : 57434517, Roll : 2.98, Pitch : -15.75, Yaw : 50.9, Alt : 49.2900009155, Lat : 49.2836049, Lng : -123.1149462, Q1 : 0.892579734325, Q2 : 0.0821527466178, Q3 : -0.112612679601, Q4 : 0.428801506758}
2019-04-14 11:39:31.91: SIM {TimeUS : 57534477, Roll : 2.19, Pitch : -15.85, Yaw : 51.93, Alt : 49.2900009155, Lat : 49.2836067, Lng : -123.1149424, Q1 : 0.889111459255, Q2 : 0.0774218440056, Q3 : -0.11571329087, Q4 : 0.436001241207}
2019-04-14 11:39:32.01: SIM {TimeUS : 57634437, Roll : 1.29, Pitch : -16.01, Yaw : 53.23, Alt : 49.2900009155, Lat : 49.2836084, Lng : -123.1149385, Q1 : 0.884532213211, Q2 : 0.0723670348525, Q3 : -0.119513228536, Q4 : 0.445064365864}
2019-04-14 11:39:32.11: SIM {TimeUS : 57734397, Roll : 0.4, Pitch : -16.16, Yaw : 54.61, Alt : 49.2900009155, Lat : 49.2836101, Lng : -123.1149345, Q1 : 0.879484176636, Q2 : 0.0676082149148, Q3 : -0.123333223164, Q4 : 0.454670876265}
2019-04-14 11:39:32.21: SIM {TimeUS : 57834357, Roll : -0.36, Pitch : -16.29, Yaw : 55.91, Alt : 49.2900009155, Lat : 49.2836118, Lng : -123.1149305, Q1 : 0.874591350555, Q2 : 0.0636581778526, Q3 : -0.126654103398, Q4 : 0.463677078485}
2019-04-14 11:39:32.31: SIM {TimeUS : 57934317, Roll : -0.95, Pitch : -16.39, Yaw : 56.99, Alt : 49.2900009155, Lat : 49.2836136, Lng : -123.1149263, Q1 : 0.870380282402, Q2 : 0.0608070790768, Q3 : -0.129256919026, Q4 : 0.471204191446}
2019-04-14 11:39:32.41: SIM {TimeUS : 58034277, Roll : -1.33, Pitch : -16.46, Yaw : 57.78, Alt : 49.2900009155, Lat : 49.2836154, Lng : -123.1149223, Q1 : 0.867247879505, Q2 : 0.0590951740742, Q3 : -0.130950018764, Q4 : 0.476698040962}
2019-04-14 11:39:32.51: SIM {TimeUS : 58134237, Roll : -1.52, Pitch : -16.51, Yaw : 58.24, Alt : 49.2900009155, Lat : 49.2836174, Lng : -123.1149181, Q1 : 0.865388870239, Q2 : 0.058393985033, Q3 : -0.131875768304, Q4 : 0.479896992445}
2019-04-14 11:39:32.61: SIM {TimeUS : 58234197, Roll : -1.52, Pitch : -16.52, Yaw : 58.37, Alt : 49.2900009155, Lat : 49.2836193, Lng : -123.1149138, Q1 : 0.864826798439, Q2 : 0.0585874319077, Q3 : -0.131888255477, Q4 : 0.480882227421}
2019-04-14 11:39:32.71: SIM {TimeUS : 58334157, Roll : -1.34, Pitch : -16.52, Yaw : 58.22, Alt : 49.2900009155, Lat : 49.2836212, Lng : -123.1149095, Q1 : 0.865374028683, Q2 : 0.0597677454352, Q3 : -0.131169945002, Q4 : 0.479948043823}
2019-04-14 11:39:32.81: SIM {TimeUS : 58434117, Roll : -1.05, Pitch : -16.52, Yaw : 57.85, Alt : 49.2900009155, Lat : 49.2836232, Lng : -123.1149052, Q1 : 0.866758704185, Q2 : 0.0615572072566, Q3 : -0.130202740431, Q4 : 0.477480202913}
2019-04-14 11:39:32.91: SIM {TimeUS : 58534077, Roll : -0.69, Pitch : -16.56, Yaw : 57.34, Alt : 49.2900009155, Lat : 49.283625, Lng : -123.1149009, Q1 : 0.868642628193, Q2 : 0.0638638883829, Q3 : -0.129214927554, Q4 : 0.474009484053}
2019-04-14 11:39:33.01: SIM {TimeUS : 58634037, Roll : -0.28, Pitch : -16.59, Yaw : 56.77, Alt : 49.2900009155, Lat : 49.2836272, Lng : -123.1148964, Q1 : 0.870731413364, Q2 : 0.0664259716868, Q3 : -0.128150612116, Q4 : 0.470097720623}
2019-04-14 11:39:33.12: SIM {TimeUS : 58734830, Roll : 0.08, Pitch : -16.63, Yaw : 56.2, Alt : 49.2900009155, Lat : 49.2836292, Lng : -123.1148919, Q1 : 0.872789800167, Q2 : 0.0687564760447, Q3 : -0.12726829946, Q4 : 0.466168731451}
2019-04-14 11:39:33.21: SIM {TimeUS : 58834790, Roll : 0.36, Pitch : -16.68, Yaw : 55.7, Alt : 49.2900009155, Lat : 49.2836311, Lng : -123.1148874, Q1 : 0.874568223953, Q2 : 0.0705475956202, Q3 : -0.126794695854, Q4 : 0.462684124708}
2019-04-14 11:39:33.31: SIM {TimeUS : 58934750, Roll : 0.55, Pitch : -16.74, Yaw : 55.32, Alt : 49.2900009155, Lat : 49.2836333, Lng : -123.1148829, Q1 : 0.875933647156, Q2 : 0.0717952549458, Q3 : -0.1267285496, Q4 : 0.459919154644}
2019-04-14 11:39:33.41: SIM {TimeUS : 59034710, Roll : 0.64, Pitch : -16.8, Yaw : 55.07, Alt : 49.2900009155, Lat : 49.2836353, Lng : -123.1148783, Q1 : 0.876809477806, Q2 : 0.0725023373961, Q3 : -0.127028822899, Q4 : 0.458052664995}
2019-04-14 11:39:33.51: SIM {TimeUS : 59134670, Roll : 0.64, Pitch : -16.85, Yaw : 54.95, Alt : 49.2900009155, Lat : 49.2836373, Lng : -123.1148737, Q1 : 0.87722069025, Q2 : 0.0725703984499, Q3 : -0.127489894629, Q4 : 0.45712557435}
2019-04-14 11:39:33.61: SIM {TimeUS : 59234630, Roll : 0.58, Pitch : -16.89, Yaw : 54.95, Alt : 49.2900009155, Lat : 49.2836395, Lng : -123.114869, Q1 : 0.877203166485, Q2 : 0.0722369402647, Q3 : -0.128006413579, Q4 : 0.457067668438}
2019-04-14 11:39:33.71: SIM {TimeUS : 59334590, Roll : 0.48, Pitch : -16.92, Yaw : 55.05, Alt : 49.2900009155, Lat : 49.2836415, Lng : -123.1148643, Q1 : 0.876827299595, Q2 : 0.0717021822929, Q3 : -0.128532156348, Q4 : 0.457725048065}
2019-04-14 11:39:33.81: SIM {TimeUS : 59434550, Roll : 0.36, Pitch : -16.94, Yaw : 55.22, Alt : 49.2999992371, Lat : 49.2836437, Lng : -123.1148595, Q1 : 0.876195549965, Q2 : 0.0710708573461, Q3 : -0.129092752934, Q4 : 0.458874017}
2019-04-14 11:39:33.91: SIM {TimeUS : 59534510, Roll : 0.23, Pitch : -16.96, Yaw : 55.43, Alt : 49.2999992371, Lat : 49.2836457, Lng : -123.1148548, Q1 : 0.875424802303, Q2 : 0.0704264864326, Q3 : -0.129666537046, Q4 : 0.460280537605}
2019-04-14 11:39:34.01: SIM {TimeUS : 59634470, Roll : 0.1, Pitch : -16.99, Yaw : 55.64, Alt : 49.2999992371, Lat : 49.2836479, Lng : -123.11485, Q1 : 0.874623894691, Q2 : 0.0697988122702, Q3 : -0.130276963115, Q4 : 0.461724102497}
2019-04-14 11:39:34.11: SIM {TimeUS : 59734430, Roll : -0.01, Pitch : -17.02, Yaw : 55.83, Alt : 49.2999992371, Lat : 49.2836499, Lng : -123.1148451, Q1 : 0.87390267849, Q2 : 0.0692075118423, Q3 : -0.130859211087, Q4 : 0.463012218475}
2019-04-14 11:39:34.21: SIM {TimeUS : 59834390, Roll : -0.11, Pitch : -17.05, Yaw : 55.98, Alt : 49.2999992371, Lat : 49.2836521, Lng : -123.1148403, Q1 : 0.873315095901, Q2 : 0.0687671452761, Q3 : -0.131417512894, Q4 : 0.464027285576}
2019-04-14 11:39:34.31: SIM {TimeUS : 59934350, Roll : -0.17, Pitch : -17.09, Yaw : 56.08, Alt : 49.2999992371, Lat : 49.2836542, Lng : -123.1148354, Q1 : 0.872904539108, Q2 : 0.0685562491417, Q3 : -0.131910040975, Q4 : 0.464690744877}
2019-04-14 11:39:34.41: SIM {TimeUS : 60034310, Roll : -0.21, Pitch : -17.13, Yaw : 56.12, Alt : 49.2999992371, Lat : 49.2836565, Lng : -123.1148305, Q1 : 0.872699737549, Q2 : 0.0684894770384, Q3 : -0.132347524166, Q4 : 0.464960753918}
2019-04-14 11:39:34.51: SIM {TimeUS : 60134270, Roll : -0.22, Pitch : -17.17, Yaw : 56.12, Alt : 49.2999992371, Lat : 49.2836585, Lng : -123.1148256, Q1 : 0.872700989246, Q2 : 0.0685037523508, Q3 : -0.132647916675, Q4 : 0.464870691299}
2019-04-14 11:39:34.61: SIM {TimeUS : 60234230, Roll : -0.22, Pitch : -17.18, Yaw : 56.06, Alt : 49.2999992371, Lat : 49.2836608, Lng : -123.1148205, Q1 : 0.872888684273, Q2 : 0.0685406029224, Q3 : -0.132781088352, Q4 : 0.464474648237}
2019-04-14 11:39:34.71: SIM {TimeUS : 60334190, Roll : -0.2, Pitch : -17.2, Yaw : 55.98, Alt : 49.2999992371, Lat : 49.283663, Lng : -123.1148156, Q1 : 0.873202562332, Q2 : 0.0686572790146, Q3 : -0.132903158665, Q4 : 0.463832139969}
2019-04-14 11:39:34.81: SIM {TimeUS : 60434150, Roll : -0.14, Pitch : -17.23, Yaw : 55.87, Alt : 49.2999992371, Lat : 49.2836651, Lng : -123.1148106, Q1 : 0.8735704422, Q2 : 0.0690890327096, Q3 : -0.132983848453, Q4 : 0.463051497936}
2019-04-14 11:39:34.91: SIM {TimeUS : 60534110, Roll : -0.06, Pitch : -17.26, Yaw : 55.75, Alt : 49.3100013733, Lat : 49.2836675, Lng : -123.1148056, Q1 : 0.873955786228, Q2 : 0.0697380155325, Q3 : -0.132958695292, Q4 : 0.462233573198}
2019-04-14 11:39:35.01: SIM {TimeUS : 60634070, Roll : 0.03, Pitch : -17.3, Yaw : 55.64, Alt : 49.3100013733, Lat : 49.2836697, Lng : -123.1148006, Q1 : 0.874316036701, Q2 : 0.0704522058368, Q3 : -0.132925316691, Q4 : 0.461452931166}
2019-04-14 11:39:35.11: SIM {TimeUS : 60734030, Roll : 0.12, Pitch : -17.34, Yaw : 55.54, Alt : 49.3100013733, Lat : 49.2836718, Lng : -123.1147956, Q1 : 0.874623119831, Q2 : 0.0711706727743, Q3 : -0.13289052248, Q4 : 0.460770219564}
2019-04-14 11:39:35.22: SIM {TimeUS : 60834823, Roll : 0.18, Pitch : -17.37, Yaw : 55.46, Alt : 49.3100013733, Lat : 49.2836742, Lng : -123.1147905, Q1 : 0.874869525433, Q2 : 0.0716973766685, Q3 : -0.132921546698, Q4 : 0.460211485624}
2019-04-14 11:39:35.31: SIM {TimeUS : 60934783, Roll : 0.2, Pitch : -17.38, Yaw : 55.4, Alt : 49.3100013733, Lat : 49.2836764, Lng : -123.1147854, Q1 : 0.87506633997, Q2 : 0.0718199461699, Q3 : -0.133005619049, Q4 : 0.459793776274}
2019-04-14 11:39:35.41: SIM {TimeUS : 61034743, Roll : 0.18, Pitch : -17.39, Yaw : 55.37, Alt : 49.3100013733, Lat : 49.2836786, Lng : -123.1147803, Q1 : 0.875199139118, Q2 : 0.0716656073928, Q3 : -0.133162632585, Q4 : 0.459519654512}
2019-04-14 11:39:35.51: SIM {TimeUS : 61134703, Roll : 0.17, Pitch : -17.39, Yaw : 55.36, Alt : 49.3100013733, Lat : 49.2836809, Lng : -123.1147752, Q1 : 0.875250756741, Q2 : 0.0715614333749, Q3 : -0.1332231462, Q4 : 0.459419876337}
2019-04-14 11:39:35.61: SIM {TimeUS : 61234663, Roll : 0.15, Pitch : -17.39, Yaw : 55.36, Alt : 49.3100013733, Lat : 49.2836832, Lng : -123.11477, Q1 : 0.875237107277, Q2 : 0.0714582875371, Q3 : -0.133310317993, Q4 : 0.459436774254}
2019-04-14 11:39:35.71: SIM {TimeUS : 61334623, Roll : 0.15, Pitch : -17.43, Yaw : 55.38, Alt : 49.3100013733, Lat : 49.2836855, Lng : -123.1147649, Q1 : 0.875141918659, Q2 : 0.0715958997607, Q3 : -0.133572146297, Q4 : 0.459520608187}
2019-04-14 11:39:35.81: SIM {TimeUS : 61434583, Roll : 0.15, Pitch : -17.49, Yaw : 55.4, Alt : 49.3199996948, Lat : 49.2836877, Lng : -123.1147597, Q1 : 0.874992012978, Q2 : 0.071845933795, Q3 : -0.134046778083, Q4 : 0.459628760815}
2019-04-14 11:39:35.91: SIM {TimeUS : 61534543, Roll : 0.13, Pitch : -17.53, Yaw : 55.42, Alt : 49.3199996948, Lat : 49.2836901, Lng : -123.1147545, Q1 : 0.874865055084, Q2 : 0.0719513967633, Q3 : -0.134420514107, Q4 : 0.459744811058}
2019-04-14 11:39:36.01: SIM {TimeUS : 61634503, Roll : 0.12, Pitch : -17.54, Yaw : 55.43, Alt : 49.3199996948, Lat : 49.2836924, Lng : -123.1147494, Q1 : 0.874798238277, Q2 : 0.0719045549631, Q3 : -0.134506568313, Q4 : 0.45985403657}
2019-04-14 11:39:36.11: SIM {TimeUS : 61734463, Roll : 0.1, Pitch : -17.55, Yaw : 55.44, Alt : 49.3199996948, Lat : 49.2836947, Lng : -123.1147442, Q1 : 0.874762833118, Q2 : 0.0717766433954, Q3 : -0.134659409523, Q4 : 0.4598967731}
2019-04-14 11:39:36.21: SIM {TimeUS : 61834423, Roll : 0.07, Pitch : -17.57, Yaw : 55.45, Alt : 49.3199996948, Lat : 49.2836969, Lng : -123.1147389, Q1 : 0.874744474888, Q2 : 0.0716687068343, Q3 : -0.134962007403, Q4 : 0.459859728813}
2019-04-14 11:39:36.31: SIM {TimeUS : 61934383, Roll : 0.06, Pitch : -17.6, Yaw : 55.44, Alt : 49.3199996948, Lat : 49.2836992, Lng : -123.1147336, Q1 : 0.874747574329, Q2 : 0.0716896280646, Q3 : -0.135156586766, Q4 : 0.459793448448}
2019-04-14 11:39:36.41: SIM {TimeUS : 62034343, Roll : 0.06, Pitch : -17.62, Yaw : 55.43, Alt : 49.3199996948, Lat : 49.2837016, Lng : -123.1147285, Q1 : 0.874779462814, Q2 : 0.0717286542058, Q3 : -0.135328114033, Q4 : 0.459676206112}
2019-04-14 11:39:36.51: SIM {TimeUS : 62134303, Roll : 0.07, Pitch : -17.63, Yaw : 55.41, Alt : 49.3199996948, Lat : 49.283704, Lng : -123.1147232, Q1 : 0.874835669994, Q2 : 0.0718069151044, Q3 : -0.135414391756, Q4 : 0.459531605244}
2019-04-14 11:39:36.61: SIM {TimeUS : 62234263, Roll : 0.08, Pitch : -17.64, Yaw : 55.38, Alt : 49.3199996948, Lat : 49.2837063, Lng : -123.114718, Q1 : 0.874910235405, Q2 : 0.0719690099359, Q3 : -0.135490521789, Q4 : 0.459341794252}
2019-04-14 11:39:36.71: SIM {TimeUS : 62334223, Roll : 0.1, Pitch : -17.66, Yaw : 55.35, Alt : 49.3199996948, Lat : 49.2837086, Lng : -123.1147127, Q1 : 0.875006556511, Q2 : 0.0721260681748, Q3 : -0.135519325733, Q4 : 0.459125131369}
2019-04-14 11:39:36.81: SIM {TimeUS : 62434183, Roll : 0.12, Pitch : -17.67, Yaw : 55.32, Alt : 49.3199996948, Lat : 49.2837109, Lng : -123.1147074, Q1 : 0.875096261501, Q2 : 0.0723168104887, Q3 : -0.135551199317, Q4 : 0.458914756775}
2019-04-14 11:39:36.91: SIM {TimeUS : 62534143, Roll : 0.15, Pitch : -17.7, Yaw : 55.29, Alt : 49.3199996948, Lat : 49.2837132, Lng : -123.1147021, Q1 : 0.875165760517, Q2 : 0.0725753605366, Q3 : -0.135663032532, Q4 : 0.458708196878}
2019-04-14 11:39:37.01: SIM {TimeUS : 62634103, Roll : 0.16, Pitch : -17.73, Yaw : 55.27, Alt : 49.3199996948, Lat : 49.2837156, Lng : -123.1146968, Q1 : 0.875226616859, Q2 : 0.0727474316955, Q3 : -0.13592492044, Q4 : 0.45848736167}
2019-04-14 11:39:37.11: SIM {TimeUS : 62734063, Roll : 0.14, Pitch : -17.77, Yaw : 55.24, Alt : 49.3199996948, Lat : 49.283718, Lng : -123.1146915, Q1 : 0.875286996365, Q2 : 0.0727303773165, Q3 : -0.136305466294, Q4 : 0.458261728287}
2019-04-14 11:39:37.21: SIM {TimeUS : 62834023, Roll : 0.12, Pitch : -17.81, Yaw : 55.22, Alt : 49.3199996948, Lat : 49.2837204, Lng : -123.1146862, Q1 : 0.875331580639, Q2 : 0.0727450177073, Q3 : -0.13668563962, Q4 : 0.458061009645}
2019-04-14 11:39:37.31: SIM {TimeUS : 62934816, Roll : 0.14, Pitch : -17.83, Yaw : 55.2, Alt : 49.3199996948, Lat : 49.2837228, Lng : -123.1146807, Q1 : 0.875362575054, Q2 : 0.0729247778654, Q3 : -0.136831521988, Q4 : 0.457929551601}
2019-04-14 11:39:37.41: SIM {TimeUS : 63034776, Roll : 0.17, Pitch : -17.83, Yaw : 55.19, Alt : 49.3300018311, Lat : 49.2837252, Lng : -123.1146755, Q1 : 0.875406205654, Q2 : 0.0731336995959, Q3 : -0.136697858572, Q4 : 0.457852751017}
2019-04-14 11:39:37.51: SIM {TimeUS : 63134736, Roll : 0.19, Pitch : -17.8, Yaw : 55.18, Alt : 49.3300018311, Lat : 49.2837275, Lng : -123.1146701, Q1 : 0.875476717949, Q2 : 0.0731741786003, Q3 : -0.136403828859, Q4 : 0.457799166441}
2019-04-14 11:39:37.61: SIM {TimeUS : 63234696, Roll : 0.19, Pitch : -17.78, Yaw : 55.17, Alt : 49.3300018311, Lat : 49.2837299, Lng : -123.1146648, Q1 : 0.875536859035, Q2 : 0.0730673670769, Q3 : -0.136264875531, Q4 : 0.457742542028}
2019-04-14 11:39:37.71: SIM {TimeUS : 63334656, Roll : 0.17, Pitch : -17.77, Yaw : 55.16, Alt : 49.3300018311, Lat : 49.2837322, Lng : -123.1146594, Q1 : 0.875582993031, Q2 : 0.0729015022516, Q3 : -0.136257603765, Q4 : 0.457682967186}
2019-04-14 11:39:37.81: SIM {TimeUS : 63434616, Roll : 0.16, Pitch : -17.77, Yaw : 55.16, Alt : 49.3300018311, Lat : 49.2837346, Lng : -123.1146539, Q1 : 0.875618577003, Q2 : 0.0727758258581, Q3 : -0.136286988854, Q4 : 0.457626134157}
2019-04-14 11:39:37.91: SIM {TimeUS : 63534576, Roll : 0.15, Pitch : -17.78, Yaw : 55.15, Alt : 49.3300018311, Lat : 49.283737, Lng : -123.1146486, Q1 : 0.875634670258, Q2 : 0.0727274939418, Q3 : -0.136437758803, Q4 : 0.457558095455}
2019-04-14 11:39:38.01: SIM {TimeUS : 63634536, Roll : 0.14, Pitch : -17.81, Yaw : 55.14, Alt : 49.3300018311, Lat : 49.2837394, Lng : -123.1146432, Q1 : 0.875633716583, Q2 : 0.0727946162224, Q3 : -0.136636093259, Q4 : 0.457489997149}
2019-04-14 11:39:38.11: SIM {TimeUS : 63734496, Roll : 0.13, Pitch : -17.85, Yaw : 55.14, Alt : 49.3300018311, Lat : 49.2837418, Lng : -123.1146378, Q1 : 0.875624299049, Q2 : 0.0728612467647, Q3 : -0.136986166239, Q4 : 0.457392781973}
2019-04-14 11:39:38.21: SIM {TimeUS : 63834456, Roll : 0.12, Pitch : -17.9, Yaw : 55.13, Alt : 49.3300018311, Lat : 49.2837442, Lng : -123.1146324, Q1 : 0.875606179237, Q2 : 0.0729821249843, Q3 : -0.13740234077, Q4 : 0.457283347845}
2019-04-14 11:39:38.31: SIM {TimeUS : 63934416, Roll : 0.13, Pitch : -17.93, Yaw : 55.12, Alt : 49.3300018311, Lat : 49.2837466, Lng : -123.114627, Q1 : 0.87559902668, Q2 : 0.0731655806303, Q3 : -0.137666732073, Q4 : 0.45718818903}
2019-04-14 11:39:38.41: SIM {TimeUS : 64034376, Roll : 0.13, Pitch : -17.96, Yaw : 55.1, Alt : 49.3300018311, Lat : 49.283749, Lng : -123.1146216, Q1 : 0.875613808632, Q2 : 0.0732428058982, Q3 : -0.137933477759, Q4 : 0.457067102194}
2019-04-14 11:39:38.51: SIM {TimeUS : 64134336, Roll : 0.12, Pitch : -17.98, Yaw : 55.09, Alt : 49.3300018311, Lat : 49.2837515, Lng : -123.1146162, Q1 : 0.875646829605, Q2 : 0.0732565820217, Q3 : -0.138123765588, Q4 : 0.456944137812}
2019-04-14 11:39:38.61: SIM {TimeUS : 64234296, Roll : 0.14, Pitch : -17.98, Yaw : 55.07, Alt : 49.3300018311, Lat : 49.2837539, Lng : -123.1146107, Q1 : 0.875703692436, Q2 : 0.0733463466167, Q3 : -0.138001397252, Q4 : 0.456857770681}
2019-04-14 11:39:38.71: SIM {TimeUS : 64334256, Roll : 0.17, Pitch : -17.98, Yaw : 55.06, Alt : 49.3300018311, Lat : 49.2837563, Lng : -123.1146053, Q1 : 0.875745475292, Q2 : 0.0735736116767, Q3 : -0.137906059623, Q4 : 0.456769883633}
2019-04-14 11:39:38.81: SIM {TimeUS : 64434216, Roll : 0.19, Pitch : -17.99, Yaw : 55.04, Alt : 49.3300018311, Lat : 49.2837588, Lng : -123.1145998, Q1 : 0.875779628754, Q2 : 0.0737500339746, Q3 : -0.137947931886, Q4 : 0.456663310528}
2019-04-14 11:39:38.91: SIM {TimeUS : 64534176, Roll : 0.2, Pitch : -18.0, Yaw : 55.03, Alt : 49.3400001526, Lat : 49.2837612, Lng : -123.1145944, Q1 : 0.875820159912, Q2 : 0.073864646256, Q3 : -0.137944415212, Q4 : 0.456568002701}
2019-04-14 11:39:39.01: SIM {TimeUS : 64634136, Roll : 0.21, Pitch : -17.99, Yaw : 55.02, Alt : 49.3400001526, Lat : 49.2837636, Lng : -123.114589, Q1 : 0.875872969627, Q2 : 0.0739042460918, Q3 : -0.137847438455, Q4 : 0.456489652395}
2019-04-14 11:39:39.11: SIM {TimeUS : 64734096, Roll : 0.21, Pitch : -17.98, Yaw : 55.01, Alt : 49.3400001526, Lat : 49.2837661, Lng : -123.1145835, Q1 : 0.875921607018, Q2 : 0.0738792940974, Q3 : -0.137804463506, Q4 : 0.456413388252}
2019-04-14 11:39:39.21: SIM {TimeUS : 64834056, Roll : 0.19, Pitch : -18.0, Yaw : 55.0, Alt : 49.3400001526, Lat : 49.2837685, Lng : -123.114578, Q1 : 0.875951230526, Q2 : 0.0737731084228, Q3 : -0.137998893857, Q4 : 0.456314951181}
2019-04-14 11:39:39.32: SIM {TimeUS : 64934849, Roll : 0.16, Pitch : -18.03, Yaw : 54.99, Alt : 49.3400001526, Lat : 49.2837709, Lng : -123.1145725, Q1 : 0.875959694386, Q2 : 0.0736564099789, Q3 : -0.138364970684, Q4 : 0.456206709146}
2019-04-14 11:39:39.41: SIM {TimeUS : 65034809, Roll : 0.14, Pitch : -18.03, Yaw : 54.98, Alt : 49.3400001526, Lat : 49.2837734, Lng : -123.114567, Q1 : 0.875989437103, Q2 : 0.0735109224916, Q3 : -0.138471841812, Q4 : 0.456140637398}
2019-04-14 11:39:39.51: SIM {TimeUS : 65134769, Roll : 0.15, Pitch : -18.02, Yaw : 54.98, Alt : 49.3400001526, Lat : 49.2837758, Lng : -123.1145615, Q1 : 0.876027941704, Q2 : 0.0734878107905, Q3 : -0.138308644295, Q4 : 0.456119865179}
2019-04-14 11:39:39.61: SIM {TimeUS : 65234729, Roll : 0.17, Pitch : -18.0, Yaw : 54.97, Alt : 49.3400001526, Lat : 49.2837782, Lng : -123.114556, Q1 : 0.876055240631, Q2 : 0.0735598802567, Q3 : -0.138155281544, Q4 : 0.456102311611}
2019-04-14 11:39:39.71: SIM {TimeUS : 65334689, Roll : 0.17, Pitch : -18.01, Yaw : 54.97, Alt : 49.3400001526, Lat : 49.2837807, Lng : -123.1145505, Q1 : 0.876068234444, Q2 : 0.0736457332969, Q3 : -0.138214156032, Q4 : 0.456045597792}
2019-04-14 11:39:39.81: SIM {TimeUS : 65434649, Roll : 0.16, Pitch : -18.04, Yaw : 54.96, Alt : 49.3400001526, Lat : 49.2837831, Lng : -123.1145451, Q1 : 0.876080036163, Q2 : 0.0736301541328, Q3 : -0.138446599245, Q4 : 0.455954998732}
2019-04-14 11:39:39.91: SIM {TimeUS : 65534609, Roll : 0.13, Pitch : -18.07, Yaw : 54.95, Alt : 49.3400001526, Lat : 49.2837856, Lng : -123.1145395, Q1 : 0.876092851162, Q2 : 0.073534168303, Q3 : -0.138785943389, Q4 : 0.455842643976}
2019-04-14 11:39:40.01: SIM {TimeUS : 65634569, Roll : 0.12, Pitch : -18.09, Yaw : 54.94, Alt : 49.3400001526, Lat : 49.283788, Lng : -123.114534, Q1 : 0.876113653183, Q2 : 0.0734894499183, Q3 : -0.139029279351, Q4 : 0.455735683441}
2019-04-14 11:39:40.11: SIM {TimeUS : 65734529, Roll : 0.12, Pitch : -18.11, Yaw : 54.93, Alt : 49.3400001526, Lat : 49.2837905, Lng : -123.1145285, Q1 : 0.876126945019, Q2 : 0.073600910604, Q3 : -0.139183908701, Q4 : 0.455644965172}
2019-04-14 11:39:40.21: SIM {TimeUS : 65834489, Roll : 0.14, Pitch : -18.12, Yaw : 54.92, Alt : 49.3400001526, Lat : 49.283793, Lng : -123.114523, Q1 : 0.876143872738, Q2 : 0.0737582966685, Q3 : -0.139224797487, Q4 : 0.455574512482}
