2019-04-14 01:42:10.40: SIM {TimeUS : 40616247, Roll : 0.0, Pitch : 0.0, Yaw : 0.0, Alt : 30.1000003815, Lat : 49.28357, Lng : -123.11502, Q1 : 1.0, Q2 : 0.0, Q3 : 0.0, Q4 : 0.0}
2019-04-14 01:42:10.51: SIM {TimeUS : 40735366, Roll : 0.0, Pitch : 0.0, Yaw : 0.0, Alt : 30.1000003815, Lat : 49.28357, Lng : -123.11502, Q1 : 1.0, Q2 : 0.0, Q3 : 0.0, Q4 : 0.0}
2019-04-14 01:42:10.61: SIM {TimeUS : 40835326, Roll : 0.0, Pitch : 0.0, Yaw : 0.0, Alt : 30.1000003815, Lat : 49.28357, Lng : -123.11502, Q1 : 1.0, Q2 : 0.0, Q3 : 0.0, Q4 : 0.0}
2019-04-14 01:42:10.71: SIM {TimeUS : 40935286, Roll : 0.0, Pitch : 0.0, Yaw : 0.0, Alt : 30.1000003815, Lat : 49.28357, Lng : -123.11502, Q1 : 1.0, Q2 : 0.0, Q3 : 0.0, Q4 : 0.0}
2019-04-14 01:42:10.81: SIM {TimeUS : 41035246, Roll : 0.0, Pitch : 0.0, Yaw : 0.0, Alt : 30.1000003815, Lat : 49.28357, Lng : -123.11502, Q1 : 1.0, Q2 : 0.0, Q3 : 0.0, Q4 : 0.0}
2019-04-14 01:42:10.91: SIM {TimeUS : 41135206, Roll : 0.0, Pitch : 0.0, Yaw : 0.0, Alt : 30.1000003815, Lat : 49.28357, Lng : -123.11502, Q1 : 1.0, Q2 : 0.0, Q3 : 0.0, Q4 : 0.0}
2019-04-14 01:42:11.01: SIM {TimeUS : 41235166, Roll : 0.0, Pitch : 0.0, Yaw : 0.0, Alt : 30.1000003815, Lat : 49.28357, Lng : -123.11502, Q1 : 1.0, Q2 : 0.0, Q3 : 0.0, Q4 : 0.0}
2019-04-14 01:42:11.11: SIM {TimeUS : 41335126, Roll : 0.0, Pitch : 0.0, Yaw : 0.0, Alt : 30.1000003815, Lat : 49.28357, Lng : -123.11502, Q1 : 1.0, Q2 : 0.0, Q3 : 0.0, Q4 : 0.0}
2019-04-14 01:42:11.21: SIM {TimeUS : 41435086, Roll : 0.0, Pitch : 0.0, Yaw : 0.0, Alt : 30.1000003815, Lat : 49.28357, Lng : -123.11502, Q1 : 1.0, Q2 : 0.0, Q3 : 0.0, Q4 : 0.0}
2019-04-14 01:42:11.31: SIM {TimeUS : 41535046, Roll : 0.0, Pitch : 0.0, Yaw : 0.0, Alt : 30.1000003815, Lat : 49.28357, Lng : -123.11502, Q1 : 1.0, Q2 : 0.0, Q3 : 0.0, Q4 : 0.0}
2019-04-14 01:42:11.41: SIM {TimeUS : 41635006, Roll : 0.0, Pitch : 0.0, Yaw : 0.0, Alt : 30.1000003815, Lat : 49.28357, Lng : -123.11502, Q1 : 1.0, Q2 : 0.0, Q3 : 0.0, Q4 : 0.0}
2019-04-14 01:42:11.51: SIM {TimeUS : 41734966, Roll : 0.0, Pitch : 0.0, Yaw : 0.0, Alt : 30.1000003815, Lat : 49.28357, Lng : -123.11502, Q1 : 1.0, Q2 : 0.0, Q3 : 0.0, Q4 : 0.0}
2019-04-14 01:42:11.61: SIM {TimeUS : 41834926, Roll : 0.0, Pitch : 0.0, Yaw : 0.0, Alt : 30.1000003815, Lat : 49.28357, Lng : -123.11502, Q1 : 1.0, Q2 : 0.0, Q3 : 0.0, Q4 : 0.0}
2019-04-14 01:42:11.71: SIM {TimeUS : 41934886, Roll : 0.0, Pitch : 0.0, Yaw : 0.0, Alt : 30.1000003815, Lat : 49.28357, Lng : -123.11502, Q1 : 1.0, Q2 : 0.0, Q3 : 0.0, Q4 : 0.0}
2019-04-14 01:42:11.81: SIM {TimeUS : 42034846, Roll : 0.0, Pitch : 0.0, Yaw : 0.0, Alt : 30.1000003815, Lat : 49.28357, Lng : -123.11502, Q1 : 1.0, Q2 : 0.0, Q3 : 0.0, Q4 : 0.0}
2019-04-14 01:42:11.91: SIM {TimeUS : 42134806, Roll : 0.0, Pitch : 0.0, Yaw : 0.0, Alt : 30.1000003815, Lat : 49.28357, Lng : -123.11502, Q1 : 1.0, Q2 : 0.0, Q3 : 0.0, Q4 : 0.0}
2019-04-14 01:42:12.01: SIM {TimeUS : 42234766, Roll : 0.0, Pitch : 0.0, Yaw : 0.0, Alt : 30.1000003815, Lat : 49.28357, Lng : -123.11502, Q1 : 1.0, Q2 : 0.0, Q3 : 0.0, Q4 : 0.0}
2019-04-14 01:42:12.11: SIM {TimeUS : 42334726, Roll : 0.0, Pitch : 0.0, Yaw : 0.0, Alt : 30.1000003815, Lat : 49.28357, Lng : -123.11502, Q1 : 1.0, Q2 : 0.0, Q3 : 0.0, Q4 : 0.0}
2019-04-14 01:42:12.21: SIM {TimeUS : 42434686, Roll : 0.0, Pitch : 0.0, Yaw : 0.0, Alt : 30.1000003815, Lat : 49.28357, Lng : -123.11502, Q1 : 1.0, Q2 : 0.0, Q3 : 0.0, Q4 : 0.0}
2019-04-14 01:42:12.31: SIM {TimeUS : 42534646, Roll : 0.0, Pitch : 0.0, Yaw : 0.0, Alt : 30.1000003815, Lat : 49.28357, Lng : -123.11502, Q1 : 1.0, Q2 : 0.0, Q3 : 0.0, Q4 : 0.0}
2019-04-14 01:42:12.41: SIM {TimeUS : 42634606, Roll : 0.0, Pitch : 0.0, Yaw : 0.0, Alt : 30.1000003815, Lat : 49.28357, Lng : -123.11502, Q1 : 1.0, Q2 : 0.0, Q3 : 0.0, Q4 : 0.0}
2019-04-14 01:42:12.51: SIM {TimeUS : 42735399, Roll : 0.0, Pitch : 0.0, Yaw : 0.0, Alt : 30.1000003815, Lat : 49.28357, Lng : -123.11502, Q1 : 1.0, Q2 : 0.0, Q3 : 0.0, Q4 : 0.0}
2019-04-14 01:42:12.61: SIM {TimeUS : 42835359, Roll : 0.0, Pitch : 0.0, Yaw : 0.0, Alt : 30.1000003815, Lat : 49.28357, Lng : -123.11502, Q1 : 1.0, Q2 : 0.0, Q3 : 0.0, Q4 : 0.0}
2019-04-14 01:42:12.71: SIM {TimeUS : 42935319, Roll : 0.0, Pitch : 0.0, Yaw : 360.0, Alt : 30.1000003815, Lat : 49.28357, Lng : -123.11502, Q1 : 1.0, Q2 : 0.0, Q3 : 0.0, Q4 : -7.5309836492e-12}
2019-04-14 01:42:12.81: SIM {TimeUS : 43035279, Roll : 0.0, Pitch : 0.0, Yaw : 360.0, Alt : 30.1000003815, Lat : 49.28357, Lng : -123.11502, Q1 : 1.0, Q2 : 0.0, Q3 : 0.0, Q4 : -2.42403680462e-10}
2019-04-14 01:42:12.91: SIM {TimeUS : 43135239, Roll : 0.0, Pitch : 0.0, Yaw : 360.0, Alt : 30.1000003815, Lat : 49.28357, Lng : -123.11502, Q1 : 1.0, Q2 : 0.0, Q3 : 0.0, Q4 : -1.61660366871e-07}
2019-04-14 01:42:13.01: SIM {TimeUS : 43235199, Roll : 0.0, Pitch : 0.0, Yaw : 359.99, Alt : 30.1000003815, Lat : 49.28357, Lng : -123.11502, Q1 : 1.0, Q2 : 0.0, Q3 : 0.0, Q4 : -3.22676470432e-07}
2019-04-14 01:42:13.11: SIM {TimeUS : 43335159, Roll : 0.0, Pitch : 0.0, Yaw : 359.99, Alt : 30.1000003815, Lat : 49.28357, Lng : -123.11502, Q1 : 1.0, Q2 : 0.0, Q3 : 0.0, Q4 : -4.91246794354e-07}
2019-04-14 01:42:13.21: SIM {TimeUS : 43435119, Roll : 0.0, Pitch : 0.0, Yaw : 359.99, Alt : 30.1000003815, Lat : 49.28357, Lng : -123.11502, Q1 : 1.0, Q2 : 0.0, Q3 : 0.0, Q4 : -6.9718373652e-07}
2019-04-14 01:42:13.31: SIM {TimeUS : 43535079, Roll : 0.0, Pitch : 0.0, Yaw : 359.99, Alt : 30.1000003815, Lat : 49.28357, Lng : -123.11502, Q1 : 1.0, Q2 : 0.0, Q3 : 0.0, Q4 : -8.70124097219e-07}
2019-04-14 01:42:13.41: SIM {TimeUS : 43635039, Roll : 0.0, Pitch : 0.0, Yaw : 359.99, Alt : 30.1000003815, Lat : 49.28357, Lng : -123.11502, Q1 : 1.0, Q2 : 0.0, Q3 : 0.0, Q4 : -1.04804655621e-06}
2019-04-14 01:42:13.51: SIM {TimeUS : 43734999, Roll : 0.0, Pitch : 0.0, Yaw : 359.99, Alt : 30.1000003815, Lat : 49.28357, Lng : -123.11502, Q1 : 1.0, Q2 : 0.0, Q3 : 0.0, Q4 : -1.23601671476e-06}
2019-04-14 01:42:13.61: SIM {TimeUS : 43834959, Roll : 0.0, Pitch : 0.0, Yaw : 359.99, Alt : 30.1100006104, Lat : 49.28357, Lng : -123.11502, Q1 : 1.0, Q2 : 0.0, Q3 : 0.0, Q4 : -1.40395889048e-06}
2019-04-14 01:42:13.71: SIM {TimeUS : 43934919, Roll : 0.0, Pitch : 0.0, Yaw : 359.99, Alt : 30.1399993896, Lat : 49.28357, Lng : -123.11502, Q1 : 1.0, Q2 : 0.0, Q3 : 0.0, Q4 : -1.59568776326e-06}
2019-04-14 01:42:13.81: SIM {TimeUS : 44034879, Roll : 0.0, Pitch : 0.0, Yaw : 359.99, Alt : 30.1700000763, Lat : 49.28357, Lng : -123.11502, Q1 : 1.0, Q2 : 0.0, Q3 : 0.0, Q4 : -1.81226869245e-06}
2019-04-14 01:42:13.91: SIM {TimeUS : 44134839, Roll : 0.0, Pitch : 0.0, Yaw : 359.99, Alt : 30.2000007629, Lat : 49.28357, Lng : -123.11502, Q1 : 1.0, Q2 : 0.0, Q3 : 0.0, Q4 : -2.09879999602e-06}
2019-04-14 01:42:14.01: SIM {TimeUS : 44234799, Roll : -0.1, Pitch : -0.08, Yaw : 359.99, Alt : 30.25, Lat : 49.28357, Lng : -123.11502, Q1 : 0.999999284744, Q2 : -0.000901618215721, Q3 : -0.000771824212279, Q4 : -1.05209328467e-05}
2019-04-14 01:42:14.11: SIM {TimeUS : 44334759, Roll : -0.4, Pitch : -0.34, Yaw : 359.99, Alt : 30.3400001526, Lat : 49.28357, Lng : -123.11502, Q1 : 0.99998909235, Q2 : -0.0035606706515, Q3 : -0.00302913878113, Q4 : -4.52694148407e-05}
2019-04-14 01:42:14.21: SIM {TimeUS : 44434719, Roll : -0.68, Pitch : -0.61, Yaw : 359.99, Alt : 30.4899997711, Lat : 49.28357, Lng : -123.11502, Q1 : 0.999967515469, Q2 : -0.00598887633532, Q3 : -0.00539647135884, Q4 : -0.000108155538328}
2019-04-14 01:42:14.31: SIM {TimeUS : 44534679, Roll : -0.83, Pitch : -0.76, Yaw : 359.98, Alt : 30.6499996185, Lat : 49.28357, Lng : -123.11502, Q1 : 0.99995136261, Q2 : -0.00726281432435, Q3 : -0.00667555211112, Q4 : -0.000190373408259}
2019-04-14 01:42:14.41: SIM {TimeUS : 44634639, Roll : -0.83, Pitch : -0.75, Yaw : 359.97, Alt : 30.7999992371, Lat : 49.28357, Lng : -123.11502, Q1 : 0.999951660633, Q2 : -0.00726067973301, Q3 : -0.00662394147366, Q4 : -0.000275078753475}
2019-04-14 01:42:14.51: SIM {TimeUS : 44734599, Roll : -0.7, Pitch : -0.63, Yaw : 359.96, Alt : 30.9599990845, Lat : 49.28357, Lng : -123.1150201, Q1 : 0.999965786934, Q2 : -0.00612943898886, Q3 : -0.00554549926892, Q4 : -0.000354825955583}
2019-04-14 01:42:14.61: SIM {TimeUS : 44835392, Roll : -0.49, Pitch : -0.44, Yaw : 359.95, Alt : 31.1100006104, Lat : 49.2835701, Lng : -123.1150202, Q1 : 0.999983131886, Q2 : -0.00428569829091, Q3 : -0.0038912021555, Q4 : -0.000421399483457}
2019-04-14 01:42:14.71: SIM {TimeUS : 44935352, Roll : -0.26, Pitch : -0.24, Yaw : 359.94, Alt : 31.2700004578, Lat : 49.2835701, Lng : -123.1150203, Q1 : 0.99999499321, Q2 : -0.00228342949413, Q3 : -0.002150232438, Q4 : -0.000473464635434}
2019-04-14 01:42:14.81: SIM {TimeUS : 45035312, Roll : -0.06, Pitch : -0.08, Yaw : 359.94, Alt : 31.4400005341, Lat : 49.2835702, Lng : -123.1150203, Q1 : 0.999999403954, Q2 : -0.000584714056458, Q3 : -0.000759476504754, Q4 : -0.000508605095092}
2019-04-14 01:42:14.91: SIM {TimeUS : 45135272, Roll : 0.06, Pitch : 0.01, Yaw : 359.93, Alt : 31.6100006104, Lat : 49.2835702, Lng : -123.1150204, Q1 : 0.999999701977, Q2 : 0.000534306920599, Q3 : 9.12491159397e-05, Q4 : -0.000530236866325}
2019-04-14 01:42:15.01: SIM {TimeUS : 45235232, Roll : 0.11, Pitch : 0.06, Yaw : 359.93, Alt : 31.7900009155, Lat : 49.2835703, Lng : -123.1150205, Q1 : 0.99999922514, Q2 : 0.000972703390289, Q3 : 0.000531437632162, Q4 : -0.000544698967133}
2019-04-14 01:42:15.11: SIM {TimeUS : 45335192, Roll : 0.09, Pitch : 0.08, Yaw : 359.93, Alt : 31.9799995422, Lat : 49.2835703, Lng : -123.1150206, Q1 : 0.999999165535, Q2 : 0.000857991690282, Q3 : 0.000777065230068, Q4 : -0.000554569764063}
2019-04-14 01:42:15.21: SIM {TimeUS : 45435152, Roll : 0.06, Pitch : 0.1, Yaw : 359.93, Alt : 32.1599998474, Lat : 49.2835703, Lng : -123.1150206, Q1 : 0.99999922514, Q2 : 0.000547556614038, Q3 : 0.000942194601521, Q4 : -0.000545861257706}
2019-04-14 01:42:15.31: SIM {TimeUS : 45535112, Roll : 0.04, Pitch : 0.12, Yaw : 359.94, Alt : 32.3499984741, Lat : 49.2835703, Lng : -123.1150207, Q1 : 0.99999922514, Q2 : 0.000425611855462, Q3 : 0.00107491214294, Q4 : -0.000517354928888}
2019-04-14 01:42:15.41: SIM {TimeUS : 45635072, Roll : 0.06, Pitch : 0.12, Yaw : 359.94, Alt : 32.5499992371, Lat : 49.2835703, Lng : -123.1150207, Q1 : 0.99999910593, Q2 : 0.000524546368979, Q3 : 0.00112315907609, Q4 : -0.000490930862725}
2019-04-14 01:42:15.51: SIM {TimeUS : 45735032, Roll : 0.07, Pitch : 0.13, Yaw : 359.94, Alt : 32.7400016785, Lat : 49.2835703, Lng : -123.1150207, Q1 : 0.999998986721, Q2 : 0.000632235547528, Q3 : 0.00119589525275, Q4 : -0.000467157165986}
2019-04-14 01:42:15.61: SIM {TimeUS : 45834992, Roll : 0.08, Pitch : 0.16, Yaw : 359.94, Alt : 32.9399986267, Lat : 49.2835704, Lng : -123.1150208, Q1 : 0.999998509884, Q2 : 0.00078270258382, Q3 : 0.0014665494673, Q4 : -0.000458374357549}
2019-04-14 01:42:15.71: SIM {TimeUS : 45934952, Roll : 0.11, Pitch : 0.17, Yaw : 359.94, Alt : 33.1399993896, Lat : 49.2835704, Lng : -123.1150208, Q1 : 0.999998211861, Q2 : 0.00100956228562, Q3 : 0.00153590785339, Q4 : -0.000455586996395}
2019-04-14 01:42:15.81: SIM {TimeUS : 46034912, Roll : 0.14, Pitch : 0.15, Yaw : 359.94, Alt : 33.3499984741, Lat : 49.2835704, Lng : -123.1150208, Q1 : 0.999998152256, Q2 : 0.00130520539824, Q3 : 0.00135319039691, Q4 : -0.000442492193542}
2019-04-14 01:42:15.91: SIM {TimeUS : 46134872, Roll : 0.16, Pitch : 0.14, Yaw : 359.95, Alt : 33.5499992371, Lat : 49.2835704, Lng : -123.1150209, Q1 : 0.999998092651, Q2 : 0.00146974483505, Q3 : 0.00122664030641, Q4 : -0.000434958579717}
2019-04-14 01:42:16.01: SIM {TimeUS : 46234832, Roll : 0.17, Pitch : 0.13, Yaw : 359.95, Alt : 33.7599983215, Lat : 49.2835704, Lng : -123.1150209, Q1 : 0.999997973442, Q2 : 0.00152245990466, Q3 : 0.00121671019588, Q4 : -0.000436089700088}
2019-04-14 01:42:16.11: SIM {TimeUS : 46334792, Roll : 0.17, Pitch : 0.14, Yaw : 359.94, Alt : 33.9700012207, Lat : 49.2835704, Lng : -123.1150209, Q1 : 0.999997854233, Q2 : 0.00156856456306, Q3 : 0.00126428750809, Q4 : -0.000451405503554}
2019-04-14 01:42:16.21: SIM {TimeUS : 46434752, Roll : 0.17, Pitch : 0.12, Yaw : 359.94, Alt : 34.1800003052, Lat : 49.2835704, Lng : -123.1150209, Q1 : 0.999998152256, Q2 : 0.00150046078488, Q3 : 0.0011151857907, Q4 : -0.000468427839223}
2019-04-14 01:42:16.31: SIM {TimeUS : 46534712, Roll : 0.15, Pitch : 0.1, Yaw : 359.94, Alt : 34.3899993896, Lat : 49.2835704, Lng : -123.1150209, Q1 : 0.999998569489, Q2 : 0.00131760095246, Q3 : 0.000939995690715, Q4 : -0.00048816006165}
2019-04-14 01:42:16.41: SIM {TimeUS : 46634672, Roll : 0.12, Pitch : 0.09, Yaw : 359.94, Alt : 34.5999984741, Lat : 49.2835704, Lng : -123.1150209, Q1 : 0.999998986721, Q2 : 0.00105314690154, Q3 : 0.000812613056041, Q4 : -0.000515804975294}
2019-04-14 01:42:16.51: SIM {TimeUS : 46734632, Roll : 0.09, Pitch : 0.08, Yaw : 359.93, Alt : 34.8199996948, Lat : 49.2835704, Lng : -123.1150208, Q1 : 0.999999284744, Q2 : 0.000788200995885, Q3 : 0.000741702562664, Q4 : -0.000548667332623}
2019-04-14 01:42:16.61: SIM {TimeUS : 46834592, Roll : 0.07, Pitch : 0.05, Yaw : 359.93, Alt : 35.0299987793, Lat : 49.2835704, Lng : -123.1150208, Q1 : 0.999999523163, Q2 : 0.000659136916511, Q3 : 0.00045525081805, Q4 : -0.000581006810535}
2019-04-14 01:42:16.71: SIM {TimeUS : 46935385, Roll : 0.06, Pitch : 0.01, Yaw : 359.92, Alt : 35.25, Lat : 49.2835704, Lng : -123.1150208, Q1 : 0.999999582767, Q2 : 0.000605142326094, Q3 : 0.000158852213644, Q4 : -0.000615552766249}
2019-04-14 01:42:16.81: SIM {TimeUS : 47035345, Roll : 0.05, Pitch : 0.0, Yaw : 359.92, Alt : 35.4700012207, Lat : 49.2835704, Lng : -123.1150208, Q1 : 0.999999701977, Q2 : 0.000437169946963, Q3 : -5.4568458836e-06, Q4 : -0.000650461821351}
2019-04-14 01:42:16.91: SIM {TimeUS : 47135305, Roll : 0.03, Pitch : 0.0, Yaw : 359.92, Alt : 35.6899986267, Lat : 49.2835704, Lng : -123.1150208, Q1 : 0.999999701977, Q2 : 0.000313650845783, Q3 : -2.80479653156e-05, Q4 : -0.000681536446791}
2019-04-14 01:42:17.01: SIM {TimeUS : 47235265, Roll : 0.03, Pitch : 0.0, Yaw : 359.91, Alt : 35.9099998474, Lat : 49.2835704, Lng : -123.1150208, Q1 : 0.999999701977, Q2 : 0.000274547812296, Q3 : 9.4572415037e-06, Q4 : -0.000711599655915}
2019-04-14 01:42:17.11: SIM {TimeUS : 47335225, Roll : 0.0, Pitch : -0.01, Yaw : 359.91, Alt : 36.1300010681, Lat : 49.2835704, Lng : -123.1150208, Q1 : 0.999999701977, Q2 : 4.98519439134e-05, Q3 : -0.000143292782013, Q4 : -0.000738960399758}
2019-04-14 01:42:17.21: SIM {TimeUS : 47435185, Roll : -0.03, Pitch : -0.05, Yaw : 359.91, Alt : 36.3499984741, Lat : 49.2835704, Lng : -123.1150207, Q1 : 0.999999582767, Q2 : -0.000273653218755, Q3 : -0.00044715590775, Q4 : -0.00075884727994}
2019-04-14 01:42:17.31: SIM {TimeUS : 47535145, Roll : -0.06, Pitch : -0.07, Yaw : 359.91, Alt : 36.5699996948, Lat : 49.2835704, Lng : -123.1150207, Q1 : 0.999999344349, Q2 : -0.000605305191129, Q3 : -0.000617590907495, Q4 : -0.000775674066972}
2019-04-14 01:42:17.41: SIM {TimeUS : 47635105, Roll : -0.1, Pitch : -0.08, Yaw : 359.9, Alt : 36.7900009155, Lat : 49.2835704, Lng : -123.1150207, Q1 : 0.999999046326, Q2 : -0.000887178757694, Q3 : -0.000727792154066, Q4 : -0.00079323654063}
2019-04-14 01:42:17.51: SIM {TimeUS : 47735065, Roll : -0.1, Pitch : -0.08, Yaw : 359.9, Alt : 37.0200004578, Lat : 49.2835704, Lng : -123.1150207, Q1 : 0.999998986721, Q2 : -0.000917598954402, Q3 : -0.000741510477383, Q4 : -0.000817191088572}
2019-04-14 01:42:17.61: SIM {TimeUS : 47835025, Roll : -0.09, Pitch : -0.07, Yaw : 359.9, Alt : 37.2400016785, Lat : 49.2835704, Lng : -123.1150207, Q1 : 0.999999046326, Q2 : -0.000848168856464, Q3 : -0.000668683613185, Q4 : -0.000842509034555}
2019-04-14 01:42:17.71: SIM {TimeUS : 47934985, Roll : -0.08, Pitch : -0.05, Yaw : 359.9, Alt : 37.4700012207, Lat : 49.2835704, Lng : -123.1150207, Q1 : 0.99999922514, Q2 : -0.00073127518408, Q3 : -0.000486537755933, Q4 : -0.000865124515258}
2019-04-14 01:42:17.81: SIM {TimeUS : 48034945, Roll : -0.06, Pitch : -0.03, Yaw : 359.89, Alt : 37.6899986267, Lat : 49.2835704, Lng : -123.1150207, Q1 : 0.999999344349, Q2 : -0.000603721477091, Q3 : -0.000344810367096, Q4 : -0.000881971325725}
2019-04-14 01:42:17.91: SIM {TimeUS : 48134905, Roll : -0.07, Pitch : -0.03, Yaw : 359.89, Alt : 37.9199981689, Lat : 49.2835704, Lng : -123.1150207, Q1 : 0.999999344349, Q2 : -0.000645518826786, Q3 : -0.000346328597516, Q4 : -0.000891513074748}
2019-04-14 01:42:18.01: SIM {TimeUS : 48234865, Roll : -0.08, Pitch : -0.02, Yaw : 359.89, Alt : 38.1500015259, Lat : 49.2835704, Lng : -123.1150207, Q1 : 0.999999284744, Q2 : -0.000764265598264, Q3 : -0.000252642552368, Q4 : -0.00090287841158}
2019-04-14 01:42:18.11: SIM {TimeUS : 48334825, Roll : -0.11, Pitch : -0.01, Yaw : 359.89, Alt : 38.3699989319, Lat : 49.2835704, Lng : -123.1150207, Q1 : 0.99999910593, Q2 : -0.000970166467596, Q3 : -0.000120952361613, Q4 : -0.0009185859235}
2019-04-14 01:42:18.21: SIM {TimeUS : 48434785, Roll : -0.11, Pitch : 0.0, Yaw : 359.89, Alt : 38.5999984741, Lat : 49.2835704, Lng : -123.1150207, Q1 : 0.999999046326, Q2 : -0.00100485852454, Q3 : -7.6044261732e-06, Q4 : -0.000931541027967}
2019-04-14 01:42:18.31: SIM {TimeUS : 48534745, Roll : -0.09, Pitch : 0.02, Yaw : 359.89, Alt : 38.8300018311, Lat : 49.2835704, Lng : -123.1150207, Q1 : 0.999999165535, Q2 : -0.000821041292511, Q3 : 0.000213390798308, Q4 : -0.00094540824648}
2019-04-14 01:42:18.41: SIM {TimeUS : 48634705, Roll : -0.06, Pitch : 0.02, Yaw : 359.88, Alt : 39.0600013733, Lat : 49.2835706, Lng : -123.1150207, Q1 : 0.999999403954, Q2 : -0.000537259271368, Q3 : 0.00019208433514, Q4 : -0.000960180012044}
2019-04-14 01:42:18.51: SIM {TimeUS : 48734665, Roll : -0.02, Pitch : 0.01, Yaw : 359.88, Alt : 39.2900009155, Lat : 49.2835706, Lng : -123.1150207, Q1 : 0.999999523163, Q2 : -0.000222909846343, Q3 : 0.000132022338221, Q4 : -0.000975661154371}
2019-04-14 01:42:18.61: SIM {TimeUS : 48834625, Roll : 0.01, Pitch : 0.03, Yaw : 359.88, Alt : 39.5200004578, Lat : 49.2835706, Lng : -123.1150207, Q1 : 0.999999463558, Q2 : 0.000125166479847, Q3 : 0.000295453384751, Q4 : -0.00098798412364}
2019-04-14 01:42:18.71: SIM {TimeUS : 48934585, Roll : 0.05, Pitch : 0.06, Yaw : 359.88, Alt : 39.75, Lat : 49.2835706, Lng : -123.1150207, Q1 : 0.99999922514, Q2 : 0.000486583652673, Q3 : 0.000571109470911, Q4 : -0.00100501533598}
2019-04-14 01:42:18.81: SIM {TimeUS : 49035378, Roll : 0.08, Pitch : 0.09, Yaw : 359.88, Alt : 39.9799995422, Lat : 49.2835706, Lng : -123.1150207, Q1 : 0.999998867512, Q2 : 0.000772705592681, Q3 : 0.000816171173938, Q4 : -0.00102551933378}
2019-04-14 01:42:18.91: SIM {TimeUS : 49135338, Roll : 0.08, Pitch : 0.11, Yaw : 359.88, Alt : 40.2099990845, Lat : 49.2835706, Lng : -123.1150207, Q1 : 0.999998688698, Q2 : 0.000706058519427, Q3 : 0.00102382001933, Q4 : -0.00104321399704}
2019-04-14 01:42:19.01: SIM {TimeUS : 49235298, Roll : 0.03, Pitch : 0.13, Yaw : 359.87, Alt : 40.4500007629, Lat : 49.2835706, Lng : -123.1150207, Q1 : 0.999998688698, Q2 : 0.00027798852534, Q3 : 0.00120692909695, Q4 : -0.00107564660721}
2019-04-14 01:42:19.11: SIM {TimeUS : 49335258, Roll : -0.01, Pitch : 0.14, Yaw : 359.87, Alt : 40.6800003052, Lat : 49.2835706, Lng : -123.1150207, Q1 : 0.999998569489, Q2 : -0.000118006646517, Q3 : 0.00128671410494, Q4 : -0.00110184424557}
2019-04-14 01:42:19.21: SIM {TimeUS : 49435218, Roll : -0.04, Pitch : 0.13, Yaw : 359.87, Alt : 40.9099998474, Lat : 49.2835706, Lng : -123.1150207, Q1 : 0.999998629093, Q2 : -0.000354500458343, Q3 : 0.00117335212417, Q4 : -0.00112133345101}
2019-04-14 01:42:19.31: SIM {TimeUS : 49535178, Roll : -0.05, Pitch : 0.11, Yaw : 359.86, Alt : 41.1399993896, Lat : 49.2835706, Lng : -123.1150207, Q1 : 0.999998688698, Q2 : -0.000437720038462, Q3 : 0.00104028836358, Q4 : -0.00114364980254}
2019-04-14 01:42:19.41: SIM {TimeUS : 49635138, Roll : -0.03, Pitch : 0.12, Yaw : 359.86, Alt : 41.3800010681, Lat : 49.2835706, Lng : -123.1150207, Q1 : 0.999998688698, Q2 : -0.000342804793036, Q3 : 0.00107851345092, Q4 : -0.00117325445171}
2019-04-14 01:42:19.51: SIM {TimeUS : 49735098, Roll : 0.0, Pitch : 0.14, Yaw : 359.86, Alt : 41.6100006104, Lat : 49.2835706, Lng : -123.1150207, Q1 : 0.999998509884, Q2 : -1.97860617845e-06, Q3 : 0.0012549450621, Q4 : -0.00121106952429}
2019-04-14 01:42:19.61: SIM {TimeUS : 49835058, Roll : 0.04, Pitch : 0.15, Yaw : 359.85, Alt : 41.8400001526, Lat : 49.2835706, Lng : -123.1150208, Q1 : 0.999998211861, Q2 : 0.000415638758568, Q3 : 0.00134952820372, Q4 : -0.00125201547053}
2019-04-14 01:42:19.71: SIM {TimeUS : 49935018, Roll : 0.08, Pitch : 0.12, Yaw : 359.85, Alt : 42.0800018311, Lat : 49.2835706, Lng : -123.1150208, Q1 : 0.999998271465, Q2 : 0.000728309503756, Q3 : 0.00109644909389, Q4 : -0.00129521091003}
2019-04-14 01:42:19.81: SIM {TimeUS : 50034978, Roll : 0.08, Pitch : 0.08, Yaw : 359.84, Alt : 42.3100013733, Lat : 49.2835706, Lng : -123.1150208, Q1 : 0.999998569489, Q2 : 0.000765554199461, Q3 : 0.000721786927897, Q4 : -0.00133578304667}
2019-04-14 01:42:19.91: SIM {TimeUS : 50134938, Roll : 0.05, Pitch : 0.05, Yaw : 359.84, Alt : 42.5400009155, Lat : 49.2835706, Lng : -123.1150208, Q1 : 0.999998867512, Q2 : 0.000471230712719, Q3 : 0.000451704108855, Q4 : -0.00136636814568}
2019-04-14 01:42:20.01: SIM {TimeUS : 50234898, Roll : 0.0, Pitch : 0.04, Yaw : 359.84, Alt : 42.7799987793, Lat : 49.2835706, Lng : -123.1150208, Q1 : 0.999998986721, Q2 : -1.70891507878e-06, Q3 : 0.000372569746105, Q4 : -0.00138559099287}
2019-04-14 01:42:20.11: SIM {TimeUS : 50334858, Roll : -0.03, Pitch : 0.06, Yaw : 359.84, Alt : 43.0099983215, Lat : 49.2835706, Lng : -123.1150207, Q1 : 0.999998807907, Q2 : -0.000341746519553, Q3 : 0.000577877624892, Q4 : -0.0013941032812}
2019-04-14 01:42:20.21: SIM {TimeUS : 50434818, Roll : -0.06, Pitch : 0.08, Yaw : 359.83, Alt : 43.25, Lat : 49.2835706, Lng : -123.1150207, Q1 : 0.999998629093, Q2 : -0.000526173505932, Q3 : 0.000739477167372, Q4 : -0.00140135723632}
2019-04-14 01:42:20.31: SIM {TimeUS : 50534778, Roll : -0.06, Pitch : 0.07, Yaw : 359.83, Alt : 43.4799995422, Lat : 49.2835704, Lng : -123.1150207, Q1 : 0.999998629093, Q2 : -0.000531703291927, Q3 : 0.000688141502906, Q4 : -0.00140912237111}
2019-04-14 01:42:20.41: SIM {TimeUS : 50634738, Roll : -0.06, Pitch : 0.06, Yaw : 359.83, Alt : 43.7200012207, Lat : 49.2835704, Lng : -123.1150207, Q1 : 0.999998688698, Q2 : -0.000551346573047, Q3 : 0.000557398598175, Q4 : -0.00141963339411}
2019-04-14 01:42:20.51: SIM {TimeUS : 50734698, Roll : -0.05, Pitch : 0.04, Yaw : 359.83, Alt : 43.9500007629, Lat : 49.2835704, Lng : -123.1150207, Q1 : 0.999998807907, Q2 : -0.000456203735666, Q3 : 0.000397514842916, Q4 : -0.00143496820237}
2019-04-14 01:42:20.61: SIM {TimeUS : 50834658, Roll : -0.02, Pitch : 0.03, Yaw : 359.83, Alt : 44.1899986267, Lat : 49.2835704, Lng : -123.1150207, Q1 : 0.999998867512, Q2 : -0.000253836624324, Q3 : 0.000335565040587, Q4 : -0.00145691819489}
2019-04-14 01:42:20.71: SIM {TimeUS : 50934618, Roll : -0.01, Pitch : 0.04, Yaw : 359.83, Alt : 44.4300003052, Lat : 49.2835704, Lng : -123.1150207, Q1 : 0.999998807907, Q2 : -0.000121460805531, Q3 : 0.000381698075216, Q4 : -0.00148048310075}
2019-04-14 01:42:20.81: SIM {TimeUS : 51034578, Roll : -0.01, Pitch : 0.03, Yaw : 359.82, Alt : 44.6599998474, Lat : 49.2835704, Lng : -123.1150207, Q1 : 0.999998807907, Q2 : -0.000160143827088, Q3 : 0.000287794275209, Q4 : -0.00150498386938}
2019-04-14 01:42:20.91: SIM {TimeUS : 51135371, Roll : -0.03, Pitch : 0.0, Yaw : 359.82, Alt : 44.9000015259, Lat : 49.2835704, Lng : -123.1150207, Q1 : 0.999998807907, Q2 : -0.000270552263828, Q3 : 1.23418885778e-05, Q4 : -0.00153597374447}
2019-04-14 01:42:21.01: SIM {TimeUS : 51235331, Roll : -0.03, Pitch : -0.02, Yaw : 359.82, Alt : 45.1399993896, Lat : 49.2835704, Lng : -123.1150207, Q1 : 0.999998688698, Q2 : -0.000311532523483, Q3 : -0.000198011723114, Q4 : -0.00156789715402}
2019-04-14 01:42:21.11: SIM {TimeUS : 51335291, Roll : -0.02, Pitch : -0.03, Yaw : 359.81, Alt : 45.3699989319, Lat : 49.2835704, Lng : -123.1150207, Q1 : 0.999998629093, Q2 : -0.000255049730185, Q3 : -0.000325049069943, Q4 : -0.00159924663603}
2019-04-14 01:42:21.21: SIM {TimeUS : 51435251, Roll : -0.03, Pitch : -0.04, Yaw : 359.81, Alt : 45.6100006104, Lat : 49.2835704, Lng : -123.1150207, Q1 : 0.999998569489, Q2 : -0.00028091511922, Q3 : -0.000365110114217, Q4 : -0.00162966386415}
2019-04-14 01:42:21.31: SIM {TimeUS : 51535211, Roll : -0.05, Pitch : -0.03, Yaw : 359.8, Alt : 45.8400001526, Lat : 49.2835703, Lng : -123.1150207, Q1 : 0.999998450279, Q2 : -0.00049720244715, Q3 : -0.000323565182043, Q4 : -0.00165876303799}
2019-04-14 01:42:21.41: SIM {TimeUS : 51635171, Roll : -0.09, Pitch : -0.03, Yaw : 359.8, Alt : 46.0699996948, Lat : 49.2835703, Lng : -123.1150207, Q1 : 0.999998211861, Q2 : -0.000819134816993, Q3 : -0.000272622535704, Q4 : -0.0016885822406}
2019-04-14 01:42:21.51: SIM {TimeUS : 51735131, Roll : -0.11, Pitch : -0.02, Yaw : 359.8, Alt : 46.2999992371, Lat : 49.2835703, Lng : -123.1150207, Q1 : 0.999997973442, Q2 : -0.00104204216041, Q3 : -0.000249183474807, Q4 : -0.001717150677}
2019-04-14 01:42:21.61: SIM {TimeUS : 51835091, Roll : -0.12, Pitch : -0.01, Yaw : 359.8, Alt : 46.5200004578, Lat : 49.2835703, Lng : -123.1150207, Q1 : 0.999997913837, Q2 : -0.00107090140227, Q3 : -0.000146207297803, Q4 : -0.00174505321775}
2019-04-14 01:42:21.71: SIM {TimeUS : 51935051, Roll : -0.1, Pitch : 0.0, Yaw : 359.79, Alt : 46.7400016785, Lat : 49.2835703, Lng : -123.1150207, Q1 : 0.999997973442, Q2 : -0.000942110375036, Q3 : 8.12098442111e-05, Q4 : -0.00177237472963}
2019-04-14 01:42:21.81: SIM {TimeUS : 52035011, Roll : -0.08, Pitch : 0.02, Yaw : 359.79, Alt : 46.9500007629, Lat : 49.2835703, Lng : -123.1150207, Q1 : 0.999998092651, Q2 : -0.000701668846887, Q3 : 0.000221160589717, Q4 : -0.00180003035348}
2019-04-14 01:42:21.91: SIM {TimeUS : 52134971, Roll : -0.05, Pitch : 0.02, Yaw : 359.79, Alt : 47.1599998474, Lat : 49.2835703, Lng : -123.1150207, Q1 : 0.999998211861, Q2 : -0.000485795724671, Q3 : 0.000202650029678, Q4 : -0.00182786560617}
2019-04-14 01:42:22.01: SIM {TimeUS : 52234931, Roll : -0.04, Pitch : 0.0, Yaw : 359.78, Alt : 47.3600006104, Lat : 49.2835703, Lng : -123.1150207, Q1 : 0.999998211861, Q2 : -0.000356446165824, Q3 : 2.73013702099e-05, Q4 : -0.00185398606118}
2019-04-14 01:42:22.11: SIM {TimeUS : 52334891, Roll : -0.02, Pitch : -0.03, Yaw : 359.78, Alt : 47.5499992371, Lat : 49.2835703, Lng : -123.1150207, Q1 : 0.999998152256, Q2 : -0.000219345994992, Q3 : -0.000263517576968, Q4 : -0.00187908671796}
2019-04-14 01:42:22.21: SIM {TimeUS : 52434851, Roll : -0.01, Pitch : -0.07, Yaw : 359.78, Alt : 47.7200012207, Lat : 49.2835703, Lng : -123.1150207, Q1 : 0.999997973442, Q2 : -0.00011993454973, Q3 : -0.000633875024505, Q4 : -0.00190222566016}
2019-04-14 01:42:22.31: SIM {TimeUS : 52534811, Roll : -0.01, Pitch : -0.11, Yaw : 359.77, Alt : 47.8899993896, Lat : 49.2835703, Lng : -123.1150207, Q1 : 0.999997615814, Q2 : -0.000112065776193, Q3 : -0.00104245578405, Q4 : -0.00192454003263}
2019-04-14 01:42:22.41: SIM {TimeUS : 52634771, Roll : -0.01, Pitch : -0.15, Yaw : 359.77, Alt : 48.0499992371, Lat : 49.2835703, Lng : -123.1150207, Q1 : 0.999997198582, Q2 : -0.000161160234711, Q3 : -0.00133105914574, Q4 : -0.0019481262425}
2019-04-14 01:42:22.51: SIM {TimeUS : 52734731, Roll : 0.0, Pitch : -0.14, Yaw : 359.77, Alt : 48.1899986267, Lat : 49.2835703, Lng : -123.1150208, Q1 : 0.999997198582, Q2 : 4.4408832764e-05, Q3 : -0.00130074983463, Q4 : -0.00196887459606}
2019-04-14 01:42:22.61: SIM {TimeUS : 52834691, Roll : 0.03, Pitch : -0.12, Yaw : 359.77, Alt : 48.3199996948, Lat : 49.2835703, Lng : -123.1150208, Q1 : 0.999997377396, Q2 : 0.000331009272486, Q3 : -0.00107297429349, Q4 : -0.00198805565014}
2019-04-14 01:42:22.71: SIM {TimeUS : 52934651, Roll : 0.06, Pitch : -0.08, Yaw : 359.76, Alt : 48.4500007629, Lat : 49.2835703, Lng : -123.1150208, Q1 : 0.999997496605, Q2 : 0.000573235272896, Q3 : -0.000770787766669, Q4 : -0.00200893776491}
2019-04-14 01:42:22.81: SIM {TimeUS : 53034611, Roll : 0.07, Pitch : -0.05, Yaw : 359.76, Alt : 48.5499992371, Lat : 49.2835703, Lng : -123.1150208, Q1 : 0.999997615814, Q2 : 0.000641805992927, Q3 : -0.00047991872998, Q4 : -0.00203412468545}
2019-04-14 01:42:22.91: SIM {TimeUS : 53135404, Roll : 0.07, Pitch : -0.03, Yaw : 359.76, Alt : 48.6500015259, Lat : 49.2835704, Lng : -123.1150208, Q1 : 0.999997615814, Q2 : 0.000654757546727, Q3 : -0.000306258472847, Q4 : -0.00206846464425}
2019-04-14 01:42:23.01: SIM {TimeUS : 53235364, Roll : 0.06, Pitch : -0.03, Yaw : 359.75, Alt : 48.7299995422, Lat : 49.2835704, Lng : -123.1150208, Q1 : 0.99999755621, Q2 : 0.00057868717704, Q3 : -0.000343331572367, Q4 : -0.00210979999974}
2019-04-14 01:42:23.11: SIM {TimeUS : 53335324, Roll : 0.04, Pitch : -0.04, Yaw : 359.75, Alt : 48.8100013733, Lat : 49.2835704, Lng : -123.1150208, Q1 : 0.99999755621, Q2 : 0.000383047590731, Q3 : -0.000361235637683, Q4 : -0.00214540399611}
2019-04-14 01:42:23.21: SIM {TimeUS : 53435284, Roll : 0.02, Pitch : -0.03, Yaw : 359.75, Alt : 48.8699989319, Lat : 49.2835704, Lng : -123.1150208, Q1 : 0.99999755621, Q2 : 0.000221888316446, Q3 : -0.000298592000036, Q4 : -0.00217572110705}
2019-04-14 01:42:23.31: SIM {TimeUS : 53535244, Roll : 0.0, Pitch : -0.02, Yaw : 359.74, Alt : 48.9199981689, Lat : 49.2835704, Lng : -123.1150208, Q1 : 0.99999755621, Q2 : 7.14813068043e-05, Q3 : -0.000254504935583, Q4 : -0.00220135669224}
2019-04-14 01:42:23.41: SIM {TimeUS : 53635204, Roll : 0.02, Pitch : -0.03, Yaw : 359.74, Alt : 48.9700012207, Lat : 49.2835704, Lng : -123.1150208, Q1 : 0.999997496605, Q2 : 0.000232748308918, Q3 : -0.000291268253932, Q4 : -0.00221727578901}
2019-04-14 01:42:23.51: SIM {TimeUS : 53735164, Roll : 0.19, Pitch : -0.1, Yaw : 359.74, Alt : 49.0099983215, Lat : 49.2835704, Lng : -123.1150208, Q1 : 0.999995648861, Q2 : 0.0016896185698, Q3 : -0.000914026459213, Q4 : -0.00222824979573}
2019-04-14 01:42:23.61: SIM {TimeUS : 53835124, Roll : 0.57, Pitch : -0.32, Yaw : 359.74, Alt : 49.0499992371, Lat : 49.2835704, Lng : -123.1150208, Q1 : 0.999980568886, Q2 : 0.00505326595157, Q3 : -0.00288583920337, Q4 : -0.00223649037071}
2019-04-14 01:42:23.71: SIM {TimeUS : 53935084, Roll : 1.18, Pitch : -0.73, Yaw : 359.73, Alt : 49.0699996948, Lat : 49.2835704, Lng : -123.1150208, Q1 : 0.999923765659, Q2 : 0.0103003690019, Q3 : -0.00643687229604, Q4 : -0.00224005966447}
2019-04-14 01:42:23.81: SIM {TimeUS : 54035044, Roll : 1.93, Pitch : -1.27, Yaw : 359.72, Alt : 49.0999984741, Lat : 49.2835704, Lng : -123.1150208, Q1 : 0.999792814255, Q2 : 0.0168707016855, Q3 : -0.0111701199785, Q4 : -0.00223284517415}
2019-04-14 01:42:23.91: SIM {TimeUS : 54135004, Roll : 2.76, Pitch : -1.89, Yaw : 359.7, Alt : 49.1199989319, Lat : 49.2835706, Lng : -123.1150207, Q1 : 0.99956882, Q2 : 0.0240939389914, Q3 : -0.0166371595114, Q4 : -0.00218733726069}
2019-04-14 01:42:24.01: SIM {TimeUS : 54234964, Roll : 3.56, Pitch : -2.5, Yaw : 359.68, Alt : 49.1399993896, Lat : 49.2835707, Lng : -123.1150205, Q1 : 0.999275028706, Q2 : 0.0310742612928, Q3 : -0.0218995157629, Q4 : -0.00208009872586}
2019-04-14 01:42:24.11: SIM {TimeUS : 54334924, Roll : 4.24, Pitch : -2.97, Yaw : 359.67, Alt : 49.1599998474, Lat : 49.2835707, Lng : -123.1150203, Q1 : 0.998975932598, Q2 : 0.0369184650481, Q3 : -0.0260862074792, Q4 : -0.00190451683011}
2019-04-14 01:42:24.21: SIM {TimeUS : 54434884, Roll : 4.73, Pitch : -3.33, Yaw : 359.66, Alt : 49.1699981689, Lat : 49.2835709, Lng : -123.11502, Q1 : 0.998721599579, Q2 : 0.0412395745516, Q3 : -0.0291827004403, Q4 : -0.00168614578433}
2019-04-14 01:42:24.31: SIM {TimeUS : 54534844, Roll : 5.1, Pitch : -3.59, Yaw : 359.67, Alt : 49.1800003052, Lat : 49.283571, Lng : -123.1150198, Q1 : 0.998519003391, Q2 : 0.0443920642138, Q3 : -0.0314204208553, Q4 : -0.00142196752131}
2019-04-14 01:42:24.41: SIM {TimeUS : 54634804, Roll : 5.39, Pitch : -3.78, Yaw : 359.68, Alt : 49.1899986267, Lat : 49.2835713, Lng : -123.1150193, Q1 : 0.998349130154, Q2 : 0.0469048507512, Q3 : -0.0331307575107, Q4 : -0.00115096732043}
2019-04-14 01:42:24.51: SIM {TimeUS : 54734764, Roll : 5.66, Pitch : -3.99, Yaw : 359.69, Alt : 49.2000007629, Lat : 49.2835715, Lng : -123.1150187, Q1 : 0.998173713684, Q2 : 0.0492815300822, Q3 : -0.0349258705974, Q4 : -0.000893945398275}
2019-04-14 01:42:24.61: SIM {TimeUS : 54834724, Roll : 5.97, Pitch : -4.22, Yaw : 359.7, Alt : 49.2099990845, Lat : 49.2835718, Lng : -123.1150181, Q1 : 0.997963547707, Q2 : 0.0519757531583, Q3 : -0.0369722917676, Q4 : -0.000641636434011}
2019-04-14 01:42:24.71: SIM {TimeUS : 54934684, Roll : 6.29, Pitch : -4.45, Yaw : 359.71, Alt : 49.2200012207, Lat : 49.2835721, Lng : -123.1150173, Q1 : 0.997741222382, Q2 : 0.0547400899231, Q3 : -0.0389343984425, Q4 : -0.000388307293179}
2019-04-14 01:42:24.81: SIM {TimeUS : 55034644, Roll : 6.54, Pitch : -4.62, Yaw : 359.71, Alt : 49.2299995422, Lat : 49.2835726, Lng : -123.1150163, Q1 : 0.997557759285, Q2 : 0.0569541715086, Q3 : -0.0404312722385, Q4 : -0.000159000934218}
2019-04-14 01:42:24.91: SIM {TimeUS : 55134604, Roll : 6.73, Pitch : -4.75, Yaw : 359.72, Alt : 49.2299995422, Lat : 49.2835729, Lng : -123.1150155, Q1 : 0.99741768837, Q2 : 0.0585845708847, Q3 : -0.0415436588228, Q4 : 1.7759966795e-05}
2019-04-14 01:42:25.01: SIM {TimeUS : 55235397, Roll : 6.85, Pitch : -4.83, Yaw : 359.72, Alt : 49.2400016785, Lat : 49.2835734, Lng : -123.1150144, Q1 : 0.997325360775, Q2 : 0.059624440968, Q3 : -0.0422737970948, Q4 : 0.000163376171258}
2019-04-14 01:42:25.11: SIM {TimeUS : 55335357, Roll : 6.94, Pitch : -4.89, Yaw : 359.73, Alt : 49.2400016785, Lat : 49.2835739, Lng : -123.1150133, Q1 : 0.997257888317, Q2 : 0.0604007132351, Q3 : -0.0427599325776, Q4 : 0.000268655479886}
2019-04-14 01:42:25.21: SIM {TimeUS : 55435317, Roll : 7.04, Pitch : -4.94, Yaw : 359.73, Alt : 49.25, Lat : 49.2835745, Lng : -123.1150121, Q1 : 0.997184932232, Q2 : 0.0612564943731, Q3 : -0.0432413592935, Q4 : 0.000335993681801}
2019-04-14 01:42:25.31: SIM {TimeUS : 55535277, Roll : 7.26, Pitch : -4.95, Yaw : 359.78, Alt : 49.25, Lat : 49.2835751, Lng : -123.1150108, Q1 : 0.997057497501, Q2 : 0.0632547587156, Q3 : -0.0432943142951, Q4 : 0.00089317956008}
2019-04-14 01:42:25.41: SIM {TimeUS : 55635237, Roll : 7.74, Pitch : -4.8, Yaw : 0.31, Alt : 49.2599983215, Lat : 49.2835758, Lng : -123.1150094, Q1 : 0.996824324131, Q2 : 0.0676260963082, Q3 : -0.0416811779141, Q4 : 0.00554059213027}
2019-04-14 01:42:25.51: SIM {TimeUS : 55735197, Roll : 8.41, Pitch : -4.65, Yaw : 1.98, Alt : 49.2599983215, Lat : 49.2835764, Lng : -123.1150079, Q1 : 0.996284663677, Q2 : 0.0739639177918, Q3 : -0.0392120108008, Q4 : 0.0202157236636}
2019-04-14 01:42:25.61: SIM {TimeUS : 55835157, Roll : 8.96, Pitch : -4.83, Yaw : 5.21, Alt : 49.2599983215, Lat : 49.2835771, Lng : -123.1150063, Q1 : 0.994873046875, Q2 : 0.0799003094435, Q3 : -0.0384855791926, Q4 : 0.0486047379673}
2019-04-14 01:42:25.71: SIM {TimeUS : 55935117, Roll : 9.14, Pitch : -5.52, Yaw : 9.98, Alt : 49.2599983215, Lat : 49.2835779, Lng : -123.1150046, Q1 : 0.991544544697, Q2 : 0.0835334956646, Q3 : -0.0409309752285, Q4 : 0.0904775857925}
2019-04-14 01:42:25.81: SIM {TimeUS : 56035077, Roll : 8.79, Pitch : -6.68, Yaw : 16.08, Alt : 49.2599983215, Lat : 49.2835786, Lng : -123.1150028, Q1 : 0.984941184521, Q2 : 0.0839327201247, Q3 : -0.046872895211, Q4 : 0.143698006868}
2019-04-14 01:42:25.91: SIM {TimeUS : 56135037, Roll : 7.82, Pitch : -8.19, Yaw : 23.26, Alt : 49.2599983215, Lat : 49.2835793, Lng : -123.1150008, Q1 : 0.973701417446, Q2 : 0.0810403451324, Q3 : -0.056099858135, Q4 : 0.205403983593}
2019-04-14 01:42:26.01: SIM {TimeUS : 56234997, Roll : 6.25, Pitch : -9.82, Yaw : 31.26, Alt : 49.2700004578, Lat : 49.28358, Lng : -123.1149988, Q1 : 0.956790030003, Q2 : 0.0753907263279, Q3 : -0.0677331313491, Q4 : 0.272546082735}
2019-04-14 01:42:26.11: SIM {TimeUS : 56334957, Roll : 4.14, Pitch : -11.33, Yaw : 39.82, Alt : 49.2700004578, Lat : 49.2835808, Lng : -123.1149966, Q1 : 0.933773994446, Q2 : 0.0674826577306, Q3 : -0.0805064514279, Q4 : 0.342097878456}
2019-04-14 01:42:26.21: SIM {TimeUS : 56434917, Roll : 1.41, Pitch : -12.48, Yaw : 48.57, Alt : 49.2700004578, Lat : 49.2835817, Lng : -123.1149943, Q1 : 0.905480980873, Q2 : 0.055880934, Q3 : -0.0940326601267, Q4 : 0.410048007965}
2019-04-14 01:42:26.31: SIM {TimeUS : 56534877, Roll : -1.76, Pitch : -13.09, Yaw : 56.68, Alt : 49.2700004578, Lat : 49.2835825, Lng : -123.1149919, Q1 : 0.87511241436, Q2 : 0.0406234525144, Q3 : -0.107620038092, Q4 : 0.470048874617}
2019-04-14 01:42:26.41: SIM {TimeUS : 56634837, Roll : -4.78, Pitch : -13.17, Yaw : 63.3, Alt : 49.2700004578, Lat : 49.2835835, Lng : -123.1149895, Q1 : 0.847408235073, Q2 : 0.0248500909656, Q3 : -0.119280047715, Q4 : 0.51677274704}
2019-04-14 01:42:26.51: SIM {TimeUS : 56734797, Roll : -7.02, Pitch : -12.93, Yaw : 67.89, Alt : 49.2700004578, Lat : 49.2835846, Lng : -123.114987, Q1 : 0.826549708843, Q2 : 0.0123431887478, Q3 : -0.12727175653, Q4 : 0.548147022724}
2019-04-14 01:42:26.61: SIM {TimeUS : 56834757, Roll : -8.2, Pitch : -12.68, Yaw : 70.41, Alt : 49.2700004578, Lat : 49.2835856, Lng : -123.1149844, Q1 : 0.814549267292, Q2 : 0.00544818071648, Q3 : -0.131044015288, Q4 : 0.565072834492}
2019-04-14 01:42:26.71: SIM {TimeUS : 56934717, Roll : -8.35, Pitch : -12.6, Yaw : 71.09, Alt : 49.2700004578, Lat : 49.283587, Lng : -123.1149818, Q1 : 0.811227619648, Q2 : 0.00471182679757, Q3 : -0.13119584322, Q4 : 0.569802820683}
2019-04-14 01:42:26.81: SIM {TimeUS : 57034677, Roll : -7.64, Pitch : -12.78, Yaw : 70.29, Alt : 49.2700004578, Lat : 49.2835884, Lng : -123.1149791, Q1 : 0.815054237843, Q2 : 0.0097506577149, Q3 : -0.128955572844, Q4 : 0.564767181873}
2019-04-14 01:42:26.91: SIM {TimeUS : 57134637, Roll : -6.3, Pitch : -13.22, Yaw : 68.38, Alt : 49.2700004578, Lat : 49.2835897, Lng : -123.1149764, Q1 : 0.823953330517, Q2 : 0.0194414295256, Q3 : -0.125808656216, Q4 : 0.552173137665}
2019-04-14 01:42:27.01: SIM {TimeUS : 57234597, Roll : -4.57, Pitch : -13.86, Yaw : 65.7, Alt : 49.2700004578, Lat : 49.2835914, Lng : -123.1149736, Q1 : 0.835861325264, Q2 : 0.0321417339146, Q3 : -0.122827857733, Q4 : 0.534056305885}
2019-04-14 01:42:27.11: SIM {TimeUS : 57335390, Roll : -2.65, Pitch : -14.58, Yaw : 62.54, Alt : 49.2799987793, Lat : 49.2835929, Lng : -123.1149707, Q1 : 0.849100768566, Q2 : 0.0462150648236, Q3 : -0.120370984077, Q4 : 0.512252748013}
2019-04-14 01:42:27.21: SIM {TimeUS : 57435350, Roll : -0.76, Pitch : -15.21, Yaw : 59.26, Alt : 49.2799987793, Lat : 49.2835946, Lng : -123.1149677, Q1 : 0.862003862858, Q2 : 0.0596752688289, Q3 : -0.118355818093, Q4 : 0.48926487565}
2019-04-14 01:42:27.31: SIM {TimeUS : 57535310, Roll : 0.93, Pitch : -15.65, Yaw : 56.16, Alt : 49.2799987793, Lat : 49.2835962, Lng : -123.1149646, Q1 : 0.873505353928, Q2 : 0.0712005421519, Q3 : -0.116356253624, Q4 : 0.467311650515}
2019-04-14 01:42:27.41: SIM {TimeUS : 57635270, Roll : 2.28, Pitch : -15.86, Yaw : 53.56, Alt : 49.2799987793, Lat : 49.2835978, Lng : -123.1149615, Q1 : 0.882764220238, Q2 : 0.0798187255859, Q3 : -0.11426898092, Q4 : 0.448663532734}
2019-04-14 01:42:27.51: SIM {TimeUS : 57735230, Roll : 3.2, Pitch : -15.89, Yaw : 51.67, Alt : 49.2799987793, Lat : 49.2835995, Lng : -123.1149582, Q1 : 0.889355838299, Q2 : 0.0851473510265, Q3 : -0.112297512591, Q4 : 0.434954553843}
2019-04-14 01:42:27.61: SIM {TimeUS : 57835190, Roll : 3.65, Pitch : -15.82, Yaw : 50.58, Alt : 49.2799987793, Lat : 49.2836012, Lng : -123.1149547, Q1 : 0.893189549446, Q2 : 0.0873401015997, Q3 : -0.11094109714, Q4 : 0.426938205957}
2019-04-14 01:42:27.71: SIM {TimeUS : 57935150, Roll : 3.64, Pitch : -15.77, Yaw : 50.27, Alt : 49.2799987793, Lat : 49.2836029, Lng : -123.1149511, Q1 : 0.894401431084, Q2 : 0.0868199542165, Q3 : -0.110787242651, Q4 : 0.424540430307}
2019-04-14 01:42:27.81: SIM {TimeUS : 58035110, Roll : 3.25, Pitch : -15.79, Yaw : 50.64, Alt : 49.2799987793, Lat : 49.2836045, Lng : -123.1149474, Q1 : 0.89330714941, Q2 : 0.0841779708862, Q3 : -0.112087406218, Q4 : 0.427027910948}
2019-04-14 01:42:27.91: SIM {TimeUS : 58135070, Roll : 2.56, Pitch : -15.88, Yaw : 51.53, Alt : 49.2799987793, Lat : 49.2836062, Lng : -123.1149437, Q1 : 0.890357017517, Q2 : 0.0800187140703, Q3 : -0.114808894694, Q4 : 0.433220863342}
2019-04-14 01:42:28.01: SIM {TimeUS : 58235030, Roll : 1.69, Pitch : -16.01, Yaw : 52.75, Alt : 49.2799987793, Lat : 49.283608, Lng : -123.1149397, Q1 : 0.88611882925, Q2 : 0.0750416070223, Q3 : -0.118268683553, Q4 : 0.441785871983}
2019-04-14 01:42:28.11: SIM {TimeUS : 58334990, Roll : 0.8, Pitch : -16.14, Yaw : 54.13, Alt : 49.2799987793, Lat : 49.2836097, Lng : -123.1149358, Q1 : 0.881190180779, Q2 : 0.0701220035553, Q3 : -0.121897354722, Q4 : 0.451362162828}
2019-04-14 01:42:28.21: SIM {TimeUS : 58434950, Roll : -0.03, Pitch : -16.26, Yaw : 55.47, Alt : 49.2799987793, Lat : 49.2836115, Lng : -123.1149318, Q1 : 0.876214265823, Q2 : 0.065602183342, Q3 : -0.125330790877, Q4 : 0.460692048073}
2019-04-14 01:42:28.31: SIM {TimeUS : 58534910, Roll : -0.71, Pitch : -16.35, Yaw : 56.64, Alt : 49.2799987793, Lat : 49.2836133, Lng : -123.1149277, Q1 : 0.871739327908, Q2 : 0.0620707422495, Q3 : -0.128138050437, Q4 : 0.468826711178}
2019-04-14 01:42:28.41: SIM {TimeUS : 58634870, Roll : -1.17, Pitch : -16.4, Yaw : 57.54, Alt : 49.2799987793, Lat : 49.2836151, Lng : -123.1149236, Q1 : 0.868217527866, Q2 : 0.0597882047296, Q3 : -0.129909962416, Q4 : 0.475128531456}
2019-04-14 01:42:28.51: SIM {TimeUS : 58734830, Roll : -1.42, Pitch : -16.41, Yaw : 58.12, Alt : 49.2900009155, Lat : 49.2836169, Lng : -123.1149194, Q1 : 0.865919828415, Q2 : 0.0586016997695, Q3 : -0.130781009793, Q4 : 0.479212909937}
2019-04-14 01:42:28.61: SIM {TimeUS : 58834790, Roll : -1.48, Pitch : -16.43, Yaw : 58.37, Alt : 49.2900009155, Lat : 49.2836188, Lng : -123.1149152, Q1 : 0.864884018898, Q2 : 0.0584828592837, Q3 : -0.13107535243, Q4 : 0.481014162302}
2019-04-14 01:42:28.71: SIM {TimeUS : 58934750, Roll : -1.38, Pitch : -16.47, Yaw : 58.32, Alt : 49.2900009155, Lat : 49.2836207, Lng : -123.1149109, Q1 : 0.865004181862, Q2 : 0.0593843981624, Q3 : -0.130907863379, Q4 : 0.480733245611}
2019-04-14 01:42:28.81: SIM {TimeUS : 59034710, Roll : -1.14, Pitch : -16.53, Yaw : 58.03, Alt : 49.2900009155, Lat : 49.2836226, Lng : -123.1149066, Q1 : 0.86604809761, Q2 : 0.0610844939947, Q3 : -0.13050442934, Q4 : 0.478746294975}
2019-04-14 01:42:28.91: SIM {TimeUS : 59134670, Roll : -0.82, Pitch : -16.58, Yaw : 57.56, Alt : 49.2900009155, Lat : 49.2836247, Lng : -123.1149022, Q1 : 0.867751181126, Q2 : 0.0631750822067, Q3 : -0.129864662886, Q4 : 0.475554376841}
2019-04-14 01:42:29.01: SIM {TimeUS : 59234630, Roll : -0.47, Pitch : -16.63, Yaw : 57.01, Alt : 49.2900009155, Lat : 49.2836267, Lng : -123.1148978, Q1 : 0.869791388512, Q2 : 0.0654841214418, Q3 : -0.12908950448, Q4 : 0.471710413694}
2019-04-14 01:42:29.11: SIM {TimeUS : 59334590, Roll : -0.11, Pitch : -16.68, Yaw : 56.44, Alt : 49.2900009155, Lat : 49.2836287, Lng : -123.1148934, Q1 : 0.871878266335, Q2 : 0.0677548721433, Q3 : -0.128317549825, Q4 : 0.467730849981}
2019-04-14 01:42:29.21: SIM {TimeUS : 59435383, Roll : 0.2, Pitch : -16.72, Yaw : 55.91, Alt : 49.2900009155, Lat : 49.2836306, Lng : -123.1148888, Q1 : 0.873789250851, Q2 : 0.0697694867849, Q3 : -0.127645745873, Q4 : 0.464037925005}
2019-04-14 01:42:29.31: SIM {TimeUS : 59535343, Roll : 0.45, Pitch : -16.75, Yaw : 55.48, Alt : 49.2900009155, Lat : 49.2836328, Lng : -123.1148843, Q1 : 0.875337064266, Q2 : 0.0713161379099, Q3 : -0.127088665962, Q4 : 0.461028784513}
2019-04-14 01:42:29.41: SIM {TimeUS : 59635303, Roll : 0.62, Pitch : -16.78, Yaw : 55.17, Alt : 49.2900009155, Lat : 49.2836347, Lng : -123.1148797, Q1 : 0.876425564289, Q2 : 0.072368606925, Q3 : -0.126822829247, Q4 : 0.458864867687}
2019-04-14 01:42:29.51: SIM {TimeUS : 59735263, Roll : 0.69, Pitch : -16.8, Yaw : 55.0, Alt : 49.2900009155, Lat : 49.2836369, Lng : -123.1148751, Q1 : 0.877040207386, Q2 : 0.0727898851037, Q3 : -0.126836523414, Q4 : 0.457618445158}
2019-04-14 01:42:29.61: SIM {TimeUS : 59835223, Roll : 0.67, Pitch : -16.83, Yaw : 54.96, Alt : 49.2900009155, Lat : 49.283639, Lng : -123.1148705, Q1 : 0.877184808254, Q2 : 0.0727190598845, Q3 : -0.127194821835, Q4 : 0.457252949476}
2019-04-14 01:42:29.71: SIM {TimeUS : 59935183, Roll : 0.57, Pitch : -16.88, Yaw : 55.02, Alt : 49.2900009155, Lat : 49.2836409, Lng : -123.1148658, Q1 : 0.876933395863, Q2 : 0.0722007900476, Q3 : -0.127895966172, Q4 : 0.4576215446}
2019-04-14 01:42:29.81: SIM {TimeUS : 60035143, Roll : 0.42, Pitch : -16.92, Yaw : 55.17, Alt : 49.2900009155, Lat : 49.2836431, Lng : -123.114861, Q1 : 0.876386344433, Q2 : 0.0714316740632, Q3 : -0.128747150302, Q4 : 0.458550632}
2019-04-14 01:42:29.91: SIM {TimeUS : 60135103, Roll : 0.24, Pitch : -16.96, Yaw : 55.36, Alt : 49.2900009155, Lat : 49.2836451, Lng : -123.1148563, Q1 : 0.875681519508, Q2 : 0.0704045146704, Q3 : -0.129653915763, Q4 : 0.459798812866}
2019-04-14 01:42:30.01: SIM {TimeUS : 60235063, Roll : 0.06, Pitch : -16.99, Yaw : 55.57, Alt : 49.2999992371, Lat : 49.2836473, Lng : -123.1148515, Q1 : 0.874917626381, Q2 : 0.0693863108754, Q3 : -0.130452409387, Q4 : 0.461179882288}
2019-04-14 01:42:30.11: SIM {TimeUS : 60335023, Roll : -0.08, Pitch : -17.01, Yaw : 55.77, Alt : 49.2999992371, Lat : 49.2836493, Lng : -123.1148466, Q1 : 0.874187469482, Q2 : 0.0685312822461, Q3 : -0.131138071418, Q4 : 0.462496012449}
2019-04-14 01:42:30.21: SIM {TimeUS : 60434983, Roll : -0.19, Pitch : -17.05, Yaw : 55.94, Alt : 49.2999992371, Lat : 49.2836516, Lng : -123.1148418, Q1 : 0.873538911343, Q2 : 0.0681048557162, Q3 : -0.131750434637, Q4 : 0.463609069586}
2019-04-14 01:42:30.31: SIM {TimeUS : 60534943, Roll : -0.24, Pitch : -17.1, Yaw : 56.05, Alt : 49.2999992371, Lat : 49.2836536, Lng : -123.1148369, Q1 : 0.873044252396, Q2 : 0.0679908394814, Q3 : -0.132235512137, Q4 : 0.46441873908}
2019-04-14 01:42:30.41: SIM {TimeUS : 60634903, Roll : -0.25, Pitch : -17.14, Yaw : 56.12, Alt : 49.2999992371, Lat : 49.2836559, Lng : -123.114832, Q1 : 0.872741162777, Q2 : 0.0681854039431, Q3 : -0.132547646761, Q4 : 0.464870750904}
2019-04-14 01:42:30.51: SIM {TimeUS : 60734863, Roll : -0.22, Pitch : -17.18, Yaw : 56.13, Alt : 49.2999992371, Lat : 49.283658, Lng : -123.1148271, Q1 : 0.87264084816, Q2 : 0.0685807392001, Q3 : -0.132723137736, Q4 : 0.464950829744}
2019-04-14 01:42:30.61: SIM {TimeUS : 60834823, Roll : -0.18, Pitch : -17.21, Yaw : 56.09, Alt : 49.2999992371, Lat : 49.2836602, Lng : -123.1148221, Q1 : 0.872735381126, Q2 : 0.0689953491092, Q3 : -0.132837727666, Q4 : 0.46467924118}
2019-04-14 01:42:30.71: SIM {TimeUS : 60934783, Roll : -0.14, Pitch : -17.24, Yaw : 56.01, Alt : 49.2999992371, Lat : 49.2836624, Lng : -123.1148172, Q1 : 0.872997283936, Q2 : 0.0693153142929, Q3 : -0.132936134934, Q4 : 0.464111119509}
2019-04-14 01:42:30.81: SIM {TimeUS : 61034743, Roll : -0.1, Pitch : -17.25, Yaw : 55.9, Alt : 49.2999992371, Lat : 49.2836646, Lng : -123.1148122, Q1 : 0.873382508755, Q2 : 0.0695097222924, Q3 : -0.13297945261, Q4 : 0.463344275951}
2019-04-14 01:42:30.91: SIM {TimeUS : 61134703, Roll : -0.05, Pitch : -17.26, Yaw : 55.79, Alt : 49.3100013733, Lat : 49.2836669, Lng : -123.1148072, Q1 : 0.873812615871, Q2 : 0.0698187574744, Q3 : -0.132866486907, Q4 : 0.462518543005}
2019-04-14 01:42:31.01: SIM {TimeUS : 61234663, Roll : 0.01, Pitch : -17.27, Yaw : 55.67, Alt : 49.3100013733, Lat : 49.2836691, Lng : -123.1148022, Q1 : 0.874233841896, Q2 : 0.0702418982983, Q3 : -0.132697448134, Q4 : 0.461706280708}
2019-04-14 01:42:31.11: SIM {TimeUS : 61334623, Roll : 0.1, Pitch : -17.29, Yaw : 55.57, Alt : 49.3100013733, Lat : 49.2836712, Lng : -123.1147971, Q1 : 0.874582827091, Q2 : 0.0708533450961, Q3 : -0.132590383291, Q4 : 0.460982143879}
2019-04-14 01:42:31.21: SIM {TimeUS : 61434583, Roll : 0.17, Pitch : -17.34, Yaw : 55.48, Alt : 49.3100013733, Lat : 49.2836736, Lng : -123.1147921, Q1 : 0.874830067158, Q2 : 0.0715562850237, Q3 : -0.132724925876, Q4 : 0.46036529541}
2019-04-14 01:42:31.31: SIM {TimeUS : 61535376, Roll : 0.23, Pitch : -17.37, Yaw : 55.41, Alt : 49.3100013733, Lat : 49.2836759, Lng : -123.114787, Q1 : 0.875029921532, Q2 : 0.071999117732, Q3 : -0.13279466331, Q4 : 0.459896028042}
2019-04-14 01:42:31.41: SIM {TimeUS : 61635336, Roll : 0.25, Pitch : -17.36, Yaw : 55.37, Alt : 49.3100013733, Lat : 49.283678, Lng : -123.1147819, Q1 : 0.875195026398, Q2 : 0.0720782652497, Q3 : -0.132687747478, Q4 : 0.459600269794}
2019-04-14 01:42:31.51: SIM {TimeUS : 61735296, Roll : 0.22, Pitch : -17.37, Yaw : 55.35, Alt : 49.3100013733, Lat : 49.2836803, Lng : -123.1147768, Q1 : 0.875277042389, Q2 : 0.0719122216105, Q3 : -0.132836565375, Q4 : 0.459427028894}
2019-04-14 01:42:31.61: SIM {TimeUS : 61835256, Roll : 0.18, Pitch : -17.4, Yaw : 55.35, Alt : 49.3100013733, Lat : 49.2836826, Lng : -123.1147716, Q1 : 0.875263690948, Q2 : 0.0717131122947, Q3 : -0.133273497224, Q4 : 0.459357053041}
2019-04-14 01:42:31.71: SIM {TimeUS : 61935216, Roll : 0.14, Pitch : -17.44, Yaw : 55.36, Alt : 49.3100013733, Lat : 49.2836849, Lng : -123.1147664, Q1 : 0.875194370747, Q2 : 0.0715982019901, Q3 : -0.133690729737, Q4 : 0.459385812283}
2019-04-14 01:42:31.81: SIM {TimeUS : 62035176, Roll : 0.11, Pitch : -17.48, Yaw : 55.38, Alt : 49.3100013733, Lat : 49.2836871, Lng : -123.1147613, Q1 : 0.875087380409, Q2 : 0.0714981481433, Q3 : -0.134106725454, Q4 : 0.459483981133}
2019-04-14 01:42:31.91: SIM {TimeUS : 62135136, Roll : 0.08, Pitch : -17.51, Yaw : 55.41, Alt : 49.3100013733, Lat : 49.2836895, Lng : -123.1147561, Q1 : 0.874967932701, Q2 : 0.0714533776045, Q3 : -0.134404450655, Q4 : 0.459631383419}
2019-04-14 01:42:32.01: SIM {TimeUS : 62235096, Roll : 0.07, Pitch : -17.53, Yaw : 55.43, Alt : 49.3100013733, Lat : 49.2836918, Lng : -123.114751, Q1 : 0.874853789806, Q2 : 0.0714444369078, Q3 : -0.134653508663, Q4 : 0.459777146578}
2019-04-14 01:42:32.11: SIM {TimeUS : 62335056, Roll : 0.07, Pitch : -17.55, Yaw : 55.45, Alt : 49.3199996948, Lat : 49.2836941, Lng : -123.1147458, Q1 : 0.874761402607, Q2 : 0.0715366452932, Q3 : -0.134746521711, Q4 : 0.459911316633}
2019-04-14 01:42:32.21: SIM {TimeUS : 62435016, Roll : 0.09, Pitch : -17.57, Yaw : 55.46, Alt : 49.3199996948, Lat : 49.2836963, Lng : -123.1147406, Q1 : 0.874682843685, Q2 : 0.0718114301562, Q3 : -0.134829938412, Q4 : 0.459993481636}
2019-04-14 01:42:32.31: SIM {TimeUS : 62534976, Roll : 0.11, Pitch : -17.59, Yaw : 55.46, Alt : 49.3199996948, Lat : 49.2836986, Lng : -123.1147354, Q1 : 0.874645769596, Q2 : 0.0720878466964, Q3 : -0.134904354811, Q4 : 0.459998875856}
2019-04-14 01:42:32.41: SIM {TimeUS : 62634936, Roll : 0.12, Pitch : -17.62, Yaw : 55.45, Alt : 49.3199996948, Lat : 49.283701, Lng : -123.1147301, Q1 : 0.874650776386, Q2 : 0.072252586484, Q3 : -0.135130032897, Q4 : 0.459897220135}
2019-04-14 01:42:32.51: SIM {TimeUS : 62734896, Roll : 0.1, Pitch : -17.67, Yaw : 55.43, Alt : 49.3199996948, Lat : 49.2837034, Lng : -123.1147249, Q1 : 0.874695062637, Q2 : 0.0722244828939, Q3 : -0.13556933403, Q4 : 0.459688156843}
2019-04-14 01:42:32.61: SIM {TimeUS : 62834856, Roll : 0.08, Pitch : -17.71, Yaw : 55.4, Alt : 49.3199996948, Lat : 49.2837057, Lng : -123.1147196, Q1 : 0.874756634235, Q2 : 0.0722561851144, Q3 : -0.135983675718, Q4 : 0.459443569183}
2019-04-14 01:42:32.71: SIM {TimeUS : 62934816, Roll : 0.1, Pitch : -17.74, Yaw : 55.37, Alt : 49.3199996948, Lat : 49.283708, Lng : -123.1147144, Q1 : 0.874830663204, Q2 : 0.0724604278803, Q3 : -0.136177822948, Q4 : 0.459212809801}
2019-04-14 01:42:32.81: SIM {TimeUS : 63034776, Roll : 0.12, Pitch : -17.74, Yaw : 55.34, Alt : 49.3199996948, Lat : 49.2837103, Lng : -123.1147091, Q1 : 0.874942243099, Q2 : 0.0725911557674, Q3 : -0.136118486524, Q4 : 0.458997130394}
2019-04-14 01:42:32.91: SIM {TimeUS : 63134736, Roll : 0.14, Pitch : -17.72, Yaw : 55.31, Alt : 49.3199996948, Lat : 49.2837126, Lng : -123.1147038, Q1 : 0.87508302927, Q2 : 0.0726225078106, Q3 : -0.135872334242, Q4 : 0.458796620369}
2019-04-14 01:42:33.01: SIM {TimeUS : 63234696, Roll : 0.14, Pitch : -17.7, Yaw : 55.28, Alt : 49.3199996948, Lat : 49.283715, Lng : -123.1146985, Q1 : 0.875218868256, Q2 : 0.0725293755531, Q3 : -0.135733827949, Q4 : 0.458593338728}
2019-04-14 01:42:33.11: SIM {TimeUS : 63334656, Roll : 0.14, Pitch : -17.68, Yaw : 55.25, Alt : 49.3199996948, Lat : 49.2837174, Lng : -123.1146932, Q1 : 0.875345051289, Q2 : 0.0724148452282, Q3 : -0.135632842779, Q4 : 0.458400398493}
2019-04-14 01:42:33.21: SIM {TimeUS : 63434616, Roll : 0.14, Pitch : -17.67, Yaw : 55.23, Alt : 49.3199996948, Lat : 49.2837198, Lng : -123.1146878, Q1 : 0.875447034836, Q2 : 0.0723461732268, Q3 : -0.135555744171, Q4 : 0.458239227533}
2019-04-14 01:42:33.31: SIM {TimeUS : 63534576, Roll : 0.14, Pitch : -17.69, Yaw : 55.21, Alt : 49.3199996948, Lat : 49.2837222, Lng : -123.1146825, Q1 : 0.875506818295, Q2 : 0.0723534300923, Q3 : -0.135706037283, Q4 : 0.458079338074}
2019-04-14 01:42:33.41: SIM {TimeUS : 63635369, Roll : 0.14, Pitch : -17.72, Yaw : 55.19, Alt : 49.3199996948, Lat : 49.2837246, Lng : -123.1146771, Q1 : 0.87554204464, Q2 : 0.0724469870329, Q3 : -0.135935887694, Q4 : 0.457929044962}
2019-04-14 01:42:33.51: SIM {TimeUS : 63735329, Roll : 0.13, Pitch : -17.76, Yaw : 55.18, Alt : 49.3300018311, Lat : 49.2837269, Lng : -123.1146717, Q1 : 0.875545084476, Q2 : 0.0725833699107, Q3 : -0.136314660311, Q4 : 0.457789033651}
2019-04-14 01:42:33.61: SIM {TimeUS : 63835289, Roll : 0.13, Pitch : -17.82, Yaw : 55.17, Alt : 49.3300018311, Lat : 49.2837293, Lng : -123.1146664, Q1 : 0.875525593758, Q2 : 0.0727946832776, Q3 : -0.136727645993, Q4 : 0.457669556141}
2019-04-14 01:42:33.71: SIM {TimeUS : 63935249, Roll : 0.14, Pitch : -17.85, Yaw : 55.16, Alt : 49.3300018311, Lat : 49.2837317, Lng : -123.114661, Q1 : 0.875518739223, Q2 : 0.0729651600122, Q3 : -0.136932969093, Q4 : 0.457594096661}
2019-04-14 01:42:33.81: SIM {TimeUS : 64035209, Roll : 0.14, Pitch : -17.87, Yaw : 55.15, Alt : 49.3300018311, Lat : 49.283734, Lng : -123.1146556, Q1 : 0.875520825386, Q2 : 0.0730301216245, Q3 : -0.137150660157, Q4 : 0.457514613867}
2019-04-14 01:42:33.91: SIM {TimeUS : 64135169, Roll : 0.13, Pitch : -17.89, Yaw : 55.15, Alt : 49.3300018311, Lat : 49.2837364, Lng : -123.1146503, Q1 : 0.875535786152, Q2 : 0.0730195641518, Q3 : -0.137308225036, Q4 : 0.457440376282}
2019-04-14 01:42:34.01: SIM {TimeUS : 64235129, Roll : 0.14, Pitch : -17.88, Yaw : 55.14, Alt : 49.3300018311, Lat : 49.2837388, Lng : -123.1146448, Q1 : 0.875567913055, Q2 : 0.0730521455407, Q3 : -0.137207850814, Q4 : 0.457403719425}
2019-04-14 01:42:34.11: SIM {TimeUS : 64335089, Roll : 0.16, Pitch : -17.89, Yaw : 55.13, Alt : 49.3300018311, Lat : 49.2837412, Lng : -123.1146395, Q1 : 0.875576198101, Q2 : 0.073227211833, Q3 : -0.137218311429, Q4 : 0.457356840372}
2019-04-14 01:42:34.21: SIM {TimeUS : 64435049, Roll : 0.16, Pitch : -17.91, Yaw : 55.12, Alt : 49.3300018311, Lat : 49.2837436, Lng : -123.1146341, Q1 : 0.875580310822, Q2 : 0.0733487084508, Q3 : -0.137361839414, Q4 : 0.45728635788}
2019-04-14 01:42:34.31: SIM {TimeUS : 64535009, Roll : 0.17, Pitch : -17.93, Yaw : 55.11, Alt : 49.3300018311, Lat : 49.283746, Lng : -123.1146287, Q1 : 0.875594377518, Q2 : 0.0734368041158, Q3 : -0.137457624078, Q4 : 0.457216501236}
2019-04-14 01:42:34.41: SIM {TimeUS : 64634969, Roll : 0.17, Pitch : -17.93, Yaw : 55.1, Alt : 49.3300018311, Lat : 49.2837484, Lng : -123.1146232, Q1 : 0.875638782978, Q2 : 0.0734486803412, Q3 : -0.137453496456, Q4 : 0.457130759954}
2019-04-14 01:42:34.51: SIM {TimeUS : 64734929, Roll : 0.17, Pitch : -17.92, Yaw : 55.09, Alt : 49.3300018311, Lat : 49.2837509, Lng : -123.1146178, Q1 : 0.875698924065, Q2 : 0.0733993798494, Q3 : -0.137429758906, Q4 : 0.457030624151}
2019-04-14 01:42:34.61: SIM {TimeUS : 64834889, Roll : 0.15, Pitch : -17.94, Yaw : 55.07, Alt : 49.3300018311, Lat : 49.2837533, Lng : -123.1146124, Q1 : 0.875744640827, Q2 : 0.0733011290431, Q3 : -0.137650310993, Q4 : 0.456892371178}
2019-04-14 01:42:34.71: SIM {TimeUS : 64934849, Roll : 0.12, Pitch : -17.98, Yaw : 55.06, Alt : 49.3300018311, Lat : 49.2837557, Lng : -123.1146069, Q1 : 0.875773131847, Q2 : 0.0732206776738, Q3 : -0.138056620955, Q4 : 0.456728130579}
2019-04-14 01:42:34.81: SIM {TimeUS : 65034809, Roll : 0.12, Pitch : -17.98, Yaw : 55.05, Alt : 49.3300018311, Lat : 49.2837582, Lng : -123.1146015, Q1 : 0.875827372074, Q2 : 0.0731700286269, Q3 : -0.138142243028, Q4 : 0.45660623908}
2019-04-14 01:42:34.91: SIM {TimeUS : 65134769, Roll : 0.13, Pitch : -17.97, Yaw : 55.03, Alt : 49.3300018311, Lat : 49.2837606, Lng : -123.114596, Q1 : 0.875885009766, Q2 : 0.0732370018959, Q3 : -0.137987524271, Q4 : 0.456531763077}
2019-04-14 01:42:35.01: SIM {TimeUS : 65234729, Roll : 0.16, Pitch : -17.96, Yaw : 55.02, Alt : 49.3300018311, Lat : 49.283763, Lng : -123.1145906, Q1 : 0.8759329319, Q2 : 0.0733732804656, Q3 : -0.137810364366, Q4 : 0.456471472979}
2019-04-14 01:42:35.11: SIM {TimeUS : 65334689, Roll : 0.18, Pitch : -17.96, Yaw : 55.01, Alt : 49.3400001526, Lat : 49.2837655, Lng : -123.1145851, Q1 : 0.875965356827, Q2 : 0.0735030993819, Q3 : -0.137793526053, Q4 : 0.456393390894}
2019-04-14 01:42:35.21: SIM {TimeUS : 65434649, Roll : 0.17, Pitch : -17.98, Yaw : 55.0, Alt : 49.3400001526, Lat : 49.2837679, Lng : -123.1145796, Q1 : 0.875996172428, Q2 : 0.0734833106399, Q3 : -0.13795915246, Q4 : 0.456287384033}
2019-04-14 01:42:35.31: SIM {TimeUS : 65534609, Roll : 0.14, Pitch : -18.0, Yaw : 54.99, Alt : 49.3400001526, Lat : 49.2837703, Lng : -123.1145742, Q1 : 0.876028418541, Q2 : 0.0733486935496, Q3 : -0.138204783201, Q4 : 0.456172764301}
2019-04-14 01:42:35.41: SIM {TimeUS : 65635402, Roll : 0.12, Pitch : -18.02, Yaw : 54.98, Alt : 49.3400001526, Lat : 49.2837728, Lng : -123.1145687, Q1 : 0.876047074795, Q2 : 0.0733018666506, Q3 : -0.138446033001, Q4 : 0.456071346998}
2019-04-14 01:42:35.51: SIM {TimeUS : 65735362, Roll : 0.13, Pitch : -18.04, Yaw : 54.97, Alt : 49.3400001526, Lat : 49.2837752, Lng : -123.1145632, Q1 : 0.876057744026, Q2 : 0.0733972415328, Q3 : -0.138607904315, Q4 : 0.45598629117}
2019-04-14 01:42:35.61: SIM {TimeUS : 65835322, Roll : 0.14, Pitch : -18.06, Yaw : 54.96, Alt : 49.3400001526, Lat : 49.2837776, Lng : -123.1145577, Q1 : 0.876066803932, Q2 : 0.0735293254256, Q3 : -0.13871575892, Q4 : 0.455914795399}
2019-04-14 01:42:35.71: SIM {TimeUS : 65935282, Roll : 0.16, Pitch : -18.07, Yaw : 54.95, Alt : 49.3400001526, Lat : 49.2837801, Lng : -123.1145522, Q1 : 0.876073718071, Q2 : 0.0737475529313, Q3 : -0.138676971197, Q4 : 0.455878138542}
2019-04-14 01:42:35.81: SIM {TimeUS : 66035242, Roll : 0.18, Pitch : -18.08, Yaw : 54.94, Alt : 49.3400001526, Lat : 49.2837825, Lng : -123.1145467, Q1 : 0.876076221466, Q2 : 0.0739031657577, Q3 : -0.138731479645, Q4 : 0.455831497908}
2019-04-14 01:42:35.91: SIM {TimeUS : 66135202, Roll : 0.19, Pitch : -18.1, Yaw : 54.94, Alt : 49.3400001526, Lat : 49.283785, Lng : -123.1145412, Q1 : 0.876077830791, Q2 : 0.0740503743291, Q3 : -0.138797312975, Q4 : 0.45578455925}
2019-04-14 01:42:36.01: SIM {TimeUS : 66235162, Roll : 0.21, Pitch : -18.11, Yaw : 54.93, Alt : 49.3400001526, Lat : 49.2837874, Lng : -123.1145357, Q1 : 0.876078426838, Q2 : 0.0742205530405, Q3 : -0.138826340437, Q4 : 0.45574682951}
2019-04-14 01:42:36.11: SIM {TimeUS : 66335122, Roll : 0.23, Pitch : -18.12, Yaw : 54.92, Alt : 49.3400001526, Lat : 49.2837899, Lng : -123.1145302, Q1 : 0.876073777676, Q2 : 0.07444999367, Q3 : -0.138801798224, Q4 : 0.455725818872}
2019-04-14 01:42:36.21: SIM {TimeUS : 66435082, Roll : 0.26, Pitch : -18.13, Yaw : 54.92, Alt : 49.3400001526, Lat : 49.2837924, Lng : -123.1145247, Q1 : 0.876064062119, Q2 : 0.0746975541115, Q3 : -0.138788387179, Q4 : 0.455708086491}
2019-04-14 01:42:36.31: SIM {TimeUS : 66535042, Roll : 0.25, Pitch : -18.13, Yaw : 54.91, Alt : 49.3499984741, Lat : 49.2837948, Lng : -123.1145192, Q1 : 0.876088917255, Q2 : 0.0746278837323, Q3 : -0.138815149665, Q4 : 0.455663532019}
