2019-04-14 01:57:13.80: SIM {TimeUS : 40816167, Roll : 0.0, Pitch : 0.0, Yaw : 0.0, Alt : 30.1000003815, Lat : 49.28357, Lng : -123.11502, Q1 : 1.0, Q2 : 0.0, Q3 : 0.0, Q4 : 0.0}
2019-04-14 01:57:13.91: SIM {TimeUS : 40935286, Roll : 0.0, Pitch : 0.0, Yaw : 0.0, Alt : 30.1000003815, Lat : 49.28357, Lng : -123.11502, Q1 : 1.0, Q2 : 0.0, Q3 : 0.0, Q4 : 0.0}
2019-04-14 01:57:14.01: SIM {TimeUS : 41035246, Roll : 0.0, Pitch : 0.0, Yaw : 0.0, Alt : 30.1000003815, Lat : 49.28357, Lng : -123.11502, Q1 : 1.0, Q2 : 0.0, Q3 : 0.0, Q4 : 0.0}
2019-04-14 01:57:14.11: SIM {TimeUS : 41135206, Roll : 0.0, Pitch : 0.0, Yaw : 0.0, Alt : 30.1000003815, Lat : 49.28357, Lng : -123.11502, Q1 : 1.0, Q2 : 0.0, Q3 : 0.0, Q4 : 0.0}
2019-04-14 01:57:14.21: SIM {TimeUS : 41235166, Roll : 0.0, Pitch : 0.0, Yaw : 0.0, Alt : 30.1000003815, Lat : 49.28357, Lng : -123.11502, Q1 : 1.0, Q2 : 0.0, Q3 : 0.0, Q4 : 0.0}
2019-04-14 01:57:14.31: SIM {TimeUS : 41335126, Roll : 0.0, Pitch : 0.0, Yaw : 0.0, Alt : 30.1000003815, Lat : 49.28357, Lng : -123.11502, Q1 : 1.0, Q2 : 0.0, Q3 : 0.0, Q4 : 0.0}
2019-04-14 01:57:14.41: SIM {TimeUS : 41435086, Roll : 0.0, Pitch : 0.0, Yaw : 0.0, Alt : 30.1000003815, Lat : 49.28357, Lng : -123.11502, Q1 : 1.0, Q2 : 0.0, Q3 : 0.0, Q4 : 0.0}
2019-04-14 01:57:14.51: SIM {TimeUS : 41535046, Roll : 0.0, Pitch : 0.0, Yaw : 0.0, Alt : 30.1000003815, Lat : 49.28357, Lng : -123.11502, Q1 : 1.0, Q2 : 0.0, Q3 : 0.0, Q4 : 0.0}
2019-04-14 01:57:14.61: SIM {TimeUS : 41635006, Roll : 0.0, Pitch : 0.0, Yaw : 0.0, Alt : 30.1000003815, Lat : 49.28357, Lng : -123.11502, Q1 : 1.0, Q2 : 0.0, Q3 : 0.0, Q4 : 0.0}
2019-04-14 01:57:14.71: SIM {TimeUS : 41734966, Roll : 0.0, Pitch : 0.0, Yaw : 0.0, Alt : 30.1000003815, Lat : 49.28357, Lng : -123.11502, Q1 : 1.0, Q2 : 0.0, Q3 : 0.0, Q4 : 0.0}
2019-04-14 01:57:14.81: SIM {TimeUS : 41834926, Roll : 0.0, Pitch : 0.0, Yaw : 0.0, Alt : 30.1000003815, Lat : 49.28357, Lng : -123.11502, Q1 : 1.0, Q2 : 0.0, Q3 : 0.0, Q4 : 0.0}
2019-04-14 01:57:14.91: SIM {TimeUS : 41934886, Roll : 0.0, Pitch : 0.0, Yaw : 0.0, Alt : 30.1000003815, Lat : 49.28357, Lng : -123.11502, Q1 : 1.0, Q2 : 0.0, Q3 : 0.0, Q4 : 0.0}
2019-04-14 01:57:15.01: SIM {TimeUS : 42034846, Roll : 0.0, Pitch : 0.0, Yaw : 0.0, Alt : 30.1000003815, Lat : 49.28357, Lng : -123.11502, Q1 : 1.0, Q2 : 0.0, Q3 : 0.0, Q4 : 0.0}
2019-04-14 01:57:15.11: SIM {TimeUS : 42134806, Roll : 0.0, Pitch : 0.0, Yaw : 0.0, Alt : 30.1000003815, Lat : 49.28357, Lng : -123.11502, Q1 : 1.0, Q2 : 0.0, Q3 : 0.0, Q4 : 0.0}
2019-04-14 01:57:15.21: SIM {TimeUS : 42234766, Roll : 0.0, Pitch : 0.0, Yaw : 0.0, Alt : 30.1000003815, Lat : 49.28357, Lng : -123.11502, Q1 : 1.0, Q2 : 0.0, Q3 : 0.0, Q4 : 0.0}
2019-04-14 01:57:15.31: SIM {TimeUS : 42334726, Roll : 0.0, Pitch : 0.0, Yaw : 0.0, Alt : 30.1000003815, Lat : 49.28357, Lng : -123.11502, Q1 : 1.0, Q2 : 0.0, Q3 : 0.0, Q4 : 0.0}
2019-04-14 01:57:15.41: SIM {TimeUS : 42434686, Roll : 0.0, Pitch : 0.0, Yaw : 0.0, Alt : 30.1000003815, Lat : 49.28357, Lng : -123.11502, Q1 : 1.0, Q2 : 0.0, Q3 : 0.0, Q4 : 0.0}
2019-04-14 01:57:15.51: SIM {TimeUS : 42534646, Roll : 0.0, Pitch : 0.0, Yaw : 0.0, Alt : 30.1000003815, Lat : 49.28357, Lng : -123.11502, Q1 : 1.0, Q2 : 0.0, Q3 : 0.0, Q4 : 0.0}
2019-04-14 01:57:15.61: SIM {TimeUS : 42634606, Roll : 0.0, Pitch : 0.0, Yaw : 0.0, Alt : 30.1000003815, Lat : 49.28357, Lng : -123.11502, Q1 : 1.0, Q2 : 0.0, Q3 : 0.0, Q4 : 0.0}
2019-04-14 01:57:15.71: SIM {TimeUS : 42734566, Roll : 0.0, Pitch : 0.0, Yaw : 0.0, Alt : 30.1000003815, Lat : 49.28357, Lng : -123.11502, Q1 : 1.0, Q2 : 0.0, Q3 : 0.0, Q4 : 0.0}
2019-04-14 01:57:15.81: SIM {TimeUS : 42834526, Roll : 0.0, Pitch : 0.0, Yaw : 0.0, Alt : 30.1000003815, Lat : 49.28357, Lng : -123.11502, Q1 : 1.0, Q2 : 0.0, Q3 : 0.0, Q4 : 0.0}
2019-04-14 01:57:15.91: SIM {TimeUS : 42935319, Roll : 0.0, Pitch : 0.0, Yaw : 0.0, Alt : 30.1000003815, Lat : 49.28357, Lng : -123.11502, Q1 : 1.0, Q2 : 0.0, Q3 : 0.0, Q4 : 0.0}
2019-04-14 01:57:16.01: SIM {TimeUS : 43035279, Roll : 0.0, Pitch : 0.0, Yaw : 0.0, Alt : 30.1000003815, Lat : 49.28357, Lng : -123.11502, Q1 : 1.0, Q2 : 0.0, Q3 : 0.0, Q4 : 0.0}
2019-04-14 01:57:16.11: SIM {TimeUS : 43135239, Roll : 0.0, Pitch : 0.0, Yaw : 360.0, Alt : 30.1000003815, Lat : 49.28357, Lng : -123.11502, Q1 : 1.0, Q2 : 0.0, Q3 : 0.0, Q4 : -1.17322046175e-11}
2019-04-14 01:57:16.21: SIM {TimeUS : 43235199, Roll : 0.0, Pitch : 0.0, Yaw : 0.0, Alt : 30.1000003815, Lat : 49.28357, Lng : -123.11502, Q1 : 1.0, Q2 : 0.0, Q3 : 0.0, Q4 : 2.90170977524e-11}
2019-04-14 01:57:16.31: SIM {TimeUS : 43335159, Roll : 0.0, Pitch : 0.0, Yaw : 360.0, Alt : 30.1000003815, Lat : 49.28357, Lng : -123.11502, Q1 : 1.0, Q2 : 0.0, Q3 : 0.0, Q4 : -1.45012350572e-07}
2019-04-14 01:57:16.41: SIM {TimeUS : 43435119, Roll : 0.0, Pitch : 0.0, Yaw : 359.99, Alt : 30.1000003815, Lat : 49.28357, Lng : -123.11502, Q1 : 1.0, Q2 : 0.0, Q3 : 0.0, Q4 : -2.95616246149e-07}
2019-04-14 01:57:16.51: SIM {TimeUS : 43535079, Roll : 0.0, Pitch : 0.0, Yaw : 359.99, Alt : 30.1000003815, Lat : 49.28357, Lng : -123.11502, Q1 : 1.0, Q2 : 0.0, Q3 : 0.0, Q4 : -4.91887476528e-07}
2019-04-14 01:57:16.61: SIM {TimeUS : 43635039, Roll : 0.0, Pitch : 0.0, Yaw : 359.99, Alt : 30.1000003815, Lat : 49.28357, Lng : -123.11502, Q1 : 1.0, Q2 : 0.0, Q3 : 0.0, Q4 : -6.85876159423e-07}
2019-04-14 01:57:16.71: SIM {TimeUS : 43734999, Roll : 0.0, Pitch : 0.0, Yaw : 359.99, Alt : 30.1000003815, Lat : 49.28357, Lng : -123.11502, Q1 : 1.0, Q2 : 0.0, Q3 : 0.0, Q4 : -8.99066947113e-07}
2019-04-14 01:57:16.81: SIM {TimeUS : 43834959, Roll : 0.0, Pitch : 0.0, Yaw : 359.99, Alt : 30.1000003815, Lat : 49.28357, Lng : -123.11502, Q1 : 1.0, Q2 : 0.0, Q3 : 0.0, Q4 : -1.0591093087e-06}
2019-04-14 01:57:16.91: SIM {TimeUS : 43934919, Roll : 0.0, Pitch : 0.0, Yaw : 359.99, Alt : 30.1000003815, Lat : 49.28357, Lng : -123.11502, Q1 : 1.0, Q2 : 0.0, Q3 : 0.0, Q4 : -1.21166124245e-06}
2019-04-14 01:57:17.01: SIM {TimeUS : 44034879, Roll : 0.0, Pitch : 0.0, Yaw : 359.99, Alt : 30.1100006104, Lat : 49.28357, Lng : -123.11502, Q1 : 1.0, Q2 : 0.0, Q3 : 0.0, Q4 : -1.42747421705e-06}
2019-04-14 01:57:17.11: SIM {TimeUS : 44134839, Roll : 0.0, Pitch : 0.0, Yaw : 359.99, Alt : 30.1399993896, Lat : 49.28357, Lng : -123.11502, Q1 : 1.0, Q2 : 0.0, Q3 : 0.0, Q4 : -1.64988216511e-06}
2019-04-14 01:57:17.21: SIM {TimeUS : 44234799, Roll : 0.0, Pitch : 0.0, Yaw : 359.99, Alt : 30.1599998474, Lat : 49.28357, Lng : -123.11502, Q1 : 1.0, Q2 : 0.0, Q3 : 0.0, Q4 : -1.88482817975e-06}
2019-04-14 01:57:17.31: SIM {TimeUS : 44334759, Roll : 0.0, Pitch : 0.0, Yaw : 359.99, Alt : 30.2000007629, Lat : 49.28357, Lng : -123.11502, Q1 : 1.0, Q2 : 0.0, Q3 : 0.0, Q4 : -2.04049774766e-06}
2019-04-14 01:57:17.41: SIM {TimeUS : 44434719, Roll : -0.08, Pitch : -0.08, Yaw : 359.99, Alt : 30.25, Lat : 49.28357, Lng : -123.11502, Q1 : 0.999999463558, Q2 : -0.000771594292019, Q3 : -0.000733082706574, Q4 : -1.05080780486e-05}
2019-04-14 01:57:17.51: SIM {TimeUS : 44534679, Roll : -0.38, Pitch : -0.32, Yaw : 359.99, Alt : 30.3400001526, Lat : 49.28357, Lng : -123.11502, Q1 : 0.999990522861, Q2 : -0.00334159051999, Q3 : -0.00279901176691, Q4 : -4.75624256069e-05}
2019-04-14 01:57:17.61: SIM {TimeUS : 44634639, Roll : -0.7, Pitch : -0.54, Yaw : 359.99, Alt : 30.4899997711, Lat : 49.28357, Lng : -123.11502, Q1 : 0.999969780445, Q2 : -0.00612244242802, Q3 : -0.00479387165979, Q4 : -0.000110889370262}
2019-04-14 01:57:17.71: SIM {TimeUS : 44734599, Roll : -0.87, Pitch : -0.68, Yaw : 359.98, Alt : 30.6499996185, Lat : 49.28357, Lng : -123.11502, Q1 : 0.99995303154, Q2 : -0.00762350019068, Q3 : -0.00597808184102, Q4 : -0.000190204300452}
2019-04-14 01:57:17.81: SIM {TimeUS : 44834559, Roll : -0.85, Pitch : -0.7, Yaw : 359.97, Alt : 30.7999992371, Lat : 49.28357, Lng : -123.11502, Q1 : 0.999953269958, Q2 : -0.00746570993215, Q3 : -0.00613094447181, Q4 : -0.000270886201179}
2019-04-14 01:57:17.91: SIM {TimeUS : 44934519, Roll : -0.69, Pitch : -0.6, Yaw : 359.96, Alt : 30.9599990845, Lat : 49.28357, Lng : -123.1150201, Q1 : 0.999967813492, Q2 : -0.00602855766192, Q3 : -0.0052867825143, Q4 : -0.000347219407558}
2019-04-14 01:57:18.01: SIM {TimeUS : 45035312, Roll : -0.44, Pitch : -0.43, Yaw : 359.95, Alt : 31.1100006104, Lat : 49.2835701, Lng : -123.1150201, Q1 : 0.999985039234, Q2 : -0.00390205462463, Q3 : -0.00380860618316, Q4 : -0.000412247085478}
2019-04-14 01:57:18.11: SIM {TimeUS : 45135272, Roll : -0.2, Pitch : -0.24, Yaw : 359.94, Alt : 31.2700004578, Lat : 49.2835701, Lng : -123.1150202, Q1 : 0.999996066093, Q2 : -0.00176876480691, Q3 : -0.00213153287768, Q4 : -0.000458870257717}
2019-04-14 01:57:18.21: SIM {TimeUS : 45235232, Roll : -0.02, Pitch : -0.07, Yaw : 359.94, Alt : 31.4400005341, Lat : 49.2835702, Lng : -123.1150203, Q1 : 0.999999701977, Q2 : -0.000189455633517, Q3 : -0.000625709537417, Q4 : -0.000490543490741}
2019-04-14 01:57:18.31: SIM {TimeUS : 45335192, Roll : 0.06, Pitch : 0.05, Yaw : 359.94, Alt : 31.6100006104, Lat : 49.2835702, Lng : -123.1150204, Q1 : 0.999999582767, Q2 : 0.000596121535636, Q3 : 0.000451051426353, Q4 : -0.000511435267981}
2019-04-14 01:57:18.41: SIM {TimeUS : 45435152, Roll : 0.07, Pitch : 0.11, Yaw : 359.94, Alt : 31.7900009155, Lat : 49.2835703, Lng : -123.1150204, Q1 : 0.99999910593, Q2 : 0.00066675641574, Q3 : 0.0010314641986, Q4 : -0.000514129293151}
2019-04-14 01:57:18.51: SIM {TimeUS : 45535112, Roll : 0.06, Pitch : 0.14, Yaw : 359.94, Alt : 31.9799995422, Lat : 49.2835703, Lng : -123.1150205, Q1 : 0.999998927116, Q2 : 0.000552012119442, Q3 : 0.00128245120868, Q4 : -0.000520120956935}
2019-04-14 01:57:18.61: SIM {TimeUS : 45635072, Roll : 0.05, Pitch : 0.14, Yaw : 359.94, Alt : 32.1599998474, Lat : 49.2835703, Lng : -123.1150206, Q1 : 0.999998986721, Q2 : 0.000447488040663, Q3 : 0.0012635969324, Q4 : -0.000515954161528}
2019-04-14 01:57:18.71: SIM {TimeUS : 45735032, Roll : 0.04, Pitch : 0.14, Yaw : 359.94, Alt : 32.3499984741, Lat : 49.2835703, Lng : -123.1150206, Q1 : 0.999999046326, Q2 : 0.000394269474782, Q3 : 0.00123329088092, Q4 : -0.000507228309289}
2019-04-14 01:57:18.81: SIM {TimeUS : 45834992, Roll : 0.05, Pitch : 0.14, Yaw : 359.94, Alt : 32.5499992371, Lat : 49.2835703, Lng : -123.1150206, Q1 : 0.999998986721, Q2 : 0.000491415208671, Q3 : 0.00125680631027, Q4 : -0.000495537591632}
2019-04-14 01:57:18.91: SIM {TimeUS : 45934952, Roll : 0.08, Pitch : 0.12, Yaw : 359.94, Alt : 32.7400016785, Lat : 49.2835703, Lng : -123.1150207, Q1 : 0.999999046326, Q2 : 0.000752086983994, Q3 : 0.00108365074266, Q4 : -0.000481637980556}
2019-04-14 01:57:19.01: SIM {TimeUS : 46034912, Roll : 0.11, Pitch : 0.09, Yaw : 359.94, Alt : 32.9399986267, Lat : 49.2835703, Lng : -123.1150207, Q1 : 0.999999046326, Q2 : 0.00102190696634, Q3 : 0.000831520010252, Q4 : -0.000456641399069}
2019-04-14 01:57:19.11: SIM {TimeUS : 46134872, Roll : 0.14, Pitch : 0.09, Yaw : 359.94, Alt : 33.1399993896, Lat : 49.2835704, Lng : -123.1150207, Q1 : 0.999998807907, Q2 : 0.00123078853358, Q3 : 0.000801755697466, Q4 : -0.000441868905909}
2019-04-14 01:57:19.21: SIM {TimeUS : 46234832, Roll : 0.15, Pitch : 0.09, Yaw : 359.95, Alt : 33.3499984741, Lat : 49.2835704, Lng : -123.1150208, Q1 : 0.999998569489, Q2 : 0.00138991849963, Q3 : 0.000829331052955, Q4 : -0.000429740583058}
2019-04-14 01:57:19.31: SIM {TimeUS : 46334792, Roll : 0.17, Pitch : 0.11, Yaw : 359.95, Alt : 33.5499992371, Lat : 49.2835704, Lng : -123.1150208, Q1 : 0.999998271465, Q2 : 0.00151656474918, Q3 : 0.00099715217948, Q4 : -0.000414580950746}
2019-04-14 01:57:19.41: SIM {TimeUS : 46434752, Roll : 0.17, Pitch : 0.12, Yaw : 359.95, Alt : 33.7599983215, Lat : 49.2835704, Lng : -123.1150208, Q1 : 0.999998152256, Q2 : 0.00151152419858, Q3 : 0.00110512040555, Q4 : -0.000403785670642}
2019-04-14 01:57:19.51: SIM {TimeUS : 46534712, Roll : 0.15, Pitch : 0.12, Yaw : 359.95, Alt : 33.9700012207, Lat : 49.2835704, Lng : -123.1150208, Q1 : 0.999998390675, Q2 : 0.00135269982275, Q3 : 0.00111572479364, Q4 : -0.000404363148846}
2019-04-14 01:57:19.61: SIM {TimeUS : 46634672, Roll : 0.13, Pitch : 0.12, Yaw : 359.95, Alt : 34.1800003052, Lat : 49.2835704, Lng : -123.1150208, Q1 : 0.999998629093, Q2 : 0.00113858794793, Q3 : 0.00111390789971, Q4 : -0.000414375797845}
2019-04-14 01:57:19.71: SIM {TimeUS : 46734632, Roll : 0.1, Pitch : 0.12, Yaw : 359.95, Alt : 34.3899993896, Lat : 49.2835704, Lng : -123.1150208, Q1 : 0.999998927116, Q2 : 0.00090148561867, Q3 : 0.00106781115755, Q4 : -0.000436788308434}
2019-04-14 01:57:19.81: SIM {TimeUS : 46834592, Roll : 0.08, Pitch : 0.08, Yaw : 359.94, Alt : 34.5999984741, Lat : 49.2835704, Lng : -123.1150208, Q1 : 0.999999284744, Q2 : 0.00077541556675, Q3 : 0.000757698609959, Q4 : -0.000476356421132}
2019-04-14 01:57:19.91: SIM {TimeUS : 46934552, Roll : 0.07, Pitch : 0.04, Yaw : 359.94, Alt : 34.8199996948, Lat : 49.2835704, Lng : -123.1150208, Q1 : 0.999999523163, Q2 : 0.000694222282618, Q3 : 0.000435080350144, Q4 : -0.000523978204001}
2019-04-14 01:57:20.01: SIM {TimeUS : 47034512, Roll : 0.06, Pitch : 0.03, Yaw : 359.93, Alt : 35.0299987793, Lat : 49.2835704, Lng : -123.1150207, Q1 : 0.999999642372, Q2 : 0.000533300742973, Q3 : 0.000275783473626, Q4 : -0.000574421952479}
2019-04-14 01:57:20.11: SIM {TimeUS : 47135305, Roll : 0.05, Pitch : 0.02, Yaw : 359.92, Alt : 35.25, Lat : 49.2835704, Lng : -123.1150207, Q1 : 0.999999701977, Q2 : 0.000438485119957, Q3 : 0.00022739036649, Q4 : -0.000617236539256}
2019-04-14 01:57:20.21: SIM {TimeUS : 47235265, Roll : 0.05, Pitch : 0.02, Yaw : 359.92, Alt : 35.4700012207, Lat : 49.2835704, Lng : -123.1150207, Q1 : 0.999999642372, Q2 : 0.000467322242912, Q3 : 0.000203712188522, Q4 : -0.000649331777822}
2019-04-14 01:57:20.31: SIM {TimeUS : 47335225, Roll : 0.03, Pitch : 0.0, Yaw : 359.92, Alt : 35.6899986267, Lat : 49.2835704, Lng : -123.1150207, Q1 : 0.999999761581, Q2 : 0.000299451232422, Q3 : 1.43233437484e-05, Q4 : -0.000675671675708}
2019-04-14 01:57:20.41: SIM {TimeUS : 47435185, Roll : 0.0, Pitch : -0.03, Yaw : 359.92, Alt : 35.9099998474, Lat : 49.2835704, Lng : -123.1150207, Q1 : 0.999999701977, Q2 : 6.68944949211e-06, Q3 : -0.00028375943657, Q4 : -0.000694007030688}
2019-04-14 01:57:20.51: SIM {TimeUS : 47535145, Roll : -0.03, Pitch : -0.05, Yaw : 359.91, Alt : 36.1300010681, Lat : 49.2835704, Lng : -123.1150207, Q1 : 0.999999582767, Q2 : -0.000315434386721, Q3 : -0.000483129144413, Q4 : -0.000714294379577}
2019-04-14 01:57:20.61: SIM {TimeUS : 47635105, Roll : -0.06, Pitch : -0.06, Yaw : 359.91, Alt : 36.3499984741, Lat : 49.2835704, Lng : -123.1150207, Q1 : 0.999999344349, Q2 : -0.000593668082729, Q3 : -0.000595534278546, Q4 : -0.000732851913199}
2019-04-14 01:57:20.71: SIM {TimeUS : 47735065, Roll : -0.08, Pitch : -0.07, Yaw : 359.91, Alt : 36.5699996948, Lat : 49.2835704, Lng : -123.1150207, Q1 : 0.999999284744, Q2 : -0.000719967938494, Q3 : -0.000611472758465, Q4 : -0.000748970720451}
2019-04-14 01:57:20.81: SIM {TimeUS : 47835025, Roll : -0.08, Pitch : -0.06, Yaw : 359.91, Alt : 36.7999992371, Lat : 49.2835704, Lng : -123.1150206, Q1 : 0.99999922514, Q2 : -0.000772610073909, Q3 : -0.000593625765759, Q4 : -0.000764218566474}
2019-04-14 01:57:20.91: SIM {TimeUS : 47934985, Roll : -0.08, Pitch : -0.05, Yaw : 359.91, Alt : 37.0200004578, Lat : 49.2835704, Lng : -123.1150206, Q1 : 0.999999344349, Q2 : -0.000732618733309, Q3 : -0.000472286163131, Q4 : -0.000781825918239}
2019-04-14 01:57:21.01: SIM {TimeUS : 48034945, Roll : -0.07, Pitch : -0.04, Yaw : 359.9, Alt : 37.2400016785, Lat : 49.2835704, Lng : -123.1150206, Q1 : 0.999999403954, Q2 : -0.000629950896837, Q3 : -0.00039523653686, Q4 : -0.000800061854534}
2019-04-14 01:57:21.11: SIM {TimeUS : 48134905, Roll : -0.07, Pitch : -0.04, Yaw : 359.9, Alt : 37.4700012207, Lat : 49.2835704, Lng : -123.1150206, Q1 : 0.999999344349, Q2 : -0.000645041756798, Q3 : -0.000425548729254, Q4 : -0.000821426801849}
2019-04-14 01:57:21.21: SIM {TimeUS : 48234865, Roll : -0.07, Pitch : -0.03, Yaw : 359.9, Alt : 37.6899986267, Lat : 49.2835704, Lng : -123.1150206, Q1 : 0.999999403954, Q2 : -0.000673732836731, Q3 : -0.00028960237978, Q4 : -0.000847355287988}
2019-04-14 01:57:21.31: SIM {TimeUS : 48334825, Roll : -0.09, Pitch : 0.0, Yaw : 359.9, Alt : 37.9199981689, Lat : 49.2835704, Lng : -123.1150206, Q1 : 0.99999922514, Q2 : -0.000844594498631, Q3 : -7.58975511417e-05, Q4 : -0.000872721429914}
2019-04-14 01:57:21.41: SIM {TimeUS : 48434785, Roll : -0.09, Pitch : 0.01, Yaw : 359.89, Alt : 38.1500015259, Lat : 49.2835704, Lng : -123.1150206, Q1 : 0.999999284744, Q2 : -0.000830338802189, Q3 : 8.84630790097e-05, Q4 : -0.000891484727617}
2019-04-14 01:57:21.51: SIM {TimeUS : 48534745, Roll : -0.07, Pitch : 0.04, Yaw : 359.89, Alt : 38.3800010681, Lat : 49.2835704, Lng : -123.1150206, Q1 : 0.999999344349, Q2 : -0.000614365271758, Q3 : 0.000361034617526, Q4 : -0.000908650108613}
2019-04-14 01:57:21.61: SIM {TimeUS : 48634705, Roll : -0.04, Pitch : 0.03, Yaw : 359.89, Alt : 38.5999984741, Lat : 49.2835704, Lng : -123.1150206, Q1 : 0.999999463558, Q2 : -0.000416720111389, Q3 : 0.000306494854158, Q4 : -0.000930488284212}
2019-04-14 01:57:21.71: SIM {TimeUS : 48734665, Roll : -0.02, Pitch : 0.01, Yaw : 359.89, Alt : 38.8300018311, Lat : 49.2835704, Lng : -123.1150206, Q1 : 0.999999523163, Q2 : -0.000191606057342, Q3 : 0.000157703150762, Q4 : -0.000950364628807}
2019-04-14 01:57:21.81: SIM {TimeUS : 48834625, Roll : 0.01, Pitch : 0.02, Yaw : 359.88, Alt : 39.0600013733, Lat : 49.2835704, Lng : -123.1150206, Q1 : 0.999999523163, Q2 : 0.000103863225377, Q3 : 0.000223397568334, Q4 : -0.000967170053627}
2019-04-14 01:57:21.91: SIM {TimeUS : 48934585, Roll : 0.04, Pitch : 0.04, Yaw : 359.88, Alt : 39.2900009155, Lat : 49.2835706, Lng : -123.1150206, Q1 : 0.999999344349, Q2 : 0.000411594257457, Q3 : 0.000404898804845, Q4 : -0.000987152801827}
2019-04-14 01:57:22.01: SIM {TimeUS : 49034545, Roll : 0.07, Pitch : 0.07, Yaw : 359.88, Alt : 39.5200004578, Lat : 49.2835706, Lng : -123.1150207, Q1 : 0.999999046326, Q2 : 0.000658175500575, Q3 : 0.000632249517366, Q4 : -0.00101206172258}
2019-04-14 01:57:22.11: SIM {TimeUS : 49134505, Roll : 0.06, Pitch : 0.09, Yaw : 359.88, Alt : 39.75, Lat : 49.2835706, Lng : -123.1150207, Q1 : 0.999998927116, Q2 : 0.000586732814554, Q3 : 0.000869109237101, Q4 : -0.00103147584014}
2019-04-14 01:57:22.21: SIM {TimeUS : 49235298, Roll : 0.02, Pitch : 0.12, Yaw : 359.87, Alt : 39.9799995422, Lat : 49.2835706, Lng : -123.1150207, Q1 : 0.999998807907, Q2 : 0.000181808281923, Q3 : 0.0010822674958, Q4 : -0.00106661359314}
2019-04-14 01:57:22.31: SIM {TimeUS : 49335258, Roll : -0.01, Pitch : 0.12, Yaw : 359.87, Alt : 40.2200012207, Lat : 49.2835706, Lng : -123.1150207, Q1 : 0.999998867512, Q2 : -0.000129139822093, Q3 : 0.0010609945748, Q4 : -0.00109018676449}
2019-04-14 01:57:22.41: SIM {TimeUS : 49435218, Roll : -0.04, Pitch : 0.1, Yaw : 359.87, Alt : 40.4500007629, Lat : 49.2835706, Lng : -123.1150207, Q1 : 0.999998927116, Q2 : -0.000365466403309, Q3 : 0.000891538104042, Q4 : -0.00111159833614}
2019-04-14 01:57:22.51: SIM {TimeUS : 49535178, Roll : -0.05, Pitch : 0.09, Yaw : 359.86, Alt : 40.6800003052, Lat : 49.2835706, Lng : -123.1150207, Q1 : 0.999998986721, Q2 : -0.000447463535238, Q3 : 0.000787730270531, Q4 : -0.00113983999472}
2019-04-14 01:57:22.61: SIM {TimeUS : 49635138, Roll : -0.03, Pitch : 0.1, Yaw : 359.86, Alt : 40.9099998474, Lat : 49.2835706, Lng : -123.1150207, Q1 : 0.999998807907, Q2 : -0.000313244439894, Q3 : 0.00094567949418, Q4 : -0.00117571675219}
2019-04-14 01:57:22.71: SIM {TimeUS : 49735098, Roll : 0.01, Pitch : 0.13, Yaw : 359.86, Alt : 41.1399993896, Lat : 49.2835706, Lng : -123.1150207, Q1 : 0.999998509884, Q2 : 9.99304174911e-05, Q3 : 0.00121187232435, Q4 : -0.00121202971786}
2019-04-14 01:57:22.81: SIM {TimeUS : 49835058, Roll : 0.06, Pitch : 0.15, Yaw : 359.85, Alt : 41.3800010681, Lat : 49.2835706, Lng : -123.1150207, Q1 : 0.999998092651, Q2 : 0.000599516206421, Q3 : 0.00136435590684, Q4 : -0.00124904199038}
2019-04-14 01:57:22.91: SIM {TimeUS : 49935018, Roll : 0.1, Pitch : 0.12, Yaw : 359.85, Alt : 41.6100006104, Lat : 49.2835706, Lng : -123.1150207, Q1 : 0.999998092651, Q2 : 0.000939285731874, Q3 : 0.00112267630175, Q4 : -0.00128299521748}
2019-04-14 01:57:23.01: SIM {TimeUS : 50034978, Roll : 0.11, Pitch : 0.08, Yaw : 359.84, Alt : 41.8400001526, Lat : 49.2835706, Lng : -123.1150207, Q1 : 0.999998390675, Q2 : 0.000971019559074, Q3 : 0.000704340462107, Q4 : -0.00131393643096}
2019-04-14 01:57:23.11: SIM {TimeUS : 50134938, Roll : 0.07, Pitch : 0.04, Yaw : 359.84, Alt : 42.0800018311, Lat : 49.2835706, Lng : -123.1150207, Q1 : 0.999998807907, Q2 : 0.000680192606524, Q3 : 0.000404708145652, Q4 : -0.00133337557781}
2019-04-14 01:57:23.21: SIM {TimeUS : 50234898, Roll : 0.02, Pitch : 0.03, Yaw : 359.84, Alt : 42.3100013733, Lat : 49.2835706, Lng : -123.1150207, Q1 : 0.999999046326, Q2 : 0.000220208254177, Q3 : 0.000332877185429, Q4 : -0.00134270114359}
2019-04-14 01:57:23.31: SIM {TimeUS : 50334858, Roll : -0.01, Pitch : 0.06, Yaw : 359.84, Alt : 42.5499992371, Lat : 49.2835706, Lng : -123.1150207, Q1 : 0.999998927116, Q2 : -0.000113137204607, Q3 : 0.000579287472647, Q4 : -0.00134065118618}
2019-04-14 01:57:23.41: SIM {TimeUS : 50434818, Roll : -0.03, Pitch : 0.08, Yaw : 359.84, Alt : 42.7799987793, Lat : 49.2835704, Lng : -123.1150206, Q1 : 0.999998748302, Q2 : -0.000302682426991, Q3 : 0.000769719597884, Q4 : -0.00133950263262}
2019-04-14 01:57:23.51: SIM {TimeUS : 50534778, Roll : -0.04, Pitch : 0.08, Yaw : 359.84, Alt : 43.0200004578, Lat : 49.2835704, Lng : -123.1150206, Q1 : 0.999998807907, Q2 : -0.00035956807551, Q3 : 0.000719053845387, Q4 : -0.00134059856646}
2019-04-14 01:57:23.61: SIM {TimeUS : 50634738, Roll : -0.05, Pitch : 0.06, Yaw : 359.84, Alt : 43.25, Lat : 49.2835704, Lng : -123.1150206, Q1 : 0.999998867512, Q2 : -0.000442990392912, Q3 : 0.000579808605835, Q4 : -0.00134775566403}
2019-04-14 01:57:23.71: SIM {TimeUS : 50734698, Roll : -0.04, Pitch : 0.04, Yaw : 359.84, Alt : 43.4900016785, Lat : 49.2835704, Lng : -123.1150206, Q1 : 0.999998927116, Q2 : -0.000399395270506, Q3 : 0.000430297106504, Q4 : -0.00136024085805}
2019-04-14 01:57:23.81: SIM {TimeUS : 50834658, Roll : -0.02, Pitch : 0.04, Yaw : 359.84, Alt : 43.7200012207, Lat : 49.2835704, Lng : -123.1150206, Q1 : 0.999998986721, Q2 : -0.000233082449995, Q3 : 0.000375294970581, Q4 : -0.00137683027424}
2019-04-14 01:57:23.91: SIM {TimeUS : 50934618, Roll : -0.01, Pitch : 0.04, Yaw : 359.84, Alt : 43.9599990845, Lat : 49.2835704, Lng : -123.1150206, Q1 : 0.999998927116, Q2 : -0.000108660075057, Q3 : 0.000405492872233, Q4 : -0.00139522028621}
2019-04-14 01:57:24.01: SIM {TimeUS : 51034578, Roll : -0.01, Pitch : 0.03, Yaw : 359.83, Alt : 44.1899986267, Lat : 49.2835704, Lng : -123.1150206, Q1 : 0.999998927116, Q2 : -0.000128943269374, Q3 : 0.000341665552696, Q4 : -0.00141452997923}
2019-04-14 01:57:24.11: SIM {TimeUS : 51134538, Roll : -0.02, Pitch : 0.01, Yaw : 359.83, Alt : 44.4300003052, Lat : 49.2835704, Lng : -123.1150206, Q1 : 0.999998927116, Q2 : -0.000223675306188, Q3 : 9.0868154075e-05, Q4 : -0.00143918849062}
2019-04-14 01:57:24.21: SIM {TimeUS : 51234498, Roll : -0.03, Pitch : -0.01, Yaw : 359.83, Alt : 44.6599998474, Lat : 49.2835704, Lng : -123.1150206, Q1 : 0.999998927116, Q2 : -0.000271483790129, Q3 : -0.000102049431007, Q4 : -0.00146887160372}
2019-04-14 01:57:24.31: SIM {TimeUS : 51335291, Roll : -0.02, Pitch : -0.02, Yaw : 359.82, Alt : 44.9000015259, Lat : 49.2835704, Lng : -123.1150206, Q1 : 0.999998807907, Q2 : -0.000248949159868, Q3 : -0.000260395958321, Q4 : -0.00149962923024}
2019-04-14 01:57:24.41: SIM {TimeUS : 51435251, Roll : -0.03, Pitch : -0.03, Yaw : 359.82, Alt : 45.1399993896, Lat : 49.2835704, Lng : -123.1150206, Q1 : 0.999998748302, Q2 : -0.000296637153951, Q3 : -0.000346908200299, Q4 : -0.00153714383487}
2019-04-14 01:57:24.51: SIM {TimeUS : 51535211, Roll : -0.05, Pitch : -0.03, Yaw : 359.81, Alt : 45.3699989319, Lat : 49.2835703, Lng : -123.1150206, Q1 : 0.999998569489, Q2 : -0.000492599676363, Q3 : -0.000337727047736, Q4 : -0.00158057257067}
2019-04-14 01:57:24.61: SIM {TimeUS : 51635171, Roll : -0.09, Pitch : -0.03, Yaw : 359.81, Alt : 45.6100006104, Lat : 49.2835703, Lng : -123.1150205, Q1 : 0.99999833107, Q2 : -0.000795844069216, Q3 : -0.0003004836326, Q4 : -0.00162174750585}
2019-04-14 01:57:24.71: SIM {TimeUS : 51735131, Roll : -0.11, Pitch : -0.03, Yaw : 359.8, Alt : 45.8400001526, Lat : 49.2835703, Lng : -123.1150205, Q1 : 0.999998092651, Q2 : -0.000998621573672, Q3 : -0.000274895515759, Q4 : -0.00165969959926}
2019-04-14 01:57:24.81: SIM {TimeUS : 51835091, Roll : -0.11, Pitch : -0.01, Yaw : 359.8, Alt : 46.0699996948, Lat : 49.2835703, Lng : -123.1150205, Q1 : 0.999998033047, Q2 : -0.0010153753683, Q3 : -0.000155828718562, Q4 : -0.00169239938259}
2019-04-14 01:57:24.91: SIM {TimeUS : 51935051, Roll : -0.09, Pitch : 0.0, Yaw : 359.8, Alt : 46.2999992371, Lat : 49.2835703, Lng : -123.1150205, Q1 : 0.999998152256, Q2 : -0.000856070604641, Q3 : 8.71607408044e-05, Q4 : -0.00171946513001}
2019-04-14 01:57:25.01: SIM {TimeUS : 52035011, Roll : -0.07, Pitch : 0.02, Yaw : 359.8, Alt : 46.5200004578, Lat : 49.2835703, Lng : -123.1150205, Q1 : 0.999998271465, Q2 : -0.0006128900568, Q3 : 0.00022340331634, Q4 : -0.00174387835432}
2019-04-14 01:57:25.11: SIM {TimeUS : 52134971, Roll : -0.04, Pitch : 0.01, Yaw : 359.79, Alt : 46.7400016785, Lat : 49.2835703, Lng : -123.1150206, Q1 : 0.99999833107, Q2 : -0.000424760306487, Q3 : 0.00017059376114, Q4 : -0.00176789949182}
2019-04-14 01:57:25.21: SIM {TimeUS : 52234931, Roll : -0.03, Pitch : 0.0, Yaw : 359.79, Alt : 46.9500007629, Lat : 49.2835703, Lng : -123.1150206, Q1 : 0.99999833107, Q2 : -0.000336858240189, Q3 : 8.45237445901e-06, Q4 : -0.00179138034582}
2019-04-14 01:57:25.31: SIM {TimeUS : 52334891, Roll : -0.02, Pitch : -0.03, Yaw : 359.79, Alt : 47.1599998474, Lat : 49.2835703, Lng : -123.1150206, Q1 : 0.999998271465, Q2 : -0.000227158787311, Q3 : -0.0002720374614, Q4 : -0.00181285769213}
2019-04-14 01:57:25.41: SIM {TimeUS : 52434851, Roll : 0.0, Pitch : -0.06, Yaw : 359.78, Alt : 47.3600006104, Lat : 49.2835703, Lng : -123.1150206, Q1 : 0.999998152256, Q2 : -6.32502924418e-05, Q3 : -0.000551397912204, Q4 : -0.00183531246148}
2019-04-14 01:57:25.51: SIM {TimeUS : 52534811, Roll : 0.0, Pitch : -0.08, Yaw : 359.78, Alt : 47.5499992371, Lat : 49.2835703, Lng : -123.1150206, Q1 : 0.999997973442, Q2 : -3.12426163873e-05, Q3 : -0.000764645461459, Q4 : -0.00185505999252}
2019-04-14 01:57:25.61: SIM {TimeUS : 52634771, Roll : 0.0, Pitch : -0.12, Yaw : 359.78, Alt : 47.7200012207, Lat : 49.2835703, Lng : -123.1150206, Q1 : 0.999997615814, Q2 : -6.70086592436e-05, Q3 : -0.00109235499986, Q4 : -0.00187584059313}
2019-04-14 01:57:25.71: SIM {TimeUS : 52734731, Roll : 0.01, Pitch : -0.15, Yaw : 359.78, Alt : 47.8899993896, Lat : 49.2835703, Lng : -123.1150206, Q1 : 0.999997317791, Q2 : 0.000102397360024, Q3 : -0.00132889312226, Q4 : -0.00189786753617}
2019-04-14 01:57:25.81: SIM {TimeUS : 52834691, Roll : 0.04, Pitch : -0.15, Yaw : 359.78, Alt : 48.0499992371, Lat : 49.2835703, Lng : -123.1150206, Q1 : 0.999997198582, Q2 : 0.000350460031768, Q3 : -0.0013548709685, Q4 : -0.00191920611542}
2019-04-14 01:57:25.91: SIM {TimeUS : 52934651, Roll : 0.06, Pitch : -0.13, Yaw : 359.77, Alt : 48.1899986267, Lat : 49.2835703, Lng : -123.1150206, Q1 : 0.999997258186, Q2 : 0.000569217721932, Q3 : -0.00117295840755, Q4 : -0.00194178754464}
2019-04-14 01:57:26.01: SIM {TimeUS : 53034611, Roll : 0.07, Pitch : -0.1, Yaw : 359.77, Alt : 48.3300018311, Lat : 49.2835703, Lng : -123.1150206, Q1 : 0.999997437, Q2 : 0.000667482090648, Q3 : -0.000877374142874, Q4 : -0.00196446664631}
2019-04-14 01:57:26.11: SIM {TimeUS : 53134571, Roll : 0.08, Pitch : -0.07, Yaw : 359.77, Alt : 48.4500007629, Lat : 49.2835704, Lng : -123.1150206, Q1 : 0.99999755621, Q2 : 0.00074687571032, Q3 : -0.000629538611975, Q4 : -0.00198866217397}
2019-04-14 01:57:26.21: SIM {TimeUS : 53234531, Roll : 0.07, Pitch : -0.06, Yaw : 359.76, Alt : 48.5499992371, Lat : 49.2835704, Lng : -123.1150206, Q1 : 0.99999755621, Q2 : 0.000677923555486, Q3 : -0.000582840002608, Q4 : -0.00201698648743}
2019-04-14 01:57:26.31: SIM {TimeUS : 53335324, Roll : 0.05, Pitch : -0.06, Yaw : 359.76, Alt : 48.6500015259, Lat : 49.2835704, Lng : -123.1150206, Q1 : 0.999997675419, Q2 : 0.00044345666538, Q3 : -0.000538188789506, Q4 : -0.00204439554363}
2019-04-14 01:57:26.41: SIM {TimeUS : 53435284, Roll : 0.02, Pitch : -0.04, Yaw : 359.76, Alt : 48.7299995422, Lat : 49.2835704, Lng : -123.1150206, Q1 : 0.999997735023, Q2 : 0.000236827603658, Q3 : -0.000427990948083, Q4 : -0.00207084650174}
2019-04-14 01:57:26.51: SIM {TimeUS : 53535244, Roll : 0.0, Pitch : -0.03, Yaw : 359.75, Alt : 48.8100013733, Lat : 49.2835704, Lng : -123.1150206, Q1 : 0.999997794628, Q2 : 7.87323442637e-05, Q3 : -0.000313658791129, Q4 : -0.00209572864696}
2019-04-14 01:57:26.61: SIM {TimeUS : 53635204, Roll : 0.0, Pitch : -0.01, Yaw : 359.75, Alt : 48.8699989319, Lat : 49.2835704, Lng : -123.1150206, Q1 : 0.999997735023, Q2 : -3.24872271449e-05, Q3 : -0.000130633648951, Q4 : -0.002117064083}
2019-04-14 01:57:26.71: SIM {TimeUS : 53735164, Roll : 0.01, Pitch : 0.02, Yaw : 359.75, Alt : 48.9199981689, Lat : 49.2835704, Lng : -123.1150206, Q1 : 0.999997675419, Q2 : 9.27141227294e-05, Q3 : 0.000182797739399, Q4 : -0.00213932618499}
2019-04-14 01:57:26.81: SIM {TimeUS : 53835124, Roll : 0.03, Pitch : 0.04, Yaw : 359.75, Alt : 48.9700012207, Lat : 49.2835704, Lng : -123.1150206, Q1 : 0.999997496605, Q2 : 0.000313432276016, Q3 : 0.000432768749306, Q4 : -0.00216376804747}
2019-04-14 01:57:26.91: SIM {TimeUS : 53935084, Roll : 0.11, Pitch : 0.0, Yaw : 359.74, Alt : 49.0099983215, Lat : 49.2835704, Lng : -123.1150206, Q1 : 0.999997079372, Q2 : 0.00100274628494, Q3 : -1.90338814718e-05, Q4 : -0.00219645560719}
2019-04-14 01:57:27.01: SIM {TimeUS : 54035044, Roll : 0.34, Pitch : -0.17, Yaw : 359.74, Alt : 49.0499992371, Lat : 49.2835704, Lng : -123.1150206, Q1 : 0.999991834164, Q2 : 0.00297815166414, Q3 : -0.00156400643755, Q4 : -0.00222820485942}
2019-04-14 01:57:27.11: SIM {TimeUS : 54135004, Roll : 0.78, Pitch : -0.52, Yaw : 359.73, Alt : 49.0699996948, Lat : 49.2835704, Lng : -123.1150206, Q1 : 0.999963641167, Q2 : 0.00681104883552, Q3 : -0.0046049784869, Q4 : -0.00225990940817}
2019-04-14 01:57:27.21: SIM {TimeUS : 54234964, Roll : 1.43, Pitch : -1.01, Yaw : 359.72, Alt : 49.0999984741, Lat : 49.2835706, Lng : -123.1150206, Q1 : 0.999879956245, Q2 : 0.0124746318907, Q3 : -0.00890582986176, Q4 : -0.00227756798267}
2019-04-14 01:57:27.31: SIM {TimeUS : 54334924, Roll : 2.23, Pitch : -1.58, Yaw : 359.7, Alt : 49.1199989319, Lat : 49.2835706, Lng : -123.1150205, Q1 : 0.999711453915, Q2 : 0.0194530300796, Q3 : -0.0139078060165, Q4 : -0.00226612505503}
2019-04-14 01:57:27.41: SIM {TimeUS : 54434884, Roll : 3.08, Pitch : -2.18, Yaw : 359.68, Alt : 49.1399993896, Lat : 49.2835706, Lng : -123.1150204, Q1 : 0.999452650547, Q2 : 0.0268677119166, Q3 : -0.0191721431911, Q4 : -0.00221043941565}
2019-04-14 01:57:27.51: SIM {TimeUS : 54534844, Roll : 3.85, Pitch : -2.72, Yaw : 359.66, Alt : 49.1599998474, Lat : 49.2835707, Lng : -123.1150203, Q1 : 0.999149143696, Q2 : 0.0335750319064, Q3 : -0.023860771209, Q4 : -0.00208267662674}
2019-04-14 01:57:27.61: SIM {TimeUS : 54634804, Roll : 4.44, Pitch : -3.12, Yaw : 359.66, Alt : 49.1699981689, Lat : 49.2835708, Lng : -123.11502, Q1 : 0.998872578144, Q2 : 0.038719560951, Q3 : -0.027401143685, Q4 : -0.00187854038086}
2019-04-14 01:57:27.71: SIM {TimeUS : 54734764, Roll : 4.87, Pitch : -3.43, Yaw : 359.66, Alt : 49.1800003052, Lat : 49.2835709, Lng : -123.1150198, Q1 : 0.998647093773, Q2 : 0.0424213819206, Q3 : -0.0300303194672, Q4 : -0.00163054361474}
2019-04-14 01:57:27.81: SIM {TimeUS : 54834724, Roll : 5.2, Pitch : -3.66, Yaw : 359.67, Alt : 49.1899986267, Lat : 49.2835712, Lng : -123.1150194, Q1 : 0.998458325863, Q2 : 0.0452611632645, Q3 : -0.0321036726236, Q4 : -0.00136133097112}
2019-04-14 01:57:27.91: SIM {TimeUS : 54934684, Roll : 5.49, Pitch : -3.87, Yaw : 359.69, Alt : 49.2000007629, Lat : 49.2835714, Lng : -123.1150188, Q1 : 0.998280704021, Q2 : 0.0478135682642, Q3 : -0.033886898309, Q4 : -0.00107427022886}
2019-04-14 01:57:28.01: SIM {TimeUS : 55034644, Roll : 5.78, Pitch : -4.06, Yaw : 359.7, Alt : 49.2099990845, Lat : 49.2835716, Lng : -123.1150182, Q1 : 0.998098194599, Q2 : 0.0503366179764, Q3 : -0.0355761684477, Q4 : -0.000787006225437}
2019-04-14 01:57:28.11: SIM {TimeUS : 55134604, Roll : 6.08, Pitch : -4.28, Yaw : 359.71, Alt : 49.2200012207, Lat : 49.283572, Lng : -123.1150175, Q1 : 0.997892379761, Q2 : 0.0529830008745, Q3 : -0.037460822612, Q4 : -0.000524228205904}
2019-04-14 01:57:28.21: SIM {TimeUS : 55234564, Roll : 6.36, Pitch : -4.48, Yaw : 359.71, Alt : 49.2299995422, Lat : 49.2835724, Lng : -123.1150167, Q1 : 0.997694015503, Q2 : 0.0553771182895, Q3 : -0.0392416901886, Q4 : -0.000289646035526}
2019-04-14 01:57:28.31: SIM {TimeUS : 55334524, Roll : 6.58, Pitch : -4.63, Yaw : 359.72, Alt : 49.2299995422, Lat : 49.2835727, Lng : -123.1150159, Q1 : 0.997531890869, Q2 : 0.0573252812028, Q3 : -0.0405463837087, Q4 : -6.89954904374e-05}
2019-04-14 01:57:28.41: SIM {TimeUS : 55435317, Roll : 6.74, Pitch : -4.74, Yaw : 359.73, Alt : 49.2400016785, Lat : 49.2835732, Lng : -123.1150149, Q1 : 0.997413277626, Q2 : 0.0587173327804, Q3 : -0.0414609201252, Q4 : 0.000119514013932}
2019-04-14 01:57:28.51: SIM {TimeUS : 55535277, Roll : 6.85, Pitch : -4.83, Yaw : 359.73, Alt : 49.2400016785, Lat : 49.2835737, Lng : -123.1150138, Q1 : 0.997326254845, Q2 : 0.0596517845988, Q3 : -0.0422130972147, Q4 : 0.000247362564551}
2019-04-14 01:57:28.61: SIM {TimeUS : 55635237, Roll : 6.95, Pitch : -4.89, Yaw : 359.74, Alt : 49.25, Lat : 49.2835743, Lng : -123.1150126, Q1 : 0.997247219086, Q2 : 0.0605476200581, Q3 : -0.0428001694381, Q4 : 0.000339735357556}
2019-04-14 01:57:28.71: SIM {TimeUS : 55735197, Roll : 7.12, Pitch : -4.96, Yaw : 359.74, Alt : 49.25, Lat : 49.2835749, Lng : -123.1150114, Q1 : 0.997135281563, Q2 : 0.061953175813, Q3 : -0.0433927439153, Q4 : 0.000443975819508}
2019-04-14 01:57:28.81: SIM {TimeUS : 55835157, Roll : 7.46, Pitch : -4.91, Yaw : 359.91, Alt : 49.2599983215, Lat : 49.2835755, Lng : -123.11501, Q1 : 0.996960937977, Q2 : 0.0650471150875, Q3 : -0.0428217053413, Q4 : 0.0020182672888}
2019-04-14 01:57:28.91: SIM {TimeUS : 55935117, Roll : 8.04, Pitch : -4.7, Yaw : 0.81, Alt : 49.2599983215, Lat : 49.2835761, Lng : -123.1150086, Q1 : 0.996650874615, Q2 : 0.0703477114439, Q3 : -0.0404822975397, Q4 : 0.00997053738683}
2019-04-14 01:57:29.01: SIM {TimeUS : 56035077, Roll : 8.65, Pitch : -4.63, Yaw : 3.09, Alt : 49.2599983215, Lat : 49.2835768, Lng : -123.1150071, Q1 : 0.995887219906, Q2 : 0.0764505490661, Q3 : -0.0383123643696, Q4 : 0.0299348365515}
2019-04-14 01:57:29.11: SIM {TimeUS : 56135037, Roll : 9.05, Pitch : -5.03, Yaw : 6.95, Alt : 49.2599983215, Lat : 49.2835775, Lng : -123.1150054, Q1 : 0.993876099586, Q2 : 0.0813709050417, Q3 : -0.0388816222548, Q4 : 0.0638534873724}
2019-04-14 01:57:29.21: SIM {TimeUS : 56234997, Roll : 9.03, Pitch : -5.95, Yaw : 12.27, Alt : 49.2599983215, Lat : 49.2835782, Lng : -123.1150037, Q1 : 0.989400863647, Q2 : 0.0837255045772, Q3 : -0.0431198850274, Q4 : 0.110529094934}
2019-04-14 01:57:29.31: SIM {TimeUS : 56334957, Roll : 8.43, Pitch : -7.32, Yaw : 18.83, Alt : 49.2700004578, Lat : 49.2835788, Lng : -123.1150017, Q1 : 0.981073617935, Q2 : 0.0828380137682, Q3 : -0.0508164204657, Q4 : 0.167481809855}
2019-04-14 01:57:29.41: SIM {TimeUS : 56434917, Roll : 7.22, Pitch : -8.91, Yaw : 26.37, Alt : 49.2700004578, Lat : 49.2835797, Lng : -123.1149998, Q1 : 0.967636108398, Q2 : 0.0788950994611, Q3 : -0.0611751414835, Q4 : 0.231761828065}
2019-04-14 01:57:29.51: SIM {TimeUS : 56534877, Roll : 5.46, Pitch : -10.51, Yaw : 34.64, Alt : 49.2700004578, Lat : 49.2835804, Lng : -123.1149977, Q1 : 0.948260545731, Q2 : 0.0725276768208, Q3 : -0.073253698647, Q4 : 0.300292521715}
2019-04-14 01:57:29.61: SIM {TimeUS : 56634837, Roll : 3.15, Pitch : -11.88, Yaw : 43.35, Alt : 49.2700004578, Lat : 49.2835812, Lng : -123.1149955, Q1 : 0.922885835171, Q2 : 0.0636706873775, Q3 : -0.0860231295228, Q4 : 0.369902461767}
2019-04-14 01:57:29.71: SIM {TimeUS : 56734797, Roll : 0.21, Pitch : -12.81, Yaw : 51.95, Alt : 49.2700004578, Lat : 49.283582, Lng : -123.1149932, Q1 : 0.893243670464, Q2 : 0.0505502708256, Q3 : -0.0995055437088, Q4 : 0.435498684645}
2019-04-14 01:57:29.81: SIM {TimeUS : 56834757, Roll : -2.97, Pitch : -13.18, Yaw : 59.56, Alt : 49.2700004578, Lat : 49.283583, Lng : -123.1149908, Q1 : 0.863384485245, Q2 : 0.0345803461969, Q3 : -0.112423561513, Q4 : 0.490644931793}
2019-04-14 01:57:29.91: SIM {TimeUS : 56934717, Roll : -5.76, Pitch : -13.07, Yaw : 65.4, Alt : 49.2700004578, Lat : 49.283584, Lng : -123.1149883, Q1 : 0.838064014912, Q2 : 0.0194094907492, Q3 : -0.122673243284, Q4 : 0.531246900558}
2019-04-14 01:57:30.01: SIM {TimeUS : 57034677, Roll : -7.61, Pitch : -12.76, Yaw : 69.14, Alt : 49.2700004578, Lat : 49.283585, Lng : -123.1149857, Q1 : 0.820680320263, Q2 : 0.00859519094229, Q3 : -0.12882502377, Q4 : 0.556609451771}
2019-04-14 01:57:30.11: SIM {TimeUS : 57134637, Roll : -8.38, Pitch : -12.54, Yaw : 70.88, Alt : 49.2700004578, Lat : 49.2835862, Lng : -123.1149832, Q1 : 0.812273323536, Q2 : 0.00399329559878, Q3 : -0.13085603714, Q4 : 0.568394958973}
2019-04-14 01:57:30.21: SIM {TimeUS : 57234597, Roll : -8.15, Pitch : -12.55, Yaw : 70.93, Alt : 49.2700004578, Lat : 49.2835876, Lng : -123.1149805, Q1 : 0.812019526958, Q2 : 0.0056886523962, Q3 : -0.129850700498, Q4 : 0.568973481655}
2019-04-14 01:57:30.31: SIM {TimeUS : 57334557, Roll : -7.16, Pitch : -12.86, Yaw : 69.65, Alt : 49.2700004578, Lat : 49.283589, Lng : -123.1149778, Q1 : 0.818102657795, Q2 : 0.0128870215267, Q3 : -0.127199947834, Q4 : 0.560680091381}
2019-04-14 01:57:30.41: SIM {TimeUS : 57434517, Roll : -5.64, Pitch : -13.43, Yaw : 67.4, Alt : 49.2700004578, Lat : 49.2835904, Lng : -123.1149751, Q1 : 0.828398227692, Q2 : 0.0241107810289, Q3 : -0.124334104359, Q4 : 0.545633673668}
2019-04-14 01:57:30.51: SIM {TimeUS : 57535310, Roll : -3.82, Pitch : -14.16, Yaw : 64.48, Alt : 49.2799987793, Lat : 49.283592, Lng : -123.1149722, Q1 : 0.841057419777, Q2 : 0.0377456694841, Q3 : -0.121851548553, Q4 : 0.525689899921}
2019-04-14 01:57:30.61: SIM {TimeUS : 57635270, Roll : -1.91, Pitch : -14.87, Yaw : 61.25, Alt : 49.2799987793, Lat : 49.2835935, Lng : -123.1149693, Q1 : 0.854242265224, Q2 : 0.0516913793981, Q3 : -0.119778178632, Q4 : 0.50324088335}
2019-04-14 01:57:30.71: SIM {TimeUS : 57735230, Roll : -0.08, Pitch : -15.43, Yaw : 58.0, Alt : 49.2799987793, Lat : 49.2835952, Lng : -123.1149663, Q1 : 0.86672013998, Q2 : 0.0644858032465, Q3 : -0.117752112448, Q4 : 0.480387628078}
2019-04-14 01:57:30.81: SIM {TimeUS : 57835190, Roll : 1.51, Pitch : -15.76, Yaw : 55.07, Alt : 49.2799987793, Lat : 49.2835969, Lng : -123.1149632, Q1 : 0.877405285835, Q2 : 0.0750323310494, Q3 : -0.115529872477, Q4 : 0.459546536207}
2019-04-14 01:57:30.91: SIM {TimeUS : 57935150, Roll : 2.73, Pitch : -15.9, Yaw : 52.74, Alt : 49.2799987793, Lat : 49.2835986, Lng : -123.11496, Q1 : 0.88560372591, Q2 : 0.0826139375567, Q3 : -0.113374039531, Q4 : 0.442749649286}
2019-04-14 01:57:31.01: SIM {TimeUS : 58035110, Roll : 3.49, Pitch : -15.89, Yaw : 51.16, Alt : 49.2799987793, Lat : 49.2836001, Lng : -123.1149566, Q1 : 0.891055643559, Q2 : 0.086924366653, Q3 : -0.111653417349, Q4 : 0.431274354458}
2019-04-14 01:57:31.11: SIM {TimeUS : 58135070, Roll : 3.74, Pitch : -15.85, Yaw : 50.39, Alt : 49.2799987793, Lat : 49.2836019, Lng : -123.1149531, Q1 : 0.893806159496, Q2 : 0.0879685506225, Q3 : -0.110918357968, Q4 : 0.425522267818}
2019-04-14 01:57:31.21: SIM {TimeUS : 58235030, Roll : 3.55, Pitch : -15.8, Yaw : 50.37, Alt : 49.2799987793, Lat : 49.2836036, Lng : -123.1149495, Q1 : 0.894093990326, Q2 : 0.0862527564168, Q3 : -0.111294686794, Q4 : 0.425170361996}
2019-04-14 01:57:31.31: SIM {TimeUS : 58334990, Roll : 3.01, Pitch : -15.81, Yaw : 50.96, Alt : 49.2799987793, Lat : 49.2836053, Lng : -123.1149458, Q1 : 0.892249584198, Q2 : 0.0827190428972, Q3 : -0.112881362438, Q4 : 0.429308772087}
2019-04-14 01:57:31.41: SIM {TimeUS : 58434950, Roll : 2.23, Pitch : -15.88, Yaw : 52.01, Alt : 49.2799987793, Lat : 49.2836069, Lng : -123.1149419, Q1 : 0.888760328293, Q2 : 0.0779628902674, Q3 : -0.115679703653, Q4 : 0.436629205942}
2019-04-14 01:57:31.51: SIM {TimeUS : 58534910, Roll : 1.35, Pitch : -16.01, Yaw : 53.31, Alt : 49.2799987793, Lat : 49.2836086, Lng : -123.114938, Q1 : 0.884172856808, Q2 : 0.0729385018349, Q3 : -0.119246184826, Q4 : 0.445756316185}
2019-04-14 01:57:31.61: SIM {TimeUS : 58634870, Roll : 0.49, Pitch : -16.14, Yaw : 54.69, Alt : 49.2799987793, Lat : 49.2836104, Lng : -123.1149341, Q1 : 0.879134476185, Q2 : 0.0682998597622, Q3 : -0.122786872089, Q4 : 0.45539110899}
2019-04-14 01:57:31.71: SIM {TimeUS : 58734830, Roll : -0.27, Pitch : -16.25, Yaw : 55.98, Alt : 49.2799987793, Lat : 49.2836122, Lng : -123.11493, Q1 : 0.874280929565, Q2 : 0.0642972812057, Q3 : -0.1259303689, Q4 : 0.464370846748}
2019-04-14 01:57:31.81: SIM {TimeUS : 58834790, Roll : -0.88, Pitch : -16.34, Yaw : 57.06, Alt : 49.2799987793, Lat : 49.283614, Lng : -123.1149259, Q1 : 0.870133697987, Q2 : 0.0611500814557, Q3 : -0.128543272614, Q4 : 0.47181007266}
2019-04-14 01:57:31.91: SIM {TimeUS : 58934750, Roll : -1.31, Pitch : -16.41, Yaw : 57.84, Alt : 49.2900009155, Lat : 49.2836158, Lng : -123.1149217, Q1 : 0.867061495781, Q2 : 0.0590941458941, Q3 : -0.130421087146, Q4 : 0.477181971073}
2019-04-14 01:57:32.01: SIM {TimeUS : 59034710, Roll : -1.52, Pitch : -16.47, Yaw : 58.28, Alt : 49.2900009155, Lat : 49.2836177, Lng : -123.1149175, Q1 : 0.865240752697, Q2 : 0.0582263357937, Q3 : -0.131526693702, Q4 : 0.480280041695}
2019-04-14 01:57:32.11: SIM {TimeUS : 59134670, Roll : -1.54, Pitch : -16.5, Yaw : 58.41, Alt : 49.2900009155, Lat : 49.2836195, Lng : -123.1149133, Q1 : 0.864697396755, Q2 : 0.0583875626326, Q3 : -0.131753861904, Q4 : 0.481175929308}
2019-04-14 01:57:32.21: SIM {TimeUS : 59234630, Roll : -1.38, Pitch : -16.53, Yaw : 58.25, Alt : 49.2900009155, Lat : 49.2836214, Lng : -123.114909, Q1 : 0.865248918533, Q2 : 0.0595572404563, Q3 : -0.131378889084, Q4 : 0.480142623186}
2019-04-14 01:57:32.31: SIM {TimeUS : 59334590, Roll : -1.08, Pitch : -16.56, Yaw : 57.87, Alt : 49.2900009155, Lat : 49.2836235, Lng : -123.1149047, Q1 : 0.866630554199, Q2 : 0.0615168139338, Q3 : -0.130591779947, Q4 : 0.47761169076}
2019-04-14 01:57:32.41: SIM {TimeUS : 59434550, Roll : -0.71, Pitch : -16.6, Yaw : 57.36, Alt : 49.2900009155, Lat : 49.2836255, Lng : -123.1149002, Q1 : 0.8685349226, Q2 : 0.0638962164521, Q3 : -0.129610970616, Q4 : 0.47409427166}
2019-04-14 01:57:32.51: SIM {TimeUS : 59534510, Roll : -0.32, Pitch : -16.64, Yaw : 56.78, Alt : 49.2900009155, Lat : 49.2836274, Lng : -123.1148959, Q1 : 0.87065166235, Q2 : 0.066372923553, Q3 : -0.128611087799, Q4 : 0.470127105713}
2019-04-14 01:57:32.61: SIM {TimeUS : 59635303, Roll : 0.04, Pitch : -16.68, Yaw : 56.21, Alt : 49.2900009155, Lat : 49.2836294, Lng : -123.1148914, Q1 : 0.8727170825, Q2 : 0.068731367588, Q3 : -0.127783000469, Q4 : 0.466167837381}
2019-04-14 01:57:32.71: SIM {TimeUS : 59735263, Roll : 0.35, Pitch : -16.72, Yaw : 55.71, Alt : 49.2900009155, Lat : 49.2836315, Lng : -123.1148868, Q1 : 0.874507665634, Q2 : 0.0706215500832, Q3 : -0.127142116427, Q4 : 0.462691903114}
2019-04-14 01:57:32.81: SIM {TimeUS : 59835223, Roll : 0.56, Pitch : -16.75, Yaw : 55.32, Alt : 49.2900009155, Lat : 49.2836335, Lng : -123.1148823, Q1 : 0.875892877579, Q2 : 0.071972116828, Q3 : -0.126775234938, Q4 : 0.459956228733}
2019-04-14 01:57:32.91: SIM {TimeUS : 59935183, Roll : 0.67, Pitch : -16.79, Yaw : 55.07, Alt : 49.2900009155, Lat : 49.2836355, Lng : -123.1148777, Q1 : 0.876804351807, Q2 : 0.0727074593306, Q3 : -0.126764252782, Q4 : 0.458103269339}
2019-04-14 01:57:33.01: SIM {TimeUS : 60035143, Roll : 0.69, Pitch : -16.83, Yaw : 54.95, Alt : 49.2900009155, Lat : 49.2836377, Lng : -123.1148731, Q1 : 0.877227187157, Q2 : 0.0728543400764, Q3 : -0.127101823688, Q4 : 0.457175970078}
2019-04-14 01:57:33.11: SIM {TimeUS : 60135103, Roll : 0.61, Pitch : -16.87, Yaw : 54.95, Alt : 49.2900009155, Lat : 49.2836397, Lng : -123.1148684, Q1 : 0.877215147018, Q2 : 0.072432346642, Q3 : -0.127728044987, Q4 : 0.457091659307}
2019-04-14 01:57:33.21: SIM {TimeUS : 60235063, Roll : 0.47, Pitch : -16.9, Yaw : 55.05, Alt : 49.2900009155, Lat : 49.2836418, Lng : -123.1148637, Q1 : 0.876863718033, Q2 : 0.0715386942029, Q3 : -0.12843978405, Q4 : 0.457706749439}
2019-04-14 01:57:33.31: SIM {TimeUS : 60335023, Roll : 0.29, Pitch : -16.93, Yaw : 55.22, Alt : 49.2999992371, Lat : 49.2836439, Lng : -123.114859, Q1 : 0.876251935959, Q2 : 0.0704838782549, Q3 : -0.129286751151, Q4 : 0.458802253008}
2019-04-14 01:57:33.41: SIM {TimeUS : 60434983, Roll : 0.12, Pitch : -16.97, Yaw : 55.43, Alt : 49.2999992371, Lat : 49.283646, Lng : -123.1148542, Q1 : 0.875480413437, Q2 : 0.0695849210024, Q3 : -0.130155459046, Q4 : 0.46016472578}
2019-04-14 01:57:33.51: SIM {TimeUS : 60534943, Roll : -0.01, Pitch : -17.01, Yaw : 55.64, Alt : 49.2999992371, Lat : 49.2836481, Lng : -123.1148494, Q1 : 0.874667644501, Q2 : 0.0689427927136, Q3 : -0.130892157555, Q4 : 0.461595803499}
2019-04-14 01:57:33.61: SIM {TimeUS : 60634903, Roll : -0.1, Pitch : -17.06, Yaw : 55.83, Alt : 49.2999992371, Lat : 49.2836503, Lng : -123.1148445, Q1 : 0.873908340931, Q2 : 0.0686123222113, Q3 : -0.131509229541, Q4 : 0.462905883789}
2019-04-14 01:57:33.71: SIM {TimeUS : 60734863, Roll : -0.16, Pitch : -17.1, Yaw : 55.98, Alt : 49.2999992371, Lat : 49.2836524, Lng : -123.1148397, Q1 : 0.873290598392, Q2 : 0.0685710087419, Q3 : -0.131974473596, Q4 : 0.463944375515}
2019-04-14 01:57:33.81: SIM {TimeUS : 60834823, Roll : -0.19, Pitch : -17.14, Yaw : 56.08, Alt : 49.2999992371, Lat : 49.2836546, Lng : -123.1148348, Q1 : 0.872875988483, Q2 : 0.068576015532, Q3 : -0.132375925779, Q4 : 0.464608937502}
2019-04-14 01:57:33.91: SIM {TimeUS : 60934783, Roll : -0.21, Pitch : -17.17, Yaw : 56.12, Alt : 49.2999992371, Lat : 49.2836566, Lng : -123.1148299, Q1 : 0.872692525387, Q2 : 0.0685715302825, Q3 : -0.132653698325, Q4 : 0.464874982834}
2019-04-14 01:57:34.01: SIM {TimeUS : 61034743, Roll : -0.22, Pitch : -17.19, Yaw : 56.1, Alt : 49.2999992371, Lat : 49.2836589, Lng : -123.114825, Q1 : 0.872726202011, Q2 : 0.0685934275389, Q3 : -0.132810160518, Q4 : 0.464763760567}
2019-04-14 01:57:34.11: SIM {TimeUS : 61134703, Roll : -0.19, Pitch : -17.2, Yaw : 56.05, Alt : 49.2999992371, Lat : 49.283661, Lng : -123.11482, Q1 : 0.872927844524, Q2 : 0.0687707364559, Q3 : -0.13280954957, Q4 : 0.464358866215}
2019-04-14 01:57:34.21: SIM {TimeUS : 61234663, Roll : -0.14, Pitch : -17.21, Yaw : 55.96, Alt : 49.2999992371, Lat : 49.2836633, Lng : -123.1148151, Q1 : 0.873247623444, Q2 : 0.0691111832857, Q3 : -0.132752880454, Q4 : 0.463722884655}
2019-04-14 01:57:34.31: SIM {TimeUS : 61334623, Roll : -0.06, Pitch : -17.25, Yaw : 55.84, Alt : 49.3100013733, Lat : 49.2836655, Lng : -123.1148101, Q1 : 0.873606085777, Q2 : 0.0697644427419, Q3 : -0.132762283087, Q4 : 0.462946593761}
2019-04-14 01:57:34.41: SIM {TimeUS : 61434583, Roll : 0.02, Pitch : -17.3, Yaw : 55.73, Alt : 49.3100013733, Lat : 49.2836677, Lng : -123.1148051, Q1 : 0.873957514763, Q2 : 0.0705484226346, Q3 : -0.132915079594, Q4 : 0.462119877338}
2019-04-14 01:57:34.51: SIM {TimeUS : 61534543, Roll : 0.1, Pitch : -17.34, Yaw : 55.62, Alt : 49.3100013733, Lat : 49.28367, Lng : -123.1148, Q1 : 0.874316990376, Q2 : 0.0711654722691, Q3 : -0.132968917489, Q4 : 0.461329132318}
2019-04-14 01:57:34.61: SIM {TimeUS : 61634503, Roll : 0.16, Pitch : -17.35, Yaw : 55.52, Alt : 49.3100013733, Lat : 49.2836722, Lng : -123.114795, Q1 : 0.874671518803, Q2 : 0.0715365931392, Q3 : -0.13279774785, Q4 : 0.46064850688}
2019-04-14 01:57:34.71: SIM {TimeUS : 61735296, Roll : 0.19, Pitch : -17.35, Yaw : 55.44, Alt : 49.3100013733, Lat : 49.2836744, Lng : -123.1147899, Q1 : 0.874962747097, Q2 : 0.0716787874699, Q3 : -0.132725477219, Q4 : 0.460093796253}
2019-04-14 01:57:34.81: SIM {TimeUS : 61835256, Roll : 0.2, Pitch : -17.36, Yaw : 55.39, Alt : 49.3100013733, Lat : 49.2836767, Lng : -123.1147848, Q1 : 0.875154316425, Q2 : 0.0717290490866, Q3 : -0.132858291268, Q4 : 0.459683150053}
2019-04-14 01:57:34.91: SIM {TimeUS : 61935216, Roll : 0.2, Pitch : -17.38, Yaw : 55.36, Alt : 49.3100013733, Lat : 49.283679, Lng : -123.1147797, Q1 : 0.875240504742, Q2 : 0.0717766433954, Q3 : -0.133036419749, Q4 : 0.459459960461}
2019-04-14 01:57:35.01: SIM {TimeUS : 62035176, Roll : 0.18, Pitch : -17.41, Yaw : 55.35, Alt : 49.3100013733, Lat : 49.2836813, Lng : -123.1147746, Q1 : 0.875247299671, Q2 : 0.0717379972339, Q3 : -0.133295565844, Q4 : 0.459378004074}
2019-04-14 01:57:35.11: SIM {TimeUS : 62135136, Roll : 0.16, Pitch : -17.43, Yaw : 55.36, Alt : 49.3100013733, Lat : 49.2836835, Lng : -123.1147695, Q1 : 0.875200271606, Q2 : 0.0716539621353, Q3 : -0.133543595672, Q4 : 0.459408670664}
2019-04-14 01:57:35.21: SIM {TimeUS : 62235096, Roll : 0.14, Pitch : -17.46, Yaw : 55.38, Alt : 49.3100013733, Lat : 49.2836858, Lng : -123.1147643, Q1 : 0.87510061264, Q2 : 0.0716586485505, Q3 : -0.133803203702, Q4 : 0.459522247314}
2019-04-14 01:57:35.31: SIM {TimeUS : 62335056, Roll : 0.13, Pitch : -17.47, Yaw : 55.4, Alt : 49.3100013733, Lat : 49.2836881, Lng : -123.1147591, Q1 : 0.875000298023, Q2 : 0.0716351047158, Q3 : -0.13396845758, Q4 : 0.459668755531}
2019-04-14 01:57:35.41: SIM {TimeUS : 62435016, Roll : 0.12, Pitch : -17.5, Yaw : 55.42, Alt : 49.3100013733, Lat : 49.2836904, Lng : -123.114754, Q1 : 0.874890744686, Q2 : 0.0717217698693, Q3 : -0.134173348546, Q4 : 0.459803968668}
2019-04-14 01:57:35.51: SIM {TimeUS : 62534976, Roll : 0.12, Pitch : -17.52, Yaw : 55.44, Alt : 49.3199996948, Lat : 49.2836926, Lng : -123.1147488, Q1 : 0.874798059464, Q2 : 0.0718374177814, Q3 : -0.134372159839, Q4 : 0.45990422368}
2019-04-14 01:57:35.61: SIM {TimeUS : 62634936, Roll : 0.11, Pitch : -17.56, Yaw : 55.45, Alt : 49.3199996948, Lat : 49.2836949, Lng : -123.1147436, Q1 : 0.874726474285, Q2 : 0.0719109103084, Q3 : -0.134720727801, Q4 : 0.459926992655}
2019-04-14 01:57:35.71: SIM {TimeUS : 62734896, Roll : 0.07, Pitch : -17.61, Yaw : 55.45, Alt : 49.3199996948, Lat : 49.2836973, Lng : -123.1147384, Q1 : 0.874690115452, Q2 : 0.0718265548348, Q3 : -0.135210841894, Q4 : 0.45986533165}
2019-04-14 01:57:35.81: SIM {TimeUS : 62834856, Roll : 0.05, Pitch : -17.66, Yaw : 55.44, Alt : 49.3199996948, Lat : 49.2836996, Lng : -123.1147331, Q1 : 0.874676823616, Q2 : 0.0718077644706, Q3 : -0.135676637292, Q4 : 0.459756493568}
2019-04-14 01:57:35.91: SIM {TimeUS : 62934816, Roll : 0.06, Pitch : -17.69, Yaw : 55.43, Alt : 49.3199996948, Lat : 49.283702, Lng : -123.1147279, Q1 : 0.874690234661, Q2 : 0.0719949379563, Q3 : -0.135888576508, Q4 : 0.459639012814}
2019-04-14 01:57:36.01: SIM {TimeUS : 63034776, Roll : 0.09, Pitch : -17.69, Yaw : 55.41, Alt : 49.3199996948, Lat : 49.2837042, Lng : -123.1147226, Q1 : 0.874758064747, Q2 : 0.0722035765648, Q3 : -0.135761156678, Q4 : 0.459514856339}
2019-04-14 01:57:36.11: SIM {TimeUS : 63134736, Roll : 0.12, Pitch : -17.66, Yaw : 55.38, Alt : 49.3199996948, Lat : 49.2837065, Lng : -123.1147174, Q1 : 0.874872684479, Q2 : 0.0723121836782, Q3 : -0.135444164276, Q4 : 0.459373086691}
2019-04-14 01:57:36.21: SIM {TimeUS : 63234696, Roll : 0.13, Pitch : -17.64, Yaw : 55.35, Alt : 49.3199996948, Lat : 49.2837089, Lng : -123.1147121, Q1 : 0.874995231628, Q2 : 0.0723123028874, Q3 : -0.135277435184, Q4 : 0.459188789129}
2019-04-14 01:57:36.31: SIM {TimeUS : 63334656, Roll : 0.13, Pitch : -17.63, Yaw : 55.33, Alt : 49.3199996948, Lat : 49.2837113, Lng : -123.1147068, Q1 : 0.87512254715, Q2 : 0.0722325071692, Q3 : -0.135204315186, Q4 : 0.458980113268}
2019-04-14 01:57:36.41: SIM {TimeUS : 63434616, Roll : 0.13, Pitch : -17.62, Yaw : 55.3, Alt : 49.3199996948, Lat : 49.2837137, Lng : -123.1147015, Q1 : 0.875246167183, Q2 : 0.0721571743488, Q3 : -0.135151684284, Q4 : 0.458771795034}
2019-04-14 01:57:36.51: SIM {TimeUS : 63534576, Roll : 0.13, Pitch : -17.64, Yaw : 55.27, Alt : 49.3199996948, Lat : 49.283716, Lng : -123.1146962, Q1 : 0.875337660313, Q2 : 0.0721393600106, Q3 : -0.135314509273, Q4 : 0.458552032709}
2019-04-14 01:57:36.61: SIM {TimeUS : 63634536, Roll : 0.12, Pitch : -17.67, Yaw : 55.25, Alt : 49.3199996948, Lat : 49.2837184, Lng : -123.1146909, Q1 : 0.875398993492, Q2 : 0.0722120553255, Q3 : -0.135592356324, Q4 : 0.45834133029}
2019-04-14 01:57:36.71: SIM {TimeUS : 63734496, Roll : 0.11, Pitch : -17.72, Yaw : 55.23, Alt : 49.3199996948, Lat : 49.2837208, Lng : -123.1146855, Q1 : 0.875425040722, Q2 : 0.0723165422678, Q3 : -0.136044248939, Q4 : 0.458141088486}
2019-04-14 01:57:36.81: SIM {TimeUS : 63835289, Roll : 0.12, Pitch : -17.78, Yaw : 55.21, Alt : 49.3199996948, Lat : 49.2837232, Lng : -123.1146801, Q1 : 0.875424265862, Q2 : 0.0725467279553, Q3 : -0.136493369937, Q4 : 0.457972675562}
2019-04-14 01:57:36.91: SIM {TimeUS : 63935249, Roll : 0.13, Pitch : -17.8, Yaw : 55.19, Alt : 49.3199996948, Lat : 49.2837254, Lng : -123.1146748, Q1 : 0.87544220686, Q2 : 0.0727687478065, Q3 : -0.136601895094, Q4 : 0.457870751619}
2019-04-14 01:57:37.01: SIM {TimeUS : 64035209, Roll : 0.14, Pitch : -17.82, Yaw : 55.18, Alt : 49.3300018311, Lat : 49.2837278, Lng : -123.1146694, Q1 : 0.875465869904, Q2 : 0.0728750154376, Q3 : -0.13673517108, Q4 : 0.457768797874}
2019-04-14 01:57:37.11: SIM {TimeUS : 64135169, Roll : 0.14, Pitch : -17.84, Yaw : 55.17, Alt : 49.3300018311, Lat : 49.2837302, Lng : -123.1146641, Q1 : 0.875497400761, Q2 : 0.0729013457894, Q3 : -0.136857554317, Q4 : 0.457667678595}
2019-04-14 01:57:37.21: SIM {TimeUS : 64235129, Roll : 0.15, Pitch : -17.83, Yaw : 55.16, Alt : 49.3300018311, Lat : 49.2837326, Lng : -123.1146587, Q1 : 0.875540792942, Q2 : 0.0729473233223, Q3 : -0.136786133051, Q4 : 0.457598745823}
2019-04-14 01:57:37.31: SIM {TimeUS : 64335089, Roll : 0.16, Pitch : -17.84, Yaw : 55.15, Alt : 49.3300018311, Lat : 49.2837351, Lng : -123.1146533, Q1 : 0.875563681126, Q2 : 0.0730787813663, Q3 : -0.136769711971, Q4 : 0.457538843155}
2019-04-14 01:57:37.41: SIM {TimeUS : 64435049, Roll : 0.17, Pitch : -17.86, Yaw : 55.14, Alt : 49.3300018311, Lat : 49.2837375, Lng : -123.114648, Q1 : 0.875568568707, Q2 : 0.0731912255287, Q3 : -0.136947408319, Q4 : 0.45745831728}
2019-04-14 01:57:37.51: SIM {TimeUS : 64535009, Roll : 0.17, Pitch : -17.88, Yaw : 55.13, Alt : 49.3300018311, Lat : 49.2837399, Lng : -123.1146426, Q1 : 0.875577688217, Q2 : 0.0732580497861, Q3 : -0.137088209391, Q4 : 0.457388073206}
2019-04-14 01:57:37.61: SIM {TimeUS : 64634969, Roll : 0.18, Pitch : -17.88, Yaw : 55.12, Alt : 49.3300018311, Lat : 49.2837423, Lng : -123.1146372, Q1 : 0.875599741936, Q2 : 0.0733218789101, Q3 : -0.137095600367, Q4 : 0.45733332634}
2019-04-14 01:57:37.71: SIM {TimeUS : 64734929, Roll : 0.17, Pitch : -17.89, Yaw : 55.12, Alt : 49.3300018311, Lat : 49.2837447, Lng : -123.1146318, Q1 : 0.875623762608, Q2 : 0.0733315497637, Q3 : -0.137174010277, Q4 : 0.45726236701}
2019-04-14 01:57:37.81: SIM {TimeUS : 64834889, Roll : 0.16, Pitch : -17.91, Yaw : 55.11, Alt : 49.3300018311, Lat : 49.2837471, Lng : -123.1146263, Q1 : 0.875643253326, Q2 : 0.0732931792736, Q3 : -0.137405186892, Q4 : 0.457161724567}
2019-04-14 01:57:37.91: SIM {TimeUS : 64934849, Roll : 0.13, Pitch : -17.95, Yaw : 55.1, Alt : 49.3300018311, Lat : 49.2837495, Lng : -123.1146209, Q1 : 0.875658035278, Q2 : 0.0732088387012, Q3 : -0.13782119751, Q4 : 0.457021743059}
2019-04-14 01:57:38.01: SIM {TimeUS : 65034809, Roll : 0.11, Pitch : -17.96, Yaw : 55.08, Alt : 49.3300018311, Lat : 49.2837519, Lng : -123.1146155, Q1 : 0.875710070133, Q2 : 0.0730709061027, Q3 : -0.137949302793, Q4 : 0.456905394793}
2019-04-14 01:57:38.11: SIM {TimeUS : 65134769, Roll : 0.11, Pitch : -17.95, Yaw : 55.07, Alt : 49.3300018311, Lat : 49.2837543, Lng : -123.1146101, Q1 : 0.875769019127, Q2 : 0.0730396062136, Q3 : -0.137861728668, Q4 : 0.456823885441}
2019-04-14 01:57:38.21: SIM {TimeUS : 65234729, Roll : 0.14, Pitch : -17.94, Yaw : 55.06, Alt : 49.3300018311, Lat : 49.2837568, Lng : -123.1146046, Q1 : 0.875816404819, Q2 : 0.0731604024768, Q3 : -0.137712091208, Q4 : 0.456758767366}
2019-04-14 01:57:38.31: SIM {TimeUS : 65334689, Roll : 0.15, Pitch : -17.94, Yaw : 55.05, Alt : 49.3300018311, Lat : 49.2837592, Lng : -123.1145992, Q1 : 0.875853002071, Q2 : 0.0732848569751, Q3 : -0.137705743313, Q4 : 0.45667052269}
2019-04-14 01:57:38.41: SIM {TimeUS : 65434649, Roll : 0.15, Pitch : -17.96, Yaw : 55.03, Alt : 49.3300018311, Lat : 49.2837616, Lng : -123.1145937, Q1 : 0.875884354115, Q2 : 0.0733057707548, Q3 : -0.137881010771, Q4 : 0.456554204226}
2019-04-14 01:57:38.51: SIM {TimeUS : 65534609, Roll : 0.13, Pitch : -17.98, Yaw : 55.02, Alt : 49.3400001526, Lat : 49.283764, Lng : -123.1145883, Q1 : 0.87592124939, Q2 : 0.0732210725546, Q3 : -0.138124912977, Q4 : 0.456423193216}
2019-04-14 01:57:38.61: SIM {TimeUS : 65634569, Roll : 0.12, Pitch : -18.0, Yaw : 55.01, Alt : 49.3400001526, Lat : 49.2837665, Lng : -123.1145828, Q1 : 0.875960826874, Q2 : 0.0731865391135, Q3 : -0.138287216425, Q4 : 0.456303685904}
2019-04-14 01:57:38.71: SIM {TimeUS : 65734529, Roll : 0.12, Pitch : -18.01, Yaw : 54.99, Alt : 49.3400001526, Lat : 49.2837689, Lng : -123.1145773, Q1 : 0.87599080801, Q2 : 0.0732943564653, Q3 : -0.138391777873, Q4 : 0.456197112799}
2019-04-14 01:57:38.81: SIM {TimeUS : 65835322, Roll : 0.13, Pitch : -18.03, Yaw : 54.98, Alt : 49.3400001526, Lat : 49.2837714, Lng : -123.1145718, Q1 : 0.876018762589, Q2 : 0.0734179094434, Q3 : -0.138477876782, Q4 : 0.456097394228}
2019-04-14 01:57:38.91: SIM {TimeUS : 65935282, Roll : 0.15, Pitch : -18.04, Yaw : 54.97, Alt : 49.3400001526, Lat : 49.2837738, Lng : -123.1145663, Q1 : 0.876036226749, Q2 : 0.0736085027456, Q3 : -0.138518109918, Q4 : 0.456020951271}
2019-04-14 01:57:39.01: SIM {TimeUS : 66035242, Roll : 0.17, Pitch : -18.06, Yaw : 54.96, Alt : 49.3400001526, Lat : 49.2837763, Lng : -123.1145609, Q1 : 0.876050531864, Q2 : 0.0737570226192, Q3 : -0.138623833656, Q4 : 0.45593726635}
2019-04-14 01:57:39.11: SIM {TimeUS : 66135202, Roll : 0.18, Pitch : -18.08, Yaw : 54.95, Alt : 49.3400001526, Lat : 49.2837787, Lng : -123.1145554, Q1 : 0.876059830189, Q2 : 0.0739138945937, Q3 : -0.138748183846, Q4 : 0.455856204033}
2019-04-14 01:57:39.21: SIM {TimeUS : 66235162, Roll : 0.19, Pitch : -18.1, Yaw : 54.94, Alt : 49.3400001526, Lat : 49.2837812, Lng : -123.1145499, Q1 : 0.876066148281, Q2 : 0.0740965902805, Q3 : -0.138848140836, Q4 : 0.455783903599}
2019-04-14 01:57:39.31: SIM {TimeUS : 66335122, Roll : 0.22, Pitch : -18.12, Yaw : 54.93, Alt : 49.3400001526, Lat : 49.2837836, Lng : -123.1145444, Q1 : 0.876070916653, Q2 : 0.0743257701397, Q3 : -0.138851389289, Q4 : 0.455736547709}
2019-04-14 01:57:39.41: SIM {TimeUS : 66435082, Roll : 0.24, Pitch : -18.13, Yaw : 54.92, Alt : 49.3400001526, Lat : 49.2837861, Lng : -123.1145389, Q1 : 0.876067340374, Q2 : 0.0745830982924, Q3 : -0.13883151114, Q4 : 0.455707341433}
2019-04-14 01:57:39.51: SIM {TimeUS : 66535042, Roll : 0.24, Pitch : -18.12, Yaw : 54.91, Alt : 49.3400001526, Lat : 49.2837885, Lng : -123.1145334, Q1 : 0.876104354858, Q2 : 0.0744930654764, Q3 : -0.138826310635, Q4 : 0.455652564764}
2019-04-14 01:57:39.61: SIM {TimeUS : 66635002, Roll : 0.21, Pitch : -18.13, Yaw : 54.91, Alt : 49.3400001526, Lat : 49.283791, Lng : -123.1145279, Q1 : 0.876139938831, Q2 : 0.0742652714252, Q3 : -0.138991445303, Q4 : 0.455570906401}
2019-04-14 01:57:39.71: SIM {TimeUS : 66734962, Roll : 0.18, Pitch : -18.15, Yaw : 54.9, Alt : 49.3499984741, Lat : 49.2837934, Lng : -123.1145224, Q1 : 0.87614685297, Q2 : 0.0741283372045, Q3 : -0.139295384288, Q4 : 0.45548710227}
