2019-04-14 11:34:13.70: SIM {TimeUS : 40716207, Roll : 0.0, Pitch : 0.0, Yaw : 0.0, Alt : 30.1000003815, Lat : 49.28357, Lng : -123.11502, Q1 : 1.0, Q2 : 0.0, Q3 : 0.0, Q4 : 0.0}
2019-04-14 11:34:13.81: SIM {TimeUS : 40835326, Roll : 0.0, Pitch : 0.0, Yaw : 0.0, Alt : 30.1000003815, Lat : 49.28357, Lng : -123.11502, Q1 : 1.0, Q2 : 0.0, Q3 : 0.0, Q4 : 0.0}
2019-04-14 11:34:13.91: SIM {TimeUS : 40935286, Roll : 0.0, Pitch : 0.0, Yaw : 0.0, Alt : 30.1000003815, Lat : 49.28357, Lng : -123.11502, Q1 : 1.0, Q2 : 0.0, Q3 : 0.0, Q4 : 0.0}
2019-04-14 11:34:14.01: SIM {TimeUS : 41035246, Roll : 0.0, Pitch : 0.0, Yaw : 0.0, Alt : 30.1000003815, Lat : 49.28357, Lng : -123.11502, Q1 : 1.0, Q2 : 0.0, Q3 : 0.0, Q4 : 0.0}
2019-04-14 11:34:14.11: SIM {TimeUS : 41135206, Roll : 0.0, Pitch : 0.0, Yaw : 0.0, Alt : 30.1000003815, Lat : 49.28357, Lng : -123.11502, Q1 : 1.0, Q2 : 0.0, Q3 : 0.0, Q4 : 0.0}
2019-04-14 11:34:14.21: SIM {TimeUS : 41235166, Roll : 0.0, Pitch : 0.0, Yaw : 0.0, Alt : 30.1000003815, Lat : 49.28357, Lng : -123.11502, Q1 : 1.0, Q2 : 0.0, Q3 : 0.0, Q4 : 0.0}
2019-04-14 11:34:14.31: SIM {TimeUS : 41335126, Roll : 0.0, Pitch : 0.0, Yaw : 0.0, Alt : 30.1000003815, Lat : 49.28357, Lng : -123.11502, Q1 : 1.0, Q2 : 0.0, Q3 : 0.0, Q4 : 0.0}
2019-04-14 11:34:14.41: SIM {TimeUS : 41435086, Roll : 0.0, Pitch : 0.0, Yaw : 0.0, Alt : 30.1000003815, Lat : 49.28357, Lng : -123.11502, Q1 : 1.0, Q2 : 0.0, Q3 : 0.0, Q4 : 0.0}
2019-04-14 11:34:14.51: SIM {TimeUS : 41535046, Roll : 0.0, Pitch : 0.0, Yaw : 0.0, Alt : 30.1000003815, Lat : 49.28357, Lng : -123.11502, Q1 : 1.0, Q2 : 0.0, Q3 : 0.0, Q4 : 0.0}
2019-04-14 11:34:14.61: SIM {TimeUS : 41635006, Roll : 0.0, Pitch : 0.0, Yaw : 0.0, Alt : 30.1000003815, Lat : 49.28357, Lng : -123.11502, Q1 : 1.0, Q2 : 0.0, Q3 : 0.0, Q4 : 0.0}
2019-04-14 11:34:14.71: SIM {TimeUS : 41734966, Roll : 0.0, Pitch : 0.0, Yaw : 0.0, Alt : 30.1000003815, Lat : 49.28357, Lng : -123.11502, Q1 : 1.0, Q2 : 0.0, Q3 : 0.0, Q4 : 0.0}
2019-04-14 11:34:14.81: SIM {TimeUS : 41834926, Roll : 0.0, Pitch : 0.0, Yaw : 0.0, Alt : 30.1000003815, Lat : 49.28357, Lng : -123.11502, Q1 : 1.0, Q2 : 0.0, Q3 : 0.0, Q4 : 0.0}
2019-04-14 11:34:14.91: SIM {TimeUS : 41934886, Roll : 0.0, Pitch : 0.0, Yaw : 0.0, Alt : 30.1000003815, Lat : 49.28357, Lng : -123.11502, Q1 : 1.0, Q2 : 0.0, Q3 : 0.0, Q4 : 0.0}
2019-04-14 11:34:15.01: SIM {TimeUS : 42034846, Roll : 0.0, Pitch : 0.0, Yaw : 0.0, Alt : 30.1000003815, Lat : 49.28357, Lng : -123.11502, Q1 : 1.0, Q2 : 0.0, Q3 : 0.0, Q4 : 0.0}
2019-04-14 11:34:15.11: SIM {TimeUS : 42134806, Roll : 0.0, Pitch : 0.0, Yaw : 0.0, Alt : 30.1000003815, Lat : 49.28357, Lng : -123.11502, Q1 : 1.0, Q2 : 0.0, Q3 : 0.0, Q4 : 0.0}
2019-04-14 11:34:15.21: SIM {TimeUS : 42234766, Roll : 0.0, Pitch : 0.0, Yaw : 0.0, Alt : 30.1000003815, Lat : 49.28357, Lng : -123.11502, Q1 : 1.0, Q2 : 0.0, Q3 : 0.0, Q4 : 0.0}
2019-04-14 11:34:15.31: SIM {TimeUS : 42334726, Roll : 0.0, Pitch : 0.0, Yaw : 0.0, Alt : 30.1000003815, Lat : 49.28357, Lng : -123.11502, Q1 : 1.0, Q2 : 0.0, Q3 : 0.0, Q4 : 0.0}
2019-04-14 11:34:15.41: SIM {TimeUS : 42434686, Roll : 0.0, Pitch : 0.0, Yaw : 0.0, Alt : 30.1000003815, Lat : 49.28357, Lng : -123.11502, Q1 : 1.0, Q2 : 0.0, Q3 : 0.0, Q4 : 0.0}
2019-04-14 11:34:15.51: SIM {TimeUS : 42534646, Roll : 0.0, Pitch : 0.0, Yaw : 0.0, Alt : 30.1000003815, Lat : 49.28357, Lng : -123.11502, Q1 : 1.0, Q2 : 0.0, Q3 : 0.0, Q4 : 0.0}
2019-04-14 11:34:15.61: SIM {TimeUS : 42634606, Roll : 0.0, Pitch : 0.0, Yaw : 0.0, Alt : 30.1000003815, Lat : 49.28357, Lng : -123.11502, Q1 : 1.0, Q2 : 0.0, Q3 : 0.0, Q4 : 0.0}
2019-04-14 11:34:15.71: SIM {TimeUS : 42734566, Roll : 0.0, Pitch : 0.0, Yaw : 0.0, Alt : 30.1000003815, Lat : 49.28357, Lng : -123.11502, Q1 : 1.0, Q2 : 0.0, Q3 : 0.0, Q4 : 0.0}
2019-04-14 11:34:15.82: SIM {TimeUS : 42835359, Roll : 0.0, Pitch : 0.0, Yaw : 0.0, Alt : 30.1000003815, Lat : 49.28357, Lng : -123.11502, Q1 : 1.0, Q2 : 0.0, Q3 : 0.0, Q4 : 0.0}
2019-04-14 11:34:15.91: SIM {TimeUS : 42935319, Roll : 0.0, Pitch : 0.0, Yaw : 0.0, Alt : 30.1000003815, Lat : 49.28357, Lng : -123.11502, Q1 : 1.0, Q2 : 0.0, Q3 : 0.0, Q4 : 0.0}
2019-04-14 11:34:16.01: SIM {TimeUS : 43035279, Roll : 0.0, Pitch : 0.0, Yaw : 360.0, Alt : 30.1000003815, Lat : 49.28357, Lng : -123.11502, Q1 : 1.0, Q2 : 0.0, Q3 : 0.0, Q4 : -1.2311567564e-11}
2019-04-14 11:34:16.11: SIM {TimeUS : 43135239, Roll : 0.0, Pitch : 0.0, Yaw : 0.0, Alt : 30.1000003815, Lat : 49.28357, Lng : -123.11502, Q1 : 1.0, Q2 : 0.0, Q3 : 0.0, Q4 : 5.47755590885e-12}
2019-04-14 11:34:16.21: SIM {TimeUS : 43235199, Roll : 0.0, Pitch : 0.0, Yaw : 360.0, Alt : 30.1000003815, Lat : 49.28357, Lng : -123.11502, Q1 : 1.0, Q2 : 0.0, Q3 : 0.0, Q4 : -1.20905085055e-07}
2019-04-14 11:34:16.31: SIM {TimeUS : 43335159, Roll : 0.0, Pitch : 0.0, Yaw : 359.99, Alt : 30.1000003815, Lat : 49.28357, Lng : -123.11502, Q1 : 1.0, Q2 : 0.0, Q3 : 0.0, Q4 : -2.65425143198e-07}
2019-04-14 11:34:16.41: SIM {TimeUS : 43435119, Roll : 0.0, Pitch : 0.0, Yaw : 359.99, Alt : 30.1000003815, Lat : 49.28357, Lng : -123.11502, Q1 : 1.0, Q2 : 0.0, Q3 : 0.0, Q4 : -4.55817854572e-07}
2019-04-14 11:34:16.51: SIM {TimeUS : 43535079, Roll : 0.0, Pitch : 0.0, Yaw : 359.99, Alt : 30.1000003815, Lat : 49.28357, Lng : -123.11502, Q1 : 1.0, Q2 : 0.0, Q3 : 0.0, Q4 : -6.5252783088e-07}
2019-04-14 11:34:16.61: SIM {TimeUS : 43635039, Roll : 0.0, Pitch : 0.0, Yaw : 359.99, Alt : 30.1000003815, Lat : 49.28357, Lng : -123.11502, Q1 : 1.0, Q2 : 0.0, Q3 : 0.0, Q4 : -8.54627216995e-07}
2019-04-14 11:34:16.71: SIM {TimeUS : 43734999, Roll : 0.0, Pitch : 0.0, Yaw : 359.99, Alt : 30.1000003815, Lat : 49.28357, Lng : -123.11502, Q1 : 1.0, Q2 : 0.0, Q3 : 0.0, Q4 : -1.00262150227e-06}
2019-04-14 11:34:16.81: SIM {TimeUS : 43834959, Roll : 0.0, Pitch : 0.0, Yaw : 359.99, Alt : 30.1000003815, Lat : 49.28357, Lng : -123.11502, Q1 : 1.0, Q2 : 0.0, Q3 : 0.0, Q4 : -1.19488015571e-06}
2019-04-14 11:34:16.91: SIM {TimeUS : 43934919, Roll : 0.0, Pitch : 0.0, Yaw : 359.99, Alt : 30.1100006104, Lat : 49.28357, Lng : -123.11502, Q1 : 1.0, Q2 : 0.0, Q3 : 0.0, Q4 : -1.41145278576e-06}
2019-04-14 11:34:17.01: SIM {TimeUS : 44034879, Roll : 0.0, Pitch : 0.0, Yaw : 359.99, Alt : 30.1399993896, Lat : 49.28357, Lng : -123.11502, Q1 : 1.0, Q2 : 0.0, Q3 : 0.0, Q4 : -1.61149216638e-06}
2019-04-14 11:34:17.11: SIM {TimeUS : 44134839, Roll : 0.0, Pitch : 0.0, Yaw : 359.99, Alt : 30.1700000763, Lat : 49.28357, Lng : -123.11502, Q1 : 1.0, Q2 : 0.0, Q3 : 0.0, Q4 : -1.86596071217e-06}
2019-04-14 11:34:17.21: SIM {TimeUS : 44234799, Roll : 0.0, Pitch : 0.0, Yaw : 359.99, Alt : 30.2000007629, Lat : 49.28357, Lng : -123.11502, Q1 : 1.0, Q2 : 0.0, Q3 : 0.0, Q4 : -2.10903522202e-06}
2019-04-14 11:34:17.31: SIM {TimeUS : 44334759, Roll : -0.09, Pitch : -0.08, Yaw : 359.99, Alt : 30.25, Lat : 49.28357, Lng : -123.11502, Q1 : 0.999999403954, Q2 : -0.000815023784526, Q3 : -0.000763357966207, Q4 : -6.66503092361e-06}
2019-04-14 11:34:17.41: SIM {TimeUS : 44434719, Roll : -0.35, Pitch : -0.35, Yaw : 359.99, Alt : 30.3400001526, Lat : 49.28357, Lng : -123.11502, Q1 : 0.999990284443, Q2 : -0.00313381315209, Q3 : -0.00309557490982, Q4 : -3.18225756928e-05}
2019-04-14 11:34:17.51: SIM {TimeUS : 44534679, Roll : -0.62, Pitch : -0.61, Yaw : 359.99, Alt : 30.4899997711, Lat : 49.28357, Lng : -123.11502, Q1 : 0.999970734119, Q2 : -0.00548025500029, Q3 : -0.00533700734377, Q4 : -8.25685783639e-05}
2019-04-14 11:34:17.61: SIM {TimeUS : 44634639, Roll : -0.79, Pitch : -0.74, Yaw : 359.98, Alt : 30.6499996185, Lat : 49.28357, Lng : -123.11502, Q1 : 0.999954402447, Q2 : -0.00697701657191, Q3 : -0.00651836581528, Q4 : -0.000149374856846}
2019-04-14 11:34:17.71: SIM {TimeUS : 44734599, Roll : -0.81, Pitch : -0.74, Yaw : 359.97, Alt : 30.7999992371, Lat : 49.28357, Lng : -123.11502, Q1 : 0.999953269958, Q2 : -0.00711705675349, Q3 : -0.00653862580657, Q4 : -0.000231977319345}
2019-04-14 11:34:17.81: SIM {TimeUS : 44834559, Roll : -0.69, Pitch : -0.63, Yaw : 359.96, Alt : 30.9599990845, Lat : 49.28357, Lng : -123.1150201, Q1 : 0.99996650219, Q2 : -0.00603700615466, Q3 : -0.00551784131676, Q4 : -0.000317324389471}
2019-04-14 11:34:17.92: SIM {TimeUS : 44935352, Roll : -0.47, Pitch : -0.44, Yaw : 359.95, Alt : 31.1100006104, Lat : 49.2835701, Lng : -123.1150202, Q1 : 0.999983787537, Q2 : -0.00418772688136, Q3 : -0.00384108093567, Q4 : -0.000392577756429}
2019-04-14 11:34:18.01: SIM {TimeUS : 45035312, Roll : -0.24, Pitch : -0.24, Yaw : 359.94, Alt : 31.2700004578, Lat : 49.2835701, Lng : -123.1150202, Q1 : 0.999995350838, Q2 : -0.00213604001328, Q3 : -0.00212045200169, Q4 : -0.000450470717624}
2019-04-14 11:34:18.11: SIM {TimeUS : 45135272, Roll : -0.04, Pitch : -0.08, Yaw : 359.94, Alt : 31.4400005341, Lat : 49.2835702, Lng : -123.1150203, Q1 : 0.999999523163, Q2 : -0.000404287391575, Q3 : -0.000710088177584, Q4 : -0.000494105450343}
2019-04-14 11:34:18.21: SIM {TimeUS : 45235232, Roll : 0.07, Pitch : 0.03, Yaw : 359.94, Alt : 31.6100006104, Lat : 49.2835702, Lng : -123.1150204, Q1 : 0.999999642372, Q2 : 0.000628654554021, Q3 : 0.000286090536974, Q4 : -0.000523563299794}
2019-04-14 11:34:18.31: SIM {TimeUS : 45335192, Roll : 0.1, Pitch : 0.09, Yaw : 359.93, Alt : 31.7900009155, Lat : 49.2835703, Lng : -123.1150205, Q1 : 0.99999910593, Q2 : 0.000901984982193, Q3 : 0.00083273142809, Q4 : -0.000527622876689}
2019-04-14 11:34:18.41: SIM {TimeUS : 45435152, Roll : 0.08, Pitch : 0.11, Yaw : 359.94, Alt : 31.9699993134, Lat : 49.2835703, Lng : -123.1150205, Q1 : 0.99999910593, Q2 : 0.000704529171344, Q3 : 0.000998288393021, Q4 : -0.000524156785104}
2019-04-14 11:34:18.51: SIM {TimeUS : 45535112, Roll : 0.06, Pitch : 0.11, Yaw : 359.94, Alt : 32.1599998474, Lat : 49.2835703, Lng : -123.1150206, Q1 : 0.99999910593, Q2 : 0.000595360004809, Q3 : 0.00104441586882, Q4 : -0.000505816540681}
2019-04-14 11:34:18.61: SIM {TimeUS : 45635072, Roll : 0.07, Pitch : 0.12, Yaw : 359.94, Alt : 32.3499984741, Lat : 49.2835703, Lng : -123.1150206, Q1 : 0.99999910593, Q2 : 0.000626087130513, Q3 : 0.00106605072506, Q4 : -0.000489011814352}
2019-04-14 11:34:18.71: SIM {TimeUS : 45735032, Roll : 0.08, Pitch : 0.12, Yaw : 359.94, Alt : 32.5400009155, Lat : 49.2835703, Lng : -123.1150207, Q1 : 0.999998986721, Q2 : 0.000741576834116, Q3 : 0.00109503092244, Q4 : -0.000478786736494}
2019-04-14 11:34:18.81: SIM {TimeUS : 45834992, Roll : 0.1, Pitch : 0.13, Yaw : 359.94, Alt : 32.7299995422, Lat : 49.2835703, Lng : -123.1150207, Q1 : 0.999998748302, Q2 : 0.000876519421581, Q3 : 0.0012126902584, Q4 : -0.000476360612083}
2019-04-14 11:34:18.91: SIM {TimeUS : 45934952, Roll : 0.12, Pitch : 0.14, Yaw : 359.94, Alt : 32.9300003052, Lat : 49.2835704, Lng : -123.1150207, Q1 : 0.999998569489, Q2 : 0.00106526946183, Q3 : 0.00122223130893, Q4 : -0.00047392360284}
2019-04-14 11:34:19.01: SIM {TimeUS : 46034912, Roll : 0.13, Pitch : 0.13, Yaw : 359.94, Alt : 33.1300010681, Lat : 49.2835704, Lng : -123.1150208, Q1 : 0.999998450279, Q2 : 0.00121157476678, Q3 : 0.00116342923138, Q4 : -0.000473690364743}
2019-04-14 11:34:19.11: SIM {TimeUS : 46134872, Roll : 0.15, Pitch : 0.12, Yaw : 359.94, Alt : 33.3400001526, Lat : 49.2835704, Lng : -123.1150208, Q1 : 0.999998450279, Q2 : 0.00131228158716, Q3 : 0.00109695887659, Q4 : -0.000474852829939}
2019-04-14 11:34:19.21: SIM {TimeUS : 46234832, Roll : 0.15, Pitch : 0.12, Yaw : 359.94, Alt : 33.5400009155, Lat : 49.2835704, Lng : -123.1150208, Q1 : 0.99999833107, Q2 : 0.001356450608, Q3 : 0.00113281537779, Q4 : -0.000472609419376}
2019-04-14 11:34:19.31: SIM {TimeUS : 46334792, Roll : 0.16, Pitch : 0.14, Yaw : 359.94, Alt : 33.75, Lat : 49.2835704, Lng : -123.1150208, Q1 : 0.999998092651, Q2 : 0.00142911437433, Q3 : 0.00123205385171, Q4 : -0.000471735285828}
2019-04-14 11:34:19.41: SIM {TimeUS : 46434752, Roll : 0.16, Pitch : 0.13, Yaw : 359.94, Alt : 33.9599990845, Lat : 49.2835704, Lng : -123.1150208, Q1 : 0.999998152256, Q2 : 0.00143199961167, Q3 : 0.00119613250718, Q4 : -0.00046923966147}
2019-04-14 11:34:19.51: SIM {TimeUS : 46534712, Roll : 0.14, Pitch : 0.12, Yaw : 359.94, Alt : 34.1699981689, Lat : 49.2835704, Lng : -123.1150208, Q1 : 0.999998450279, Q2 : 0.00130245834589, Q3 : 0.001061813673, Q4 : -0.000465469405754}
2019-04-14 11:34:19.61: SIM {TimeUS : 46634672, Roll : 0.12, Pitch : 0.11, Yaw : 359.94, Alt : 34.3800010681, Lat : 49.2835704, Lng : -123.1150208, Q1 : 0.999998807907, Q2 : 0.00109503662679, Q3 : 0.000977867050096, Q4 : -0.0004701539292}
2019-04-14 11:34:19.71: SIM {TimeUS : 46734632, Roll : 0.09, Pitch : 0.1, Yaw : 359.94, Alt : 34.5900001526, Lat : 49.2835704, Lng : -123.1150208, Q1 : 0.99999910593, Q2 : 0.000843763467856, Q3 : 0.000911511713639, Q4 : -0.000487603363581}
2019-04-14 11:34:19.81: SIM {TimeUS : 46834592, Roll : 0.08, Pitch : 0.07, Yaw : 359.94, Alt : 34.8100013733, Lat : 49.2835704, Lng : -123.1150208, Q1 : 0.999999403954, Q2 : 0.000707213243004, Q3 : 0.000610740040429, Q4 : -0.000517540378496}
2019-04-14 11:34:19.91: SIM {TimeUS : 46934552, Roll : 0.07, Pitch : 0.03, Yaw : 359.93, Alt : 35.0200004578, Lat : 49.2835704, Lng : -123.1150208, Q1 : 0.999999582767, Q2 : 0.000637389777694, Q3 : 0.000335161428666, Q4 : -0.00056074699387}
2019-04-14 11:34:20.02: SIM {TimeUS : 47035345, Roll : 0.04, Pitch : 0.02, Yaw : 359.93, Alt : 35.2400016785, Lat : 49.2835704, Lng : -123.1150207, Q1 : 0.999999701977, Q2 : 0.000424729194492, Q3 : 0.00017873669276, Q4 : -0.000607112480793}
2019-04-14 11:34:20.11: SIM {TimeUS : 47135305, Roll : 0.03, Pitch : 0.01, Yaw : 359.92, Alt : 35.4599990845, Lat : 49.2835704, Lng : -123.1150207, Q1 : 0.999999761581, Q2 : 0.000287366332486, Q3 : 0.000120375101687, Q4 : -0.000648595334496}
2019-04-14 11:34:20.21: SIM {TimeUS : 47235265, Roll : 0.03, Pitch : 0.01, Yaw : 359.92, Alt : 35.6800003052, Lat : 49.2835704, Lng : -123.1150207, Q1 : 0.999999761581, Q2 : 0.000271434895694, Q3 : 0.000102439815237, Q4 : -0.000686036597472}
2019-04-14 11:34:20.31: SIM {TimeUS : 47335225, Roll : 0.01, Pitch : -0.01, Yaw : 359.91, Alt : 35.9000015259, Lat : 49.2835704, Lng : -123.1150207, Q1 : 0.999999761581, Q2 : 0.000112264460768, Q3 : -9.6313218819e-05, Q4 : -0.000716060108971}
2019-04-14 11:34:20.41: SIM {TimeUS : 47435185, Roll : -0.01, Pitch : -0.04, Yaw : 359.91, Alt : 36.1199989319, Lat : 49.2835704, Lng : -123.1150207, Q1 : 0.999999642372, Q2 : -0.000167828053236, Q3 : -0.000406883162213, Q4 : -0.000741070660297}
2019-04-14 11:34:20.51: SIM {TimeUS : 47535145, Roll : -0.05, Pitch : -0.06, Yaw : 359.91, Alt : 36.3400001526, Lat : 49.2835704, Lng : -123.1150207, Q1 : 0.999999403954, Q2 : -0.000492406135891, Q3 : -0.000578676233999, Q4 : -0.000765657285228}
2019-04-14 11:34:20.61: SIM {TimeUS : 47635105, Roll : -0.08, Pitch : -0.07, Yaw : 359.9, Alt : 36.5600013733, Lat : 49.2835704, Lng : -123.1150207, Q1 : 0.999999165535, Q2 : -0.000781394657679, Q3 : -0.000683618534822, Q4 : -0.000789774290752}
2019-04-14 11:34:20.71: SIM {TimeUS : 47735065, Roll : -0.09, Pitch : -0.08, Yaw : 359.9, Alt : 36.7799987793, Lat : 49.2835704, Lng : -123.1150206, Q1 : 0.99999910593, Q2 : -0.000837576168124, Q3 : -0.000702208431903, Q4 : -0.000810014898889}
2019-04-14 11:34:20.81: SIM {TimeUS : 47835025, Roll : -0.09, Pitch : -0.07, Yaw : 359.9, Alt : 37.0099983215, Lat : 49.2835704, Lng : -123.1150206, Q1 : 0.99999910593, Q2 : -0.000802239752375, Q3 : -0.000651119742543, Q4 : -0.000829851429444}
2019-04-14 11:34:20.91: SIM {TimeUS : 47934985, Roll : -0.07, Pitch : -0.05, Yaw : 359.9, Alt : 37.2299995422, Lat : 49.2835704, Lng : -123.1150206, Q1 : 0.999999284744, Q2 : -0.000685932755005, Q3 : -0.00049262936227, Q4 : -0.000847895746119}
2019-04-14 11:34:21.01: SIM {TimeUS : 48034945, Roll : -0.06, Pitch : -0.04, Yaw : 359.9, Alt : 37.4599990845, Lat : 49.2835704, Lng : -123.1150206, Q1 : 0.999999403954, Q2 : -0.00054546672618, Q3 : -0.000372717040591, Q4 : -0.000861607666593}
2019-04-14 11:34:21.11: SIM {TimeUS : 48134905, Roll : -0.06, Pitch : -0.04, Yaw : 359.9, Alt : 37.6800003052, Lat : 49.2835704, Lng : -123.1150206, Q1 : 0.999999403954, Q2 : -0.000545000482816, Q3 : -0.000375376752345, Q4 : -0.000868313072715}
2019-04-14 11:34:21.21: SIM {TimeUS : 48234865, Roll : -0.07, Pitch : -0.02, Yaw : 359.89, Alt : 37.9099998474, Lat : 49.2835704, Lng : -123.1150206, Q1 : 0.999999403954, Q2 : -0.000634303723928, Q3 : -0.000253114296356, Q4 : -0.000873192679137}
2019-04-14 11:34:21.31: SIM {TimeUS : 48334825, Roll : -0.09, Pitch : -0.01, Yaw : 359.89, Alt : 38.1399993896, Lat : 49.2835704, Lng : -123.1150206, Q1 : 0.999999284744, Q2 : -0.00082340661902, Q3 : -0.000101247722341, Q4 : -0.000879864499439}
2019-04-14 11:34:21.41: SIM {TimeUS : 48434785, Roll : -0.09, Pitch : 0.0, Yaw : 359.89, Alt : 38.3600006104, Lat : 49.2835704, Lng : -123.1150206, Q1 : 0.999999284744, Q2 : -0.000839573564008, Q3 : 3.0743136449e-05, Q4 : -0.000881100655533}
2019-04-14 11:34:21.51: SIM {TimeUS : 48534745, Roll : -0.07, Pitch : 0.03, Yaw : 359.89, Alt : 38.5900001526, Lat : 49.2835704, Lng : -123.1150206, Q1 : 0.999999344349, Q2 : -0.000670183333568, Q3 : 0.000265919428784, Q4 : -0.000887399888597}
2019-04-14 11:34:21.61: SIM {TimeUS : 48634705, Roll : -0.05, Pitch : 0.02, Yaw : 359.89, Alt : 38.8199996948, Lat : 49.2835704, Lng : -123.1150206, Q1 : 0.999999463558, Q2 : -0.000445622426923, Q3 : 0.000233679544181, Q4 : -0.000898619997315}
2019-04-14 11:34:21.71: SIM {TimeUS : 48734665, Roll : -0.01, Pitch : 0.01, Yaw : 359.89, Alt : 39.0499992371, Lat : 49.2835706, Lng : -123.1150206, Q1 : 0.999999582767, Q2 : -0.00017129634216, Q3 : 0.000143627228681, Q4 : -0.000909424794372}
2019-04-14 11:34:21.81: SIM {TimeUS : 48834625, Roll : 0.01, Pitch : 0.03, Yaw : 359.89, Alt : 39.2799987793, Lat : 49.2835706, Lng : -123.1150206, Q1 : 0.999999523163, Q2 : 0.000144128207467, Q3 : 0.000277762679616, Q4 : -0.000922097009607}
2019-04-14 11:34:21.91: SIM {TimeUS : 48934585, Roll : 0.05, Pitch : 0.06, Yaw : 359.89, Alt : 39.5099983215, Lat : 49.2835706, Lng : -123.1150206, Q1 : 0.999999284744, Q2 : 0.000475802982692, Q3 : 0.000546792813111, Q4 : -0.000946119078435}
2019-04-14 11:34:22.01: SIM {TimeUS : 49034545, Roll : 0.08, Pitch : 0.09, Yaw : 359.88, Alt : 39.7400016785, Lat : 49.2835706, Lng : -123.1150206, Q1 : 0.999998927116, Q2 : 0.000715936184861, Q3 : 0.000818623346277, Q4 : -0.00097985425964}
2019-04-14 11:34:22.12: SIM {TimeUS : 49135338, Roll : 0.07, Pitch : 0.12, Yaw : 359.88, Alt : 39.9700012207, Lat : 49.2835706, Lng : -123.1150207, Q1 : 0.999998688698, Q2 : 0.000616535777226, Q3 : 0.00108445761725, Q4 : -0.00100555515382}
2019-04-14 11:34:22.21: SIM {TimeUS : 49235298, Roll : 0.02, Pitch : 0.15, Yaw : 359.87, Alt : 40.2000007629, Lat : 49.2835706, Lng : -123.1150207, Q1 : 0.999998569489, Q2 : 0.000179614376975, Q3 : 0.00131201115437, Q4 : -0.00105020566843}
2019-04-14 11:34:22.31: SIM {TimeUS : 49335258, Roll : -0.02, Pitch : 0.15, Yaw : 359.87, Alt : 40.4399986267, Lat : 49.2835706, Lng : -123.1150206, Q1 : 0.999998450279, Q2 : -0.000173184991581, Q3 : 0.00135793746449, Q4 : -0.00108703994192}
2019-04-14 11:34:22.41: SIM {TimeUS : 49435218, Roll : -0.04, Pitch : 0.13, Yaw : 359.87, Alt : 40.6699981689, Lat : 49.2835706, Lng : -123.1150206, Q1 : 0.999998629093, Q2 : -0.000359287922038, Q3 : 0.00117742829025, Q4 : -0.00111468730029}
2019-04-14 11:34:22.51: SIM {TimeUS : 49535178, Roll : -0.04, Pitch : 0.11, Yaw : 359.86, Alt : 40.9000015259, Lat : 49.2835706, Lng : -123.1150206, Q1 : 0.999998748302, Q2 : -0.000412328983657, Q3 : 0.00100949977059, Q4 : -0.00114208192099}
2019-04-14 11:34:22.61: SIM {TimeUS : 49635138, Roll : -0.03, Pitch : 0.11, Yaw : 359.86, Alt : 41.1300010681, Lat : 49.2835706, Lng : -123.1150206, Q1 : 0.999998688698, Q2 : -0.000279373838566, Q3 : 0.00104717083741, Q4 : -0.00118015392218}
2019-04-14 11:34:22.71: SIM {TimeUS : 49735098, Roll : 0.01, Pitch : 0.14, Yaw : 359.85, Alt : 41.3699989319, Lat : 49.2835706, Lng : -123.1150207, Q1 : 0.999998450279, Q2 : 0.000115976508823, Q3 : 0.00124209967908, Q4 : -0.00122608616948}
2019-04-14 11:34:22.81: SIM {TimeUS : 49835058, Roll : 0.06, Pitch : 0.15, Yaw : 359.85, Alt : 41.5999984741, Lat : 49.2835706, Lng : -123.1150207, Q1 : 0.999998092651, Q2 : 0.000576296064537, Q3 : 0.0013454828877, Q4 : -0.00127153622452}
2019-04-14 11:34:22.91: SIM {TimeUS : 49935018, Roll : 0.1, Pitch : 0.12, Yaw : 359.84, Alt : 41.8300018311, Lat : 49.2835706, Lng : -123.1150207, Q1 : 0.999998152256, Q2 : 0.000884621287696, Q3 : 0.00108460022602, Q4 : -0.00131138868164}
2019-04-14 11:34:23.01: SIM {TimeUS : 50034978, Roll : 0.09, Pitch : 0.07, Yaw : 359.84, Alt : 42.0699996948, Lat : 49.2835706, Lng : -123.1150207, Q1 : 0.999998450279, Q2 : 0.000872658041772, Q3 : 0.000686971587129, Q4 : -0.00134501606226}
2019-04-14 11:34:23.11: SIM {TimeUS : 50134938, Roll : 0.06, Pitch : 0.04, Yaw : 359.84, Alt : 42.2999992371, Lat : 49.2835706, Lng : -123.1150207, Q1 : 0.999998867512, Q2 : 0.000525440846104, Q3 : 0.000384591665352, Q4 : -0.00136379839387}
2019-04-14 11:34:23.21: SIM {TimeUS : 50234898, Roll : 0.0, Pitch : 0.03, Yaw : 359.84, Alt : 42.5400009155, Lat : 49.2835706, Lng : -123.1150207, Q1 : 0.999998986721, Q2 : 4.09692947869e-05, Q3 : 0.000319015030982, Q4 : -0.00137391733006}
2019-04-14 11:34:23.31: SIM {TimeUS : 50334858, Roll : -0.03, Pitch : 0.06, Yaw : 359.84, Alt : 42.7700004578, Lat : 49.2835706, Lng : -123.1150207, Q1 : 0.999998867512, Q2 : -0.000279794301605, Q3 : 0.000548777868971, Q4 : -0.00137627730146}
2019-04-14 11:34:23.41: SIM {TimeUS : 50434818, Roll : -0.04, Pitch : 0.08, Yaw : 359.84, Alt : 43.0099983215, Lat : 49.2835704, Lng : -123.1150206, Q1 : 0.999998688698, Q2 : -0.000404518999858, Q3 : 0.000729100196622, Q4 : -0.00137782562524}
2019-04-14 11:34:23.51: SIM {TimeUS : 50534778, Roll : -0.03, Pitch : 0.08, Yaw : 359.84, Alt : 43.2400016785, Lat : 49.2835704, Lng : -123.1150206, Q1 : 0.999998748302, Q2 : -0.00034285170841, Q3 : 0.000714342924766, Q4 : -0.00137876940425}
2019-04-14 11:34:23.61: SIM {TimeUS : 50634738, Roll : -0.03, Pitch : 0.06, Yaw : 359.84, Alt : 43.4799995422, Lat : 49.2835704, Lng : -123.1150206, Q1 : 0.999998807907, Q2 : -0.000335560558597, Q3 : 0.000605862762313, Q4 : -0.00138461124152}
2019-04-14 11:34:23.71: SIM {TimeUS : 50734698, Roll : -0.03, Pitch : 0.05, Yaw : 359.84, Alt : 43.7099990845, Lat : 49.2835704, Lng : -123.1150206, Q1 : 0.999998867512, Q2 : -0.000279375264654, Q3 : 0.000474538712297, Q4 : -0.00139246881008}
2019-04-14 11:34:23.81: SIM {TimeUS : 50834658, Roll : -0.01, Pitch : 0.04, Yaw : 359.83, Alt : 43.9500007629, Lat : 49.2835704, Lng : -123.1150206, Q1 : 0.999998927116, Q2 : -0.000149721294292, Q3 : 0.000402935460443, Q4 : -0.00140337564517}
2019-04-14 11:34:23.91: SIM {TimeUS : 50934618, Roll : 0.0, Pitch : 0.04, Yaw : 359.83, Alt : 44.1800003052, Lat : 49.2835704, Lng : -123.1150206, Q1 : 0.999998927116, Q2 : -7.26298676454e-05, Q3 : 0.000405390601372, Q4 : -0.00141699437518}
2019-04-14 11:34:24.01: SIM {TimeUS : 51034578, Roll : -0.01, Pitch : 0.03, Yaw : 359.83, Alt : 44.4199981689, Lat : 49.2835704, Lng : -123.1150206, Q1 : 0.999998927116, Q2 : -0.000110359644168, Q3 : 0.000315914599923, Q4 : -0.00143262045458}
2019-04-14 11:34:24.11: SIM {TimeUS : 51134538, Roll : -0.02, Pitch : 0.0, Yaw : 359.83, Alt : 44.6599998474, Lat : 49.2835704, Lng : -123.1150206, Q1 : 0.999998927116, Q2 : -0.000194938344066, Q3 : 7.9038189142e-05, Q4 : -0.00144808588084}
2019-04-14 11:34:24.21: SIM {TimeUS : 51235331, Roll : -0.03, Pitch : -0.01, Yaw : 359.83, Alt : 44.8899993896, Lat : 49.2835704, Lng : -123.1150206, Q1 : 0.999998867512, Q2 : -0.000276770442724, Q3 : -0.00013981173106, Q4 : -0.00147137092426}
2019-04-14 11:34:24.31: SIM {TimeUS : 51335291, Roll : -0.02, Pitch : -0.03, Yaw : 359.82, Alt : 45.1300010681, Lat : 49.2835704, Lng : -123.1150206, Q1 : 0.999998807907, Q2 : -0.000257025414612, Q3 : -0.000313279597322, Q4 : -0.00149790209252}
2019-04-14 11:34:24.41: SIM {TimeUS : 51435251, Roll : -0.03, Pitch : -0.04, Yaw : 359.82, Alt : 45.3699989319, Lat : 49.2835703, Lng : -123.1150206, Q1 : 0.999998688698, Q2 : -0.000271113676718, Q3 : -0.000384930724977, Q4 : -0.00152994703967}
2019-04-14 11:34:24.51: SIM {TimeUS : 51535211, Roll : -0.05, Pitch : -0.03, Yaw : 359.81, Alt : 45.5999984741, Lat : 49.2835703, Lng : -123.1150206, Q1 : 0.999998629093, Q2 : -0.000444475183031, Q3 : -0.000332304625772, Q4 : -0.00157481583301}
2019-04-14 11:34:24.61: SIM {TimeUS : 51635171, Roll : -0.08, Pitch : -0.03, Yaw : 359.81, Alt : 45.8300018311, Lat : 49.2835703, Lng : -123.1150206, Q1 : 0.999998390675, Q2 : -0.000704814156052, Q3 : -0.000308754475554, Q4 : -0.00162477069534}
2019-04-14 11:34:24.71: SIM {TimeUS : 51735131, Roll : -0.1, Pitch : -0.03, Yaw : 359.8, Alt : 46.0699996948, Lat : 49.2835703, Lng : -123.1150205, Q1 : 0.999998152256, Q2 : -0.000889152870513, Q3 : -0.000268613774097, Q4 : -0.00167527166195}
2019-04-14 11:34:24.81: SIM {TimeUS : 51835091, Roll : -0.1, Pitch : -0.02, Yaw : 359.8, Alt : 46.2900009155, Lat : 49.2835703, Lng : -123.1150205, Q1 : 0.999998092651, Q2 : -0.000923669664189, Q3 : -0.000178101865458, Q4 : -0.00172308355104}
2019-04-14 11:34:24.91: SIM {TimeUS : 51935051, Roll : -0.09, Pitch : 0.0, Yaw : 359.79, Alt : 46.5200004578, Lat : 49.2835703, Lng : -123.1150205, Q1 : 0.999998152256, Q2 : -0.00079062540317, Q3 : 1.02697595139e-05, Q4 : -0.00176823628135}
2019-04-14 11:34:25.01: SIM {TimeUS : 52035011, Roll : -0.06, Pitch : 0.01, Yaw : 359.79, Alt : 46.7299995422, Lat : 49.2835703, Lng : -123.1150205, Q1 : 0.999998211861, Q2 : -0.000584414578043, Q3 : 8.86522175279e-05, Q4 : -0.00180750852451}
2019-04-14 11:34:25.11: SIM {TimeUS : 52134971, Roll : -0.04, Pitch : 0.0, Yaw : 359.78, Alt : 46.9500007629, Lat : 49.2835703, Lng : -123.1150206, Q1 : 0.999998211861, Q2 : -0.000409507454606, Q3 : 3.20378749166e-05, Q4 : -0.00183974066749}
2019-04-14 11:34:25.21: SIM {TimeUS : 52234931, Roll : -0.03, Pitch : -0.01, Yaw : 359.78, Alt : 47.1500015259, Lat : 49.2835703, Lng : -123.1150206, Q1 : 0.999998211861, Q2 : -0.000333834555931, Q3 : -0.000114043192298, Q4 : -0.00186476635281}
2019-04-14 11:34:25.31: SIM {TimeUS : 52334891, Roll : -0.02, Pitch : -0.03, Yaw : 359.78, Alt : 47.3499984741, Lat : 49.2835703, Lng : -123.1150206, Q1 : 0.999998152256, Q2 : -0.00023501686519, Q3 : -0.000340041704476, Q4 : -0.0018829042092}
2019-04-14 11:34:25.41: SIM {TimeUS : 52434851, Roll : -0.01, Pitch : -0.06, Yaw : 359.78, Alt : 47.5400009155, Lat : 49.2835703, Lng : -123.1150206, Q1 : 0.999998033047, Q2 : -9.05242632143e-05, Q3 : -0.000546270865016, Q4 : -0.00189743947703}
2019-04-14 11:34:25.51: SIM {TimeUS : 52534811, Roll : 0.0, Pitch : -0.1, Yaw : 359.78, Alt : 47.7200012207, Lat : 49.2835703, Lng : -123.1150206, Q1 : 0.999997794628, Q2 : -7.20869284123e-05, Q3 : -0.000898548169062, Q4 : -0.0019094333984}
2019-04-14 11:34:25.61: SIM {TimeUS : 52634771, Roll : -0.01, Pitch : -0.14, Yaw : 359.77, Alt : 47.8899993896, Lat : 49.2835703, Lng : -123.1150206, Q1 : 0.999997317791, Q2 : -0.000102305668406, Q3 : -0.00129181193188, Q4 : -0.00192083697766}
2019-04-14 11:34:25.71: SIM {TimeUS : 52734731, Roll : 0.01, Pitch : -0.15, Yaw : 359.77, Alt : 48.0400009155, Lat : 49.2835703, Lng : -123.1150206, Q1 : 0.999997138977, Q2 : 9.33897172217e-05, Q3 : -0.00138814409729, Q4 : -0.0019329492934}
2019-04-14 11:34:25.81: SIM {TimeUS : 52834691, Roll : 0.03, Pitch : -0.13, Yaw : 359.77, Alt : 48.1899986267, Lat : 49.2835703, Lng : -123.1150206, Q1 : 0.999997317791, Q2 : 0.000343734252965, Q3 : -0.00121948774904, Q4 : -0.00194072234444}
2019-04-14 11:34:25.91: SIM {TimeUS : 52934651, Roll : 0.06, Pitch : -0.1, Yaw : 359.77, Alt : 48.3199996948, Lat : 49.2835703, Lng : -123.1150206, Q1 : 0.999997496605, Q2 : 0.000565668393392, Q3 : -0.00092316546943, Q4 : -0.00194832845591}
2019-04-14 11:34:26.01: SIM {TimeUS : 53034611, Roll : 0.07, Pitch : -0.06, Yaw : 359.77, Alt : 48.4399986267, Lat : 49.2835703, Lng : -123.1150206, Q1 : 0.999997675419, Q2 : 0.000644834770355, Q3 : -0.000609539216384, Q4 : -0.00196013459936}
2019-04-14 11:34:26.11: SIM {TimeUS : 53134571, Roll : 0.07, Pitch : -0.04, Yaw : 359.77, Alt : 48.5499992371, Lat : 49.2835703, Lng : -123.1150206, Q1 : 0.999997735023, Q2 : 0.000693883164786, Q3 : -0.000410466542235, Q4 : -0.00198004185222}
2019-04-14 11:34:26.22: SIM {TimeUS : 53235364, Roll : 0.06, Pitch : -0.04, Yaw : 359.77, Alt : 48.6500015259, Lat : 49.2835704, Lng : -123.1150206, Q1 : 0.999997735023, Q2 : 0.000594343233388, Q3 : -0.000403706770157, Q4 : -0.00200433493592}
2019-04-14 11:34:26.31: SIM {TimeUS : 53335324, Roll : 0.03, Pitch : -0.04, Yaw : 359.76, Alt : 48.7299995422, Lat : 49.2835704, Lng : -123.1150206, Q1 : 0.999997794628, Q2 : 0.000321268860716, Q3 : -0.000420439697336, Q4 : -0.00203544995748}
2019-04-14 11:34:26.41: SIM {TimeUS : 53435284, Roll : 0.01, Pitch : -0.03, Yaw : 359.76, Alt : 48.7999992371, Lat : 49.2835704, Lng : -123.1150206, Q1 : 0.999997794628, Q2 : 0.000165030985954, Q3 : -0.000337157282047, Q4 : -0.00207239203155}
2019-04-14 11:34:26.51: SIM {TimeUS : 53535244, Roll : 0.0, Pitch : -0.02, Yaw : 359.75, Alt : 48.8699989319, Lat : 49.2835704, Lng : -123.1150206, Q1 : 0.999997735023, Q2 : 7.2858252679e-05, Q3 : -0.000250185694313, Q4 : -0.00211412855424}
2019-04-14 11:34:26.61: SIM {TimeUS : 53635204, Roll : 0.0, Pitch : -0.01, Yaw : 359.75, Alt : 48.9199981689, Lat : 49.2835704, Lng : -123.1150206, Q1 : 0.999997675419, Q2 : -6.6984903242e-06, Q3 : -0.000115021895908, Q4 : -0.00215866486542}
2019-04-14 11:34:26.71: SIM {TimeUS : 53735164, Roll : 0.01, Pitch : 0.01, Yaw : 359.74, Alt : 48.9700012207, Lat : 49.2835704, Lng : -123.1150206, Q1 : 0.99999755621, Q2 : 0.000148531718878, Q3 : 0.000133188455948, Q4 : -0.00220500887372}
2019-04-14 11:34:26.81: SIM {TimeUS : 53835124, Roll : 0.1, Pitch : 0.0, Yaw : 359.74, Alt : 49.0099983215, Lat : 49.2835704, Lng : -123.1150206, Q1 : 0.999997079372, Q2 : 0.000904582964722, Q3 : -6.46061971565e-06, Q4 : -0.00224777683616}
2019-04-14 11:34:26.91: SIM {TimeUS : 53935084, Roll : 0.35, Pitch : -0.16, Yaw : 359.73, Alt : 49.0400009155, Lat : 49.2835704, Lng : -123.1150206, Q1 : 0.99999165535, Q2 : 0.00307576265186, Q3 : -0.00142348138615, Q4 : -0.00228630960919}
2019-04-14 11:34:27.01: SIM {TimeUS : 54035044, Roll : 0.8, Pitch : -0.49, Yaw : 359.73, Alt : 49.0699996948, Lat : 49.2835704, Lng : -123.1150206, Q1 : 0.999963462353, Q2 : 0.00699191121385, Q3 : -0.00433934014291, Q4 : -0.00231640879065}
2019-04-14 11:34:27.11: SIM {TimeUS : 54135004, Roll : 1.43, Pitch : -0.99, Yaw : 359.72, Alt : 49.0999984741, Lat : 49.2835704, Lng : -123.1150206, Q1 : 0.999880850315, Q2 : 0.0125353476033, Q3 : -0.00870081223547, Q4 : -0.00233229715377}
2019-04-14 11:34:27.21: SIM {TimeUS : 54234964, Roll : 2.23, Pitch : -1.58, Yaw : 359.7, Alt : 49.1199989319, Lat : 49.2835706, Lng : -123.1150205, Q1 : 0.99971139431, Q2 : 0.0194547735155, Q3 : -0.0139024313539, Q4 : -0.0023063023109}
2019-04-14 11:34:27.31: SIM {TimeUS : 54334924, Roll : 3.08, Pitch : -2.18, Yaw : 359.68, Alt : 49.1399993896, Lat : 49.2835706, Lng : -123.1150204, Q1 : 0.999453604221, Q2 : 0.0268408749253, Q3 : -0.0191578213125, Q4 : -0.00223057135008}
2019-04-14 11:34:27.41: SIM {TimeUS : 54434884, Roll : 3.84, Pitch : -2.72, Yaw : 359.66, Alt : 49.1500015259, Lat : 49.2835707, Lng : -123.1150203, Q1 : 0.999152541161, Q2 : 0.0334775857627, Q3 : -0.0238559097052, Q4 : -0.0020927907899}
2019-04-14 11:34:27.51: SIM {TimeUS : 54534844, Roll : 4.44, Pitch : -3.13, Yaw : 359.66, Alt : 49.1699981689, Lat : 49.2835708, Lng : -123.11502, Q1 : 0.998871207237, Q2 : 0.0387028492987, Q3 : -0.0274753961712, Q4 : -0.00187981280033}
2019-04-14 11:34:27.61: SIM {TimeUS : 54634804, Roll : 4.87, Pitch : -3.42, Yaw : 359.66, Alt : 49.1800003052, Lat : 49.2835709, Lng : -123.1150198, Q1 : 0.998647630215, Q2 : 0.0424322262406, Q3 : -0.0299977939576, Q4 : -0.00162116403226}
2019-04-14 11:34:27.71: SIM {TimeUS : 54734764, Roll : 5.18, Pitch : -3.65, Yaw : 359.67, Alt : 49.1899986267, Lat : 49.2835712, Lng : -123.1150194, Q1 : 0.998468756676, Q2 : 0.0451320372522, Q3 : -0.0319600142539, Q4 : -0.0013501571957}
2019-04-14 11:34:27.81: SIM {TimeUS : 54834724, Roll : 5.46, Pitch : -3.86, Yaw : 359.69, Alt : 49.2000007629, Lat : 49.2835714, Lng : -123.1150189, Q1 : 0.998294532299, Q2 : 0.047594320029, Q3 : -0.0337890647352, Q4 : -0.0010695977835}
2019-04-14 11:34:27.91: SIM {TimeUS : 54934684, Roll : 5.78, Pitch : -4.07, Yaw : 359.7, Alt : 49.2099990845, Lat : 49.2835716, Lng : -123.1150182, Q1 : 0.998095154762, Q2 : 0.05033371225, Q3 : -0.0356654264033, Q4 : -0.000785268493928}
2019-04-14 11:34:28.01: SIM {TimeUS : 55034644, Roll : 6.1, Pitch : -4.28, Yaw : 359.71, Alt : 49.2200012207, Lat : 49.283572, Lng : -123.1150175, Q1 : 0.997882723808, Q2 : 0.0531397387385, Q3 : -0.0374964289367, Q4 : -0.000510579789989}
2019-04-14 11:34:28.11: SIM {TimeUS : 55134604, Roll : 6.39, Pitch : -4.48, Yaw : 359.72, Alt : 49.2200012207, Lat : 49.2835724, Lng : -123.1150168, Q1 : 0.997681498528, Q2 : 0.0556391105056, Q3 : -0.0391893014312, Q4 : -0.000255393475527}
2019-04-14 11:34:28.21: SIM {TimeUS : 55234564, Roll : 6.6, Pitch : -4.64, Yaw : 359.72, Alt : 49.2299995422, Lat : 49.2835727, Lng : -123.1150159, Q1 : 0.997520685196, Q2 : 0.0574827827513, Q3 : -0.0405975244939, Q4 : -4.39608993474e-05}
2019-04-14 11:34:28.32: SIM {TimeUS : 55335357, Roll : 6.76, Pitch : -4.75, Yaw : 359.73, Alt : 49.2400016785, Lat : 49.2835732, Lng : -123.1150149, Q1 : 0.997401833534, Q2 : 0.0588400401175, Q3 : -0.0415625497699, Q4 : 0.000119989614177}
2019-04-14 11:34:28.41: SIM {TimeUS : 55435317, Roll : 6.86, Pitch : -4.82, Yaw : 359.73, Alt : 49.2400016785, Lat : 49.2835737, Lng : -123.1150138, Q1 : 0.997321784496, Q2 : 0.0597588941455, Q3 : -0.0421677790582, Q4 : 0.000237850574194}
2019-04-14 11:34:28.51: SIM {TimeUS : 55535277, Roll : 6.95, Pitch : -4.88, Yaw : 359.73, Alt : 49.25, Lat : 49.2835743, Lng : -123.1150126, Q1 : 0.997251629829, Q2 : 0.0605454482138, Q3 : -0.0427006669343, Q4 : 0.000314275559504}
2019-04-14 11:34:28.61: SIM {TimeUS : 55635237, Roll : 7.1, Pitch : -4.95, Yaw : 359.73, Alt : 49.25, Lat : 49.2835747, Lng : -123.1150114, Q1 : 0.997146606445, Q2 : 0.0618183128536, Q3 : -0.0433247946203, Q4 : 0.000389486493077}
2019-04-14 11:34:28.71: SIM {TimeUS : 55735197, Roll : 7.46, Pitch : -4.91, Yaw : 359.9, Alt : 49.25, Lat : 49.2835753, Lng : -123.11501, Q1 : 0.996967017651, Q2 : 0.064961001277, Q3 : -0.0428136028349, Q4 : 0.00194597674999}
2019-04-14 11:34:28.81: SIM {TimeUS : 55835157, Roll : 8.04, Pitch : -4.71, Yaw : 0.8, Alt : 49.2599983215, Lat : 49.2835761, Lng : -123.1150086, Q1 : 0.996647179127, Q2 : 0.0703916177154, Q3 : -0.0405182428658, Q4 : 0.00988835282624}
2019-04-14 11:34:28.91: SIM {TimeUS : 55935117, Roll : 8.67, Pitch : -4.64, Yaw : 3.08, Alt : 49.2599983215, Lat : 49.2835768, Lng : -123.1150071, Q1 : 0.995871424675, Q2 : 0.0766420960426, Q3 : -0.0384018607438, Q4 : 0.0298564527184}
2019-04-14 11:34:29.01: SIM {TimeUS : 56035077, Roll : 9.08, Pitch : -5.02, Yaw : 6.94, Alt : 49.2599983215, Lat : 49.2835775, Lng : -123.1150054, Q1 : 0.993863761425, Q2 : 0.0815849006176, Q3 : -0.0388491638005, Q4 : 0.0637925043702}
2019-04-14 11:34:29.11: SIM {TimeUS : 56135037, Roll : 9.04, Pitch : -5.94, Yaw : 12.27, Alt : 49.2599983215, Lat : 49.2835782, Lng : -123.1150037, Q1 : 0.98940294981, Q2 : 0.0838416740298, Q3 : -0.0429739318788, Q4 : 0.110478781164}
2019-04-14 11:34:29.21: SIM {TimeUS : 56234997, Roll : 8.44, Pitch : -7.31, Yaw : 18.82, Alt : 49.2599983215, Lat : 49.2835788, Lng : -123.1150017, Q1 : 0.981084048748, Q2 : 0.0829070955515, Q3 : -0.0507018603384, Q4 : 0.167420893908}
2019-04-14 11:34:29.31: SIM {TimeUS : 56334957, Roll : 7.23, Pitch : -8.91, Yaw : 26.36, Alt : 49.2700004578, Lat : 49.2835795, Lng : -123.1149998, Q1 : 0.967654287815, Q2 : 0.0789059251547, Q3 : -0.0612164847553, Q4 : 0.2316711694}
2019-04-14 11:34:29.41: SIM {TimeUS : 56434917, Roll : 5.44, Pitch : -10.51, Yaw : 34.62, Alt : 49.2700004578, Lat : 49.2835804, Lng : -123.1149977, Q1 : 0.948297262192, Q2 : 0.0724085494876, Q3 : -0.0733303427696, Q4 : 0.300186604261}
2019-04-14 11:34:29.51: SIM {TimeUS : 56534877, Roll : 3.13, Pitch : -11.89, Yaw : 43.34, Alt : 49.2700004578, Lat : 49.2835812, Lng : -123.1149955, Q1 : 0.922924160957, Q2 : 0.0635085776448, Q3 : -0.0862302556634, Q4 : 0.369786411524}
2019-04-14 11:34:29.61: SIM {TimeUS : 56634837, Roll : 0.18, Pitch : -12.83, Yaw : 51.94, Alt : 49.2700004578, Lat : 49.2835819, Lng : -123.1149932, Q1 : 0.893285214901, Q2 : 0.0503704547882, Q3 : -0.0997705310583, Q4 : 0.435373663902}
2019-04-14 11:34:29.71: SIM {TimeUS : 56734797, Roll : -2.99, Pitch : -13.19, Yaw : 59.54, Alt : 49.2700004578, Lat : 49.283583, Lng : -123.1149908, Q1 : 0.863432466984, Q2 : 0.0344862043858, Q3 : -0.112641327083, Q4 : 0.490517139435}
2019-04-14 11:34:29.81: SIM {TimeUS : 56834757, Roll : -5.77, Pitch : -13.1, Yaw : 65.38, Alt : 49.2700004578, Lat : 49.283584, Lng : -123.1149883, Q1 : 0.838119745255, Q2 : 0.0194904115051, Q3 : -0.122956648469, Q4 : 0.531090378761}
2019-04-14 11:34:29.91: SIM {TimeUS : 56934717, Roll : -7.63, Pitch : -12.81, Yaw : 69.12, Alt : 49.2700004578, Lat : 49.283585, Lng : -123.1149857, Q1 : 0.820768654346, Q2 : 0.0086743850261, Q3 : -0.129205957055, Q4 : 0.556389570236}
2019-04-14 11:34:30.01: SIM {TimeUS : 57034677, Roll : -8.4, Pitch : -12.57, Yaw : 70.85, Alt : 49.2700004578, Lat : 49.2835862, Lng : -123.1149831, Q1 : 0.812409460545, Q2 : 0.00394352525473, Q3 : -0.131236970425, Q4 : 0.568112790585}
2019-04-14 11:34:30.11: SIM {TimeUS : 57134637, Roll : -8.17, Pitch : -12.58, Yaw : 70.89, Alt : 49.2700004578, Lat : 49.2835876, Lng : -123.1149805, Q1 : 0.812195658684, Q2 : 0.00564011605456, Q3 : -0.130141556263, Q4 : 0.568655967712}
2019-04-14 11:34:30.21: SIM {TimeUS : 57234597, Roll : -7.18, Pitch : -12.87, Yaw : 69.61, Alt : 49.2700004578, Lat : 49.283589, Lng : -123.1149778, Q1 : 0.818307578564, Q2 : 0.012780604884, Q3 : -0.127416729927, Q4 : 0.560334146023}
2019-04-14 11:34:30.31: SIM {TimeUS : 57334557, Roll : -5.65, Pitch : -13.43, Yaw : 67.36, Alt : 49.2700004578, Lat : 49.2835904, Lng : -123.1149751, Q1 : 0.828630626202, Q2 : 0.0240316055715, Q3 : -0.124333485961, Q4 : 0.54528427124}
2019-04-14 11:34:30.42: SIM {TimeUS : 57435350, Roll : -3.81, Pitch : -14.15, Yaw : 64.43, Alt : 49.2799987793, Lat : 49.283592, Lng : -123.1149722, Q1 : 0.841291844845, Q2 : 0.0377389825881, Q3 : -0.121760465205, Q4 : 0.525336265564}
2019-04-14 11:34:30.51: SIM {TimeUS : 57535310, Roll : -1.88, Pitch : -14.86, Yaw : 61.2, Alt : 49.2799987793, Lat : 49.2835935, Lng : -123.1149693, Q1 : 0.854457616806, Q2 : 0.0517848879099, Q3 : -0.119679376483, Q4 : 0.502889096737}
2019-04-14 11:34:30.61: SIM {TimeUS : 57635270, Roll : -0.05, Pitch : -15.43, Yaw : 57.95, Alt : 49.2799987793, Lat : 49.2835952, Lng : -123.1149663, Q1 : 0.866906762123, Q2 : 0.0646392703056, Q3 : -0.117734380066, Q4 : 0.480034410954}
2019-04-14 11:34:30.71: SIM {TimeUS : 57735230, Roll : 1.52, Pitch : -15.77, Yaw : 55.03, Alt : 49.2799987793, Lat : 49.2835969, Lng : -123.1149632, Q1 : 0.877571880817, Q2 : 0.0750890448689, Q3 : -0.115646377206, Q4 : 0.459189653397}
2019-04-14 11:34:30.81: SIM {TimeUS : 57835190, Roll : 2.73, Pitch : -15.89, Yaw : 52.7, Alt : 49.2799987793, Lat : 49.2835986, Lng : -123.11496, Q1 : 0.885768711567, Q2 : 0.0825294330716, Q3 : -0.113402113318, Q4 : 0.442428171635}
2019-04-14 11:34:30.91: SIM {TimeUS : 57935150, Roll : 3.48, Pitch : -15.88, Yaw : 51.13, Alt : 49.2799987793, Lat : 49.2836001, Lng : -123.1149566, Q1 : 0.891204833984, Q2 : 0.0867704823613, Q3 : -0.11159966141, Q4 : 0.431010812521}
2019-04-14 11:34:31.01: SIM {TimeUS : 58035110, Roll : 3.75, Pitch : -15.83, Yaw : 50.36, Alt : 49.2799987793, Lat : 49.2836019, Lng : -123.1149531, Q1 : 0.893918931484, Q2 : 0.0879069194198, Q3 : -0.110783226788, Q4 : 0.425333321095}
2019-04-14 11:34:31.11: SIM {TimeUS : 58135070, Roll : 3.55, Pitch : -15.81, Yaw : 50.35, Alt : 49.2799987793, Lat : 49.2836036, Lng : -123.1149495, Q1 : 0.894150078297, Q2 : 0.086323723197, Q3 : -0.111345760524, Q4 : 0.425024628639}
2019-04-14 11:34:31.21: SIM {TimeUS : 58235030, Roll : 3.0, Pitch : -15.83, Yaw : 50.95, Alt : 49.2799987793, Lat : 49.2836053, Lng : -123.1149458, Q1 : 0.892277479172, Q2 : 0.0827168524265, Q3 : -0.113123066723, Q4 : 0.429187506437}
2019-04-14 11:34:31.31: SIM {TimeUS : 58334990, Roll : 2.23, Pitch : -15.9, Yaw : 52.0, Alt : 49.2799987793, Lat : 49.2836069, Lng : -123.1149419, Q1 : 0.8887616992, Q2 : 0.0780512318015, Q3 : -0.115867346525, Q4 : 0.436560928822}
2019-04-14 11:34:31.41: SIM {TimeUS : 58434950, Roll : 1.33, Pitch : -16.02, Yaw : 53.31, Alt : 49.2799987793, Lat : 49.2836086, Lng : -123.114938, Q1 : 0.884190678596, Q2 : 0.0728657841682, Q3 : -0.119337461889, Q4 : 0.445708453655}
2019-04-14 11:34:31.51: SIM {TimeUS : 58534910, Roll : 0.45, Pitch : -16.15, Yaw : 54.69, Alt : 49.2799987793, Lat : 49.2836104, Lng : -123.114934, Q1 : 0.879158556461, Q2 : 0.0680662989616, Q3 : -0.122986368835, Q4 : 0.455325841904}
2019-04-14 11:34:31.61: SIM {TimeUS : 58634870, Roll : -0.29, Pitch : -16.26, Yaw : 55.98, Alt : 49.2799987793, Lat : 49.2836122, Lng : -123.11493, Q1 : 0.874304652214, Q2 : 0.0641066133976, Q3 : -0.126103654504, Q4 : 0.46430554986}
2019-04-14 11:34:31.71: SIM {TimeUS : 58734830, Roll : -0.88, Pitch : -16.33, Yaw : 57.05, Alt : 49.2799987793, Lat : 49.283614, Lng : -123.1149259, Q1 : 0.870167791843, Q2 : 0.061097458005, Q3 : -0.128469243646, Q4 : 0.471774160862}
2019-04-14 11:34:31.81: SIM {TimeUS : 58834790, Roll : -1.29, Pitch : -16.38, Yaw : 57.83, Alt : 49.2900009155, Lat : 49.2836158, Lng : -123.1149217, Q1 : 0.867106437683, Q2 : 0.0591305680573, Q3 : -0.130162298679, Q4 : 0.477166384459}
2019-04-14 11:34:31.91: SIM {TimeUS : 58934750, Roll : -1.49, Pitch : -16.43, Yaw : 58.27, Alt : 49.2900009155, Lat : 49.2836177, Lng : -123.1149175, Q1 : 0.865304946899, Q2 : 0.0583047792315, Q3 : -0.1311442554, Q4 : 0.480259388685}
2019-04-14 11:34:32.01: SIM {TimeUS : 59034710, Roll : -1.5, Pitch : -16.49, Yaw : 58.39, Alt : 49.2900009155, Lat : 49.2836195, Lng : -123.1149133, Q1 : 0.86473929882, Q2 : 0.0586214512587, Q3 : -0.131556615233, Q4 : 0.481126129627}
2019-04-14 11:34:32.11: SIM {TimeUS : 59134670, Roll : -1.35, Pitch : -16.53, Yaw : 58.24, Alt : 49.2900009155, Lat : 49.2836214, Lng : -123.114909, Q1 : 0.865284442902, Q2 : 0.0597828440368, Q3 : -0.131314814091, Q4 : 0.480067998171}
2019-04-14 11:34:32.21: SIM {TimeUS : 59234630, Roll : -1.06, Pitch : -16.57, Yaw : 57.86, Alt : 49.2900009155, Lat : 49.2836235, Lng : -123.1149046, Q1 : 0.866661667824, Q2 : 0.06166741997, Q3 : -0.130622208118, Q4 : 0.477527558804}
2019-04-14 11:34:32.31: SIM {TimeUS : 59334590, Roll : -0.7, Pitch : -16.61, Yaw : 57.34, Alt : 49.2900009155, Lat : 49.2836255, Lng : -123.1149002, Q1 : 0.868560612202, Q2 : 0.0639677941799, Q3 : -0.129701569676, Q4 : 0.47401279211}
2019-04-14 11:34:32.41: SIM {TimeUS : 59434550, Roll : -0.32, Pitch : -16.65, Yaw : 56.77, Alt : 49.2900009155, Lat : 49.2836274, Lng : -123.1148959, Q1 : 0.870673120022, Q2 : 0.0663670748472, Q3 : -0.128744289279, Q4 : 0.47005173564}
2019-04-14 11:34:32.52: SIM {TimeUS : 59535343, Roll : 0.03, Pitch : -16.68, Yaw : 56.2, Alt : 49.2900009155, Lat : 49.2836294, Lng : -123.1148914, Q1 : 0.872741878033, Q2 : 0.068652190268, Q3 : -0.127860769629, Q4 : 0.466111689806}
2019-04-14 11:34:32.61: SIM {TimeUS : 59635303, Roll : 0.33, Pitch : -16.72, Yaw : 55.71, Alt : 49.2900009155, Lat : 49.2836316, Lng : -123.1148868, Q1 : 0.874525129795, Q2 : 0.0705404281616, Q3 : -0.127199888229, Q4 : 0.462655395269}
2019-04-14 11:34:32.71: SIM {TimeUS : 59735263, Roll : 0.54, Pitch : -16.75, Yaw : 55.32, Alt : 49.2900009155, Lat : 49.2836335, Lng : -123.1148823, Q1 : 0.875908613205, Q2 : 0.0718268752098, Q3 : -0.126826614141, Q4 : 0.459934830666}
2019-04-14 11:34:32.81: SIM {TimeUS : 59835223, Roll : 0.66, Pitch : -16.78, Yaw : 55.07, Alt : 49.2900009155, Lat : 49.2836357, Lng : -123.1148777, Q1 : 0.876816391945, Q2 : 0.0725320503116, Q3 : -0.126782432199, Q4 : 0.458102971315}
2019-04-14 11:34:32.91: SIM {TimeUS : 59935183, Roll : 0.68, Pitch : -16.82, Yaw : 54.95, Alt : 49.2900009155, Lat : 49.2836377, Lng : -123.1148731, Q1 : 0.877232551575, Q2 : 0.0727150887251, Q3 : -0.127065509558, Q4 : 0.457197964191}
2019-04-14 11:34:33.01: SIM {TimeUS : 60035143, Roll : 0.62, Pitch : -16.86, Yaw : 54.95, Alt : 49.2900009155, Lat : 49.2836397, Lng : -123.1148684, Q1 : 0.8772097826, Q2 : 0.0724896863103, Q3 : -0.127599701285, Q4 : 0.457128614187}
2019-04-14 11:34:33.11: SIM {TimeUS : 60135103, Roll : 0.5, Pitch : -16.9, Yaw : 55.05, Alt : 49.2900009155, Lat : 49.2836419, Lng : -123.1148637, Q1 : 0.87684571743, Q2 : 0.0718065574765, Q3 : -0.128348723054, Q4 : 0.457724839449}
2019-04-14 11:34:33.21: SIM {TimeUS : 60235063, Roll : 0.33, Pitch : -16.94, Yaw : 55.22, Alt : 49.2999992371, Lat : 49.2836439, Lng : -123.1148588, Q1 : 0.876238524914, Q2 : 0.0708424374461, Q3 : -0.129171177745, Q4 : 0.458805173635}
2019-04-14 11:34:33.31: SIM {TimeUS : 60335023, Roll : 0.15, Pitch : -16.97, Yaw : 55.42, Alt : 49.2999992371, Lat : 49.2836461, Lng : -123.1148542, Q1 : 0.875495493412, Q2 : 0.0697888657451, Q3 : -0.130034506321, Q4 : 0.460139334202}
2019-04-14 11:34:33.41: SIM {TimeUS : 60434983, Roll : 0.0, Pitch : -17.01, Yaw : 55.63, Alt : 49.2999992371, Lat : 49.2836481, Lng : -123.1148494, Q1 : 0.874694824219, Q2 : 0.0690518245101, Q3 : -0.130825012922, Q4 : 0.461546927691}
2019-04-14 11:34:33.51: SIM {TimeUS : 60534943, Roll : -0.11, Pitch : -17.06, Yaw : 55.82, Alt : 49.2999992371, Lat : 49.2836503, Lng : -123.1148445, Q1 : 0.873954236507, Q2 : 0.0685728490353, Q3 : -0.131540462375, Q4 : 0.462816238403}
2019-04-14 11:34:33.61: SIM {TimeUS : 60634903, Roll : -0.18, Pitch : -17.1, Yaw : 55.97, Alt : 49.2999992371, Lat : 49.2836524, Lng : -123.1148397, Q1 : 0.873353481293, Q2 : 0.0683624967933, Q3 : -0.132094353437, Q4 : 0.463822573423}
2019-04-14 11:34:33.71: SIM {TimeUS : 60734863, Roll : -0.21, Pitch : -17.14, Yaw : 56.06, Alt : 49.2999992371, Lat : 49.2836546, Lng : -123.1148348, Q1 : 0.872943580151, Q2 : 0.0684346407652, Q3 : -0.13244767487, Q4 : 0.464482396841}
2019-04-14 11:34:33.81: SIM {TimeUS : 60834823, Roll : -0.21, Pitch : -17.17, Yaw : 56.1, Alt : 49.2999992371, Lat : 49.2836567, Lng : -123.1148299, Q1 : 0.872749984264, Q2 : 0.0685634687543, Q3 : -0.132677331567, Q4 : 0.464761555195}
2019-04-14 11:34:33.91: SIM {TimeUS : 60934783, Roll : -0.21, Pitch : -17.18, Yaw : 56.09, Alt : 49.2999992371, Lat : 49.283659, Lng : -123.1148248, Q1 : 0.872779488564, Q2 : 0.0686555951834, Q3 : -0.132750868797, Q4 : 0.464671462774}
2019-04-14 11:34:34.01: SIM {TimeUS : 61034743, Roll : -0.18, Pitch : -17.2, Yaw : 56.03, Alt : 49.2999992371, Lat : 49.283661, Lng : -123.11482, Q1 : 0.872979283333, Q2 : 0.0688201487064, Q3 : -0.132807776332, Q4 : 0.464255422354}
2019-04-14 11:34:34.11: SIM {TimeUS : 61134703, Roll : -0.13, Pitch : -17.21, Yaw : 55.94, Alt : 49.3100013733, Lat : 49.2836633, Lng : -123.114815, Q1 : 0.873297512531, Q2 : 0.0691533014178, Q3 : -0.132732540369, Q4 : 0.463628411293}
2019-04-14 11:34:34.21: SIM {TimeUS : 61234663, Roll : -0.06, Pitch : -17.22, Yaw : 55.83, Alt : 49.3100013733, Lat : 49.2836656, Lng : -123.11481, Q1 : 0.873679161072, Q2 : 0.0696345865726, Q3 : -0.132604807615, Q4 : 0.462873339653}
2019-04-14 11:34:34.31: SIM {TimeUS : 61334623, Roll : 0.03, Pitch : -17.26, Yaw : 55.72, Alt : 49.3100013733, Lat : 49.2836677, Lng : -123.114805, Q1 : 0.874044775963, Q2 : 0.0703768581152, Q3 : -0.132557690144, Q4 : 0.462083637714}
2019-04-14 11:34:34.41: SIM {TimeUS : 61434583, Roll : 0.11, Pitch : -17.31, Yaw : 55.61, Alt : 49.3100013733, Lat : 49.28367, Lng : -123.1148, Q1 : 0.874368071556, Q2 : 0.0711261108518, Q3 : -0.132715269923, Q4 : 0.461311340332}
2019-04-14 11:34:34.51: SIM {TimeUS : 61534543, Roll : 0.16, Pitch : -17.35, Yaw : 55.51, Alt : 49.3100013733, Lat : 49.2836723, Lng : -123.114795, Q1 : 0.874677538872, Q2 : 0.0715469643474, Q3 : -0.132795274258, Q4 : 0.460636168718}
2019-04-14 11:34:34.62: SIM {TimeUS : 61635336, Roll : 0.2, Pitch : -17.35, Yaw : 55.44, Alt : 49.3100013733, Lat : 49.2836744, Lng : -123.1147898, Q1 : 0.874949872494, Q2 : 0.071719892323, Q3 : -0.132729783654, Q4 : 0.460110664368}
2019-04-14 11:34:34.71: SIM {TimeUS : 61735296, Roll : 0.2, Pitch : -17.36, Yaw : 55.39, Alt : 49.3100013733, Lat : 49.2836767, Lng : -123.1147848, Q1 : 0.875136613846, Q2 : 0.071737959981, Q3 : -0.132795765996, Q4 : 0.459733575583}
2019-04-14 11:34:34.81: SIM {TimeUS : 61835256, Roll : 0.19, Pitch : -17.38, Yaw : 55.36, Alt : 49.3100013733, Lat : 49.283679, Lng : -123.1147797, Q1 : 0.875224649906, Q2 : 0.0717321932316, Q3 : -0.133067652583, Q4 : 0.459488123655}
2019-04-14 11:34:34.91: SIM {TimeUS : 61935216, Roll : 0.18, Pitch : -17.41, Yaw : 55.35, Alt : 49.3100013733, Lat : 49.2836813, Lng : -123.1147745, Q1 : 0.875232100487, Q2 : 0.0717789977789, Q3 : -0.133317068219, Q4 : 0.459394335747}
2019-04-14 11:34:35.01: SIM {TimeUS : 62035176, Roll : 0.17, Pitch : -17.45, Yaw : 55.36, Alt : 49.3100013733, Lat : 49.2836835, Lng : -123.1147694, Q1 : 0.87517529726, Q2 : 0.0718105956912, Q3 : -0.133653625846, Q4 : 0.459399789572}
2019-04-14 11:34:35.11: SIM {TimeUS : 62135136, Roll : 0.15, Pitch : -17.47, Yaw : 55.38, Alt : 49.3100013733, Lat : 49.2836858, Lng : -123.1147643, Q1 : 0.875096678734, Q2 : 0.0717678293586, Q3 : -0.133920907974, Q4 : 0.459478437901}
2019-04-14 11:34:35.21: SIM {TimeUS : 62235096, Roll : 0.13, Pitch : -17.5, Yaw : 55.39, Alt : 49.3100013733, Lat : 49.2836882, Lng : -123.1147591, Q1 : 0.875003635883, Q2 : 0.0717625245452, Q3 : -0.13416685164, Q4 : 0.459584653378}
2019-04-14 11:34:35.31: SIM {TimeUS : 62335056, Roll : 0.11, Pitch : -17.51, Yaw : 55.41, Alt : 49.3199996948, Lat : 49.2836904, Lng : -123.1147539, Q1 : 0.874924182892, Q2 : 0.0717135220766, Q3 : -0.13433650136, Q4 : 0.459694027901}
2019-04-14 11:34:35.41: SIM {TimeUS : 62435016, Roll : 0.11, Pitch : -17.53, Yaw : 55.43, Alt : 49.3199996948, Lat : 49.2836926, Lng : -123.1147487, Q1 : 0.874846458435, Q2 : 0.0717683807015, Q3 : -0.134453266859, Q4 : 0.459799259901}
2019-04-14 11:34:35.51: SIM {TimeUS : 62534976, Roll : 0.12, Pitch : -17.55, Yaw : 55.44, Alt : 49.3199996948, Lat : 49.283695, Lng : -123.1147435, Q1 : 0.874782383442, Q2 : 0.0718994885683, Q3 : -0.134575769305, Q4 : 0.45986482501}
2019-04-14 11:34:35.61: SIM {TimeUS : 62634936, Roll : 0.11, Pitch : -17.58, Yaw : 55.44, Alt : 49.3199996948, Lat : 49.2836974, Lng : -123.1147383, Q1 : 0.874742090702, Q2 : 0.0720073878765, Q3 : -0.134853646159, Q4 : 0.459843218327}
2019-04-14 11:34:35.71: SIM {TimeUS : 62734896, Roll : 0.08, Pitch : -17.63, Yaw : 55.43, Alt : 49.3199996948, Lat : 49.2836997, Lng : -123.1147331, Q1 : 0.874733388424, Q2 : 0.0719567015767, Q3 : -0.135303139687, Q4 : 0.459735542536}
2019-04-14 11:34:35.81: SIM {TimeUS : 62834856, Roll : 0.06, Pitch : -17.67, Yaw : 55.42, Alt : 49.3199996948, Lat : 49.283702, Lng : -123.1147279, Q1 : 0.874743998051, Q2 : 0.0719573199749, Q3 : -0.13575387001, Q4 : 0.459582448006}
2019-04-14 11:34:35.91: SIM {TimeUS : 62934816, Roll : 0.07, Pitch : -17.71, Yaw : 55.4, Alt : 49.3199996948, Lat : 49.2837042, Lng : -123.1147226, Q1 : 0.874776124954, Q2 : 0.0721455961466, Q3 : -0.135983690619, Q4 : 0.459423780441}
2019-04-14 11:34:36.01: SIM {TimeUS : 63034776, Roll : 0.1, Pitch : -17.71, Yaw : 55.37, Alt : 49.3199996948, Lat : 49.2837066, Lng : -123.1147173, Q1 : 0.874856710434, Q2 : 0.0723408907652, Q3 : -0.135892644525, Q4 : 0.459266573191}
2019-04-14 11:34:36.11: SIM {TimeUS : 63134736, Roll : 0.13, Pitch : -17.68, Yaw : 55.35, Alt : 49.3199996948, Lat : 49.2837089, Lng : -123.1147121, Q1 : 0.87497317791, Q2 : 0.072476439178, Q3 : -0.135602504015, Q4 : 0.459109038115}
2019-04-14 11:34:36.21: SIM {TimeUS : 63234696, Roll : 0.14, Pitch : -17.67, Yaw : 55.32, Alt : 49.3199996948, Lat : 49.2837113, Lng : -123.1147068, Q1 : 0.875094592571, Q2 : 0.0724562481046, Q3 : -0.135450586677, Q4 : 0.458925575018}
2019-04-14 11:34:36.31: SIM {TimeUS : 63334656, Roll : 0.15, Pitch : -17.65, Yaw : 55.29, Alt : 49.3199996948, Lat : 49.2837137, Lng : -123.1147015, Q1 : 0.875216543674, Q2 : 0.0723811909556, Q3 : -0.135355934501, Q4 : 0.458732843399}
2019-04-14 11:34:36.41: SIM {TimeUS : 63434616, Roll : 0.14, Pitch : -17.64, Yaw : 55.27, Alt : 49.3199996948, Lat : 49.2837161, Lng : -123.1146961, Q1 : 0.875336170197, Q2 : 0.0722890645266, Q3 : -0.135298103094, Q4 : 0.458536028862}
2019-04-14 11:34:36.51: SIM {TimeUS : 63534576, Roll : 0.14, Pitch : -17.66, Yaw : 55.24, Alt : 49.3199996948, Lat : 49.2837184, Lng : -123.1146908, Q1 : 0.87541860342, Q2 : 0.072282962501, Q3 : -0.135444775224, Q4 : 0.458336293697}
2019-04-14 11:34:36.61: SIM {TimeUS : 63634536, Roll : 0.14, Pitch : -17.69, Yaw : 55.22, Alt : 49.3199996948, Lat : 49.2837208, Lng : -123.1146855, Q1 : 0.875474512577, Q2 : 0.0723449960351, Q3 : -0.135694801807, Q4 : 0.458145707846}
2019-04-14 11:34:36.71: SIM {TimeUS : 63735329, Roll : 0.13, Pitch : -17.73, Yaw : 55.2, Alt : 49.3199996948, Lat : 49.2837232, Lng : -123.1146801, Q1 : 0.875491797924, Q2 : 0.0724664106965, Q3 : -0.136099502444, Q4 : 0.45797342062}
2019-04-14 11:34:36.81: SIM {TimeUS : 63835289, Roll : 0.13, Pitch : -17.79, Yaw : 55.19, Alt : 49.3300018311, Lat : 49.2837255, Lng : -123.1146748, Q1 : 0.87548071146, Q2 : 0.0726791396737, Q3 : -0.136516302824, Q4 : 0.457836866379}
2019-04-14 11:34:36.91: SIM {TimeUS : 63935249, Roll : 0.14, Pitch : -17.81, Yaw : 55.18, Alt : 49.3300018311, Lat : 49.2837278, Lng : -123.1146694, Q1 : 0.875479698181, Q2 : 0.0728792101145, Q3 : -0.136669039726, Q4 : 0.457761406898}
2019-04-14 11:34:37.01: SIM {TimeUS : 64035209, Roll : 0.15, Pitch : -17.84, Yaw : 55.17, Alt : 49.3300018311, Lat : 49.2837302, Lng : -123.114664, Q1 : 0.87548583746, Q2 : 0.0729723572731, Q3 : -0.136832401156, Q4 : 0.457686007023}
2019-04-14 11:34:37.11: SIM {TimeUS : 64135169, Roll : 0.14, Pitch : -17.85, Yaw : 55.16, Alt : 49.3300018311, Lat : 49.2837326, Lng : -123.1146587, Q1 : 0.875499904156, Q2 : 0.072995595634, Q3 : -0.136959314346, Q4 : 0.457617461681}
2019-04-14 11:34:37.21: SIM {TimeUS : 64235129, Roll : 0.15, Pitch : -17.85, Yaw : 55.16, Alt : 49.3300018311, Lat : 49.2837351, Lng : -123.1146533, Q1 : 0.875528335571, Q2 : 0.0730306506157, Q3 : -0.136894106865, Q4 : 0.45757701993}
2019-04-14 11:34:37.31: SIM {TimeUS : 64335089, Roll : 0.17, Pitch : -17.86, Yaw : 55.15, Alt : 49.3300018311, Lat : 49.2837375, Lng : -123.1146479, Q1 : 0.875538229942, Q2 : 0.0731649398804, Q3 : -0.136920079589, Q4 : 0.45752876997}
2019-04-14 11:34:37.41: SIM {TimeUS : 64435049, Roll : 0.17, Pitch : -17.88, Yaw : 55.14, Alt : 49.3300018311, Lat : 49.2837399, Lng : -123.1146424, Q1 : 0.875538051128, Q2 : 0.0732893496752, Q3 : -0.137089312077, Q4 : 0.457458555698}
2019-04-14 11:34:37.51: SIM {TimeUS : 64535009, Roll : 0.17, Pitch : -17.9, Yaw : 55.13, Alt : 49.3300018311, Lat : 49.2837423, Lng : -123.1146371, Q1 : 0.875543475151, Q2 : 0.0733867138624, Q3 : -0.137226447463, Q4 : 0.457391500473}
2019-04-14 11:34:37.61: SIM {TimeUS : 64634969, Roll : 0.18, Pitch : -17.9, Yaw : 55.12, Alt : 49.3300018311, Lat : 49.2837447, Lng : -123.1146317, Q1 : 0.875578403473, Q2 : 0.0734310597181, Q3 : -0.137211680412, Q4 : 0.45732191205}
2019-04-14 11:34:37.71: SIM {TimeUS : 64734929, Roll : 0.18, Pitch : -17.9, Yaw : 55.11, Alt : 49.3300018311, Lat : 49.2837471, Lng : -123.1146263, Q1 : 0.875624477863, Q2 : 0.0733901262283, Q3 : -0.137247368693, Q4 : 0.457229524851}
2019-04-14 11:34:37.81: SIM {TimeUS : 64834889, Roll : 0.16, Pitch : -17.92, Yaw : 55.1, Alt : 49.3300018311, Lat : 49.2837495, Lng : -123.1146209, Q1 : 0.875661849976, Q2 : 0.0733134150505, Q3 : -0.137484669685, Q4 : 0.457099020481}
2019-04-14 11:34:37.91: SIM {TimeUS : 64934849, Roll : 0.13, Pitch : -17.96, Yaw : 55.08, Alt : 49.3300018311, Lat : 49.2837519, Lng : -123.1146154, Q1 : 0.875690758228, Q2 : 0.0732275992632, Q3 : -0.137885659933, Q4 : 0.456936478615}
2019-04-14 11:34:38.01: SIM {TimeUS : 65034809, Roll : 0.12, Pitch : -17.97, Yaw : 55.07, Alt : 49.3300018311, Lat : 49.2837543, Lng : -123.11461, Q1 : 0.875752687454, Q2 : 0.0731286332011, Q3 : -0.138003244996, Q4 : 0.456798195839}
2019-04-14 11:34:38.11: SIM {TimeUS : 65134769, Roll : 0.13, Pitch : -17.95, Yaw : 55.05, Alt : 49.3300018311, Lat : 49.2837568, Lng : -123.1146046, Q1 : 0.875827252865, Q2 : 0.0731270760298, Q3 : -0.137858465314, Q4 : 0.456699132919}
2019-04-14 11:34:38.21: SIM {TimeUS : 65234729, Roll : 0.15, Pitch : -17.94, Yaw : 55.04, Alt : 49.3300018311, Lat : 49.2837592, Lng : -123.1145991, Q1 : 0.875889539719, Q2 : 0.0732428431511, Q3 : -0.137665390968, Q4 : 0.456619352102}
2019-04-14 11:34:38.31: SIM {TimeUS : 65334689, Roll : 0.16, Pitch : -17.94, Yaw : 55.02, Alt : 49.3400001526, Lat : 49.2837616, Lng : -123.1145936, Q1 : 0.875934898853, Q2 : 0.07332996279, Q3 : -0.137680053711, Q4 : 0.456513911486}
2019-04-14 11:34:38.41: SIM {TimeUS : 65434649, Roll : 0.15, Pitch : -17.96, Yaw : 55.01, Alt : 49.3400001526, Lat : 49.283764, Lng : -123.1145882, Q1 : 0.875970780849, Q2 : 0.0733067020774, Q3 : -0.137892276049, Q4 : 0.456384778023}
2019-04-14 11:34:38.51: SIM {TimeUS : 65534609, Roll : 0.13, Pitch : -17.99, Yaw : 55.0, Alt : 49.3400001526, Lat : 49.2837665, Lng : -123.1145827, Q1 : 0.876006782055, Q2 : 0.0732022225857, Q3 : -0.138183832169, Q4 : 0.456244260073}
2019-04-14 11:34:38.61: SIM {TimeUS : 65634569, Roll : 0.11, Pitch : -18.01, Yaw : 54.98, Alt : 49.3400001526, Lat : 49.2837689, Lng : -123.1145773, Q1 : 0.87603777647, Q2 : 0.0731623023748, Q3 : -0.138434067369, Q4 : 0.456115275621}
2019-04-14 11:34:38.72: SIM {TimeUS : 65735362, Roll : 0.12, Pitch : -18.04, Yaw : 54.97, Alt : 49.3400001526, Lat : 49.2837714, Lng : -123.1145717, Q1 : 0.876058936119, Q2 : 0.0733036771417, Q3 : -0.138598620892, Q4 : 0.456001937389}
2019-04-14 11:34:38.81: SIM {TimeUS : 65835322, Roll : 0.13, Pitch : -18.05, Yaw : 54.96, Alt : 49.3400001526, Lat : 49.2837738, Lng : -123.1145663, Q1 : 0.876080989838, Q2 : 0.0734583064914, Q3 : -0.138698920608, Q4 : 0.455904096365}
2019-04-14 11:34:38.91: SIM {TimeUS : 65935282, Roll : 0.16, Pitch : -18.06, Yaw : 54.95, Alt : 49.3400001526, Lat : 49.2837763, Lng : -123.1145608, Q1 : 0.876097023487, Q2 : 0.0736796483397, Q3 : -0.138663545251, Q4 : 0.455848425627}
2019-04-14 11:34:39.01: SIM {TimeUS : 66035242, Roll : 0.17, Pitch : -18.08, Yaw : 54.94, Alt : 49.3400001526, Lat : 49.2837787, Lng : -123.1145553, Q1 : 0.876106500626, Q2 : 0.0738531798124, Q3 : -0.138710215688, Q4 : 0.455787926912}
2019-04-14 11:34:39.11: SIM {TimeUS : 66135202, Roll : 0.19, Pitch : -18.09, Yaw : 54.93, Alt : 49.3400001526, Lat : 49.2837812, Lng : -123.1145498, Q1 : 0.876112282276, Q2 : 0.0740310996771, Q3 : -0.138770550489, Q4 : 0.455729603767}
2019-04-14 11:34:39.21: SIM {TimeUS : 66235162, Roll : 0.21, Pitch : -18.11, Yaw : 54.92, Alt : 49.3400001526, Lat : 49.2837836, Lng : -123.1145443, Q1 : 0.876113712788, Q2 : 0.0742145180702, Q3 : -0.138830065727, Q4 : 0.45567882061}
2019-04-14 11:34:39.31: SIM {TimeUS : 66335122, Roll : 0.23, Pitch : -18.12, Yaw : 54.91, Alt : 49.3400001526, Lat : 49.2837861, Lng : -123.1145388, Q1 : 0.876106739044, Q2 : 0.0744639337063, Q3 : -0.138833165169, Q4 : 0.455650627613}
2019-04-14 11:34:39.41: SIM {TimeUS : 66435082, Roll : 0.26, Pitch : -18.14, Yaw : 54.91, Alt : 49.3400001526, Lat : 49.2837885, Lng : -123.1145333, Q1 : 0.876098632812, Q2 : 0.0747057572007, Q3 : -0.138835042715, Q4 : 0.455626010895}
2019-04-14 11:34:39.51: SIM {TimeUS : 66535042, Roll : 0.24, Pitch : -18.13, Yaw : 54.9, Alt : 49.3400001526, Lat : 49.283791, Lng : -123.1145278, Q1 : 0.876135885715, Q2 : 0.074561804533, Q3 : -0.13884665072, Q4 : 0.455574393272}
2019-04-14 11:34:39.61: SIM {TimeUS : 66635002, Roll : 0.21, Pitch : -18.13, Yaw : 54.9, Alt : 49.3499984741, Lat : 49.2837934, Lng : -123.1145223, Q1 : 0.876171529293, Q2 : 0.0743002519011, Q3 : -0.13902336359, Q4 : 0.455494701862}
