2019-04-14 11:31:42.60: SIM {TimeUS : 40016487, Roll : 0.0, Pitch : 0.0, Yaw : 0.0, Alt : 30.1000003815, Lat : 49.28357, Lng : -123.11502, Q1 : 1.0, Q2 : 0.0, Q3 : 0.0, Q4 : 0.0}
2019-04-14 11:31:42.71: SIM {TimeUS : 40135606, Roll : 0.0, Pitch : 0.0, Yaw : 0.0, Alt : 30.1000003815, Lat : 49.28357, Lng : -123.11502, Q1 : 1.0, Q2 : 0.0, Q3 : 0.0, Q4 : 0.0}
2019-04-14 11:31:42.81: SIM {TimeUS : 40235566, Roll : 0.0, Pitch : 0.0, Yaw : 0.0, Alt : 30.1000003815, Lat : 49.28357, Lng : -123.11502, Q1 : 1.0, Q2 : 0.0, Q3 : 0.0, Q4 : 0.0}
2019-04-14 11:31:42.91: SIM {TimeUS : 40335526, Roll : 0.0, Pitch : 0.0, Yaw : 0.0, Alt : 30.1000003815, Lat : 49.28357, Lng : -123.11502, Q1 : 1.0, Q2 : 0.0, Q3 : 0.0, Q4 : 0.0}
2019-04-14 11:31:43.01: SIM {TimeUS : 40435486, Roll : 0.0, Pitch : 0.0, Yaw : 0.0, Alt : 30.1000003815, Lat : 49.28357, Lng : -123.11502, Q1 : 1.0, Q2 : 0.0, Q3 : 0.0, Q4 : 0.0}
2019-04-14 11:31:43.11: SIM {TimeUS : 40535446, Roll : 0.0, Pitch : 0.0, Yaw : 0.0, Alt : 30.1000003815, Lat : 49.28357, Lng : -123.11502, Q1 : 1.0, Q2 : 0.0, Q3 : 0.0, Q4 : 0.0}
2019-04-14 11:31:43.21: SIM {TimeUS : 40635406, Roll : 0.0, Pitch : 0.0, Yaw : 0.0, Alt : 30.1000003815, Lat : 49.28357, Lng : -123.11502, Q1 : 1.0, Q2 : 0.0, Q3 : 0.0, Q4 : 0.0}
2019-04-14 11:31:43.31: SIM {TimeUS : 40735366, Roll : 0.0, Pitch : 0.0, Yaw : 0.0, Alt : 30.1000003815, Lat : 49.28357, Lng : -123.11502, Q1 : 1.0, Q2 : 0.0, Q3 : 0.0, Q4 : 0.0}
2019-04-14 11:31:43.41: SIM {TimeUS : 40835326, Roll : 0.0, Pitch : 0.0, Yaw : 0.0, Alt : 30.1000003815, Lat : 49.28357, Lng : -123.11502, Q1 : 1.0, Q2 : 0.0, Q3 : 0.0, Q4 : 0.0}
2019-04-14 11:31:43.51: SIM {TimeUS : 40935286, Roll : 0.0, Pitch : 0.0, Yaw : 0.0, Alt : 30.1000003815, Lat : 49.28357, Lng : -123.11502, Q1 : 1.0, Q2 : 0.0, Q3 : 0.0, Q4 : 0.0}
2019-04-14 11:31:43.61: SIM {TimeUS : 41035246, Roll : 0.0, Pitch : 0.0, Yaw : 0.0, Alt : 30.1000003815, Lat : 49.28357, Lng : -123.11502, Q1 : 1.0, Q2 : 0.0, Q3 : 0.0, Q4 : 0.0}
2019-04-14 11:31:43.71: SIM {TimeUS : 41135206, Roll : 0.0, Pitch : 0.0, Yaw : 0.0, Alt : 30.1000003815, Lat : 49.28357, Lng : -123.11502, Q1 : 1.0, Q2 : 0.0, Q3 : 0.0, Q4 : 0.0}
2019-04-14 11:31:43.81: SIM {TimeUS : 41235166, Roll : 0.0, Pitch : 0.0, Yaw : 0.0, Alt : 30.1000003815, Lat : 49.28357, Lng : -123.11502, Q1 : 1.0, Q2 : 0.0, Q3 : 0.0, Q4 : 0.0}
2019-04-14 11:31:43.91: SIM {TimeUS : 41335126, Roll : 0.0, Pitch : 0.0, Yaw : 0.0, Alt : 30.1000003815, Lat : 49.28357, Lng : -123.11502, Q1 : 1.0, Q2 : 0.0, Q3 : 0.0, Q4 : 0.0}
2019-04-14 11:31:44.01: SIM {TimeUS : 41435086, Roll : 0.0, Pitch : 0.0, Yaw : 0.0, Alt : 30.1000003815, Lat : 49.28357, Lng : -123.11502, Q1 : 1.0, Q2 : 0.0, Q3 : 0.0, Q4 : 0.0}
2019-04-14 11:31:44.11: SIM {TimeUS : 41535046, Roll : 0.0, Pitch : 0.0, Yaw : 0.0, Alt : 30.1000003815, Lat : 49.28357, Lng : -123.11502, Q1 : 1.0, Q2 : 0.0, Q3 : 0.0, Q4 : 0.0}
2019-04-14 11:31:44.21: SIM {TimeUS : 41635006, Roll : 0.0, Pitch : 0.0, Yaw : 0.0, Alt : 30.1000003815, Lat : 49.28357, Lng : -123.11502, Q1 : 1.0, Q2 : 0.0, Q3 : 0.0, Q4 : 0.0}
2019-04-14 11:31:44.31: SIM {TimeUS : 41734966, Roll : 0.0, Pitch : 0.0, Yaw : 0.0, Alt : 30.1000003815, Lat : 49.28357, Lng : -123.11502, Q1 : 1.0, Q2 : 0.0, Q3 : 0.0, Q4 : 0.0}
2019-04-14 11:31:44.41: SIM {TimeUS : 41834926, Roll : 0.0, Pitch : 0.0, Yaw : 0.0, Alt : 30.1000003815, Lat : 49.28357, Lng : -123.11502, Q1 : 1.0, Q2 : 0.0, Q3 : 0.0, Q4 : 0.0}
2019-04-14 11:31:44.51: SIM {TimeUS : 41934886, Roll : 0.0, Pitch : 0.0, Yaw : 0.0, Alt : 30.1000003815, Lat : 49.28357, Lng : -123.11502, Q1 : 1.0, Q2 : 0.0, Q3 : 0.0, Q4 : 0.0}
2019-04-14 11:31:44.61: SIM {TimeUS : 42034846, Roll : 0.0, Pitch : 0.0, Yaw : 0.0, Alt : 30.1000003815, Lat : 49.28357, Lng : -123.11502, Q1 : 1.0, Q2 : 0.0, Q3 : 0.0, Q4 : 0.0}
2019-04-14 11:31:44.71: SIM {TimeUS : 42135639, Roll : 0.0, Pitch : 0.0, Yaw : 0.0, Alt : 30.1000003815, Lat : 49.28357, Lng : -123.11502, Q1 : 1.0, Q2 : 0.0, Q3 : 0.0, Q4 : 0.0}
2019-04-14 11:31:44.81: SIM {TimeUS : 42235599, Roll : 0.0, Pitch : 0.0, Yaw : 0.0, Alt : 30.1000003815, Lat : 49.28357, Lng : -123.11502, Q1 : 1.0, Q2 : 0.0, Q3 : 0.0, Q4 : 0.0}
2019-04-14 11:31:44.91: SIM {TimeUS : 42335559, Roll : 0.0, Pitch : 0.0, Yaw : 360.0, Alt : 30.1000003815, Lat : 49.28357, Lng : -123.11502, Q1 : 1.0, Q2 : 0.0, Q3 : 0.0, Q4 : -3.64348308468e-11}
2019-04-14 11:31:45.01: SIM {TimeUS : 42435519, Roll : 0.0, Pitch : 0.0, Yaw : 0.0, Alt : 30.1000003815, Lat : 49.28357, Lng : -123.11502, Q1 : 1.0, Q2 : 0.0, Q3 : 0.0, Q4 : 1.10355766192e-10}
2019-04-14 11:31:45.11: SIM {TimeUS : 42535479, Roll : 0.0, Pitch : 0.0, Yaw : 360.0, Alt : 30.1000003815, Lat : 49.28357, Lng : -123.11502, Q1 : 1.0, Q2 : 0.0, Q3 : 0.0, Q4 : -1.36754565006e-07}
2019-04-14 11:31:45.21: SIM {TimeUS : 42635439, Roll : 0.0, Pitch : 0.0, Yaw : 359.99, Alt : 30.1000003815, Lat : 49.28357, Lng : -123.11502, Q1 : 1.0, Q2 : 0.0, Q3 : 0.0, Q4 : -3.14419793312e-07}
2019-04-14 11:31:45.31: SIM {TimeUS : 42735399, Roll : 0.0, Pitch : 0.0, Yaw : 359.99, Alt : 30.1000003815, Lat : 49.28357, Lng : -123.11502, Q1 : 1.0, Q2 : 0.0, Q3 : 0.0, Q4 : -4.98232736845e-07}
2019-04-14 11:31:45.41: SIM {TimeUS : 42835359, Roll : 0.0, Pitch : 0.0, Yaw : 359.99, Alt : 30.1000003815, Lat : 49.28357, Lng : -123.11502, Q1 : 1.0, Q2 : 0.0, Q3 : 0.0, Q4 : -7.13603128588e-07}
2019-04-14 11:31:45.51: SIM {TimeUS : 42935319, Roll : 0.0, Pitch : 0.0, Yaw : 359.99, Alt : 30.1000003815, Lat : 49.28357, Lng : -123.11502, Q1 : 1.0, Q2 : 0.0, Q3 : 0.0, Q4 : -9.0057989155e-07}
2019-04-14 11:31:45.61: SIM {TimeUS : 43035279, Roll : 0.0, Pitch : 0.0, Yaw : 359.99, Alt : 30.1000003815, Lat : 49.28357, Lng : -123.11502, Q1 : 1.0, Q2 : 0.0, Q3 : 0.0, Q4 : -1.09817619887e-06}
2019-04-14 11:31:45.71: SIM {TimeUS : 43135239, Roll : 0.0, Pitch : 0.0, Yaw : 359.99, Alt : 30.1000003815, Lat : 49.28357, Lng : -123.11502, Q1 : 1.0, Q2 : 0.0, Q3 : 0.0, Q4 : -1.29910597479e-06}
2019-04-14 11:31:45.81: SIM {TimeUS : 43235199, Roll : 0.0, Pitch : 0.0, Yaw : 359.99, Alt : 30.1100006104, Lat : 49.28357, Lng : -123.11502, Q1 : 1.0, Q2 : 0.0, Q3 : 0.0, Q4 : -1.53222788413e-06}
2019-04-14 11:31:45.91: SIM {TimeUS : 43335159, Roll : 0.0, Pitch : 0.0, Yaw : 359.99, Alt : 30.1399993896, Lat : 49.28357, Lng : -123.11502, Q1 : 1.0, Q2 : 0.0, Q3 : 0.0, Q4 : -1.76446303612e-06}
2019-04-14 11:31:46.01: SIM {TimeUS : 43435119, Roll : 0.0, Pitch : 0.0, Yaw : 359.99, Alt : 30.1599998474, Lat : 49.28357, Lng : -123.11502, Q1 : 1.0, Q2 : 0.0, Q3 : 0.0, Q4 : -1.9917854388e-06}
2019-04-14 11:31:46.11: SIM {TimeUS : 43535079, Roll : 0.0, Pitch : 0.0, Yaw : 359.99, Alt : 30.2000007629, Lat : 49.28357, Lng : -123.11502, Q1 : 1.0, Q2 : 0.0, Q3 : 0.0, Q4 : -2.26357974498e-06}
2019-04-14 11:31:46.21: SIM {TimeUS : 43635039, Roll : -0.09, Pitch : -0.09, Yaw : 359.99, Alt : 30.25, Lat : 49.28357, Lng : -123.11502, Q1 : 0.999999344349, Q2 : -0.000799732457381, Q3 : -0.000827121257316, Q4 : -1.08110098154e-05}
2019-04-14 11:31:46.31: SIM {TimeUS : 43734999, Roll : -0.37, Pitch : -0.38, Yaw : 359.99, Alt : 30.3400001526, Lat : 49.28357, Lng : -123.11502, Q1 : 0.999988853931, Q2 : -0.0032961666584, Q3 : -0.00337545154616, Q4 : -5.00215210195e-05}
2019-04-14 11:31:46.41: SIM {TimeUS : 43834959, Roll : -0.67, Pitch : -0.64, Yaw : 359.99, Alt : 30.4899997711, Lat : 49.28357, Lng : -123.11502, Q1 : 0.999966800213, Q2 : -0.00585937220603, Q3 : -0.00566262379289, Q4 : -0.000113075911941}
2019-04-14 11:31:46.51: SIM {TimeUS : 43934919, Roll : -0.83, Pitch : -0.74, Yaw : 359.98, Alt : 30.6499996185, Lat : 49.28357, Lng : -123.11502, Q1 : 0.999952375889, Q2 : -0.00725593231618, Q3 : -0.00652312906459, Q4 : -0.000190394654055}
2019-04-14 11:31:46.61: SIM {TimeUS : 44034879, Roll : -0.82, Pitch : -0.69, Yaw : 359.97, Alt : 30.7999992371, Lat : 49.28357, Lng : -123.11502, Q1 : 0.999955415726, Q2 : -0.00720463180915, Q3 : -0.00610331073403, Q4 : -0.000270682125119}
2019-04-14 11:31:46.71: SIM {TimeUS : 44134839, Roll : -0.69, Pitch : -0.55, Yaw : 359.96, Alt : 30.9599990845, Lat : 49.28357, Lng : -123.1150201, Q1 : 0.999969899654, Q2 : -0.00604273658246, Q3 : -0.00485681556165, Q4 : -0.000349194830051}
2019-04-14 11:31:46.81: SIM {TimeUS : 44235632, Roll : -0.49, Pitch : -0.37, Yaw : 359.95, Alt : 31.1100006104, Lat : 49.2835701, Lng : -123.1150202, Q1 : 0.999985396862, Q2 : -0.00430106325075, Q3 : -0.00323480018415, Q4 : -0.000421811884735}
2019-04-14 11:31:46.91: SIM {TimeUS : 44335592, Roll : -0.27, Pitch : -0.19, Yaw : 359.94, Alt : 31.2700004578, Lat : 49.2835701, Lng : -123.1150203, Q1 : 0.999995470047, Q2 : -0.00243642623536, Q3 : -0.00171300268266, Q4 : -0.00048444114509}
2019-04-14 11:31:47.01: SIM {TimeUS : 44435552, Roll : -0.08, Pitch : -0.08, Yaw : 359.93, Alt : 31.4400005341, Lat : 49.2835702, Lng : -123.1150204, Q1 : 0.999999344349, Q2 : -0.000740759889595, Q3 : -0.000705525744706, Q4 : -0.000532459816895}
2019-04-14 11:31:47.11: SIM {TimeUS : 44535512, Roll : 0.03, Pitch : 0.0, Yaw : 359.93, Alt : 31.6100006104, Lat : 49.2835702, Lng : -123.1150204, Q1 : 0.999999761581, Q2 : 0.000331916031428, Q3 : -8.57983759488e-05, Q4 : -0.000568433082663}
2019-04-14 11:31:47.21: SIM {TimeUS : 44635472, Roll : 0.07, Pitch : 0.02, Yaw : 359.93, Alt : 31.7900009155, Lat : 49.2835703, Lng : -123.1150205, Q1 : 0.999999582767, Q2 : 0.000658563454635, Q3 : 0.000230402147281, Q4 : -0.000593456381466}
2019-04-14 11:31:47.31: SIM {TimeUS : 44735432, Roll : 0.06, Pitch : 0.02, Yaw : 359.93, Alt : 31.9699993134, Lat : 49.2835703, Lng : -123.1150206, Q1 : 0.999999642372, Q2 : 0.000590758165345, Q3 : 0.000245589151746, Q4 : -0.000605484819971}
2019-04-14 11:31:47.41: SIM {TimeUS : 44835392, Roll : 0.05, Pitch : 0.02, Yaw : 359.93, Alt : 32.1599998474, Lat : 49.2835703, Lng : -123.1150206, Q1 : 0.999999701977, Q2 : 0.000514866726007, Q3 : 0.000231542057008, Q4 : -0.000591707474086}
2019-04-14 11:31:47.51: SIM {TimeUS : 44935352, Roll : 0.05, Pitch : 0.03, Yaw : 359.93, Alt : 32.3499984741, Lat : 49.2835703, Lng : -123.1150207, Q1 : 0.999999701977, Q2 : 0.00051108864136, Q3 : 0.000283332541585, Q4 : -0.000562087108847}
2019-04-14 11:31:47.61: SIM {TimeUS : 45035312, Roll : 0.07, Pitch : 0.04, Yaw : 359.93, Alt : 32.5499992371, Lat : 49.2835703, Lng : -123.1150208, Q1 : 0.999999582767, Q2 : 0.000621314276941, Q3 : 0.000379998906283, Q4 : -0.000530420744326}
2019-04-14 11:31:47.71: SIM {TimeUS : 45135272, Roll : 0.1, Pitch : 0.06, Yaw : 359.94, Alt : 32.7400016785, Lat : 49.2835703, Lng : -123.1150208, Q1 : 0.999999344349, Q2 : 0.000880797742866, Q3 : 0.000546768773347, Q4 : -0.000498688081279}
2019-04-14 11:31:47.81: SIM {TimeUS : 45235232, Roll : 0.13, Pitch : 0.09, Yaw : 359.94, Alt : 32.9399986267, Lat : 49.2835704, Lng : -123.1150208, Q1 : 0.999998867512, Q2 : 0.00114782981109, Q3 : 0.000840764841996, Q4 : -0.00047354499111}
2019-04-14 11:31:47.91: SIM {TimeUS : 45335192, Roll : 0.15, Pitch : 0.13, Yaw : 359.94, Alt : 33.1399993896, Lat : 49.2835704, Lng : -123.1150209, Q1 : 0.99999833107, Q2 : 0.00130971672479, Q3 : 0.00115914770868, Q4 : -0.000458640861325}
2019-04-14 11:31:48.01: SIM {TimeUS : 45435152, Roll : 0.15, Pitch : 0.15, Yaw : 359.94, Alt : 33.3499984741, Lat : 49.2835704, Lng : -123.1150209, Q1 : 0.999997973442, Q2 : 0.0013546817936, Q3 : 0.00139228557236, Q4 : -0.000450870080385}
2019-04-14 11:31:48.11: SIM {TimeUS : 45535112, Roll : 0.16, Pitch : 0.18, Yaw : 359.94, Alt : 33.5499992371, Lat : 49.2835704, Lng : -123.1150209, Q1 : 0.99999755621, Q2 : 0.00143536343239, Q3 : 0.0016251221532, Q4 : -0.000456710142316}
2019-04-14 11:31:48.21: SIM {TimeUS : 45635072, Roll : 0.17, Pitch : 0.19, Yaw : 359.94, Alt : 33.7599983215, Lat : 49.2835704, Lng : -123.1150209, Q1 : 0.999997258186, Q2 : 0.00154981599189, Q3 : 0.0017002930399, Q4 : -0.000466259283712}
2019-04-14 11:31:48.31: SIM {TimeUS : 45735032, Roll : 0.18, Pitch : 0.19, Yaw : 359.94, Alt : 33.9700012207, Lat : 49.2835704, Lng : -123.1150209, Q1 : 0.999997198582, Q2 : 0.00157524319366, Q3 : 0.00171315215994, Q4 : -0.00048433439224}
2019-04-14 11:31:48.41: SIM {TimeUS : 45834992, Roll : 0.16, Pitch : 0.18, Yaw : 359.94, Alt : 34.1800003052, Lat : 49.2835706, Lng : -123.1150209, Q1 : 0.99999755621, Q2 : 0.00139761855826, Q3 : 0.00165635731537, Q4 : -0.000508911965881}
2019-04-14 11:31:48.51: SIM {TimeUS : 45934952, Roll : 0.14, Pitch : 0.15, Yaw : 359.94, Alt : 34.3899993896, Lat : 49.2835706, Lng : -123.1150209, Q1 : 0.999998211861, Q2 : 0.00122546660714, Q3 : 0.00132199539803, Q4 : -0.000525062147062}
2019-04-14 11:31:48.61: SIM {TimeUS : 46034912, Roll : 0.12, Pitch : 0.09, Yaw : 359.93, Alt : 34.5999984741, Lat : 49.2835706, Lng : -123.1150209, Q1 : 0.999998927116, Q2 : 0.00107765651774, Q3 : 0.000803271250334, Q4 : -0.000531593861524}
2019-04-14 11:31:48.71: SIM {TimeUS : 46134872, Roll : 0.1, Pitch : 0.04, Yaw : 359.93, Alt : 34.8199996948, Lat : 49.2835706, Lng : -123.1150209, Q1 : 0.999999344349, Q2 : 0.000919130630791, Q3 : 0.000416480877902, Q4 : -0.000546491530258}
2019-04-14 11:31:48.81: SIM {TimeUS : 46234832, Roll : 0.08, Pitch : 0.02, Yaw : 359.93, Alt : 35.0299987793, Lat : 49.2835704, Lng : -123.1150209, Q1 : 0.999999523163, Q2 : 0.000771173916291, Q3 : 0.000252773694228, Q4 : -0.000577881233767}
2019-04-14 11:31:48.91: SIM {TimeUS : 46335625, Roll : 0.08, Pitch : 0.03, Yaw : 359.92, Alt : 35.25, Lat : 49.2835704, Lng : -123.1150209, Q1 : 0.999999463558, Q2 : 0.000726728350855, Q3 : 0.000333670206601, Q4 : -0.000621597515419}
2019-04-14 11:31:49.01: SIM {TimeUS : 46435585, Roll : 0.07, Pitch : 0.03, Yaw : 359.92, Alt : 35.4700012207, Lat : 49.2835704, Lng : -123.1150208, Q1 : 0.999999523163, Q2 : 0.000612500647549, Q3 : 0.000337695295457, Q4 : -0.000674069626257}
2019-04-14 11:31:49.11: SIM {TimeUS : 46535545, Roll : 0.04, Pitch : 0.03, Yaw : 359.91, Alt : 35.6899986267, Lat : 49.2835704, Lng : -123.1150208, Q1 : 0.999999582767, Q2 : 0.000386549829273, Q3 : 0.000342804210959, Q4 : -0.000726555008441}
2019-04-14 11:31:49.21: SIM {TimeUS : 46635505, Roll : 0.01, Pitch : 0.04, Yaw : 359.91, Alt : 35.9099998474, Lat : 49.2835704, Lng : -123.1150208, Q1 : 0.999999642372, Q2 : 0.000172653060872, Q3 : 0.000370619702153, Q4 : -0.000777368957642}
2019-04-14 11:31:49.31: SIM {TimeUS : 46735465, Roll : 0.0, Pitch : 0.05, Yaw : 359.9, Alt : 36.1300010681, Lat : 49.2835704, Lng : -123.1150208, Q1 : 0.999999523163, Q2 : 1.46335751197e-05, Q3 : 0.000450608029496, Q4 : -0.000823948124889}
2019-04-14 11:31:49.41: SIM {TimeUS : 46835425, Roll : -0.01, Pitch : 0.03, Yaw : 359.9, Alt : 36.3499984741, Lat : 49.2835704, Lng : -123.1150208, Q1 : 0.999999582767, Q2 : -0.000138611416332, Q3 : 0.000343256135238, Q4 : -0.000858705490828}
2019-04-14 11:31:49.51: SIM {TimeUS : 46935385, Roll : -0.02, Pitch : 0.01, Yaw : 359.89, Alt : 36.5699996948, Lat : 49.2835704, Lng : -123.1150207, Q1 : 0.999999582767, Q2 : -0.000210326776141, Q3 : 0.000130926127895, Q4 : -0.000894099008292}
2019-04-14 11:31:49.61: SIM {TimeUS : 47035345, Roll : -0.02, Pitch : 0.0, Yaw : 359.89, Alt : 36.7900009155, Lat : 49.2835704, Lng : -123.1150207, Q1 : 0.999999523163, Q2 : -0.00023949687602, Q3 : -7.97743705334e-05, Q4 : -0.00092077255249}
2019-04-14 11:31:49.71: SIM {TimeUS : 47135305, Roll : -0.02, Pitch : -0.02, Yaw : 359.89, Alt : 37.0200004578, Lat : 49.2835704, Lng : -123.1150207, Q1 : 0.999999523163, Q2 : -0.000237297950662, Q3 : -0.000245232804446, Q4 : -0.000933421659283}
2019-04-14 11:31:49.81: SIM {TimeUS : 47235265, Roll : -0.01, Pitch : -0.04, Yaw : 359.89, Alt : 37.2400016785, Lat : 49.2835704, Lng : -123.1150207, Q1 : 0.999999463558, Q2 : -0.000108642620035, Q3 : -0.000383691163734, Q4 : -0.000941704784054}
2019-04-14 11:31:49.91: SIM {TimeUS : 47335225, Roll : 0.0, Pitch : -0.06, Yaw : 359.89, Alt : 37.4700012207, Lat : 49.2835704, Lng : -123.1150207, Q1 : 0.999999403954, Q2 : -8.1044556282e-05, Q3 : -0.000544186332263, Q4 : -0.000945990323089}
2019-04-14 11:31:50.01: SIM {TimeUS : 47435185, Roll : -0.02, Pitch : -0.08, Yaw : 359.89, Alt : 37.6899986267, Lat : 49.2835704, Lng : -123.1150207, Q1 : 0.99999922514, Q2 : -0.000234224484302, Q3 : -0.000756452558562, Q4 : -0.000946441141423}
2019-04-14 11:31:50.11: SIM {TimeUS : 47535145, Roll : -0.06, Pitch : -0.1, Yaw : 359.89, Alt : 37.9199981689, Lat : 49.2835704, Lng : -123.1150207, Q1 : 0.999999046326, Q2 : -0.000525103823747, Q3 : -0.000886738125701, Q4 : -0.000955022755079}
2019-04-14 11:31:50.21: SIM {TimeUS : 47635105, Roll : -0.09, Pitch : -0.09, Yaw : 359.88, Alt : 38.1399993896, Lat : 49.2835704, Lng : -123.1150207, Q1 : 0.999998807907, Q2 : -0.000852898170706, Q3 : -0.000867275404744, Q4 : -0.000969710643403}
2019-04-14 11:31:50.31: SIM {TimeUS : 47735065, Roll : -0.12, Pitch : -0.09, Yaw : 359.88, Alt : 38.3699989319, Lat : 49.2835704, Lng : -123.1150206, Q1 : 0.999998629093, Q2 : -0.00107376824599, Q3 : -0.000785991374869, Q4 : -0.000985177699476}
2019-04-14 11:31:50.41: SIM {TimeUS : 47835025, Roll : -0.12, Pitch : -0.07, Yaw : 359.88, Alt : 38.5999984741, Lat : 49.2835704, Lng : -123.1150206, Q1 : 0.999998629093, Q2 : -0.00112380913924, Q3 : -0.000652977905702, Q4 : -0.000999257783405}
2019-04-14 11:31:50.51: SIM {TimeUS : 47934985, Roll : -0.1, Pitch : -0.04, Yaw : 359.88, Alt : 38.8300018311, Lat : 49.2835704, Lng : -123.1150206, Q1 : 0.999998927116, Q2 : -0.000957985874265, Q3 : -0.000408482126659, Q4 : -0.00101560109761}
2019-04-14 11:31:50.61: SIM {TimeUS : 48034945, Roll : -0.07, Pitch : -0.03, Yaw : 359.88, Alt : 39.0600013733, Lat : 49.2835704, Lng : -123.1150206, Q1 : 0.999999165535, Q2 : -0.000693999289069, Q3 : -0.000345687614754, Q4 : -0.00103546027094}
2019-04-14 11:31:50.71: SIM {TimeUS : 48134905, Roll : -0.06, Pitch : -0.04, Yaw : 359.87, Alt : 39.2900009155, Lat : 49.2835704, Lng : -123.1150206, Q1 : 0.99999922514, Q2 : -0.000535523111466, Q3 : -0.000361859740224, Q4 : -0.00106509856414}
2019-04-14 11:31:50.81: SIM {TimeUS : 48234865, Roll : -0.05, Pitch : -0.02, Yaw : 359.87, Alt : 39.5200004578, Lat : 49.2835704, Lng : -123.1150206, Q1 : 0.999999284744, Q2 : -0.000489408150315, Q3 : -0.000243976188358, Q4 : -0.00108939863276}
2019-04-14 11:31:50.91: SIM {TimeUS : 48334825, Roll : -0.07, Pitch : 0.0, Yaw : 359.87, Alt : 39.75, Lat : 49.2835704, Lng : -123.1150206, Q1 : 0.999999165535, Q2 : -0.000643184350338, Q3 : -2.26471547649e-05, Q4 : -0.00111082324293}
2019-04-14 11:31:51.01: SIM {TimeUS : 48435618, Roll : -0.07, Pitch : 0.02, Yaw : 359.87, Alt : 39.9799995422, Lat : 49.2835706, Lng : -123.1150206, Q1 : 0.99999910593, Q2 : -0.000624404638074, Q3 : 0.000240377718001, Q4 : -0.00113196705934}
2019-04-14 11:31:51.11: SIM {TimeUS : 48535578, Roll : -0.04, Pitch : 0.06, Yaw : 359.86, Alt : 40.2099990845, Lat : 49.2835706, Lng : -123.1150207, Q1 : 0.99999910593, Q2 : -0.00043452353566, Q3 : 0.000553712481633, Q4 : -0.00115360098425}
2019-04-14 11:31:51.21: SIM {TimeUS : 48635538, Roll : -0.03, Pitch : 0.06, Yaw : 359.86, Alt : 40.4399986267, Lat : 49.2835706, Lng : -123.1150207, Q1 : 0.99999910593, Q2 : -0.000262161542196, Q3 : 0.000604854314588, Q4 : -0.00116497918498}
2019-04-14 11:31:51.31: SIM {TimeUS : 48735498, Roll : 0.0, Pitch : 0.06, Yaw : 359.86, Alt : 40.6800003052, Lat : 49.2835706, Lng : -123.1150207, Q1 : 0.99999910593, Q2 : -3.82360158255e-05, Q3 : 0.000597081088927, Q4 : -0.00117314967792}
2019-04-14 11:31:51.41: SIM {TimeUS : 48835458, Roll : 0.02, Pitch : 0.07, Yaw : 359.86, Alt : 40.9099998474, Lat : 49.2835706, Lng : -123.1150207, Q1 : 0.999999046326, Q2 : 0.000252992118476, Q3 : 0.000682344834786, Q4 : -0.0011820725631}
2019-04-14 11:31:51.51: SIM {TimeUS : 48935418, Roll : 0.07, Pitch : 0.1, Yaw : 359.86, Alt : 41.1399993896, Lat : 49.2835706, Lng : -123.1150207, Q1 : 0.999998688698, Q2 : 0.000651324633509, Q3 : 0.000901518505998, Q4 : -0.0012025545584}
2019-04-14 11:31:51.61: SIM {TimeUS : 49035378, Roll : 0.1, Pitch : 0.13, Yaw : 359.85, Alt : 41.3699989319, Lat : 49.2835706, Lng : -123.1150207, Q1 : 0.999998152256, Q2 : 0.000906276400201, Q3 : 0.00116986979265, Q4 : -0.00123508484103}
2019-04-14 11:31:51.71: SIM {TimeUS : 49135338, Roll : 0.09, Pitch : 0.15, Yaw : 359.85, Alt : 41.6100006104, Lat : 49.2835706, Lng : -123.1150207, Q1 : 0.999997913837, Q2 : 0.000805300369393, Q3 : 0.00139456719626, Q4 : -0.00126030121464}
2019-04-14 11:31:51.81: SIM {TimeUS : 49235298, Roll : 0.04, Pitch : 0.17, Yaw : 359.85, Alt : 41.8400001526, Lat : 49.2835706, Lng : -123.1150207, Q1 : 0.999997913837, Q2 : 0.000424886296969, Q3 : 0.00154656404629, Q4 : -0.00128558033612}
2019-04-14 11:31:51.91: SIM {TimeUS : 49335258, Roll : 0.0, Pitch : 0.19, Yaw : 359.84, Alt : 42.0699996948, Lat : 49.2835706, Lng : -123.1150207, Q1 : 0.999997735023, Q2 : 3.25663131662e-05, Q3 : 0.00166083825752, Q4 : -0.00131282384973}
2019-04-14 11:31:52.01: SIM {TimeUS : 49435218, Roll : -0.01, Pitch : 0.17, Yaw : 359.84, Alt : 42.3100013733, Lat : 49.2835706, Lng : -123.1150207, Q1 : 0.999997973442, Q2 : -0.000126226965222, Q3 : 0.00151816755533, Q4 : -0.00134127784986}
2019-04-14 11:31:52.11: SIM {TimeUS : 49535178, Roll : -0.01, Pitch : 0.14, Yaw : 359.84, Alt : 42.5400009155, Lat : 49.2835706, Lng : -123.1150207, Q1 : 0.99999833107, Q2 : -0.000144869045471, Q3 : 0.00122943427414, Q4 : -0.00137313501909}
2019-04-14 11:31:52.21: SIM {TimeUS : 49635138, Roll : 0.0, Pitch : 0.13, Yaw : 359.83, Alt : 42.7799987793, Lat : 49.2835706, Lng : -123.1150207, Q1 : 0.99999833107, Q2 : -4.42132295575e-05, Q3 : 0.00116895022802, Q4 : -0.00140748801641}
2019-04-14 11:31:52.31: SIM {TimeUS : 49735098, Roll : 0.02, Pitch : 0.14, Yaw : 359.83, Alt : 43.0099983215, Lat : 49.2835706, Lng : -123.1150207, Q1 : 0.999998092651, Q2 : 0.000255554448813, Q3 : 0.00125511432998, Q4 : -0.00144492078107}
2019-04-14 11:31:52.41: SIM {TimeUS : 49835058, Roll : 0.08, Pitch : 0.15, Yaw : 359.83, Alt : 43.25, Lat : 49.2835706, Lng : -123.1150207, Q1 : 0.999997794628, Q2 : 0.000710898602847, Q3 : 0.00131252023857, Q4 : -0.00147603871301}
2019-04-14 11:31:52.51: SIM {TimeUS : 49935018, Roll : 0.12, Pitch : 0.13, Yaw : 359.82, Alt : 43.4799995422, Lat : 49.2835706, Lng : -123.1150207, Q1 : 0.999997615814, Q2 : 0.00105943996459, Q3 : 0.00115793419536, Q4 : -0.00150757690426}
2019-04-14 11:31:52.61: SIM {TimeUS : 50034978, Roll : 0.12, Pitch : 0.1, Yaw : 359.82, Alt : 43.7200012207, Lat : 49.2835706, Lng : -123.1150207, Q1 : 0.999997854233, Q2 : 0.00107533764094, Q3 : 0.000925723812543, Q4 : -0.00153721903916}
2019-04-14 11:31:52.71: SIM {TimeUS : 50134938, Roll : 0.08, Pitch : 0.08, Yaw : 359.82, Alt : 43.9500007629, Lat : 49.2835704, Lng : -123.1150207, Q1 : 0.999998271465, Q2 : 0.000702427350916, Q3 : 0.000744321267121, Q4 : -0.00154771341477}
2019-04-14 11:31:52.81: SIM {TimeUS : 50234898, Roll : 0.02, Pitch : 0.07, Yaw : 359.82, Alt : 44.1899986267, Lat : 49.2835704, Lng : -123.1150207, Q1 : 0.999998569489, Q2 : 0.000183607538929, Q3 : 0.000647347129416, Q4 : -0.00155525689479}
2019-04-14 11:31:52.91: SIM {TimeUS : 50334858, Roll : -0.02, Pitch : 0.07, Yaw : 359.82, Alt : 44.4300003052, Lat : 49.2835704, Lng : -123.1150207, Q1 : 0.999998509884, Q2 : -0.000180425733561, Q3 : 0.000687142601237, Q4 : -0.0015663288068}
2019-04-14 11:31:53.01: SIM {TimeUS : 50434818, Roll : -0.04, Pitch : 0.07, Yaw : 359.81, Alt : 44.6599998474, Lat : 49.2835704, Lng : -123.1150206, Q1 : 0.999998450279, Q2 : -0.000350467074895, Q3 : 0.000676123076119, Q4 : -0.00157974392641}
2019-04-14 11:31:53.11: SIM {TimeUS : 50535611, Roll : -0.03, Pitch : 0.06, Yaw : 359.81, Alt : 44.9000015259, Lat : 49.2835704, Lng : -123.1150206, Q1 : 0.999998509884, Q2 : -0.000334213546012, Q3 : 0.00056204223074, Q4 : -0.0015931999078}
2019-04-14 11:31:53.21: SIM {TimeUS : 50635571, Roll : -0.03, Pitch : 0.04, Yaw : 359.81, Alt : 45.1399993896, Lat : 49.2835704, Lng : -123.1150206, Q1 : 0.999998569489, Q2 : -0.000347503664671, Q3 : 0.000418133480707, Q4 : -0.00160883693025}
2019-04-14 11:31:53.31: SIM {TimeUS : 50735531, Roll : -0.03, Pitch : 0.03, Yaw : 359.81, Alt : 45.3699989319, Lat : 49.2835704, Lng : -123.1150206, Q1 : 0.999998569489, Q2 : -0.000300585059449, Q3 : 0.00028333690716, Q4 : -0.00163012591656}
2019-04-14 11:31:53.41: SIM {TimeUS : 50835491, Roll : -0.02, Pitch : 0.02, Yaw : 359.81, Alt : 45.6100006104, Lat : 49.2835703, Lng : -123.1150206, Q1 : 0.999998569489, Q2 : -0.000214434330701, Q3 : 0.000198490146431, Q4 : -0.00165718002245}
2019-04-14 11:31:53.51: SIM {TimeUS : 50935451, Roll : -0.02, Pitch : 0.01, Yaw : 359.8, Alt : 45.8400001526, Lat : 49.2835703, Lng : -123.1150206, Q1 : 0.999998569489, Q2 : -0.000223178023589, Q3 : 0.000167620077264, Q4 : -0.00168487871997}
2019-04-14 11:31:53.61: SIM {TimeUS : 51035411, Roll : -0.03, Pitch : 0.0, Yaw : 359.8, Alt : 46.0699996948, Lat : 49.2835703, Lng : -123.1150206, Q1 : 0.999998509884, Q2 : -0.000288741226541, Q3 : 5.41060508112e-05, Q4 : -0.00171331770252}
2019-04-14 11:31:53.71: SIM {TimeUS : 51135371, Roll : -0.03, Pitch : -0.01, Yaw : 359.79, Alt : 46.2999992371, Lat : 49.2835703, Lng : -123.1150205, Q1 : 0.999998390675, Q2 : -0.000330843264237, Q3 : -0.00016956483887, Q4 : -0.00174822926056}
2019-04-14 11:31:53.81: SIM {TimeUS : 51235331, Roll : -0.03, Pitch : -0.03, Yaw : 359.79, Alt : 46.5200004578, Lat : 49.2835703, Lng : -123.1150205, Q1 : 0.99999833107, Q2 : -0.000317448109854, Q3 : -0.000314279925078, Q4 : -0.00178795401007}
2019-04-14 11:31:53.91: SIM {TimeUS : 51335291, Roll : -0.02, Pitch : -0.04, Yaw : 359.79, Alt : 46.7400016785, Lat : 49.2835703, Lng : -123.1150205, Q1 : 0.999998211861, Q2 : -0.000250631885137, Q3 : -0.000409930915339, Q4 : -0.00183101487346}
2019-04-14 11:31:54.01: SIM {TimeUS : 51435251, Roll : -0.03, Pitch : -0.05, Yaw : 359.78, Alt : 46.9500007629, Lat : 49.2835703, Lng : -123.1150205, Q1 : 0.999998092651, Q2 : -0.000279471831163, Q3 : -0.000478074682178, Q4 : -0.00187185360119}
2019-04-14 11:31:54.11: SIM {TimeUS : 51535211, Roll : -0.05, Pitch : -0.05, Yaw : 359.78, Alt : 47.1599998474, Lat : 49.2835703, Lng : -123.1150205, Q1 : 0.999997973442, Q2 : -0.000445148791187, Q3 : -0.000495576241519, Q4 : -0.00190832465887}
2019-04-14 11:31:54.21: SIM {TimeUS : 51635171, Roll : -0.08, Pitch : -0.05, Yaw : 359.77, Alt : 47.3499984741, Lat : 49.2835703, Lng : -123.1150205, Q1 : 0.999997735023, Q2 : -0.000714558293112, Q3 : -0.000506387790665, Q4 : -0.0019426762592}
2019-04-14 11:31:54.31: SIM {TimeUS : 51735131, Roll : -0.1, Pitch : -0.05, Yaw : 359.77, Alt : 47.5400009155, Lat : 49.2835703, Lng : -123.1150205, Q1 : 0.99999755621, Q2 : -0.000916612043511, Q3 : -0.000470152794151, Q4 : -0.00197399640456}
2019-04-14 11:31:54.41: SIM {TimeUS : 51835091, Roll : -0.13, Pitch : -0.06, Yaw : 359.77, Alt : 47.7200012207, Lat : 49.2835703, Lng : -123.1150205, Q1 : 0.999997138977, Q2 : -0.00119443365838, Q3 : -0.000567152630538, Q4 : -0.00200058985502}
2019-04-14 11:31:54.51: SIM {TimeUS : 51935051, Roll : -0.15, Pitch : -0.07, Yaw : 359.76, Alt : 47.8899993896, Lat : 49.2835703, Lng : -123.1150205, Q1 : 0.999996781349, Q2 : -0.0013940668432, Q3 : -0.000649818044621, Q4 : -0.0020261388272}
2019-04-14 11:31:54.61: SIM {TimeUS : 52035011, Roll : -0.16, Pitch : -0.07, Yaw : 359.76, Alt : 48.0499992371, Lat : 49.2835703, Lng : -123.1150205, Q1 : 0.999996721745, Q2 : -0.00140585156623, Q3 : -0.000673185335472, Q4 : -0.00205167173408}
2019-04-14 11:31:54.71: SIM {TimeUS : 52134971, Roll : -0.14, Pitch : -0.07, Yaw : 359.76, Alt : 48.1899986267, Lat : 49.2835703, Lng : -123.1150205, Q1 : 0.999996840954, Q2 : -0.00128631421831, Q3 : -0.000612134404946, Q4 : -0.00207441067323}
2019-04-14 11:31:54.81: SIM {TimeUS : 52234931, Roll : -0.12, Pitch : -0.05, Yaw : 359.75, Alt : 48.3199996948, Lat : 49.2835703, Lng : -123.1150205, Q1 : 0.999997079372, Q2 : -0.00112795596942, Q3 : -0.000507257820573, Q4 : -0.00209562899545}
2019-04-14 11:31:54.91: SIM {TimeUS : 52334891, Roll : -0.1, Pitch : -0.05, Yaw : 359.75, Alt : 48.4399986267, Lat : 49.2835703, Lng : -123.1150205, Q1 : 0.999997258186, Q2 : -0.000876403937582, Q3 : -0.000486305914819, Q4 : -0.00211403681897}
2019-04-14 11:31:55.01: SIM {TimeUS : 52434851, Roll : -0.06, Pitch : -0.06, Yaw : 359.75, Alt : 48.5499992371, Lat : 49.2835703, Lng : -123.1150205, Q1 : 0.999997437, Q2 : -0.00056328001665, Q3 : -0.000522824760992, Q4 : -0.00213465234265}
2019-04-14 11:31:55.11: SIM {TimeUS : 52535644, Roll : -0.04, Pitch : -0.06, Yaw : 359.75, Alt : 48.6500015259, Lat : 49.2835703, Lng : -123.1150206, Q1 : 0.999997437, Q2 : -0.000355431518983, Q3 : -0.000567723822314, Q4 : -0.0021586753428}
2019-04-14 11:31:55.21: SIM {TimeUS : 52635604, Roll : -0.02, Pitch : -0.07, Yaw : 359.75, Alt : 48.7299995422, Lat : 49.2835703, Lng : -123.1150206, Q1 : 0.999997437, Q2 : -0.000263017165707, Q3 : -0.000619643658865, Q4 : -0.0021788305603}
2019-04-14 11:31:55.31: SIM {TimeUS : 52735564, Roll : 0.0, Pitch : -0.06, Yaw : 359.74, Alt : 48.7999992371, Lat : 49.2835703, Lng : -123.1150206, Q1 : 0.999997437, Q2 : -2.95706231555e-05, Q3 : -0.000572530901991, Q4 : -0.00219503021799}
2019-04-14 11:31:55.41: SIM {TimeUS : 52835524, Roll : 0.02, Pitch : -0.05, Yaw : 359.74, Alt : 48.8699989319, Lat : 49.2835703, Lng : -123.1150206, Q1 : 0.999997437, Q2 : 0.000215373991523, Q3 : -0.000457563146483, Q4 : -0.00221419567242}
2019-04-14 11:31:55.51: SIM {TimeUS : 52935484, Roll : 0.04, Pitch : -0.03, Yaw : 359.74, Alt : 48.9199981689, Lat : 49.2835703, Lng : -123.1150206, Q1 : 0.999997377396, Q2 : 0.000406327366363, Q3 : -0.000310555507895, Q4 : -0.00223527872004}
2019-04-14 11:31:55.61: SIM {TimeUS : 53035444, Roll : 0.05, Pitch : -0.01, Yaw : 359.74, Alt : 48.9700012207, Lat : 49.2835703, Lng : -123.1150206, Q1 : 0.999997377396, Q2 : 0.0004390758113, Q3 : -0.00015418799012, Q4 : -0.00225569284521}
2019-04-14 11:31:55.71: SIM {TimeUS : 53135404, Roll : 0.11, Pitch : -0.04, Yaw : 359.73, Alt : 49.0099983215, Lat : 49.2835703, Lng : -123.1150206, Q1 : 0.999996840954, Q2 : 0.000966587220319, Q3 : -0.000408634834457, Q4 : -0.0022796378471}
2019-04-14 11:31:55.81: SIM {TimeUS : 53235364, Roll : 0.32, Pitch : -0.21, Yaw : 359.73, Alt : 49.0499992371, Lat : 49.2835703, Lng : -123.1150206, Q1 : 0.999991476536, Q2 : 0.00287370430306, Q3 : -0.00185277825221, Q4 : -0.00231345300563}
2019-04-14 11:31:55.91: SIM {TimeUS : 53335324, Roll : 0.75, Pitch : -0.52, Yaw : 359.72, Alt : 49.0699996948, Lat : 49.2835703, Lng : -123.1150206, Q1 : 0.99996471405, Q2 : 0.00659717153758, Q3 : -0.00463713984936, Q4 : -0.00234764325432}
2019-04-14 11:31:56.01: SIM {TimeUS : 53435284, Roll : 1.39, Pitch : -0.97, Yaw : 359.71, Alt : 49.0999984741, Lat : 49.2835703, Lng : -123.1150206, Q1 : 0.999886572361, Q2 : 0.0121780363843, Q3 : -0.00853993557394, Q4 : -0.00236701685935}
2019-04-14 11:31:56.11: SIM {TimeUS : 53535244, Roll : 2.19, Pitch : -1.52, Yaw : 359.7, Alt : 49.1199989319, Lat : 49.2835704, Lng : -123.1150206, Q1 : 0.999725282192, Q2 : 0.0191227197647, Q3 : -0.0133480420336, Q4 : -0.00235458160751}
2019-04-14 11:31:56.21: SIM {TimeUS : 53635204, Roll : 3.05, Pitch : -2.09, Yaw : 359.68, Alt : 49.1399993896, Lat : 49.2835704, Lng : -123.1150205, Q1 : 0.999475121498, Q2 : 0.0265839975327, Q3 : -0.0183728542179, Q4 : -0.00229305634275}
2019-04-14 11:31:56.31: SIM {TimeUS : 53735164, Roll : 3.85, Pitch : -2.6, Yaw : 359.66, Alt : 49.1599998474, Lat : 49.2835706, Lng : -123.1150203, Q1 : 0.99917447567, Q2 : 0.0335315279663, Q3 : -0.0228330735117, Q4 : -0.00216930708848}
2019-04-14 11:31:56.41: SIM {TimeUS : 53835124, Roll : 4.48, Pitch : -3.01, Yaw : 359.65, Alt : 49.1699981689, Lat : 49.2835707, Lng : -123.1150201, Q1 : 0.998887121677, Q2 : 0.039041865617, Q3 : -0.0263882093132, Q4 : -0.00198243558407}
2019-04-14 11:31:56.51: SIM {TimeUS : 53935084, Roll : 4.93, Pitch : -3.33, Yaw : 359.65, Alt : 49.1800003052, Lat : 49.2835709, Lng : -123.1150199, Q1 : 0.99864679575, Q2 : 0.0429748147726, Q3 : -0.029234373942, Q4 : -0.00176106125582}
2019-04-14 11:31:56.61: SIM {TimeUS : 54035044, Roll : 5.26, Pitch : -3.59, Yaw : 359.66, Alt : 49.1899986267, Lat : 49.283571, Lng : -123.1150195, Q1 : 0.998454391956, Q2 : 0.0457722656429, Q3 : -0.0314871333539, Q4 : -0.00151653098874}
2019-04-14 11:31:56.71: SIM {TimeUS : 54135004, Roll : 5.51, Pitch : -3.83, Yaw : 359.67, Alt : 49.2000007629, Lat : 49.2835713, Lng : -123.115019, Q1 : 0.998281776905, Q2 : 0.0480146706104, Q3 : -0.033563669771, Q4 : -0.00125415902585}
2019-04-14 11:31:56.81: SIM {TimeUS : 54234964, Roll : 5.79, Pitch : -4.07, Yaw : 359.68, Alt : 49.2099990845, Lat : 49.2835715, Lng : -123.1150184, Q1 : 0.998091101646, Q2 : 0.0504237748682, Q3 : -0.0356457903981, Q4 : -0.000981325865723}
2019-04-14 11:31:56.91: SIM {TimeUS : 54334924, Roll : 6.1, Pitch : -4.3, Yaw : 359.68, Alt : 49.2200012207, Lat : 49.2835719, Lng : -123.1150177, Q1 : 0.997878313065, Q2 : 0.0530859678984, Q3 : -0.0376860834658, Q4 : -0.000704068806954}
2019-04-14 11:31:57.01: SIM {TimeUS : 54434884, Roll : 6.39, Pitch : -4.52, Yaw : 359.69, Alt : 49.2299995422, Lat : 49.2835721, Lng : -123.1150169, Q1 : 0.997668206692, Q2 : 0.0556297078729, Q3 : -0.0395383648574, Q4 : -0.000433986977441}
2019-04-14 11:31:57.11: SIM {TimeUS : 54534844, Roll : 6.63, Pitch : -4.67, Yaw : 359.7, Alt : 49.2299995422, Lat : 49.2835726, Lng : -123.115016, Q1 : 0.997495830059, Q2 : 0.0577074065804, Q3 : -0.0408893749118, Q4 : -0.000191614351934}
2019-04-14 11:31:57.21: SIM {TimeUS : 54635637, Roll : 6.8, Pitch : -4.78, Yaw : 359.71, Alt : 49.2400016785, Lat : 49.2835731, Lng : -123.115015, Q1 : 0.997371375561, Q2 : 0.0592019483447, Q3 : -0.0417792536318, Q4 : 2.60440938291e-05}
2019-04-14 11:31:57.31: SIM {TimeUS : 54735597, Roll : 6.91, Pitch : -4.85, Yaw : 359.72, Alt : 49.2400016785, Lat : 49.2835735, Lng : -123.1150139, Q1 : 0.997285962105, Q2 : 0.0601639561355, Q3 : -0.0424380302429, Q4 : 0.000178303555003}
2019-04-14 11:31:57.41: SIM {TimeUS : 54835557, Roll : 7.01, Pitch : -4.93, Yaw : 359.72, Alt : 49.25, Lat : 49.283574, Lng : -123.1150128, Q1 : 0.997204065323, Q2 : 0.0610593482852, Q3 : -0.043078083545, Q4 : 0.000275875645457}
2019-04-14 11:31:57.51: SIM {TimeUS : 54935517, Roll : 7.16, Pitch : -5.0, Yaw : 359.72, Alt : 49.25, Lat : 49.2835746, Lng : -123.1150116, Q1 : 0.997096717358, Q2 : 0.0623465068638, Q3 : -0.0437139421701, Q4 : 0.000367848289898}
2019-04-14 11:31:57.61: SIM {TimeUS : 55035477, Roll : 7.48, Pitch : -4.94, Yaw : 359.88, Alt : 49.25, Lat : 49.2835752, Lng : -123.1150102, Q1 : 0.996942698956, Q2 : 0.0651304274797, Q3 : -0.0431259945035, Q4 : 0.00185147917364}
2019-04-14 11:31:57.71: SIM {TimeUS : 55135437, Roll : 8.02, Pitch : -4.74, Yaw : 0.76, Alt : 49.2599983215, Lat : 49.2835759, Lng : -123.1150088, Q1 : 0.996649503708, Q2 : 0.0702043771744, Q3 : -0.0408632270992, Q4 : 0.00955828092992}
2019-04-14 11:31:57.81: SIM {TimeUS : 55235397, Roll : 8.63, Pitch : -4.69, Yaw : 3.0, Alt : 49.2599983215, Lat : 49.2835765, Lng : -123.1150072, Q1 : 0.995907008648, Q2 : 0.0762220770121, Q3 : -0.0388428010046, Q4 : 0.0291656982154}
2019-04-14 11:31:57.91: SIM {TimeUS : 55335357, Roll : 9.03, Pitch : -5.06, Yaw : 6.82, Alt : 49.2599983215, Lat : 49.2835773, Lng : -123.1150056, Q1 : 0.993945598602, Q2 : 0.0812025442719, Q3 : -0.0392634905875, Q4 : 0.0627435818315}
2019-04-14 11:31:58.01: SIM {TimeUS : 55435317, Roll : 9.02, Pitch : -5.93, Yaw : 12.11, Alt : 49.2599983215, Lat : 49.283578, Lng : -123.1150039, Q1 : 0.989571809769, Q2 : 0.0835580825806, Q3 : -0.0430529043078, Q4 : 0.109142959118}
2019-04-14 11:31:58.11: SIM {TimeUS : 55535277, Roll : 8.43, Pitch : -7.24, Yaw : 18.65, Alt : 49.2599983215, Lat : 49.2835787, Lng : -123.115002, Q1 : 0.981392681599, Q2 : 0.0826104432344, Q3 : -0.0503112636507, Q4 : 0.165869861841}
2019-04-14 11:31:58.21: SIM {TimeUS : 55635237, Roll : 7.23, Pitch : -8.8, Yaw : 26.16, Alt : 49.2599983215, Lat : 49.2835794, Lng : -123.115, Q1 : 0.968130409718, Q2 : 0.0786428749561, Q3 : -0.0603893510997, Q4 : 0.229982510209}
2019-04-14 11:31:58.31: SIM {TimeUS : 55735197, Roll : 5.49, Pitch : -10.38, Yaw : 34.41, Alt : 49.2700004578, Lat : 49.2835802, Lng : -123.1149979, Q1 : 0.94894361496, Q2 : 0.0723253414035, Q3 : -0.0722731500864, Q4 : 0.29841530323}
2019-04-14 11:31:58.41: SIM {TimeUS : 55835157, Roll : 3.21, Pitch : -11.75, Yaw : 43.11, Alt : 49.2700004578, Lat : 49.2835811, Lng : -123.1149957, Q1 : 0.923748552799, Q2 : 0.0635393336415, Q3 : -0.0849684327841, Q4 : 0.368010520935}
2019-04-14 11:31:58.51: SIM {TimeUS : 55935117, Roll : 0.28, Pitch : -12.69, Yaw : 51.72, Alt : 49.2700004578, Lat : 49.2835818, Lng : -123.1149934, Q1 : 0.894219219685, Q2 : 0.0504023097456, Q3 : -0.098403044045, Q4 : 0.433760911226}
2019-04-14 11:31:58.61: SIM {TimeUS : 56035077, Roll : -2.91, Pitch : -13.05, Yaw : 59.35, Alt : 49.2700004578, Lat : 49.2835828, Lng : -123.114991, Q1 : 0.864351511002, Q2 : 0.034329470247, Q3 : -0.11124253273, Q4 : 0.489226937294}
2019-04-14 11:31:58.71: SIM {TimeUS : 56135037, Roll : -5.69, Pitch : -12.97, Yaw : 65.23, Alt : 49.2700004578, Lat : 49.2835837, Lng : -123.1149885, Q1 : 0.838865935802, Q2 : 0.0192319545895, Q3 : -0.121648214757, Q4 : 0.530222415924}
2019-04-14 11:31:58.81: SIM {TimeUS : 56234997, Roll : -7.56, Pitch : -12.71, Yaw : 69.03, Alt : 49.2700004578, Lat : 49.2835849, Lng : -123.1149859, Q1 : 0.821226537228, Q2 : 0.00860282033682, Q3 : -0.128218725324, Q4 : 0.555943250656}
2019-04-14 11:31:58.91: SIM {TimeUS : 56334957, Roll : -8.36, Pitch : -12.54, Yaw : 70.82, Alt : 49.2700004578, Lat : 49.2835861, Lng : -123.1149834, Q1 : 0.812561571598, Q2 : 0.00405433075503, Q3 : -0.130841478705, Q4 : 0.567985713482}
2019-04-14 11:31:59.01: SIM {TimeUS : 56434917, Roll : -8.18, Pitch : -12.6, Yaw : 70.91, Alt : 49.2700004578, Lat : 49.2835873, Lng : -123.1149807, Q1 : 0.812105178833, Q2 : 0.00574264442548, Q3 : -0.130316525698, Q4 : 0.568744003773}
2019-04-14 11:31:59.11: SIM {TimeUS : 56534877, Roll : -7.2, Pitch : -12.93, Yaw : 69.66, Alt : 49.2700004578, Lat : 49.2835887, Lng : -123.114978, Q1 : 0.818042695522, Q2 : 0.0129858301952, Q3 : -0.127957835793, Q4 : 0.560592889786}
2019-04-14 11:31:59.21: SIM {TimeUS : 56634837, Roll : -5.67, Pitch : -13.51, Yaw : 67.42, Alt : 49.2799987793, Lat : 49.2835903, Lng : -123.1149753, Q1 : 0.828259944916, Q2 : 0.0243216063827, Q3 : -0.125010177493, Q4 : 0.545679807663}
2019-04-14 11:31:59.31: SIM {TimeUS : 56735630, Roll : -3.81, Pitch : -14.22, Yaw : 64.51, Alt : 49.2799987793, Lat : 49.2835917, Lng : -123.1149725, Q1 : 0.840878784657, Q2 : 0.0381708405912, Q3 : -0.122282929718, Q4 : 0.525844812393}
2019-04-14 11:31:59.41: SIM {TimeUS : 56835590, Roll : -1.85, Pitch : -14.93, Yaw : 61.28, Alt : 49.2799987793, Lat : 49.2835934, Lng : -123.1149696, Q1 : 0.854041099548, Q2 : 0.0523722469807, Q3 : -0.119968369603, Q4 : 0.503466546535}
2019-04-14 11:31:59.51: SIM {TimeUS : 56935550, Roll : 0.0, Pitch : -15.47, Yaw : 58.03, Alt : 49.2799987793, Lat : 49.2835951, Lng : -123.1149666, Q1 : 0.86652725935, Q2 : 0.0652338415384, Q3 : -0.117765448987, Q4 : 0.480631232262}
2019-04-14 11:31:59.61: SIM {TimeUS : 57035510, Roll : 1.58, Pitch : -15.78, Yaw : 55.09, Alt : 49.2799987793, Lat : 49.2835966, Lng : -123.1149634, Q1 : 0.877252995968, Q2 : 0.0756490528584, Q3 : -0.115446679294, Q4 : 0.459756970406}
2019-04-14 11:31:59.71: SIM {TimeUS : 57135470, Roll : 2.77, Pitch : -15.89, Yaw : 52.75, Alt : 49.2799987793, Lat : 49.2835983, Lng : -123.1149603, Q1 : 0.885527968407, Q2 : 0.0828974619508, Q3 : -0.113187372684, Q4 : 0.442896008492}
2019-04-14 11:31:59.81: SIM {TimeUS : 57235430, Roll : 3.48, Pitch : -15.86, Yaw : 51.17, Alt : 49.2799987793, Lat : 49.2836, Lng : -123.1149569, Q1 : 0.891072332859, Q2 : 0.0867553129792, Q3 : -0.111402191222, Q4 : 0.431338846684}
2019-04-14 11:31:59.91: SIM {TimeUS : 57335390, Roll : 3.7, Pitch : -15.78, Yaw : 50.39, Alt : 49.2799987793, Lat : 49.2836017, Lng : -123.1149534, Q1 : 0.893904805183, Q2 : 0.087448105216, Q3 : -0.11054315418, Q4 : 0.425520002842}
2019-04-14 11:32:00.01: SIM {TimeUS : 57435350, Roll : 3.49, Pitch : -15.74, Yaw : 50.36, Alt : 49.2799987793, Lat : 49.2836033, Lng : -123.1149498, Q1 : 0.894223868847, Q2 : 0.0855994895101, Q3 : -0.111071296036, Q4 : 0.425087749958}
2019-04-14 11:32:00.11: SIM {TimeUS : 57535310, Roll : 2.93, Pitch : -15.78, Yaw : 50.95, Alt : 49.2900009155, Lat : 49.283605, Lng : -123.1149461, Q1 : 0.892388939857, Q2 : 0.0819612368941, Q3 : -0.112989783287, Q4 : 0.429135978222}
2019-04-14 11:32:00.21: SIM {TimeUS : 57635270, Roll : 2.14, Pitch : -15.88, Yaw : 51.99, Alt : 49.2900009155, Lat : 49.2836068, Lng : -123.1149421, Q1 : 0.888887882233, Q2 : 0.0772534534335, Q3 : -0.116050817072, Q4 : 0.436397105455}
2019-04-14 11:32:00.31: SIM {TimeUS : 57735230, Roll : 1.25, Pitch : -16.02, Yaw : 53.29, Alt : 49.2900009155, Lat : 49.2836085, Lng : -123.1149383, Q1 : 0.884303033352, Q2 : 0.0722410976887, Q3 : -0.119703792036, Q4 : 0.445488959551}
2019-04-14 11:32:00.41: SIM {TimeUS : 57835190, Roll : 0.39, Pitch : -16.16, Yaw : 54.67, Alt : 49.2900009155, Lat : 49.2836102, Lng : -123.1149344, Q1 : 0.879260838032, Q2 : 0.0676352456212, Q3 : -0.123349331319, Q4 : 0.455094248056}
2019-04-14 11:32:00.51: SIM {TimeUS : 57935150, Roll : -0.35, Pitch : -16.3, Yaw : 55.96, Alt : 49.2900009155, Lat : 49.283612, Lng : -123.1149303, Q1 : 0.874377012253, Q2 : 0.0638559162617, Q3 : -0.126666560769, Q4 : 0.464050501585}
2019-04-14 11:32:00.61: SIM {TimeUS : 58035110, Roll : -0.93, Pitch : -16.41, Yaw : 57.03, Alt : 49.2900009155, Lat : 49.2836138, Lng : -123.1149262, Q1 : 0.870200693607, Q2 : 0.0610537603498, Q3 : -0.129281416535, Q4 : 0.471497148275}
2019-04-14 11:32:00.71: SIM {TimeUS : 58135070, Roll : -1.33, Pitch : -16.49, Yaw : 57.81, Alt : 49.2900009155, Lat : 49.2836156, Lng : -123.1149221, Q1 : 0.867113292217, Q2 : 0.0592431090772, Q3 : -0.131112083793, Q4 : 0.476879894733}
2019-04-14 11:32:00.81: SIM {TimeUS : 58235030, Roll : -1.52, Pitch : -16.51, Yaw : 58.25, Alt : 49.2900009155, Lat : 49.2836175, Lng : -123.1149179, Q1 : 0.865327000618, Q2 : 0.0584349222481, Q3 : -0.131854221225, Q4 : 0.480009406805}
2019-04-14 11:32:00.91: SIM {TimeUS : 58334990, Roll : -1.49, Pitch : -16.51, Yaw : 58.37, Alt : 49.2900009155, Lat : 49.2836194, Lng : -123.1149136, Q1 : 0.86480307579, Q2 : 0.0587555766106, Q3 : -0.131670549512, Q4 : 0.480964004993}
2019-04-14 11:32:01.01: SIM {TimeUS : 58434950, Roll : -1.32, Pitch : -16.51, Yaw : 58.22, Alt : 49.2900009155, Lat : 49.2836213, Lng : -123.1149093, Q1 : 0.865372359753, Q2 : 0.0598754249513, Q3 : -0.131028205156, Q4 : 0.479976266623}
2019-04-14 11:32:01.11: SIM {TimeUS : 58534910, Roll : -1.02, Pitch : -16.53, Yaw : 57.84, Alt : 49.2900009155, Lat : 49.2836232, Lng : -123.114905, Q1 : 0.866743445396, Q2 : 0.0618043988943, Q3 : -0.130147561431, Q4 : 0.477490961552}
2019-04-14 11:32:01.21: SIM {TimeUS : 58634870, Roll : -0.64, Pitch : -16.56, Yaw : 57.33, Alt : 49.2900009155, Lat : 49.2836253, Lng : -123.1149006, Q1 : 0.868630647659, Q2 : 0.0642163157463, Q3 : -0.129024118185, Q4 : 0.474035710096}
2019-04-14 11:32:01.31: SIM {TimeUS : 58734830, Roll : -0.25, Pitch : -16.58, Yaw : 56.76, Alt : 49.2900009155, Lat : 49.2836273, Lng : -123.1148962, Q1 : 0.870733916759, Q2 : 0.0666375979781, Q3 : -0.12794983387, Q4 : 0.470117747784}
2019-04-14 11:32:01.41: SIM {TimeUS : 58835623, Roll : 0.08, Pitch : -16.63, Yaw : 56.2, Alt : 49.2900009155, Lat : 49.2836293, Lng : -123.1148917, Q1 : 0.872786223888, Q2 : 0.068771019578, Q3 : -0.127259477973, Q4 : 0.466175705194}
2019-04-14 11:32:01.51: SIM {TimeUS : 58935583, Roll : 0.34, Pitch : -16.68, Yaw : 55.71, Alt : 49.2900009155, Lat : 49.2836312, Lng : -123.1148872, Q1 : 0.874553143978, Q2 : 0.070445112884, Q3 : -0.126879423857, Q4 : 0.462704926729}
2019-04-14 11:32:01.61: SIM {TimeUS : 59035543, Roll : 0.52, Pitch : -16.75, Yaw : 55.33, Alt : 49.2900009155, Lat : 49.2836334, Lng : -123.1148827, Q1 : 0.875900328159, Q2 : 0.0716478824615, Q3 : -0.126890212297, Q4 : 0.459960967302}
2019-04-14 11:32:01.71: SIM {TimeUS : 59135503, Roll : 0.61, Pitch : -16.8, Yaw : 55.08, Alt : 49.2900009155, Lat : 49.2836353, Lng : -123.1148781, Q1 : 0.876780688763, Q2 : 0.0722724869847, Q3 : -0.127126246691, Q4 : 0.458117067814}
2019-04-14 11:32:01.81: SIM {TimeUS : 59235463, Roll : 0.62, Pitch : -16.85, Yaw : 54.96, Alt : 49.2900009155, Lat : 49.2836375, Lng : -123.1148734, Q1 : 0.877172589302, Q2 : 0.0724646747112, Q3 : -0.127531349659, Q4 : 0.457223027945}
2019-04-14 11:32:01.91: SIM {TimeUS : 59335423, Roll : 0.57, Pitch : -16.89, Yaw : 54.97, Alt : 49.2900009155, Lat : 49.2836396, Lng : -123.1148688, Q1 : 0.877137362957, Q2 : 0.0722226127982, Q3 : -0.128020003438, Q4 : 0.457192391157}
2019-04-14 11:32:02.01: SIM {TimeUS : 59435383, Roll : 0.47, Pitch : -16.92, Yaw : 55.07, Alt : 49.2900009155, Lat : 49.2836416, Lng : -123.1148641, Q1 : 0.876762866974, Q2 : 0.0716532841325, Q3 : -0.128575220704, Q4 : 0.457843959332}
2019-04-14 11:32:02.11: SIM {TimeUS : 59535343, Roll : 0.36, Pitch : -16.94, Yaw : 55.24, Alt : 49.2900009155, Lat : 49.2836437, Lng : -123.1148593, Q1 : 0.87613016367, Q2 : 0.0710610225797, Q3 : -0.129089385271, Q4 : 0.459001272917}
2019-04-14 11:32:02.21: SIM {TimeUS : 59635303, Roll : 0.23, Pitch : -16.97, Yaw : 55.45, Alt : 49.2999992371, Lat : 49.2836458, Lng : -123.1148545, Q1 : 0.875350534916, Q2 : 0.0704731717706, Q3 : -0.129660889506, Q4 : 0.460416167974}
2019-04-14 11:32:02.31: SIM {TimeUS : 59735263, Roll : 0.1, Pitch : -16.99, Yaw : 55.66, Alt : 49.2999992371, Lat : 49.283648, Lng : -123.1148497, Q1 : 0.874549210072, Q2 : 0.069832123816, Q3 : -0.130257979035, Q4 : 0.46186581254}
2019-04-14 11:32:02.41: SIM {TimeUS : 59835223, Roll : -0.01, Pitch : -17.02, Yaw : 55.85, Alt : 49.2999992371, Lat : 49.28365, Lng : -123.1148449, Q1 : 0.873826622963, Q2 : 0.0692144855857, Q3 : -0.130892708898, Q4 : 0.463145256042}
2019-04-14 11:32:02.51: SIM {TimeUS : 59935183, Roll : -0.12, Pitch : -17.06, Yaw : 55.99, Alt : 49.2999992371, Lat : 49.2836522, Lng : -123.11484, Q1 : 0.873254299164, Q2 : 0.0687070935965, Q3 : -0.131519123912, Q4 : 0.464121758938}
2019-04-14 11:32:02.61: SIM {TimeUS : 60035143, Roll : -0.19, Pitch : -17.1, Yaw : 56.09, Alt : 49.2999992371, Lat : 49.2836543, Lng : -123.1148351, Q1 : 0.87286221981, Q2 : 0.0684654563665, Q3 : -0.132061377168, Q4 : 0.46474057436}
2019-04-14 11:32:02.71: SIM {TimeUS : 60135103, Roll : -0.24, Pitch : -17.14, Yaw : 56.13, Alt : 49.2999992371, Lat : 49.2836566, Lng : -123.1148302, Q1 : 0.872689247131, Q2 : 0.0682629942894, Q3 : -0.132505938411, Q4 : 0.464968651533}
2019-04-14 11:32:02.81: SIM {TimeUS : 60235063, Roll : -0.26, Pitch : -17.15, Yaw : 56.12, Alt : 49.2999992371, Lat : 49.2836586, Lng : -123.1148253, Q1 : 0.872730970383, Q2 : 0.068187430501, Q3 : -0.132710769773, Q4 : 0.464843004942}
2019-04-14 11:32:02.91: SIM {TimeUS : 60335023, Roll : -0.24, Pitch : -17.17, Yaw : 56.06, Alt : 49.2999992371, Lat : 49.2836609, Lng : -123.1148203, Q1 : 0.872942328453, Q2 : 0.0682670548558, Q3 : -0.132792025805, Q4 : 0.464411020279}
2019-04-14 11:32:03.01: SIM {TimeUS : 60434983, Roll : -0.2, Pitch : -17.2, Yaw : 55.97, Alt : 49.2999992371, Lat : 49.2836631, Lng : -123.1148154, Q1 : 0.873245477676, Q2 : 0.0686248242855, Q3 : -0.13290284574, Q4 : 0.463756173849}
2019-04-14 11:32:03.11: SIM {TimeUS : 60534943, Roll : -0.13, Pitch : -17.24, Yaw : 55.86, Alt : 49.2999992371, Lat : 49.2836652, Lng : -123.1148104, Q1 : 0.873601913452, Q2 : 0.0691684409976, Q3 : -0.133005514741, Q4 : 0.4629740417}
2019-04-14 11:32:03.21: SIM {TimeUS : 60634903, Roll : -0.04, Pitch : -17.28, Yaw : 55.74, Alt : 49.3100013733, Lat : 49.2836676, Lng : -123.1148054, Q1 : 0.873969495296, Q2 : 0.0698969587684, Q3 : -0.133052960038, Q4 : 0.4621565938}
2019-04-14 11:32:03.31: SIM {TimeUS : 60734863, Roll : 0.05, Pitch : -17.33, Yaw : 55.63, Alt : 49.3100013733, Lat : 49.2836698, Lng : -123.1148004, Q1 : 0.874304831028, Q2 : 0.0707512572408, Q3 : -0.133060544729, Q4 : 0.461389482021}
2019-04-14 11:32:03.41: SIM {TimeUS : 60834823, Roll : 0.13, Pitch : -17.36, Yaw : 55.53, Alt : 49.3100013733, Lat : 49.2836719, Lng : -123.1147953, Q1 : 0.874612629414, Q2 : 0.071396894753, Q3 : -0.133057802916, Q4 : 0.460706859827}
2019-04-14 11:32:03.51: SIM {TimeUS : 60935616, Roll : 0.17, Pitch : -17.37, Yaw : 55.45, Alt : 49.3100013733, Lat : 49.2836743, Lng : -123.1147901, Q1 : 0.874898850918, Q2 : 0.0715970620513, Q3 : -0.133052244782, Q4 : 0.460133701563}
2019-04-14 11:32:03.61: SIM {TimeUS : 61035576, Roll : 0.16, Pitch : -17.37, Yaw : 55.4, Alt : 49.3100013733, Lat : 49.2836765, Lng : -123.1147851, Q1 : 0.875123739243, Q2 : 0.0714867189527, Q3 : -0.13309083879, Q4 : 0.45971173048}
2019-04-14 11:32:03.71: SIM {TimeUS : 61135536, Roll : 0.16, Pitch : -17.37, Yaw : 55.37, Alt : 49.3100013733, Lat : 49.2836787, Lng : -123.11478, Q1 : 0.875248491764, Q2 : 0.0714637264609, Q3 : -0.133093640208, Q4 : 0.459477007389}
2019-04-14 11:32:03.81: SIM {TimeUS : 61235496, Roll : 0.16, Pitch : -17.38, Yaw : 55.35, Alt : 49.3100013733, Lat : 49.283681, Lng : -123.1147749, Q1 : 0.875281333923, Q2 : 0.0714823529124, Q3 : -0.133180782199, Q4 : 0.459386259317}
2019-04-14 11:32:03.91: SIM {TimeUS : 61335456, Roll : 0.17, Pitch : -17.41, Yaw : 55.36, Alt : 49.3100013733, Lat : 49.2836833, Lng : -123.1147698, Q1 : 0.875217020512, Q2 : 0.0716656669974, Q3 : -0.13339599967, Q4 : 0.459417909384}
2019-04-14 11:32:04.01: SIM {TimeUS : 61435416, Roll : 0.17, Pitch : -17.47, Yaw : 55.38, Alt : 49.3100013733, Lat : 49.2836856, Lng : -123.1147646, Q1 : 0.875091910362, Q2 : 0.0718860402703, Q3 : -0.13378290832, Q4 : 0.459509193897}
2019-04-14 11:32:04.11: SIM {TimeUS : 61535376, Roll : 0.15, Pitch : -17.5, Yaw : 55.4, Alt : 49.3100013733, Lat : 49.2836878, Lng : -123.1147595, Q1 : 0.874973475933, Q2 : 0.0719370990992, Q3 : -0.134079605341, Q4 : 0.459640204906}
2019-04-14 11:32:04.21: SIM {TimeUS : 61635336, Roll : 0.13, Pitch : -17.51, Yaw : 55.42, Alt : 49.3199996948, Lat : 49.2836901, Lng : -123.1147543, Q1 : 0.874877214432, Q2 : 0.0718779191375, Q3 : -0.134266972542, Q4 : 0.459778010845}
2019-04-14 11:32:04.31: SIM {TimeUS : 61735296, Roll : 0.1, Pitch : -17.53, Yaw : 55.44, Alt : 49.3199996948, Lat : 49.2836925, Lng : -123.1147491, Q1 : 0.874811887741, Q2 : 0.0716949477792, Q3 : -0.134519174695, Q4 : 0.459857136011}
2019-04-14 11:32:04.41: SIM {TimeUS : 61835256, Roll : 0.06, Pitch : -17.56, Yaw : 55.45, Alt : 49.3199996948, Lat : 49.2836948, Lng : -123.1147439, Q1 : 0.874763190746, Q2 : 0.0715384855866, Q3 : -0.134847834706, Q4 : 0.459877878428}
2019-04-14 11:32:04.51: SIM {TimeUS : 61935216, Roll : 0.05, Pitch : -17.58, Yaw : 55.45, Alt : 49.3199996948, Lat : 49.2836971, Lng : -123.1147387, Q1 : 0.874741435051, Q2 : 0.0715111643076, Q3 : -0.1350517869, Q4 : 0.459863722324}
2019-04-14 11:32:04.61: SIM {TimeUS : 62035176, Roll : 0.04, Pitch : -17.59, Yaw : 55.44, Alt : 49.3199996948, Lat : 49.2836993, Lng : -123.1147335, Q1 : 0.874756515026, Q2 : 0.0715067982674, Q3 : -0.135231003165, Q4 : 0.459782958031}
2019-04-14 11:32:04.71: SIM {TimeUS : 62135136, Roll : 0.04, Pitch : -17.61, Yaw : 55.43, Alt : 49.3199996948, Lat : 49.2837017, Lng : -123.1147281, Q1 : 0.874807357788, Q2 : 0.0715526342392, Q3 : -0.135325342417, Q4 : 0.459651350975}
2019-04-14 11:32:04.81: SIM {TimeUS : 62235096, Roll : 0.05, Pitch : -17.62, Yaw : 55.4, Alt : 49.3199996948, Lat : 49.283704, Lng : -123.114723, Q1 : 0.874878942966, Q2 : 0.0716778635979, Q3 : -0.13542945683, Q4 : 0.459464907646}
2019-04-14 11:32:04.91: SIM {TimeUS : 62335056, Roll : 0.07, Pitch : -17.63, Yaw : 55.37, Alt : 49.3199996948, Lat : 49.2837064, Lng : -123.1147177, Q1 : 0.874972581863, Q2 : 0.0718425884843, Q3 : -0.135455802083, Q4 : 0.459253042936}
2019-04-14 11:32:05.01: SIM {TimeUS : 62435016, Roll : 0.1, Pitch : -17.65, Yaw : 55.34, Alt : 49.3199996948, Lat : 49.2837088, Lng : -123.1147123, Q1 : 0.875062286854, Q2 : 0.0720429047942, Q3 : -0.135469213128, Q4 : 0.45904687047}
2019-04-14 11:32:05.11: SIM {TimeUS : 62534976, Roll : 0.13, Pitch : -17.67, Yaw : 55.31, Alt : 49.3199996948, Lat : 49.2837111, Lng : -123.1147072, Q1 : 0.875127434731, Q2 : 0.0723596513271, Q3 : -0.135564342141, Q4 : 0.458844602108}
2019-04-14 11:32:05.21: SIM {TimeUS : 62634936, Roll : 0.15, Pitch : -17.71, Yaw : 55.28, Alt : 49.3199996948, Lat : 49.2837135, Lng : -123.1147019, Q1 : 0.875176131725, Q2 : 0.0726689845324, Q3 : -0.135800987482, Q4 : 0.458632797003}
2019-04-14 11:32:05.31: SIM {TimeUS : 62734896, Roll : 0.15, Pitch : -17.76, Yaw : 55.26, Alt : 49.3199996948, Lat : 49.2837157, Lng : -123.1146965, Q1 : 0.875227630138, Q2 : 0.0728049948812, Q3 : -0.136134296656, Q4 : 0.458414196968}
2019-04-14 11:32:05.41: SIM {TimeUS : 62834856, Roll : 0.15, Pitch : -17.8, Yaw : 55.24, Alt : 49.3199996948, Lat : 49.2837181, Lng : -123.1146913, Q1 : 0.875273406506, Q2 : 0.0728942155838, Q3 : -0.136472702026, Q4 : 0.458211898804}
2019-04-14 11:32:05.51: SIM {TimeUS : 62934816, Roll : 0.16, Pitch : -17.82, Yaw : 55.22, Alt : 49.3199996948, Lat : 49.2837205, Lng : -123.114686, Q1 : 0.875311613083, Q2 : 0.0730435624719, Q3 : -0.136659264565, Q4 : 0.458059489727}
2019-04-14 11:32:05.61: SIM {TimeUS : 63035609, Roll : 0.18, Pitch : -17.82, Yaw : 55.2, Alt : 49.3199996948, Lat : 49.2837229, Lng : -123.1146806, Q1 : 0.875362992287, Q2 : 0.0731762722135, Q3 : -0.136597082019, Q4 : 0.45795866847}
2019-04-14 11:32:05.71: SIM {TimeUS : 63135569, Roll : 0.18, Pitch : -17.79, Yaw : 55.19, Alt : 49.3199996948, Lat : 49.2837253, Lng : -123.1146752, Q1 : 0.875441491604, Q2 : 0.0731036216021, Q3 : -0.136325567961, Q4 : 0.457901090384}
2019-04-14 11:32:05.81: SIM {TimeUS : 63235529, Roll : 0.18, Pitch : -17.77, Yaw : 55.18, Alt : 49.3300018311, Lat : 49.2837277, Lng : -123.1146699, Q1 : 0.8755017519, Q2 : 0.0729332491755, Q3 : -0.136194854975, Q4 : 0.457852005959}
2019-04-14 11:32:05.91: SIM {TimeUS : 63335489, Roll : 0.16, Pitch : -17.75, Yaw : 55.18, Alt : 49.3300018311, Lat : 49.2837301, Lng : -123.1146645, Q1 : 0.875546634197, Q2 : 0.0727599263191, Q3 : -0.136138692498, Q4 : 0.457810491323}
2019-04-14 11:32:06.01: SIM {TimeUS : 63435449, Roll : 0.15, Pitch : -17.75, Yaw : 55.17, Alt : 49.3300018311, Lat : 49.2837325, Lng : -123.1146591, Q1 : 0.875565767288, Q2 : 0.072690166533, Q3 : -0.136182874441, Q4 : 0.457771718502}
2019-04-14 11:32:06.11: SIM {TimeUS : 63535409, Roll : 0.14, Pitch : -17.77, Yaw : 55.17, Alt : 49.3300018311, Lat : 49.2837349, Lng : -123.1146538, Q1 : 0.875568568707, Q2 : 0.0726994350553, Q3 : -0.136346429586, Q4 : 0.457716315985}
2019-04-14 11:32:06.21: SIM {TimeUS : 63635369, Roll : 0.15, Pitch : -17.79, Yaw : 55.16, Alt : 49.3300018311, Lat : 49.2837372, Lng : -123.1146484, Q1 : 0.875566005707, Q2 : 0.0727827101946, Q3 : -0.136498063803, Q4 : 0.457662701607}
2019-04-14 11:32:06.31: SIM {TimeUS : 63735329, Roll : 0.14, Pitch : -17.83, Yaw : 55.16, Alt : 49.3300018311, Lat : 49.2837395, Lng : -123.114643, Q1 : 0.875550806522, Q2 : 0.0728826075792, Q3 : -0.136810049415, Q4 : 0.457582652569}
2019-04-14 11:32:06.41: SIM {TimeUS : 63835289, Roll : 0.14, Pitch : -17.88, Yaw : 55.15, Alt : 49.3300018311, Lat : 49.2837419, Lng : -123.1146376, Q1 : 0.875527977943, Q2 : 0.0730280727148, Q3 : -0.137188196182, Q4 : 0.457489997149}
2019-04-14 11:32:06.51: SIM {TimeUS : 63935249, Roll : 0.14, Pitch : -17.91, Yaw : 55.14, Alt : 49.3300018311, Lat : 49.2837443, Lng : -123.1146322, Q1 : 0.875522732735, Q2 : 0.0731738060713, Q3 : -0.137464657426, Q4 : 0.457393705845}
2019-04-14 11:32:06.61: SIM {TimeUS : 64035209, Roll : 0.13, Pitch : -17.94, Yaw : 55.13, Alt : 49.3300018311, Lat : 49.2837467, Lng : -123.1146268, Q1 : 0.875537574291, Q2 : 0.0732184574008, Q3 : -0.137743264437, Q4 : 0.457274377346}
2019-04-14 11:32:06.71: SIM {TimeUS : 64135169, Roll : 0.12, Pitch : -17.96, Yaw : 55.12, Alt : 49.3300018311, Lat : 49.2837492, Lng : -123.1146213, Q1 : 0.875568091869, Q2 : 0.0732208043337, Q3 : -0.137946620584, Q4 : 0.457154273987}
2019-04-14 11:32:06.81: SIM {TimeUS : 64235129, Roll : 0.13, Pitch : -17.96, Yaw : 55.1, Alt : 49.3300018311, Lat : 49.2837516, Lng : -123.1146159, Q1 : 0.875619113445, Q2 : 0.0732831507921, Q3 : -0.137890726328, Q4 : 0.457063406706}
2019-04-14 11:32:06.91: SIM {TimeUS : 64335089, Roll : 0.16, Pitch : -17.97, Yaw : 55.09, Alt : 49.3300018311, Lat : 49.283754, Lng : -123.1146105, Q1 : 0.875658035278, Q2 : 0.0735008940101, Q3 : -0.137840270996, Q4 : 0.456969022751}
2019-04-14 11:32:07.01: SIM {TimeUS : 64435049, Roll : 0.17, Pitch : -17.98, Yaw : 55.07, Alt : 49.3300018311, Lat : 49.2837564, Lng : -123.114605, Q1 : 0.875698208809, Q2 : 0.0736450701952, Q3 : -0.13792091608, Q4 : 0.45684453845}
2019-04-14 11:32:07.11: SIM {TimeUS : 64535009, Roll : 0.18, Pitch : -17.99, Yaw : 55.05, Alt : 49.3300018311, Lat : 49.2837588, Lng : -123.1145996, Q1 : 0.875746905804, Q2 : 0.0737401172519, Q3 : -0.137940973043, Q4 : 0.456729799509}
2019-04-14 11:32:07.21: SIM {TimeUS : 64634969, Roll : 0.2, Pitch : -17.99, Yaw : 55.04, Alt : 49.3400001526, Lat : 49.2837613, Lng : -123.1145941, Q1 : 0.875804960728, Q2 : 0.0737896859646, Q3 : -0.137863531709, Q4 : 0.456633865833}
2019-04-14 11:32:07.31: SIM {TimeUS : 64734929, Roll : 0.2, Pitch : -17.98, Yaw : 55.02, Alt : 49.3400001526, Lat : 49.2837637, Lng : -123.1145887, Q1 : 0.875860452652, Q2 : 0.073793657124, Q3 : -0.137821272016, Q4 : 0.456539422274}
2019-04-14 11:32:07.41: SIM {TimeUS : 64834889, Roll : 0.19, Pitch : -18.0, Yaw : 55.01, Alt : 49.3400001526, Lat : 49.2837661, Lng : -123.1145832, Q1 : 0.875899672508, Q2 : 0.073725566268, Q3 : -0.138008907437, Q4 : 0.456418514252}
2019-04-14 11:32:07.51: SIM {TimeUS : 64934849, Roll : 0.16, Pitch : -18.03, Yaw : 55.0, Alt : 49.3400001526, Lat : 49.2837686, Lng : -123.1145778, Q1 : 0.875917255878, Q2 : 0.0736374408007, Q3 : -0.138365909457, Q4 : 0.45629093051}
2019-04-14 11:32:07.61: SIM {TimeUS : 65035642, Roll : 0.14, Pitch : -18.03, Yaw : 54.99, Alt : 49.3400001526, Lat : 49.283771, Lng : -123.1145722, Q1 : 0.875954508781, Q2 : 0.0735220462084, Q3 : -0.138465881348, Q4 : 0.456207692623}
2019-04-14 11:32:07.71: SIM {TimeUS : 65135602, Roll : 0.15, Pitch : -18.01, Yaw : 54.99, Alt : 49.3400001526, Lat : 49.2837735, Lng : -123.1145668, Q1 : 0.876004159451, Q2 : 0.0735100731254, Q3 : -0.13826072216, Q4 : 0.456176459789}
2019-04-14 11:32:07.81: SIM {TimeUS : 65235562, Roll : 0.17, Pitch : -17.99, Yaw : 54.98, Alt : 49.3400001526, Lat : 49.2837759, Lng : -123.1145613, Q1 : 0.876049995422, Q2 : 0.0735523626208, Q3 : -0.138022989035, Q4 : 0.45615363121}
2019-04-14 11:32:07.91: SIM {TimeUS : 65335522, Roll : 0.18, Pitch : -18.0, Yaw : 54.97, Alt : 49.3400001526, Lat : 49.2837784, Lng : -123.1145558, Q1 : 0.876071810722, Q2 : 0.0736063197255, Q3 : -0.138057351112, Q4 : 0.456092655659}
2019-04-14 11:32:08.01: SIM {TimeUS : 65435482, Roll : 0.17, Pitch : -18.02, Yaw : 54.96, Alt : 49.3400001526, Lat : 49.2837808, Lng : -123.1145503, Q1 : 0.876077473164, Q2 : 0.0736122876406, Q3 : -0.138285517693, Q4 : 0.456011742353}
2019-04-14 11:32:08.11: SIM {TimeUS : 65535442, Roll : 0.14, Pitch : -18.05, Yaw : 54.96, Alt : 49.3400001526, Lat : 49.2837834, Lng : -123.1145448, Q1 : 0.876086831093, Q2 : 0.0735180452466, Q3 : -0.138618171215, Q4 : 0.455907762051}
2019-04-14 11:32:08.21: SIM {TimeUS : 65635402, Roll : 0.13, Pitch : -18.08, Yaw : 54.95, Alt : 49.3400001526, Lat : 49.2837857, Lng : -123.1145393, Q1 : 0.876099824905, Q2 : 0.073492154479, Q3 : -0.138884976506, Q4 : 0.455805808306}
2019-04-14 11:32:08.31: SIM {TimeUS : 65735362, Roll : 0.13, Pitch : -18.1, Yaw : 54.94, Alt : 49.3400001526, Lat : 49.2837883, Lng : -123.1145338, Q1 : 0.876107752323, Q2 : 0.0736141353846, Q3 : -0.139049693942, Q4 : 0.455720663071}
2019-04-14 11:32:08.41: SIM {TimeUS : 65835322, Roll : 0.14, Pitch : -18.12, Yaw : 54.93, Alt : 49.3400001526, Lat : 49.2837907, Lng : -123.1145283, Q1 : 0.876115202904, Q2 : 0.0737681761384, Q3 : -0.139152258635, Q4 : 0.455650180578}
2019-04-14 11:32:08.51: SIM {TimeUS : 65935282, Roll : 0.17, Pitch : -18.13, Yaw : 54.92, Alt : 49.3400001526, Lat : 49.2837932, Lng : -123.1145228, Q1 : 0.87612760067, Q2 : 0.0739753767848, Q3 : -0.139130532742, Q4 : 0.455599337816}
