2019-04-14 01:39:39.10: SIM {TimeUS : 40716207, Roll : 0.0, Pitch : 0.0, Yaw : 0.0, Alt : 30.1000003815, Lat : 49.28357, Lng : -123.11502, Q1 : 1.0, Q2 : 0.0, Q3 : 0.0, Q4 : 0.0}
2019-04-14 01:39:39.21: SIM {TimeUS : 40835326, Roll : 0.0, Pitch : 0.0, Yaw : 0.0, Alt : 30.1000003815, Lat : 49.28357, Lng : -123.11502, Q1 : 1.0, Q2 : 0.0, Q3 : 0.0, Q4 : 0.0}
2019-04-14 01:39:39.31: SIM {TimeUS : 40935286, Roll : 0.0, Pitch : 0.0, Yaw : 0.0, Alt : 30.1000003815, Lat : 49.28357, Lng : -123.11502, Q1 : 1.0, Q2 : 0.0, Q3 : 0.0, Q4 : 0.0}
2019-04-14 01:39:39.41: SIM {TimeUS : 41035246, Roll : 0.0, Pitch : 0.0, Yaw : 0.0, Alt : 30.1000003815, Lat : 49.28357, Lng : -123.11502, Q1 : 1.0, Q2 : 0.0, Q3 : 0.0, Q4 : 0.0}
2019-04-14 01:39:39.51: SIM {TimeUS : 41135206, Roll : 0.0, Pitch : 0.0, Yaw : 0.0, Alt : 30.1000003815, Lat : 49.28357, Lng : -123.11502, Q1 : 1.0, Q2 : 0.0, Q3 : 0.0, Q4 : 0.0}
2019-04-14 01:39:39.61: SIM {TimeUS : 41235166, Roll : 0.0, Pitch : 0.0, Yaw : 0.0, Alt : 30.1000003815, Lat : 49.28357, Lng : -123.11502, Q1 : 1.0, Q2 : 0.0, Q3 : 0.0, Q4 : 0.0}
2019-04-14 01:39:39.71: SIM {TimeUS : 41335126, Roll : 0.0, Pitch : 0.0, Yaw : 0.0, Alt : 30.1000003815, Lat : 49.28357, Lng : -123.11502, Q1 : 1.0, Q2 : 0.0, Q3 : 0.0, Q4 : 0.0}
2019-04-14 01:39:39.81: SIM {TimeUS : 41435086, Roll : 0.0, Pitch : 0.0, Yaw : 0.0, Alt : 30.1000003815, Lat : 49.28357, Lng : -123.11502, Q1 : 1.0, Q2 : 0.0, Q3 : 0.0, Q4 : 0.0}
2019-04-14 01:39:39.91: SIM {TimeUS : 41535046, Roll : 0.0, Pitch : 0.0, Yaw : 0.0, Alt : 30.1000003815, Lat : 49.28357, Lng : -123.11502, Q1 : 1.0, Q2 : 0.0, Q3 : 0.0, Q4 : 0.0}
2019-04-14 01:39:40.01: SIM {TimeUS : 41635006, Roll : 0.0, Pitch : 0.0, Yaw : 0.0, Alt : 30.1000003815, Lat : 49.28357, Lng : -123.11502, Q1 : 1.0, Q2 : 0.0, Q3 : 0.0, Q4 : 0.0}
2019-04-14 01:39:40.11: SIM {TimeUS : 41734966, Roll : 0.0, Pitch : 0.0, Yaw : 0.0, Alt : 30.1000003815, Lat : 49.28357, Lng : -123.11502, Q1 : 1.0, Q2 : 0.0, Q3 : 0.0, Q4 : 0.0}
2019-04-14 01:39:40.21: SIM {TimeUS : 41834926, Roll : 0.0, Pitch : 0.0, Yaw : 0.0, Alt : 30.1000003815, Lat : 49.28357, Lng : -123.11502, Q1 : 1.0, Q2 : 0.0, Q3 : 0.0, Q4 : 0.0}
2019-04-14 01:39:40.31: SIM {TimeUS : 41934886, Roll : 0.0, Pitch : 0.0, Yaw : 0.0, Alt : 30.1000003815, Lat : 49.28357, Lng : -123.11502, Q1 : 1.0, Q2 : 0.0, Q3 : 0.0, Q4 : 0.0}
2019-04-14 01:39:40.41: SIM {TimeUS : 42034846, Roll : 0.0, Pitch : 0.0, Yaw : 0.0, Alt : 30.1000003815, Lat : 49.28357, Lng : -123.11502, Q1 : 1.0, Q2 : 0.0, Q3 : 0.0, Q4 : 0.0}
2019-04-14 01:39:40.51: SIM {TimeUS : 42134806, Roll : 0.0, Pitch : 0.0, Yaw : 0.0, Alt : 30.1000003815, Lat : 49.28357, Lng : -123.11502, Q1 : 1.0, Q2 : 0.0, Q3 : 0.0, Q4 : 0.0}
2019-04-14 01:39:40.61: SIM {TimeUS : 42234766, Roll : 0.0, Pitch : 0.0, Yaw : 0.0, Alt : 30.1000003815, Lat : 49.28357, Lng : -123.11502, Q1 : 1.0, Q2 : 0.0, Q3 : 0.0, Q4 : 0.0}
2019-04-14 01:39:40.71: SIM {TimeUS : 42334726, Roll : 0.0, Pitch : 0.0, Yaw : 0.0, Alt : 30.1000003815, Lat : 49.28357, Lng : -123.11502, Q1 : 1.0, Q2 : 0.0, Q3 : 0.0, Q4 : 0.0}
2019-04-14 01:39:40.81: SIM {TimeUS : 42434686, Roll : 0.0, Pitch : 0.0, Yaw : 0.0, Alt : 30.1000003815, Lat : 49.28357, Lng : -123.11502, Q1 : 1.0, Q2 : 0.0, Q3 : 0.0, Q4 : 0.0}
2019-04-14 01:39:40.91: SIM {TimeUS : 42534646, Roll : 0.0, Pitch : 0.0, Yaw : 0.0, Alt : 30.1000003815, Lat : 49.28357, Lng : -123.11502, Q1 : 1.0, Q2 : 0.0, Q3 : 0.0, Q4 : 0.0}
2019-04-14 01:39:41.01: SIM {TimeUS : 42634606, Roll : 0.0, Pitch : 0.0, Yaw : 0.0, Alt : 30.1000003815, Lat : 49.28357, Lng : -123.11502, Q1 : 1.0, Q2 : 0.0, Q3 : 0.0, Q4 : 0.0}
2019-04-14 01:39:41.11: SIM {TimeUS : 42734566, Roll : 0.0, Pitch : 0.0, Yaw : 0.0, Alt : 30.1000003815, Lat : 49.28357, Lng : -123.11502, Q1 : 1.0, Q2 : 0.0, Q3 : 0.0, Q4 : 0.0}
2019-04-14 01:39:41.22: SIM {TimeUS : 42835359, Roll : 0.0, Pitch : 0.0, Yaw : 0.0, Alt : 30.1000003815, Lat : 49.28357, Lng : -123.11502, Q1 : 1.0, Q2 : 0.0, Q3 : 0.0, Q4 : 0.0}
2019-04-14 01:39:41.31: SIM {TimeUS : 42935319, Roll : 0.0, Pitch : 0.0, Yaw : 0.0, Alt : 30.1000003815, Lat : 49.28357, Lng : -123.11502, Q1 : 1.0, Q2 : 0.0, Q3 : 0.0, Q4 : 0.0}
2019-04-14 01:39:41.41: SIM {TimeUS : 43035279, Roll : 0.0, Pitch : 0.0, Yaw : 0.0, Alt : 30.1000003815, Lat : 49.28357, Lng : -123.11502, Q1 : 1.0, Q2 : 0.0, Q3 : 0.0, Q4 : 6.45378759115e-12}
2019-04-14 01:39:41.51: SIM {TimeUS : 43135239, Roll : 0.0, Pitch : 0.0, Yaw : 0.0, Alt : 30.1000003815, Lat : 49.28357, Lng : -123.11502, Q1 : 1.0, Q2 : 0.0, Q3 : 0.0, Q4 : 1.04344363011e-11}
2019-04-14 01:39:41.61: SIM {TimeUS : 43235199, Roll : 0.0, Pitch : 0.0, Yaw : 360.0, Alt : 30.1000003815, Lat : 49.28357, Lng : -123.11502, Q1 : 1.0, Q2 : 0.0, Q3 : 0.0, Q4 : -9.69060778289e-08}
2019-04-14 01:39:41.71: SIM {TimeUS : 43335159, Roll : 0.0, Pitch : 0.0, Yaw : 359.99, Alt : 30.1000003815, Lat : 49.28357, Lng : -123.11502, Q1 : 1.0, Q2 : 0.0, Q3 : 0.0, Q4 : -2.33415448747e-07}
2019-04-14 01:39:41.81: SIM {TimeUS : 43435119, Roll : 0.0, Pitch : 0.0, Yaw : 359.99, Alt : 30.1000003815, Lat : 49.28357, Lng : -123.11502, Q1 : 1.0, Q2 : 0.0, Q3 : 0.0, Q4 : -4.15923608443e-07}
2019-04-14 01:39:41.91: SIM {TimeUS : 43535079, Roll : 0.0, Pitch : 0.0, Yaw : 359.99, Alt : 30.1000003815, Lat : 49.28357, Lng : -123.11502, Q1 : 1.0, Q2 : 0.0, Q3 : 0.0, Q4 : -6.04413514793e-07}
2019-04-14 01:39:42.01: SIM {TimeUS : 43635039, Roll : 0.0, Pitch : 0.0, Yaw : 359.99, Alt : 30.1000003815, Lat : 49.28357, Lng : -123.11502, Q1 : 1.0, Q2 : 0.0, Q3 : 0.0, Q4 : -7.98426924575e-07}
2019-04-14 01:39:42.11: SIM {TimeUS : 43734999, Roll : 0.0, Pitch : 0.0, Yaw : 359.99, Alt : 30.1000003815, Lat : 49.28357, Lng : -123.11502, Q1 : 1.0, Q2 : 0.0, Q3 : 0.0, Q4 : -9.54681013354e-07}
2019-04-14 01:39:42.21: SIM {TimeUS : 43834959, Roll : 0.0, Pitch : 0.0, Yaw : 359.99, Alt : 30.1000003815, Lat : 49.28357, Lng : -123.11502, Q1 : 1.0, Q2 : 0.0, Q3 : 0.0, Q4 : -1.10659232178e-06}
2019-04-14 01:39:42.31: SIM {TimeUS : 43934919, Roll : 0.0, Pitch : 0.0, Yaw : 359.99, Alt : 30.1100006104, Lat : 49.28357, Lng : -123.11502, Q1 : 1.0, Q2 : 0.0, Q3 : 0.0, Q4 : -1.29106081204e-06}
2019-04-14 01:39:42.41: SIM {TimeUS : 44034879, Roll : 0.0, Pitch : 0.0, Yaw : 359.99, Alt : 30.1299991608, Lat : 49.28357, Lng : -123.11502, Q1 : 1.0, Q2 : 0.0, Q3 : 0.0, Q4 : -1.5313436279e-06}
2019-04-14 01:39:42.51: SIM {TimeUS : 44134839, Roll : 0.0, Pitch : 0.0, Yaw : 359.99, Alt : 30.1599998474, Lat : 49.28357, Lng : -123.11502, Q1 : 1.0, Q2 : 0.0, Q3 : 0.0, Q4 : -1.79396158728e-06}
2019-04-14 01:39:42.61: SIM {TimeUS : 44234799, Roll : 0.0, Pitch : 0.0, Yaw : 359.99, Alt : 30.1900005341, Lat : 49.28357, Lng : -123.11502, Q1 : 1.0, Q2 : 0.0, Q3 : 0.0, Q4 : -2.0370139282e-06}
2019-04-14 01:39:42.71: SIM {TimeUS : 44334759, Roll : -0.03, Pitch : -0.03, Yaw : 359.99, Alt : 30.2299995422, Lat : 49.28357, Lng : -123.11502, Q1 : 0.999999940395, Q2 : -0.000281902059214, Q3 : -0.000267907045782, Q4 : -3.67667030332e-06}
2019-04-14 01:39:42.81: SIM {TimeUS : 44434719, Roll : -0.25, Pitch : -0.26, Yaw : 359.99, Alt : 30.2999992371, Lat : 49.28357, Lng : -123.11502, Q1 : 0.999994874001, Q2 : -0.00222795899026, Q3 : -0.00229430082254, Q4 : -2.60119322775e-05}
2019-04-14 01:39:42.91: SIM {TimeUS : 44534679, Roll : -0.54, Pitch : -0.53, Yaw : 359.99, Alt : 30.4400005341, Lat : 49.28357, Lng : -123.11502, Q1 : 0.999977827072, Q2 : -0.00474673695862, Q3 : -0.00467167841271, Q4 : -8.07918622741e-05}
2019-04-14 01:39:43.01: SIM {TimeUS : 44634639, Roll : -0.76, Pitch : -0.7, Yaw : 359.98, Alt : 30.5900001526, Lat : 49.28357, Lng : -123.11502, Q1 : 0.999958693981, Q2 : -0.00667967507616, Q3 : -0.00616268953308, Q4 : -0.000154878900503}
2019-04-14 01:39:43.11: SIM {TimeUS : 44734599, Roll : -0.82, Pitch : -0.74, Yaw : 359.97, Alt : 30.75, Lat : 49.28357, Lng : -123.11502, Q1 : 0.999952912331, Q2 : -0.0072352765128, Q3 : -0.00645868526772, Q4 : -0.000232916892855}
2019-04-14 01:39:43.21: SIM {TimeUS : 44834559, Roll : -0.73, Pitch : -0.65, Yaw : 359.96, Alt : 30.9099998474, Lat : 49.28357, Lng : -123.1150201, Q1 : 0.999962866306, Q2 : -0.00644341716543, Q3 : -0.00571669917554, Q4 : -0.000316551129799}
2019-04-14 01:39:43.32: SIM {TimeUS : 44935352, Roll : -0.54, Pitch : -0.48, Yaw : 359.95, Alt : 31.0599994659, Lat : 49.2835701, Lng : -123.1150201, Q1 : 0.999979615211, Q2 : -0.00473664421588, Q3 : -0.00425981497392, Q4 : -0.000390749890357}
2019-04-14 01:39:43.41: SIM {TimeUS : 45035312, Roll : -0.3, Pitch : -0.29, Yaw : 359.94, Alt : 31.2199993134, Lat : 49.2835701, Lng : -123.1150202, Q1 : 0.999993145466, Q2 : -0.0026511864271, Q3 : -0.00255099637434, Q4 : -0.000450884690508}
2019-04-14 01:39:43.51: SIM {TimeUS : 45135272, Roll : -0.09, Pitch : -0.12, Yaw : 359.94, Alt : 31.3799991608, Lat : 49.2835702, Lng : -123.1150203, Q1 : 0.999998986721, Q2 : -0.000796046224423, Q3 : -0.00104691437446, Q4 : -0.000495760992635}
2019-04-14 01:39:43.61: SIM {TimeUS : 45235232, Roll : 0.04, Pitch : 0.0, Yaw : 359.94, Alt : 31.5599994659, Lat : 49.2835702, Lng : -123.1150204, Q1 : 0.999999761581, Q2 : 0.000371440168237, Q3 : 7.28326558601e-05, Q4 : -0.000520797562785}
2019-04-14 01:39:43.71: SIM {TimeUS : 45335192, Roll : 0.08, Pitch : 0.08, Yaw : 359.93, Alt : 31.7299995422, Lat : 49.2835702, Lng : -123.1150204, Q1 : 0.999999344349, Q2 : 0.000773983250838, Q3 : 0.000707056547981, Q4 : -0.000530240708031}
2019-04-14 01:39:43.81: SIM {TimeUS : 45435152, Roll : 0.07, Pitch : 0.1, Yaw : 359.93, Alt : 31.9099998474, Lat : 49.2835703, Lng : -123.1150205, Q1 : 0.99999922514, Q2 : 0.00061636720784, Q3 : 0.000904909567907, Q4 : -0.000527884578332}
2019-04-14 01:39:43.91: SIM {TimeUS : 45535112, Roll : 0.05, Pitch : 0.11, Yaw : 359.94, Alt : 32.0999984741, Lat : 49.2835703, Lng : -123.1150205, Q1 : 0.999999284744, Q2 : 0.000487742712721, Q3 : 0.000979042379186, Q4 : -0.000507118587848}
2019-04-14 01:39:44.01: SIM {TimeUS : 45635072, Roll : 0.05, Pitch : 0.11, Yaw : 359.94, Alt : 32.2900009155, Lat : 49.2835703, Lng : -123.1150206, Q1 : 0.999999284744, Q2 : 0.00046495712013, Q3 : 0.00101676315535, Q4 : -0.000484419113491}
2019-04-14 01:39:44.11: SIM {TimeUS : 45735032, Roll : 0.05, Pitch : 0.12, Yaw : 359.94, Alt : 32.4799995422, Lat : 49.2835703, Lng : -123.1150206, Q1 : 0.99999922514, Q2 : 0.000473421969218, Q3 : 0.00106152670924, Q4 : -0.000465283694211}
2019-04-14 01:39:44.21: SIM {TimeUS : 45834992, Roll : 0.06, Pitch : 0.14, Yaw : 359.94, Alt : 32.6800003052, Lat : 49.2835703, Lng : -123.1150207, Q1 : 0.999998986721, Q2 : 0.000533842190634, Q3 : 0.00122466532048, Q4 : -0.000455741013866}
2019-04-14 01:39:44.31: SIM {TimeUS : 45934952, Roll : 0.08, Pitch : 0.14, Yaw : 359.94, Alt : 32.8699989319, Lat : 49.2835703, Lng : -123.1150207, Q1 : 0.999998867512, Q2 : 0.000735983019695, Q3 : 0.00123333197553, Q4 : -0.000446940975962}
2019-04-14 01:39:44.41: SIM {TimeUS : 46034912, Roll : 0.11, Pitch : 0.12, Yaw : 359.94, Alt : 33.0699996948, Lat : 49.2835704, Lng : -123.1150207, Q1 : 0.999998748302, Q2 : 0.00101738527883, Q3 : 0.00113082514144, Q4 : -0.000441594311269}
2019-04-14 01:39:44.51: SIM {TimeUS : 46134872, Roll : 0.14, Pitch : 0.12, Yaw : 359.95, Alt : 33.2799987793, Lat : 49.2835704, Lng : -123.1150208, Q1 : 0.999998509884, Q2 : 0.00130295788404, Q3 : 0.00105735403486, Q4 : -0.000437259237515}
2019-04-14 01:39:44.61: SIM {TimeUS : 46234832, Roll : 0.17, Pitch : 0.12, Yaw : 359.95, Alt : 33.4799995422, Lat : 49.2835704, Lng : -123.1150208, Q1 : 0.999998211861, Q2 : 0.00149099121336, Q3 : 0.00107815896627, Q4 : -0.000433255598182}
2019-04-14 01:39:44.71: SIM {TimeUS : 46334792, Roll : 0.19, Pitch : 0.13, Yaw : 359.95, Alt : 33.6899986267, Lat : 49.2835704, Lng : -123.1150208, Q1 : 0.999997854233, Q2 : 0.00165931379888, Q3 : 0.00117595214397, Q4 : -0.000432740373071}
2019-04-14 01:39:44.81: SIM {TimeUS : 46434752, Roll : 0.19, Pitch : 0.13, Yaw : 359.95, Alt : 33.9000015259, Lat : 49.2835704, Lng : -123.1150208, Q1 : 0.999997794628, Q2 : 0.00167350075208, Q3 : 0.00117235817015, Q4 : -0.00043725388241}
2019-04-14 01:39:44.91: SIM {TimeUS : 46534712, Roll : 0.17, Pitch : 0.13, Yaw : 359.94, Alt : 34.1100006104, Lat : 49.2835704, Lng : -123.1150208, Q1 : 0.999998092651, Q2 : 0.00152789801359, Q3 : 0.00113773194607, Q4 : -0.000443713506684}
2019-04-14 01:39:45.01: SIM {TimeUS : 46634672, Roll : 0.14, Pitch : 0.12, Yaw : 359.94, Alt : 34.3199996948, Lat : 49.2835704, Lng : -123.1150208, Q1 : 0.999998509884, Q2 : 0.00125821377151, Q3 : 0.00110731250606, Q4 : -0.00046267331345}
2019-04-14 01:39:45.11: SIM {TimeUS : 46734632, Roll : 0.11, Pitch : 0.11, Yaw : 359.94, Alt : 34.5299987793, Lat : 49.2835704, Lng : -123.1150208, Q1 : 0.999998867512, Q2 : 0.000986133236438, Q3 : 0.0010327170603, Q4 : -0.000484376825625}
2019-04-14 01:39:45.21: SIM {TimeUS : 46834592, Roll : 0.09, Pitch : 0.07, Yaw : 359.94, Alt : 34.7400016785, Lat : 49.2835704, Lng : -123.1150208, Q1 : 0.999999344349, Q2 : 0.000797487737145, Q3 : 0.000669864064548, Q4 : -0.000515113584697}
2019-04-14 01:39:45.31: SIM {TimeUS : 46934552, Roll : 0.07, Pitch : 0.03, Yaw : 359.93, Alt : 34.9599990845, Lat : 49.2835704, Lng : -123.1150208, Q1 : 0.999999582767, Q2 : 0.000646043918096, Q3 : 0.000333892501658, Q4 : -0.000555723439902}
2019-04-14 01:39:45.42: SIM {TimeUS : 47035345, Roll : 0.04, Pitch : 0.01, Yaw : 359.93, Alt : 35.1800003052, Lat : 49.2835704, Lng : -123.1150207, Q1 : 0.999999701977, Q2 : 0.000425704114605, Q3 : 0.000161983494763, Q4 : -0.000597737787757}
2019-04-14 01:39:45.51: SIM {TimeUS : 47135305, Roll : 0.03, Pitch : 0.01, Yaw : 359.92, Alt : 35.3899993896, Lat : 49.2835704, Lng : -123.1150207, Q1 : 0.999999761581, Q2 : 0.000297453021631, Q3 : 0.000121628945635, Q4 : -0.000631943170447}
2019-04-14 01:39:45.61: SIM {TimeUS : 47235265, Roll : 0.03, Pitch : 0.01, Yaw : 359.92, Alt : 35.6100006104, Lat : 49.2835704, Lng : -123.1150207, Q1 : 0.999999761581, Q2 : 0.000298211176414, Q3 : 0.000108640291728, Q4 : -0.000661080586724}
2019-04-14 01:39:45.71: SIM {TimeUS : 47335225, Roll : 0.01, Pitch : -0.01, Yaw : 359.92, Alt : 35.8300018311, Lat : 49.2835704, Lng : -123.1150207, Q1 : 0.999999761581, Q2 : 0.000141229465953, Q3 : -8.73839308042e-05, Q4 : -0.000688730215188}
2019-04-14 01:39:45.81: SIM {TimeUS : 47435185, Roll : -0.01, Pitch : -0.04, Yaw : 359.91, Alt : 36.0499992371, Lat : 49.2835704, Lng : -123.1150207, Q1 : 0.999999701977, Q2 : -0.000109723165224, Q3 : -0.000382645666832, Q4 : -0.000716204755008}
2019-04-14 01:39:45.91: SIM {TimeUS : 47535145, Roll : -0.04, Pitch : -0.06, Yaw : 359.91, Alt : 36.2700004578, Lat : 49.2835704, Lng : -123.1150207, Q1 : 0.999999463558, Q2 : -0.00038053872413, Q3 : -0.00057856622152, Q4 : -0.000746932229958}
2019-04-14 01:39:46.01: SIM {TimeUS : 47635105, Roll : -0.07, Pitch : -0.07, Yaw : 359.91, Alt : 36.5, Lat : 49.2835704, Lng : -123.1150207, Q1 : 0.999999284744, Q2 : -0.000613405252807, Q3 : -0.000696149014402, Q4 : -0.000776741711888}
2019-04-14 01:39:46.11: SIM {TimeUS : 47735065, Roll : -0.07, Pitch : -0.07, Yaw : 359.9, Alt : 36.7200012207, Lat : 49.2835704, Lng : -123.1150206, Q1 : 0.99999922514, Q2 : -0.000678479613271, Q3 : -0.000682594429236, Q4 : -0.000798585475422}
2019-04-14 01:39:46.21: SIM {TimeUS : 47835025, Roll : -0.07, Pitch : -0.06, Yaw : 359.9, Alt : 36.9399986267, Lat : 49.2835704, Lng : -123.1150206, Q1 : 0.999999284744, Q2 : -0.000664798426442, Q3 : -0.000608582631685, Q4 : -0.000818967819214}
2019-04-14 01:39:46.31: SIM {TimeUS : 47934985, Roll : -0.07, Pitch : -0.04, Yaw : 359.9, Alt : 37.1699981689, Lat : 49.2835704, Lng : -123.1150206, Q1 : 0.999999403954, Q2 : -0.000621879356913, Q3 : -0.00042764339014, Q4 : -0.000840472581331}
2019-04-14 01:39:46.41: SIM {TimeUS : 48034945, Roll : -0.06, Pitch : -0.03, Yaw : 359.9, Alt : 37.3899993896, Lat : 49.2835704, Lng : -123.1150206, Q1 : 0.999999463558, Q2 : -0.000566433125641, Q3 : -0.000317851663567, Q4 : -0.000855445803609}
2019-04-14 01:39:46.51: SIM {TimeUS : 48134905, Roll : -0.07, Pitch : -0.04, Yaw : 359.9, Alt : 37.6199989319, Lat : 49.2835704, Lng : -123.1150206, Q1 : 0.999999344349, Q2 : -0.00064571731491, Q3 : -0.000349170237314, Q4 : -0.000862320768647}
2019-04-14 01:39:46.61: SIM {TimeUS : 48234865, Roll : -0.08, Pitch : -0.02, Yaw : 359.9, Alt : 37.8400001526, Lat : 49.2835704, Lng : -123.1150206, Q1 : 0.999999344349, Q2 : -0.000725441845134, Q3 : -0.000249832402915, Q4 : -0.000867054681294}
2019-04-14 01:39:46.71: SIM {TimeUS : 48334825, Roll : -0.1, Pitch : -0.01, Yaw : 359.9, Alt : 38.0699996948, Lat : 49.2835704, Lng : -123.1150206, Q1 : 0.99999922514, Q2 : -0.000902704021428, Q3 : -0.000107153049612, Q4 : -0.000872661999892}
2019-04-14 01:39:46.81: SIM {TimeUS : 48434785, Roll : -0.1, Pitch : 0.0, Yaw : 359.9, Alt : 38.2999992371, Lat : 49.2835704, Lng : -123.1150206, Q1 : 0.99999922514, Q2 : -0.000889916089363, Q3 : 1.15725197247e-05, Q4 : -0.000872016418725}
2019-04-14 01:39:46.91: SIM {TimeUS : 48534745, Roll : -0.07, Pitch : 0.03, Yaw : 359.9, Alt : 38.5200004578, Lat : 49.2835704, Lng : -123.1150206, Q1 : 0.999999344349, Q2 : -0.000658746459521, Q3 : 0.000266511779046, Q4 : -0.000871377065778}
2019-04-14 01:39:47.01: SIM {TimeUS : 48634705, Roll : -0.04, Pitch : 0.02, Yaw : 359.89, Alt : 38.75, Lat : 49.2835704, Lng : -123.1150206, Q1 : 0.999999463558, Q2 : -0.000426390790381, Q3 : 0.000238251479459, Q4 : -0.000876594218425}
2019-04-14 01:39:47.11: SIM {TimeUS : 48734665, Roll : -0.01, Pitch : 0.01, Yaw : 359.89, Alt : 38.9799995422, Lat : 49.2835704, Lng : -123.1150206, Q1 : 0.999999582767, Q2 : -0.000142742981552, Q3 : 0.000145173165947, Q4 : -0.000881634303369}
2019-04-14 01:39:47.21: SIM {TimeUS : 48834625, Roll : 0.02, Pitch : 0.03, Yaw : 359.89, Alt : 39.2099990845, Lat : 49.2835704, Lng : -123.1150206, Q1 : 0.999999523163, Q2 : 0.000179821639904, Q3 : 0.000286547641736, Q4 : -0.000892282580025}
2019-04-14 01:39:47.31: SIM {TimeUS : 48934585, Roll : 0.05, Pitch : 0.06, Yaw : 359.89, Alt : 39.4399986267, Lat : 49.2835706, Lng : -123.1150206, Q1 : 0.999999284744, Q2 : 0.000500648282468, Q3 : 0.000570961332414, Q4 : -0.000914469535928}
2019-04-14 01:39:47.41: SIM {TimeUS : 49034545, Roll : 0.08, Pitch : 0.09, Yaw : 359.89, Alt : 39.6699981689, Lat : 49.2835706, Lng : -123.1150206, Q1 : 0.999998927116, Q2 : 0.000710084335878, Q3 : 0.000835271610413, Q4 : -0.00094300461933}
2019-04-14 01:39:47.52: SIM {TimeUS : 49135338, Roll : 0.06, Pitch : 0.12, Yaw : 359.88, Alt : 39.9000015259, Lat : 49.2835706, Lng : -123.1150206, Q1 : 0.999998807907, Q2 : 0.000608791364357, Q3 : 0.00105377438013, Q4 : -0.000967459171079}
2019-04-14 01:39:47.61: SIM {TimeUS : 49235298, Roll : 0.02, Pitch : 0.14, Yaw : 359.88, Alt : 40.1300010681, Lat : 49.2835706, Lng : -123.1150206, Q1 : 0.999998748302, Q2 : 0.000185105192941, Q3 : 0.00122583995108, Q4 : -0.00101234205067}
2019-04-14 01:39:47.71: SIM {TimeUS : 49335258, Roll : -0.01, Pitch : 0.13, Yaw : 359.87, Alt : 40.3699989319, Lat : 49.2835706, Lng : -123.1150206, Q1 : 0.999998748302, Q2 : -0.000150351042976, Q3 : 0.00119234167505, Q4 : -0.0010494759772}
2019-04-14 01:39:47.81: SIM {TimeUS : 49435218, Roll : -0.04, Pitch : 0.11, Yaw : 359.87, Alt : 40.5999984741, Lat : 49.2835706, Lng : -123.1150206, Q1 : 0.999998867512, Q2 : -0.000380215060432, Q3 : 0.000981160439551, Q4 : -0.00108528521378}
2019-04-14 01:39:47.91: SIM {TimeUS : 49535178, Roll : -0.05, Pitch : 0.09, Yaw : 359.87, Alt : 40.8300018311, Lat : 49.2835706, Lng : -123.1150206, Q1 : 0.999998927116, Q2 : -0.00047457148321, Q3 : 0.000810101279058, Q4 : -0.00112148036715}
2019-04-14 01:39:48.01: SIM {TimeUS : 49635138, Roll : -0.04, Pitch : 0.09, Yaw : 359.86, Alt : 41.0600013733, Lat : 49.2835706, Lng : -123.1150206, Q1 : 0.999998927116, Q2 : -0.000368108623661, Q3 : 0.00086162541993, Q4 : -0.00116060068831}
2019-04-14 01:39:48.11: SIM {TimeUS : 49735098, Roll : 0.0, Pitch : 0.12, Yaw : 359.86, Alt : 41.2999992371, Lat : 49.2835706, Lng : -123.1150206, Q1 : 0.999998688698, Q2 : 2.1458467927e-06, Q3 : 0.00110567826778, Q4 : -0.00120457424782}
2019-04-14 01:39:48.21: SIM {TimeUS : 49835058, Roll : 0.05, Pitch : 0.14, Yaw : 359.85, Alt : 41.5299987793, Lat : 49.2835706, Lng : -123.1150206, Q1 : 0.99999833107, Q2 : 0.000460338545963, Q3 : 0.00126729323529, Q4 : -0.00125040672719}
2019-04-14 01:39:48.31: SIM {TimeUS : 49935018, Roll : 0.09, Pitch : 0.12, Yaw : 359.85, Alt : 41.7599983215, Lat : 49.2835706, Lng : -123.1150207, Q1 : 0.999998271465, Q2 : 0.000818855362013, Q3 : 0.00106948928442, Q4 : -0.00129140389618}
2019-04-14 01:39:48.41: SIM {TimeUS : 50034978, Roll : 0.09, Pitch : 0.08, Yaw : 359.84, Alt : 42.0, Lat : 49.2835706, Lng : -123.1150207, Q1 : 0.999998509884, Q2 : 0.000859234947711, Q3 : 0.000711358326953, Q4 : -0.0013254089281}
2019-04-14 01:39:48.51: SIM {TimeUS : 50134938, Roll : 0.06, Pitch : 0.04, Yaw : 359.84, Alt : 42.2299995422, Lat : 49.2835706, Lng : -123.1150207, Q1 : 0.999998867512, Q2 : 0.000553861493245, Q3 : 0.000433860201156, Q4 : -0.00134551280644}
2019-04-14 01:39:48.61: SIM {TimeUS : 50234898, Roll : 0.0, Pitch : 0.04, Yaw : 359.84, Alt : 42.4700012207, Lat : 49.2835706, Lng : -123.1150207, Q1 : 0.999999046326, Q2 : 7.52798878239e-05, Q3 : 0.000375978241209, Q4 : -0.00135612057056}
2019-04-14 01:39:48.71: SIM {TimeUS : 50334858, Roll : -0.03, Pitch : 0.06, Yaw : 359.84, Alt : 42.7000007629, Lat : 49.2835706, Lng : -123.1150206, Q1 : 0.999998867512, Q2 : -0.000290992757073, Q3 : 0.0006083692424, Q4 : -0.00135449087247}
2019-04-14 01:39:48.81: SIM {TimeUS : 50434818, Roll : -0.05, Pitch : 0.08, Yaw : 359.84, Alt : 42.9300003052, Lat : 49.2835704, Lng : -123.1150206, Q1 : 0.999998688698, Q2 : -0.000480316986796, Q3 : 0.000783503579441, Q4 : -0.00135051680263}
2019-04-14 01:39:48.91: SIM {TimeUS : 50534778, Roll : -0.05, Pitch : 0.08, Yaw : 359.84, Alt : 43.1699981689, Lat : 49.2835704, Lng : -123.1150206, Q1 : 0.999998748302, Q2 : -0.000444759556558, Q3 : 0.000760969240218, Q4 : -0.00134699977934}
2019-04-14 01:39:49.01: SIM {TimeUS : 50634738, Roll : -0.04, Pitch : 0.07, Yaw : 359.84, Alt : 43.4000015259, Lat : 49.2835704, Lng : -123.1150206, Q1 : 0.999998748302, Q2 : -0.000434309156844, Q3 : 0.000655344105326, Q4 : -0.00135095219593}
2019-04-14 01:39:49.11: SIM {TimeUS : 50734698, Roll : -0.03, Pitch : 0.05, Yaw : 359.84, Alt : 43.6399993896, Lat : 49.2835704, Lng : -123.1150206, Q1 : 0.999998867512, Q2 : -0.000345189677319, Q3 : 0.000501607253682, Q4 : -0.00136161362752}
2019-04-14 01:39:49.21: SIM {TimeUS : 50834658, Roll : -0.01, Pitch : 0.04, Yaw : 359.84, Alt : 43.8699989319, Lat : 49.2835704, Lng : -123.1150206, Q1 : 0.999998927116, Q2 : -0.000161505566211, Q3 : 0.000389447202906, Q4 : -0.00138812407386}
2019-04-14 01:39:49.31: SIM {TimeUS : 50934618, Roll : 0.0, Pitch : 0.03, Yaw : 359.83, Alt : 44.1100006104, Lat : 49.2835704, Lng : -123.1150206, Q1 : 0.999998927116, Q2 : -4.42789569206e-05, Q3 : 0.000321999250446, Q4 : -0.00142061419319}
2019-04-14 01:39:49.41: SIM {TimeUS : 51034578, Roll : 0.0, Pitch : 0.01, Yaw : 359.83, Alt : 44.3499984741, Lat : 49.2835704, Lng : -123.1150206, Q1 : 0.999998927116, Q2 : -7.15891437721e-05, Q3 : 0.000131877866806, Q4 : -0.00145310838707}
2019-04-14 01:39:49.51: SIM {TimeUS : 51134538, Roll : -0.01, Pitch : -0.01, Yaw : 359.82, Alt : 44.5800018311, Lat : 49.2835704, Lng : -123.1150206, Q1 : 0.999998867512, Q2 : -0.000150638777995, Q3 : -0.00016747272457, Q4 : -0.0014875944471}
2019-04-14 01:39:49.61: SIM {TimeUS : 51235331, Roll : -0.02, Pitch : -0.04, Yaw : 359.82, Alt : 44.8199996948, Lat : 49.2835704, Lng : -123.1150206, Q1 : 0.999998748302, Q2 : -0.000204632262466, Q3 : -0.000367748842109, Q4 : -0.00152618950233}
2019-04-14 01:39:49.71: SIM {TimeUS : 51335291, Roll : -0.02, Pitch : -0.05, Yaw : 359.82, Alt : 45.0600013733, Lat : 49.2835704, Lng : -123.1150206, Q1 : 0.999998629093, Q2 : -0.000194960506633, Q3 : -0.00046707119327, Q4 : -0.00156606431119}
2019-04-14 01:39:49.81: SIM {TimeUS : 51435251, Roll : -0.02, Pitch : -0.05, Yaw : 359.81, Alt : 45.2900009155, Lat : 49.2835703, Lng : -123.1150206, Q1 : 0.999998569489, Q2 : -0.000215335356188, Q3 : -0.000452561595012, Q4 : -0.00160250370391}
2019-04-14 01:39:49.91: SIM {TimeUS : 51535211, Roll : -0.04, Pitch : -0.03, Yaw : 359.81, Alt : 45.5299987793, Lat : 49.2835703, Lng : -123.1150206, Q1 : 0.999998509884, Q2 : -0.000401254568715, Q3 : -0.000342845509294, Q4 : -0.00164274009876}
2019-04-14 01:39:50.01: SIM {TimeUS : 51635171, Roll : -0.07, Pitch : -0.02, Yaw : 359.8, Alt : 45.7599983215, Lat : 49.2835703, Lng : -123.1150206, Q1 : 0.99999833107, Q2 : -0.000694037240464, Q3 : -0.000222687871428, Q4 : -0.00168173084967}
2019-04-14 01:39:50.11: SIM {TimeUS : 51735131, Roll : -0.1, Pitch : -0.01, Yaw : 359.8, Alt : 45.9900016785, Lat : 49.2835703, Lng : -123.1150205, Q1 : 0.999998092651, Q2 : -0.000894385215361, Q3 : -0.000134469300974, Q4 : -0.00171635113657}
2019-04-14 01:39:50.21: SIM {TimeUS : 51835091, Roll : -0.1, Pitch : 0.0, Yaw : 359.79, Alt : 46.2200012207, Lat : 49.2835703, Lng : -123.1150205, Q1 : 0.999998033047, Q2 : -0.000930303125642, Q3 : 5.79609547913e-07, Q4 : -0.00174609734677}
2019-04-14 01:39:50.31: SIM {TimeUS : 51935051, Roll : -0.09, Pitch : 0.02, Yaw : 359.79, Alt : 46.4500007629, Lat : 49.2835703, Lng : -123.1150205, Q1 : 0.999998092651, Q2 : -0.000799260626081, Q3 : 0.000204614378163, Q4 : -0.00176701601595}
2019-04-14 01:39:50.41: SIM {TimeUS : 52035011, Roll : -0.06, Pitch : 0.03, Yaw : 359.79, Alt : 46.6699981689, Lat : 49.2835703, Lng : -123.1150205, Q1 : 0.999998211861, Q2 : -0.00055045512272, Q3 : 0.000290542986477, Q4 : -0.00178740371484}
2019-04-14 01:39:50.51: SIM {TimeUS : 52134971, Roll : -0.04, Pitch : 0.02, Yaw : 359.79, Alt : 46.8800010681, Lat : 49.2835703, Lng : -123.1150205, Q1 : 0.999998271465, Q2 : -0.000352767907316, Q3 : 0.000200067501282, Q4 : -0.00180484738667}
2019-04-14 01:39:50.61: SIM {TimeUS : 52234931, Roll : -0.03, Pitch : 0.0, Yaw : 359.79, Alt : 47.0900001526, Lat : 49.2835703, Lng : -123.1150206, Q1 : 0.999998271465, Q2 : -0.000274960591923, Q3 : 1.00828456198e-05, Q4 : -0.00181965273805}
2019-04-14 01:39:50.71: SIM {TimeUS : 52334891, Roll : -0.01, Pitch : -0.02, Yaw : 359.79, Alt : 47.2900009155, Lat : 49.2835703, Lng : -123.1150206, Q1 : 0.999998271465, Q2 : -0.000172885440406, Q3 : -0.000261129520368, Q4 : -0.00183272082359}
2019-04-14 01:39:50.81: SIM {TimeUS : 52434851, Roll : 0.0, Pitch : -0.05, Yaw : 359.78, Alt : 47.4799995422, Lat : 49.2835703, Lng : -123.1150206, Q1 : 0.999998152256, Q2 : -2.95913505397e-05, Q3 : -0.000501630012877, Q4 : -0.00184832711238}
2019-04-14 01:39:50.91: SIM {TimeUS : 52534811, Roll : 0.0, Pitch : -0.09, Yaw : 359.78, Alt : 47.6599998474, Lat : 49.2835703, Lng : -123.1150206, Q1 : 0.999997913837, Q2 : -3.33372781824e-07, Q3 : -0.000809762335848, Q4 : -0.00186540035065}
2019-04-14 01:39:51.01: SIM {TimeUS : 52634771, Roll : 0.0, Pitch : -0.12, Yaw : 359.78, Alt : 47.8400001526, Lat : 49.2835703, Lng : -123.1150206, Q1 : 0.99999755621, Q2 : -1.51466986154e-06, Q3 : -0.00113300909288, Q4 : -0.00188363809139}
2019-04-14 01:39:51.11: SIM {TimeUS : 52734731, Roll : 0.02, Pitch : -0.14, Yaw : 359.78, Alt : 48.0, Lat : 49.2835703, Lng : -123.1150206, Q1 : 0.999997377396, Q2 : 0.000183897238458, Q3 : -0.00124201644212, Q4 : -0.00190261856187}
2019-04-14 01:39:51.21: SIM {TimeUS : 52834691, Roll : 0.04, Pitch : -0.13, Yaw : 359.77, Alt : 48.1399993896, Lat : 49.2835703, Lng : -123.1150206, Q1 : 0.999997437, Q2 : 0.000411466724472, Q3 : -0.00116141163744, Q4 : -0.00192357727792}
2019-04-14 01:39:51.31: SIM {TimeUS : 52934651, Roll : 0.06, Pitch : -0.1, Yaw : 359.77, Alt : 48.2799987793, Lat : 49.2835703, Lng : -123.1150206, Q1 : 0.999997496605, Q2 : 0.000590622134041, Q3 : -0.000949914043304, Q4 : -0.00194618850946}
2019-04-14 01:39:51.41: SIM {TimeUS : 53034611, Roll : 0.07, Pitch : -0.08, Yaw : 359.77, Alt : 48.4099998474, Lat : 49.2835703, Lng : -123.1150206, Q1 : 0.99999755621, Q2 : 0.000630274298601, Q3 : -0.00071412185207, Q4 : -0.00197421200573}
2019-04-14 01:39:51.51: SIM {TimeUS : 53134571, Roll : 0.07, Pitch : -0.06, Yaw : 359.77, Alt : 48.5200004578, Lat : 49.2835704, Lng : -123.1150206, Q1 : 0.999997615814, Q2 : 0.000652915216051, Q3 : -0.000558496743906, Q4 : -0.00200637499802}
2019-04-14 01:39:51.62: SIM {TimeUS : 53235364, Roll : 0.06, Pitch : -0.06, Yaw : 359.76, Alt : 48.6199989319, Lat : 49.2835704, Lng : -123.1150206, Q1 : 0.999997615814, Q2 : 0.000579151790589, Q3 : -0.000545619113836, Q4 : -0.00204436667264}
2019-04-14 01:39:51.71: SIM {TimeUS : 53335324, Roll : 0.03, Pitch : -0.06, Yaw : 359.76, Alt : 48.7099990845, Lat : 49.2835704, Lng : -123.1150206, Q1 : 0.999997615814, Q2 : 0.000327386049321, Q3 : -0.000527175609022, Q4 : -0.00208756932989}
2019-04-14 01:39:51.81: SIM {TimeUS : 53435284, Roll : 0.02, Pitch : -0.04, Yaw : 359.75, Alt : 48.7799987793, Lat : 49.2835704, Lng : -123.1150206, Q1 : 0.999997675419, Q2 : 0.000184944467037, Q3 : -0.000396454008296, Q4 : -0.00212310324423}
2019-04-14 01:39:51.91: SIM {TimeUS : 53535244, Roll : 0.0, Pitch : -0.02, Yaw : 359.75, Alt : 48.8499984741, Lat : 49.2835704, Lng : -123.1150206, Q1 : 0.999997675419, Q2 : 8.42670342536e-05, Q3 : -0.000244906637818, Q4 : -0.00215436238796}
2019-04-14 01:39:52.01: SIM {TimeUS : 53635204, Roll : 0.0, Pitch : 0.0, Yaw : 359.74, Alt : 48.9099998474, Lat : 49.2835704, Lng : -123.1150206, Q1 : 0.999997615814, Q2 : 4.78117908642e-05, Q3 : -3.63749422831e-05, Q4 : -0.0021821630653}
2019-04-14 01:39:52.11: SIM {TimeUS : 53735164, Roll : 0.02, Pitch : 0.02, Yaw : 359.74, Alt : 48.9599990845, Lat : 49.2835704, Lng : -123.1150206, Q1 : 0.999997496605, Q2 : 0.000233584403759, Q3 : 0.00022485293448, Q4 : -0.00220795022324}
2019-04-14 01:39:52.21: SIM {TimeUS : 53835124, Roll : 0.11, Pitch : 0.0, Yaw : 359.74, Alt : 49.0, Lat : 49.2835704, Lng : -123.1150206, Q1 : 0.999997019768, Q2 : 0.00101624103263, Q3 : 1.41379687193e-05, Q4 : -0.00222976063378}
2019-04-14 01:39:52.31: SIM {TimeUS : 53935084, Roll : 0.36, Pitch : -0.16, Yaw : 359.74, Alt : 49.0299987793, Lat : 49.2835704, Lng : -123.1150206, Q1 : 0.999991297722, Q2 : 0.00318979425356, Q3 : -0.00147710624151, Q4 : -0.00225406186655}
2019-04-14 01:39:52.41: SIM {TimeUS : 54035044, Roll : 0.81, Pitch : -0.5, Yaw : 359.73, Alt : 49.0600013733, Lat : 49.2835704, Lng : -123.1150206, Q1 : 0.999962329865, Q2 : 0.00712099205703, Q3 : -0.00440943613648, Q4 : -0.00227646762505}
2019-04-14 01:39:52.51: SIM {TimeUS : 54135004, Roll : 1.46, Pitch : -0.99, Yaw : 359.72, Alt : 49.0900001526, Lat : 49.2835704, Lng : -123.1150206, Q1 : 0.999878048897, Q2 : 0.0127508156002, Q3 : -0.00872465875, Q4 : -0.00228315405548}
2019-04-14 01:39:52.61: SIM {TimeUS : 54234964, Roll : 2.26, Pitch : -1.59, Yaw : 359.7, Alt : 49.1100006104, Lat : 49.2835706, Lng : -123.1150205, Q1 : 0.999705970287, Q2 : 0.0197067726403, Q3 : -0.0139476004988, Q4 : -0.00225929683074}
2019-04-14 01:39:52.71: SIM {TimeUS : 54334924, Roll : 3.11, Pitch : -2.19, Yaw : 359.69, Alt : 49.1300010681, Lat : 49.2835706, Lng : -123.1150204, Q1 : 0.999443292618, Q2 : 0.0271576084197, Q3 : -0.0192584209144, Q4 : -0.00217895722017}
2019-04-14 01:39:52.81: SIM {TimeUS : 54434884, Roll : 3.88, Pitch : -2.73, Yaw : 359.67, Alt : 49.1500015259, Lat : 49.2835707, Lng : -123.1150202, Q1 : 0.999139010906, Q2 : 0.0337974615395, Q3 : -0.0239764545113, Q4 : -0.00204220646992}
2019-04-14 01:39:52.91: SIM {TimeUS : 54534844, Roll : 4.47, Pitch : -3.15, Yaw : 359.66, Alt : 49.1699981689, Lat : 49.2835708, Lng : -123.11502, Q1 : 0.998857140541, Q2 : 0.0389564968646, Q3 : -0.0276293121278, Q4 : -0.00185344531201}
2019-04-14 01:39:53.01: SIM {TimeUS : 54634804, Roll : 4.89, Pitch : -3.44, Yaw : 359.66, Alt : 49.1800003052, Lat : 49.2835709, Lng : -123.1150197, Q1 : 0.998635232449, Q2 : 0.0425959713757, Q3 : -0.0301758497953, Q4 : -0.00161954679061}
2019-04-14 01:39:53.11: SIM {TimeUS : 54734764, Roll : 5.19, Pitch : -3.67, Yaw : 359.67, Alt : 49.1899986267, Lat : 49.2835712, Lng : -123.1150193, Q1 : 0.99845790863, Q2 : 0.0452339164913, Q3 : -0.0321540758014, Q4 : -0.00136501574889}
2019-04-14 01:39:53.21: SIM {TimeUS : 54834724, Roll : 5.47, Pitch : -3.88, Yaw : 359.68, Alt : 49.2000007629, Lat : 49.2835714, Lng : -123.1150188, Q1 : 0.998283445835, Q2 : 0.0476690120995, Q3 : -0.0340099148452, Q4 : -0.00109952420462}
2019-04-14 01:39:53.31: SIM {TimeUS : 54934684, Roll : 5.79, Pitch : -4.09, Yaw : 359.69, Alt : 49.2099990845, Lat : 49.2835716, Lng : -123.1150182, Q1 : 0.99808627367, Q2 : 0.0503988191485, Q3 : -0.0358192659914, Q4 : -0.000823015056085}
2019-04-14 01:39:53.41: SIM {TimeUS : 55034644, Roll : 6.1, Pitch : -4.29, Yaw : 359.7, Alt : 49.2200012207, Lat : 49.283572, Lng : -123.1150175, Q1 : 0.997878730297, Q2 : 0.0531563088298, Q3 : -0.0375785827637, Q4 : -0.000550623692106}
2019-04-14 01:39:53.51: SIM {TimeUS : 55134604, Roll : 6.39, Pitch : -4.49, Yaw : 359.71, Alt : 49.2200012207, Lat : 49.2835724, Lng : -123.1150167, Q1 : 0.997678339481, Q2 : 0.0556419752538, Q3 : -0.0392658673227, Q4 : -0.000297973398119}
2019-04-14 01:39:53.61: SIM {TimeUS : 55234564, Roll : 6.6, Pitch : -4.64, Yaw : 359.72, Alt : 49.2299995422, Lat : 49.2835727, Lng : -123.1150158, Q1 : 0.997518479824, Q2 : 0.0575007162988, Q3 : -0.040626399219, Q4 : -7.24919664208e-05}
2019-04-14 01:39:53.72: SIM {TimeUS : 55335357, Roll : 6.76, Pitch : -4.75, Yaw : 359.73, Alt : 49.2400016785, Lat : 49.2835732, Lng : -123.1150148, Q1 : 0.997401595116, Q2 : 0.0588748790324, Q3 : -0.0415185056627, Q4 : 0.000114007467346}
2019-04-14 01:39:53.81: SIM {TimeUS : 55435317, Roll : 6.87, Pitch : -4.81, Yaw : 359.73, Alt : 49.2400016785, Lat : 49.2835737, Lng : -123.1150137, Q1 : 0.997322380543, Q2 : 0.0598168373108, Q3 : -0.0420709736645, Q4 : 0.000255350751104}
2019-04-14 01:39:53.91: SIM {TimeUS : 55535277, Roll : 6.96, Pitch : -4.87, Yaw : 359.74, Alt : 49.25, Lat : 49.2835743, Lng : -123.1150125, Q1 : 0.997250378132, Q2 : 0.0606211908162, Q3 : -0.0426220223308, Q4 : 0.000348314148141}
2019-04-14 01:39:54.01: SIM {TimeUS : 55635237, Roll : 7.11, Pitch : -4.95, Yaw : 359.74, Alt : 49.25, Lat : 49.2835747, Lng : -123.1150113, Q1 : 0.997143507004, Q2 : 0.0618856921792, Q3 : -0.0433001890779, Q4 : 0.000432563800132}
2019-04-14 01:39:54.11: SIM {TimeUS : 55735197, Roll : 7.46, Pitch : -4.91, Yaw : 359.9, Alt : 49.25, Lat : 49.2835755, Lng : -123.1150099, Q1 : 0.996963262558, Q2 : 0.0649927258492, Q3 : -0.042852550745, Q4 : 0.00199137977324}
2019-04-14 01:39:54.21: SIM {TimeUS : 55835157, Roll : 8.04, Pitch : -4.72, Yaw : 0.8, Alt : 49.2599983215, Lat : 49.2835761, Lng : -123.1150084, Q1 : 0.996642947197, Q2 : 0.0703817307949, Q3 : -0.0406274497509, Q4 : 0.00993354711682}
2019-04-14 01:39:54.31: SIM {TimeUS : 55935117, Roll : 8.67, Pitch : -4.66, Yaw : 3.08, Alt : 49.2599983215, Lat : 49.2835768, Lng : -123.115007, Q1 : 0.995867431164, Q2 : 0.0766158699989, Q3 : -0.0385202839971, Q4 : 0.029904877767}
2019-04-14 01:39:54.41: SIM {TimeUS : 56035077, Roll : 9.07, Pitch : -5.03, Yaw : 6.95, Alt : 49.2599983215, Lat : 49.2835775, Lng : -123.1150054, Q1 : 0.99385613203, Q2 : 0.0815879479051, Q3 : -0.0389500930905, Q4 : 0.063846193254}
2019-04-14 01:39:54.51: SIM {TimeUS : 56135037, Roll : 9.05, Pitch : -5.95, Yaw : 12.27, Alt : 49.2599983215, Lat : 49.2835782, Lng : -123.1150036, Q1 : 0.989389717579, Q2 : 0.0838884487748, Q3 : -0.0430446080863, Q4 : 0.110534645617}
2019-04-14 01:39:54.61: SIM {TimeUS : 56234997, Roll : 8.45, Pitch : -7.31, Yaw : 18.83, Alt : 49.2599983215, Lat : 49.2835788, Lng : -123.1150017, Q1 : 0.981066286564, Q2 : 0.0829871892929, Q3 : -0.0507449954748, Q4 : 0.167472422123}
2019-04-14 01:39:54.71: SIM {TimeUS : 56334957, Roll : 7.23, Pitch : -8.92, Yaw : 26.36, Alt : 49.2700004578, Lat : 49.2835797, Lng : -123.1149997, Q1 : 0.96763676405, Q2 : 0.0789752155542, Q3 : -0.0612514801323, Q4 : 0.231711491942}
2019-04-14 01:39:54.81: SIM {TimeUS : 56434917, Roll : 5.44, Pitch : -10.52, Yaw : 34.63, Alt : 49.2700004578, Lat : 49.2835804, Lng : -123.1149976, Q1 : 0.9482832551, Q2 : 0.0724287256598, Q3 : -0.0733754113317, Q4 : 0.300215035677}
2019-04-14 01:39:54.91: SIM {TimeUS : 56534877, Roll : 3.12, Pitch : -11.9, Yaw : 43.34, Alt : 49.2700004578, Lat : 49.2835812, Lng : -123.1149954, Q1 : 0.922914683819, Q2 : 0.063474394381, Q3 : -0.0862976536155, Q4 : 0.369800209999}
2019-04-14 01:39:55.01: SIM {TimeUS : 56634837, Roll : 0.17, Pitch : -12.83, Yaw : 51.94, Alt : 49.2700004578, Lat : 49.283582, Lng : -123.1149931, Q1 : 0.893284916878, Q2 : 0.0502953976393, Q3 : -0.0998410061002, Q4 : 0.435366868973}
2019-04-14 01:39:55.11: SIM {TimeUS : 56734797, Roll : -3.01, Pitch : -13.2, Yaw : 59.54, Alt : 49.2700004578, Lat : 49.283583, Lng : -123.1149907, Q1 : 0.863449275494, Q2 : 0.0343828126788, Q3 : -0.112703800201, Q4 : 0.490480422974}
2019-04-14 01:39:55.21: SIM {TimeUS : 56834757, Roll : -5.77, Pitch : -13.11, Yaw : 65.37, Alt : 49.2700004578, Lat : 49.283584, Lng : -123.1149882, Q1 : 0.838150918484, Q2 : 0.0194433052093, Q3 : -0.123012907803, Q4 : 0.531029999256}
2019-04-14 01:39:55.31: SIM {TimeUS : 56934717, Roll : -7.63, Pitch : -12.81, Yaw : 69.11, Alt : 49.2700004578, Lat : 49.283585, Lng : -123.1149856, Q1 : 0.820811033249, Q2 : 0.00872048456222, Q3 : -0.129252165556, Q4 : 0.556315600872}
2019-04-14 01:39:55.41: SIM {TimeUS : 57034677, Roll : -8.39, Pitch : -12.58, Yaw : 70.84, Alt : 49.2700004578, Lat : 49.2835862, Lng : -123.114983, Q1 : 0.812457680702, Q2 : 0.00408101268113, Q3 : -0.131258577108, Q4 : 0.568037927151}
2019-04-14 01:39:55.51: SIM {TimeUS : 57134637, Roll : -8.16, Pitch : -12.59, Yaw : 70.88, Alt : 49.2700004578, Lat : 49.2835876, Lng : -123.1149804, Q1 : 0.81224411726, Q2 : 0.00580173032358, Q3 : -0.130158290267, Q4 : 0.568581342697}
2019-04-14 01:39:55.61: SIM {TimeUS : 57234597, Roll : -7.16, Pitch : -12.88, Yaw : 69.6, Alt : 49.2700004578, Lat : 49.283589, Lng : -123.1149777, Q1 : 0.818355858326, Q2 : 0.0129327559844, Q3 : -0.127409115434, Q4 : 0.560261785984}
2019-04-14 01:39:55.71: SIM {TimeUS : 57334557, Roll : -5.63, Pitch : -13.43, Yaw : 67.34, Alt : 49.2700004578, Lat : 49.2835904, Lng : -123.1149749, Q1 : 0.828674435616, Q2 : 0.0241437684745, Q3 : -0.124297574162, Q4 : 0.545220971107}
2019-04-14 01:39:55.82: SIM {TimeUS : 57435350, Roll : -3.79, Pitch : -14.15, Yaw : 64.42, Alt : 49.2799987793, Lat : 49.2835921, Lng : -123.1149721, Q1 : 0.841328918934, Q2 : 0.03779906407, Q3 : -0.121698088944, Q4 : 0.525286972523}
2019-04-14 01:39:55.91: SIM {TimeUS : 57535310, Roll : -1.88, Pitch : -14.86, Yaw : 61.19, Alt : 49.2799987793, Lat : 49.2835937, Lng : -123.1149692, Q1 : 0.854483962059, Q2 : 0.0517984554172, Q3 : -0.119613789022, Q4 : 0.502858400345}
2019-04-14 01:39:56.01: SIM {TimeUS : 57635270, Roll : -0.05, Pitch : -15.43, Yaw : 57.95, Alt : 49.2799987793, Lat : 49.2835952, Lng : -123.1149662, Q1 : 0.866918444633, Q2 : 0.0646324977279, Q3 : -0.117671206594, Q4 : 0.480029731989}
2019-04-14 01:39:56.11: SIM {TimeUS : 57735230, Roll : 1.52, Pitch : -15.77, Yaw : 55.03, Alt : 49.2799987793, Lat : 49.2835969, Lng : -123.1149631, Q1 : 0.877571702003, Q2 : 0.0750679522753, Q3 : -0.115579746664, Q4 : 0.459210246801}
2019-04-14 01:39:56.21: SIM {TimeUS : 57835190, Roll : 2.73, Pitch : -15.89, Yaw : 52.7, Alt : 49.2799987793, Lat : 49.2835986, Lng : -123.1149598, Q1 : 0.885753035545, Q2 : 0.0825165361166, Q3 : -0.113374896348, Q4 : 0.442468911409}
2019-04-14 01:39:56.31: SIM {TimeUS : 57935150, Roll : 3.48, Pitch : -15.88, Yaw : 51.13, Alt : 49.2799987793, Lat : 49.2836002, Lng : -123.1149565, Q1 : 0.891179025173, Q2 : 0.086771003902, Q3 : -0.111609145999, Q4 : 0.431061655283}
2019-04-14 01:39:56.41: SIM {TimeUS : 58035110, Roll : 3.74, Pitch : -15.83, Yaw : 50.37, Alt : 49.2799987793, Lat : 49.2836019, Lng : -123.114953, Q1 : 0.89388948679, Q2 : 0.0878992155194, Q3 : -0.110809884965, Q4 : 0.425389796495}
2019-04-14 01:39:56.51: SIM {TimeUS : 58135070, Roll : 3.55, Pitch : -15.81, Yaw : 50.36, Alt : 49.2799987793, Lat : 49.2836036, Lng : -123.1149494, Q1 : 0.89412099123, Q2 : 0.0863075479865, Q3 : -0.111382737756, Q4 : 0.425079524517}
2019-04-14 01:39:56.61: SIM {TimeUS : 58235030, Roll : 3.0, Pitch : -15.83, Yaw : 50.96, Alt : 49.2799987793, Lat : 49.2836053, Lng : -123.1149456, Q1 : 0.892250835896, Q2 : 0.0826970413327, Q3 : -0.113171830773, Q4 : 0.42923399806}
2019-04-14 01:39:56.71: SIM {TimeUS : 58334990, Roll : 2.23, Pitch : -15.91, Yaw : 52.01, Alt : 49.2799987793, Lat : 49.2836069, Lng : -123.1149418, Q1 : 0.888738811016, Q2 : 0.078027561307, Q3 : -0.11594697088, Q4 : 0.436590611935}
2019-04-14 01:39:56.81: SIM {TimeUS : 58434950, Roll : 1.33, Pitch : -16.03, Yaw : 53.31, Alt : 49.2799987793, Lat : 49.2836086, Lng : -123.1149379, Q1 : 0.884167730808, Q2 : 0.0728729963303, Q3 : -0.119457386434, Q4 : 0.44572070241}
2019-04-14 01:39:56.91: SIM {TimeUS : 58534910, Roll : 0.45, Pitch : -16.16, Yaw : 54.69, Alt : 49.2799987793, Lat : 49.2836104, Lng : -123.1149339, Q1 : 0.879140734673, Q2 : 0.0681051760912, Q3 : -0.123104922473, Q4 : 0.455322355032}
2019-04-14 01:39:57.01: SIM {TimeUS : 58634870, Roll : -0.29, Pitch : -16.27, Yaw : 55.98, Alt : 49.2900009155, Lat : 49.2836122, Lng : -123.1149299, Q1 : 0.874294757843, Q2 : 0.0641731247306, Q3 : -0.126197755337, Q4 : 0.464289367199}
2019-04-14 01:39:57.11: SIM {TimeUS : 58734830, Roll : -0.88, Pitch : -16.34, Yaw : 57.05, Alt : 49.2900009155, Lat : 49.2836141, Lng : -123.1149257, Q1 : 0.870171785355, Q2 : 0.0611551888287, Q3 : -0.128540128469, Q4 : 0.471739917994}
2019-04-14 01:39:57.21: SIM {TimeUS : 58834790, Roll : -1.29, Pitch : -16.39, Yaw : 57.82, Alt : 49.2900009155, Lat : 49.2836159, Lng : -123.1149216, Q1 : 0.867129087448, Q2 : 0.0591554418206, Q3 : -0.130192905664, Q4 : 0.477113842964}
2019-04-14 01:39:57.31: SIM {TimeUS : 58934750, Roll : -1.49, Pitch : -16.43, Yaw : 58.26, Alt : 49.2900009155, Lat : 49.2836177, Lng : -123.1149174, Q1 : 0.86534434557, Q2 : 0.0582938417792, Q3 : -0.131138011813, Q4 : 0.480191469193}
2019-04-14 01:39:57.41: SIM {TimeUS : 59034710, Roll : -1.5, Pitch : -16.48, Yaw : 58.38, Alt : 49.2900009155, Lat : 49.2836195, Lng : -123.1149131, Q1 : 0.864792048931, Q2 : 0.0585831664503, Q3 : -0.131515145302, Q4 : 0.481047302485}
2019-04-14 01:39:57.51: SIM {TimeUS : 59134670, Roll : -1.35, Pitch : -16.52, Yaw : 58.22, Alt : 49.2900009155, Lat : 49.2836215, Lng : -123.1149088, Q1 : 0.865344524384, Q2 : 0.0597360730171, Q3 : -0.131259292364, Q4 : 0.479980677366}
2019-04-14 01:39:57.61: SIM {TimeUS : 59234630, Roll : -1.06, Pitch : -16.57, Yaw : 57.85, Alt : 49.2900009155, Lat : 49.2836235, Lng : -123.1149045, Q1 : 0.866722822189, Q2 : 0.0616263970733, Q3 : -0.130573511124, Q4 : 0.477435201406}
2019-04-14 01:39:57.71: SIM {TimeUS : 59334590, Roll : -0.7, Pitch : -16.61, Yaw : 57.33, Alt : 49.2900009155, Lat : 49.2836255, Lng : -123.1149001, Q1 : 0.868613183498, Q2 : 0.0639585852623, Q3 : -0.129699140787, Q4 : 0.473918318748}
2019-04-14 01:39:57.81: SIM {TimeUS : 59434550, Roll : -0.32, Pitch : -16.65, Yaw : 56.76, Alt : 49.2900009155, Lat : 49.2836274, Lng : -123.1148957, Q1 : 0.870717823505, Q2 : 0.0663705542684, Q3 : -0.128767997026, Q4 : 0.469962030649}
2019-04-14 01:39:57.92: SIM {TimeUS : 59535343, Roll : 0.03, Pitch : -16.69, Yaw : 56.19, Alt : 49.2900009155, Lat : 49.2836296, Lng : -123.1148912, Q1 : 0.872782230377, Q2 : 0.068649686873, Q3 : -0.127878278494, Q4 : 0.466031759977}
2019-04-14 01:39:58.01: SIM {TimeUS : 59635303, Roll : 0.34, Pitch : -16.72, Yaw : 55.7, Alt : 49.2900009155, Lat : 49.2836316, Lng : -123.1148867, Q1 : 0.874554753304, Q2 : 0.0705854296684, Q3 : -0.127200528979, Q4 : 0.462592422962}
2019-04-14 01:39:58.11: SIM {TimeUS : 59735263, Roll : 0.56, Pitch : -16.75, Yaw : 55.31, Alt : 49.2900009155, Lat : 49.2836335, Lng : -123.1148822, Q1 : 0.875926792622, Q2 : 0.0719425752759, Q3 : -0.126777693629, Q4 : 0.459895581007}
2019-04-14 01:39:58.21: SIM {TimeUS : 59835223, Roll : 0.68, Pitch : -16.78, Yaw : 55.06, Alt : 49.2900009155, Lat : 49.2836357, Lng : -123.1148776, Q1 : 0.876822888851, Q2 : 0.0727135166526, Q3 : -0.126671552658, Q4 : 0.458092391491}
2019-04-14 01:39:58.31: SIM {TimeUS : 59935183, Roll : 0.7, Pitch : -16.82, Yaw : 54.95, Alt : 49.2900009155, Lat : 49.2836378, Lng : -123.1148729, Q1 : 0.877229571342, Q2 : 0.0729140415788, Q3 : -0.126938119531, Q4 : 0.457207381725}
2019-04-14 01:39:58.41: SIM {TimeUS : 60035143, Roll : 0.64, Pitch : -16.86, Yaw : 54.95, Alt : 49.2900009155, Lat : 49.2836397, Lng : -123.1148683, Q1 : 0.877205193043, Q2 : 0.072605073452, Q3 : -0.127524375916, Q4 : 0.457140117884}
2019-04-14 01:39:58.51: SIM {TimeUS : 60135103, Roll : 0.5, Pitch : -16.9, Yaw : 55.05, Alt : 49.2900009155, Lat : 49.2836419, Lng : -123.1148636, Q1 : 0.876842200756, Q2 : 0.0718301013112, Q3 : -0.128330588341, Q4 : 0.457732975483}
2019-04-14 01:39:58.61: SIM {TimeUS : 60235063, Roll : 0.33, Pitch : -16.93, Yaw : 55.22, Alt : 49.2999992371, Lat : 49.2836439, Lng : -123.1148588, Q1 : 0.876237511635, Q2 : 0.0707997083664, Q3 : -0.129174202681, Q4 : 0.458812862635}
2019-04-14 01:39:58.71: SIM {TimeUS : 60335023, Roll : 0.14, Pitch : -16.97, Yaw : 55.43, Alt : 49.2999992371, Lat : 49.2836461, Lng : -123.114854, Q1 : 0.875491082668, Q2 : 0.0697245374322, Q3 : -0.130054280162, Q4 : 0.460151940584}
2019-04-14 01:39:58.81: SIM {TimeUS : 60434983, Roll : 0.0, Pitch : -17.01, Yaw : 55.64, Alt : 49.2999992371, Lat : 49.2836481, Lng : -123.1148492, Q1 : 0.874686598778, Q2 : 0.0690032690763, Q3 : -0.130844056606, Q4 : 0.461564451456}
2019-04-14 01:39:58.91: SIM {TimeUS : 60534943, Roll : -0.12, Pitch : -17.06, Yaw : 55.82, Alt : 49.2999992371, Lat : 49.2836504, Lng : -123.1148444, Q1 : 0.873946487904, Q2 : 0.0685148686171, Q3 : -0.131562411785, Q4 : 0.462833166122}
2019-04-14 01:39:59.01: SIM {TimeUS : 60634903, Roll : -0.19, Pitch : -17.1, Yaw : 55.97, Alt : 49.2999992371, Lat : 49.2836524, Lng : -123.1148394, Q1 : 0.873349189758, Q2 : 0.0682886242867, Q3 : -0.132110878825, Q4 : 0.463836759329}
2019-04-14 01:39:59.11: SIM {TimeUS : 60734863, Roll : -0.22, Pitch : -17.15, Yaw : 56.06, Alt : 49.2999992371, Lat : 49.2836546, Lng : -123.1148346, Q1 : 0.872939169407, Q2 : 0.0683745220304, Q3 : -0.13251709938, Q4 : 0.46447968483}
2019-04-14 01:39:59.21: SIM {TimeUS : 60834823, Roll : -0.22, Pitch : -17.18, Yaw : 56.1, Alt : 49.2999992371, Lat : 49.2836567, Lng : -123.1148297, Q1 : 0.87274736166, Q2 : 0.0685360357165, Q3 : -0.132769972086, Q4 : 0.464744031429}
2019-04-14 01:39:59.31: SIM {TimeUS : 60934783, Roll : -0.21, Pitch : -17.19, Yaw : 56.09, Alt : 49.2999992371, Lat : 49.283659, Lng : -123.1148248, Q1 : 0.872783720493, Q2 : 0.0686460658908, Q3 : -0.132818773389, Q4 : 0.464645504951}
2019-04-14 01:39:59.41: SIM {TimeUS : 61034743, Roll : -0.19, Pitch : -17.2, Yaw : 56.03, Alt : 49.2999992371, Lat : 49.2836612, Lng : -123.1148198, Q1 : 0.872994184494, Q2 : 0.0688103586435, Q3 : -0.132832527161, Q4 : 0.464221745729}
2019-04-14 01:39:59.51: SIM {TimeUS : 61134703, Roll : -0.13, Pitch : -17.21, Yaw : 55.94, Alt : 49.3100013733, Lat : 49.2836633, Lng : -123.1148149, Q1 : 0.873316407204, Q2 : 0.0691575556993, Q3 : -0.132748067379, Q4 : 0.46358782053}
2019-04-14 01:39:59.61: SIM {TimeUS : 61234663, Roll : -0.06, Pitch : -17.23, Yaw : 55.83, Alt : 49.3100013733, Lat : 49.2836656, Lng : -123.1148099, Q1 : 0.873693525791, Q2 : 0.0696639120579, Q3 : -0.132661044598, Q4 : 0.462825745344}
2019-04-14 01:39:59.71: SIM {TimeUS : 61334623, Roll : 0.03, Pitch : -17.27, Yaw : 55.71, Alt : 49.3100013733, Lat : 49.2836677, Lng : -123.1148049, Q1 : 0.874057888985, Q2 : 0.0704032853246, Q3 : -0.132637411356, Q4 : 0.462031960487}
2019-04-14 01:39:59.81: SIM {TimeUS : 61434583, Roll : 0.11, Pitch : -17.32, Yaw : 55.6, Alt : 49.3100013733, Lat : 49.28367, Lng : -123.1147998, Q1 : 0.874382436275, Q2 : 0.0711288154125, Q3 : -0.132780522108, Q4 : 0.461265027523}
2019-04-14 01:39:59.91: SIM {TimeUS : 61534543, Roll : 0.16, Pitch : -17.35, Yaw : 55.51, Alt : 49.3100013733, Lat : 49.2836723, Lng : -123.1147948, Q1 : 0.874691188335, Q2 : 0.071523822844, Q3 : -0.132832109928, Q4 : 0.46060320735}
2019-04-14 01:40:00.02: SIM {TimeUS : 61635336, Roll : 0.19, Pitch : -17.35, Yaw : 55.44, Alt : 49.3100013733, Lat : 49.2836746, Lng : -123.1147897, Q1 : 0.87495803833, Q2 : 0.0716960057616, Q3 : -0.132757589221, Q4 : 0.460090845823}
2019-04-14 01:40:00.11: SIM {TimeUS : 61735296, Roll : 0.2, Pitch : -17.36, Yaw : 55.39, Alt : 49.3100013733, Lat : 49.2836767, Lng : -123.1147846, Q1 : 0.875143229961, Q2 : 0.0717027187347, Q3 : -0.132826074958, Q4 : 0.45971763134}
2019-04-14 01:40:00.21: SIM {TimeUS : 61835256, Roll : 0.18, Pitch : -17.38, Yaw : 55.36, Alt : 49.3100013733, Lat : 49.2836791, Lng : -123.1147795, Q1 : 0.875231981277, Q2 : 0.0716790929437, Q3 : -0.133099257946, Q4 : 0.459473311901}
2019-04-14 01:40:00.31: SIM {TimeUS : 61935216, Roll : 0.18, Pitch : -17.41, Yaw : 55.35, Alt : 49.3100013733, Lat : 49.2836814, Lng : -123.1147743, Q1 : 0.875241696835, Q2 : 0.0717219263315, Q3 : -0.133352831006, Q4 : 0.459374517202}
2019-04-14 01:40:00.41: SIM {TimeUS : 62035176, Roll : 0.16, Pitch : -17.45, Yaw : 55.36, Alt : 49.3100013733, Lat : 49.2836835, Lng : -123.1147693, Q1 : 0.875188827515, Q2 : 0.0717787891626, Q3 : -0.133692935109, Q4 : 0.459367603064}
2019-04-14 01:40:00.51: SIM {TimeUS : 62135136, Roll : 0.15, Pitch : -17.48, Yaw : 55.37, Alt : 49.3100013733, Lat : 49.2836858, Lng : -123.114764, Q1 : 0.875111877918, Q2 : 0.0717760771513, Q3 : -0.133961394429, Q4 : 0.459436327219}
2019-04-14 01:40:00.61: SIM {TimeUS : 62235096, Roll : 0.13, Pitch : -17.5, Yaw : 55.39, Alt : 49.3100013733, Lat : 49.2836882, Lng : -123.1147589, Q1 : 0.875019609928, Q2 : 0.0718007087708, Q3 : -0.134198904037, Q4 : 0.459538936615}
2019-04-14 01:40:00.71: SIM {TimeUS : 62335056, Roll : 0.12, Pitch : -17.52, Yaw : 55.41, Alt : 49.3199996948, Lat : 49.2836905, Lng : -123.1147538, Q1 : 0.874939858913, Q2 : 0.0717438012362, Q3 : -0.134391695261, Q4 : 0.45964333415}
2019-04-14 01:40:00.81: SIM {TimeUS : 62435016, Roll : 0.11, Pitch : -17.54, Yaw : 55.42, Alt : 49.3199996948, Lat : 49.2836928, Lng : -123.1147486, Q1 : 0.874862253666, Q2 : 0.0717936605215, Q3 : -0.13452334702, Q4 : 0.459744691849}
2019-04-14 01:40:00.91: SIM {TimeUS : 62534976, Roll : 0.11, Pitch : -17.56, Yaw : 55.43, Alt : 49.3199996948, Lat : 49.283695, Lng : -123.1147434, Q1 : 0.874796509743, Q2 : 0.0719136148691, Q3 : -0.134659051895, Q4 : 0.459811329842}
2019-04-14 01:40:01.01: SIM {TimeUS : 62634936, Roll : 0.11, Pitch : -17.59, Yaw : 55.43, Alt : 49.3199996948, Lat : 49.2836974, Lng : -123.1147382, Q1 : 0.87475413084, Q2 : 0.0720233395696, Q3 : -0.134918838739, Q4 : 0.459798663855}
2019-04-14 01:40:01.11: SIM {TimeUS : 62734896, Roll : 0.09, Pitch : -17.63, Yaw : 55.43, Alt : 49.3199996948, Lat : 49.2836997, Lng : -123.1147329, Q1 : 0.874745965004, Q2 : 0.0719773620367, Q3 : -0.135326609015, Q4 : 0.459701597691}
2019-04-14 01:40:01.21: SIM {TimeUS : 62834856, Roll : 0.07, Pitch : -17.67, Yaw : 55.41, Alt : 49.3199996948, Lat : 49.283702, Lng : -123.1147277, Q1 : 0.874756991863, Q2 : 0.071983627975, Q3 : -0.135731711984, Q4 : 0.459560126066}
2019-04-14 01:40:01.31: SIM {TimeUS : 62934816, Roll : 0.08, Pitch : -17.71, Yaw : 55.4, Alt : 49.3199996948, Lat : 49.2837044, Lng : -123.1147224, Q1 : 0.874784767628, Q2 : 0.0721766576171, Q3 : -0.135969281197, Q4 : 0.459406703711}
2019-04-14 01:40:01.41: SIM {TimeUS : 63034776, Roll : 0.1, Pitch : -17.71, Yaw : 55.37, Alt : 49.3199996948, Lat : 49.2837066, Lng : -123.1147172, Q1 : 0.874857842922, Q2 : 0.0723759382963, Q3 : -0.135910823941, Q4 : 0.459253460169}
2019-04-14 01:40:01.51: SIM {TimeUS : 63134736, Roll : 0.13, Pitch : -17.69, Yaw : 55.35, Alt : 49.3199996948, Lat : 49.283709, Lng : -123.1147119, Q1 : 0.874974250793, Q2 : 0.072485037148, Q3 : -0.135622322559, Q4 : 0.459099799395}
2019-04-14 01:40:01.61: SIM {TimeUS : 63234696, Roll : 0.15, Pitch : -17.67, Yaw : 55.32, Alt : 49.3199996948, Lat : 49.2837113, Lng : -123.1147066, Q1 : 0.875097036362, Q2 : 0.0724681690335, Q3 : -0.135438531637, Q4 : 0.458922594786}
2019-04-14 01:40:01.71: SIM {TimeUS : 63334656, Roll : 0.15, Pitch : -17.65, Yaw : 55.29, Alt : 49.3199996948, Lat : 49.2837138, Lng : -123.1147013, Q1 : 0.875219762325, Q2 : 0.0724009647965, Q3 : -0.135310307145, Q4 : 0.458737015724}
2019-04-14 01:40:01.81: SIM {TimeUS : 63434616, Roll : 0.15, Pitch : -17.63, Yaw : 55.27, Alt : 49.3199996948, Lat : 49.2837161, Lng : -123.114696, Q1 : 0.875340402126, Q2 : 0.0722982957959, Q3 : -0.135216265917, Q4 : 0.458550691605}
2019-04-14 01:40:01.91: SIM {TimeUS : 63534576, Roll : 0.14, Pitch : -17.65, Yaw : 55.24, Alt : 49.3199996948, Lat : 49.2837185, Lng : -123.1146907, Q1 : 0.875425219536, Q2 : 0.0722494199872, Q3 : -0.135353758931, Q4 : 0.458355844021}
2019-04-14 01:40:02.01: SIM {TimeUS : 63634536, Roll : 0.13, Pitch : -17.68, Yaw : 55.22, Alt : 49.3199996948, Lat : 49.2837209, Lng : -123.1146853, Q1 : 0.875470757484, Q2 : 0.0723118856549, Q3 : -0.135653167963, Q4 : 0.458170443773}
2019-04-14 01:40:02.11: SIM {TimeUS : 63735329, Roll : 0.13, Pitch : -17.74, Yaw : 55.21, Alt : 49.3199996948, Lat : 49.2837232, Lng : -123.1146799, Q1 : 0.87547147274, Q2 : 0.0724672451615, Q3 : -0.136122912169, Q4 : 0.4580052495}
2019-04-14 01:40:02.21: SIM {TimeUS : 63835289, Roll : 0.13, Pitch : -17.79, Yaw : 55.19, Alt : 49.3300018311, Lat : 49.2837255, Lng : -123.1146746, Q1 : 0.875453948975, Q2 : 0.0726911276579, Q3 : -0.13656796515, Q4 : 0.457870692015}
2019-04-14 01:40:02.31: SIM {TimeUS : 63935249, Roll : 0.14, Pitch : -17.82, Yaw : 55.18, Alt : 49.3300018311, Lat : 49.2837279, Lng : -123.1146692, Q1 : 0.875455141068, Q2 : 0.0728654414415, Q3 : -0.136736676097, Q4 : 0.457790404558}
2019-04-14 01:40:02.41: SIM {TimeUS : 64035209, Roll : 0.14, Pitch : -17.84, Yaw : 55.18, Alt : 49.3300018311, Lat : 49.2837303, Lng : -123.1146639, Q1 : 0.875463843346, Q2 : 0.072938233614, Q3 : -0.136929064989, Q4 : 0.457704633474}
2019-04-14 01:40:02.51: SIM {TimeUS : 64135169, Roll : 0.13, Pitch : -17.86, Yaw : 55.17, Alt : 49.3300018311, Lat : 49.2837327, Lng : -123.1146585, Q1 : 0.875485002995, Q2 : 0.0729284659028, Q3 : -0.137076899409, Q4 : 0.457621455193}
2019-04-14 01:40:02.61: SIM {TimeUS : 64235129, Roll : 0.14, Pitch : -17.85, Yaw : 55.16, Alt : 49.3300018311, Lat : 49.2837351, Lng : -123.1146531, Q1 : 0.875518500805, Q2 : 0.0729493871331, Q3 : -0.136998683214, Q4 : 0.457577466965}
2019-04-14 01:40:02.71: SIM {TimeUS : 64335089, Roll : 0.15, Pitch : -17.86, Yaw : 55.15, Alt : 49.3300018311, Lat : 49.2837375, Lng : -123.1146477, Q1 : 0.875529408455, Q2 : 0.0730877965689, Q3 : -0.137041822076, Q4 : 0.457521528006}
2019-04-14 01:40:02.81: SIM {TimeUS : 64435049, Roll : 0.15, Pitch : -17.89, Yaw : 55.14, Alt : 49.3300018311, Lat : 49.2837399, Lng : -123.1146423, Q1 : 0.875532329082, Q2 : 0.073207475245, Q3 : -0.137225612998, Q4 : 0.457441776991}
2019-04-14 01:40:02.91: SIM {TimeUS : 64535009, Roll : 0.16, Pitch : -17.9, Yaw : 55.13, Alt : 49.3300018311, Lat : 49.2837423, Lng : -123.1146369, Q1 : 0.875549852848, Q2 : 0.0732795670629, Q3 : -0.137334778905, Q4 : 0.457363933325}
2019-04-14 01:40:03.01: SIM {TimeUS : 64634969, Roll : 0.17, Pitch : -17.9, Yaw : 55.12, Alt : 49.3300018311, Lat : 49.2837447, Lng : -123.1146314, Q1 : 0.875598073006, Q2 : 0.073318362236, Q3 : -0.137252807617, Q4 : 0.457289934158}
2019-04-14 01:40:03.11: SIM {TimeUS : 64734929, Roll : 0.17, Pitch : -17.9, Yaw : 55.11, Alt : 49.3300018311, Lat : 49.2837472, Lng : -123.1146261, Q1 : 0.87565100193, Q2 : 0.073309160769, Q3 : -0.13725079596, Q4 : 0.457190692425}
2019-04-14 01:40:03.21: SIM {TimeUS : 64834889, Roll : 0.16, Pitch : -17.91, Yaw : 55.09, Alt : 49.3300018311, Lat : 49.2837496, Lng : -123.1146207, Q1 : 0.875694930553, Q2 : 0.0732631981373, Q3 : -0.137431561947, Q4 : 0.457059621811}
2019-04-14 01:40:03.31: SIM {TimeUS : 64934849, Roll : 0.13, Pitch : -17.95, Yaw : 55.08, Alt : 49.3300018311, Lat : 49.283752, Lng : -123.1146153, Q1 : 0.875726699829, Q2 : 0.0731901153922, Q3 : -0.137820959091, Q4 : 0.456893205643}
2019-04-14 01:40:03.41: SIM {TimeUS : 65034809, Roll : 0.12, Pitch : -17.96, Yaw : 55.06, Alt : 49.3300018311, Lat : 49.2837544, Lng : -123.1146098, Q1 : 0.875787138939, Q2 : 0.0731096640229, Q3 : -0.137929365039, Q4 : 0.456757456064}
2019-04-14 01:40:03.51: SIM {TimeUS : 65134769, Roll : 0.13, Pitch : -17.95, Yaw : 55.05, Alt : 49.3300018311, Lat : 49.2837568, Lng : -123.1146044, Q1 : 0.875852704048, Q2 : 0.0731287002563, Q3 : -0.137814104557, Q4 : 0.456663459539}
2019-04-14 01:40:03.61: SIM {TimeUS : 65234729, Roll : 0.15, Pitch : -17.93, Yaw : 55.03, Alt : 49.3300018311, Lat : 49.2837593, Lng : -123.1145989, Q1 : 0.875911355019, Q2 : 0.0732349380851, Q3 : -0.137642800808, Q4 : 0.456585586071}
2019-04-14 01:40:03.71: SIM {TimeUS : 65334689, Roll : 0.16, Pitch : -17.95, Yaw : 55.02, Alt : 49.3300018311, Lat : 49.2837617, Lng : -123.1145935, Q1 : 0.875948667526, Q2 : 0.0733613818884, Q3 : -0.137699216604, Q4 : 0.45647674799}
2019-04-14 01:40:03.81: SIM {TimeUS : 65434649, Roll : 0.16, Pitch : -17.97, Yaw : 55.0, Alt : 49.3400001526, Lat : 49.2837641, Lng : -123.114588, Q1 : 0.875975966454, Q2 : 0.0733933597803, Q3 : -0.13792912662, Q4 : 0.456349760294}
2019-04-14 01:40:03.91: SIM {TimeUS : 65534609, Roll : 0.13, Pitch : -18.0, Yaw : 54.99, Alt : 49.3400001526, Lat : 49.2837666, Lng : -123.1145826, Q1 : 0.876009702682, Q2 : 0.0732974782586, Q3 : -0.138222649693, Q4 : 0.456211537123}
2019-04-14 01:40:04.01: SIM {TimeUS : 65634569, Roll : 0.12, Pitch : -18.02, Yaw : 54.98, Alt : 49.3400001526, Lat : 49.283769, Lng : -123.1145771, Q1 : 0.876040101051, Q2 : 0.0732523202896, Q3 : -0.138445317745, Q4 : 0.456092983484}
2019-04-14 01:40:04.12: SIM {TimeUS : 65735362, Roll : 0.12, Pitch : -18.03, Yaw : 54.97, Alt : 49.3400001526, Lat : 49.2837714, Lng : -123.1145716, Q1 : 0.876067757607, Q2 : 0.0733230635524, Q3 : -0.138563215733, Q4 : 0.455992668867}
2019-04-14 01:40:04.21: SIM {TimeUS : 65835322, Roll : 0.13, Pitch : -18.05, Yaw : 54.96, Alt : 49.3400001526, Lat : 49.2837739, Lng : -123.1145661, Q1 : 0.87608987093, Q2 : 0.0734508484602, Q3 : -0.138623386621, Q4 : 0.455911278725}
2019-04-14 01:40:04.31: SIM {TimeUS : 65935282, Roll : 0.16, Pitch : -18.05, Yaw : 54.95, Alt : 49.3400001526, Lat : 49.2837763, Lng : -123.1145606, Q1 : 0.87609899044, Q2 : 0.0736765414476, Q3 : -0.138591244817, Q4 : 0.455867141485}
2019-04-14 01:40:04.41: SIM {TimeUS : 66035242, Roll : 0.17, Pitch : -18.07, Yaw : 54.94, Alt : 49.3400001526, Lat : 49.2837788, Lng : -123.1145551, Q1 : 0.876100301743, Q2 : 0.0738353505731, Q3 : -0.138667076826, Q4 : 0.455815792084}
2019-04-14 01:40:04.51: SIM {TimeUS : 66135202, Roll : 0.19, Pitch : -18.09, Yaw : 54.93, Alt : 49.3400001526, Lat : 49.2837812, Lng : -123.1145496, Q1 : 0.876095414162, Q2 : 0.0740117654204, Q3 : -0.13876567781, Q4 : 0.455766528845}
2019-04-14 01:40:04.61: SIM {TimeUS : 66235162, Roll : 0.2, Pitch : -18.11, Yaw : 54.93, Alt : 49.3400001526, Lat : 49.2837837, Lng : -123.1145442, Q1 : 0.876088798046, Q2 : 0.0742044374347, Q3 : -0.138843461871, Q4 : 0.455724269152}
2019-04-14 01:40:04.71: SIM {TimeUS : 66335122, Roll : 0.23, Pitch : -18.12, Yaw : 54.92, Alt : 49.3400001526, Lat : 49.2837861, Lng : -123.1145387, Q1 : 0.876086294651, Q2 : 0.0744306817651, Q3 : -0.138818338513, Q4 : 0.455699831247}
2019-04-14 01:40:04.81: SIM {TimeUS : 66435082, Roll : 0.26, Pitch : -18.13, Yaw : 54.91, Alt : 49.3400001526, Lat : 49.2837886, Lng : -123.1145332, Q1 : 0.876077830791, Q2 : 0.0746674910188, Q3 : -0.138814732432, Q4 : 0.455678462982}
2019-04-14 01:40:04.91: SIM {TimeUS : 66535042, Roll : 0.25, Pitch : -18.13, Yaw : 54.91, Alt : 49.3400001526, Lat : 49.283791, Lng : -123.1145277, Q1 : 0.876107990742, Q2 : 0.0745789110661, Q3 : -0.138820201159, Q4 : 0.455633372068}
2019-04-14 01:40:05.01: SIM {TimeUS : 66635002, Roll : 0.22, Pitch : -18.14, Yaw : 54.9, Alt : 49.3499984741, Lat : 49.2837934, Lng : -123.114522, Q1 : 0.876138269901, Q2 : 0.0743780359626, Q3 : -0.139009177685, Q4 : 0.455550342798}
