2019-04-14 01:59:45.00: SIM {TimeUS : 40816167, Roll : 0.0, Pitch : 0.0, Yaw : 0.0, Alt : 30.1000003815, Lat : 49.28357, Lng : -123.11502, Q1 : 1.0, Q2 : 0.0, Q3 : 0.0, Q4 : 0.0}
2019-04-14 01:59:45.11: SIM {TimeUS : 40935286, Roll : 0.0, Pitch : 0.0, Yaw : 0.0, Alt : 30.1000003815, Lat : 49.28357, Lng : -123.11502, Q1 : 1.0, Q2 : 0.0, Q3 : 0.0, Q4 : 0.0}
2019-04-14 01:59:45.21: SIM {TimeUS : 41035246, Roll : 0.0, Pitch : 0.0, Yaw : 0.0, Alt : 30.1000003815, Lat : 49.28357, Lng : -123.11502, Q1 : 1.0, Q2 : 0.0, Q3 : 0.0, Q4 : 0.0}
2019-04-14 01:59:45.31: SIM {TimeUS : 41135206, Roll : 0.0, Pitch : 0.0, Yaw : 0.0, Alt : 30.1000003815, Lat : 49.28357, Lng : -123.11502, Q1 : 1.0, Q2 : 0.0, Q3 : 0.0, Q4 : 0.0}
2019-04-14 01:59:45.41: SIM {TimeUS : 41235166, Roll : 0.0, Pitch : 0.0, Yaw : 0.0, Alt : 30.1000003815, Lat : 49.28357, Lng : -123.11502, Q1 : 1.0, Q2 : 0.0, Q3 : 0.0, Q4 : 0.0}
2019-04-14 01:59:45.51: SIM {TimeUS : 41335126, Roll : 0.0, Pitch : 0.0, Yaw : 0.0, Alt : 30.1000003815, Lat : 49.28357, Lng : -123.11502, Q1 : 1.0, Q2 : 0.0, Q3 : 0.0, Q4 : 0.0}
2019-04-14 01:59:45.61: SIM {TimeUS : 41435086, Roll : 0.0, Pitch : 0.0, Yaw : 0.0, Alt : 30.1000003815, Lat : 49.28357, Lng : -123.11502, Q1 : 1.0, Q2 : 0.0, Q3 : 0.0, Q4 : 0.0}
2019-04-14 01:59:45.71: SIM {TimeUS : 41535046, Roll : 0.0, Pitch : 0.0, Yaw : 0.0, Alt : 30.1000003815, Lat : 49.28357, Lng : -123.11502, Q1 : 1.0, Q2 : 0.0, Q3 : 0.0, Q4 : 0.0}
2019-04-14 01:59:45.81: SIM {TimeUS : 41635006, Roll : 0.0, Pitch : 0.0, Yaw : 0.0, Alt : 30.1000003815, Lat : 49.28357, Lng : -123.11502, Q1 : 1.0, Q2 : 0.0, Q3 : 0.0, Q4 : 0.0}
2019-04-14 01:59:45.91: SIM {TimeUS : 41734966, Roll : 0.0, Pitch : 0.0, Yaw : 0.0, Alt : 30.1000003815, Lat : 49.28357, Lng : -123.11502, Q1 : 1.0, Q2 : 0.0, Q3 : 0.0, Q4 : 0.0}
2019-04-14 01:59:46.01: SIM {TimeUS : 41834926, Roll : 0.0, Pitch : 0.0, Yaw : 0.0, Alt : 30.1000003815, Lat : 49.28357, Lng : -123.11502, Q1 : 1.0, Q2 : 0.0, Q3 : 0.0, Q4 : 0.0}
2019-04-14 01:59:46.11: SIM {TimeUS : 41934886, Roll : 0.0, Pitch : 0.0, Yaw : 0.0, Alt : 30.1000003815, Lat : 49.28357, Lng : -123.11502, Q1 : 1.0, Q2 : 0.0, Q3 : 0.0, Q4 : 0.0}
2019-04-14 01:59:46.21: SIM {TimeUS : 42034846, Roll : 0.0, Pitch : 0.0, Yaw : 0.0, Alt : 30.1000003815, Lat : 49.28357, Lng : -123.11502, Q1 : 1.0, Q2 : 0.0, Q3 : 0.0, Q4 : 0.0}
2019-04-14 01:59:46.31: SIM {TimeUS : 42134806, Roll : 0.0, Pitch : 0.0, Yaw : 0.0, Alt : 30.1000003815, Lat : 49.28357, Lng : -123.11502, Q1 : 1.0, Q2 : 0.0, Q3 : 0.0, Q4 : 0.0}
2019-04-14 01:59:46.41: SIM {TimeUS : 42234766, Roll : 0.0, Pitch : 0.0, Yaw : 0.0, Alt : 30.1000003815, Lat : 49.28357, Lng : -123.11502, Q1 : 1.0, Q2 : 0.0, Q3 : 0.0, Q4 : 0.0}
2019-04-14 01:59:46.51: SIM {TimeUS : 42334726, Roll : 0.0, Pitch : 0.0, Yaw : 0.0, Alt : 30.1000003815, Lat : 49.28357, Lng : -123.11502, Q1 : 1.0, Q2 : 0.0, Q3 : 0.0, Q4 : 0.0}
2019-04-14 01:59:46.61: SIM {TimeUS : 42434686, Roll : 0.0, Pitch : 0.0, Yaw : 0.0, Alt : 30.1000003815, Lat : 49.28357, Lng : -123.11502, Q1 : 1.0, Q2 : 0.0, Q3 : 0.0, Q4 : 0.0}
2019-04-14 01:59:46.71: SIM {TimeUS : 42534646, Roll : 0.0, Pitch : 0.0, Yaw : 0.0, Alt : 30.1000003815, Lat : 49.28357, Lng : -123.11502, Q1 : 1.0, Q2 : 0.0, Q3 : 0.0, Q4 : 0.0}
2019-04-14 01:59:46.81: SIM {TimeUS : 42634606, Roll : 0.0, Pitch : 0.0, Yaw : 0.0, Alt : 30.1000003815, Lat : 49.28357, Lng : -123.11502, Q1 : 1.0, Q2 : 0.0, Q3 : 0.0, Q4 : 0.0}
2019-04-14 01:59:46.91: SIM {TimeUS : 42734566, Roll : 0.0, Pitch : 0.0, Yaw : 0.0, Alt : 30.1000003815, Lat : 49.28357, Lng : -123.11502, Q1 : 1.0, Q2 : 0.0, Q3 : 0.0, Q4 : 0.0}
2019-04-14 01:59:47.01: SIM {TimeUS : 42834526, Roll : 0.0, Pitch : 0.0, Yaw : 0.0, Alt : 30.1000003815, Lat : 49.28357, Lng : -123.11502, Q1 : 1.0, Q2 : 0.0, Q3 : 0.0, Q4 : 0.0}
2019-04-14 01:59:47.11: SIM {TimeUS : 42935319, Roll : 0.0, Pitch : 0.0, Yaw : 0.0, Alt : 30.1000003815, Lat : 49.28357, Lng : -123.11502, Q1 : 1.0, Q2 : 0.0, Q3 : 0.0, Q4 : 0.0}
2019-04-14 01:59:47.21: SIM {TimeUS : 43035279, Roll : 0.0, Pitch : 0.0, Yaw : 0.0, Alt : 30.1000003815, Lat : 49.28357, Lng : -123.11502, Q1 : 1.0, Q2 : 0.0, Q3 : 0.0, Q4 : 0.0}
2019-04-14 01:59:47.31: SIM {TimeUS : 43135239, Roll : 0.0, Pitch : 0.0, Yaw : 360.0, Alt : 30.1000003815, Lat : 49.28357, Lng : -123.11502, Q1 : 1.0, Q2 : 0.0, Q3 : 0.0, Q4 : -1.48848086634e-11}
2019-04-14 01:59:47.41: SIM {TimeUS : 43235199, Roll : 0.0, Pitch : 0.0, Yaw : 0.0, Alt : 30.1000003815, Lat : 49.28357, Lng : -123.11502, Q1 : 1.0, Q2 : 0.0, Q3 : 0.0, Q4 : 1.25171296939e-11}
2019-04-14 01:59:47.51: SIM {TimeUS : 43335159, Roll : 0.0, Pitch : 0.0, Yaw : 360.0, Alt : 30.1000003815, Lat : 49.28357, Lng : -123.11502, Q1 : 1.0, Q2 : 0.0, Q3 : 0.0, Q4 : -1.12839515509e-07}
2019-04-14 01:59:47.61: SIM {TimeUS : 43435119, Roll : 0.0, Pitch : 0.0, Yaw : 359.99, Alt : 30.1000003815, Lat : 49.28357, Lng : -123.11502, Q1 : 1.0, Q2 : 0.0, Q3 : 0.0, Q4 : -2.79729903241e-07}
2019-04-14 01:59:47.71: SIM {TimeUS : 43535079, Roll : 0.0, Pitch : 0.0, Yaw : 359.99, Alt : 30.1000003815, Lat : 49.28357, Lng : -123.11502, Q1 : 1.0, Q2 : 0.0, Q3 : 0.0, Q4 : -4.59741954728e-07}
2019-04-14 01:59:47.81: SIM {TimeUS : 43635039, Roll : 0.0, Pitch : 0.0, Yaw : 359.99, Alt : 30.1000003815, Lat : 49.28357, Lng : -123.11502, Q1 : 1.0, Q2 : 0.0, Q3 : 0.0, Q4 : -6.94092477715e-07}
2019-04-14 01:59:47.91: SIM {TimeUS : 43734999, Roll : 0.0, Pitch : 0.0, Yaw : 359.99, Alt : 30.1000003815, Lat : 49.28357, Lng : -123.11502, Q1 : 1.0, Q2 : 0.0, Q3 : 0.0, Q4 : -8.91290255822e-07}
2019-04-14 01:59:48.01: SIM {TimeUS : 43834959, Roll : 0.0, Pitch : 0.0, Yaw : 359.99, Alt : 30.1000003815, Lat : 49.28357, Lng : -123.11502, Q1 : 1.0, Q2 : 0.0, Q3 : 0.0, Q4 : -1.09173913643e-06}
2019-04-14 01:59:48.11: SIM {TimeUS : 43934919, Roll : 0.0, Pitch : 0.0, Yaw : 359.99, Alt : 30.1000003815, Lat : 49.28357, Lng : -123.11502, Q1 : 1.0, Q2 : 0.0, Q3 : 0.0, Q4 : -1.30903288209e-06}
2019-04-14 01:59:48.21: SIM {TimeUS : 44034879, Roll : 0.0, Pitch : 0.0, Yaw : 359.99, Alt : 30.1100006104, Lat : 49.28357, Lng : -123.11502, Q1 : 1.0, Q2 : 0.0, Q3 : 0.0, Q4 : -1.49245965986e-06}
2019-04-14 01:59:48.31: SIM {TimeUS : 44134839, Roll : 0.0, Pitch : 0.0, Yaw : 359.99, Alt : 30.1299991608, Lat : 49.28357, Lng : -123.11502, Q1 : 1.0, Q2 : 0.0, Q3 : 0.0, Q4 : -1.7229946252e-06}
2019-04-14 01:59:48.41: SIM {TimeUS : 44234799, Roll : 0.0, Pitch : 0.0, Yaw : 359.99, Alt : 30.1599998474, Lat : 49.28357, Lng : -123.11502, Q1 : 1.0, Q2 : 0.0, Q3 : 0.0, Q4 : -1.91756203094e-06}
2019-04-14 01:59:48.51: SIM {TimeUS : 44334759, Roll : 0.0, Pitch : 0.0, Yaw : 359.99, Alt : 30.1900005341, Lat : 49.28357, Lng : -123.11502, Q1 : 1.0, Q2 : 0.0, Q3 : 0.0, Q4 : -2.12972213376e-06}
2019-04-14 01:59:48.61: SIM {TimeUS : 44434719, Roll : -0.04, Pitch : -0.03, Yaw : 359.99, Alt : 30.2299995422, Lat : 49.28357, Lng : -123.11502, Q1 : 0.999999880791, Q2 : -0.000365112820873, Q3 : -0.000339583813911, Q4 : -4.50596371593e-06}
2019-04-14 01:59:48.71: SIM {TimeUS : 44534679, Roll : -0.3, Pitch : -0.25, Yaw : 359.99, Alt : 30.3099994659, Lat : 49.28357, Lng : -123.11502, Q1 : 0.999994039536, Q2 : -0.00267056678422, Q3 : -0.00218314025551, Q4 : -3.08006965497e-05}
2019-04-14 01:59:48.81: SIM {TimeUS : 44634639, Roll : -0.63, Pitch : -0.49, Yaw : 359.99, Alt : 30.4500007629, Lat : 49.28357, Lng : -123.11502, Q1 : 0.999975323677, Q2 : -0.00552871776745, Q3 : -0.0043368935585, Q4 : -8.58157072798e-05}
2019-04-14 01:59:48.91: SIM {TimeUS : 44734599, Roll : -0.83, Pitch : -0.67, Yaw : 359.98, Alt : 30.6000003815, Lat : 49.28357, Lng : -123.11502, Q1 : 0.999956190586, Q2 : -0.00730234989896, Q3 : -0.00585364922881, Q4 : -0.000155179266585}
2019-04-14 01:59:49.01: SIM {TimeUS : 44834559, Roll : -0.86, Pitch : -0.71, Yaw : 359.97, Alt : 30.7600002289, Lat : 49.28357, Lng : -123.11502, Q1 : 0.999952316284, Q2 : -0.00750872725621, Q3 : -0.00624425476417, Q4 : -0.000229945799219}
2019-04-14 01:59:49.11: SIM {TimeUS : 44934519, Roll : -0.73, Pitch : -0.63, Yaw : 359.96, Alt : 30.9200000763, Lat : 49.28357, Lng : -123.1150201, Q1 : 0.999964237213, Q2 : -0.00637833401561, Q3 : -0.0055450713262, Q4 : -0.000299663020996}
2019-04-14 01:59:49.21: SIM {TimeUS : 45035312, Roll : -0.5, Pitch : -0.47, Yaw : 359.96, Alt : 31.0699996948, Lat : 49.2835701, Lng : -123.1150201, Q1 : 0.999981582165, Q2 : -0.00440459139645, Q3 : -0.00416452297941, Q4 : -0.000361772137694}
2019-04-14 01:59:49.31: SIM {TimeUS : 45135272, Roll : -0.26, Pitch : -0.29, Yaw : 359.95, Alt : 31.2299995422, Lat : 49.2835701, Lng : -123.1150202, Q1 : 0.999994039536, Q2 : -0.00228472915478, Q3 : -0.00255848327652, Q4 : -0.000408937805332}
2019-04-14 01:59:49.41: SIM {TimeUS : 45235232, Roll : -0.06, Pitch : -0.11, Yaw : 359.94, Alt : 31.3999996185, Lat : 49.2835702, Lng : -123.1150203, Q1 : 0.99999922514, Q2 : -0.000584030058235, Q3 : -0.000992207671516, Q4 : -0.000443441153038}
2019-04-14 01:59:49.51: SIM {TimeUS : 45335192, Roll : 0.04, Pitch : 0.02, Yaw : 359.94, Alt : 31.5699996948, Lat : 49.2835702, Lng : -123.1150204, Q1 : 0.999999821186, Q2 : 0.00039167155046, Q3 : 0.000213395876926, Q4 : -0.000466742640128}
2019-04-14 01:59:49.61: SIM {TimeUS : 45435152, Roll : 0.07, Pitch : 0.1, Yaw : 359.94, Alt : 31.75, Lat : 49.2835703, Lng : -123.1150204, Q1 : 0.999999284744, Q2 : 0.000646797590889, Q3 : 0.000912882271223, Q4 : -0.000483595649712}
2019-04-14 01:59:49.71: SIM {TimeUS : 45535112, Roll : 0.08, Pitch : 0.14, Yaw : 359.94, Alt : 31.9300003052, Lat : 49.2835703, Lng : -123.1150205, Q1 : 0.999998867512, Q2 : 0.000725560414139, Q3 : 0.00123356445692, Q4 : -0.000483810465084}
2019-04-14 01:59:49.81: SIM {TimeUS : 45635072, Roll : 0.08, Pitch : 0.13, Yaw : 359.94, Alt : 32.1100006104, Lat : 49.2835703, Lng : -123.1150205, Q1 : 0.999998927116, Q2 : 0.000755356100854, Q3 : 0.00117329752538, Q4 : -0.000460766634205}
2019-04-14 01:59:49.91: SIM {TimeUS : 45735032, Roll : 0.08, Pitch : 0.12, Yaw : 359.95, Alt : 32.2999992371, Lat : 49.2835703, Lng : -123.1150206, Q1 : 0.999999046326, Q2 : 0.000749982544221, Q3 : 0.00107048021164, Q4 : -0.000434523972217}
2019-04-14 01:59:50.01: SIM {TimeUS : 45834992, Roll : 0.07, Pitch : 0.11, Yaw : 359.95, Alt : 32.5, Lat : 49.2835703, Lng : -123.1150206, Q1 : 0.999999165535, Q2 : 0.000686232815497, Q3 : 0.00099665869493, Q4 : -0.000410332519095}
2019-04-14 01:59:50.11: SIM {TimeUS : 45934952, Roll : 0.08, Pitch : 0.09, Yaw : 359.95, Alt : 32.6899986267, Lat : 49.2835703, Lng : -123.1150207, Q1 : 0.999999344349, Q2 : 0.000728048791643, Q3 : 0.00079686922254, Q4 : -0.00039578700671}
2019-04-14 01:59:50.21: SIM {TimeUS : 46034912, Roll : 0.1, Pitch : 0.07, Yaw : 359.95, Alt : 32.8899993896, Lat : 49.2835703, Lng : -123.1150207, Q1 : 0.999999344349, Q2 : 0.000880850129761, Q3 : 0.000628360197879, Q4 : -0.000392241490772}
2019-04-14 01:59:50.31: SIM {TimeUS : 46134872, Roll : 0.11, Pitch : 0.08, Yaw : 359.95, Alt : 33.0900001526, Lat : 49.2835704, Lng : -123.1150207, Q1 : 0.99999910593, Q2 : 0.00103697797749, Q3 : 0.00074806419434, Q4 : -0.000392624177039}
2019-04-14 01:59:50.41: SIM {TimeUS : 46234832, Roll : 0.13, Pitch : 0.1, Yaw : 359.95, Alt : 33.2900009155, Lat : 49.2835704, Lng : -123.1150207, Q1 : 0.999998807907, Q2 : 0.00118988449685, Q3 : 0.000891948235221, Q4 : -0.000393835885916}
2019-04-14 01:59:50.51: SIM {TimeUS : 46334792, Roll : 0.15, Pitch : 0.12, Yaw : 359.95, Alt : 33.5, Lat : 49.2835704, Lng : -123.1150208, Q1 : 0.999998390675, Q2 : 0.00135921710171, Q3 : 0.00109542149585, Q4 : -0.00040169042768}
2019-04-14 01:59:50.61: SIM {TimeUS : 46434752, Roll : 0.16, Pitch : 0.13, Yaw : 359.95, Alt : 33.7000007629, Lat : 49.2835704, Lng : -123.1150208, Q1 : 0.999998152256, Q2 : 0.00144076475408, Q3 : 0.00120943016373, Q4 : -0.000413364148699}
2019-04-14 01:59:50.71: SIM {TimeUS : 46534712, Roll : 0.15, Pitch : 0.13, Yaw : 359.95, Alt : 33.9099998474, Lat : 49.2835704, Lng : -123.1150208, Q1 : 0.999998271465, Q2 : 0.00135384104215, Q3 : 0.00117716193199, Q4 : -0.000432513887063}
2019-04-14 01:59:50.81: SIM {TimeUS : 46634672, Roll : 0.13, Pitch : 0.13, Yaw : 359.94, Alt : 34.1199989319, Lat : 49.2835704, Lng : -123.1150208, Q1 : 0.999998509884, Q2 : 0.00119482865557, Q3 : 0.00114819046576, Q4 : -0.000457974761957}
2019-04-14 01:59:50.91: SIM {TimeUS : 46734632, Roll : 0.1, Pitch : 0.12, Yaw : 359.94, Alt : 34.3300018311, Lat : 49.2835704, Lng : -123.1150208, Q1 : 0.999998807907, Q2 : 0.000960438279435, Q3 : 0.00111436005682, Q4 : -0.000485826516524}
2019-04-14 01:59:51.01: SIM {TimeUS : 46834592, Roll : 0.09, Pitch : 0.09, Yaw : 359.94, Alt : 34.5499992371, Lat : 49.2835704, Lng : -123.1150208, Q1 : 0.99999922514, Q2 : 0.000829328608233, Q3 : 0.000811370962765, Q4 : -0.00051955942763}
2019-04-14 01:59:51.11: SIM {TimeUS : 46934552, Roll : 0.08, Pitch : 0.05, Yaw : 359.93, Alt : 34.7599983215, Lat : 49.2835704, Lng : -123.1150208, Q1 : 0.999999463558, Q2 : 0.000755328394007, Q3 : 0.000495600339491, Q4 : -0.000560735992622}
2019-04-14 01:59:51.21: SIM {TimeUS : 47034512, Roll : 0.06, Pitch : 0.03, Yaw : 359.93, Alt : 34.9799995422, Lat : 49.2835704, Lng : -123.1150207, Q1 : 0.999999582767, Q2 : 0.00056725484319, Q3 : 0.000345617765561, Q4 : -0.000600695319008}
2019-04-14 01:59:51.31: SIM {TimeUS : 47135305, Roll : 0.05, Pitch : 0.03, Yaw : 359.92, Alt : 35.1899986267, Lat : 49.2835704, Lng : -123.1150207, Q1 : 0.999999642372, Q2 : 0.000457962305518, Q3 : 0.000312289164867, Q4 : -0.000633117044345}
2019-04-14 01:59:51.41: SIM {TimeUS : 47235265, Roll : 0.05, Pitch : 0.03, Yaw : 359.92, Alt : 35.4099998474, Lat : 49.2835704, Lng : -123.1150207, Q1 : 0.999999642372, Q2 : 0.000452052685432, Q3 : 0.000290763680823, Q4 : -0.000653206952848}
2019-04-14 01:59:51.51: SIM {TimeUS : 47335225, Roll : 0.03, Pitch : 0.01, Yaw : 359.92, Alt : 35.6300010681, Lat : 49.2835704, Lng : -123.1150207, Q1 : 0.999999761581, Q2 : 0.000267599942163, Q3 : 0.000104276492493, Q4 : -0.000670158187859}
2019-04-14 01:59:51.61: SIM {TimeUS : 47435185, Roll : 0.0, Pitch : -0.02, Yaw : 359.92, Alt : 35.8499984741, Lat : 49.2835704, Lng : -123.1150207, Q1 : 0.999999761581, Q2 : -3.37136152666e-05, Q3 : -0.00022862041078, Q4 : -0.000681830511894}
2019-04-14 01:59:51.71: SIM {TimeUS : 47535145, Roll : -0.04, Pitch : -0.05, Yaw : 359.92, Alt : 36.0699996948, Lat : 49.2835704, Lng : -123.1150207, Q1 : 0.999999582767, Q2 : -0.000370389025193, Q3 : -0.00046543017379, Q4 : -0.000695250462741}
2019-04-14 01:59:51.81: SIM {TimeUS : 47635105, Roll : -0.07, Pitch : -0.07, Yaw : 359.91, Alt : 36.2900009155, Lat : 49.2835704, Lng : -123.1150207, Q1 : 0.999999403954, Q2 : -0.000637933902908, Q3 : -0.000612972711679, Q4 : -0.000708789855707}
2019-04-14 01:59:51.91: SIM {TimeUS : 47735065, Roll : -0.08, Pitch : -0.07, Yaw : 359.91, Alt : 36.5099983215, Lat : 49.2835704, Lng : -123.1150206, Q1 : 0.999999284744, Q2 : -0.000724758778233, Q3 : -0.000639367150143, Q4 : -0.00072250753874}
2019-04-14 01:59:52.01: SIM {TimeUS : 47835025, Roll : -0.08, Pitch : -0.06, Yaw : 359.91, Alt : 36.7299995422, Lat : 49.2835704, Lng : -123.1150206, Q1 : 0.999999284744, Q2 : -0.00076235429151, Q3 : -0.000591183605138, Q4 : -0.000741586613003}
2019-04-14 01:59:52.11: SIM {TimeUS : 47934985, Roll : -0.08, Pitch : -0.05, Yaw : 359.91, Alt : 36.9599990845, Lat : 49.2835704, Lng : -123.1150206, Q1 : 0.999999344349, Q2 : -0.000706524995621, Q3 : -0.000442375079729, Q4 : -0.000766242097598}
2019-04-14 01:59:52.21: SIM {TimeUS : 48034945, Roll : -0.06, Pitch : -0.04, Yaw : 359.9, Alt : 37.1800003052, Lat : 49.2835704, Lng : -123.1150206, Q1 : 0.999999463558, Q2 : -0.000598415848799, Q3 : -0.000358722783858, Q4 : -0.000788383127656}
2019-04-14 01:59:52.31: SIM {TimeUS : 48134905, Roll : -0.06, Pitch : -0.04, Yaw : 359.9, Alt : 37.4099998474, Lat : 49.2835704, Lng : -123.1150206, Q1 : 0.999999403954, Q2 : -0.000610396498814, Q3 : -0.000394675356802, Q4 : -0.000806796480902}
2019-04-14 01:59:52.41: SIM {TimeUS : 48234865, Roll : -0.07, Pitch : -0.03, Yaw : 359.9, Alt : 37.6300010681, Lat : 49.2835704, Lng : -123.1150206, Q1 : 0.999999403954, Q2 : -0.000659425160848, Q3 : -0.000264696369413, Q4 : -0.000829925527796}
2019-04-14 01:59:52.51: SIM {TimeUS : 48334825, Roll : -0.09, Pitch : 0.0, Yaw : 359.9, Alt : 37.8600006104, Lat : 49.2835704, Lng : -123.1150206, Q1 : 0.999999284744, Q2 : -0.000838919135276, Q3 : -7.45883808122e-05, Q4 : -0.00085136218695}
2019-04-14 01:59:52.61: SIM {TimeUS : 48434785, Roll : -0.09, Pitch : 0.01, Yaw : 359.9, Alt : 38.0900001526, Lat : 49.2835704, Lng : -123.1150206, Q1 : 0.999999284744, Q2 : -0.000833250000142, Q3 : 8.81914093043e-05, Q4 : -0.00086573214503}
2019-04-14 01:59:52.71: SIM {TimeUS : 48534745, Roll : -0.07, Pitch : 0.03, Yaw : 359.89, Alt : 38.3100013733, Lat : 49.2835704, Lng : -123.1150206, Q1 : 0.999999344349, Q2 : -0.000630271562841, Q3 : 0.000346286862623, Q4 : -0.000881570391357}
2019-04-14 01:59:52.81: SIM {TimeUS : 48634705, Roll : -0.04, Pitch : 0.03, Yaw : 359.89, Alt : 38.5400009155, Lat : 49.2835704, Lng : -123.1150206, Q1 : 0.999999463558, Q2 : -0.000434501038399, Q3 : 0.000286802503979, Q4 : -0.000905003165826}
2019-04-14 01:59:52.91: SIM {TimeUS : 48734665, Roll : -0.02, Pitch : 0.01, Yaw : 359.89, Alt : 38.7700004578, Lat : 49.2835706, Lng : -123.1150206, Q1 : 0.999999523163, Q2 : -0.000195381522644, Q3 : 0.000146145233884, Q4 : -0.000930041540414}
2019-04-14 01:59:53.01: SIM {TimeUS : 48834625, Roll : 0.01, Pitch : 0.02, Yaw : 359.89, Alt : 39.0, Lat : 49.2835706, Lng : -123.1150206, Q1 : 0.999999523163, Q2 : 0.000117931995192, Q3 : 0.000220555099077, Q4 : -0.000953977112658}
2019-04-14 01:59:53.11: SIM {TimeUS : 48934585, Roll : 0.04, Pitch : 0.04, Yaw : 359.88, Alt : 39.2299995422, Lat : 49.2835706, Lng : -123.1150206, Q1 : 0.999999344349, Q2 : 0.00043624790851, Q3 : 0.000421679433202, Q4 : -0.000983001082204}
2019-04-14 01:59:53.21: SIM {TimeUS : 49034545, Roll : 0.07, Pitch : 0.07, Yaw : 359.88, Alt : 39.4599990845, Lat : 49.2835706, Lng : -123.1150207, Q1 : 0.999999046326, Q2 : 0.00067444081651, Q3 : 0.000649769732263, Q4 : -0.00101600668859}
2019-04-14 01:59:53.31: SIM {TimeUS : 49134505, Roll : 0.06, Pitch : 0.1, Yaw : 359.88, Alt : 39.6899986267, Lat : 49.2835706, Lng : -123.1150207, Q1 : 0.999998927116, Q2 : 0.000585642352235, Q3 : 0.000875025405549, Q4 : -0.00104787107557}
2019-04-14 01:59:53.41: SIM {TimeUS : 49235298, Roll : 0.01, Pitch : 0.12, Yaw : 359.87, Alt : 39.9199981689, Lat : 49.2835706, Lng : -123.1150207, Q1 : 0.999998807907, Q2 : 0.000160084382514, Q3 : 0.00109598273411, Q4 : -0.00109593616799}
2019-04-14 01:59:53.51: SIM {TimeUS : 49335258, Roll : -0.01, Pitch : 0.12, Yaw : 359.87, Alt : 40.1500015259, Lat : 49.2835706, Lng : -123.1150207, Q1 : 0.999998688698, Q2 : -0.000172419415321, Q3 : 0.00112934142817, Q4 : -0.0011315002339}
2019-04-14 01:59:53.61: SIM {TimeUS : 49435218, Roll : -0.04, Pitch : 0.11, Yaw : 359.86, Alt : 40.3800010681, Lat : 49.2835706, Lng : -123.1150207, Q1 : 0.999998748302, Q2 : -0.00038117764052, Q3 : 0.00102790130768, Q4 : -0.00115540728439}
2019-04-14 01:59:53.71: SIM {TimeUS : 49535178, Roll : -0.05, Pitch : 0.11, Yaw : 359.86, Alt : 40.6199989319, Lat : 49.2835706, Lng : -123.1150207, Q1 : 0.999998688698, Q2 : -0.000474595784908, Q3 : 0.00100030342583, Q4 : -0.00117906730156}
2019-04-14 01:59:53.81: SIM {TimeUS : 49635138, Roll : -0.04, Pitch : 0.13, Yaw : 359.86, Alt : 40.8499984741, Lat : 49.2835706, Lng : -123.1150207, Q1 : 0.999998509884, Q2 : -0.000369779358152, Q3 : 0.00117211404722, Q4 : -0.00120467564557}
2019-04-14 01:59:53.91: SIM {TimeUS : 49735098, Roll : 0.0, Pitch : 0.16, Yaw : 359.85, Alt : 41.0800018311, Lat : 49.2835706, Lng : -123.1150207, Q1 : 0.999998211861, Q2 : 2.30346940953e-05, Q3 : 0.00142163375858, Q4 : -0.00122865580488}
2019-04-14 01:59:54.01: SIM {TimeUS : 49835058, Roll : 0.05, Pitch : 0.17, Yaw : 359.85, Alt : 41.3100013733, Lat : 49.2835706, Lng : -123.1150207, Q1 : 0.999997913837, Q2 : 0.000506204902194, Q3 : 0.00152899837121, Q4 : -0.00125264748931}
2019-04-14 01:59:54.11: SIM {TimeUS : 49935018, Roll : 0.09, Pitch : 0.13, Yaw : 359.85, Alt : 41.5499992371, Lat : 49.2835706, Lng : -123.1150207, Q1 : 0.999998092651, Q2 : 0.000844570808113, Q3 : 0.00120157096535, Q4 : -0.00127820891794}
2019-04-14 01:59:54.21: SIM {TimeUS : 50034978, Roll : 0.1, Pitch : 0.07, Yaw : 359.85, Alt : 41.7799987793, Lat : 49.2835706, Lng : -123.1150207, Q1 : 0.999998509884, Q2 : 0.000903414445929, Q3 : 0.000695616821758, Q4 : -0.00129970011767}
2019-04-14 01:59:54.31: SIM {TimeUS : 50134938, Roll : 0.07, Pitch : 0.04, Yaw : 359.84, Alt : 42.0099983215, Lat : 49.2835706, Lng : -123.1150207, Q1 : 0.999998867512, Q2 : 0.000624843058176, Q3 : 0.000348253845004, Q4 : -0.00131308822893}
2019-04-14 01:59:54.41: SIM {TimeUS : 50234898, Roll : 0.01, Pitch : 0.03, Yaw : 359.84, Alt : 42.25, Lat : 49.2835706, Lng : -123.1150207, Q1 : 0.99999910593, Q2 : 0.000170924395206, Q3 : 0.000268388335826, Q4 : -0.00132146268152}
2019-04-14 01:59:54.51: SIM {TimeUS : 50334858, Roll : -0.01, Pitch : 0.05, Yaw : 359.84, Alt : 42.4799995422, Lat : 49.2835706, Lng : -123.1150207, Q1 : 0.999998986721, Q2 : -0.000138167670229, Q3 : 0.000495882122777, Q4 : -0.00132358993869}
2019-04-14 01:59:54.61: SIM {TimeUS : 50434818, Roll : -0.03, Pitch : 0.07, Yaw : 359.84, Alt : 42.7200012207, Lat : 49.2835704, Lng : -123.1150207, Q1 : 0.999998807907, Q2 : -0.000315549812512, Q3 : 0.000693329435308, Q4 : -0.00132843898609}
2019-04-14 01:59:54.71: SIM {TimeUS : 50534778, Roll : -0.03, Pitch : 0.07, Yaw : 359.84, Alt : 42.9500007629, Lat : 49.2835704, Lng : -123.1150206, Q1 : 0.999998807907, Q2 : -0.000338394020218, Q3 : 0.000670878391247, Q4 : -0.00133704347536}
2019-04-14 01:59:54.81: SIM {TimeUS : 50634738, Roll : -0.04, Pitch : 0.06, Yaw : 359.84, Alt : 43.1899986267, Lat : 49.2835704, Lng : -123.1150206, Q1 : 0.999998807907, Q2 : -0.00040770333726, Q3 : 0.000576367019676, Q4 : -0.00135367386974}
2019-04-14 01:59:54.91: SIM {TimeUS : 50734698, Roll : -0.04, Pitch : 0.04, Yaw : 359.84, Alt : 43.4199981689, Lat : 49.2835704, Lng : -123.1150206, Q1 : 0.999998927116, Q2 : -0.000381646386813, Q3 : 0.000434617773863, Q4 : -0.0013747618068}
2019-04-14 01:59:55.01: SIM {TimeUS : 50834658, Roll : -0.02, Pitch : 0.03, Yaw : 359.83, Alt : 43.6599998474, Lat : 49.2835704, Lng : -123.1150206, Q1 : 0.999998927116, Q2 : -0.000234521081438, Q3 : 0.000333226344083, Q4 : -0.00140141753945}
2019-04-14 01:59:55.11: SIM {TimeUS : 50934618, Roll : -0.01, Pitch : 0.03, Yaw : 359.83, Alt : 43.8899993896, Lat : 49.2835704, Lng : -123.1150206, Q1 : 0.999998927116, Q2 : -0.000116574592539, Q3 : 0.000274969672319, Q4 : -0.0014261394972}
2019-04-14 01:59:55.21: SIM {TimeUS : 51034578, Roll : -0.01, Pitch : 0.0, Yaw : 359.83, Alt : 44.1300010681, Lat : 49.2835704, Lng : -123.1150206, Q1 : 0.999998927116, Q2 : -0.000118890427984, Q3 : 8.1132275227e-05, Q4 : -0.00145110674202}
2019-04-14 01:59:55.31: SIM {TimeUS : 51134538, Roll : -0.02, Pitch : -0.02, Yaw : 359.83, Alt : 44.3600006104, Lat : 49.2835704, Lng : -123.1150206, Q1 : 0.999998867512, Q2 : -0.000177935173269, Q3 : -0.00024158640008, Q4 : -0.00148070289288}
2019-04-14 01:59:55.41: SIM {TimeUS : 51234498, Roll : -0.02, Pitch : -0.04, Yaw : 359.82, Alt : 44.5999984741, Lat : 49.2835704, Lng : -123.1150206, Q1 : 0.999998748302, Q2 : -0.000206517113838, Q3 : -0.000424887693953, Q4 : -0.00150891870726}
2019-04-14 01:59:55.51: SIM {TimeUS : 51335291, Roll : -0.01, Pitch : -0.05, Yaw : 359.82, Alt : 44.8400001526, Lat : 49.2835704, Lng : -123.1150206, Q1 : 0.999998688698, Q2 : -0.000160780968145, Q3 : -0.000474551867228, Q4 : -0.00153476081323}
2019-04-14 01:59:55.61: SIM {TimeUS : 51435251, Roll : -0.02, Pitch : -0.05, Yaw : 359.82, Alt : 45.0800018311, Lat : 49.2835704, Lng : -123.1150206, Q1 : 0.999998629093, Q2 : -0.000217166205402, Q3 : -0.000515490071848, Q4 : -0.00155987683684}
2019-04-14 01:59:55.71: SIM {TimeUS : 51535211, Roll : -0.05, Pitch : -0.05, Yaw : 359.81, Alt : 45.3100013733, Lat : 49.2835703, Lng : -123.1150206, Q1 : 0.999998569489, Q2 : -0.000457319256384, Q3 : -0.000439791067038, Q4 : -0.00158562825527}
2019-04-14 01:59:55.81: SIM {TimeUS : 51635171, Roll : -0.09, Pitch : -0.04, Yaw : 359.81, Alt : 45.5499992371, Lat : 49.2835703, Lng : -123.1150206, Q1 : 0.99999833107, Q2 : -0.000802713213488, Q3 : -0.000362610007869, Q4 : -0.00161374092568}
2019-04-14 01:59:55.91: SIM {TimeUS : 51735131, Roll : -0.11, Pitch : -0.03, Yaw : 359.81, Alt : 45.7799987793, Lat : 49.2835703, Lng : -123.1150206, Q1 : 0.999998092651, Q2 : -0.00101604207885, Q3 : -0.000304782559397, Q4 : -0.00164546701126}
2019-04-14 01:59:56.01: SIM {TimeUS : 51835091, Roll : -0.11, Pitch : -0.01, Yaw : 359.8, Alt : 46.0099983215, Lat : 49.2835703, Lng : -123.1150206, Q1 : 0.999998033047, Q2 : -0.00103314581793, Q3 : -0.000166415906278, Q4 : -0.00167606107425}
2019-04-14 01:59:56.11: SIM {TimeUS : 51935051, Roll : -0.1, Pitch : 0.0, Yaw : 359.8, Alt : 46.2400016785, Lat : 49.2835703, Lng : -123.1150206, Q1 : 0.999998152256, Q2 : -0.000874877208844, Q3 : 8.22282090667e-05, Q4 : -0.0017076554941}
2019-04-14 01:59:56.21: SIM {TimeUS : 52035011, Roll : -0.07, Pitch : 0.02, Yaw : 359.8, Alt : 46.4599990845, Lat : 49.2835703, Lng : -123.1150206, Q1 : 0.999998271465, Q2 : -0.000616911333054, Q3 : 0.000234798048041, Q4 : -0.0017400853103}
2019-04-14 01:59:56.31: SIM {TimeUS : 52134971, Roll : -0.04, Pitch : 0.02, Yaw : 359.79, Alt : 46.6800003052, Lat : 49.2835703, Lng : -123.1150206, Q1 : 0.99999833107, Q2 : -0.00037994585, Q3 : 0.000240091001615, Q4 : -0.00177118950523}
2019-04-14 01:59:56.41: SIM {TimeUS : 52234931, Roll : -0.02, Pitch : 0.0, Yaw : 359.79, Alt : 46.9000015259, Lat : 49.2835703, Lng : -123.1150206, Q1 : 0.99999833107, Q2 : -0.000257898384007, Q3 : 7.7648772276e-05, Q4 : -0.0017991384957}
2019-04-14 01:59:56.51: SIM {TimeUS : 52334891, Roll : -0.01, Pitch : -0.02, Yaw : 359.79, Alt : 47.1100006104, Lat : 49.2835703, Lng : -123.1150206, Q1 : 0.99999833107, Q2 : -0.000132824105094, Q3 : -0.000210249534575, Q4 : -0.00182358594611}
2019-04-14 01:59:56.61: SIM {TimeUS : 52434851, Roll : 0.0, Pitch : -0.05, Yaw : 359.78, Alt : 47.3100013733, Lat : 49.2835703, Lng : -123.1150206, Q1 : 0.999998152256, Q2 : 2.82354521914e-05, Q3 : -0.000521412643138, Q4 : -0.00184919906314}
2019-04-14 01:59:56.71: SIM {TimeUS : 52534811, Roll : 0.0, Pitch : -0.08, Yaw : 359.78, Alt : 47.5, Lat : 49.2835703, Lng : -123.1150206, Q1 : 0.999997913837, Q2 : 5.47880517843e-05, Q3 : -0.000784445728641, Q4 : -0.00187581020873}
2019-04-14 01:59:56.81: SIM {TimeUS : 52634771, Roll : 0.0, Pitch : -0.12, Yaw : 359.78, Alt : 47.6800003052, Lat : 49.2835703, Lng : -123.1150206, Q1 : 0.999997615814, Q2 : -3.42211251336e-06, Q3 : -0.00108364340849, Q4 : -0.00190210831352}
2019-04-14 01:59:56.91: SIM {TimeUS : 52734731, Roll : 0.01, Pitch : -0.15, Yaw : 359.77, Alt : 47.8499984741, Lat : 49.2835703, Lng : -123.1150206, Q1 : 0.999997258186, Q2 : 0.000100745775853, Q3 : -0.0013364785118, Q4 : -0.00192610092927}
2019-04-14 01:59:57.01: SIM {TimeUS : 52834691, Roll : 0.03, Pitch : -0.15, Yaw : 359.77, Alt : 48.0099983215, Lat : 49.2835704, Lng : -123.1150206, Q1 : 0.999997138977, Q2 : 0.000316548364935, Q3 : -0.00137828127481, Q4 : -0.00194890517741}
2019-04-14 01:59:57.11: SIM {TimeUS : 52934651, Roll : 0.06, Pitch : -0.13, Yaw : 359.77, Alt : 48.1599998474, Lat : 49.2835704, Lng : -123.1150206, Q1 : 0.999997198582, Q2 : 0.000567146402318, Q3 : -0.00121172401123, Q4 : -0.00196950533427}
2019-04-14 01:59:57.21: SIM {TimeUS : 53034611, Roll : 0.07, Pitch : -0.1, Yaw : 359.77, Alt : 48.2900009155, Lat : 49.2835704, Lng : -123.1150206, Q1 : 0.999997317791, Q2 : 0.000683538848534, Q3 : -0.000939732650295, Q4 : -0.00199074600823}
2019-04-14 01:59:57.31: SIM {TimeUS : 53134571, Roll : 0.08, Pitch : -0.08, Yaw : 359.76, Alt : 48.4099998474, Lat : 49.2835704, Lng : -123.1150206, Q1 : 0.999997437, Q2 : 0.000761403993238, Q3 : -0.00070176506415, Q4 : -0.00200966000557}
2019-04-14 01:59:57.41: SIM {TimeUS : 53234531, Roll : 0.08, Pitch : -0.07, Yaw : 359.76, Alt : 48.5299987793, Lat : 49.2835704, Lng : -123.1150206, Q1 : 0.999997496605, Q2 : 0.000710578169674, Q3 : -0.000631201197393, Q4 : -0.0020259632729}
2019-04-14 01:59:57.51: SIM {TimeUS : 53335324, Roll : 0.05, Pitch : -0.05, Yaw : 359.76, Alt : 48.6300010681, Lat : 49.2835704, Lng : -123.1150206, Q1 : 0.999997675419, Q2 : 0.000486585689941, Q3 : -0.000520416535437, Q4 : -0.0020425983239}
2019-04-14 01:59:57.61: SIM {TimeUS : 53435284, Roll : 0.02, Pitch : -0.03, Yaw : 359.76, Alt : 48.7099990845, Lat : 49.2835704, Lng : -123.1150206, Q1 : 0.999997794628, Q2 : 0.000251932156971, Q3 : -0.000332908646669, Q4 : -0.00205886177719}
2019-04-14 01:59:57.71: SIM {TimeUS : 53535244, Roll : 0.0, Pitch : -0.01, Yaw : 359.76, Alt : 48.7900009155, Lat : 49.2835704, Lng : -123.1150206, Q1 : 0.999997854233, Q2 : 5.35814469913e-05, Q3 : -0.000127357809106, Q4 : -0.00207701255567}
2019-04-14 01:59:57.81: SIM {TimeUS : 53635204, Roll : 0.0, Pitch : 0.01, Yaw : 359.75, Alt : 48.8499984741, Lat : 49.2835704, Lng : -123.1150206, Q1 : 0.999997794628, Q2 : -4.83893563796e-05, Q3 : 0.000147535058204, Q4 : -0.00209660176188}
2019-04-14 01:59:57.91: SIM {TimeUS : 53735164, Roll : 0.01, Pitch : 0.05, Yaw : 359.75, Alt : 48.9099998474, Lat : 49.2835704, Lng : -123.1150206, Q1 : 0.999997615814, Q2 : 9.22017061384e-05, Q3 : 0.000436296162661, Q4 : -0.00212222454138}
2019-04-14 01:59:58.01: SIM {TimeUS : 53835124, Roll : 0.03, Pitch : 0.06, Yaw : 359.75, Alt : 48.9599990845, Lat : 49.2835704, Lng : -123.1150206, Q1 : 0.999997496605, Q2 : 0.00034845789196, Q3 : 0.00056908861734, Q4 : -0.00215200870298}
2019-04-14 01:59:58.11: SIM {TimeUS : 53935084, Roll : 0.11, Pitch : 0.01, Yaw : 359.74, Alt : 49.0, Lat : 49.2835706, Lng : -123.1150206, Q1 : 0.999997138977, Q2 : 0.000964603677858, Q3 : 0.00012919906294, Q4 : -0.00218576914631}
2019-04-14 01:59:58.21: SIM {TimeUS : 54035044, Roll : 0.31, Pitch : -0.14, Yaw : 359.74, Alt : 49.0400009155, Lat : 49.2835706, Lng : -123.1150206, Q1 : 0.999992966652, Q2 : 0.00274375430308, Q3 : -0.00130114646163, Q4 : -0.00222322787158}
2019-04-14 01:59:58.31: SIM {TimeUS : 54135004, Roll : 0.71, Pitch : -0.48, Yaw : 359.73, Alt : 49.0699996948, Lat : 49.2835706, Lng : -123.1150206, Q1 : 0.999968886375, Q2 : 0.00626522907987, Q3 : -0.00423244340345, Q4 : -0.0022541761864}
2019-04-14 01:59:58.41: SIM {TimeUS : 54234964, Roll : 1.34, Pitch : -0.96, Yaw : 359.72, Alt : 49.0900001526, Lat : 49.2835706, Lng : -123.1150206, Q1 : 0.999893248081, Q2 : 0.0116874817759, Q3 : -0.00846749264747, Q4 : -0.00227226037532}
2019-04-14 01:59:58.51: SIM {TimeUS : 54334924, Roll : 2.13, Pitch : -1.53, Yaw : 359.71, Alt : 49.1100006104, Lat : 49.2835706, Lng : -123.1150205, Q1 : 0.999734461308, Q2 : 0.0186011306942, Q3 : -0.0134106231853, Q4 : -0.00225999043323}
2019-04-14 01:59:58.61: SIM {TimeUS : 54434884, Roll : 2.98, Pitch : -2.12, Yaw : 359.69, Alt : 49.1300010681, Lat : 49.2835707, Lng : -123.1150204, Q1 : 0.99948489666, Q2 : 0.0260325036943, Q3 : -0.0186400022358, Q4 : -0.00219685933553}
2019-04-14 01:59:58.71: SIM {TimeUS : 54534844, Roll : 3.77, Pitch : -2.66, Yaw : 359.67, Alt : 49.1500015259, Lat : 49.2835707, Lng : -123.1150203, Q1 : 0.999185860157, Q2 : 0.0328509099782, Q3 : -0.0233263969421, Q4 : -0.00206714170054}
2019-04-14 01:59:58.81: SIM {TimeUS : 54634804, Roll : 4.38, Pitch : -3.07, Yaw : 359.66, Alt : 49.1699981689, Lat : 49.2835708, Lng : -123.11502, Q1 : 0.998905658722, Q2 : 0.0381755679846, Q3 : -0.0269559752196, Q4 : -0.00187907239888}
2019-04-14 01:59:58.91: SIM {TimeUS : 54734764, Roll : 4.82, Pitch : -3.38, Yaw : 359.66, Alt : 49.1800003052, Lat : 49.2835709, Lng : -123.1150198, Q1 : 0.998678863049, Q2 : 0.0419535636902, Q3 : -0.0296248272061, Q4 : -0.00164831231814}
2019-04-14 01:59:59.01: SIM {TimeUS : 54834724, Roll : 5.15, Pitch : -3.62, Yaw : 359.67, Alt : 49.1899986267, Lat : 49.2835712, Lng : -123.1150194, Q1 : 0.998486042023, Q2 : 0.0449007302523, Q3 : -0.0317436568439, Q4 : -0.00139016669709}
2019-04-14 01:59:59.11: SIM {TimeUS : 54934684, Roll : 5.45, Pitch : -3.83, Yaw : 359.68, Alt : 49.2000007629, Lat : 49.2835714, Lng : -123.1150189, Q1 : 0.998305797577, Q2 : 0.0475071854889, Q3 : -0.0335769578815, Q4 : -0.00111275131349}
2019-04-14 01:59:59.21: SIM {TimeUS : 55034644, Roll : 5.75, Pitch : -4.03, Yaw : 359.7, Alt : 49.2099990845, Lat : 49.2835716, Lng : -123.1150183, Q1 : 0.998123168945, Q2 : 0.0500445887446, Q3 : -0.03528419137, Q4 : -0.000831305631436}
2019-04-14 01:59:59.31: SIM {TimeUS : 55134604, Roll : 6.05, Pitch : -4.25, Yaw : 359.7, Alt : 49.2200012207, Lat : 49.283572, Lng : -123.1150175, Q1 : 0.997917830944, Q2 : 0.0527024380863, Q3 : -0.0371779873967, Q4 : -0.000568216375541}
2019-04-14 01:59:59.41: SIM {TimeUS : 55234564, Roll : 6.33, Pitch : -4.46, Yaw : 359.71, Alt : 49.2200012207, Lat : 49.2835724, Lng : -123.1150168, Q1 : 0.997716248035, Q2 : 0.0551457554102, Q3 : -0.0390013046563, Q4 : -0.000333200150635}
2019-04-14 01:59:59.51: SIM {TimeUS : 55334524, Roll : 6.57, Pitch : -4.62, Yaw : 359.72, Alt : 49.2299995422, Lat : 49.2835727, Lng : -123.115016, Q1 : 0.997547566891, Q2 : 0.0571696572006, Q3 : -0.0403796024621, Q4 : -0.000112455803901}
2019-04-14 01:59:59.61: SIM {TimeUS : 55435317, Roll : 6.73, Pitch : -4.73, Yaw : 359.73, Alt : 49.2400016785, Lat : 49.2835732, Lng : -123.115015, Q1 : 0.997423350811, Q2 : 0.0586233660579, Q3 : -0.0413510613143, Q4 : 8.03797811386e-05}
2019-04-14 01:59:59.71: SIM {TimeUS : 55535277, Roll : 6.85, Pitch : -4.82, Yaw : 359.73, Alt : 49.2400016785, Lat : 49.2835737, Lng : -123.1150139, Q1 : 0.997332334518, Q2 : 0.0596061944962, Q3 : -0.0421343371272, Q4 : 0.000218104207306}
2019-04-14 01:59:59.81: SIM {TimeUS : 55635237, Roll : 6.95, Pitch : -4.89, Yaw : 359.73, Alt : 49.25, Lat : 49.2835741, Lng : -123.1150127, Q1 : 0.99725228548, Q2 : 0.0604971423745, Q3 : -0.0427541099489, Q4 : 0.000316722842399}
2019-04-14 01:59:59.91: SIM {TimeUS : 55735197, Roll : 7.1, Pitch : -4.97, Yaw : 359.73, Alt : 49.25, Lat : 49.2835747, Lng : -123.1150115, Q1 : 0.997143864632, Q2 : 0.0617949254811, Q3 : -0.0434206016362, Q4 : 0.00040396861732}
2019-04-14 02:00:00.01: SIM {TimeUS : 55835157, Roll : 7.42, Pitch : -4.93, Yaw : 359.86, Alt : 49.25, Lat : 49.2835753, Lng : -123.1150102, Q1 : 0.996979236603, Q2 : 0.0646075755358, Q3 : -0.0430783592165, Q4 : 0.00159795046784}
2019-04-14 02:00:00.11: SIM {TimeUS : 55935117, Roll : 7.96, Pitch : -4.75, Yaw : 0.63, Alt : 49.2599983215, Lat : 49.2835761, Lng : -123.1150087, Q1 : 0.996698379517, Q2 : 0.069599673152, Q3 : -0.0409571453929, Q4 : 0.00841408316046}
2019-04-14 02:00:00.21: SIM {TimeUS : 56035077, Roll : 8.58, Pitch : -4.64, Yaw : 2.72, Alt : 49.2599983215, Lat : 49.2835767, Lng : -123.1150072, Q1 : 0.996024489403, Q2 : 0.0756931677461, Q3 : -0.0386489145458, Q4 : 0.0266844462603}
2019-04-14 02:00:00.31: SIM {TimeUS : 56135037, Roll : 9.02, Pitch : -4.97, Yaw : 6.38, Alt : 49.2599983215, Lat : 49.2835774, Lng : -123.1150056, Q1 : 0.994222640991, Q2 : 0.0808990597725, Q3 : -0.0388391986489, Q4 : 0.0588920377195}
2019-04-14 02:00:00.41: SIM {TimeUS : 56234997, Roll : 9.07, Pitch : -5.84, Yaw : 11.54, Alt : 49.2599983215, Lat : 49.2835781, Lng : -123.1150039, Q1 : 0.990122318268, Q2 : 0.083694703877, Q3 : -0.0426070988178, Q4 : 0.104104250669}
2019-04-14 02:00:00.51: SIM {TimeUS : 56334957, Roll : 8.55, Pitch : -7.15, Yaw : 17.95, Alt : 49.2599983215, Lat : 49.2835788, Lng : -123.115002, Q1 : 0.982344508171, Q2 : 0.0832499712706, Q3 : -0.0498789697886, Q4 : 0.159939959645}
2019-04-14 02:00:00.61: SIM {TimeUS : 56434917, Roll : 7.42, Pitch : -8.73, Yaw : 25.39, Alt : 49.2700004578, Lat : 49.2835795, Lng : -123.115, Q1 : 0.969599783421, Q2 : 0.0796379819512, Q3 : -0.0599320270121, Q4 : 0.223477497697}
2019-04-14 02:00:00.71: SIM {TimeUS : 56534877, Roll : 5.71, Pitch : -10.34, Yaw : 33.58, Alt : 49.2700004578, Lat : 49.2835804, Lng : -123.1149979, Q1 : 0.950988173485, Q2 : 0.0735080763698, Q3 : -0.0718581154943, Q4 : 0.291640996933}
2019-04-14 02:00:00.81: SIM {TimeUS : 56634837, Roll : 3.47, Pitch : -11.74, Yaw : 42.26, Alt : 49.2700004578, Lat : 49.2835812, Lng : -123.1149957, Q1 : 0.926319777966, Q2 : 0.065017528832, Q3 : -0.0845581665635, Q4 : 0.361322999001}
2019-04-14 02:00:00.91: SIM {TimeUS : 56734797, Roll : 0.59, Pitch : -12.74, Yaw : 50.92, Alt : 49.2700004578, Lat : 49.2835819, Lng : -123.1149934, Q1 : 0.897037148476, Q2 : 0.0523746907711, Q3 : -0.0979936495423, Q4 : 0.427759766579}
2019-04-14 02:00:01.01: SIM {TimeUS : 56834757, Roll : -2.6, Pitch : -13.18, Yaw : 58.69, Alt : 49.2700004578, Lat : 49.2835829, Lng : -123.114991, Q1 : 0.866962134838, Q2 : 0.0365298576653, Q3 : -0.111094906926, Q4 : 0.484458565712}
2019-04-14 02:00:01.11: SIM {TimeUS : 56934717, Roll : -5.47, Pitch : -13.11, Yaw : 64.77, Alt : 49.2700004578, Lat : 49.2835838, Lng : -123.1149886, Q1 : 0.840874314308, Q2 : 0.0210187379271, Q3 : -0.121773727238, Q4 : 0.52693426609}
2019-04-14 02:00:01.21: SIM {TimeUS : 57034677, Roll : -7.46, Pitch : -12.81, Yaw : 68.77, Alt : 49.2700004578, Lat : 49.2835849, Lng : -123.1149859, Q1 : 0.822433829308, Q2 : 0.0095201889053, Q3 : -0.128416657448, Q4 : 0.554094851017}
2019-04-14 02:00:01.31: SIM {TimeUS : 57134637, Roll : -8.35, Pitch : -12.55, Yaw : 70.74, Alt : 49.2700004578, Lat : 49.2835861, Lng : -123.1149834, Q1 : 0.812959372997, Q2 : 0.00409320788458, Q3 : -0.130885928869, Q4 : 0.567405700684}
2019-04-14 02:00:01.41: SIM {TimeUS : 57234597, Roll : -8.24, Pitch : -12.53, Yaw : 70.98, Alt : 49.2700004578, Lat : 49.2835874, Lng : -123.1149808, Q1 : 0.811807632446, Q2 : 0.00502217933536, Q3 : -0.130160927773, Q4 : 0.569211125374}
2019-04-14 02:00:01.51: SIM {TimeUS : 57334557, Roll : -7.33, Pitch : -12.8, Yaw : 69.84, Alt : 49.2700004578, Lat : 49.2835887, Lng : -123.114978, Q1 : 0.817237257957, Q2 : 0.0116073330864, Q3 : -0.127619028091, Q4 : 0.561873555183}
2019-04-14 02:00:01.61: SIM {TimeUS : 57434517, Roll : -5.86, Pitch : -13.35, Yaw : 67.69, Alt : 49.2700004578, Lat : 49.2835903, Lng : -123.1149754, Q1 : 0.827127695084, Q2 : 0.0224748793989, Q3 : -0.12473167479, Q4 : 0.54753690958}
2019-04-14 02:00:01.71: SIM {TimeUS : 57535310, Roll : -4.05, Pitch : -14.07, Yaw : 64.83, Alt : 49.2700004578, Lat : 49.2835919, Lng : -123.1149725, Q1 : 0.839598655701, Q2 : 0.036016382277, Q3 : -0.122167177498, Q4 : 0.528064489365}
2019-04-14 02:00:01.81: SIM {TimeUS : 57635270, Roll : -2.13, Pitch : -14.79, Yaw : 61.62, Alt : 49.2799987793, Lat : 49.2835934, Lng : -123.1149696, Q1 : 0.852770984173, Q2 : 0.0500844754279, Q3 : -0.120047584176, Q4 : 0.505827844143}
2019-04-14 02:00:01.91: SIM {TimeUS : 57735230, Roll : -0.27, Pitch : -15.38, Yaw : 58.36, Alt : 49.2799987793, Lat : 49.2835951, Lng : -123.1149667, Q1 : 0.865383982658, Q2 : 0.0631521344185, Q3 : -0.118026226759, Q4 : 0.482899814844}
2019-04-14 02:00:02.01: SIM {TimeUS : 57835190, Roll : 1.35, Pitch : -15.74, Yaw : 55.37, Alt : 49.2799987793, Lat : 49.2835966, Lng : -123.1149636, Q1 : 0.876321554184, Q2 : 0.07403627038, Q3 : -0.115803085268, Q4 : 0.461702108383}
2019-04-14 02:00:02.11: SIM {TimeUS : 57935150, Roll : 2.63, Pitch : -15.89, Yaw : 52.96, Alt : 49.2799987793, Lat : 49.2835983, Lng : -123.1149603, Q1 : 0.88483196497, Q2 : 0.0819946825504, Q3 : -0.113605238497, Q4 : 0.444345742464}
2019-04-14 02:00:02.21: SIM {TimeUS : 58035110, Roll : 3.43, Pitch : -15.9, Yaw : 51.29, Alt : 49.2799987793, Lat : 49.2836001, Lng : -123.114957, Q1 : 0.890613019466, Q2 : 0.0866509452462, Q3 : -0.111797310412, Q4 : 0.432205349207}
2019-04-14 02:00:02.31: SIM {TimeUS : 58135070, Roll : 3.74, Pitch : -15.85, Yaw : 50.42, Alt : 49.2799987793, Lat : 49.2836018, Lng : -123.1149535, Q1 : 0.893674492836, Q2 : 0.0880061835051, Q3 : -0.110953398049, Q4 : 0.425781875849}
2019-04-14 02:00:02.41: SIM {TimeUS : 58235030, Roll : 3.59, Pitch : -15.8, Yaw : 50.32, Alt : 49.2799987793, Lat : 49.2836035, Lng : -123.1149499, Q1 : 0.894229114056, Q2 : 0.0865945592523, Q3 : -0.111181236804, Q4 : 0.424846440554}
2019-04-14 02:00:02.51: SIM {TimeUS : 58334990, Roll : 3.1, Pitch : -15.8, Yaw : 50.85, Alt : 49.2799987793, Lat : 49.283605, Lng : -123.1149462, Q1 : 0.892607748508, Q2 : 0.0832510739565, Q3 : -0.112606987357, Q4 : 0.428532779217}
2019-04-14 02:00:02.61: SIM {TimeUS : 58434950, Roll : 2.34, Pitch : -15.87, Yaw : 51.86, Alt : 49.2799987793, Lat : 49.2836068, Lng : -123.1149424, Q1 : 0.889282166958, Q2 : 0.0785783529282, Q3 : -0.115292675793, Q4 : 0.435557454824}
2019-04-14 02:00:02.71: SIM {TimeUS : 58534910, Roll : 1.46, Pitch : -15.99, Yaw : 53.14, Alt : 49.2799987793, Lat : 49.2836086, Lng : -123.1149385, Q1 : 0.884786784649, Q2 : 0.0735631287098, Q3 : -0.118778765202, Q4 : 0.444558680058}
2019-04-14 02:00:02.81: SIM {TimeUS : 58634870, Roll : 0.6, Pitch : -16.12, Yaw : 54.52, Alt : 49.2799987793, Lat : 49.2836103, Lng : -123.1149345, Q1 : 0.879764318466, Q2 : 0.0688703134656, Q3 : -0.122284397483, Q4 : 0.454222619534}
2019-04-14 02:00:02.91: SIM {TimeUS : 58734830, Roll : -0.17, Pitch : -16.23, Yaw : 55.83, Alt : 49.2799987793, Lat : 49.283612, Lng : -123.1149304, Q1 : 0.874852836132, Q2 : 0.0647786483169, Q3 : -0.125447899103, Q4 : 0.463356286287}
2019-04-14 02:00:03.01: SIM {TimeUS : 58834790, Roll : -0.81, Pitch : -16.32, Yaw : 56.94, Alt : 49.2799987793, Lat : 49.2836138, Lng : -123.1149263, Q1 : 0.870586454868, Q2 : 0.0615216493607, Q3 : -0.128148242831, Q4 : 0.47103330493}
2019-04-14 02:00:03.11: SIM {TimeUS : 58934750, Roll : -1.26, Pitch : -16.39, Yaw : 57.76, Alt : 49.2900009155, Lat : 49.2836157, Lng : -123.1149222, Q1 : 0.867358863354, Q2 : 0.0593350492418, Q3 : -0.130146086216, Q4 : 0.476686447859}
2019-04-14 02:00:03.21: SIM {TimeUS : 59034710, Roll : -1.5, Pitch : -16.46, Yaw : 58.25, Alt : 49.2900009155, Lat : 49.2836175, Lng : -123.114918, Q1 : 0.865369617939, Q2 : 0.0583355538547, Q3 : -0.131364956498, Q4 : 0.480078876019}
2019-04-14 02:00:03.31: SIM {TimeUS : 59134670, Roll : -1.53, Pitch : -16.49, Yaw : 58.42, Alt : 49.2900009155, Lat : 49.2836194, Lng : -123.1149137, Q1 : 0.864666163921, Q2 : 0.0584049895406, Q3 : -0.131671026349, Q4 : 0.481252551079}
2019-04-14 02:00:03.41: SIM {TimeUS : 59234630, Roll : -1.38, Pitch : -16.52, Yaw : 58.29, Alt : 49.2900009155, Lat : 49.2836213, Lng : -123.1149095, Q1 : 0.865086555481, Q2 : 0.0595113411546, Q3 : -0.13134150207, Q4 : 0.480450868607}
2019-04-14 02:00:03.51: SIM {TimeUS : 59334590, Roll : -1.1, Pitch : -16.55, Yaw : 57.94, Alt : 49.2900009155, Lat : 49.2836232, Lng : -123.1149051, Q1 : 0.866374671459, Q2 : 0.0613918416202, Q3 : -0.130577296019, Q4 : 0.478095799685}
2019-04-14 02:00:03.61: SIM {TimeUS : 59434550, Roll : -0.74, Pitch : -16.59, Yaw : 57.44, Alt : 49.2900009155, Lat : 49.2836253, Lng : -123.1149008, Q1 : 0.868222892284, Q2 : 0.0637105256319, Q3 : -0.129633426666, Q4 : 0.474684298038}
2019-04-14 02:00:03.71: SIM {TimeUS : 59534510, Roll : -0.35, Pitch : -16.63, Yaw : 56.86, Alt : 49.2900009155, Lat : 49.2836273, Lng : -123.1148964, Q1 : 0.870323598385, Q2 : 0.0661709904671, Q3 : -0.128636330366, Q4 : 0.470755755901}
2019-04-14 02:00:03.81: SIM {TimeUS : 59635303, Roll : 0.01, Pitch : -16.67, Yaw : 56.29, Alt : 49.2900009155, Lat : 49.2836293, Lng : -123.1148919, Q1 : 0.872405827045, Q2 : 0.0685328766704, Q3 : -0.127783611417, Q4 : 0.466779083014}
2019-04-14 02:00:03.91: SIM {TimeUS : 59735263, Roll : 0.31, Pitch : -16.7, Yaw : 55.78, Alt : 49.2900009155, Lat : 49.2836312, Lng : -123.1148874, Q1 : 0.874241650105, Q2 : 0.0704023241997, Q3 : -0.127117574215, Q4 : 0.4632345438}
2019-04-14 02:00:04.01: SIM {TimeUS : 59835223, Roll : 0.53, Pitch : -16.74, Yaw : 55.38, Alt : 49.2900009155, Lat : 49.2836334, Lng : -123.1148828, Q1 : 0.875680744648, Q2 : 0.0717713162303, Q3 : -0.126747146249, Q4 : 0.460399061441}
2019-04-14 02:00:04.11: SIM {TimeUS : 59935183, Roll : 0.65, Pitch : -16.78, Yaw : 55.11, Alt : 49.2900009155, Lat : 49.2836353, Lng : -123.1148782, Q1 : 0.876653492451, Q2 : 0.0725392475724, Q3 : -0.126740410924, Q4 : 0.458425164223}
2019-04-14 02:00:04.21: SIM {TimeUS : 60035143, Roll : 0.68, Pitch : -16.82, Yaw : 54.97, Alt : 49.2900009155, Lat : 49.2836375, Lng : -123.1148736, Q1 : 0.877140641212, Q2 : 0.0727398917079, Q3 : -0.127047672868, Q4 : 0.45737528801}
2019-04-14 02:00:04.31: SIM {TimeUS : 60135103, Roll : 0.61, Pitch : -16.86, Yaw : 54.96, Alt : 49.2900009155, Lat : 49.2836396, Lng : -123.1148689, Q1 : 0.877187669277, Q2 : 0.0723828673363, Q3 : -0.127634331584, Q4 : 0.457178354263}
2019-04-14 02:00:04.41: SIM {TimeUS : 60235063, Roll : 0.47, Pitch : -16.89, Yaw : 55.05, Alt : 49.2900009155, Lat : 49.2836415, Lng : -123.1148642, Q1 : 0.87688177824, Q2 : 0.071556173265, Q3 : -0.128346174955, Q4 : 0.457695752382}
2019-04-14 02:00:04.51: SIM {TimeUS : 60335023, Roll : 0.3, Pitch : -16.92, Yaw : 55.21, Alt : 49.2999992371, Lat : 49.2836437, Lng : -123.1148595, Q1 : 0.876305282116, Q2 : 0.0705626681447, Q3 : -0.129167661071, Q4 : 0.45872181654}
2019-04-14 02:00:04.61: SIM {TimeUS : 60434983, Roll : 0.14, Pitch : -16.96, Yaw : 55.41, Alt : 49.2999992371, Lat : 49.2836457, Lng : -123.1148547, Q1 : 0.875550091267, Q2 : 0.0697445943952, Q3 : -0.130019888282, Q4 : 0.460046231747}
2019-04-14 02:00:04.71: SIM {TimeUS : 60534943, Roll : 0.01, Pitch : -17.01, Yaw : 55.62, Alt : 49.2999992371, Lat : 49.2836479, Lng : -123.1148499, Q1 : 0.87474167347, Q2 : 0.0691348686814, Q3 : -0.130799204111, Q4 : 0.461453080177}
2019-04-14 02:00:04.81: SIM {TimeUS : 60634903, Roll : -0.08, Pitch : -17.06, Yaw : 55.81, Alt : 49.2999992371, Lat : 49.28365, Lng : -123.1148451, Q1 : 0.873983740807, Q2 : 0.0688181445003, Q3 : -0.131432324648, Q4 : 0.462754875422}
2019-04-14 02:00:04.91: SIM {TimeUS : 60734863, Roll : -0.14, Pitch : -17.11, Yaw : 55.96, Alt : 49.2999992371, Lat : 49.2836522, Lng : -123.1148402, Q1 : 0.873364686966, Q2 : 0.0687169656157, Q3 : -0.131952628493, Q4 : 0.463789433241}
2019-04-14 02:00:05.01: SIM {TimeUS : 60834823, Roll : -0.18, Pitch : -17.15, Yaw : 56.06, Alt : 49.2999992371, Lat : 49.2836543, Lng : -123.1148353, Q1 : 0.872941911221, Q2 : 0.0686635226011, Q3 : -0.132374078035, Q4 : 0.464472681284}
2019-04-14 02:00:05.11: SIM {TimeUS : 60934783, Roll : -0.21, Pitch : -17.16, Yaw : 56.1, Alt : 49.2999992371, Lat : 49.2836565, Lng : -123.1148304, Q1 : 0.872755587101, Q2 : 0.0685342028737, Q3 : -0.132606312633, Q4 : 0.464775562286}
2019-04-14 02:00:05.21: SIM {TimeUS : 61034743, Roll : -0.22, Pitch : -17.17, Yaw : 56.1, Alt : 49.2999992371, Lat : 49.2836586, Lng : -123.1148255, Q1 : 0.872778177261, Q2 : 0.0684684664011, Q3 : -0.132716238499, Q4 : 0.464711427689}
2019-04-14 02:00:05.31: SIM {TimeUS : 61134703, Roll : -0.2, Pitch : -17.18, Yaw : 56.05, Alt : 49.2999992371, Lat : 49.2836609, Lng : -123.1148205, Q1 : 0.872954964638, Q2 : 0.0686148107052, Q3 : -0.132691532373, Q4 : 0.464364677668}
2019-04-14 02:00:05.41: SIM {TimeUS : 61234663, Roll : -0.14, Pitch : -17.19, Yaw : 55.97, Alt : 49.3100013733, Lat : 49.2836631, Lng : -123.1148156, Q1 : 0.873236894608, Q2 : 0.0690110474825, Q3 : -0.132624685764, Q4 : 0.463794618845}
2019-04-14 02:00:05.51: SIM {TimeUS : 61334623, Roll : -0.05, Pitch : -17.23, Yaw : 55.86, Alt : 49.3100013733, Lat : 49.2836652, Lng : -123.1148106, Q1 : 0.873562693596, Q2 : 0.0697402656078, Q3 : -0.132607087493, Q4 : 0.463076531887}
2019-04-14 02:00:05.61: SIM {TimeUS : 61434583, Roll : 0.03, Pitch : -17.29, Yaw : 55.75, Alt : 49.3100013733, Lat : 49.2836675, Lng : -123.1148056, Q1 : 0.873893678188, Q2 : 0.0705465599895, Q3 : -0.132778659463, Q4 : 0.462280094624}
2019-04-14 02:00:05.71: SIM {TimeUS : 61534543, Roll : 0.1, Pitch : -17.33, Yaw : 55.64, Alt : 49.3100013733, Lat : 49.2836698, Lng : -123.1148006, Q1 : 0.874245584011, Q2 : 0.0711394697428, Q3 : -0.132873013616, Q4 : 0.461496084929}
2019-04-14 02:00:05.81: SIM {TimeUS : 61634503, Roll : 0.16, Pitch : -17.34, Yaw : 55.54, Alt : 49.3100013733, Lat : 49.2836719, Lng : -123.1147955, Q1 : 0.874600172043, Q2 : 0.0715118274093, Q3 : -0.13274140656, Q4 : 0.460804134607}
2019-04-14 02:00:05.91: SIM {TimeUS : 61735296, Roll : 0.19, Pitch : -17.34, Yaw : 55.46, Alt : 49.3100013733, Lat : 49.2836743, Lng : -123.1147904, Q1 : 0.874899506569, Q2 : 0.0716608986259, Q3 : -0.132671669126, Q4 : 0.460232377052}
2019-04-14 02:00:06.01: SIM {TimeUS : 61835256, Roll : 0.19, Pitch : -17.36, Yaw : 55.4, Alt : 49.3100013733, Lat : 49.2836765, Lng : -123.1147854, Q1 : 0.875112533569, Q2 : 0.0716452896595, Q3 : -0.132852137089, Q4 : 0.459777444601}
2019-04-14 02:00:06.11: SIM {TimeUS : 61935216, Roll : 0.18, Pitch : -17.38, Yaw : 55.37, Alt : 49.3100013733, Lat : 49.2836787, Lng : -123.1147803, Q1 : 0.875223696232, Q2 : 0.0716289207339, Q3 : -0.133082106709, Q4 : 0.459501832724}
2019-04-14 02:00:06.21: SIM {TimeUS : 62035176, Roll : 0.16, Pitch : -17.41, Yaw : 55.35, Alt : 49.3100013733, Lat : 49.2836809, Lng : -123.1147751, Q1 : 0.875256121159, Q2 : 0.0715943053365, Q3 : -0.133351072669, Q4 : 0.459367483854}
2019-04-14 02:00:06.31: SIM {TimeUS : 62135136, Roll : 0.15, Pitch : -17.43, Yaw : 55.36, Alt : 49.3100013733, Lat : 49.2836833, Lng : -123.11477, Q1 : 0.875233590603, Q2 : 0.071555942297, Q3 : -0.133588209748, Q4 : 0.459347516298}
2019-04-14 02:00:06.41: SIM {TimeUS : 62235096, Roll : 0.14, Pitch : -17.45, Yaw : 55.37, Alt : 49.3100013733, Lat : 49.2836856, Lng : -123.1147649, Q1 : 0.875154554844, Q2 : 0.0715866759419, Q3 : -0.133818507195, Q4 : 0.459426254034}
2019-04-14 02:00:06.51: SIM {TimeUS : 62335056, Roll : 0.12, Pitch : -17.47, Yaw : 55.39, Alt : 49.3100013733, Lat : 49.2836878, Lng : -123.1147597, Q1 : 0.875065326691, Q2 : 0.0715719312429, Q3 : -0.134002953768, Q4 : 0.459544748068}
2019-04-14 02:00:06.61: SIM {TimeUS : 62435016, Roll : 0.12, Pitch : -17.5, Yaw : 55.41, Alt : 49.3100013733, Lat : 49.2836901, Lng : -123.1147545, Q1 : 0.874956667423, Q2 : 0.0716903954744, Q3 : -0.134216204286, Q4 : 0.459670901299}
2019-04-14 02:00:06.71: SIM {TimeUS : 62534976, Roll : 0.12, Pitch : -17.53, Yaw : 55.42, Alt : 49.3199996948, Lat : 49.2836925, Lng : -123.1147493, Q1 : 0.874859035015, Q2 : 0.0718291029334, Q3 : -0.134409710765, Q4 : 0.459778517485}
2019-04-14 02:00:06.81: SIM {TimeUS : 62634936, Roll : 0.11, Pitch : -17.56, Yaw : 55.43, Alt : 49.3199996948, Lat : 49.2836948, Lng : -123.1147442, Q1 : 0.874782085419, Q2 : 0.0719214603305, Q3 : -0.134733647108, Q4 : 0.459815680981}
2019-04-14 02:00:06.91: SIM {TimeUS : 62734896, Roll : 0.07, Pitch : -17.61, Yaw : 55.44, Alt : 49.3199996948, Lat : 49.2836971, Lng : -123.1147389, Q1 : 0.874743282795, Q2 : 0.0718270763755, Q3 : -0.135215118527, Q4 : 0.459762901068}
2019-04-14 02:00:07.01: SIM {TimeUS : 62834856, Roll : 0.05, Pitch : -17.65, Yaw : 55.43, Alt : 49.3199996948, Lat : 49.2836993, Lng : -123.1147336, Q1 : 0.874725461006, Q2 : 0.0717885792255, Q3 : -0.135682344437, Q4 : 0.459665209055}
2019-04-14 02:00:07.11: SIM {TimeUS : 62934816, Roll : 0.05, Pitch : -17.69, Yaw : 55.42, Alt : 49.3199996948, Lat : 49.2837016, Lng : -123.1147285, Q1 : 0.874731898308, Q2 : 0.0719492062926, Q3 : -0.135908946395, Q4 : 0.459560871124}
2019-04-14 02:00:07.21: SIM {TimeUS : 63034776, Roll : 0.08, Pitch : -17.69, Yaw : 55.4, Alt : 49.3199996948, Lat : 49.283704, Lng : -123.1147232, Q1 : 0.874793410301, Q2 : 0.0721619948745, Q3 : -0.13578030467, Q4 : 0.459448367357}
2019-04-14 02:00:07.31: SIM {TimeUS : 63134736, Roll : 0.12, Pitch : -17.65, Yaw : 55.37, Alt : 49.3199996948, Lat : 49.2837064, Lng : -123.114718, Q1 : 0.87490940094, Q2 : 0.0722659006715, Q3 : -0.135423541069, Q4 : 0.459316551685}
2019-04-14 02:00:07.41: SIM {TimeUS : 63234696, Roll : 0.13, Pitch : -17.64, Yaw : 55.35, Alt : 49.3199996948, Lat : 49.2837087, Lng : -123.1147127, Q1 : 0.875031113625, Q2 : 0.0722895264626, Q3 : -0.135235548019, Q4 : 0.459136247635}
2019-04-14 02:00:07.51: SIM {TimeUS : 63334656, Roll : 0.14, Pitch : -17.62, Yaw : 55.32, Alt : 49.3199996948, Lat : 49.2837111, Lng : -123.1147074, Q1 : 0.875162601471, Q2 : 0.0722097605467, Q3 : -0.135150268674, Q4 : 0.458923280239}
2019-04-14 02:00:07.61: SIM {TimeUS : 63434616, Roll : 0.14, Pitch : -17.61, Yaw : 55.29, Alt : 49.3199996948, Lat : 49.2837133, Lng : -123.1147021, Q1 : 0.87528949976, Q2 : 0.072138890624, Q3 : -0.135090142488, Q4 : 0.458710074425}
2019-04-14 02:00:07.71: SIM {TimeUS : 63534576, Roll : 0.13, Pitch : -17.63, Yaw : 55.26, Alt : 49.3199996948, Lat : 49.2837157, Lng : -123.1146968, Q1 : 0.875380218029, Q2 : 0.072148360312, Q3 : -0.135243415833, Q4 : 0.458490312099}
2019-04-14 02:00:07.81: SIM {TimeUS : 63634536, Roll : 0.13, Pitch : -17.67, Yaw : 55.24, Alt : 49.3199996948, Lat : 49.2837181, Lng : -123.1146915, Q1 : 0.875430226326, Q2 : 0.072282910347, Q3 : -0.13554546237, Q4 : 0.458284378052}
2019-04-14 02:00:07.91: SIM {TimeUS : 63734496, Roll : 0.13, Pitch : -17.72, Yaw : 55.22, Alt : 49.3199996948, Lat : 49.2837205, Lng : -123.1146861, Q1 : 0.875446557999, Q2 : 0.0724179446697, Q3 : -0.136027082801, Q4 : 0.458089143038}
2019-04-14 02:00:08.01: SIM {TimeUS : 63835289, Roll : 0.12, Pitch : -17.79, Yaw : 55.2, Alt : 49.3199996948, Lat : 49.2837229, Lng : -123.1146807, Q1 : 0.875437557697, Q2 : 0.0726219639182, Q3 : -0.136515900493, Q4 : 0.457928568125}
2019-04-14 02:00:08.11: SIM {TimeUS : 63935249, Roll : 0.13, Pitch : -17.81, Yaw : 55.19, Alt : 49.3199996948, Lat : 49.2837253, Lng : -123.1146754, Q1 : 0.875444471836, Q2 : 0.0727921873331, Q3 : -0.136678174138, Q4 : 0.457839846611}
2019-04-14 02:00:08.21: SIM {TimeUS : 64035209, Roll : 0.13, Pitch : -17.83, Yaw : 55.18, Alt : 49.3300018311, Lat : 49.2837276, Lng : -123.1146701, Q1 : 0.875458776951, Q2 : 0.0728681012988, Q3 : -0.136821344495, Q4 : 0.457757651806}
2019-04-14 02:00:08.31: SIM {TimeUS : 64135169, Roll : 0.13, Pitch : -17.84, Yaw : 55.17, Alt : 49.3300018311, Lat : 49.28373, Lng : -123.1146647, Q1 : 0.875480771065, Q2 : 0.0728711411357, Q3 : -0.136941790581, Q4 : 0.457679152489}
2019-04-14 02:00:08.41: SIM {TimeUS : 64235129, Roll : 0.14, Pitch : -17.84, Yaw : 55.17, Alt : 49.3300018311, Lat : 49.2837324, Lng : -123.1146593, Q1 : 0.87550675869, Q2 : 0.0729454085231, Q3 : -0.136875495315, Q4 : 0.457637399435}
2019-04-14 02:00:08.51: SIM {TimeUS : 64335089, Roll : 0.17, Pitch : -17.85, Yaw : 55.16, Alt : 49.3300018311, Lat : 49.2837348, Lng : -123.1146539, Q1 : 0.875507712364, Q2 : 0.0731593966484, Q3 : -0.136858224869, Q4 : 0.457606673241}
2019-04-14 02:00:08.61: SIM {TimeUS : 64435049, Roll : 0.18, Pitch : -17.87, Yaw : 55.15, Alt : 49.3300018311, Lat : 49.2837372, Lng : -123.1146486, Q1 : 0.8754991889, Q2 : 0.0733513906598, Q3 : -0.136986494064, Q4 : 0.457553803921}
2019-04-14 02:00:08.71: SIM {TimeUS : 64535009, Roll : 0.19, Pitch : -17.89, Yaw : 55.14, Alt : 49.3300018311, Lat : 49.2837395, Lng : -123.1146432, Q1 : 0.875503063202, Q2 : 0.0734651535749, Q3 : -0.137097552419, Q4 : 0.457494854927}
2019-04-14 02:00:08.81: SIM {TimeUS : 64634969, Roll : 0.18, Pitch : -17.89, Yaw : 55.13, Alt : 49.3300018311, Lat : 49.2837419, Lng : -123.1146378, Q1 : 0.875541746616, Q2 : 0.0734342634678, Q3 : -0.137117147446, Q4 : 0.457419902086}
2019-04-14 02:00:08.91: SIM {TimeUS : 64734929, Roll : 0.17, Pitch : -17.89, Yaw : 55.12, Alt : 49.3300018311, Lat : 49.2837443, Lng : -123.1146324, Q1 : 0.875593543053, Q2 : 0.0733302682638, Q3 : -0.137167841196, Q4 : 0.457322180271}
2019-04-14 02:00:09.01: SIM {TimeUS : 64834889, Roll : 0.15, Pitch : -17.91, Yaw : 55.11, Alt : 49.3300018311, Lat : 49.2837467, Lng : -123.114627, Q1 : 0.875637292862, Q2 : 0.0731898024678, Q3 : -0.13743494451, Q4 : 0.457180768251}
2019-04-14 02:00:09.11: SIM {TimeUS : 64934849, Roll : 0.11, Pitch : -17.95, Yaw : 55.1, Alt : 49.3300018311, Lat : 49.2837491, Lng : -123.1146215, Q1 : 0.875668883324, Q2 : 0.0730774849653, Q3 : -0.137875586748, Q4 : 0.457005530596}
2019-04-14 02:00:09.21: SIM {TimeUS : 65034809, Roll : 0.1, Pitch : -17.96, Yaw : 55.08, Alt : 49.3300018311, Lat : 49.2837515, Lng : -123.1146161, Q1 : 0.875730931759, Q2 : 0.0730102658272, Q3 : -0.13797609508, Q4 : 0.456866979599}
2019-04-14 02:00:09.31: SIM {TimeUS : 65134769, Roll : 0.11, Pitch : -17.94, Yaw : 55.06, Alt : 49.3300018311, Lat : 49.283754, Lng : -123.1146107, Q1 : 0.875805139542, Q2 : 0.0730213671923, Q3 : -0.137838199735, Q4 : 0.456764549017}
2019-04-14 02:00:09.41: SIM {TimeUS : 65234729, Roll : 0.14, Pitch : -17.93, Yaw : 55.05, Alt : 49.3300018311, Lat : 49.2837564, Lng : -123.1146052, Q1 : 0.875872612, Q2 : 0.0731391981244, Q3 : -0.137635067105, Q4 : 0.456677645445}
2019-04-14 02:00:09.51: SIM {TimeUS : 65334689, Roll : 0.16, Pitch : -17.94, Yaw : 55.03, Alt : 49.3300018311, Lat : 49.2837588, Lng : -123.1145998, Q1 : 0.875916659832, Q2 : 0.0732960551977, Q3 : -0.137646526098, Q4 : 0.456564456224}
2019-04-14 02:00:09.61: SIM {TimeUS : 65434649, Roll : 0.15, Pitch : -17.96, Yaw : 55.02, Alt : 49.3300018311, Lat : 49.2837613, Lng : -123.1145943, Q1 : 0.87594884634, Q2 : 0.0733327269554, Q3 : -0.137858107686, Q4 : 0.456433027983}
2019-04-14 02:00:09.71: SIM {TimeUS : 65534609, Roll : 0.13, Pitch : -17.99, Yaw : 55.0, Alt : 49.3400001526, Lat : 49.2837637, Lng : -123.1145889, Q1 : 0.875984787941, Q2 : 0.0732694715261, Q3 : -0.13812443614, Q4 : 0.456293582916}
2019-04-14 02:00:09.81: SIM {TimeUS : 65634569, Roll : 0.13, Pitch : -18.01, Yaw : 54.99, Alt : 49.3400001526, Lat : 49.2837661, Lng : -123.1145834, Q1 : 0.876014232635, Q2 : 0.0732770189643, Q3 : -0.138322010636, Q4 : 0.456176042557}
2019-04-14 02:00:09.91: SIM {TimeUS : 65734529, Roll : 0.13, Pitch : -18.02, Yaw : 54.98, Alt : 49.3400001526, Lat : 49.2837686, Lng : -123.1145779, Q1 : 0.876039326191, Q2 : 0.0733835026622, Q3 : -0.138437971473, Q4 : 0.456075489521}
2019-04-14 02:00:10.01: SIM {TimeUS : 65835322, Roll : 0.15, Pitch : -18.04, Yaw : 54.97, Alt : 49.3400001526, Lat : 49.283771, Lng : -123.1145724, Q1 : 0.876061022282, Q2 : 0.0735281705856, Q3 : -0.138484731317, Q4 : 0.455996364355}
2019-04-14 02:00:10.11: SIM {TimeUS : 65935282, Roll : 0.17, Pitch : -18.04, Yaw : 54.96, Alt : 49.3400001526, Lat : 49.2837735, Lng : -123.1145669, Q1 : 0.876064479351, Q2 : 0.0737322494388, Q3 : -0.138448759913, Q4 : 0.455967754126}
2019-04-14 02:00:10.21: SIM {TimeUS : 66035242, Roll : 0.18, Pitch : -18.05, Yaw : 54.95, Alt : 49.3400001526, Lat : 49.2837759, Lng : -123.1145615, Q1 : 0.876057684422, Q2 : 0.0738695338368, Q3 : -0.138490587473, Q4 : 0.455945789814}
2019-04-14 02:00:10.31: SIM {TimeUS : 66135202, Roll : 0.2, Pitch : -18.07, Yaw : 54.95, Alt : 49.3400001526, Lat : 49.2837784, Lng : -123.114556, Q1 : 0.876041650772, Q2 : 0.0740269348025, Q3 : -0.138576045632, Q4 : 0.455925136805}
2019-04-14 02:00:10.41: SIM {TimeUS : 66235162, Roll : 0.21, Pitch : -18.09, Yaw : 54.95, Alt : 49.3400001526, Lat : 49.2837808, Lng : -123.1145505, Q1 : 0.876027345657, Q2 : 0.0741746723652, Q3 : -0.138660386205, Q4 : 0.455902993679}
2019-04-14 02:00:10.51: SIM {TimeUS : 66335122, Roll : 0.23, Pitch : -18.1, Yaw : 54.94, Alt : 49.3400001526, Lat : 49.2837834, Lng : -123.114545, Q1 : 0.876013696194, Q2 : 0.074359305203, Q3 : -0.138680398464, Q4 : 0.455893039703}
2019-04-14 02:00:10.61: SIM {TimeUS : 66435082, Roll : 0.25, Pitch : -18.11, Yaw : 54.94, Alt : 49.3400001526, Lat : 49.2837857, Lng : -123.1145395, Q1 : 0.875993490219, Q2 : 0.0746016353369, Q3 : -0.13868676126, Q4 : 0.455890357494}
2019-04-14 02:00:10.71: SIM {TimeUS : 66535042, Roll : 0.25, Pitch : -18.11, Yaw : 54.94, Alt : 49.3400001526, Lat : 49.2837883, Lng : -123.114534, Q1 : 0.876016139984, Q2 : 0.0745377242565, Q3 : -0.138672798872, Q4 : 0.455861479044}
2019-04-14 02:00:10.81: SIM {TimeUS : 66635002, Roll : 0.22, Pitch : -18.11, Yaw : 54.93, Alt : 49.3400001526, Lat : 49.2837907, Lng : -123.1145285, Q1 : 0.876046776772, Q2 : 0.0743355751038, Q3 : -0.138825908303, Q4 : 0.455789059401}
2019-04-14 02:00:10.91: SIM {TimeUS : 66734962, Roll : 0.19, Pitch : -18.14, Yaw : 54.93, Alt : 49.3499984741, Lat : 49.2837932, Lng : -123.114523, Q1 : 0.876058995724, Q2 : 0.0742142722011, Q3 : -0.139118075371, Q4 : 0.455696254969}
