2019-04-14 05:24:07.30: SIM {TimeUS : 39915694, Roll : 0.0, Pitch : 0.0, Yaw : 0.0, Alt : 30.1000003815, Lat : 49.28357, Lng : -123.11502, Q1 : 1.0, Q2 : 0.0, Q3 : 0.0, Q4 : 0.0}
2019-04-14 05:24:07.41: SIM {TimeUS : 40034813, Roll : 0.0, Pitch : 0.0, Yaw : 0.0, Alt : 30.1000003815, Lat : 49.28357, Lng : -123.11502, Q1 : 1.0, Q2 : 0.0, Q3 : 0.0, Q4 : 0.0}
2019-04-14 05:24:07.51: SIM {TimeUS : 40134773, Roll : 0.0, Pitch : 0.0, Yaw : 0.0, Alt : 30.1000003815, Lat : 49.28357, Lng : -123.11502, Q1 : 1.0, Q2 : 0.0, Q3 : 0.0, Q4 : 0.0}
2019-04-14 05:24:07.61: SIM {TimeUS : 40234733, Roll : 0.0, Pitch : 0.0, Yaw : 0.0, Alt : 30.1000003815, Lat : 49.28357, Lng : -123.11502, Q1 : 1.0, Q2 : 0.0, Q3 : 0.0, Q4 : 0.0}
2019-04-14 05:24:07.71: SIM {TimeUS : 40334693, Roll : 0.0, Pitch : 0.0, Yaw : 0.0, Alt : 30.1000003815, Lat : 49.28357, Lng : -123.11502, Q1 : 1.0, Q2 : 0.0, Q3 : 0.0, Q4 : 0.0}
2019-04-14 05:24:07.81: SIM {TimeUS : 40434653, Roll : 0.0, Pitch : 0.0, Yaw : 0.0, Alt : 30.1000003815, Lat : 49.28357, Lng : -123.11502, Q1 : 1.0, Q2 : 0.0, Q3 : 0.0, Q4 : 0.0}
2019-04-14 05:24:07.91: SIM {TimeUS : 40534613, Roll : 0.0, Pitch : 0.0, Yaw : 0.0, Alt : 30.1000003815, Lat : 49.28357, Lng : -123.11502, Q1 : 1.0, Q2 : 0.0, Q3 : 0.0, Q4 : 0.0}
2019-04-14 05:24:08.01: SIM {TimeUS : 40634573, Roll : 0.0, Pitch : 0.0, Yaw : 0.0, Alt : 30.1000003815, Lat : 49.28357, Lng : -123.11502, Q1 : 1.0, Q2 : 0.0, Q3 : 0.0, Q4 : 0.0}
2019-04-14 05:24:08.11: SIM {TimeUS : 40734533, Roll : 0.0, Pitch : 0.0, Yaw : 0.0, Alt : 30.1000003815, Lat : 49.28357, Lng : -123.11502, Q1 : 1.0, Q2 : 0.0, Q3 : 0.0, Q4 : 0.0}
2019-04-14 05:24:08.21: SIM {TimeUS : 40834493, Roll : 0.0, Pitch : 0.0, Yaw : 0.0, Alt : 30.1000003815, Lat : 49.28357, Lng : -123.11502, Q1 : 1.0, Q2 : 0.0, Q3 : 0.0, Q4 : 0.0}
2019-04-14 05:24:08.31: SIM {TimeUS : 40934453, Roll : 0.0, Pitch : 0.0, Yaw : 0.0, Alt : 30.1000003815, Lat : 49.28357, Lng : -123.11502, Q1 : 1.0, Q2 : 0.0, Q3 : 0.0, Q4 : 0.0}
2019-04-14 05:24:08.41: SIM {TimeUS : 41034413, Roll : 0.0, Pitch : 0.0, Yaw : 0.0, Alt : 30.1000003815, Lat : 49.28357, Lng : -123.11502, Q1 : 1.0, Q2 : 0.0, Q3 : 0.0, Q4 : 0.0}
2019-04-14 05:24:08.51: SIM {TimeUS : 41134373, Roll : 0.0, Pitch : 0.0, Yaw : 0.0, Alt : 30.1000003815, Lat : 49.28357, Lng : -123.11502, Q1 : 1.0, Q2 : 0.0, Q3 : 0.0, Q4 : 0.0}
2019-04-14 05:24:08.61: SIM {TimeUS : 41234333, Roll : 0.0, Pitch : 0.0, Yaw : 0.0, Alt : 30.1000003815, Lat : 49.28357, Lng : -123.11502, Q1 : 1.0, Q2 : 0.0, Q3 : 0.0, Q4 : 0.0}
2019-04-14 05:24:08.71: SIM {TimeUS : 41334293, Roll : 0.0, Pitch : 0.0, Yaw : 0.0, Alt : 30.1000003815, Lat : 49.28357, Lng : -123.11502, Q1 : 1.0, Q2 : 0.0, Q3 : 0.0, Q4 : 0.0}
2019-04-14 05:24:08.81: SIM {TimeUS : 41434253, Roll : 0.0, Pitch : 0.0, Yaw : 0.0, Alt : 30.1000003815, Lat : 49.28357, Lng : -123.11502, Q1 : 1.0, Q2 : 0.0, Q3 : 0.0, Q4 : 0.0}
2019-04-14 05:24:08.91: SIM {TimeUS : 41534213, Roll : 0.0, Pitch : 0.0, Yaw : 0.0, Alt : 30.1000003815, Lat : 49.28357, Lng : -123.11502, Q1 : 1.0, Q2 : 0.0, Q3 : 0.0, Q4 : 0.0}
2019-04-14 05:24:09.01: SIM {TimeUS : 41634173, Roll : 0.0, Pitch : 0.0, Yaw : 0.0, Alt : 30.1000003815, Lat : 49.28357, Lng : -123.11502, Q1 : 1.0, Q2 : 0.0, Q3 : 0.0, Q4 : 0.0}
2019-04-14 05:24:09.11: SIM {TimeUS : 41734133, Roll : 0.0, Pitch : 0.0, Yaw : 0.0, Alt : 30.1000003815, Lat : 49.28357, Lng : -123.11502, Q1 : 1.0, Q2 : 0.0, Q3 : 0.0, Q4 : 0.0}
2019-04-14 05:24:09.21: SIM {TimeUS : 41834093, Roll : 0.0, Pitch : 0.0, Yaw : 0.0, Alt : 30.1000003815, Lat : 49.28357, Lng : -123.11502, Q1 : 1.0, Q2 : 0.0, Q3 : 0.0, Q4 : 0.0}
2019-04-14 05:24:09.31: SIM {TimeUS : 41934053, Roll : 0.0, Pitch : 0.0, Yaw : 0.0, Alt : 30.1000003815, Lat : 49.28357, Lng : -123.11502, Q1 : 1.0, Q2 : 0.0, Q3 : 0.0, Q4 : 0.0}
2019-04-14 05:24:09.42: SIM {TimeUS : 42034846, Roll : 0.0, Pitch : 0.0, Yaw : 0.0, Alt : 30.1000003815, Lat : 49.28357, Lng : -123.11502, Q1 : 1.0, Q2 : 0.0, Q3 : 0.0, Q4 : 0.0}
2019-04-14 05:24:09.51: SIM {TimeUS : 42134806, Roll : 0.0, Pitch : 0.0, Yaw : 0.0, Alt : 30.1000003815, Lat : 49.28357, Lng : -123.11502, Q1 : 1.0, Q2 : 0.0, Q3 : 0.0, Q4 : 0.0}
2019-04-14 05:24:09.61: SIM {TimeUS : 42234766, Roll : 0.0, Pitch : 0.0, Yaw : 0.0, Alt : 30.1000003815, Lat : 49.28357, Lng : -123.11502, Q1 : 1.0, Q2 : 0.0, Q3 : 0.0, Q4 : 2.50972402582e-11}
2019-04-14 05:24:09.71: SIM {TimeUS : 42334726, Roll : 0.0, Pitch : 0.0, Yaw : 360.0, Alt : 30.1000003815, Lat : 49.28357, Lng : -123.11502, Q1 : 1.0, Q2 : 0.0, Q3 : 0.0, Q4 : -2.4248850039e-08}
2019-04-14 05:24:09.81: SIM {TimeUS : 42434686, Roll : 0.0, Pitch : 0.0, Yaw : 359.99, Alt : 30.1000003815, Lat : 49.28357, Lng : -123.11502, Q1 : 1.0, Q2 : 0.0, Q3 : 0.0, Q4 : -2.24946290928e-07}
2019-04-14 05:24:09.91: SIM {TimeUS : 42534646, Roll : 0.0, Pitch : 0.0, Yaw : 359.99, Alt : 30.1000003815, Lat : 49.28357, Lng : -123.11502, Q1 : 1.0, Q2 : 0.0, Q3 : 0.0, Q4 : -4.33072557371e-07}
2019-04-14 05:24:10.01: SIM {TimeUS : 42634606, Roll : 0.0, Pitch : 0.0, Yaw : 359.99, Alt : 30.1000003815, Lat : 49.28357, Lng : -123.11502, Q1 : 1.0, Q2 : 0.0, Q3 : 0.0, Q4 : -6.26563064543e-07}
2019-04-14 05:24:10.11: SIM {TimeUS : 42734566, Roll : 0.0, Pitch : 0.0, Yaw : 359.99, Alt : 30.1000003815, Lat : 49.28357, Lng : -123.11502, Q1 : 1.0, Q2 : 0.0, Q3 : 0.0, Q4 : -8.26377004159e-07}
2019-04-14 05:24:10.21: SIM {TimeUS : 42834526, Roll : 0.0, Pitch : 0.0, Yaw : 359.99, Alt : 30.1000003815, Lat : 49.28357, Lng : -123.11502, Q1 : 1.0, Q2 : 0.0, Q3 : 0.0, Q4 : -1.02474291452e-06}
2019-04-14 05:24:10.31: SIM {TimeUS : 42934486, Roll : 0.0, Pitch : 0.0, Yaw : 359.99, Alt : 30.1000003815, Lat : 49.28357, Lng : -123.11502, Q1 : 1.0, Q2 : 0.0, Q3 : 0.0, Q4 : -1.24459177187e-06}
2019-04-14 05:24:10.41: SIM {TimeUS : 43034446, Roll : 0.0, Pitch : 0.0, Yaw : 359.99, Alt : 30.1000003815, Lat : 49.28357, Lng : -123.11502, Q1 : 1.0, Q2 : 0.0, Q3 : 0.0, Q4 : -1.45909496041e-06}
2019-04-14 05:24:10.51: SIM {TimeUS : 43134406, Roll : 0.0, Pitch : 0.0, Yaw : 359.99, Alt : 30.1200008392, Lat : 49.28357, Lng : -123.11502, Q1 : 1.0, Q2 : 0.0, Q3 : 0.0, Q4 : -1.71579097241e-06}
2019-04-14 05:24:10.61: SIM {TimeUS : 43234366, Roll : 0.0, Pitch : 0.0, Yaw : 359.99, Alt : 30.1399993896, Lat : 49.28357, Lng : -123.11502, Q1 : 1.0, Q2 : 0.0, Q3 : 0.0, Q4 : -1.91641333913e-06}
2019-04-14 05:24:10.71: SIM {TimeUS : 43334326, Roll : 0.0, Pitch : 0.0, Yaw : 359.99, Alt : 30.1800003052, Lat : 49.28357, Lng : -123.11502, Q1 : 1.0, Q2 : 0.0, Q3 : 0.0, Q4 : -2.19818525693e-06}
2019-04-14 05:24:10.81: SIM {TimeUS : 43434286, Roll : 0.0, Pitch : 0.0, Yaw : 359.99, Alt : 30.2099990845, Lat : 49.28357, Lng : -123.11502, Q1 : 1.0, Q2 : -7.53603580961e-06, Q3 : -6.59044553686e-06, Q4 : -2.45959154199e-06}
2019-04-14 05:24:10.91: SIM {TimeUS : 43534246, Roll : -0.16, Pitch : -0.15, Yaw : 359.99, Alt : 30.2700004578, Lat : 49.28357, Lng : -123.11502, Q1 : 0.999997973442, Q2 : -0.00148071127478, Q3 : -0.00134852353949, Q4 : -1.90190039575e-05}
2019-04-14 05:24:11.01: SIM {TimeUS : 43634206, Roll : -0.45, Pitch : -0.44, Yaw : 359.99, Alt : 30.3899993896, Lat : 49.28357, Lng : -123.11502, Q1 : 0.999984502792, Q2 : -0.00396450795233, Q3 : -0.0039061291609, Q4 : -6.44387837383e-05}
2019-04-14 05:24:11.11: SIM {TimeUS : 43734166, Roll : -0.69, Pitch : -0.72, Yaw : 359.98, Alt : 30.5400009155, Lat : 49.28357, Lng : -123.11502, Q1 : 0.999961853027, Q2 : -0.00603724597022, Q3 : -0.0063127358444, Q4 : -0.000137578943395}
2019-04-14 05:24:11.21: SIM {TimeUS : 43834126, Roll : -0.79, Pitch : -0.84, Yaw : 359.98, Alt : 30.7000007629, Lat : 49.28357, Lng : -123.11502, Q1 : 0.999948680401, Q2 : -0.00696425884962, Q3 : -0.00735674845055, Q4 : -0.000223983777687}
2019-04-14 05:24:11.31: SIM {TimeUS : 43934086, Roll : -0.75, Pitch : -0.76, Yaw : 359.96, Alt : 30.8500003815, Lat : 49.28357, Lng : -123.1150201, Q1 : 0.999955713749, Q2 : -0.00661720568314, Q3 : -0.00668131513521, Q4 : -0.000313193566399}
2019-04-14 05:24:11.41: SIM {TimeUS : 44034046, Roll : -0.6, Pitch : -0.55, Yaw : 359.95, Alt : 31.0100002289, Lat : 49.2835701, Lng : -123.1150201, Q1 : 0.999973893166, Q2 : -0.00531134661287, Q3 : -0.00488229468465, Q4 : -0.000399128010031}
2019-04-14 05:24:11.52: SIM {TimeUS : 44134839, Roll : -0.4, Pitch : -0.31, Yaw : 359.94, Alt : 31.1599998474, Lat : 49.2835701, Lng : -123.1150202, Q1 : 0.99998986721, Q2 : -0.00352767249569, Q3 : -0.00276237586513, Q4 : -0.000472589716082}
2019-04-14 05:24:11.61: SIM {TimeUS : 44234799, Roll : -0.21, Pitch : -0.11, Yaw : 359.94, Alt : 31.3199996948, Lat : 49.2835702, Lng : -123.1150203, Q1 : 0.99999755621, Q2 : -0.0018997346051, Q3 : -0.00101746886503, Q4 : -0.000523306545801}
2019-04-14 05:24:11.71: SIM {TimeUS : 44334759, Roll : -0.07, Pitch : 0.01, Yaw : 359.93, Alt : 31.4899997711, Lat : 49.2835702, Lng : -123.1150204, Q1 : 0.999999642372, Q2 : -0.000657270138618, Q3 : 9.52990594669e-05, Q4 : -0.000559882784728}
2019-04-14 05:24:11.81: SIM {TimeUS : 44434719, Roll : 0.02, Pitch : 0.04, Yaw : 359.93, Alt : 31.6700000763, Lat : 49.2835702, Lng : -123.1150205, Q1 : 0.999999761581, Q2 : 0.000209218880627, Q3 : 0.000413045490859, Q4 : -0.000582998385653}
2019-04-14 05:24:11.91: SIM {TimeUS : 44534679, Roll : 0.07, Pitch : 0.03, Yaw : 359.93, Alt : 31.8400001526, Lat : 49.2835703, Lng : -123.1150205, Q1 : 0.999999582767, Q2 : 0.000624014413916, Q3 : 0.000315900193527, Q4 : -0.000596325146034}
2019-04-14 05:24:12.01: SIM {TimeUS : 44634639, Roll : 0.07, Pitch : 0.01, Yaw : 359.93, Alt : 32.0299987793, Lat : 49.2835703, Lng : -123.1150206, Q1 : 0.999999642372, Q2 : 0.000633350224234, Q3 : 0.000108303400339, Q4 : -0.000593749340624}
2019-04-14 05:24:12.11: SIM {TimeUS : 44734599, Roll : 0.06, Pitch : 0.0, Yaw : 359.93, Alt : 32.2099990845, Lat : 49.2835703, Lng : -123.1150207, Q1 : 0.999999701977, Q2 : 0.000534142774995, Q3 : -1.31977976707e-05, Q4 : -0.000577404978685}
2019-04-14 05:24:12.21: SIM {TimeUS : 44834559, Roll : 0.05, Pitch : 0.0, Yaw : 359.93, Alt : 32.4099998474, Lat : 49.2835703, Lng : -123.1150207, Q1 : 0.999999701977, Q2 : 0.000470931263408, Q3 : -2.53961916314e-05, Q4 : -0.0005514920922}
2019-04-14 05:24:12.31: SIM {TimeUS : 44934519, Roll : 0.06, Pitch : 0.01, Yaw : 359.93, Alt : 32.5999984741, Lat : 49.2835703, Lng : -123.1150208, Q1 : 0.999999701977, Q2 : 0.000551891222131, Q3 : 0.000114361355372, Q4 : -0.00052830047207}
2019-04-14 05:24:12.41: SIM {TimeUS : 45034479, Roll : 0.09, Pitch : 0.03, Yaw : 359.94, Alt : 32.7999992371, Lat : 49.2835703, Lng : -123.1150208, Q1 : 0.999999463558, Q2 : 0.000840230670292, Q3 : 0.000335489021381, Q4 : -0.000505919626448}
2019-04-14 05:24:12.51: SIM {TimeUS : 45134439, Roll : 0.14, Pitch : 0.06, Yaw : 359.94, Alt : 32.9900016785, Lat : 49.2835704, Lng : -123.1150208, Q1 : 0.999998867512, Q2 : 0.00126293557696, Q3 : 0.000608502188697, Q4 : -0.000499422603752}
2019-04-14 05:24:12.61: SIM {TimeUS : 45234399, Roll : 0.17, Pitch : 0.1, Yaw : 359.94, Alt : 33.2000007629, Lat : 49.2835704, Lng : -123.1150209, Q1 : 0.999998211861, Q2 : 0.00156596978195, Q3 : 0.000934889016207, Q4 : -0.000502278562635}
2019-04-14 05:24:12.71: SIM {TimeUS : 45334359, Roll : 0.18, Pitch : 0.13, Yaw : 359.94, Alt : 33.4000015259, Lat : 49.2835704, Lng : -123.1150209, Q1 : 0.999997854233, Q2 : 0.0016075426247, Q3 : 0.00121810473502, Q4 : -0.000503266346641}
2019-04-14 05:24:12.81: SIM {TimeUS : 45434319, Roll : 0.17, Pitch : 0.16, Yaw : 359.94, Alt : 33.6100006104, Lat : 49.2835704, Lng : -123.1150209, Q1 : 0.999997794628, Q2 : 0.00148589618038, Q3 : 0.00139964243863, Q4 : -0.000506567419507}
2019-04-14 05:24:12.91: SIM {TimeUS : 45534279, Roll : 0.15, Pitch : 0.17, Yaw : 359.94, Alt : 33.8100013733, Lat : 49.2835704, Lng : -123.1150209, Q1 : 0.999997735023, Q2 : 0.00137546670157, Q3 : 0.00154400151223, Q4 : -0.000516589381732}
2019-04-14 05:24:13.01: SIM {TimeUS : 45634239, Roll : 0.15, Pitch : 0.17, Yaw : 359.93, Alt : 34.0200004578, Lat : 49.2835706, Lng : -123.1150209, Q1 : 0.999997735023, Q2 : 0.00137559405994, Q3 : 0.00152145815082, Q4 : -0.000529739656486}
2019-04-14 05:24:13.11: SIM {TimeUS : 45734199, Roll : 0.15, Pitch : 0.16, Yaw : 359.93, Alt : 34.2299995422, Lat : 49.2835706, Lng : -123.1150209, Q1 : 0.999997854233, Q2 : 0.00135803373996, Q3 : 0.0014352487633, Q4 : -0.000548034673557}
2019-04-14 05:24:13.21: SIM {TimeUS : 45834159, Roll : 0.13, Pitch : 0.15, Yaw : 359.93, Alt : 34.4399986267, Lat : 49.2835706, Lng : -123.1150209, Q1 : 0.999998211861, Q2 : 0.00118780974299, Q3 : 0.0013455748558, Q4 : -0.000567771436181}
2019-04-14 05:24:13.31: SIM {TimeUS : 45934119, Roll : 0.11, Pitch : 0.11, Yaw : 359.93, Alt : 34.6599998474, Lat : 49.2835706, Lng : -123.1150209, Q1 : 0.999998807907, Q2 : 0.000996415386908, Q3 : 0.00101827003527, Q4 : -0.000576792284846}
2019-04-14 05:24:13.41: SIM {TimeUS : 46034079, Roll : 0.09, Pitch : 0.06, Yaw : 359.93, Alt : 34.8699989319, Lat : 49.2835706, Lng : -123.1150209, Q1 : 0.999999344349, Q2 : 0.000811233709101, Q3 : 0.000569066847675, Q4 : -0.000577034661546}
2019-04-14 05:24:13.51: SIM {TimeUS : 46134039, Roll : 0.06, Pitch : 0.03, Yaw : 359.93, Alt : 35.0900001526, Lat : 49.2835706, Lng : -123.1150209, Q1 : 0.999999582767, Q2 : 0.00059701903956, Q3 : 0.000288393523078, Q4 : -0.000600272906013}
2019-04-14 05:24:13.62: SIM {TimeUS : 46234832, Roll : 0.05, Pitch : 0.02, Yaw : 359.92, Alt : 35.3100013733, Lat : 49.2835706, Lng : -123.1150208, Q1 : 0.999999642372, Q2 : 0.000474832952023, Q3 : 0.000198269524844, Q4 : -0.000648577755783}
2019-04-14 05:24:13.71: SIM {TimeUS : 46334792, Roll : 0.05, Pitch : 0.02, Yaw : 359.91, Alt : 35.5200004578, Lat : 49.2835706, Lng : -123.1150208, Q1 : 0.999999582767, Q2 : 0.000486851669848, Q3 : 0.000242816298851, Q4 : -0.000711712578777}
2019-04-14 05:24:13.81: SIM {TimeUS : 46434752, Roll : 0.05, Pitch : 0.02, Yaw : 359.91, Alt : 35.7400016785, Lat : 49.2835706, Lng : -123.1150208, Q1 : 0.999999582767, Q2 : 0.000437401758973, Q3 : 0.000251734629273, Q4 : -0.000772277940996}
2019-04-14 05:24:13.91: SIM {TimeUS : 46534712, Roll : 0.02, Pitch : 0.02, Yaw : 359.9, Alt : 35.9599990845, Lat : 49.2835706, Lng : -123.1150208, Q1 : 0.999999642372, Q2 : 0.000184976684977, Q3 : 0.00022132624872, Q4 : -0.000818810483906}
2019-04-14 05:24:14.01: SIM {TimeUS : 46634672, Roll : 0.0, Pitch : 0.02, Yaw : 359.9, Alt : 36.1800003052, Lat : 49.2835706, Lng : -123.1150208, Q1 : 0.999999642372, Q2 : -5.67177630728e-05, Q3 : 0.000203516305191, Q4 : -0.000853645091411}
2019-04-14 05:24:14.11: SIM {TimeUS : 46734632, Roll : -0.01, Pitch : 0.04, Yaw : 359.89, Alt : 36.4000015259, Lat : 49.2835706, Lng : -123.1150208, Q1 : 0.999999523163, Q2 : -0.000170092913322, Q3 : 0.000386003521271, Q4 : -0.000882755673956}
2019-04-14 05:24:14.21: SIM {TimeUS : 46834592, Roll : -0.02, Pitch : 0.04, Yaw : 359.89, Alt : 36.6300010681, Lat : 49.2835706, Lng : -123.1150207, Q1 : 0.999999463558, Q2 : -0.000241279791226, Q3 : 0.000417824310716, Q4 : -0.000915912445635}
2019-04-14 05:24:14.31: SIM {TimeUS : 46934552, Roll : -0.02, Pitch : 0.04, Yaw : 359.89, Alt : 36.8499984741, Lat : 49.2835706, Lng : -123.1150207, Q1 : 0.999999463558, Q2 : -0.000231593498029, Q3 : 0.000351691385731, Q4 : -0.000948902859818}
2019-04-14 05:24:14.41: SIM {TimeUS : 47034512, Roll : -0.02, Pitch : 0.03, Yaw : 359.88, Alt : 37.0699996948, Lat : 49.2835706, Lng : -123.1150207, Q1 : 0.999999463558, Q2 : -0.00022446596995, Q3 : 0.000280434411252, Q4 : -0.000976477225777}
2019-04-14 05:24:14.51: SIM {TimeUS : 47134472, Roll : -0.02, Pitch : 0.02, Yaw : 359.88, Alt : 37.2999992371, Lat : 49.2835706, Lng : -123.1150207, Q1 : 0.999999463558, Q2 : -0.000192979539861, Q3 : 0.000214182568016, Q4 : -0.000991997425444}
2019-04-14 05:24:14.61: SIM {TimeUS : 47234432, Roll : 0.0, Pitch : 0.01, Yaw : 359.88, Alt : 37.5200004578, Lat : 49.2835704, Lng : -123.1150207, Q1 : 0.999999523163, Q2 : -7.51280749682e-05, Q3 : 0.000169016304426, Q4 : -0.00099433970172}
2019-04-14 05:24:14.71: SIM {TimeUS : 47334392, Roll : -0.01, Pitch : 0.0, Yaw : 359.88, Alt : 37.75, Lat : 49.2835704, Lng : -123.1150207, Q1 : 0.999999523163, Q2 : -0.000146527701872, Q3 : 1.73782082129e-05, Q4 : -0.000984433223493}
2019-04-14 05:24:14.81: SIM {TimeUS : 47434352, Roll : -0.04, Pitch : -0.02, Yaw : 359.88, Alt : 37.9799995422, Lat : 49.2835704, Lng : -123.1150207, Q1 : 0.999999463558, Q2 : -0.000371258094674, Q3 : -0.000226043659495, Q4 : -0.000969847955275}
2019-04-14 05:24:14.91: SIM {TimeUS : 47534312, Roll : -0.07, Pitch : -0.04, Yaw : 359.89, Alt : 38.2000007629, Lat : 49.2835704, Lng : -123.1150207, Q1 : 0.999999284744, Q2 : -0.000630073831417, Q3 : -0.000401049794164, Q4 : -0.000956589356065}
2019-04-14 05:24:15.01: SIM {TimeUS : 47634272, Roll : -0.09, Pitch : -0.04, Yaw : 359.89, Alt : 38.4300003052, Lat : 49.2835704, Lng : -123.1150207, Q1 : 0.99999910593, Q2 : -0.000860133266542, Q3 : -0.000399460026529, Q4 : -0.000953976006713}
2019-04-14 05:24:15.11: SIM {TimeUS : 47734232, Roll : -0.11, Pitch : -0.04, Yaw : 359.89, Alt : 38.6599998474, Lat : 49.2835704, Lng : -123.1150206, Q1 : 0.999998986721, Q2 : -0.000984650221653, Q3 : -0.000354456191417, Q4 : -0.000958699441981}
2019-04-14 05:24:15.21: SIM {TimeUS : 47834192, Roll : -0.11, Pitch : -0.03, Yaw : 359.88, Alt : 38.8899993896, Lat : 49.2835704, Lng : -123.1150206, Q1 : 0.999998986721, Q2 : -0.000981630408205, Q3 : -0.000337502977345, Q4 : -0.000969075539615}
2019-04-14 05:24:15.31: SIM {TimeUS : 47934152, Roll : -0.09, Pitch : -0.02, Yaw : 359.88, Alt : 39.1199989319, Lat : 49.2835704, Lng : -123.1150206, Q1 : 0.99999910593, Q2 : -0.000852453580592, Q3 : -0.000260269938735, Q4 : -0.000986500759609}
2019-04-14 05:24:15.41: SIM {TimeUS : 48034112, Roll : -0.07, Pitch : -0.03, Yaw : 359.88, Alt : 39.3499984741, Lat : 49.2835704, Lng : -123.1150206, Q1 : 0.99999922514, Q2 : -0.000631611503195, Q3 : -0.000346952030668, Q4 : -0.00101039500441}
2019-04-14 05:24:15.51: SIM {TimeUS : 48134072, Roll : -0.05, Pitch : -0.05, Yaw : 359.88, Alt : 39.5800018311, Lat : 49.2835704, Lng : -123.1150206, Q1 : 0.99999922514, Q2 : -0.00049993704306, Q3 : -0.00046408502385, Q4 : -0.00104578328319}
2019-04-14 05:24:15.61: SIM {TimeUS : 48234032, Roll : -0.04, Pitch : -0.04, Yaw : 359.87, Alt : 39.8100013733, Lat : 49.2835704, Lng : -123.1150206, Q1 : 0.99999922514, Q2 : -0.000434575136751, Q3 : -0.000416906783357, Q4 : -0.00107540294994}
2019-04-14 05:24:15.72: SIM {TimeUS : 48334825, Roll : -0.06, Pitch : -0.02, Yaw : 359.87, Alt : 40.0400009155, Lat : 49.2835704, Lng : -123.1150206, Q1 : 0.99999922514, Q2 : -0.000545300601516, Q3 : -0.000176632733201, Q4 : -0.00110601575579}
2019-04-14 05:24:15.81: SIM {TimeUS : 48434785, Roll : -0.06, Pitch : 0.01, Yaw : 359.86, Alt : 40.2700004578, Lat : 49.2835704, Lng : -123.1150206, Q1 : 0.99999922514, Q2 : -0.000549465825316, Q3 : 0.000103259248135, Q4 : -0.00114006025251}
2019-04-14 05:24:15.91: SIM {TimeUS : 48534745, Roll : -0.04, Pitch : 0.05, Yaw : 359.86, Alt : 40.5099983215, Lat : 49.2835704, Lng : -123.1150206, Q1 : 0.99999910593, Q2 : -0.000426101934863, Q3 : 0.00044854026055, Q4 : -0.00118238374125}
2019-04-14 05:24:16.01: SIM {TimeUS : 48634705, Roll : -0.03, Pitch : 0.06, Yaw : 359.86, Alt : 40.7400016785, Lat : 49.2835704, Lng : -123.1150207, Q1 : 0.999999046326, Q2 : -0.000268233969109, Q3 : 0.000601906271186, Q4 : -0.00121842091903}
2019-04-14 05:24:16.11: SIM {TimeUS : 48734665, Roll : 0.0, Pitch : 0.07, Yaw : 359.85, Alt : 40.9700012207, Lat : 49.2835704, Lng : -123.1150207, Q1 : 0.999999046326, Q2 : 4.51778078059e-06, Q3 : 0.000616739038378, Q4 : -0.00125253503211}
2019-04-14 05:24:16.21: SIM {TimeUS : 48834625, Roll : 0.03, Pitch : 0.08, Yaw : 359.85, Alt : 41.2000007629, Lat : 49.2835704, Lng : -123.1150207, Q1 : 0.999998867512, Q2 : 0.000336730765412, Q3 : 0.000714448397048, Q4 : -0.00128384225536}
2019-04-14 05:24:16.31: SIM {TimeUS : 48934585, Roll : 0.08, Pitch : 0.1, Yaw : 359.84, Alt : 41.4399986267, Lat : 49.2835704, Lng : -123.1150207, Q1 : 0.999998450279, Q2 : 0.000746169651393, Q3 : 0.000921324361116, Q4 : -0.0013128623832}
2019-04-14 05:24:16.41: SIM {TimeUS : 49034545, Roll : 0.11, Pitch : 0.12, Yaw : 359.84, Alt : 41.6699981689, Lat : 49.2835704, Lng : -123.1150207, Q1 : 0.999998033047, Q2 : 0.000967953528743, Q3 : 0.00111085281242, Q4 : -0.00134127039928}
2019-04-14 05:24:16.51: SIM {TimeUS : 49134505, Roll : 0.09, Pitch : 0.14, Yaw : 359.84, Alt : 41.9099998474, Lat : 49.2835706, Lng : -123.1150207, Q1 : 0.999997973442, Q2 : 0.000837853935082, Q3 : 0.00122724857647, Q4 : -0.00135593803134}
2019-04-14 05:24:16.61: SIM {TimeUS : 49234465, Roll : 0.05, Pitch : 0.14, Yaw : 359.84, Alt : 42.1399993896, Lat : 49.2835706, Lng : -123.1150207, Q1 : 0.999998152256, Q2 : 0.00044807663653, Q3 : 0.00129767425824, Q4 : -0.00136486394331}
2019-04-14 05:24:16.71: SIM {TimeUS : 49334425, Roll : 0.0, Pitch : 0.14, Yaw : 359.84, Alt : 42.3699989319, Lat : 49.2835706, Lng : -123.1150207, Q1 : 0.999998211861, Q2 : 4.98037625221e-05, Q3 : 0.00130731589161, Q4 : -0.00137779500801}
2019-04-14 05:24:16.81: SIM {TimeUS : 49434385, Roll : -0.01, Pitch : 0.11, Yaw : 359.84, Alt : 42.6100006104, Lat : 49.2835706, Lng : -123.1150207, Q1 : 0.999998509884, Q2 : -0.000124188853079, Q3 : 0.00103859498631, Q4 : -0.00139034248423}
2019-04-14 05:24:16.91: SIM {TimeUS : 49534345, Roll : -0.01, Pitch : 0.07, Yaw : 359.83, Alt : 42.8400001526, Lat : 49.2835704, Lng : -123.1150207, Q1 : 0.999998807907, Q2 : -0.000121479359223, Q3 : 0.000621343264356, Q4 : -0.0014053870691}
2019-04-14 05:24:17.01: SIM {TimeUS : 49634305, Roll : 0.0, Pitch : 0.06, Yaw : 359.83, Alt : 43.0800018311, Lat : 49.2835704, Lng : -123.1150207, Q1 : 0.999998867512, Q2 : -3.34616997861e-05, Q3 : 0.000545301067177, Q4 : -0.00142532493919}
2019-04-14 05:24:17.11: SIM {TimeUS : 49734265, Roll : 0.02, Pitch : 0.08, Yaw : 359.83, Alt : 43.3100013733, Lat : 49.2835704, Lng : -123.1150207, Q1 : 0.999998629093, Q2 : 0.000240363951889, Q3 : 0.0007407789235, Q4 : -0.00145347742364}
2019-04-14 05:24:17.21: SIM {TimeUS : 49834225, Roll : 0.08, Pitch : 0.11, Yaw : 359.83, Alt : 43.5499992371, Lat : 49.2835704, Lng : -123.1150207, Q1 : 0.999998152256, Q2 : 0.000705119688064, Q3 : 0.000995949376374, Q4 : -0.00147897063289}
2019-04-14 05:24:17.31: SIM {TimeUS : 49934185, Roll : 0.12, Pitch : 0.11, Yaw : 359.82, Alt : 43.7799987793, Lat : 49.2835704, Lng : -123.1150207, Q1 : 0.999997794628, Q2 : 0.00105189753231, Q3 : 0.00104006100446, Q4 : -0.0015113906702}
2019-04-14 05:24:17.41: SIM {TimeUS : 50034145, Roll : 0.12, Pitch : 0.1, Yaw : 359.82, Alt : 44.0200004578, Lat : 49.2835704, Lng : -123.1150207, Q1 : 0.999997794628, Q2 : 0.00105831003748, Q3 : 0.000945558655076, Q4 : -0.001541691483}
2019-04-14 05:24:17.51: SIM {TimeUS : 50134105, Roll : 0.07, Pitch : 0.08, Yaw : 359.82, Alt : 44.2599983215, Lat : 49.2835704, Lng : -123.1150207, Q1 : 0.999998211861, Q2 : 0.000696741626598, Q3 : 0.000776106491685, Q4 : -0.00155875261407}
2019-04-14 05:24:17.61: SIM {TimeUS : 50234065, Roll : 0.01, Pitch : 0.06, Yaw : 359.81, Alt : 44.4900016785, Lat : 49.2835704, Lng : -123.1150207, Q1 : 0.999998569489, Q2 : 0.000163307355251, Q3 : 0.000580757448915, Q4 : -0.00157231767662}
2019-04-14 05:24:17.71: SIM {TimeUS : 50334025, Roll : -0.02, Pitch : 0.05, Yaw : 359.81, Alt : 44.7299995422, Lat : 49.2835704, Lng : -123.1150206, Q1 : 0.999998629093, Q2 : -0.000198268127861, Q3 : 0.000473878200864, Q4 : -0.00158735166769}
2019-04-14 05:24:17.81: SIM {TimeUS : 50434818, Roll : -0.04, Pitch : 0.04, Yaw : 359.81, Alt : 44.9700012207, Lat : 49.2835704, Lng : -123.1150206, Q1 : 0.999998569489, Q2 : -0.000387950363802, Q3 : 0.000354396441253, Q4 : -0.00160641537514}
2019-04-14 05:24:17.91: SIM {TimeUS : 50534778, Roll : -0.03, Pitch : 0.01, Yaw : 359.81, Alt : 45.2000007629, Lat : 49.2835704, Lng : -123.1150206, Q1 : 0.999998569489, Q2 : -0.000346041546436, Q3 : 0.000163068209076, Q4 : -0.00164267979562}
2019-04-14 05:24:18.01: SIM {TimeUS : 50634738, Roll : -0.04, Pitch : 0.0, Yaw : 359.8, Alt : 45.4399986267, Lat : 49.2835704, Lng : -123.1150206, Q1 : 0.999998509884, Q2 : -0.000384141108952, Q3 : 1.85565731954e-05, Q4 : -0.00168481690343}
2019-04-14 05:24:18.11: SIM {TimeUS : 50734698, Roll : -0.03, Pitch : 0.0, Yaw : 359.8, Alt : 45.6699981689, Lat : 49.2835704, Lng : -123.1150206, Q1 : 0.999998450279, Q2 : -0.000308284652419, Q3 : -5.00527930853e-05, Q4 : -0.00172625773121}
2019-04-14 05:24:18.21: SIM {TimeUS : 50834658, Roll : -0.01, Pitch : 0.0, Yaw : 359.79, Alt : 45.9099998474, Lat : 49.2835703, Lng : -123.1150206, Q1 : 0.999998450279, Q2 : -0.000139390773256, Q3 : -2.76831342489e-05, Q4 : -0.00176740810275}
2019-04-14 05:24:18.31: SIM {TimeUS : 50934618, Roll : -0.01, Pitch : 0.0, Yaw : 359.79, Alt : 46.1399993896, Lat : 49.2835703, Lng : -123.1150206, Q1 : 0.999998390675, Q2 : -0.000109771979623, Q3 : 6.8370201916e-05, Q4 : -0.00179927051067}
2019-04-14 05:24:18.41: SIM {TimeUS : 51034578, Roll : -0.01, Pitch : 0.0, Yaw : 359.79, Alt : 46.3600006104, Lat : 49.2835703, Lng : -123.1150205, Q1 : 0.99999833107, Q2 : -0.000156908849021, Q3 : 4.92177678098e-05, Q4 : -0.00182284344919}
2019-04-14 05:24:18.51: SIM {TimeUS : 51134538, Roll : -0.02, Pitch : -0.01, Yaw : 359.78, Alt : 46.5800018311, Lat : 49.2835703, Lng : -123.1150205, Q1 : 0.999998271465, Q2 : -0.000225628755288, Q3 : -9.44819694269e-05, Q4 : -0.00184180308133}
2019-04-14 05:24:18.61: SIM {TimeUS : 51234498, Roll : -0.02, Pitch : -0.02, Yaw : 359.78, Alt : 46.7999992371, Lat : 49.2835703, Lng : -123.1150205, Q1 : 0.999998271465, Q2 : -0.000222463131649, Q3 : -0.000179025446414, Q4 : -0.00186092057265}
2019-04-14 05:24:18.71: SIM {TimeUS : 51334458, Roll : -0.02, Pitch : -0.02, Yaw : 359.78, Alt : 47.0099983215, Lat : 49.2835703, Lng : -123.1150205, Q1 : 0.999998211861, Q2 : -0.000176445639227, Q3 : -0.00022664401331, Q4 : -0.00187974481378}
2019-04-14 05:24:18.81: SIM {TimeUS : 51434418, Roll : -0.02, Pitch : -0.02, Yaw : 359.78, Alt : 47.2099990845, Lat : 49.2835703, Lng : -123.1150205, Q1 : 0.999998152256, Q2 : -0.000255195656791, Q3 : -0.000207373668673, Q4 : -0.00189892330673}
2019-04-14 05:24:18.91: SIM {TimeUS : 51534378, Roll : -0.05, Pitch : -0.01, Yaw : 359.77, Alt : 47.4099998474, Lat : 49.2835703, Lng : -123.1150205, Q1 : 0.999998033047, Q2 : -0.000479941954836, Q3 : -0.000140611824463, Q4 : -0.00192185060587}
2019-04-14 05:24:19.01: SIM {TimeUS : 51634338, Roll : -0.09, Pitch : -0.01, Yaw : 359.77, Alt : 47.5900001526, Lat : 49.2835703, Lng : -123.1150205, Q1 : 0.999997735023, Q2 : -0.000821445253678, Q3 : -0.000122028497572, Q4 : -0.00194953544997}
2019-04-14 05:24:19.11: SIM {TimeUS : 51734298, Roll : -0.14, Pitch : -0.03, Yaw : 359.77, Alt : 47.7700004578, Lat : 49.2835703, Lng : -123.1150205, Q1 : 0.999997198582, Q2 : -0.0012569532264, Q3 : -0.000291941221803, Q4 : -0.00198403489776}
2019-04-14 05:24:19.21: SIM {TimeUS : 51834258, Roll : -0.17, Pitch : -0.04, Yaw : 359.76, Alt : 47.9300003052, Lat : 49.2835703, Lng : -123.1150205, Q1 : 0.999996781349, Q2 : -0.00151286879554, Q3 : -0.000373376737116, Q4 : -0.00201904890127}
2019-04-14 05:24:19.31: SIM {TimeUS : 51934218, Roll : -0.17, Pitch : -0.03, Yaw : 359.76, Alt : 48.0900001526, Lat : 49.2835703, Lng : -123.1150205, Q1 : 0.99999666214, Q2 : -0.0015533050755, Q3 : -0.000291922042379, Q4 : -0.00205120560713}
2019-04-14 05:24:19.41: SIM {TimeUS : 52034178, Roll : -0.15, Pitch : -0.02, Yaw : 359.76, Alt : 48.2299995422, Lat : 49.2835703, Lng : -123.1150205, Q1 : 0.999996840954, Q2 : -0.00138723989949, Q3 : -0.000186398829101, Q4 : -0.00208351900801}
2019-04-14 05:24:19.51: SIM {TimeUS : 52134138, Roll : -0.12, Pitch : -0.01, Yaw : 359.75, Alt : 48.3600006104, Lat : 49.2835703, Lng : -123.1150205, Q1 : 0.999997138977, Q2 : -0.00112779694609, Q3 : -0.000132389817736, Q4 : -0.00211366522126}
2019-04-14 05:24:19.61: SIM {TimeUS : 52234098, Roll : -0.1, Pitch : -0.01, Yaw : 359.75, Alt : 48.4700012207, Lat : 49.2835703, Lng : -123.1150205, Q1 : 0.999997258186, Q2 : -0.000905289431103, Q3 : -0.000143051947816, Q4 : -0.00214391550981}
2019-04-14 05:24:19.71: SIM {TimeUS : 52334058, Roll : -0.07, Pitch : -0.02, Yaw : 359.75, Alt : 48.5800018311, Lat : 49.2835703, Lng : -123.1150205, Q1 : 0.999997377396, Q2 : -0.000663870421704, Q3 : -0.000249906734098, Q4 : -0.00217652390711}
2019-04-14 05:24:19.82: SIM {TimeUS : 52434851, Roll : -0.04, Pitch : -0.04, Yaw : 359.74, Alt : 48.6699981689, Lat : 49.2835703, Lng : -123.1150205, Q1 : 0.999997437, Q2 : -0.00037332487409, Q3 : -0.000358995224815, Q4 : -0.0022051455453}
2019-04-14 05:24:19.91: SIM {TimeUS : 52534811, Roll : -0.02, Pitch : -0.05, Yaw : 359.74, Alt : 48.75, Lat : 49.2835703, Lng : -123.1150205, Q1 : 0.999997377396, Q2 : -0.000201833783649, Q3 : -0.000472090701805, Q4 : -0.00222682650201}
2019-04-14 05:24:20.01: SIM {TimeUS : 52634771, Roll : -0.02, Pitch : -0.07, Yaw : 359.74, Alt : 48.8199996948, Lat : 49.2835703, Lng : -123.1150205, Q1 : 0.999997258186, Q2 : -0.000240760637098, Q3 : -0.000616373086814, Q4 : -0.00224164733663}
2019-04-14 05:24:20.11: SIM {TimeUS : 52734731, Roll : 0.0, Pitch : -0.07, Yaw : 359.74, Alt : 48.8800010681, Lat : 49.2835703, Lng : -123.1150206, Q1 : 0.999997258186, Q2 : -7.26482903701e-05, Q3 : -0.000638752360828, Q4 : -0.00225765700452}
2019-04-14 05:24:20.21: SIM {TimeUS : 52834691, Roll : 0.02, Pitch : -0.06, Yaw : 359.73, Alt : 48.9300003052, Lat : 49.2835703, Lng : -123.1150206, Q1 : 0.999997258186, Q2 : 0.00017509656027, Q3 : -0.000560797052458, Q4 : -0.00227248319425}
2019-04-14 05:24:20.31: SIM {TimeUS : 52934651, Roll : 0.04, Pitch : -0.05, Yaw : 359.73, Alt : 48.9799995422, Lat : 49.2835703, Lng : -123.1150206, Q1 : 0.999997198582, Q2 : 0.000415533024352, Q3 : -0.000443371827714, Q4 : -0.0022869813256}
2019-04-14 05:24:20.41: SIM {TimeUS : 53034611, Roll : 0.08, Pitch : -0.08, Yaw : 359.73, Alt : 49.0200004578, Lat : 49.2835703, Lng : -123.1150206, Q1 : 0.999996781349, Q2 : 0.00074626802234, Q3 : -0.000747080135625, Q4 : -0.00230222614482}
2019-04-14 05:24:20.51: SIM {TimeUS : 53134571, Roll : 0.23, Pitch : -0.28, Yaw : 359.73, Alt : 49.0499992371, Lat : 49.2835703, Lng : -123.1150206, Q1 : 0.999992132187, Q2 : 0.00201552873477, Q3 : -0.00249742344022, Q4 : -0.00231779646128}
2019-04-14 05:24:20.61: SIM {TimeUS : 53234531, Roll : 0.52, Pitch : -0.72, Yaw : 359.72, Alt : 49.0800018311, Lat : 49.2835703, Lng : -123.1150206, Q1 : 0.999966561794, Q2 : 0.00460415845737, Q3 : -0.00634400080889, Q4 : -0.00234005297534}
2019-04-14 05:24:20.71: SIM {TimeUS : 53334491, Roll : 0.96, Pitch : -1.37, Yaw : 359.71, Alt : 49.0999984741, Lat : 49.2835704, Lng : -123.1150206, Q1 : 0.999889791012, Q2 : 0.00839762203395, Q3 : -0.0120132789016, Q4 : -0.00235311733559}
2019-04-14 05:24:20.81: SIM {TimeUS : 53434451, Roll : 1.51, Pitch : -2.16, Yaw : 359.7, Alt : 49.1300010681, Lat : 49.2835704, Lng : -123.1150206, Q1 : 0.999730885029, Q2 : 0.013168271631, Q3 : -0.0189561508596, Q4 : -0.00233999802731}
2019-04-14 05:24:20.91: SIM {TimeUS : 53534411, Roll : 2.1, Pitch : -3.01, Yaw : 359.68, Alt : 49.1399993896, Lat : 49.2835706, Lng : -123.1150205, Q1 : 0.999482393265, Q2 : 0.0182670615613, Q3 : -0.026382682845, Q4 : -0.00227917754091}
2019-04-14 05:24:21.01: SIM {TimeUS : 53634371, Roll : 2.63, Pitch : -3.78, Yaw : 359.66, Alt : 49.1599998474, Lat : 49.2835707, Lng : -123.1150204, Q1 : 0.999190092087, Q2 : 0.0228598751128, Q3 : -0.0330444797873, Q4 : -0.00216061645187}
2019-04-14 05:24:21.11: SIM {TimeUS : 53734331, Roll : 3.06, Pitch : -4.36, Yaw : 359.65, Alt : 49.1699981689, Lat : 49.2835708, Lng : -123.1150202, Q1 : 0.998915672302, Q2 : 0.0265992823988, Q3 : -0.0381579995155, Q4 : -0.00197887513787}
2019-04-14 05:24:21.21: SIM {TimeUS : 53834291, Roll : 3.39, Pitch : -4.79, Yaw : 359.65, Alt : 49.1800003052, Lat : 49.2835709, Lng : -123.11502, Q1 : 0.998686850071, Q2 : 0.0294411629438, Q3 : -0.0418908894062, Q4 : -0.00174291548319}
2019-04-14 05:24:21.31: SIM {TimeUS : 53934251, Roll : 3.63, Pitch : -5.13, Yaw : 359.66, Alt : 49.2000007629, Lat : 49.2835713, Lng : -123.1150199, Q1 : 0.998494029045, Q2 : 0.0315606035292, Q3 : -0.0448484495282, Q4 : -0.00148478324991}
2019-04-14 05:24:21.41: SIM {TimeUS : 54034211, Roll : 3.81, Pitch : -5.43, Yaw : 359.67, Alt : 49.2000007629, Lat : 49.2835715, Lng : -123.1150195, Q1 : 0.99832123518, Q2 : 0.0331580191851, Q3 : -0.0474742501974, Q4 : -0.00122366216965}
2019-04-14 05:24:21.51: SIM {TimeUS : 54134171, Roll : 3.99, Pitch : -5.75, Yaw : 359.68, Alt : 49.2099990845, Lat : 49.283572, Lng : -123.1150191, Q1 : 0.998130679131, Q2 : 0.0346993282437, Q3 : -0.0503004640341, Q4 : -0.000980039476417}
2019-04-14 05:24:21.61: SIM {TimeUS : 54234131, Roll : 4.2, Pitch : -6.09, Yaw : 359.69, Alt : 49.2200012207, Lat : 49.2835725, Lng : -123.1150186, Q1 : 0.997915148735, Q2 : 0.0364549718797, Q3 : -0.0532538630068, Q4 : -0.000722586002667}
2019-04-14 05:24:21.71: SIM {TimeUS : 54334091, Roll : 4.4, Pitch : -6.39, Yaw : 359.7, Alt : 49.2299995422, Lat : 49.2835729, Lng : -123.1150181, Q1 : 0.997706353664, Q2 : 0.0382035784423, Q3 : -0.0558778084815, Q4 : -0.00044752183021}
2019-04-14 05:24:21.81: SIM {TimeUS : 54434051, Roll : 4.56, Pitch : -6.64, Yaw : 359.71, Alt : 49.2299995422, Lat : 49.2835735, Lng : -123.1150175, Q1 : 0.997528851032, Q2 : 0.0395999103785, Q3 : -0.0580340735614, Q4 : -0.000195202490431}
2019-04-14 05:24:21.92: SIM {TimeUS : 54534844, Roll : 4.68, Pitch : -6.83, Yaw : 359.72, Alt : 49.2400016785, Lat : 49.2835741, Lng : -123.1150168, Q1 : 0.997391819954, Q2 : 0.0406812354922, Q3 : -0.0596206635237, Q4 : 2.44642251346e-05}
2019-04-14 05:24:22.01: SIM {TimeUS : 54634804, Roll : 4.76, Pitch : -6.95, Yaw : 359.73, Alt : 49.2400016785, Lat : 49.2835749, Lng : -123.1150161, Q1 : 0.997297227383, Q2 : 0.0413870178163, Q3 : -0.0607077553868, Q4 : 0.00017805348034}
2019-04-14 05:24:22.11: SIM {TimeUS : 54734764, Roll : 4.83, Pitch : -7.06, Yaw : 359.73, Alt : 49.25, Lat : 49.2835757, Lng : -123.1150153, Q1 : 0.997212707996, Q2 : 0.0419816412032, Q3 : -0.0616790391505, Q4 : 0.000264424597844}
2019-04-14 05:24:22.21: SIM {TimeUS : 54834724, Roll : 4.92, Pitch : -7.19, Yaw : 359.72, Alt : 49.25, Lat : 49.2835764, Lng : -123.1150144, Q1 : 0.997111856937, Q2 : 0.0427014790475, Q3 : -0.0628052949905, Q4 : 0.000304351066006}
2019-04-14 05:24:22.31: SIM {TimeUS : 54934684, Roll : 5.18, Pitch : -7.29, Yaw : 359.78, Alt : 49.25, Lat : 49.2835774, Lng : -123.1150135, Q1 : 0.996958732605, Q2 : 0.0449803881347, Q3 : -0.0636308416724, Q4 : 0.00104364030994}
2019-04-14 05:24:22.41: SIM {TimeUS : 55034644, Roll : 5.7, Pitch : -7.3, Yaw : 0.37, Alt : 49.2599983215, Lat : 49.2835782, Lng : -123.1150126, Q1 : 0.99671536684, Q2 : 0.0498444288969, Q3 : -0.0635064542294, Q4 : 0.00639696512371}
2019-04-14 05:24:22.51: SIM {TimeUS : 55134604, Roll : 6.34, Pitch : -7.39, Yaw : 2.15, Alt : 49.2599983215, Lat : 49.2835793, Lng : -123.1150115, Q1 : 0.996150791645, Q2 : 0.0563864037395, Q3 : -0.0633081123233, Q4 : 0.0222766529769}
2019-04-14 05:24:22.61: SIM {TimeUS : 55234564, Roll : 6.71, Pitch : -7.77, Yaw : 5.52, Alt : 49.2599983215, Lat : 49.2835802, Lng : -123.1150104, Q1 : 0.994641244411, Q2 : 0.0616388618946, Q3 : -0.0647470727563, Q4 : 0.0519354008138}
2019-04-14 05:24:22.71: SIM {TimeUS : 55334524, Roll : 6.57, Pitch : -8.48, Yaw : 10.44, Alt : 49.2599983215, Lat : 49.2835812, Lng : -123.1150091, Q1 : 0.991096973419, Q2 : 0.0637060180306, Q3 : -0.0683606341481, Q4 : 0.0948429778218}
2019-04-14 05:24:22.81: SIM {TimeUS : 55434484, Roll : 5.7, Pitch : -9.46, Yaw : 16.69, Alt : 49.2599983215, Lat : 49.2835824, Lng : -123.1150078, Q1 : 0.984220981598, Q2 : 0.0610256716609, Q3 : -0.074301443994, Q4 : 0.148540064692}
2019-04-14 05:24:22.91: SIM {TimeUS : 55534444, Roll : 3.83, Pitch : -10.53, Yaw : 23.76, Alt : 49.2599983215, Lat : 49.2835836, Lng : -123.1150063, Q1 : 0.973270356655, Q2 : 0.0514636933804, Q3 : -0.0829254835844, Q4 : 0.207893654704}
2019-04-14 05:24:23.01: SIM {TimeUS : 55634404, Roll : 1.15, Pitch : -11.43, Yaw : 30.87, Alt : 49.2700004578, Lat : 49.2835848, Lng : -123.1150048, Q1 : 0.958814263344, Q2 : 0.0361551381648, Q3 : -0.0933922603726, Q4 : 0.265793025494}
2019-04-14 05:24:23.11: SIM {TimeUS : 55734364, Roll : -1.76, Pitch : -12.01, Yaw : 37.25, Alt : 49.2700004578, Lat : 49.283586, Lng : -123.1150032, Q1 : 0.94280987978, Q2 : 0.0188849214464, Q3 : -0.104030296206, Q4 : 0.316117972136}
2019-04-14 05:24:23.21: SIM {TimeUS : 55834324, Roll : -4.29, Pitch : -12.26, Yaw : 42.29, Alt : 49.2700004578, Lat : 49.2835873, Lng : -123.1150016, Q1 : 0.928126573563, Q2 : 0.00373529829085, Q3 : -0.11300265789, Q4 : 0.354679405689}
2019-04-14 05:24:23.31: SIM {TimeUS : 55934284, Roll : -5.99, Pitch : -12.33, Yaw : 45.61, Alt : 49.2700004578, Lat : 49.2835887, Lng : -123.1149999, Q1 : 0.917388498783, Q2 : -0.00635956320912, Q3 : -0.119066417217, Q4 : 0.379711985588}
2019-04-14 05:24:23.41: SIM {TimeUS : 56034244, Roll : -6.71, Pitch : -12.38, Yaw : 47.22, Alt : 49.2700004578, Lat : 49.2835903, Lng : -123.1149983, Q1 : 0.911882996559, Q2 : -0.0101989572868, Q3 : -0.122028321028, Q4 : 0.391758263111}
2019-04-14 05:24:23.51: SIM {TimeUS : 56134204, Roll : -6.53, Pitch : -12.58, Yaw : 47.33, Alt : 49.2700004578, Lat : 49.283592, Lng : -123.1149966, Q1 : 0.911388099194, Q2 : -0.00799817871302, Q3 : -0.122940763831, Q4 : 0.39267462492}
2019-04-14 05:24:23.61: SIM {TimeUS : 56234164, Roll : -5.67, Pitch : -12.98, Yaw : 46.26, Alt : 49.2700004578, Lat : 49.2835938, Lng : -123.114995, Q1 : 0.914787173271, Q2 : -0.000901953957509, Q3 : -0.123162329197, Q4 : 0.384700715542}
2019-04-14 05:24:23.71: SIM {TimeUS : 56334124, Roll : -4.39, Pitch : -13.57, Yaw : 44.31, Alt : 49.2700004578, Lat : 49.2835956, Lng : -123.1149933, Q1 : 0.920679211617, Q2 : 0.00932054501027, Q3 : -0.123716808856, Q4 : 0.370077162981}
2019-04-14 05:24:23.81: SIM {TimeUS : 56434084, Roll : -2.87, Pitch : -14.23, Yaw : 41.8, Alt : 49.2700004578, Lat : 49.2835975, Lng : -123.1149916, Q1 : 0.927790462971, Q2 : 0.0209501925856, Q3 : -0.124618820846, Q4 : 0.351050019264}
2019-04-14 05:24:23.91: SIM {TimeUS : 56534044, Roll : -1.29, Pitch : -14.85, Yaw : 39.03, Alt : 49.2799987793, Lat : 49.2835995, Lng : -123.1149898, Q1 : 0.935053408146, Q2 : 0.0326595827937, Q3 : -0.125547036529, Q4 : 0.32991874218}
2019-04-14 05:24:24.02: SIM {TimeUS : 56634837, Roll : 0.22, Pitch : -15.3, Yaw : 36.29, Alt : 49.2799987793, Lat : 49.2836014, Lng : -123.1149879, Q1 : 0.941713988781, Q2 : 0.0433113537729, Q3 : -0.125956937671, Q4 : 0.308923602104}
2019-04-14 05:24:24.11: SIM {TimeUS : 56734797, Roll : 1.49, Pitch : -15.55, Yaw : 33.91, Alt : 49.2799987793, Lat : 49.2836036, Lng : -123.1149859, Q1 : 0.947117090225, Q2 : 0.0518315881491, Q3 : -0.125695407391, Q4 : 0.290660262108}
2019-04-14 05:24:24.21: SIM {TimeUS : 56834757, Roll : 2.42, Pitch : -15.64, Yaw : 32.09, Alt : 49.2799987793, Lat : 49.2836057, Lng : -123.1149839, Q1 : 0.951072394848, Q2 : 0.0577493496239, Q3 : -0.124995484948, Q4 : 0.276590675116}
2019-04-14 05:24:24.31: SIM {TimeUS : 56934717, Roll : 2.94, Pitch : -15.62, Yaw : 30.94, Alt : 49.2799987793, Lat : 49.283608, Lng : -123.1149817, Q1 : 0.953559398651, Q2 : 0.0607600621879, Q3 : -0.12419873476, Q4 : 0.267595648766}
2019-04-14 05:24:24.41: SIM {TimeUS : 57034677, Roll : 3.05, Pitch : -15.58, Yaw : 30.47, Alt : 49.2799987793, Lat : 49.2836102, Lng : -123.1149794, Q1 : 0.954644858837, Q2 : 0.0610919073224, Q3 : -0.123809322715, Q4 : 0.263803482056}
2019-04-14 05:24:24.51: SIM {TimeUS : 57134637, Roll : 2.8, Pitch : -15.57, Yaw : 30.61, Alt : 49.2799987793, Lat : 49.2836124, Lng : -123.114977, Q1 : 0.95445650816, Q2 : 0.0591783672571, Q3 : -0.124234572053, Q4 : 0.264719694853}
2019-04-14 05:24:24.61: SIM {TimeUS : 57234597, Roll : 2.27, Pitch : -15.62, Yaw : 31.25, Alt : 49.2799987793, Lat : 49.2836147, Lng : -123.1149745, Q1 : 0.953187644482, Q2 : 0.0555778592825, Q3 : -0.125578939915, Q4 : 0.26939624548}
2019-04-14 05:24:24.71: SIM {TimeUS : 57334557, Roll : 1.57, Pitch : -15.73, Yaw : 32.21, Alt : 49.2799987793, Lat : 49.2836171, Lng : -123.114972, Q1 : 0.95107883215, Q2 : 0.0510731972754, Q3 : -0.127689436078, Q4 : 0.276651412249}
2019-04-14 05:24:24.81: SIM {TimeUS : 57434517, Roll : 0.8, Pitch : -15.87, Yaw : 33.36, Alt : 49.2799987793, Lat : 49.2836195, Lng : -123.1149693, Q1 : 0.948435127735, Q2 : 0.0463062748313, Q3 : -0.130307346582, Q4 : 0.285213202238}
2019-04-14 05:24:24.91: SIM {TimeUS : 57534477, Roll : 0.07, Pitch : -16.02, Yaw : 34.52, Alt : 49.2799987793, Lat : 49.283622, Lng : -123.1149666, Q1 : 0.945613265038, Q2 : 0.0419422239065, Q3 : -0.132908582687, Q4 : 0.293924629688}
2019-04-14 05:24:25.01: SIM {TimeUS : 57634437, Roll : -0.55, Pitch : -16.14, Yaw : 35.57, Alt : 49.2799987793, Lat : 49.2836244, Lng : -123.1149639, Q1 : 0.94296425581, Q2 : 0.0383506678045, Q3 : -0.13514393568, Q4 : 0.301800906658}
2019-04-14 05:24:25.11: SIM {TimeUS : 57734397, Roll : -1.0, Pitch : -16.22, Yaw : 36.41, Alt : 49.2799987793, Lat : 49.2836269, Lng : -123.114961, Q1 : 0.940779447556, Q2 : 0.0358015149832, Q3 : -0.136758342385, Q4 : 0.308138668537}
2019-04-14 05:24:25.21: SIM {TimeUS : 57834357, Roll : -1.26, Pitch : -16.26, Yaw : 36.98, Alt : 49.2900009155, Lat : 49.2836296, Lng : -123.1149583, Q1 : 0.939247667789, Q2 : 0.034540053457, Q3 : -0.137644931674, Q4 : 0.312529534101}
2019-04-14 05:24:25.31: SIM {TimeUS : 57934317, Roll : -1.32, Pitch : -16.31, Yaw : 37.27, Alt : 49.2900009155, Lat : 49.2836322, Lng : -123.1149555, Q1 : 0.93842446804, Q2 : 0.0344601422548, Q3 : -0.138099014759, Q4 : 0.314802646637}
2019-04-14 05:24:25.41: SIM {TimeUS : 58034277, Roll : -1.24, Pitch : -16.36, Yaw : 37.3, Alt : 49.2900009155, Lat : 49.2836348, Lng : -123.1149526, Q1 : 0.938275575638, Q2 : 0.0353429876268, Q3 : -0.13826417923, Q4 : 0.315075874329}
2019-04-14 05:24:25.51: SIM {TimeUS : 58134237, Roll : -1.05, Pitch : -16.42, Yaw : 37.1, Alt : 49.2900009155, Lat : 49.2836376, Lng : -123.1149497, Q1 : 0.938695549965, Q2 : 0.0367900542915, Q3 : -0.138297185302, Q4 : 0.313641667366}
2019-04-14 05:24:25.61: SIM {TimeUS : 58234197, Roll : -0.79, Pitch : -16.46, Yaw : 36.74, Alt : 49.2900009155, Lat : 49.2836403, Lng : -123.1149468, Q1 : 0.939553558826, Q2 : 0.0385717898607, Q3 : -0.138041704893, Q4 : 0.310959637165}
2019-04-14 05:24:25.71: SIM {TimeUS : 58334157, Roll : -0.48, Pitch : -16.49, Yaw : 36.28, Alt : 49.2900009155, Lat : 49.2836432, Lng : -123.1149439, Q1 : 0.940647423267, Q2 : 0.0406706035137, Q3 : -0.137613639235, Q4 : 0.307556122541}
2019-04-14 05:24:25.81: SIM {TimeUS : 58434117, Roll : -0.18, Pitch : -16.51, Yaw : 35.79, Alt : 49.2900009155, Lat : 49.283646, Lng : -123.1149409, Q1 : 0.941811978817, Q2 : 0.0426524020731, Q3 : -0.137184217572, Q4 : 0.303893834352}
2019-04-14 05:24:25.91: SIM {TimeUS : 58534077, Roll : 0.1, Pitch : -16.55, Yaw : 35.33, Alt : 49.2900009155, Lat : 49.2836488, Lng : -123.1149379, Q1 : 0.942877709866, Q2 : 0.044544596225, Q3 : -0.136881202459, Q4 : 0.300434499979}
2019-04-14 05:24:26.01: SIM {TimeUS : 58634037, Roll : 0.35, Pitch : -16.57, Yaw : 34.94, Alt : 49.2900009155, Lat : 49.2836517, Lng : -123.1149348, Q1 : 0.943761646748, Q2 : 0.0462443418801, Q3 : -0.13656771183, Q4 : 0.297530949116}
2019-04-14 05:24:26.12: SIM {TimeUS : 58734830, Roll : 0.54, Pitch : -16.59, Yaw : 34.65, Alt : 49.2900009155, Lat : 49.2836547, Lng : -123.1149317, Q1 : 0.944417774677, Q2 : 0.0474397428334, Q3 : -0.136342167854, Q4 : 0.295356422663}
2019-04-14 05:24:26.21: SIM {TimeUS : 58834790, Roll : 0.61, Pitch : -16.62, Yaw : 34.48, Alt : 49.2900009155, Lat : 49.2836576, Lng : -123.1149286, Q1 : 0.94479227066, Q2 : 0.0479308255017, Q3 : -0.136492222548, Q4 : 0.2940069139}
2019-04-14 05:24:26.31: SIM {TimeUS : 58934750, Roll : 0.6, Pitch : -16.67, Yaw : 34.42, Alt : 49.2900009155, Lat : 49.2836604, Lng : -123.1149254, Q1 : 0.944884240627, Q2 : 0.0478776320815, Q3 : -0.137007296085, Q4 : 0.293480098248}
2019-04-14 05:24:26.41: SIM {TimeUS : 59034710, Roll : 0.51, Pitch : -16.74, Yaw : 34.45, Alt : 49.2900009155, Lat : 49.2836634, Lng : -123.1149222, Q1 : 0.944740414619, Q2 : 0.0474150814116, Q3 : -0.137745887041, Q4 : 0.293672263622}
2019-04-14 05:24:26.51: SIM {TimeUS : 59134670, Roll : 0.39, Pitch : -16.8, Yaw : 34.57, Alt : 49.2900009155, Lat : 49.2836664, Lng : -123.114919, Q1 : 0.944428920746, Q2 : 0.0466612838209, Q3 : -0.138535887003, Q4 : 0.294422477484}
2019-04-14 05:24:26.61: SIM {TimeUS : 59234630, Roll : 0.25, Pitch : -16.86, Yaw : 34.73, Alt : 49.2900009155, Lat : 49.2836694, Lng : -123.1149157, Q1 : 0.944002330303, Q2 : 0.0458506084979, Q3 : -0.139273613691, Q4 : 0.295567572117}
2019-04-14 05:24:26.71: SIM {TimeUS : 59334590, Roll : 0.12, Pitch : -16.9, Yaw : 34.91, Alt : 49.2900009155, Lat : 49.2836724, Lng : -123.1149124, Q1 : 0.943531870842, Q2 : 0.0450925715268, Q3 : -0.139873862267, Q4 : 0.296900033951}
2019-04-14 05:24:26.81: SIM {TimeUS : 59434550, Roll : 0.0, Pitch : -16.93, Yaw : 35.09, Alt : 49.2900009155, Lat : 49.2836755, Lng : -123.1149091, Q1 : 0.943079054356, Q2 : 0.0444042794406, Q3 : -0.140381157398, Q4 : 0.29820010066}
2019-04-14 05:24:26.91: SIM {TimeUS : 59534510, Roll : -0.07, Pitch : -16.95, Yaw : 35.24, Alt : 49.2900009155, Lat : 49.2836785, Lng : -123.1149058, Q1 : 0.942689478397, Q2 : 0.0439858883619, Q3 : -0.140707403421, Q4 : 0.299338042736}
2019-04-14 05:24:27.01: SIM {TimeUS : 59634470, Roll : -0.11, Pitch : -16.97, Yaw : 35.35, Alt : 49.2900009155, Lat : 49.2836816, Lng : -123.1149025, Q1 : 0.942383229733, Q2 : 0.0438943095505, Q3 : -0.140940845013, Q4 : 0.300204664469}
2019-04-14 05:24:27.11: SIM {TimeUS : 59734430, Roll : -0.13, Pitch : -17.0, Yaw : 35.42, Alt : 49.2900009155, Lat : 49.2836847, Lng : -123.1148991, Q1 : 0.942186534405, Q2 : 0.0438974350691, Q3 : -0.141174435616, Q4 : 0.300711452961}
2019-04-14 05:24:27.21: SIM {TimeUS : 59834390, Roll : -0.13, Pitch : -17.02, Yaw : 35.44, Alt : 49.2999992371, Lat : 49.2836878, Lng : -123.1148957, Q1 : 0.942106604576, Q2 : 0.0439835712314, Q3 : -0.141372382641, Q4 : 0.300856083632}
2019-04-14 05:24:27.31: SIM {TimeUS : 59934350, Roll : -0.11, Pitch : -17.05, Yaw : 35.41, Alt : 49.2999992371, Lat : 49.283691, Lng : -123.1148923, Q1 : 0.942121744156, Q2 : 0.0441341735423, Q3 : -0.141609072685, Q4 : 0.300675421953}
2019-04-14 05:24:27.41: SIM {TimeUS : 60034310, Roll : -0.09, Pitch : -17.09, Yaw : 35.36, Alt : 49.2999992371, Lat : 49.2836942, Lng : -123.1148889, Q1 : 0.942213833332, Q2 : 0.044353581965, Q3 : -0.141882538795, Q4 : 0.300225168467}
2019-04-14 05:24:27.51: SIM {TimeUS : 60134270, Roll : -0.07, Pitch : -17.13, Yaw : 35.28, Alt : 49.2999992371, Lat : 49.2836973, Lng : -123.1148855, Q1 : 0.942370474339, Q2 : 0.0444988049567, Q3 : -0.142175316811, Q4 : 0.299573004246}
2019-04-14 05:24:27.61: SIM {TimeUS : 60234230, Roll : -0.05, Pitch : -17.15, Yaw : 35.18, Alt : 49.2999992371, Lat : 49.2837004, Lng : -123.114882, Q1 : 0.942578732967, Q2 : 0.0446204021573, Q3 : -0.142335668206, Q4 : 0.298822551966}
2019-04-14 05:24:27.71: SIM {TimeUS : 60334190, Roll : -0.02, Pitch : -17.17, Yaw : 35.09, Alt : 49.2999992371, Lat : 49.2837036, Lng : -123.1148786, Q1 : 0.942794859409, Q2 : 0.0447837226093, Q3 : -0.14244197309, Q4 : 0.298064827919}
2019-04-14 05:24:27.81: SIM {TimeUS : 60434150, Roll : 0.01, Pitch : -17.2, Yaw : 35.0, Alt : 49.2999992371, Lat : 49.2837069, Lng : -123.1148751, Q1 : 0.942978382111, Q2 : 0.0450939051807, Q3 : -0.142595306039, Q4 : 0.297363311052}
2019-04-14 05:24:27.91: SIM {TimeUS : 60534110, Roll : 0.06, Pitch : -17.23, Yaw : 34.92, Alt : 49.2999992371, Lat : 49.2837101, Lng : -123.1148716, Q1 : 0.943111538887, Q2 : 0.0455362275243, Q3 : -0.142796382308, Q4 : 0.296776562929}
2019-04-14 05:24:28.01: SIM {TimeUS : 60634070, Roll : 0.12, Pitch : -17.28, Yaw : 34.86, Alt : 49.2999992371, Lat : 49.2837133, Lng : -123.1148681, Q1 : 0.943192720413, Q2 : 0.0460627675056, Q3 : -0.143023073673, Q4 : 0.296327680349}
2019-04-14 05:24:28.11: SIM {TimeUS : 60734030, Roll : 0.18, Pitch : -17.33, Yaw : 34.81, Alt : 49.3100013733, Lat : 49.2837166, Lng : -123.1148646, Q1 : 0.943225562572, Q2 : 0.0465826168656, Q3 : -0.143284767866, Q4 : 0.296015292406}
2019-04-14 05:24:28.22: SIM {TimeUS : 60834823, Roll : 0.2, Pitch : -17.36, Yaw : 34.79, Alt : 49.3100013733, Lat : 49.2837199, Lng : -123.1148611, Q1 : 0.943237125874, Q2 : 0.0468565039337, Q3 : -0.143533676863, Q4 : 0.295814633369}
2019-04-14 05:24:28.31: SIM {TimeUS : 60934783, Roll : 0.19, Pitch : -17.37, Yaw : 34.78, Alt : 49.3100013733, Lat : 49.2837232, Lng : -123.1148575, Q1 : 0.943259775639, Q2 : 0.0467619933188, Q3 : -0.143638432026, Q4 : 0.295706450939}
2019-04-14 05:24:28.41: SIM {TimeUS : 61034743, Roll : 0.15, Pitch : -17.37, Yaw : 34.78, Alt : 49.3100013733, Lat : 49.2837264, Lng : -123.114854, Q1 : 0.943273901939, Q2 : 0.0464292988181, Q3 : -0.143721356988, Q4 : 0.295673578978}
2019-04-14 05:24:28.51: SIM {TimeUS : 61134703, Roll : 0.12, Pitch : -17.37, Yaw : 34.79, Alt : 49.3100013733, Lat : 49.2837296, Lng : -123.1148504, Q1 : 0.943261742592, Q2 : 0.0461638309062, Q3 : -0.143792748451, Q4 : 0.295719116926}
2019-04-14 05:24:28.61: SIM {TimeUS : 61234663, Roll : 0.09, Pitch : -17.39, Yaw : 34.8, Alt : 49.3100013733, Lat : 49.283733, Lng : -123.1148468, Q1 : 0.94321089983, Q2 : 0.0460136905313, Q3 : -0.144007250667, Q4 : 0.295800358057}
2019-04-14 05:24:28.71: SIM {TimeUS : 61334623, Roll : 0.1, Pitch : -17.42, Yaw : 34.82, Alt : 49.3100013733, Lat : 49.2837363, Lng : -123.1148433, Q1 : 0.943121850491, Q2 : 0.0461735501885, Q3 : -0.144299224019, Q4 : 0.295917153358}
2019-04-14 05:24:28.81: SIM {TimeUS : 61434583, Roll : 0.12, Pitch : -17.48, Yaw : 34.83, Alt : 49.3100013733, Lat : 49.2837397, Lng : -123.1148397, Q1 : 0.94301456213, Q2 : 0.0465072654188, Q3 : -0.14469371736, Q4 : 0.296014070511}
2019-04-14 05:24:28.91: SIM {TimeUS : 61534543, Roll : 0.12, Pitch : -17.51, Yaw : 34.83, Alt : 49.3100013733, Lat : 49.283743, Lng : -123.1148361, Q1 : 0.942958295345, Q2 : 0.0466492809355, Q3 : -0.144948244095, Q4 : 0.296046435833}
2019-04-14 05:24:29.01: SIM {TimeUS : 61634503, Roll : 0.13, Pitch : -17.51, Yaw : 34.83, Alt : 49.3100013733, Lat : 49.2837463, Lng : -123.1148324, Q1 : 0.9429641366, Q2 : 0.0466577261686, Q3 : -0.144929558039, Q4 : 0.296035766602}
2019-04-14 05:24:29.11: SIM {TimeUS : 61734463, Roll : 0.12, Pitch : -17.51, Yaw : 34.82, Alt : 49.3199996948, Lat : 49.2837496, Lng : -123.1148288, Q1 : 0.942986011505, Q2 : 0.0466297678649, Q3 : -0.144960135221, Q4 : 0.295955449343}
2019-04-14 05:24:29.21: SIM {TimeUS : 61834423, Roll : 0.11, Pitch : -17.54, Yaw : 34.81, Alt : 49.3199996948, Lat : 49.283753, Lng : -123.1148252, Q1 : 0.94299685955, Q2 : 0.0465706624091, Q3 : -0.145223245025, Q4 : 0.295801073313}
2019-04-14 05:24:29.31: SIM {TimeUS : 61934383, Roll : 0.11, Pitch : -17.56, Yaw : 34.79, Alt : 49.3199996948, Lat : 49.2837563, Lng : -123.1148216, Q1 : 0.943010389805, Q2 : 0.0465884394944, Q3 : -0.145449817181, Q4 : 0.295643806458}
2019-04-14 05:24:29.41: SIM {TimeUS : 62034343, Roll : 0.11, Pitch : -17.59, Yaw : 34.77, Alt : 49.3199996948, Lat : 49.2837598, Lng : -123.1148179, Q1 : 0.943028211594, Q2 : 0.0466354601085, Q3 : -0.145664811134, Q4 : 0.295473635197}
2019-04-14 05:24:29.51: SIM {TimeUS : 62134303, Roll : 0.11, Pitch : -17.61, Yaw : 34.75, Alt : 49.3199996948, Lat : 49.283763, Lng : -123.1148143, Q1 : 0.943056941032, Q2 : 0.0467079617083, Q3 : -0.14580835402, Q4 : 0.29529979825}
2019-04-14 05:24:29.61: SIM {TimeUS : 62234263, Roll : 0.13, Pitch : -17.62, Yaw : 34.73, Alt : 49.3199996948, Lat : 49.2837665, Lng : -123.1148106, Q1 : 0.943091213703, Q2 : 0.0468792803586, Q3 : -0.145900309086, Q4 : 0.295117735863}
2019-04-14 05:24:29.71: SIM {TimeUS : 62334223, Roll : 0.15, Pitch : -17.63, Yaw : 34.7, Alt : 49.3199996948, Lat : 49.2837698, Lng : -123.1148069, Q1 : 0.943140149117, Q2 : 0.0470269434154, Q3 : -0.145907059312, Q4 : 0.294934362173}
2019-04-14 05:24:29.81: SIM {TimeUS : 62434183, Roll : 0.18, Pitch : -17.64, Yaw : 34.68, Alt : 49.3199996948, Lat : 49.2837733, Lng : -123.1148033, Q1 : 0.943183422089, Q2 : 0.0472139641643, Q3 : -0.145907014608, Q4 : 0.294766157866}
2019-04-14 05:24:29.91: SIM {TimeUS : 62534143, Roll : 0.2, Pitch : -17.65, Yaw : 34.66, Alt : 49.3199996948, Lat : 49.2837767, Lng : -123.1147996, Q1 : 0.94321334362, Q2 : 0.0473820455372, Q3 : -0.145977303386, Q4 : 0.294608414173}
2019-04-14 05:24:30.01: SIM {TimeUS : 62634103, Roll : 0.2, Pitch : -17.69, Yaw : 34.64, Alt : 49.3199996948, Lat : 49.2837801, Lng : -123.1147959, Q1 : 0.943217217922, Q2 : 0.0474377200007, Q3 : -0.146273806691, Q4 : 0.294440031052}
2019-04-14 05:24:30.11: SIM {TimeUS : 62734063, Roll : 0.18, Pitch : -17.73, Yaw : 34.62, Alt : 49.3199996948, Lat : 49.2837835, Lng : -123.1147922, Q1 : 0.943212151527, Q2 : 0.0473703444004, Q3 : -0.14667211473, Q4 : 0.294268786907}
2019-04-14 05:24:30.21: SIM {TimeUS : 62834023, Roll : 0.16, Pitch : -17.77, Yaw : 34.61, Alt : 49.3199996948, Lat : 49.2837869, Lng : -123.1147885, Q1 : 0.943199932575, Q2 : 0.0472951307893, Q3 : -0.147083297372, Q4 : 0.29411482811}
2019-04-14 05:24:30.31: SIM {TimeUS : 62934816, Roll : 0.16, Pitch : -17.8, Yaw : 34.6, Alt : 49.3199996948, Lat : 49.2837904, Lng : -123.1147847, Q1 : 0.943187057972, Q2 : 0.0473989024758, Q3 : -0.147335678339, Q4 : 0.294013112783}
2019-04-14 05:24:30.41: SIM {TimeUS : 63034776, Roll : 0.18, Pitch : -17.81, Yaw : 34.59, Alt : 49.3199996948, Lat : 49.2837939, Lng : -123.114781, Q1 : 0.943199574947, Q2 : 0.0475475303829, Q3 : -0.147340595722, Q4 : 0.293946504593}
2019-04-14 05:24:30.51: SIM {TimeUS : 63134736, Roll : 0.2, Pitch : -17.78, Yaw : 34.58, Alt : 49.3300018311, Lat : 49.2837972, Lng : -123.1147773, Q1 : 0.943249762058, Q2 : 0.0476101674139, Q3 : -0.147099971771, Q4 : 0.293895870447}
2019-04-14 05:24:30.61: SIM {TimeUS : 63234696, Roll : 0.19, Pitch : -17.77, Yaw : 34.57, Alt : 49.3300018311, Lat : 49.2838007, Lng : -123.1147736, Q1 : 0.943291246891, Q2 : 0.0475218519568, Q3 : -0.146984815598, Q4 : 0.293834686279}
2019-04-14 05:24:30.71: SIM {TimeUS : 63334656, Roll : 0.18, Pitch : -17.76, Yaw : 34.56, Alt : 49.3300018311, Lat : 49.2838042, Lng : -123.1147698, Q1 : 0.943323969841, Q2 : 0.0473966225982, Q3 : -0.146950960159, Q4 : 0.293766856194}
2019-04-14 05:24:30.81: SIM {TimeUS : 63434616, Roll : 0.17, Pitch : -17.76, Yaw : 34.55, Alt : 49.3300018311, Lat : 49.2838076, Lng : -123.1147661, Q1 : 0.943349838257, Q2 : 0.0473089553416, Q3 : -0.14695097506, Q4 : 0.293697834015}
2019-04-14 05:24:30.91: SIM {TimeUS : 63534576, Roll : 0.16, Pitch : -17.77, Yaw : 34.55, Alt : 49.3300018311, Lat : 49.2838111, Lng : -123.1147623, Q1 : 0.943359673023, Q2 : 0.0472456738353, Q3 : -0.147083580494, Q4 : 0.293609827757}
2019-04-14 05:24:31.01: SIM {TimeUS : 63634536, Roll : 0.16, Pitch : -17.79, Yaw : 34.54, Alt : 49.3300018311, Lat : 49.2838146, Lng : -123.1147585, Q1 : 0.943361520767, Q2 : 0.0472472533584, Q3 : -0.147247776389, Q4 : 0.293521434069}
2019-04-14 05:24:31.11: SIM {TimeUS : 63734496, Roll : 0.15, Pitch : -17.82, Yaw : 34.53, Alt : 49.3300018311, Lat : 49.2838181, Lng : -123.1147548, Q1 : 0.943347752094, Q2 : 0.0472566597164, Q3 : -0.147542178631, Q4 : 0.293416261673}
2019-04-14 05:24:31.21: SIM {TimeUS : 63834456, Roll : 0.15, Pitch : -17.87, Yaw : 34.51, Alt : 49.3300018311, Lat : 49.2838215, Lng : -123.1147511, Q1 : 0.943315267563, Q2 : 0.0473495237529, Q3 : -0.147945895791, Q4 : 0.293302536011}
2019-04-14 05:24:31.31: SIM {TimeUS : 63934416, Roll : 0.16, Pitch : -17.91, Yaw : 34.5, Alt : 49.3300018311, Lat : 49.283825, Lng : -123.1147473, Q1 : 0.943284094334, Q2 : 0.0475654378533, Q3 : -0.148280724883, Q4 : 0.293198734522}
2019-04-14 05:24:31.41: SIM {TimeUS : 64034376, Roll : 0.17, Pitch : -17.95, Yaw : 34.49, Alt : 49.3300018311, Lat : 49.2838286, Lng : -123.1147435, Q1 : 0.943271458149, Q2 : 0.0476614423096, Q3 : -0.148582264781, Q4 : 0.293071091175}
2019-04-14 05:24:31.51: SIM {TimeUS : 64134336, Roll : 0.17, Pitch : -17.97, Yaw : 34.47, Alt : 49.3300018311, Lat : 49.2838321, Lng : -123.1147397, Q1 : 0.943279802799, Q2 : 0.0476994179189, Q3 : -0.148765861988, Q4 : 0.292944848537}
2019-04-14 05:24:31.61: SIM {TimeUS : 64234296, Roll : 0.18, Pitch : -17.96, Yaw : 34.46, Alt : 49.3300018311, Lat : 49.2838355, Lng : -123.114736, Q1 : 0.943325519562, Q2 : 0.0477956309915, Q3 : -0.148626923561, Q4 : 0.292852580547}
2019-04-14 05:24:31.71: SIM {TimeUS : 64334256, Roll : 0.2, Pitch : -17.96, Yaw : 34.44, Alt : 49.3300018311, Lat : 49.283839, Lng : -123.1147322, Q1 : 0.943357884884, Q2 : 0.0479279309511, Q3 : -0.148560807109, Q4 : 0.292760252953}
2019-04-14 05:24:31.81: SIM {TimeUS : 64434216, Roll : 0.2, Pitch : -17.96, Yaw : 34.43, Alt : 49.3300018311, Lat : 49.2838426, Lng : -123.1147284, Q1 : 0.943381071091, Q2 : 0.0479458905756, Q3 : -0.148643061519, Q4 : 0.29264074564}
2019-04-14 05:24:31.91: SIM {TimeUS : 64534176, Roll : 0.2, Pitch : -17.97, Yaw : 34.42, Alt : 49.3300018311, Lat : 49.2838461, Lng : -123.1147246, Q1 : 0.943408787251, Q2 : 0.0479296185076, Q3 : -0.148704335093, Q4 : 0.292522877455}
2019-04-14 05:24:32.01: SIM {TimeUS : 64634136, Roll : 0.21, Pitch : -17.97, Yaw : 34.4, Alt : 49.3400001526, Lat : 49.2838495, Lng : -123.1147208, Q1 : 0.943441212177, Q2 : 0.0479736924171, Q3 : -0.148672103882, Q4 : 0.292427539825}
2019-04-14 05:24:32.11: SIM {TimeUS : 64734096, Roll : 0.22, Pitch : -17.97, Yaw : 34.39, Alt : 49.3400001526, Lat : 49.2838531, Lng : -123.114717, Q1 : 0.9434710145, Q2 : 0.0480203926563, Q3 : -0.148632764816, Q4 : 0.292343705893}
2019-04-14 05:24:32.21: SIM {TimeUS : 64834056, Roll : 0.2, Pitch : -17.98, Yaw : 34.38, Alt : 49.3400001526, Lat : 49.2838567, Lng : -123.1147132, Q1 : 0.94348192215, Q2 : 0.0479365549982, Q3 : -0.148803293705, Q4 : 0.292235434055}
2019-04-14 05:24:32.32: SIM {TimeUS : 64934849, Roll : 0.18, Pitch : -18.02, Yaw : 34.37, Alt : 49.3400001526, Lat : 49.2838603, Lng : -123.1147094, Q1 : 0.943468630314, Q2 : 0.0477887690067, Q3 : -0.149167656898, Q4 : 0.292116820812}
2019-04-14 05:24:32.41: SIM {TimeUS : 65034809, Roll : 0.16, Pitch : -18.02, Yaw : 34.37, Alt : 49.3400001526, Lat : 49.2838638, Lng : -123.1147055, Q1 : 0.94348603487, Q2 : 0.0476698055863, Q3 : -0.149240389466, Q4 : 0.292042762041}
2019-04-14 05:24:32.51: SIM {TimeUS : 65134769, Roll : 0.17, Pitch : -18.0, Yaw : 34.36, Alt : 49.3400001526, Lat : 49.2838673, Lng : -123.1147017, Q1 : 0.943523228168, Q2 : 0.0476728379726, Q3 : -0.149068161845, Q4 : 0.292010188103}
2019-04-14 05:24:32.61: SIM {TimeUS : 65234729, Roll : 0.19, Pitch : -17.99, Yaw : 34.35, Alt : 49.3400001526, Lat : 49.2838708, Lng : -123.1146979, Q1 : 0.943547844887, Q2 : 0.0477608069777, Q3 : -0.14893271029, Q4 : 0.291985332966}
2019-04-14 05:24:32.71: SIM {TimeUS : 65334689, Roll : 0.19, Pitch : -18.0, Yaw : 34.35, Alt : 49.3400001526, Lat : 49.2838743, Lng : -123.1146941, Q1 : 0.94354891777, Q2 : 0.0478452667594, Q3 : -0.149011284113, Q4 : 0.291927993298}
2019-04-14 05:24:32.81: SIM {TimeUS : 65434649, Roll : 0.18, Pitch : -18.02, Yaw : 34.34, Alt : 49.3400001526, Lat : 49.2838779, Lng : -123.1146903, Q1 : 0.943545043468, Q2 : 0.047784499824, Q3 : -0.149233698845, Q4 : 0.291836857796}
2019-04-14 05:24:32.91: SIM {TimeUS : 65534609, Roll : 0.15, Pitch : -18.05, Yaw : 34.33, Alt : 49.3400001526, Lat : 49.2838815, Lng : -123.1146864, Q1 : 0.943542003632, Q2 : 0.0476251468062, Q3 : -0.149511143565, Q4 : 0.291730672121}
2019-04-14 05:24:33.01: SIM {TimeUS : 65634569, Roll : 0.14, Pitch : -18.07, Yaw : 34.32, Alt : 49.3400001526, Lat : 49.2838851, Lng : -123.1146826, Q1 : 0.943545877934, Q2 : 0.0475379191339, Q3 : -0.149714261293, Q4 : 0.29162800312}
2019-04-14 05:24:33.11: SIM {TimeUS : 65734529, Roll : 0.14, Pitch : -18.09, Yaw : 34.31, Alt : 49.3400001526, Lat : 49.2838887, Lng : -123.1146788, Q1 : 0.943546175957, Q2 : 0.0476084947586, Q3 : -0.149862185121, Q4 : 0.291539818048}
2019-04-14 05:24:33.21: SIM {TimeUS : 65834489, Roll : 0.15, Pitch : -18.1, Yaw : 34.3, Alt : 49.3400001526, Lat : 49.2838921, Lng : -123.114675, Q1 : 0.943546652794, Q2 : 0.047729305923, Q3 : -0.149967372417, Q4 : 0.291464328766}
