2019-04-14 04:12:42.30: SIM {TimeUS : 40716207, Roll : 0.0, Pitch : 0.0, Yaw : 0.0, Alt : 30.1000003815, Lat : 49.28357, Lng : -123.11502, Q1 : 1.0, Q2 : 0.0, Q3 : 0.0, Q4 : 0.0}
2019-04-14 04:12:42.41: SIM {TimeUS : 40835326, Roll : 0.0, Pitch : 0.0, Yaw : 0.0, Alt : 30.1000003815, Lat : 49.28357, Lng : -123.11502, Q1 : 1.0, Q2 : 0.0, Q3 : 0.0, Q4 : 0.0}
2019-04-14 04:12:42.51: SIM {TimeUS : 40935286, Roll : 0.0, Pitch : 0.0, Yaw : 0.0, Alt : 30.1000003815, Lat : 49.28357, Lng : -123.11502, Q1 : 1.0, Q2 : 0.0, Q3 : 0.0, Q4 : 0.0}
2019-04-14 04:12:42.61: SIM {TimeUS : 41035246, Roll : 0.0, Pitch : 0.0, Yaw : 0.0, Alt : 30.1000003815, Lat : 49.28357, Lng : -123.11502, Q1 : 1.0, Q2 : 0.0, Q3 : 0.0, Q4 : 0.0}
2019-04-14 04:12:42.71: SIM {TimeUS : 41135206, Roll : 0.0, Pitch : 0.0, Yaw : 0.0, Alt : 30.1000003815, Lat : 49.28357, Lng : -123.11502, Q1 : 1.0, Q2 : 0.0, Q3 : 0.0, Q4 : 0.0}
2019-04-14 04:12:42.81: SIM {TimeUS : 41235166, Roll : 0.0, Pitch : 0.0, Yaw : 0.0, Alt : 30.1000003815, Lat : 49.28357, Lng : -123.11502, Q1 : 1.0, Q2 : 0.0, Q3 : 0.0, Q4 : 0.0}
2019-04-14 04:12:42.91: SIM {TimeUS : 41335126, Roll : 0.0, Pitch : 0.0, Yaw : 0.0, Alt : 30.1000003815, Lat : 49.28357, Lng : -123.11502, Q1 : 1.0, Q2 : 0.0, Q3 : 0.0, Q4 : 0.0}
2019-04-14 04:12:43.01: SIM {TimeUS : 41435086, Roll : 0.0, Pitch : 0.0, Yaw : 0.0, Alt : 30.1000003815, Lat : 49.28357, Lng : -123.11502, Q1 : 1.0, Q2 : 0.0, Q3 : 0.0, Q4 : 0.0}
2019-04-14 04:12:43.11: SIM {TimeUS : 41535046, Roll : 0.0, Pitch : 0.0, Yaw : 0.0, Alt : 30.1000003815, Lat : 49.28357, Lng : -123.11502, Q1 : 1.0, Q2 : 0.0, Q3 : 0.0, Q4 : 0.0}
2019-04-14 04:12:43.21: SIM {TimeUS : 41635006, Roll : 0.0, Pitch : 0.0, Yaw : 0.0, Alt : 30.1000003815, Lat : 49.28357, Lng : -123.11502, Q1 : 1.0, Q2 : 0.0, Q3 : 0.0, Q4 : 0.0}
2019-04-14 04:12:43.31: SIM {TimeUS : 41734966, Roll : 0.0, Pitch : 0.0, Yaw : 0.0, Alt : 30.1000003815, Lat : 49.28357, Lng : -123.11502, Q1 : 1.0, Q2 : 0.0, Q3 : 0.0, Q4 : 0.0}
2019-04-14 04:12:43.41: SIM {TimeUS : 41834926, Roll : 0.0, Pitch : 0.0, Yaw : 0.0, Alt : 30.1000003815, Lat : 49.28357, Lng : -123.11502, Q1 : 1.0, Q2 : 0.0, Q3 : 0.0, Q4 : 0.0}
2019-04-14 04:12:43.51: SIM {TimeUS : 41934886, Roll : 0.0, Pitch : 0.0, Yaw : 0.0, Alt : 30.1000003815, Lat : 49.28357, Lng : -123.11502, Q1 : 1.0, Q2 : 0.0, Q3 : 0.0, Q4 : 0.0}
2019-04-14 04:12:43.61: SIM {TimeUS : 42034846, Roll : 0.0, Pitch : 0.0, Yaw : 0.0, Alt : 30.1000003815, Lat : 49.28357, Lng : -123.11502, Q1 : 1.0, Q2 : 0.0, Q3 : 0.0, Q4 : 0.0}
2019-04-14 04:12:43.71: SIM {TimeUS : 42134806, Roll : 0.0, Pitch : 0.0, Yaw : 0.0, Alt : 30.1000003815, Lat : 49.28357, Lng : -123.11502, Q1 : 1.0, Q2 : 0.0, Q3 : 0.0, Q4 : 0.0}
2019-04-14 04:12:43.81: SIM {TimeUS : 42234766, Roll : 0.0, Pitch : 0.0, Yaw : 0.0, Alt : 30.1000003815, Lat : 49.28357, Lng : -123.11502, Q1 : 1.0, Q2 : 0.0, Q3 : 0.0, Q4 : 0.0}
2019-04-14 04:12:43.91: SIM {TimeUS : 42334726, Roll : 0.0, Pitch : 0.0, Yaw : 0.0, Alt : 30.1000003815, Lat : 49.28357, Lng : -123.11502, Q1 : 1.0, Q2 : 0.0, Q3 : 0.0, Q4 : 0.0}
2019-04-14 04:12:44.01: SIM {TimeUS : 42434686, Roll : 0.0, Pitch : 0.0, Yaw : 0.0, Alt : 30.1000003815, Lat : 49.28357, Lng : -123.11502, Q1 : 1.0, Q2 : 0.0, Q3 : 0.0, Q4 : 0.0}
2019-04-14 04:12:44.11: SIM {TimeUS : 42534646, Roll : 0.0, Pitch : 0.0, Yaw : 0.0, Alt : 30.1000003815, Lat : 49.28357, Lng : -123.11502, Q1 : 1.0, Q2 : 0.0, Q3 : 0.0, Q4 : 0.0}
2019-04-14 04:12:44.21: SIM {TimeUS : 42634606, Roll : 0.0, Pitch : 0.0, Yaw : 0.0, Alt : 30.1000003815, Lat : 49.28357, Lng : -123.11502, Q1 : 1.0, Q2 : 0.0, Q3 : 0.0, Q4 : 0.0}
2019-04-14 04:12:44.31: SIM {TimeUS : 42734566, Roll : 0.0, Pitch : 0.0, Yaw : 0.0, Alt : 30.1000003815, Lat : 49.28357, Lng : -123.11502, Q1 : 1.0, Q2 : 0.0, Q3 : 0.0, Q4 : 0.0}
2019-04-14 04:12:44.42: SIM {TimeUS : 42835359, Roll : 0.0, Pitch : 0.0, Yaw : 0.0, Alt : 30.1000003815, Lat : 49.28357, Lng : -123.11502, Q1 : 1.0, Q2 : 0.0, Q3 : 0.0, Q4 : 0.0}
2019-04-14 04:12:44.51: SIM {TimeUS : 42935319, Roll : 0.0, Pitch : 0.0, Yaw : 0.0, Alt : 30.1000003815, Lat : 49.28357, Lng : -123.11502, Q1 : 1.0, Q2 : 0.0, Q3 : 0.0, Q4 : 0.0}
2019-04-14 04:12:44.61: SIM {TimeUS : 43035279, Roll : 0.0, Pitch : 0.0, Yaw : 0.0, Alt : 30.1000003815, Lat : 49.28357, Lng : -123.11502, Q1 : 1.0, Q2 : 0.0, Q3 : 0.0, Q4 : 6.45378759115e-12}
2019-04-14 04:12:44.71: SIM {TimeUS : 43135239, Roll : 0.0, Pitch : 0.0, Yaw : 0.0, Alt : 30.1000003815, Lat : 49.28357, Lng : -123.11502, Q1 : 1.0, Q2 : 0.0, Q3 : 0.0, Q4 : 1.04344363011e-11}
2019-04-14 04:12:44.81: SIM {TimeUS : 43235199, Roll : 0.0, Pitch : 0.0, Yaw : 360.0, Alt : 30.1000003815, Lat : 49.28357, Lng : -123.11502, Q1 : 1.0, Q2 : 0.0, Q3 : 0.0, Q4 : -9.69060778289e-08}
2019-04-14 04:12:44.91: SIM {TimeUS : 43335159, Roll : 0.0, Pitch : 0.0, Yaw : 359.99, Alt : 30.1000003815, Lat : 49.28357, Lng : -123.11502, Q1 : 1.0, Q2 : 0.0, Q3 : 0.0, Q4 : -2.49562532417e-07}
2019-04-14 04:12:45.01: SIM {TimeUS : 43435119, Roll : 0.0, Pitch : 0.0, Yaw : 359.99, Alt : 30.1000003815, Lat : 49.28357, Lng : -123.11502, Q1 : 1.0, Q2 : 0.0, Q3 : 0.0, Q4 : -4.56291587625e-07}
2019-04-14 04:12:45.11: SIM {TimeUS : 43535079, Roll : 0.0, Pitch : 0.0, Yaw : 359.99, Alt : 30.1000003815, Lat : 49.28357, Lng : -123.11502, Q1 : 1.0, Q2 : 0.0, Q3 : 0.0, Q4 : -6.12485280271e-07}
2019-04-14 04:12:45.21: SIM {TimeUS : 43635039, Roll : 0.0, Pitch : 0.0, Yaw : 359.99, Alt : 30.1000003815, Lat : 49.28357, Lng : -123.11502, Q1 : 1.0, Q2 : 0.0, Q3 : 0.0, Q4 : -8.06498121619e-07}
2019-04-14 04:12:45.31: SIM {TimeUS : 43734999, Roll : 0.0, Pitch : 0.0, Yaw : 359.99, Alt : 30.1000003815, Lat : 49.28357, Lng : -123.11502, Q1 : 1.0, Q2 : 0.0, Q3 : 0.0, Q4 : -9.7890165307e-07}
2019-04-14 04:12:45.41: SIM {TimeUS : 43834959, Roll : 0.0, Pitch : 0.0, Yaw : 359.99, Alt : 30.1000003815, Lat : 49.28357, Lng : -123.11502, Q1 : 1.0, Q2 : 0.0, Q3 : 0.0, Q4 : -1.15503428333e-06}
2019-04-14 04:12:45.51: SIM {TimeUS : 43934919, Roll : 0.0, Pitch : 0.0, Yaw : 359.99, Alt : 30.1100006104, Lat : 49.28357, Lng : -123.11502, Q1 : 1.0, Q2 : 0.0, Q3 : 0.0, Q4 : -1.34757715387e-06}
2019-04-14 04:12:45.61: SIM {TimeUS : 44034879, Roll : 0.0, Pitch : 0.0, Yaw : 359.99, Alt : 30.1299991608, Lat : 49.28357, Lng : -123.11502, Q1 : 1.0, Q2 : 0.0, Q3 : 0.0, Q4 : -1.56363739734e-06}
2019-04-14 04:12:45.71: SIM {TimeUS : 44134839, Roll : 0.0, Pitch : 0.0, Yaw : 359.99, Alt : 30.1599998474, Lat : 49.28357, Lng : -123.11502, Q1 : 1.0, Q2 : 0.0, Q3 : 0.0, Q4 : -1.81010864253e-06}
2019-04-14 04:12:45.81: SIM {TimeUS : 44234799, Roll : 0.0, Pitch : 0.0, Yaw : 359.99, Alt : 30.1900005341, Lat : 49.28357, Lng : -123.11502, Q1 : 1.0, Q2 : 0.0, Q3 : 0.0, Q4 : -2.03701415558e-06}
2019-04-14 04:12:45.91: SIM {TimeUS : 44334759, Roll : -0.03, Pitch : -0.03, Yaw : 359.99, Alt : 30.2299995422, Lat : 49.28357, Lng : -123.11502, Q1 : 0.999999940395, Q2 : -0.000281902059214, Q3 : -0.000263788417215, Q4 : -4.0382460611e-06}
2019-04-14 04:12:46.01: SIM {TimeUS : 44434719, Roll : -0.25, Pitch : -0.26, Yaw : 359.99, Alt : 30.2999992371, Lat : 49.28357, Lng : -123.11502, Q1 : 0.999994933605, Q2 : -0.00223296368495, Q3 : -0.00228156684898, Q4 : -2.77438502962e-05}
2019-04-14 04:12:46.11: SIM {TimeUS : 44534679, Roll : -0.54, Pitch : -0.53, Yaw : 359.99, Alt : 30.4400005341, Lat : 49.28357, Lng : -123.11502, Q1 : 0.999977767467, Q2 : -0.00477814022452, Q3 : -0.00465042237192, Q4 : -8.11356658232e-05}
2019-04-14 04:12:46.21: SIM {TimeUS : 44634639, Roll : -0.77, Pitch : -0.7, Yaw : 359.98, Alt : 30.5900001526, Lat : 49.28357, Lng : -123.11502, Q1 : 0.999958515167, Q2 : -0.00672701233998, Q3 : -0.00613874010742, Q4 : -0.000154296911205}
2019-04-14 04:12:46.31: SIM {TimeUS : 44734599, Roll : -0.83, Pitch : -0.74, Yaw : 359.97, Alt : 30.75, Lat : 49.28357, Lng : -123.11502, Q1 : 0.999952554703, Q2 : -0.00729084713385, Q3 : -0.00645755138248, Q4 : -0.000232829421293}
2019-04-14 04:12:46.41: SIM {TimeUS : 44834559, Roll : -0.74, Pitch : -0.65, Yaw : 359.96, Alt : 30.9099998474, Lat : 49.28357, Lng : -123.1150201, Q1 : 0.999962508678, Q2 : -0.00647873338312, Q3 : -0.00573660712689, Q4 : -0.000317538069794}
2019-04-14 04:12:46.52: SIM {TimeUS : 44935352, Roll : -0.54, Pitch : -0.49, Yaw : 359.95, Alt : 31.0599994659, Lat : 49.2835701, Lng : -123.1150201, Q1 : 0.999979436398, Q2 : -0.00475646648556, Q3 : -0.00428229896352, Q4 : -0.000392780406401}
2019-04-14 04:12:46.61: SIM {TimeUS : 45035312, Roll : -0.3, Pitch : -0.29, Yaw : 359.94, Alt : 31.2199993134, Lat : 49.2835701, Lng : -123.1150202, Q1 : 0.999993026257, Q2 : -0.00265535432845, Q3 : -0.00257923523895, Q4 : -0.00045723299263}
2019-04-14 04:12:46.71: SIM {TimeUS : 45135272, Roll : -0.09, Pitch : -0.12, Yaw : 359.94, Alt : 31.3799991608, Lat : 49.2835702, Lng : -123.1150203, Q1 : 0.999998927116, Q2 : -0.000795633939561, Q3 : -0.00110641517676, Q4 : -0.000499855261296}
2019-04-14 04:12:46.81: SIM {TimeUS : 45235232, Roll : 0.04, Pitch : 0.0, Yaw : 359.93, Alt : 31.5599994659, Lat : 49.2835702, Lng : -123.1150204, Q1 : 0.999999761581, Q2 : 0.000392210233258, Q3 : -9.13591793505e-06, Q4 : -0.000527281488758}
2019-04-14 04:12:46.91: SIM {TimeUS : 45335192, Roll : 0.09, Pitch : 0.07, Yaw : 359.93, Alt : 31.7299995422, Lat : 49.2835702, Lng : -123.1150204, Q1 : 0.999999344349, Q2 : 0.000818050059024, Q3 : 0.000631130009424, Q4 : -0.000542055815458}
2019-04-14 04:12:47.01: SIM {TimeUS : 45435152, Roll : 0.07, Pitch : 0.1, Yaw : 359.93, Alt : 31.9099998474, Lat : 49.2835703, Lng : -123.1150205, Q1 : 0.99999922514, Q2 : 0.000684049271513, Q3 : 0.000875474943314, Q4 : -0.000546899682377}
2019-04-14 04:12:47.11: SIM {TimeUS : 45535112, Roll : 0.06, Pitch : 0.11, Yaw : 359.93, Alt : 32.0999984741, Lat : 49.2835703, Lng : -123.1150206, Q1 : 0.99999922514, Q2 : 0.000540645385627, Q3 : 0.00099810177926, Q4 : -0.000535013154149}
2019-04-14 04:12:47.21: SIM {TimeUS : 45635072, Roll : 0.05, Pitch : 0.12, Yaw : 359.94, Alt : 32.2900009155, Lat : 49.2835703, Lng : -123.1150206, Q1 : 0.999999165535, Q2 : 0.000483739713673, Q3 : 0.00108082802035, Q4 : -0.00051994813839}
2019-04-14 04:12:47.31: SIM {TimeUS : 45735032, Roll : 0.05, Pitch : 0.13, Yaw : 359.94, Alt : 32.4799995422, Lat : 49.2835703, Lng : -123.1150206, Q1 : 0.99999910593, Q2 : 0.000461710616946, Q3 : 0.00115565990563, Q4 : -0.000507443561219}
2019-04-14 04:12:47.41: SIM {TimeUS : 45834992, Roll : 0.06, Pitch : 0.15, Yaw : 359.94, Alt : 32.6800003052, Lat : 49.2835703, Lng : -123.1150207, Q1 : 0.999998867512, Q2 : 0.000541877525393, Q3 : 0.0013246294111, Q4 : -0.000496785505675}
2019-04-14 04:12:47.51: SIM {TimeUS : 45934952, Roll : 0.09, Pitch : 0.14, Yaw : 359.94, Alt : 32.8699989319, Lat : 49.2835703, Lng : -123.1150207, Q1 : 0.999998748302, Q2 : 0.00079791888129, Q3 : 0.00130282063037, Q4 : -0.000489480851684}
2019-04-14 04:12:47.61: SIM {TimeUS : 46034912, Roll : 0.12, Pitch : 0.13, Yaw : 359.94, Alt : 33.0699996948, Lat : 49.2835704, Lng : -123.1150207, Q1 : 0.999998629093, Q2 : 0.00110318104271, Q3 : 0.00113895710092, Q4 : -0.000485017400933}
2019-04-14 04:12:47.71: SIM {TimeUS : 46134872, Roll : 0.15, Pitch : 0.11, Yaw : 359.94, Alt : 33.2799987793, Lat : 49.2835704, Lng : -123.1150208, Q1 : 0.999998450279, Q2 : 0.00138637679629, Q3 : 0.0010055124294, Q4 : -0.000476678047562}
2019-04-14 04:12:47.81: SIM {TimeUS : 46234832, Roll : 0.17, Pitch : 0.11, Yaw : 359.94, Alt : 33.4799995422, Lat : 49.2835704, Lng : -123.1150208, Q1 : 0.999998152256, Q2 : 0.00155708554666, Q3 : 0.000999526004307, Q4 : -0.000467317702714}
2019-04-14 04:12:47.91: SIM {TimeUS : 46334792, Roll : 0.19, Pitch : 0.12, Yaw : 359.94, Alt : 33.6899986267, Lat : 49.2835704, Lng : -123.1150208, Q1 : 0.999997794628, Q2 : 0.00170855992474, Q3 : 0.00111253559589, Q4 : -0.000458629190689}
2019-04-14 04:12:48.01: SIM {TimeUS : 46434752, Roll : 0.19, Pitch : 0.12, Yaw : 359.94, Alt : 33.9000015259, Lat : 49.2835704, Lng : -123.1150208, Q1 : 0.999997854233, Q2 : 0.00168912636582, Q3 : 0.00111654296052, Q4 : -0.000451704458101}
2019-04-14 04:12:48.11: SIM {TimeUS : 46534712, Roll : 0.16, Pitch : 0.12, Yaw : 359.94, Alt : 34.1100006104, Lat : 49.2835704, Lng : -123.1150208, Q1 : 0.999998211861, Q2 : 0.00148026307579, Q3 : 0.00108714483213, Q4 : -0.00044711821829}
2019-04-14 04:12:48.21: SIM {TimeUS : 46634672, Roll : 0.13, Pitch : 0.12, Yaw : 359.94, Alt : 34.3199996948, Lat : 49.2835704, Lng : -123.1150208, Q1 : 0.999998629093, Q2 : 0.00118310097605, Q3 : 0.00106944527943, Q4 : -0.000451935891761}
2019-04-14 04:12:48.31: SIM {TimeUS : 46734632, Roll : 0.1, Pitch : 0.11, Yaw : 359.94, Alt : 34.5299987793, Lat : 49.2835704, Lng : -123.1150208, Q1 : 0.999998986721, Q2 : 0.00089493568521, Q3 : 0.000997903640382, Q4 : -0.000464829849079}
2019-04-14 04:12:48.41: SIM {TimeUS : 46834592, Roll : 0.08, Pitch : 0.07, Yaw : 359.94, Alt : 34.7400016785, Lat : 49.2835704, Lng : -123.1150208, Q1 : 0.999999403954, Q2 : 0.000733735156246, Q3 : 0.000660455261823, Q4 : -0.000495084736031}
2019-04-14 04:12:48.51: SIM {TimeUS : 46934552, Roll : 0.07, Pitch : 0.03, Yaw : 359.93, Alt : 34.9599990845, Lat : 49.2835704, Lng : -123.1150208, Q1 : 0.999999582767, Q2 : 0.000642176368274, Q3 : 0.000329252041411, Q4 : -0.000535513448995}
2019-04-14 04:12:48.62: SIM {TimeUS : 47035345, Roll : 0.05, Pitch : 0.01, Yaw : 359.93, Alt : 35.1800003052, Lat : 49.2835704, Lng : -123.1150207, Q1 : 0.999999701977, Q2 : 0.000459419126855, Q3 : 0.000156545997015, Q4 : -0.000580078747589}
2019-04-14 04:12:48.71: SIM {TimeUS : 47135305, Roll : 0.03, Pitch : 0.01, Yaw : 359.92, Alt : 35.3899993896, Lat : 49.2835704, Lng : -123.1150207, Q1 : 0.999999761581, Q2 : 0.000295504170936, Q3 : 0.000118336865853, Q4 : -0.000619297206867}
2019-04-14 04:12:48.81: SIM {TimeUS : 47235265, Roll : 0.03, Pitch : 0.01, Yaw : 359.92, Alt : 35.6100006104, Lat : 49.2835704, Lng : -123.1150207, Q1 : 0.999999761581, Q2 : 0.000267892435659, Q3 : 9.56275325734e-05, Q4 : -0.000657297612634}
2019-04-14 04:12:48.91: SIM {TimeUS : 47335225, Roll : 0.01, Pitch : -0.01, Yaw : 359.92, Alt : 35.8300018311, Lat : 49.2835704, Lng : -123.1150207, Q1 : 0.999999761581, Q2 : 0.000104713413748, Q3 : -9.92936475086e-05, Q4 : -0.000692256959155}
2019-04-14 04:12:49.01: SIM {TimeUS : 47435185, Roll : -0.02, Pitch : -0.04, Yaw : 359.91, Alt : 36.0499992371, Lat : 49.2835704, Lng : -123.1150207, Q1 : 0.999999642372, Q2 : -0.000178007830982, Q3 : -0.000382774276659, Q4 : -0.000721609336324}
2019-04-14 04:12:49.11: SIM {TimeUS : 47535145, Roll : -0.05, Pitch : -0.06, Yaw : 359.91, Alt : 36.2700004578, Lat : 49.2835704, Lng : -123.1150207, Q1 : 0.999999463558, Q2 : -0.000490982551128, Q3 : -0.000568297109567, Q4 : -0.000748101680074}
2019-04-14 04:12:49.21: SIM {TimeUS : 47635105, Roll : -0.08, Pitch : -0.07, Yaw : 359.91, Alt : 36.5, Lat : 49.2835704, Lng : -123.1150207, Q1 : 0.999999165535, Q2 : -0.000759542454034, Q3 : -0.000674197333865, Q4 : -0.000773811771069}
2019-04-14 04:12:49.31: SIM {TimeUS : 47735065, Roll : -0.08, Pitch : -0.07, Yaw : 359.9, Alt : 36.7200012207, Lat : 49.2835704, Lng : -123.1150206, Q1 : 0.999999165535, Q2 : -0.000784964417107, Q3 : -0.000669238623232, Q4 : -0.000793477811385}
2019-04-14 04:12:49.41: SIM {TimeUS : 47835025, Roll : -0.08, Pitch : -0.07, Yaw : 359.9, Alt : 36.9399986267, Lat : 49.2835704, Lng : -123.1150206, Q1 : 0.99999922514, Q2 : -0.000724486308172, Q3 : -0.000610893126577, Q4 : -0.000813280232251}
2019-04-14 04:12:49.51: SIM {TimeUS : 47934985, Roll : -0.07, Pitch : -0.05, Yaw : 359.9, Alt : 37.1699981689, Lat : 49.2835704, Lng : -123.1150206, Q1 : 0.999999344349, Q2 : -0.000622256717179, Q3 : -0.000446975231171, Q4 : -0.000836000137497}
2019-04-14 04:12:49.61: SIM {TimeUS : 48034945, Roll : -0.05, Pitch : -0.03, Yaw : 359.9, Alt : 37.3899993896, Lat : 49.2835704, Lng : -123.1150206, Q1 : 0.999999463558, Q2 : -0.0004953261232, Q3 : -0.00033919638372, Q4 : -0.000852764700539}
2019-04-14 04:12:49.71: SIM {TimeUS : 48134905, Roll : -0.06, Pitch : -0.04, Yaw : 359.9, Alt : 37.6199989319, Lat : 49.2835704, Lng : -123.1150206, Q1 : 0.999999403954, Q2 : -0.000537275453098, Q3 : -0.000364969368093, Q4 : -0.000863833061885}
2019-04-14 04:12:49.81: SIM {TimeUS : 48234865, Roll : -0.07, Pitch : -0.02, Yaw : 359.9, Alt : 37.8400001526, Lat : 49.2835704, Lng : -123.1150206, Q1 : 0.999999403954, Q2 : -0.000637999735773, Q3 : -0.00025884778006, Q4 : -0.000870264309924}
2019-04-14 04:12:49.91: SIM {TimeUS : 48334825, Roll : -0.09, Pitch : -0.01, Yaw : 359.89, Alt : 38.0699996948, Lat : 49.2835704, Lng : -123.1150206, Q1 : 0.99999922514, Q2 : -0.000861722859554, Q3 : -0.000115521033877, Q4 : -0.000878736842424}
2019-04-14 04:12:50.01: SIM {TimeUS : 48434785, Roll : -0.1, Pitch : 0.0, Yaw : 359.89, Alt : 38.2999992371, Lat : 49.2835704, Lng : -123.1150206, Q1 : 0.99999922514, Q2 : -0.00090390664991, Q3 : 5.93917684455e-06, Q4 : -0.000881817075424}
2019-04-14 04:12:50.11: SIM {TimeUS : 48534745, Roll : -0.07, Pitch : 0.02, Yaw : 359.89, Alt : 38.5200004578, Lat : 49.2835704, Lng : -123.1150206, Q1 : 0.999999344349, Q2 : -0.000688038242515, Q3 : 0.000259161548456, Q4 : -0.000890754745342}
2019-04-14 04:12:50.21: SIM {TimeUS : 48634705, Roll : -0.05, Pitch : 0.02, Yaw : 359.89, Alt : 38.75, Lat : 49.2835704, Lng : -123.1150206, Q1 : 0.999999463558, Q2 : -0.000458718801383, Q3 : 0.00025121786166, Q4 : -0.000908659305423}
2019-04-14 04:12:50.31: SIM {TimeUS : 48734665, Roll : -0.02, Pitch : 0.02, Yaw : 359.89, Alt : 38.9799995422, Lat : 49.2835706, Lng : -123.1150206, Q1 : 0.999999523163, Q2 : -0.000183643496712, Q3 : 0.000188872771105, Q4 : -0.000927884015255}
2019-04-14 04:12:50.41: SIM {TimeUS : 48834625, Roll : 0.01, Pitch : 0.03, Yaw : 359.89, Alt : 39.2099990845, Lat : 49.2835706, Lng : -123.1150206, Q1 : 0.999999463558, Q2 : 0.000152710868861, Q3 : 0.000342337356415, Q4 : -0.000942895829212}
2019-04-14 04:12:50.51: SIM {TimeUS : 48934585, Roll : 0.05, Pitch : 0.06, Yaw : 359.88, Alt : 39.4399986267, Lat : 49.2835706, Lng : -123.1150206, Q1 : 0.99999922514, Q2 : 0.00048622812028, Q3 : 0.000608516857028, Q4 : -0.00096332654357}
2019-04-14 04:12:50.61: SIM {TimeUS : 49034545, Roll : 0.08, Pitch : 0.09, Yaw : 359.88, Alt : 39.6699981689, Lat : 49.2835706, Lng : -123.1150206, Q1 : 0.999998927116, Q2 : 0.000722359342035, Q3 : 0.00083864829503, Q4 : -0.000989997875877}
2019-04-14 04:12:50.72: SIM {TimeUS : 49135338, Roll : 0.07, Pitch : 0.11, Yaw : 359.88, Alt : 39.9000015259, Lat : 49.2835706, Lng : -123.1150206, Q1 : 0.999998748302, Q2 : 0.000622210034635, Q3 : 0.00104105309583, Q4 : -0.00100886623841}
2019-04-14 04:12:50.81: SIM {TimeUS : 49235298, Roll : 0.02, Pitch : 0.13, Yaw : 359.87, Alt : 40.1300010681, Lat : 49.2835706, Lng : -123.1150206, Q1 : 0.999998688698, Q2 : 0.000198165012989, Q3 : 0.00120303500444, Q4 : -0.00104794302024}
2019-04-14 04:12:50.91: SIM {TimeUS : 49335258, Roll : -0.01, Pitch : 0.14, Yaw : 359.87, Alt : 40.3699989319, Lat : 49.2835706, Lng : -123.1150206, Q1 : 0.999998629093, Q2 : -0.000142510558362, Q3 : 0.00122227100655, Q4 : -0.00108223909047}
2019-04-14 04:12:51.01: SIM {TimeUS : 49435218, Roll : -0.04, Pitch : 0.12, Yaw : 359.87, Alt : 40.5999984741, Lat : 49.2835706, Lng : -123.1150206, Q1 : 0.999998748302, Q2 : -0.000350775342667, Q3 : 0.00108274864033, Q4 : -0.00110993534327}
2019-04-14 04:12:51.11: SIM {TimeUS : 49535178, Roll : -0.04, Pitch : 0.11, Yaw : 359.86, Alt : 40.8300018311, Lat : 49.2835706, Lng : -123.1150206, Q1 : 0.999998748302, Q2 : -0.000425511825597, Q3 : 0.00100193463732, Q4 : -0.00113775301725}
2019-04-14 04:12:51.21: SIM {TimeUS : 49635138, Roll : -0.03, Pitch : 0.12, Yaw : 359.86, Alt : 41.0600013733, Lat : 49.2835706, Lng : -123.1150206, Q1 : 0.999998688698, Q2 : -0.000334470969392, Q3 : 0.00109863979742, Q4 : -0.00117073010188}
2019-04-14 04:12:51.31: SIM {TimeUS : 49735098, Roll : 0.0, Pitch : 0.15, Yaw : 359.86, Alt : 41.2999992371, Lat : 49.2835706, Lng : -123.1150206, Q1 : 0.999998390675, Q2 : 1.60946074175e-05, Q3 : 0.00133217289113, Q4 : -0.00121328316163}
2019-04-14 04:12:51.41: SIM {TimeUS : 49835058, Roll : 0.05, Pitch : 0.16, Yaw : 359.85, Alt : 41.5299987793, Lat : 49.2835706, Lng : -123.1150207, Q1 : 0.999998033047, Q2 : 0.000461591727799, Q3 : 0.00146536587272, Q4 : -0.00125834008213}
2019-04-14 04:12:51.51: SIM {TimeUS : 49935018, Roll : 0.08, Pitch : 0.13, Yaw : 359.85, Alt : 41.7599983215, Lat : 49.2835706, Lng : -123.1150207, Q1 : 0.999998152256, Q2 : 0.000760958937462, Q3 : 0.00117885496002, Q4 : -0.00129713758361}
2019-04-14 04:12:51.61: SIM {TimeUS : 50034978, Roll : 0.08, Pitch : 0.08, Yaw : 359.84, Alt : 42.0, Lat : 49.2835706, Lng : -123.1150207, Q1 : 0.999998569489, Q2 : 0.000778711691964, Q3 : 0.000720994547009, Q4 : -0.00132425036281}
2019-04-14 04:12:51.71: SIM {TimeUS : 50134938, Roll : 0.05, Pitch : 0.04, Yaw : 359.84, Alt : 42.2299995422, Lat : 49.2835706, Lng : -123.1150207, Q1 : 0.999998927116, Q2 : 0.000472457439173, Q3 : 0.000381619815016, Q4 : -0.00134137156419}
2019-04-14 04:12:51.81: SIM {TimeUS : 50234898, Roll : 0.0, Pitch : 0.03, Yaw : 359.84, Alt : 42.4599990845, Lat : 49.2835706, Lng : -123.1150207, Q1 : 0.999999046326, Q2 : 5.3710841712e-06, Q3 : 0.00029881997034, Q4 : -0.0013536735205}
2019-04-14 04:12:51.91: SIM {TimeUS : 50334858, Roll : -0.03, Pitch : 0.05, Yaw : 359.84, Alt : 42.7000007629, Lat : 49.2835704, Lng : -123.1150206, Q1 : 0.999998927116, Q2 : -0.000290571828373, Q3 : 0.000521270558238, Q4 : -0.00135859299917}
2019-04-14 04:12:52.01: SIM {TimeUS : 50434818, Roll : -0.04, Pitch : 0.07, Yaw : 359.84, Alt : 42.9300003052, Lat : 49.2835704, Lng : -123.1150206, Q1 : 0.999998807907, Q2 : -0.00040073870332, Q3 : 0.000675252988003, Q4 : -0.00136031792499}
2019-04-14 04:12:52.11: SIM {TimeUS : 50534778, Roll : -0.04, Pitch : 0.07, Yaw : 359.84, Alt : 43.1699981689, Lat : 49.2835704, Lng : -123.1150206, Q1 : 0.999998807907, Q2 : -0.000351891183527, Q3 : 0.000637875054963, Q4 : -0.00136490468867}
2019-04-14 04:12:52.21: SIM {TimeUS : 50634738, Roll : -0.04, Pitch : 0.06, Yaw : 359.84, Alt : 43.4000015259, Lat : 49.2835704, Lng : -123.1150206, Q1 : 0.999998807907, Q2 : -0.000367826229194, Q3 : 0.000571468728594, Q4 : -0.00137505040038}
2019-04-14 04:12:52.31: SIM {TimeUS : 50734698, Roll : -0.03, Pitch : 0.05, Yaw : 359.84, Alt : 43.6399993896, Lat : 49.2835704, Lng : -123.1150206, Q1 : 0.999998867512, Q2 : -0.000292525073746, Q3 : 0.000465354823973, Q4 : -0.0013909455156}
2019-04-14 04:12:52.41: SIM {TimeUS : 50834658, Roll : -0.01, Pitch : 0.04, Yaw : 359.83, Alt : 43.8699989319, Lat : 49.2835704, Lng : -123.1150206, Q1 : 0.999998927116, Q2 : -0.000120050688565, Q3 : 0.000382666155929, Q4 : -0.00141269189771}
2019-04-14 04:12:52.51: SIM {TimeUS : 50934618, Roll : 0.0, Pitch : 0.03, Yaw : 359.83, Alt : 44.1100006104, Lat : 49.2835704, Lng : -123.1150206, Q1 : 0.999998927116, Q2 : -1.23108402477e-05, Q3 : 0.000344196421793, Q4 : -0.00143755914178}
2019-04-14 04:12:52.61: SIM {TimeUS : 51034578, Roll : 0.0, Pitch : 0.01, Yaw : 359.83, Alt : 44.3499984741, Lat : 49.2835704, Lng : -123.1150206, Q1 : 0.999998927116, Q2 : -6.38662386336e-05, Q3 : 0.00015699522919, Q4 : -0.00146230368409}
2019-04-14 04:12:52.71: SIM {TimeUS : 51134538, Roll : -0.02, Pitch : -0.01, Yaw : 359.82, Alt : 44.5800018311, Lat : 49.2835704, Lng : -123.1150206, Q1 : 0.999998867512, Q2 : -0.000176674569957, Q3 : -0.000164346463862, Q4 : -0.00149388529826}
2019-04-14 04:12:52.81: SIM {TimeUS : 51235331, Roll : -0.02, Pitch : -0.04, Yaw : 359.82, Alt : 44.8199996948, Lat : 49.2835704, Lng : -123.1150206, Q1 : 0.999998748302, Q2 : -0.000261299457634, Q3 : -0.000385246210499, Q4 : -0.00153315276839}
2019-04-14 04:12:52.91: SIM {TimeUS : 51335291, Roll : -0.02, Pitch : -0.05, Yaw : 359.82, Alt : 45.0600013733, Lat : 49.2835703, Lng : -123.1150206, Q1 : 0.999998629093, Q2 : -0.000226508956985, Q3 : -0.000495214830153, Q4 : -0.00157026725356}
2019-04-14 04:12:53.01: SIM {TimeUS : 51435251, Roll : -0.02, Pitch : -0.05, Yaw : 359.81, Alt : 45.2900009155, Lat : 49.2835703, Lng : -123.1150206, Q1 : 0.999998569489, Q2 : -0.000227901444305, Q3 : -0.000499661080539, Q4 : -0.001601796248}
2019-04-14 04:12:53.11: SIM {TimeUS : 51535211, Roll : -0.04, Pitch : -0.04, Yaw : 359.81, Alt : 45.5299987793, Lat : 49.2835703, Lng : -123.1150206, Q1 : 0.999998509884, Q2 : -0.000412120396504, Q3 : -0.000388205371564, Q4 : -0.00163672911003}
2019-04-14 04:12:53.21: SIM {TimeUS : 51635171, Roll : -0.08, Pitch : -0.03, Yaw : 359.8, Alt : 45.7599983215, Lat : 49.2835703, Lng : -123.1150206, Q1 : 0.99999833107, Q2 : -0.000700035132468, Q3 : -0.000274770834949, Q4 : -0.00166693655774}
2019-04-14 04:12:53.31: SIM {TimeUS : 51735131, Roll : -0.1, Pitch : -0.02, Yaw : 359.8, Alt : 45.9900016785, Lat : 49.2835703, Lng : -123.1150206, Q1 : 0.999998092651, Q2 : -0.000904820044525, Q3 : -0.000192145744222, Q4 : -0.00169626134448}
2019-04-14 04:12:53.41: SIM {TimeUS : 51835091, Roll : -0.1, Pitch : 0.0, Yaw : 359.8, Alt : 46.2200012207, Lat : 49.2835703, Lng : -123.1150206, Q1 : 0.999998092651, Q2 : -0.000951256195549, Q3 : -8.29256823636e-05, Q4 : -0.00171865010634}
2019-04-14 04:12:53.51: SIM {TimeUS : 51935051, Roll : -0.09, Pitch : 0.0, Yaw : 359.8, Alt : 46.4500007629, Lat : 49.2835703, Lng : -123.1150206, Q1 : 0.999998152256, Q2 : -0.000804778537713, Q3 : 6.60082441755e-05, Q4 : -0.00174175086431}
2019-04-14 04:12:53.61: SIM {TimeUS : 52035011, Roll : -0.06, Pitch : 0.01, Yaw : 359.79, Alt : 46.6699981689, Lat : 49.2835703, Lng : -123.1150206, Q1 : 0.999998271465, Q2 : -0.000571012904402, Q3 : 0.000114435046271, Q4 : -0.00176510168239}
2019-04-14 04:12:53.71: SIM {TimeUS : 52134971, Roll : -0.04, Pitch : 0.0, Yaw : 359.79, Alt : 46.8800010681, Lat : 49.2835703, Lng : -123.1150206, Q1 : 0.99999833107, Q2 : -0.000381811289117, Q3 : 3.72198519472e-05, Q4 : -0.00179057265632}
2019-04-14 04:12:53.81: SIM {TimeUS : 52234931, Roll : -0.03, Pitch : -0.01, Yaw : 359.79, Alt : 47.0900001526, Lat : 49.2835703, Lng : -123.1150206, Q1 : 0.99999833107, Q2 : -0.000295334699331, Q3 : -0.000135127454996, Q4 : -0.00181314395741}
2019-04-14 04:12:53.91: SIM {TimeUS : 52334891, Roll : -0.02, Pitch : -0.04, Yaw : 359.79, Alt : 47.2900009155, Lat : 49.2835703, Lng : -123.1150206, Q1 : 0.999998271465, Q2 : -0.000177587091457, Q3 : -0.000364034785889, Q4 : -0.0018319246592}
2019-04-14 04:12:54.01: SIM {TimeUS : 52434851, Roll : 0.0, Pitch : -0.06, Yaw : 359.78, Alt : 47.4799995422, Lat : 49.2835703, Lng : -123.1150206, Q1 : 0.999998152256, Q2 : -5.00963892591e-07, Q3 : -0.000555146485567, Q4 : -0.00185131409671}
2019-04-14 04:12:54.11: SIM {TimeUS : 52534811, Roll : 0.01, Pitch : -0.09, Yaw : 359.78, Alt : 47.6599998474, Lat : 49.2835703, Lng : -123.1150206, Q1 : 0.999997913837, Q2 : 9.4403665571e-05, Q3 : -0.000849434174597, Q4 : -0.00186833145563}
2019-04-14 04:12:54.21: SIM {TimeUS : 52634771, Roll : 0.01, Pitch : -0.13, Yaw : 359.78, Alt : 47.8400001526, Lat : 49.2835703, Lng : -123.1150206, Q1 : 0.999997496605, Q2 : 0.000147150174598, Q3 : -0.0012073465623, Q4 : -0.00188030779827}
2019-04-14 04:12:54.31: SIM {TimeUS : 52734731, Roll : 0.04, Pitch : -0.15, Yaw : 359.78, Alt : 48.0, Lat : 49.2835703, Lng : -123.1150206, Q1 : 0.999997258186, Q2 : 0.000363231054507, Q3 : -0.001323072589, Q4 : -0.00189583061729}
2019-04-14 04:12:54.41: SIM {TimeUS : 52834691, Roll : 0.06, Pitch : -0.14, Yaw : 359.78, Alt : 48.1399993896, Lat : 49.2835703, Lng : -123.1150206, Q1 : 0.999997258186, Q2 : 0.000579295970965, Q3 : -0.00123285281006, Q4 : -0.00191465183161}
2019-04-14 04:12:54.51: SIM {TimeUS : 52934651, Roll : 0.08, Pitch : -0.11, Yaw : 359.77, Alt : 48.2799987793, Lat : 49.2835703, Lng : -123.1150206, Q1 : 0.999997317791, Q2 : 0.000737936818041, Q3 : -0.000996992108412, Q4 : -0.00193922920153}
2019-04-14 04:12:54.61: SIM {TimeUS : 53034611, Roll : 0.08, Pitch : -0.07, Yaw : 359.77, Alt : 48.4099998474, Lat : 49.2835704, Lng : -123.1150206, Q1 : 0.99999755621, Q2 : 0.000720980810001, Q3 : -0.00069345528027, Q4 : -0.0019676068332}
2019-04-14 04:12:54.71: SIM {TimeUS : 53134571, Roll : 0.07, Pitch : -0.05, Yaw : 359.77, Alt : 48.5200004578, Lat : 49.2835704, Lng : -123.1150206, Q1 : 0.999997675419, Q2 : 0.000688525324222, Q3 : -0.000472780899145, Q4 : -0.0019988338463}
2019-04-14 04:12:54.82: SIM {TimeUS : 53235364, Roll : 0.06, Pitch : -0.05, Yaw : 359.76, Alt : 48.6199989319, Lat : 49.2835704, Lng : -123.1150206, Q1 : 0.999997675419, Q2 : 0.000575090933125, Q3 : -0.000458509952296, Q4 : -0.00203442806378}
2019-04-14 04:12:54.91: SIM {TimeUS : 53335324, Roll : 0.03, Pitch : -0.05, Yaw : 359.76, Alt : 48.7099990845, Lat : 49.2835704, Lng : -123.1150206, Q1 : 0.999997675419, Q2 : 0.000304135290207, Q3 : -0.000480273098219, Q4 : -0.00207370240241}
2019-04-14 04:12:55.01: SIM {TimeUS : 53435284, Roll : 0.01, Pitch : -0.04, Yaw : 359.75, Alt : 48.7799987793, Lat : 49.2835704, Lng : -123.1150206, Q1 : 0.999997675419, Q2 : 0.000122421901324, Q3 : -0.000385443301639, Q4 : -0.00211102818139}
2019-04-14 04:12:55.11: SIM {TimeUS : 53535244, Roll : 0.0, Pitch : -0.03, Yaw : 359.75, Alt : 48.8499984741, Lat : 49.2835704, Lng : -123.1150206, Q1 : 0.999997615814, Q2 : 2.90928619506e-05, Q3 : -0.000343858700944, Q4 : -0.00214534066617}
2019-04-14 04:12:55.21: SIM {TimeUS : 53635204, Roll : 0.07, Pitch : -0.11, Yaw : 359.75, Alt : 48.9099998474, Lat : 49.2835704, Lng : -123.1150206, Q1 : 0.999996900558, Q2 : 0.000622220395599, Q3 : -0.00102949258871, Q4 : -0.00217572576366}
2019-04-14 04:12:55.31: SIM {TimeUS : 53735164, Roll : 0.3, Pitch : -0.37, Yaw : 359.74, Alt : 48.9599990845, Lat : 49.2835704, Lng : -123.1150206, Q1 : 0.999988675117, Q2 : 0.00261641596444, Q3 : -0.00331779639237, Q4 : -0.00220408220775}
2019-04-14 04:12:55.41: SIM {TimeUS : 53835124, Roll : 0.69, Pitch : -0.87, Yaw : 359.73, Alt : 49.0, Lat : 49.2835704, Lng : -123.1150206, Q1 : 0.99994969368, Q2 : 0.00604318268597, Q3 : -0.00768583454192, Q4 : -0.00222570472397}
2019-04-14 04:12:55.51: SIM {TimeUS : 53935084, Roll : 1.2, Pitch : -1.6, Yaw : 359.72, Alt : 49.0299987793, Lat : 49.2835706, Lng : -123.1150206, Q1 : 0.999843657017, Q2 : 0.0105104409158, Q3 : -0.0140437819064, Q4 : -0.00222530355677}
2019-04-14 04:12:55.61: SIM {TimeUS : 54035044, Roll : 1.78, Pitch : -2.46, Yaw : 359.71, Alt : 49.0600013733, Lat : 49.2835706, Lng : -123.1150205, Q1 : 0.999645709991, Q2 : 0.0154957035556, Q3 : -0.0215291511267, Q4 : -0.00218687299639}
2019-04-14 04:12:55.71: SIM {TimeUS : 54135004, Roll : 2.33, Pitch : -3.33, Yaw : 359.69, Alt : 49.0900001526, Lat : 49.2835707, Lng : -123.1150204, Q1 : 0.999365329742, Q2 : 0.0203251000494, Q3 : -0.0291805211455, Q4 : -0.00209869281389}
2019-04-14 04:12:55.81: SIM {TimeUS : 54234964, Roll : 2.81, Pitch : -4.08, Yaw : 359.67, Alt : 49.1100006104, Lat : 49.2835708, Lng : -123.1150203, Q1 : 0.999060928822, Q2 : 0.0244645625353, Q3 : -0.0357077084482, Q4 : -0.00194180174731}
2019-04-14 04:12:55.91: SIM {TimeUS : 54334924, Roll : 3.18, Pitch : -4.63, Yaw : 359.67, Alt : 49.1300010681, Lat : 49.2835709, Lng : -123.1150201, Q1 : 0.99879693985, Q2 : 0.0276366770267, Q3 : -0.0404713973403, Q4 : -0.00171677698381}
2019-04-14 04:12:56.01: SIM {TimeUS : 54434884, Roll : 3.45, Pitch : -5.02, Yaw : 359.68, Alt : 49.1500015259, Lat : 49.2835712, Lng : -123.11502, Q1 : 0.998585999012, Q2 : 0.029955483973, Q3 : -0.043893057853, Q4 : -0.0014567085309}
2019-04-14 04:12:56.11: SIM {TimeUS : 54534844, Roll : 3.65, Pitch : -5.33, Yaw : 359.69, Alt : 49.1599998474, Lat : 49.2835715, Lng : -123.1150197, Q1 : 0.998409748077, Q2 : 0.0317639522254, Q3 : -0.046558033675, Q4 : -0.00118359201588}
2019-04-14 04:12:56.21: SIM {TimeUS : 54634804, Roll : 3.84, Pitch : -5.6, Yaw : 359.7, Alt : 49.1800003052, Lat : 49.2835719, Lng : -123.1150193, Q1 : 0.998244166374, Q2 : 0.0333690643311, Q3 : -0.0489309094846, Q4 : -0.000911396346055}
2019-04-14 04:12:56.31: SIM {TimeUS : 54734764, Roll : 4.03, Pitch : -5.9, Yaw : 359.71, Alt : 49.1899986267, Lat : 49.2835722, Lng : -123.1150189, Q1 : 0.998053252697, Q2 : 0.0350219681859, Q3 : -0.0516018308699, Q4 : -0.000654811796267}
2019-04-14 04:12:56.41: SIM {TimeUS : 54834724, Roll : 4.25, Pitch : -6.24, Yaw : 359.72, Alt : 49.2000007629, Lat : 49.2835727, Lng : -123.1150184, Q1 : 0.997829318047, Q2 : 0.0369314923882, Q3 : -0.0545207224786, Q4 : -0.000399468524847}
2019-04-14 04:12:56.51: SIM {TimeUS : 54934684, Roll : 4.47, Pitch : -6.54, Yaw : 359.72, Alt : 49.2099990845, Lat : 49.2835733, Lng : -123.1150178, Q1 : 0.997611105442, Q2 : 0.0388318784535, Q3 : -0.0571329034865, Q4 : -0.000157398390002}
2019-04-14 04:12:56.61: SIM {TimeUS : 55034644, Roll : 4.63, Pitch : -6.75, Yaw : 359.73, Alt : 49.2099990845, Lat : 49.2835739, Lng : -123.1150172, Q1 : 0.997449755669, Q2 : 0.0402036346495, Q3 : -0.0589713416994, Q4 : 4.83610674564e-05}
2019-04-14 04:12:56.71: SIM {TimeUS : 55134604, Roll : 4.73, Pitch : -6.9, Yaw : 359.73, Alt : 49.2200012207, Lat : 49.2835745, Lng : -123.1150165, Q1 : 0.997336149216, Q2 : 0.041068661958, Q3 : -0.0602820441127, Q4 : 0.000202774768695}
2019-04-14 04:12:56.81: SIM {TimeUS : 55234564, Roll : 4.79, Pitch : -7.01, Yaw : 359.74, Alt : 49.2299995422, Lat : 49.2835752, Lng : -123.1150157, Q1 : 0.997257888317, Q2 : 0.0415804609656, Q3 : -0.0612182170153, Q4 : 0.000307918875478}
2019-04-14 04:12:56.92: SIM {TimeUS : 55335357, Roll : 4.84, Pitch : -7.09, Yaw : 359.74, Alt : 49.2299995422, Lat : 49.2835761, Lng : -123.1150149, Q1 : 0.997194290161, Q2 : 0.0420292131603, Q3 : -0.061943244189, Q4 : 0.000372523471015}
2019-04-14 04:12:57.01: SIM {TimeUS : 55435317, Roll : 4.93, Pitch : -7.19, Yaw : 359.74, Alt : 49.2400016785, Lat : 49.2835769, Lng : -123.1150139, Q1 : 0.997110545635, Q2 : 0.0427925363183, Q3 : -0.0627629160881, Q4 : 0.000457149173599}
2019-04-14 04:12:57.11: SIM {TimeUS : 55535277, Roll : 5.24, Pitch : -7.24, Yaw : 359.9, Alt : 49.2400016785, Lat : 49.2835777, Lng : -123.115013, Q1 : 0.996958613396, Q2 : 0.0455943867564, Q3 : -0.0631690621376, Q4 : 0.0020934282802}
2019-04-14 04:12:57.21: SIM {TimeUS : 55635237, Roll : 5.83, Pitch : -7.26, Yaw : 0.8, Alt : 49.25, Lat : 49.2835788, Lng : -123.115012, Q1 : 0.996647536755, Q2 : 0.0512691065669, Q3 : -0.062930740416, Q4 : 0.0102468412369}
2019-04-14 04:12:57.31: SIM {TimeUS : 55735197, Roll : 6.46, Pitch : -7.44, Yaw : 3.08, Alt : 49.25, Lat : 49.2835798, Lng : -123.115011, Q1 : 0.995840966702, Q2 : 0.0580177418888, Q3 : -0.0632742568851, Q4 : 0.0305134654045}
2019-04-14 04:12:57.41: SIM {TimeUS : 55835157, Roll : 6.75, Pitch : -7.94, Yaw : 6.98, Alt : 49.25, Lat : 49.2835807, Lng : -123.1150098, Q1 : 0.9937672019, Q2 : 0.0628705620766, Q3 : -0.0654666423798, Q4 : 0.0647162348032}
2019-04-14 04:12:57.51: SIM {TimeUS : 55935117, Roll : 6.43, Pitch : -8.77, Yaw : 12.37, Alt : 49.2599983215, Lat : 49.2835818, Lng : -123.1150084, Q1 : 0.989240348339, Q2 : 0.0638590231538, Q3 : -0.0698741450906, Q4 : 0.111548855901}
2019-04-14 04:12:57.61: SIM {TimeUS : 56035077, Roll : 5.25, Pitch : -9.81, Yaw : 18.96, Alt : 49.2599983215, Lat : 49.283583, Lng : -123.1150071, Q1 : 0.981035649776, Q2 : 0.0591292120516, Q3 : -0.0767599418759, Q4 : 0.167871147394}
2019-04-14 04:12:57.71: SIM {TimeUS : 56135037, Roll : 3.06, Pitch : -10.87, Yaw : 26.13, Alt : 49.2599983215, Lat : 49.2835842, Lng : -123.1150057, Q1 : 0.96879196167, Q2 : 0.0473598912358, Q3 : -0.0862735882401, Q4 : 0.227499589324}
2019-04-14 04:12:57.81: SIM {TimeUS : 56234997, Roll : 0.21, Pitch : -11.72, Yaw : 33.08, Alt : 49.2599983215, Lat : 49.2835854, Lng : -123.1150041, Q1 : 0.953538417816, Q2 : 0.0308495480567, Q3 : -0.0973490998149, Q4 : 0.283436089754}
2019-04-14 04:12:57.91: SIM {TimeUS : 56334957, Roll : -2.69, Pitch : -12.21, Yaw : 39.07, Alt : 49.2599983215, Lat : 49.2835867, Lng : -123.1150025, Q1 : 0.937640368938, Q2 : 0.0135586382821, Q3 : -0.10803296417, Q4 : 0.330114483833}
2019-04-14 04:12:58.01: SIM {TimeUS : 56434917, Roll : -5.02, Pitch : -12.4, Yaw : 43.56, Alt : 49.2700004578, Lat : 49.2835879, Lng : -123.1150008, Q1 : 0.92403703928, Q2 : -0.000412619847339, Q3 : -0.116357684135, Q4 : 0.364165186882}
2019-04-14 04:12:58.11: SIM {TimeUS : 56534877, Roll : -6.4, Pitch : -12.46, Yaw : 46.3, Alt : 49.2700004578, Lat : 49.2835895, Lng : -123.1149992, Q1 : 0.914982914925, Q2 : -0.00841137394309, Q3 : -0.121469303966, Q4 : 0.384682714939}
2019-04-14 04:12:58.21: SIM {TimeUS : 56634837, Roll : -6.78, Pitch : -12.55, Yaw : 47.38, Alt : 49.2700004578, Lat : 49.283591, Lng : -123.1149975, Q1 : 0.91123354435, Q2 : -0.00996259506792, Q3 : -0.123596198857, Q4 : 0.392782568932}
2019-04-14 04:12:58.31: SIM {TimeUS : 56734797, Roll : -6.31, Pitch : -12.8, Yaw : 47.06, Alt : 49.2700004578, Lat : 49.2835928, Lng : -123.1149959, Q1 : 0.912201106548, Q2 : -0.00573656661436, Q3 : -0.1239393875, Q4 : 0.390506446362}
2019-04-14 04:12:58.41: SIM {TimeUS : 56834757, Roll : -5.25, Pitch : -13.25, Yaw : 45.65, Alt : 49.2700004578, Lat : 49.2835945, Lng : -123.1149942, Q1 : 0.916601002216, Q2 : 0.00277693755925, Q3 : -0.12391679734, Q4 : 0.380104571581}
2019-04-14 04:12:58.51: SIM {TimeUS : 56934717, Roll : -3.84, Pitch : -13.84, Yaw : 43.49, Alt : 49.2700004578, Lat : 49.2835964, Lng : -123.1149925, Q1 : 0.923046648502, Q2 : 0.0136952567846, Q3 : -0.12423645705, Q4 : 0.363816767931}
2019-04-14 04:12:58.61: SIM {TimeUS : 57034677, Roll : -2.28, Pitch : -14.46, Yaw : 40.86, Alt : 49.2700004578, Lat : 49.2835983, Lng : -123.1149908, Q1 : 0.930323719978, Q2 : 0.0254064425826, Q3 : -0.124838091433, Q4 : 0.343900799751}
2019-04-14 04:12:58.71: SIM {TimeUS : 57134637, Roll : -0.73, Pitch : -14.99, Yaw : 38.08, Alt : 49.2700004578, Lat : 49.2836004, Lng : -123.114989, Q1 : 0.937457740307, Q2 : 0.0365581847727, Q3 : -0.125384822488, Q4 : 0.322668790817}
2019-04-14 04:12:58.81: SIM {TimeUS : 57234597, Roll : 0.65, Pitch : -15.34, Yaw : 35.45, Alt : 49.2799987793, Lat : 49.2836024, Lng : -123.1149871, Q1 : 0.94372355938, Q2 : 0.0461007617414, Q3 : -0.125471889973, Q4 : 0.302518337965}
2019-04-14 04:12:58.91: SIM {TimeUS : 57334557, Roll : 1.77, Pitch : -15.52, Yaw : 33.25, Alt : 49.2799987793, Lat : 49.2836044, Lng : -123.1149851, Q1 : 0.948675990105, Q2 : 0.0533963851631, Q3 : -0.125036537647, Q4 : 0.285532206297}
2019-04-14 04:12:59.02: SIM {TimeUS : 57435350, Roll : 2.53, Pitch : -15.58, Yaw : 31.65, Alt : 49.2799987793, Lat : 49.2836067, Lng : -123.1149829, Q1 : 0.952158987522, Q2 : 0.0580775476992, Q3 : -0.124446094036, Q4 : 0.273008108139}
2019-04-14 04:12:59.11: SIM {TimeUS : 57535310, Roll : 2.89, Pitch : -15.58, Yaw : 30.73, Alt : 49.2799987793, Lat : 49.2836089, Lng : -123.1149807, Q1 : 0.954128801823, Q2 : 0.0600745603442, Q3 : -0.124041281641, Q4 : 0.265787690878}
2019-04-14 04:12:59.21: SIM {TimeUS : 57635270, Roll : 2.88, Pitch : -15.57, Yaw : 30.48, Alt : 49.2799987793, Lat : 49.2836111, Lng : -123.1149784, Q1 : 0.95472830534, Q2 : 0.0596709698439, Q3 : -0.124179907143, Q4 : 0.263652294874}
2019-04-14 04:12:59.31: SIM {TimeUS : 57735230, Roll : 2.55, Pitch : -15.6, Yaw : 30.79, Alt : 49.2799987793, Lat : 49.2836135, Lng : -123.1149759, Q1 : 0.954127907753, Q2 : 0.0573222748935, Q3 : -0.125017613173, Q4 : 0.265941202641}
2019-04-14 04:12:59.41: SIM {TimeUS : 57835190, Roll : 2.0, Pitch : -15.68, Yaw : 31.55, Alt : 49.2799987793, Lat : 49.2836158, Lng : -123.1149734, Q1 : 0.952526032925, Q2 : 0.0537459254265, Q3 : -0.126603543758, Q4 : 0.27161937952}
2019-04-14 04:12:59.51: SIM {TimeUS : 57935150, Roll : 1.32, Pitch : -15.81, Yaw : 32.59, Alt : 49.2799987793, Lat : 49.2836182, Lng : -123.1149708, Q1 : 0.950183033943, Q2 : 0.0495733171701, Q3 : -0.128856956959, Q4 : 0.279446959496}
2019-04-14 04:12:59.61: SIM {TimeUS : 58035110, Roll : 0.6, Pitch : -15.96, Yaw : 33.75, Alt : 49.2799987793, Lat : 49.2836206, Lng : -123.1149682, Q1 : 0.947436332703, Q2 : 0.0453209355474, Q3 : -0.131403043866, Q4 : 0.288172870874}
2019-04-14 04:12:59.71: SIM {TimeUS : 58135070, Roll : -0.07, Pitch : -16.11, Yaw : 34.88, Alt : 49.2799987793, Lat : 49.2836231, Lng : -123.1149655, Q1 : 0.944638490677, Q2 : 0.041379660368, Q3 : -0.133915156126, Q4 : 0.296669214964}
2019-04-14 04:12:59.81: SIM {TimeUS : 58235030, Roll : -0.64, Pitch : -16.21, Yaw : 35.86, Alt : 49.2799987793, Lat : 49.2836256, Lng : -123.1149627, Q1 : 0.942139923573, Q2 : 0.0381338745356, Q3 : -0.135870665312, Q4 : 0.304068058729}
2019-04-14 04:12:59.91: SIM {TimeUS : 58334990, Roll : -1.03, Pitch : -16.26, Yaw : 36.62, Alt : 49.2799987793, Lat : 49.2836281, Lng : -123.11496, Q1 : 0.94018638134, Q2 : 0.0359666645527, Q3 : -0.137091502547, Q4 : 0.309777081013}
2019-04-14 04:13:00.01: SIM {TimeUS : 58434950, Roll : -1.25, Pitch : -16.29, Yaw : 37.1, Alt : 49.2799987793, Lat : 49.2836308, Lng : -123.1149571, Q1 : 0.938917696476, Q2 : 0.0347711406648, Q3 : -0.137774854898, Q4 : 0.313436746597}
2019-04-14 04:13:00.11: SIM {TimeUS : 58534910, Roll : -1.29, Pitch : -16.31, Yaw : 37.3, Alt : 49.2799987793, Lat : 49.2836334, Lng : -123.1149543, Q1 : 0.938344538212, Q2 : 0.0347777158022, Q3 : -0.13803088665, Q4 : 0.31503584981}
2019-04-14 04:13:00.21: SIM {TimeUS : 58634870, Roll : -1.15, Pitch : -16.33, Yaw : 37.25, Alt : 49.2799987793, Lat : 49.283636, Lng : -123.1149514, Q1 : 0.938423633575, Q2 : 0.0358726046979, Q3 : -0.137801319361, Q4 : 0.314777821302}
2019-04-14 04:13:00.31: SIM {TimeUS : 58734830, Roll : -0.91, Pitch : -16.34, Yaw : 36.99, Alt : 49.2799987793, Lat : 49.2836388, Lng : -123.1149485, Q1 : 0.939029872417, Q2 : 0.0375784225762, Q3 : -0.137308359146, Q4 : 0.312981128693}
2019-04-14 04:13:00.41: SIM {TimeUS : 58834790, Roll : -0.63, Pitch : -16.38, Yaw : 36.6, Alt : 49.2799987793, Lat : 49.2836415, Lng : -123.1149456, Q1 : 0.939964413643, Q2 : 0.0395098626614, Q3 : -0.136979371309, Q4 : 0.310068666935}
2019-04-14 04:13:00.51: SIM {TimeUS : 58934750, Roll : -0.34, Pitch : -16.44, Yaw : 36.13, Alt : 49.2799987793, Lat : 49.2836444, Lng : -123.1149426, Q1 : 0.941047847271, Q2 : 0.0415186099708, Q3 : -0.136874601245, Q4 : 0.306546151638}
2019-04-14 04:13:00.61: SIM {TimeUS : 59034710, Roll : -0.06, Pitch : -16.52, Yaw : 35.65, Alt : 49.2799987793, Lat : 49.2836473, Lng : -123.1149396, Q1 : 0.942124664783, Q2 : 0.0434489771724, Q3 : -0.13699002564, Q4 : 0.302897810936}
2019-04-14 04:13:00.71: SIM {TimeUS : 59134670, Roll : 0.17, Pitch : -16.59, Yaw : 35.21, Alt : 49.2799987793, Lat : 49.28365, Lng : -123.1149366, Q1 : 0.943103969097, Q2 : 0.0450664013624, Q3 : -0.137091100216, Q4 : 0.299549520016}
2019-04-14 04:13:00.81: SIM {TimeUS : 59234630, Roll : 0.35, Pitch : -16.64, Yaw : 34.86, Alt : 49.2799987793, Lat : 49.283653, Lng : -123.1149335, Q1 : 0.943895578384, Q2 : 0.0463199540973, Q3 : -0.137161716819, Q4 : 0.296820342541}
2019-04-14 04:13:00.91: SIM {TimeUS : 59334590, Roll : 0.47, Pitch : -16.68, Yaw : 34.6, Alt : 49.2799987793, Lat : 49.2836559, Lng : -123.1149304, Q1 : 0.944446384907, Q2 : 0.0470966175199, Q3 : -0.137282148004, Q4 : 0.294883966446}
2019-04-14 04:13:01.01: SIM {TimeUS : 59434550, Roll : 0.53, Pitch : -16.71, Yaw : 34.47, Alt : 49.2900009155, Lat : 49.2836588, Lng : -123.1149273, Q1 : 0.944735348225, Q2 : 0.0474614277482, Q3 : -0.137488126755, Q4 : 0.293801993132}
2019-04-14 04:13:01.12: SIM {TimeUS : 59535343, Roll : 0.54, Pitch : -16.74, Yaw : 34.44, Alt : 49.2900009155, Lat : 49.2836618, Lng : -123.1149241, Q1 : 0.944772362709, Q2 : 0.0475867800415, Q3 : -0.137734100223, Q4 : 0.293547272682}
2019-04-14 04:13:01.21: SIM {TimeUS : 59635303, Roll : 0.49, Pitch : -16.77, Yaw : 34.5, Alt : 49.2900009155, Lat : 49.2836647, Lng : -123.1149209, Q1 : 0.94460773468, Q2 : 0.0473626479506, Q3 : -0.138008490205, Q4 : 0.293984234333}
2019-04-14 04:13:01.31: SIM {TimeUS : 59735263, Roll : 0.4, Pitch : -16.79, Yaw : 34.62, Alt : 49.2900009155, Lat : 49.2836677, Lng : -123.1149176, Q1 : 0.944295823574, Q2 : 0.0467673279345, Q3 : -0.138370513916, Q4 : 0.294909834862}
2019-04-14 04:13:01.41: SIM {TimeUS : 59835223, Roll : 0.27, Pitch : -16.81, Yaw : 34.79, Alt : 49.2900009155, Lat : 49.2836707, Lng : -123.1149144, Q1 : 0.943889379501, Q2 : 0.045979257673, Q3 : -0.138821527362, Q4 : 0.296120524406}
2019-04-14 04:13:01.51: SIM {TimeUS : 59935183, Roll : 0.14, Pitch : -16.85, Yaw : 34.97, Alt : 49.2900009155, Lat : 49.2836737, Lng : -123.1149111, Q1 : 0.943426609039, Q2 : 0.0452280007303, Q3 : -0.139439538121, Q4 : 0.297417789698}
2019-04-14 04:13:01.61: SIM {TimeUS : 60035143, Roll : 0.01, Pitch : -16.91, Yaw : 35.14, Alt : 49.2900009155, Lat : 49.2836767, Lng : -123.1149078, Q1 : 0.942976355553, Q2 : 0.044543273747, Q3 : -0.140125244856, Q4 : 0.29862421751}
2019-04-14 04:13:01.71: SIM {TimeUS : 60135103, Roll : -0.09, Pitch : -16.95, Yaw : 35.28, Alt : 49.2900009155, Lat : 49.2836798, Lng : -123.1149044, Q1 : 0.942599713802, Q2 : 0.0438865870237, Q3 : -0.140752598643, Q4 : 0.299613833427}
2019-04-14 04:13:01.81: SIM {TimeUS : 60235063, Roll : -0.18, Pitch : -16.99, Yaw : 35.38, Alt : 49.2900009155, Lat : 49.2836829, Lng : -123.1149011, Q1 : 0.94233083725, Q2 : 0.0433722473681, Q3 : -0.141231581569, Q4 : 0.300308316946}
2019-04-14 04:13:01.91: SIM {TimeUS : 60335023, Roll : -0.24, Pitch : -17.02, Yaw : 35.43, Alt : 49.2900009155, Lat : 49.2836861, Lng : -123.1148977, Q1 : 0.942177891731, Q2 : 0.043034479022, Q3 : -0.141630500555, Q4 : 0.300648838282}
2019-04-14 04:13:02.01: SIM {TimeUS : 60434983, Roll : -0.24, Pitch : -17.05, Yaw : 35.43, Alt : 49.2900009155, Lat : 49.2836892, Lng : -123.1148943, Q1 : 0.942121863365, Q2 : 0.0431083999574, Q3 : -0.141924783587, Q4 : 0.300675064325}
2019-04-14 04:13:02.11: SIM {TimeUS : 60534943, Roll : -0.2, Pitch : -17.09, Yaw : 35.4, Alt : 49.2999992371, Lat : 49.2836924, Lng : -123.1148909, Q1 : 0.94215887785, Q2 : 0.043514136225, Q3 : -0.142097860575, Q4 : 0.300418823957}
2019-04-14 04:13:02.21: SIM {TimeUS : 60634903, Roll : -0.13, Pitch : -17.12, Yaw : 35.33, Alt : 49.2999992371, Lat : 49.2836955, Lng : -123.1148875, Q1 : 0.942263543606, Q2 : 0.044114600867, Q3 : -0.142245084047, Q4 : 0.299932897091}
2019-04-14 04:13:02.31: SIM {TimeUS : 60734863, Roll : -0.04, Pitch : -17.17, Yaw : 35.24, Alt : 49.2999992371, Lat : 49.2836986, Lng : -123.1148841, Q1 : 0.942408323288, Q2 : 0.0447929985821, Q3 : -0.142417430878, Q4 : 0.299294948578}
2019-04-14 04:13:02.41: SIM {TimeUS : 60834823, Roll : 0.02, Pitch : -17.2, Yaw : 35.14, Alt : 49.2999992371, Lat : 49.2837018, Lng : -123.1148806, Q1 : 0.942585587502, Q2 : 0.0453697070479, Q3 : -0.142562016845, Q4 : 0.298580259085}
2019-04-14 04:13:02.51: SIM {TimeUS : 60934783, Roll : 0.07, Pitch : -17.23, Yaw : 35.05, Alt : 49.2999992371, Lat : 49.2837051, Lng : -123.1148772, Q1 : 0.942780137062, Q2 : 0.0457451306283, Q3 : -0.142677113414, Q4 : 0.297852694988}
2019-04-14 04:13:02.61: SIM {TimeUS : 61034743, Roll : 0.1, Pitch : -17.24, Yaw : 34.96, Alt : 49.2999992371, Lat : 49.2837083, Lng : -123.1148737, Q1 : 0.942982852459, Q2 : 0.0458837561309, Q3 : -0.142709717155, Q4 : 0.297173380852}
2019-04-14 04:13:02.71: SIM {TimeUS : 61134703, Roll : 0.13, Pitch : -17.24, Yaw : 34.89, Alt : 49.2999992371, Lat : 49.2837114, Lng : -123.1148702, Q1 : 0.943157315254, Q2 : 0.0460197478533, Q3 : -0.142670080066, Q4 : 0.296617180109}
2019-04-14 04:13:02.81: SIM {TimeUS : 61234663, Roll : 0.15, Pitch : -17.25, Yaw : 34.84, Alt : 49.2999992371, Lat : 49.2837148, Lng : -123.1148667, Q1 : 0.943271517754, Q2 : 0.0462142750621, Q3 : -0.142727836967, Q4 : 0.296195566654}
2019-04-14 04:13:02.91: SIM {TimeUS : 61334623, Roll : 0.19, Pitch : -17.29, Yaw : 34.8, Alt : 49.2999992371, Lat : 49.283718, Lng : -123.1148631, Q1 : 0.943301200867, Q2 : 0.0465556681156, Q3 : -0.142968580127, Q4 : 0.29593154788}
2019-04-14 04:13:03.01: SIM {TimeUS : 61434583, Roll : 0.21, Pitch : -17.35, Yaw : 34.78, Alt : 49.3100013733, Lat : 49.2837212, Lng : -123.1148597, Q1 : 0.943255484104, Q2 : 0.0468938872218, Q3 : -0.143431201577, Q4 : 0.295799791813}
2019-04-14 04:13:03.11: SIM {TimeUS : 61534543, Roll : 0.21, Pitch : -17.39, Yaw : 34.78, Alt : 49.3100013733, Lat : 49.2837245, Lng : -123.1148561, Q1 : 0.94321346283, Q2 : 0.0469928942621, Q3 : -0.143717676401, Q4 : 0.295779138803}
2019-04-14 04:13:03.22: SIM {TimeUS : 61635336, Roll : 0.2, Pitch : -17.38, Yaw : 34.79, Alt : 49.3100013733, Lat : 49.2837278, Lng : -123.1148525, Q1 : 0.943201780319, Q2 : 0.0468508712947, Q3 : -0.143733784556, Q4 : 0.295831054449}
2019-04-14 04:13:03.31: SIM {TimeUS : 61735296, Roll : 0.17, Pitch : -17.38, Yaw : 34.81, Alt : 49.3100013733, Lat : 49.2837311, Lng : -123.114849, Q1 : 0.943174123764, Q2 : 0.0466180443764, Q3 : -0.143792688847, Q4 : 0.295927345753}
2019-04-14 04:13:03.41: SIM {TimeUS : 61835256, Roll : 0.13, Pitch : -17.4, Yaw : 34.83, Alt : 49.3100013733, Lat : 49.2837344, Lng : -123.1148454, Q1 : 0.943123757839, Q2 : 0.0463651679456, Q3 : -0.144022017717, Q4 : 0.296016156673}
2019-04-14 04:13:03.51: SIM {TimeUS : 61935216, Roll : 0.1, Pitch : -17.42, Yaw : 34.84, Alt : 49.3100013733, Lat : 49.2837376, Lng : -123.1148418, Q1 : 0.943071007729, Q2 : 0.0462569855154, Q3 : -0.144252091646, Q4 : 0.296089082956}
2019-04-14 04:13:03.61: SIM {TimeUS : 62035176, Roll : 0.09, Pitch : -17.45, Yaw : 34.84, Alt : 49.3100013733, Lat : 49.2837411, Lng : -123.1148382, Q1 : 0.943019688129, Q2 : 0.0462135635316, Q3 : -0.14457346499, Q4 : 0.296102464199}
2019-04-14 04:13:03.71: SIM {TimeUS : 62135136, Roll : 0.08, Pitch : -17.48, Yaw : 34.84, Alt : 49.3100013733, Lat : 49.2837443, Lng : -123.1148346, Q1 : 0.942994058132, Q2 : 0.0461955927312, Q3 : -0.144833594561, Q4 : 0.296059846878}
2019-04-14 04:13:03.81: SIM {TimeUS : 62235096, Roll : 0.08, Pitch : -17.51, Yaw : 34.84, Alt : 49.3100013733, Lat : 49.2837477, Lng : -123.114831, Q1 : 0.942976593971, Q2 : 0.0462680049241, Q3 : -0.145070463419, Q4 : 0.295988082886}
2019-04-14 04:13:03.91: SIM {TimeUS : 62335056, Roll : 0.09, Pitch : -17.53, Yaw : 34.82, Alt : 49.3100013733, Lat : 49.283751, Lng : -123.1148274, Q1 : 0.942985534668, Q2 : 0.0463959500194, Q3 : -0.145170152187, Q4 : 0.29589086771}
2019-04-14 04:13:04.01: SIM {TimeUS : 62435016, Roll : 0.12, Pitch : -17.54, Yaw : 34.8, Alt : 49.3100013733, Lat : 49.2837544, Lng : -123.1148237, Q1 : 0.943000912666, Q2 : 0.0466513223946, Q3 : -0.145231664181, Q4 : 0.295771360397}
2019-04-14 04:13:04.11: SIM {TimeUS : 62534976, Roll : 0.15, Pitch : -17.56, Yaw : 34.78, Alt : 49.3100013733, Lat : 49.2837577, Lng : -123.1148201, Q1 : 0.943018853664, Q2 : 0.0469219759107, Q3 : -0.145340815187, Q4 : 0.295617640018}
2019-04-14 04:13:04.21: SIM {TimeUS : 62634936, Roll : 0.16, Pitch : -17.6, Yaw : 34.76, Alt : 49.3100013733, Lat : 49.2837612, Lng : -123.1148165, Q1 : 0.943033277988, Q2 : 0.0470580160618, Q3 : -0.145647212863, Q4 : 0.295399308205}
2019-04-14 04:13:04.31: SIM {TimeUS : 62734896, Roll : 0.15, Pitch : -17.65, Yaw : 34.73, Alt : 49.3199996948, Lat : 49.2837646, Lng : -123.1148128, Q1 : 0.943050563335, Q2 : 0.0470681227744, Q3 : -0.146033629775, Q4 : 0.295151621103}
2019-04-14 04:13:04.41: SIM {TimeUS : 62834856, Roll : 0.14, Pitch : -17.69, Yaw : 34.7, Alt : 49.3199996948, Lat : 49.2837679, Lng : -123.114809, Q1 : 0.943073511124, Q2 : 0.0470368377864, Q3 : -0.146407574415, Q4 : 0.294897824526}
2019-04-14 04:13:04.51: SIM {TimeUS : 62934816, Roll : 0.15, Pitch : -17.71, Yaw : 34.68, Alt : 49.3199996948, Lat : 49.2837713, Lng : -123.1148055, Q1 : 0.943106293678, Q2 : 0.0471337996423, Q3 : -0.146580591798, Q4 : 0.294691294432}
2019-04-14 04:13:04.61: SIM {TimeUS : 63034776, Roll : 0.16, Pitch : -17.71, Yaw : 34.65, Alt : 49.3199996948, Lat : 49.2837746, Lng : -123.1148018, Q1 : 0.943157196045, Q2 : 0.0472247190773, Q3 : -0.14655855298, Q4 : 0.29452496767}
2019-04-14 04:13:04.71: SIM {TimeUS : 63134736, Roll : 0.18, Pitch : -17.69, Yaw : 34.63, Alt : 49.3199996948, Lat : 49.2837782, Lng : -123.114798, Q1 : 0.943222820759, Q2 : 0.0472775362432, Q3 : -0.146393537521, Q4 : 0.294388383627}
2019-04-14 04:13:04.81: SIM {TimeUS : 63234696, Roll : 0.17, Pitch : -17.68, Yaw : 34.62, Alt : 49.3199996948, Lat : 49.2837816, Lng : -123.1147944, Q1 : 0.943276941776, Q2 : 0.0472211502492, Q3 : -0.14629933238, Q4 : 0.29427075386}
2019-04-14 04:13:04.91: SIM {TimeUS : 63334656, Roll : 0.17, Pitch : -17.67, Yaw : 34.61, Alt : 49.3199996948, Lat : 49.2837849, Lng : -123.1147907, Q1 : 0.943320512772, Q2 : 0.0471854880452, Q3 : -0.146234542131, Q4 : 0.294169038534}
2019-04-14 04:13:05.01: SIM {TimeUS : 63434616, Roll : 0.17, Pitch : -17.66, Yaw : 34.6, Alt : 49.3199996948, Lat : 49.2837884, Lng : -123.114787, Q1 : 0.943353652954, Q2 : 0.0471559502184, Q3 : -0.146178036928, Q4 : 0.294095724821}
2019-04-14 04:13:05.11: SIM {TimeUS : 63534576, Roll : 0.17, Pitch : -17.68, Yaw : 34.59, Alt : 49.3199996948, Lat : 49.2837919, Lng : -123.1147833, Q1 : 0.94335436821, Q2 : 0.0471388995647, Q3 : -0.146320164204, Q4 : 0.294025272131}
2019-04-14 04:13:05.21: SIM {TimeUS : 63634536, Roll : 0.16, Pitch : -17.7, Yaw : 34.58, Alt : 49.3199996948, Lat : 49.2837953, Lng : -123.1147795, Q1 : 0.943341195583, Q2 : 0.0471498258412, Q3 : -0.146539524198, Q4 : 0.293956577778}
2019-04-14 04:13:05.31: SIM {TimeUS : 63735329, Roll : 0.15, Pitch : -17.75, Yaw : 34.58, Alt : 49.3199996948, Lat : 49.2837988, Lng : -123.1147758, Q1 : 0.943307816982, Q2 : 0.0471031181514, Q3 : -0.146960631013, Q4 : 0.29386100173}
2019-04-14 04:13:05.41: SIM {TimeUS : 63835289, Roll : 0.14, Pitch : -17.8, Yaw : 34.57, Alt : 49.3199996948, Lat : 49.2838023, Lng : -123.1147719, Q1 : 0.943271100521, Q2 : 0.0471592061222, Q3 : -0.147358506918, Q4 : 0.293770521879}
2019-04-14 04:13:05.51: SIM {TimeUS : 63935249, Roll : 0.15, Pitch : -17.83, Yaw : 34.56, Alt : 49.3199996948, Lat : 49.2838056, Lng : -123.1147683, Q1 : 0.943249940872, Q2 : 0.0472960807383, Q3 : -0.147592291236, Q4 : 0.293699026108}
2019-04-14 04:13:05.61: SIM {TimeUS : 64035209, Roll : 0.15, Pitch : -17.86, Yaw : 34.55, Alt : 49.3300018311, Lat : 49.2838092, Lng : -123.1147645, Q1 : 0.943232297897, Q2 : 0.0474026761949, Q3 : -0.147844821215, Q4 : 0.293611526489}
2019-04-14 04:13:05.71: SIM {TimeUS : 64135169, Roll : 0.15, Pitch : -17.88, Yaw : 34.54, Alt : 49.3300018311, Lat : 49.2838126, Lng : -123.1147608, Q1 : 0.94323438406, Q2 : 0.047421131283, Q3 : -0.148022815585, Q4 : 0.293512225151}
2019-04-14 04:13:05.81: SIM {TimeUS : 64235129, Roll : 0.16, Pitch : -17.87, Yaw : 34.53, Alt : 49.3300018311, Lat : 49.283816, Lng : -123.114757, Q1 : 0.943268895149, Q2 : 0.0474691279233, Q3 : -0.147951707244, Q4 : 0.29342931509}
2019-04-14 04:13:05.91: SIM {TimeUS : 64335089, Roll : 0.18, Pitch : -17.88, Yaw : 34.51, Alt : 49.3300018311, Lat : 49.2838196, Lng : -123.1147533, Q1 : 0.943285942078, Q2 : 0.0476130843163, Q3 : -0.147989496589, Q4 : 0.293332129717}
2019-04-14 04:13:06.01: SIM {TimeUS : 64435049, Roll : 0.18, Pitch : -17.9, Yaw : 34.5, Alt : 49.3300018311, Lat : 49.2838231, Lng : -123.1147494, Q1 : 0.943294763565, Q2 : 0.0477132834494, Q3 : -0.148137763143, Q4 : 0.293212682009}
2019-04-14 04:13:06.11: SIM {TimeUS : 64535009, Roll : 0.19, Pitch : -17.91, Yaw : 34.49, Alt : 49.3300018311, Lat : 49.2838266, Lng : -123.1147458, Q1 : 0.943315863609, Q2 : 0.0477924644947, Q3 : -0.148201167583, Q4 : 0.293099850416}
2019-04-14 04:13:06.21: SIM {TimeUS : 64634969, Roll : 0.21, Pitch : -17.9, Yaw : 34.47, Alt : 49.3300018311, Lat : 49.28383, Lng : -123.114742, Q1 : 0.943356513977, Q2 : 0.047877766192, Q3 : -0.148109778762, Q4 : 0.293001264334}
2019-04-14 04:13:06.31: SIM {TimeUS : 64734929, Roll : 0.21, Pitch : -17.9, Yaw : 34.46, Alt : 49.3300018311, Lat : 49.2838336, Lng : -123.1147382, Q1 : 0.943393945694, Q2 : 0.0479047708213, Q3 : -0.148066520691, Q4 : 0.292898118496}
2019-04-14 04:13:06.41: SIM {TimeUS : 64834889, Roll : 0.2, Pitch : -17.91, Yaw : 34.44, Alt : 49.3300018311, Lat : 49.2838371, Lng : -123.1147344, Q1 : 0.94341635704, Q2 : 0.0477939657867, Q3 : -0.148222818971, Q4 : 0.292764872313}
2019-04-14 04:13:06.51: SIM {TimeUS : 64934849, Roll : 0.17, Pitch : -17.95, Yaw : 34.43, Alt : 49.3300018311, Lat : 49.2838406, Lng : -123.1147306, Q1 : 0.943413257599, Q2 : 0.0476137623191, Q3 : -0.148604825139, Q4 : 0.292610734701}
2019-04-14 04:13:06.61: SIM {TimeUS : 65034809, Roll : 0.15, Pitch : -17.96, Yaw : 34.42, Alt : 49.3300018311, Lat : 49.283844, Lng : -123.1147268, Q1 : 0.943430364132, Q2 : 0.0474959611893, Q3 : -0.148756250739, Q4 : 0.292497724295}
2019-04-14 04:13:06.71: SIM {TimeUS : 65134769, Roll : 0.16, Pitch : -17.96, Yaw : 34.41, Alt : 49.3300018311, Lat : 49.2838475, Lng : -123.114723, Q1 : 0.943461298943, Q2 : 0.0475077033043, Q3 : -0.14870326221, Q4 : 0.292422801256}
2019-04-14 04:13:06.81: SIM {TimeUS : 65234729, Roll : 0.17, Pitch : -17.95, Yaw : 34.4, Alt : 49.3300018311, Lat : 49.2838512, Lng : -123.1147192, Q1 : 0.943487823009, Q2 : 0.0476251617074, Q3 : -0.148611590266, Q4 : 0.292364835739}
2019-04-14 04:13:06.91: SIM {TimeUS : 65334689, Roll : 0.19, Pitch : -17.96, Yaw : 34.39, Alt : 49.3300018311, Lat : 49.2838547, Lng : -123.1147154, Q1 : 0.94349694252, Q2 : 0.0477609783411, Q3 : -0.1486543715, Q4 : 0.292291492224}
2019-04-14 04:13:07.01: SIM {TimeUS : 65434649, Roll : 0.18, Pitch : -17.98, Yaw : 34.38, Alt : 49.3300018311, Lat : 49.2838582, Lng : -123.1147116, Q1 : 0.943500936031, Q2 : 0.0477260760963, Q3 : -0.148842796683, Q4 : 0.292188376188}
2019-04-14 04:13:07.11: SIM {TimeUS : 65534609, Roll : 0.15, Pitch : -18.0, Yaw : 34.37, Alt : 49.3400001526, Lat : 49.2838617, Lng : -123.1147078, Q1 : 0.943508088589, Q2 : 0.0475458018482, Q3 : -0.149088263512, Q4 : 0.292069554329}
2019-04-14 04:13:07.21: SIM {TimeUS : 65634569, Roll : 0.14, Pitch : -18.02, Yaw : 34.36, Alt : 49.3400001526, Lat : 49.2838652, Lng : -123.114704, Q1 : 0.943520605564, Q2 : 0.0474377423525, Q3 : -0.149261206388, Q4 : 0.291958391666}
2019-04-14 04:13:07.32: SIM {TimeUS : 65735362, Roll : 0.14, Pitch : -18.03, Yaw : 34.35, Alt : 49.3400001526, Lat : 49.2838688, Lng : -123.1147002, Q1 : 0.943528115749, Q2 : 0.0475029833615, Q3 : -0.149380832911, Q4 : 0.291862219572}
2019-04-14 04:13:07.41: SIM {TimeUS : 65835322, Roll : 0.15, Pitch : -18.04, Yaw : 34.34, Alt : 49.3400001526, Lat : 49.2838724, Lng : -123.1146964, Q1 : 0.943536758423, Q2 : 0.0476156249642, Q3 : -0.149447232485, Q4 : 0.291781842709}
2019-04-14 04:13:07.51: SIM {TimeUS : 65935282, Roll : 0.18, Pitch : -18.05, Yaw : 34.33, Alt : 49.3400001526, Lat : 49.283876, Lng : -123.1146925, Q1 : 0.943543076515, Q2 : 0.0478382110596, Q3 : -0.149430423975, Q4 : 0.291733682156}
2019-04-14 04:13:07.61: SIM {TimeUS : 66035242, Roll : 0.2, Pitch : -18.06, Yaw : 34.32, Alt : 49.3400001526, Lat : 49.2838795, Lng : -123.1146886, Q1 : 0.943538367748, Q2 : 0.0480097010732, Q3 : -0.149497628212, Q4 : 0.291686266661}
2019-04-14 04:13:07.71: SIM {TimeUS : 66135202, Roll : 0.22, Pitch : -18.08, Yaw : 34.31, Alt : 49.3400001526, Lat : 49.2838831, Lng : -123.1146849, Q1 : 0.943528473377, Q2 : 0.0481824353337, Q3 : -0.149592503905, Q4 : 0.291641116142}
2019-04-14 04:13:07.81: SIM {TimeUS : 66235162, Roll : 0.23, Pitch : -18.1, Yaw : 34.31, Alt : 49.3400001526, Lat : 49.2838865, Lng : -123.1146811, Q1 : 0.943515479565, Q2 : 0.0483643934131, Q3 : -0.149690896273, Q4 : 0.291602611542}
2019-04-14 04:13:07.91: SIM {TimeUS : 66335122, Roll : 0.26, Pitch : -18.11, Yaw : 34.3, Alt : 49.3400001526, Lat : 49.2838901, Lng : -123.1146772, Q1 : 0.943500101566, Q2 : 0.0485995449126, Q3 : -0.149752795696, Q4 : 0.291581600904}
2019-04-14 04:13:08.01: SIM {TimeUS : 66435082, Roll : 0.29, Pitch : -18.12, Yaw : 34.29, Alt : 49.3400001526, Lat : 49.2838938, Lng : -123.1146734, Q1 : 0.943482041359, Q2 : 0.0488606765866, Q3 : -0.149804249406, Q4 : 0.291569769382}
2019-04-14 04:13:08.11: SIM {TimeUS : 66535042, Roll : 0.28, Pitch : -18.12, Yaw : 34.29, Alt : 49.3400001526, Lat : 49.2838973, Lng : -123.1146696, Q1 : 0.943495452404, Q2 : 0.0487873032689, Q3 : -0.149819284678, Q4 : 0.291531026363}
2019-04-14 04:13:08.21: SIM {TimeUS : 66635002, Roll : 0.25, Pitch : -18.13, Yaw : 34.29, Alt : 49.3400001526, Lat : 49.2839009, Lng : -123.1146657, Q1 : 0.943504929543, Q2 : 0.0485380664468, Q3 : -0.149975091219, Q4 : 0.291461765766}
