2019-04-14 04:27:28.90: SIM {TimeUS : 39915694, Roll : 0.0, Pitch : 0.0, Yaw : 0.0, Alt : 30.1000003815, Lat : 49.28357, Lng : -123.11502, Q1 : 1.0, Q2 : 0.0, Q3 : 0.0, Q4 : 0.0}
2019-04-14 04:27:29.01: SIM {TimeUS : 40034813, Roll : 0.0, Pitch : 0.0, Yaw : 0.0, Alt : 30.1000003815, Lat : 49.28357, Lng : -123.11502, Q1 : 1.0, Q2 : 0.0, Q3 : 0.0, Q4 : 0.0}
2019-04-14 04:27:29.11: SIM {TimeUS : 40134773, Roll : 0.0, Pitch : 0.0, Yaw : 0.0, Alt : 30.1000003815, Lat : 49.28357, Lng : -123.11502, Q1 : 1.0, Q2 : 0.0, Q3 : 0.0, Q4 : 0.0}
2019-04-14 04:27:29.21: SIM {TimeUS : 40234733, Roll : 0.0, Pitch : 0.0, Yaw : 0.0, Alt : 30.1000003815, Lat : 49.28357, Lng : -123.11502, Q1 : 1.0, Q2 : 0.0, Q3 : 0.0, Q4 : 0.0}
2019-04-14 04:27:29.31: SIM {TimeUS : 40334693, Roll : 0.0, Pitch : 0.0, Yaw : 0.0, Alt : 30.1000003815, Lat : 49.28357, Lng : -123.11502, Q1 : 1.0, Q2 : 0.0, Q3 : 0.0, Q4 : 0.0}
2019-04-14 04:27:29.41: SIM {TimeUS : 40434653, Roll : 0.0, Pitch : 0.0, Yaw : 0.0, Alt : 30.1000003815, Lat : 49.28357, Lng : -123.11502, Q1 : 1.0, Q2 : 0.0, Q3 : 0.0, Q4 : 0.0}
2019-04-14 04:27:29.51: SIM {TimeUS : 40534613, Roll : 0.0, Pitch : 0.0, Yaw : 0.0, Alt : 30.1000003815, Lat : 49.28357, Lng : -123.11502, Q1 : 1.0, Q2 : 0.0, Q3 : 0.0, Q4 : 0.0}
2019-04-14 04:27:29.61: SIM {TimeUS : 40634573, Roll : 0.0, Pitch : 0.0, Yaw : 0.0, Alt : 30.1000003815, Lat : 49.28357, Lng : -123.11502, Q1 : 1.0, Q2 : 0.0, Q3 : 0.0, Q4 : 0.0}
2019-04-14 04:27:29.71: SIM {TimeUS : 40734533, Roll : 0.0, Pitch : 0.0, Yaw : 0.0, Alt : 30.1000003815, Lat : 49.28357, Lng : -123.11502, Q1 : 1.0, Q2 : 0.0, Q3 : 0.0, Q4 : 0.0}
2019-04-14 04:27:29.81: SIM {TimeUS : 40834493, Roll : 0.0, Pitch : 0.0, Yaw : 0.0, Alt : 30.1000003815, Lat : 49.28357, Lng : -123.11502, Q1 : 1.0, Q2 : 0.0, Q3 : 0.0, Q4 : 0.0}
2019-04-14 04:27:29.91: SIM {TimeUS : 40934453, Roll : 0.0, Pitch : 0.0, Yaw : 0.0, Alt : 30.1000003815, Lat : 49.28357, Lng : -123.11502, Q1 : 1.0, Q2 : 0.0, Q3 : 0.0, Q4 : 0.0}
2019-04-14 04:27:30.01: SIM {TimeUS : 41034413, Roll : 0.0, Pitch : 0.0, Yaw : 0.0, Alt : 30.1000003815, Lat : 49.28357, Lng : -123.11502, Q1 : 1.0, Q2 : 0.0, Q3 : 0.0, Q4 : 0.0}
2019-04-14 04:27:30.11: SIM {TimeUS : 41134373, Roll : 0.0, Pitch : 0.0, Yaw : 0.0, Alt : 30.1000003815, Lat : 49.28357, Lng : -123.11502, Q1 : 1.0, Q2 : 0.0, Q3 : 0.0, Q4 : 0.0}
2019-04-14 04:27:30.21: SIM {TimeUS : 41234333, Roll : 0.0, Pitch : 0.0, Yaw : 0.0, Alt : 30.1000003815, Lat : 49.28357, Lng : -123.11502, Q1 : 1.0, Q2 : 0.0, Q3 : 0.0, Q4 : 0.0}
2019-04-14 04:27:30.31: SIM {TimeUS : 41334293, Roll : 0.0, Pitch : 0.0, Yaw : 0.0, Alt : 30.1000003815, Lat : 49.28357, Lng : -123.11502, Q1 : 1.0, Q2 : 0.0, Q3 : 0.0, Q4 : 0.0}
2019-04-14 04:27:30.41: SIM {TimeUS : 41434253, Roll : 0.0, Pitch : 0.0, Yaw : 0.0, Alt : 30.1000003815, Lat : 49.28357, Lng : -123.11502, Q1 : 1.0, Q2 : 0.0, Q3 : 0.0, Q4 : 0.0}
2019-04-14 04:27:30.51: SIM {TimeUS : 41534213, Roll : 0.0, Pitch : 0.0, Yaw : 0.0, Alt : 30.1000003815, Lat : 49.28357, Lng : -123.11502, Q1 : 1.0, Q2 : 0.0, Q3 : 0.0, Q4 : 0.0}
2019-04-14 04:27:30.61: SIM {TimeUS : 41634173, Roll : 0.0, Pitch : 0.0, Yaw : 0.0, Alt : 30.1000003815, Lat : 49.28357, Lng : -123.11502, Q1 : 1.0, Q2 : 0.0, Q3 : 0.0, Q4 : 0.0}
2019-04-14 04:27:30.71: SIM {TimeUS : 41734133, Roll : 0.0, Pitch : 0.0, Yaw : 0.0, Alt : 30.1000003815, Lat : 49.28357, Lng : -123.11502, Q1 : 1.0, Q2 : 0.0, Q3 : 0.0, Q4 : 0.0}
2019-04-14 04:27:30.81: SIM {TimeUS : 41834093, Roll : 0.0, Pitch : 0.0, Yaw : 0.0, Alt : 30.1000003815, Lat : 49.28357, Lng : -123.11502, Q1 : 1.0, Q2 : 0.0, Q3 : 0.0, Q4 : 0.0}
2019-04-14 04:27:30.91: SIM {TimeUS : 41934053, Roll : 0.0, Pitch : 0.0, Yaw : 0.0, Alt : 30.1000003815, Lat : 49.28357, Lng : -123.11502, Q1 : 1.0, Q2 : 0.0, Q3 : 0.0, Q4 : 0.0}
2019-04-14 04:27:31.02: SIM {TimeUS : 42034846, Roll : 0.0, Pitch : 0.0, Yaw : 0.0, Alt : 30.1000003815, Lat : 49.28357, Lng : -123.11502, Q1 : 1.0, Q2 : 0.0, Q3 : 0.0, Q4 : 0.0}
2019-04-14 04:27:31.11: SIM {TimeUS : 42134806, Roll : 0.0, Pitch : 0.0, Yaw : 0.0, Alt : 30.1000003815, Lat : 49.28357, Lng : -123.11502, Q1 : 1.0, Q2 : 0.0, Q3 : 0.0, Q4 : 0.0}
2019-04-14 04:27:31.21: SIM {TimeUS : 42234766, Roll : 0.0, Pitch : 0.0, Yaw : 360.0, Alt : 30.1000003815, Lat : 49.28357, Lng : -123.11502, Q1 : 1.0, Q2 : 0.0, Q3 : 0.0, Q4 : -2.28186089815e-12}
2019-04-14 04:27:31.31: SIM {TimeUS : 42334726, Roll : 0.0, Pitch : 0.0, Yaw : 0.0, Alt : 30.1000003815, Lat : 49.28357, Lng : -123.11502, Q1 : 1.0, Q2 : 0.0, Q3 : 0.0, Q4 : 3.4573906238e-14}
2019-04-14 04:27:31.41: SIM {TimeUS : 42434686, Roll : 0.0, Pitch : 0.0, Yaw : 359.99, Alt : 30.1000003815, Lat : 49.28357, Lng : -123.11502, Q1 : 1.0, Q2 : 0.0, Q3 : 0.0, Q4 : -1.76553456299e-07}
2019-04-14 04:27:31.51: SIM {TimeUS : 42534646, Roll : 0.0, Pitch : 0.0, Yaw : 359.99, Alt : 30.1000003815, Lat : 49.28357, Lng : -123.11502, Q1 : 1.0, Q2 : 0.0, Q3 : 0.0, Q4 : -3.60575370451e-07}
2019-04-14 04:27:31.61: SIM {TimeUS : 42634606, Roll : 0.0, Pitch : 0.0, Yaw : 359.99, Alt : 30.1000003815, Lat : 49.28357, Lng : -123.11502, Q1 : 1.0, Q2 : 0.0, Q3 : 0.0, Q4 : -5.62150205496e-07}
2019-04-14 04:27:31.71: SIM {TimeUS : 42734566, Roll : 0.0, Pitch : 0.0, Yaw : 359.99, Alt : 30.1000003815, Lat : 49.28357, Lng : -123.11502, Q1 : 1.0, Q2 : 0.0, Q3 : 0.0, Q4 : -7.62047591252e-07}
2019-04-14 04:27:31.81: SIM {TimeUS : 42834526, Roll : 0.0, Pitch : 0.0, Yaw : 359.99, Alt : 30.1000003815, Lat : 49.28357, Lng : -123.11502, Q1 : 1.0, Q2 : 0.0, Q3 : 0.0, Q4 : -9.44406679082e-07}
2019-04-14 04:27:31.91: SIM {TimeUS : 42934486, Roll : 0.0, Pitch : 0.0, Yaw : 359.99, Alt : 30.1000003815, Lat : 49.28357, Lng : -123.11502, Q1 : 1.0, Q2 : 0.0, Q3 : 0.0, Q4 : -1.16418277685e-06}
2019-04-14 04:27:32.01: SIM {TimeUS : 43034446, Roll : 0.0, Pitch : 0.0, Yaw : 359.99, Alt : 30.1000003815, Lat : 49.28357, Lng : -123.11502, Q1 : 1.0, Q2 : 0.0, Q3 : 0.0, Q4 : -1.38666530347e-06}
2019-04-14 04:27:32.11: SIM {TimeUS : 43134406, Roll : 0.0, Pitch : 0.0, Yaw : 359.99, Alt : 30.1100006104, Lat : 49.28357, Lng : -123.11502, Q1 : 1.0, Q2 : 0.0, Q3 : 0.0, Q4 : -1.60302954555e-06}
2019-04-14 04:27:32.21: SIM {TimeUS : 43234366, Roll : 0.0, Pitch : 0.0, Yaw : 359.99, Alt : 30.1399993896, Lat : 49.28357, Lng : -123.11502, Q1 : 1.0, Q2 : 0.0, Q3 : 0.0, Q4 : -1.78752702595e-06}
2019-04-14 04:27:32.31: SIM {TimeUS : 43334326, Roll : 0.0, Pitch : 0.0, Yaw : 359.99, Alt : 30.1599998474, Lat : 49.28357, Lng : -123.11502, Q1 : 1.0, Q2 : 0.0, Q3 : 0.0, Q4 : -1.98857833311e-06}
2019-04-14 04:27:32.41: SIM {TimeUS : 43434286, Roll : 0.0, Pitch : 0.0, Yaw : 359.99, Alt : 30.2000007629, Lat : 49.28357, Lng : -123.11502, Q1 : 1.0, Q2 : 0.0, Q3 : 0.0, Q4 : -2.24748623623e-06}
2019-04-14 04:27:32.51: SIM {TimeUS : 43534246, Roll : -0.08, Pitch : -0.08, Yaw : 359.99, Alt : 30.25, Lat : 49.28357, Lng : -123.11502, Q1 : 0.999999403954, Q2 : -0.000769546837546, Q3 : -0.000748424907215, Q4 : -8.05359832157e-06}
2019-04-14 04:27:32.61: SIM {TimeUS : 43634206, Roll : -0.35, Pitch : -0.35, Yaw : 359.99, Alt : 30.3400001526, Lat : 49.28357, Lng : -123.11502, Q1 : 0.999990344048, Q2 : -0.00307620270178, Q3 : -0.00313488626853, Q4 : -3.97880721721e-05}
2019-04-14 04:27:32.71: SIM {TimeUS : 43734166, Roll : -0.62, Pitch : -0.66, Yaw : 359.99, Alt : 30.4899997711, Lat : 49.28357, Lng : -123.11502, Q1 : 0.999968409538, Q2 : -0.00544034643099, Q3 : -0.00579566136003, Q4 : -9.62225458352e-05}
2019-04-14 04:27:32.81: SIM {TimeUS : 43834126, Roll : -0.78, Pitch : -0.82, Yaw : 359.98, Alt : 30.6499996185, Lat : 49.28357, Lng : -123.11502, Q1 : 0.999950587749, Q2 : -0.00685337046161, Q3 : -0.00719637889415, Q4 : -0.000174100263393}
2019-04-14 04:27:32.91: SIM {TimeUS : 43934086, Roll : -0.79, Pitch : -0.78, Yaw : 359.97, Alt : 30.7999992371, Lat : 49.28357, Lng : -123.11502, Q1 : 0.999952495098, Q2 : -0.00694002117962, Q3 : -0.00684068910778, Q4 : -0.000263158755843}
2019-04-14 04:27:33.01: SIM {TimeUS : 44034046, Roll : -0.67, Pitch : -0.6, Yaw : 359.96, Alt : 30.9599990845, Lat : 49.28357, Lng : -123.1150201, Q1 : 0.999968647957, Q2 : -0.00588246248662, Q3 : -0.00528405373916, Q4 : -0.000355344411219}
2019-04-14 04:27:33.12: SIM {TimeUS : 44134839, Roll : -0.47, Pitch : -0.37, Yaw : 359.95, Alt : 31.1100006104, Lat : 49.2835701, Lng : -123.1150202, Q1 : 0.999985873699, Q2 : -0.00417457008734, Q3 : -0.00326171889901, Q4 : -0.000440709118266}
2019-04-14 04:27:33.21: SIM {TimeUS : 44234799, Roll : -0.27, Pitch : -0.16, Yaw : 359.94, Alt : 31.2700004578, Lat : 49.2835701, Lng : -123.1150203, Q1 : 0.99999588728, Q2 : -0.0024222440552, Q3 : -0.00144299480598, Q4 : -0.000514381681569}
2019-04-14 04:27:33.31: SIM {TimeUS : 44334759, Roll : -0.11, Pitch : -0.02, Yaw : 359.93, Alt : 31.4400005341, Lat : 49.2835702, Lng : -123.1150204, Q1 : 0.999999344349, Q2 : -0.000992941320874, Q3 : -0.000188436431927, Q4 : -0.000570821517613}
2019-04-14 04:27:33.41: SIM {TimeUS : 44434719, Roll : 0.0, Pitch : 0.02, Yaw : 359.93, Alt : 31.6100006104, Lat : 49.2835702, Lng : -123.1150204, Q1 : 0.999999761581, Q2 : 8.34322636365e-05, Q3 : 0.000250580720603, Q4 : -0.000610472343396}
2019-04-14 04:27:33.51: SIM {TimeUS : 44534679, Roll : 0.07, Pitch : 0.02, Yaw : 359.92, Alt : 31.7900009155, Lat : 49.2835703, Lng : -123.1150205, Q1 : 0.999999523163, Q2 : 0.000669484899845, Q3 : 0.000240678025875, Q4 : -0.000629528716672}
2019-04-14 04:27:33.61: SIM {TimeUS : 44634639, Roll : 0.07, Pitch : 0.01, Yaw : 359.92, Alt : 31.9699993134, Lat : 49.2835703, Lng : -123.1150206, Q1 : 0.999999582767, Q2 : 0.000692318135407, Q3 : 0.000116001807328, Q4 : -0.00062648113817}
2019-04-14 04:27:33.71: SIM {TimeUS : 44734599, Roll : 0.06, Pitch : 0.0, Yaw : 359.93, Alt : 32.1599998474, Lat : 49.2835703, Lng : -123.1150206, Q1 : 0.999999642372, Q2 : 0.000540029082913, Q3 : -1.46693600982e-05, Q4 : -0.000594861689024}
2019-04-14 04:27:33.81: SIM {TimeUS : 44834559, Roll : 0.05, Pitch : 0.0, Yaw : 359.93, Alt : 32.3400001526, Lat : 49.2835703, Lng : -123.1150207, Q1 : 0.999999701977, Q2 : 0.000468158890726, Q3 : -8.24418839329e-06, Q4 : -0.000554363941774}
2019-04-14 04:27:33.91: SIM {TimeUS : 44934519, Roll : 0.05, Pitch : 0.01, Yaw : 359.94, Alt : 32.5400009155, Lat : 49.2835703, Lng : -123.1150207, Q1 : 0.999999701977, Q2 : 0.000514557003044, Q3 : 0.000157611386385, Q4 : -0.000513781560585}
2019-04-14 04:27:34.01: SIM {TimeUS : 45034479, Roll : 0.09, Pitch : 0.04, Yaw : 359.94, Alt : 32.7299995422, Lat : 49.2835703, Lng : -123.1150208, Q1 : 0.999999523163, Q2 : 0.000796909851488, Q3 : 0.000364878389519, Q4 : -0.000481743656565}
2019-04-14 04:27:34.11: SIM {TimeUS : 45134439, Roll : 0.13, Pitch : 0.06, Yaw : 359.94, Alt : 32.9300003052, Lat : 49.2835704, Lng : -123.1150208, Q1 : 0.999999046326, Q2 : 0.00118413940072, Q3 : 0.00057234877022, Q4 : -0.00046194094466}
2019-04-14 04:27:34.21: SIM {TimeUS : 45234399, Roll : 0.16, Pitch : 0.1, Yaw : 359.94, Alt : 33.1300010681, Lat : 49.2835704, Lng : -123.1150209, Q1 : 0.999998450279, Q2 : 0.00146460125688, Q3 : 0.000904543674551, Q4 : -0.00045766698895}
2019-04-14 04:27:34.31: SIM {TimeUS : 45334359, Roll : 0.17, Pitch : 0.13, Yaw : 359.94, Alt : 33.3400001526, Lat : 49.2835704, Lng : -123.1150209, Q1 : 0.999998033047, Q2 : 0.00151720037684, Q3 : 0.00120007479563, Q4 : -0.000465818971861}
2019-04-14 04:27:34.41: SIM {TimeUS : 45434319, Roll : 0.16, Pitch : 0.15, Yaw : 359.94, Alt : 33.5400009155, Lat : 49.2835704, Lng : -123.1150209, Q1 : 0.999997854233, Q2 : 0.00145265145693, Q3 : 0.00138757494278, Q4 : -0.000479102483951}
2019-04-14 04:27:34.51: SIM {TimeUS : 45534279, Roll : 0.16, Pitch : 0.17, Yaw : 359.94, Alt : 33.75, Lat : 49.2835704, Lng : -123.1150209, Q1 : 0.999997735023, Q2 : 0.00139780563768, Q3 : 0.00153670308646, Q4 : -0.000496048596688}
2019-04-14 04:27:34.61: SIM {TimeUS : 45634239, Roll : 0.16, Pitch : 0.17, Yaw : 359.94, Alt : 33.9599990845, Lat : 49.2835704, Lng : -123.1150209, Q1 : 0.999997735023, Q2 : 0.00140277610626, Q3 : 0.00152245885693, Q4 : -0.00051462900592}
2019-04-14 04:27:34.71: SIM {TimeUS : 45734199, Roll : 0.15, Pitch : 0.16, Yaw : 359.93, Alt : 34.1699981689, Lat : 49.2835706, Lng : -123.1150209, Q1 : 0.999997854233, Q2 : 0.00136371131521, Q3 : 0.00144703069236, Q4 : -0.000540568027645}
2019-04-14 04:27:34.81: SIM {TimeUS : 45834159, Roll : 0.13, Pitch : 0.15, Yaw : 359.93, Alt : 34.3800010681, Lat : 49.2835706, Lng : -123.1150209, Q1 : 0.999998271465, Q2 : 0.00116085459013, Q3 : 0.00136665266473, Q4 : -0.000567903683987}
2019-04-14 04:27:34.91: SIM {TimeUS : 45934119, Roll : 0.11, Pitch : 0.11, Yaw : 359.93, Alt : 34.5900001526, Lat : 49.2835706, Lng : -123.1150209, Q1 : 0.999998807907, Q2 : 0.00096068251878, Q3 : 0.00104135030415, Q4 : -0.000582659326028}
2019-04-14 04:27:35.01: SIM {TimeUS : 46034079, Roll : 0.09, Pitch : 0.06, Yaw : 359.93, Alt : 34.8100013733, Lat : 49.2835706, Lng : -123.1150209, Q1 : 0.999999344349, Q2 : 0.00079573126277, Q3 : 0.000581337197218, Q4 : -0.000589846575167}
2019-04-14 04:27:35.11: SIM {TimeUS : 46134039, Roll : 0.06, Pitch : 0.03, Yaw : 359.93, Alt : 35.0200004578, Lat : 49.2835706, Lng : -123.1150209, Q1 : 0.999999582767, Q2 : 0.000605975161307, Q3 : 0.000310679373797, Q4 : -0.000609123846516}
2019-04-14 04:27:35.22: SIM {TimeUS : 46234832, Roll : 0.05, Pitch : 0.02, Yaw : 359.92, Alt : 35.2400016785, Lat : 49.2835706, Lng : -123.1150208, Q1 : 0.999999642372, Q2 : 0.000493937637657, Q3 : 0.000241060944973, Q4 : -0.000649104360491}
2019-04-14 04:27:35.31: SIM {TimeUS : 46334792, Roll : 0.05, Pitch : 0.03, Yaw : 359.91, Alt : 35.4599990845, Lat : 49.2835706, Lng : -123.1150208, Q1 : 0.999999582767, Q2 : 0.000489520200063, Q3 : 0.000316693476634, Q4 : -0.000704665493686}
2019-04-14 04:27:35.41: SIM {TimeUS : 46434752, Roll : 0.04, Pitch : 0.03, Yaw : 359.91, Alt : 35.6699981689, Lat : 49.2835706, Lng : -123.1150208, Q1 : 0.999999582767, Q2 : 0.000418762938352, Q3 : 0.000320272200042, Q4 : -0.000755168846808}
2019-04-14 04:27:35.51: SIM {TimeUS : 46534712, Roll : 0.02, Pitch : 0.03, Yaw : 359.9, Alt : 35.8899993896, Lat : 49.2835706, Lng : -123.1150208, Q1 : 0.999999642372, Q2 : 0.000216896602069, Q3 : 0.000280601787381, Q4 : -0.000795699190348}
2019-04-14 04:27:35.61: SIM {TimeUS : 46634672, Roll : 0.0, Pitch : 0.03, Yaw : 359.9, Alt : 36.1100006104, Lat : 49.2835706, Lng : -123.1150208, Q1 : 0.999999642372, Q2 : 2.17542783503e-05, Q3 : 0.000276496139122, Q4 : -0.000829786935356}
2019-04-14 04:27:35.71: SIM {TimeUS : 46734632, Roll : 0.0, Pitch : 0.04, Yaw : 359.9, Alt : 36.3400001526, Lat : 49.2835704, Lng : -123.1150208, Q1 : 0.999999523163, Q2 : -7.93309081928e-05, Q3 : 0.000425515783718, Q4 : -0.000863541557919}
2019-04-14 04:27:35.81: SIM {TimeUS : 46834592, Roll : -0.02, Pitch : 0.05, Yaw : 359.89, Alt : 36.5600013733, Lat : 49.2835704, Lng : -123.1150207, Q1 : 0.999999463558, Q2 : -0.000176146160811, Q3 : 0.000444660283392, Q4 : -0.000898985716049}
2019-04-14 04:27:35.91: SIM {TimeUS : 46934552, Roll : -0.02, Pitch : 0.04, Yaw : 359.89, Alt : 36.7799987793, Lat : 49.2835704, Lng : -123.1150207, Q1 : 0.999999463558, Q2 : -0.000235983228777, Q3 : 0.000377303542336, Q4 : -0.000936702417675}
2019-04-14 04:27:36.01: SIM {TimeUS : 47034512, Roll : -0.03, Pitch : 0.03, Yaw : 359.88, Alt : 37.0, Lat : 49.2835704, Lng : -123.1150207, Q1 : 0.999999463558, Q2 : -0.000281250540866, Q3 : 0.00030909338966, Q4 : -0.000968198059127}
2019-04-14 04:27:36.11: SIM {TimeUS : 47134472, Roll : -0.03, Pitch : 0.03, Yaw : 359.88, Alt : 37.2299995422, Lat : 49.2835704, Lng : -123.1150207, Q1 : 0.999999463558, Q2 : -0.000268340314506, Q3 : 0.000268596486421, Q4 : -0.000987631850876}
2019-04-14 04:27:36.21: SIM {TimeUS : 47234432, Roll : -0.01, Pitch : 0.02, Yaw : 359.88, Alt : 37.4500007629, Lat : 49.2835704, Lng : -123.1150207, Q1 : 0.999999463558, Q2 : -0.000123993348097, Q3 : 0.000177045774763, Q4 : -0.00099584448617}
2019-04-14 04:27:36.31: SIM {TimeUS : 47334392, Roll : -0.01, Pitch : 0.0, Yaw : 359.88, Alt : 37.6800003052, Lat : 49.2835704, Lng : -123.1150207, Q1 : 0.999999523163, Q2 : -0.000127159815747, Q3 : -4.24987592851e-05, Q4 : -0.000996767776087}
2019-04-14 04:27:36.41: SIM {TimeUS : 47434352, Roll : -0.03, Pitch : -0.04, Yaw : 359.88, Alt : 37.9099998474, Lat : 49.2835704, Lng : -123.1150207, Q1 : 0.999999403954, Q2 : -0.000292008277029, Q3 : -0.000375607167371, Q4 : -0.000994098372757}
2019-04-14 04:27:36.51: SIM {TimeUS : 47534312, Roll : -0.06, Pitch : -0.07, Yaw : 359.88, Alt : 38.1300010681, Lat : 49.2835704, Lng : -123.1150207, Q1 : 0.999999165535, Q2 : -0.000529119744897, Q3 : -0.000644507235847, Q4 : -0.000992803485133}
2019-04-14 04:27:36.61: SIM {TimeUS : 47634272, Roll : -0.09, Pitch : -0.08, Yaw : 359.88, Alt : 38.3600006104, Lat : 49.2835704, Lng : -123.1150207, Q1 : 0.999998927116, Q2 : -0.00079911533976, Q3 : -0.000734012224711, Q4 : -0.00100143102463}
2019-04-14 04:27:36.71: SIM {TimeUS : 47734232, Roll : -0.11, Pitch : -0.08, Yaw : 359.88, Alt : 38.5900001526, Lat : 49.2835704, Lng : -123.1150206, Q1 : 0.999998748302, Q2 : -0.000981469755061, Q3 : -0.000756199588068, Q4 : -0.00101239793003}
2019-04-14 04:27:36.81: SIM {TimeUS : 47834192, Roll : -0.11, Pitch : -0.08, Yaw : 359.88, Alt : 38.8199996948, Lat : 49.2835704, Lng : -123.1150206, Q1 : 0.999998748302, Q2 : -0.00100445037242, Q3 : -0.000703989353497, Q4 : -0.00101854267996}
2019-04-14 04:27:36.91: SIM {TimeUS : 47934152, Roll : -0.09, Pitch : -0.05, Yaw : 359.88, Alt : 39.0499992371, Lat : 49.2835704, Lng : -123.1150206, Q1 : 0.999998986721, Q2 : -0.000852767436299, Q3 : -0.000512917118613, Q4 : -0.00102943379898}
2019-04-14 04:27:37.01: SIM {TimeUS : 48034112, Roll : -0.07, Pitch : -0.05, Yaw : 359.88, Alt : 39.2799987793, Lat : 49.2835704, Lng : -123.1150206, Q1 : 0.999999165535, Q2 : -0.000629455666058, Q3 : -0.000454159191577, Q4 : -0.00104461435694}
2019-04-14 04:27:37.11: SIM {TimeUS : 48134072, Roll : -0.05, Pitch : -0.05, Yaw : 359.87, Alt : 39.5099983215, Lat : 49.2835704, Lng : -123.1150206, Q1 : 0.99999922514, Q2 : -0.000495800632052, Q3 : -0.000441929500084, Q4 : -0.00107095472049}
2019-04-14 04:27:37.21: SIM {TimeUS : 48234032, Roll : -0.04, Pitch : -0.03, Yaw : 359.87, Alt : 39.7400016785, Lat : 49.2835704, Lng : -123.1150206, Q1 : 0.99999922514, Q2 : -0.000435755180661, Q3 : -0.000317478581565, Q4 : -0.0010940778302}
2019-04-14 04:27:37.32: SIM {TimeUS : 48334825, Roll : -0.06, Pitch : 0.0, Yaw : 359.87, Alt : 39.9700012207, Lat : 49.2835704, Lng : -123.1150206, Q1 : 0.99999922514, Q2 : -0.000568435119931, Q3 : -6.60324731143e-05, Q4 : -0.00111897534225}
2019-04-14 04:27:37.41: SIM {TimeUS : 48434785, Roll : -0.06, Pitch : 0.02, Yaw : 359.86, Alt : 40.2000007629, Lat : 49.2835704, Lng : -123.1150206, Q1 : 0.999999165535, Q2 : -0.000593420991208, Q3 : 0.000175420835149, Q4 : -0.00114585412666}
2019-04-14 04:27:37.51: SIM {TimeUS : 48534745, Roll : -0.05, Pitch : 0.05, Yaw : 359.86, Alt : 40.4300003052, Lat : 49.2835704, Lng : -123.1150207, Q1 : 0.99999910593, Q2 : -0.000450392573839, Q3 : 0.000490412232466, Q4 : -0.00118166033644}
2019-04-14 04:27:37.61: SIM {TimeUS : 48634705, Roll : -0.03, Pitch : 0.06, Yaw : 359.86, Alt : 40.6699981689, Lat : 49.2835704, Lng : -123.1150207, Q1 : 0.999999046326, Q2 : -0.000279165804386, Q3 : 0.000584026274737, Q4 : -0.00120873679407}
2019-04-14 04:27:37.71: SIM {TimeUS : 48734665, Roll : 0.0, Pitch : 0.06, Yaw : 359.85, Alt : 40.9000015259, Lat : 49.2835704, Lng : -123.1150207, Q1 : 0.999999046326, Q2 : -1.59735427587e-05, Q3 : 0.000592043157667, Q4 : -0.00122998154256}
2019-04-14 04:27:37.81: SIM {TimeUS : 48834625, Roll : 0.03, Pitch : 0.08, Yaw : 359.85, Alt : 41.1300010681, Lat : 49.2835706, Lng : -123.1150207, Q1 : 0.999998867512, Q2 : 0.000327342975652, Q3 : 0.000725325953681, Q4 : -0.00124903570395}
2019-04-14 04:27:37.91: SIM {TimeUS : 48934585, Roll : 0.08, Pitch : 0.1, Yaw : 359.85, Alt : 41.3600006104, Lat : 49.2835706, Lng : -123.1150207, Q1 : 0.999998450279, Q2 : 0.000734482659027, Q3 : 0.000951048510615, Q4 : -0.00127553765196}
2019-04-14 04:27:38.01: SIM {TimeUS : 49034545, Roll : 0.11, Pitch : 0.13, Yaw : 359.85, Alt : 41.5999984741, Lat : 49.2835706, Lng : -123.1150207, Q1 : 0.999997973442, Q2 : 0.000985113787465, Q3 : 0.00115891208407, Q4 : -0.00129763723817}
2019-04-14 04:27:38.11: SIM {TimeUS : 49134505, Roll : 0.09, Pitch : 0.14, Yaw : 359.85, Alt : 41.8300018311, Lat : 49.2835706, Lng : -123.1150207, Q1 : 0.999997973442, Q2 : 0.000873471144587, Q3 : 0.00128492107615, Q4 : -0.00130573904607}
2019-04-14 04:27:38.21: SIM {TimeUS : 49234465, Roll : 0.05, Pitch : 0.15, Yaw : 359.84, Alt : 42.0600013733, Lat : 49.2835706, Lng : -123.1150207, Q1 : 0.999998092651, Q2 : 0.000471119157737, Q3 : 0.00137915613595, Q4 : -0.00131505308673}
2019-04-14 04:27:38.31: SIM {TimeUS : 49334425, Roll : 0.0, Pitch : 0.16, Yaw : 359.84, Alt : 42.2999992371, Lat : 49.2835706, Lng : -123.1150207, Q1 : 0.999998033047, Q2 : 5.69828662265e-05, Q3 : 0.00145810074173, Q4 : -0.00133005809039}
2019-04-14 04:27:38.41: SIM {TimeUS : 49434385, Roll : -0.01, Pitch : 0.14, Yaw : 359.84, Alt : 42.5299987793, Lat : 49.2835706, Lng : -123.1150207, Q1 : 0.999998271465, Q2 : -0.000113772701297, Q3 : 0.00127971766051, Q4 : -0.00134848244488}
2019-04-14 04:27:38.51: SIM {TimeUS : 49534345, Roll : -0.01, Pitch : 0.11, Yaw : 359.84, Alt : 42.7700004578, Lat : 49.2835706, Lng : -123.1150207, Q1 : 0.999998569489, Q2 : -0.000119277763588, Q3 : 0.000989727093838, Q4 : -0.00137193931732}
2019-04-14 04:27:38.61: SIM {TimeUS : 49634305, Roll : 0.0, Pitch : 0.11, Yaw : 359.83, Alt : 43.0, Lat : 49.2835706, Lng : -123.1150207, Q1 : 0.999998509884, Q2 : -3.67193060811e-05, Q3 : 0.000978185446002, Q4 : -0.00140502443537}
2019-04-14 04:27:38.71: SIM {TimeUS : 49734265, Roll : 0.02, Pitch : 0.13, Yaw : 359.83, Alt : 43.2400016785, Lat : 49.2835706, Lng : -123.1150207, Q1 : 0.999998271465, Q2 : 0.000247897958616, Q3 : 0.00113826815505, Q4 : -0.00145423866343}
2019-04-14 04:27:38.81: SIM {TimeUS : 49834225, Roll : 0.08, Pitch : 0.14, Yaw : 359.82, Alt : 43.4700012207, Lat : 49.2835704, Lng : -123.1150207, Q1 : 0.999997794628, Q2 : 0.000715595146175, Q3 : 0.00130730995443, Q4 : -0.0014963290887}
2019-04-14 04:27:38.91: SIM {TimeUS : 49934185, Roll : 0.12, Pitch : 0.14, Yaw : 359.82, Alt : 43.7099990845, Lat : 49.2835704, Lng : -123.1150207, Q1 : 0.999997437, Q2 : 0.00107596802991, Q3 : 0.00125311291777, Q4 : -0.00153805199079}
2019-04-14 04:27:39.01: SIM {TimeUS : 50034145, Roll : 0.12, Pitch : 0.12, Yaw : 359.82, Alt : 43.9500007629, Lat : 49.2835704, Lng : -123.1150207, Q1 : 0.99999755621, Q2 : 0.0010952813318, Q3 : 0.00109504407737, Q4 : -0.00157080776989}
2019-04-14 04:27:39.11: SIM {TimeUS : 50134105, Roll : 0.08, Pitch : 0.1, Yaw : 359.81, Alt : 44.1800003052, Lat : 49.2835704, Lng : -123.1150207, Q1 : 0.999998092651, Q2 : 0.000722815748304, Q3 : 0.000938712677453, Q4 : -0.00158081995323}
2019-04-14 04:27:39.21: SIM {TimeUS : 50234065, Roll : 0.02, Pitch : 0.09, Yaw : 359.81, Alt : 44.4199981689, Lat : 49.2835704, Lng : -123.1150207, Q1 : 0.999998390675, Q2 : 0.000202114431886, Q3 : 0.000826367584523, Q4 : -0.00158177595586}
2019-04-14 04:27:39.31: SIM {TimeUS : 50334025, Roll : -0.02, Pitch : 0.09, Yaw : 359.81, Alt : 44.6500015259, Lat : 49.2835704, Lng : -123.1150206, Q1 : 0.999998390675, Q2 : -0.000195075481315, Q3 : 0.000787882134318, Q4 : -0.00158563861623}
2019-04-14 04:27:39.41: SIM {TimeUS : 50434818, Roll : -0.05, Pitch : 0.07, Yaw : 359.81, Alt : 44.8899993896, Lat : 49.2835704, Lng : -123.1150206, Q1 : 0.999998390675, Q2 : -0.000442069926066, Q3 : 0.000670956855174, Q4 : -0.00158970919438}
2019-04-14 04:27:39.51: SIM {TimeUS : 50534778, Roll : -0.06, Pitch : 0.05, Yaw : 359.81, Alt : 45.1300010681, Lat : 49.2835704, Lng : -123.1150206, Q1 : 0.999998450279, Q2 : -0.00054861366516, Q3 : 0.00048553434317, Q4 : -0.00159012037329}
2019-04-14 04:27:39.61: SIM {TimeUS : 50634738, Roll : -0.06, Pitch : 0.02, Yaw : 359.81, Alt : 45.3600006104, Lat : 49.2835703, Lng : -123.1150206, Q1 : 0.999998509884, Q2 : -0.000554237980396, Q3 : 0.00025566961267, Q4 : -0.00160017376766}
2019-04-14 04:27:39.71: SIM {TimeUS : 50734698, Roll : -0.04, Pitch : 0.0, Yaw : 359.81, Alt : 45.5999984741, Lat : 49.2835703, Lng : -123.1150206, Q1 : 0.999998629093, Q2 : -0.000394125730963, Q3 : 3.39241123584e-05, Q4 : -0.00162499363068}
2019-04-14 04:27:39.81: SIM {TimeUS : 50834658, Roll : -0.01, Pitch : 0.0, Yaw : 359.8, Alt : 45.8300018311, Lat : 49.2835703, Lng : -123.1150206, Q1 : 0.999998629093, Q2 : -0.000132092100102, Q3 : -8.3915394498e-05, Q4 : -0.00166094047017}
2019-04-14 04:27:39.91: SIM {TimeUS : 50934618, Roll : 0.0, Pitch : -0.01, Yaw : 359.8, Alt : 46.0600013733, Lat : 49.2835703, Lng : -123.1150206, Q1 : 0.999998509884, Q2 : -3.25939327013e-05, Q3 : -8.87949863682e-05, Q4 : -0.00170554243959}
2019-04-14 04:27:40.01: SIM {TimeUS : 51034578, Roll : 0.0, Pitch : -0.01, Yaw : 359.79, Alt : 46.2900009155, Lat : 49.2835703, Lng : -123.1150205, Q1 : 0.999998450279, Q2 : -6.65728293825e-05, Q3 : -0.000136880713399, Q4 : -0.00175750476774}
2019-04-14 04:27:40.11: SIM {TimeUS : 51134538, Roll : -0.01, Pitch : -0.03, Yaw : 359.79, Alt : 46.5099983215, Lat : 49.2835703, Lng : -123.1150205, Q1 : 0.99999833107, Q2 : -0.000142652745126, Q3 : -0.000292447890388, Q4 : -0.00181455304846}
2019-04-14 04:27:40.21: SIM {TimeUS : 51234498, Roll : -0.02, Pitch : -0.04, Yaw : 359.78, Alt : 46.7299995422, Lat : 49.2835703, Lng : -123.1150205, Q1 : 0.999998152256, Q2 : -0.000225175943342, Q3 : -0.000375718140276, Q4 : -0.00186508195475}
2019-04-14 04:27:40.31: SIM {TimeUS : 51334458, Roll : -0.02, Pitch : -0.04, Yaw : 359.78, Alt : 46.9399986267, Lat : 49.2835703, Lng : -123.1150205, Q1 : 0.999998033047, Q2 : -0.000206248339964, Q3 : -0.000415873655584, Q4 : -0.00190960476175}
2019-04-14 04:27:40.41: SIM {TimeUS : 51434418, Roll : -0.02, Pitch : -0.04, Yaw : 359.77, Alt : 47.1500015259, Lat : 49.2835703, Lng : -123.1150205, Q1 : 0.999997973442, Q2 : -0.000260352389887, Q3 : -0.000419164134655, Q4 : -0.00195006700233}
2019-04-14 04:27:40.51: SIM {TimeUS : 51534378, Roll : -0.05, Pitch : -0.04, Yaw : 359.77, Alt : 47.3499984741, Lat : 49.2835703, Lng : -123.1150205, Q1 : 0.999997854233, Q2 : -0.000440784700913, Q3 : -0.000404524384066, Q4 : -0.00198576902039}
2019-04-14 04:27:40.61: SIM {TimeUS : 51634338, Roll : -0.08, Pitch : -0.04, Yaw : 359.76, Alt : 47.5400009155, Lat : 49.2835703, Lng : -123.1150205, Q1 : 0.999997615814, Q2 : -0.000719677365851, Q3 : -0.000404396530939, Q4 : -0.0020133338403}
2019-04-14 04:27:40.71: SIM {TimeUS : 51734298, Roll : -0.12, Pitch : -0.06, Yaw : 359.76, Alt : 47.7200012207, Lat : 49.2835703, Lng : -123.1150205, Q1 : 0.999997198582, Q2 : -0.00106434628833, Q3 : -0.000573768164031, Q4 : -0.00203403132036}
2019-04-14 04:27:40.81: SIM {TimeUS : 51834258, Roll : -0.15, Pitch : -0.07, Yaw : 359.76, Alt : 47.8800010681, Lat : 49.2835703, Lng : -123.1150205, Q1 : 0.999996781349, Q2 : -0.00134573981632, Q3 : -0.000675705086906, Q4 : -0.00204681744799}
2019-04-14 04:27:40.91: SIM {TimeUS : 51934218, Roll : -0.16, Pitch : -0.06, Yaw : 359.76, Alt : 48.0400009155, Lat : 49.2835703, Lng : -123.1150205, Q1 : 0.99999666214, Q2 : -0.00142559921369, Q3 : -0.000602404994424, Q4 : -0.00205638003536}
2019-04-14 04:27:41.01: SIM {TimeUS : 52034178, Roll : -0.15, Pitch : -0.05, Yaw : 359.76, Alt : 48.1800003052, Lat : 49.2835703, Lng : -123.1150205, Q1 : 0.999996900558, Q2 : -0.00131931272335, Q3 : -0.000469499849714, Q4 : -0.00206829281524}
2019-04-14 04:27:41.11: SIM {TimeUS : 52134138, Roll : -0.12, Pitch : -0.04, Yaw : 359.76, Alt : 48.3199996948, Lat : 49.2835703, Lng : -123.1150205, Q1 : 0.999997138977, Q2 : -0.00111829210073, Q3 : -0.000358344463166, Q4 : -0.00208369689062}
2019-04-14 04:27:41.21: SIM {TimeUS : 52234098, Roll : -0.1, Pitch : -0.03, Yaw : 359.75, Alt : 48.4399986267, Lat : 49.2835703, Lng : -123.1150205, Q1 : 0.999997317791, Q2 : -0.000938186247367, Q3 : -0.000305805617245, Q4 : -0.00210238504224}
2019-04-14 04:27:41.31: SIM {TimeUS : 52334058, Roll : -0.07, Pitch : -0.04, Yaw : 359.75, Alt : 48.5499992371, Lat : 49.2835703, Lng : -123.1150205, Q1 : 0.999997437, Q2 : -0.000669595436193, Q3 : -0.000379184260964, Q4 : -0.00213049119338}
2019-04-14 04:27:41.42: SIM {TimeUS : 52434851, Roll : -0.04, Pitch : -0.05, Yaw : 359.75, Alt : 48.6399993896, Lat : 49.2835703, Lng : -123.1150205, Q1 : 0.999997496605, Q2 : -0.000422227894887, Q3 : -0.000442518678028, Q4 : -0.00216128956527}
2019-04-14 04:27:41.51: SIM {TimeUS : 52534811, Roll : -0.03, Pitch : -0.06, Yaw : 359.74, Alt : 48.7299995422, Lat : 49.2835703, Lng : -123.1150205, Q1 : 0.999997437, Q2 : -0.000319435319398, Q3 : -0.000533665239345, Q4 : -0.00219132611528}
2019-04-14 04:27:41.61: SIM {TimeUS : 52634771, Roll : -0.03, Pitch : -0.07, Yaw : 359.74, Alt : 48.7999992371, Lat : 49.2835703, Lng : -123.1150205, Q1 : 0.999997258186, Q2 : -0.000335988414008, Q3 : -0.000631050090306, Q4 : -0.00222045159899}
2019-04-14 04:27:41.71: SIM {TimeUS : 52734731, Roll : -0.02, Pitch : -0.07, Yaw : 359.74, Alt : 48.8600006104, Lat : 49.2835703, Lng : -123.1150205, Q1 : 0.999997258186, Q2 : -0.000189578306163, Q3 : -0.000624444510322, Q4 : -0.00225290260278}
2019-04-14 04:27:41.81: SIM {TimeUS : 52834691, Roll : 0.0, Pitch : -0.05, Yaw : 359.73, Alt : 48.9199981689, Lat : 49.2835703, Lng : -123.1150206, Q1 : 0.999997258186, Q2 : 6.15229291725e-05, Q3 : -0.000521251640748, Q4 : -0.00228526908904}
2019-04-14 04:27:41.91: SIM {TimeUS : 52934651, Roll : 0.03, Pitch : -0.04, Yaw : 359.73, Alt : 48.9700012207, Lat : 49.2835703, Lng : -123.1150206, Q1 : 0.999997198582, Q2 : 0.000318642967613, Q3 : -0.000399139797082, Q4 : -0.00231642881408}
2019-04-14 04:27:42.01: SIM {TimeUS : 53034611, Roll : 0.08, Pitch : -0.07, Yaw : 359.73, Alt : 49.0099983215, Lat : 49.2835703, Lng : -123.1150206, Q1 : 0.999996721745, Q2 : 0.000742532487493, Q3 : -0.000664484396111, Q4 : -0.00234809494577}
2019-04-14 04:27:42.11: SIM {TimeUS : 53134571, Roll : 0.24, Pitch : -0.27, Yaw : 359.72, Alt : 49.0400009155, Lat : 49.2835703, Lng : -123.1150206, Q1 : 0.999992072582, Q2 : 0.00211000163108, Q3 : -0.00239315978251, Q4 : -0.00237685069442}
2019-04-14 04:27:42.21: SIM {TimeUS : 53234531, Roll : 0.54, Pitch : -0.71, Yaw : 359.72, Alt : 49.0699996948, Lat : 49.2835703, Lng : -123.1150206, Q1 : 0.999966323376, Q2 : 0.00469987886027, Q3 : -0.00628546113148, Q4 : -0.00240040873177}
2019-04-14 04:27:42.31: SIM {TimeUS : 53334491, Roll : 0.96, Pitch : -1.37, Yaw : 359.71, Alt : 49.0999984741, Lat : 49.2835703, Lng : -123.1150206, Q1 : 0.999889850616, Q2 : 0.00838311482221, Q3 : -0.0120082348585, Q4 : -0.00241018505767}
2019-04-14 04:27:42.41: SIM {TimeUS : 53434451, Roll : 1.5, Pitch : -2.17, Yaw : 359.69, Alt : 49.1199989319, Lat : 49.2835704, Lng : -123.1150206, Q1 : 0.999731242657, Q2 : 0.0130966603756, Q3 : -0.018981879577, Q4 : -0.00237752869725}
2019-04-14 04:27:42.51: SIM {TimeUS : 53534411, Roll : 2.09, Pitch : -3.02, Yaw : 359.68, Alt : 49.1399993896, Lat : 49.2835704, Lng : -123.1150205, Q1 : 0.999482214451, Q2 : 0.018189528957, Q3 : -0.0264406390488, Q4 : -0.00230452674441}
2019-04-14 04:27:42.61: SIM {TimeUS : 53634371, Roll : 2.62, Pitch : -3.78, Yaw : 359.66, Alt : 49.1599998474, Lat : 49.2835707, Lng : -123.1150204, Q1 : 0.999190628529, Q2 : 0.0228001791984, Q3 : -0.0330682210624, Q4 : -0.00216970779002}
2019-04-14 04:27:42.71: SIM {TimeUS : 53734331, Roll : 3.06, Pitch : -4.36, Yaw : 359.65, Alt : 49.1699981689, Lat : 49.2835708, Lng : -123.1150202, Q1 : 0.998915731907, Q2 : 0.0266203433275, Q3 : -0.0381429418921, Q4 : -0.00196389388293}
2019-04-14 04:27:42.81: SIM {TimeUS : 53834291, Roll : 3.4, Pitch : -4.79, Yaw : 359.66, Alt : 49.1800003052, Lat : 49.2835709, Lng : -123.11502, Q1 : 0.998684763908, Q2 : 0.0295569114387, Q3 : -0.0418592952192, Q4 : -0.00171441340353}
2019-04-14 04:27:42.91: SIM {TimeUS : 53934251, Roll : 3.64, Pitch : -5.12, Yaw : 359.67, Alt : 49.1899986267, Lat : 49.2835713, Lng : -123.1150199, Q1 : 0.998492479324, Q2 : 0.031657692045, Q3 : -0.0448160693049, Q4 : -0.00144538970198}
2019-04-14 04:27:43.01: SIM {TimeUS : 54034211, Roll : 3.83, Pitch : -5.43, Yaw : 359.68, Alt : 49.2000007629, Lat : 49.2835715, Lng : -123.1150195, Q1 : 0.99831789732, Q2 : 0.0333003029227, Q3 : -0.0474456585944, Q4 : -0.00116948073264}
2019-04-14 04:27:43.11: SIM {TimeUS : 54134171, Roll : 4.01, Pitch : -5.75, Yaw : 359.69, Alt : 49.2099990845, Lat : 49.283572, Lng : -123.1150191, Q1 : 0.998129248619, Q2 : 0.0348368324339, Q3 : -0.0502347424626, Q4 : -0.00092005811166}
2019-04-14 04:27:43.21: SIM {TimeUS : 54234131, Roll : 4.21, Pitch : -6.09, Yaw : 359.69, Alt : 49.2200012207, Lat : 49.2835725, Lng : -123.1150186, Q1 : 0.997915387154, Q2 : 0.0365504547954, Q3 : -0.0531843416393, Q4 : -0.000672804715578}
2019-04-14 04:27:43.31: SIM {TimeUS : 54334091, Roll : 4.4, Pitch : -6.38, Yaw : 359.7, Alt : 49.2299995422, Lat : 49.2835729, Lng : -123.1150181, Q1 : 0.997711479664, Q2 : 0.0382184572518, Q3 : -0.0557764954865, Q4 : -0.000418586045271}
2019-04-14 04:27:43.41: SIM {TimeUS : 54434051, Roll : 4.56, Pitch : -6.63, Yaw : 359.71, Alt : 49.2299995422, Lat : 49.2835735, Lng : -123.1150175, Q1 : 0.997535049915, Q2 : 0.0396154634655, Q3 : -0.057917252183, Q4 : -0.000192073857761}
2019-04-14 04:27:43.52: SIM {TimeUS : 54534844, Roll : 4.69, Pitch : -6.82, Yaw : 359.72, Alt : 49.2400016785, Lat : 49.2835741, Lng : -123.1150168, Q1 : 0.997393012047, Q2 : 0.0407131873071, Q3 : -0.059578999877, Q4 : 1.11169592856e-05}
2019-04-14 04:27:43.61: SIM {TimeUS : 54634804, Roll : 4.77, Pitch : -6.96, Yaw : 359.72, Alt : 49.2400016785, Lat : 49.2835749, Lng : -123.1150161, Q1 : 0.997293949127, Q2 : 0.041397549212, Q3 : -0.0607535764575, Q4 : 0.000162561860634}
2019-04-14 04:27:43.71: SIM {TimeUS : 54734764, Roll : 4.83, Pitch : -7.07, Yaw : 359.72, Alt : 49.25, Lat : 49.2835757, Lng : -123.1150153, Q1 : 0.997206747532, Q2 : 0.0419744290411, Q3 : -0.0617807358503, Q4 : 0.00025292247301}
2019-04-14 04:27:43.81: SIM {TimeUS : 54834724, Roll : 4.91, Pitch : -7.21, Yaw : 359.72, Alt : 49.25, Lat : 49.2835764, Lng : -123.1150144, Q1 : 0.997104525566, Q2 : 0.0426732748747, Q3 : -0.0629403293133, Q4 : 0.000299575040117}
2019-04-14 04:27:43.91: SIM {TimeUS : 54934684, Roll : 5.17, Pitch : -7.31, Yaw : 359.78, Alt : 49.25, Lat : 49.2835774, Lng : -123.1150135, Q1 : 0.996952474117, Q2 : 0.0449261069298, Q3 : -0.0637681186199, Q4 : 0.00104865408503}
2019-04-14 04:27:44.01: SIM {TimeUS : 55034644, Roll : 5.69, Pitch : -7.32, Yaw : 0.37, Alt : 49.2599983215, Lat : 49.2835782, Lng : -123.1150125, Q1 : 0.996711015701, Q2 : 0.049798861146, Q3 : -0.0636091828346, Q4 : 0.00641104858369}
2019-04-14 04:27:44.11: SIM {TimeUS : 55134604, Roll : 6.33, Pitch : -7.39, Yaw : 2.15, Alt : 49.2599983215, Lat : 49.2835792, Lng : -123.1150115, Q1 : 0.996146857738, Q2 : 0.0563787221909, Q3 : -0.0633688122034, Q4 : 0.022299066186}
2019-04-14 04:27:44.21: SIM {TimeUS : 55234564, Roll : 6.71, Pitch : -7.77, Yaw : 5.52, Alt : 49.2599983215, Lat : 49.2835802, Lng : -123.1150104, Q1 : 0.994637489319, Q2 : 0.0616554319859, Q3 : -0.064762018621, Q4 : 0.0519691258669}
2019-04-14 04:27:44.31: SIM {TimeUS : 55334524, Roll : 6.57, Pitch : -8.48, Yaw : 10.44, Alt : 49.2599983215, Lat : 49.2835812, Lng : -123.1150091, Q1 : 0.991094231606, Q2 : 0.0637146756053, Q3 : -0.0683367699385, Q4 : 0.0948828309774}
2019-04-14 04:27:44.41: SIM {TimeUS : 55434484, Roll : 5.7, Pitch : -9.45, Yaw : 16.69, Alt : 49.2599983215, Lat : 49.2835824, Lng : -123.1150078, Q1 : 0.984220027924, Q2 : 0.061011210084, Q3 : -0.0742440670729, Q4 : 0.148581266403}
2019-04-14 04:27:44.51: SIM {TimeUS : 55534444, Roll : 3.82, Pitch : -10.52, Yaw : 23.76, Alt : 49.2599983215, Lat : 49.2835836, Lng : -123.1150063, Q1 : 0.973271310329, Q2 : 0.0514073222876, Q3 : -0.0828655585647, Q4 : 0.207926869392}
2019-04-14 04:27:44.61: SIM {TimeUS : 55634404, Roll : 1.14, Pitch : -11.43, Yaw : 30.87, Alt : 49.2700004578, Lat : 49.2835848, Lng : -123.1150048, Q1 : 0.958813369274, Q2 : 0.0360994338989, Q3 : -0.0933502092957, Q4 : 0.265818476677}
2019-04-14 04:27:44.71: SIM {TimeUS : 55734364, Roll : -1.77, Pitch : -12.0, Yaw : 37.25, Alt : 49.2700004578, Lat : 49.283586, Lng : -123.1150032, Q1 : 0.942809522152, Q2 : 0.0188331790268, Q3 : -0.104019589722, Q4 : 0.316125810146}
2019-04-14 04:27:44.81: SIM {TimeUS : 55834324, Roll : -4.3, Pitch : -12.26, Yaw : 42.28, Alt : 49.2700004578, Lat : 49.2835873, Lng : -123.1150016, Q1 : 0.928129196167, Q2 : 0.00366551242769, Q3 : -0.113039821386, Q4 : 0.354661494493}
2019-04-14 04:27:44.91: SIM {TimeUS : 55934284, Roll : -6.01, Pitch : -12.33, Yaw : 45.61, Alt : 49.2700004578, Lat : 49.2835887, Lng : -123.1149999, Q1 : 0.917400538921, Q2 : -0.00645529013127, Q3 : -0.119132734835, Q4 : 0.379660308361}
2019-04-14 04:27:45.01: SIM {TimeUS : 56034244, Roll : -6.73, Pitch : -12.39, Yaw : 47.21, Alt : 49.2700004578, Lat : 49.2835903, Lng : -123.1149983, Q1 : 0.911906898022, Q2 : -0.0103355431929, Q3 : -0.122120209038, Q4 : 0.391670405865}
2019-04-14 04:27:45.11: SIM {TimeUS : 56134204, Roll : -6.55, Pitch : -12.58, Yaw : 47.32, Alt : 49.2700004578, Lat : 49.283592, Lng : -123.1149966, Q1 : 0.911421477795, Q2 : -0.00814392417669, Q3 : -0.123050265014, Q4 : 0.392559856176}
2019-04-14 04:27:45.21: SIM {TimeUS : 56234164, Roll : -5.69, Pitch : -12.98, Yaw : 46.24, Alt : 49.2700004578, Lat : 49.2835937, Lng : -123.114995, Q1 : 0.914834201336, Q2 : -0.00100416806526, Q3 : -0.12324808538, Q4 : 0.384561210871}
2019-04-14 04:27:45.31: SIM {TimeUS : 56334124, Roll : -4.39, Pitch : -13.57, Yaw : 44.29, Alt : 49.2700004578, Lat : 49.2835956, Lng : -123.1149933, Q1 : 0.920741260052, Q2 : 0.00929055549204, Q3 : -0.12373495847, Q4 : 0.369917422533}
2019-04-14 04:27:45.41: SIM {TimeUS : 56434084, Roll : -2.86, Pitch : -14.23, Yaw : 41.78, Alt : 49.2700004578, Lat : 49.2835975, Lng : -123.1149916, Q1 : 0.927860379219, Q2 : 0.0209832098335, Q3 : -0.124584592879, Q4 : 0.350875377655}
2019-04-14 04:27:45.51: SIM {TimeUS : 56534044, Roll : -1.27, Pitch : -14.85, Yaw : 39.01, Alt : 49.2799987793, Lat : 49.2835995, Lng : -123.1149898, Q1 : 0.935122072697, Q2 : 0.0327215716243, Q3 : -0.125502049923, Q4 : 0.329735159874}
2019-04-14 04:27:45.62: SIM {TimeUS : 56634837, Roll : 0.23, Pitch : -15.3, Yaw : 36.26, Alt : 49.2799987793, Lat : 49.2836014, Lng : -123.1149879, Q1 : 0.941772341728, Q2 : 0.0433712825179, Q3 : -0.125959634781, Q4 : 0.308736205101}
2019-04-14 04:27:45.71: SIM {TimeUS : 56734797, Roll : 1.5, Pitch : -15.56, Yaw : 33.89, Alt : 49.2799987793, Lat : 49.2836036, Lng : -123.1149859, Q1 : 0.947161793709, Q2 : 0.0518827140331, Q3 : -0.125750809908, Q4 : 0.290481418371}
2019-04-14 04:27:45.81: SIM {TimeUS : 56834757, Roll : 2.42, Pitch : -15.65, Yaw : 32.07, Alt : 49.2799987793, Lat : 49.2836057, Lng : -123.1149839, Q1 : 0.951102018356, Q2 : 0.0577874779701, Q3 : -0.125096976757, Q4 : 0.276435017586}
2019-04-14 04:27:45.91: SIM {TimeUS : 56934717, Roll : 2.94, Pitch : -15.64, Yaw : 30.93, Alt : 49.2799987793, Lat : 49.283608, Lng : -123.1149817, Q1 : 0.953579366207, Q2 : 0.0607754476368, Q3 : -0.124319583178, Q4 : 0.26746481657}
2019-04-14 04:27:46.01: SIM {TimeUS : 57034677, Roll : 3.05, Pitch : -15.59, Yaw : 30.46, Alt : 49.2799987793, Lat : 49.2836102, Lng : -123.1149794, Q1 : 0.954660177231, Q2 : 0.0610913559794, Q3 : -0.123917542398, Q4 : 0.263697475195}
2019-04-14 04:27:46.11: SIM {TimeUS : 57134637, Roll : 2.8, Pitch : -15.58, Yaw : 30.6, Alt : 49.2799987793, Lat : 49.2836124, Lng : -123.114977, Q1 : 0.954467117786, Q2 : 0.0591823421419, Q3 : -0.124331779778, Q4 : 0.264634907246}
2019-04-14 04:27:46.21: SIM {TimeUS : 57234597, Roll : 2.27, Pitch : -15.63, Yaw : 31.24, Alt : 49.2799987793, Lat : 49.2836147, Lng : -123.1149745, Q1 : 0.953197360039, Q2 : 0.0555732920766, Q3 : -0.125657826662, Q4 : 0.269326120615}
2019-04-14 04:27:46.31: SIM {TimeUS : 57334557, Roll : 1.57, Pitch : -15.73, Yaw : 32.21, Alt : 49.2799987793, Lat : 49.2836171, Lng : -123.114972, Q1 : 0.951091945171, Q2 : 0.0510409884155, Q3 : -0.127731993794, Q4 : 0.276592642069}
2019-04-14 04:27:46.41: SIM {TimeUS : 57434517, Roll : 0.79, Pitch : -15.87, Yaw : 33.35, Alt : 49.2799987793, Lat : 49.2836195, Lng : -123.1149693, Q1 : 0.948453307152, Q2 : 0.04625306651, Q3 : -0.130314707756, Q4 : 0.285158127546}
2019-04-14 04:27:46.51: SIM {TimeUS : 57534477, Roll : 0.06, Pitch : -16.02, Yaw : 34.51, Alt : 49.2799987793, Lat : 49.283622, Lng : -123.1149666, Q1 : 0.945632040501, Q2 : 0.0418698675931, Q3 : -0.132942169905, Q4 : 0.293859392405}
2019-04-14 04:27:46.61: SIM {TimeUS : 57634437, Roll : -0.56, Pitch : -16.14, Yaw : 35.56, Alt : 49.2799987793, Lat : 49.2836244, Lng : -123.1149639, Q1 : 0.942982256413, Q2 : 0.0382728427649, Q3 : -0.13521361351, Q4 : 0.301723182201}
2019-04-14 04:27:46.71: SIM {TimeUS : 57734397, Roll : -1.01, Pitch : -16.23, Yaw : 36.4, Alt : 49.2799987793, Lat : 49.2836269, Lng : -123.114961, Q1 : 0.940801143646, Q2 : 0.0357365868986, Q3 : -0.136840775609, Q4 : 0.308043479919}
2019-04-14 04:27:46.81: SIM {TimeUS : 57834357, Roll : -1.27, Pitch : -16.27, Yaw : 36.97, Alt : 49.2799987793, Lat : 49.2836296, Lng : -123.1149583, Q1 : 0.939273178577, Q2 : 0.0344837605953, Q3 : -0.137755677104, Q4 : 0.31241029501}
2019-04-14 04:27:46.91: SIM {TimeUS : 57934317, Roll : -1.33, Pitch : -16.32, Yaw : 37.26, Alt : 49.2799987793, Lat : 49.2836322, Lng : -123.1149555, Q1 : 0.938455104828, Q2 : 0.0344204492867, Q3 : -0.138211548328, Q4 : 0.314666152}
2019-04-14 04:27:47.01: SIM {TimeUS : 58034277, Roll : -1.24, Pitch : -16.37, Yaw : 37.28, Alt : 49.2799987793, Lat : 49.2836348, Lng : -123.1149526, Q1 : 0.938310980797, Q2 : 0.0353250540793, Q3 : -0.138353303075, Q4 : 0.314933329821}
2019-04-14 04:27:47.11: SIM {TimeUS : 58134237, Roll : -1.05, Pitch : -16.42, Yaw : 37.08, Alt : 49.2799987793, Lat : 49.2836376, Lng : -123.1149498, Q1 : 0.938731610775, Q2 : 0.0368265062571, Q3 : -0.138349205256, Q4 : 0.313506454229}
2019-04-14 04:27:47.21: SIM {TimeUS : 58234197, Roll : -0.78, Pitch : -16.47, Yaw : 36.72, Alt : 49.2799987793, Lat : 49.2836403, Lng : -123.1149468, Q1 : 0.939579427242, Q2 : 0.0386765599251, Q3 : -0.138096481562, Q4 : 0.31084394455}
2019-04-14 04:27:47.31: SIM {TimeUS : 58334157, Roll : -0.47, Pitch : -16.49, Yaw : 36.26, Alt : 49.2799987793, Lat : 49.2836432, Lng : -123.1149439, Q1 : 0.940673112869, Q2 : 0.04076718539, Q3 : -0.137633413076, Q4 : 0.307456076145}
2019-04-14 04:27:47.41: SIM {TimeUS : 58434117, Roll : -0.17, Pitch : -16.52, Yaw : 35.78, Alt : 49.2799987793, Lat : 49.283646, Lng : -123.1149409, Q1 : 0.941834867001, Q2 : 0.0427100807428, Q3 : -0.137204602361, Q4 : 0.303805738688}
2019-04-14 04:27:47.51: SIM {TimeUS : 58534077, Roll : 0.1, Pitch : -16.55, Yaw : 35.32, Alt : 49.2900009155, Lat : 49.2836488, Lng : -123.1149379, Q1 : 0.942895770073, Q2 : 0.0445803329349, Q3 : -0.136908456683, Q4 : 0.300360262394}
2019-04-14 04:27:47.61: SIM {TimeUS : 58634037, Roll : 0.36, Pitch : -16.57, Yaw : 34.93, Alt : 49.2900009155, Lat : 49.2836518, Lng : -123.1149348, Q1 : 0.943774402142, Q2 : 0.0462794490159, Q3 : -0.136574760079, Q4 : 0.297481805086}
2019-04-14 04:27:47.72: SIM {TimeUS : 58734830, Roll : 0.54, Pitch : -16.59, Yaw : 34.65, Alt : 49.2900009155, Lat : 49.2836547, Lng : -123.1149317, Q1 : 0.944425880909, Q2 : 0.0474488772452, Q3 : -0.136349156499, Q4 : 0.295325726271}
2019-04-14 04:27:47.81: SIM {TimeUS : 58834790, Roll : 0.61, Pitch : -16.62, Yaw : 34.47, Alt : 49.2900009155, Lat : 49.2836576, Lng : -123.1149286, Q1 : 0.944794416428, Q2 : 0.0479499995708, Q3 : -0.13649058342, Q4 : 0.29399767518}
2019-04-14 04:27:47.91: SIM {TimeUS : 58934750, Roll : 0.6, Pitch : -16.68, Yaw : 34.42, Alt : 49.2900009155, Lat : 49.2836606, Lng : -123.1149254, Q1 : 0.944877624512, Q2 : 0.0479155927896, Q3 : -0.137035191059, Q4 : 0.293482005596}
2019-04-14 04:27:48.01: SIM {TimeUS : 59034710, Roll : 0.52, Pitch : -16.74, Yaw : 34.46, Alt : 49.2900009155, Lat : 49.2836634, Lng : -123.1149222, Q1 : 0.944729328156, Q2 : 0.0474616885185, Q3 : -0.137772485614, Q4 : 0.293687969446}
2019-04-14 04:27:48.11: SIM {TimeUS : 59134670, Roll : 0.39, Pitch : -16.8, Yaw : 34.57, Alt : 49.2900009155, Lat : 49.2836664, Lng : -123.114919, Q1 : 0.944420218468, Q2 : 0.0466789677739, Q3 : -0.138523712754, Q4 : 0.294453382492}
2019-04-14 04:27:48.21: SIM {TimeUS : 59234630, Roll : 0.25, Pitch : -16.85, Yaw : 34.73, Alt : 49.2900009155, Lat : 49.2836694, Lng : -123.1149157, Q1 : 0.943995535374, Q2 : 0.0458410717547, Q3 : -0.139242470264, Q4 : 0.295605570078}
2019-04-14 04:27:48.31: SIM {TimeUS : 59334590, Roll : 0.12, Pitch : -16.9, Yaw : 34.92, Alt : 49.2900009155, Lat : 49.2836724, Lng : -123.1149124, Q1 : 0.943518698215, Q2 : 0.04509171471, Q3 : -0.13987134397, Q4 : 0.296943068504}
2019-04-14 04:27:48.41: SIM {TimeUS : 59434550, Roll : 0.0, Pitch : -16.93, Yaw : 35.09, Alt : 49.2900009155, Lat : 49.2836755, Lng : -123.1149091, Q1 : 0.943063557148, Q2 : 0.0444062016904, Q3 : -0.140372365713, Q4 : 0.298252910376}
2019-04-14 04:27:48.51: SIM {TimeUS : 59534510, Roll : -0.07, Pitch : -16.95, Yaw : 35.25, Alt : 49.2900009155, Lat : 49.2836785, Lng : -123.1149058, Q1 : 0.942671835423, Q2 : 0.0440207645297, Q3 : -0.140689179301, Q4 : 0.29939699173}
2019-04-14 04:27:48.61: SIM {TimeUS : 59634470, Roll : -0.11, Pitch : -16.97, Yaw : 35.36, Alt : 49.2900009155, Lat : 49.2836816, Lng : -123.1149025, Q1 : 0.942364275455, Q2 : 0.043924048543, Q3 : -0.140947058797, Q4 : 0.300256848335}
2019-04-14 04:27:48.71: SIM {TimeUS : 59734430, Roll : -0.12, Pitch : -17.0, Yaw : 35.42, Alt : 49.2900009155, Lat : 49.2836847, Lng : -123.1148991, Q1 : 0.942169845104, Q2 : 0.043937318027, Q3 : -0.141175597906, Q4 : 0.300757288933}
2019-04-14 04:27:48.81: SIM {TimeUS : 59834390, Roll : -0.12, Pitch : -17.02, Yaw : 35.44, Alt : 49.2999992371, Lat : 49.2836878, Lng : -123.1148957, Q1 : 0.942093849182, Q2 : 0.044019844383, Q3 : -0.141362279654, Q4 : 0.300895661116}
2019-04-14 04:27:48.91: SIM {TimeUS : 59934350, Roll : -0.11, Pitch : -17.05, Yaw : 35.42, Alt : 49.2999992371, Lat : 49.2836911, Lng : -123.1148923, Q1 : 0.942109465599, Q2 : 0.044198833406, Q3 : -0.141571342945, Q4 : 0.300722151995}
2019-04-14 04:27:49.01: SIM {TimeUS : 60034310, Roll : -0.08, Pitch : -17.09, Yaw : 35.36, Alt : 49.2999992371, Lat : 49.2836942, Lng : -123.1148889, Q1 : 0.94220495224, Q2 : 0.0444442257285, Q3 : -0.141799971461, Q4 : 0.300278753042}
2019-04-14 04:27:49.11: SIM {TimeUS : 60134270, Roll : -0.06, Pitch : -17.12, Yaw : 35.28, Alt : 49.2999992371, Lat : 49.2836974, Lng : -123.1148855, Q1 : 0.942367732525, Q2 : 0.0445879660547, Q3 : -0.142052426934, Q4 : 0.299626559019}
2019-04-14 04:27:49.21: SIM {TimeUS : 60234230, Roll : -0.04, Pitch : -17.14, Yaw : 35.19, Alt : 49.2999992371, Lat : 49.2837005, Lng : -123.1148821, Q1 : 0.942577600479, Q2 : 0.0446939431131, Q3 : -0.142203047872, Q4 : 0.298878312111}
2019-04-14 04:27:49.31: SIM {TimeUS : 60334190, Roll : -0.02, Pitch : -17.16, Yaw : 35.09, Alt : 49.2999992371, Lat : 49.2837036, Lng : -123.1148786, Q1 : 0.942791163921, Q2 : 0.0448177196085, Q3 : -0.142346963286, Q4 : 0.29811668396}
2019-04-14 04:27:49.41: SIM {TimeUS : 60434150, Roll : 0.02, Pitch : -17.19, Yaw : 35.0, Alt : 49.2999992371, Lat : 49.283707, Lng : -123.1148751, Q1 : 0.942963540554, Q2 : 0.045140247792, Q3 : -0.142552360892, Q4 : 0.297423928976}
2019-04-14 04:27:49.51: SIM {TimeUS : 60534110, Roll : 0.07, Pitch : -17.23, Yaw : 34.93, Alt : 49.2999992371, Lat : 49.2837101, Lng : -123.1148716, Q1 : 0.943092644215, Q2 : 0.045568998903, Q3 : -0.142758607864, Q4 : 0.296849727631}
2019-04-14 04:27:49.61: SIM {TimeUS : 60634070, Roll : 0.13, Pitch : -17.27, Yaw : 34.87, Alt : 49.2999992371, Lat : 49.2837133, Lng : -123.1148681, Q1 : 0.943174481392, Q2 : 0.046082675457, Q3 : -0.142957299948, Q4 : 0.296414345503}
2019-04-14 04:27:49.71: SIM {TimeUS : 60734030, Roll : 0.18, Pitch : -17.31, Yaw : 34.83, Alt : 49.3100013733, Lat : 49.2837166, Lng : -123.1148646, Q1 : 0.943207740784, Q2 : 0.0466095581651, Q3 : -0.143179610372, Q4 : 0.296118766069}
2019-04-14 04:27:49.82: SIM {TimeUS : 60834823, Roll : 0.21, Pitch : -17.35, Yaw : 34.8, Alt : 49.3100013733, Lat : 49.2837199, Lng : -123.1148611, Q1 : 0.943217217922, Q2 : 0.046907890588, Q3 : -0.143392369151, Q4 : 0.295938491821}
2019-04-14 04:27:49.91: SIM {TimeUS : 60934783, Roll : 0.2, Pitch : -17.35, Yaw : 34.79, Alt : 49.3100013733, Lat : 49.2837232, Lng : -123.1148575, Q1 : 0.943238973618, Q2 : 0.0468214936554, Q3 : -0.143465340137, Q4 : 0.295847415924}
2019-04-14 04:27:50.01: SIM {TimeUS : 61034743, Roll : 0.16, Pitch : -17.35, Yaw : 34.79, Alt : 49.3100013733, Lat : 49.2837265, Lng : -123.114854, Q1 : 0.943251132965, Q2 : 0.0464800074697, Q3 : -0.143565401435, Q4 : 0.295814067125}
2019-04-14 04:27:50.11: SIM {TimeUS : 61134703, Roll : 0.12, Pitch : -17.35, Yaw : 34.8, Alt : 49.3100013733, Lat : 49.2837297, Lng : -123.1148504, Q1 : 0.943236768246, Q2 : 0.0461890399456, Q3 : -0.143669605255, Q4 : 0.2958548069}
2019-04-14 04:27:50.21: SIM {TimeUS : 61234663, Roll : 0.1, Pitch : -17.37, Yaw : 34.82, Alt : 49.3100013733, Lat : 49.2837331, Lng : -123.1148468, Q1 : 0.943187177181, Q2 : 0.0460428074002, Q3 : -0.143875658512, Q4 : 0.295935451984}
2019-04-14 04:27:50.31: SIM {TimeUS : 61334623, Roll : 0.1, Pitch : -17.41, Yaw : 34.83, Alt : 49.3100013733, Lat : 49.2837363, Lng : -123.1148432, Q1 : 0.943098127842, Q2 : 0.0461971387267, Q3 : -0.144198566675, Q4 : 0.29603806138}
2019-04-14 04:27:50.41: SIM {TimeUS : 61434583, Roll : 0.12, Pitch : -17.47, Yaw : 34.84, Alt : 49.3100013733, Lat : 49.2837397, Lng : -123.1148396, Q1 : 0.942991137505, Q2 : 0.0464916005731, Q3 : -0.144656479359, Q4 : 0.296109467745}
2019-04-14 04:27:50.51: SIM {TimeUS : 61534543, Roll : 0.12, Pitch : -17.51, Yaw : 34.84, Alt : 49.3100013733, Lat : 49.283743, Lng : -123.114836, Q1 : 0.942939579487, Q2 : 0.0466004349291, Q3 : -0.144932329655, Q4 : 0.296121627092}
2019-04-14 04:27:50.61: SIM {TimeUS : 61634503, Roll : 0.12, Pitch : -17.51, Yaw : 34.84, Alt : 49.3199996948, Lat : 49.2837463, Lng : -123.1148324, Q1 : 0.942949295044, Q2 : 0.0465941019356, Q3 : -0.144938334823, Q4 : 0.296088695526}
2019-04-14 04:27:50.71: SIM {TimeUS : 61734463, Roll : 0.11, Pitch : -17.51, Yaw : 34.83, Alt : 49.3199996948, Lat : 49.2837496, Lng : -123.1148288, Q1 : 0.942973911762, Q2 : 0.0465530008078, Q3 : -0.145006939769, Q4 : 0.295983105898}
2019-04-14 04:27:50.81: SIM {TimeUS : 61834423, Roll : 0.1, Pitch : -17.54, Yaw : 34.81, Alt : 49.3199996948, Lat : 49.283753, Lng : -123.1148252, Q1 : 0.942989170551, Q2 : 0.0464970357716, Q3 : -0.145281866193, Q4 : 0.295808553696}
2019-04-14 04:27:50.91: SIM {TimeUS : 61934383, Roll : 0.1, Pitch : -17.57, Yaw : 34.79, Alt : 49.3199996948, Lat : 49.2837563, Lng : -123.1148215, Q1 : 0.94300955534, Q2 : 0.0465226955712, Q3 : -0.145494863391, Q4 : 0.295634716749}
2019-04-14 04:27:51.01: SIM {TimeUS : 62034343, Roll : 0.1, Pitch : -17.59, Yaw : 34.77, Alt : 49.3199996948, Lat : 49.2837598, Lng : -123.1148179, Q1 : 0.943035781384, Q2 : 0.0465870201588, Q3 : -0.145683273673, Q4 : 0.295448005199}
2019-04-14 04:27:51.11: SIM {TimeUS : 62134303, Roll : 0.11, Pitch : -17.61, Yaw : 34.75, Alt : 49.3199996948, Lat : 49.283763, Lng : -123.1148142, Q1 : 0.943070650101, Q2 : 0.0466782338917, Q3 : -0.14580745995, Q4 : 0.295261055231}
2019-04-14 04:27:51.21: SIM {TimeUS : 62234263, Roll : 0.13, Pitch : -17.62, Yaw : 34.72, Alt : 49.3199996948, Lat : 49.2837665, Lng : -123.1148106, Q1 : 0.943105399609, Q2 : 0.0468544960022, Q3 : -0.145906075835, Q4 : 0.295073449612}
2019-04-14 04:27:51.31: SIM {TimeUS : 62334223, Roll : 0.15, Pitch : -17.63, Yaw : 34.7, Alt : 49.3199996948, Lat : 49.2837698, Lng : -123.1148069, Q1 : 0.943155527115, Q2 : 0.0470111370087, Q3 : -0.145902484655, Q4 : 0.29488992691}
2019-04-14 04:27:51.41: SIM {TimeUS : 62434183, Roll : 0.18, Pitch : -17.63, Yaw : 34.67, Alt : 49.3199996948, Lat : 49.2837733, Lng : -123.1148032, Q1 : 0.943201720715, Q2 : 0.0471887886524, Q3 : -0.145895928144, Q4 : 0.294717073441}
2019-04-14 04:27:51.51: SIM {TimeUS : 62534143, Roll : 0.2, Pitch : -17.65, Yaw : 34.65, Alt : 49.3199996948, Lat : 49.2837767, Lng : -123.1147996, Q1 : 0.943231582642, Q2 : 0.0473861433566, Q3 : -0.14595477283, Q4 : 0.294560551643}
2019-04-14 04:27:51.61: SIM {TimeUS : 62634103, Roll : 0.2, Pitch : -17.68, Yaw : 34.63, Alt : 49.3199996948, Lat : 49.2837801, Lng : -123.1147959, Q1 : 0.943233847618, Q2 : 0.0474467985332, Q3 : -0.14625672996, Q4 : 0.294393777847}
2019-04-14 04:27:51.71: SIM {TimeUS : 62734063, Roll : 0.18, Pitch : -17.72, Yaw : 34.62, Alt : 49.3199996948, Lat : 49.2837835, Lng : -123.1147922, Q1 : 0.943230330944, Q2 : 0.0473397374153, Q3 : -0.146661564708, Q4 : 0.294220805168}
2019-04-14 04:27:51.81: SIM {TimeUS : 62834023, Roll : 0.15, Pitch : -17.77, Yaw : 34.6, Alt : 49.3199996948, Lat : 49.2837869, Lng : -123.1147885, Q1 : 0.943217933178, Q2 : 0.0472430773079, Q3 : -0.147085636854, Q4 : 0.294064372778}
2019-04-14 04:27:51.91: SIM {TimeUS : 62934816, Roll : 0.16, Pitch : -17.8, Yaw : 34.59, Alt : 49.3199996948, Lat : 49.2837904, Lng : -123.1147847, Q1 : 0.943202733994, Q2 : 0.047338295728, Q3 : -0.14735224843, Q4 : 0.293964356184}
2019-04-14 04:27:52.01: SIM {TimeUS : 63034776, Roll : 0.17, Pitch : -17.81, Yaw : 34.58, Alt : 49.3199996948, Lat : 49.2837939, Lng : -123.114781, Q1 : 0.943211078644, Q2 : 0.0474955290556, Q3 : -0.147382572293, Q4 : 0.293897002935}
2019-04-14 04:27:52.11: SIM {TimeUS : 63134736, Roll : 0.19, Pitch : -17.79, Yaw : 34.57, Alt : 49.3300018311, Lat : 49.2837972, Lng : -123.1147773, Q1 : 0.943263530731, Q2 : 0.0475426614285, Q3 : -0.147144109011, Q4 : 0.29384046793}
2019-04-14 04:27:52.21: SIM {TimeUS : 63234696, Roll : 0.18, Pitch : -17.77, Yaw : 34.56, Alt : 49.3300018311, Lat : 49.2838007, Lng : -123.1147736, Q1 : 0.943309128284, Q2 : 0.0474448651075, Q3 : -0.147020608187, Q4 : 0.29377168417}
2019-04-14 04:27:52.31: SIM {TimeUS : 63334656, Roll : 0.17, Pitch : -17.76, Yaw : 34.55, Alt : 49.3300018311, Lat : 49.2838042, Lng : -123.1147698, Q1 : 0.943346202374, Q2 : 0.0473131388426, Q3 : -0.146984681487, Q4 : 0.293691933155}
2019-04-14 04:27:52.41: SIM {TimeUS : 63434616, Roll : 0.16, Pitch : -17.75, Yaw : 34.54, Alt : 49.3300018311, Lat : 49.2838076, Lng : -123.1147661, Q1 : 0.943382680416, Q2 : 0.0472151823342, Q3 : -0.146945461631, Q4 : 0.293610066175}
2019-04-14 04:27:52.51: SIM {TimeUS : 63534576, Roll : 0.16, Pitch : -17.77, Yaw : 34.53, Alt : 49.3300018311, Lat : 49.2838111, Lng : -123.1147623, Q1 : 0.943394720554, Q2 : 0.0471731573343, Q3 : -0.147078230977, Q4 : 0.293511807919}
2019-04-14 04:27:52.61: SIM {TimeUS : 63634536, Roll : 0.16, Pitch : -17.79, Yaw : 34.52, Alt : 49.3300018311, Lat : 49.2838146, Lng : -123.1147585, Q1 : 0.94339376688, Q2 : 0.0472214967012, Q3 : -0.147258251905, Q4 : 0.293416768312}
2019-04-14 04:27:52.71: SIM {TimeUS : 63734496, Roll : 0.15, Pitch : -17.82, Yaw : 34.51, Alt : 49.3300018311, Lat : 49.2838181, Lng : -123.1147548, Q1 : 0.943375647068, Q2 : 0.047253716737, Q3 : -0.147582143545, Q4 : 0.293306916952}
2019-04-14 04:27:52.81: SIM {TimeUS : 63834456, Roll : 0.15, Pitch : -17.87, Yaw : 34.5, Alt : 49.3300018311, Lat : 49.2838215, Lng : -123.1147511, Q1 : 0.943345606327, Q2 : 0.0473311655223, Q3 : -0.147971719503, Q4 : 0.293194890022}
2019-04-14 04:27:52.91: SIM {TimeUS : 63934416, Roll : 0.16, Pitch : -17.91, Yaw : 34.49, Alt : 49.3300018311, Lat : 49.283825, Lng : -123.1147473, Q1 : 0.94331818819, Q2 : 0.0475016050041, Q3 : -0.148287087679, Q4 : 0.293096274137}
2019-04-14 04:27:53.01: SIM {TimeUS : 64034376, Roll : 0.16, Pitch : -17.94, Yaw : 34.48, Alt : 49.3300018311, Lat : 49.2838286, Lng : -123.1147435, Q1 : 0.94330406189, Q2 : 0.0475594289601, Q3 : -0.148578077555, Q4 : 0.292984753847}
2019-04-14 04:27:53.11: SIM {TimeUS : 64134336, Roll : 0.16, Pitch : -17.97, Yaw : 34.47, Alt : 49.3300018311, Lat : 49.2838321, Lng : -123.1147397, Q1 : 0.943306565285, Q2 : 0.0475949831307, Q3 : -0.148757100105, Q4 : 0.292880266905}
2019-04-14 04:27:53.21: SIM {TimeUS : 64234296, Roll : 0.17, Pitch : -17.96, Yaw : 34.46, Alt : 49.3300018311, Lat : 49.2838355, Lng : -123.114736, Q1 : 0.943341553211, Q2 : 0.0476894192398, Q3 : -0.148650810122, Q4 : 0.292806088924}
2019-04-14 04:27:53.31: SIM {TimeUS : 64334256, Roll : 0.2, Pitch : -17.96, Yaw : 34.44, Alt : 49.3300018311, Lat : 49.283839, Lng : -123.1147322, Q1 : 0.94336271286, Q2 : 0.047883823514, Q3 : -0.14858739078, Q4 : 0.292738229036}
2019-04-14 04:27:53.41: SIM {TimeUS : 64434216, Roll : 0.21, Pitch : -17.97, Yaw : 34.43, Alt : 49.3300018311, Lat : 49.2838426, Lng : -123.1147284, Q1 : 0.943375349045, Q2 : 0.0479749962687, Q3 : -0.148664534092, Q4 : 0.292643547058}
2019-04-14 04:27:53.51: SIM {TimeUS : 64534176, Roll : 0.22, Pitch : -17.97, Yaw : 34.42, Alt : 49.3400001526, Lat : 49.2838461, Lng : -123.1147246, Q1 : 0.943394243717, Q2 : 0.0480635203421, Q3 : -0.148686304688, Q4 : 0.292556911707}
2019-04-14 04:27:53.61: SIM {TimeUS : 64634136, Roll : 0.22, Pitch : -17.97, Yaw : 34.41, Alt : 49.3400001526, Lat : 49.2838497, Lng : -123.1147208, Q1 : 0.94342559576, Q2 : 0.0481017753482, Q3 : -0.148632481694, Q4 : 0.292476922274}
2019-04-14 04:27:53.71: SIM {TimeUS : 64734096, Roll : 0.22, Pitch : -17.96, Yaw : 34.4, Alt : 49.3400001526, Lat : 49.2838531, Lng : -123.114717, Q1 : 0.943460702896, Q2 : 0.0480591021478, Q3 : -0.148590296507, Q4 : 0.292392134666}
2019-04-14 04:27:53.81: SIM {TimeUS : 64834056, Roll : 0.2, Pitch : -17.98, Yaw : 34.39, Alt : 49.3400001526, Lat : 49.2838567, Lng : -123.1147132, Q1 : 0.943471193314, Q2 : 0.04791874066, Q3 : -0.148783266544, Q4 : 0.292283117771}
2019-04-14 04:27:53.92: SIM {TimeUS : 64934849, Roll : 0.17, Pitch : -18.01, Yaw : 34.38, Alt : 49.3400001526, Lat : 49.2838603, Lng : -123.1147094, Q1 : 0.943459391594, Q2 : 0.0477386042476, Q3 : -0.149158999324, Q4 : 0.292159199715}
2019-04-14 04:27:54.01: SIM {TimeUS : 65034809, Roll : 0.16, Pitch : -18.02, Yaw : 34.37, Alt : 49.3400001526, Lat : 49.2838638, Lng : -123.1147056, Q1 : 0.943480372429, Q2 : 0.0476306974888, Q3 : -0.149218916893, Q4 : 0.29207855463}
2019-04-14 04:27:54.11: SIM {TimeUS : 65134769, Roll : 0.17, Pitch : -18.0, Yaw : 34.36, Alt : 49.3400001526, Lat : 49.2838673, Lng : -123.1147017, Q1 : 0.94351965189, Q2 : 0.0476738810539, Q3 : -0.149032354355, Q4 : 0.292039752007}
2019-04-14 04:27:54.21: SIM {TimeUS : 65234729, Roll : 0.19, Pitch : -17.98, Yaw : 34.36, Alt : 49.3400001526, Lat : 49.2838708, Lng : -123.1146979, Q1 : 0.94354981184, Q2 : 0.0478035695851, Q3 : -0.148853689432, Q4 : 0.292012393475}
2019-04-14 04:27:54.31: SIM {TimeUS : 65334689, Roll : 0.2, Pitch : -17.99, Yaw : 34.35, Alt : 49.3400001526, Lat : 49.2838743, Lng : -123.1146941, Q1 : 0.943554580212, Q2 : 0.0478787720203, Q3 : -0.148923829198, Q4 : 0.291948735714}
2019-04-14 04:27:54.41: SIM {TimeUS : 65434649, Roll : 0.19, Pitch : -18.02, Yaw : 34.34, Alt : 49.3400001526, Lat : 49.2838779, Lng : -123.1146903, Q1 : 0.94354480505, Q2 : 0.0478179939091, Q3 : -0.149184763432, Q4 : 0.29185706377}
2019-04-14 04:27:54.51: SIM {TimeUS : 65534609, Roll : 0.16, Pitch : -18.05, Yaw : 34.33, Alt : 49.3400001526, Lat : 49.2838815, Lng : -123.1146865, Q1 : 0.943536698818, Q2 : 0.0476565212011, Q3 : -0.149507433176, Q4 : 0.29174464941}
2019-04-14 04:27:54.61: SIM {TimeUS : 65634569, Roll : 0.14, Pitch : -18.07, Yaw : 34.32, Alt : 49.3400001526, Lat : 49.2838851, Lng : -123.1146826, Q1 : 0.943537414074, Q2 : 0.0475866831839, Q3 : -0.149733185768, Q4 : 0.291637897491}
2019-04-14 04:27:54.71: SIM {TimeUS : 65734529, Roll : 0.15, Pitch : -18.1, Yaw : 34.31, Alt : 49.3400001526, Lat : 49.2838887, Lng : -123.1146788, Q1 : 0.943534612656, Q2 : 0.0476596541703, Q3 : -0.149908557534, Q4 : 0.291544854641}
2019-04-14 04:27:54.81: SIM {TimeUS : 65834489, Roll : 0.16, Pitch : -18.11, Yaw : 34.3, Alt : 49.3400001526, Lat : 49.2838921, Lng : -123.114675, Q1 : 0.943535327911, Q2 : 0.0477649457753, Q3 : -0.150029823184, Q4 : 0.291462868452}
