2019-04-14 05:38:54.80: SIM {TimeUS : 40016487, Roll : 0.0, Pitch : 0.0, Yaw : 0.0, Alt : 30.1000003815, Lat : 49.28357, Lng : -123.11502, Q1 : 1.0, Q2 : 0.0, Q3 : 0.0, Q4 : 0.0}
2019-04-14 05:38:54.91: SIM {TimeUS : 40135606, Roll : 0.0, Pitch : 0.0, Yaw : 0.0, Alt : 30.1000003815, Lat : 49.28357, Lng : -123.11502, Q1 : 1.0, Q2 : 0.0, Q3 : 0.0, Q4 : 0.0}
2019-04-14 05:38:55.01: SIM {TimeUS : 40235566, Roll : 0.0, Pitch : 0.0, Yaw : 0.0, Alt : 30.1000003815, Lat : 49.28357, Lng : -123.11502, Q1 : 1.0, Q2 : 0.0, Q3 : 0.0, Q4 : 0.0}
2019-04-14 05:38:55.11: SIM {TimeUS : 40335526, Roll : 0.0, Pitch : 0.0, Yaw : 0.0, Alt : 30.1000003815, Lat : 49.28357, Lng : -123.11502, Q1 : 1.0, Q2 : 0.0, Q3 : 0.0, Q4 : 0.0}
2019-04-14 05:38:55.21: SIM {TimeUS : 40435486, Roll : 0.0, Pitch : 0.0, Yaw : 0.0, Alt : 30.1000003815, Lat : 49.28357, Lng : -123.11502, Q1 : 1.0, Q2 : 0.0, Q3 : 0.0, Q4 : 0.0}
2019-04-14 05:38:55.31: SIM {TimeUS : 40535446, Roll : 0.0, Pitch : 0.0, Yaw : 0.0, Alt : 30.1000003815, Lat : 49.28357, Lng : -123.11502, Q1 : 1.0, Q2 : 0.0, Q3 : 0.0, Q4 : 0.0}
2019-04-14 05:38:55.41: SIM {TimeUS : 40635406, Roll : 0.0, Pitch : 0.0, Yaw : 0.0, Alt : 30.1000003815, Lat : 49.28357, Lng : -123.11502, Q1 : 1.0, Q2 : 0.0, Q3 : 0.0, Q4 : 0.0}
2019-04-14 05:38:55.51: SIM {TimeUS : 40735366, Roll : 0.0, Pitch : 0.0, Yaw : 0.0, Alt : 30.1000003815, Lat : 49.28357, Lng : -123.11502, Q1 : 1.0, Q2 : 0.0, Q3 : 0.0, Q4 : 0.0}
2019-04-14 05:38:55.61: SIM {TimeUS : 40835326, Roll : 0.0, Pitch : 0.0, Yaw : 0.0, Alt : 30.1000003815, Lat : 49.28357, Lng : -123.11502, Q1 : 1.0, Q2 : 0.0, Q3 : 0.0, Q4 : 0.0}
2019-04-14 05:38:55.71: SIM {TimeUS : 40935286, Roll : 0.0, Pitch : 0.0, Yaw : 0.0, Alt : 30.1000003815, Lat : 49.28357, Lng : -123.11502, Q1 : 1.0, Q2 : 0.0, Q3 : 0.0, Q4 : 0.0}
2019-04-14 05:38:55.81: SIM {TimeUS : 41035246, Roll : 0.0, Pitch : 0.0, Yaw : 0.0, Alt : 30.1000003815, Lat : 49.28357, Lng : -123.11502, Q1 : 1.0, Q2 : 0.0, Q3 : 0.0, Q4 : 0.0}
2019-04-14 05:38:55.91: SIM {TimeUS : 41135206, Roll : 0.0, Pitch : 0.0, Yaw : 0.0, Alt : 30.1000003815, Lat : 49.28357, Lng : -123.11502, Q1 : 1.0, Q2 : 0.0, Q3 : 0.0, Q4 : 0.0}
2019-04-14 05:38:56.01: SIM {TimeUS : 41235166, Roll : 0.0, Pitch : 0.0, Yaw : 0.0, Alt : 30.1000003815, Lat : 49.28357, Lng : -123.11502, Q1 : 1.0, Q2 : 0.0, Q3 : 0.0, Q4 : 0.0}
2019-04-14 05:38:56.11: SIM {TimeUS : 41335126, Roll : 0.0, Pitch : 0.0, Yaw : 0.0, Alt : 30.1000003815, Lat : 49.28357, Lng : -123.11502, Q1 : 1.0, Q2 : 0.0, Q3 : 0.0, Q4 : 0.0}
2019-04-14 05:38:56.21: SIM {TimeUS : 41435086, Roll : 0.0, Pitch : 0.0, Yaw : 0.0, Alt : 30.1000003815, Lat : 49.28357, Lng : -123.11502, Q1 : 1.0, Q2 : 0.0, Q3 : 0.0, Q4 : 0.0}
2019-04-14 05:38:56.31: SIM {TimeUS : 41535046, Roll : 0.0, Pitch : 0.0, Yaw : 0.0, Alt : 30.1000003815, Lat : 49.28357, Lng : -123.11502, Q1 : 1.0, Q2 : 0.0, Q3 : 0.0, Q4 : 0.0}
2019-04-14 05:38:56.41: SIM {TimeUS : 41635006, Roll : 0.0, Pitch : 0.0, Yaw : 0.0, Alt : 30.1000003815, Lat : 49.28357, Lng : -123.11502, Q1 : 1.0, Q2 : 0.0, Q3 : 0.0, Q4 : 0.0}
2019-04-14 05:38:56.51: SIM {TimeUS : 41734966, Roll : 0.0, Pitch : 0.0, Yaw : 0.0, Alt : 30.1000003815, Lat : 49.28357, Lng : -123.11502, Q1 : 1.0, Q2 : 0.0, Q3 : 0.0, Q4 : 0.0}
2019-04-14 05:38:56.61: SIM {TimeUS : 41834926, Roll : 0.0, Pitch : 0.0, Yaw : 0.0, Alt : 30.1000003815, Lat : 49.28357, Lng : -123.11502, Q1 : 1.0, Q2 : 0.0, Q3 : 0.0, Q4 : 0.0}
2019-04-14 05:38:56.71: SIM {TimeUS : 41934886, Roll : 0.0, Pitch : 0.0, Yaw : 0.0, Alt : 30.1000003815, Lat : 49.28357, Lng : -123.11502, Q1 : 1.0, Q2 : 0.0, Q3 : 0.0, Q4 : 0.0}
2019-04-14 05:38:56.81: SIM {TimeUS : 42034846, Roll : 0.0, Pitch : 0.0, Yaw : 0.0, Alt : 30.1000003815, Lat : 49.28357, Lng : -123.11502, Q1 : 1.0, Q2 : 0.0, Q3 : 0.0, Q4 : 0.0}
2019-04-14 05:38:56.91: SIM {TimeUS : 42135639, Roll : 0.0, Pitch : 0.0, Yaw : 0.0, Alt : 30.1000003815, Lat : 49.28357, Lng : -123.11502, Q1 : 1.0, Q2 : 0.0, Q3 : 0.0, Q4 : 0.0}
2019-04-14 05:38:57.01: SIM {TimeUS : 42235599, Roll : 0.0, Pitch : 0.0, Yaw : 0.0, Alt : 30.1000003815, Lat : 49.28357, Lng : -123.11502, Q1 : 1.0, Q2 : 0.0, Q3 : 0.0, Q4 : 0.0}
2019-04-14 05:38:57.11: SIM {TimeUS : 42335559, Roll : 0.0, Pitch : 0.0, Yaw : 360.0, Alt : 30.1000003815, Lat : 49.28357, Lng : -123.11502, Q1 : 1.0, Q2 : 0.0, Q3 : 0.0, Q4 : -3.64348308468e-11}
2019-04-14 05:38:57.21: SIM {TimeUS : 42435519, Roll : 0.0, Pitch : 0.0, Yaw : 0.0, Alt : 30.1000003815, Lat : 49.28357, Lng : -123.11502, Q1 : 1.0, Q2 : 0.0, Q3 : 0.0, Q4 : 1.10355766192e-10}
2019-04-14 05:38:57.31: SIM {TimeUS : 42535479, Roll : 0.0, Pitch : 0.0, Yaw : 360.0, Alt : 30.1000003815, Lat : 49.28357, Lng : -123.11502, Q1 : 1.0, Q2 : 0.0, Q3 : 0.0, Q4 : -1.36754565006e-07}
2019-04-14 05:38:57.41: SIM {TimeUS : 42635439, Roll : 0.0, Pitch : 0.0, Yaw : 359.99, Alt : 30.1000003815, Lat : 49.28357, Lng : -123.11502, Q1 : 1.0, Q2 : 0.0, Q3 : 0.0, Q4 : -3.14419793312e-07}
2019-04-14 05:38:57.51: SIM {TimeUS : 42735399, Roll : 0.0, Pitch : 0.0, Yaw : 359.99, Alt : 30.1000003815, Lat : 49.28357, Lng : -123.11502, Q1 : 1.0, Q2 : 0.0, Q3 : 0.0, Q4 : -5.14380417371e-07}
2019-04-14 05:38:57.61: SIM {TimeUS : 42835359, Roll : 0.0, Pitch : 0.0, Yaw : 359.99, Alt : 30.1000003815, Lat : 49.28357, Lng : -123.11502, Q1 : 1.0, Q2 : 0.0, Q3 : 0.0, Q4 : -7.37824450425e-07}
2019-04-14 05:38:57.71: SIM {TimeUS : 42935319, Roll : 0.0, Pitch : 0.0, Yaw : 359.99, Alt : 30.1000003815, Lat : 49.28357, Lng : -123.11502, Q1 : 1.0, Q2 : 0.0, Q3 : 0.0, Q4 : -9.2480127023e-07}
2019-04-14 05:38:57.81: SIM {TimeUS : 43035279, Roll : 0.0, Pitch : 0.0, Yaw : 359.99, Alt : 30.1000003815, Lat : 49.28357, Lng : -123.11502, Q1 : 1.0, Q2 : 0.0, Q3 : 0.0, Q4 : -1.0981767673e-06}
2019-04-14 05:38:57.91: SIM {TimeUS : 43135239, Roll : 0.0, Pitch : 0.0, Yaw : 359.99, Alt : 30.1000003815, Lat : 49.28357, Lng : -123.11502, Q1 : 1.0, Q2 : 0.0, Q3 : 0.0, Q4 : -1.3071801277e-06}
2019-04-14 05:38:58.01: SIM {TimeUS : 43235199, Roll : 0.0, Pitch : 0.0, Yaw : 359.99, Alt : 30.1100006104, Lat : 49.28357, Lng : -123.11502, Q1 : 1.0, Q2 : 0.0, Q3 : 0.0, Q4 : -1.53222856625e-06}
2019-04-14 05:38:58.11: SIM {TimeUS : 43335159, Roll : 0.0, Pitch : 0.0, Yaw : 359.99, Alt : 30.1399993896, Lat : 49.28357, Lng : -123.11502, Q1 : 1.0, Q2 : 0.0, Q3 : 0.0, Q4 : -1.74831791355e-06}
2019-04-14 05:38:58.21: SIM {TimeUS : 43435119, Roll : 0.0, Pitch : 0.0, Yaw : 359.99, Alt : 30.1599998474, Lat : 49.28357, Lng : -123.11502, Q1 : 1.0, Q2 : 0.0, Q3 : 0.0, Q4 : -1.97563963411e-06}
2019-04-14 05:38:58.31: SIM {TimeUS : 43535079, Roll : 0.0, Pitch : 0.0, Yaw : 359.99, Alt : 30.2000007629, Lat : 49.28357, Lng : -123.11502, Q1 : 1.0, Q2 : 0.0, Q3 : 0.0, Q4 : -2.23936172006e-06}
2019-04-14 05:38:58.41: SIM {TimeUS : 43635039, Roll : -0.09, Pitch : -0.09, Yaw : 359.99, Alt : 30.25, Lat : 49.28357, Lng : -123.11502, Q1 : 0.999999284744, Q2 : -0.000829742464703, Q3 : -0.000830496312119, Q4 : -1.02262292785e-05}
2019-04-14 05:38:58.51: SIM {TimeUS : 43734999, Roll : -0.38, Pitch : -0.38, Yaw : 359.99, Alt : 30.3400001526, Lat : 49.28357, Lng : -123.11502, Q1 : 0.999988734722, Q2 : -0.00334851699881, Q3 : -0.00337155885063, Q4 : -4.64603290311e-05}
2019-04-14 05:38:58.61: SIM {TimeUS : 43834959, Roll : -0.67, Pitch : -0.64, Yaw : 359.99, Alt : 30.4899997711, Lat : 49.28357, Lng : -123.11502, Q1 : 0.999966740608, Q2 : -0.00588810117915, Q3 : -0.00564807606861, Q4 : -0.000109254375275}
2019-04-14 05:38:58.71: SIM {TimeUS : 43934919, Roll : -0.83, Pitch : -0.74, Yaw : 359.98, Alt : 30.6499996185, Lat : 49.28357, Lng : -123.11502, Q1 : 0.999952554703, Q2 : -0.00726176798344, Q3 : -0.00648780027404, Q4 : -0.000190798135009}
2019-04-14 05:38:58.81: SIM {TimeUS : 44034879, Roll : -0.82, Pitch : -0.68, Yaw : 359.97, Alt : 30.7999992371, Lat : 49.28357, Lng : -123.11502, Q1 : 0.999956250191, Q2 : -0.00717329792678, Q3 : -0.00599596044049, Q4 : -0.000278693332803}
2019-04-14 05:38:58.91: SIM {TimeUS : 44134839, Roll : -0.68, Pitch : -0.54, Yaw : 359.96, Alt : 30.9599990845, Lat : 49.28357, Lng : -123.1150201, Q1 : 0.999970734119, Q2 : -0.00598485255614, Q3 : -0.00475347368047, Q4 : -0.000359475350706}
2019-04-14 05:38:59.01: SIM {TimeUS : 44235632, Roll : -0.48, Pitch : -0.36, Yaw : 359.95, Alt : 31.1100006104, Lat : 49.2835701, Lng : -123.1150202, Q1 : 0.999985814095, Q2 : -0.00425185076892, Q3 : -0.0031807073392, Q4 : -0.000431331980508}
2019-04-14 05:38:59.11: SIM {TimeUS : 44335592, Roll : -0.27, Pitch : -0.19, Yaw : 359.94, Alt : 31.2700004578, Lat : 49.2835701, Lng : -123.1150203, Q1 : 0.999995470047, Q2 : -0.00241950131021, Q3 : -0.0017205394106, Q4 : -0.000493354629725}
2019-04-14 05:38:59.21: SIM {TimeUS : 44435552, Roll : -0.08, Pitch : -0.08, Yaw : 359.93, Alt : 31.4400005341, Lat : 49.2835702, Lng : -123.1150204, Q1 : 0.999999284744, Q2 : -0.000744131801184, Q3 : -0.000771520659328, Q4 : -0.000541916058864}
2019-04-14 05:38:59.31: SIM {TimeUS : 44535512, Roll : 0.03, Pitch : -0.02, Yaw : 359.93, Alt : 31.6100006104, Lat : 49.2835702, Lng : -123.1150204, Q1 : 0.999999761581, Q2 : 0.000333721080096, Q3 : -0.000178640533704, Q4 : -0.00057579629356}
2019-04-14 05:38:59.41: SIM {TimeUS : 44635472, Roll : 0.07, Pitch : 0.01, Yaw : 359.93, Alt : 31.7900009155, Lat : 49.2835703, Lng : -123.1150205, Q1 : 0.999999582767, Q2 : 0.000690313812811, Q3 : 0.000144821067806, Q4 : -0.000595951452851}
2019-04-14 05:38:59.51: SIM {TimeUS : 44735432, Roll : 0.07, Pitch : 0.02, Yaw : 359.93, Alt : 31.9699993134, Lat : 49.2835703, Lng : -123.1150206, Q1 : 0.999999582767, Q2 : 0.000671220303047, Q3 : 0.000192206498468, Q4 : -0.000601436127909}
2019-04-14 05:38:59.61: SIM {TimeUS : 44835392, Roll : 0.06, Pitch : 0.02, Yaw : 359.93, Alt : 32.1599998474, Lat : 49.2835703, Lng : -123.1150206, Q1 : 0.999999642372, Q2 : 0.000599749968387, Q3 : 0.000213539358811, Q4 : -0.000592314987443}
2019-04-14 05:38:59.71: SIM {TimeUS : 44935352, Roll : 0.06, Pitch : 0.03, Yaw : 359.93, Alt : 32.3499984741, Lat : 49.2835703, Lng : -123.1150207, Q1 : 0.999999642372, Q2 : 0.000577854458243, Q3 : 0.000322977488395, Q4 : -0.000572266522795}
2019-04-14 05:38:59.81: SIM {TimeUS : 45035312, Roll : 0.07, Pitch : 0.05, Yaw : 359.93, Alt : 32.5499992371, Lat : 49.2835703, Lng : -123.1150208, Q1 : 0.999999523163, Q2 : 0.000667722604703, Q3 : 0.000478542875499, Q4 : -0.000549156859051}
2019-04-14 05:38:59.91: SIM {TimeUS : 45135272, Roll : 0.1, Pitch : 0.07, Yaw : 359.94, Alt : 32.7400016785, Lat : 49.2835703, Lng : -123.1150208, Q1 : 0.99999922514, Q2 : 0.000926806882489, Q3 : 0.000656399817672, Q4 : -0.000522162998095}
2019-04-14 05:39:00.01: SIM {TimeUS : 45235232, Roll : 0.13, Pitch : 0.1, Yaw : 359.94, Alt : 32.9399986267, Lat : 49.2835704, Lng : -123.1150208, Q1 : 0.999998807907, Q2 : 0.00118670123629, Q3 : 0.000891853473149, Q4 : -0.000495776068419}
2019-04-14 05:39:00.11: SIM {TimeUS : 45335192, Roll : 0.14, Pitch : 0.13, Yaw : 359.94, Alt : 33.1399993896, Lat : 49.2835704, Lng : -123.1150209, Q1 : 0.99999833107, Q2 : 0.00130475254264, Q3 : 0.00115791405551, Q4 : -0.000475777400425}
2019-04-14 05:39:00.21: SIM {TimeUS : 45435152, Roll : 0.14, Pitch : 0.15, Yaw : 359.94, Alt : 33.3499984741, Lat : 49.2835704, Lng : -123.1150209, Q1 : 0.999998152256, Q2 : 0.00130335823633, Q3 : 0.00134792376775, Q4 : -0.00046392637887}
2019-04-14 05:39:00.31: SIM {TimeUS : 45535112, Roll : 0.15, Pitch : 0.18, Yaw : 359.94, Alt : 33.5499992371, Lat : 49.2835704, Lng : -123.1150209, Q1 : 0.999997735023, Q2 : 0.00134320009965, Q3 : 0.0015733166365, Q4 : -0.000462006340967}
2019-04-14 05:39:00.41: SIM {TimeUS : 45635072, Roll : 0.16, Pitch : 0.19, Yaw : 359.94, Alt : 33.7599983215, Lat : 49.2835704, Lng : -123.1150209, Q1 : 0.999997437, Q2 : 0.00145707908086, Q3 : 0.00166544492822, Q4 : -0.000466443161713}
2019-04-14 05:39:00.51: SIM {TimeUS : 45735032, Roll : 0.17, Pitch : 0.19, Yaw : 359.94, Alt : 33.9700012207, Lat : 49.2835704, Lng : -123.1150209, Q1 : 0.999997377396, Q2 : 0.0015102874022, Q3 : 0.00166629103478, Q4 : -0.000479873415316}
2019-04-14 05:39:00.61: SIM {TimeUS : 45834992, Roll : 0.15, Pitch : 0.18, Yaw : 359.94, Alt : 34.1800003052, Lat : 49.2835704, Lng : -123.1150209, Q1 : 0.999997615814, Q2 : 0.00137122091837, Q3 : 0.00162489258219, Q4 : -0.00050098693464}
2019-04-14 05:39:00.71: SIM {TimeUS : 45934952, Roll : 0.13, Pitch : 0.14, Yaw : 359.94, Alt : 34.3899993896, Lat : 49.2835706, Lng : -123.1150209, Q1 : 0.99999833107, Q2 : 0.0012175317388, Q3 : 0.00128709338605, Q4 : -0.000519726250786}
2019-04-14 05:39:00.81: SIM {TimeUS : 46034912, Roll : 0.12, Pitch : 0.08, Yaw : 359.93, Alt : 34.5999984741, Lat : 49.2835706, Lng : -123.1150209, Q1 : 0.999998986721, Q2 : 0.0010596474167, Q3 : 0.00077333470108, Q4 : -0.00053203542484}
2019-04-14 05:39:00.91: SIM {TimeUS : 46134872, Roll : 0.1, Pitch : 0.04, Yaw : 359.93, Alt : 34.8199996948, Lat : 49.2835704, Lng : -123.1150209, Q1 : 0.999999344349, Q2 : 0.00089358817786, Q3 : 0.000401656638132, Q4 : -0.000553415971808}
2019-04-14 05:39:01.01: SIM {TimeUS : 46234832, Roll : 0.08, Pitch : 0.02, Yaw : 359.93, Alt : 35.0299987793, Lat : 49.2835704, Lng : -123.1150209, Q1 : 0.999999523163, Q2 : 0.000740303425118, Q3 : 0.000220667963731, Q4 : -0.000590722600464}
2019-04-14 05:39:01.11: SIM {TimeUS : 46335625, Roll : 0.08, Pitch : 0.02, Yaw : 359.92, Alt : 35.25, Lat : 49.2835704, Lng : -123.1150209, Q1 : 0.999999523163, Q2 : 0.000700736884028, Q3 : 0.000237647429458, Q4 : -0.000642338767648}
2019-04-14 05:39:01.21: SIM {TimeUS : 46435585, Roll : 0.06, Pitch : 0.01, Yaw : 359.91, Alt : 35.4700012207, Lat : 49.2835704, Lng : -123.1150208, Q1 : 0.999999582767, Q2 : 0.000590898795053, Q3 : 0.000172379091964, Q4 : -0.00069943832932}
2019-04-14 05:39:01.31: SIM {TimeUS : 46535545, Roll : 0.04, Pitch : 0.01, Yaw : 359.91, Alt : 35.6899986267, Lat : 49.2835704, Lng : -123.1150208, Q1 : 0.999999642372, Q2 : 0.000368884793716, Q3 : 0.000148592109326, Q4 : -0.000749509839807}
2019-04-14 05:39:01.41: SIM {TimeUS : 46635505, Roll : 0.01, Pitch : 0.02, Yaw : 359.9, Alt : 35.9099998474, Lat : 49.2835704, Lng : -123.1150208, Q1 : 0.999999642372, Q2 : 0.000165226083482, Q3 : 0.000192540886928, Q4 : -0.000794616702478}
2019-04-14 05:39:01.51: SIM {TimeUS : 46735465, Roll : 0.0, Pitch : 0.03, Yaw : 359.9, Alt : 36.1300010681, Lat : 49.2835704, Lng : -123.1150208, Q1 : 0.999999582767, Q2 : 2.37087097048e-05, Q3 : 0.000318093399983, Q4 : -0.000835701241158}
2019-04-14 05:39:01.61: SIM {TimeUS : 46835425, Roll : -0.01, Pitch : 0.03, Yaw : 359.9, Alt : 36.3499984741, Lat : 49.2835704, Lng : -123.1150208, Q1 : 0.999999582767, Q2 : -0.00011385972175, Q3 : 0.000282258901279, Q4 : -0.000865413690917}
2019-04-14 05:39:01.71: SIM {TimeUS : 46935385, Roll : -0.02, Pitch : 0.01, Yaw : 359.89, Alt : 36.5699996948, Lat : 49.2835704, Lng : -123.1150207, Q1 : 0.999999582767, Q2 : -0.000186025266885, Q3 : 0.00014591900981, Q4 : -0.000891691364814}
2019-04-14 05:39:01.81: SIM {TimeUS : 47035345, Roll : -0.02, Pitch : 0.0, Yaw : 359.89, Alt : 36.7900009155, Lat : 49.2835704, Lng : -123.1150207, Q1 : 0.999999582767, Q2 : -0.000219887646381, Q3 : -6.4682590164e-06, Q4 : -0.000915198994335}
2019-04-14 05:39:01.91: SIM {TimeUS : 47135305, Roll : -0.02, Pitch : -0.01, Yaw : 359.89, Alt : 37.0200004578, Lat : 49.2835704, Lng : -123.1150207, Q1 : 0.999999523163, Q2 : -0.000196559965843, Q3 : -0.000172744214069, Q4 : -0.00093522988027}
2019-04-14 05:39:02.01: SIM {TimeUS : 47235265, Roll : 0.0, Pitch : -0.04, Yaw : 359.89, Alt : 37.2400016785, Lat : 49.2835704, Lng : -123.1150207, Q1 : 0.999999463558, Q2 : -3.77494798158e-05, Q3 : -0.000377108546672, Q4 : -0.000951086229179}
2019-04-14 05:39:02.11: SIM {TimeUS : 47335225, Roll : 0.0, Pitch : -0.06, Yaw : 359.88, Alt : 37.4700012207, Lat : 49.2835704, Lng : -123.1150207, Q1 : 0.999999403954, Q2 : -5.61986871617e-06, Q3 : -0.000580564490519, Q4 : -0.000961431767792}
2019-04-14 05:39:02.21: SIM {TimeUS : 47435185, Roll : -0.02, Pitch : -0.09, Yaw : 359.88, Alt : 37.6899986267, Lat : 49.2835704, Lng : -123.1150207, Q1 : 0.999999165535, Q2 : -0.000197796252905, Q3 : -0.000798133318312, Q4 : -0.000972033943981}
2019-04-14 05:39:02.31: SIM {TimeUS : 47535145, Roll : -0.05, Pitch : -0.1, Yaw : 359.88, Alt : 37.9199981689, Lat : 49.2835704, Lng : -123.1150207, Q1 : 0.999998986721, Q2 : -0.000520105182659, Q3 : -0.000882236112375, Q4 : -0.000983288395219}
2019-04-14 05:39:02.41: SIM {TimeUS : 47635105, Roll : -0.09, Pitch : -0.09, Yaw : 359.88, Alt : 38.1500015259, Lat : 49.2835704, Lng : -123.1150207, Q1 : 0.999998807907, Q2 : -0.000849866017234, Q3 : -0.00081959849922, Q4 : -0.000995421316475}
2019-04-14 05:39:02.51: SIM {TimeUS : 47735065, Roll : -0.12, Pitch : -0.08, Yaw : 359.88, Alt : 38.3699989319, Lat : 49.2835704, Lng : -123.1150206, Q1 : 0.999998629093, Q2 : -0.00107074098196, Q3 : -0.00069978076499, Q4 : -0.00101137801539}
2019-04-14 05:39:02.61: SIM {TimeUS : 47835025, Roll : -0.13, Pitch : -0.06, Yaw : 359.88, Alt : 38.5999984741, Lat : 49.2835704, Lng : -123.1150206, Q1 : 0.999998688698, Q2 : -0.00113765092101, Q3 : -0.000542791909538, Q4 : -0.00102583761327}
2019-04-14 05:39:02.71: SIM {TimeUS : 47934985, Roll : -0.11, Pitch : -0.03, Yaw : 359.88, Alt : 38.8300018311, Lat : 49.2835704, Lng : -123.1150206, Q1 : 0.999998867512, Q2 : -0.00102456356399, Q3 : -0.000300785206491, Q4 : -0.00104230921715}
2019-04-14 05:39:02.81: SIM {TimeUS : 48034945, Roll : -0.08, Pitch : -0.02, Yaw : 359.87, Alt : 39.0600013733, Lat : 49.2835704, Lng : -123.1150206, Q1 : 0.99999910593, Q2 : -0.000775178312324, Q3 : -0.000255747174378, Q4 : -0.00106212613173}
2019-04-14 05:39:02.91: SIM {TimeUS : 48134905, Roll : -0.06, Pitch : -0.03, Yaw : 359.87, Alt : 39.2900009155, Lat : 49.2835704, Lng : -123.1150206, Q1 : 0.999999165535, Q2 : -0.000602622691076, Q3 : -0.000329829868861, Q4 : -0.00108817440923}
2019-04-14 05:39:03.01: SIM {TimeUS : 48234865, Roll : -0.05, Pitch : -0.02, Yaw : 359.87, Alt : 39.5200004578, Lat : 49.2835704, Lng : -123.1150206, Q1 : 0.99999922514, Q2 : -0.000508348690346, Q3 : -0.000252746016486, Q4 : -0.00110548420344}
2019-04-14 05:39:03.11: SIM {TimeUS : 48334825, Roll : -0.06, Pitch : 0.0, Yaw : 359.87, Alt : 39.75, Lat : 49.2835706, Lng : -123.1150206, Q1 : 0.99999922514, Q2 : -0.000596737896558, Q3 : -1.9435708964e-05, Q4 : -0.00111922074575}
2019-04-14 05:39:03.21: SIM {TimeUS : 48435618, Roll : -0.06, Pitch : 0.02, Yaw : 359.87, Alt : 39.9799995422, Lat : 49.2835706, Lng : -123.1150206, Q1 : 0.999999165535, Q2 : -0.000545799033716, Q3 : 0.000249993987381, Q4 : -0.00113349675667}
2019-04-14 05:39:03.31: SIM {TimeUS : 48535578, Roll : -0.04, Pitch : 0.06, Yaw : 359.86, Alt : 40.2099990845, Lat : 49.2835706, Lng : -123.1150206, Q1 : 0.99999910593, Q2 : -0.000360252306564, Q3 : 0.000594420649577, Q4 : -0.00114786403719}
2019-04-14 05:39:03.41: SIM {TimeUS : 48635538, Roll : -0.02, Pitch : 0.07, Yaw : 359.86, Alt : 40.4399986267, Lat : 49.2835706, Lng : -123.1150207, Q1 : 0.99999910593, Q2 : -0.000222469418077, Q3 : 0.00064829364419, Q4 : -0.00115230458323}
2019-04-14 05:39:03.51: SIM {TimeUS : 48735498, Roll : 0.0, Pitch : 0.07, Yaw : 359.86, Alt : 40.6800003052, Lat : 49.2835706, Lng : -123.1150207, Q1 : 0.999999165535, Q2 : -4.35943729826e-05, Q3 : 0.000622951949481, Q4 : -0.00115697854199}
2019-04-14 05:39:03.61: SIM {TimeUS : 48835458, Roll : 0.02, Pitch : 0.08, Yaw : 359.86, Alt : 40.9099998474, Lat : 49.2835706, Lng : -123.1150207, Q1 : 0.999999046326, Q2 : 0.000216282060137, Q3 : 0.000715576519724, Q4 : -0.00116583856288}
2019-04-14 05:39:03.71: SIM {TimeUS : 48935418, Roll : 0.06, Pitch : 0.11, Yaw : 359.86, Alt : 41.1399993896, Lat : 49.2835706, Lng : -123.1150207, Q1 : 0.999998629093, Q2 : 0.000595523160882, Q3 : 0.000987208564766, Q4 : -0.00118582206778}
2019-04-14 05:39:03.81: SIM {TimeUS : 49035378, Roll : 0.09, Pitch : 0.15, Yaw : 359.86, Alt : 41.3699989319, Lat : 49.2835706, Lng : -123.1150207, Q1 : 0.999998033047, Q2 : 0.000845883099828, Q3 : 0.00132823293097, Q4 : -0.00122054701205}
2019-04-14 05:39:03.91: SIM {TimeUS : 49135338, Roll : 0.08, Pitch : 0.18, Yaw : 359.85, Alt : 41.6100006104, Lat : 49.2835706, Lng : -123.1150207, Q1 : 0.999997615814, Q2 : 0.000757161469664, Q3 : 0.00161819218192, Q4 : -0.00124916306231}
2019-04-14 05:39:04.01: SIM {TimeUS : 49235298, Roll : 0.04, Pitch : 0.2, Yaw : 359.85, Alt : 41.8400001526, Lat : 49.2835706, Lng : -123.1150207, Q1 : 0.999997496605, Q2 : 0.000368175678886, Q3 : 0.00180529686622, Q4 : -0.0012737698853}
2019-04-14 05:39:04.11: SIM {TimeUS : 49335258, Roll : 0.0, Pitch : 0.21, Yaw : 359.85, Alt : 42.0699996948, Lat : 49.2835706, Lng : -123.1150207, Q1 : 0.999997377396, Q2 : -2.03941654036e-05, Q3 : 0.00187684094999, Q4 : -0.00130040908698}
2019-04-14 05:39:04.21: SIM {TimeUS : 49435218, Roll : -0.01, Pitch : 0.18, Yaw : 359.84, Alt : 42.3100013733, Lat : 49.2835706, Lng : -123.1150207, Q1 : 0.999997794628, Q2 : -0.000168438942637, Q3 : 0.00162485626061, Q4 : -0.00133035739418}
2019-04-14 05:39:04.31: SIM {TimeUS : 49535178, Roll : -0.02, Pitch : 0.14, Yaw : 359.84, Alt : 42.5400009155, Lat : 49.2835706, Lng : -123.1150207, Q1 : 0.999998271465, Q2 : -0.000174677014002, Q3 : 0.00124414078891, Q4 : -0.00136187369935}
2019-04-14 05:39:04.41: SIM {TimeUS : 49635138, Roll : 0.0, Pitch : 0.12, Yaw : 359.84, Alt : 42.7799987793, Lat : 49.2835706, Lng : -123.1150207, Q1 : 0.999998390675, Q2 : -6.07206638961e-05, Q3 : 0.00113299221266, Q4 : -0.00139415625017}
2019-04-14 05:39:04.51: SIM {TimeUS : 49735098, Roll : 0.02, Pitch : 0.13, Yaw : 359.83, Alt : 43.0099983215, Lat : 49.2835706, Lng : -123.1150207, Q1 : 0.999998271465, Q2 : 0.000255289109191, Q3 : 0.0011669419473, Q4 : -0.00143435806967}
2019-04-14 05:39:04.61: SIM {TimeUS : 49835058, Roll : 0.08, Pitch : 0.13, Yaw : 359.83, Alt : 43.25, Lat : 49.2835706, Lng : -123.1150207, Q1 : 0.999997913837, Q2 : 0.000722450262401, Q3 : 0.00120625994168, Q4 : -0.00146910571493}
2019-04-14 05:39:04.71: SIM {TimeUS : 49935018, Roll : 0.12, Pitch : 0.12, Yaw : 359.82, Alt : 43.4799995422, Lat : 49.2835706, Lng : -123.1150207, Q1 : 0.999997735023, Q2 : 0.00106238771696, Q3 : 0.00108213140629, Q4 : -0.00150657631457}
2019-04-14 05:39:04.81: SIM {TimeUS : 50034978, Roll : 0.12, Pitch : 0.1, Yaw : 359.82, Alt : 43.7200012207, Lat : 49.2835704, Lng : -123.1150207, Q1 : 0.999997854233, Q2 : 0.00106351776049, Q3 : 0.000897404446732, Q4 : -0.00154185551219}
2019-04-14 05:39:04.91: SIM {TimeUS : 50134938, Roll : 0.07, Pitch : 0.08, Yaw : 359.82, Alt : 43.9500007629, Lat : 49.2835704, Lng : -123.1150207, Q1 : 0.999998271465, Q2 : 0.000695242721122, Q3 : 0.000761869188864, Q4 : -0.00155461847316}
2019-04-14 05:39:05.01: SIM {TimeUS : 50234898, Roll : 0.01, Pitch : 0.07, Yaw : 359.82, Alt : 44.1899986267, Lat : 49.2835704, Lng : -123.1150207, Q1 : 0.999998509884, Q2 : 0.00017188124184, Q3 : 0.000681367877405, Q4 : -0.00155852595344}
2019-04-14 05:39:05.11: SIM {TimeUS : 50334858, Roll : -0.02, Pitch : 0.08, Yaw : 359.82, Alt : 44.4300003052, Lat : 49.2835704, Lng : -123.1150207, Q1 : 0.999998509884, Q2 : -0.000187897443539, Q3 : 0.00072648486821, Q4 : -0.00156618165784}
2019-04-14 05:39:05.21: SIM {TimeUS : 50434818, Roll : -0.04, Pitch : 0.08, Yaw : 359.81, Alt : 44.6599998474, Lat : 49.2835704, Lng : -123.1150206, Q1 : 0.999998450279, Q2 : -0.000365821848391, Q3 : 0.000712128239684, Q4 : -0.00157655880321}
2019-04-14 05:39:05.31: SIM {TimeUS : 50535611, Roll : -0.03, Pitch : 0.06, Yaw : 359.81, Alt : 44.9000015259, Lat : 49.2835704, Lng : -123.1150206, Q1 : 0.999998509884, Q2 : -0.000321501633152, Q3 : 0.000592815980781, Q4 : -0.00158951268531}
2019-04-14 05:39:05.41: SIM {TimeUS : 50635571, Roll : -0.03, Pitch : 0.05, Yaw : 359.81, Alt : 45.1399993896, Lat : 49.2835704, Lng : -123.1150206, Q1 : 0.999998569489, Q2 : -0.000341834122082, Q3 : 0.000446533696959, Q4 : -0.00160734751262}
2019-04-14 05:39:05.51: SIM {TimeUS : 50735531, Roll : -0.03, Pitch : 0.03, Yaw : 359.81, Alt : 45.3699989319, Lat : 49.2835703, Lng : -123.1150206, Q1 : 0.999998569489, Q2 : -0.000279176834738, Q3 : 0.000293690245599, Q4 : -0.0016318494454}
2019-04-14 05:39:05.61: SIM {TimeUS : 50835491, Roll : -0.01, Pitch : 0.01, Yaw : 359.8, Alt : 45.6100006104, Lat : 49.2835703, Lng : -123.1150206, Q1 : 0.999998569489, Q2 : -0.000158670387464, Q3 : 0.000157621878316, Q4 : -0.0016645072028}
2019-04-14 05:39:05.71: SIM {TimeUS : 50935451, Roll : -0.02, Pitch : 0.0, Yaw : 359.8, Alt : 45.8400001526, Lat : 49.2835703, Lng : -123.1150206, Q1 : 0.999998569489, Q2 : -0.000174474538653, Q3 : 8.37237821543e-05, Q4 : -0.00170232902747}
2019-04-14 05:39:05.81: SIM {TimeUS : 51035411, Roll : -0.02, Pitch : 0.0, Yaw : 359.8, Alt : 46.0699996948, Lat : 49.2835703, Lng : -123.1150206, Q1 : 0.999998450279, Q2 : -0.000250797864283, Q3 : -4.10774482589e-05, Q4 : -0.00174457207322}
2019-04-14 05:39:05.91: SIM {TimeUS : 51135371, Roll : -0.03, Pitch : -0.03, Yaw : 359.79, Alt : 46.2999992371, Lat : 49.2835703, Lng : -123.1150206, Q1 : 0.99999833107, Q2 : -0.000333479285473, Q3 : -0.00027119112201, Q4 : -0.00178394129034}
2019-04-14 05:39:06.01: SIM {TimeUS : 51235331, Roll : -0.03, Pitch : -0.04, Yaw : 359.79, Alt : 46.5200004578, Lat : 49.2835703, Lng : -123.1150205, Q1 : 0.999998211861, Q2 : -0.000337317818776, Q3 : -0.000403979298426, Q4 : -0.00182003923692}
2019-04-14 05:39:06.11: SIM {TimeUS : 51335291, Roll : -0.02, Pitch : -0.05, Yaw : 359.78, Alt : 46.7400016785, Lat : 49.2835703, Lng : -123.1150205, Q1 : 0.999998152256, Q2 : -0.000245828996412, Q3 : -0.000443553901277, Q4 : -0.0018485217588}
2019-04-14 05:39:06.21: SIM {TimeUS : 51435251, Roll : -0.02, Pitch : -0.05, Yaw : 359.78, Alt : 46.9500007629, Lat : 49.2835703, Lng : -123.1150205, Q1 : 0.999998152256, Q2 : -0.000254155718721, Q3 : -0.000437599839643, Q4 : -0.00187314813957}
2019-04-14 05:39:06.31: SIM {TimeUS : 51535211, Roll : -0.04, Pitch : -0.04, Yaw : 359.78, Alt : 47.1599998474, Lat : 49.2835703, Lng : -123.1150205, Q1 : 0.999998033047, Q2 : -0.000400166434702, Q3 : -0.000410492590163, Q4 : -0.00189729453996}
2019-04-14 05:39:06.41: SIM {TimeUS : 51635171, Roll : -0.07, Pitch : -0.04, Yaw : 359.78, Alt : 47.3600006104, Lat : 49.2835703, Lng : -123.1150205, Q1 : 0.999997854233, Q2 : -0.000690959917847, Q3 : -0.0004129622248, Q4 : -0.00191900471691}
2019-04-14 05:39:06.51: SIM {TimeUS : 51735131, Roll : -0.1, Pitch : -0.04, Yaw : 359.77, Alt : 47.5400009155, Lat : 49.2835703, Lng : -123.1150205, Q1 : 0.999997615814, Q2 : -0.000901444989722, Q3 : -0.000421791832196, Q4 : -0.0019411535468}
2019-04-14 05:39:06.61: SIM {TimeUS : 51835091, Roll : -0.13, Pitch : -0.06, Yaw : 359.77, Alt : 47.7200012207, Lat : 49.2835703, Lng : -123.1150205, Q1 : 0.999997198582, Q2 : -0.00118291610852, Q3 : -0.00056889251573, Q4 : -0.00196334882639}
2019-04-14 05:39:06.71: SIM {TimeUS : 51935051, Roll : -0.16, Pitch : -0.07, Yaw : 359.77, Alt : 47.8899993896, Lat : 49.2835703, Lng : -123.1150205, Q1 : 0.999996781349, Q2 : -0.0014106821036, Q3 : -0.000669380242471, Q4 : -0.00199120887555}
2019-04-14 05:39:06.81: SIM {TimeUS : 52035011, Roll : -0.16, Pitch : -0.07, Yaw : 359.76, Alt : 48.0499992371, Lat : 49.2835703, Lng : -123.1150205, Q1 : 0.99999666214, Q2 : -0.00144335790537, Q3 : -0.000662976119202, Q4 : -0.00202347966842}
2019-04-14 05:39:06.91: SIM {TimeUS : 52134971, Roll : -0.15, Pitch : -0.06, Yaw : 359.76, Alt : 48.1899986267, Lat : 49.2835703, Lng : -123.1150205, Q1 : 0.999996840954, Q2 : -0.00131269288249, Q3 : -0.000600279308856, Q4 : -0.00205771857873}
2019-04-14 05:39:07.01: SIM {TimeUS : 52234931, Roll : -0.12, Pitch : -0.06, Yaw : 359.76, Alt : 48.3199996948, Lat : 49.2835703, Lng : -123.1150205, Q1 : 0.999997079372, Q2 : -0.00110847817268, Q3 : -0.000531876983587, Q4 : -0.00209182151593}
2019-04-14 05:39:07.11: SIM {TimeUS : 52334891, Roll : -0.09, Pitch : -0.06, Yaw : 359.75, Alt : 48.4399986267, Lat : 49.2835703, Lng : -123.1150205, Q1 : 0.999997258186, Q2 : -0.000823477981612, Q3 : -0.000547154282685, Q4 : -0.00212620268576}
2019-04-14 05:39:07.21: SIM {TimeUS : 52434851, Roll : -0.05, Pitch : -0.06, Yaw : 359.75, Alt : 48.5499992371, Lat : 49.2835703, Lng : -123.1150205, Q1 : 0.999997377396, Q2 : -0.00047114570043, Q3 : -0.000586914713494, Q4 : -0.00216086907312}
2019-04-14 05:39:07.31: SIM {TimeUS : 52535644, Roll : -0.02, Pitch : -0.07, Yaw : 359.74, Alt : 48.6500015259, Lat : 49.2835703, Lng : -123.1150205, Q1 : 0.999997377396, Q2 : -0.000247365853284, Q3 : -0.000612781965174, Q4 : -0.00219615898095}
2019-04-14 05:39:07.41: SIM {TimeUS : 52635604, Roll : -0.02, Pitch : -0.07, Yaw : 359.74, Alt : 48.7299995422, Lat : 49.2835703, Lng : -123.1150206, Q1 : 0.999997317791, Q2 : -0.000197137967916, Q3 : -0.000620683771558, Q4 : -0.00222653383389}
2019-04-14 05:39:07.51: SIM {TimeUS : 52735564, Roll : 0.0, Pitch : -0.06, Yaw : 359.74, Alt : 48.8100013733, Lat : 49.2835703, Lng : -123.1150206, Q1 : 0.999997317791, Q2 : -5.77596392759e-06, Q3 : -0.000567768292967, Q4 : -0.00224450416863}
2019-04-14 05:39:07.61: SIM {TimeUS : 52835524, Roll : 0.02, Pitch : -0.05, Yaw : 359.74, Alt : 48.8699989319, Lat : 49.2835703, Lng : -123.1150206, Q1 : 0.999997317791, Q2 : 0.000196578752366, Q3 : -0.000455105706351, Q4 : -0.00225750962272}
2019-04-14 05:39:07.71: SIM {TimeUS : 52935484, Roll : 0.04, Pitch : -0.03, Yaw : 359.73, Alt : 48.9199981689, Lat : 49.2835703, Lng : -123.1150206, Q1 : 0.999997317791, Q2 : 0.000357920682291, Q3 : -0.000293340388453, Q4 : -0.00226974254474}
2019-04-14 05:39:07.81: SIM {TimeUS : 53035444, Roll : 0.04, Pitch : -0.01, Yaw : 359.73, Alt : 48.9700012207, Lat : 49.2835703, Lng : -123.1150206, Q1 : 0.999997317791, Q2 : 0.000391765963286, Q3 : -0.000151104410179, Q4 : -0.00228589959443}
2019-04-14 05:39:07.91: SIM {TimeUS : 53135404, Roll : 0.09, Pitch : -0.06, Yaw : 359.73, Alt : 49.0099983215, Lat : 49.2835703, Lng : -123.1150206, Q1 : 0.999996900558, Q2 : 0.000785818439908, Q3 : -0.000551734527107, Q4 : -0.00230417610146}
2019-04-14 05:39:08.01: SIM {TimeUS : 53235364, Roll : 0.23, Pitch : -0.29, Yaw : 359.73, Alt : 49.0499992371, Lat : 49.2835703, Lng : -123.1150206, Q1 : 0.999991893768, Q2 : 0.00208818609826, Q3 : -0.00255141640082, Q4 : -0.00232028006576}
2019-04-14 05:39:08.11: SIM {TimeUS : 53335324, Roll : 0.53, Pitch : -0.74, Yaw : 359.72, Alt : 49.0800018311, Lat : 49.2835703, Lng : -123.1150206, Q1 : 0.999965667725, Q2 : 0.00461486633867, Q3 : -0.00647477153689, Q4 : -0.00234308140352}
2019-04-14 05:39:08.21: SIM {TimeUS : 53435284, Roll : 0.97, Pitch : -1.38, Yaw : 359.71, Alt : 49.0999984741, Lat : 49.2835703, Lng : -123.1150206, Q1 : 0.999887704849, Q2 : 0.00847106706351, Q3 : -0.0121353194118, Q4 : -0.00236485293135}
2019-04-14 05:39:08.31: SIM {TimeUS : 53535244, Roll : 1.52, Pitch : -2.18, Yaw : 359.7, Alt : 49.1199989319, Lat : 49.2835704, Lng : -123.1150206, Q1 : 0.999726474285, Q2 : 0.0132619859651, Q3 : -0.0191188845783, Q4 : -0.00235861982219}
2019-04-14 05:39:08.41: SIM {TimeUS : 53635204, Roll : 2.11, Pitch : -3.02, Yaw : 359.67, Alt : 49.1399993896, Lat : 49.2835704, Lng : -123.1150205, Q1 : 0.999477803707, Q2 : 0.0183851271868, Q3 : -0.0264733992517, Q4 : -0.00230356818065}
2019-04-14 05:39:08.51: SIM {TimeUS : 53735164, Roll : 2.67, Pitch : -3.76, Yaw : 359.66, Alt : 49.1599998474, Lat : 49.2835707, Lng : -123.1150204, Q1 : 0.999185681343, Q2 : 0.0231955330819, Q3 : -0.0329428203404, Q4 : -0.00216902606189}
2019-04-14 05:39:08.61: SIM {TimeUS : 53835124, Roll : 3.11, Pitch : -4.35, Yaw : 359.65, Alt : 49.1699981689, Lat : 49.2835708, Lng : -123.1150203, Q1 : 0.99890857935, Q2 : 0.0270343832672, Q3 : -0.0380387231708, Q4 : -0.00197270535864}
2019-04-14 05:39:08.71: SIM {TimeUS : 53935084, Roll : 3.43, Pitch : -4.8, Yaw : 359.65, Alt : 49.1800003052, Lat : 49.2835709, Lng : -123.1150201, Q1 : 0.998673200607, Q2 : 0.0298010669649, Q3 : -0.041961453855, Q4 : -0.00172884576023}
2019-04-14 05:39:08.81: SIM {TimeUS : 54035044, Roll : 3.64, Pitch : -5.14, Yaw : 359.66, Alt : 49.1899986267, Lat : 49.2835713, Lng : -123.1150199, Q1 : 0.998484015465, Q2 : 0.0316698253155, Q3 : -0.0449942462146, Q4 : -0.00146891525947}
2019-04-14 05:39:08.91: SIM {TimeUS : 54135004, Roll : 3.81, Pitch : -5.47, Yaw : 359.68, Alt : 49.2000007629, Lat : 49.2835715, Lng : -123.1150195, Q1 : 0.998308002949, Q2 : 0.0330901108682, Q3 : -0.0477983653545, Q4 : -0.00119588291273}
2019-04-14 05:39:09.01: SIM {TimeUS : 54234964, Roll : 3.99, Pitch : -5.8, Yaw : 359.69, Alt : 49.2099990845, Lat : 49.283572, Lng : -123.1150191, Q1 : 0.998113811016, Q2 : 0.0346522666514, Q3 : -0.0506680496037, Q4 : -0.000920885067899}
2019-04-14 05:39:09.11: SIM {TimeUS : 54334924, Roll : 4.19, Pitch : -6.12, Yaw : 359.7, Alt : 49.2200012207, Lat : 49.2835725, Lng : -123.1150187, Q1 : 0.99790251255, Q2 : 0.036423612386, Q3 : -0.0535120815039, Q4 : -0.000652782677207}
2019-04-14 05:39:09.21: SIM {TimeUS : 54434884, Roll : 4.4, Pitch : -6.43, Yaw : 359.7, Alt : 49.2299995422, Lat : 49.2835729, Lng : -123.1150181, Q1 : 0.997690081596, Q2 : 0.0381856113672, Q3 : -0.0561801977456, Q4 : -0.000391153356759}
2019-04-14 05:39:09.31: SIM {TimeUS : 54534844, Roll : 4.58, Pitch : -6.67, Yaw : 359.71, Alt : 49.2299995422, Lat : 49.2835735, Lng : -123.1150175, Q1 : 0.997507631779, Q2 : 0.0397856496274, Q3 : -0.0582713484764, Q4 : -0.000154030465637}
2019-04-14 05:39:09.41: SIM {TimeUS : 54635637, Roll : 4.71, Pitch : -6.84, Yaw : 359.72, Alt : 49.2400016785, Lat : 49.2835741, Lng : -123.1150168, Q1 : 0.997371733189, Q2 : 0.0409516170621, Q3 : -0.0597715191543, Q4 : 4.7967529099e-05}
2019-04-14 05:39:09.51: SIM {TimeUS : 54735597, Roll : 4.79, Pitch : -6.97, Yaw : 359.72, Alt : 49.2400016785, Lat : 49.2835749, Lng : -123.1150161, Q1 : 0.997277915478, Q2 : 0.0416485331953, Q3 : -0.0608453303576, Q4 : 0.000182927265996}
2019-04-14 05:39:09.61: SIM {TimeUS : 54835557, Roll : 4.86, Pitch : -7.07, Yaw : 359.73, Alt : 49.25, Lat : 49.2835757, Lng : -123.1150153, Q1 : 0.99719697237, Q2 : 0.0422465354204, Q3 : -0.0617527253926, Q4 : 0.000275664322544}
2019-04-14 05:39:09.71: SIM {TimeUS : 54935517, Roll : 4.96, Pitch : -7.19, Yaw : 359.72, Alt : 49.25, Lat : 49.2835764, Lng : -123.1150144, Q1 : 0.997098922729, Q2 : 0.0430545024574, Q3 : -0.0627686306834, Q4 : 0.000340704253176}
2019-04-14 05:39:09.81: SIM {TimeUS : 55035477, Roll : 5.2, Pitch : -7.27, Yaw : 359.79, Alt : 49.25, Lat : 49.2835774, Lng : -123.1150135, Q1 : 0.996963322163, Q2 : 0.0451680757105, Q3 : -0.0634254515171, Q4 : 0.00113264622632}
2019-04-14 05:39:09.91: SIM {TimeUS : 55135437, Roll : 5.71, Pitch : -7.29, Yaw : 0.4, Alt : 49.2599983215, Lat : 49.2835782, Lng : -123.1150125, Q1 : 0.99671715498, Q2 : 0.0499686524272, Q3 : -0.0633530318737, Q4 : 0.00667238794267}
2019-04-14 05:39:10.01: SIM {TimeUS : 55235397, Roll : 6.33, Pitch : -7.39, Yaw : 2.22, Alt : 49.2599983215, Lat : 49.2835793, Lng : -123.1150115, Q1 : 0.996137559414, Q2 : 0.0563476085663, Q3 : -0.0633383244276, Q4 : 0.0228735506535}
2019-04-14 05:39:10.11: SIM {TimeUS : 55335357, Roll : 6.7, Pitch : -7.78, Yaw : 5.63, Alt : 49.2599983215, Lat : 49.2835802, Lng : -123.1150103, Q1 : 0.994588017464, Q2 : 0.0615769997239, Q3 : -0.0648412033916, Q4 : 0.0529014207423}
2019-04-14 05:39:10.21: SIM {TimeUS : 55435317, Roll : 6.55, Pitch : -8.5, Yaw : 10.59, Alt : 49.2599983215, Lat : 49.2835813, Lng : -123.1150091, Q1 : 0.990971624851, Q2 : 0.0635762661695, Q3 : -0.0684755444527, Q4 : 0.0961477681994}
2019-04-14 05:39:10.31: SIM {TimeUS : 55535277, Roll : 5.65, Pitch : -9.49, Yaw : 16.87, Alt : 49.2599983215, Lat : 49.2835824, Lng : -123.1150077, Q1 : 0.983986675739, Q2 : 0.060725774616, Q3 : -0.0745291039348, Q4 : 0.150093436241}
2019-04-14 05:39:10.41: SIM {TimeUS : 55635237, Roll : 3.75, Pitch : -10.56, Yaw : 23.96, Alt : 49.2599983215, Lat : 49.2835836, Lng : -123.1150063, Q1 : 0.972918152809, Q2 : 0.0510179810226, Q3 : -0.0832038074732, Q4 : 0.20953425765}
2019-04-14 05:39:10.51: SIM {TimeUS : 55735197, Roll : 1.07, Pitch : -11.46, Yaw : 31.06, Alt : 49.2700004578, Lat : 49.2835848, Lng : -123.1150047, Q1 : 0.95837187767, Q2 : 0.0357135869563, Q3 : -0.0937148779631, Q4 : 0.26733019948}
2019-04-14 05:39:10.61: SIM {TimeUS : 55835157, Roll : -1.84, Pitch : -12.02, Yaw : 37.41, Alt : 49.2700004578, Lat : 49.2835861, Lng : -123.1150031, Q1 : 0.942366957664, Q2 : 0.0183907244354, Q3 : -0.104327827692, Q4 : 0.31736728549}
2019-04-14 05:39:10.71: SIM {TimeUS : 55935117, Roll : -4.37, Pitch : -12.25, Yaw : 42.4, Alt : 49.2700004578, Lat : 49.2835873, Lng : -123.1150015, Q1 : 0.927780628204, Q2 : 0.00318072061054, Q3 : -0.113201498985, Q4 : 0.355525612831}
2019-04-14 05:39:10.81: SIM {TimeUS : 56035077, Roll : -6.05, Pitch : -12.31, Yaw : 45.67, Alt : 49.2700004578, Lat : 49.2835889, Lng : -123.1149999, Q1 : 0.917209744453, Q2 : -0.00684900674969, Q3 : -0.119099609554, Q4 : 0.380124658346}
2019-04-14 05:39:10.91: SIM {TimeUS : 56135037, Roll : -6.74, Pitch : -12.38, Yaw : 47.23, Alt : 49.2700004578, Lat : 49.2835903, Lng : -123.1149981, Q1 : 0.911860466003, Q2 : -0.010428737849, Q3 : -0.122088372707, Q4 : 0.391785830259}
2019-04-14 05:39:11.01: SIM {TimeUS : 56234997, Roll : -6.53, Pitch : -12.6, Yaw : 47.3, Alt : 49.2700004578, Lat : 49.283592, Lng : -123.1149966, Q1 : 0.911490917206, Q2 : -0.00790688768029, Q3 : -0.123082496226, Q4 : 0.392393350601}
2019-04-14 05:39:11.11: SIM {TimeUS : 56334957, Roll : -5.65, Pitch : -13.02, Yaw : 46.19, Alt : 49.2700004578, Lat : 49.2835938, Lng : -123.1149949, Q1 : 0.914980649948, Q2 : -0.000687216583174, Q3 : -0.123406909406, Q4 : 0.384162396193}
2019-04-14 05:39:11.21: SIM {TimeUS : 56434917, Roll : -4.35, Pitch : -13.61, Yaw : 44.22, Alt : 49.2700004578, Lat : 49.2835956, Lng : -123.1149932, Q1 : 0.920938074589, Q2 : 0.00960871577263, Q3 : -0.123914040625, Q4 : 0.369359076023}
2019-04-14 05:39:11.31: SIM {TimeUS : 56534877, Roll : -2.81, Pitch : -14.27, Yaw : 41.7, Alt : 49.2700004578, Lat : 49.2835975, Lng : -123.1149914, Q1 : 0.928060352802, Q2 : 0.0214298889041, Q3 : -0.124792821705, Q4 : 0.350244939327}
2019-04-14 05:39:11.41: SIM {TimeUS : 56634837, Roll : -1.21, Pitch : -14.87, Yaw : 38.93, Alt : 49.2799987793, Lat : 49.2835995, Lng : -123.1149897, Q1 : 0.935316979885, Q2 : 0.0331933610141, Q3 : -0.125564962626, Q4 : 0.329110562801}
2019-04-14 05:39:11.51: SIM {TimeUS : 56735630, Roll : 0.29, Pitch : -15.31, Yaw : 36.19, Alt : 49.2799987793, Lat : 49.2836016, Lng : -123.1149878, Q1 : 0.941937565804, Q2 : 0.0438300333917, Q3 : -0.125899210572, Q4 : 0.30819144845}
2019-04-14 05:39:11.61: SIM {TimeUS : 56835590, Roll : 1.55, Pitch : -15.55, Yaw : 33.83, Alt : 49.2799987793, Lat : 49.2836037, Lng : -123.1149859, Q1 : 0.947289168835, Q2 : 0.0522476620972, Q3 : -0.125580325723, Q4 : 0.290074139833}
2019-04-14 05:39:11.71: SIM {TimeUS : 56935550, Roll : 2.45, Pitch : -15.62, Yaw : 32.04, Alt : 49.2799987793, Lat : 49.2836057, Lng : -123.1149838, Q1 : 0.951211392879, Q2 : 0.0579008124769, Q3 : -0.124723143876, Q4 : 0.276203811169}
2019-04-14 05:39:11.81: SIM {TimeUS : 57035510, Roll : 2.94, Pitch : -15.59, Yaw : 30.92, Alt : 49.2799987793, Lat : 49.283608, Lng : -123.1149816, Q1 : 0.95365023613, Q2 : 0.0607185326517, Q3 : -0.12388715148, Q4 : 0.267425626516}
2019-04-14 05:39:11.91: SIM {TimeUS : 57135470, Roll : 3.03, Pitch : -15.55, Yaw : 30.48, Alt : 49.2799987793, Lat : 49.2836103, Lng : -123.1149792, Q1 : 0.954675137997, Q2 : 0.0608749873936, Q3 : -0.123597480357, Q4 : 0.263843387365}
2019-04-14 05:39:12.01: SIM {TimeUS : 57235430, Roll : 2.76, Pitch : -15.55, Yaw : 30.64, Alt : 49.2799987793, Lat : 49.2836126, Lng : -123.1149768, Q1 : 0.954425632954, Q2 : 0.0588129982352, Q3 : -0.12419693917, Q4 : 0.264929920435}
2019-04-14 05:39:12.11: SIM {TimeUS : 57335390, Roll : 2.22, Pitch : -15.62, Yaw : 31.29, Alt : 49.2799987793, Lat : 49.2836148, Lng : -123.1149744, Q1 : 0.953098833561, Q2 : 0.0552049465477, Q3 : -0.125660151243, Q4 : 0.269748985767}
2019-04-14 05:39:12.21: SIM {TimeUS : 57435350, Roll : 1.52, Pitch : -15.74, Yaw : 32.28, Alt : 49.2799987793, Lat : 49.2836171, Lng : -123.1149719, Q1 : 0.95094025135, Q2 : 0.0507037527859, Q3 : -0.127916544676, Q4 : 0.277090519667}
2019-04-14 05:39:12.31: SIM {TimeUS : 57535310, Roll : 0.75, Pitch : -15.89, Yaw : 33.42, Alt : 49.2799987793, Lat : 49.2836195, Lng : -123.1149692, Q1 : 0.948268592358, Q2 : 0.0460517965257, Q3 : -0.130522623658, Q4 : 0.285709261894}
2019-04-14 05:39:12.41: SIM {TimeUS : 57635270, Roll : 0.03, Pitch : -16.02, Yaw : 34.58, Alt : 49.2799987793, Lat : 49.283622, Lng : -123.1149666, Q1 : 0.945447683334, Q2 : 0.0417500510812, Q3 : -0.133032888174, Q4 : 0.294428050518}
2019-04-14 05:39:12.51: SIM {TimeUS : 57735230, Roll : -0.57, Pitch : -16.13, Yaw : 35.63, Alt : 49.2799987793, Lat : 49.2836245, Lng : -123.1149638, Q1 : 0.942820191383, Q2 : 0.0382228717208, Q3 : -0.135127425194, Q4 : 0.302274167538}
2019-04-14 05:39:12.61: SIM {TimeUS : 57835190, Roll : -1.0, Pitch : -16.2, Yaw : 36.46, Alt : 49.2799987793, Lat : 49.283627, Lng : -123.114961, Q1 : 0.940661966801, Q2 : 0.0358337685466, Q3 : -0.13662995398, Q4 : 0.308550357819}
2019-04-14 05:39:12.71: SIM {TimeUS : 57935150, Roll : -1.25, Pitch : -16.27, Yaw : 37.02, Alt : 49.2799987793, Lat : 49.2836297, Lng : -123.1149582, Q1 : 0.939134180546, Q2 : 0.0346994027495, Q3 : -0.137667700648, Q4 : 0.312842607498}
2019-04-14 05:39:12.81: SIM {TimeUS : 58035110, Roll : -1.32, Pitch : -16.34, Yaw : 37.3, Alt : 49.2799987793, Lat : 49.2836323, Lng : -123.1149554, Q1 : 0.938316822052, Q2 : 0.0346383973956, Q3 : -0.138316109776, Q4 : 0.315008670092}
2019-04-14 05:39:12.91: SIM {TimeUS : 58135070, Roll : -1.25, Pitch : -16.4, Yaw : 37.31, Alt : 49.2799987793, Lat : 49.2836349, Lng : -123.1149526, Q1 : 0.938186943531, Q2 : 0.0353942327201, Q3 : -0.13864159584, Q4 : 0.315168201923}
2019-04-14 05:39:13.01: SIM {TimeUS : 58235030, Roll : -1.06, Pitch : -16.44, Yaw : 37.1, Alt : 49.2799987793, Lat : 49.2836377, Lng : -123.1149497, Q1 : 0.938662409782, Q2 : 0.0367659255862, Q3 : -0.138466626406, Q4 : 0.313668936491}
2019-04-14 05:39:13.11: SIM {TimeUS : 58334990, Roll : -0.77, Pitch : -16.45, Yaw : 36.74, Alt : 49.2799987793, Lat : 49.2836405, Lng : -123.1149468, Q1 : 0.939561188221, Q2 : 0.0387021675706, Q3 : -0.137893468142, Q4 : 0.310986071825}
2019-04-14 05:39:13.21: SIM {TimeUS : 58434950, Roll : -0.46, Pitch : -16.47, Yaw : 36.27, Alt : 49.2799987793, Lat : 49.2836432, Lng : -123.1149438, Q1 : 0.940673232079, Q2 : 0.0407628715038, Q3 : -0.137392640114, Q4 : 0.307563960552}
2019-04-14 05:39:13.31: SIM {TimeUS : 58534910, Roll : -0.14, Pitch : -16.5, Yaw : 35.79, Alt : 49.2900009155, Lat : 49.2836461, Lng : -123.1149408, Q1 : 0.941821336746, Q2 : 0.0428827144206, Q3 : -0.136998414993, Q4 : 0.303916245699}
2019-04-14 05:39:13.41: SIM {TimeUS : 58634870, Roll : 0.15, Pitch : -16.53, Yaw : 35.33, Alt : 49.2900009155, Lat : 49.2836488, Lng : -123.1149378, Q1 : 0.942885875702, Q2 : 0.0449285693467, Q3 : -0.136568650603, Q4 : 0.300493955612}
2019-04-14 05:39:13.51: SIM {TimeUS : 58734830, Roll : 0.39, Pitch : -16.55, Yaw : 34.94, Alt : 49.2900009155, Lat : 49.2836518, Lng : -123.1149347, Q1 : 0.943774402142, Q2 : 0.0464860983193, Q3 : -0.136258423328, Q4 : 0.297594666481}
2019-04-14 05:39:13.61: SIM {TimeUS : 58835623, Roll : 0.53, Pitch : -16.59, Yaw : 34.65, Alt : 49.2900009155, Lat : 49.2836548, Lng : -123.1149316, Q1 : 0.94440549612, Q2 : 0.0474257692695, Q3 : -0.136341482401, Q4 : 0.295398294926}
2019-04-14 05:39:13.71: SIM {TimeUS : 58935583, Roll : 0.58, Pitch : -16.64, Yaw : 34.49, Alt : 49.2900009155, Lat : 49.2836577, Lng : -123.1149285, Q1 : 0.944747209549, Q2 : 0.0477461740375, Q3 : -0.136737510562, Q4 : 0.294067949057}
2019-04-14 05:39:13.81: SIM {TimeUS : 59035543, Roll : 0.55, Pitch : -16.71, Yaw : 34.43, Alt : 49.2900009155, Lat : 49.2836606, Lng : -123.1149253, Q1 : 0.944815456867, Q2 : 0.0476388186216, Q3 : -0.137386664748, Q4 : 0.293562889099}
2019-04-14 05:39:13.91: SIM {TimeUS : 59135503, Roll : 0.47, Pitch : -16.77, Yaw : 34.47, Alt : 49.2900009155, Lat : 49.2836635, Lng : -123.1149221, Q1 : 0.944676578045, Q2 : 0.0471310168505, Q3 : -0.138073831797, Q4 : 0.293769538403}
2019-04-14 05:39:14.01: SIM {TimeUS : 59235463, Roll : 0.36, Pitch : -16.82, Yaw : 34.59, Alt : 49.2900009155, Lat : 49.2836665, Lng : -123.1149189, Q1 : 0.944366812706, Q2 : 0.0464795865119, Q3 : -0.138765901327, Q4 : 0.294542133808}
2019-04-14 05:39:14.11: SIM {TimeUS : 59335423, Roll : 0.24, Pitch : -16.87, Yaw : 34.75, Alt : 49.2900009155, Lat : 49.2836695, Lng : -123.1149156, Q1 : 0.943944573402, Q2 : 0.0458189621568, Q3 : -0.139418691397, Q4 : 0.295688539743}
2019-04-14 05:39:14.21: SIM {TimeUS : 59435383, Roll : 0.12, Pitch : -16.91, Yaw : 34.92, Alt : 49.2900009155, Lat : 49.2836725, Lng : -123.1149123, Q1 : 0.943490564823, Q2 : 0.0451449416578, Q3 : -0.139940217137, Q4 : 0.296991974115}
2019-04-14 05:39:14.31: SIM {TimeUS : 59535343, Roll : 0.02, Pitch : -16.93, Yaw : 35.09, Alt : 49.2900009155, Lat : 49.2836755, Lng : -123.114909, Q1 : 0.943059921265, Q2 : 0.0445564761758, Q3 : -0.1403028965, Q4 : 0.29827478528}
2019-04-14 05:39:14.41: SIM {TimeUS : 59635303, Roll : -0.06, Pitch : -16.94, Yaw : 35.24, Alt : 49.2900009155, Lat : 49.2836786, Lng : -123.1149057, Q1 : 0.942691743374, Q2 : 0.0440792813897, Q3 : -0.140583112836, Q4 : 0.299375444651}
2019-04-14 05:39:14.51: SIM {TimeUS : 59735263, Roll : -0.11, Pitch : -16.95, Yaw : 35.35, Alt : 49.2900009155, Lat : 49.2836817, Lng : -123.1149024, Q1 : 0.94241386652, Q2 : 0.0438214913011, Q3 : -0.140758752823, Q4 : 0.300204575062}
2019-04-14 05:39:14.61: SIM {TimeUS : 59835223, Roll : -0.13, Pitch : -16.97, Yaw : 35.41, Alt : 49.2999992371, Lat : 49.2836849, Lng : -123.114899, Q1 : 0.94222843647, Q2 : 0.0437711328268, Q3 : -0.140974864364, Q4 : 0.300692170858}
2019-04-14 05:39:14.71: SIM {TimeUS : 59935183, Roll : -0.13, Pitch : -17.01, Yaw : 35.43, Alt : 49.2999992371, Lat : 49.283688, Lng : -123.1148956, Q1 : 0.942129969597, Q2 : 0.0438914112747, Q3 : -0.141300842166, Q4 : 0.300830155611}
2019-04-14 05:39:14.81: SIM {TimeUS : 60035143, Roll : -0.12, Pitch : -17.06, Yaw : 35.41, Alt : 49.2999992371, Lat : 49.2836911, Lng : -123.1148922, Q1 : 0.942128062248, Q2 : 0.0441028624773, Q3 : -0.141639783978, Q4 : 0.300645649433}
2019-04-14 05:39:14.91: SIM {TimeUS : 60135103, Roll : -0.11, Pitch : -17.1, Yaw : 35.36, Alt : 49.2999992371, Lat : 49.2836943, Lng : -123.1148888, Q1 : 0.94221842289, Q2 : 0.0442230142653, Q3 : -0.141972452402, Q4 : 0.300187528133}
2019-04-14 05:39:15.01: SIM {TimeUS : 60235063, Roll : -0.1, Pitch : -17.13, Yaw : 35.28, Alt : 49.2999992371, Lat : 49.2836974, Lng : -123.1148854, Q1 : 0.94238358736, Q2 : 0.044298492372, Q3 : -0.142215937376, Q4 : 0.299542099237}
2019-04-14 05:39:15.11: SIM {TimeUS : 60335023, Roll : -0.08, Pitch : -17.16, Yaw : 35.18, Alt : 49.2999992371, Lat : 49.2837005, Lng : -123.114882, Q1 : 0.942579865456, Q2 : 0.0444132201374, Q3 : -0.142452538013, Q4 : 0.298794239759}
2019-04-14 05:39:15.21: SIM {TimeUS : 60434983, Roll : -0.03, Pitch : -17.19, Yaw : 35.09, Alt : 49.2999992371, Lat : 49.2837038, Lng : -123.1148785, Q1 : 0.942765057087, Q2 : 0.0447729788721, Q3 : -0.142670050263, Q4 : 0.298051446676}
2019-04-14 05:39:15.31: SIM {TimeUS : 60534943, Roll : 0.02, Pitch : -17.23, Yaw : 35.0, Alt : 49.2999992371, Lat : 49.283707, Lng : -123.114875, Q1 : 0.942936420441, Q2 : 0.0452700294554, Q3 : -0.142801210284, Q4 : 0.297370821238}
2019-04-14 05:39:15.41: SIM {TimeUS : 60634903, Roll : 0.09, Pitch : -17.26, Yaw : 34.92, Alt : 49.2999992371, Lat : 49.2837101, Lng : -123.1148715, Q1 : 0.943072617054, Q2 : 0.0458375550807, Q3 : -0.142917960882, Q4 : 0.296795368195}
2019-04-14 05:39:15.51: SIM {TimeUS : 60734863, Roll : 0.16, Pitch : -17.3, Yaw : 34.86, Alt : 49.3100013733, Lat : 49.2837135, Lng : -123.114868, Q1 : 0.943160951138, Q2 : 0.0464169085026, Q3 : -0.143088668585, Q4 : 0.296342015266}
2019-04-14 05:39:15.61: SIM {TimeUS : 60834823, Roll : 0.2, Pitch : -17.34, Yaw : 34.81, Alt : 49.3100013733, Lat : 49.2837167, Lng : -123.1148645, Q1 : 0.943212091923, Q2 : 0.0467748083174, Q3 : -0.143324837089, Q4 : 0.296008646488}
2019-04-14 05:39:15.71: SIM {TimeUS : 60935616, Roll : 0.19, Pitch : -17.35, Yaw : 34.79, Alt : 49.3100013733, Lat : 49.2837199, Lng : -123.114861, Q1 : 0.943262517452, Q2 : 0.0467248857021, Q3 : -0.143458232284, Q4 : 0.295791149139}
2019-04-14 05:39:15.81: SIM {TimeUS : 61035576, Roll : 0.16, Pitch : -17.34, Yaw : 34.78, Alt : 49.3100013733, Lat : 49.2837233, Lng : -123.1148574, Q1 : 0.943306744099, Q2 : 0.0463967137039, Q3 : -0.143485918641, Q4 : 0.29568824172}
2019-04-14 05:39:15.91: SIM {TimeUS : 61135536, Roll : 0.12, Pitch : -17.33, Yaw : 34.78, Alt : 49.3100013733, Lat : 49.2837265, Lng : -123.1148539, Q1 : 0.94331741333, Q2 : 0.0461256206036, Q3 : -0.143509089947, Q4 : 0.295685261488}
2019-04-14 05:39:16.01: SIM {TimeUS : 61235496, Roll : 0.1, Pitch : -17.35, Yaw : 34.79, Alt : 49.3100013733, Lat : 49.2837297, Lng : -123.1148503, Q1 : 0.943281650543, Q2 : 0.0459750369191, Q3 : -0.143673464656, Q4 : 0.295743107796}
2019-04-14 05:39:16.11: SIM {TimeUS : 61335456, Roll : 0.1, Pitch : -17.39, Yaw : 34.81, Alt : 49.3100013733, Lat : 49.2837331, Lng : -123.1148467, Q1 : 0.943186819553, Q2 : 0.0461311601102, Q3 : -0.144011750817, Q4 : 0.295856684446}
2019-04-14 05:39:16.21: SIM {TimeUS : 61435416, Roll : 0.12, Pitch : -17.46, Yaw : 34.82, Alt : 49.3100013733, Lat : 49.2837363, Lng : -123.1148432, Q1 : 0.94305151701, Q2 : 0.0464594252408, Q3 : -0.144543513656, Q4 : 0.295977443457}
2019-04-14 05:39:16.31: SIM {TimeUS : 61535376, Roll : 0.12, Pitch : -17.5, Yaw : 34.84, Alt : 49.3100013733, Lat : 49.2837398, Lng : -123.1148396, Q1 : 0.942971289158, Q2 : 0.0466186180711, Q3 : -0.144840091467, Q4 : 0.29606282711}
2019-04-14 05:39:16.41: SIM {TimeUS : 61635336, Roll : 0.13, Pitch : -17.5, Yaw : 34.84, Alt : 49.3100013733, Lat : 49.283743, Lng : -123.114836, Q1 : 0.942949593067, Q2 : 0.0466638319194, Q3 : -0.144871354103, Q4 : 0.296109527349}
2019-04-14 05:39:16.51: SIM {TimeUS : 61735296, Roll : 0.12, Pitch : -17.51, Yaw : 34.84, Alt : 49.3100013733, Lat : 49.2837464, Lng : -123.1148324, Q1 : 0.942948758602, Q2 : 0.0466562099755, Q3 : -0.144937455654, Q4 : 0.296081095934}
2019-04-14 05:39:16.61: SIM {TimeUS : 61835256, Roll : 0.11, Pitch : -17.53, Yaw : 34.83, Alt : 49.3199996948, Lat : 49.2837497, Lng : -123.1148287, Q1 : 0.942956745625, Q2 : 0.0465627387166, Q3 : -0.145127505064, Q4 : 0.295977205038}
2019-04-14 05:39:16.71: SIM {TimeUS : 61935216, Roll : 0.1, Pitch : -17.54, Yaw : 34.82, Alt : 49.3199996948, Lat : 49.2837531, Lng : -123.1148251, Q1 : 0.942974507809, Q2 : 0.0465249866247, Q3 : -0.145274415612, Q4 : 0.295854359865}
2019-04-14 05:39:16.81: SIM {TimeUS : 62035176, Roll : 0.1, Pitch : -17.56, Yaw : 34.8, Alt : 49.3199996948, Lat : 49.2837564, Lng : -123.1148215, Q1 : 0.943000853062, Q2 : 0.0465190596879, Q3 : -0.145422562957, Q4 : 0.295698672533}
2019-04-14 05:39:16.91: SIM {TimeUS : 62135136, Roll : 0.1, Pitch : -17.57, Yaw : 34.78, Alt : 49.3199996948, Lat : 49.2837599, Lng : -123.1148178, Q1 : 0.943036079407, Q2 : 0.0465413853526, Q3 : -0.145539015532, Q4 : 0.295525491238}
2019-04-14 05:39:17.01: SIM {TimeUS : 62235096, Roll : 0.11, Pitch : -17.6, Yaw : 34.75, Alt : 49.3199996948, Lat : 49.2837631, Lng : -123.1148142, Q1 : 0.943066716194, Q2 : 0.0466507449746, Q3 : -0.145724684, Q4 : 0.295318931341}
2019-04-14 05:39:17.11: SIM {TimeUS : 62335056, Roll : 0.13, Pitch : -17.61, Yaw : 34.73, Alt : 49.3199996948, Lat : 49.2837666, Lng : -123.1148105, Q1 : 0.943115592003, Q2 : 0.0467741787434, Q3 : -0.145792916417, Q4 : 0.295109540224}
2019-04-14 05:39:17.21: SIM {TimeUS : 62435016, Roll : 0.14, Pitch : -17.62, Yaw : 34.7, Alt : 49.3199996948, Lat : 49.2837699, Lng : -123.1148068, Q1 : 0.943159878254, Q2 : 0.0469206757843, Q3 : -0.1458645612, Q4 : 0.294909238815}
2019-04-14 05:39:17.31: SIM {TimeUS : 62534976, Roll : 0.16, Pitch : -17.64, Yaw : 34.67, Alt : 49.3199996948, Lat : 49.2837734, Lng : -123.1148032, Q1 : 0.943185269833, Q2 : 0.047118909657, Q3 : -0.146005436778, Q4 : 0.294726610184}
2019-04-14 05:39:17.41: SIM {TimeUS : 62634936, Roll : 0.17, Pitch : -17.69, Yaw : 34.65, Alt : 49.3199996948, Lat : 49.2837768, Lng : -123.1147995, Q1 : 0.943182051182, Q2 : 0.0472733713686, Q3 : -0.146347418427, Q4 : 0.294542551041}
2019-04-14 05:39:17.51: SIM {TimeUS : 62734896, Roll : 0.17, Pitch : -17.74, Yaw : 34.63, Alt : 49.3199996948, Lat : 49.2837801, Lng : -123.1147958, Q1 : 0.943173646927, Q2 : 0.047307126224, Q3 : -0.146768182516, Q4 : 0.294354557991}
2019-04-14 05:39:17.61: SIM {TimeUS : 62834856, Roll : 0.15, Pitch : -17.78, Yaw : 34.62, Alt : 49.3199996948, Lat : 49.2837837, Lng : -123.1147921, Q1 : 0.943171858788, Q2 : 0.0472782924771, Q3 : -0.147140830755, Q4 : 0.294178932905}
2019-04-14 05:39:17.71: SIM {TimeUS : 62934816, Roll : 0.16, Pitch : -17.8, Yaw : 34.6, Alt : 49.3199996948, Lat : 49.2837871, Lng : -123.1147884, Q1 : 0.943172693253, Q2 : 0.0473818555474, Q3 : -0.147343218327, Q4 : 0.294058263302}
2019-04-14 05:39:17.81: SIM {TimeUS : 63035609, Roll : 0.19, Pitch : -17.8, Yaw : 34.59, Alt : 49.3199996948, Lat : 49.2837905, Lng : -123.1147847, Q1 : 0.943198263645, Q2 : 0.047573659569, Q3 : -0.147253513336, Q4 : 0.293990105391}
2019-04-14 05:39:17.91: SIM {TimeUS : 63135569, Roll : 0.21, Pitch : -17.76, Yaw : 34.58, Alt : 49.3199996948, Lat : 49.283794, Lng : -123.114781, Q1 : 0.943263232708, Q2 : 0.0476506948471, Q3 : -0.14689552784, Q4 : 0.293948411942}
2019-04-14 05:39:18.01: SIM {TimeUS : 63235529, Roll : 0.2, Pitch : -17.74, Yaw : 34.57, Alt : 49.3199996948, Lat : 49.2837975, Lng : -123.1147772, Q1 : 0.943313598633, Q2 : 0.047553408891, Q3 : -0.146697342396, Q4 : 0.293901413679}
2019-04-14 05:39:18.11: SIM {TimeUS : 63335489, Roll : 0.2, Pitch : -17.72, Yaw : 34.57, Alt : 49.3199996948, Lat : 49.2838008, Lng : -123.1147735, Q1 : 0.943350017071, Q2 : 0.0474401265383, Q3 : -0.146590590477, Q4 : 0.293856114149}
2019-04-14 05:39:18.21: SIM {TimeUS : 63435449, Roll : 0.19, Pitch : -17.72, Yaw : 34.56, Alt : 49.3300018311, Lat : 49.2838044, Lng : -123.1147697, Q1 : 0.943361103535, Q2 : 0.0473789423704, Q3 : -0.146631166339, Q4 : 0.29381018877}
2019-04-14 05:39:18.31: SIM {TimeUS : 63535409, Roll : 0.18, Pitch : -17.74, Yaw : 34.56, Alt : 49.3300018311, Lat : 49.2838078, Lng : -123.114766, Q1 : 0.943355321884, Q2 : 0.0473338440061, Q3 : -0.146812498569, Q4 : 0.293745279312}
2019-04-14 05:39:18.41: SIM {TimeUS : 63635369, Roll : 0.18, Pitch : -17.77, Yaw : 34.55, Alt : 49.3300018311, Lat : 49.2838112, Lng : -123.1147623, Q1 : 0.943341076374, Q2 : 0.0473574139178, Q3 : -0.147024229169, Q4 : 0.293681532145}
2019-04-14 05:39:18.51: SIM {TimeUS : 63735329, Roll : 0.16, Pitch : -17.81, Yaw : 34.54, Alt : 49.3300018311, Lat : 49.2838147, Lng : -123.1147585, Q1 : 0.943309187889, Q2 : 0.0473722368479, Q3 : -0.147396788001, Q4 : 0.293594777584}
2019-04-14 05:39:18.61: SIM {TimeUS : 63835289, Roll : 0.16, Pitch : -17.86, Yaw : 34.54, Alt : 49.3300018311, Lat : 49.2838183, Lng : -123.1147547, Q1 : 0.943270981312, Q2 : 0.0474232174456, Q3 : -0.147813782096, Q4 : 0.293499618769}
2019-04-14 05:39:18.71: SIM {TimeUS : 63935249, Roll : 0.16, Pitch : -17.89, Yaw : 34.53, Alt : 49.3300018311, Lat : 49.2838217, Lng : -123.114751, Q1 : 0.943249166012, Q2 : 0.0475232042372, Q3 : -0.148108839989, Q4 : 0.293404847383}
2019-04-14 05:39:18.81: SIM {TimeUS : 64035209, Roll : 0.16, Pitch : -17.92, Yaw : 34.51, Alt : 49.3300018311, Lat : 49.2838251, Lng : -123.1147472, Q1 : 0.943242311478, Q2 : 0.0475612916052, Q3 : -0.148369222879, Q4 : 0.293289095163}
2019-04-14 05:39:18.91: SIM {TimeUS : 64135169, Roll : 0.15, Pitch : -17.94, Yaw : 34.5, Alt : 49.3300018311, Lat : 49.2838287, Lng : -123.1147434, Q1 : 0.9432528615, Q2 : 0.0475622005761, Q3 : -0.148540988564, Q4 : 0.293167948723}
2019-04-14 05:39:19.01: SIM {TimeUS : 64235129, Roll : 0.17, Pitch : -17.93, Yaw : 34.49, Alt : 49.3300018311, Lat : 49.2838322, Lng : -123.1147397, Q1 : 0.943292081356, Q2 : 0.0476519651711, Q3 : -0.148438036442, Q4 : 0.293079435825}
2019-04-14 05:39:19.11: SIM {TimeUS : 64335089, Roll : 0.2, Pitch : -17.94, Yaw : 34.47, Alt : 49.3300018311, Lat : 49.2838357, Lng : -123.1147359, Q1 : 0.943313717842, Q2 : 0.0478632450104, Q3 : -0.14841131866, Q4 : 0.292988806963}
2019-04-14 05:39:19.21: SIM {TimeUS : 64435049, Roll : 0.21, Pitch : -17.95, Yaw : 34.46, Alt : 49.3300018311, Lat : 49.2838391, Lng : -123.1147321, Q1 : 0.943329691887, Q2 : 0.0479687489569, Q3 : -0.148513868451, Q4 : 0.292868077755}
2019-04-14 05:39:19.31: SIM {TimeUS : 64535009, Roll : 0.22, Pitch : -17.96, Yaw : 34.44, Alt : 49.3300018311, Lat : 49.2838427, Lng : -123.1147283, Q1 : 0.943349182606, Q2 : 0.048058770597, Q3 : -0.148605778813, Q4 : 0.292743891478}
2019-04-14 05:39:19.41: SIM {TimeUS : 64634969, Roll : 0.22, Pitch : -17.96, Yaw : 34.43, Alt : 49.3300018311, Lat : 49.2838463, Lng : -123.1147245, Q1 : 0.943387031555, Q2 : 0.0480853579938, Q3 : -0.148566320539, Q4 : 0.292637556791}
2019-04-14 05:39:19.51: SIM {TimeUS : 64734929, Roll : 0.22, Pitch : -17.96, Yaw : 34.41, Alt : 49.3300018311, Lat : 49.2838498, Lng : -123.1147207, Q1 : 0.943426370621, Q2 : 0.048060093075, Q3 : -0.14852194488, Q4 : 0.292537540197}
2019-04-14 05:39:19.61: SIM {TimeUS : 64834889, Roll : 0.2, Pitch : -17.97, Yaw : 34.4, Alt : 49.3400001526, Lat : 49.2838532, Lng : -123.1147169, Q1 : 0.943440616131, Q2 : 0.0479192323983, Q3 : -0.148708641529, Q4 : 0.292419821024}
2019-04-14 05:39:19.71: SIM {TimeUS : 64934849, Roll : 0.17, Pitch : -18.01, Yaw : 34.4, Alt : 49.3400001526, Lat : 49.2838567, Lng : -123.1147131, Q1 : 0.943429231644, Q2 : 0.0477361604571, Q3 : -0.149084448814, Q4 : 0.292294979095}
2019-04-14 05:39:19.81: SIM {TimeUS : 65035642, Roll : 0.15, Pitch : -18.01, Yaw : 34.39, Alt : 49.3400001526, Lat : 49.2838603, Lng : -123.1147093, Q1 : 0.943448841572, Q2 : 0.0475984141231, Q3 : -0.149165287614, Q4 : 0.292212963104}
2019-04-14 05:39:19.91: SIM {TimeUS : 65135602, Roll : 0.16, Pitch : -17.99, Yaw : 34.38, Alt : 49.3400001526, Lat : 49.2838639, Lng : -123.1147055, Q1 : 0.943492591381, Q2 : 0.0476079918444, Q3 : -0.148952007294, Q4 : 0.29217889905}
2019-04-14 05:39:20.01: SIM {TimeUS : 65235562, Roll : 0.18, Pitch : -17.96, Yaw : 34.37, Alt : 49.3400001526, Lat : 49.2838675, Lng : -123.1147016, Q1 : 0.943532288074, Q2 : 0.0476846881211, Q3 : -0.148726373911, Q4 : 0.292153209448}
2019-04-14 05:39:20.11: SIM {TimeUS : 65335522, Roll : 0.19, Pitch : -17.97, Yaw : 34.37, Alt : 49.3400001526, Lat : 49.283871, Lng : -123.1146977, Q1 : 0.943540453911, Q2 : 0.0477630235255, Q3 : -0.148769065738, Q4 : 0.292092233896}
2019-04-14 05:39:20.21: SIM {TimeUS : 65435482, Roll : 0.18, Pitch : -18.0, Yaw : 34.36, Alt : 49.3400001526, Lat : 49.2838746, Lng : -123.114694, Q1 : 0.943532705307, Q2 : 0.0477259755135, Q3 : -0.149011954665, Q4 : 0.291999459267}
2019-04-14 05:39:20.31: SIM {TimeUS : 65535442, Roll : 0.15, Pitch : -18.03, Yaw : 34.35, Alt : 49.3400001526, Lat : 49.283878, Lng : -123.1146902, Q1 : 0.943527817726, Q2 : 0.0475494191051, Q3 : -0.14934964478, Q4 : 0.291871577501}
2019-04-14 05:39:20.41: SIM {TimeUS : 65635402, Roll : 0.14, Pitch : -18.06, Yaw : 34.34, Alt : 49.3400001526, Lat : 49.2838816, Lng : -123.1146863, Q1 : 0.943522512913, Q2 : 0.0475091226399, Q3 : -0.149633780122, Q4 : 0.2917496562}
2019-04-14 05:39:20.51: SIM {TimeUS : 65735362, Roll : 0.14, Pitch : -18.09, Yaw : 34.32, Alt : 49.3400001526, Lat : 49.2838852, Lng : -123.1146825, Q1 : 0.943514943123, Q2 : 0.0476323589683, Q3 : -0.149844110012, Q4 : 0.291646152735}
2019-04-14 05:39:20.61: SIM {TimeUS : 65835322, Roll : 0.16, Pitch : -18.11, Yaw : 34.31, Alt : 49.3400001526, Lat : 49.2838888, Lng : -123.1146787, Q1 : 0.943514227867, Q2 : 0.0477902106941, Q3 : -0.149971649051, Q4 : 0.291556954384}
2019-04-14 05:39:20.71: SIM {TimeUS : 65935282, Roll : 0.18, Pitch : -18.11, Yaw : 34.3, Alt : 49.3400001526, Lat : 49.2838923, Lng : -123.1146749, Q1 : 0.943525016308, Q2 : 0.0479888394475, Q3 : -0.149965256453, Q4 : 0.291492849588}
