2019-04-14 04:17:38.80: SIM {TimeUS : 40816167, Roll : 0.0, Pitch : 0.0, Yaw : 0.0, Alt : 30.1000003815, Lat : 49.28357, Lng : -123.11502, Q1 : 1.0, Q2 : 0.0, Q3 : 0.0, Q4 : 0.0}
2019-04-14 04:17:38.91: SIM {TimeUS : 40935286, Roll : 0.0, Pitch : 0.0, Yaw : 0.0, Alt : 30.1000003815, Lat : 49.28357, Lng : -123.11502, Q1 : 1.0, Q2 : 0.0, Q3 : 0.0, Q4 : 0.0}
2019-04-14 04:17:39.01: SIM {TimeUS : 41035246, Roll : 0.0, Pitch : 0.0, Yaw : 0.0, Alt : 30.1000003815, Lat : 49.28357, Lng : -123.11502, Q1 : 1.0, Q2 : 0.0, Q3 : 0.0, Q4 : 0.0}
2019-04-14 04:17:39.11: SIM {TimeUS : 41135206, Roll : 0.0, Pitch : 0.0, Yaw : 0.0, Alt : 30.1000003815, Lat : 49.28357, Lng : -123.11502, Q1 : 1.0, Q2 : 0.0, Q3 : 0.0, Q4 : 0.0}
2019-04-14 04:17:39.21: SIM {TimeUS : 41235166, Roll : 0.0, Pitch : 0.0, Yaw : 0.0, Alt : 30.1000003815, Lat : 49.28357, Lng : -123.11502, Q1 : 1.0, Q2 : 0.0, Q3 : 0.0, Q4 : 0.0}
2019-04-14 04:17:39.31: SIM {TimeUS : 41335126, Roll : 0.0, Pitch : 0.0, Yaw : 0.0, Alt : 30.1000003815, Lat : 49.28357, Lng : -123.11502, Q1 : 1.0, Q2 : 0.0, Q3 : 0.0, Q4 : 0.0}
2019-04-14 04:17:39.41: SIM {TimeUS : 41435086, Roll : 0.0, Pitch : 0.0, Yaw : 0.0, Alt : 30.1000003815, Lat : 49.28357, Lng : -123.11502, Q1 : 1.0, Q2 : 0.0, Q3 : 0.0, Q4 : 0.0}
2019-04-14 04:17:39.51: SIM {TimeUS : 41535046, Roll : 0.0, Pitch : 0.0, Yaw : 0.0, Alt : 30.1000003815, Lat : 49.28357, Lng : -123.11502, Q1 : 1.0, Q2 : 0.0, Q3 : 0.0, Q4 : 0.0}
2019-04-14 04:17:39.61: SIM {TimeUS : 41635006, Roll : 0.0, Pitch : 0.0, Yaw : 0.0, Alt : 30.1000003815, Lat : 49.28357, Lng : -123.11502, Q1 : 1.0, Q2 : 0.0, Q3 : 0.0, Q4 : 0.0}
2019-04-14 04:17:39.71: SIM {TimeUS : 41734966, Roll : 0.0, Pitch : 0.0, Yaw : 0.0, Alt : 30.1000003815, Lat : 49.28357, Lng : -123.11502, Q1 : 1.0, Q2 : 0.0, Q3 : 0.0, Q4 : 0.0}
2019-04-14 04:17:39.81: SIM {TimeUS : 41834926, Roll : 0.0, Pitch : 0.0, Yaw : 0.0, Alt : 30.1000003815, Lat : 49.28357, Lng : -123.11502, Q1 : 1.0, Q2 : 0.0, Q3 : 0.0, Q4 : 0.0}
2019-04-14 04:17:39.91: SIM {TimeUS : 41934886, Roll : 0.0, Pitch : 0.0, Yaw : 0.0, Alt : 30.1000003815, Lat : 49.28357, Lng : -123.11502, Q1 : 1.0, Q2 : 0.0, Q3 : 0.0, Q4 : 0.0}
2019-04-14 04:17:40.01: SIM {TimeUS : 42034846, Roll : 0.0, Pitch : 0.0, Yaw : 0.0, Alt : 30.1000003815, Lat : 49.28357, Lng : -123.11502, Q1 : 1.0, Q2 : 0.0, Q3 : 0.0, Q4 : 0.0}
2019-04-14 04:17:40.11: SIM {TimeUS : 42134806, Roll : 0.0, Pitch : 0.0, Yaw : 0.0, Alt : 30.1000003815, Lat : 49.28357, Lng : -123.11502, Q1 : 1.0, Q2 : 0.0, Q3 : 0.0, Q4 : 0.0}
2019-04-14 04:17:40.21: SIM {TimeUS : 42234766, Roll : 0.0, Pitch : 0.0, Yaw : 0.0, Alt : 30.1000003815, Lat : 49.28357, Lng : -123.11502, Q1 : 1.0, Q2 : 0.0, Q3 : 0.0, Q4 : 0.0}
2019-04-14 04:17:40.31: SIM {TimeUS : 42334726, Roll : 0.0, Pitch : 0.0, Yaw : 0.0, Alt : 30.1000003815, Lat : 49.28357, Lng : -123.11502, Q1 : 1.0, Q2 : 0.0, Q3 : 0.0, Q4 : 0.0}
2019-04-14 04:17:40.41: SIM {TimeUS : 42434686, Roll : 0.0, Pitch : 0.0, Yaw : 0.0, Alt : 30.1000003815, Lat : 49.28357, Lng : -123.11502, Q1 : 1.0, Q2 : 0.0, Q3 : 0.0, Q4 : 0.0}
2019-04-14 04:17:40.51: SIM {TimeUS : 42534646, Roll : 0.0, Pitch : 0.0, Yaw : 0.0, Alt : 30.1000003815, Lat : 49.28357, Lng : -123.11502, Q1 : 1.0, Q2 : 0.0, Q3 : 0.0, Q4 : 0.0}
2019-04-14 04:17:40.61: SIM {TimeUS : 42634606, Roll : 0.0, Pitch : 0.0, Yaw : 0.0, Alt : 30.1000003815, Lat : 49.28357, Lng : -123.11502, Q1 : 1.0, Q2 : 0.0, Q3 : 0.0, Q4 : 0.0}
2019-04-14 04:17:40.71: SIM {TimeUS : 42734566, Roll : 0.0, Pitch : 0.0, Yaw : 0.0, Alt : 30.1000003815, Lat : 49.28357, Lng : -123.11502, Q1 : 1.0, Q2 : 0.0, Q3 : 0.0, Q4 : 0.0}
2019-04-14 04:17:40.81: SIM {TimeUS : 42834526, Roll : 0.0, Pitch : 0.0, Yaw : 0.0, Alt : 30.1000003815, Lat : 49.28357, Lng : -123.11502, Q1 : 1.0, Q2 : 0.0, Q3 : 0.0, Q4 : 0.0}
2019-04-14 04:17:40.91: SIM {TimeUS : 42935319, Roll : 0.0, Pitch : 0.0, Yaw : 0.0, Alt : 30.1000003815, Lat : 49.28357, Lng : -123.11502, Q1 : 1.0, Q2 : 0.0, Q3 : 0.0, Q4 : 0.0}
2019-04-14 04:17:41.01: SIM {TimeUS : 43035279, Roll : 0.0, Pitch : 0.0, Yaw : 0.0, Alt : 30.1000003815, Lat : 49.28357, Lng : -123.11502, Q1 : 1.0, Q2 : 0.0, Q3 : 0.0, Q4 : 0.0}
2019-04-14 04:17:41.11: SIM {TimeUS : 43135239, Roll : 0.0, Pitch : 0.0, Yaw : 360.0, Alt : 30.1000003815, Lat : 49.28357, Lng : -123.11502, Q1 : 1.0, Q2 : 0.0, Q3 : 0.0, Q4 : -1.30378364355e-11}
2019-04-14 04:17:41.21: SIM {TimeUS : 43235199, Roll : 0.0, Pitch : 0.0, Yaw : 360.0, Alt : 30.1000003815, Lat : 49.28357, Lng : -123.11502, Q1 : 1.0, Q2 : 0.0, Q3 : 0.0, Q4 : -1.61347042393e-08}
2019-04-14 04:17:41.31: SIM {TimeUS : 43335159, Roll : 0.0, Pitch : 0.0, Yaw : 359.99, Alt : 30.1000003815, Lat : 49.28357, Lng : -123.11502, Q1 : 1.0, Q2 : 0.0, Q3 : 0.0, Q4 : -2.17456857854e-07}
2019-04-14 04:17:41.41: SIM {TimeUS : 43435119, Roll : 0.0, Pitch : 0.0, Yaw : 359.99, Alt : 30.1000003815, Lat : 49.28357, Lng : -123.11502, Q1 : 1.0, Q2 : 0.0, Q3 : 0.0, Q4 : -4.08245227845e-07}
2019-04-14 04:17:41.51: SIM {TimeUS : 43535079, Roll : 0.0, Pitch : 0.0, Yaw : 359.99, Alt : 30.1000003815, Lat : 49.28357, Lng : -123.11502, Q1 : 1.0, Q2 : 0.0, Q3 : 0.0, Q4 : -6.20802381945e-07}
2019-04-14 04:17:41.61: SIM {TimeUS : 43635039, Roll : 0.0, Pitch : 0.0, Yaw : 359.99, Alt : 30.1000003815, Lat : 49.28357, Lng : -123.11502, Q1 : 1.0, Q2 : 0.0, Q3 : 0.0, Q4 : -8.22876188522e-07}
2019-04-14 04:17:41.71: SIM {TimeUS : 43734999, Roll : 0.0, Pitch : 0.0, Yaw : 359.99, Alt : 30.1000003815, Lat : 49.28357, Lng : -123.11502, Q1 : 1.0, Q2 : 0.0, Q3 : 0.0, Q4 : -9.95500158751e-07}
2019-04-14 04:17:41.81: SIM {TimeUS : 43834959, Roll : 0.0, Pitch : 0.0, Yaw : 359.99, Alt : 30.1000003815, Lat : 49.28357, Lng : -123.11502, Q1 : 1.0, Q2 : 0.0, Q3 : 0.0, Q4 : -1.17972990665e-06}
2019-04-14 04:17:41.91: SIM {TimeUS : 43934919, Roll : 0.0, Pitch : 0.0, Yaw : 359.99, Alt : 30.1000003815, Lat : 49.28357, Lng : -123.11502, Q1 : 1.0, Q2 : 0.0, Q3 : 0.0, Q4 : -1.3805429262e-06}
2019-04-14 04:17:42.01: SIM {TimeUS : 44034879, Roll : 0.0, Pitch : 0.0, Yaw : 359.99, Alt : 30.1200008392, Lat : 49.28357, Lng : -123.11502, Q1 : 1.0, Q2 : 0.0, Q3 : 0.0, Q4 : -1.55610359798e-06}
2019-04-14 04:17:42.11: SIM {TimeUS : 44134839, Roll : 0.0, Pitch : 0.0, Yaw : 359.99, Alt : 30.1499996185, Lat : 49.28357, Lng : -123.11502, Q1 : 1.0, Q2 : 0.0, Q3 : 0.0, Q4 : -1.81880204764e-06}
2019-04-14 04:17:42.21: SIM {TimeUS : 44234799, Roll : 0.0, Pitch : 0.0, Yaw : 359.99, Alt : 30.1800003052, Lat : 49.28357, Lng : -123.11502, Q1 : 1.0, Q2 : 0.0, Q3 : 0.0, Q4 : -2.06184176932e-06}
2019-04-14 04:17:42.31: SIM {TimeUS : 44334759, Roll : 0.0, Pitch : 0.0, Yaw : 359.99, Alt : 30.2099990845, Lat : 49.28357, Lng : -123.11502, Q1 : 1.0, Q2 : -7.32536864234e-06, Q3 : -7.5440798355e-06, Q4 : -2.18642730943e-06}
2019-04-14 04:17:42.41: SIM {TimeUS : 44434719, Roll : -0.16, Pitch : -0.16, Yaw : 359.99, Alt : 30.2700004578, Lat : 49.28357, Lng : -123.11502, Q1 : 0.999998033047, Q2 : -0.00141816399992, Q3 : -0.00140721607022, Q4 : -1.70366056409e-05}
2019-04-14 04:17:42.51: SIM {TimeUS : 44534679, Roll : -0.47, Pitch : -0.41, Yaw : 359.99, Alt : 30.3899993896, Lat : 49.28357, Lng : -123.11502, Q1 : 0.99998497963, Q2 : -0.00414405949414, Q3 : -0.00358851370402, Q4 : -6.15807148279e-05}
2019-04-14 04:17:42.61: SIM {TimeUS : 44634639, Roll : -0.76, Pitch : -0.6, Yaw : 359.98, Alt : 30.5400009155, Lat : 49.28357, Lng : -123.11502, Q1 : 0.999963998795, Q2 : -0.00665355753154, Q3 : -0.00526213133708, Q4 : -0.000126299506519}
2019-04-14 04:17:42.71: SIM {TimeUS : 44734599, Roll : -0.88, Pitch : -0.68, Yaw : 359.98, Alt : 30.7000007629, Lat : 49.28357, Lng : -123.11502, Q1 : 0.999951839447, Q2 : -0.00776489730924, Q3 : -0.00599567685276, Q4 : -0.000203363757464}
2019-04-14 04:17:42.81: SIM {TimeUS : 44834559, Roll : -0.83, Pitch : -0.65, Yaw : 359.97, Alt : 30.8500003815, Lat : 49.28357, Lng : -123.11502, Q1 : 0.999957203865, Q2 : -0.00726203294471, Q3 : -0.00572445150465, Q4 : -0.000286050431896}
2019-04-14 04:17:42.91: SIM {TimeUS : 44934519, Roll : -0.64, Pitch : -0.53, Yaw : 359.96, Alt : 31.0100002289, Lat : 49.28357, Lng : -123.1150201, Q1 : 0.999973356724, Q2 : -0.0056023048237, Q3 : -0.00466762250289, Q4 : -0.00036048021866}
2019-04-14 04:17:43.01: SIM {TimeUS : 45035312, Roll : -0.38, Pitch : -0.36, Yaw : 359.95, Alt : 31.1599998474, Lat : 49.2835701, Lng : -123.1150202, Q1 : 0.999989151955, Q2 : -0.00337982247584, Q3 : -0.00318261329085, Q4 : -0.00042024202412}
2019-04-14 04:17:43.11: SIM {TimeUS : 45135272, Roll : -0.14, Pitch : -0.19, Yaw : 359.94, Alt : 31.3299999237, Lat : 49.2835701, Lng : -123.1150203, Q1 : 0.999997675419, Q2 : -0.00129770499188, Q3 : -0.00167582964059, Q4 : -0.000465475808596}
2019-04-14 04:17:43.21: SIM {TimeUS : 45235232, Roll : 0.01, Pitch : -0.04, Yaw : 359.94, Alt : 31.5, Lat : 49.2835702, Lng : -123.1150203, Q1 : 0.999999761581, Q2 : 0.000127206731122, Q3 : -0.000381978199584, Q4 : -0.000497546046972}
2019-04-14 04:17:43.31: SIM {TimeUS : 45335192, Roll : 0.08, Pitch : 0.06, Yaw : 359.94, Alt : 31.6700000763, Lat : 49.2835702, Lng : -123.1150204, Q1 : 0.999999463558, Q2 : 0.000750593375415, Q3 : 0.000524264352862, Q4 : -0.0005176893319}
2019-04-14 04:17:43.41: SIM {TimeUS : 45435152, Roll : 0.07, Pitch : 0.11, Yaw : 359.93, Alt : 31.8500003815, Lat : 49.2835703, Lng : -123.1150205, Q1 : 0.99999910593, Q2 : 0.0006699685473, Q3 : 0.000998934963718, Q4 : -0.000525761279278}
2019-04-14 04:17:43.51: SIM {TimeUS : 45535112, Roll : 0.05, Pitch : 0.13, Yaw : 359.93, Alt : 32.0400009155, Lat : 49.2835703, Lng : -123.1150205, Q1 : 0.999998986721, Q2 : 0.000475239154184, Q3 : 0.00121361983474, Q4 : -0.000536414969247}
2019-04-14 04:17:43.61: SIM {TimeUS : 45635072, Roll : 0.04, Pitch : 0.14, Yaw : 359.93, Alt : 32.2200012207, Lat : 49.2835703, Lng : -123.1150206, Q1 : 0.999998986721, Q2 : 0.0003793532087, Q3 : 0.00125425925944, Q4 : -0.000538559688721}
2019-04-14 04:17:43.71: SIM {TimeUS : 45735032, Roll : 0.03, Pitch : 0.14, Yaw : 359.93, Alt : 32.4199981689, Lat : 49.2835703, Lng : -123.1150206, Q1 : 0.999998986721, Q2 : 0.00033989030635, Q3 : 0.00127321935724, Q4 : -0.000536279694643}
2019-04-14 04:17:43.81: SIM {TimeUS : 45834992, Roll : 0.05, Pitch : 0.16, Yaw : 359.94, Alt : 32.6100006104, Lat : 49.2835703, Lng : -123.1150207, Q1 : 0.999998748302, Q2 : 0.000483533745864, Q3 : 0.0014021913521, Q4 : -0.000521404086612}
2019-04-14 04:17:43.91: SIM {TimeUS : 45934952, Roll : 0.08, Pitch : 0.14, Yaw : 359.94, Alt : 32.8100013733, Lat : 49.2835703, Lng : -123.1150207, Q1 : 0.999998748302, Q2 : 0.00075923698023, Q3 : 0.00130118918605, Q4 : -0.000504316936713}
2019-04-14 04:17:44.01: SIM {TimeUS : 46034912, Roll : 0.12, Pitch : 0.12, Yaw : 359.94, Alt : 33.0099983215, Lat : 49.2835704, Lng : -123.1150207, Q1 : 0.999998748302, Q2 : 0.00108168879524, Q3 : 0.00105502293445, Q4 : -0.000487060373416}
2019-04-14 04:17:44.11: SIM {TimeUS : 46134872, Roll : 0.15, Pitch : 0.1, Yaw : 359.94, Alt : 33.2099990845, Lat : 49.2835704, Lng : -123.1150208, Q1 : 0.999998509884, Q2 : 0.0013765366748, Q3 : 0.000906358996872, Q4 : -0.000472724728752}
2019-04-14 04:17:44.21: SIM {TimeUS : 46234832, Roll : 0.18, Pitch : 0.1, Yaw : 359.94, Alt : 33.4099998474, Lat : 49.2835704, Lng : -123.1150208, Q1 : 0.999998271465, Q2 : 0.00157311290968, Q3 : 0.000896878365893, Q4 : -0.000456433888758}
2019-04-14 04:17:44.31: SIM {TimeUS : 46334792, Roll : 0.19, Pitch : 0.11, Yaw : 359.95, Alt : 33.6199989319, Lat : 49.2835704, Lng : -123.1150208, Q1 : 0.999997973442, Q2 : 0.00169236736838, Q3 : 0.00103347469121, Q4 : -0.000437073176727}
2019-04-14 04:17:44.41: SIM {TimeUS : 46434752, Roll : 0.18, Pitch : 0.12, Yaw : 359.95, Alt : 33.8300018311, Lat : 49.2835704, Lng : -123.1150208, Q1 : 0.999997973442, Q2 : 0.0016318942653, Q3 : 0.00109447108116, Q4 : -0.000425377977081}
2019-04-14 04:17:44.51: SIM {TimeUS : 46534712, Roll : 0.16, Pitch : 0.12, Yaw : 359.95, Alt : 34.0400009155, Lat : 49.2835704, Lng : -123.1150208, Q1 : 0.999998271465, Q2 : 0.00142554275226, Q3 : 0.00110635953024, Q4 : -0.000414594338508}
2019-04-14 04:17:44.61: SIM {TimeUS : 46634672, Roll : 0.13, Pitch : 0.12, Yaw : 359.95, Alt : 34.25, Lat : 49.2835704, Lng : -123.1150208, Q1 : 0.999998569489, Q2 : 0.00115734443534, Q3 : 0.00113005121239, Q4 : -0.000412500812672}
2019-04-14 04:17:44.71: SIM {TimeUS : 46734632, Roll : 0.1, Pitch : 0.12, Yaw : 359.95, Alt : 34.4599990845, Lat : 49.2835704, Lng : -123.1150208, Q1 : 0.999998927116, Q2 : 0.000910724105779, Q3 : 0.00110051175579, Q4 : -0.00041611524648}
2019-04-14 04:17:44.81: SIM {TimeUS : 46834592, Roll : 0.09, Pitch : 0.08, Yaw : 359.94, Alt : 34.6699981689, Lat : 49.2835704, Lng : -123.1150208, Q1 : 0.999999284744, Q2 : 0.000799596717115, Q3 : 0.000771989638451, Q4 : -0.000441013864474}
2019-04-14 04:17:44.91: SIM {TimeUS : 46934552, Roll : 0.08, Pitch : 0.05, Yaw : 359.94, Alt : 34.8899993896, Lat : 49.2835704, Lng : -123.1150208, Q1 : 0.999999523163, Q2 : 0.000752446008846, Q3 : 0.00044759051525, Q4 : -0.000485760363517}
2019-04-14 04:17:45.01: SIM {TimeUS : 47034512, Roll : 0.06, Pitch : 0.02, Yaw : 359.93, Alt : 35.0999984741, Lat : 49.2835704, Lng : -123.1150208, Q1 : 0.999999642372, Q2 : 0.000605899840593, Q3 : 0.000235105850152, Q4 : -0.000532762496732}
2019-04-14 04:17:45.11: SIM {TimeUS : 47135305, Roll : 0.05, Pitch : 0.02, Yaw : 359.93, Alt : 35.3199996948, Lat : 49.2835704, Lng : -123.1150207, Q1 : 0.999999701977, Q2 : 0.000485888449475, Q3 : 0.000175968321855, Q4 : -0.000577304745093}
2019-04-14 04:17:45.21: SIM {TimeUS : 47235265, Roll : 0.05, Pitch : 0.01, Yaw : 359.92, Alt : 35.5400009155, Lat : 49.2835704, Lng : -123.1150207, Q1 : 0.999999701977, Q2 : 0.000447238475317, Q3 : 0.000164086159202, Q4 : -0.000616478617303}
2019-04-14 04:17:45.31: SIM {TimeUS : 47335225, Roll : 0.02, Pitch : 0.0, Yaw : 359.92, Alt : 35.7599983215, Lat : 49.2835704, Lng : -123.1150207, Q1 : 0.999999761581, Q2 : 0.00024913623929, Q3 : -1.4972722056e-05, Q4 : -0.000656179676298}
2019-04-14 04:17:45.41: SIM {TimeUS : 47435185, Roll : 0.0, Pitch : -0.03, Yaw : 359.92, Alt : 35.9799995422, Lat : 49.2835704, Lng : -123.1150207, Q1 : 0.999999701977, Q2 : -5.49714422959e-05, Q3 : -0.000305413530441, Q4 : -0.000692384899594}
2019-04-14 04:17:45.51: SIM {TimeUS : 47535145, Roll : -0.04, Pitch : -0.05, Yaw : 359.91, Alt : 36.2000007629, Lat : 49.2835704, Lng : -123.1150207, Q1 : 0.999999523163, Q2 : -0.000383018283173, Q3 : -0.000515223713592, Q4 : -0.000728245533537}
2019-04-14 04:17:45.61: SIM {TimeUS : 47635105, Roll : -0.07, Pitch : -0.07, Yaw : 359.91, Alt : 36.4199981689, Lat : 49.2835704, Lng : -123.1150207, Q1 : 0.999999284744, Q2 : -0.000660251243971, Q3 : -0.00062854657881, Q4 : -0.000760629714932}
2019-04-14 04:17:45.71: SIM {TimeUS : 47735065, Roll : -0.08, Pitch : -0.07, Yaw : 359.91, Alt : 36.6399993896, Lat : 49.2835704, Lng : -123.1150206, Q1 : 0.99999922514, Q2 : -0.000701930432115, Q3 : -0.000617557321675, Q4 : -0.000784593285061}
2019-04-14 04:17:45.81: SIM {TimeUS : 47835025, Roll : -0.08, Pitch : -0.06, Yaw : 359.9, Alt : 36.8699989319, Lat : 49.2835704, Lng : -123.1150206, Q1 : 0.999999284744, Q2 : -0.000698796880897, Q3 : -0.000586623151321, Q4 : -0.000805229006801}
2019-04-14 04:17:45.91: SIM {TimeUS : 47934985, Roll : -0.07, Pitch : -0.05, Yaw : 359.9, Alt : 37.0900001526, Lat : 49.2835704, Lng : -123.1150206, Q1 : 0.999999344349, Q2 : -0.000647710228804, Q3 : -0.000461999617983, Q4 : -0.000820631510578}
2019-04-14 04:17:46.01: SIM {TimeUS : 48034945, Roll : -0.06, Pitch : -0.04, Yaw : 359.9, Alt : 37.3199996948, Lat : 49.2835704, Lng : -123.1150206, Q1 : 0.999999403954, Q2 : -0.000566108035855, Q3 : -0.000391007604776, Q4 : -0.000827210547868}
2019-04-14 04:17:46.11: SIM {TimeUS : 48134905, Roll : -0.07, Pitch : -0.04, Yaw : 359.9, Alt : 37.5400009155, Lat : 49.2835704, Lng : -123.1150206, Q1 : 0.999999344349, Q2 : -0.000629302870948, Q3 : -0.000405904458603, Q4 : -0.000835632730741}
2019-04-14 04:17:46.21: SIM {TimeUS : 48234865, Roll : -0.08, Pitch : -0.03, Yaw : 359.9, Alt : 37.7700004578, Lat : 49.2835704, Lng : -123.1150206, Q1 : 0.999999344349, Q2 : -0.000715599162504, Q3 : -0.000281626184005, Q4 : -0.000844714115374}
2019-04-14 04:17:46.31: SIM {TimeUS : 48334825, Roll : -0.1, Pitch : -0.01, Yaw : 359.9, Alt : 37.9900016785, Lat : 49.2835704, Lng : -123.1150206, Q1 : 0.99999922514, Q2 : -0.000908667570911, Q3 : -0.00011038017692, Q4 : -0.0008525524172}
2019-04-14 04:17:46.41: SIM {TimeUS : 48434785, Roll : -0.1, Pitch : 0.0, Yaw : 359.9, Alt : 38.2200012207, Lat : 49.2835704, Lng : -123.1150206, Q1 : 0.99999922514, Q2 : -0.000910120666958, Q3 : 2.18119039346e-05, Q4 : -0.000854594807606}
2019-04-14 04:17:46.51: SIM {TimeUS : 48534745, Roll : -0.08, Pitch : 0.03, Yaw : 359.9, Alt : 38.4500007629, Lat : 49.2835704, Lng : -123.1150206, Q1 : 0.999999344349, Q2 : -0.000700060627423, Q3 : 0.000292205048027, Q4 : -0.000857101287693}
2019-04-14 04:17:46.61: SIM {TimeUS : 48634705, Roll : -0.05, Pitch : 0.03, Yaw : 359.9, Alt : 38.6800003052, Lat : 49.2835704, Lng : -123.1150206, Q1 : 0.999999463558, Q2 : -0.00045937957475, Q3 : 0.000276131293504, Q4 : -0.000868577393703}
2019-04-14 04:17:46.71: SIM {TimeUS : 48734665, Roll : -0.01, Pitch : 0.02, Yaw : 359.89, Alt : 38.9099998474, Lat : 49.2835704, Lng : -123.1150206, Q1 : 0.999999582767, Q2 : -0.000172018815647, Q3 : 0.000181484996574, Q4 : -0.000881317420863}
2019-04-14 04:17:46.81: SIM {TimeUS : 48834625, Roll : 0.01, Pitch : 0.03, Yaw : 359.89, Alt : 39.1399993896, Lat : 49.2835704, Lng : -123.1150206, Q1 : 0.999999582767, Q2 : 0.000147023878526, Q3 : 0.000290917552775, Q4 : -0.000895129633136}
2019-04-14 04:17:46.91: SIM {TimeUS : 48934585, Roll : 0.05, Pitch : 0.05, Yaw : 359.89, Alt : 39.3600006104, Lat : 49.2835704, Lng : -123.1150206, Q1 : 0.999999344349, Q2 : 0.000446007412393, Q3 : 0.000519906287082, Q4 : -0.000917751982342}
2019-04-14 04:17:47.01: SIM {TimeUS : 49034545, Roll : 0.07, Pitch : 0.08, Yaw : 359.89, Alt : 39.5999984741, Lat : 49.2835704, Lng : -123.1150206, Q1 : 0.999999046326, Q2 : 0.00065192457987, Q3 : 0.000741247320548, Q4 : -0.000947917578742}
2019-04-14 04:17:47.11: SIM {TimeUS : 49134505, Roll : 0.06, Pitch : 0.1, Yaw : 359.88, Alt : 39.8300018311, Lat : 49.2835706, Lng : -123.1150206, Q1 : 0.999998927116, Q2 : 0.00056399294408, Q3 : 0.000949493376538, Q4 : -0.000975346774794}
2019-04-14 04:17:47.21: SIM {TimeUS : 49235298, Roll : 0.01, Pitch : 0.12, Yaw : 359.88, Alt : 40.0600013733, Lat : 49.2835706, Lng : -123.1150206, Q1 : 0.999998867512, Q2 : 0.000150304607814, Q3 : 0.00112806435209, Q4 : -0.00101947691292}
2019-04-14 04:17:47.31: SIM {TimeUS : 49335258, Roll : -0.01, Pitch : 0.11, Yaw : 359.87, Alt : 40.2900009155, Lat : 49.2835706, Lng : -123.1150206, Q1 : 0.999998867512, Q2 : -0.000164482495165, Q3 : 0.0010391115211, Q4 : -0.00105632632039}
2019-04-14 04:17:47.41: SIM {TimeUS : 49435218, Roll : -0.04, Pitch : 0.08, Yaw : 359.87, Alt : 40.5200004578, Lat : 49.2835706, Lng : -123.1150206, Q1 : 0.999999046326, Q2 : -0.000377530959668, Q3 : 0.00076906074537, Q4 : -0.00109408330172}
2019-04-14 04:17:47.51: SIM {TimeUS : 49535178, Roll : -0.05, Pitch : 0.06, Yaw : 359.87, Alt : 40.75, Lat : 49.2835706, Lng : -123.1150206, Q1 : 0.99999910593, Q2 : -0.000458516296931, Q3 : 0.000595914723817, Q4 : -0.00113021687139}
2019-04-14 04:17:47.61: SIM {TimeUS : 49635138, Roll : -0.03, Pitch : 0.08, Yaw : 359.86, Alt : 40.9900016785, Lat : 49.2835706, Lng : -123.1150206, Q1 : 0.999999046326, Q2 : -0.000344673724612, Q3 : 0.000703284400515, Q4 : -0.00116900773719}
2019-04-14 04:17:47.71: SIM {TimeUS : 49735098, Roll : 0.0, Pitch : 0.11, Yaw : 359.86, Alt : 41.2200012207, Lat : 49.2835706, Lng : -123.1150206, Q1 : 0.999998807907, Q2 : 4.15464382968e-05, Q3 : 0.000989322783425, Q4 : -0.0011993177468}
2019-04-14 04:17:47.81: SIM {TimeUS : 49835058, Roll : 0.05, Pitch : 0.13, Yaw : 359.85, Alt : 41.4500007629, Lat : 49.2835706, Lng : -123.1150207, Q1 : 0.999998390675, Q2 : 0.000488650868647, Q3 : 0.00119732064195, Q4 : -0.00122890598141}
2019-04-14 04:17:47.91: SIM {TimeUS : 49935018, Roll : 0.08, Pitch : 0.11, Yaw : 359.85, Alt : 41.6899986267, Lat : 49.2835706, Lng : -123.1150207, Q1 : 0.999998450279, Q2 : 0.000762867974117, Q3 : 0.00100548600312, Q4 : -0.00125624856446}
2019-04-14 04:17:48.01: SIM {TimeUS : 50034978, Roll : 0.08, Pitch : 0.07, Yaw : 359.85, Alt : 41.9199981689, Lat : 49.2835706, Lng : -123.1150207, Q1 : 0.999998688698, Q2 : 0.000757202506065, Q3 : 0.000634888070635, Q4 : -0.00128258438781}
2019-04-14 04:17:48.11: SIM {TimeUS : 50134938, Roll : 0.05, Pitch : 0.04, Yaw : 359.85, Alt : 42.1500015259, Lat : 49.2835706, Lng : -123.1150207, Q1 : 0.999998986721, Q2 : 0.000442771910457, Q3 : 0.000351755850716, Q4 : -0.00130178441759}
2019-04-14 04:17:48.21: SIM {TimeUS : 50234898, Roll : 0.0, Pitch : 0.03, Yaw : 359.84, Alt : 42.3899993896, Lat : 49.2835706, Lng : -123.1150207, Q1 : 0.99999910593, Q2 : -2.03622148547e-05, Q3 : 0.000298175640637, Q4 : -0.00131581304595}
2019-04-14 04:17:48.31: SIM {TimeUS : 50334858, Roll : -0.03, Pitch : 0.06, Yaw : 359.84, Alt : 42.6199989319, Lat : 49.2835706, Lng : -123.1150207, Q1 : 0.999998927116, Q2 : -0.000312482181471, Q3 : 0.000541956687812, Q4 : -0.00132259284146}
2019-04-14 04:17:48.41: SIM {TimeUS : 50434818, Roll : -0.04, Pitch : 0.08, Yaw : 359.84, Alt : 42.8600006104, Lat : 49.2835704, Lng : -123.1150206, Q1 : 0.999998807907, Q2 : -0.000424462166848, Q3 : 0.000716020178515, Q4 : -0.00132659100927}
2019-04-14 04:17:48.51: SIM {TimeUS : 50534778, Roll : -0.04, Pitch : 0.07, Yaw : 359.84, Alt : 43.0900001526, Lat : 49.2835704, Lng : -123.1150206, Q1 : 0.999998807907, Q2 : -0.000382160244044, Q3 : 0.000694766407833, Q4 : -0.0013334385585}
2019-04-14 04:17:48.61: SIM {TimeUS : 50634738, Roll : -0.04, Pitch : 0.06, Yaw : 359.84, Alt : 43.3300018311, Lat : 49.2835704, Lng : -123.1150206, Q1 : 0.999998867512, Q2 : -0.000394235714339, Q3 : 0.000575474870857, Q4 : -0.00134340988006}
2019-04-14 04:17:48.71: SIM {TimeUS : 50734698, Roll : -0.03, Pitch : 0.04, Yaw : 359.84, Alt : 43.5600013733, Lat : 49.2835704, Lng : -123.1150206, Q1 : 0.999998927116, Q2 : -0.000323131971527, Q3 : 0.000426242535468, Q4 : -0.00135820789728}
2019-04-14 04:17:48.81: SIM {TimeUS : 50834658, Roll : -0.01, Pitch : 0.04, Yaw : 359.84, Alt : 43.7999992371, Lat : 49.2835704, Lng : -123.1150206, Q1 : 0.999998986721, Q2 : -0.000165865654708, Q3 : 0.000360667501809, Q4 : -0.00138121750206}
2019-04-14 04:17:48.91: SIM {TimeUS : 50934618, Roll : 0.0, Pitch : 0.04, Yaw : 359.83, Alt : 44.0299987793, Lat : 49.2835704, Lng : -123.1150206, Q1 : 0.999998927116, Q2 : -6.3009931182e-05, Q3 : 0.00037477578735, Q4 : -0.00140567321796}
2019-04-14 04:17:49.01: SIM {TimeUS : 51034578, Roll : -0.01, Pitch : 0.02, Yaw : 359.83, Alt : 44.2700004578, Lat : 49.2835704, Lng : -123.1150206, Q1 : 0.999998927116, Q2 : -9.85936931102e-05, Q3 : 0.000208501049201, Q4 : -0.00143095536623}
2019-04-14 04:17:49.11: SIM {TimeUS : 51134538, Roll : -0.02, Pitch : 0.0, Yaw : 359.83, Alt : 44.5, Lat : 49.2835704, Lng : -123.1150206, Q1 : 0.999998927116, Q2 : -0.000181327530299, Q3 : -8.68713177624e-05, Q4 : -0.00146199588198}
2019-04-14 04:17:49.21: SIM {TimeUS : 51234498, Roll : -0.02, Pitch : -0.02, Yaw : 359.82, Alt : 44.7400016785, Lat : 49.2835704, Lng : -123.1150206, Q1 : 0.999998807907, Q2 : -0.0002348167327, Q3 : -0.000243746937485, Q4 : -0.00149415701162}
2019-04-14 04:17:49.31: SIM {TimeUS : 51335291, Roll : -0.02, Pitch : -0.04, Yaw : 359.82, Alt : 44.9799995422, Lat : 49.2835704, Lng : -123.1150206, Q1 : 0.999998748302, Q2 : -0.000229100871366, Q3 : -0.000361190468539, Q4 : -0.00152736203745}
2019-04-14 04:17:49.41: SIM {TimeUS : 51435251, Roll : -0.02, Pitch : -0.04, Yaw : 359.82, Alt : 45.2099990845, Lat : 49.2835704, Lng : -123.1150206, Q1 : 0.999998688698, Q2 : -0.000259292311966, Q3 : -0.000394318572944, Q4 : -0.00155960139818}
2019-04-14 04:17:49.51: SIM {TimeUS : 51535211, Roll : -0.04, Pitch : -0.03, Yaw : 359.81, Alt : 45.4500007629, Lat : 49.2835704, Lng : -123.1150206, Q1 : 0.999998569489, Q2 : -0.00042154971743, Q3 : -0.000333428091835, Q4 : -0.00159543810878}
2019-04-14 04:17:49.61: SIM {TimeUS : 51635171, Roll : -0.07, Pitch : -0.03, Yaw : 359.81, Alt : 45.6800003052, Lat : 49.2835704, Lng : -123.1150206, Q1 : 0.999998390675, Q2 : -0.000698579882737, Q3 : -0.000276630860753, Q4 : -0.00163250428159}
2019-04-14 04:17:49.71: SIM {TimeUS : 51735131, Roll : -0.1, Pitch : -0.02, Yaw : 359.8, Alt : 45.9199981689, Lat : 49.2835703, Lng : -123.1150206, Q1 : 0.999998152256, Q2 : -0.000907297420781, Q3 : -0.000212857921724, Q4 : -0.00166739686392}
2019-04-14 04:17:49.81: SIM {TimeUS : 51835091, Roll : -0.1, Pitch : 0.0, Yaw : 359.8, Alt : 46.1500015259, Lat : 49.2835703, Lng : -123.1150206, Q1 : 0.999998092651, Q2 : -0.000957679527346, Q3 : -6.78531068843e-05, Q4 : -0.00169675960205}
2019-04-14 04:17:49.91: SIM {TimeUS : 51935051, Roll : -0.09, Pitch : 0.01, Yaw : 359.8, Alt : 46.3699989319, Lat : 49.2835704, Lng : -123.1150206, Q1 : 0.999998152256, Q2 : -0.000844128197059, Q3 : 0.000166170546436, Q4 : -0.00171904673334}
2019-04-14 04:17:50.01: SIM {TimeUS : 52035011, Roll : -0.07, Pitch : 0.03, Yaw : 359.8, Alt : 46.5900001526, Lat : 49.2835704, Lng : -123.1150206, Q1 : 0.999998211861, Q2 : -0.000617720652372, Q3 : 0.000312046700856, Q4 : -0.00174024619628}
2019-04-14 04:17:50.11: SIM {TimeUS : 52134971, Roll : -0.04, Pitch : 0.03, Yaw : 359.79, Alt : 46.8100013733, Lat : 49.2835704, Lng : -123.1150206, Q1 : 0.99999833107, Q2 : -0.000421290285885, Q3 : 0.00029620694113, Q4 : -0.0017607845366}
2019-04-14 04:17:50.21: SIM {TimeUS : 52234931, Roll : -0.03, Pitch : 0.01, Yaw : 359.79, Alt : 47.0200004578, Lat : 49.2835704, Lng : -123.1150206, Q1 : 0.99999833107, Q2 : -0.000324447726598, Q3 : 0.000144564241054, Q4 : -0.0017792340368}
2019-04-14 04:17:50.31: SIM {TimeUS : 52334891, Roll : -0.01, Pitch : -0.01, Yaw : 359.79, Alt : 47.2200012207, Lat : 49.2835703, Lng : -123.1150206, Q1 : 0.99999833107, Q2 : -0.000166873403941, Q3 : -0.000138706498547, Q4 : -0.00180003140122}
2019-04-14 04:17:50.41: SIM {TimeUS : 52434851, Roll : 0.0, Pitch : -0.05, Yaw : 359.79, Alt : 47.4199981689, Lat : 49.2835703, Lng : -123.1150206, Q1 : 0.999998271465, Q2 : 4.20721189585e-05, Q3 : -0.000440091855126, Q4 : -0.00182025891263}
2019-04-14 04:17:50.51: SIM {TimeUS : 52534811, Roll : 0.01, Pitch : -0.07, Yaw : 359.78, Alt : 47.5999984741, Lat : 49.2835703, Lng : -123.1150206, Q1 : 0.999998092651, Q2 : 0.000133926107083, Q3 : -0.000663211452775, Q4 : -0.00184485060163}
2019-04-14 04:17:50.61: SIM {TimeUS : 52634771, Roll : 0.02, Pitch : -0.11, Yaw : 359.78, Alt : 47.7799987793, Lat : 49.2835703, Lng : -123.1150206, Q1 : 0.999997735023, Q2 : 0.000201700138859, Q3 : -0.000977190095, Q4 : -0.0018713765312}
2019-04-14 04:17:50.71: SIM {TimeUS : 52734731, Roll : 0.04, Pitch : -0.12, Yaw : 359.78, Alt : 47.9399986267, Lat : 49.2835703, Lng : -123.1150206, Q1 : 0.999997496605, Q2 : 0.000424970785389, Q3 : -0.00110536511056, Q4 : -0.00189697463065}
2019-04-14 04:17:50.81: SIM {TimeUS : 52834691, Roll : 0.07, Pitch : -0.11, Yaw : 359.77, Alt : 48.0999984741, Lat : 49.2835703, Lng : -123.1150206, Q1 : 0.999997437, Q2 : 0.000651777372696, Q3 : -0.00102438020986, Q4 : -0.00192004651763}
2019-04-14 04:17:50.91: SIM {TimeUS : 52934651, Roll : 0.09, Pitch : -0.09, Yaw : 359.77, Alt : 48.2400016785, Lat : 49.2835704, Lng : -123.1150206, Q1 : 0.999997437, Q2 : 0.000792652950622, Q3 : -0.00083671376342, Q4 : -0.00193994457368}
2019-04-14 04:17:51.01: SIM {TimeUS : 53034611, Roll : 0.08, Pitch : -0.06, Yaw : 359.77, Alt : 48.3600006104, Lat : 49.2835704, Lng : -123.1150206, Q1 : 0.999997615814, Q2 : 0.000763004587498, Q3 : -0.000601205218118, Q4 : -0.0019617904909}
2019-04-14 04:17:51.11: SIM {TimeUS : 53134571, Roll : 0.07, Pitch : -0.04, Yaw : 359.77, Alt : 48.4799995422, Lat : 49.2835704, Lng : -123.1150206, Q1 : 0.999997735023, Q2 : 0.000694043177646, Q3 : -0.000427052989835, Q4 : -0.00198552524671}
2019-04-14 04:17:51.21: SIM {TimeUS : 53234531, Roll : 0.06, Pitch : -0.05, Yaw : 359.76, Alt : 48.5900001526, Lat : 49.2835704, Lng : -123.1150206, Q1 : 0.999997735023, Q2 : 0.000574808218516, Q3 : -0.00044731789967, Q4 : -0.00201121624559}
2019-04-14 04:17:51.31: SIM {TimeUS : 53335324, Roll : 0.04, Pitch : -0.05, Yaw : 359.76, Alt : 48.6800003052, Lat : 49.2835704, Lng : -123.1150206, Q1 : 0.999997735023, Q2 : 0.000353741779691, Q3 : -0.000462241529021, Q4 : -0.00204325839877}
2019-04-14 04:17:51.41: SIM {TimeUS : 53435284, Roll : 0.01, Pitch : -0.04, Yaw : 359.76, Alt : 48.7599983215, Lat : 49.2835704, Lng : -123.1150206, Q1 : 0.999997735023, Q2 : 0.000163989403518, Q3 : -0.0003830473579, Q4 : -0.00207574106753}
2019-04-14 04:17:51.51: SIM {TimeUS : 53535244, Roll : 0.0, Pitch : -0.02, Yaw : 359.75, Alt : 48.8300018311, Lat : 49.2835704, Lng : -123.1150206, Q1 : 0.999997735023, Q2 : 1.00193392427e-05, Q3 : -0.000231852376601, Q4 : -0.00210763211362}
2019-04-14 04:17:51.61: SIM {TimeUS : 53635204, Roll : 0.0, Pitch : 0.0, Yaw : 359.75, Alt : 48.8899993896, Lat : 49.2835704, Lng : -123.1150206, Q1 : 0.999997735023, Q2 : -6.3823776145e-05, Q3 : 8.10293499853e-07, Q4 : -0.00213564955629}
2019-04-14 04:17:51.71: SIM {TimeUS : 53735164, Roll : 0.0, Pitch : 0.03, Yaw : 359.75, Alt : 48.9399986267, Lat : 49.2835704, Lng : -123.1150206, Q1 : 0.999997615814, Q2 : 5.52658711968e-05, Q3 : 0.000297875201795, Q4 : -0.00216266326606}
2019-04-14 04:17:51.81: SIM {TimeUS : 53835124, Roll : 0.04, Pitch : 0.02, Yaw : 359.74, Alt : 48.9799995422, Lat : 49.2835704, Lng : -123.1150206, Q1 : 0.999997496605, Q2 : 0.000426467100624, Q3 : 0.000235121435253, Q4 : -0.00218417635188}
2019-04-14 04:17:51.91: SIM {TimeUS : 53935084, Roll : 0.17, Pitch : -0.14, Yaw : 359.74, Alt : 49.0200004578, Lat : 49.2835704, Lng : -123.1150206, Q1 : 0.999995648861, Q2 : 0.00152803421952, Q3 : -0.00123937777244, Q4 : -0.00219844887033}
2019-04-14 04:17:52.01: SIM {TimeUS : 54035044, Roll : 0.42, Pitch : -0.53, Yaw : 359.74, Alt : 49.0499992371, Lat : 49.2835704, Lng : -123.1150206, Q1 : 0.999979913235, Q2 : 0.00371235655621, Q3 : -0.00464557576925, Q4 : -0.00221126526594}
2019-04-14 04:17:52.11: SIM {TimeUS : 54135004, Roll : 0.81, Pitch : -1.15, Yaw : 359.73, Alt : 49.0800018311, Lat : 49.2835704, Lng : -123.1150206, Q1 : 0.99992197752, Q2 : 0.00706324679777, Q3 : -0.0100617408752, Q4 : -0.00221687904559}
2019-04-14 04:17:52.21: SIM {TimeUS : 54234964, Roll : 1.32, Pitch : -1.94, Yaw : 359.72, Alt : 49.1100006104, Lat : 49.2835706, Lng : -123.1150206, Q1 : 0.999786794186, Q2 : 0.011501419358, Q3 : -0.0170095842332, Q4 : -0.00219909986481}
2019-04-14 04:17:52.31: SIM {TimeUS : 54334924, Roll : 1.9, Pitch : -2.81, Yaw : 359.7, Alt : 49.1300010681, Lat : 49.2835706, Lng : -123.1150205, Q1 : 0.999557495117, Q2 : 0.0165696684271, Q3 : -0.0246096011251, Q4 : -0.00215601245873}
2019-04-14 04:17:52.41: SIM {TimeUS : 54434884, Roll : 2.46, Pitch : -3.63, Yaw : 359.68, Alt : 49.1399993896, Lat : 49.2835707, Lng : -123.1150204, Q1 : 0.999264061451, Q2 : 0.0213902834803, Q3 : -0.031773943454, Q4 : -0.00206071417779}
2019-04-14 04:17:52.51: SIM {TimeUS : 54534844, Roll : 2.91, Pitch : -4.29, Yaw : 359.67, Alt : 49.1599998474, Lat : 49.2835709, Lng : -123.1150203, Q1 : 0.998973429203, Q2 : 0.025319295004, Q3 : -0.0375150442123, Q4 : -0.00190688157454}
2019-04-14 04:17:52.61: SIM {TimeUS : 54634804, Roll : 3.24, Pitch : -4.76, Yaw : 359.66, Alt : 49.1699981689, Lat : 49.283571, Lng : -123.1150201, Q1 : 0.998734176159, Q2 : 0.0281833577901, Q3 : -0.0416288711131, Q4 : -0.00170110899489}
2019-04-14 04:17:52.71: SIM {TimeUS : 54734764, Roll : 3.48, Pitch : -5.11, Yaw : 359.67, Alt : 49.1899986267, Lat : 49.2835713, Lng : -123.1150199, Q1 : 0.998542129993, Q2 : 0.0302400905639, Q3 : -0.0446887277067, Q4 : -0.00145789457019}
2019-04-14 04:17:52.81: SIM {TimeUS : 54834724, Roll : 3.69, Pitch : -5.4, Yaw : 359.68, Alt : 49.2000007629, Lat : 49.2835715, Lng : -123.1150196, Q1 : 0.998368144035, Q2 : 0.0320696309209, Q3 : -0.0472361296415, Q4 : -0.00118840404321}
2019-04-14 04:17:52.91: SIM {TimeUS : 54934684, Roll : 3.9, Pitch : -5.69, Yaw : 359.7, Alt : 49.2099990845, Lat : 49.283572, Lng : -123.1150192, Q1 : 0.998188018799, Q2 : 0.0339100398123, Q3 : -0.0496986471117, Q4 : -0.000910542730708}
2019-04-14 04:17:53.01: SIM {TimeUS : 55034644, Roll : 4.11, Pitch : -5.98, Yaw : 359.71, Alt : 49.2099990845, Lat : 49.2835724, Lng : -123.1150187, Q1 : 0.997992694378, Q2 : 0.0357566811144, Q3 : -0.0522657111287, Q4 : -0.000637953577098}
2019-04-14 04:17:53.11: SIM {TimeUS : 55134604, Roll : 4.31, Pitch : -6.3, Yaw : 359.71, Alt : 49.2200012207, Lat : 49.2835728, Lng : -123.1150182, Q1 : 0.997782707214, Q2 : 0.0374635159969, Q3 : -0.0550092868507, Q4 : -0.000390867702663}
2019-04-14 04:17:53.21: SIM {TimeUS : 55234564, Roll : 4.47, Pitch : -6.58, Yaw : 359.72, Alt : 49.2299995422, Lat : 49.2835734, Lng : -123.1150175, Q1 : 0.997593104839, Q2 : 0.0388344563544, Q3 : -0.05744446069, Q4 : -0.000181858893484}
2019-04-14 04:17:53.31: SIM {TimeUS : 55334524, Roll : 4.59, Pitch : -6.78, Yaw : 359.72, Alt : 49.2299995422, Lat : 49.283574, Lng : -123.115017, Q1 : 0.997449815273, Q2 : 0.0398859865963, Q3 : -0.0591857284307, Q4 : 9.17095439945e-06}
2019-04-14 04:17:53.41: SIM {TimeUS : 55435317, Roll : 4.69, Pitch : -6.91, Yaw : 359.73, Alt : 49.2400016785, Lat : 49.2835747, Lng : -123.1150162, Q1 : 0.997346818447, Q2 : 0.0407033413649, Q3 : -0.0603534579277, Q4 : 0.000165078352438}
2019-04-14 04:17:53.51: SIM {TimeUS : 55535277, Roll : 4.76, Pitch : -7.01, Yaw : 359.73, Alt : 49.2400016785, Lat : 49.2835755, Lng : -123.1150154, Q1 : 0.997266888618, Q2 : 0.0413229726255, Q3 : -0.0612459406257, Q4 : 0.00026514637284}
2019-04-14 04:17:53.61: SIM {TimeUS : 55635237, Roll : 4.84, Pitch : -7.11, Yaw : 359.73, Alt : 49.25, Lat : 49.2835763, Lng : -123.1150146, Q1 : 0.997187614441, Q2 : 0.0420093201101, Q3 : -0.0620647333562, Q4 : 0.000336947734468}
2019-04-14 04:17:53.71: SIM {TimeUS : 55735197, Roll : 5.03, Pitch : -7.21, Yaw : 359.75, Alt : 49.25, Lat : 49.2835771, Lng : -123.1150137, Q1 : 0.997060716152, Q2 : 0.0436673350632, Q3 : -0.062950886786, Q4 : 0.000609526003245}
2019-04-14 04:17:53.81: SIM {TimeUS : 55835157, Roll : 5.48, Pitch : -7.25, Yaw : 0.07, Alt : 49.2599983215, Lat : 49.2835781, Lng : -123.1150128, Q1 : 0.996850728989, Q2 : 0.0478075519204, Q3 : -0.0631601139903, Q4 : 0.00372274871916}
2019-04-14 04:17:53.91: SIM {TimeUS : 55935117, Roll : 6.14, Pitch : -7.28, Yaw : 1.37, Alt : 49.2599983215, Lat : 49.2835791, Lng : -123.1150117, Q1 : 0.996431589127, Q2 : 0.0542381331325, Q3 : -0.0628278404474, Q4 : 0.0153308296576}
2019-04-14 04:17:54.01: SIM {TimeUS : 56035077, Roll : 6.66, Pitch : -7.54, Yaw : 4.17, Alt : 49.2599983215, Lat : 49.28358, Lng : -123.1150106, Q1 : 0.995344936848, Q2 : 0.0603182576597, Q3 : -0.0635655075312, Q4 : 0.0401193872094}
2019-04-14 04:17:54.11: SIM {TimeUS : 56135037, Roll : 6.73, Pitch : -8.17, Yaw : 8.57, Alt : 49.2599983215, Lat : 49.2835811, Lng : -123.1150094, Q1 : 0.992635965347, Q2 : 0.0637160986662, Q3 : -0.0665650591254, Q4 : 0.078633710742}
2019-04-14 04:17:54.21: SIM {TimeUS : 56234997, Roll : 6.15, Pitch : -9.11, Yaw : 14.4, Alt : 49.2599983215, Lat : 49.2835822, Lng : -123.1150081, Q1 : 0.987013816833, Q2 : 0.0630384236574, Q3 : -0.0720451846719, Q4 : 0.128993719816}
2019-04-14 04:17:54.31: SIM {TimeUS : 56334957, Roll : 4.63, Pitch : -10.22, Yaw : 21.26, Alt : 49.2599983215, Lat : 49.2835834, Lng : -123.1150067, Q1 : 0.977446854115, Q2 : 0.0559855177999, Q3 : -0.080125451088, Q4 : 0.187198370695}
2019-04-14 04:17:54.41: SIM {TimeUS : 56434917, Roll : 2.16, Pitch : -11.24, Yaw : 28.46, Alt : 49.2700004578, Lat : 49.2835844, Lng : -123.1150052, Q1 : 0.964021444321, Q2 : 0.0422833822668, Q3 : -0.0903375148773, Q4 : 0.246402040124}
2019-04-14 04:17:54.51: SIM {TimeUS : 56534877, Roll : -0.77, Pitch : -11.96, Yaw : 35.18, Alt : 49.2700004578, Lat : 49.2835858, Lng : -123.1150036, Q1 : 0.948223352432, Q2 : 0.0250801015645, Q3 : -0.101383686066, Q4 : 0.299941331148}
2019-04-14 04:17:54.61: SIM {TimeUS : 56634837, Roll : -3.52, Pitch : -12.32, Yaw : 40.74, Alt : 49.2700004578, Lat : 49.2835871, Lng : -123.115002, Q1 : 0.93272536993, Q2 : 0.00866709556431, Q3 : -0.111268572509, Q4 : 0.342881381512}
2019-04-14 04:17:54.71: SIM {TimeUS : 56734797, Roll : -5.54, Pitch : -12.45, Yaw : 44.68, Alt : 49.2700004578, Lat : 49.2835885, Lng : -123.1150003, Q1 : 0.920384705067, Q2 : -0.00329906167462, Q3 : -0.11847910285, Q4 : 0.372617602348}
2019-04-14 04:17:54.81: SIM {TimeUS : 56834757, Roll : -6.58, Pitch : -12.51, Yaw : 46.87, Alt : 49.2700004578, Lat : 49.2835899, Lng : -123.1149987, Q1 : 0.913017690182, Q2 : -0.00910908076912, Q3 : -0.122555613518, Q4 : 0.388967752457}
2019-04-14 04:17:54.91: SIM {TimeUS : 56934717, Roll : -6.69, Pitch : -12.63, Yaw : 47.46, Alt : 49.2700004578, Lat : 49.2835916, Lng : -123.114997, Q1 : 0.910906255245, Q2 : -0.00891839340329, Q3 : -0.123925969005, Q4 : 0.39346241951}
2019-04-14 04:17:55.01: SIM {TimeUS : 57034677, Roll : -6.04, Pitch : -12.91, Yaw : 46.75, Alt : 49.2700004578, Lat : 49.2835933, Lng : -123.1149954, Q1 : 0.91316485405, Q2 : -0.00356535869651, Q3 : -0.123867504299, Q4 : 0.388296455145}
2019-04-14 04:17:55.11: SIM {TimeUS : 57134637, Roll : -4.87, Pitch : -13.38, Yaw : 45.07, Alt : 49.2700004578, Lat : 49.2835951, Lng : -123.1149937, Q1 : 0.918414235115, Q2 : 0.00557721126825, Q3 : -0.123705469072, Q4 : 0.375740766525}
2019-04-14 04:17:55.21: SIM {TimeUS : 57234597, Roll : -3.41, Pitch : -13.97, Yaw : 42.72, Alt : 49.2700004578, Lat : 49.283597, Lng : -123.114992, Q1 : 0.925288796425, Q2 : 0.016759371385, Q3 : -0.12401214987, Q4 : 0.358023494482}
2019-04-14 04:17:55.31: SIM {TimeUS : 57334557, Roll : -1.83, Pitch : -14.57, Yaw : 40.01, Alt : 49.2700004578, Lat : 49.2835989, Lng : -123.1149902, Q1 : 0.932646274567, Q2 : 0.0284353159368, Q3 : -0.124596141279, Q4 : 0.337399184704}
2019-04-14 04:17:55.41: SIM {TimeUS : 57434517, Roll : -0.31, Pitch : -15.07, Yaw : 37.24, Alt : 49.2799987793, Lat : 49.283601, Lng : -123.1149884, Q1 : 0.939571738243, Q2 : 0.0392925105989, Q3 : -0.125173434615, Q4 : 0.316216289997}
2019-04-14 04:17:55.51: SIM {TimeUS : 57535310, Roll : 1.02, Pitch : -15.41, Yaw : 34.7, Alt : 49.2799987793, Lat : 49.2836031, Lng : -123.1149864, Q1 : 0.945476770401, Q2 : 0.0484270490706, Q3 : -0.125331938267, Q4 : 0.296682327986}
2019-04-14 04:17:55.61: SIM {TimeUS : 57635270, Roll : 2.04, Pitch : -15.56, Yaw : 32.67, Alt : 49.2799987793, Lat : 49.2836053, Lng : -123.1149844, Q1 : 0.949942529202, Q2 : 0.0550269633532, Q3 : -0.12495137006, Q4 : 0.281013131142}
2019-04-14 04:17:55.71: SIM {TimeUS : 57735230, Roll : 2.68, Pitch : -15.59, Yaw : 31.29, Alt : 49.2799987793, Lat : 49.2836074, Lng : -123.1149822, Q1 : 0.952923119068, Q2 : 0.0589450635016, Q3 : -0.124314621091, Q4 : 0.270201534033}
2019-04-14 04:17:55.81: SIM {TimeUS : 57835190, Roll : 2.95, Pitch : -15.57, Yaw : 30.58, Alt : 49.2799987793, Lat : 49.2836097, Lng : -123.11498, Q1 : 0.95444393158, Q2 : 0.0603758841753, Q3 : -0.123928561807, Q4 : 0.26463791728}
2019-04-14 04:17:55.91: SIM {TimeUS : 57935150, Roll : 2.86, Pitch : -15.59, Yaw : 30.52, Alt : 49.2799987793, Lat : 49.283612, Lng : -123.1149776, Q1 : 0.954620718956, Q2 : 0.0595733895898, Q3 : -0.124303504825, Q4 : 0.264005661011}
2019-04-14 04:17:56.01: SIM {TimeUS : 58035110, Roll : 2.46, Pitch : -15.66, Yaw : 30.99, Alt : 49.2799987793, Lat : 49.2836142, Lng : -123.1149751, Q1 : 0.953645765781, Q2 : 0.0569431819022, Q3 : -0.125565707684, Q4 : 0.267489343882}
2019-04-14 04:17:56.11: SIM {TimeUS : 58135070, Roll : 1.84, Pitch : -15.78, Yaw : 31.85, Alt : 49.2799987793, Lat : 49.2836165, Lng : -123.1149725, Q1 : 0.951761424541, Q2 : 0.0529891625047, Q3 : -0.127651005983, Q4 : 0.273948162794}
2019-04-14 04:17:56.21: SIM {TimeUS : 58235030, Roll : 1.1, Pitch : -15.91, Yaw : 32.95, Alt : 49.2799987793, Lat : 49.2836189, Lng : -123.11497, Q1 : 0.949282050133, Q2 : 0.0484253875911, Q3 : -0.130005896091, Q4 : 0.282165110111}
2019-04-14 04:17:56.31: SIM {TimeUS : 58334990, Roll : 0.38, Pitch : -16.02, Yaw : 34.11, Alt : 49.2799987793, Lat : 49.2836214, Lng : -123.1149673, Q1 : 0.946530461311, Q2 : 0.0440562292933, Q3 : -0.13224580884, Q4 : 0.290947079659}
2019-04-14 04:17:56.41: SIM {TimeUS : 58434950, Roll : -0.27, Pitch : -16.11, Yaw : 35.21, Alt : 49.2799987793, Lat : 49.2836238, Lng : -123.1149646, Q1 : 0.943836688995, Q2 : 0.0401636846364, Q3 : -0.134316131473, Q4 : 0.299196243286}
2019-04-14 04:17:56.51: SIM {TimeUS : 58534910, Roll : -0.78, Pitch : -16.19, Yaw : 36.13, Alt : 49.2799987793, Lat : 49.2836263, Lng : -123.1149618, Q1 : 0.941491723061, Q2 : 0.0372561663389, Q3 : -0.13597561419, Q4 : 0.306130558252}
2019-04-14 04:17:56.61: SIM {TimeUS : 58634870, Roll : -1.09, Pitch : -16.23, Yaw : 36.8, Alt : 49.2799987793, Lat : 49.283629, Lng : -123.1149591, Q1 : 0.939736008644, Q2 : 0.0355926118791, Q3 : -0.136934548616, Q4 : 0.311252892017}
2019-04-14 04:17:56.71: SIM {TimeUS : 58734830, Roll : -1.22, Pitch : -16.24, Yaw : 37.19, Alt : 49.2799987793, Lat : 49.2836316, Lng : -123.1149562, Q1 : 0.938685178757, Q2 : 0.0350219123065, Q3 : -0.137317404151, Q4 : 0.314304769039}
2019-04-14 04:17:56.81: SIM {TimeUS : 58834790, Roll : -1.22, Pitch : -16.27, Yaw : 37.32, Alt : 49.2799987793, Lat : 49.2836342, Lng : -123.1149534, Q1 : 0.938318312168, Q2 : 0.0352911278605, Q3 : -0.137519404292, Q4 : 0.315280407667}
2019-04-14 04:17:56.91: SIM {TimeUS : 58934750, Roll : -1.09, Pitch : -16.33, Yaw : 37.2, Alt : 49.2799987793, Lat : 49.283637, Lng : -123.1149505, Q1 : 0.938546061516, Q2 : 0.0363277159631, Q3 : -0.137620300055, Q4 : 0.314439624548}
2019-04-14 04:17:57.01: SIM {TimeUS : 59034710, Roll : -0.88, Pitch : -16.4, Yaw : 36.89, Alt : 49.2799987793, Lat : 49.2836397, Lng : -123.1149476, Q1 : 0.939223885536, Q2 : 0.0379227101803, Q3 : -0.137716040015, Q4 : 0.312177300453}
2019-04-14 04:17:57.11: SIM {TimeUS : 59134670, Roll : -0.61, Pitch : -16.46, Yaw : 36.47, Alt : 49.2799987793, Lat : 49.2836425, Lng : -123.1149446, Q1 : 0.940205037594, Q2 : 0.0397938601673, Q3 : -0.13769236207, Q4 : 0.308985024691}
2019-04-14 04:17:57.21: SIM {TimeUS : 59234630, Roll : -0.31, Pitch : -16.52, Yaw : 35.99, Alt : 49.2799987793, Lat : 49.2836452, Lng : -123.1149417, Q1 : 0.941317975521, Q2 : 0.0417991764843, Q3 : -0.137553602457, Q4 : 0.305372446775}
2019-04-14 04:17:57.31: SIM {TimeUS : 59334590, Roll : -0.02, Pitch : -16.57, Yaw : 35.51, Alt : 49.2900009155, Lat : 49.2836481, Lng : -123.1149385, Q1 : 0.942409932613, Q2 : 0.0437408834696, Q3 : -0.137358903885, Q4 : 0.301799207926}
2019-04-14 04:17:57.41: SIM {TimeUS : 59434550, Roll : 0.22, Pitch : -16.61, Yaw : 35.09, Alt : 49.2900009155, Lat : 49.283651, Lng : -123.1149356, Q1 : 0.943359076977, Q2 : 0.0454261638224, Q3 : -0.137200802565, Q4 : 0.298640459776}
2019-04-14 04:17:57.51: SIM {TimeUS : 59534510, Roll : 0.41, Pitch : -16.64, Yaw : 34.77, Alt : 49.2900009155, Lat : 49.2836539, Lng : -123.1149325, Q1 : 0.944094181061, Q2 : 0.0467229150236, Q3 : -0.137086316943, Q4 : 0.296159625053}
2019-04-14 04:17:57.61: SIM {TimeUS : 59635303, Roll : 0.54, Pitch : -16.67, Yaw : 34.55, Alt : 49.2900009155, Lat : 49.2836568, Lng : -123.1149294, Q1 : 0.944574713707, Q2 : 0.0475905314088, Q3 : -0.137076675892, Q4 : 0.294488966465}
2019-04-14 04:17:57.71: SIM {TimeUS : 59735263, Roll : 0.59, Pitch : -16.7, Yaw : 34.44, Alt : 49.2900009155, Lat : 49.2836597, Lng : -123.1149262, Q1 : 0.944790840149, Q2 : 0.0479193553329, Q3 : -0.137239322066, Q4 : 0.293665498495}
2019-04-14 04:17:57.81: SIM {TimeUS : 59835223, Roll : 0.56, Pitch : -16.73, Yaw : 34.44, Alt : 49.2900009155, Lat : 49.2836627, Lng : -123.114923, Q1 : 0.944763660431, Q2 : 0.0477579645813, Q3 : -0.137585520744, Q4 : 0.293617278337}
2019-04-14 04:17:57.91: SIM {TimeUS : 59935183, Roll : 0.48, Pitch : -16.78, Yaw : 34.52, Alt : 49.2900009155, Lat : 49.2836657, Lng : -123.1149198, Q1 : 0.944530308247, Q2 : 0.0473148934543, Q3 : -0.138094618917, Q4 : 0.294200152159}
2019-04-14 04:17:58.01: SIM {TimeUS : 60035143, Roll : 0.36, Pitch : -16.82, Yaw : 34.67, Alt : 49.2900009155, Lat : 49.2836687, Lng : -123.1149166, Q1 : 0.944159567356, Q2 : 0.0465724803507, Q3 : -0.138731986284, Q4 : 0.295207083225}
2019-04-14 04:17:58.11: SIM {TimeUS : 60135103, Roll : 0.19, Pitch : -16.86, Yaw : 34.84, Alt : 49.2900009155, Lat : 49.2836718, Lng : -123.1149133, Q1 : 0.943722248077, Q2 : 0.0455448031425, Q3 : -0.13942591846, Q4 : 0.296436190605}
2019-04-14 04:17:58.21: SIM {TimeUS : 60235063, Roll : 0.03, Pitch : -16.89, Yaw : 35.02, Alt : 49.2900009155, Lat : 49.2836748, Lng : -123.11491, Q1 : 0.943285107613, Q2 : 0.0444956421852, Q3 : -0.139981225133, Q4 : 0.297722250223}
2019-04-14 04:17:58.31: SIM {TimeUS : 60335023, Roll : -0.11, Pitch : -16.91, Yaw : 35.19, Alt : 49.2900009155, Lat : 49.2836778, Lng : -123.1149067, Q1 : 0.942883372307, Q2 : 0.0435372553766, Q3 : -0.14052593708, Q4 : 0.298877775669}
2019-04-14 04:17:58.41: SIM {TimeUS : 60434983, Roll : -0.2, Pitch : -16.96, Yaw : 35.32, Alt : 49.2900009155, Lat : 49.2836809, Lng : -123.1149033, Q1 : 0.942528486252, Q2 : 0.0430350340903, Q3 : -0.141067102551, Q4 : 0.299813568592}
2019-04-14 04:17:58.51: SIM {TimeUS : 60534943, Roll : -0.24, Pitch : -17.01, Yaw : 35.4, Alt : 49.2999992371, Lat : 49.283684, Lng : -123.1149, Q1 : 0.942259669304, Q2 : 0.0429352708161, Q3 : -0.141575917602, Q4 : 0.300432294607}
2019-04-14 04:17:58.61: SIM {TimeUS : 60634903, Roll : -0.23, Pitch : -17.07, Yaw : 35.44, Alt : 49.2999992371, Lat : 49.283687, Lng : -123.1148966, Q1 : 0.94209176302, Q2 : 0.0432551912963, Q3 : -0.142010182142, Q4 : 0.300707817078}
2019-04-14 04:17:58.71: SIM {TimeUS : 60734863, Roll : -0.17, Pitch : -17.12, Yaw : 35.42, Alt : 49.2999992371, Lat : 49.2836902, Lng : -123.1148932, Q1 : 0.942035079002, Q2 : 0.0438853725791, Q3 : -0.142300918698, Q4 : 0.300656765699}
2019-04-14 04:17:58.81: SIM {TimeUS : 60834823, Roll : -0.11, Pitch : -17.16, Yaw : 35.37, Alt : 49.2999992371, Lat : 49.2836934, Lng : -123.1148898, Q1 : 0.942104935646, Q2 : 0.0444081909955, Q3 : -0.14244236052, Q4 : 0.30029386282}
2019-04-14 04:17:58.91: SIM {TimeUS : 60934783, Roll : -0.06, Pitch : -17.17, Yaw : 35.29, Alt : 49.2999992371, Lat : 49.2836966, Lng : -123.1148864, Q1 : 0.942276716232, Q2 : 0.0447080135345, Q3 : -0.142457589507, Q4 : 0.299702525139}
2019-04-14 04:17:59.01: SIM {TimeUS : 61034743, Roll : -0.03, Pitch : -17.17, Yaw : 35.2, Alt : 49.2999992371, Lat : 49.2836997, Lng : -123.114883, Q1 : 0.942508876324, Q2 : 0.0448970720172, Q3 : -0.142375439405, Q4 : 0.29898250103}
2019-04-14 04:17:59.11: SIM {TimeUS : 61134703, Roll : 0.02, Pitch : -17.16, Yaw : 35.1, Alt : 49.2999992371, Lat : 49.2837028, Lng : -123.1148795, Q1 : 0.942749023438, Q2 : 0.0452014803886, Q3 : -0.14226475358, Q4 : 0.29823127389}
2019-04-14 04:17:59.21: SIM {TimeUS : 61234663, Roll : 0.07, Pitch : -17.18, Yaw : 35.0, Alt : 49.2999992371, Lat : 49.283706, Lng : -123.114876, Q1 : 0.942963242531, Q2 : 0.0455432869494, Q3 : -0.142256602645, Q4 : 0.297504961491}
2019-04-14 04:17:59.31: SIM {TimeUS : 61334623, Roll : 0.13, Pitch : -17.21, Yaw : 34.92, Alt : 49.2999992371, Lat : 49.2837094, Lng : -123.1148726, Q1 : 0.943108201027, Q2 : 0.0460189320147, Q3 : -0.142460003495, Q4 : 0.296874254942}
2019-04-14 04:17:59.41: SIM {TimeUS : 61434583, Roll : 0.18, Pitch : -17.28, Yaw : 34.86, Alt : 49.2999992371, Lat : 49.2837126, Lng : -123.1148691, Q1 : 0.943178892136, Q2 : 0.0465094186366, Q3 : -0.142879188061, Q4 : 0.296371370554}
2019-04-14 04:17:59.51: SIM {TimeUS : 61534543, Roll : 0.2, Pitch : -17.32, Yaw : 34.81, Alt : 49.3100013733, Lat : 49.2837157, Lng : -123.1148655, Q1 : 0.943239629269, Q2 : 0.0467694662511, Q3 : -0.143134817481, Q4 : 0.296013653278}
2019-04-14 04:17:59.61: SIM {TimeUS : 61634503, Roll : 0.22, Pitch : -17.32, Yaw : 34.78, Alt : 49.3100013733, Lat : 49.2837191, Lng : -123.1148619, Q1 : 0.94330060482, Q2 : 0.0468396618962, Q3 : -0.143116742373, Q4 : 0.295816928148}
2019-04-14 04:17:59.71: SIM {TimeUS : 61735296, Roll : 0.21, Pitch : -17.33, Yaw : 34.78, Alt : 49.3100013733, Lat : 49.2837223, Lng : -123.1148585, Q1 : 0.943306207657, Q2 : 0.0468460768461, Q3 : -0.143227994442, Q4 : 0.29574406147}
2019-04-14 04:17:59.81: SIM {TimeUS : 61835256, Roll : 0.19, Pitch : -17.35, Yaw : 34.78, Alt : 49.3100013733, Lat : 49.2837257, Lng : -123.1148549, Q1 : 0.943268179893, Q2 : 0.0466791726649, Q3 : -0.14351888001, Q4 : 0.295750766993}
2019-04-14 04:17:59.91: SIM {TimeUS : 61935216, Roll : 0.15, Pitch : -17.38, Yaw : 34.8, Alt : 49.3100013733, Lat : 49.2837289, Lng : -123.1148514, Q1 : 0.94320333004, Q2 : 0.0465187653899, Q3 : -0.143823161721, Q4 : 0.295835018158}
2019-04-14 04:18:00.01: SIM {TimeUS : 62035176, Roll : 0.12, Pitch : -17.41, Yaw : 34.82, Alt : 49.3100013733, Lat : 49.2837321, Lng : -123.1148478, Q1 : 0.94312787056, Q2 : 0.0463440492749, Q3 : -0.144099667668, Q4 : 0.295968532562}
2019-04-14 04:18:00.11: SIM {TimeUS : 62135136, Roll : 0.1, Pitch : -17.43, Yaw : 34.84, Alt : 49.3100013733, Lat : 49.2837355, Lng : -123.1148442, Q1 : 0.943055987358, Q2 : 0.0462123155594, Q3 : -0.144312754273, Q4 : 0.296114355326}
2019-04-14 04:18:00.21: SIM {TimeUS : 62235096, Roll : 0.09, Pitch : -17.45, Yaw : 34.86, Alt : 49.3100013733, Lat : 49.2837388, Lng : -123.1148406, Q1 : 0.942982792854, Q2 : 0.0462536476552, Q3 : -0.144500151277, Q4 : 0.29624953866}
2019-04-14 04:18:00.31: SIM {TimeUS : 62335056, Roll : 0.1, Pitch : -17.46, Yaw : 34.87, Alt : 49.3100013733, Lat : 49.2837422, Lng : -123.114837, Q1 : 0.942939400673, Q2 : 0.046327482909, Q3 : -0.144558429718, Q4 : 0.296347588301}
2019-04-14 04:18:00.41: SIM {TimeUS : 62435016, Roll : 0.11, Pitch : -17.47, Yaw : 34.88, Alt : 49.3100013733, Lat : 49.2837454, Lng : -123.1148334, Q1 : 0.94291138649, Q2 : 0.0464679598808, Q3 : -0.14463429153, Q4 : 0.296377778053}
2019-04-14 04:18:00.51: SIM {TimeUS : 62534976, Roll : 0.13, Pitch : -17.5, Yaw : 34.87, Alt : 49.3100013733, Lat : 49.2837489, Lng : -123.1148298, Q1 : 0.942885935307, Q2 : 0.046673104167, Q3 : -0.144847869873, Q4 : 0.29632216692}
2019-04-14 04:18:00.61: SIM {TimeUS : 62634936, Roll : 0.13, Pitch : -17.55, Yaw : 34.85, Alt : 49.3100013733, Lat : 49.2837521, Lng : -123.1148262, Q1 : 0.942872941494, Q2 : 0.0467826835811, Q3 : -0.145213067532, Q4 : 0.296167612076}
2019-04-14 04:18:00.71: SIM {TimeUS : 62734896, Roll : 0.11, Pitch : -17.59, Yaw : 34.83, Alt : 49.3199996948, Lat : 49.2837556, Lng : -123.1148226, Q1 : 0.942882180214, Q2 : 0.0467007160187, Q3 : -0.14566783607, Q4 : 0.295927613974}
2019-04-14 04:18:00.81: SIM {TimeUS : 62834856, Roll : 0.1, Pitch : -17.64, Yaw : 34.8, Alt : 49.3199996948, Lat : 49.2837588, Lng : -123.1148189, Q1 : 0.942896783352, Q2 : 0.0467336922884, Q3 : -0.146107017994, Q4 : 0.295659273863}
2019-04-14 04:18:00.91: SIM {TimeUS : 62934816, Roll : 0.12, Pitch : -17.67, Yaw : 34.77, Alt : 49.3199996948, Lat : 49.2837623, Lng : -123.1148153, Q1 : 0.942933082581, Q2 : 0.0469427555799, Q3 : -0.146307080984, Q4 : 0.295411288738}
2019-04-14 04:18:01.01: SIM {TimeUS : 63034776, Roll : 0.15, Pitch : -17.67, Yaw : 34.73, Alt : 49.3199996948, Lat : 49.2837656, Lng : -123.1148116, Q1 : 0.943000495434, Q2 : 0.0471617393196, Q3 : -0.146237328649, Q4 : 0.295195788145}
2019-04-14 04:18:01.11: SIM {TimeUS : 63134736, Roll : 0.18, Pitch : -17.65, Yaw : 34.71, Alt : 49.3199996948, Lat : 49.2837691, Lng : -123.1148079, Q1 : 0.943089187145, Q2 : 0.047322627157, Q3 : -0.145989820361, Q4 : 0.2950091362}
2019-04-14 04:18:01.21: SIM {TimeUS : 63234696, Roll : 0.19, Pitch : -17.63, Yaw : 34.68, Alt : 49.3199996948, Lat : 49.2837725, Lng : -123.1148042, Q1 : 0.943177521229, Q2 : 0.0472725182772, Q3 : -0.145827353001, Q4 : 0.29481497407}
2019-04-14 04:18:01.31: SIM {TimeUS : 63334656, Roll : 0.18, Pitch : -17.61, Yaw : 34.66, Alt : 49.3199996948, Lat : 49.2837758, Lng : -123.1148006, Q1 : 0.943260252476, Q2 : 0.0471596680582, Q3 : -0.145709007978, Q4 : 0.294626891613}
2019-04-14 04:18:01.41: SIM {TimeUS : 63434616, Roll : 0.18, Pitch : -17.6, Yaw : 34.64, Alt : 49.3199996948, Lat : 49.2837793, Lng : -123.1147968, Q1 : 0.943332493305, Q2 : 0.0470444001257, Q3 : -0.145622968674, Q4 : 0.294456481934}
2019-04-14 04:18:01.51: SIM {TimeUS : 63534576, Roll : 0.17, Pitch : -17.62, Yaw : 34.62, Alt : 49.3199996948, Lat : 49.2837828, Lng : -123.1147932, Q1 : 0.943353772163, Q2 : 0.0470001325011, Q3 : -0.145821169019, Q4 : 0.294297248125}
2019-04-14 04:18:01.61: SIM {TimeUS : 63634536, Roll : 0.16, Pitch : -17.66, Yaw : 34.61, Alt : 49.3199996948, Lat : 49.2837861, Lng : -123.1147894, Q1 : 0.943340241909, Q2 : 0.0470416508615, Q3 : -0.146168127656, Q4 : 0.294161856174}
2019-04-14 04:18:01.71: SIM {TimeUS : 63734496, Roll : 0.14, Pitch : -17.71, Yaw : 34.6, Alt : 49.3199996948, Lat : 49.2837896, Lng : -123.1147857, Q1 : 0.943304777145, Q2 : 0.0470166243613, Q3 : -0.146660357714, Q4 : 0.294034540653}
2019-04-14 04:18:01.81: SIM {TimeUS : 63835289, Roll : 0.14, Pitch : -17.77, Yaw : 34.59, Alt : 49.3199996948, Lat : 49.283793, Lng : -123.114782, Q1 : 0.943254947662, Q2 : 0.0470965132117, Q3 : -0.14716014266, Q4 : 0.293931901455}
2019-04-14 04:18:01.91: SIM {TimeUS : 63935249, Roll : 0.14, Pitch : -17.8, Yaw : 34.58, Alt : 49.3199996948, Lat : 49.2837965, Lng : -123.1147782, Q1 : 0.943238854408, Q2 : 0.0472189113498, Q3 : -0.147349953651, Q4 : 0.293868720531}
2019-04-14 04:18:02.01: SIM {TimeUS : 64035209, Roll : 0.15, Pitch : -17.82, Yaw : 34.57, Alt : 49.3300018311, Lat : 49.2838, Lng : -123.1147745, Q1 : 0.943230688572, Q2 : 0.0472915358841, Q3 : -0.147513687611, Q4 : 0.293801218271}
2019-04-14 04:18:02.11: SIM {TimeUS : 64135169, Roll : 0.15, Pitch : -17.83, Yaw : 34.56, Alt : 49.3300018311, Lat : 49.2838033, Lng : -123.1147707, Q1 : 0.943237483501, Q2 : 0.0472937710583, Q3 : -0.147625043988, Q4 : 0.293723016977}
2019-04-14 04:18:02.21: SIM {TimeUS : 64235129, Roll : 0.16, Pitch : -17.82, Yaw : 34.55, Alt : 49.3300018311, Lat : 49.2838068, Lng : -123.114767, Q1 : 0.943269133568, Q2 : 0.0473457723856, Q3 : -0.147532328963, Q4 : 0.293659597635}
2019-04-14 04:18:02.31: SIM {TimeUS : 64335089, Roll : 0.17, Pitch : -17.83, Yaw : 34.54, Alt : 49.3300018311, Lat : 49.2838104, Lng : -123.1147633, Q1 : 0.943282306194, Q2 : 0.0474867075682, Q3 : -0.14754165709, Q4 : 0.293589830399}
2019-04-14 04:18:02.41: SIM {TimeUS : 64435049, Roll : 0.19, Pitch : -17.85, Yaw : 34.53, Alt : 49.3300018311, Lat : 49.2838138, Lng : -123.1147595, Q1 : 0.943278610706, Q2 : 0.0476415269077, Q3 : -0.147684618831, Q4 : 0.293504685163}
2019-04-14 04:18:02.51: SIM {TimeUS : 64535009, Roll : 0.2, Pitch : -17.86, Yaw : 34.52, Alt : 49.3300018311, Lat : 49.2838172, Lng : -123.1147558, Q1 : 0.943283557892, Q2 : 0.0477663874626, Q3 : -0.147788822651, Q4 : 0.29341596365}
2019-04-14 04:18:02.61: SIM {TimeUS : 64634969, Roll : 0.21, Pitch : -17.86, Yaw : 34.51, Alt : 49.3300018311, Lat : 49.2838208, Lng : -123.114752, Q1 : 0.94331663847, Q2 : 0.0478379875422, Q3 : -0.147757172585, Q4 : 0.293314009905}
2019-04-14 04:18:02.71: SIM {TimeUS : 64734929, Roll : 0.21, Pitch : -17.87, Yaw : 34.49, Alt : 49.3300018311, Lat : 49.2838243, Lng : -123.1147482, Q1 : 0.94334590435, Q2 : 0.0478271469474, Q3 : -0.147817730904, Q4 : 0.29319101572}
2019-04-14 04:18:02.81: SIM {TimeUS : 64834889, Roll : 0.19, Pitch : -17.89, Yaw : 34.48, Alt : 49.3300018311, Lat : 49.2838278, Lng : -123.1147445, Q1 : 0.943365216255, Q2 : 0.047689538449, Q3 : -0.148043677211, Q4 : 0.293037265539}
2019-04-14 04:18:02.91: SIM {TimeUS : 64934849, Roll : 0.15, Pitch : -17.93, Yaw : 34.46, Alt : 49.3300018311, Lat : 49.2838312, Lng : -123.1147407, Q1 : 0.943360805511, Q2 : 0.0474955514073, Q3 : -0.148465976119, Q4 : 0.292869240046}
2019-04-14 04:18:03.01: SIM {TimeUS : 65034809, Roll : 0.14, Pitch : -17.94, Yaw : 34.45, Alt : 49.3300018311, Lat : 49.2838348, Lng : -123.1147369, Q1 : 0.943385660648, Q2 : 0.0473820008337, Q3 : -0.148583069444, Q4 : 0.292748212814}
2019-04-14 04:18:03.11: SIM {TimeUS : 65134769, Roll : 0.15, Pitch : -17.93, Yaw : 34.44, Alt : 49.3300018311, Lat : 49.2838383, Lng : -123.1147331, Q1 : 0.943426072598, Q2 : 0.0473949946463, Q3 : -0.148476049304, Q4 : 0.292670041323}
2019-04-14 04:18:03.21: SIM {TimeUS : 65234729, Roll : 0.17, Pitch : -17.91, Yaw : 34.43, Alt : 49.3300018311, Lat : 49.2838418, Lng : -123.1147293, Q1 : 0.943462967873, Q2 : 0.0475330464542, Q3 : -0.148310631514, Q4 : 0.292612731457}
2019-04-14 04:18:03.31: SIM {TimeUS : 65334689, Roll : 0.18, Pitch : -17.92, Yaw : 34.42, Alt : 49.3300018311, Lat : 49.2838452, Lng : -123.1147256, Q1 : 0.94347846508, Q2 : 0.047647614032, Q3 : -0.148336440325, Q4 : 0.292531102896}
2019-04-14 04:18:03.41: SIM {TimeUS : 65434649, Roll : 0.18, Pitch : -17.94, Yaw : 34.41, Alt : 49.3300018311, Lat : 49.2838488, Lng : -123.1147218, Q1 : 0.943484067917, Q2 : 0.0476242564619, Q3 : -0.148502886295, Q4 : 0.292432248592}
2019-04-14 04:18:03.51: SIM {TimeUS : 65534609, Roll : 0.15, Pitch : -17.96, Yaw : 34.4, Alt : 49.3400001526, Lat : 49.2838524, Lng : -123.114718, Q1 : 0.943488538265, Q2 : 0.0474818311632, Q3 : -0.148749783635, Q4 : 0.292315483093}
2019-04-14 04:18:03.61: SIM {TimeUS : 65634569, Roll : 0.14, Pitch : -17.98, Yaw : 34.39, Alt : 49.3400001526, Lat : 49.2838559, Lng : -123.1147142, Q1 : 0.943488240242, Q2 : 0.0474306941032, Q3 : -0.148974105716, Q4 : 0.292210668325}
2019-04-14 04:18:03.71: SIM {TimeUS : 65734529, Roll : 0.15, Pitch : -18.0, Yaw : 34.38, Alt : 49.3400001526, Lat : 49.2838594, Lng : -123.1147104, Q1 : 0.943488180637, Q2 : 0.0475255697966, Q3 : -0.149108380079, Q4 : 0.292126685381}
2019-04-14 04:18:03.81: SIM {TimeUS : 65835322, Roll : 0.16, Pitch : -18.02, Yaw : 34.37, Alt : 49.3400001526, Lat : 49.2838629, Lng : -123.1147065, Q1 : 0.943490386009, Q2 : 0.0476403832436, Q3 : -0.149207606912, Q4 : 0.292050302029}
2019-04-14 04:18:03.91: SIM {TimeUS : 65935282, Roll : 0.18, Pitch : -18.03, Yaw : 34.36, Alt : 49.3400001526, Lat : 49.2838664, Lng : -123.1147027, Q1 : 0.943489670753, Q2 : 0.0478303395212, Q3 : -0.149258241057, Q4 : 0.291995763779}
2019-04-14 04:18:04.01: SIM {TimeUS : 66035242, Roll : 0.19, Pitch : -18.05, Yaw : 34.35, Alt : 49.3400001526, Lat : 49.28387, Lng : -123.1146989, Q1 : 0.943484842777, Q2 : 0.0479539632797, Q3 : -0.149372965097, Q4 : 0.291932433844}
2019-04-14 04:18:04.11: SIM {TimeUS : 66135202, Roll : 0.2, Pitch : -18.07, Yaw : 34.34, Alt : 49.3400001526, Lat : 49.2838736, Lng : -123.1146951, Q1 : 0.943472802639, Q2 : 0.0480916574597, Q3 : -0.149520739913, Q4 : 0.291873067617}
2019-04-14 04:18:04.21: SIM {TimeUS : 66235162, Roll : 0.22, Pitch : -18.09, Yaw : 34.33, Alt : 49.3400001526, Lat : 49.2838771, Lng : -123.1146913, Q1 : 0.943461537361, Q2 : 0.0482423081994, Q3 : -0.149648278952, Q4 : 0.291819125414}
2019-04-14 04:18:04.31: SIM {TimeUS : 66335122, Roll : 0.24, Pitch : -18.1, Yaw : 34.33, Alt : 49.3400001526, Lat : 49.2838807, Lng : -123.1146874, Q1 : 0.943456232548, Q2 : 0.0484360158443, Q3 : -0.14969022572, Q4 : 0.291782706976}
2019-04-14 04:18:04.41: SIM {TimeUS : 66435082, Roll : 0.27, Pitch : -18.11, Yaw : 34.32, Alt : 49.3400001526, Lat : 49.2838842, Lng : -123.1146836, Q1 : 0.943445503712, Q2 : 0.0486973449588, Q3 : -0.149715393782, Q4 : 0.291760951281}
2019-04-14 04:18:04.51: SIM {TimeUS : 66535042, Roll : 0.27, Pitch : -18.1, Yaw : 34.31, Alt : 49.3400001526, Lat : 49.2838877, Lng : -123.1146798, Q1 : 0.943468689919, Q2 : 0.0486628264189, Q3 : -0.149664714932, Q4 : 0.291717737913}
2019-04-14 04:18:04.61: SIM {TimeUS : 66635002, Roll : 0.24, Pitch : -18.11, Yaw : 34.31, Alt : 49.3400001526, Lat : 49.2838913, Lng : -123.114676, Q1 : 0.943488061428, Q2 : 0.0484452694654, Q3 : -0.149779468775, Q4 : 0.291632324457}
2019-04-14 04:18:04.71: SIM {TimeUS : 66734962, Roll : 0.21, Pitch : -18.13, Yaw : 34.3, Alt : 49.3499984741, Lat : 49.2838949, Lng : -123.1146721, Q1 : 0.943485796452, Q2 : 0.0482540279627, Q3 : -0.150042623281, Q4 : 0.291536182165}
