2019-04-14 03:40:38.00: SIM {TimeUS : 40816167, Roll : 0.0, Pitch : 0.0, Yaw : 0.0, Alt : 30.1000003815, Lat : 49.28357, Lng : -123.11502, Q1 : 1.0, Q2 : 0.0, Q3 : 0.0, Q4 : 0.0}
2019-04-14 03:40:38.11: SIM {TimeUS : 40935286, Roll : 0.0, Pitch : 0.0, Yaw : 0.0, Alt : 30.1000003815, Lat : 49.28357, Lng : -123.11502, Q1 : 1.0, Q2 : 0.0, Q3 : 0.0, Q4 : 0.0}
2019-04-14 03:40:38.21: SIM {TimeUS : 41035246, Roll : 0.0, Pitch : 0.0, Yaw : 0.0, Alt : 30.1000003815, Lat : 49.28357, Lng : -123.11502, Q1 : 1.0, Q2 : 0.0, Q3 : 0.0, Q4 : 0.0}
2019-04-14 03:40:38.31: SIM {TimeUS : 41135206, Roll : 0.0, Pitch : 0.0, Yaw : 0.0, Alt : 30.1000003815, Lat : 49.28357, Lng : -123.11502, Q1 : 1.0, Q2 : 0.0, Q3 : 0.0, Q4 : 0.0}
2019-04-14 03:40:38.41: SIM {TimeUS : 41235166, Roll : 0.0, Pitch : 0.0, Yaw : 0.0, Alt : 30.1000003815, Lat : 49.28357, Lng : -123.11502, Q1 : 1.0, Q2 : 0.0, Q3 : 0.0, Q4 : 0.0}
2019-04-14 03:40:38.51: SIM {TimeUS : 41335126, Roll : 0.0, Pitch : 0.0, Yaw : 0.0, Alt : 30.1000003815, Lat : 49.28357, Lng : -123.11502, Q1 : 1.0, Q2 : 0.0, Q3 : 0.0, Q4 : 0.0}
2019-04-14 03:40:38.61: SIM {TimeUS : 41435086, Roll : 0.0, Pitch : 0.0, Yaw : 0.0, Alt : 30.1000003815, Lat : 49.28357, Lng : -123.11502, Q1 : 1.0, Q2 : 0.0, Q3 : 0.0, Q4 : 0.0}
2019-04-14 03:40:38.71: SIM {TimeUS : 41535046, Roll : 0.0, Pitch : 0.0, Yaw : 0.0, Alt : 30.1000003815, Lat : 49.28357, Lng : -123.11502, Q1 : 1.0, Q2 : 0.0, Q3 : 0.0, Q4 : 0.0}
2019-04-14 03:40:38.81: SIM {TimeUS : 41635006, Roll : 0.0, Pitch : 0.0, Yaw : 0.0, Alt : 30.1000003815, Lat : 49.28357, Lng : -123.11502, Q1 : 1.0, Q2 : 0.0, Q3 : 0.0, Q4 : 0.0}
2019-04-14 03:40:38.91: SIM {TimeUS : 41734966, Roll : 0.0, Pitch : 0.0, Yaw : 0.0, Alt : 30.1000003815, Lat : 49.28357, Lng : -123.11502, Q1 : 1.0, Q2 : 0.0, Q3 : 0.0, Q4 : 0.0}
2019-04-14 03:40:39.01: SIM {TimeUS : 41834926, Roll : 0.0, Pitch : 0.0, Yaw : 0.0, Alt : 30.1000003815, Lat : 49.28357, Lng : -123.11502, Q1 : 1.0, Q2 : 0.0, Q3 : 0.0, Q4 : 0.0}
2019-04-14 03:40:39.11: SIM {TimeUS : 41934886, Roll : 0.0, Pitch : 0.0, Yaw : 0.0, Alt : 30.1000003815, Lat : 49.28357, Lng : -123.11502, Q1 : 1.0, Q2 : 0.0, Q3 : 0.0, Q4 : 0.0}
2019-04-14 03:40:39.21: SIM {TimeUS : 42034846, Roll : 0.0, Pitch : 0.0, Yaw : 0.0, Alt : 30.1000003815, Lat : 49.28357, Lng : -123.11502, Q1 : 1.0, Q2 : 0.0, Q3 : 0.0, Q4 : 0.0}
2019-04-14 03:40:39.31: SIM {TimeUS : 42134806, Roll : 0.0, Pitch : 0.0, Yaw : 0.0, Alt : 30.1000003815, Lat : 49.28357, Lng : -123.11502, Q1 : 1.0, Q2 : 0.0, Q3 : 0.0, Q4 : 0.0}
2019-04-14 03:40:39.41: SIM {TimeUS : 42234766, Roll : 0.0, Pitch : 0.0, Yaw : 0.0, Alt : 30.1000003815, Lat : 49.28357, Lng : -123.11502, Q1 : 1.0, Q2 : 0.0, Q3 : 0.0, Q4 : 0.0}
2019-04-14 03:40:39.51: SIM {TimeUS : 42334726, Roll : 0.0, Pitch : 0.0, Yaw : 0.0, Alt : 30.1000003815, Lat : 49.28357, Lng : -123.11502, Q1 : 1.0, Q2 : 0.0, Q3 : 0.0, Q4 : 0.0}
2019-04-14 03:40:39.61: SIM {TimeUS : 42434686, Roll : 0.0, Pitch : 0.0, Yaw : 0.0, Alt : 30.1000003815, Lat : 49.28357, Lng : -123.11502, Q1 : 1.0, Q2 : 0.0, Q3 : 0.0, Q4 : 0.0}
2019-04-14 03:40:39.71: SIM {TimeUS : 42534646, Roll : 0.0, Pitch : 0.0, Yaw : 0.0, Alt : 30.1000003815, Lat : 49.28357, Lng : -123.11502, Q1 : 1.0, Q2 : 0.0, Q3 : 0.0, Q4 : 0.0}
2019-04-14 03:40:39.81: SIM {TimeUS : 42634606, Roll : 0.0, Pitch : 0.0, Yaw : 0.0, Alt : 30.1000003815, Lat : 49.28357, Lng : -123.11502, Q1 : 1.0, Q2 : 0.0, Q3 : 0.0, Q4 : 0.0}
2019-04-14 03:40:39.91: SIM {TimeUS : 42734566, Roll : 0.0, Pitch : 0.0, Yaw : 0.0, Alt : 30.1000003815, Lat : 49.28357, Lng : -123.11502, Q1 : 1.0, Q2 : 0.0, Q3 : 0.0, Q4 : 0.0}
2019-04-14 03:40:40.01: SIM {TimeUS : 42834526, Roll : 0.0, Pitch : 0.0, Yaw : 0.0, Alt : 30.1000003815, Lat : 49.28357, Lng : -123.11502, Q1 : 1.0, Q2 : 0.0, Q3 : 0.0, Q4 : 0.0}
2019-04-14 03:40:40.11: SIM {TimeUS : 42935319, Roll : 0.0, Pitch : 0.0, Yaw : 0.0, Alt : 30.1000003815, Lat : 49.28357, Lng : -123.11502, Q1 : 1.0, Q2 : 0.0, Q3 : 0.0, Q4 : 0.0}
2019-04-14 03:40:40.21: SIM {TimeUS : 43035279, Roll : 0.0, Pitch : 0.0, Yaw : 0.0, Alt : 30.1000003815, Lat : 49.28357, Lng : -123.11502, Q1 : 1.0, Q2 : 0.0, Q3 : 0.0, Q4 : 0.0}
2019-04-14 03:40:40.31: SIM {TimeUS : 43135239, Roll : 0.0, Pitch : 0.0, Yaw : 360.0, Alt : 30.1000003815, Lat : 49.28357, Lng : -123.11502, Q1 : 1.0, Q2 : 0.0, Q3 : 0.0, Q4 : -1.30378364355e-11}
2019-04-14 03:40:40.41: SIM {TimeUS : 43235199, Roll : 0.0, Pitch : 0.0, Yaw : 360.0, Alt : 30.1000003815, Lat : 49.28357, Lng : -123.11502, Q1 : 1.0, Q2 : 0.0, Q3 : 0.0, Q4 : -1.61347042393e-08}
2019-04-14 03:40:40.51: SIM {TimeUS : 43335159, Roll : 0.0, Pitch : 0.0, Yaw : 359.99, Alt : 30.1000003815, Lat : 49.28357, Lng : -123.11502, Q1 : 1.0, Q2 : 0.0, Q3 : 0.0, Q4 : -2.17456857854e-07}
2019-04-14 03:40:40.61: SIM {TimeUS : 43435119, Roll : 0.0, Pitch : 0.0, Yaw : 359.99, Alt : 30.1000003815, Lat : 49.28357, Lng : -123.11502, Q1 : 1.0, Q2 : 0.0, Q3 : 0.0, Q4 : -4.08245227845e-07}
2019-04-14 03:40:40.71: SIM {TimeUS : 43535079, Roll : 0.0, Pitch : 0.0, Yaw : 359.99, Alt : 30.1000003815, Lat : 49.28357, Lng : -123.11502, Q1 : 1.0, Q2 : 0.0, Q3 : 0.0, Q4 : -6.20802381945e-07}
2019-04-14 03:40:40.81: SIM {TimeUS : 43635039, Roll : 0.0, Pitch : 0.0, Yaw : 359.99, Alt : 30.1000003815, Lat : 49.28357, Lng : -123.11502, Q1 : 1.0, Q2 : 0.0, Q3 : 0.0, Q4 : -8.22876188522e-07}
2019-04-14 03:40:40.91: SIM {TimeUS : 43734999, Roll : 0.0, Pitch : 0.0, Yaw : 359.99, Alt : 30.1000003815, Lat : 49.28357, Lng : -123.11502, Q1 : 1.0, Q2 : 0.0, Q3 : 0.0, Q4 : -9.95500158751e-07}
2019-04-14 03:40:41.01: SIM {TimeUS : 43834959, Roll : 0.0, Pitch : 0.0, Yaw : 359.99, Alt : 30.1000003815, Lat : 49.28357, Lng : -123.11502, Q1 : 1.0, Q2 : 0.0, Q3 : 0.0, Q4 : -1.17972990665e-06}
2019-04-14 03:40:41.11: SIM {TimeUS : 43934919, Roll : 0.0, Pitch : 0.0, Yaw : 359.99, Alt : 30.1000003815, Lat : 49.28357, Lng : -123.11502, Q1 : 1.0, Q2 : 0.0, Q3 : 0.0, Q4 : -1.3805429262e-06}
2019-04-14 03:40:41.21: SIM {TimeUS : 44034879, Roll : 0.0, Pitch : 0.0, Yaw : 359.99, Alt : 30.1200008392, Lat : 49.28357, Lng : -123.11502, Q1 : 1.0, Q2 : 0.0, Q3 : 0.0, Q4 : -1.55610359798e-06}
2019-04-14 03:40:41.31: SIM {TimeUS : 44134839, Roll : 0.0, Pitch : 0.0, Yaw : 359.99, Alt : 30.1499996185, Lat : 49.28357, Lng : -123.11502, Q1 : 1.0, Q2 : 0.0, Q3 : 0.0, Q4 : -1.81880204764e-06}
2019-04-14 03:40:41.41: SIM {TimeUS : 44234799, Roll : 0.0, Pitch : 0.0, Yaw : 359.99, Alt : 30.1800003052, Lat : 49.28357, Lng : -123.11502, Q1 : 1.0, Q2 : 0.0, Q3 : 0.0, Q4 : -2.06184176932e-06}
2019-04-14 03:40:41.51: SIM {TimeUS : 44334759, Roll : 0.0, Pitch : 0.0, Yaw : 359.99, Alt : 30.2099990845, Lat : 49.28357, Lng : -123.11502, Q1 : 1.0, Q2 : -7.32536864234e-06, Q3 : -7.5440798355e-06, Q4 : -2.18642730943e-06}
2019-04-14 03:40:41.61: SIM {TimeUS : 44434719, Roll : -0.16, Pitch : -0.16, Yaw : 359.99, Alt : 30.2700004578, Lat : 49.28357, Lng : -123.11502, Q1 : 0.999998033047, Q2 : -0.00141816399992, Q3 : -0.00140721607022, Q4 : -1.70366056409e-05}
2019-04-14 03:40:41.71: SIM {TimeUS : 44534679, Roll : -0.47, Pitch : -0.41, Yaw : 359.99, Alt : 30.3899993896, Lat : 49.28357, Lng : -123.11502, Q1 : 0.99998497963, Q2 : -0.00414405949414, Q3 : -0.00358851370402, Q4 : -6.15807148279e-05}
2019-04-14 03:40:41.81: SIM {TimeUS : 44634639, Roll : -0.76, Pitch : -0.6, Yaw : 359.98, Alt : 30.5400009155, Lat : 49.28357, Lng : -123.11502, Q1 : 0.999963998795, Q2 : -0.00665355753154, Q3 : -0.00526213133708, Q4 : -0.000126299506519}
2019-04-14 03:40:41.91: SIM {TimeUS : 44734599, Roll : -0.88, Pitch : -0.68, Yaw : 359.98, Alt : 30.7000007629, Lat : 49.28357, Lng : -123.11502, Q1 : 0.999951839447, Q2 : -0.00776489730924, Q3 : -0.00599567685276, Q4 : -0.000203363757464}
2019-04-14 03:40:42.01: SIM {TimeUS : 44834559, Roll : -0.83, Pitch : -0.65, Yaw : 359.97, Alt : 30.8500003815, Lat : 49.28357, Lng : -123.11502, Q1 : 0.999957203865, Q2 : -0.00726203294471, Q3 : -0.00572445150465, Q4 : -0.000286050431896}
2019-04-14 03:40:42.11: SIM {TimeUS : 44934519, Roll : -0.64, Pitch : -0.53, Yaw : 359.96, Alt : 31.0100002289, Lat : 49.28357, Lng : -123.1150201, Q1 : 0.999973356724, Q2 : -0.0056023048237, Q3 : -0.00466762250289, Q4 : -0.00036048021866}
2019-04-14 03:40:42.21: SIM {TimeUS : 45035312, Roll : -0.38, Pitch : -0.36, Yaw : 359.95, Alt : 31.1599998474, Lat : 49.2835701, Lng : -123.1150202, Q1 : 0.999989151955, Q2 : -0.00337982247584, Q3 : -0.00318261329085, Q4 : -0.00042024202412}
2019-04-14 03:40:42.31: SIM {TimeUS : 45135272, Roll : -0.14, Pitch : -0.19, Yaw : 359.94, Alt : 31.3299999237, Lat : 49.2835701, Lng : -123.1150203, Q1 : 0.999997675419, Q2 : -0.00129770499188, Q3 : -0.00167582964059, Q4 : -0.000465475808596}
2019-04-14 03:40:42.41: SIM {TimeUS : 45235232, Roll : 0.01, Pitch : -0.04, Yaw : 359.94, Alt : 31.5, Lat : 49.2835702, Lng : -123.1150203, Q1 : 0.999999761581, Q2 : 0.000127206731122, Q3 : -0.000381978199584, Q4 : -0.000497546046972}
2019-04-14 03:40:42.51: SIM {TimeUS : 45335192, Roll : 0.08, Pitch : 0.06, Yaw : 359.94, Alt : 31.6700000763, Lat : 49.2835702, Lng : -123.1150204, Q1 : 0.999999463558, Q2 : 0.000750593375415, Q3 : 0.000524264352862, Q4 : -0.0005176893319}
2019-04-14 03:40:42.61: SIM {TimeUS : 45435152, Roll : 0.07, Pitch : 0.11, Yaw : 359.93, Alt : 31.8500003815, Lat : 49.2835703, Lng : -123.1150205, Q1 : 0.99999910593, Q2 : 0.0006699685473, Q3 : 0.000998934963718, Q4 : -0.000525761279278}
2019-04-14 03:40:42.71: SIM {TimeUS : 45535112, Roll : 0.05, Pitch : 0.13, Yaw : 359.93, Alt : 32.0400009155, Lat : 49.2835703, Lng : -123.1150205, Q1 : 0.999998986721, Q2 : 0.000475239154184, Q3 : 0.00121361983474, Q4 : -0.000536414969247}
2019-04-14 03:40:42.81: SIM {TimeUS : 45635072, Roll : 0.04, Pitch : 0.14, Yaw : 359.93, Alt : 32.2200012207, Lat : 49.2835703, Lng : -123.1150206, Q1 : 0.999998986721, Q2 : 0.0003793532087, Q3 : 0.00125425925944, Q4 : -0.000538559688721}
2019-04-14 03:40:42.91: SIM {TimeUS : 45735032, Roll : 0.03, Pitch : 0.14, Yaw : 359.93, Alt : 32.4199981689, Lat : 49.2835703, Lng : -123.1150206, Q1 : 0.999998986721, Q2 : 0.00033989030635, Q3 : 0.00127321935724, Q4 : -0.000536279694643}
2019-04-14 03:40:43.01: SIM {TimeUS : 45834992, Roll : 0.05, Pitch : 0.16, Yaw : 359.94, Alt : 32.6100006104, Lat : 49.2835703, Lng : -123.1150207, Q1 : 0.999998748302, Q2 : 0.000483533745864, Q3 : 0.0014021913521, Q4 : -0.000521404086612}
2019-04-14 03:40:43.11: SIM {TimeUS : 45934952, Roll : 0.08, Pitch : 0.14, Yaw : 359.94, Alt : 32.8100013733, Lat : 49.2835703, Lng : -123.1150207, Q1 : 0.999998748302, Q2 : 0.00075923698023, Q3 : 0.00130118918605, Q4 : -0.000504316936713}
2019-04-14 03:40:43.21: SIM {TimeUS : 46034912, Roll : 0.12, Pitch : 0.12, Yaw : 359.94, Alt : 33.0099983215, Lat : 49.2835704, Lng : -123.1150207, Q1 : 0.999998748302, Q2 : 0.00108168879524, Q3 : 0.00105502293445, Q4 : -0.000487060373416}
2019-04-14 03:40:43.31: SIM {TimeUS : 46134872, Roll : 0.15, Pitch : 0.1, Yaw : 359.94, Alt : 33.2099990845, Lat : 49.2835704, Lng : -123.1150208, Q1 : 0.999998509884, Q2 : 0.0013765366748, Q3 : 0.000906358996872, Q4 : -0.000472724728752}
2019-04-14 03:40:43.41: SIM {TimeUS : 46234832, Roll : 0.18, Pitch : 0.1, Yaw : 359.94, Alt : 33.4099998474, Lat : 49.2835704, Lng : -123.1150208, Q1 : 0.999998271465, Q2 : 0.00157311290968, Q3 : 0.000896878365893, Q4 : -0.000456433888758}
2019-04-14 03:40:43.51: SIM {TimeUS : 46334792, Roll : 0.19, Pitch : 0.11, Yaw : 359.95, Alt : 33.6199989319, Lat : 49.2835704, Lng : -123.1150208, Q1 : 0.999997973442, Q2 : 0.00169236736838, Q3 : 0.00103347469121, Q4 : -0.000437073176727}
2019-04-14 03:40:43.61: SIM {TimeUS : 46434752, Roll : 0.18, Pitch : 0.12, Yaw : 359.95, Alt : 33.8300018311, Lat : 49.2835704, Lng : -123.1150208, Q1 : 0.999997973442, Q2 : 0.0016318942653, Q3 : 0.00109447108116, Q4 : -0.000425377977081}
2019-04-14 03:40:43.71: SIM {TimeUS : 46534712, Roll : 0.16, Pitch : 0.12, Yaw : 359.95, Alt : 34.0400009155, Lat : 49.2835704, Lng : -123.1150208, Q1 : 0.999998271465, Q2 : 0.00142554275226, Q3 : 0.00110635953024, Q4 : -0.000414594338508}
2019-04-14 03:40:43.81: SIM {TimeUS : 46634672, Roll : 0.13, Pitch : 0.12, Yaw : 359.95, Alt : 34.25, Lat : 49.2835704, Lng : -123.1150208, Q1 : 0.999998569489, Q2 : 0.00115734443534, Q3 : 0.00113005121239, Q4 : -0.000412500812672}
2019-04-14 03:40:43.91: SIM {TimeUS : 46734632, Roll : 0.1, Pitch : 0.12, Yaw : 359.95, Alt : 34.4599990845, Lat : 49.2835704, Lng : -123.1150208, Q1 : 0.999998927116, Q2 : 0.000910724105779, Q3 : 0.00110051175579, Q4 : -0.00041611524648}
2019-04-14 03:40:44.01: SIM {TimeUS : 46834592, Roll : 0.09, Pitch : 0.08, Yaw : 359.94, Alt : 34.6699981689, Lat : 49.2835704, Lng : -123.1150208, Q1 : 0.999999284744, Q2 : 0.000799596717115, Q3 : 0.000771989638451, Q4 : -0.000441013864474}
2019-04-14 03:40:44.11: SIM {TimeUS : 46934552, Roll : 0.08, Pitch : 0.05, Yaw : 359.94, Alt : 34.8899993896, Lat : 49.2835704, Lng : -123.1150208, Q1 : 0.999999523163, Q2 : 0.000752446008846, Q3 : 0.00044759051525, Q4 : -0.000485760363517}
2019-04-14 03:40:44.21: SIM {TimeUS : 47034512, Roll : 0.06, Pitch : 0.02, Yaw : 359.93, Alt : 35.0999984741, Lat : 49.2835704, Lng : -123.1150208, Q1 : 0.999999642372, Q2 : 0.000605899840593, Q3 : 0.000235105850152, Q4 : -0.000532762496732}
2019-04-14 03:40:44.31: SIM {TimeUS : 47135305, Roll : 0.05, Pitch : 0.02, Yaw : 359.93, Alt : 35.3199996948, Lat : 49.2835704, Lng : -123.1150207, Q1 : 0.999999701977, Q2 : 0.000485888449475, Q3 : 0.000175968321855, Q4 : -0.000577304745093}
2019-04-14 03:40:44.41: SIM {TimeUS : 47235265, Roll : 0.05, Pitch : 0.01, Yaw : 359.92, Alt : 35.5400009155, Lat : 49.2835704, Lng : -123.1150207, Q1 : 0.999999701977, Q2 : 0.000447238475317, Q3 : 0.000164086159202, Q4 : -0.000616478617303}
2019-04-14 03:40:44.51: SIM {TimeUS : 47335225, Roll : 0.02, Pitch : 0.0, Yaw : 359.92, Alt : 35.7599983215, Lat : 49.2835704, Lng : -123.1150207, Q1 : 0.999999761581, Q2 : 0.00024913623929, Q3 : -1.4972722056e-05, Q4 : -0.000656179676298}
2019-04-14 03:40:44.61: SIM {TimeUS : 47435185, Roll : 0.0, Pitch : -0.03, Yaw : 359.92, Alt : 35.9799995422, Lat : 49.2835704, Lng : -123.1150207, Q1 : 0.999999701977, Q2 : -5.49714422959e-05, Q3 : -0.000305413530441, Q4 : -0.000692384899594}
2019-04-14 03:40:44.71: SIM {TimeUS : 47535145, Roll : -0.04, Pitch : -0.05, Yaw : 359.91, Alt : 36.2000007629, Lat : 49.2835704, Lng : -123.1150207, Q1 : 0.999999523163, Q2 : -0.000383018283173, Q3 : -0.000515223713592, Q4 : -0.000728245533537}
2019-04-14 03:40:44.81: SIM {TimeUS : 47635105, Roll : -0.07, Pitch : -0.07, Yaw : 359.91, Alt : 36.4199981689, Lat : 49.2835704, Lng : -123.1150207, Q1 : 0.999999284744, Q2 : -0.000660251243971, Q3 : -0.00062854657881, Q4 : -0.000760629714932}
2019-04-14 03:40:44.91: SIM {TimeUS : 47735065, Roll : -0.08, Pitch : -0.07, Yaw : 359.91, Alt : 36.6399993896, Lat : 49.2835704, Lng : -123.1150206, Q1 : 0.99999922514, Q2 : -0.000701930432115, Q3 : -0.000617557321675, Q4 : -0.000784593285061}
2019-04-14 03:40:45.01: SIM {TimeUS : 47835025, Roll : -0.08, Pitch : -0.06, Yaw : 359.9, Alt : 36.8699989319, Lat : 49.2835704, Lng : -123.1150206, Q1 : 0.999999284744, Q2 : -0.000698796880897, Q3 : -0.000586623151321, Q4 : -0.000805229006801}
2019-04-14 03:40:45.11: SIM {TimeUS : 47934985, Roll : -0.07, Pitch : -0.05, Yaw : 359.9, Alt : 37.0900001526, Lat : 49.2835704, Lng : -123.1150206, Q1 : 0.999999344349, Q2 : -0.000647710228804, Q3 : -0.000461999617983, Q4 : -0.000820631510578}
2019-04-14 03:40:45.21: SIM {TimeUS : 48034945, Roll : -0.06, Pitch : -0.04, Yaw : 359.9, Alt : 37.3199996948, Lat : 49.2835704, Lng : -123.1150206, Q1 : 0.999999403954, Q2 : -0.000566108035855, Q3 : -0.000391007604776, Q4 : -0.000827210547868}
2019-04-14 03:40:45.31: SIM {TimeUS : 48134905, Roll : -0.07, Pitch : -0.04, Yaw : 359.9, Alt : 37.5400009155, Lat : 49.2835704, Lng : -123.1150206, Q1 : 0.999999344349, Q2 : -0.000629302870948, Q3 : -0.000405904458603, Q4 : -0.000835632730741}
2019-04-14 03:40:45.41: SIM {TimeUS : 48234865, Roll : -0.08, Pitch : -0.03, Yaw : 359.9, Alt : 37.7700004578, Lat : 49.2835704, Lng : -123.1150206, Q1 : 0.999999344349, Q2 : -0.000715599162504, Q3 : -0.000281626184005, Q4 : -0.000844714115374}
2019-04-14 03:40:45.51: SIM {TimeUS : 48334825, Roll : -0.1, Pitch : -0.01, Yaw : 359.9, Alt : 37.9900016785, Lat : 49.2835704, Lng : -123.1150206, Q1 : 0.99999922514, Q2 : -0.000908667570911, Q3 : -0.00011038017692, Q4 : -0.0008525524172}
2019-04-14 03:40:45.61: SIM {TimeUS : 48434785, Roll : -0.1, Pitch : 0.0, Yaw : 359.9, Alt : 38.2200012207, Lat : 49.2835704, Lng : -123.1150206, Q1 : 0.99999922514, Q2 : -0.000910120666958, Q3 : 2.18119039346e-05, Q4 : -0.000854594807606}
2019-04-14 03:40:45.71: SIM {TimeUS : 48534745, Roll : -0.08, Pitch : 0.03, Yaw : 359.9, Alt : 38.4500007629, Lat : 49.2835704, Lng : -123.1150206, Q1 : 0.999999344349, Q2 : -0.000700060627423, Q3 : 0.000292205048027, Q4 : -0.000857101287693}
2019-04-14 03:40:45.81: SIM {TimeUS : 48634705, Roll : -0.05, Pitch : 0.03, Yaw : 359.9, Alt : 38.6800003052, Lat : 49.2835704, Lng : -123.1150206, Q1 : 0.999999463558, Q2 : -0.00045937957475, Q3 : 0.000276131293504, Q4 : -0.000868577393703}
2019-04-14 03:40:45.91: SIM {TimeUS : 48734665, Roll : -0.01, Pitch : 0.02, Yaw : 359.89, Alt : 38.9099998474, Lat : 49.2835704, Lng : -123.1150206, Q1 : 0.999999582767, Q2 : -0.000172018815647, Q3 : 0.000181484996574, Q4 : -0.000881317420863}
2019-04-14 03:40:46.01: SIM {TimeUS : 48834625, Roll : 0.01, Pitch : 0.03, Yaw : 359.89, Alt : 39.1399993896, Lat : 49.2835704, Lng : -123.1150206, Q1 : 0.999999582767, Q2 : 0.000147023878526, Q3 : 0.000290917552775, Q4 : -0.000895129633136}
2019-04-14 03:40:46.11: SIM {TimeUS : 48934585, Roll : 0.05, Pitch : 0.05, Yaw : 359.89, Alt : 39.3600006104, Lat : 49.2835704, Lng : -123.1150206, Q1 : 0.999999344349, Q2 : 0.000446007412393, Q3 : 0.000519906287082, Q4 : -0.000917751982342}
2019-04-14 03:40:46.21: SIM {TimeUS : 49034545, Roll : 0.07, Pitch : 0.08, Yaw : 359.89, Alt : 39.5999984741, Lat : 49.2835704, Lng : -123.1150206, Q1 : 0.999999046326, Q2 : 0.00065192457987, Q3 : 0.000741247320548, Q4 : -0.000947917578742}
2019-04-14 03:40:46.31: SIM {TimeUS : 49134505, Roll : 0.06, Pitch : 0.1, Yaw : 359.88, Alt : 39.8300018311, Lat : 49.2835706, Lng : -123.1150206, Q1 : 0.999998927116, Q2 : 0.00056399294408, Q3 : 0.000949493376538, Q4 : -0.000975346774794}
2019-04-14 03:40:46.41: SIM {TimeUS : 49235298, Roll : 0.01, Pitch : 0.12, Yaw : 359.88, Alt : 40.0600013733, Lat : 49.2835706, Lng : -123.1150206, Q1 : 0.999998867512, Q2 : 0.000150304607814, Q3 : 0.00112806435209, Q4 : -0.00101947691292}
2019-04-14 03:40:46.51: SIM {TimeUS : 49335258, Roll : -0.01, Pitch : 0.11, Yaw : 359.87, Alt : 40.2900009155, Lat : 49.2835706, Lng : -123.1150206, Q1 : 0.999998867512, Q2 : -0.000164482495165, Q3 : 0.0010391115211, Q4 : -0.00105632632039}
2019-04-14 03:40:46.61: SIM {TimeUS : 49435218, Roll : -0.04, Pitch : 0.08, Yaw : 359.87, Alt : 40.5200004578, Lat : 49.2835706, Lng : -123.1150206, Q1 : 0.999999046326, Q2 : -0.000377530959668, Q3 : 0.00076906074537, Q4 : -0.00109408330172}
2019-04-14 03:40:46.71: SIM {TimeUS : 49535178, Roll : -0.05, Pitch : 0.06, Yaw : 359.87, Alt : 40.75, Lat : 49.2835706, Lng : -123.1150206, Q1 : 0.99999910593, Q2 : -0.000458516296931, Q3 : 0.000595914723817, Q4 : -0.00113021687139}
2019-04-14 03:40:46.81: SIM {TimeUS : 49635138, Roll : -0.03, Pitch : 0.08, Yaw : 359.86, Alt : 40.9900016785, Lat : 49.2835706, Lng : -123.1150206, Q1 : 0.999999046326, Q2 : -0.000344673724612, Q3 : 0.000703284400515, Q4 : -0.00116900773719}
2019-04-14 03:40:46.91: SIM {TimeUS : 49735098, Roll : 0.0, Pitch : 0.11, Yaw : 359.86, Alt : 41.2200012207, Lat : 49.2835706, Lng : -123.1150206, Q1 : 0.999998807907, Q2 : 4.15464382968e-05, Q3 : 0.000989322783425, Q4 : -0.0011993177468}
2019-04-14 03:40:47.01: SIM {TimeUS : 49835058, Roll : 0.05, Pitch : 0.13, Yaw : 359.85, Alt : 41.4500007629, Lat : 49.2835706, Lng : -123.1150207, Q1 : 0.999998390675, Q2 : 0.000488650868647, Q3 : 0.00119732064195, Q4 : -0.00122890598141}
2019-04-14 03:40:47.11: SIM {TimeUS : 49935018, Roll : 0.08, Pitch : 0.11, Yaw : 359.85, Alt : 41.6899986267, Lat : 49.2835706, Lng : -123.1150207, Q1 : 0.999998450279, Q2 : 0.000762867974117, Q3 : 0.00100548600312, Q4 : -0.00125624856446}
2019-04-14 03:40:47.21: SIM {TimeUS : 50034978, Roll : 0.08, Pitch : 0.07, Yaw : 359.85, Alt : 41.9199981689, Lat : 49.2835706, Lng : -123.1150207, Q1 : 0.999998688698, Q2 : 0.000757202506065, Q3 : 0.000634888070635, Q4 : -0.00128258438781}
2019-04-14 03:40:47.31: SIM {TimeUS : 50134938, Roll : 0.05, Pitch : 0.04, Yaw : 359.85, Alt : 42.1500015259, Lat : 49.2835706, Lng : -123.1150207, Q1 : 0.999998986721, Q2 : 0.000442771910457, Q3 : 0.000351755850716, Q4 : -0.00130178441759}
2019-04-14 03:40:47.41: SIM {TimeUS : 50234898, Roll : 0.0, Pitch : 0.03, Yaw : 359.84, Alt : 42.3899993896, Lat : 49.2835706, Lng : -123.1150207, Q1 : 0.99999910593, Q2 : -2.03622148547e-05, Q3 : 0.000298175640637, Q4 : -0.00131581304595}
2019-04-14 03:40:47.51: SIM {TimeUS : 50334858, Roll : -0.03, Pitch : 0.06, Yaw : 359.84, Alt : 42.6199989319, Lat : 49.2835706, Lng : -123.1150207, Q1 : 0.999998927116, Q2 : -0.000312482181471, Q3 : 0.000541956687812, Q4 : -0.00132259284146}
2019-04-14 03:40:47.61: SIM {TimeUS : 50434818, Roll : -0.04, Pitch : 0.08, Yaw : 359.84, Alt : 42.8600006104, Lat : 49.2835704, Lng : -123.1150206, Q1 : 0.999998807907, Q2 : -0.000424462166848, Q3 : 0.000716020178515, Q4 : -0.00132659100927}
2019-04-14 03:40:47.71: SIM {TimeUS : 50534778, Roll : -0.04, Pitch : 0.07, Yaw : 359.84, Alt : 43.0900001526, Lat : 49.2835704, Lng : -123.1150206, Q1 : 0.999998807907, Q2 : -0.000382160244044, Q3 : 0.000694766407833, Q4 : -0.0013334385585}
2019-04-14 03:40:47.81: SIM {TimeUS : 50634738, Roll : -0.04, Pitch : 0.06, Yaw : 359.84, Alt : 43.3300018311, Lat : 49.2835704, Lng : -123.1150206, Q1 : 0.999998867512, Q2 : -0.000394235714339, Q3 : 0.000575474870857, Q4 : -0.00134340988006}
2019-04-14 03:40:47.91: SIM {TimeUS : 50734698, Roll : -0.03, Pitch : 0.04, Yaw : 359.84, Alt : 43.5600013733, Lat : 49.2835704, Lng : -123.1150206, Q1 : 0.999998927116, Q2 : -0.000323131971527, Q3 : 0.000426242535468, Q4 : -0.00135820789728}
2019-04-14 03:40:48.01: SIM {TimeUS : 50834658, Roll : -0.01, Pitch : 0.04, Yaw : 359.84, Alt : 43.7999992371, Lat : 49.2835704, Lng : -123.1150206, Q1 : 0.999998986721, Q2 : -0.000165865654708, Q3 : 0.000360667501809, Q4 : -0.00138121750206}
2019-04-14 03:40:48.11: SIM {TimeUS : 50934618, Roll : 0.0, Pitch : 0.04, Yaw : 359.83, Alt : 44.0299987793, Lat : 49.2835704, Lng : -123.1150206, Q1 : 0.999998927116, Q2 : -6.3009931182e-05, Q3 : 0.00037477578735, Q4 : -0.00140567321796}
2019-04-14 03:40:48.21: SIM {TimeUS : 51034578, Roll : -0.01, Pitch : 0.02, Yaw : 359.83, Alt : 44.2700004578, Lat : 49.2835704, Lng : -123.1150206, Q1 : 0.999998927116, Q2 : -9.85936931102e-05, Q3 : 0.000208501049201, Q4 : -0.00143095536623}
2019-04-14 03:40:48.31: SIM {TimeUS : 51134538, Roll : -0.02, Pitch : 0.0, Yaw : 359.83, Alt : 44.5, Lat : 49.2835704, Lng : -123.1150206, Q1 : 0.999998927116, Q2 : -0.000181327530299, Q3 : -8.68713177624e-05, Q4 : -0.00146199588198}
2019-04-14 03:40:48.41: SIM {TimeUS : 51234498, Roll : -0.02, Pitch : -0.02, Yaw : 359.82, Alt : 44.7400016785, Lat : 49.2835704, Lng : -123.1150206, Q1 : 0.999998807907, Q2 : -0.0002348167327, Q3 : -0.000243746937485, Q4 : -0.00149415701162}
2019-04-14 03:40:48.51: SIM {TimeUS : 51335291, Roll : -0.02, Pitch : -0.04, Yaw : 359.82, Alt : 44.9799995422, Lat : 49.2835704, Lng : -123.1150206, Q1 : 0.999998748302, Q2 : -0.000229100871366, Q3 : -0.000361190468539, Q4 : -0.00152736203745}
2019-04-14 03:40:48.61: SIM {TimeUS : 51435251, Roll : -0.02, Pitch : -0.04, Yaw : 359.82, Alt : 45.2099990845, Lat : 49.2835704, Lng : -123.1150206, Q1 : 0.999998688698, Q2 : -0.000259292311966, Q3 : -0.000394318572944, Q4 : -0.00155960139818}
2019-04-14 03:40:48.71: SIM {TimeUS : 51535211, Roll : -0.04, Pitch : -0.03, Yaw : 359.81, Alt : 45.4500007629, Lat : 49.2835704, Lng : -123.1150206, Q1 : 0.999998569489, Q2 : -0.00042154971743, Q3 : -0.000333428091835, Q4 : -0.00159543810878}
2019-04-14 03:40:48.81: SIM {TimeUS : 51635171, Roll : -0.07, Pitch : -0.03, Yaw : 359.81, Alt : 45.6800003052, Lat : 49.2835704, Lng : -123.1150206, Q1 : 0.999998390675, Q2 : -0.000698579882737, Q3 : -0.000276630860753, Q4 : -0.00163250428159}
2019-04-14 03:40:48.91: SIM {TimeUS : 51735131, Roll : -0.1, Pitch : -0.02, Yaw : 359.8, Alt : 45.9199981689, Lat : 49.2835703, Lng : -123.1150206, Q1 : 0.999998152256, Q2 : -0.000907297420781, Q3 : -0.000212857921724, Q4 : -0.00166739686392}
2019-04-14 03:40:49.01: SIM {TimeUS : 51835091, Roll : -0.1, Pitch : 0.0, Yaw : 359.8, Alt : 46.1500015259, Lat : 49.2835703, Lng : -123.1150206, Q1 : 0.999998092651, Q2 : -0.000957679527346, Q3 : -6.78531068843e-05, Q4 : -0.00169675960205}
2019-04-14 03:40:49.11: SIM {TimeUS : 51935051, Roll : -0.09, Pitch : 0.01, Yaw : 359.8, Alt : 46.3699989319, Lat : 49.2835704, Lng : -123.1150206, Q1 : 0.999998152256, Q2 : -0.000844128197059, Q3 : 0.000166170546436, Q4 : -0.00171904673334}
2019-04-14 03:40:49.21: SIM {TimeUS : 52035011, Roll : -0.07, Pitch : 0.03, Yaw : 359.8, Alt : 46.5900001526, Lat : 49.2835704, Lng : -123.1150206, Q1 : 0.999998211861, Q2 : -0.000617720652372, Q3 : 0.000312046700856, Q4 : -0.00174024619628}
2019-04-14 03:40:49.31: SIM {TimeUS : 52134971, Roll : -0.04, Pitch : 0.03, Yaw : 359.79, Alt : 46.8100013733, Lat : 49.2835704, Lng : -123.1150206, Q1 : 0.99999833107, Q2 : -0.000421290285885, Q3 : 0.00029620694113, Q4 : -0.0017607845366}
2019-04-14 03:40:49.41: SIM {TimeUS : 52234931, Roll : -0.03, Pitch : 0.01, Yaw : 359.79, Alt : 47.0200004578, Lat : 49.2835704, Lng : -123.1150206, Q1 : 0.99999833107, Q2 : -0.000324447726598, Q3 : 0.000144564241054, Q4 : -0.0017792340368}
2019-04-14 03:40:49.51: SIM {TimeUS : 52334891, Roll : -0.01, Pitch : -0.01, Yaw : 359.79, Alt : 47.2200012207, Lat : 49.2835703, Lng : -123.1150206, Q1 : 0.99999833107, Q2 : -0.000166873403941, Q3 : -0.000138706498547, Q4 : -0.00180003140122}
2019-04-14 03:40:49.61: SIM {TimeUS : 52434851, Roll : 0.0, Pitch : -0.05, Yaw : 359.79, Alt : 47.4199981689, Lat : 49.2835703, Lng : -123.1150206, Q1 : 0.999998271465, Q2 : 4.20721189585e-05, Q3 : -0.000440091855126, Q4 : -0.00182025891263}
2019-04-14 03:40:49.71: SIM {TimeUS : 52534811, Roll : 0.01, Pitch : -0.07, Yaw : 359.78, Alt : 47.5999984741, Lat : 49.2835703, Lng : -123.1150206, Q1 : 0.999998092651, Q2 : 0.000133926107083, Q3 : -0.000663211452775, Q4 : -0.00184485060163}
2019-04-14 03:40:49.81: SIM {TimeUS : 52634771, Roll : 0.02, Pitch : -0.11, Yaw : 359.78, Alt : 47.7799987793, Lat : 49.2835703, Lng : -123.1150206, Q1 : 0.999997735023, Q2 : 0.000201700138859, Q3 : -0.000977190095, Q4 : -0.0018713765312}
2019-04-14 03:40:49.91: SIM {TimeUS : 52734731, Roll : 0.04, Pitch : -0.12, Yaw : 359.78, Alt : 47.9399986267, Lat : 49.2835703, Lng : -123.1150206, Q1 : 0.999997496605, Q2 : 0.000424970785389, Q3 : -0.00110536511056, Q4 : -0.00189697463065}
2019-04-14 03:40:50.01: SIM {TimeUS : 52834691, Roll : 0.07, Pitch : -0.11, Yaw : 359.77, Alt : 48.0999984741, Lat : 49.2835703, Lng : -123.1150206, Q1 : 0.999997437, Q2 : 0.000651777372696, Q3 : -0.00102438020986, Q4 : -0.00192004651763}
2019-04-14 03:40:50.11: SIM {TimeUS : 52934651, Roll : 0.09, Pitch : -0.09, Yaw : 359.77, Alt : 48.2400016785, Lat : 49.2835704, Lng : -123.1150206, Q1 : 0.999997437, Q2 : 0.000792652950622, Q3 : -0.00083671376342, Q4 : -0.00193994457368}
2019-04-14 03:40:50.21: SIM {TimeUS : 53034611, Roll : 0.08, Pitch : -0.06, Yaw : 359.77, Alt : 48.3600006104, Lat : 49.2835704, Lng : -123.1150206, Q1 : 0.999997615814, Q2 : 0.000763004587498, Q3 : -0.000601205218118, Q4 : -0.0019617904909}
2019-04-14 03:40:50.31: SIM {TimeUS : 53134571, Roll : 0.07, Pitch : -0.04, Yaw : 359.77, Alt : 48.4799995422, Lat : 49.2835704, Lng : -123.1150206, Q1 : 0.999997735023, Q2 : 0.000694043177646, Q3 : -0.000427052989835, Q4 : -0.00198552524671}
2019-04-14 03:40:50.41: SIM {TimeUS : 53234531, Roll : 0.06, Pitch : -0.05, Yaw : 359.76, Alt : 48.5900001526, Lat : 49.2835704, Lng : -123.1150206, Q1 : 0.999997735023, Q2 : 0.000574808218516, Q3 : -0.00044731789967, Q4 : -0.00201121624559}
2019-04-14 03:40:50.51: SIM {TimeUS : 53335324, Roll : 0.04, Pitch : -0.05, Yaw : 359.76, Alt : 48.6800003052, Lat : 49.2835704, Lng : -123.1150206, Q1 : 0.999997735023, Q2 : 0.000353741779691, Q3 : -0.000462241529021, Q4 : -0.00204325839877}
2019-04-14 03:40:50.61: SIM {TimeUS : 53435284, Roll : 0.01, Pitch : -0.04, Yaw : 359.76, Alt : 48.7599983215, Lat : 49.2835704, Lng : -123.1150206, Q1 : 0.999997735023, Q2 : 0.000163989403518, Q3 : -0.0003830473579, Q4 : -0.00207574106753}
2019-04-14 03:40:50.71: SIM {TimeUS : 53535244, Roll : 0.0, Pitch : -0.02, Yaw : 359.75, Alt : 48.8300018311, Lat : 49.2835704, Lng : -123.1150206, Q1 : 0.999997735023, Q2 : 1.24287571452e-05, Q3 : -0.00023548513127, Q4 : -0.0021076479461}
2019-04-14 03:40:50.81: SIM {TimeUS : 53635204, Roll : 0.0, Pitch : -0.01, Yaw : 359.75, Alt : 48.8899993896, Lat : 49.2835704, Lng : -123.1150206, Q1 : 0.999997735023, Q2 : -3.23477797792e-05, Q3 : -0.000123817648273, Q4 : -0.00213563651778}
2019-04-14 03:40:50.91: SIM {TimeUS : 53735164, Roll : 0.08, Pitch : -0.08, Yaw : 359.75, Alt : 48.9399986267, Lat : 49.2835704, Lng : -123.1150206, Q1 : 0.999997138977, Q2 : 0.000731335021555, Q3 : -0.000711473578122, Q4 : -0.00215774378739}
2019-04-14 03:40:51.01: SIM {TimeUS : 53835124, Roll : 0.31, Pitch : -0.34, Yaw : 359.74, Alt : 48.9799995422, Lat : 49.2835704, Lng : -123.1150206, Q1 : 0.999989211559, Q2 : 0.00275982962921, Q3 : -0.00303091621026, Q4 : -0.00218092021532}
2019-04-14 03:40:51.11: SIM {TimeUS : 53935084, Roll : 0.69, Pitch : -0.87, Yaw : 359.74, Alt : 49.0200004578, Lat : 49.2835704, Lng : -123.1150206, Q1 : 0.999949991703, Q2 : 0.00605466589332, Q3 : -0.00765434699133, Q4 : -0.00219819601625}
2019-04-14 03:40:51.21: SIM {TimeUS : 54035044, Roll : 1.18, Pitch : -1.61, Yaw : 359.73, Alt : 49.0499992371, Lat : 49.2835706, Lng : -123.1150206, Q1 : 0.999845147133, Q2 : 0.0103193623945, Q3 : -0.0140862986445, Q4 : -0.00220156088471}
2019-04-14 03:40:51.31: SIM {TimeUS : 54135004, Roll : 1.74, Pitch : -2.48, Yaw : 359.71, Alt : 49.0800018311, Lat : 49.2835706, Lng : -123.1150205, Q1 : 0.999647140503, Q2 : 0.0151511207223, Q3 : -0.0217105392367, Q4 : -0.00216351123527}
2019-04-14 03:40:51.41: SIM {TimeUS : 54234964, Roll : 2.3, Pitch : -3.36, Yaw : 359.69, Alt : 49.1100006104, Lat : 49.2835707, Lng : -123.1150204, Q1 : 0.99936491251, Q2 : 0.0200514327735, Q3 : -0.0293855499476, Q4 : -0.0020650124643}
2019-04-14 03:40:51.51: SIM {TimeUS : 54334924, Roll : 2.79, Pitch : -4.09, Yaw : 359.68, Alt : 49.1300010681, Lat : 49.2835708, Lng : -123.1150203, Q1 : 0.999061584473, Q2 : 0.0243048463017, Q3 : -0.0358003117144, Q4 : -0.00189778045751}
2019-04-14 03:40:51.61: SIM {TimeUS : 54434884, Roll : 3.16, Pitch : -4.64, Yaw : 359.67, Alt : 49.1399993896, Lat : 49.2835709, Lng : -123.1150201, Q1 : 0.998794734478, Q2 : 0.0275155138224, Q3 : -0.0406098924577, Q4 : -0.00167447584681}
2019-04-14 03:40:51.71: SIM {TimeUS : 54534844, Roll : 3.43, Pitch : -5.03, Yaw : 359.68, Alt : 49.1599998474, Lat : 49.2835712, Lng : -123.11502, Q1 : 0.998585700989, Q2 : 0.0298211257905, Q3 : -0.0439916290343, Q4 : -0.00141299504321}
2019-04-14 03:40:51.81: SIM {TimeUS : 54634804, Roll : 3.63, Pitch : -5.33, Yaw : 359.69, Alt : 49.1699981689, Lat : 49.2835715, Lng : -123.1150197, Q1 : 0.998414635658, Q2 : 0.0315893366933, Q3 : -0.0465725213289, Q4 : -0.00114187283907}
2019-04-14 03:40:51.91: SIM {TimeUS : 54734764, Roll : 3.82, Pitch : -5.62, Yaw : 359.71, Alt : 49.1899986267, Lat : 49.2835719, Lng : -123.1150193, Q1 : 0.998240113258, Q2 : 0.0332103222609, Q3 : -0.0491228029132, Q4 : -0.000877605576534}
2019-04-14 03:40:52.01: SIM {TimeUS : 54834724, Roll : 4.03, Pitch : -5.94, Yaw : 359.71, Alt : 49.2000007629, Lat : 49.2835722, Lng : -123.1150189, Q1 : 0.998039186001, Q2 : 0.0350302420557, Q3 : -0.0518686436117, Q4 : -0.000621010316536}
2019-04-14 03:40:52.11: SIM {TimeUS : 54934684, Roll : 4.27, Pitch : -6.26, Yaw : 359.72, Alt : 49.2000007629, Lat : 49.2835727, Lng : -123.1150184, Q1 : 0.997814118862, Q2 : 0.037098005414, Q3 : -0.0546866320074, Q4 : -0.000365777406842}
2019-04-14 03:40:52.21: SIM {TimeUS : 55034644, Roll : 4.47, Pitch : -6.53, Yaw : 359.72, Alt : 49.2099990845, Lat : 49.2835733, Lng : -123.1150178, Q1 : 0.997616291046, Q2 : 0.0388257838786, Q3 : -0.0570460706949, Q4 : -0.000128181723994}
2019-04-14 03:40:52.31: SIM {TimeUS : 55134604, Roll : 4.61, Pitch : -6.74, Yaw : 359.73, Alt : 49.2200012207, Lat : 49.2835739, Lng : -123.1150172, Q1 : 0.997461140156, Q2 : 0.0400714874268, Q3 : -0.0588685311377, Q4 : 7.82070637797e-05}
2019-04-14 03:40:52.41: SIM {TimeUS : 55234564, Roll : 4.7, Pitch : -6.89, Yaw : 359.74, Alt : 49.2299995422, Lat : 49.2835745, Lng : -123.1150165, Q1 : 0.997349739075, Q2 : 0.0408355668187, Q3 : -0.0602159611881, Q4 : 0.000234376842855}
2019-04-14 03:40:52.51: SIM {TimeUS : 55334524, Roll : 4.77, Pitch : -7.0, Yaw : 359.74, Alt : 49.2299995422, Lat : 49.2835752, Lng : -123.1150157, Q1 : 0.997267961502, Q2 : 0.0414815321565, Q3 : -0.0611206591129, Q4 : 0.000354107032763}
2019-04-14 03:40:52.61: SIM {TimeUS : 55435317, Roll : 4.84, Pitch : -7.08, Yaw : 359.74, Alt : 49.2400016785, Lat : 49.2835761, Lng : -123.1150149, Q1 : 0.997201144695, Q2 : 0.0420365557075, Q3 : -0.0618278719485, Q4 : 0.000429351523053}
2019-04-14 03:40:52.71: SIM {TimeUS : 55535277, Roll : 4.93, Pitch : -7.19, Yaw : 359.74, Alt : 49.2400016785, Lat : 49.2835769, Lng : -123.1150139, Q1 : 0.997108161449, Q2 : 0.0428348593414, Q3 : -0.0627718046308, Q4 : 0.000497916771565}
2019-04-14 03:40:52.81: SIM {TimeUS : 55635237, Roll : 5.26, Pitch : -7.25, Yaw : 359.91, Alt : 49.25, Lat : 49.2835777, Lng : -123.1150131, Q1 : 0.996945917606, Q2 : 0.0457624830306, Q3 : -0.0632470846176, Q4 : 0.00212729466148}
2019-04-14 03:40:52.91: SIM {TimeUS : 55735197, Roll : 5.88, Pitch : -7.27, Yaw : 0.8, Alt : 49.25, Lat : 49.2835788, Lng : -123.1150121, Q1 : 0.996618151665, Q2 : 0.0516970194876, Q3 : -0.0630394518375, Q4 : 0.0102843437344}
2019-04-14 03:40:53.01: SIM {TimeUS : 55835157, Roll : 6.51, Pitch : -7.45, Yaw : 3.08, Alt : 49.25, Lat : 49.2835797, Lng : -123.115011, Q1 : 0.995810449123, Q2 : 0.0584441423416, Q3 : -0.0633510276675, Q4 : 0.0305357854813}
2019-04-14 03:40:53.11: SIM {TimeUS : 55935117, Roll : 6.77, Pitch : -7.94, Yaw : 6.98, Alt : 49.2599983215, Lat : 49.2835807, Lng : -123.1150098, Q1 : 0.993753969669, Q2 : 0.0630781501532, Q3 : -0.0654559805989, Q4 : 0.0647281706333}
2019-04-14 03:40:53.21: SIM {TimeUS : 56035077, Roll : 6.43, Pitch : -8.76, Yaw : 12.37, Alt : 49.2599983215, Lat : 49.2835818, Lng : -123.1150084, Q1 : 0.989244163036, Q2 : 0.0638657510281, Q3 : -0.0698159858584, Q4 : 0.111547864974}
2019-04-14 03:40:53.31: SIM {TimeUS : 56135037, Roll : 5.24, Pitch : -9.82, Yaw : 18.96, Alt : 49.2599983215, Lat : 49.283583, Lng : -123.1150072, Q1 : 0.981037735939, Q2 : 0.0590464547276, Q3 : -0.0768488869071, Q4 : 0.167847245932}
2019-04-14 03:40:53.41: SIM {TimeUS : 56234997, Roll : 3.05, Pitch : -10.9, Yaw : 26.13, Alt : 49.2599983215, Lat : 49.2835841, Lng : -123.1150057, Q1 : 0.968777239323, Q2 : 0.0473281145096, Q3 : -0.0865193679929, Q4 : 0.227475523949}
2019-04-14 03:40:53.51: SIM {TimeUS : 56334957, Roll : 0.19, Pitch : -11.75, Yaw : 33.08, Alt : 49.2599983215, Lat : 49.2835854, Lng : -123.1150041, Q1 : 0.953512191772, Q2 : 0.0307774618268, Q3 : -0.0976407751441, Q4 : 0.283431619406}
2019-04-14 03:40:53.61: SIM {TimeUS : 56434917, Roll : -2.7, Pitch : -12.23, Yaw : 39.08, Alt : 49.2700004578, Lat : 49.2835866, Lng : -123.1150025, Q1 : 0.937602519989, Q2 : 0.0135277016088, Q3 : -0.108215406537, Q4 : 0.330163508654}
2019-04-14 03:40:53.71: SIM {TimeUS : 56534877, Roll : -5.01, Pitch : -12.42, Yaw : 43.58, Alt : 49.2700004578, Lat : 49.2835879, Lng : -123.1150009, Q1 : 0.923966705799, Q2 : -0.000236032254179, Q3 : -0.116518132389, Q4 : 0.364292472601}
2019-04-14 03:40:53.81: SIM {TimeUS : 56634837, Roll : -6.38, Pitch : -12.48, Yaw : 46.33, Alt : 49.2700004578, Lat : 49.2835895, Lng : -123.1149992, Q1 : 0.914889276028, Q2 : -0.0081927748397, Q3 : -0.121580779552, Q4 : 0.384874880314}
2019-04-14 03:40:53.91: SIM {TimeUS : 56734797, Roll : -6.75, Pitch : -12.58, Yaw : 47.41, Alt : 49.2700004578, Lat : 49.283591, Lng : -123.1149976, Q1 : 0.911116957664, Q2 : -0.00968058593571, Q3 : -0.123705551028, Q4 : 0.393025606871}
2019-04-14 03:40:54.01: SIM {TimeUS : 56834757, Roll : -6.3, Pitch : -12.83, Yaw : 47.09, Alt : 49.2700004578, Lat : 49.2835928, Lng : -123.1149959, Q1 : 0.912063896656, Q2 : -0.0055409790948, Q3 : -0.124122433364, Q4 : 0.390771627426}
2019-04-14 03:40:54.11: SIM {TimeUS : 56934717, Roll : -5.27, Pitch : -13.26, Yaw : 45.69, Alt : 49.2700004578, Lat : 49.2835945, Lng : -123.1149942, Q1 : 0.916473269463, Q2 : 0.00267678545788, Q3 : -0.124058164656, Q4 : 0.380367130041}
2019-04-14 03:40:54.21: SIM {TimeUS : 57034677, Roll : -3.87, Pitch : -13.83, Yaw : 43.52, Alt : 49.2700004578, Lat : 49.2835964, Lng : -123.1149925, Q1 : 0.922943890095, Q2 : 0.0134286759421, Q3 : -0.124228604138, Q4 : 0.36408996582}
2019-04-14 03:40:54.31: SIM {TimeUS : 57134637, Roll : -2.31, Pitch : -14.43, Yaw : 40.9, Alt : 49.2700004578, Lat : 49.2835983, Lng : -123.1149908, Q1 : 0.930244505405, Q2 : 0.025109058246, Q3 : -0.124723702669, Q4 : 0.34417834878}
2019-04-14 03:40:54.41: SIM {TimeUS : 57234597, Roll : -0.76, Pitch : -14.95, Yaw : 38.11, Alt : 49.2700004578, Lat : 49.2836004, Lng : -123.114989, Q1 : 0.937400996685, Q2 : 0.036289960146, Q3 : -0.125187039375, Q4 : 0.322940647602}
2019-04-14 03:40:54.51: SIM {TimeUS : 57334557, Roll : 0.64, Pitch : -15.32, Yaw : 35.49, Alt : 49.2799987793, Lat : 49.2836024, Lng : -123.1149871, Q1 : 0.943675220013, Q2 : 0.0459430925548, Q3 : -0.125253796577, Q4 : 0.302783370018}
2019-04-14 03:40:54.61: SIM {TimeUS : 57434517, Roll : 1.76, Pitch : -15.51, Yaw : 33.28, Alt : 49.2799987793, Lat : 49.2836045, Lng : -123.114985, Q1 : 0.948618590832, Q2 : 0.053321570158, Q3 : -0.124966360629, Q4 : 0.28576746583}
2019-04-14 03:40:54.71: SIM {TimeUS : 57535310, Roll : 2.53, Pitch : -15.58, Yaw : 31.67, Alt : 49.2799987793, Lat : 49.2836067, Lng : -123.1149829, Q1 : 0.952093780041, Q2 : 0.0581255033612, Q3 : -0.124446116388, Q4 : 0.27322524786}
2019-04-14 03:40:54.81: SIM {TimeUS : 57635270, Roll : 2.9, Pitch : -15.57, Yaw : 30.75, Alt : 49.2799987793, Lat : 49.283609, Lng : -123.1149807, Q1 : 0.954075336456, Q2 : 0.060140889138, Q3 : -0.123984850943, Q4 : 0.265990763903}
2019-04-14 03:40:54.91: SIM {TimeUS : 57735230, Roll : 2.89, Pitch : -15.56, Yaw : 30.5, Alt : 49.2799987793, Lat : 49.2836111, Lng : -123.1149783, Q1 : 0.954692304134, Q2 : 0.059720415622, Q3 : -0.124016821384, Q4 : 0.263848304749}
2019-04-14 03:40:55.01: SIM {TimeUS : 57835190, Roll : 2.57, Pitch : -15.59, Yaw : 30.82, Alt : 49.2799987793, Lat : 49.2836135, Lng : -123.1149759, Q1 : 0.954086005688, Q2 : 0.0574630573392, Q3 : -0.124857008457, Q4 : 0.266136497259}
2019-04-14 03:40:55.11: SIM {TimeUS : 57935150, Roll : 2.02, Pitch : -15.69, Yaw : 31.57, Alt : 49.2799987793, Lat : 49.2836158, Lng : -123.1149734, Q1 : 0.952457904816, Q2 : 0.0539670474827, Q3 : -0.126643151045, Q4 : 0.271796017885}
2019-04-14 03:40:55.21: SIM {TimeUS : 58035110, Roll : 1.33, Pitch : -15.84, Yaw : 32.6, Alt : 49.2799987793, Lat : 49.2836182, Lng : -123.1149708, Q1 : 0.95010393858, Q2 : 0.0497616492212, Q3 : -0.129063293338, Q4 : 0.279587209225}
2019-04-14 03:40:55.31: SIM {TimeUS : 58135070, Roll : 0.59, Pitch : -16.01, Yaw : 33.76, Alt : 49.2799987793, Lat : 49.2836206, Lng : -123.1149682, Q1 : 0.947356939316, Q2 : 0.0453593581915, Q3 : -0.131775200367, Q4 : 0.288257926702}
2019-04-14 03:40:55.41: SIM {TimeUS : 58235030, Roll : -0.09, Pitch : -16.13, Yaw : 34.89, Alt : 49.2799987793, Lat : 49.2836231, Lng : -123.1149655, Q1 : 0.944593966007, Q2 : 0.0412913411856, Q3 : -0.134144082665, Q4 : 0.296719700098}
2019-04-14 03:40:55.51: SIM {TimeUS : 58334990, Roll : -0.64, Pitch : -16.21, Yaw : 35.87, Alt : 49.2799987793, Lat : 49.2836256, Lng : -123.1149627, Q1 : 0.942125976086, Q2 : 0.0381072796881, Q3 : -0.13588578999, Q4 : 0.30410784483}
2019-04-14 03:40:55.61: SIM {TimeUS : 58434950, Roll : -1.05, Pitch : -16.25, Yaw : 36.62, Alt : 49.2799987793, Lat : 49.2836281, Lng : -123.1149599, Q1 : 0.940193653107, Q2 : 0.035806208849, Q3 : -0.137101978064, Q4 : 0.309769064188}
2019-04-14 03:40:55.71: SIM {TimeUS : 58534910, Roll : -1.25, Pitch : -16.29, Yaw : 37.1, Alt : 49.2799987793, Lat : 49.2836308, Lng : -123.1149571, Q1 : 0.938917756081, Q2 : 0.0347694791853, Q3 : -0.13778886199, Q4 : 0.313430637121}
2019-04-14 03:40:55.81: SIM {TimeUS : 58634870, Roll : -1.26, Pitch : -16.3, Yaw : 37.3, Alt : 49.2799987793, Lat : 49.2836334, Lng : -123.1149543, Q1 : 0.93835914135, Q2 : 0.0349970832467, Q3 : -0.137820497155, Q4 : 0.315060049295}
2019-04-14 03:40:55.91: SIM {TimeUS : 58734830, Roll : -1.13, Pitch : -16.3, Yaw : 37.25, Alt : 49.2799987793, Lat : 49.283636, Lng : -123.1149514, Q1 : 0.938450396061, Q2 : 0.0360291264951, Q3 : -0.137520462275, Q4 : 0.314802974463}
2019-04-14 03:40:56.01: SIM {TimeUS : 58834790, Roll : -0.91, Pitch : -16.34, Yaw : 36.99, Alt : 49.2799987793, Lat : 49.2836389, Lng : -123.1149485, Q1 : 0.939031124115, Q2 : 0.0376205220819, Q3 : -0.137284725904, Q4 : 0.312982827425}
2019-04-14 03:40:56.11: SIM {TimeUS : 58934750, Roll : -0.64, Pitch : -16.4, Yaw : 36.6, Alt : 49.2799987793, Lat : 49.2836415, Lng : -123.1149456, Q1 : 0.939941585064, Q2 : 0.0394796952605, Q3 : -0.137195840478, Q4 : 0.310046046972}
2019-04-14 03:40:56.21: SIM {TimeUS : 59034710, Roll : -0.36, Pitch : -16.48, Yaw : 36.13, Alt : 49.2799987793, Lat : 49.2836444, Lng : -123.1149426, Q1 : 0.941002309322, Q2 : 0.04144025594, Q3 : -0.137303754687, Q4 : 0.306504696608}
2019-04-14 03:40:56.31: SIM {TimeUS : 59134670, Roll : -0.1, Pitch : -16.56, Yaw : 35.65, Alt : 49.2799987793, Lat : 49.2836473, Lng : -123.1149396, Q1 : 0.942092776299, Q2 : 0.0432296432555, Q3 : -0.137388497591, Q4 : 0.302847892046}
2019-04-14 03:40:56.41: SIM {TimeUS : 59234630, Roll : 0.13, Pitch : -16.62, Yaw : 35.21, Alt : 49.2799987793, Lat : 49.28365, Lng : -123.1149366, Q1 : 0.943077087402, Q2 : 0.0448258146644, Q3 : -0.13746586442, Q4 : 0.299498647451}
2019-04-14 03:40:56.51: SIM {TimeUS : 59334590, Roll : 0.33, Pitch : -16.67, Yaw : 34.86, Alt : 49.2799987793, Lat : 49.283653, Lng : -123.1149335, Q1 : 0.943871676922, Q2 : 0.0461525991559, Q3 : -0.137485384941, Q4 : 0.29677271843}
2019-04-14 03:40:56.61: SIM {TimeUS : 59434550, Roll : 0.46, Pitch : -16.7, Yaw : 34.6, Alt : 49.2799987793, Lat : 49.2836559, Lng : -123.1149304, Q1 : 0.944432258606, Q2 : 0.0470359809697, Q3 : -0.137489661574, Q4 : 0.294842123985}
2019-04-14 03:40:56.71: SIM {TimeUS : 59534510, Roll : 0.53, Pitch : -16.72, Yaw : 34.46, Alt : 49.2900009155, Lat : 49.2836589, Lng : -123.1149272, Q1 : 0.94473940134, Q2 : 0.0475048348308, Q3 : -0.137558579445, Q4 : 0.293748736382}
2019-04-14 03:40:56.81: SIM {TimeUS : 59635303, Roll : 0.53, Pitch : -16.75, Yaw : 34.42, Alt : 49.2900009155, Lat : 49.2836618, Lng : -123.1149239, Q1 : 0.944800019264, Q2 : 0.0475633963943, Q3 : -0.137760162354, Q4 : 0.293449878693}
2019-04-14 03:40:56.91: SIM {TimeUS : 59735263, Roll : 0.48, Pitch : -16.76, Yaw : 34.48, Alt : 49.2900009155, Lat : 49.2836647, Lng : -123.1149208, Q1 : 0.944654226303, Q2 : 0.0472594499588, Q3 : -0.138012483716, Q4 : 0.293849349022}
2019-04-14 03:40:57.01: SIM {TimeUS : 59835223, Roll : 0.39, Pitch : -16.8, Yaw : 34.6, Alt : 49.2900009155, Lat : 49.2836677, Lng : -123.1149176, Q1 : 0.944335222244, Q2 : 0.0467340163887, Q3 : -0.138455927372, Q4 : 0.294748842716}
2019-04-14 03:40:57.11: SIM {TimeUS : 59935183, Roll : 0.27, Pitch : -16.84, Yaw : 34.77, Alt : 49.2900009155, Lat : 49.2836707, Lng : -123.1149143, Q1 : 0.943910896778, Q2 : 0.0460582375526, Q3 : -0.139026030898, Q4 : 0.295943766832}
2019-04-14 03:40:57.21: SIM {TimeUS : 60035143, Roll : 0.14, Pitch : -16.89, Yaw : 34.95, Alt : 49.2900009155, Lat : 49.2836737, Lng : -123.114911, Q1 : 0.943441092968, Q2 : 0.0452835485339, Q3 : -0.139719486237, Q4 : 0.297231942415}
2019-04-14 03:40:57.31: SIM {TimeUS : 60135103, Roll : 0.0, Pitch : -16.92, Yaw : 35.12, Alt : 49.2900009155, Lat : 49.2836768, Lng : -123.1149077, Q1 : 0.943009614944, Q2 : 0.0444287844002, Q3 : -0.140335261822, Q4 : 0.298437565565}
2019-04-14 03:40:57.41: SIM {TimeUS : 60235063, Roll : -0.12, Pitch : -16.95, Yaw : 35.26, Alt : 49.2900009155, Lat : 49.2836799, Lng : -123.1149044, Q1 : 0.942657291889, Q2 : 0.0436143651605, Q3 : -0.14082211256, Q4 : 0.299439758062}
2019-04-14 03:40:57.51: SIM {TimeUS : 60335023, Roll : -0.22, Pitch : -16.98, Yaw : 35.36, Alt : 49.2900009155, Lat : 49.2836829, Lng : -123.114901, Q1 : 0.942390680313, Q2 : 0.0429894141853, Q3 : -0.141306996346, Q4 : 0.300139993429}
2019-04-14 03:40:57.61: SIM {TimeUS : 60434983, Roll : -0.26, Pitch : -17.02, Yaw : 35.42, Alt : 49.2900009155, Lat : 49.2836862, Lng : -123.1148977, Q1 : 0.942212462425, Q2 : 0.0428558513522, Q3 : -0.14171551168, Q4 : 0.300525844097}
2019-04-14 03:40:57.71: SIM {TimeUS : 60534943, Roll : -0.25, Pitch : -17.06, Yaw : 35.42, Alt : 49.2900009155, Lat : 49.2836893, Lng : -123.1148943, Q1 : 0.942141532898, Q2 : 0.0430485457182, Q3 : -0.142021298409, Q4 : 0.300576269627}
2019-04-14 03:40:57.81: SIM {TimeUS : 60634903, Roll : -0.19, Pitch : -17.1, Yaw : 35.39, Alt : 49.2999992371, Lat : 49.2836924, Lng : -123.1148909, Q1 : 0.942159116268, Q2 : 0.0435815751553, Q3 : -0.142224416137, Q4 : 0.300348311663}
2019-04-14 03:40:57.91: SIM {TimeUS : 60734863, Roll : -0.1, Pitch : -17.14, Yaw : 35.32, Alt : 49.2999992371, Lat : 49.2836955, Lng : -123.1148875, Q1 : 0.942252755165, Q2 : 0.044342700392, Q3 : -0.142320856452, Q4 : 0.299897044897}
2019-04-14 03:40:58.01: SIM {TimeUS : 60834823, Roll : -0.02, Pitch : -17.17, Yaw : 35.23, Alt : 49.2999992371, Lat : 49.2836987, Lng : -123.114884, Q1 : 0.942410051823, Q2 : 0.0450232289732, Q3 : -0.142383724451, Q4 : 0.299270868301}
2019-04-14 03:40:58.11: SIM {TimeUS : 60934783, Roll : 0.03, Pitch : -17.18, Yaw : 35.14, Alt : 49.2999992371, Lat : 49.2837018, Lng : -123.1148806, Q1 : 0.942617833614, Q2 : 0.0454439483583, Q3 : -0.142369762063, Q4 : 0.298558920622}
2019-04-14 03:40:58.21: SIM {TimeUS : 61034743, Roll : 0.08, Pitch : -17.19, Yaw : 35.04, Alt : 49.2999992371, Lat : 49.2837051, Lng : -123.1148771, Q1 : 0.942836046219, Q2 : 0.0456831604242, Q3 : -0.142376348376, Q4 : 0.297829121351}
2019-04-14 03:40:58.31: SIM {TimeUS : 61134703, Roll : 0.11, Pitch : -17.2, Yaw : 34.96, Alt : 49.2999992371, Lat : 49.2837083, Lng : -123.1148737, Q1 : 0.943032503128, Q2 : 0.0459247417748, Q3 : -0.142380535603, Q4 : 0.29716733098}
2019-04-14 03:40:58.41: SIM {TimeUS : 61234663, Roll : 0.15, Pitch : -17.22, Yaw : 34.89, Alt : 49.2999992371, Lat : 49.2837115, Lng : -123.1148702, Q1 : 0.943177342415, Q2 : 0.0461562760174, Q3 : -0.142489314079, Q4 : 0.296619296074}
2019-04-14 03:40:58.51: SIM {TimeUS : 61334623, Roll : 0.19, Pitch : -17.26, Yaw : 34.84, Alt : 49.2999992371, Lat : 49.2837148, Lng : -123.1148667, Q1 : 0.943242907524, Q2 : 0.0465361252427, Q3 : -0.142749413848, Q4 : 0.296226024628}
2019-04-14 03:40:58.61: SIM {TimeUS : 61434583, Roll : 0.22, Pitch : -17.33, Yaw : 34.8, Alt : 49.2999992371, Lat : 49.283718, Lng : -123.1148631, Q1 : 0.943238317966, Q2 : 0.0469159111381, Q3 : -0.143180698156, Q4 : 0.295972436666}
2019-04-14 03:40:58.71: SIM {TimeUS : 61534543, Roll : 0.22, Pitch : -17.36, Yaw : 34.79, Alt : 49.3100013733, Lat : 49.2837212, Lng : -123.1148596, Q1 : 0.943232655525, Q2 : 0.047012347728, Q3 : -0.143437325954, Q4 : 0.295850932598}
2019-04-14 03:40:58.81: SIM {TimeUS : 61634503, Roll : 0.21, Pitch : -17.36, Yaw : 34.79, Alt : 49.3100013733, Lat : 49.2837246, Lng : -123.1148561, Q1 : 0.943228781223, Q2 : 0.0468853525817, Q3 : -0.143517643213, Q4 : 0.29584440589}
2019-04-14 03:40:58.91: SIM {TimeUS : 61735296, Roll : 0.18, Pitch : -17.36, Yaw : 34.8, Alt : 49.3100013733, Lat : 49.2837278, Lng : -123.1148525, Q1 : 0.943203747272, Q2 : 0.0467153713107, Q3 : -0.143598437309, Q4 : 0.295911878347}
2019-04-14 03:40:59.01: SIM {TimeUS : 61835256, Roll : 0.15, Pitch : -17.38, Yaw : 34.82, Alt : 49.3100013733, Lat : 49.2837312, Lng : -123.1148489, Q1 : 0.94315123558, Q2 : 0.0464799888432, Q3 : -0.143837839365, Q4 : 0.296000152826}
2019-04-14 03:40:59.11: SIM {TimeUS : 61935216, Roll : 0.12, Pitch : -17.4, Yaw : 34.84, Alt : 49.3100013733, Lat : 49.2837344, Lng : -123.1148454, Q1 : 0.943090796471, Q2 : 0.0463540107012, Q3 : -0.144055739045, Q4 : 0.296106398106}
2019-04-14 03:40:59.21: SIM {TimeUS : 62035176, Roll : 0.1, Pitch : -17.43, Yaw : 34.85, Alt : 49.3100013733, Lat : 49.2837378, Lng : -123.1148418, Q1 : 0.943029880524, Q2 : 0.0462592467666, Q3 : -0.144352033734, Q4 : 0.296170949936}
2019-04-14 03:40:59.31: SIM {TimeUS : 62135136, Roll : 0.09, Pitch : -17.46, Yaw : 34.86, Alt : 49.3100013733, Lat : 49.2837411, Lng : -123.1148382, Q1 : 0.942991018295, Q2 : 0.0462198145688, Q3 : -0.144583418965, Q4 : 0.296188026667}
2019-04-14 03:40:59.41: SIM {TimeUS : 62235096, Roll : 0.09, Pitch : -17.48, Yaw : 34.86, Alt : 49.3100013733, Lat : 49.2837445, Lng : -123.1148346, Q1 : 0.942960083485, Q2 : 0.0462923385203, Q3 : -0.144775986671, Q4 : 0.296181052923}
2019-04-14 03:40:59.51: SIM {TimeUS : 62335056, Roll : 0.1, Pitch : -17.49, Yaw : 34.85, Alt : 49.3100013733, Lat : 49.2837478, Lng : -123.1148309, Q1 : 0.942957937717, Q2 : 0.0463858693838, Q3 : -0.144838169217, Q4 : 0.296142905951}
2019-04-14 03:40:59.61: SIM {TimeUS : 62435016, Roll : 0.12, Pitch : -17.5, Yaw : 34.84, Alt : 49.3100013733, Lat : 49.2837512, Lng : -123.1148272, Q1 : 0.94296848774, Q2 : 0.0465615987778, Q3 : -0.144880086184, Q4 : 0.296061098576}
2019-04-14 03:40:59.71: SIM {TimeUS : 62534976, Roll : 0.14, Pitch : -17.52, Yaw : 34.82, Alt : 49.3100013733, Lat : 49.2837545, Lng : -123.1148237, Q1 : 0.942979931831, Q2 : 0.0467997714877, Q3 : -0.144993826747, Q4 : 0.295931518078}
2019-04-14 03:40:59.81: SIM {TimeUS : 62634936, Roll : 0.15, Pitch : -17.56, Yaw : 34.79, Alt : 49.3100013733, Lat : 49.2837579, Lng : -123.1148201, Q1 : 0.942983150482, Q2 : 0.0469839386642, Q3 : -0.145323574543, Q4 : 0.295730233192}
2019-04-14 03:40:59.91: SIM {TimeUS : 62734896, Roll : 0.14, Pitch : -17.62, Yaw : 34.77, Alt : 49.3199996948, Lat : 49.2837612, Lng : -123.1148164, Q1 : 0.942992448807, Q2 : 0.0469799488783, Q3 : -0.145781517029, Q4 : 0.295475751162}
2019-04-14 03:41:00.01: SIM {TimeUS : 62834856, Roll : 0.13, Pitch : -17.66, Yaw : 34.74, Alt : 49.3199996948, Lat : 49.2837646, Lng : -123.1148126, Q1 : 0.943010091782, Q2 : 0.0469755940139, Q3 : -0.14618986845, Q4 : 0.295218229294}
2019-04-14 03:41:00.11: SIM {TimeUS : 62934816, Roll : 0.15, Pitch : -17.69, Yaw : 34.71, Alt : 49.3199996948, Lat : 49.2837679, Lng : -123.114809, Q1 : 0.943039059639, Q2 : 0.0471169538796, Q3 : -0.146389842033, Q4 : 0.295003980398}
2019-04-14 03:41:00.21: SIM {TimeUS : 63034776, Roll : 0.16, Pitch : -17.69, Yaw : 34.69, Alt : 49.3199996948, Lat : 49.2837714, Lng : -123.1148054, Q1 : 0.943094551563, Q2 : 0.0472174584866, Q3 : -0.146359890699, Q4 : 0.294825255871}
2019-04-14 03:41:00.31: SIM {TimeUS : 63134736, Roll : 0.18, Pitch : -17.67, Yaw : 34.67, Alt : 49.3199996948, Lat : 49.2837747, Lng : -123.1148017, Q1 : 0.943168520927, Q2 : 0.0472579821944, Q3 : -0.146181240678, Q4 : 0.294670820236}
2019-04-14 03:41:00.41: SIM {TimeUS : 63234696, Roll : 0.17, Pitch : -17.66, Yaw : 34.65, Alt : 49.3199996948, Lat : 49.2837782, Lng : -123.114798, Q1 : 0.943232119083, Q2 : 0.0471949540079, Q3 : -0.146086186171, Q4 : 0.294524490833}
2019-04-14 03:41:00.51: SIM {TimeUS : 63334656, Roll : 0.18, Pitch : -17.65, Yaw : 34.63, Alt : 49.3199996948, Lat : 49.2837817, Lng : -123.1147943, Q1 : 0.943283736706, Q2 : 0.0471613183618, Q3 : -0.146024703979, Q4 : 0.29439496994}
2019-04-14 03:41:00.61: SIM {TimeUS : 63434616, Roll : 0.18, Pitch : -17.64, Yaw : 34.62, Alt : 49.3199996948, Lat : 49.283785, Lng : -123.1147906, Q1 : 0.943330764771, Q2 : 0.0471280440688, Q3 : -0.145952135324, Q4 : 0.294285714626}
2019-04-14 03:41:00.71: SIM {TimeUS : 63534576, Roll : 0.17, Pitch : -17.66, Yaw : 34.61, Alt : 49.3199996948, Lat : 49.2837885, Lng : -123.1147869, Q1 : 0.94333845377, Q2 : 0.047137118876, Q3 : -0.146101742983, Q4 : 0.294185250998}
2019-04-14 03:41:00.81: SIM {TimeUS : 63634536, Roll : 0.17, Pitch : -17.69, Yaw : 34.6, Alt : 49.3199996948, Lat : 49.2837919, Lng : -123.1147832, Q1 : 0.943323910236, Q2 : 0.0471790023148, Q3 : -0.146362230182, Q4 : 0.294095665216}
2019-04-14 03:41:00.91: SIM {TimeUS : 63734496, Roll : 0.15, Pitch : -17.74, Yaw : 34.59, Alt : 49.3199996948, Lat : 49.2837953, Lng : -123.1147795, Q1 : 0.943284809589, Q2 : 0.0471425950527, Q3 : -0.146826773882, Q4 : 0.293995350599}
2019-04-14 03:41:01.01: SIM {TimeUS : 63835289, Roll : 0.14, Pitch : -17.79, Yaw : 34.59, Alt : 49.3199996948, Lat : 49.2837989, Lng : -123.1147757, Q1 : 0.943232536316, Q2 : 0.0471962057054, Q3 : -0.147324308753, Q4 : 0.293905675411}
2019-04-14 03:41:01.11: SIM {TimeUS : 63935249, Roll : 0.14, Pitch : -17.82, Yaw : 34.58, Alt : 49.3199996948, Lat : 49.2838023, Lng : -123.1147719, Q1 : 0.943208992481, Q2 : 0.0472894310951, Q3 : -0.147572696209, Q4 : 0.293841481209}
2019-04-14 03:41:01.21: SIM {TimeUS : 64035209, Roll : 0.14, Pitch : -17.85, Yaw : 34.57, Alt : 49.3199996948, Lat : 49.2838057, Lng : -123.1147682, Q1 : 0.94319498539, Q2 : 0.0473359264433, Q3 : -0.147795468569, Q4 : 0.293767035007}
2019-04-14 03:41:01.31: SIM {TimeUS : 64135169, Roll : 0.14, Pitch : -17.86, Yaw : 34.56, Alt : 49.3300018311, Lat : 49.2838092, Lng : -123.1147645, Q1 : 0.943198680878, Q2 : 0.0473406463861, Q3 : -0.147927254438, Q4 : 0.293688088655}
2019-04-14 03:41:01.41: SIM {TimeUS : 64235129, Roll : 0.16, Pitch : -17.85, Yaw : 34.55, Alt : 49.3300018311, Lat : 49.2838127, Lng : -123.1147607, Q1 : 0.943229913712, Q2 : 0.0474248081446, Q3 : -0.147811770439, Q4 : 0.293632268906}
2019-04-14 03:41:01.51: SIM {TimeUS : 64335089, Roll : 0.18, Pitch : -17.86, Yaw : 34.54, Alt : 49.3300018311, Lat : 49.2838161, Lng : -123.114757, Q1 : 0.943242073059, Q2 : 0.0476165488362, Q3 : -0.147804051638, Q4 : 0.293565928936}
2019-04-14 03:41:01.61: SIM {TimeUS : 64435049, Roll : 0.19, Pitch : -17.88, Yaw : 34.53, Alt : 49.3300018311, Lat : 49.2838196, Lng : -123.1147532, Q1 : 0.943245410919, Q2 : 0.0477619096637, Q3 : -0.147913470864, Q4 : 0.293476700783}
2019-04-14 03:41:01.71: SIM {TimeUS : 64535009, Roll : 0.2, Pitch : -17.89, Yaw : 34.52, Alt : 49.3300018311, Lat : 49.2838232, Lng : -123.1147494, Q1 : 0.943255603313, Q2 : 0.0478622093797, Q3 : -0.147999972105, Q4 : 0.293383777142}
2019-04-14 03:41:01.81: SIM {TimeUS : 64634969, Roll : 0.21, Pitch : -17.89, Yaw : 34.5, Alt : 49.3300018311, Lat : 49.2838266, Lng : -123.1147457, Q1 : 0.943293690681, Q2 : 0.0478803776205, Q3 : -0.147945791483, Q4 : 0.293285816908}
2019-04-14 03:41:01.91: SIM {TimeUS : 64734929, Roll : 0.2, Pitch : -17.89, Yaw : 34.49, Alt : 49.3300018311, Lat : 49.28383, Lng : -123.1147419, Q1 : 0.94333165884, Q2 : 0.0478130690753, Q3 : -0.147966891527, Q4 : 0.293164014816}
2019-04-14 03:41:02.01: SIM {TimeUS : 64834889, Roll : 0.18, Pitch : -17.91, Yaw : 34.48, Alt : 49.3300018311, Lat : 49.2838336, Lng : -123.1147381, Q1 : 0.943352878094, Q2 : 0.0476443842053, Q3 : -0.148204252124, Q4 : 0.293003231287}
2019-04-14 03:41:02.11: SIM {TimeUS : 64934849, Roll : 0.15, Pitch : -17.94, Yaw : 34.46, Alt : 49.3300018311, Lat : 49.2838371, Lng : -123.1147343, Q1 : 0.943354606628, Q2 : 0.0474625267088, Q3 : -0.148605555296, Q4 : 0.292823761702}
2019-04-14 03:41:02.21: SIM {TimeUS : 65034809, Roll : 0.14, Pitch : -17.95, Yaw : 34.45, Alt : 49.3300018311, Lat : 49.2838407, Lng : -123.1147306, Q1 : 0.943388700485, Q2 : 0.0473670810461, Q3 : -0.14870223403, Q4 : 0.292680472136}
2019-04-14 03:41:02.31: SIM {TimeUS : 65134769, Roll : 0.15, Pitch : -17.94, Yaw : 34.43, Alt : 49.3300018311, Lat : 49.2838442, Lng : -123.1147268, Q1 : 0.943433761597, Q2 : 0.0474146828055, Q3 : -0.148604243994, Q4 : 0.292577207088}
2019-04-14 03:41:02.41: SIM {TimeUS : 65234729, Roll : 0.17, Pitch : -17.93, Yaw : 34.42, Alt : 49.3300018311, Lat : 49.2838476, Lng : -123.114723, Q1 : 0.943473935127, Q2 : 0.047571785748, Q3 : -0.148466914892, Q4 : 0.292491883039}
2019-04-14 03:41:02.51: SIM {TimeUS : 65334689, Roll : 0.18, Pitch : -17.94, Yaw : 34.4, Alt : 49.3300018311, Lat : 49.2838512, Lng : -123.1147192, Q1 : 0.943491876125, Q2 : 0.0476886704564, Q3 : -0.148527637124, Q4 : 0.292384147644}
2019-04-14 03:41:02.61: SIM {TimeUS : 65434649, Roll : 0.17, Pitch : -17.96, Yaw : 34.39, Alt : 49.3300018311, Lat : 49.2838547, Lng : -123.1147154, Q1 : 0.943502187729, Q2 : 0.0476413629949, Q3 : -0.148724973202, Q4 : 0.292258292437}
2019-04-14 03:41:02.71: SIM {TimeUS : 65534609, Roll : 0.15, Pitch : -17.98, Yaw : 34.38, Alt : 49.3400001526, Lat : 49.2838583, Lng : -123.1147116, Q1 : 0.943513870239, Q2 : 0.0474923476577, Q3 : -0.148963615298, Q4 : 0.292123109102}
2019-04-14 03:41:02.81: SIM {TimeUS : 65634569, Roll : 0.14, Pitch : -18.01, Yaw : 34.37, Alt : 49.3400001526, Lat : 49.2838617, Lng : -123.1147078, Q1 : 0.943520545959, Q2 : 0.0474284626544, Q3 : -0.149176597595, Q4 : 0.292003273964}
2019-04-14 03:41:02.91: SIM {TimeUS : 65734529, Roll : 0.14, Pitch : -18.03, Yaw : 34.35, Alt : 49.3400001526, Lat : 49.2838652, Lng : -123.1147039, Q1 : 0.943521261215, Q2 : 0.0474991984665, Q3 : -0.149345740676, Q4 : 0.291902989149}
2019-04-14 03:41:03.01: SIM {TimeUS : 65835322, Roll : 0.15, Pitch : -18.05, Yaw : 34.34, Alt : 49.3400001526, Lat : 49.2838688, Lng : -123.1147001, Q1 : 0.943520963192, Q2 : 0.0476236045361, Q3 : -0.149472177029, Q4 : 0.291818916798}
2019-04-14 03:41:03.11: SIM {TimeUS : 65935282, Roll : 0.18, Pitch : -18.06, Yaw : 34.33, Alt : 49.3400001526, Lat : 49.2838725, Lng : -123.1146963, Q1 : 0.943518161774, Q2 : 0.0478463098407, Q3 : -0.149501591921, Q4 : 0.291776448488}
2019-04-14 03:41:03.21: SIM {TimeUS : 66035242, Roll : 0.19, Pitch : -18.07, Yaw : 34.33, Alt : 49.3400001526, Lat : 49.283876, Lng : -123.1146925, Q1 : 0.943511962891, Q2 : 0.0479833930731, Q3 : -0.149582803249, Q4 : 0.291732370853}
2019-04-14 03:41:03.31: SIM {TimeUS : 66135202, Roll : 0.2, Pitch : -18.09, Yaw : 34.32, Alt : 49.3400001526, Lat : 49.2838796, Lng : -123.1146886, Q1 : 0.943501055241, Q2 : 0.0481134876609, Q3 : -0.149692058563, Q4 : 0.291690140963}
2019-04-14 03:41:03.41: SIM {TimeUS : 66235162, Roll : 0.22, Pitch : -18.1, Yaw : 34.31, Alt : 49.3400001526, Lat : 49.2838831, Lng : -123.1146848, Q1 : 0.943488299847, Q2 : 0.0482848808169, Q3 : -0.149778410792, Q4 : 0.291658639908}
2019-04-14 03:41:03.51: SIM {TimeUS : 66335122, Roll : 0.25, Pitch : -18.11, Yaw : 34.31, Alt : 49.3400001526, Lat : 49.2838866, Lng : -123.114681, Q1 : 0.943478107452, Q2 : 0.0485365837812, Q3 : -0.149780496955, Q4 : 0.291648924351}
2019-04-14 03:41:03.61: SIM {TimeUS : 66435082, Roll : 0.28, Pitch : -18.12, Yaw : 34.3, Alt : 49.3400001526, Lat : 49.2838901, Lng : -123.1146772, Q1 : 0.943461060524, Q2 : 0.048817768693, Q3 : -0.149798840284, Q4 : 0.291647791862}
2019-04-14 03:41:03.71: SIM {TimeUS : 66535042, Roll : 0.27, Pitch : -18.12, Yaw : 34.3, Alt : 49.3400001526, Lat : 49.2838938, Lng : -123.1146733, Q1 : 0.94348180294, Q2 : 0.0487445108593, Q3 : -0.149756029248, Q4 : 0.291614860296}
2019-04-14 03:41:03.81: SIM {TimeUS : 66635002, Roll : 0.24, Pitch : -18.12, Yaw : 34.3, Alt : 49.3400001526, Lat : 49.2838974, Lng : -123.1146695, Q1 : 0.943493247032, Q2 : 0.0484984517097, Q3 : -0.149881079793, Q4 : 0.291554450989}
2019-04-14 03:41:03.91: SIM {TimeUS : 66734962, Roll : 0.21, Pitch : -18.14, Yaw : 34.3, Alt : 49.3499984741, Lat : 49.2839009, Lng : -123.1146657, Q1 : 0.943481385708, Q2 : 0.0482943728566, Q3 : -0.15015129745, Q4 : 0.291487812996}
