2019-04-14 04:29:56.90: SIM {TimeUS : 40716207, Roll : 0.0, Pitch : 0.0, Yaw : 0.0, Alt : 30.1000003815, Lat : 49.28357, Lng : -123.11502, Q1 : 1.0, Q2 : 0.0, Q3 : 0.0, Q4 : 0.0}
2019-04-14 04:29:57.01: SIM {TimeUS : 40835326, Roll : 0.0, Pitch : 0.0, Yaw : 0.0, Alt : 30.1000003815, Lat : 49.28357, Lng : -123.11502, Q1 : 1.0, Q2 : 0.0, Q3 : 0.0, Q4 : 0.0}
2019-04-14 04:29:57.11: SIM {TimeUS : 40935286, Roll : 0.0, Pitch : 0.0, Yaw : 0.0, Alt : 30.1000003815, Lat : 49.28357, Lng : -123.11502, Q1 : 1.0, Q2 : 0.0, Q3 : 0.0, Q4 : 0.0}
2019-04-14 04:29:57.21: SIM {TimeUS : 41035246, Roll : 0.0, Pitch : 0.0, Yaw : 0.0, Alt : 30.1000003815, Lat : 49.28357, Lng : -123.11502, Q1 : 1.0, Q2 : 0.0, Q3 : 0.0, Q4 : 0.0}
2019-04-14 04:29:57.31: SIM {TimeUS : 41135206, Roll : 0.0, Pitch : 0.0, Yaw : 0.0, Alt : 30.1000003815, Lat : 49.28357, Lng : -123.11502, Q1 : 1.0, Q2 : 0.0, Q3 : 0.0, Q4 : 0.0}
2019-04-14 04:29:57.41: SIM {TimeUS : 41235166, Roll : 0.0, Pitch : 0.0, Yaw : 0.0, Alt : 30.1000003815, Lat : 49.28357, Lng : -123.11502, Q1 : 1.0, Q2 : 0.0, Q3 : 0.0, Q4 : 0.0}
2019-04-14 04:29:57.51: SIM {TimeUS : 41335126, Roll : 0.0, Pitch : 0.0, Yaw : 0.0, Alt : 30.1000003815, Lat : 49.28357, Lng : -123.11502, Q1 : 1.0, Q2 : 0.0, Q3 : 0.0, Q4 : 0.0}
2019-04-14 04:29:57.61: SIM {TimeUS : 41435086, Roll : 0.0, Pitch : 0.0, Yaw : 0.0, Alt : 30.1000003815, Lat : 49.28357, Lng : -123.11502, Q1 : 1.0, Q2 : 0.0, Q3 : 0.0, Q4 : 0.0}
2019-04-14 04:29:57.71: SIM {TimeUS : 41535046, Roll : 0.0, Pitch : 0.0, Yaw : 0.0, Alt : 30.1000003815, Lat : 49.28357, Lng : -123.11502, Q1 : 1.0, Q2 : 0.0, Q3 : 0.0, Q4 : 0.0}
2019-04-14 04:29:57.81: SIM {TimeUS : 41635006, Roll : 0.0, Pitch : 0.0, Yaw : 0.0, Alt : 30.1000003815, Lat : 49.28357, Lng : -123.11502, Q1 : 1.0, Q2 : 0.0, Q3 : 0.0, Q4 : 0.0}
2019-04-14 04:29:57.91: SIM {TimeUS : 41734966, Roll : 0.0, Pitch : 0.0, Yaw : 0.0, Alt : 30.1000003815, Lat : 49.28357, Lng : -123.11502, Q1 : 1.0, Q2 : 0.0, Q3 : 0.0, Q4 : 0.0}
2019-04-14 04:29:58.01: SIM {TimeUS : 41834926, Roll : 0.0, Pitch : 0.0, Yaw : 0.0, Alt : 30.1000003815, Lat : 49.28357, Lng : -123.11502, Q1 : 1.0, Q2 : 0.0, Q3 : 0.0, Q4 : 0.0}
2019-04-14 04:29:58.11: SIM {TimeUS : 41934886, Roll : 0.0, Pitch : 0.0, Yaw : 0.0, Alt : 30.1000003815, Lat : 49.28357, Lng : -123.11502, Q1 : 1.0, Q2 : 0.0, Q3 : 0.0, Q4 : 0.0}
2019-04-14 04:29:58.21: SIM {TimeUS : 42034846, Roll : 0.0, Pitch : 0.0, Yaw : 0.0, Alt : 30.1000003815, Lat : 49.28357, Lng : -123.11502, Q1 : 1.0, Q2 : 0.0, Q3 : 0.0, Q4 : 0.0}
2019-04-14 04:29:58.31: SIM {TimeUS : 42134806, Roll : 0.0, Pitch : 0.0, Yaw : 0.0, Alt : 30.1000003815, Lat : 49.28357, Lng : -123.11502, Q1 : 1.0, Q2 : 0.0, Q3 : 0.0, Q4 : 0.0}
2019-04-14 04:29:58.41: SIM {TimeUS : 42234766, Roll : 0.0, Pitch : 0.0, Yaw : 0.0, Alt : 30.1000003815, Lat : 49.28357, Lng : -123.11502, Q1 : 1.0, Q2 : 0.0, Q3 : 0.0, Q4 : 0.0}
2019-04-14 04:29:58.51: SIM {TimeUS : 42334726, Roll : 0.0, Pitch : 0.0, Yaw : 0.0, Alt : 30.1000003815, Lat : 49.28357, Lng : -123.11502, Q1 : 1.0, Q2 : 0.0, Q3 : 0.0, Q4 : 0.0}
2019-04-14 04:29:58.61: SIM {TimeUS : 42434686, Roll : 0.0, Pitch : 0.0, Yaw : 0.0, Alt : 30.1000003815, Lat : 49.28357, Lng : -123.11502, Q1 : 1.0, Q2 : 0.0, Q3 : 0.0, Q4 : 0.0}
2019-04-14 04:29:58.71: SIM {TimeUS : 42534646, Roll : 0.0, Pitch : 0.0, Yaw : 0.0, Alt : 30.1000003815, Lat : 49.28357, Lng : -123.11502, Q1 : 1.0, Q2 : 0.0, Q3 : 0.0, Q4 : 0.0}
2019-04-14 04:29:58.81: SIM {TimeUS : 42634606, Roll : 0.0, Pitch : 0.0, Yaw : 0.0, Alt : 30.1000003815, Lat : 49.28357, Lng : -123.11502, Q1 : 1.0, Q2 : 0.0, Q3 : 0.0, Q4 : 0.0}
2019-04-14 04:29:58.91: SIM {TimeUS : 42734566, Roll : 0.0, Pitch : 0.0, Yaw : 0.0, Alt : 30.1000003815, Lat : 49.28357, Lng : -123.11502, Q1 : 1.0, Q2 : 0.0, Q3 : 0.0, Q4 : 0.0}
2019-04-14 04:29:59.02: SIM {TimeUS : 42835359, Roll : 0.0, Pitch : 0.0, Yaw : 0.0, Alt : 30.1000003815, Lat : 49.28357, Lng : -123.11502, Q1 : 1.0, Q2 : 0.0, Q3 : 0.0, Q4 : 0.0}
2019-04-14 04:29:59.11: SIM {TimeUS : 42935319, Roll : 0.0, Pitch : 0.0, Yaw : 0.0, Alt : 30.1000003815, Lat : 49.28357, Lng : -123.11502, Q1 : 1.0, Q2 : 0.0, Q3 : 0.0, Q4 : 0.0}
2019-04-14 04:29:59.21: SIM {TimeUS : 43035279, Roll : 0.0, Pitch : 0.0, Yaw : 360.0, Alt : 30.1000003815, Lat : 49.28357, Lng : -123.11502, Q1 : 1.0, Q2 : 0.0, Q3 : 0.0, Q4 : -1.2311567564e-11}
2019-04-14 04:29:59.31: SIM {TimeUS : 43135239, Roll : 0.0, Pitch : 0.0, Yaw : 0.0, Alt : 30.1000003815, Lat : 49.28357, Lng : -123.11502, Q1 : 1.0, Q2 : 0.0, Q3 : 0.0, Q4 : 5.47755590885e-12}
2019-04-14 04:29:59.41: SIM {TimeUS : 43235199, Roll : 0.0, Pitch : 0.0, Yaw : 360.0, Alt : 30.1000003815, Lat : 49.28357, Lng : -123.11502, Q1 : 1.0, Q2 : 0.0, Q3 : 0.0, Q4 : -1.20905085055e-07}
2019-04-14 04:29:59.51: SIM {TimeUS : 43335159, Roll : 0.0, Pitch : 0.0, Yaw : 359.99, Alt : 30.1000003815, Lat : 49.28357, Lng : -123.11502, Q1 : 1.0, Q2 : 0.0, Q3 : 0.0, Q4 : -2.4927777531e-07}
2019-04-14 04:29:59.61: SIM {TimeUS : 43435119, Roll : 0.0, Pitch : 0.0, Yaw : 359.99, Alt : 30.1000003815, Lat : 49.28357, Lng : -123.11502, Q1 : 1.0, Q2 : 0.0, Q3 : 0.0, Q4 : -4.47744213261e-07}
2019-04-14 04:29:59.71: SIM {TimeUS : 43535079, Roll : 0.0, Pitch : 0.0, Yaw : 359.99, Alt : 30.1000003815, Lat : 49.28357, Lng : -123.11502, Q1 : 1.0, Q2 : 0.0, Q3 : 0.0, Q4 : -6.60601358504e-07}
2019-04-14 04:29:59.81: SIM {TimeUS : 43635039, Roll : 0.0, Pitch : 0.0, Yaw : 359.99, Alt : 30.1000003815, Lat : 49.28357, Lng : -123.11502, Q1 : 1.0, Q2 : 0.0, Q3 : 0.0, Q4 : -8.62700744619e-07}
2019-04-14 04:29:59.91: SIM {TimeUS : 43734999, Roll : 0.0, Pitch : 0.0, Yaw : 359.99, Alt : 30.1000003815, Lat : 49.28357, Lng : -123.11502, Q1 : 1.0, Q2 : 0.0, Q3 : 0.0, Q4 : -1.01069542779e-06}
2019-04-14 04:30:00.01: SIM {TimeUS : 43834959, Roll : 0.0, Pitch : 0.0, Yaw : 359.99, Alt : 30.1000003815, Lat : 49.28357, Lng : -123.11502, Q1 : 1.0, Q2 : 0.0, Q3 : 0.0, Q4 : -1.21102755202e-06}
2019-04-14 04:30:00.11: SIM {TimeUS : 43934919, Roll : 0.0, Pitch : 0.0, Yaw : 359.99, Alt : 30.1100006104, Lat : 49.28357, Lng : -123.11502, Q1 : 1.0, Q2 : 0.0, Q3 : 0.0, Q4 : -1.41952580179e-06}
2019-04-14 04:30:00.21: SIM {TimeUS : 44034879, Roll : 0.0, Pitch : 0.0, Yaw : 359.99, Alt : 30.1399993896, Lat : 49.28357, Lng : -123.11502, Q1 : 1.0, Q2 : 0.0, Q3 : 0.0, Q4 : -1.6195660919e-06}
2019-04-14 04:30:00.31: SIM {TimeUS : 44134839, Roll : 0.0, Pitch : 0.0, Yaw : 359.99, Alt : 30.1700000763, Lat : 49.28357, Lng : -123.11502, Q1 : 1.0, Q2 : 0.0, Q3 : 0.0, Q4 : -1.87403463769e-06}
2019-04-14 04:30:00.41: SIM {TimeUS : 44234799, Roll : 0.0, Pitch : 0.0, Yaw : 359.99, Alt : 30.2000007629, Lat : 49.28357, Lng : -123.11502, Q1 : 1.0, Q2 : 0.0, Q3 : 0.0, Q4 : -2.10903613151e-06}
2019-04-14 04:30:00.51: SIM {TimeUS : 44334759, Roll : -0.09, Pitch : -0.08, Yaw : 359.99, Alt : 30.25, Lat : 49.28357, Lng : -123.11502, Q1 : 0.999999403954, Q2 : -0.000806122086942, Q3 : -0.000764776254073, Q4 : -7.58801343181e-06}
2019-04-14 04:30:00.61: SIM {TimeUS : 44434719, Roll : -0.35, Pitch : -0.35, Yaw : 359.99, Alt : 30.3400001526, Lat : 49.28357, Lng : -123.11502, Q1 : 0.999990344048, Q2 : -0.00311320903711, Q3 : -0.00310628232546, Q4 : -3.48560752172e-05}
2019-04-14 04:30:00.71: SIM {TimeUS : 44534679, Roll : -0.62, Pitch : -0.61, Yaw : 359.99, Alt : 30.4899997711, Lat : 49.28357, Lng : -123.11502, Q1 : 0.999970853329, Q2 : -0.00545048294589, Q3 : -0.00534742092714, Q4 : -8.86107663973e-05}
2019-04-14 04:30:00.81: SIM {TimeUS : 44634639, Roll : -0.79, Pitch : -0.74, Yaw : 359.98, Alt : 30.6499996185, Lat : 49.28357, Lng : -123.11502, Q1 : 0.999954581261, Q2 : -0.00695509184152, Q3 : -0.00651871738955, Q4 : -0.000160790601512}
2019-04-14 04:30:00.91: SIM {TimeUS : 44734599, Roll : -0.81, Pitch : -0.74, Yaw : 359.97, Alt : 30.7999992371, Lat : 49.28357, Lng : -123.11502, Q1 : 0.999953329563, Q2 : -0.00711611332372, Q3 : -0.00652956962585, Q4 : -0.000248247873969}
2019-04-14 04:30:01.01: SIM {TimeUS : 44834559, Roll : -0.69, Pitch : -0.63, Yaw : 359.96, Alt : 30.9599990845, Lat : 49.28357, Lng : -123.1150201, Q1 : 0.99996638298, Q2 : -0.00606508832425, Q3 : -0.00550941005349, Q4 : -0.000335398828611}
2019-04-14 04:30:01.12: SIM {TimeUS : 44935352, Roll : -0.48, Pitch : -0.44, Yaw : 359.95, Alt : 31.1100006104, Lat : 49.2835701, Lng : -123.1150202, Q1 : 0.999983549118, Q2 : -0.00424309587106, Q3 : -0.00383895379491, Q4 : -0.000413172179833}
2019-04-14 04:30:01.21: SIM {TimeUS : 45035312, Roll : -0.25, Pitch : -0.24, Yaw : 359.94, Alt : 31.2700004578, Lat : 49.2835701, Lng : -123.1150202, Q1 : 0.999995231628, Q2 : -0.00218496401794, Q3 : -0.00211454113014, Q4 : -0.000472731044283}
2019-04-14 04:30:01.31: SIM {TimeUS : 45135272, Roll : -0.04, Pitch : -0.08, Yaw : 359.94, Alt : 31.4400005341, Lat : 49.2835702, Lng : -123.1150203, Q1 : 0.999999523163, Q2 : -0.000417555012973, Q3 : -0.000705585931428, Q4 : -0.000515062129125}
2019-04-14 04:30:01.41: SIM {TimeUS : 45235232, Roll : 0.07, Pitch : 0.03, Yaw : 359.93, Alt : 31.6100006104, Lat : 49.2835702, Lng : -123.1150204, Q1 : 0.999999582767, Q2 : 0.000656197720673, Q3 : 0.000286112684989, Q4 : -0.000538791180588}
2019-04-14 04:30:01.51: SIM {TimeUS : 45335192, Roll : 0.1, Pitch : 0.09, Yaw : 359.93, Alt : 31.7900009155, Lat : 49.2835703, Lng : -123.1150205, Q1 : 0.999999046326, Q2 : 0.00094295135932, Q3 : 0.000852378085256, Q4 : -0.000537156185601}
2019-04-14 04:30:01.61: SIM {TimeUS : 45435152, Roll : 0.08, Pitch : 0.11, Yaw : 359.93, Alt : 31.9699993134, Lat : 49.2835703, Lng : -123.1150205, Q1 : 0.999999046326, Q2 : 0.000737923604902, Q3 : 0.00102881388739, Q4 : -0.000526779738721}
2019-04-14 04:30:01.71: SIM {TimeUS : 45535112, Roll : 0.07, Pitch : 0.11, Yaw : 359.94, Alt : 32.1599998474, Lat : 49.2835703, Lng : -123.1150206, Q1 : 0.99999910593, Q2 : 0.000615897821262, Q3 : 0.00104339350946, Q4 : -0.000506071955897}
2019-04-14 04:30:01.81: SIM {TimeUS : 45635072, Roll : 0.07, Pitch : 0.11, Yaw : 359.94, Alt : 32.3499984741, Lat : 49.2835703, Lng : -123.1150206, Q1 : 0.999999165535, Q2 : 0.000636225042399, Q3 : 0.0010130769806, Q4 : -0.000487893237732}
2019-04-14 04:30:01.91: SIM {TimeUS : 45735032, Roll : 0.08, Pitch : 0.11, Yaw : 359.94, Alt : 32.5400009155, Lat : 49.2835703, Lng : -123.1150207, Q1 : 0.99999910593, Q2 : 0.000742723641451, Q3 : 0.00102955673356, Q4 : -0.000474753469462}
2019-04-14 04:30:02.01: SIM {TimeUS : 45834992, Roll : 0.1, Pitch : 0.13, Yaw : 359.94, Alt : 32.7299995422, Lat : 49.2835703, Lng : -123.1150207, Q1 : 0.999998807907, Q2 : 0.000877067504916, Q3 : 0.00117504538503, Q4 : -0.000468025595183}
2019-04-14 04:30:02.11: SIM {TimeUS : 45934952, Roll : 0.12, Pitch : 0.14, Yaw : 359.94, Alt : 32.9300003052, Lat : 49.2835704, Lng : -123.1150207, Q1 : 0.999998569489, Q2 : 0.00105665496085, Q3 : 0.00122402142733, Q4 : -0.000460067589302}
2019-04-14 04:30:02.21: SIM {TimeUS : 46034912, Roll : 0.13, Pitch : 0.13, Yaw : 359.94, Alt : 33.1300010681, Lat : 49.2835704, Lng : -123.1150208, Q1 : 0.999998450279, Q2 : 0.00120160810184, Q3 : 0.00117141136434, Q4 : -0.000456584151834}
2019-04-14 04:30:02.31: SIM {TimeUS : 46134872, Roll : 0.15, Pitch : 0.12, Yaw : 359.94, Alt : 33.3400001526, Lat : 49.2835704, Lng : -123.1150208, Q1 : 0.999998390675, Q2 : 0.00131455808878, Q3 : 0.0011166514596, Q4 : -0.000456325040432}
2019-04-14 04:30:02.41: SIM {TimeUS : 46234832, Roll : 0.15, Pitch : 0.12, Yaw : 359.94, Alt : 33.5400009155, Lat : 49.2835704, Lng : -123.1150208, Q1 : 0.99999833107, Q2 : 0.00136171816848, Q3 : 0.00113308464643, Q4 : -0.000455906207208}
2019-04-14 04:30:02.51: SIM {TimeUS : 46334792, Roll : 0.16, Pitch : 0.13, Yaw : 359.94, Alt : 33.75, Lat : 49.2835704, Lng : -123.1150208, Q1 : 0.999998152256, Q2 : 0.00143012381159, Q3 : 0.00121373636648, Q4 : -0.000456687033875}
2019-04-14 04:30:02.61: SIM {TimeUS : 46434752, Roll : 0.16, Pitch : 0.13, Yaw : 359.94, Alt : 33.9599990845, Lat : 49.2835704, Lng : -123.1150208, Q1 : 0.999998152256, Q2 : 0.00142155506182, Q3 : 0.00117720232811, Q4 : -0.000455487141153}
2019-04-14 04:30:02.71: SIM {TimeUS : 46534712, Roll : 0.14, Pitch : 0.12, Yaw : 359.94, Alt : 34.1699981689, Lat : 49.2835704, Lng : -123.1150208, Q1 : 0.999998450279, Q2 : 0.00128851342015, Q3 : 0.00108539126813, Q4 : -0.000455952074844}
2019-04-14 04:30:02.81: SIM {TimeUS : 46634672, Roll : 0.12, Pitch : 0.11, Yaw : 359.94, Alt : 34.3800010681, Lat : 49.2835704, Lng : -123.1150208, Q1 : 0.999998748302, Q2 : 0.00111250160262, Q3 : 0.00101134227589, Q4 : -0.000462533876998}
2019-04-14 04:30:02.91: SIM {TimeUS : 46734632, Roll : 0.1, Pitch : 0.1, Yaw : 359.94, Alt : 34.5900001526, Lat : 49.2835704, Lng : -123.1150208, Q1 : 0.999999046326, Q2 : 0.000893573043868, Q3 : 0.000925146043301, Q4 : -0.000480921153212}
2019-04-14 04:30:03.01: SIM {TimeUS : 46834592, Roll : 0.08, Pitch : 0.07, Yaw : 359.94, Alt : 34.8100013733, Lat : 49.2835704, Lng : -123.1150208, Q1 : 0.999999403954, Q2 : 0.000744875636883, Q3 : 0.000618738122284, Q4 : -0.000512626895215}
2019-04-14 04:30:03.11: SIM {TimeUS : 46934552, Roll : 0.06, Pitch : 0.03, Yaw : 359.93, Alt : 35.0200004578, Lat : 49.2835704, Lng : -123.1150208, Q1 : 0.999999582767, Q2 : 0.000602440908551, Q3 : 0.000336969969794, Q4 : -0.000551358330995}
2019-04-14 04:30:03.22: SIM {TimeUS : 47035345, Roll : 0.04, Pitch : 0.01, Yaw : 359.93, Alt : 35.2400016785, Lat : 49.2835704, Lng : -123.1150207, Q1 : 0.999999761581, Q2 : 0.000392373971408, Q3 : 0.000171315434272, Q4 : -0.000596767058596}
2019-04-14 04:30:03.31: SIM {TimeUS : 47135305, Roll : 0.03, Pitch : 0.01, Yaw : 359.92, Alt : 35.4599990845, Lat : 49.2835704, Lng : -123.1150207, Q1 : 0.999999761581, Q2 : 0.000295426987577, Q3 : 0.000125801860122, Q4 : -0.000638835539576}
2019-04-14 04:30:03.41: SIM {TimeUS : 47235265, Roll : 0.03, Pitch : 0.01, Yaw : 359.92, Alt : 35.6800003052, Lat : 49.2835704, Lng : -123.1150207, Q1 : 0.999999761581, Q2 : 0.00031293099164, Q3 : 0.000117616167699, Q4 : -0.000678493583109}
2019-04-14 04:30:03.51: SIM {TimeUS : 47335225, Roll : 0.01, Pitch : -0.01, Yaw : 359.91, Alt : 35.9000015259, Lat : 49.2835704, Lng : -123.1150207, Q1 : 0.999999761581, Q2 : 0.000138824005262, Q3 : -9.72767666099e-05, Q4 : -0.000713192683179}
2019-04-14 04:30:03.61: SIM {TimeUS : 47435185, Roll : -0.02, Pitch : -0.04, Yaw : 359.91, Alt : 36.1199989319, Lat : 49.2835704, Lng : -123.1150207, Q1 : 0.999999642372, Q2 : -0.000187144687516, Q3 : -0.000426344486186, Q4 : -0.000744146702345}
2019-04-14 04:30:03.71: SIM {TimeUS : 47535145, Roll : -0.06, Pitch : -0.06, Yaw : 359.91, Alt : 36.3400001526, Lat : 49.2835704, Lng : -123.1150207, Q1 : 0.999999344349, Q2 : -0.000542771362234, Q3 : -0.000608357775491, Q4 : -0.000773636682425}
2019-04-14 04:30:03.81: SIM {TimeUS : 47635105, Roll : -0.09, Pitch : -0.08, Yaw : 359.9, Alt : 36.5600013733, Lat : 49.2835704, Lng : -123.1150207, Q1 : 0.999999046326, Q2 : -0.00085231824778, Q3 : -0.000708187348209, Q4 : -0.000801212561782}
2019-04-14 04:30:03.91: SIM {TimeUS : 47735065, Roll : -0.1, Pitch : -0.08, Yaw : 359.9, Alt : 36.7799987793, Lat : 49.2835704, Lng : -123.1150206, Q1 : 0.999998986721, Q2 : -0.000894394412171, Q3 : -0.000699063180946, Q4 : -0.000825337832794}
2019-04-14 04:30:04.01: SIM {TimeUS : 47835025, Roll : -0.09, Pitch : -0.06, Yaw : 359.9, Alt : 37.0099983215, Lat : 49.2835704, Lng : -123.1150206, Q1 : 0.99999910593, Q2 : -0.000814969651401, Q3 : -0.000605333771091, Q4 : -0.000843263289426}
2019-04-14 04:30:04.11: SIM {TimeUS : 47934985, Roll : -0.07, Pitch : -0.05, Yaw : 359.9, Alt : 37.2299995422, Lat : 49.2835704, Lng : -123.1150206, Q1 : 0.999999344349, Q2 : -0.000642630096991, Q3 : -0.000440796779003, Q4 : -0.000855021062307}
2019-04-14 04:30:04.21: SIM {TimeUS : 48034945, Roll : -0.05, Pitch : -0.03, Yaw : 359.9, Alt : 37.4599990845, Lat : 49.2835704, Lng : -123.1150206, Q1 : 0.999999463558, Q2 : -0.000456270441646, Q3 : -0.00033379875822, Q4 : -0.000861941603944}
2019-04-14 04:30:04.31: SIM {TimeUS : 48134905, Roll : -0.05, Pitch : -0.03, Yaw : 359.9, Alt : 37.6800003052, Lat : 49.2835704, Lng : -123.1150206, Q1 : 0.999999463558, Q2 : -0.000482796895085, Q3 : -0.000343814259395, Q4 : -0.000866161775775}
2019-04-14 04:30:04.41: SIM {TimeUS : 48234865, Roll : -0.06, Pitch : -0.02, Yaw : 359.9, Alt : 37.9099998474, Lat : 49.2835704, Lng : -123.1150206, Q1 : 0.999999403954, Q2 : -0.000606928253546, Q3 : -0.00024907340412, Q4 : -0.000870647083502}
2019-04-14 04:30:04.51: SIM {TimeUS : 48334825, Roll : -0.09, Pitch : -0.01, Yaw : 359.89, Alt : 38.1399993896, Lat : 49.2835704, Lng : -123.1150206, Q1 : 0.99999922514, Q2 : -0.000846044451464, Q3 : -0.00011439237278, Q4 : -0.000879096041899}
2019-04-14 04:30:04.61: SIM {TimeUS : 48434785, Roll : -0.1, Pitch : 0.0, Yaw : 359.89, Alt : 38.3600006104, Lat : 49.2835704, Lng : -123.1150206, Q1 : 0.99999922514, Q2 : -0.000902858446352, Q3 : 1.5728030121e-05, Q4 : -0.000887070782483}
2019-04-14 04:30:04.71: SIM {TimeUS : 48534745, Roll : -0.08, Pitch : 0.02, Yaw : 359.89, Alt : 38.5900001526, Lat : 49.2835704, Lng : -123.1150206, Q1 : 0.999999284744, Q2 : -0.000708987412509, Q3 : 0.000252461584751, Q4 : -0.000900841609109}
2019-04-14 04:30:04.81: SIM {TimeUS : 48634705, Roll : -0.05, Pitch : 0.02, Yaw : 359.89, Alt : 38.8199996948, Lat : 49.2835704, Lng : -123.1150206, Q1 : 0.999999463558, Q2 : -0.000473663181765, Q3 : 0.000220112735406, Q4 : -0.000915070180781}
2019-04-14 04:30:04.91: SIM {TimeUS : 48734665, Roll : -0.02, Pitch : 0.01, Yaw : 359.89, Alt : 39.0499992371, Lat : 49.2835706, Lng : -123.1150206, Q1 : 0.999999523163, Q2 : -0.000199740577955, Q3 : 0.000126104467199, Q4 : -0.000928820460103}
2019-04-14 04:30:05.01: SIM {TimeUS : 48834625, Roll : 0.01, Pitch : 0.03, Yaw : 359.89, Alt : 39.2799987793, Lat : 49.2835706, Lng : -123.1150206, Q1 : 0.999999523163, Q2 : 0.000109576627437, Q3 : 0.000272650504485, Q4 : -0.000945036183111}
2019-04-14 04:30:05.11: SIM {TimeUS : 48934585, Roll : 0.05, Pitch : 0.06, Yaw : 359.88, Alt : 39.5099983215, Lat : 49.2835706, Lng : -123.1150206, Q1 : 0.999999284744, Q2 : 0.00045287879766, Q3 : 0.000567651179153, Q4 : -0.000969363434706}
2019-04-14 04:30:05.21: SIM {TimeUS : 49034545, Roll : 0.08, Pitch : 0.09, Yaw : 359.88, Alt : 39.7400016785, Lat : 49.2835706, Lng : -123.1150206, Q1 : 0.999998867512, Q2 : 0.000714959460311, Q3 : 0.000837985426188, Q4 : -0.000998410396278}
2019-04-14 04:30:05.32: SIM {TimeUS : 49135338, Roll : 0.07, Pitch : 0.12, Yaw : 359.88, Alt : 39.9700012207, Lat : 49.2835706, Lng : -123.1150206, Q1 : 0.999998688698, Q2 : 0.000637194141746, Q3 : 0.00105526088737, Q4 : -0.00101861765143}
2019-04-14 04:30:05.41: SIM {TimeUS : 49235298, Roll : 0.02, Pitch : 0.14, Yaw : 359.87, Alt : 40.2000007629, Lat : 49.2835706, Lng : -123.1150206, Q1 : 0.999998629093, Q2 : 0.000245478004217, Q3 : 0.00122463447042, Q4 : -0.00105855218135}
2019-04-14 04:30:05.51: SIM {TimeUS : 49335258, Roll : 0.0, Pitch : 0.14, Yaw : 359.87, Alt : 40.4399986267, Lat : 49.2835706, Lng : -123.1150206, Q1 : 0.999998629093, Q2 : -8.48479539854e-05, Q3 : 0.00126678671222, Q4 : -0.00109287083615}
2019-04-14 04:30:05.61: SIM {TimeUS : 49435218, Roll : -0.03, Pitch : 0.12, Yaw : 359.87, Alt : 40.6699981689, Lat : 49.2835706, Lng : -123.1150206, Q1 : 0.999998688698, Q2 : -0.000284791953163, Q3 : 0.00113320327364, Q4 : -0.00111766450573}
2019-04-14 04:30:05.71: SIM {TimeUS : 49535178, Roll : -0.04, Pitch : 0.11, Yaw : 359.86, Alt : 40.9000015259, Lat : 49.2835706, Lng : -123.1150206, Q1 : 0.999998748302, Q2 : -0.000377239834052, Q3 : 0.00102965708356, Q4 : -0.00114231382031}
2019-04-14 04:30:05.81: SIM {TimeUS : 49635138, Roll : -0.03, Pitch : 0.12, Yaw : 359.86, Alt : 41.1300010681, Lat : 49.2835706, Lng : -123.1150206, Q1 : 0.999998629093, Q2 : -0.000290386786219, Q3 : 0.00111709209159, Q4 : -0.00117301265709}
2019-04-14 04:30:05.91: SIM {TimeUS : 49735098, Roll : 0.0, Pitch : 0.15, Yaw : 359.86, Alt : 41.3699989319, Lat : 49.2835706, Lng : -123.1150207, Q1 : 0.999998390675, Q2 : 6.49174398859e-05, Q3 : 0.00131634227, Q4 : -0.00121386733372}
2019-04-14 04:30:06.01: SIM {TimeUS : 49835058, Roll : 0.05, Pitch : 0.16, Yaw : 359.85, Alt : 41.5999984741, Lat : 49.2835706, Lng : -123.1150207, Q1 : 0.999998092651, Q2 : 0.000500390538946, Q3 : 0.0014097118983, Q4 : -0.00125621038023}
2019-04-14 04:30:06.11: SIM {TimeUS : 49935018, Roll : 0.09, Pitch : 0.12, Yaw : 359.85, Alt : 41.8300018311, Lat : 49.2835706, Lng : -123.1150207, Q1 : 0.999998211861, Q2 : 0.000793762970716, Q3 : 0.00111399346497, Q4 : -0.00129462266341}
2019-04-14 04:30:06.21: SIM {TimeUS : 50034978, Roll : 0.09, Pitch : 0.07, Yaw : 359.84, Alt : 42.0699996948, Lat : 49.2835706, Lng : -123.1150207, Q1 : 0.999998569489, Q2 : 0.000811170903035, Q3 : 0.000667977612466, Q4 : -0.00132539216429}
2019-04-14 04:30:06.31: SIM {TimeUS : 50134938, Roll : 0.05, Pitch : 0.04, Yaw : 359.84, Alt : 42.2999992371, Lat : 49.2835706, Lng : -123.1150207, Q1 : 0.999998867512, Q2 : 0.000523523893207, Q3 : 0.00038232334191, Q4 : -0.00134683435317}
2019-04-14 04:30:06.41: SIM {TimeUS : 50234898, Roll : 0.0, Pitch : 0.03, Yaw : 359.84, Alt : 42.5400009155, Lat : 49.2835706, Lng : -123.1150207, Q1 : 0.999998986721, Q2 : 6.95005292073e-05, Q3 : 0.00030891384813, Q4 : -0.00135743618011}
2019-04-14 04:30:06.51: SIM {TimeUS : 50334858, Roll : -0.02, Pitch : 0.06, Yaw : 359.84, Alt : 42.7700004578, Lat : 49.2835706, Lng : -123.1150207, Q1 : 0.999998867512, Q2 : -0.000240081819356, Q3 : 0.000539893342648, Q4 : -0.00135918147862}
2019-04-14 04:30:06.61: SIM {TimeUS : 50434818, Roll : -0.04, Pitch : 0.08, Yaw : 359.84, Alt : 43.0099983215, Lat : 49.2835704, Lng : -123.1150206, Q1 : 0.999998748302, Q2 : -0.000389855966205, Q3 : 0.000732108019292, Q4 : -0.00135901977774}
2019-04-14 04:30:06.71: SIM {TimeUS : 50534778, Roll : -0.04, Pitch : 0.08, Yaw : 359.84, Alt : 43.2400016785, Lat : 49.2835704, Lng : -123.1150206, Q1 : 0.999998748302, Q2 : -0.000376499316189, Q3 : 0.000725879683159, Q4 : -0.00136275554541}
2019-04-14 04:30:06.81: SIM {TimeUS : 50634738, Roll : -0.04, Pitch : 0.07, Yaw : 359.84, Alt : 43.4799995422, Lat : 49.2835704, Lng : -123.1150206, Q1 : 0.999998807907, Q2 : -0.000404078833526, Q3 : 0.00064099766314, Q4 : -0.00137573294342}
2019-04-14 04:30:06.91: SIM {TimeUS : 50734698, Roll : -0.04, Pitch : 0.05, Yaw : 359.84, Alt : 43.7099990845, Lat : 49.2835704, Lng : -123.1150206, Q1 : 0.999998867512, Q2 : -0.000355194701115, Q3 : 0.000521362177096, Q4 : -0.00139177544042}
2019-04-14 04:30:07.01: SIM {TimeUS : 50834658, Roll : -0.02, Pitch : 0.05, Yaw : 359.83, Alt : 43.9500007629, Lat : 49.2835704, Lng : -123.1150206, Q1 : 0.999998927116, Q2 : -0.000184865362826, Q3 : 0.000437415321358, Q4 : -0.00140900304541}
2019-04-14 04:30:07.11: SIM {TimeUS : 50934618, Roll : 0.0, Pitch : 0.04, Yaw : 359.83, Alt : 44.1800003052, Lat : 49.2835704, Lng : -123.1150206, Q1 : 0.999998927116, Q2 : -6.67795538902e-05, Q3 : 0.000414359732531, Q4 : -0.00142549781594}
2019-04-14 04:30:07.21: SIM {TimeUS : 51034578, Roll : -0.01, Pitch : 0.03, Yaw : 359.83, Alt : 44.4199981689, Lat : 49.2835704, Lng : -123.1150206, Q1 : 0.999998927116, Q2 : -9.36412543524e-05, Q3 : 0.000275356054772, Q4 : -0.00144793221261}
2019-04-14 04:30:07.31: SIM {TimeUS : 51134538, Roll : -0.02, Pitch : 0.0, Yaw : 359.83, Alt : 44.6599998474, Lat : 49.2835704, Lng : -123.1150206, Q1 : 0.999998867512, Q2 : -0.000180232571438, Q3 : 2.48560490945e-06, Q4 : -0.00147368921898}
2019-04-14 04:30:07.41: SIM {TimeUS : 51235331, Roll : -0.02, Pitch : -0.02, Yaw : 359.82, Alt : 44.8899993896, Lat : 49.2835704, Lng : -123.1150206, Q1 : 0.999998807907, Q2 : -0.000254168873653, Q3 : -0.000217436710955, Q4 : -0.00150584301446}
2019-04-14 04:30:07.51: SIM {TimeUS : 51335291, Roll : -0.02, Pitch : -0.04, Yaw : 359.82, Alt : 45.1300010681, Lat : 49.2835704, Lng : -123.1150206, Q1 : 0.999998748302, Q2 : -0.000221631591558, Q3 : -0.000356057396857, Q4 : -0.00154201849364}
2019-04-14 04:30:07.61: SIM {TimeUS : 51435251, Roll : -0.02, Pitch : -0.04, Yaw : 359.81, Alt : 45.3699989319, Lat : 49.2835703, Lng : -123.1150206, Q1 : 0.999998688698, Q2 : -0.000254999060417, Q3 : -0.000383907026844, Q4 : -0.00157636613585}
2019-04-14 04:30:07.71: SIM {TimeUS : 51535211, Roll : -0.05, Pitch : -0.03, Yaw : 359.81, Alt : 45.5999984741, Lat : 49.2835703, Lng : -123.1150206, Q1 : 0.999998569489, Q2 : -0.000439778086729, Q3 : -0.000316027580993, Q4 : -0.00161535816733}
2019-04-14 04:30:07.81: SIM {TimeUS : 51635171, Roll : -0.08, Pitch : -0.02, Yaw : 359.81, Alt : 45.8300018311, Lat : 49.2835703, Lng : -123.1150206, Q1 : 0.99999833107, Q2 : -0.000715690199286, Q3 : -0.000256247119978, Q4 : -0.0016568278661}
2019-04-14 04:30:07.91: SIM {TimeUS : 51735131, Roll : -0.1, Pitch : -0.02, Yaw : 359.8, Alt : 46.0699996948, Lat : 49.2835703, Lng : -123.1150206, Q1 : 0.999998152256, Q2 : -0.000912538846023, Q3 : -0.000226109899813, Q4 : -0.00170047802385}
2019-04-14 04:30:08.01: SIM {TimeUS : 51835091, Roll : -0.1, Pitch : -0.01, Yaw : 359.8, Alt : 46.2900009155, Lat : 49.2835703, Lng : -123.1150206, Q1 : 0.999998033047, Q2 : -0.000956514617428, Q3 : -0.000113034337119, Q4 : -0.00174049718771}
2019-04-14 04:30:08.11: SIM {TimeUS : 51935051, Roll : -0.09, Pitch : 0.0, Yaw : 359.79, Alt : 46.5200004578, Lat : 49.2835703, Lng : -123.1150206, Q1 : 0.999998092651, Q2 : -0.000827109499369, Q3 : 4.83100120618e-05, Q4 : -0.00177114002872}
2019-04-14 04:30:08.21: SIM {TimeUS : 52035011, Roll : -0.06, Pitch : 0.01, Yaw : 359.79, Alt : 46.7299995422, Lat : 49.2835703, Lng : -123.1150206, Q1 : 0.999998211861, Q2 : -0.000592796248384, Q3 : 0.000103409380245, Q4 : -0.00180008029565}
2019-04-14 04:30:08.31: SIM {TimeUS : 52134971, Roll : -0.04, Pitch : 0.0, Yaw : 359.79, Alt : 46.9500007629, Lat : 49.2835703, Lng : -123.1150206, Q1 : 0.999998271465, Q2 : -0.000406230101362, Q3 : 3.28683963744e-05, Q4 : -0.00182712741662}
2019-04-14 04:30:08.41: SIM {TimeUS : 52234931, Roll : -0.03, Pitch : -0.01, Yaw : 359.78, Alt : 47.1500015259, Lat : 49.2835703, Lng : -123.1150206, Q1 : 0.999998271465, Q2 : -0.000299372419249, Q3 : -0.000114123649837, Q4 : -0.00185358268209}
2019-04-14 04:30:08.51: SIM {TimeUS : 52334891, Roll : -0.01, Pitch : -0.03, Yaw : 359.78, Alt : 47.3499984741, Lat : 49.2835703, Lng : -123.1150206, Q1 : 0.999998152256, Q2 : -0.000145243902807, Q3 : -0.00034873187542, Q4 : -0.00187743164133}
2019-04-14 04:30:08.61: SIM {TimeUS : 52434851, Roll : 0.0, Pitch : -0.06, Yaw : 359.78, Alt : 47.5400009155, Lat : 49.2835703, Lng : -123.1150206, Q1 : 0.999998033047, Q2 : 5.57712628506e-05, Q3 : -0.000556384969968, Q4 : -0.00189533317462}
2019-04-14 04:30:08.71: SIM {TimeUS : 52534811, Roll : 0.01, Pitch : -0.1, Yaw : 359.78, Alt : 47.7200012207, Lat : 49.2835703, Lng : -123.1150206, Q1 : 0.999997735023, Q2 : 0.000140895019285, Q3 : -0.000912547227927, Q4 : -0.00191093864851}
2019-04-14 04:30:08.81: SIM {TimeUS : 52634771, Roll : 0.01, Pitch : -0.14, Yaw : 359.77, Alt : 47.8899993896, Lat : 49.2835703, Lng : -123.1150206, Q1 : 0.999997317791, Q2 : 0.000156553884153, Q3 : -0.00128012814093, Q4 : -0.00192892365158}
2019-04-14 04:30:08.91: SIM {TimeUS : 52734731, Roll : 0.04, Pitch : -0.15, Yaw : 359.77, Alt : 48.0400009155, Lat : 49.2835703, Lng : -123.1150206, Q1 : 0.999997138977, Q2 : 0.000373219518224, Q3 : -0.00136014784221, Q4 : -0.00194618152454}
2019-04-14 04:30:09.01: SIM {TimeUS : 52834691, Roll : 0.06, Pitch : -0.13, Yaw : 359.77, Alt : 48.1899986267, Lat : 49.2835703, Lng : -123.1150206, Q1 : 0.999997198582, Q2 : 0.000606395595241, Q3 : -0.00121102540288, Q4 : -0.00195975438692}
2019-04-14 04:30:09.11: SIM {TimeUS : 52934651, Roll : 0.08, Pitch : -0.1, Yaw : 359.77, Alt : 48.3199996948, Lat : 49.2835703, Lng : -123.1150206, Q1 : 0.999997317791, Q2 : 0.000754401087761, Q3 : -0.000930195383262, Q4 : -0.00197425042279}
2019-04-14 04:30:09.21: SIM {TimeUS : 53034611, Roll : 0.08, Pitch : -0.06, Yaw : 359.77, Alt : 48.4399986267, Lat : 49.2835703, Lng : -123.1150206, Q1 : 0.99999755621, Q2 : 0.000741620257031, Q3 : -0.000597937498242, Q4 : -0.00199375138618}
2019-04-14 04:30:09.31: SIM {TimeUS : 53134571, Roll : 0.08, Pitch : -0.04, Yaw : 359.76, Alt : 48.5499992371, Lat : 49.2835703, Lng : -123.1150206, Q1 : 0.999997615814, Q2 : 0.000719160714652, Q3 : -0.000380078883609, Q4 : -0.00201870012097}
2019-04-14 04:30:09.42: SIM {TimeUS : 53235364, Roll : 0.06, Pitch : -0.04, Yaw : 359.76, Alt : 48.6500015259, Lat : 49.2835704, Lng : -123.1150206, Q1 : 0.999997675419, Q2 : 0.00056544324616, Q3 : -0.000378749100491, Q4 : -0.00204289657995}
2019-04-14 04:30:09.51: SIM {TimeUS : 53335324, Roll : 0.03, Pitch : -0.04, Yaw : 359.76, Alt : 48.7299995422, Lat : 49.2835704, Lng : -123.1150206, Q1 : 0.999997735023, Q2 : 0.000263087975327, Q3 : -0.000410433567595, Q4 : -0.00206422549672}
2019-04-14 04:30:09.61: SIM {TimeUS : 53435284, Roll : 0.01, Pitch : -0.03, Yaw : 359.76, Alt : 48.7999992371, Lat : 49.2835704, Lng : -123.1150206, Q1 : 0.999997735023, Q2 : 0.00011910986359, Q3 : -0.000346680317307, Q4 : -0.0020929207094}
2019-04-14 04:30:09.71: SIM {TimeUS : 53535244, Roll : 0.0, Pitch : -0.02, Yaw : 359.75, Alt : 48.8699989319, Lat : 49.2835704, Lng : -123.1150206, Q1 : 0.999997735023, Q2 : 1.40073580042e-05, Q3 : -0.000257770530879, Q4 : -0.00212488370016}
2019-04-14 04:30:09.81: SIM {TimeUS : 53635204, Roll : 0.0, Pitch : -0.01, Yaw : 359.75, Alt : 48.9199981689, Lat : 49.2835704, Lng : -123.1150206, Q1 : 0.999997675419, Q2 : -4.47058664577e-05, Q3 : -0.000109363863885, Q4 : -0.00215807626955}
2019-04-14 04:30:09.91: SIM {TimeUS : 53735164, Roll : 0.01, Pitch : 0.01, Yaw : 359.74, Alt : 48.9700012207, Lat : 49.2835704, Lng : -123.1150206, Q1 : 0.999997615814, Q2 : 0.000135482696351, Q3 : 0.000117701660201, Q4 : -0.00218971725553}
2019-04-14 04:30:10.01: SIM {TimeUS : 53835124, Roll : 0.08, Pitch : -0.02, Yaw : 359.74, Alt : 49.0099983215, Lat : 49.2835704, Lng : -123.1150206, Q1 : 0.999997258186, Q2 : 0.000700811680872, Q3 : -0.000197135072085, Q4 : -0.00222298456356}
2019-04-14 04:30:10.11: SIM {TimeUS : 53935084, Roll : 0.25, Pitch : -0.25, Yaw : 359.74, Alt : 49.0400009155, Lat : 49.2835704, Lng : -123.1150206, Q1 : 0.999992549419, Q2 : 0.00219467654824, Q3 : -0.00224111508578, Q4 : -0.00225761719048}
2019-04-14 04:30:10.21: SIM {TimeUS : 54035044, Roll : 0.55, Pitch : -0.72, Yaw : 359.73, Alt : 49.0699996948, Lat : 49.2835704, Lng : -123.1150206, Q1 : 0.999965667725, Q2 : 0.0048526423052, Q3 : -0.00631614308804, Q4 : -0.00228899158537}
2019-04-14 04:30:10.31: SIM {TimeUS : 54135004, Roll : 0.99, Pitch : -1.4, Yaw : 359.72, Alt : 49.0999984741, Lat : 49.2835704, Lng : -123.1150206, Q1 : 0.999883949757, Q2 : 0.00866359751672, Q3 : -0.0123191503808, Q4 : -0.00230020424351}
2019-04-14 04:30:10.41: SIM {TimeUS : 54234964, Roll : 1.53, Pitch : -2.24, Yaw : 359.7, Alt : 49.1199989319, Lat : 49.2835706, Lng : -123.1150205, Q1 : 0.999715089798, Q2 : 0.0133804855868, Q3 : -0.0196360070258, Q4 : -0.00228115543723}
2019-04-14 04:30:10.51: SIM {TimeUS : 54334924, Roll : 2.11, Pitch : -3.1, Yaw : 359.68, Alt : 49.1399993896, Lat : 49.2835707, Lng : -123.1150205, Q1 : 0.999459803104, Q2 : 0.0184164252132, Q3 : -0.027131035924, Q4 : -0.00220307405107}
2019-04-14 04:30:10.61: SIM {TimeUS : 54434884, Roll : 2.64, Pitch : -3.87, Yaw : 359.67, Alt : 49.1500015259, Lat : 49.2835708, Lng : -123.1150203, Q1 : 0.999162077904, Q2 : 0.0229333117604, Q3 : -0.0338369831443, Q4 : -0.00206333817914}
2019-04-14 04:30:10.71: SIM {TimeUS : 54534844, Roll : 3.05, Pitch : -4.47, Yaw : 359.66, Alt : 49.1699981689, Lat : 49.2835709, Lng : -123.1150202, Q1 : 0.998883426189, Q2 : 0.0265071429312, Q3 : -0.0390617251396, Q4 : -0.00186806905549}
2019-04-14 04:30:10.81: SIM {TimeUS : 54634804, Roll : 3.34, Pitch : -4.89, Yaw : 359.66, Alt : 49.1800003052, Lat : 49.283571, Lng : -123.11502, Q1 : 0.998659849167, Q2 : 0.0290661323816, Q3 : -0.0427905842662, Q4 : -0.00162966083735}
2019-04-14 04:30:10.91: SIM {TimeUS : 54734764, Roll : 3.55, Pitch : -5.22, Yaw : 359.67, Alt : 49.1899986267, Lat : 49.2835714, Lng : -123.1150198, Q1 : 0.99847817421, Q2 : 0.0308871120214, Q3 : -0.045667052269, Q4 : -0.00137894414365}
2019-04-14 04:30:11.01: SIM {TimeUS : 54834724, Roll : 3.74, Pitch : -5.52, Yaw : 359.69, Alt : 49.2000007629, Lat : 49.2835718, Lng : -123.1150194, Q1 : 0.998306572437, Q2 : 0.0325163863599, Q3 : -0.048222552985, Q4 : -0.00112076383084}
2019-04-14 04:30:11.11: SIM {TimeUS : 54934684, Roll : 3.96, Pitch : -5.81, Yaw : 359.7, Alt : 49.2099990845, Lat : 49.2835721, Lng : -123.115019, Q1 : 0.998116731644, Q2 : 0.0343779027462, Q3 : -0.0507974326611, Q4 : -0.000851344084367}
2019-04-14 04:30:11.21: SIM {TimeUS : 55034644, Roll : 4.18, Pitch : -6.11, Yaw : 359.7, Alt : 49.2200012207, Lat : 49.2835726, Lng : -123.1150185, Q1 : 0.997913658619, Q2 : 0.0362912118435, Q3 : -0.0533945932984, Q4 : -0.000591197167523}
2019-04-14 04:30:11.31: SIM {TimeUS : 55134604, Roll : 4.38, Pitch : -6.4, Yaw : 359.71, Alt : 49.2200012207, Lat : 49.2835731, Lng : -123.115018, Q1 : 0.997709929943, Q2 : 0.0380505733192, Q3 : -0.0559192970395, Q4 : -0.000351060181856}
2019-04-14 04:30:11.41: SIM {TimeUS : 55234564, Roll : 4.53, Pitch : -6.65, Yaw : 359.71, Alt : 49.2299995422, Lat : 49.2835737, Lng : -123.1150174, Q1 : 0.997537493706, Q2 : 0.0393220931292, Q3 : -0.0580755285919, Q4 : -0.000144269753946}
2019-04-14 04:30:11.52: SIM {TimeUS : 55335357, Roll : 4.64, Pitch : -6.83, Yaw : 359.72, Alt : 49.2400016785, Lat : 49.2835744, Lng : -123.1150167, Q1 : 0.997406065464, Q2 : 0.0403166152537, Q3 : -0.0596303120255, Q4 : 4.01919896831e-05}
2019-04-14 04:30:11.61: SIM {TimeUS : 55435317, Roll : 4.72, Pitch : -6.95, Yaw : 359.73, Alt : 49.2400016785, Lat : 49.2835751, Lng : -123.1150159, Q1 : 0.997314155102, Q2 : 0.041009131819, Q3 : -0.0606844499707, Q4 : 0.000182591451448}
2019-04-14 04:30:11.71: SIM {TimeUS : 55535277, Roll : 4.78, Pitch : -7.04, Yaw : 359.73, Alt : 49.25, Lat : 49.2835758, Lng : -123.1150151, Q1 : 0.997240066528, Q2 : 0.0415596552193, Q3 : -0.0615231283009, Q4 : 0.000283851462882}
2019-04-14 04:30:11.81: SIM {TimeUS : 55635237, Roll : 4.87, Pitch : -7.16, Yaw : 359.73, Alt : 49.25, Lat : 49.2835767, Lng : -123.1150143, Q1 : 0.997144758701, Q2 : 0.0423254519701, Q3 : -0.0625364631414, Q4 : 0.000360384816304}
2019-04-14 04:30:11.91: SIM {TimeUS : 55735197, Roll : 5.15, Pitch : -7.26, Yaw : 359.8, Alt : 49.25, Lat : 49.2835775, Lng : -123.1150133, Q1 : 0.996987760067, Q2 : 0.0447495616972, Q3 : -0.0633368194103, Q4 : 0.00117894273717}
2019-04-14 04:30:12.01: SIM {TimeUS : 55835157, Roll : 5.7, Pitch : -7.28, Yaw : 0.41, Alt : 49.2599983215, Lat : 49.2835785, Lng : -123.1150124, Q1 : 0.996726751328, Q2 : 0.0498547740281, Q3 : -0.0632850453258, Q4 : 0.00673543149605}
2019-04-14 04:30:12.11: SIM {TimeUS : 55935117, Roll : 6.34, Pitch : -7.37, Yaw : 2.23, Alt : 49.2599983215, Lat : 49.2835794, Lng : -123.1150113, Q1 : 0.996140301228, Q2 : 0.0564923807979, Q3 : -0.0631359145045, Q4 : 0.0229570008814}
2019-04-14 04:30:12.21: SIM {TimeUS : 56035077, Roll : 6.72, Pitch : -7.75, Yaw : 5.64, Alt : 49.2599983215, Lat : 49.2835805, Lng : -123.1150102, Q1 : 0.994587123394, Q2 : 0.0618109479547, Q3 : -0.0645497739315, Q4 : 0.0530023686588}
2019-04-14 04:30:12.31: SIM {TimeUS : 56135037, Roll : 6.58, Pitch : -8.49, Yaw : 10.6, Alt : 49.2599983215, Lat : 49.2835814, Lng : -123.1150089, Q1 : 0.990952193737, Q2 : 0.0638600289822, Q3 : -0.0683451667428, Q4 : 0.096252553165}
2019-04-14 04:30:12.41: SIM {TimeUS : 56234997, Roll : 5.69, Pitch : -9.52, Yaw : 16.88, Alt : 49.2599983215, Lat : 49.2835825, Lng : -123.1150076, Q1 : 0.983930051327, Q2 : 0.0611494146287, Q3 : -0.0747262015939, Q4 : 0.150194510818}
2019-04-14 04:30:12.51: SIM {TimeUS : 56334957, Roll : 3.79, Pitch : -10.63, Yaw : 23.96, Alt : 49.2599983215, Lat : 49.2835837, Lng : -123.115006, Q1 : 0.972836911678, Q2 : 0.0514644160867, Q3 : -0.0837625190616, Q4 : 0.209579765797}
2019-04-14 04:30:12.61: SIM {TimeUS : 56434917, Roll : 1.08, Pitch : -11.55, Yaw : 31.06, Alt : 49.2700004578, Lat : 49.2835849, Lng : -123.1150046, Q1 : 0.958294093609, Q2 : 0.0360181517899, Q3 : -0.0944921374321, Q4 : 0.267294615507}
2019-04-14 04:30:12.71: SIM {TimeUS : 56534877, Roll : -1.85, Pitch : -12.14, Yaw : 37.41, Alt : 49.2700004578, Lat : 49.2835862, Lng : -123.115003, Q1 : 0.942282140255, Q2 : 0.0186685137451, Q3 : -0.105359092355, Q4 : 0.317262291908}
2019-04-14 04:30:12.81: SIM {TimeUS : 56634837, Roll : -4.37, Pitch : -12.39, Yaw : 42.39, Alt : 49.2700004578, Lat : 49.2835876, Lng : -123.1150014, Q1 : 0.927693128586, Q2 : 0.00360668962821, Q3 : -0.114342130721, Q4 : 0.35538482666}
2019-04-14 04:30:12.91: SIM {TimeUS : 56734797, Roll : -6.03, Pitch : -12.47, Yaw : 45.67, Alt : 49.2700004578, Lat : 49.283589, Lng : -123.1149997, Q1 : 0.917113184929, Q2 : -0.00613892264664, Q3 : -0.120282486081, Q4 : 0.379997193813}
2019-04-14 04:30:13.01: SIM {TimeUS : 56834757, Roll : -6.7, Pitch : -12.53, Yaw : 47.23, Alt : 49.2700004578, Lat : 49.2835905, Lng : -123.1149981, Q1 : 0.911767661572, Q2 : -0.00956916064024, Q3 : -0.123162806034, Q4 : 0.3916875422}
2019-04-14 04:30:13.11: SIM {TimeUS : 56934717, Roll : -6.49, Pitch : -12.7, Yaw : 47.3, Alt : 49.2700004578, Lat : 49.2835922, Lng : -123.1149964, Q1 : 0.911427974701, Q2 : -0.00727569684386, Q3 : -0.12382774055, Q4 : 0.39231723547}
2019-04-14 04:30:13.21: SIM {TimeUS : 57034677, Roll : -5.62, Pitch : -13.05, Yaw : 46.19, Alt : 49.2700004578, Lat : 49.283594, Lng : -123.1149948, Q1 : 0.914958000183, Q2 : -0.000318885227898, Q3 : -0.123620301485, Q4 : 0.384148061275}
2019-04-14 04:30:13.31: SIM {TimeUS : 57134637, Roll : -4.32, Pitch : -13.59, Yaw : 44.23, Alt : 49.2700004578, Lat : 49.2835958, Lng : -123.1149931, Q1 : 0.920939683914, Q2 : 0.00980099290609, Q3 : -0.123646430671, Q4 : 0.369439661503}
2019-04-14 04:30:13.41: SIM {TimeUS : 57234597, Roll : -2.8, Pitch : -14.2, Yaw : 41.71, Alt : 49.2700004578, Lat : 49.2835977, Lng : -123.1149914, Q1 : 0.928088188171, Q2 : 0.0213230159134, Q3 : -0.12413315475, Q4 : 0.350412011147}
2019-04-14 04:30:13.51: SIM {TimeUS : 57334557, Roll : -1.23, Pitch : -14.77, Yaw : 38.95, Alt : 49.2700004578, Lat : 49.2835998, Lng : -123.1149896, Q1 : 0.935358166695, Q2 : 0.0327897034585, Q3 : -0.124747730792, Q4 : 0.329344779253}
2019-04-14 04:30:13.62: SIM {TimeUS : 57435350, Roll : 0.23, Pitch : -15.21, Yaw : 36.23, Alt : 49.2799987793, Lat : 49.2836018, Lng : -123.1149877, Q1 : 0.941980481148, Q2 : 0.043081369251, Q3 : -0.125191003084, Q4 : 0.308454185724}
2019-04-14 04:30:13.71: SIM {TimeUS : 57535310, Roll : 1.44, Pitch : -15.47, Yaw : 33.88, Alt : 49.2799987793, Lat : 49.2836038, Lng : -123.1149857, Q1 : 0.947330355644, Q2 : 0.0512074530125, Q3 : -0.125111192465, Q4 : 0.29032766819}
2019-04-14 04:30:13.81: SIM {TimeUS : 57635270, Roll : 2.32, Pitch : -15.57, Yaw : 32.08, Alt : 49.2799987793, Lat : 49.2836061, Lng : -123.1149835, Q1 : 0.951232612133, Q2 : 0.0567608401179, Q3 : -0.124624148011, Q4 : 0.276412010193}
2019-04-14 04:30:13.91: SIM {TimeUS : 57735230, Roll : 2.81, Pitch : -15.58, Yaw : 30.96, Alt : 49.2799987793, Lat : 49.2836083, Lng : -123.1149814, Q1 : 0.95364934206, Q2 : 0.0596421472728, Q3 : -0.124099291861, Q4 : 0.26757273078}
2019-04-14 04:30:14.01: SIM {TimeUS : 57835190, Roll : 2.93, Pitch : -15.57, Yaw : 30.5, Alt : 49.2799987793, Lat : 49.2836104, Lng : -123.1149791, Q1 : 0.954650819302, Q2 : 0.0601106248796, Q3 : -0.123968452215, Q4 : 0.263932526112}
2019-04-14 04:30:14.11: SIM {TimeUS : 57935150, Roll : 2.72, Pitch : -15.6, Yaw : 30.66, Alt : 49.2799987793, Lat : 49.2836128, Lng : -123.1149767, Q1 : 0.954370081425, Q2 : 0.0585699677467, Q3 : -0.124652519822, Q4 : 0.264970034361}
2019-04-14 04:30:14.21: SIM {TimeUS : 58035110, Roll : 2.24, Pitch : -15.69, Yaw : 31.29, Alt : 49.2799987793, Lat : 49.2836151, Lng : -123.1149742, Q1 : 0.953020036221, Q2 : 0.0554817691445, Q3 : -0.126183524728, Q4 : 0.269726365805}
2019-04-14 04:30:14.31: SIM {TimeUS : 58135070, Roll : 1.57, Pitch : -15.82, Yaw : 32.26, Alt : 49.2799987793, Lat : 49.2836175, Lng : -123.1149717, Q1 : 0.950866699219, Q2 : 0.0513337776065, Q3 : -0.128427579999, Q4 : 0.27699059248}
2019-04-14 04:30:14.41: SIM {TimeUS : 58235030, Roll : 0.83, Pitch : -15.95, Yaw : 33.39, Alt : 49.2799987793, Lat : 49.2836199, Lng : -123.1149689, Q1 : 0.948243260384, Q2 : 0.0467916354537, Q3 : -0.130835443735, Q4 : 0.285529911518}
2019-04-14 04:30:14.51: SIM {TimeUS : 58334990, Roll : 0.13, Pitch : -16.05, Yaw : 34.54, Alt : 49.2799987793, Lat : 49.2836223, Lng : -123.1149663, Q1 : 0.94548034668, Q2 : 0.0425986684859, Q3 : -0.133030861616, Q4 : 0.29420247674}
2019-04-14 04:30:14.61: SIM {TimeUS : 58434950, Roll : -0.47, Pitch : -16.14, Yaw : 35.58, Alt : 49.2799987793, Lat : 49.2836248, Lng : -123.1149636, Q1 : 0.942902684212, Q2 : 0.0389651469886, Q3 : -0.134956672788, Q4 : 0.30199816823}
2019-04-14 04:30:14.71: SIM {TimeUS : 58534910, Roll : -0.92, Pitch : -16.21, Yaw : 36.41, Alt : 49.2799987793, Lat : 49.2836274, Lng : -123.1149608, Q1 : 0.940766811371, Q2 : 0.0364349782467, Q3 : -0.136435225606, Q4 : 0.308246284723}
2019-04-14 04:30:14.81: SIM {TimeUS : 58634870, Roll : -1.17, Pitch : -16.24, Yaw : 36.98, Alt : 49.2799987793, Lat : 49.2836299, Lng : -123.114958, Q1 : 0.939272344112, Q2 : 0.0351943597198, Q3 : -0.13721947372, Q4 : 0.312569528818}
2019-04-14 04:30:14.91: SIM {TimeUS : 58734830, Roll : -1.24, Pitch : -16.27, Yaw : 37.26, Alt : 49.2799987793, Lat : 49.2836326, Lng : -123.1149552, Q1 : 0.938485085964, Q2 : 0.0350255407393, Q3 : -0.137529700994, Q4 : 0.314808726311}
2019-04-14 04:30:15.01: SIM {TimeUS : 58834790, Roll : -1.18, Pitch : -16.3, Yaw : 37.28, Alt : 49.2799987793, Lat : 49.2836353, Lng : -123.1149523, Q1 : 0.938362061977, Q2 : 0.0356210060418, Q3 : -0.137657135725, Q4 : 0.315052896738}
2019-04-14 04:30:15.11: SIM {TimeUS : 58934750, Roll : -1.02, Pitch : -16.35, Yaw : 37.09, Alt : 49.2799987793, Lat : 49.2836379, Lng : -123.1149494, Q1 : 0.938789486885, Q2 : 0.0368541888893, Q3 : -0.137702807784, Q4 : 0.313614487648}
2019-04-14 04:30:15.21: SIM {TimeUS : 59034710, Roll : -0.78, Pitch : -16.43, Yaw : 36.73, Alt : 49.2799987793, Lat : 49.2836408, Lng : -123.1149464, Q1 : 0.939598143101, Q2 : 0.0386003553867, Q3 : -0.137765571475, Q4 : 0.310943752527}
2019-04-14 04:30:15.31: SIM {TimeUS : 59134670, Roll : -0.5, Pitch : -16.49, Yaw : 36.28, Alt : 49.2799987793, Lat : 49.2836436, Lng : -123.1149436, Q1 : 0.940647065639, Q2 : 0.0405339635909, Q3 : -0.13770583272, Q4 : 0.307534128428}
2019-04-14 04:30:15.41: SIM {TimeUS : 59234630, Roll : -0.2, Pitch : -16.55, Yaw : 35.79, Alt : 49.2799987793, Lat : 49.2836463, Lng : -123.1149406, Q1 : 0.941765069962, Q2 : 0.0425510816276, Q3 : -0.137545287609, Q4 : 0.303890228271}
2019-04-14 04:30:15.51: SIM {TimeUS : 59334590, Roll : 0.07, Pitch : -16.6, Yaw : 35.33, Alt : 49.2900009155, Lat : 49.2836492, Lng : -123.1149375, Q1 : 0.942812740803, Q2 : 0.0444303415716, Q3 : -0.137360051274, Q4 : 0.300436913967}
2019-04-14 04:30:15.61: SIM {TimeUS : 59434550, Roll : 0.3, Pitch : -16.63, Yaw : 34.95, Alt : 49.2900009155, Lat : 49.2836521, Lng : -123.1149345, Q1 : 0.943685829639, Q2 : 0.045991204679, Q3 : -0.137221604586, Q4 : 0.297509759665}
2019-04-14 04:30:15.72: SIM {TimeUS : 59535343, Roll : 0.48, Pitch : -16.66, Yaw : 34.66, Alt : 49.2900009155, Lat : 49.2836549, Lng : -123.1149314, Q1 : 0.944328784943, Q2 : 0.0471628122032, Q3 : -0.13711720705, Q4 : 0.295326560736}
2019-04-14 04:30:15.81: SIM {TimeUS : 59635303, Roll : 0.57, Pitch : -16.69, Yaw : 34.48, Alt : 49.2900009155, Lat : 49.2836579, Lng : -123.1149282, Q1 : 0.94470846653, Q2 : 0.0477849543095, Q3 : -0.137169033289, Q4 : 0.293985009193}
2019-04-14 04:30:15.91: SIM {TimeUS : 59735263, Roll : 0.59, Pitch : -16.71, Yaw : 34.42, Alt : 49.2900009155, Lat : 49.2836609, Lng : -123.1149251, Q1 : 0.944837033749, Q2 : 0.0478947684169, Q3 : -0.137362286448, Q4 : 0.293463259935}
2019-04-14 04:30:16.01: SIM {TimeUS : 59835223, Roll : 0.54, Pitch : -16.75, Yaw : 34.45, Alt : 49.2900009155, Lat : 49.2836639, Lng : -123.1149219, Q1 : 0.944737553596, Q2 : 0.0476012825966, Q3 : -0.137739464641, Q4 : 0.293654412031}
2019-04-14 04:30:16.11: SIM {TimeUS : 59935183, Roll : 0.43, Pitch : -16.79, Yaw : 34.56, Alt : 49.2900009155, Lat : 49.2836669, Lng : -123.1149186, Q1 : 0.94446003437, Q2 : 0.0469283498824, Q3 : -0.138305947185, Q4 : 0.294388353825}
2019-04-14 04:30:16.21: SIM {TimeUS : 60035143, Roll : 0.29, Pitch : -16.84, Yaw : 34.71, Alt : 49.2900009155, Lat : 49.2836699, Lng : -123.1149154, Q1 : 0.944048583508, Q2 : 0.046112716198, Q3 : -0.139028355479, Q4 : 0.295494586229}
2019-04-14 04:30:16.31: SIM {TimeUS : 60135103, Roll : 0.13, Pitch : -16.88, Yaw : 34.89, Alt : 49.2900009155, Lat : 49.2836729, Lng : -123.1149121, Q1 : 0.943592786789, Q2 : 0.0451497733593, Q3 : -0.139728486538, Q4 : 0.296766072512}
2019-04-14 04:30:16.41: SIM {TimeUS : 60235063, Roll : -0.01, Pitch : -16.91, Yaw : 35.07, Alt : 49.2900009155, Lat : 49.2836759, Lng : -123.1149088, Q1 : 0.943153738976, Q2 : 0.0442242436111, Q3 : -0.140309154987, Q4 : 0.298024505377}
2019-04-14 04:30:16.51: SIM {TimeUS : 60335023, Roll : -0.14, Pitch : -16.95, Yaw : 35.22, Alt : 49.2900009155, Lat : 49.283679, Lng : -123.1149055, Q1 : 0.942763507366, Q2 : 0.0434403494, Q3 : -0.140858247876, Q4 : 0.299113541842}
2019-04-14 04:30:16.61: SIM {TimeUS : 60434983, Roll : -0.21, Pitch : -16.99, Yaw : 35.34, Alt : 49.2900009155, Lat : 49.2836821, Lng : -123.1149021, Q1 : 0.942435443401, Q2 : 0.0430932193995, Q3 : -0.141368687153, Q4 : 0.299955546856}
2019-04-14 04:30:16.71: SIM {TimeUS : 60534943, Roll : -0.24, Pitch : -17.03, Yaw : 35.41, Alt : 49.2999992371, Lat : 49.2836852, Lng : -123.1148987, Q1 : 0.942210972309, Q2 : 0.0430716983974, Q3 : -0.141762524843, Q4 : 0.300477415323}
2019-04-14 04:30:16.81: SIM {TimeUS : 60634903, Roll : -0.21, Pitch : -17.07, Yaw : 35.43, Alt : 49.2999992371, Lat : 49.2836882, Lng : -123.1148954, Q1 : 0.942100167274, Q2 : 0.0433891601861, Q3 : -0.142016485333, Q4 : 0.300659298897}
2019-04-14 04:30:16.91: SIM {TimeUS : 60734863, Roll : -0.15, Pitch : -17.11, Yaw : 35.4, Alt : 49.2999992371, Lat : 49.2836913, Lng : -123.114892, Q1 : 0.942090451717, Q2 : 0.0439954064786, Q3 : -0.142168939114, Q4 : 0.300529539585}
2019-04-14 04:30:17.01: SIM {TimeUS : 60834823, Roll : -0.08, Pitch : -17.14, Yaw : 35.34, Alt : 49.2999992371, Lat : 49.2836945, Lng : -123.1148886, Q1 : 0.94218569994, Q2 : 0.0445429868996, Q3 : -0.142252087593, Q4 : 0.300110638142}
2019-04-14 04:30:17.11: SIM {TimeUS : 60934783, Roll : -0.03, Pitch : -17.16, Yaw : 35.26, Alt : 49.2999992371, Lat : 49.2836977, Lng : -123.1148851, Q1 : 0.942355871201, Q2 : 0.0449149534106, Q3 : -0.142336457968, Q4 : 0.299480229616}
2019-04-14 04:30:17.21: SIM {TimeUS : 61034743, Roll : 0.0, Pitch : -17.17, Yaw : 35.17, Alt : 49.2999992371, Lat : 49.2837009, Lng : -123.1148817, Q1 : 0.942573010921, Q2 : 0.0451949425042, Q3 : -0.142353162169, Q4 : 0.298746079206}
2019-04-14 04:30:17.31: SIM {TimeUS : 61134703, Roll : 0.05, Pitch : -17.18, Yaw : 35.07, Alt : 49.2999992371, Lat : 49.283704, Lng : -123.1148782, Q1 : 0.942800581455, Q2 : 0.0454635135829, Q3 : -0.142319753766, Q4 : 0.298002004623}
2019-04-14 04:30:17.41: SIM {TimeUS : 61234663, Roll : 0.09, Pitch : -17.2, Yaw : 34.98, Alt : 49.2999992371, Lat : 49.2837072, Lng : -123.1148748, Q1 : 0.942999899387, Q2 : 0.0457544922829, Q3 : -0.1423689574, Q4 : 0.297302544117}
2019-04-14 04:30:17.51: SIM {TimeUS : 61334623, Roll : 0.14, Pitch : -17.23, Yaw : 34.9, Alt : 49.2999992371, Lat : 49.2837106, Lng : -123.1148713, Q1 : 0.94313365221, Q2 : 0.046167049557, Q3 : -0.142590433359, Q4 : 0.296707838774}
2019-04-14 04:30:17.61: SIM {TimeUS : 61434583, Roll : 0.19, Pitch : -17.29, Yaw : 34.84, Alt : 49.3100013733, Lat : 49.2837138, Lng : -123.1148678, Q1 : 0.943200051785, Q2 : 0.0465906821191, Q3 : -0.142971292138, Q4 : 0.296246886253}
2019-04-14 04:30:17.71: SIM {TimeUS : 61534543, Roll : 0.21, Pitch : -17.32, Yaw : 34.8, Alt : 49.3100013733, Lat : 49.283717, Lng : -123.1148643, Q1 : 0.943254590034, Q2 : 0.0467997528613, Q3 : -0.143193408847, Q4 : 0.295932710171}
2019-04-14 04:30:17.82: SIM {TimeUS : 61635336, Roll : 0.22, Pitch : -17.32, Yaw : 34.78, Alt : 49.3100013733, Lat : 49.2837203, Lng : -123.1148607, Q1 : 0.943308532238, Q2 : 0.0468621812761, Q3 : -0.143132328987, Q4 : 0.295780539513}
2019-04-14 04:30:17.91: SIM {TimeUS : 61735296, Roll : 0.22, Pitch : -17.32, Yaw : 34.77, Alt : 49.3100013733, Lat : 49.2837235, Lng : -123.1148572, Q1 : 0.943318128586, Q2 : 0.0468676872551, Q3 : -0.143148392439, Q4 : 0.295741200447}
2019-04-14 04:30:18.01: SIM {TimeUS : 61835256, Roll : 0.19, Pitch : -17.34, Yaw : 34.78, Alt : 49.3100013733, Lat : 49.2837269, Lng : -123.1148536, Q1 : 0.94328379631, Q2 : 0.0466667376459, Q3 : -0.143408507109, Q4 : 0.295756399632}
2019-04-14 04:30:18.11: SIM {TimeUS : 61935216, Roll : 0.16, Pitch : -17.37, Yaw : 34.8, Alt : 49.3100013733, Lat : 49.2837302, Lng : -123.1148501, Q1 : 0.943221509457, Q2 : 0.0464881435037, Q3 : -0.143707334995, Q4 : 0.295838236809}
2019-04-14 04:30:18.21: SIM {TimeUS : 62035176, Roll : 0.13, Pitch : -17.4, Yaw : 34.82, Alt : 49.3100013733, Lat : 49.2837334, Lng : -123.1148465, Q1 : 0.943142652512, Q2 : 0.0463499650359, Q3 : -0.144052296877, Q4 : 0.295943588018}
2019-04-14 04:30:18.31: SIM {TimeUS : 62135136, Roll : 0.1, Pitch : -17.43, Yaw : 34.83, Alt : 49.3100013733, Lat : 49.2837368, Lng : -123.1148429, Q1 : 0.943068861961, Q2 : 0.0462550446391, Q3 : -0.144351422787, Q4 : 0.296047687531}
2019-04-14 04:30:18.41: SIM {TimeUS : 62235096, Roll : 0.09, Pitch : -17.46, Yaw : 34.85, Alt : 49.3100013733, Lat : 49.28374, Lng : -123.1148393, Q1 : 0.942996740341, Q2 : 0.046279668808, Q3 : -0.144606098533, Q4 : 0.296149373055}
2019-04-14 04:30:18.51: SIM {TimeUS : 62335056, Roll : 0.09, Pitch : -17.48, Yaw : 34.86, Alt : 49.3100013733, Lat : 49.2837434, Lng : -123.1148357, Q1 : 0.942952394485, Q2 : 0.0463456921279, Q3 : -0.144720226526, Q4 : 0.296224445105}
2019-04-14 04:30:18.61: SIM {TimeUS : 62435016, Roll : 0.11, Pitch : -17.49, Yaw : 34.86, Alt : 49.3100013733, Lat : 49.2837467, Lng : -123.1148321, Q1 : 0.942922651768, Q2 : 0.046516623348, Q3 : -0.14482408762, Q4 : 0.296241492033}
2019-04-14 04:30:18.71: SIM {TimeUS : 62534976, Roll : 0.13, Pitch : -17.52, Yaw : 34.85, Alt : 49.3100013733, Lat : 49.2837501, Lng : -123.1148284, Q1 : 0.942905008793, Q2 : 0.0467565767467, Q3 : -0.144984692335, Q4 : 0.296181410551}
2019-04-14 04:30:18.81: SIM {TimeUS : 62634936, Roll : 0.14, Pitch : -17.56, Yaw : 34.83, Alt : 49.3199996948, Lat : 49.2837534, Lng : -123.1148248, Q1 : 0.942897558212, Q2 : 0.0468958057463, Q3 : -0.145305588841, Q4 : 0.296025753021}
2019-04-14 04:30:18.91: SIM {TimeUS : 62734896, Roll : 0.12, Pitch : -17.61, Yaw : 34.81, Alt : 49.3199996948, Lat : 49.2837568, Lng : -123.1148212, Q1 : 0.942906677723, Q2 : 0.0468094833195, Q3 : -0.145760893822, Q4 : 0.295786499977}
2019-04-14 04:30:19.01: SIM {TimeUS : 62834856, Roll : 0.11, Pitch : -17.65, Yaw : 34.78, Alt : 49.3199996948, Lat : 49.2837601, Lng : -123.1148176, Q1 : 0.942923247814, Q2 : 0.0468064360321, Q3 : -0.146186441183, Q4 : 0.295524060726}
2019-04-14 04:30:19.11: SIM {TimeUS : 62934816, Roll : 0.13, Pitch : -17.68, Yaw : 34.75, Alt : 49.3199996948, Lat : 49.2837636, Lng : -123.1148139, Q1 : 0.942956447601, Q2 : 0.0469997301698, Q3 : -0.146401494741, Q4 : 0.295280963182}
2019-04-14 04:30:19.21: SIM {TimeUS : 63034776, Roll : 0.15, Pitch : -17.69, Yaw : 34.72, Alt : 49.3199996948, Lat : 49.283767, Lng : -123.1148102, Q1 : 0.943018198013, Q2 : 0.0471888817847, Q3 : -0.146365880966, Q4 : 0.295071184635}
2019-04-14 04:30:19.31: SIM {TimeUS : 63134736, Roll : 0.18, Pitch : -17.67, Yaw : 34.69, Alt : 49.3199996948, Lat : 49.2837703, Lng : -123.1148066, Q1 : 0.943099856377, Q2 : 0.0473209954798, Q3 : -0.146167829633, Q4 : 0.294887125492}
2019-04-14 04:30:19.41: SIM {TimeUS : 63234696, Roll : 0.18, Pitch : -17.65, Yaw : 34.67, Alt : 49.3199996948, Lat : 49.2837738, Lng : -123.1148029, Q1 : 0.943182051182, Q2 : 0.0472362190485, Q3 : -0.146055355668, Q4 : 0.294693291187}
2019-04-14 04:30:19.51: SIM {TimeUS : 63334656, Roll : 0.17, Pitch : -17.64, Yaw : 34.65, Alt : 49.3199996948, Lat : 49.2837771, Lng : -123.1147992, Q1 : 0.943262219429, Q2 : 0.0471283532679, Q3 : -0.14594759047, Q4 : 0.294507533312}
2019-04-14 04:30:19.61: SIM {TimeUS : 63434616, Roll : 0.17, Pitch : -17.62, Yaw : 34.63, Alt : 49.3199996948, Lat : 49.2837806, Lng : -123.1147955, Q1 : 0.943337321281, Q2 : 0.0470470227301, Q3 : -0.145816996694, Q4 : 0.294344574213}
2019-04-14 04:30:19.71: SIM {TimeUS : 63534576, Roll : 0.16, Pitch : -17.63, Yaw : 34.61, Alt : 49.3199996948, Lat : 49.283784, Lng : -123.1147918, Q1 : 0.943372607231, Q2 : 0.0469816811383, Q3 : -0.145938009024, Q4 : 0.294182032347}
2019-04-14 04:30:19.81: SIM {TimeUS : 63634536, Roll : 0.16, Pitch : -17.66, Yaw : 34.59, Alt : 49.3199996948, Lat : 49.2837874, Lng : -123.1147881, Q1 : 0.943375170231, Q2 : 0.0469995439053, Q3 : -0.146195933223, Q4 : 0.294042676687}
2019-04-14 04:30:19.91: SIM {TimeUS : 63735329, Roll : 0.15, Pitch : -17.71, Yaw : 34.58, Alt : 49.3199996948, Lat : 49.2837909, Lng : -123.1147843, Q1 : 0.943346321583, Q2 : 0.0470460802317, Q3 : -0.146617889404, Q4 : 0.29391759634}
2019-04-14 04:30:20.01: SIM {TimeUS : 63835289, Roll : 0.15, Pitch : -17.77, Yaw : 34.57, Alt : 49.3199996948, Lat : 49.2837944, Lng : -123.1147806, Q1 : 0.943297326565, Q2 : 0.0471880584955, Q3 : -0.147085651755, Q4 : 0.293818473816}
2019-04-14 04:30:20.11: SIM {TimeUS : 63935249, Roll : 0.16, Pitch : -17.8, Yaw : 34.56, Alt : 49.3199996948, Lat : 49.2837977, Lng : -123.1147769, Q1 : 0.94327545166, Q2 : 0.0473291762173, Q3 : -0.147305399179, Q4 : 0.293755978346}
2019-04-14 04:30:20.21: SIM {TimeUS : 64035209, Roll : 0.16, Pitch : -17.82, Yaw : 34.56, Alt : 49.3300018311, Lat : 49.2838013, Lng : -123.1147731, Q1 : 0.943262159824, Q2 : 0.0473923124373, Q3 : -0.147503271699, Q4 : 0.293689221144}
2019-04-14 04:30:20.31: SIM {TimeUS : 64135169, Roll : 0.16, Pitch : -17.83, Yaw : 34.55, Alt : 49.3300018311, Lat : 49.2838047, Lng : -123.1147694, Q1 : 0.943266391754, Q2 : 0.0473813191056, Q3 : -0.147614493966, Q4 : 0.293621361256}
2019-04-14 04:30:20.41: SIM {TimeUS : 64235129, Roll : 0.17, Pitch : -17.82, Yaw : 34.54, Alt : 49.3300018311, Lat : 49.2838081, Lng : -123.1147657, Q1 : 0.94329637289, Q2 : 0.047426301986, Q3 : -0.147492453456, Q4 : 0.293579190969}
2019-04-14 04:30:20.51: SIM {TimeUS : 64335089, Roll : 0.18, Pitch : -17.83, Yaw : 34.53, Alt : 49.3300018311, Lat : 49.2838116, Lng : -123.1147619, Q1 : 0.943304121494, Q2 : 0.0475567281246, Q3 : -0.147502109408, Q4 : 0.293528109789}
2019-04-14 04:30:20.61: SIM {TimeUS : 64435049, Roll : 0.19, Pitch : -17.84, Yaw : 34.53, Alt : 49.3300018311, Lat : 49.2838151, Lng : -123.1147582, Q1 : 0.94330072403, Q2 : 0.0476463325322, Q3 : -0.147651210427, Q4 : 0.293449610472}
2019-04-14 04:30:20.71: SIM {TimeUS : 64535009, Roll : 0.19, Pitch : -17.86, Yaw : 34.51, Alt : 49.3300018311, Lat : 49.2838185, Lng : -123.1147544, Q1 : 0.943307876587, Q2 : 0.0476915836334, Q3 : -0.147767797112, Q4 : 0.293360680342}
2019-04-14 04:30:20.81: SIM {TimeUS : 64634969, Roll : 0.2, Pitch : -17.86, Yaw : 34.5, Alt : 49.3300018311, Lat : 49.283822, Lng : -123.1147506, Q1 : 0.94333845377, Q2 : 0.0477420911193, Q3 : -0.147747844458, Q4 : 0.293264061213}
2019-04-14 04:30:20.91: SIM {TimeUS : 64734929, Roll : 0.2, Pitch : -17.87, Yaw : 34.49, Alt : 49.3300018311, Lat : 49.2838256, Lng : -123.1147469, Q1 : 0.94336616993, Q2 : 0.0477406904101, Q3 : -0.14780536294, Q4 : 0.29314622283}
2019-04-14 04:30:21.01: SIM {TimeUS : 64834889, Roll : 0.18, Pitch : -17.89, Yaw : 34.47, Alt : 49.3300018311, Lat : 49.2838291, Lng : -123.1147431, Q1 : 0.943383276463, Q2 : 0.0476355031133, Q3 : -0.148029103875, Q4 : 0.292995393276}
2019-04-14 04:30:21.11: SIM {TimeUS : 64934849, Roll : 0.16, Pitch : -17.93, Yaw : 34.46, Alt : 49.3300018311, Lat : 49.2838325, Lng : -123.1147393, Q1 : 0.943380773067, Q2 : 0.0475096069276, Q3 : -0.148427024484, Q4 : 0.292822480202}
2019-04-14 04:30:21.21: SIM {TimeUS : 65034809, Roll : 0.15, Pitch : -17.94, Yaw : 34.44, Alt : 49.3300018311, Lat : 49.283836, Lng : -123.1147355, Q1 : 0.943407714367, Q2 : 0.0474155135453, Q3 : -0.148558035493, Q4 : 0.292684406042}
2019-04-14 04:30:21.31: SIM {TimeUS : 65134769, Roll : 0.15, Pitch : -17.93, Yaw : 34.43, Alt : 49.3300018311, Lat : 49.2838396, Lng : -123.1147317, Q1 : 0.943450331688, Q2 : 0.0474303811789, Q3 : -0.148483529687, Q4 : 0.2925824821}
2019-04-14 04:30:21.41: SIM {TimeUS : 65234729, Roll : 0.17, Pitch : -17.92, Yaw : 34.42, Alt : 49.3300018311, Lat : 49.2838431, Lng : -123.114728, Q1 : 0.943488001823, Q2 : 0.0475473739207, Q3 : -0.148375213146, Q4 : 0.292496949434}
2019-04-14 04:30:21.51: SIM {TimeUS : 65334689, Roll : 0.18, Pitch : -17.93, Yaw : 34.4, Alt : 49.3300018311, Lat : 49.2838465, Lng : -123.1147242, Q1 : 0.943505346775, Q2 : 0.0476671010256, Q3 : -0.148420721292, Q4 : 0.292398452759}
2019-04-14 04:30:21.61: SIM {TimeUS : 65434649, Roll : 0.18, Pitch : -17.95, Yaw : 34.39, Alt : 49.3400001526, Lat : 49.28385, Lng : -123.1147204, Q1 : 0.943510174751, Q2 : 0.0476696267724, Q3 : -0.148618727922, Q4 : 0.292281717062}
2019-04-14 04:30:21.71: SIM {TimeUS : 65534609, Roll : 0.16, Pitch : -17.97, Yaw : 34.38, Alt : 49.3400001526, Lat : 49.2838536, Lng : -123.1147166, Q1 : 0.943519890308, Q2 : 0.0475480370224, Q3 : -0.148847535253, Q4 : 0.292153775692}
2019-04-14 04:30:21.81: SIM {TimeUS : 65634569, Roll : 0.15, Pitch : -17.99, Yaw : 34.37, Alt : 49.3400001526, Lat : 49.2838572, Lng : -123.1147128, Q1 : 0.943530619144, Q2 : 0.0474670864642, Q3 : -0.149026036263, Q4 : 0.292041271925}
2019-04-14 04:30:21.92: SIM {TimeUS : 65735362, Roll : 0.15, Pitch : -18.0, Yaw : 34.36, Alt : 49.3400001526, Lat : 49.2838608, Lng : -123.1147089, Q1 : 0.943539500237, Q2 : 0.0475245565176, Q3 : -0.149134531617, Q4 : 0.291947752237}
2019-04-14 04:30:22.01: SIM {TimeUS : 65835322, Roll : 0.16, Pitch : -18.01, Yaw : 34.35, Alt : 49.3400001526, Lat : 49.2838643, Lng : -123.1147051, Q1 : 0.943551838398, Q2 : 0.0476222857833, Q3 : -0.149172201753, Q4 : 0.291872799397}
2019-04-14 04:30:22.11: SIM {TimeUS : 65935282, Roll : 0.19, Pitch : -18.02, Yaw : 34.34, Alt : 49.3400001526, Lat : 49.2838677, Lng : -123.1147013, Q1 : 0.94354814291, Q2 : 0.047824781388, Q3 : -0.149211391807, Q4 : 0.291831612587}
2019-04-14 04:30:22.21: SIM {TimeUS : 66035242, Roll : 0.2, Pitch : -18.04, Yaw : 34.33, Alt : 49.3400001526, Lat : 49.2838713, Lng : -123.1146975, Q1 : 0.943533778191, Q2 : 0.047953248024, Q3 : -0.149347066879, Q4 : 0.291787564754}
2019-04-14 04:30:22.31: SIM {TimeUS : 66135202, Roll : 0.21, Pitch : -18.07, Yaw : 34.33, Alt : 49.3400001526, Lat : 49.2838749, Lng : -123.1146937, Q1 : 0.943510055542, Q2 : 0.0481015071273, Q3 : -0.149529650807, Q4 : 0.291746288538}
2019-04-14 04:30:22.41: SIM {TimeUS : 66235162, Roll : 0.22, Pitch : -18.09, Yaw : 34.32, Alt : 49.3400001526, Lat : 49.2838785, Lng : -123.1146898, Q1 : 0.943486988544, Q2 : 0.0482514239848, Q3 : -0.149701952934, Q4 : 0.291707724333}
2019-04-14 04:30:22.51: SIM {TimeUS : 66335122, Roll : 0.24, Pitch : -18.1, Yaw : 34.32, Alt : 49.3400001526, Lat : 49.283882, Lng : -123.114686, Q1 : 0.943477094173, Q2 : 0.0484337285161, Q3 : -0.149751350284, Q4 : 0.291684299707}
2019-04-14 04:30:22.61: SIM {TimeUS : 66435082, Roll : 0.27, Pitch : -18.11, Yaw : 34.31, Alt : 49.3400001526, Lat : 49.2838856, Lng : -123.1146822, Q1 : 0.943464159966, Q2 : 0.0487059280276, Q3 : -0.149749919772, Q4 : 0.291681498289}
2019-04-14 04:30:22.71: SIM {TimeUS : 66535042, Roll : 0.27, Pitch : -18.11, Yaw : 34.31, Alt : 49.3400001526, Lat : 49.283889, Lng : -123.1146784, Q1 : 0.943481326103, Q2 : 0.048659928143, Q3 : -0.149733752012, Q4 : 0.29164198041}
2019-04-14 04:30:22.81: SIM {TimeUS : 66635002, Roll : 0.24, Pitch : -18.12, Yaw : 34.3, Alt : 49.3499984741, Lat : 49.2838926, Lng : -123.1146746, Q1 : 0.943497478962, Q2 : 0.0484308414161, Q3 : -0.14986538887, Q4 : 0.291560351849}
