2019-04-14 04:39:48.40: SIM {TimeUS : 40416327, Roll : 0.0, Pitch : 0.0, Yaw : 0.0, Alt : 30.1000003815, Lat : 49.28357, Lng : -123.11502, Q1 : 1.0, Q2 : 0.0, Q3 : 0.0, Q4 : 0.0}
2019-04-14 04:39:48.51: SIM {TimeUS : 40535446, Roll : 0.0, Pitch : 0.0, Yaw : 0.0, Alt : 30.1000003815, Lat : 49.28357, Lng : -123.11502, Q1 : 1.0, Q2 : 0.0, Q3 : 0.0, Q4 : 0.0}
2019-04-14 04:39:48.61: SIM {TimeUS : 40635406, Roll : 0.0, Pitch : 0.0, Yaw : 0.0, Alt : 30.1000003815, Lat : 49.28357, Lng : -123.11502, Q1 : 1.0, Q2 : 0.0, Q3 : 0.0, Q4 : 0.0}
2019-04-14 04:39:48.71: SIM {TimeUS : 40735366, Roll : 0.0, Pitch : 0.0, Yaw : 0.0, Alt : 30.1000003815, Lat : 49.28357, Lng : -123.11502, Q1 : 1.0, Q2 : 0.0, Q3 : 0.0, Q4 : 0.0}
2019-04-14 04:39:48.81: SIM {TimeUS : 40835326, Roll : 0.0, Pitch : 0.0, Yaw : 0.0, Alt : 30.1000003815, Lat : 49.28357, Lng : -123.11502, Q1 : 1.0, Q2 : 0.0, Q3 : 0.0, Q4 : 0.0}
2019-04-14 04:39:48.91: SIM {TimeUS : 40935286, Roll : 0.0, Pitch : 0.0, Yaw : 0.0, Alt : 30.1000003815, Lat : 49.28357, Lng : -123.11502, Q1 : 1.0, Q2 : 0.0, Q3 : 0.0, Q4 : 0.0}
2019-04-14 04:39:49.01: SIM {TimeUS : 41035246, Roll : 0.0, Pitch : 0.0, Yaw : 0.0, Alt : 30.1000003815, Lat : 49.28357, Lng : -123.11502, Q1 : 1.0, Q2 : 0.0, Q3 : 0.0, Q4 : 0.0}
2019-04-14 04:39:49.11: SIM {TimeUS : 41135206, Roll : 0.0, Pitch : 0.0, Yaw : 0.0, Alt : 30.1000003815, Lat : 49.28357, Lng : -123.11502, Q1 : 1.0, Q2 : 0.0, Q3 : 0.0, Q4 : 0.0}
2019-04-14 04:39:49.21: SIM {TimeUS : 41235166, Roll : 0.0, Pitch : 0.0, Yaw : 0.0, Alt : 30.1000003815, Lat : 49.28357, Lng : -123.11502, Q1 : 1.0, Q2 : 0.0, Q3 : 0.0, Q4 : 0.0}
2019-04-14 04:39:49.31: SIM {TimeUS : 41335126, Roll : 0.0, Pitch : 0.0, Yaw : 0.0, Alt : 30.1000003815, Lat : 49.28357, Lng : -123.11502, Q1 : 1.0, Q2 : 0.0, Q3 : 0.0, Q4 : 0.0}
2019-04-14 04:39:49.41: SIM {TimeUS : 41435086, Roll : 0.0, Pitch : 0.0, Yaw : 0.0, Alt : 30.1000003815, Lat : 49.28357, Lng : -123.11502, Q1 : 1.0, Q2 : 0.0, Q3 : 0.0, Q4 : 0.0}
2019-04-14 04:39:49.51: SIM {TimeUS : 41535046, Roll : 0.0, Pitch : 0.0, Yaw : 0.0, Alt : 30.1000003815, Lat : 49.28357, Lng : -123.11502, Q1 : 1.0, Q2 : 0.0, Q3 : 0.0, Q4 : 0.0}
2019-04-14 04:39:49.61: SIM {TimeUS : 41635006, Roll : 0.0, Pitch : 0.0, Yaw : 0.0, Alt : 30.1000003815, Lat : 49.28357, Lng : -123.11502, Q1 : 1.0, Q2 : 0.0, Q3 : 0.0, Q4 : 0.0}
2019-04-14 04:39:49.71: SIM {TimeUS : 41734966, Roll : 0.0, Pitch : 0.0, Yaw : 0.0, Alt : 30.1000003815, Lat : 49.28357, Lng : -123.11502, Q1 : 1.0, Q2 : 0.0, Q3 : 0.0, Q4 : 0.0}
2019-04-14 04:39:49.81: SIM {TimeUS : 41834926, Roll : 0.0, Pitch : 0.0, Yaw : 0.0, Alt : 30.1000003815, Lat : 49.28357, Lng : -123.11502, Q1 : 1.0, Q2 : 0.0, Q3 : 0.0, Q4 : 0.0}
2019-04-14 04:39:49.91: SIM {TimeUS : 41934886, Roll : 0.0, Pitch : 0.0, Yaw : 0.0, Alt : 30.1000003815, Lat : 49.28357, Lng : -123.11502, Q1 : 1.0, Q2 : 0.0, Q3 : 0.0, Q4 : 0.0}
2019-04-14 04:39:50.01: SIM {TimeUS : 42034846, Roll : 0.0, Pitch : 0.0, Yaw : 0.0, Alt : 30.1000003815, Lat : 49.28357, Lng : -123.11502, Q1 : 1.0, Q2 : 0.0, Q3 : 0.0, Q4 : 0.0}
2019-04-14 04:39:50.11: SIM {TimeUS : 42134806, Roll : 0.0, Pitch : 0.0, Yaw : 0.0, Alt : 30.1000003815, Lat : 49.28357, Lng : -123.11502, Q1 : 1.0, Q2 : 0.0, Q3 : 0.0, Q4 : 0.0}
2019-04-14 04:39:50.21: SIM {TimeUS : 42234766, Roll : 0.0, Pitch : 0.0, Yaw : 0.0, Alt : 30.1000003815, Lat : 49.28357, Lng : -123.11502, Q1 : 1.0, Q2 : 0.0, Q3 : 0.0, Q4 : 0.0}
2019-04-14 04:39:50.31: SIM {TimeUS : 42334726, Roll : 0.0, Pitch : 0.0, Yaw : 0.0, Alt : 30.1000003815, Lat : 49.28357, Lng : -123.11502, Q1 : 1.0, Q2 : 0.0, Q3 : 0.0, Q4 : 0.0}
2019-04-14 04:39:50.41: SIM {TimeUS : 42434686, Roll : 0.0, Pitch : 0.0, Yaw : 0.0, Alt : 30.1000003815, Lat : 49.28357, Lng : -123.11502, Q1 : 1.0, Q2 : 0.0, Q3 : 0.0, Q4 : 0.0}
2019-04-14 04:39:50.51: SIM {TimeUS : 42535479, Roll : 0.0, Pitch : 0.0, Yaw : 0.0, Alt : 30.1000003815, Lat : 49.28357, Lng : -123.11502, Q1 : 1.0, Q2 : 0.0, Q3 : 0.0, Q4 : 0.0}
2019-04-14 04:39:50.61: SIM {TimeUS : 42635439, Roll : 0.0, Pitch : 0.0, Yaw : 0.0, Alt : 30.1000003815, Lat : 49.28357, Lng : -123.11502, Q1 : 1.0, Q2 : 0.0, Q3 : 0.0, Q4 : 0.0}
2019-04-14 04:39:50.71: SIM {TimeUS : 42735399, Roll : 0.0, Pitch : 0.0, Yaw : 0.0, Alt : 30.1000003815, Lat : 49.28357, Lng : -123.11502, Q1 : 1.0, Q2 : 0.0, Q3 : 0.0, Q4 : 1.50531601073e-10}
2019-04-14 04:39:50.81: SIM {TimeUS : 42835359, Roll : 0.0, Pitch : 0.0, Yaw : 360.0, Alt : 30.1000003815, Lat : 49.28357, Lng : -123.11502, Q1 : 1.0, Q2 : 0.0, Q3 : 0.0, Q4 : -3.19015214245e-08}
2019-04-14 04:39:50.91: SIM {TimeUS : 42935319, Roll : 0.0, Pitch : 0.0, Yaw : 359.99, Alt : 30.1000003815, Lat : 49.28357, Lng : -123.11502, Q1 : 1.0, Q2 : 0.0, Q3 : 0.0, Q4 : -2.17827164306e-07}
2019-04-14 04:39:51.01: SIM {TimeUS : 43035279, Roll : 0.0, Pitch : 0.0, Yaw : 359.99, Alt : 30.1000003815, Lat : 49.28357, Lng : -123.11502, Q1 : 1.0, Q2 : 0.0, Q3 : 0.0, Q4 : -4.05720186336e-07}
2019-04-14 04:39:51.11: SIM {TimeUS : 43135239, Roll : 0.0, Pitch : 0.0, Yaw : 359.99, Alt : 30.1000003815, Lat : 49.28357, Lng : -123.11502, Q1 : 1.0, Q2 : 0.0, Q3 : 0.0, Q4 : -6.1509410898e-07}
2019-04-14 04:39:51.21: SIM {TimeUS : 43235199, Roll : 0.0, Pitch : 0.0, Yaw : 359.99, Alt : 30.1000003815, Lat : 49.28357, Lng : -123.11502, Q1 : 1.0, Q2 : 0.0, Q3 : 0.0, Q4 : -8.00094767328e-07}
2019-04-14 04:39:51.31: SIM {TimeUS : 43335159, Roll : 0.0, Pitch : 0.0, Yaw : 359.99, Alt : 30.1000003815, Lat : 49.28357, Lng : -123.11502, Q1 : 1.0, Q2 : 0.0, Q3 : 0.0, Q4 : -9.52097138907e-07}
2019-04-14 04:39:51.41: SIM {TimeUS : 43435119, Roll : 0.0, Pitch : 0.0, Yaw : 359.99, Alt : 30.1000003815, Lat : 49.28357, Lng : -123.11502, Q1 : 1.0, Q2 : 0.0, Q3 : 0.0, Q4 : -1.12437078315e-06}
2019-04-14 04:39:51.51: SIM {TimeUS : 43535079, Roll : 0.0, Pitch : 0.0, Yaw : 359.99, Alt : 30.1000003815, Lat : 49.28357, Lng : -123.11502, Q1 : 1.0, Q2 : 0.0, Q3 : 0.0, Q4 : -1.33049752549e-06}
2019-04-14 04:39:51.61: SIM {TimeUS : 43635039, Roll : 0.0, Pitch : 0.0, Yaw : 359.99, Alt : 30.1200008392, Lat : 49.28357, Lng : -123.11502, Q1 : 1.0, Q2 : 0.0, Q3 : 0.0, Q4 : -1.55691782311e-06}
2019-04-14 04:39:51.71: SIM {TimeUS : 43734999, Roll : 0.0, Pitch : 0.0, Yaw : 359.99, Alt : 30.1399993896, Lat : 49.28357, Lng : -123.11502, Q1 : 1.0, Q2 : 0.0, Q3 : 0.0, Q4 : -1.83279325938e-06}
2019-04-14 04:39:51.81: SIM {TimeUS : 43834959, Roll : 0.0, Pitch : 0.0, Yaw : 359.99, Alt : 30.1800003052, Lat : 49.28357, Lng : -123.11502, Q1 : 1.0, Q2 : 0.0, Q3 : 0.0, Q4 : -2.05700598599e-06}
2019-04-14 04:39:51.91: SIM {TimeUS : 43934919, Roll : 0.0, Pitch : 0.0, Yaw : 359.99, Alt : 30.2099990845, Lat : 49.28357, Lng : -123.11502, Q1 : 1.0, Q2 : -7.53965878175e-06, Q3 : -6.5893050305e-06, Q4 : -2.34149001699e-06}
2019-04-14 04:39:52.01: SIM {TimeUS : 44034879, Roll : -0.17, Pitch : -0.16, Yaw : 359.99, Alt : 30.2700004578, Lat : 49.28357, Lng : -123.11502, Q1 : 0.999997794628, Q2 : -0.00155192159582, Q3 : -0.00142096041236, Q4 : -2.02865703613e-05}
2019-04-14 04:39:52.11: SIM {TimeUS : 44134839, Roll : -0.49, Pitch : -0.45, Yaw : 359.99, Alt : 30.3899993896, Lat : 49.28357, Lng : -123.11502, Q1 : 0.999982893467, Q2 : -0.00429870560765, Q3 : -0.00397193804383, Q4 : -6.58412755001e-05}
2019-04-14 04:39:52.21: SIM {TimeUS : 44234799, Roll : -0.76, Pitch : -0.69, Yaw : 359.98, Alt : 30.5400009155, Lat : 49.28357, Lng : -123.11502, Q1 : 0.999959290028, Q2 : -0.00669208308682, Q3 : -0.00605419883505, Q4 : -0.000134598230943}
2019-04-14 04:39:52.31: SIM {TimeUS : 44334759, Roll : -0.88, Pitch : -0.78, Yaw : 359.98, Alt : 30.7000007629, Lat : 49.28357, Lng : -123.11502, Q1 : 0.999946713448, Q2 : -0.00770926987752, Q3 : -0.00685903988779, Q4 : -0.000218719942495}
2019-04-14 04:39:52.41: SIM {TimeUS : 44434719, Roll : -0.82, Pitch : -0.74, Yaw : 359.96, Alt : 30.8600006104, Lat : 49.28357, Lng : -123.1150201, Q1 : 0.999953210354, Q2 : -0.00716146919876, Q3 : -0.0064941723831, Q4 : -0.000309509108774}
2019-04-14 04:39:52.51: SIM {TimeUS : 44534679, Roll : -0.63, Pitch : -0.59, Yaw : 359.95, Alt : 31.0100002289, Lat : 49.28357, Lng : -123.1150201, Q1 : 0.999971330166, Q2 : -0.00553835183382, Q3 : -0.00514974398538, Q4 : -0.000395813956857}
2019-04-14 04:39:52.61: SIM {TimeUS : 44635472, Roll : -0.4, Pitch : -0.37, Yaw : 359.94, Alt : 31.1700000763, Lat : 49.2835701, Lng : -123.1150202, Q1 : 0.999988257885, Q2 : -0.00352891022339, Q3 : -0.00328127993271, Q4 : -0.000468963087769}
2019-04-14 04:39:52.71: SIM {TimeUS : 44735432, Roll : -0.18, Pitch : -0.17, Yaw : 359.94, Alt : 31.3299999237, Lat : 49.2835701, Lng : -123.1150203, Q1 : 0.999997317791, Q2 : -0.00165585894138, Q3 : -0.00152790977154, Q4 : -0.000526177231222}
2019-04-14 04:39:52.81: SIM {TimeUS : 44835392, Roll : -0.03, Pitch : -0.03, Yaw : 359.93, Alt : 31.5, Lat : 49.2835702, Lng : -123.1150204, Q1 : 0.999999761581, Q2 : -0.000288951734547, Q3 : -0.00026943301782, Q4 : -0.000563467852771}
2019-04-14 04:39:52.91: SIM {TimeUS : 44935352, Roll : 0.05, Pitch : 0.04, Yaw : 359.93, Alt : 31.6700000763, Lat : 49.2835702, Lng : -123.1150205, Q1 : 0.999999642372, Q2 : 0.000476127723232, Q3 : 0.000377808901248, Q4 : -0.000587446964346}
2019-04-14 04:39:53.01: SIM {TimeUS : 45035312, Roll : 0.09, Pitch : 0.06, Yaw : 359.93, Alt : 31.8500003815, Lat : 49.2835703, Lng : -123.1150205, Q1 : 0.999999344349, Q2 : 0.000800169364084, Q3 : 0.000543152156752, Q4 : -0.000597117817961}
2019-04-14 04:39:53.11: SIM {TimeUS : 45135272, Roll : 0.1, Pitch : 0.04, Yaw : 359.93, Alt : 32.0400009155, Lat : 49.2835703, Lng : -123.1150206, Q1 : 0.999999344349, Q2 : 0.000878507562447, Q3 : 0.000383507605875, Q4 : -0.000580817577429}
2019-04-14 04:39:53.21: SIM {TimeUS : 45235232, Roll : 0.09, Pitch : 0.02, Yaw : 359.93, Alt : 32.2299995422, Lat : 49.2835703, Lng : -123.1150206, Q1 : 0.999999463558, Q2 : 0.000824601098429, Q3 : 0.000249023694778, Q4 : -0.000548775715288}
2019-04-14 04:39:53.31: SIM {TimeUS : 45335192, Roll : 0.08, Pitch : 0.04, Yaw : 359.94, Alt : 32.4199981689, Lat : 49.2835703, Lng : -123.1150207, Q1 : 0.999999523163, Q2 : 0.00070726138074, Q3 : 0.000352336559445, Q4 : -0.000503088231198}
2019-04-14 04:39:53.41: SIM {TimeUS : 45435152, Roll : 0.05, Pitch : 0.07, Yaw : 359.94, Alt : 32.6100006104, Lat : 49.2835703, Lng : -123.1150207, Q1 : 0.999999523163, Q2 : 0.000523258117028, Q3 : 0.000695928174537, Q4 : -0.000472565938253}
2019-04-14 04:39:53.51: SIM {TimeUS : 45535112, Roll : 0.06, Pitch : 0.13, Yaw : 359.94, Alt : 32.8100013733, Lat : 49.2835703, Lng : -123.1150208, Q1 : 0.999999046326, Q2 : 0.000608284608461, Q3 : 0.001158484607, Q4 : -0.00045489644981}
2019-04-14 04:39:53.61: SIM {TimeUS : 45635072, Roll : 0.1, Pitch : 0.17, Yaw : 359.94, Alt : 33.0099983215, Lat : 49.2835704, Lng : -123.1150208, Q1 : 0.999998211861, Q2 : 0.000942286511417, Q3 : 0.00156366650481, Q4 : -0.000448017439339}
2019-04-14 04:39:53.71: SIM {TimeUS : 45735032, Roll : 0.14, Pitch : 0.2, Yaw : 359.94, Alt : 33.2099990845, Lat : 49.2835704, Lng : -123.1150208, Q1 : 0.999997496605, Q2 : 0.00126233813353, Q3 : 0.0017784582451, Q4 : -0.000450992753031}
2019-04-14 04:39:53.81: SIM {TimeUS : 45834992, Roll : 0.16, Pitch : 0.22, Yaw : 359.94, Alt : 33.4199981689, Lat : 49.2835704, Lng : -123.1150208, Q1 : 0.999996960163, Q2 : 0.00144751742482, Q3 : 0.00194114784244, Q4 : -0.000458638591226}
2019-04-14 04:39:53.91: SIM {TimeUS : 45934952, Roll : 0.17, Pitch : 0.19, Yaw : 359.94, Alt : 33.6199989319, Lat : 49.2835704, Lng : -123.1150209, Q1 : 0.999997198582, Q2 : 0.00154228752945, Q3 : 0.00173105590511, Q4 : -0.000486590986839}
2019-04-14 04:39:54.01: SIM {TimeUS : 46034912, Roll : 0.17, Pitch : 0.15, Yaw : 359.94, Alt : 33.8300018311, Lat : 49.2835704, Lng : -123.1150209, Q1 : 0.999997794628, Q2 : 0.00151872227434, Q3 : 0.00136934034526, Q4 : -0.000514909683261}
2019-04-14 04:39:54.11: SIM {TimeUS : 46134872, Roll : 0.15, Pitch : 0.12, Yaw : 359.93, Alt : 34.0400009155, Lat : 49.2835704, Lng : -123.1150209, Q1 : 0.99999833107, Q2 : 0.00136504578404, Q3 : 0.0010909254197, Q4 : -0.000546788331121}
2019-04-14 04:39:54.21: SIM {TimeUS : 46234832, Roll : 0.14, Pitch : 0.1, Yaw : 359.93, Alt : 34.25, Lat : 49.2835704, Lng : -123.1150209, Q1 : 0.999998629093, Q2 : 0.00125714426395, Q3 : 0.00092589907581, Q4 : -0.000580275838729}
2019-04-14 04:39:54.31: SIM {TimeUS : 46334792, Roll : 0.14, Pitch : 0.1, Yaw : 359.92, Alt : 34.4599990845, Lat : 49.2835704, Lng : -123.1150209, Q1 : 0.999998629093, Q2 : 0.00123122008517, Q3 : 0.000911533017643, Q4 : -0.00061278603971}
2019-04-14 04:39:54.41: SIM {TimeUS : 46434752, Roll : 0.12, Pitch : 0.08, Yaw : 359.92, Alt : 34.6800003052, Lat : 49.2835704, Lng : -123.1150209, Q1 : 0.999998867512, Q2 : 0.00112398876809, Q3 : 0.00077182269888, Q4 : -0.000632656970993}
2019-04-14 04:39:54.51: SIM {TimeUS : 46534712, Roll : 0.1, Pitch : 0.07, Yaw : 359.92, Alt : 34.8899993896, Lat : 49.2835704, Lng : -123.1150208, Q1 : 0.999999165535, Q2 : 0.000923088693526, Q3 : 0.000651053560432, Q4 : -0.000648717570584}
2019-04-14 04:39:54.61: SIM {TimeUS : 46634672, Roll : 0.08, Pitch : 0.06, Yaw : 359.92, Alt : 35.1100006104, Lat : 49.2835704, Lng : -123.1150208, Q1 : 0.999999403954, Q2 : 0.000703269382939, Q3 : 0.000559854786843, Q4 : -0.000664887425955}
2019-04-14 04:39:54.71: SIM {TimeUS : 46735465, Roll : 0.05, Pitch : 0.05, Yaw : 359.92, Alt : 35.3199996948, Lat : 49.2835704, Lng : -123.1150208, Q1 : 0.999999523163, Q2 : 0.000485035357997, Q3 : 0.000464911485324, Q4 : -0.000675405259244}
2019-04-14 04:39:54.81: SIM {TimeUS : 46835425, Roll : 0.04, Pitch : 0.01, Yaw : 359.92, Alt : 35.5400009155, Lat : 49.2835704, Lng : -123.1150208, Q1 : 0.999999701977, Q2 : 0.000396928517148, Q3 : 0.000159997012815, Q4 : -0.000682356709149}
2019-04-14 04:39:54.91: SIM {TimeUS : 46935385, Roll : 0.03, Pitch : 0.0, Yaw : 359.92, Alt : 35.7599983215, Lat : 49.2835704, Lng : -123.1150208, Q1 : 0.999999701977, Q2 : 0.000345869106241, Q3 : -6.41545193503e-05, Q4 : -0.000693261972629}
2019-04-14 04:39:55.01: SIM {TimeUS : 47035345, Roll : 0.01, Pitch : -0.01, Yaw : 359.91, Alt : 35.9799995422, Lat : 49.2835704, Lng : -123.1150208, Q1 : 0.999999701977, Q2 : 0.00016487132234, Q3 : -0.000142875418533, Q4 : -0.000708187522832}
2019-04-14 04:39:55.11: SIM {TimeUS : 47135305, Roll : 0.01, Pitch : -0.01, Yaw : 359.91, Alt : 36.2000007629, Lat : 49.2835704, Lng : -123.1150207, Q1 : 0.999999761581, Q2 : 0.000100508528703, Q3 : -0.000106832841993, Q4 : -0.000720857467968}
2019-04-14 04:39:55.21: SIM {TimeUS : 47235265, Roll : 0.01, Pitch : 0.0, Yaw : 359.91, Alt : 36.4199981689, Lat : 49.2835704, Lng : -123.1150207, Q1 : 0.999999701977, Q2 : 0.000122797544464, Q3 : -5.47207564523e-05, Q4 : -0.000736881105695}
2019-04-14 04:39:55.31: SIM {TimeUS : 47335225, Roll : 0.0, Pitch : -0.02, Yaw : 359.91, Alt : 36.6500015259, Lat : 49.2835704, Lng : -123.1150207, Q1 : 0.999999701977, Q2 : -1.09334650915e-05, Q3 : -0.000177285459358, Q4 : -0.000753094092943}
2019-04-14 04:39:55.41: SIM {TimeUS : 47435185, Roll : -0.03, Pitch : -0.05, Yaw : 359.91, Alt : 36.8699989319, Lat : 49.2835704, Lng : -123.1150207, Q1 : 0.999999523163, Q2 : -0.000313083728543, Q3 : -0.000469105201773, Q4 : -0.000773531850427}
2019-04-14 04:39:55.51: SIM {TimeUS : 47535145, Roll : -0.07, Pitch : -0.08, Yaw : 359.9, Alt : 37.0900001526, Lat : 49.2835704, Lng : -123.1150207, Q1 : 0.999999165535, Q2 : -0.000664909603074, Q3 : -0.000712554319762, Q4 : -0.000804889190476}
2019-04-14 04:39:55.61: SIM {TimeUS : 47635105, Roll : -0.11, Pitch : -0.1, Yaw : 359.9, Alt : 37.3199996948, Lat : 49.2835704, Lng : -123.1150207, Q1 : 0.999998748302, Q2 : -0.00100410252344, Q3 : -0.00090744352201, Q4 : -0.000839631189592}
2019-04-14 04:39:55.71: SIM {TimeUS : 47735065, Roll : -0.12, Pitch : -0.11, Yaw : 359.89, Alt : 37.5400009155, Lat : 49.2835704, Lng : -123.1150207, Q1 : 0.999998509884, Q2 : -0.00111660547554, Q3 : -0.000969741435256, Q4 : -0.000882665335666}
2019-04-14 04:39:55.81: SIM {TimeUS : 47835025, Roll : -0.12, Pitch : -0.09, Yaw : 359.89, Alt : 37.7700004578, Lat : 49.2835704, Lng : -123.1150206, Q1 : 0.999998629093, Q2 : -0.00105191394687, Q3 : -0.000866570859216, Q4 : -0.000927657820284}
2019-04-14 04:39:55.91: SIM {TimeUS : 47934985, Roll : -0.09, Pitch : -0.06, Yaw : 359.88, Alt : 38.0, Lat : 49.2835704, Lng : -123.1150206, Q1 : 0.999998986721, Q2 : -0.000861910870299, Q3 : -0.000548791955225, Q4 : -0.000965880870353}
2019-04-14 04:39:56.01: SIM {TimeUS : 48034945, Roll : -0.07, Pitch : -0.03, Yaw : 359.88, Alt : 38.2200012207, Lat : 49.2835704, Lng : -123.1150206, Q1 : 0.99999922514, Q2 : -0.000639953417704, Q3 : -0.000295803649351, Q4 : -0.00100297993049}
2019-04-14 04:39:56.11: SIM {TimeUS : 48134905, Roll : -0.06, Pitch : -0.03, Yaw : 359.88, Alt : 38.4500007629, Lat : 49.2835704, Lng : -123.1150206, Q1 : 0.999999284744, Q2 : -0.000581056170631, Q3 : -0.000262343033683, Q4 : -0.00103761465289}
2019-04-14 04:39:56.21: SIM {TimeUS : 48234865, Roll : -0.07, Pitch : -0.01, Yaw : 359.87, Alt : 38.6800003052, Lat : 49.2835704, Lng : -123.1150206, Q1 : 0.99999922514, Q2 : -0.000628428417258, Q3 : -0.000151928776177, Q4 : -0.00105392816477}
2019-04-14 04:39:56.31: SIM {TimeUS : 48334825, Roll : -0.09, Pitch : 0.0, Yaw : 359.87, Alt : 38.9099998474, Lat : 49.2835704, Lng : -123.1150206, Q1 : 0.99999910593, Q2 : -0.000795786210801, Q3 : -1.17518211482e-05, Q4 : -0.00105520547368}
2019-04-14 04:39:56.41: SIM {TimeUS : 48434785, Roll : -0.09, Pitch : 0.01, Yaw : 359.87, Alt : 39.1399993896, Lat : 49.2835704, Lng : -123.1150206, Q1 : 0.99999910593, Q2 : -0.000814529892523, Q3 : 0.000116861177958, Q4 : -0.00104768411256}
2019-04-14 04:39:56.51: SIM {TimeUS : 48534745, Roll : -0.07, Pitch : 0.03, Yaw : 359.88, Alt : 39.3699989319, Lat : 49.2835706, Lng : -123.1150206, Q1 : 0.99999922514, Q2 : -0.000630438793451, Q3 : 0.00034508886165, Q4 : -0.00104095379356}
2019-04-14 04:39:56.61: SIM {TimeUS : 48634705, Roll : -0.04, Pitch : 0.04, Yaw : 359.88, Alt : 39.5999984741, Lat : 49.2835706, Lng : -123.1150206, Q1 : 0.999999344349, Q2 : -0.000394359958591, Q3 : 0.000360394187737, Q4 : -0.00102857046295}
2019-04-14 04:39:56.71: SIM {TimeUS : 48734665, Roll : -0.01, Pitch : 0.03, Yaw : 359.88, Alt : 39.8300018311, Lat : 49.2835706, Lng : -123.1150207, Q1 : 0.999999403954, Q2 : -0.000122129116789, Q3 : 0.000332161056576, Q4 : -0.00101774174254}
2019-04-14 04:39:56.81: SIM {TimeUS : 48835458, Roll : 0.02, Pitch : 0.05, Yaw : 359.88, Alt : 40.0600013733, Lat : 49.2835706, Lng : -123.1150207, Q1 : 0.999999344349, Q2 : 0.00017544181901, Q3 : 0.000477514957311, Q4 : -0.00101013644598}
2019-04-14 04:39:56.91: SIM {TimeUS : 48935418, Roll : 0.05, Pitch : 0.08, Yaw : 359.88, Alt : 40.2900009155, Lat : 49.2835706, Lng : -123.1150207, Q1 : 0.99999910593, Q2 : 0.000478705478599, Q3 : 0.000745157653, Q4 : -0.00101211597212}
2019-04-14 04:39:57.01: SIM {TimeUS : 49035378, Roll : 0.08, Pitch : 0.11, Yaw : 359.88, Alt : 40.5200004578, Lat : 49.2835706, Lng : -123.1150207, Q1 : 0.999998629093, Q2 : 0.000743005250115, Q3 : 0.00103708775714, Q4 : -0.00102967512794}
2019-04-14 04:39:57.11: SIM {TimeUS : 49135338, Roll : 0.07, Pitch : 0.15, Yaw : 359.87, Alt : 40.7599983215, Lat : 49.2835706, Lng : -123.1150207, Q1 : 0.99999833107, Q2 : 0.000672764144838, Q3 : 0.001326557016, Q4 : -0.00104969833046}
2019-04-14 04:39:57.21: SIM {TimeUS : 49235298, Roll : 0.03, Pitch : 0.17, Yaw : 359.87, Alt : 40.9900016785, Lat : 49.2835706, Lng : -123.1150207, Q1 : 0.999998211861, Q2 : 0.000272884062724, Q3 : 0.00153829739429, Q4 : -0.00108746369369}
2019-04-14 04:39:57.31: SIM {TimeUS : 49335258, Roll : -0.01, Pitch : 0.18, Yaw : 359.87, Alt : 41.2200012207, Lat : 49.2835706, Lng : -123.1150207, Q1 : 0.999998033047, Q2 : -8.90149531187e-05, Q3 : 0.00162934756372, Q4 : -0.00112337665632}
2019-04-14 04:39:57.41: SIM {TimeUS : 49435218, Roll : -0.03, Pitch : 0.16, Yaw : 359.86, Alt : 41.4500007629, Lat : 49.2835706, Lng : -123.1150207, Q1 : 0.999998211861, Q2 : -0.000275972182862, Q3 : 0.0014605341712, Q4 : -0.00115994992666}
2019-04-14 04:39:57.51: SIM {TimeUS : 49535178, Roll : -0.03, Pitch : 0.13, Yaw : 359.86, Alt : 41.6899986267, Lat : 49.2835706, Lng : -123.1150207, Q1 : 0.999998509884, Q2 : -0.00033250064007, Q3 : 0.00120681710541, Q4 : -0.00120315048844}
2019-04-14 04:39:57.61: SIM {TimeUS : 49635138, Roll : -0.02, Pitch : 0.13, Yaw : 359.85, Alt : 41.9199981689, Lat : 49.2835706, Lng : -123.1150207, Q1 : 0.999998509884, Q2 : -0.000231212208746, Q3 : 0.00115040654782, Q4 : -0.00125858897809}
2019-04-14 04:39:57.71: SIM {TimeUS : 49735098, Roll : 0.01, Pitch : 0.14, Yaw : 359.84, Alt : 42.1500015259, Lat : 49.2835706, Lng : -123.1150207, Q1 : 0.99999833107, Q2 : 0.000121818942716, Q3 : 0.00123933760915, Q4 : -0.00132165208925}
2019-04-14 04:39:57.81: SIM {TimeUS : 49835058, Roll : 0.06, Pitch : 0.14, Yaw : 359.84, Alt : 42.3899993896, Lat : 49.2835706, Lng : -123.1150207, Q1 : 0.999998033047, Q2 : 0.000579417101108, Q3 : 0.00127897004131, Q4 : -0.00138226652052}
2019-04-14 04:39:57.91: SIM {TimeUS : 49935018, Roll : 0.1, Pitch : 0.12, Yaw : 359.83, Alt : 42.6199989319, Lat : 49.2835706, Lng : -123.1150207, Q1 : 0.999997973442, Q2 : 0.000933494884521, Q3 : 0.00106082926504, Q4 : -0.00143248075619}
2019-04-14 04:39:58.01: SIM {TimeUS : 50034978, Roll : 0.1, Pitch : 0.08, Yaw : 359.83, Alt : 42.8600006104, Lat : 49.2835706, Lng : -123.1150207, Q1 : 0.999998211861, Q2 : 0.000957053096499, Q3 : 0.000725469202735, Q4 : -0.00147208222188}
2019-04-14 04:39:58.11: SIM {TimeUS : 50134938, Roll : 0.06, Pitch : 0.05, Yaw : 359.82, Alt : 43.0900001526, Lat : 49.2835706, Lng : -123.1150207, Q1 : 0.999998569489, Q2 : 0.000604616187047, Q3 : 0.000484999327455, Q4 : -0.00149091903586}
2019-04-14 04:39:58.21: SIM {TimeUS : 50234898, Roll : 0.0, Pitch : 0.05, Yaw : 359.82, Alt : 43.3300018311, Lat : 49.2835704, Lng : -123.1150207, Q1 : 0.999998807907, Q2 : 8.42199951876e-05, Q3 : 0.000438477611169, Q4 : -0.00149601849262}
2019-04-14 04:39:58.31: SIM {TimeUS : 50334858, Roll : -0.03, Pitch : 0.07, Yaw : 359.82, Alt : 43.5600013733, Lat : 49.2835704, Lng : -123.1150207, Q1 : 0.999998629093, Q2 : -0.000274413992884, Q3 : 0.000664250110276, Q4 : -0.00149114220403}
2019-04-14 04:39:58.41: SIM {TimeUS : 50434818, Roll : -0.04, Pitch : 0.09, Yaw : 359.82, Alt : 43.7999992371, Lat : 49.2835704, Lng : -123.1150207, Q1 : 0.999998509884, Q2 : -0.000425101345172, Q3 : 0.000795802799985, Q4 : -0.00148472399451}
2019-04-14 04:39:58.51: SIM {TimeUS : 50534778, Roll : -0.04, Pitch : 0.08, Yaw : 359.83, Alt : 44.0299987793, Lat : 49.2835704, Lng : -123.1150207, Q1 : 0.999998569489, Q2 : -0.000391686655348, Q3 : 0.000709269603249, Q4 : -0.00147923233453}
2019-04-14 04:39:58.61: SIM {TimeUS : 50634738, Roll : -0.05, Pitch : 0.06, Yaw : 359.82, Alt : 44.2700004578, Lat : 49.2835704, Lng : -123.1150207, Q1 : 0.999998629093, Q2 : -0.000436104281107, Q3 : 0.00056948751444, Q4 : -0.00148539955262}
2019-04-14 04:39:58.71: SIM {TimeUS : 50734698, Roll : -0.04, Pitch : 0.04, Yaw : 359.82, Alt : 44.5, Lat : 49.2835704, Lng : -123.1150206, Q1 : 0.999998688698, Q2 : -0.000393135298509, Q3 : 0.000409447355196, Q4 : -0.00149853096809}
2019-04-14 04:39:58.81: SIM {TimeUS : 50834658, Roll : -0.02, Pitch : 0.03, Yaw : 359.82, Alt : 44.7400016785, Lat : 49.2835704, Lng : -123.1150206, Q1 : 0.999998807907, Q2 : -0.00021577141888, Q3 : 0.00031489340472, Q4 : -0.00151610537432}
2019-04-14 04:39:58.91: SIM {TimeUS : 50935451, Roll : -0.01, Pitch : 0.03, Yaw : 359.82, Alt : 44.9799995422, Lat : 49.2835704, Lng : -123.1150206, Q1 : 0.999998807907, Q2 : -0.000110457855044, Q3 : 0.000277355953585, Q4 : -0.0015356693184}
2019-04-14 04:39:59.01: SIM {TimeUS : 51035411, Roll : -0.01, Pitch : 0.01, Yaw : 359.82, Alt : 45.2099990845, Lat : 49.2835704, Lng : -123.1150206, Q1 : 0.999998748302, Q2 : -0.000124772981508, Q3 : 0.000155339293997, Q4 : -0.00155824364629}
2019-04-14 04:39:59.11: SIM {TimeUS : 51135371, Roll : -0.02, Pitch : -0.01, Yaw : 359.81, Alt : 45.4500007629, Lat : 49.2835703, Lng : -123.1150206, Q1 : 0.999998688698, Q2 : -0.000186978708371, Q3 : -0.000113074165711, Q4 : -0.00158618553542}
2019-04-14 04:39:59.21: SIM {TimeUS : 51235331, Roll : -0.02, Pitch : -0.03, Yaw : 359.81, Alt : 45.6800003052, Lat : 49.2835703, Lng : -123.1150206, Q1 : 0.999998629093, Q2 : -0.000227125026868, Q3 : -0.0003091544786, Q4 : -0.0016151239397}
2019-04-14 04:39:59.31: SIM {TimeUS : 51335291, Roll : -0.02, Pitch : -0.04, Yaw : 359.81, Alt : 45.9199981689, Lat : 49.2835703, Lng : -123.1150206, Q1 : 0.999998569489, Q2 : -0.000209664620343, Q3 : -0.000417749775806, Q4 : -0.00164552289061}
2019-04-14 04:39:59.41: SIM {TimeUS : 51435251, Roll : -0.02, Pitch : -0.04, Yaw : 359.8, Alt : 46.1500015259, Lat : 49.2835703, Lng : -123.1150206, Q1 : 0.999998450279, Q2 : -0.000244682101766, Q3 : -0.000435517198639, Q4 : -0.00168285216205}
2019-04-14 04:39:59.51: SIM {TimeUS : 51535211, Roll : -0.04, Pitch : -0.04, Yaw : 359.8, Alt : 46.3699989319, Lat : 49.2835703, Lng : -123.1150206, Q1 : 0.99999833107, Q2 : -0.000434233428678, Q3 : -0.000353899667971, Q4 : -0.00172282836866}
2019-04-14 04:39:59.61: SIM {TimeUS : 51635171, Roll : -0.08, Pitch : -0.03, Yaw : 359.79, Alt : 46.5900001526, Lat : 49.2835703, Lng : -123.1150206, Q1 : 0.999998152256, Q2 : -0.000747448415495, Q3 : -0.00027783139376, Q4 : -0.00175870896783}
2019-04-14 04:39:59.71: SIM {TimeUS : 51735131, Roll : -0.11, Pitch : -0.03, Yaw : 359.79, Alt : 46.8100013733, Lat : 49.2835703, Lng : -123.1150206, Q1 : 0.999997913837, Q2 : -0.000967902189586, Q3 : -0.000270725751761, Q4 : -0.00179146183655}
2019-04-14 04:39:59.81: SIM {TimeUS : 51835091, Roll : -0.11, Pitch : -0.02, Yaw : 359.79, Alt : 47.0200004578, Lat : 49.2835703, Lng : -123.1150206, Q1 : 0.999997794628, Q2 : -0.00100715563167, Q3 : -0.00021390405891, Q4 : -0.0018214652082}
2019-04-14 04:39:59.91: SIM {TimeUS : 51935051, Roll : -0.1, Pitch : 0.0, Yaw : 359.78, Alt : 47.2200012207, Lat : 49.2835703, Lng : -123.1150206, Q1 : 0.999997913837, Q2 : -0.000888835056685, Q3 : -4.10646171076e-05, Q4 : -0.00184697972145}
2019-04-14 04:40:00.01: SIM {TimeUS : 52035011, Roll : -0.07, Pitch : 0.0, Yaw : 359.78, Alt : 47.4199981689, Lat : 49.2835703, Lng : -123.1150206, Q1 : 0.999998033047, Q2 : -0.000687904539518, Q3 : 4.88485529786e-05, Q4 : -0.0018703895621}
2019-04-14 04:40:00.11: SIM {TimeUS : 52134971, Roll : -0.05, Pitch : 0.0, Yaw : 359.78, Alt : 47.6100006104, Lat : 49.2835703, Lng : -123.1150206, Q1 : 0.999998092651, Q2 : -0.000510419893544, Q3 : 2.27408381761e-05, Q4 : -0.001893272507}
2019-04-14 04:40:00.21: SIM {TimeUS : 52234931, Roll : -0.06, Pitch : -0.01, Yaw : 359.78, Alt : 47.7799987793, Lat : 49.2835703, Lng : -123.1150206, Q1 : 0.999997973442, Q2 : -0.000569355441257, Q3 : -0.000172103769728, Q4 : -0.0019171491731}
2019-04-14 04:40:00.31: SIM {TimeUS : 52334891, Roll : -0.06, Pitch : -0.05, Yaw : 359.77, Alt : 47.9399986267, Lat : 49.2835703, Lng : -123.1150206, Q1 : 0.999997854233, Q2 : -0.00056454440346, Q3 : -0.000450125895441, Q4 : -0.0019431815017}
2019-04-14 04:40:00.41: SIM {TimeUS : 52434851, Roll : -0.04, Pitch : -0.07, Yaw : 359.77, Alt : 48.0999984741, Lat : 49.2835703, Lng : -123.1150206, Q1 : 0.999997735023, Q2 : -0.000431215099525, Q3 : -0.000685697363224, Q4 : -0.00197142222896}
2019-04-14 04:40:00.51: SIM {TimeUS : 52534811, Roll : -0.03, Pitch : -0.09, Yaw : 359.77, Alt : 48.2400016785, Lat : 49.2835703, Lng : -123.1150206, Q1 : 0.99999755621, Q2 : -0.000342733663274, Q3 : -0.000849722593557, Q4 : -0.00200106226839}
2019-04-14 04:40:00.61: SIM {TimeUS : 52634771, Roll : -0.03, Pitch : -0.1, Yaw : 359.76, Alt : 48.3699989319, Lat : 49.2835703, Lng : -123.1150206, Q1 : 0.999997437, Q2 : -0.000329299044097, Q3 : -0.000941504084039, Q4 : -0.00203141570091}
2019-04-14 04:40:00.71: SIM {TimeUS : 52734731, Roll : 0.0, Pitch : -0.09, Yaw : 359.76, Alt : 48.4799995422, Lat : 49.2835703, Lng : -123.1150206, Q1 : 0.999997496605, Q2 : -8.21186986286e-05, Q3 : -0.000866524060257, Q4 : -0.00206075655296}
2019-04-14 04:40:00.81: SIM {TimeUS : 52834691, Roll : 0.03, Pitch : -0.07, Yaw : 359.76, Alt : 48.5900001526, Lat : 49.2835703, Lng : -123.1150206, Q1 : 0.99999755621, Q2 : 0.000261034700088, Q3 : -0.000680432945956, Q4 : -0.00209061382338}
2019-04-14 04:40:00.91: SIM {TimeUS : 52935484, Roll : 0.06, Pitch : -0.05, Yaw : 359.75, Alt : 48.6800003052, Lat : 49.2835703, Lng : -123.1150206, Q1 : 0.999997496605, Q2 : 0.000530863879248, Q3 : -0.000464772689156, Q4 : -0.00212256959639}
2019-04-14 04:40:01.01: SIM {TimeUS : 53035444, Roll : 0.07, Pitch : -0.03, Yaw : 359.75, Alt : 48.7599983215, Lat : 49.2835703, Lng : -123.1150207, Q1 : 0.999997437, Q2 : 0.000635855831206, Q3 : -0.000273887999356, Q4 : -0.00215242104605}
2019-04-14 04:40:01.11: SIM {TimeUS : 53135404, Roll : 0.07, Pitch : -0.02, Yaw : 359.75, Alt : 48.8300018311, Lat : 49.2835703, Lng : -123.1150207, Q1 : 0.999997377396, Q2 : 0.000678006035741, Q3 : -0.000201841001399, Q4 : -0.00217689434066}
2019-04-14 04:40:01.21: SIM {TimeUS : 53235364, Roll : 0.06, Pitch : -0.03, Yaw : 359.74, Alt : 48.8899993896, Lat : 49.2835703, Lng : -123.1150207, Q1 : 0.999997377396, Q2 : 0.000580599531531, Q3 : -0.000299185951008, Q4 : -0.00219662417658}
2019-04-14 04:40:01.31: SIM {TimeUS : 53335324, Roll : 0.03, Pitch : -0.04, Yaw : 359.74, Alt : 48.9399986267, Lat : 49.2835703, Lng : -123.1150207, Q1 : 0.999997437, Q2 : 0.000308817572659, Q3 : -0.000355218915502, Q4 : -0.00221165362746}
2019-04-14 04:40:01.41: SIM {TimeUS : 53435284, Roll : 0.02, Pitch : -0.05, Yaw : 359.74, Alt : 48.9900016785, Lat : 49.2835703, Lng : -123.1150207, Q1 : 0.999997377396, Q2 : 0.000253381440416, Q3 : -0.000516768137459, Q4 : -0.00222730846144}
2019-04-14 04:40:01.51: SIM {TimeUS : 53535244, Roll : 0.11, Pitch : -0.19, Yaw : 359.74, Alt : 49.0200004578, Lat : 49.2835703, Lng : -123.1150207, Q1 : 0.999995470047, Q2 : 0.00101364974398, Q3 : -0.00173562730197, Q4 : -0.00224303640425}
2019-04-14 04:40:01.61: SIM {TimeUS : 53635204, Roll : 0.36, Pitch : -0.53, Yaw : 359.73, Alt : 49.0600013733, Lat : 49.2835703, Lng : -123.1150207, Q1 : 0.999981224537, Q2 : 0.00318407872692, Q3 : -0.00471498724073, Q4 : -0.00226733344607}
2019-04-14 04:40:01.71: SIM {TimeUS : 53735164, Roll : 0.79, Pitch : -1.09, Yaw : 359.73, Alt : 49.0800018311, Lat : 49.2835704, Lng : -123.1150207, Q1 : 0.999927341938, Q2 : 0.0069064265117, Q3 : -0.00961062498391, Q4 : -0.00228151585907}
2019-04-14 04:40:01.81: SIM {TimeUS : 53835124, Roll : 1.34, Pitch : -1.84, Yaw : 359.71, Alt : 49.1100006104, Lat : 49.2835704, Lng : -123.1150206, Q1 : 0.999798595905, Q2 : 0.0117350677028, Q3 : -0.0161229372025, Q4 : -0.00227519520558}
2019-04-14 04:40:01.91: SIM {TimeUS : 53935084, Roll : 1.95, Pitch : -2.71, Yaw : 359.69, Alt : 49.1300010681, Lat : 49.2835704, Lng : -123.1150206, Q1 : 0.999571382999, Q2 : 0.0170359499753, Q3 : -0.0237014293671, Q4 : -0.00223706429824}
2019-04-14 04:40:02.01: SIM {TimeUS : 54035044, Roll : 2.52, Pitch : -3.55, Yaw : 359.67, Alt : 49.1500015259, Lat : 49.2835706, Lng : -123.1150205, Q1 : 0.999276041985, Q2 : 0.0219001583755, Q3 : -0.0310353413224, Q4 : -0.00214456953108}
2019-04-14 04:40:02.11: SIM {TimeUS : 54135004, Roll : 2.95, Pitch : -4.25, Yaw : 359.66, Alt : 49.1599998474, Lat : 49.2835708, Lng : -123.1150204, Q1 : 0.998977124691, Q2 : 0.0256972983479, Q3 : -0.037153840065, Q4 : -0.00199082214385}
2019-04-14 04:40:02.21: SIM {TimeUS : 54234964, Roll : 3.28, Pitch : -4.76, Yaw : 359.66, Alt : 49.1800003052, Lat : 49.2835709, Lng : -123.1150202, Q1 : 0.998723983765, Q2 : 0.0284868404269, Q3 : -0.0416633971035, Q4 : -0.00176906457637}
2019-04-14 04:40:02.31: SIM {TimeUS : 54334924, Roll : 3.52, Pitch : -5.12, Yaw : 359.67, Alt : 49.1899986267, Lat : 49.2835712, Lng : -123.11502, Q1 : 0.998526751995, Q2 : 0.0305752810091, Q3 : -0.0448022708297, Q4 : -0.00149168865755}
2019-04-14 04:40:02.41: SIM {TimeUS : 54434884, Roll : 3.71, Pitch : -5.42, Yaw : 359.68, Alt : 49.2000007629, Lat : 49.2835715, Lng : -123.1150197, Q1 : 0.998356282711, Q2 : 0.0322572104633, Q3 : -0.0473573878407, Q4 : -0.00120516587049}
2019-04-14 04:40:02.51: SIM {TimeUS : 54534844, Roll : 3.91, Pitch : -5.7, Yaw : 359.69, Alt : 49.2099990845, Lat : 49.2835719, Lng : -123.1150193, Q1 : 0.998181462288, Q2 : 0.0339623503387, Q3 : -0.0497940592468, Q4 : -0.000917869969271}
2019-04-14 04:40:02.61: SIM {TimeUS : 54634804, Roll : 4.11, Pitch : -5.99, Yaw : 359.7, Alt : 49.2099990845, Lat : 49.2835722, Lng : -123.1150188, Q1 : 0.997987210751, Q2 : 0.0357309505343, Q3 : -0.0523876771331, Q4 : -0.000650113855954}
2019-04-14 04:40:02.71: SIM {TimeUS : 54734764, Roll : 4.31, Pitch : -6.31, Yaw : 359.71, Alt : 49.2200012207, Lat : 49.2835727, Lng : -123.1150183, Q1 : 0.997772991657, Q2 : 0.0374790355563, Q3 : -0.0551744475961, Q4 : -0.000412976165535}
2019-04-14 04:40:02.81: SIM {TimeUS : 54834724, Roll : 4.49, Pitch : -6.6, Yaw : 359.71, Alt : 49.2299995422, Lat : 49.2835733, Lng : -123.1150177, Q1 : 0.997575342655, Q2 : 0.0390270911157, Q3 : -0.0576218813658, Q4 : -0.000188925521798}
2019-04-14 04:40:02.91: SIM {TimeUS : 54934684, Roll : 4.65, Pitch : -6.81, Yaw : 359.72, Alt : 49.2299995422, Lat : 49.2835739, Lng : -123.1150171, Q1 : 0.997412383556, Q2 : 0.040371697396, Q3 : -0.0594869554043, Q4 : 1.87435216503e-05}
2019-04-14 04:40:03.01: SIM {TimeUS : 55035477, Roll : 4.75, Pitch : -6.95, Yaw : 359.73, Alt : 49.2400016785, Lat : 49.2835746, Lng : -123.1150163, Q1 : 0.997301101685, Q2 : 0.0412609316409, Q3 : -0.0607294999063, Q4 : 0.000181999217602}
2019-04-14 04:40:03.11: SIM {TimeUS : 55135437, Roll : 4.82, Pitch : -7.06, Yaw : 359.73, Alt : 49.2400016785, Lat : 49.2835753, Lng : -123.1150156, Q1 : 0.997219920158, Q2 : 0.0418881550431, Q3 : -0.061625469476, Q4 : 0.000291160074994}
2019-04-14 04:40:03.21: SIM {TimeUS : 55235397, Roll : 4.88, Pitch : -7.15, Yaw : 359.73, Alt : 49.25, Lat : 49.2835762, Lng : -123.1150147, Q1 : 0.997148096561, Q2 : 0.042358905077, Q3 : -0.062460385263, Q4 : 0.000356271135388}
2019-04-14 04:40:03.31: SIM {TimeUS : 55335357, Roll : 5.03, Pitch : -7.24, Yaw : 359.75, Alt : 49.25, Lat : 49.283577, Lng : -123.1150138, Q1 : 0.99704426527, Q2 : 0.0436718314886, Q3 : -0.0632070079446, Q4 : 0.000629972142633}
2019-04-14 04:40:03.41: SIM {TimeUS : 55435317, Roll : 5.44, Pitch : -7.26, Yaw : 0.09, Alt : 49.2599983215, Lat : 49.283578, Lng : -123.1150129, Q1 : 0.996861636639, Q2 : 0.0474971011281, Q3 : -0.0632145255804, Q4 : 0.00385123468004}
2019-04-14 04:40:03.51: SIM {TimeUS : 55535277, Roll : 6.08, Pitch : -7.29, Yaw : 1.41, Alt : 49.2599983215, Lat : 49.2835789, Lng : -123.1150118, Q1 : 0.996454060078, Q2 : 0.0537115707994, Q3 : -0.0628285929561, Q4 : 0.0157152805477}
2019-04-14 04:40:03.61: SIM {TimeUS : 55635237, Roll : 6.59, Pitch : -7.56, Yaw : 4.26, Alt : 49.2599983215, Lat : 49.28358, Lng : -123.1150107, Q1 : 0.995338201523, Q2 : 0.0598064027727, Q3 : -0.0636952891946, Q4 : 0.0408414714038}
2019-04-14 04:40:03.71: SIM {TimeUS : 55735197, Roll : 6.68, Pitch : -8.19, Yaw : 8.7, Alt : 49.2599983215, Lat : 49.283581, Lng : -123.1150095, Q1 : 0.992555856705, Q2 : 0.0634399428964, Q3 : -0.0667495802045, Q4 : 0.0797043070197}
2019-04-14 04:40:03.81: SIM {TimeUS : 55835157, Roll : 6.12, Pitch : -9.12, Yaw : 14.55, Alt : 49.2599983215, Lat : 49.283582, Lng : -123.1150082, Q1 : 0.986843168736, Q2 : 0.0629052817822, Q3 : -0.0720529779792, Q4 : 0.130352735519}
2019-04-14 04:40:03.91: SIM {TimeUS : 55935117, Roll : 4.59, Pitch : -10.2, Yaw : 21.44, Alt : 49.2599983215, Lat : 49.2835832, Lng : -123.1150068, Q1 : 0.977194070816, Q2 : 0.0558009520173, Q3 : -0.0798566415906, Q4 : 0.188682004809}
2019-04-14 04:40:04.01: SIM {TimeUS : 56035077, Roll : 2.12, Pitch : -11.18, Yaw : 28.63, Alt : 49.2700004578, Lat : 49.2835843, Lng : -123.1150053, Q1 : 0.963721871376, Q2 : 0.0419990681112, Q3 : -0.0898223668337, Q4 : 0.247806698084}
2019-04-14 04:40:04.11: SIM {TimeUS : 56135037, Roll : -0.81, Pitch : -11.87, Yaw : 35.32, Alt : 49.2700004578, Lat : 49.2835856, Lng : -123.1150037, Q1 : 0.947935163975, Q2 : 0.024690117687, Q3 : -0.100740894675, Q4 : 0.301099061966}
2019-04-14 04:40:04.21: SIM {TimeUS : 56234997, Roll : -3.56, Pitch : -12.24, Yaw : 40.84, Alt : 49.2700004578, Lat : 49.283587, Lng : -123.1150021, Q1 : 0.932501673698, Q2 : 0.00825883820653, Q3 : -0.110721372068, Q4 : 0.343676030636}
2019-04-14 04:40:04.31: SIM {TimeUS : 56334957, Roll : -5.59, Pitch : -12.39, Yaw : 44.73, Alt : 49.2700004578, Lat : 49.2835884, Lng : -123.1150005, Q1 : 0.920273423195, Q2 : -0.00381583883427, Q3 : -0.118141673505, Q4 : 0.372994452715}
2019-04-14 04:40:04.41: SIM {TimeUS : 56434917, Roll : -6.64, Pitch : -12.46, Yaw : 46.87, Alt : 49.2700004578, Lat : 49.2835898, Lng : -123.1149988, Q1 : 0.913049459457, Q2 : -0.0097383344546, Q3 : -0.122317187488, Q4 : 0.388953030109}
2019-04-14 04:40:04.51: SIM {TimeUS : 56534877, Roll : -6.72, Pitch : -12.61, Yaw : 47.42, Alt : 49.2700004578, Lat : 49.2835915, Lng : -123.1149972, Q1 : 0.911047875881, Q2 : -0.00926098413765, Q3 : -0.123837940395, Q4 : 0.393154084682}
2019-04-14 04:40:04.61: SIM {TimeUS : 56634837, Roll : -6.03, Pitch : -12.92, Yaw : 46.69, Alt : 49.2700004578, Lat : 49.2835932, Lng : -123.1149955, Q1 : 0.913375556469, Q2 : -0.00346660916694, Q3 : -0.123954661191, Q4 : 0.387773633003}
2019-04-14 04:40:04.71: SIM {TimeUS : 56734797, Roll : -4.81, Pitch : -13.43, Yaw : 44.98, Alt : 49.2700004578, Lat : 49.283595, Lng : -123.1149938, Q1 : 0.918647885323, Q2 : 0.00617962284014, Q3 : -0.123964853585, Q4 : 0.37507417798}
2019-04-14 04:40:04.81: SIM {TimeUS : 56834757, Roll : -3.3, Pitch : -14.06, Yaw : 42.62, Alt : 49.2700004578, Lat : 49.2835969, Lng : -123.1149921, Q1 : 0.92549598217, Q2 : 0.0178379788995, Q3 : -0.124448761344, Q4 : 0.357283592224}
2019-04-14 04:40:04.91: SIM {TimeUS : 56934717, Roll : -1.71, Pitch : -14.67, Yaw : 39.9, Alt : 49.2700004578, Lat : 49.2835989, Lng : -123.1149904, Q1 : 0.932814598083, Q2 : 0.029635861516, Q3 : -0.125114247203, Q4 : 0.336637943983}
2019-04-14 04:40:05.01: SIM {TimeUS : 57034677, Roll : -0.19, Pitch : -15.15, Yaw : 37.14, Alt : 49.2799987793, Lat : 49.2836008, Lng : -123.1149885, Q1 : 0.939714193344, Q2 : 0.0404207631946, Q3 : -0.125497296453, Q4 : 0.31552156806}
2019-04-14 04:40:05.11: SIM {TimeUS : 57135470, Roll : 1.13, Pitch : -15.44, Yaw : 34.62, Alt : 49.2799987793, Lat : 49.283603, Lng : -123.1149866, Q1 : 0.9455986619, Q2 : 0.0493718758225, Q3 : -0.125358372927, Q4 : 0.296126514673}
2019-04-14 04:40:05.21: SIM {TimeUS : 57235430, Roll : 2.13, Pitch : -15.55, Yaw : 32.62, Alt : 49.2799987793, Lat : 49.2836051, Lng : -123.1149845, Q1 : 0.950046479702, Q2 : 0.0556811876595, Q3 : -0.124698907137, Q4 : 0.280644774437}
2019-04-14 04:40:05.31: SIM {TimeUS : 57335390, Roll : 2.74, Pitch : -15.55, Yaw : 31.26, Alt : 49.2799987793, Lat : 49.2836074, Lng : -123.1149824, Q1 : 0.952997207642, Q2 : 0.0592940188944, Q3 : -0.12393066287, Q4 : 0.270040392876}
2019-04-14 04:40:05.41: SIM {TimeUS : 57435350, Roll : 2.95, Pitch : -15.54, Yaw : 30.59, Alt : 49.2799987793, Lat : 49.2836096, Lng : -123.1149801, Q1 : 0.954477787018, Q2 : 0.0603101290762, Q3 : -0.123691730201, Q4 : 0.264641702175}
2019-04-14 04:40:05.51: SIM {TimeUS : 57535310, Roll : 2.8, Pitch : -15.56, Yaw : 30.55, Alt : 49.2799987793, Lat : 49.2836117, Lng : -123.1149777, Q1 : 0.954624652863, Q2 : 0.0590766631067, Q3 : -0.124211020768, Q4 : 0.264146506786}
2019-04-14 04:40:05.61: SIM {TimeUS : 57635270, Roll : 2.36, Pitch : -15.63, Yaw : 31.03, Alt : 49.2799987793, Lat : 49.2836141, Lng : -123.1149753, Q1 : 0.953631162643, Q2 : 0.0560943447053, Q3 : -0.125531792641, Q4 : 0.267736494541}
2019-04-14 04:40:05.71: SIM {TimeUS : 57735230, Roll : 1.73, Pitch : -15.73, Yaw : 31.91, Alt : 49.2799987793, Lat : 49.2836165, Lng : -123.1149727, Q1 : 0.951736211777, Q2 : 0.0520333945751, Q3 : -0.127485975623, Q4 : 0.274295568466}
2019-04-14 04:40:05.81: SIM {TimeUS : 57835190, Roll : 1.01, Pitch : -15.86, Yaw : 33.01, Alt : 49.2799987793, Lat : 49.2836189, Lng : -123.1149701, Q1 : 0.949224770069, Q2 : 0.0476474091411, Q3 : -0.129823803902, Q4 : 0.282573521137}
2019-04-14 04:40:05.91: SIM {TimeUS : 57935150, Roll : 0.31, Pitch : -16.01, Yaw : 34.17, Alt : 49.2799987793, Lat : 49.2836213, Lng : -123.1149675, Q1 : 0.946421146393, Q2 : 0.0435217283666, Q3 : -0.132331684232, Q4 : 0.291343748569}
2019-04-14 04:40:06.01: SIM {TimeUS : 58035110, Roll : -0.31, Pitch : -16.14, Yaw : 35.26, Alt : 49.2799987793, Lat : 49.2836238, Lng : -123.1149646, Q1 : 0.943683326244, Q2 : 0.039985306561, Q3 : -0.134667307138, Q4 : 0.299545794725}
2019-04-14 04:40:06.11: SIM {TimeUS : 58135070, Roll : -0.81, Pitch : -16.25, Yaw : 36.17, Alt : 49.2799987793, Lat : 49.2836262, Lng : -123.114962, Q1 : 0.941324830055, Q2 : 0.0372123755515, Q3 : -0.136605620384, Q4 : 0.306368708611}
2019-04-14 04:40:06.21: SIM {TimeUS : 58235030, Roll : -1.14, Pitch : -16.31, Yaw : 36.82, Alt : 49.2799987793, Lat : 49.2836288, Lng : -123.1149592, Q1 : 0.939593553543, Q2 : 0.0354075804353, Q3 : -0.137772336602, Q4 : 0.311334341764}
2019-04-14 04:40:06.31: SIM {TimeUS : 58334990, Roll : -1.28, Pitch : -16.32, Yaw : 37.2, Alt : 49.2799987793, Lat : 49.2836315, Lng : -123.1149564, Q1 : 0.938598453999, Q2 : 0.0347566343844, Q3 : -0.138099774718, Q4 : 0.314250618219}
2019-04-14 04:40:06.41: SIM {TimeUS : 58434950, Roll : -1.27, Pitch : -16.33, Yaw : 37.31, Alt : 49.2799987793, Lat : 49.2836341, Lng : -123.1149535, Q1 : 0.938298106194, Q2 : 0.0349891595542, Q3 : -0.138090267777, Q4 : 0.315124601126}
2019-04-14 04:40:06.51: SIM {TimeUS : 58534910, Roll : -1.11, Pitch : -16.35, Yaw : 37.18, Alt : 49.2799987793, Lat : 49.2836369, Lng : -123.1149506, Q1 : 0.938581883907, Q2 : 0.0362142995, Q3 : -0.137880504131, Q4 : 0.31423163414}
2019-04-14 04:40:06.61: SIM {TimeUS : 58634870, Roll : -0.83, Pitch : -16.37, Yaw : 36.86, Alt : 49.2799987793, Lat : 49.2836396, Lng : -123.1149476, Q1 : 0.939321696758, Q2 : 0.0381788387895, Q3 : -0.13741903007, Q4 : 0.311982601881}
2019-04-14 04:40:06.71: SIM {TimeUS : 58734830, Roll : -0.51, Pitch : -16.41, Yaw : 36.43, Alt : 49.2799987793, Lat : 49.2836424, Lng : -123.1149448, Q1 : 0.940341055393, Q2 : 0.040359094739, Q3 : -0.136963754892, Q4 : 0.308821588755}
2019-04-14 04:40:06.81: SIM {TimeUS : 58834790, Roll : -0.21, Pitch : -16.46, Yaw : 35.95, Alt : 49.2799987793, Lat : 49.2836451, Lng : -123.1149418, Q1 : 0.941451847553, Q2 : 0.0424565188587, Q3 : -0.136747449636, Q4 : 0.30523109436}
2019-04-14 04:40:06.91: SIM {TimeUS : 58934750, Roll : 0.05, Pitch : -16.53, Yaw : 35.48, Alt : 49.2799987793, Lat : 49.2836481, Lng : -123.1149388, Q1 : 0.942510545254, Q2 : 0.0442978180945, Q3 : -0.136764511466, Q4 : 0.301673859358}
2019-04-14 04:40:07.01: SIM {TimeUS : 59034710, Roll : 0.26, Pitch : -16.6, Yaw : 35.07, Alt : 49.2799987793, Lat : 49.283651, Lng : -123.1149357, Q1 : 0.943408668041, Q2 : 0.0457420609891, Q3 : -0.137010157108, Q4 : 0.298523008823}
2019-04-14 04:40:07.11: SIM {TimeUS : 59134670, Roll : 0.41, Pitch : -16.67, Yaw : 34.76, Alt : 49.2900009155, Lat : 49.2836537, Lng : -123.1149327, Q1 : 0.944097578526, Q2 : 0.0467188358307, Q3 : -0.137271553278, Q4 : 0.296063601971}
2019-04-14 04:40:07.21: SIM {TimeUS : 59235463, Roll : 0.49, Pitch : -16.71, Yaw : 34.55, Alt : 49.2900009155, Lat : 49.2836567, Lng : -123.1149295, Q1 : 0.944543719292, Q2 : 0.0472543463111, Q3 : -0.137532398105, Q4 : 0.294430047274}
2019-04-14 04:40:07.31: SIM {TimeUS : 59335423, Roll : 0.52, Pitch : -16.73, Yaw : 34.45, Alt : 49.2900009155, Lat : 49.2836597, Lng : -123.1149263, Q1 : 0.944750845432, Q2 : 0.0474169887602, Q3 : -0.13765218854, Q4 : 0.293682545424}
2019-04-14 04:40:07.41: SIM {TimeUS : 59435383, Roll : 0.5, Pitch : -16.74, Yaw : 34.46, Alt : 49.2900009155, Lat : 49.2836627, Lng : -123.1149232, Q1 : 0.944721341133, Q2 : 0.0472890920937, Q3 : -0.137826919556, Q4 : 0.293716102839}
2019-04-14 04:40:07.51: SIM {TimeUS : 59535343, Roll : 0.44, Pitch : -16.76, Yaw : 34.55, Alt : 49.2900009155, Lat : 49.2836657, Lng : -123.1149199, Q1 : 0.944494247437, Q2 : 0.0469454266131, Q3 : -0.138098031282, Q4 : 0.294373452663}
2019-04-14 04:40:07.61: SIM {TimeUS : 59635303, Roll : 0.34, Pitch : -16.8, Yaw : 34.7, Alt : 49.2900009155, Lat : 49.2836687, Lng : -123.1149167, Q1 : 0.944117963314, Q2 : 0.0464510470629, Q3 : -0.13854894042, Q4 : 0.295445144176}
2019-04-14 04:40:07.71: SIM {TimeUS : 59735263, Roll : 0.23, Pitch : -16.83, Yaw : 34.87, Alt : 49.2900009155, Lat : 49.2836717, Lng : -123.1149134, Q1 : 0.943674683571, Q2 : 0.0457628592849, Q3 : -0.139049679041, Q4 : 0.296730518341}
2019-04-14 04:40:07.81: SIM {TimeUS : 59835223, Roll : 0.1, Pitch : -16.86, Yaw : 35.05, Alt : 49.2900009155, Lat : 49.2836747, Lng : -123.1149101, Q1 : 0.943217277527, Q2 : 0.0450600497425, Q3 : -0.13958363235, Q4 : 0.298038989305}
2019-04-14 04:40:07.91: SIM {TimeUS : 59935183, Roll : 0.0, Pitch : -16.91, Yaw : 35.21, Alt : 49.2900009155, Lat : 49.2836778, Lng : -123.1149068, Q1 : 0.942788600922, Q2 : 0.0444262214005, Q3 : -0.140186399221, Q4 : 0.299205213785}
2019-04-14 04:40:08.01: SIM {TimeUS : 60035143, Roll : -0.1, Pitch : -16.96, Yaw : 35.34, Alt : 49.2900009155, Lat : 49.2836808, Lng : -123.1149035, Q1 : 0.942430436611, Q2 : 0.0439296886325, Q3 : -0.14080773294, Q4 : 0.300113737583}
2019-04-14 04:40:08.11: SIM {TimeUS : 60135103, Roll : -0.18, Pitch : -17.0, Yaw : 35.42, Alt : 49.2900009155, Lat : 49.2836839, Lng : -123.1149001, Q1 : 0.942187786102, Q2 : 0.0435029342771, Q3 : -0.141347140074, Q4 : 0.300683647394}
2019-04-14 04:40:08.21: SIM {TimeUS : 60235063, Roll : -0.22, Pitch : -17.03, Yaw : 35.46, Alt : 49.2900009155, Lat : 49.283687, Lng : -123.1148967, Q1 : 0.942079126835, Q2 : 0.0432254858315, Q3 : -0.141682043672, Q4 : 0.30090662837}
2019-04-14 04:40:08.31: SIM {TimeUS : 60335023, Roll : -0.24, Pitch : -17.05, Yaw : 35.45, Alt : 49.2999992371, Lat : 49.2836901, Lng : -123.1148933, Q1 : 0.942085504532, Q2 : 0.0431195162237, Q3 : -0.141917899251, Q4 : 0.300790637732}
2019-04-14 04:40:08.41: SIM {TimeUS : 60434983, Roll : -0.21, Pitch : -17.08, Yaw : 35.4, Alt : 49.2999992371, Lat : 49.2836932, Lng : -123.1148899, Q1 : 0.942162036896, Q2 : 0.0434178672731, Q3 : -0.142109572887, Q4 : 0.300417095423}
2019-04-14 04:40:08.51: SIM {TimeUS : 60534943, Roll : -0.15, Pitch : -17.12, Yaw : 35.32, Alt : 49.2999992371, Lat : 49.2836965, Lng : -123.1148865, Q1 : 0.942292094231, Q2 : 0.0439490452409, Q3 : -0.142303600907, Q4 : 0.299839526415}
2019-04-14 04:40:08.61: SIM {TimeUS : 60634903, Roll : -0.06, Pitch : -17.17, Yaw : 35.22, Alt : 49.2999992371, Lat : 49.2836996, Lng : -123.1148831, Q1 : 0.94245249033, Q2 : 0.0446424447, Q3 : -0.142499506474, Q4 : 0.299139231443}
2019-04-14 04:40:08.71: SIM {TimeUS : 60734863, Roll : 0.02, Pitch : -17.22, Yaw : 35.12, Alt : 49.2999992371, Lat : 49.2837028, Lng : -123.1148796, Q1 : 0.942622959614, Q2 : 0.0453517697752, Q3 : -0.142704248428, Q4 : 0.29839682579}
2019-04-14 04:40:08.81: SIM {TimeUS : 60834823, Roll : 0.09, Pitch : -17.26, Yaw : 35.03, Alt : 49.2999992371, Lat : 49.2837059, Lng : -123.1148762, Q1 : 0.942802727222, Q2 : 0.0459230355918, Q3 : -0.142855584621, Q4 : 0.297668159008}
2019-04-14 04:40:08.91: SIM {TimeUS : 60934783, Roll : 0.13, Pitch : -17.27, Yaw : 34.94, Alt : 49.2999992371, Lat : 49.2837093, Lng : -123.1148727, Q1 : 0.942987680435, Q2 : 0.0462297350168, Q3 : -0.142896696925, Q4 : 0.297014594078}
2019-04-14 04:40:09.01: SIM {TimeUS : 61034743, Roll : 0.15, Pitch : -17.28, Yaw : 34.87, Alt : 49.2999992371, Lat : 49.2837125, Lng : -123.1148692, Q1 : 0.943146109581, Q2 : 0.0462911725044, Q3 : -0.142975822091, Q4 : 0.296463310719}
2019-04-14 04:40:09.11: SIM {TimeUS : 61134703, Roll : 0.16, Pitch : -17.29, Yaw : 34.82, Alt : 49.3100013733, Lat : 49.2837156, Lng : -123.1148657, Q1 : 0.943259716034, Q2 : 0.0463408492506, Q3 : -0.14302174747, Q4 : 0.2960716784}
2019-04-14 04:40:09.21: SIM {TimeUS : 61234663, Roll : 0.17, Pitch : -17.3, Yaw : 34.79, Alt : 49.3100013733, Lat : 49.283719, Lng : -123.1148622, Q1 : 0.943316698074, Q2 : 0.0464376322925, Q3 : -0.14309707284, Q4 : 0.295838445425}
2019-04-14 04:40:09.31: SIM {TimeUS : 61335456, Roll : 0.19, Pitch : -17.33, Yaw : 34.78, Alt : 49.3100013733, Lat : 49.2837223, Lng : -123.1148586, Q1 : 0.94330227375, Q2 : 0.0466447025537, Q3 : -0.143316283822, Q4 : 0.295745939016}
2019-04-14 04:40:09.41: SIM {TimeUS : 61435416, Roll : 0.2, Pitch : -17.38, Yaw : 34.78, Alt : 49.3100013733, Lat : 49.2837255, Lng : -123.1148551, Q1 : 0.943231284618, Q2 : 0.0468662381172, Q3 : -0.143686413765, Q4 : 0.295757472515}
2019-04-14 04:40:09.51: SIM {TimeUS : 61535376, Roll : 0.2, Pitch : -17.4, Yaw : 34.79, Alt : 49.3100013733, Lat : 49.2837288, Lng : -123.1148515, Q1 : 0.94316983223, Q2 : 0.0469027459621, Q3 : -0.14389538765, Q4 : 0.295846104622}
2019-04-14 04:40:09.61: SIM {TimeUS : 61635336, Roll : 0.18, Pitch : -17.4, Yaw : 34.81, Alt : 49.3100013733, Lat : 49.283732, Lng : -123.1148479, Q1 : 0.943141162395, Q2 : 0.0467658005655, Q3 : -0.143869295716, Q4 : 0.295971900225}
2019-04-14 04:40:09.71: SIM {TimeUS : 61735296, Roll : 0.14, Pitch : -17.4, Yaw : 34.83, Alt : 49.3100013733, Lat : 49.2837354, Lng : -123.1148443, Q1 : 0.943094551563, Q2 : 0.0465173535049, Q3 : -0.144019946456, Q4 : 0.296086251736}
2019-04-14 04:40:09.81: SIM {TimeUS : 61835256, Roll : 0.1, Pitch : -17.43, Yaw : 34.85, Alt : 49.3100013733, Lat : 49.2837387, Lng : -123.1148406, Q1 : 0.943033456802, Q2 : 0.0462494567037, Q3 : -0.144361972809, Q4 : 0.296156227589}
2019-04-14 04:40:09.91: SIM {TimeUS : 61935216, Roll : 0.08, Pitch : -17.46, Yaw : 34.86, Alt : 49.3100013733, Lat : 49.2837421, Lng : -123.1148371, Q1 : 0.94297772646, Q2 : 0.0461804382503, Q3 : -0.144660979509, Q4 : 0.296198666096}
2019-04-14 04:40:10.01: SIM {TimeUS : 62035176, Roll : 0.07, Pitch : -17.5, Yaw : 34.86, Alt : 49.3100013733, Lat : 49.2837454, Lng : -123.1148335, Q1 : 0.942940115929, Q2 : 0.0461630709469, Q3 : -0.144958645105, Q4 : 0.296175450087}
2019-04-14 04:40:10.11: SIM {TimeUS : 62135136, Roll : 0.07, Pitch : -17.52, Yaw : 34.85, Alt : 49.3100013733, Lat : 49.2837488, Lng : -123.1148299, Q1 : 0.942927896976, Q2 : 0.0462090522051, Q3 : -0.145187363029, Q4 : 0.296095013618}
2019-04-14 04:40:10.21: SIM {TimeUS : 62235096, Roll : 0.08, Pitch : -17.55, Yaw : 34.83, Alt : 49.3199996948, Lat : 49.2837521, Lng : -123.1148263, Q1 : 0.942932128906, Q2 : 0.0463621467352, Q3 : -0.145367354155, Q4 : 0.295969367027}
2019-04-14 04:40:10.31: SIM {TimeUS : 62335056, Roll : 0.1, Pitch : -17.56, Yaw : 34.81, Alt : 49.3199996948, Lat : 49.2837555, Lng : -123.1148227, Q1 : 0.942962646484, Q2 : 0.046535987407, Q3 : -0.145429447293, Q4 : 0.295814454556}
2019-04-14 04:40:10.41: SIM {TimeUS : 62435016, Roll : 0.12, Pitch : -17.57, Yaw : 34.79, Alt : 49.3199996948, Lat : 49.2837588, Lng : -123.114819, Q1 : 0.942993998528, Q2 : 0.0467571355402, Q3 : -0.145474418998, Q4 : 0.295657485723}
2019-04-14 04:40:10.51: SIM {TimeUS : 62534976, Roll : 0.15, Pitch : -17.6, Yaw : 34.77, Alt : 49.3199996948, Lat : 49.2837622, Lng : -123.1148154, Q1 : 0.943019449711, Q2 : 0.047001041472, Q3 : -0.145601287484, Q4 : 0.295475065708}
2019-04-14 04:40:10.61: SIM {TimeUS : 62634936, Roll : 0.16, Pitch : -17.63, Yaw : 34.74, Alt : 49.3199996948, Lat : 49.2837655, Lng : -123.1148117, Q1 : 0.943039894104, Q2 : 0.0471123680472, Q3 : -0.145895317197, Q4 : 0.29524692893}
2019-04-14 04:40:10.71: SIM {TimeUS : 62734896, Roll : 0.15, Pitch : -17.67, Yaw : 34.71, Alt : 49.3199996948, Lat : 49.283769, Lng : -123.114808, Q1 : 0.943058490753, Q2 : 0.0471457056701, Q3 : -0.146248102188, Q4 : 0.295007526875}
2019-04-14 04:40:10.81: SIM {TimeUS : 62834856, Roll : 0.15, Pitch : -17.71, Yaw : 34.69, Alt : 49.3199996948, Lat : 49.2837723, Lng : -123.1148044, Q1 : 0.943078517914, Q2 : 0.0471533276141, Q3 : -0.146591827273, Q4 : 0.294771611691}
2019-04-14 04:40:10.91: SIM {TimeUS : 62934816, Roll : 0.15, Pitch : -17.73, Yaw : 34.66, Alt : 49.3199996948, Lat : 49.2837758, Lng : -123.1148007, Q1 : 0.943107366562, Q2 : 0.0472411513329, Q3 : -0.14677451551, Q4 : 0.294574320316}
2019-04-14 04:40:11.01: SIM {TimeUS : 63034776, Roll : 0.16, Pitch : -17.73, Yaw : 34.64, Alt : 49.3199996948, Lat : 49.2837792, Lng : -123.114797, Q1 : 0.943156838417, Q2 : 0.0472922474146, Q3 : -0.146764546633, Q4 : 0.294412702322}
2019-04-14 04:40:11.11: SIM {TimeUS : 63134736, Roll : 0.18, Pitch : -17.72, Yaw : 34.62, Alt : 49.3199996948, Lat : 49.2837825, Lng : -123.1147933, Q1 : 0.943218886852, Q2 : 0.0473334416747, Q3 : -0.146604001522, Q4 : 0.294287055731}
2019-04-14 04:40:11.21: SIM {TimeUS : 63234696, Roll : 0.17, Pitch : -17.71, Yaw : 34.61, Alt : 49.3199996948, Lat : 49.2837861, Lng : -123.1147896, Q1 : 0.943270325661, Q2 : 0.0472472831607, Q3 : -0.146520271897, Q4 : 0.294177949429}
2019-04-14 04:40:11.31: SIM {TimeUS : 63334656, Roll : 0.17, Pitch : -17.7, Yaw : 34.6, Alt : 49.3199996948, Lat : 49.2837895, Lng : -123.1147859, Q1 : 0.943315267563, Q2 : 0.0471567511559, Q3 : -0.146453276277, Q4 : 0.294081568718}
2019-04-14 04:40:11.41: SIM {TimeUS : 63435449, Roll : 0.17, Pitch : -17.69, Yaw : 34.59, Alt : 49.3199996948, Lat : 49.2837929, Lng : -123.1147821, Q1 : 0.943346381187, Q2 : 0.0471400357783, Q3 : -0.146379515529, Q4 : 0.294021368027}
2019-04-14 04:40:11.51: SIM {TimeUS : 63535409, Roll : 0.17, Pitch : -17.7, Yaw : 34.58, Alt : 49.3199996948, Lat : 49.2837964, Lng : -123.1147784, Q1 : 0.943349659443, Q2 : 0.0471482202411, Q3 : -0.14646692574, Q4 : 0.293965935707}
2019-04-14 04:40:11.61: SIM {TimeUS : 63635369, Roll : 0.17, Pitch : -17.71, Yaw : 34.58, Alt : 49.3199996948, Lat : 49.2837999, Lng : -123.1147747, Q1 : 0.943341851234, Q2 : 0.0471944883466, Q3 : -0.146604076028, Q4 : 0.293914943933}
2019-04-14 04:40:11.71: SIM {TimeUS : 63735329, Roll : 0.16, Pitch : -17.76, Yaw : 34.57, Alt : 49.3300018311, Lat : 49.2838032, Lng : -123.1147709, Q1 : 0.943301439285, Q2 : 0.0472245290875, Q3 : -0.146999567747, Q4 : 0.293842434883}
2019-04-14 04:40:11.81: SIM {TimeUS : 63835289, Roll : 0.15, Pitch : -17.81, Yaw : 34.57, Alt : 49.3300018311, Lat : 49.2838068, Lng : -123.1147672, Q1 : 0.943253815174, Q2 : 0.0472980439663, Q3 : -0.147440582514, Q4 : 0.293762534857}
2019-04-14 04:40:11.91: SIM {TimeUS : 63935249, Roll : 0.16, Pitch : -17.85, Yaw : 34.56, Alt : 49.3300018311, Lat : 49.2838102, Lng : -123.1147634, Q1 : 0.943226337433, Q2 : 0.0474130436778, Q3 : -0.147733256221, Q4 : 0.293685078621}
2019-04-14 04:40:12.01: SIM {TimeUS : 64035209, Roll : 0.16, Pitch : -17.88, Yaw : 34.55, Alt : 49.3300018311, Lat : 49.2838136, Lng : -123.1147597, Q1 : 0.943205535412, Q2 : 0.0475125461817, Q3 : -0.148012533784, Q4 : 0.293595284224}
2019-04-14 04:40:12.11: SIM {TimeUS : 64135169, Roll : 0.16, Pitch : -17.9, Yaw : 34.54, Alt : 49.3300018311, Lat : 49.2838171, Lng : -123.1147559, Q1 : 0.943209052086, Q2 : 0.047531478107, Q3 : -0.148168250918, Q4 : 0.293502360582}
2019-04-14 04:40:12.21: SIM {TimeUS : 64235129, Roll : 0.17, Pitch : -17.89, Yaw : 34.53, Alt : 49.3300018311, Lat : 49.2838207, Lng : -123.1147522, Q1 : 0.943242371082, Q2 : 0.0476123131812, Q3 : -0.148067981005, Q4 : 0.293432831764}
2019-04-14 04:40:12.31: SIM {TimeUS : 64335089, Roll : 0.2, Pitch : -17.89, Yaw : 34.52, Alt : 49.3300018311, Lat : 49.2838242, Lng : -123.1147484, Q1 : 0.943262934685, Q2 : 0.047801155597, Q3 : -0.148019731045, Q4 : 0.293360203505}
2019-04-14 04:40:12.41: SIM {TimeUS : 64435049, Roll : 0.21, Pitch : -17.9, Yaw : 34.5, Alt : 49.3300018311, Lat : 49.2838276, Lng : -123.1147446, Q1 : 0.943276226521, Q2 : 0.0478960163891, Q3 : -0.148094698787, Q4 : 0.29326415062}
2019-04-14 04:40:12.51: SIM {TimeUS : 64535009, Roll : 0.21, Pitch : -17.91, Yaw : 34.49, Alt : 49.3300018311, Lat : 49.2838311, Lng : -123.1147409, Q1 : 0.94329226017, Q2 : 0.0479624569416, Q3 : -0.1481680125, Q4 : 0.29316470027}
2019-04-14 04:40:12.61: SIM {TimeUS : 64634969, Roll : 0.22, Pitch : -17.91, Yaw : 34.48, Alt : 49.3300018311, Lat : 49.2838347, Lng : -123.1147371, Q1 : 0.943324625492, Q2 : 0.0479904711246, Q3 : -0.148157089949, Q4 : 0.293061554432}
2019-04-14 04:40:12.71: SIM {TimeUS : 64734929, Roll : 0.22, Pitch : -17.92, Yaw : 34.46, Alt : 49.3300018311, Lat : 49.2838382, Lng : -123.1147333, Q1 : 0.943351268768, Q2 : 0.0479724518955, Q3 : -0.148218646646, Q4 : 0.292947679758}
2019-04-14 04:40:12.81: SIM {TimeUS : 64834889, Roll : 0.19, Pitch : -17.94, Yaw : 34.45, Alt : 49.3300018311, Lat : 49.2838416, Lng : -123.1147295, Q1 : 0.943368017673, Q2 : 0.0478167720139, Q3 : -0.148439615965, Q4 : 0.292807161808}
2019-04-14 04:40:12.91: SIM {TimeUS : 64934849, Roll : 0.16, Pitch : -17.97, Yaw : 34.44, Alt : 49.3300018311, Lat : 49.2838451, Lng : -123.1147257, Q1 : 0.943367302418, Q2 : 0.0475951805711, Q3 : -0.148828998208, Q4 : 0.292648047209}
2019-04-14 04:40:13.01: SIM {TimeUS : 65034809, Roll : 0.14, Pitch : -17.98, Yaw : 34.43, Alt : 49.3300018311, Lat : 49.2838487, Lng : -123.1147219, Q1 : 0.943400502205, Q2 : 0.0474307090044, Q3 : -0.148904055357, Q4 : 0.292529314756}
2019-04-14 04:40:13.11: SIM {TimeUS : 65134769, Roll : 0.15, Pitch : -17.96, Yaw : 34.42, Alt : 49.3300018311, Lat : 49.2838522, Lng : -123.1147181, Q1 : 0.943445086479, Q2 : 0.047437440604, Q3 : -0.148765206337, Q4 : 0.292455106974}
2019-04-14 04:40:13.21: SIM {TimeUS : 65234729, Roll : 0.16, Pitch : -17.95, Yaw : 34.41, Alt : 49.3400001526, Lat : 49.2838558, Lng : -123.1147143, Q1 : 0.94348269701, Q2 : 0.047549996525, Q3 : -0.148610934615, Q4 : 0.292393922806}
2019-04-14 04:40:13.31: SIM {TimeUS : 65334689, Roll : 0.18, Pitch : -17.96, Yaw : 34.39, Alt : 49.3400001526, Lat : 49.2838592, Lng : -123.1147105, Q1 : 0.943492352962, Q2 : 0.0476930812001, Q3 : -0.148667126894, Q4 : 0.292310893536}
2019-04-14 04:40:13.41: SIM {TimeUS : 65435482, Roll : 0.18, Pitch : -17.98, Yaw : 34.38, Alt : 49.3400001526, Lat : 49.2838628, Lng : -123.1147067, Q1 : 0.94348859787, Q2 : 0.0477237999439, Q3 : -0.148878529668, Q4 : 0.292210519314}
2019-04-14 04:40:13.51: SIM {TimeUS : 65535442, Roll : 0.16, Pitch : -18.01, Yaw : 34.37, Alt : 49.3400001526, Lat : 49.2838664, Lng : -123.1147028, Q1 : 0.943488836288, Q2 : 0.0476083680987, Q3 : -0.149142190814, Q4 : 0.292093843222}
2019-04-14 04:40:13.61: SIM {TimeUS : 65635402, Roll : 0.14, Pitch : -18.02, Yaw : 34.36, Alt : 49.3400001526, Lat : 49.2838699, Lng : -123.1146989, Q1 : 0.943501591682, Q2 : 0.0475158058107, Q3 : -0.149295791984, Q4 : 0.291989356279}
2019-04-14 04:40:13.71: SIM {TimeUS : 65735362, Roll : 0.15, Pitch : -18.04, Yaw : 34.35, Alt : 49.3400001526, Lat : 49.2838735, Lng : -123.1146952, Q1 : 0.943510174751, Q2 : 0.0475704744458, Q3 : -0.149398192763, Q4 : 0.291900336742}
2019-04-14 04:40:13.81: SIM {TimeUS : 65835322, Roll : 0.16, Pitch : -18.05, Yaw : 34.34, Alt : 49.3400001526, Lat : 49.2838769, Lng : -123.1146914, Q1 : 0.943517744541, Q2 : 0.0476728603244, Q3 : -0.149470001459, Q4 : 0.291822314262}
2019-04-14 04:40:13.91: SIM {TimeUS : 65935282, Roll : 0.18, Pitch : -18.06, Yaw : 34.33, Alt : 49.3400001526, Lat : 49.2838805, Lng : -123.1146876, Q1 : 0.943513214588, Q2 : 0.0478796139359, Q3 : -0.149541631341, Q4 : 0.291766434908}
2019-04-14 04:40:14.01: SIM {TimeUS : 66035242, Roll : 0.19, Pitch : -18.09, Yaw : 34.32, Alt : 49.3400001526, Lat : 49.283884, Lng : -123.1146837, Q1 : 0.943501055241, Q2 : 0.0480109974742, Q3 : -0.149709150195, Q4 : 0.291698306799}
2019-04-14 04:40:14.11: SIM {TimeUS : 66135202, Roll : 0.2, Pitch : -18.11, Yaw : 34.31, Alt : 49.3400001526, Lat : 49.2838877, Lng : -123.1146799, Q1 : 0.943486750126, Q2 : 0.0481469109654, Q3 : -0.149883300066, Q4 : 0.291632711887}
2019-04-14 04:40:14.21: SIM {TimeUS : 66235162, Roll : 0.22, Pitch : -18.13, Yaw : 34.31, Alt : 49.3400001526, Lat : 49.2838913, Lng : -123.1146761, Q1 : 0.943477809429, Q2 : 0.0483258217573, Q3 : -0.149979934096, Q4 : 0.291582345963}
2019-04-14 04:40:14.31: SIM {TimeUS : 66335122, Roll : 0.25, Pitch : -18.13, Yaw : 34.3, Alt : 49.3400001526, Lat : 49.2838948, Lng : -123.1146723, Q1 : 0.943473994732, Q2 : 0.0486101359129, Q3 : -0.149946600199, Q4 : 0.291564673185}
