2019-04-14 03:57:53.20: SIM {TimeUS : 40416327, Roll : 0.0, Pitch : 0.0, Yaw : 0.0, Alt : 30.1000003815, Lat : 49.28357, Lng : -123.11502, Q1 : 1.0, Q2 : 0.0, Q3 : 0.0, Q4 : 0.0}
2019-04-14 03:57:53.31: SIM {TimeUS : 40535446, Roll : 0.0, Pitch : 0.0, Yaw : 0.0, Alt : 30.1000003815, Lat : 49.28357, Lng : -123.11502, Q1 : 1.0, Q2 : 0.0, Q3 : 0.0, Q4 : 0.0}
2019-04-14 03:57:53.41: SIM {TimeUS : 40635406, Roll : 0.0, Pitch : 0.0, Yaw : 0.0, Alt : 30.1000003815, Lat : 49.28357, Lng : -123.11502, Q1 : 1.0, Q2 : 0.0, Q3 : 0.0, Q4 : 0.0}
2019-04-14 03:57:53.51: SIM {TimeUS : 40735366, Roll : 0.0, Pitch : 0.0, Yaw : 0.0, Alt : 30.1000003815, Lat : 49.28357, Lng : -123.11502, Q1 : 1.0, Q2 : 0.0, Q3 : 0.0, Q4 : 0.0}
2019-04-14 03:57:53.61: SIM {TimeUS : 40835326, Roll : 0.0, Pitch : 0.0, Yaw : 0.0, Alt : 30.1000003815, Lat : 49.28357, Lng : -123.11502, Q1 : 1.0, Q2 : 0.0, Q3 : 0.0, Q4 : 0.0}
2019-04-14 03:57:53.71: SIM {TimeUS : 40935286, Roll : 0.0, Pitch : 0.0, Yaw : 0.0, Alt : 30.1000003815, Lat : 49.28357, Lng : -123.11502, Q1 : 1.0, Q2 : 0.0, Q3 : 0.0, Q4 : 0.0}
2019-04-14 03:57:53.81: SIM {TimeUS : 41035246, Roll : 0.0, Pitch : 0.0, Yaw : 0.0, Alt : 30.1000003815, Lat : 49.28357, Lng : -123.11502, Q1 : 1.0, Q2 : 0.0, Q3 : 0.0, Q4 : 0.0}
2019-04-14 03:57:53.91: SIM {TimeUS : 41135206, Roll : 0.0, Pitch : 0.0, Yaw : 0.0, Alt : 30.1000003815, Lat : 49.28357, Lng : -123.11502, Q1 : 1.0, Q2 : 0.0, Q3 : 0.0, Q4 : 0.0}
2019-04-14 03:57:54.01: SIM {TimeUS : 41235166, Roll : 0.0, Pitch : 0.0, Yaw : 0.0, Alt : 30.1000003815, Lat : 49.28357, Lng : -123.11502, Q1 : 1.0, Q2 : 0.0, Q3 : 0.0, Q4 : 0.0}
2019-04-14 03:57:54.11: SIM {TimeUS : 41335126, Roll : 0.0, Pitch : 0.0, Yaw : 0.0, Alt : 30.1000003815, Lat : 49.28357, Lng : -123.11502, Q1 : 1.0, Q2 : 0.0, Q3 : 0.0, Q4 : 0.0}
2019-04-14 03:57:54.21: SIM {TimeUS : 41435086, Roll : 0.0, Pitch : 0.0, Yaw : 0.0, Alt : 30.1000003815, Lat : 49.28357, Lng : -123.11502, Q1 : 1.0, Q2 : 0.0, Q3 : 0.0, Q4 : 0.0}
2019-04-14 03:57:54.31: SIM {TimeUS : 41535046, Roll : 0.0, Pitch : 0.0, Yaw : 0.0, Alt : 30.1000003815, Lat : 49.28357, Lng : -123.11502, Q1 : 1.0, Q2 : 0.0, Q3 : 0.0, Q4 : 0.0}
2019-04-14 03:57:54.41: SIM {TimeUS : 41635006, Roll : 0.0, Pitch : 0.0, Yaw : 0.0, Alt : 30.1000003815, Lat : 49.28357, Lng : -123.11502, Q1 : 1.0, Q2 : 0.0, Q3 : 0.0, Q4 : 0.0}
2019-04-14 03:57:54.51: SIM {TimeUS : 41734966, Roll : 0.0, Pitch : 0.0, Yaw : 0.0, Alt : 30.1000003815, Lat : 49.28357, Lng : -123.11502, Q1 : 1.0, Q2 : 0.0, Q3 : 0.0, Q4 : 0.0}
2019-04-14 03:57:54.61: SIM {TimeUS : 41834926, Roll : 0.0, Pitch : 0.0, Yaw : 0.0, Alt : 30.1000003815, Lat : 49.28357, Lng : -123.11502, Q1 : 1.0, Q2 : 0.0, Q3 : 0.0, Q4 : 0.0}
2019-04-14 03:57:54.71: SIM {TimeUS : 41934886, Roll : 0.0, Pitch : 0.0, Yaw : 0.0, Alt : 30.1000003815, Lat : 49.28357, Lng : -123.11502, Q1 : 1.0, Q2 : 0.0, Q3 : 0.0, Q4 : 0.0}
2019-04-14 03:57:54.81: SIM {TimeUS : 42034846, Roll : 0.0, Pitch : 0.0, Yaw : 0.0, Alt : 30.1000003815, Lat : 49.28357, Lng : -123.11502, Q1 : 1.0, Q2 : 0.0, Q3 : 0.0, Q4 : 0.0}
2019-04-14 03:57:54.91: SIM {TimeUS : 42134806, Roll : 0.0, Pitch : 0.0, Yaw : 0.0, Alt : 30.1000003815, Lat : 49.28357, Lng : -123.11502, Q1 : 1.0, Q2 : 0.0, Q3 : 0.0, Q4 : 0.0}
2019-04-14 03:57:55.01: SIM {TimeUS : 42234766, Roll : 0.0, Pitch : 0.0, Yaw : 0.0, Alt : 30.1000003815, Lat : 49.28357, Lng : -123.11502, Q1 : 1.0, Q2 : 0.0, Q3 : 0.0, Q4 : 0.0}
2019-04-14 03:57:55.11: SIM {TimeUS : 42334726, Roll : 0.0, Pitch : 0.0, Yaw : 0.0, Alt : 30.1000003815, Lat : 49.28357, Lng : -123.11502, Q1 : 1.0, Q2 : 0.0, Q3 : 0.0, Q4 : 0.0}
2019-04-14 03:57:55.21: SIM {TimeUS : 42434686, Roll : 0.0, Pitch : 0.0, Yaw : 0.0, Alt : 30.1000003815, Lat : 49.28357, Lng : -123.11502, Q1 : 1.0, Q2 : 0.0, Q3 : 0.0, Q4 : 0.0}
2019-04-14 03:57:55.31: SIM {TimeUS : 42535479, Roll : 0.0, Pitch : 0.0, Yaw : 0.0, Alt : 30.1000003815, Lat : 49.28357, Lng : -123.11502, Q1 : 1.0, Q2 : 0.0, Q3 : 0.0, Q4 : 0.0}
2019-04-14 03:57:55.41: SIM {TimeUS : 42635439, Roll : 0.0, Pitch : 0.0, Yaw : 0.0, Alt : 30.1000003815, Lat : 49.28357, Lng : -123.11502, Q1 : 1.0, Q2 : 0.0, Q3 : 0.0, Q4 : 0.0}
2019-04-14 03:57:55.51: SIM {TimeUS : 42735399, Roll : 0.0, Pitch : 0.0, Yaw : 0.0, Alt : 30.1000003815, Lat : 49.28357, Lng : -123.11502, Q1 : 1.0, Q2 : 0.0, Q3 : 0.0, Q4 : 7.39073472561e-12}
2019-04-14 03:57:55.61: SIM {TimeUS : 42835359, Roll : 0.0, Pitch : 0.0, Yaw : 0.0, Alt : 30.1000003815, Lat : 49.28357, Lng : -123.11502, Q1 : 1.0, Q2 : 0.0, Q3 : 0.0, Q4 : 1.15506416931e-10}
2019-04-14 03:57:55.71: SIM {TimeUS : 42935319, Roll : 0.0, Pitch : 0.0, Yaw : 360.0, Alt : 30.1000003815, Lat : 49.28357, Lng : -123.11502, Q1 : 1.0, Q2 : 0.0, Q3 : 0.0, Q4 : -1.05012851748e-07}
2019-04-14 03:57:55.81: SIM {TimeUS : 43035279, Roll : 0.0, Pitch : 0.0, Yaw : 359.99, Alt : 30.1000003815, Lat : 49.28357, Lng : -123.11502, Q1 : 1.0, Q2 : 0.0, Q3 : 0.0, Q4 : -2.76464362514e-07}
2019-04-14 03:57:55.91: SIM {TimeUS : 43135239, Roll : 0.0, Pitch : 0.0, Yaw : 359.99, Alt : 30.1000003815, Lat : 49.28357, Lng : -123.11502, Q1 : 1.0, Q2 : 0.0, Q3 : 0.0, Q4 : -4.53608379303e-07}
2019-04-14 03:57:56.01: SIM {TimeUS : 43235199, Roll : 0.0, Pitch : 0.0, Yaw : 359.99, Alt : 30.1000003815, Lat : 49.28357, Lng : -123.11502, Q1 : 1.0, Q2 : 0.0, Q3 : 0.0, Q4 : -6.54826862956e-07}
2019-04-14 03:57:56.11: SIM {TimeUS : 43335159, Roll : 0.0, Pitch : 0.0, Yaw : 359.99, Alt : 30.1000003815, Lat : 49.28357, Lng : -123.11502, Q1 : 1.0, Q2 : 0.0, Q3 : 0.0, Q4 : -8.23092591418e-07}
2019-04-14 03:57:56.21: SIM {TimeUS : 43435119, Roll : 0.0, Pitch : 0.0, Yaw : 359.99, Alt : 30.1000003815, Lat : 49.28357, Lng : -123.11502, Q1 : 1.0, Q2 : 0.0, Q3 : 0.0, Q4 : -1.02801573121e-06}
2019-04-14 03:57:56.31: SIM {TimeUS : 43535079, Roll : 0.0, Pitch : 0.0, Yaw : 359.99, Alt : 30.1000003815, Lat : 49.28357, Lng : -123.11502, Q1 : 1.0, Q2 : 0.0, Q3 : 0.0, Q4 : -1.22589403873e-06}
2019-04-14 03:57:56.41: SIM {TimeUS : 43635039, Roll : 0.0, Pitch : 0.0, Yaw : 359.99, Alt : 30.1100006104, Lat : 49.28357, Lng : -123.11502, Q1 : 1.0, Q2 : 0.0, Q3 : 0.0, Q4 : -1.420006015e-06}
2019-04-14 03:57:56.51: SIM {TimeUS : 43734999, Roll : 0.0, Pitch : 0.0, Yaw : 359.99, Alt : 30.1299991608, Lat : 49.28357, Lng : -123.11502, Q1 : 1.0, Q2 : 0.0, Q3 : 0.0, Q4 : -1.66384984368e-06}
2019-04-14 03:57:56.61: SIM {TimeUS : 43834959, Roll : 0.0, Pitch : 0.0, Yaw : 359.99, Alt : 30.1599998474, Lat : 49.28357, Lng : -123.11502, Q1 : 1.0, Q2 : 0.0, Q3 : 0.0, Q4 : -1.89620118363e-06}
2019-04-14 03:57:56.71: SIM {TimeUS : 43934919, Roll : 0.0, Pitch : 0.0, Yaw : 359.99, Alt : 30.1900005341, Lat : 49.28357, Lng : -123.11502, Q1 : 1.0, Q2 : 0.0, Q3 : 0.0, Q4 : -2.11915289583e-06}
2019-04-14 03:57:56.81: SIM {TimeUS : 44034879, Roll : -0.03, Pitch : -0.03, Yaw : 359.99, Alt : 30.2299995422, Lat : 49.28357, Lng : -123.11502, Q1 : 0.999999940395, Q2 : -0.000322392123053, Q3 : -0.000284631707473, Q4 : -4.89993681185e-06}
2019-04-14 03:57:56.91: SIM {TimeUS : 44134839, Roll : -0.3, Pitch : -0.26, Yaw : 359.99, Alt : 30.3099994659, Lat : 49.28357, Lng : -123.11502, Q1 : 0.999993741512, Q2 : -0.00264267204329, Q3 : -0.00234834849834, Q4 : -2.93469056487e-05}
2019-04-14 03:57:57.01: SIM {TimeUS : 44234799, Roll : -0.63, Pitch : -0.55, Yaw : 359.99, Alt : 30.4400005341, Lat : 49.28357, Lng : -123.11502, Q1 : 0.999972701073, Q2 : -0.00556956790388, Q3 : -0.00486149685457, Q4 : -8.0730416812e-05}
2019-04-14 03:57:57.11: SIM {TimeUS : 44334759, Roll : -0.85, Pitch : -0.74, Yaw : 359.98, Alt : 30.5900001526, Lat : 49.28357, Lng : -123.11502, Q1 : 0.999950706959, Q2 : -0.00750259356573, Q3 : -0.00650757877156, Q4 : -0.000154968714924}
2019-04-14 03:57:57.21: SIM {TimeUS : 44434719, Roll : -0.88, Pitch : -0.79, Yaw : 359.97, Alt : 30.75, Lat : 49.28357, Lng : -123.11502, Q1 : 0.999946296215, Q2 : -0.00773223210126, Q3 : -0.00689290510491, Q4 : -0.000244497496169}
2019-04-14 03:57:57.31: SIM {TimeUS : 44534679, Roll : -0.75, Pitch : -0.68, Yaw : 359.96, Alt : 30.9099998474, Lat : 49.28357, Lng : -123.1150201, Q1 : 0.999960064888, Q2 : -0.00662625581026, Q3 : -0.00599285773933, Q4 : -0.000338699348504}
2019-04-14 03:57:57.41: SIM {TimeUS : 44635472, Roll : -0.55, Pitch : -0.49, Yaw : 359.95, Alt : 31.0599994659, Lat : 49.2835701, Lng : -123.1150201, Q1 : 0.999978899956, Q2 : -0.00484424736351, Q3 : -0.00430657947436, Q4 : -0.000419832183979}
2019-04-14 03:57:57.51: SIM {TimeUS : 44735432, Roll : -0.32, Pitch : -0.28, Yaw : 359.94, Alt : 31.2199993134, Lat : 49.2835701, Lng : -123.1150202, Q1 : 0.999992728233, Q2 : -0.00285154185258, Q3 : -0.00249123666435, Q4 : -0.000481237453641}
2019-04-14 03:57:57.61: SIM {TimeUS : 44835392, Roll : -0.12, Pitch : -0.11, Yaw : 359.93, Alt : 31.3899993896, Lat : 49.2835702, Lng : -123.1150203, Q1 : 0.999998748302, Q2 : -0.00110969180241, Q3 : -0.000989389722236, Q4 : -0.000526451331098}
2019-04-14 03:57:57.71: SIM {TimeUS : 44935352, Roll : 0.0, Pitch : 0.0, Yaw : 359.93, Alt : 31.5599994659, Lat : 49.2835702, Lng : -123.1150204, Q1 : 0.999999880791, Q2 : 7.95804444351e-05, Q3 : -1.19829237519e-05, Q4 : -0.000552211364266}
2019-04-14 03:57:57.81: SIM {TimeUS : 45035312, Roll : 0.08, Pitch : 0.04, Yaw : 359.93, Alt : 31.7299995422, Lat : 49.2835702, Lng : -123.1150205, Q1 : 0.999999523163, Q2 : 0.000720798969269, Q3 : 0.000373075512471, Q4 : -0.000559169158805}
2019-04-14 03:57:57.91: SIM {TimeUS : 45135272, Roll : 0.1, Pitch : 0.04, Yaw : 359.93, Alt : 31.9099998474, Lat : 49.2835703, Lng : -123.1150205, Q1 : 0.999999403954, Q2 : 0.00092329189647, Q3 : 0.000361843005521, Q4 : -0.000542372232303}
2019-04-14 03:57:58.01: SIM {TimeUS : 45235232, Roll : 0.1, Pitch : 0.03, Yaw : 359.93, Alt : 32.0999984741, Lat : 49.2835703, Lng : -123.1150206, Q1 : 0.999999463558, Q2 : 0.000887383590452, Q3 : 0.000293534336379, Q4 : -0.000524318485986}
2019-04-14 03:57:58.11: SIM {TimeUS : 45335192, Roll : 0.08, Pitch : 0.03, Yaw : 359.94, Alt : 32.2900009155, Lat : 49.2835703, Lng : -123.1150207, Q1 : 0.999999523163, Q2 : 0.000756814726628, Q3 : 0.000307631882606, Q4 : -0.000507212826051}
2019-04-14 03:57:58.21: SIM {TimeUS : 45435152, Roll : 0.06, Pitch : 0.06, Yaw : 359.94, Alt : 32.4799995422, Lat : 49.2835703, Lng : -123.1150207, Q1 : 0.999999582767, Q2 : 0.000577141181566, Q3 : 0.000526442483533, Q4 : -0.000500324647874}
2019-04-14 03:57:58.31: SIM {TimeUS : 45535112, Roll : 0.07, Pitch : 0.1, Yaw : 359.94, Alt : 32.6800003052, Lat : 49.2835703, Lng : -123.1150207, Q1 : 0.99999922514, Q2 : 0.000647193461191, Q3 : 0.000932254944928, Q4 : -0.000486911187181}
2019-04-14 03:57:58.41: SIM {TimeUS : 45635072, Roll : 0.1, Pitch : 0.14, Yaw : 359.94, Alt : 32.8699989319, Lat : 49.2835704, Lng : -123.1150208, Q1 : 0.999998688698, Q2 : 0.000916211574804, Q3 : 0.00123953446746, Q4 : -0.000469983468065}
2019-04-14 03:57:58.51: SIM {TimeUS : 45735032, Roll : 0.13, Pitch : 0.17, Yaw : 359.94, Alt : 33.0699996948, Lat : 49.2835704, Lng : -123.1150208, Q1 : 0.999998033047, Q2 : 0.0011808401905, Q3 : 0.00154076272156, Q4 : -0.000454288412584}
2019-04-14 03:57:58.61: SIM {TimeUS : 45834992, Roll : 0.15, Pitch : 0.2, Yaw : 359.94, Alt : 33.2799987793, Lat : 49.2835704, Lng : -123.1150208, Q1 : 0.999997496605, Q2 : 0.00131484982558, Q3 : 0.00176120898686, Q4 : -0.000448272010544}
2019-04-14 03:57:58.71: SIM {TimeUS : 45934952, Roll : 0.16, Pitch : 0.18, Yaw : 359.94, Alt : 33.4799995422, Lat : 49.2835704, Lng : -123.1150208, Q1 : 0.999997675419, Q2 : 0.00139880890492, Q3 : 0.00158650183585, Q4 : -0.000452863954706}
2019-04-14 03:57:58.81: SIM {TimeUS : 46034912, Roll : 0.16, Pitch : 0.14, Yaw : 359.94, Alt : 33.6899986267, Lat : 49.2835704, Lng : -123.1150209, Q1 : 0.999998152256, Q2 : 0.00142385635991, Q3 : 0.00122384168208, Q4 : -0.000472485204227}
2019-04-14 03:57:58.91: SIM {TimeUS : 46134872, Roll : 0.15, Pitch : 0.11, Yaw : 359.94, Alt : 33.9000015259, Lat : 49.2835704, Lng : -123.1150209, Q1 : 0.999998450279, Q2 : 0.00137139100116, Q3 : 0.000984636251815, Q4 : -0.000496429915074}
2019-04-14 03:57:59.01: SIM {TimeUS : 46234832, Roll : 0.15, Pitch : 0.09, Yaw : 359.93, Alt : 34.1100006104, Lat : 49.2835704, Lng : -123.1150209, Q1 : 0.999998629093, Q2 : 0.00132444757037, Q3 : 0.000867907307111, Q4 : -0.000528870732524}
2019-04-14 03:57:59.11: SIM {TimeUS : 46334792, Roll : 0.15, Pitch : 0.09, Yaw : 359.93, Alt : 34.3199996948, Lat : 49.2835704, Lng : -123.1150209, Q1 : 0.999998569489, Q2 : 0.00132311636116, Q3 : 0.000855801219586, Q4 : -0.000564764719456}
2019-04-14 03:57:59.21: SIM {TimeUS : 46434752, Roll : 0.14, Pitch : 0.08, Yaw : 359.93, Alt : 34.5299987793, Lat : 49.2835704, Lng : -123.1150209, Q1 : 0.999998807907, Q2 : 0.00123480928596, Q3 : 0.000747834856156, Q4 : -0.000592653348576}
2019-04-14 03:57:59.31: SIM {TimeUS : 46534712, Roll : 0.12, Pitch : 0.07, Yaw : 359.92, Alt : 34.7400016785, Lat : 49.2835704, Lng : -123.1150208, Q1 : 0.999999046326, Q2 : 0.00105271593202, Q3 : 0.000653564406093, Q4 : -0.000616943347268}
2019-04-14 03:57:59.41: SIM {TimeUS : 46634672, Roll : 0.09, Pitch : 0.06, Yaw : 359.92, Alt : 34.9599990845, Lat : 49.2835704, Lng : -123.1150208, Q1 : 0.999999284744, Q2 : 0.000836668536067, Q3 : 0.000599264225457, Q4 : -0.000640356331132}
2019-04-14 03:57:59.51: SIM {TimeUS : 46735465, Roll : 0.06, Pitch : 0.06, Yaw : 359.92, Alt : 35.1800003052, Lat : 49.2835704, Lng : -123.1150208, Q1 : 0.999999463558, Q2 : 0.000598271435592, Q3 : 0.000551234290469, Q4 : -0.000662341481075}
2019-04-14 03:57:59.61: SIM {TimeUS : 46835425, Roll : 0.05, Pitch : 0.02, Yaw : 359.92, Alt : 35.3899993896, Lat : 49.2835704, Lng : -123.1150208, Q1 : 0.999999642372, Q2 : 0.000455863366369, Q3 : 0.000261490204139, Q4 : -0.000674863229506}
2019-04-14 03:57:59.71: SIM {TimeUS : 46935385, Roll : 0.04, Pitch : 0.0, Yaw : 359.92, Alt : 35.6100006104, Lat : 49.2835704, Lng : -123.1150208, Q1 : 0.999999701977, Q2 : 0.000367203028873, Q3 : 2.34788712987e-05, Q4 : -0.000690030166879}
2019-04-14 03:57:59.81: SIM {TimeUS : 47035345, Roll : 0.01, Pitch : 0.0, Yaw : 359.91, Alt : 35.8300018311, Lat : 49.2835704, Lng : -123.1150208, Q1 : 0.999999761581, Q2 : 0.000170537401573, Q3 : -4.64739969175e-05, Q4 : -0.00071042845957}
2019-04-14 03:57:59.91: SIM {TimeUS : 47135305, Roll : 0.01, Pitch : 0.0, Yaw : 359.91, Alt : 36.0499992371, Lat : 49.2835704, Lng : -123.1150207, Q1 : 0.999999761581, Q2 : 0.000122533878312, Q3 : -2.77222752629e-05, Q4 : -0.000724714773241}
2019-04-14 03:58:00.01: SIM {TimeUS : 47235265, Roll : 0.02, Pitch : 0.0, Yaw : 359.91, Alt : 36.2700004578, Lat : 49.2835704, Lng : -123.1150207, Q1 : 0.999999701977, Q2 : 0.000178459769813, Q3 : -1.18359821499e-05, Q4 : -0.000740081304684}
2019-04-14 03:58:00.11: SIM {TimeUS : 47335225, Roll : 0.0, Pitch : -0.01, Yaw : 359.91, Alt : 36.4900016785, Lat : 49.2835704, Lng : -123.1150207, Q1 : 0.999999701977, Q2 : 5.73527831875e-05, Q3 : -0.000155724323122, Q4 : -0.000754847074859}
2019-04-14 03:58:00.21: SIM {TimeUS : 47435185, Roll : -0.02, Pitch : -0.05, Yaw : 359.91, Alt : 36.7200012207, Lat : 49.2835704, Lng : -123.1150207, Q1 : 0.999999582767, Q2 : -0.000242928843363, Q3 : -0.000454704131698, Q4 : -0.000778031477239}
2019-04-14 03:58:00.31: SIM {TimeUS : 47535145, Roll : -0.06, Pitch : -0.08, Yaw : 359.9, Alt : 36.9399986267, Lat : 49.2835704, Lng : -123.1150207, Q1 : 0.999999284744, Q2 : -0.000607441703323, Q3 : -0.000700596079696, Q4 : -0.000807861913927}
2019-04-14 03:58:00.41: SIM {TimeUS : 47635105, Roll : -0.11, Pitch : -0.1, Yaw : 359.9, Alt : 37.1699981689, Lat : 49.2835704, Lng : -123.1150207, Q1 : 0.999998748302, Q2 : -0.000965482264291, Q3 : -0.000899952487089, Q4 : -0.000840148306452}
2019-04-14 03:58:00.51: SIM {TimeUS : 47735065, Roll : -0.12, Pitch : -0.1, Yaw : 359.89, Alt : 37.3899993896, Lat : 49.2835704, Lng : -123.1150207, Q1 : 0.999998569489, Q2 : -0.00110320793465, Q3 : -0.000934147567023, Q4 : -0.000878536491655}
2019-04-14 03:58:00.61: SIM {TimeUS : 47835025, Roll : -0.12, Pitch : -0.08, Yaw : 359.89, Alt : 37.6199989319, Lat : 49.2835704, Lng : -123.1150206, Q1 : 0.999998748302, Q2 : -0.00105102232192, Q3 : -0.000782791699748, Q4 : -0.000916153541766}
2019-04-14 03:58:00.71: SIM {TimeUS : 47934985, Roll : -0.09, Pitch : -0.05, Yaw : 359.89, Alt : 37.8400001526, Lat : 49.2835704, Lng : -123.1150206, Q1 : 0.99999910593, Q2 : -0.000858249375597, Q3 : -0.000482020404888, Q4 : -0.000946407846641}
2019-04-14 03:58:00.81: SIM {TimeUS : 48034945, Roll : -0.07, Pitch : -0.03, Yaw : 359.88, Alt : 38.0699996948, Lat : 49.2835704, Lng : -123.1150206, Q1 : 0.999999284744, Q2 : -0.000649291730952, Q3 : -0.000281091866782, Q4 : -0.000975545146503}
2019-04-14 03:58:00.91: SIM {TimeUS : 48134905, Roll : -0.06, Pitch : -0.03, Yaw : 359.88, Alt : 38.2999992371, Lat : 49.2835706, Lng : -123.1150206, Q1 : 0.999999284744, Q2 : -0.000584042456467, Q3 : -0.000271230965154, Q4 : -0.0010038560722}
2019-04-14 03:58:01.01: SIM {TimeUS : 48234865, Roll : -0.07, Pitch : -0.01, Yaw : 359.88, Alt : 38.5200004578, Lat : 49.2835706, Lng : -123.1150206, Q1 : 0.999999284744, Q2 : -0.000641054590233, Q3 : -0.000164501092513, Q4 : -0.00101701379754}
2019-04-14 03:58:01.11: SIM {TimeUS : 48334825, Roll : -0.09, Pitch : 0.0, Yaw : 359.88, Alt : 38.75, Lat : 49.2835706, Lng : -123.1150206, Q1 : 0.999999165535, Q2 : -0.000810876314063, Q3 : -3.15621764457e-05, Q4 : -0.00102345703635}
2019-04-14 03:58:01.21: SIM {TimeUS : 48434785, Roll : -0.09, Pitch : 0.01, Yaw : 359.88, Alt : 38.9799995422, Lat : 49.2835706, Lng : -123.1150206, Q1 : 0.99999910593, Q2 : -0.000825723109301, Q3 : 9.23452389543e-05, Q4 : -0.0010272054933}
2019-04-14 03:58:01.31: SIM {TimeUS : 48534745, Roll : -0.07, Pitch : 0.03, Yaw : 359.88, Alt : 39.2099990845, Lat : 49.2835706, Lng : -123.1150206, Q1 : 0.99999922514, Q2 : -0.000672331196256, Q3 : 0.000304279819829, Q4 : -0.00102873158175}
2019-04-14 03:58:01.41: SIM {TimeUS : 48634705, Roll : -0.05, Pitch : 0.04, Yaw : 359.88, Alt : 39.4399986267, Lat : 49.2835706, Lng : -123.1150206, Q1 : 0.999999284744, Q2 : -0.000476535526104, Q3 : 0.00036617970909, Q4 : -0.00102549954318}
2019-04-14 03:58:01.51: SIM {TimeUS : 48734665, Roll : -0.02, Pitch : 0.04, Yaw : 359.88, Alt : 39.6699981689, Lat : 49.2835706, Lng : -123.1150207, Q1 : 0.999999344349, Q2 : -0.000220611065743, Q3 : 0.000414908252424, Q4 : -0.00102370907553}
2019-04-14 03:58:01.61: SIM {TimeUS : 48835458, Roll : 0.01, Pitch : 0.07, Yaw : 359.88, Alt : 39.9000015259, Lat : 49.2835706, Lng : -123.1150207, Q1 : 0.99999922514, Q2 : 0.00013803326874, Q3 : 0.00068870279938, Q4 : -0.00102127098944}
2019-04-14 03:58:01.71: SIM {TimeUS : 48935418, Roll : 0.05, Pitch : 0.12, Yaw : 359.88, Alt : 40.1399993896, Lat : 49.2835706, Lng : -123.1150207, Q1 : 0.999998807907, Q2 : 0.000504805357195, Q3 : 0.00105433294084, Q4 : -0.00102689641062}
2019-04-14 03:58:01.81: SIM {TimeUS : 49035378, Roll : 0.08, Pitch : 0.15, Yaw : 359.88, Alt : 40.3699989319, Lat : 49.2835706, Lng : -123.1150207, Q1 : 0.999998211861, Q2 : 0.000774540589191, Q3 : 0.00138343009166, Q4 : -0.0010432866402}
2019-04-14 03:58:01.91: SIM {TimeUS : 49135338, Roll : 0.08, Pitch : 0.18, Yaw : 359.87, Alt : 40.5999984741, Lat : 49.2835706, Lng : -123.1150207, Q1 : 0.999997854233, Q2 : 0.000701663666405, Q3 : 0.0016547027044, Q4 : -0.00105292256922}
2019-04-14 03:58:02.01: SIM {TimeUS : 49235298, Roll : 0.03, Pitch : 0.2, Yaw : 359.87, Alt : 40.8300018311, Lat : 49.2835706, Lng : -123.1150207, Q1 : 0.999997735023, Q2 : 0.000282980501652, Q3 : 0.00180948653724, Q4 : -0.00107911799569}
2019-04-14 03:58:02.11: SIM {TimeUS : 49335258, Roll : -0.01, Pitch : 0.2, Yaw : 359.87, Alt : 41.0600013733, Lat : 49.2835706, Lng : -123.1150207, Q1 : 0.999997735023, Q2 : -0.000106708459498, Q3 : 0.00181567261461, Q4 : -0.00110840098932}
2019-04-14 03:58:02.21: SIM {TimeUS : 49435218, Roll : -0.03, Pitch : 0.17, Yaw : 359.86, Alt : 41.2999992371, Lat : 49.2835706, Lng : -123.1150207, Q1 : 0.999998092651, Q2 : -0.000305537017994, Q3 : 0.00154884031508, Q4 : -0.001139015425}
2019-04-14 03:58:02.31: SIM {TimeUS : 49535178, Roll : -0.04, Pitch : 0.13, Yaw : 359.86, Alt : 41.5299987793, Lat : 49.2835706, Lng : -123.1150207, Q1 : 0.999998509884, Q2 : -0.000350385438651, Q3 : 0.00119239592459, Q4 : -0.00117864774074}
2019-04-14 03:58:02.41: SIM {TimeUS : 49635138, Roll : -0.02, Pitch : 0.12, Yaw : 359.85, Alt : 41.7599983215, Lat : 49.2835706, Lng : -123.1150207, Q1 : 0.999998629093, Q2 : -0.000205735588679, Q3 : 0.00109053088818, Q4 : -0.00122262758669}
2019-04-14 03:58:02.51: SIM {TimeUS : 49735098, Roll : 0.01, Pitch : 0.13, Yaw : 359.85, Alt : 42.0, Lat : 49.2835706, Lng : -123.1150207, Q1 : 0.999998509884, Q2 : 0.000159400020493, Q3 : 0.00116531539243, Q4 : -0.00126934458967}
2019-04-14 03:58:02.61: SIM {TimeUS : 49835058, Roll : 0.07, Pitch : 0.13, Yaw : 359.84, Alt : 42.2299995422, Lat : 49.2835706, Lng : -123.1150207, Q1 : 0.999998211861, Q2 : 0.000618476013187, Q3 : 0.00120557891205, Q4 : -0.00131502747536}
2019-04-14 03:58:02.71: SIM {TimeUS : 49935018, Roll : 0.1, Pitch : 0.11, Yaw : 359.84, Alt : 42.4700012207, Lat : 49.2835706, Lng : -123.1150207, Q1 : 0.999998152256, Q2 : 0.000944039144088, Q3 : 0.00100516481325, Q4 : -0.00136176496744}
2019-04-14 03:58:02.81: SIM {TimeUS : 50034978, Roll : 0.11, Pitch : 0.08, Yaw : 359.83, Alt : 42.7000007629, Lat : 49.2835706, Lng : -123.1150207, Q1 : 0.999998271465, Q2 : 0.000965354323853, Q3 : 0.000714162888471, Q4 : -0.00140703900252}
2019-04-14 03:58:02.91: SIM {TimeUS : 50134938, Roll : 0.07, Pitch : 0.05, Yaw : 359.83, Alt : 42.9399986267, Lat : 49.2835706, Lng : -123.1150207, Q1 : 0.999998629093, Q2 : 0.000646481232252, Q3 : 0.000510316283908, Q4 : -0.00143907906022}
2019-04-14 03:58:03.01: SIM {TimeUS : 50234898, Roll : 0.01, Pitch : 0.05, Yaw : 359.83, Alt : 43.1699981689, Lat : 49.2835704, Lng : -123.1150207, Q1 : 0.999998807907, Q2 : 0.000172219995875, Q3 : 0.000473794993013, Q4 : -0.00146451371256}
2019-04-14 03:58:03.11: SIM {TimeUS : 50334858, Roll : -0.02, Pitch : 0.07, Yaw : 359.83, Alt : 43.4099998474, Lat : 49.2835704, Lng : -123.1150207, Q1 : 0.999998688698, Q2 : -0.000183330164873, Q3 : 0.000649619672913, Q4 : -0.0014834565809}
2019-04-14 03:58:03.21: SIM {TimeUS : 50434818, Roll : -0.04, Pitch : 0.08, Yaw : 359.82, Alt : 43.6399993896, Lat : 49.2835704, Lng : -123.1150207, Q1 : 0.999998509884, Q2 : -0.000360144709703, Q3 : 0.000738318369258, Q4 : -0.00150074041449}
2019-04-14 03:58:03.31: SIM {TimeUS : 50534778, Roll : -0.04, Pitch : 0.06, Yaw : 359.82, Alt : 43.8800010681, Lat : 49.2835704, Lng : -123.1150207, Q1 : 0.999998569489, Q2 : -0.000357515440555, Q3 : 0.000606356363278, Q4 : -0.00151991599705}
2019-04-14 03:58:03.41: SIM {TimeUS : 50634738, Roll : -0.05, Pitch : 0.04, Yaw : 359.82, Alt : 44.1100006104, Lat : 49.2835704, Lng : -123.1150207, Q1 : 0.999998629093, Q2 : -0.000436564878328, Q3 : 0.000422348792199, Q4 : -0.00154359336011}
2019-04-14 03:58:03.51: SIM {TimeUS : 50734698, Roll : -0.04, Pitch : 0.02, Yaw : 359.82, Alt : 44.3499984741, Lat : 49.2835704, Lng : -123.1150206, Q1 : 0.999998688698, Q2 : -0.000427790917456, Q3 : 0.000240917463088, Q4 : -0.00156548433006}
2019-04-14 03:58:03.61: SIM {TimeUS : 50834658, Roll : -0.03, Pitch : 0.02, Yaw : 359.81, Alt : 44.5800018311, Lat : 49.2835704, Lng : -123.1150206, Q1 : 0.999998688698, Q2 : -0.00029638959677, Q3 : 0.000189587110071, Q4 : -0.00159013911616}
2019-04-14 03:58:03.71: SIM {TimeUS : 50935451, Roll : -0.02, Pitch : 0.02, Yaw : 359.81, Alt : 44.8199996948, Lat : 49.2835704, Lng : -123.1150206, Q1 : 0.999998629093, Q2 : -0.000184757780517, Q3 : 0.000219327674131, Q4 : -0.00161523534916}
2019-04-14 03:58:03.81: SIM {TimeUS : 51035411, Roll : -0.01, Pitch : 0.02, Yaw : 359.81, Alt : 45.0600013733, Lat : 49.2835703, Lng : -123.1150206, Q1 : 0.999998629093, Q2 : -0.000121720433526, Q3 : 0.000178023576154, Q4 : -0.00164000096265}
2019-04-14 03:58:03.91: SIM {TimeUS : 51135371, Roll : -0.01, Pitch : 0.0, Yaw : 359.8, Alt : 45.2900009155, Lat : 49.2835703, Lng : -123.1150206, Q1 : 0.999998629093, Q2 : -0.000136857575853, Q3 : -7.33344932087e-05, Q4 : -0.0016603555996}
2019-04-14 03:58:04.01: SIM {TimeUS : 51235331, Roll : -0.02, Pitch : -0.03, Yaw : 359.8, Alt : 45.5299987793, Lat : 49.2835703, Lng : -123.1150206, Q1 : 0.999998509884, Q2 : -0.000186869510799, Q3 : -0.00032716957503, Q4 : -0.00167829927523}
2019-04-14 03:58:04.11: SIM {TimeUS : 51335291, Roll : -0.02, Pitch : -0.05, Yaw : 359.8, Alt : 45.7599983215, Lat : 49.2835703, Lng : -123.1150206, Q1 : 0.999998450279, Q2 : -0.000197601446416, Q3 : -0.000479050329886, Q4 : -0.00169676239602}
2019-04-14 03:58:04.21: SIM {TimeUS : 51435251, Roll : -0.03, Pitch : -0.05, Yaw : 359.8, Alt : 46.0, Lat : 49.2835703, Lng : -123.1150206, Q1 : 0.99999833107, Q2 : -0.000282526976662, Q3 : -0.000511078338604, Q4 : -0.00171237345785}
2019-04-14 03:58:04.31: SIM {TimeUS : 51535211, Roll : -0.05, Pitch : -0.04, Yaw : 359.8, Alt : 46.2200012207, Lat : 49.2835703, Lng : -123.1150206, Q1 : 0.999998271465, Q2 : -0.000503500399645, Q3 : -0.000430956366472, Q4 : -0.00172921270132}
2019-04-14 03:58:04.41: SIM {TimeUS : 51635171, Roll : -0.09, Pitch : -0.04, Yaw : 359.79, Alt : 46.4500007629, Lat : 49.2835703, Lng : -123.1150206, Q1 : 0.999998092651, Q2 : -0.000822539033834, Q3 : -0.000351578608388, Q4 : -0.00174717034679}
2019-04-14 03:58:04.51: SIM {TimeUS : 51735131, Roll : -0.11, Pitch : -0.03, Yaw : 359.79, Alt : 46.6699981689, Lat : 49.2835703, Lng : -123.1150206, Q1 : 0.999997854233, Q2 : -0.00102502817754, Q3 : -0.000303808890749, Q4 : -0.00176685431506}
2019-04-14 03:58:04.61: SIM {TimeUS : 51835091, Roll : -0.12, Pitch : -0.02, Yaw : 359.79, Alt : 46.8800010681, Lat : 49.2835703, Lng : -123.1150206, Q1 : 0.999997794628, Q2 : -0.00107842055149, Q3 : -0.000183870462934, Q4 : -0.00178796518594}
2019-04-14 03:58:04.71: SIM {TimeUS : 51935051, Roll : -0.11, Pitch : 0.0, Yaw : 359.79, Alt : 47.0900001526, Lat : 49.2835703, Lng : -123.1150206, Q1 : 0.999997913837, Q2 : -0.000962392950896, Q3 : 1.39234034577e-05, Q4 : -0.00181087828241}
2019-04-14 03:58:04.81: SIM {TimeUS : 52035011, Roll : -0.08, Pitch : 0.01, Yaw : 359.78, Alt : 47.2900009155, Lat : 49.2835703, Lng : -123.1150206, Q1 : 0.999998033047, Q2 : -0.000729650259018, Q3 : 0.000102307873021, Q4 : -0.00184159202036}
2019-04-14 03:58:04.91: SIM {TimeUS : 52134971, Roll : -0.06, Pitch : 0.0, Yaw : 359.78, Alt : 47.4799995422, Lat : 49.2835703, Lng : -123.1150206, Q1 : 0.999998092651, Q2 : -0.000525375187863, Q3 : 4.92370345455e-05, Q4 : -0.00187775224913}
2019-04-14 03:58:05.01: SIM {TimeUS : 52234931, Roll : -0.05, Pitch : -0.01, Yaw : 359.78, Alt : 47.6699981689, Lat : 49.2835703, Lng : -123.1150206, Q1 : 0.999998033047, Q2 : -0.00048429419985, Q3 : -0.000112430585432, Q4 : -0.00191691284999}
2019-04-14 03:58:05.11: SIM {TimeUS : 52334891, Roll : -0.05, Pitch : -0.04, Yaw : 359.77, Alt : 47.8400001526, Lat : 49.2835703, Lng : -123.1150206, Q1 : 0.999997913837, Q2 : -0.000506454030983, Q3 : -0.000410477136029, Q4 : -0.00195185595658}
2019-04-14 03:58:05.21: SIM {TimeUS : 52434851, Roll : -0.04, Pitch : -0.07, Yaw : 359.77, Alt : 48.0, Lat : 49.2835703, Lng : -123.1150206, Q1 : 0.999997735023, Q2 : -0.000412574416259, Q3 : -0.000685352424625, Q4 : -0.00198412011378}
2019-04-14 03:58:05.31: SIM {TimeUS : 52534811, Roll : -0.03, Pitch : -0.1, Yaw : 359.76, Alt : 48.1399993896, Lat : 49.2835703, Lng : -123.1150206, Q1 : 0.999997496605, Q2 : -0.000303636887111, Q3 : -0.000918612582609, Q4 : -0.00201197923161}
2019-04-14 03:58:05.41: SIM {TimeUS : 52634771, Roll : -0.03, Pitch : -0.11, Yaw : 359.76, Alt : 48.2799987793, Lat : 49.2835703, Lng : -123.1150206, Q1 : 0.999997377396, Q2 : -0.000303644192172, Q3 : -0.00103376654442, Q4 : -0.00203510257415}
2019-04-14 03:58:05.51: SIM {TimeUS : 52734731, Roll : 0.0, Pitch : -0.1, Yaw : 359.76, Alt : 48.4099998474, Lat : 49.2835703, Lng : -123.1150206, Q1 : 0.999997437, Q2 : -6.74317998346e-05, Q3 : -0.000955198192969, Q4 : -0.00205736351199}
2019-04-14 03:58:05.61: SIM {TimeUS : 52834691, Roll : 0.02, Pitch : -0.08, Yaw : 359.76, Alt : 48.5200004578, Lat : 49.2835703, Lng : -123.1150206, Q1 : 0.99999755621, Q2 : 0.000258822168689, Q3 : -0.00074752495857, Q4 : -0.00207400228828}
2019-04-14 03:58:05.71: SIM {TimeUS : 52935484, Roll : 0.05, Pitch : -0.05, Yaw : 359.76, Alt : 48.6199989319, Lat : 49.2835703, Lng : -123.1150206, Q1 : 0.99999755621, Q2 : 0.000519516644999, Q3 : -0.000482676434331, Q4 : -0.00208920193836}
2019-04-14 03:58:05.81: SIM {TimeUS : 53035444, Roll : 0.07, Pitch : -0.02, Yaw : 359.75, Alt : 48.7099990845, Lat : 49.2835703, Lng : -123.1150206, Q1 : 0.99999755621, Q2 : 0.000620633247308, Q3 : -0.000251422752626, Q4 : -0.00210572755896}
2019-04-14 03:58:05.91: SIM {TimeUS : 53135404, Roll : 0.07, Pitch : -0.01, Yaw : 359.75, Alt : 48.7799987793, Lat : 49.2835703, Lng : -123.1150207, Q1 : 0.99999755621, Q2 : 0.000649115012493, Q3 : -0.000144173856825, Q4 : -0.00212311372161}
2019-04-14 03:58:06.01: SIM {TimeUS : 53235364, Roll : 0.06, Pitch : -0.02, Yaw : 359.75, Alt : 48.8499984741, Lat : 49.2835703, Lng : -123.1150207, Q1 : 0.999997496605, Q2 : 0.000585191242862, Q3 : -0.000256145489402, Q4 : -0.00215517007746}
2019-04-14 03:58:06.11: SIM {TimeUS : 53335324, Roll : 0.03, Pitch : -0.03, Yaw : 359.74, Alt : 48.9099998474, Lat : 49.2835703, Lng : -123.1150207, Q1 : 0.999997496605, Q2 : 0.000332196475938, Q3 : -0.000317036843626, Q4 : -0.002186964266}
2019-04-14 03:58:06.21: SIM {TimeUS : 53435284, Roll : 0.01, Pitch : -0.03, Yaw : 359.74, Alt : 48.9599990845, Lat : 49.2835703, Lng : -123.1150207, Q1 : 0.999997496605, Q2 : 0.000127919891383, Q3 : -0.000299213454127, Q4 : -0.00221667881124}
2019-04-14 03:58:06.31: SIM {TimeUS : 53535244, Roll : 0.03, Pitch : -0.08, Yaw : 359.74, Alt : 49.0, Lat : 49.2835703, Lng : -123.1150207, Q1 : 0.999997198582, Q2 : 0.000282643450191, Q3 : -0.000723603588995, Q4 : -0.00224903668277}
2019-04-14 03:58:06.41: SIM {TimeUS : 53635204, Roll : 0.17, Pitch : -0.27, Yaw : 359.73, Alt : 49.0299987793, Lat : 49.2835703, Lng : -123.1150207, Q1 : 0.99999320507, Q2 : 0.00153666560072, Q3 : -0.00243898225017, Q4 : -0.00228242878802}
2019-04-14 03:58:06.51: SIM {TimeUS : 53735164, Roll : 0.5, Pitch : -0.69, Yaw : 359.73, Alt : 49.0699996948, Lat : 49.2835704, Lng : -123.1150207, Q1 : 0.999969244003, Q2 : 0.00440769502893, Q3 : -0.00606483453885, Q4 : -0.00231064669788}
2019-04-14 03:58:06.61: SIM {TimeUS : 53835124, Roll : 0.99, Pitch : -1.33, Yaw : 359.72, Alt : 49.0900001526, Lat : 49.2835704, Lng : -123.1150207, Q1 : 0.999891936779, Q2 : 0.00862549897283, Q3 : -0.0116740493104, Q4 : -0.00233168946579}
2019-04-14 03:58:06.71: SIM {TimeUS : 53935084, Roll : 1.56, Pitch : -2.16, Yaw : 359.7, Alt : 49.1100006104, Lat : 49.2835704, Lng : -123.1150206, Q1 : 0.999725282192, Q2 : 0.0136477928609, Q3 : -0.0189133603126, Q4 : -0.00233509275131}
2019-04-14 03:58:06.81: SIM {TimeUS : 54035044, Roll : 2.16, Pitch : -3.04, Yaw : 359.68, Alt : 49.1300010681, Lat : 49.2835706, Lng : -123.1150206, Q1 : 0.999466776848, Q2 : 0.018815997988, Q3 : -0.0265897363424, Q4 : -0.00227638706565}
2019-04-14 03:58:06.91: SIM {TimeUS : 54135004, Roll : 2.68, Pitch : -3.84, Yaw : 359.66, Alt : 49.1500015259, Lat : 49.2835707, Lng : -123.1150205, Q1 : 0.999162197113, Q2 : 0.0232751946896, Q3 : -0.0335946194828, Q4 : -0.0021475693211}
2019-04-14 03:58:07.01: SIM {TimeUS : 54234964, Roll : 3.08, Pitch : -4.47, Yaw : 359.65, Alt : 49.1699981689, Lat : 49.2835708, Lng : -123.1150203, Q1 : 0.998875319958, Q2 : 0.0267438814044, Q3 : -0.039103500545, Q4 : -0.00194752635434}
2019-04-14 03:58:07.11: SIM {TimeUS : 54334924, Roll : 3.37, Pitch : -4.91, Yaw : 359.66, Alt : 49.1800003052, Lat : 49.283571, Lng : -123.1150201, Q1 : 0.998646020889, Q2 : 0.0292911939323, Q3 : -0.0429579913616, Q4 : -0.00168567546643}
2019-04-14 03:58:07.21: SIM {TimeUS : 54434884, Roll : 3.59, Pitch : -5.24, Yaw : 359.67, Alt : 49.1899986267, Lat : 49.2835713, Lng : -123.1150199, Q1 : 0.998463749886, Q2 : 0.0311790350825, Q3 : -0.0457831546664, Q4 : -0.00139408826362}
2019-04-14 03:58:07.31: SIM {TimeUS : 54534844, Roll : 3.78, Pitch : -5.51, Yaw : 359.69, Alt : 49.2000007629, Lat : 49.2835716, Lng : -123.1150196, Q1 : 0.998300552368, Q2 : 0.0328377783298, Q3 : -0.0481297671795, Q4 : -0.00110495311674}
2019-04-14 03:58:07.41: SIM {TimeUS : 54634804, Roll : 3.97, Pitch : -5.77, Yaw : 359.7, Alt : 49.2099990845, Lat : 49.2835721, Lng : -123.1150191, Q1 : 0.998129427433, Q2 : 0.0344894826412, Q3 : -0.050472587347, Q4 : -0.000827229116112}
2019-04-14 03:58:07.51: SIM {TimeUS : 54734764, Roll : 4.18, Pitch : -6.1, Yaw : 359.71, Alt : 49.2200012207, Lat : 49.2835725, Lng : -123.1150187, Q1 : 0.997919440269, Q2 : 0.0362896844745, Q3 : -0.0532876364887, Q4 : -0.000570533971768}
2019-04-14 03:58:07.61: SIM {TimeUS : 54834724, Roll : 4.39, Pitch : -6.42, Yaw : 359.71, Alt : 49.2200012207, Lat : 49.2835729, Lng : -123.1150181, Q1 : 0.997696399689, Q2 : 0.0381307005882, Q3 : -0.0561055764556, Q4 : -0.000323556654621}
2019-04-14 03:58:07.71: SIM {TimeUS : 54934684, Roll : 4.58, Pitch : -6.69, Yaw : 359.72, Alt : 49.2299995422, Lat : 49.2835735, Lng : -123.1150175, Q1 : 0.997500300407, Q2 : 0.0397845543921, Q3 : -0.0583986975253, Q4 : -8.86909401743e-05}
2019-04-14 03:58:07.81: SIM {TimeUS : 55035477, Roll : 4.71, Pitch : -6.85, Yaw : 359.72, Alt : 49.2400016785, Lat : 49.2835743, Lng : -123.1150168, Q1 : 0.997367441654, Q2 : 0.0409156754613, Q3 : -0.0598672442138, Q4 : 0.000108648899186}
2019-04-14 03:58:07.91: SIM {TimeUS : 55135437, Roll : 4.79, Pitch : -6.96, Yaw : 359.73, Alt : 49.2400016785, Lat : 49.283575, Lng : -123.1150161, Q1 : 0.997281551361, Q2 : 0.0415981076658, Q3 : -0.0608202815056, Q4 : 0.000257742067333}
2019-04-14 03:58:08.01: SIM {TimeUS : 55235397, Roll : 4.83, Pitch : -7.06, Yaw : 359.74, Alt : 49.2400016785, Lat : 49.2835757, Lng : -123.1150153, Q1 : 0.997213363647, Q2 : 0.0419939011335, Q3 : -0.0616595037282, Q4 : 0.000347659224644}
2019-04-14 03:58:08.11: SIM {TimeUS : 55335357, Roll : 4.9, Pitch : -7.16, Yaw : 359.73, Alt : 49.25, Lat : 49.2835765, Lng : -123.1150144, Q1 : 0.997133731842, Q2 : 0.0425811633468, Q3 : -0.0625380054116, Q4 : 0.000412461260566}
2019-04-14 03:58:08.21: SIM {TimeUS : 55435317, Roll : 5.13, Pitch : -7.24, Yaw : 359.81, Alt : 49.25, Lat : 49.2835774, Lng : -123.1150135, Q1 : 0.997003912926, Q2 : 0.044639647007, Q3 : -0.0631589516997, Q4 : 0.00120308669284}
2019-04-14 03:58:08.31: SIM {TimeUS : 55535277, Roll : 5.64, Pitch : -7.26, Yaw : 0.41, Alt : 49.2599983215, Lat : 49.2835783, Lng : -123.1150125, Q1 : 0.99676078558, Q2 : 0.0494149290025, Q3 : -0.0630936101079, Q4 : 0.00672605913132}
2019-04-14 03:58:08.41: SIM {TimeUS : 55635237, Roll : 6.29, Pitch : -7.36, Yaw : 2.23, Alt : 49.2599983215, Lat : 49.2835793, Lng : -123.1150115, Q1 : 0.99617421627, Q2 : 0.0560008138418, Q3 : -0.0630502849817, Q4 : 0.0229236669838}
2019-04-14 03:58:08.51: SIM {TimeUS : 55735197, Roll : 6.7, Pitch : -7.76, Yaw : 5.64, Alt : 49.2599983215, Lat : 49.2835804, Lng : -123.1150103, Q1 : 0.994598150253, Q2 : 0.0615644976497, Q3 : -0.0646430253983, Q4 : 0.0529681369662}
2019-04-14 03:58:08.61: SIM {TimeUS : 55835157, Roll : 6.58, Pitch : -8.5, Yaw : 10.6, Alt : 49.2599983215, Lat : 49.2835813, Lng : -123.1150091, Q1 : 0.990948617458, Q2 : 0.0638926997781, Q3 : -0.0683861300349, Q4 : 0.0962388962507}
2019-04-14 03:58:08.71: SIM {TimeUS : 55935117, Roll : 5.7, Pitch : -9.48, Yaw : 16.88, Alt : 49.2599983215, Lat : 49.2835824, Lng : -123.1150077, Q1 : 0.983947455883, Q2 : 0.0612044632435, Q3 : -0.074423097074, Q4 : 0.15020827949}
2019-04-14 03:58:08.81: SIM {TimeUS : 56035077, Roll : 3.81, Pitch : -10.55, Yaw : 23.96, Alt : 49.2599983215, Lat : 49.2835837, Lng : -123.1150063, Q1 : 0.972887992859, Q2 : 0.0514728426933, Q3 : -0.0830118432641, Q4 : 0.209639087319}
2019-04-14 03:58:08.91: SIM {TimeUS : 56135037, Roll : 1.1, Pitch : -11.45, Yaw : 31.06, Alt : 49.2700004578, Lat : 49.2835849, Lng : -123.1150047, Q1 : 0.958357095718, Q2 : 0.035988945514, Q3 : -0.0935813188553, Q4 : 0.267393022776}
2019-04-14 03:58:09.01: SIM {TimeUS : 56234997, Roll : -1.83, Pitch : -12.04, Yaw : 37.41, Alt : 49.2700004578, Lat : 49.2835861, Lng : -123.1150031, Q1 : 0.94234764576, Q2 : 0.0185513775796, Q3 : -0.104449115694, Q4 : 0.317375391722}
2019-04-14 03:58:09.11: SIM {TimeUS : 56334957, Roll : -4.38, Pitch : -12.31, Yaw : 42.4, Alt : 49.2700004578, Lat : 49.2835874, Lng : -123.1150015, Q1 : 0.927739202976, Q2 : 0.00332267628983, Q3 : -0.113710589707, Q4 : 0.355469912291}
2019-04-14 03:58:09.21: SIM {TimeUS : 56434917, Roll : -6.07, Pitch : -12.41, Yaw : 45.67, Alt : 49.2700004578, Lat : 49.2835889, Lng : -123.1149999, Q1 : 0.917144179344, Q2 : -0.00665079709142, Q3 : -0.119927369058, Q4 : 0.380026042461}
2019-04-14 03:58:09.31: SIM {TimeUS : 56534877, Roll : -6.75, Pitch : -12.49, Yaw : 47.23, Alt : 49.2700004578, Lat : 49.2835904, Lng : -123.1149981, Q1 : 0.911788105965, Q2 : -0.0101288994774, Q3 : -0.123020023108, Q4 : 0.39167073369}
2019-04-14 03:58:09.41: SIM {TimeUS : 56634837, Roll : -6.53, Pitch : -12.69, Yaw : 47.3, Alt : 49.2700004578, Lat : 49.2835921, Lng : -123.1149966, Q1 : 0.911440610886, Q2 : -0.00761113315821, Q3 : -0.12384428829, Q4 : 0.392276316881}
2019-04-14 03:58:09.51: SIM {TimeUS : 56734797, Roll : -5.63, Pitch : -13.08, Yaw : 46.18, Alt : 49.2700004578, Lat : 49.2835939, Lng : -123.1149949, Q1 : 0.914958715439, Q2 : -0.000270384800388, Q3 : -0.12382555753, Q4 : 0.384080350399}
2019-04-14 03:58:09.61: SIM {TimeUS : 56834757, Roll : -4.3, Pitch : -13.65, Yaw : 44.22, Alt : 49.2700004578, Lat : 49.2835957, Lng : -123.1149932, Q1 : 0.920924305916, Q2 : 0.0101829245687, Q3 : -0.124045230448, Q4 : 0.369333952665}
2019-04-14 03:58:09.71: SIM {TimeUS : 56934717, Roll : -2.76, Pitch : -14.27, Yaw : 41.7, Alt : 49.2700004578, Lat : 49.2835976, Lng : -123.1149914, Q1 : 0.928064405918, Q2 : 0.021873306483, Q3 : -0.124628402293, Q4 : 0.35026538372}
2019-04-14 03:58:09.81: SIM {TimeUS : 57034677, Roll : -1.18, Pitch : -14.84, Yaw : 38.93, Alt : 49.2799987793, Lat : 49.2835995, Lng : -123.1149897, Q1 : 0.935337483883, Q2 : 0.03337873891, Q3 : -0.125189587474, Q4 : 0.329176574945}
2019-04-14 03:58:09.91: SIM {TimeUS : 57135470, Roll : 0.29, Pitch : -15.25, Yaw : 36.2, Alt : 49.2799987793, Lat : 49.2836017, Lng : -123.1149878, Q1 : 0.941978693008, Q2 : 0.0436390377581, Q3 : -0.125397861004, Q4 : 0.30829718709}
2019-04-14 03:58:10.01: SIM {TimeUS : 57235430, Roll : 1.5, Pitch : -15.47, Yaw : 33.85, Alt : 49.2799987793, Lat : 49.2836037, Lng : -123.1149859, Q1 : 0.947358727455, Q2 : 0.0516182519495, Q3 : -0.125041112304, Q4 : 0.290192484856}
2019-04-14 03:58:10.11: SIM {TimeUS : 57335390, Roll : 2.36, Pitch : -15.54, Yaw : 32.06, Alt : 49.2799987793, Lat : 49.2836059, Lng : -123.1149838, Q1 : 0.951282978058, Q2 : 0.0570447891951, Q3 : -0.124327942729, Q4 : 0.276313483715}
2019-04-14 03:58:10.21: SIM {TimeUS : 57435350, Roll : 2.84, Pitch : -15.54, Yaw : 30.94, Alt : 49.2799987793, Lat : 49.283608, Lng : -123.1149816, Q1 : 0.953705310822, Q2 : 0.0597623735666, Q3 : -0.12375395, Q4 : 0.267506271601}
2019-04-14 03:58:10.31: SIM {TimeUS : 57535310, Roll : 2.92, Pitch : -15.54, Yaw : 30.5, Alt : 49.2799987793, Lat : 49.2836104, Lng : -123.1149792, Q1 : 0.95470225811, Q2 : 0.059993840754, Q3 : -0.1237449646, Q4 : 0.263877987862}
2019-04-14 03:58:10.41: SIM {TimeUS : 57635270, Roll : 2.67, Pitch : -15.57, Yaw : 30.65, Alt : 49.2799987793, Lat : 49.2836126, Lng : -123.1149768, Q1 : 0.954428792, Q2 : 0.0581531971693, Q3 : -0.124499976635, Q4 : 0.264921963215}
2019-04-14 03:58:10.51: SIM {TimeUS : 57735230, Roll : 2.16, Pitch : -15.64, Yaw : 31.3, Alt : 49.2799987793, Lat : 49.283615, Lng : -123.1149744, Q1 : 0.953092455864, Q2 : 0.0547842085361, Q3 : -0.12601301074, Q4 : 0.269692718983}
2019-04-14 03:58:10.61: SIM {TimeUS : 57835190, Roll : 1.51, Pitch : -15.76, Yaw : 32.27, Alt : 49.2799987793, Lat : 49.2836172, Lng : -123.1149718, Q1 : 0.950938403606, Q2 : 0.0506674535573, Q3 : -0.128113880754, Q4 : 0.277012348175}
2019-04-14 03:58:10.71: SIM {TimeUS : 57935150, Roll : 0.8, Pitch : -15.91, Yaw : 33.41, Alt : 49.2799987793, Lat : 49.2836196, Lng : -123.1149692, Q1 : 0.948265314102, Q2 : 0.0464297272265, Q3 : -0.130619645119, Q4 : 0.285614579916}
2019-04-14 03:58:10.81: SIM {TimeUS : 58035110, Roll : 0.11, Pitch : -16.06, Yaw : 34.56, Alt : 49.2799987793, Lat : 49.2836221, Lng : -123.1149665, Q1 : 0.945437312126, Q2 : 0.0424653813243, Q3 : -0.133135765791, Q4 : 0.294312447309}
2019-04-14 03:58:10.91: SIM {TimeUS : 58135070, Roll : -0.48, Pitch : -16.19, Yaw : 35.6, Alt : 49.2799987793, Lat : 49.2836247, Lng : -123.1149638, Q1 : 0.942793369293, Q2 : 0.0390669815242, Q3 : -0.135420739651, Q4 : 0.302118569613}
2019-04-14 03:58:11.01: SIM {TimeUS : 58235030, Roll : -0.94, Pitch : -16.27, Yaw : 36.43, Alt : 49.2799987793, Lat : 49.2836272, Lng : -123.114961, Q1 : 0.940648019314, Q2 : 0.0364900529385, Q3 : -0.136992305517, Q4 : 0.308355182409}
2019-04-14 03:58:11.11: SIM {TimeUS : 58334990, Roll : -1.21, Pitch : -16.3, Yaw : 36.99, Alt : 49.2799987793, Lat : 49.2836298, Lng : -123.1149582, Q1 : 0.939172923565, Q2 : 0.0350322648883, Q3 : -0.137801662087, Q4 : 0.312630265951}
2019-04-14 03:58:11.21: SIM {TimeUS : 58434950, Roll : -1.31, Pitch : -16.31, Yaw : 37.27, Alt : 49.2799987793, Lat : 49.2836323, Lng : -123.1149554, Q1 : 0.938424885273, Q2 : 0.0346101559699, Q3 : -0.138055443764, Q4 : 0.314804077148}
2019-04-14 03:58:11.31: SIM {TimeUS : 58534910, Roll : -1.23, Pitch : -16.33, Yaw : 37.29, Alt : 49.2799987793, Lat : 49.2836351, Lng : -123.1149525, Q1 : 0.938331484795, Q2 : 0.035288952291, Q3 : -0.138012886047, Q4 : 0.315025746822}
2019-04-14 03:58:11.41: SIM {TimeUS : 58634870, Roll : -1.01, Pitch : -16.34, Yaw : 37.09, Alt : 49.2799987793, Lat : 49.2836378, Lng : -123.1149496, Q1 : 0.938798367977, Q2 : 0.0369000062346, Q3 : -0.13759867847, Q4 : 0.313628226519}
2019-04-14 03:58:11.51: SIM {TimeUS : 58734830, Roll : -0.72, Pitch : -16.37, Yaw : 36.73, Alt : 49.2799987793, Lat : 49.2836406, Lng : -123.1149467, Q1 : 0.939664125443, Q2 : 0.038935162127, Q3 : -0.137085437775, Q4 : 0.311003118753}
2019-04-14 03:58:11.61: SIM {TimeUS : 58834790, Roll : -0.41, Pitch : -16.42, Yaw : 36.27, Alt : 49.2799987793, Lat : 49.2836433, Lng : -123.1149438, Q1 : 0.940729618073, Q2 : 0.0410149879754, Q3 : -0.136834591627, Q4 : 0.307606726885}
2019-04-14 03:58:11.71: SIM {TimeUS : 58934750, Roll : -0.13, Pitch : -16.49, Yaw : 35.79, Alt : 49.2799987793, Lat : 49.2836462, Lng : -123.1149408, Q1 : 0.941832661629, Q2 : 0.0429749451578, Q3 : -0.136826530099, Q4 : 0.303945749998}
2019-04-14 03:58:11.81: SIM {TimeUS : 59034710, Roll : 0.11, Pitch : -16.57, Yaw : 35.33, Alt : 49.2799987793, Lat : 49.2836491, Lng : -123.1149377, Q1 : 0.942839443684, Q2 : 0.0447077527642, Q3 : -0.137011483312, Q4 : 0.300471037626}
2019-04-14 03:58:11.91: SIM {TimeUS : 59134670, Roll : 0.31, Pitch : -16.64, Yaw : 34.95, Alt : 49.2900009155, Lat : 49.2836518, Lng : -123.1149347, Q1 : 0.94367992878, Q2 : 0.046017806977, Q3 : -0.137223497033, Q4 : 0.29752355814}
2019-04-14 03:58:12.01: SIM {TimeUS : 59235463, Roll : 0.44, Pitch : -16.68, Yaw : 34.66, Alt : 49.2900009155, Lat : 49.2836548, Lng : -123.1149316, Q1 : 0.944303750992, Q2 : 0.0469265803695, Q3 : -0.137374326587, Q4 : 0.29532456398}
2019-04-14 03:58:12.11: SIM {TimeUS : 59335423, Roll : 0.53, Pitch : -16.71, Yaw : 34.49, Alt : 49.2900009155, Lat : 49.2836578, Lng : -123.1149284, Q1 : 0.944666028023, Q2 : 0.0474917590618, Q3 : -0.137470334768, Q4 : 0.294028103352}
2019-04-14 03:58:12.21: SIM {TimeUS : 59435383, Roll : 0.53, Pitch : -16.74, Yaw : 34.44, Alt : 49.2900009155, Lat : 49.2836607, Lng : -123.1149253, Q1 : 0.94478148222, Q2 : 0.0475496202707, Q3 : -0.137675955892, Q4 : 0.293551117182}
2019-04-14 03:58:12.31: SIM {TimeUS : 59535343, Roll : 0.49, Pitch : -16.76, Yaw : 34.47, Alt : 49.2900009155, Lat : 49.2836637, Lng : -123.1149221, Q1 : 0.944679200649, Q2 : 0.0473022609949, Q3 : -0.137924805284, Q4 : 0.293803483248}
2019-04-14 03:58:12.41: SIM {TimeUS : 59635303, Roll : 0.42, Pitch : -16.79, Yaw : 34.58, Alt : 49.2900009155, Lat : 49.2836667, Lng : -123.1149188, Q1 : 0.944390892982, Q2 : 0.0468705222011, Q3 : -0.138336136937, Q4 : 0.294605046511}
2019-04-14 03:58:12.51: SIM {TimeUS : 59735263, Roll : 0.3, Pitch : -16.82, Yaw : 34.74, Alt : 49.2900009155, Lat : 49.2836697, Lng : -123.1149156, Q1 : 0.943994343281, Q2 : 0.0461720451713, Q3 : -0.138837084174, Q4 : 0.295748382807}
2019-04-14 03:58:12.61: SIM {TimeUS : 59835223, Roll : 0.17, Pitch : -16.85, Yaw : 34.92, Alt : 49.2900009155, Lat : 49.2836726, Lng : -123.1149123, Q1 : 0.943546593189, Q2 : 0.0453848689795, Q3 : -0.139376327395, Q4 : 0.297042638063}
2019-04-14 03:58:12.71: SIM {TimeUS : 59935183, Roll : 0.04, Pitch : -16.89, Yaw : 35.09, Alt : 49.2900009155, Lat : 49.2836756, Lng : -123.114909, Q1 : 0.943090617657, Q2 : 0.0446945354342, Q3 : -0.13997964561, Q4 : 0.298308879137}
2019-04-14 03:58:12.81: SIM {TimeUS : 60035143, Roll : -0.05, Pitch : -16.94, Yaw : 35.24, Alt : 49.2900009155, Lat : 49.2836787, Lng : -123.1149057, Q1 : 0.942682802677, Q2 : 0.0441490523517, Q3 : -0.140582501888, Q4 : 0.299393683672}
2019-04-14 03:58:12.91: SIM {TimeUS : 60135103, Roll : -0.15, Pitch : -16.98, Yaw : 35.35, Alt : 49.2900009155, Lat : 49.2836819, Lng : -123.1149023, Q1 : 0.942378342152, Q2 : 0.0436223335564, Q3 : -0.141126200557, Q4 : 0.300172537565}
2019-04-14 03:58:13.01: SIM {TimeUS : 60235063, Roll : -0.21, Pitch : -17.01, Yaw : 35.42, Alt : 49.2900009155, Lat : 49.283685, Lng : -123.114899, Q1 : 0.942198574543, Q2 : 0.0432436801493, Q3 : -0.14148633182, Q4 : 0.300621896982}
2019-04-14 03:58:13.11: SIM {TimeUS : 60335023, Roll : -0.25, Pitch : -17.03, Yaw : 35.44, Alt : 49.2999992371, Lat : 49.2836881, Lng : -123.1148956, Q1 : 0.942131578922, Q2 : 0.0430409274995, Q3 : -0.141779705882, Q4 : 0.300722748041}
2019-04-14 03:58:13.21: SIM {TimeUS : 60434983, Roll : -0.23, Pitch : -17.07, Yaw : 35.41, Alt : 49.2999992371, Lat : 49.2836912, Lng : -123.1148922, Q1 : 0.942143678665, Q2 : 0.0432217754424, Q3 : -0.142058879137, Q4 : 0.300526887178}
2019-04-14 03:58:13.31: SIM {TimeUS : 60534943, Roll : -0.18, Pitch : -17.11, Yaw : 35.36, Alt : 49.2999992371, Lat : 49.2836943, Lng : -123.1148888, Q1 : 0.942231416702, Q2 : 0.0436358228326, Q3 : -0.142258986831, Q4 : 0.30009713769}
2019-04-14 03:58:13.41: SIM {TimeUS : 60634903, Roll : -0.11, Pitch : -17.15, Yaw : 35.27, Alt : 49.2999992371, Lat : 49.2836974, Lng : -123.1148853, Q1 : 0.942369103432, Q2 : 0.0442738085985, Q3 : -0.142406404018, Q4 : 0.299500823021}
2019-04-14 03:58:13.51: SIM {TimeUS : 60734863, Roll : -0.01, Pitch : -17.19, Yaw : 35.18, Alt : 49.2999992371, Lat : 49.2837007, Lng : -123.1148819, Q1 : 0.94253474474, Q2 : 0.0450806878507, Q3 : -0.14250151813, Q4 : 0.298813164234}
2019-04-14 03:58:13.61: SIM {TimeUS : 60834823, Roll : 0.07, Pitch : -17.21, Yaw : 35.08, Alt : 49.2999992371, Lat : 49.2837039, Lng : -123.1148785, Q1 : 0.942728996277, Q2 : 0.0457061119378, Q3 : -0.142549037933, Q4 : 0.29808190465}
2019-04-14 03:58:13.71: SIM {TimeUS : 60934783, Roll : 0.11, Pitch : -17.23, Yaw : 34.98, Alt : 49.2999992371, Lat : 49.2837071, Lng : -123.114875, Q1 : 0.942934334278, Q2 : 0.0459758713841, Q3 : -0.142621025443, Q4 : 0.297355592251}
2019-04-14 03:58:13.81: SIM {TimeUS : 61034743, Roll : 0.12, Pitch : -17.25, Yaw : 34.9, Alt : 49.2999992371, Lat : 49.2837103, Lng : -123.1148715, Q1 : 0.943113863468, Q2 : 0.0460319370031, Q3 : -0.142764165998, Q4 : 0.296708136797}
2019-04-14 03:58:13.91: SIM {TimeUS : 61134703, Roll : 0.14, Pitch : -17.26, Yaw : 34.84, Alt : 49.2999992371, Lat : 49.2837136, Lng : -123.114868, Q1 : 0.9432477355, Q2 : 0.0461607463658, Q3 : -0.142838090658, Q4 : 0.296226590872}
2019-04-14 03:58:14.01: SIM {TimeUS : 61234663, Roll : 0.17, Pitch : -17.28, Yaw : 34.8, Alt : 49.3100013733, Lat : 49.2837168, Lng : -123.1148645, Q1 : 0.943324863911, Q2 : 0.0463519915938, Q3 : -0.142916694283, Q4 : 0.295912951231}
2019-04-14 03:58:14.11: SIM {TimeUS : 61335456, Roll : 0.2, Pitch : -17.31, Yaw : 34.78, Alt : 49.3100013733, Lat : 49.28372, Lng : -123.1148609, Q1 : 0.943326771259, Q2 : 0.0466588176787, Q3 : -0.143128529191, Q4 : 0.295756310225}
2019-04-14 03:58:14.21: SIM {TimeUS : 61435416, Roll : 0.21, Pitch : -17.36, Yaw : 34.77, Alt : 49.3100013733, Lat : 49.2837234, Lng : -123.1148574, Q1 : 0.943270742893, Q2 : 0.0469081737101, Q3 : -0.143489524722, Q4 : 0.295720726252}
2019-04-14 03:58:14.31: SIM {TimeUS : 61535376, Roll : 0.21, Pitch : -17.38, Yaw : 34.78, Alt : 49.3100013733, Lat : 49.2837266, Lng : -123.1148539, Q1 : 0.943215787411, Q2 : 0.0469668619335, Q3 : -0.143702089787, Q4 : 0.295783370733}
2019-04-14 03:58:14.41: SIM {TimeUS : 61635336, Roll : 0.19, Pitch : -17.38, Yaw : 34.8, Alt : 49.3100013733, Lat : 49.28373, Lng : -123.1148503, Q1 : 0.943186700344, Q2 : 0.0468438863754, Q3 : -0.14369392395, Q4 : 0.295899599791}
2019-04-14 03:58:14.51: SIM {TimeUS : 61735296, Roll : 0.16, Pitch : -17.38, Yaw : 34.82, Alt : 49.3100013733, Lat : 49.2837332, Lng : -123.1148467, Q1 : 0.943141698837, Q2 : 0.0465757474303, Q3 : -0.143815800548, Q4 : 0.296026170254}
2019-04-14 03:58:14.61: SIM {TimeUS : 61835256, Roll : 0.11, Pitch : -17.41, Yaw : 34.84, Alt : 49.3100013733, Lat : 49.2837366, Lng : -123.114843, Q1 : 0.943077385426, Q2 : 0.0462854653597, Q3 : -0.14412869513, Q4 : 0.296124249697}
2019-04-14 03:58:14.71: SIM {TimeUS : 61935216, Roll : 0.08, Pitch : -17.44, Yaw : 34.85, Alt : 49.3100013733, Lat : 49.2837399, Lng : -123.1148394, Q1 : 0.94301879406, Q2 : 0.0461511574686, Q3 : -0.144421935081, Q4 : 0.296189039946}
2019-04-14 03:58:14.81: SIM {TimeUS : 62035176, Roll : 0.06, Pitch : -17.47, Yaw : 34.86, Alt : 49.3100013733, Lat : 49.2837431, Lng : -123.1148359, Q1 : 0.942967951298, Q2 : 0.046082932502, Q3 : -0.144767537713, Q4 : 0.296192824841}
2019-04-14 03:58:14.91: SIM {TimeUS : 62135136, Roll : 0.06, Pitch : -17.5, Yaw : 34.86, Alt : 49.3100013733, Lat : 49.2837465, Lng : -123.1148323, Q1 : 0.942941904068, Q2 : 0.046102553606, Q3 : -0.145029976964, Q4 : 0.29614430666}
2019-04-14 03:58:15.01: SIM {TimeUS : 62235096, Roll : 0.08, Pitch : -17.53, Yaw : 34.84, Alt : 49.3100013733, Lat : 49.2837498, Lng : -123.1148287, Q1 : 0.942932426929, Q2 : 0.0463038124144, Q3 : -0.145206615329, Q4 : 0.296056568623}
2019-04-14 03:58:15.11: SIM {TimeUS : 62335056, Roll : 0.1, Pitch : -17.54, Yaw : 34.83, Alt : 49.3199996948, Lat : 49.2837532, Lng : -123.1148251, Q1 : 0.942953646183, Q2 : 0.0465292744339, Q3 : -0.145249247551, Q4 : 0.295932650566}
2019-04-14 03:58:15.21: SIM {TimeUS : 62435016, Roll : 0.13, Pitch : -17.55, Yaw : 34.8, Alt : 49.3199996948, Lat : 49.2837565, Lng : -123.1148214, Q1 : 0.942983448505, Q2 : 0.0467604957521, Q3 : -0.145302459598, Q4 : 0.295775145292}
2019-04-14 03:58:15.31: SIM {TimeUS : 62534976, Roll : 0.16, Pitch : -17.58, Yaw : 34.78, Alt : 49.3199996948, Lat : 49.28376, Lng : -123.1148178, Q1 : 0.943008720875, Q2 : 0.0470167063177, Q3 : -0.145443037152, Q4 : 0.295584768057}
2019-04-14 03:58:15.41: SIM {TimeUS : 62634936, Roll : 0.16, Pitch : -17.62, Yaw : 34.75, Alt : 49.3199996948, Lat : 49.2837634, Lng : -123.1148142, Q1 : 0.943027615547, Q2 : 0.0471298657358, Q3 : -0.145775735378, Q4 : 0.295342385769}
2019-04-14 03:58:15.51: SIM {TimeUS : 62734896, Roll : 0.15, Pitch : -17.67, Yaw : 34.72, Alt : 49.3199996948, Lat : 49.2837667, Lng : -123.1148105, Q1 : 0.943046689034, Q2 : 0.0471256859601, Q3 : -0.146189332008, Q4 : 0.295077621937}
2019-04-14 03:58:15.61: SIM {TimeUS : 62834856, Roll : 0.14, Pitch : -17.71, Yaw : 34.69, Alt : 49.3199996948, Lat : 49.2837701, Lng : -123.1148068, Q1 : 0.943072497845, Q2 : 0.0470739006996, Q3 : -0.146577715874, Q4 : 0.29481074214}
2019-04-14 03:58:15.71: SIM {TimeUS : 62934816, Roll : 0.14, Pitch : -17.73, Yaw : 34.67, Alt : 49.3199996948, Lat : 49.2837734, Lng : -123.1148031, Q1 : 0.943101346493, Q2 : 0.0471491962671, Q3 : -0.14680750668, Q4 : 0.294591784477}
2019-04-14 03:58:15.81: SIM {TimeUS : 63034776, Roll : 0.15, Pitch : -17.74, Yaw : 34.64, Alt : 49.3199996948, Lat : 49.2837769, Lng : -123.1147995, Q1 : 0.943154454231, Q2 : 0.0472134612501, Q3 : -0.146797627211, Q4 : 0.294416487217}
2019-04-14 03:58:15.91: SIM {TimeUS : 63134736, Roll : 0.17, Pitch : -17.72, Yaw : 34.62, Alt : 49.3199996948, Lat : 49.2837804, Lng : -123.1147958, Q1 : 0.943219482899, Q2 : 0.0472829677165, Q3 : -0.146632537246, Q4 : 0.294279277325}
2019-04-14 03:58:16.01: SIM {TimeUS : 63234696, Roll : 0.17, Pitch : -17.71, Yaw : 34.61, Alt : 49.3199996948, Lat : 49.2837837, Lng : -123.1147921, Q1 : 0.943273901939, Q2 : 0.0472483597696, Q3 : -0.146525889635, Q4 : 0.2941634655}
2019-04-14 03:58:16.11: SIM {TimeUS : 63334656, Roll : 0.18, Pitch : -17.69, Yaw : 34.6, Alt : 49.3199996948, Lat : 49.2837872, Lng : -123.1147884, Q1 : 0.943320155144, Q2 : 0.047237560153, Q3 : -0.146410360932, Q4 : 0.294074296951}
2019-04-14 03:58:16.21: SIM {TimeUS : 63435449, Roll : 0.18, Pitch : -17.68, Yaw : 34.59, Alt : 49.3199996948, Lat : 49.2837907, Lng : -123.1147846, Q1 : 0.943357050419, Q2 : 0.0472344532609, Q3 : -0.146268084645, Q4 : 0.294027388096}
2019-04-14 03:58:16.31: SIM {TimeUS : 63535409, Roll : 0.18, Pitch : -17.68, Yaw : 34.58, Alt : 49.3199996948, Lat : 49.283794, Lng : -123.1147809, Q1 : 0.943363666534, Q2 : 0.0472206063569, Q3 : -0.146321520209, Q4 : 0.293981701136}
2019-04-14 03:58:16.41: SIM {TimeUS : 63635369, Roll : 0.17, Pitch : -17.7, Yaw : 34.58, Alt : 49.3199996948, Lat : 49.2837976, Lng : -123.1147772, Q1 : 0.94335770607, Q2 : 0.0472147390246, Q3 : -0.146457970142, Q4 : 0.293933779001}
2019-04-14 03:58:16.51: SIM {TimeUS : 63735329, Roll : 0.15, Pitch : -17.74, Yaw : 34.57, Alt : 49.3199996948, Lat : 49.2838009, Lng : -123.1147734, Q1 : 0.943321585655, Q2 : 0.047155674547, Q3 : -0.146866410971, Q4 : 0.293855369091}
2019-04-14 03:58:16.61: SIM {TimeUS : 63835289, Roll : 0.14, Pitch : -17.8, Yaw : 34.57, Alt : 49.3300018311, Lat : 49.2838044, Lng : -123.1147697, Q1 : 0.943268537521, Q2 : 0.0472007244825, Q3 : -0.147357448936, Q4 : 0.293772727251}
2019-04-14 03:58:16.71: SIM {TimeUS : 63935249, Roll : 0.15, Pitch : -17.84, Yaw : 34.56, Alt : 49.3300018311, Lat : 49.2838079, Lng : -123.1147659, Q1 : 0.943229615688, Q2 : 0.0473177023232, Q3 : -0.147721886635, Q4 : 0.293695747852}
2019-04-14 03:58:16.81: SIM {TimeUS : 64035209, Roll : 0.15, Pitch : -17.88, Yaw : 34.55, Alt : 49.3300018311, Lat : 49.2838114, Lng : -123.1147622, Q1 : 0.943206131458, Q2 : 0.0473976321518, Q3 : -0.148017346859, Q4 : 0.293609559536}
2019-04-14 03:58:16.91: SIM {TimeUS : 64135169, Roll : 0.14, Pitch : -17.9, Yaw : 34.54, Alt : 49.3300018311, Lat : 49.2838148, Lng : -123.1147584, Q1 : 0.943204402924, Q2 : 0.047431807965, Q3 : -0.148199126124, Q4 : 0.293517947197}
2019-04-14 03:58:17.01: SIM {TimeUS : 64235129, Roll : 0.16, Pitch : -17.89, Yaw : 34.53, Alt : 49.3300018311, Lat : 49.2838184, Lng : -123.1147547, Q1 : 0.943235754967, Q2 : 0.0475468859076, Q3 : -0.148085445166, Q4 : 0.293455660343}
2019-04-14 03:58:17.11: SIM {TimeUS : 64335089, Roll : 0.19, Pitch : -17.89, Yaw : 34.52, Alt : 49.3300018311, Lat : 49.2838219, Lng : -123.1147509, Q1 : 0.943255007267, Q2 : 0.0477661937475, Q3 : -0.148042112589, Q4 : 0.293380230665}
2019-04-14 03:58:17.21: SIM {TimeUS : 64435049, Roll : 0.2, Pitch : -17.91, Yaw : 34.5, Alt : 49.3300018311, Lat : 49.2838252, Lng : -123.1147471, Q1 : 0.943265616894, Q2 : 0.0479038581252, Q3 : -0.148129746318, Q4 : 0.293279409409}
2019-04-14 03:58:17.31: SIM {TimeUS : 64535009, Roll : 0.22, Pitch : -17.91, Yaw : 34.49, Alt : 49.3300018311, Lat : 49.2838287, Lng : -123.1147434, Q1 : 0.943286836147, Q2 : 0.0480109229684, Q3 : -0.148152947426, Q4 : 0.293181866407}
2019-04-14 03:58:17.41: SIM {TimeUS : 64634969, Roll : 0.23, Pitch : -17.9, Yaw : 34.48, Alt : 49.3300018311, Lat : 49.2838323, Lng : -123.1147396, Q1 : 0.943329930305, Q2 : 0.0480305030942, Q3 : -0.148070946336, Q4 : 0.293081462383}
2019-04-14 03:58:17.51: SIM {TimeUS : 64734929, Roll : 0.22, Pitch : -17.9, Yaw : 34.46, Alt : 49.3300018311, Lat : 49.2838359, Lng : -123.1147358, Q1 : 0.943366527557, Q2 : 0.0479945167899, Q3 : -0.148075416684, Q4 : 0.292967200279}
2019-04-14 03:58:17.61: SIM {TimeUS : 64834889, Roll : 0.2, Pitch : -17.92, Yaw : 34.45, Alt : 49.3300018311, Lat : 49.2838394, Lng : -123.114732, Q1 : 0.943386852741, Q2 : 0.047823920846, Q3 : -0.148296758533, Q4 : 0.292817771435}
2019-04-14 03:58:17.71: SIM {TimeUS : 64934849, Roll : 0.16, Pitch : -17.96, Yaw : 34.44, Alt : 49.3300018311, Lat : 49.2838428, Lng : -123.1147281, Q1 : 0.943382322788, Q2 : 0.0476051792502, Q3 : -0.148719236255, Q4 : 0.292653650045}
2019-04-14 03:58:17.81: SIM {TimeUS : 65034809, Roll : 0.14, Pitch : -17.97, Yaw : 34.43, Alt : 49.3300018311, Lat : 49.2838463, Lng : -123.1147244, Q1 : 0.943404555321, Q2 : 0.0474669933319, Q3 : -0.148862570524, Q4 : 0.292531549931}
2019-04-14 03:58:17.91: SIM {TimeUS : 65134769, Roll : 0.15, Pitch : -17.96, Yaw : 34.42, Alt : 49.3300018311, Lat : 49.2838499, Lng : -123.1147206, Q1 : 0.943440616131, Q2 : 0.0474955849349, Q3 : -0.148778766394, Q4 : 0.29245325923}
2019-04-14 03:58:18.01: SIM {TimeUS : 65234729, Roll : 0.17, Pitch : -17.96, Yaw : 34.4, Alt : 49.3300018311, Lat : 49.2838534, Lng : -123.1147168, Q1 : 0.943470954895, Q2 : 0.0476324222982, Q3 : -0.1486659199, Q4 : 0.292390316725}
2019-04-14 03:58:18.11: SIM {TimeUS : 65334689, Roll : 0.19, Pitch : -17.97, Yaw : 34.39, Alt : 49.3400001526, Lat : 49.283857, Lng : -123.114713, Q1 : 0.943484246731, Q2 : 0.047758769244, Q3 : -0.148706659675, Q4 : 0.292306244373}
2019-04-14 03:58:18.21: SIM {TimeUS : 65435482, Roll : 0.18, Pitch : -17.98, Yaw : 34.38, Alt : 49.3400001526, Lat : 49.2838604, Lng : -123.1147092, Q1 : 0.943498551846, Q2 : 0.0477126277983, Q3 : -0.148857727647, Q4 : 0.292190641165}
2019-04-14 03:58:18.31: SIM {TimeUS : 65535442, Roll : 0.15, Pitch : -18.0, Yaw : 34.37, Alt : 49.3400001526, Lat : 49.283864, Lng : -123.1147054, Q1 : 0.943512737751, Q2 : 0.047549109906, Q3 : -0.149074777961, Q4 : 0.292060941458}
2019-04-14 03:58:18.41: SIM {TimeUS : 65635402, Roll : 0.14, Pitch : -18.01, Yaw : 34.36, Alt : 49.3400001526, Lat : 49.2838676, Lng : -123.1147016, Q1 : 0.9435287714, Q2 : 0.0474611595273, Q3 : -0.149225950241, Q4 : 0.291946083307}
2019-04-14 03:58:18.51: SIM {TimeUS : 65735362, Roll : 0.15, Pitch : -18.03, Yaw : 34.35, Alt : 49.3400001526, Lat : 49.2838711, Lng : -123.1146977, Q1 : 0.943537831306, Q2 : 0.0475162826478, Q3 : -0.149349167943, Q4 : 0.291844785213}
2019-04-14 03:58:18.61: SIM {TimeUS : 65835322, Roll : 0.16, Pitch : -18.04, Yaw : 34.33, Alt : 49.3400001526, Lat : 49.2838747, Lng : -123.1146939, Q1 : 0.943543672562, Q2 : 0.047623179853, Q3 : -0.149450480938, Q4 : 0.291756689548}
2019-04-14 03:58:18.71: SIM {TimeUS : 65935282, Roll : 0.18, Pitch : -18.06, Yaw : 34.32, Alt : 49.3400001526, Lat : 49.2838781, Lng : -123.1146901, Q1 : 0.943533301353, Q2 : 0.0478578880429, Q3 : -0.149540528655, Q4 : 0.29170563817}
2019-04-14 03:58:18.81: SIM {TimeUS : 66035242, Roll : 0.19, Pitch : -18.08, Yaw : 34.32, Alt : 49.3400001526, Lat : 49.2838817, Lng : -123.1146863, Q1 : 0.943517625332, Q2 : 0.0480154044926, Q3 : -0.149687573314, Q4 : 0.291654974222}
2019-04-14 03:58:18.91: SIM {TimeUS : 66135202, Roll : 0.2, Pitch : -18.1, Yaw : 34.31, Alt : 49.3400001526, Lat : 49.2838853, Lng : -123.1146825, Q1 : 0.943501889706, Q2 : 0.0481535494328, Q3 : -0.149840533733, Q4 : 0.291604548693}
2019-04-14 03:58:19.01: SIM {TimeUS : 66235162, Roll : 0.22, Pitch : -18.12, Yaw : 34.3, Alt : 49.3400001526, Lat : 49.2838889, Lng : -123.1146786, Q1 : 0.943490386009, Q2 : 0.0483343675733, Q3 : -0.149926960468, Q4 : 0.291567534208}
2019-04-14 03:58:19.11: SIM {TimeUS : 66335122, Roll : 0.25, Pitch : -18.12, Yaw : 34.3, Alt : 49.3400001526, Lat : 49.2838925, Lng : -123.1146748, Q1 : 0.943487763405, Q2 : 0.048599626869, Q3 : -0.149879708886, Q4 : 0.291556298733}
