2019-04-14 05:31:30.60: SIM {TimeUS : 40616247, Roll : 0.0, Pitch : 0.0, Yaw : 0.0, Alt : 30.1000003815, Lat : 49.28357, Lng : -123.11502, Q1 : 1.0, Q2 : 0.0, Q3 : 0.0, Q4 : 0.0}
2019-04-14 05:31:30.71: SIM {TimeUS : 40735366, Roll : 0.0, Pitch : 0.0, Yaw : 0.0, Alt : 30.1000003815, Lat : 49.28357, Lng : -123.11502, Q1 : 1.0, Q2 : 0.0, Q3 : 0.0, Q4 : 0.0}
2019-04-14 05:31:30.81: SIM {TimeUS : 40835326, Roll : 0.0, Pitch : 0.0, Yaw : 0.0, Alt : 30.1000003815, Lat : 49.28357, Lng : -123.11502, Q1 : 1.0, Q2 : 0.0, Q3 : 0.0, Q4 : 0.0}
2019-04-14 05:31:30.91: SIM {TimeUS : 40935286, Roll : 0.0, Pitch : 0.0, Yaw : 0.0, Alt : 30.1000003815, Lat : 49.28357, Lng : -123.11502, Q1 : 1.0, Q2 : 0.0, Q3 : 0.0, Q4 : 0.0}
2019-04-14 05:31:31.01: SIM {TimeUS : 41035246, Roll : 0.0, Pitch : 0.0, Yaw : 0.0, Alt : 30.1000003815, Lat : 49.28357, Lng : -123.11502, Q1 : 1.0, Q2 : 0.0, Q3 : 0.0, Q4 : 0.0}
2019-04-14 05:31:31.11: SIM {TimeUS : 41135206, Roll : 0.0, Pitch : 0.0, Yaw : 0.0, Alt : 30.1000003815, Lat : 49.28357, Lng : -123.11502, Q1 : 1.0, Q2 : 0.0, Q3 : 0.0, Q4 : 0.0}
2019-04-14 05:31:31.21: SIM {TimeUS : 41235166, Roll : 0.0, Pitch : 0.0, Yaw : 0.0, Alt : 30.1000003815, Lat : 49.28357, Lng : -123.11502, Q1 : 1.0, Q2 : 0.0, Q3 : 0.0, Q4 : 0.0}
2019-04-14 05:31:31.31: SIM {TimeUS : 41335126, Roll : 0.0, Pitch : 0.0, Yaw : 0.0, Alt : 30.1000003815, Lat : 49.28357, Lng : -123.11502, Q1 : 1.0, Q2 : 0.0, Q3 : 0.0, Q4 : 0.0}
2019-04-14 05:31:31.41: SIM {TimeUS : 41435086, Roll : 0.0, Pitch : 0.0, Yaw : 0.0, Alt : 30.1000003815, Lat : 49.28357, Lng : -123.11502, Q1 : 1.0, Q2 : 0.0, Q3 : 0.0, Q4 : 0.0}
2019-04-14 05:31:31.51: SIM {TimeUS : 41535046, Roll : 0.0, Pitch : 0.0, Yaw : 0.0, Alt : 30.1000003815, Lat : 49.28357, Lng : -123.11502, Q1 : 1.0, Q2 : 0.0, Q3 : 0.0, Q4 : 0.0}
2019-04-14 05:31:31.61: SIM {TimeUS : 41635006, Roll : 0.0, Pitch : 0.0, Yaw : 0.0, Alt : 30.1000003815, Lat : 49.28357, Lng : -123.11502, Q1 : 1.0, Q2 : 0.0, Q3 : 0.0, Q4 : 0.0}
2019-04-14 05:31:31.71: SIM {TimeUS : 41734966, Roll : 0.0, Pitch : 0.0, Yaw : 0.0, Alt : 30.1000003815, Lat : 49.28357, Lng : -123.11502, Q1 : 1.0, Q2 : 0.0, Q3 : 0.0, Q4 : 0.0}
2019-04-14 05:31:31.81: SIM {TimeUS : 41834926, Roll : 0.0, Pitch : 0.0, Yaw : 0.0, Alt : 30.1000003815, Lat : 49.28357, Lng : -123.11502, Q1 : 1.0, Q2 : 0.0, Q3 : 0.0, Q4 : 0.0}
2019-04-14 05:31:31.91: SIM {TimeUS : 41934886, Roll : 0.0, Pitch : 0.0, Yaw : 0.0, Alt : 30.1000003815, Lat : 49.28357, Lng : -123.11502, Q1 : 1.0, Q2 : 0.0, Q3 : 0.0, Q4 : 0.0}
2019-04-14 05:31:32.01: SIM {TimeUS : 42034846, Roll : 0.0, Pitch : 0.0, Yaw : 0.0, Alt : 30.1000003815, Lat : 49.28357, Lng : -123.11502, Q1 : 1.0, Q2 : 0.0, Q3 : 0.0, Q4 : 0.0}
2019-04-14 05:31:32.11: SIM {TimeUS : 42134806, Roll : 0.0, Pitch : 0.0, Yaw : 0.0, Alt : 30.1000003815, Lat : 49.28357, Lng : -123.11502, Q1 : 1.0, Q2 : 0.0, Q3 : 0.0, Q4 : 0.0}
2019-04-14 05:31:32.21: SIM {TimeUS : 42234766, Roll : 0.0, Pitch : 0.0, Yaw : 0.0, Alt : 30.1000003815, Lat : 49.28357, Lng : -123.11502, Q1 : 1.0, Q2 : 0.0, Q3 : 0.0, Q4 : 0.0}
2019-04-14 05:31:32.31: SIM {TimeUS : 42334726, Roll : 0.0, Pitch : 0.0, Yaw : 0.0, Alt : 30.1000003815, Lat : 49.28357, Lng : -123.11502, Q1 : 1.0, Q2 : 0.0, Q3 : 0.0, Q4 : 0.0}
2019-04-14 05:31:32.41: SIM {TimeUS : 42434686, Roll : 0.0, Pitch : 0.0, Yaw : 0.0, Alt : 30.1000003815, Lat : 49.28357, Lng : -123.11502, Q1 : 1.0, Q2 : 0.0, Q3 : 0.0, Q4 : 0.0}
2019-04-14 05:31:32.51: SIM {TimeUS : 42534646, Roll : 0.0, Pitch : 0.0, Yaw : 0.0, Alt : 30.1000003815, Lat : 49.28357, Lng : -123.11502, Q1 : 1.0, Q2 : 0.0, Q3 : 0.0, Q4 : 0.0}
2019-04-14 05:31:32.61: SIM {TimeUS : 42634606, Roll : 0.0, Pitch : 0.0, Yaw : 0.0, Alt : 30.1000003815, Lat : 49.28357, Lng : -123.11502, Q1 : 1.0, Q2 : 0.0, Q3 : 0.0, Q4 : 0.0}
2019-04-14 05:31:32.71: SIM {TimeUS : 42735399, Roll : 0.0, Pitch : 0.0, Yaw : 0.0, Alt : 30.1000003815, Lat : 49.28357, Lng : -123.11502, Q1 : 1.0, Q2 : 0.0, Q3 : 0.0, Q4 : 0.0}
2019-04-14 05:31:32.81: SIM {TimeUS : 42835359, Roll : 0.0, Pitch : 0.0, Yaw : 0.0, Alt : 30.1000003815, Lat : 49.28357, Lng : -123.11502, Q1 : 1.0, Q2 : 0.0, Q3 : 0.0, Q4 : 0.0}
2019-04-14 05:31:32.91: SIM {TimeUS : 42935319, Roll : 0.0, Pitch : 0.0, Yaw : 0.0, Alt : 30.1000003815, Lat : 49.28357, Lng : -123.11502, Q1 : 1.0, Q2 : 0.0, Q3 : 0.0, Q4 : 4.3591046571e-12}
2019-04-14 05:31:33.01: SIM {TimeUS : 43035279, Roll : 0.0, Pitch : 0.0, Yaw : 360.0, Alt : 30.1000003815, Lat : 49.28357, Lng : -123.11502, Q1 : 1.0, Q2 : 0.0, Q3 : 0.0, Q4 : -3.25561124725e-08}
2019-04-14 05:31:33.11: SIM {TimeUS : 43135239, Roll : 0.0, Pitch : 0.0, Yaw : 359.99, Alt : 30.1000003815, Lat : 49.28357, Lng : -123.11502, Q1 : 1.0, Q2 : 0.0, Q3 : 0.0, Q4 : -2.18083570758e-07}
2019-04-14 05:31:33.21: SIM {TimeUS : 43235199, Roll : 0.0, Pitch : 0.0, Yaw : 359.99, Alt : 30.1000003815, Lat : 49.28357, Lng : -123.11502, Q1 : 1.0, Q2 : 0.0, Q3 : 0.0, Q4 : -3.87141000147e-07}
2019-04-14 05:31:33.31: SIM {TimeUS : 43335159, Roll : 0.0, Pitch : 0.0, Yaw : 359.99, Alt : 30.1000003815, Lat : 49.28357, Lng : -123.11502, Q1 : 1.0, Q2 : 0.0, Q3 : 0.0, Q4 : -5.71800285343e-07}
2019-04-14 05:31:33.41: SIM {TimeUS : 43435119, Roll : 0.0, Pitch : 0.0, Yaw : 359.99, Alt : 30.1000003815, Lat : 49.28357, Lng : -123.11502, Q1 : 1.0, Q2 : 0.0, Q3 : 0.0, Q4 : -7.21031938156e-07}
2019-04-14 05:31:33.51: SIM {TimeUS : 43535079, Roll : 0.0, Pitch : 0.0, Yaw : 359.99, Alt : 30.1000003815, Lat : 49.28357, Lng : -123.11502, Q1 : 1.0, Q2 : 0.0, Q3 : 0.0, Q4 : -8.94114123184e-07}
2019-04-14 05:31:33.61: SIM {TimeUS : 43635039, Roll : 0.0, Pitch : 0.0, Yaw : 359.99, Alt : 30.1000003815, Lat : 49.28357, Lng : -123.11502, Q1 : 1.0, Q2 : 0.0, Q3 : 0.0, Q4 : -1.09627956135e-06}
2019-04-14 05:31:33.71: SIM {TimeUS : 43734999, Roll : 0.0, Pitch : 0.0, Yaw : 359.99, Alt : 30.1000003815, Lat : 49.28357, Lng : -123.11502, Q1 : 1.0, Q2 : 0.0, Q3 : 0.0, Q4 : -1.28413591938e-06}
2019-04-14 05:31:33.81: SIM {TimeUS : 43834959, Roll : 0.0, Pitch : 0.0, Yaw : 359.99, Alt : 30.1200008392, Lat : 49.28357, Lng : -123.11502, Q1 : 1.0, Q2 : 0.0, Q3 : 0.0, Q4 : -1.47626303715e-06}
2019-04-14 05:31:33.91: SIM {TimeUS : 43934919, Roll : 0.0, Pitch : 0.0, Yaw : 359.99, Alt : 30.1499996185, Lat : 49.28357, Lng : -123.11502, Q1 : 1.0, Q2 : 0.0, Q3 : 0.0, Q4 : -1.67586301814e-06}
2019-04-14 05:31:34.01: SIM {TimeUS : 44034879, Roll : 0.0, Pitch : 0.0, Yaw : 359.99, Alt : 30.1800003052, Lat : 49.28357, Lng : -123.11502, Q1 : 1.0, Q2 : 0.0, Q3 : 0.0, Q4 : -1.8845004206e-06}
2019-04-14 05:31:34.11: SIM {TimeUS : 44134839, Roll : 0.0, Pitch : 0.0, Yaw : 359.99, Alt : 30.2099990845, Lat : 49.28357, Lng : -123.11502, Q1 : 1.0, Q2 : -8.67231847224e-06, Q3 : -7.53950916987e-06, Q4 : -1.95792995328e-06}
2019-04-14 05:31:34.21: SIM {TimeUS : 44234799, Roll : -0.19, Pitch : -0.16, Yaw : 359.99, Alt : 30.2700004578, Lat : 49.28357, Lng : -123.11502, Q1 : 0.99999755621, Q2 : -0.00167119049001, Q3 : -0.00144495884888, Q4 : -1.27113489725e-05}
2019-04-14 05:31:34.31: SIM {TimeUS : 44334759, Roll : -0.5, Pitch : -0.43, Yaw : 359.99, Alt : 30.3899993896, Lat : 49.28357, Lng : -123.11502, Q1 : 0.999983131886, Q2 : -0.0044298954308, Q3 : -0.00376007473096, Q4 : -4.81736351503e-05}
2019-04-14 05:31:34.41: SIM {TimeUS : 44434719, Roll : -0.74, Pitch : -0.65, Yaw : 359.99, Alt : 30.5400009155, Lat : 49.28357, Lng : -123.11502, Q1 : 0.999962925911, Q2 : -0.00646837241948, Q3 : -0.00568644143641, Q4 : -0.000107932210085}
2019-04-14 05:31:34.51: SIM {TimeUS : 44534679, Roll : -0.82, Pitch : -0.74, Yaw : 359.98, Alt : 30.7000007629, Lat : 49.28357, Lng : -123.11502, Q1 : 0.999953150749, Q2 : -0.00718574644998, Q3 : -0.00647982396185, Q4 : -0.000184336051461}
2019-04-14 05:31:34.61: SIM {TimeUS : 44634639, Roll : -0.77, Pitch : -0.69, Yaw : 359.97, Alt : 30.8500003815, Lat : 49.28357, Lng : -123.1150201, Q1 : 0.999958693981, Q2 : -0.00674160895869, Q3 : -0.00609343964607, Q4 : -0.000260844302829}
2019-04-14 05:31:34.71: SIM {TimeUS : 44734599, Roll : -0.61, Pitch : -0.56, Yaw : 359.96, Alt : 31.0100002289, Lat : 49.28357, Lng : -123.1150201, Q1 : 0.999973475933, Q2 : -0.0053765210323, Q3 : -0.00490773003548, Q4 : -0.000331644609105}
2019-04-14 05:31:34.81: SIM {TimeUS : 44835392, Roll : -0.4, Pitch : -0.37, Yaw : 359.95, Alt : 31.1599998474, Lat : 49.2835701, Lng : -123.1150202, Q1 : 0.999988257885, Q2 : -0.00351775228046, Q3 : -0.00330666149966, Q4 : -0.000395265698899}
2019-04-14 05:31:34.91: SIM {TimeUS : 44935352, Roll : -0.19, Pitch : -0.19, Yaw : 359.94, Alt : 31.3299999237, Lat : 49.2835701, Lng : -123.1150203, Q1 : 0.999997019768, Q2 : -0.00167395768221, Q3 : -0.00171113247052, Q4 : -0.000450520368759}
2019-04-14 05:31:35.01: SIM {TimeUS : 45035312, Roll : -0.02, Pitch : -0.05, Yaw : 359.94, Alt : 31.5, Lat : 49.2835702, Lng : -123.1150204, Q1 : 0.999999761581, Q2 : -0.000225943018449, Q3 : -0.00048664258793, Q4 : -0.000490506179631}
2019-04-14 05:31:35.11: SIM {TimeUS : 45135272, Roll : 0.07, Pitch : 0.02, Yaw : 359.94, Alt : 31.6700000763, Lat : 49.2835702, Lng : -123.1150204, Q1 : 0.999999642372, Q2 : 0.000681911595166, Q3 : 0.000242287438596, Q4 : -0.000519169028848}
2019-04-14 05:31:35.21: SIM {TimeUS : 45235232, Roll : 0.1, Pitch : 0.07, Yaw : 359.93, Alt : 31.8500003815, Lat : 49.2835703, Lng : -123.1150205, Q1 : 0.999999165535, Q2 : 0.000959206838161, Q3 : 0.000620670325588, Q4 : -0.000542771071196}
2019-04-14 05:31:35.31: SIM {TimeUS : 45335192, Roll : 0.09, Pitch : 0.09, Yaw : 359.93, Alt : 32.0400009155, Lat : 49.2835703, Lng : -123.1150206, Q1 : 0.999999165535, Q2 : 0.000847640330903, Q3 : 0.000823971058708, Q4 : -0.000557017978281}
2019-04-14 05:31:35.41: SIM {TimeUS : 45435152, Roll : 0.06, Pitch : 0.1, Yaw : 359.93, Alt : 32.2200012207, Lat : 49.2835703, Lng : -123.1150206, Q1 : 0.99999922514, Q2 : 0.000598553975578, Q3 : 0.000955242023338, Q4 : -0.000552451529074}
2019-04-14 05:31:35.51: SIM {TimeUS : 45535112, Roll : 0.05, Pitch : 0.11, Yaw : 359.93, Alt : 32.4199981689, Lat : 49.2835703, Lng : -123.1150207, Q1 : 0.999999165535, Q2 : 0.000508898112457, Q3 : 0.00103920674883, Q4 : -0.000532843463589}
2019-04-14 05:31:35.61: SIM {TimeUS : 45635072, Roll : 0.07, Pitch : 0.12, Yaw : 359.94, Alt : 32.6100006104, Lat : 49.2835703, Lng : -123.1150207, Q1 : 0.999999046326, Q2 : 0.000671370013151, Q3 : 0.00108646636363, Q4 : -0.000499411195051}
2019-04-14 05:31:35.71: SIM {TimeUS : 45735032, Roll : 0.1, Pitch : 0.13, Yaw : 359.94, Alt : 32.8100013733, Lat : 49.2835704, Lng : -123.1150208, Q1 : 0.999998807907, Q2 : 0.000885967339855, Q3 : 0.00119556835853, Q4 : -0.000473432563012}
2019-04-14 05:31:35.81: SIM {TimeUS : 45834992, Roll : 0.12, Pitch : 0.16, Yaw : 359.94, Alt : 33.0099983215, Lat : 49.2835704, Lng : -123.1150208, Q1 : 0.99999833107, Q2 : 0.00107420107815, Q3 : 0.00142396474257, Q4 : -0.000458326656371}
2019-04-14 05:31:35.91: SIM {TimeUS : 45934952, Roll : 0.14, Pitch : 0.17, Yaw : 359.94, Alt : 33.2099990845, Lat : 49.2835704, Lng : -123.1150208, Q1 : 0.999998033047, Q2 : 0.0012388942996, Q3 : 0.00148766522761, Q4 : -0.000443434662884}
2019-04-14 05:31:36.01: SIM {TimeUS : 46034912, Roll : 0.15, Pitch : 0.14, Yaw : 359.94, Alt : 33.4099998474, Lat : 49.2835704, Lng : -123.1150208, Q1 : 0.999998211861, Q2 : 0.00135216105264, Q3 : 0.00124924723059, Q4 : -0.000443965458544}
2019-04-14 05:31:36.11: SIM {TimeUS : 46134872, Roll : 0.15, Pitch : 0.12, Yaw : 359.94, Alt : 33.6199989319, Lat : 49.2835704, Lng : -123.1150208, Q1 : 0.99999833107, Q2 : 0.00136084854603, Q3 : 0.0011271010153, Q4 : -0.000447141006589}
2019-04-14 05:31:36.21: SIM {TimeUS : 46234832, Roll : 0.15, Pitch : 0.13, Yaw : 359.94, Alt : 33.8300018311, Lat : 49.2835704, Lng : -123.1150208, Q1 : 0.999998271465, Q2 : 0.00137616810389, Q3 : 0.00114425620995, Q4 : -0.000465408840682}
2019-04-14 05:31:36.31: SIM {TimeUS : 46334792, Roll : 0.16, Pitch : 0.14, Yaw : 359.94, Alt : 34.0400009155, Lat : 49.2835704, Lng : -123.1150209, Q1 : 0.999998092651, Q2 : 0.00145246193279, Q3 : 0.00122785405256, Q4 : -0.000493834959343}
2019-04-14 05:31:36.41: SIM {TimeUS : 46434752, Roll : 0.16, Pitch : 0.12, Yaw : 359.94, Alt : 34.25, Lat : 49.2835704, Lng : -123.1150208, Q1 : 0.999998271465, Q2 : 0.0014068307355, Q3 : 0.00112397281919, Q4 : -0.000516947824508}
2019-04-14 05:31:36.51: SIM {TimeUS : 46534712, Roll : 0.14, Pitch : 0.11, Yaw : 359.93, Alt : 34.4599990845, Lat : 49.2835704, Lng : -123.1150208, Q1 : 0.999998569489, Q2 : 0.00125771388412, Q3 : 0.000964784878306, Q4 : -0.000536927429494}
2019-04-14 05:31:36.61: SIM {TimeUS : 46634672, Roll : 0.11, Pitch : 0.09, Yaw : 359.93, Alt : 34.6699981689, Lat : 49.2835704, Lng : -123.1150208, Q1 : 0.999998986721, Q2 : 0.00100928137545, Q3 : 0.000852420052979, Q4 : -0.000560155371204}
2019-04-14 05:31:36.71: SIM {TimeUS : 46734632, Roll : 0.08, Pitch : 0.08, Yaw : 359.93, Alt : 34.8899993896, Lat : 49.2835704, Lng : -123.1150208, Q1 : 0.99999922514, Q2 : 0.000748825259507, Q3 : 0.00078333017882, Q4 : -0.00058063789038}
2019-04-14 05:31:36.81: SIM {TimeUS : 46834592, Roll : 0.06, Pitch : 0.05, Yaw : 359.93, Alt : 35.0999984741, Lat : 49.2835704, Lng : -123.1150208, Q1 : 0.999999523163, Q2 : 0.000581694941502, Q3 : 0.000454654247733, Q4 : -0.00059579446679}
2019-04-14 05:31:36.91: SIM {TimeUS : 46935385, Roll : 0.05, Pitch : 0.01, Yaw : 359.92, Alt : 35.3199996948, Lat : 49.2835704, Lng : -123.1150208, Q1 : 0.999999701977, Q2 : 0.000495408021379, Q3 : 0.000147789934999, Q4 : -0.000613881798927}
2019-04-14 05:31:37.01: SIM {TimeUS : 47035345, Roll : 0.03, Pitch : 0.0, Yaw : 359.92, Alt : 35.5400009155, Lat : 49.2835704, Lng : -123.1150208, Q1 : 0.999999761581, Q2 : 0.000342956365785, Q3 : -1.59339942911e-05, Q4 : -0.000637477904093}
2019-04-14 05:31:37.11: SIM {TimeUS : 47135305, Roll : 0.02, Pitch : 0.0, Yaw : 359.92, Alt : 35.7599983215, Lat : 49.2835704, Lng : -123.1150208, Q1 : 0.999999761581, Q2 : 0.000238550972426, Q3 : -3.09371607727e-05, Q4 : -0.000661206780933}
2019-04-14 05:31:37.21: SIM {TimeUS : 47235265, Roll : 0.02, Pitch : 0.0, Yaw : 359.92, Alt : 35.9799995422, Lat : 49.2835704, Lng : -123.1150207, Q1 : 0.999999761581, Q2 : 0.000222046219278, Q3 : 5.85953648624e-06, Q4 : -0.000687257037498}
2019-04-14 05:31:37.31: SIM {TimeUS : 47335225, Roll : 0.0, Pitch : -0.01, Yaw : 359.91, Alt : 36.2000007629, Lat : 49.2835704, Lng : -123.1150207, Q1 : 0.999999761581, Q2 : 1.15882403406e-05, Q3 : -0.00014870816085, Q4 : -0.000717293994967}
2019-04-14 05:31:37.41: SIM {TimeUS : 47435185, Roll : -0.03, Pitch : -0.05, Yaw : 359.91, Alt : 36.4199981689, Lat : 49.2835704, Lng : -123.1150207, Q1 : 0.999999523163, Q2 : -0.000335252232617, Q3 : -0.000441820040578, Q4 : -0.000747113488615}
2019-04-14 05:31:37.51: SIM {TimeUS : 47535145, Roll : -0.07, Pitch : -0.06, Yaw : 359.91, Alt : 36.6399993896, Lat : 49.2835704, Lng : -123.1150207, Q1 : 0.999999284744, Q2 : -0.000671853835229, Q3 : -0.000596400001086, Q4 : -0.000770008715335}
2019-04-14 05:31:37.61: SIM {TimeUS : 47635105, Roll : -0.1, Pitch : -0.08, Yaw : 359.9, Alt : 36.8699989319, Lat : 49.2835704, Lng : -123.1150207, Q1 : 0.999998986721, Q2 : -0.000958483607974, Q3 : -0.000706085993443, Q4 : -0.000794411636889}
2019-04-14 05:31:37.71: SIM {TimeUS : 47735065, Roll : -0.1, Pitch : -0.08, Yaw : 359.9, Alt : 37.0900001526, Lat : 49.2835704, Lng : -123.1150207, Q1 : 0.999998927116, Q2 : -0.000958445249125, Q3 : -0.00070675421739, Q4 : -0.000820945657324}
2019-04-14 05:31:37.81: SIM {TimeUS : 47835025, Roll : -0.09, Pitch : -0.07, Yaw : 359.9, Alt : 37.3199996948, Lat : 49.2835704, Lng : -123.1150207, Q1 : 0.99999910593, Q2 : -0.000840435444843, Q3 : -0.00062892457936, Q4 : -0.000848135736305}
2019-04-14 05:31:37.91: SIM {TimeUS : 47934985, Roll : -0.07, Pitch : -0.05, Yaw : 359.9, Alt : 37.5400009155, Lat : 49.2835704, Lng : -123.1150206, Q1 : 0.999999284744, Q2 : -0.000665815663524, Q3 : -0.000439886905951, Q4 : -0.000872258504387}
2019-04-14 05:31:38.01: SIM {TimeUS : 48034945, Roll : -0.05, Pitch : -0.03, Yaw : 359.89, Alt : 37.7700004578, Lat : 49.2835704, Lng : -123.1150206, Q1 : 0.999999463558, Q2 : -0.000494712381624, Q3 : -0.000301040126942, Q4 : -0.000890328607056}
2019-04-14 05:31:38.11: SIM {TimeUS : 48134905, Roll : -0.05, Pitch : -0.03, Yaw : 359.89, Alt : 37.9900016785, Lat : 49.2835704, Lng : -123.1150206, Q1 : 0.999999403954, Q2 : -0.00052202452207, Q3 : -0.000320241291774, Q4 : -0.000903177598957}
2019-04-14 05:31:38.21: SIM {TimeUS : 48234865, Roll : -0.07, Pitch : -0.02, Yaw : 359.89, Alt : 38.2200012207, Lat : 49.2835704, Lng : -123.1150206, Q1 : 0.999999344349, Q2 : -0.000645178894047, Q3 : -0.00023431100999, Q4 : -0.000911387091037}
2019-04-14 05:31:38.31: SIM {TimeUS : 48334825, Roll : -0.1, Pitch : -0.01, Yaw : 359.89, Alt : 38.4500007629, Lat : 49.2835704, Lng : -123.1150206, Q1 : 0.999999165535, Q2 : -0.000874890072737, Q3 : -0.000107515254058, Q4 : -0.000921716738958}
2019-04-14 05:31:38.41: SIM {TimeUS : 48434785, Roll : -0.1, Pitch : 0.0, Yaw : 359.89, Alt : 38.6800003052, Lat : 49.2835704, Lng : -123.1150206, Q1 : 0.999999165535, Q2 : -0.000922985083889, Q3 : 1.39992926051e-05, Q4 : -0.000926048203837}
2019-04-14 05:31:38.51: SIM {TimeUS : 48534745, Roll : -0.08, Pitch : 0.02, Yaw : 359.89, Alt : 38.9000015259, Lat : 49.2835704, Lng : -123.1150206, Q1 : 0.999999284744, Q2 : -0.000740659364965, Q3 : 0.000261305016465, Q4 : -0.000932767463382}
2019-04-14 05:31:38.61: SIM {TimeUS : 48634705, Roll : -0.06, Pitch : 0.02, Yaw : 359.89, Alt : 39.1300010681, Lat : 49.2835704, Lng : -123.1150206, Q1 : 0.999999403954, Q2 : -0.000526991847437, Q3 : 0.000247044983553, Q4 : -0.000936024473049}
2019-04-14 05:31:38.71: SIM {TimeUS : 48734665, Roll : -0.03, Pitch : 0.01, Yaw : 359.89, Alt : 39.3600006104, Lat : 49.2835706, Lng : -123.1150207, Q1 : 0.999999523163, Q2 : -0.000278002320556, Q3 : 0.000173666572664, Q4 : -0.00093741848832}
2019-04-14 05:31:38.81: SIM {TimeUS : 48834625, Roll : 0.0, Pitch : 0.03, Yaw : 359.89, Alt : 39.5900001526, Lat : 49.2835706, Lng : -123.1150207, Q1 : 0.999999523163, Q2 : 6.29341375316e-05, Q3 : 0.000314622564474, Q4 : -0.000945798587054}
2019-04-14 05:31:38.91: SIM {TimeUS : 48934585, Roll : 0.04, Pitch : 0.06, Yaw : 359.88, Alt : 39.8199996948, Lat : 49.2835706, Lng : -123.1150207, Q1 : 0.999999284744, Q2 : 0.000422212586273, Q3 : 0.000592162541579, Q4 : -0.000964826031122}
2019-04-14 05:31:39.01: SIM {TimeUS : 49035378, Roll : 0.08, Pitch : 0.09, Yaw : 359.88, Alt : 40.0600013733, Lat : 49.2835706, Lng : -123.1150207, Q1 : 0.999998927116, Q2 : 0.000709819665644, Q3 : 0.000829305092338, Q4 : -0.000993379042484}
2019-04-14 05:31:39.11: SIM {TimeUS : 49135338, Roll : 0.07, Pitch : 0.12, Yaw : 359.88, Alt : 40.2900009155, Lat : 49.2835706, Lng : -123.1150207, Q1 : 0.999998688698, Q2 : 0.000648573855869, Q3 : 0.0010471760761, Q4 : -0.00102582853287}
2019-04-14 05:31:39.21: SIM {TimeUS : 49235298, Roll : 0.02, Pitch : 0.14, Yaw : 359.87, Alt : 40.5200004578, Lat : 49.2835706, Lng : -123.1150207, Q1 : 0.999998629093, Q2 : 0.000229123688769, Q3 : 0.00124535127543, Q4 : -0.0010730457725}
2019-04-14 05:31:39.31: SIM {TimeUS : 49335258, Roll : -0.01, Pitch : 0.15, Yaw : 359.87, Alt : 40.75, Lat : 49.2835706, Lng : -123.1150207, Q1 : 0.999998509884, Q2 : -0.000154880792252, Q3 : 0.00133008544799, Q4 : -0.00111309159547}
2019-04-14 05:31:39.41: SIM {TimeUS : 49435218, Roll : -0.04, Pitch : 0.13, Yaw : 359.86, Alt : 40.9900016785, Lat : 49.2835706, Lng : -123.1150207, Q1 : 0.999998569489, Q2 : -0.000353149807779, Q3 : 0.00120005069766, Q4 : -0.00114352139644}
2019-04-14 05:31:39.51: SIM {TimeUS : 49535178, Roll : -0.04, Pitch : 0.12, Yaw : 359.86, Alt : 41.2200012207, Lat : 49.2835706, Lng : -123.1150207, Q1 : 0.999998688698, Q2 : -0.000390802684706, Q3 : 0.00106967100874, Q4 : -0.00117405434139}
2019-04-14 05:31:39.61: SIM {TimeUS : 49635138, Roll : -0.03, Pitch : 0.12, Yaw : 359.86, Alt : 41.4500007629, Lat : 49.2835706, Lng : -123.1150207, Q1 : 0.999998629093, Q2 : -0.000265730574029, Q3 : 0.00110059685539, Q4 : -0.00121110072359}
2019-04-14 05:31:39.71: SIM {TimeUS : 49735098, Roll : 0.01, Pitch : 0.14, Yaw : 359.85, Alt : 41.6800003052, Lat : 49.2835706, Lng : -123.1150207, Q1 : 0.999998390675, Q2 : 0.000113860187412, Q3 : 0.00130274321418, Q4 : -0.00125448091421}
2019-04-14 05:31:39.81: SIM {TimeUS : 49835058, Roll : 0.06, Pitch : 0.16, Yaw : 359.85, Alt : 41.9199981689, Lat : 49.2835706, Lng : -123.1150207, Q1 : 0.999997973442, Q2 : 0.000567472074181, Q3 : 0.00140909955371, Q4 : -0.00129965192173}
2019-04-14 05:31:39.91: SIM {TimeUS : 49935018, Roll : 0.1, Pitch : 0.12, Yaw : 359.84, Alt : 42.1500015259, Lat : 49.2835706, Lng : -123.1150207, Q1 : 0.999998092651, Q2 : 0.000878813618328, Q3 : 0.00111087970436, Q4 : -0.0013405563077}
2019-04-14 05:31:40.01: SIM {TimeUS : 50034978, Roll : 0.1, Pitch : 0.07, Yaw : 359.84, Alt : 42.3899993896, Lat : 49.2835706, Lng : -123.1150207, Q1 : 0.999998450279, Q2 : 0.000894117634743, Q3 : 0.000660003512166, Q4 : -0.00137671967968}
2019-04-14 05:31:40.11: SIM {TimeUS : 50134938, Roll : 0.06, Pitch : 0.04, Yaw : 359.83, Alt : 42.6199989319, Lat : 49.2835706, Lng : -123.1150207, Q1 : 0.999998807907, Q2 : 0.000566280097701, Q3 : 0.000365944433725, Q4 : -0.00140383397229}
2019-04-14 05:31:40.21: SIM {TimeUS : 50234898, Roll : 0.0, Pitch : 0.03, Yaw : 359.83, Alt : 42.8600006104, Lat : 49.2835706, Lng : -123.1150207, Q1 : 0.999998927116, Q2 : 7.27527876734e-05, Q3 : 0.000305955123622, Q4 : -0.00142043363303}
2019-04-14 05:31:40.31: SIM {TimeUS : 50334858, Roll : -0.03, Pitch : 0.06, Yaw : 359.83, Alt : 43.0900001526, Lat : 49.2835704, Lng : -123.1150207, Q1 : 0.999998807907, Q2 : -0.000277188577456, Q3 : 0.000554087862838, Q4 : -0.00142567313742}
2019-04-14 05:31:40.41: SIM {TimeUS : 50434818, Roll : -0.05, Pitch : 0.08, Yaw : 359.83, Alt : 43.3199996948, Lat : 49.2835704, Lng : -123.1150207, Q1 : 0.999998569489, Q2 : -0.000441176642198, Q3 : 0.000756356224883, Q4 : -0.00142842624336}
2019-04-14 05:31:40.51: SIM {TimeUS : 50534778, Roll : -0.04, Pitch : 0.08, Yaw : 359.83, Alt : 43.5600013733, Lat : 49.2835704, Lng : -123.1150207, Q1 : 0.999998629093, Q2 : -0.000415453163441, Q3 : 0.000735657115001, Q4 : -0.00143222219776}
2019-04-14 05:31:40.61: SIM {TimeUS : 50634738, Roll : -0.05, Pitch : 0.07, Yaw : 359.83, Alt : 43.7999992371, Lat : 49.2835704, Lng : -123.1150207, Q1 : 0.999998629093, Q2 : -0.000462241558125, Q3 : 0.000643249542918, Q4 : -0.00144243473187}
2019-04-14 05:31:40.71: SIM {TimeUS : 50734698, Roll : -0.04, Pitch : 0.05, Yaw : 359.83, Alt : 44.0299987793, Lat : 49.2835704, Lng : -123.1150207, Q1 : 0.999998748302, Q2 : -0.000425243517384, Q3 : 0.000490534410346, Q4 : -0.00145421130583}
2019-04-14 05:31:40.81: SIM {TimeUS : 50834658, Roll : -0.03, Pitch : 0.04, Yaw : 359.83, Alt : 44.2700004578, Lat : 49.2835704, Lng : -123.1150207, Q1 : 0.999998807907, Q2 : -0.000271892029559, Q3 : 0.000364870938938, Q4 : -0.00146881758701}
2019-04-14 05:31:40.91: SIM {TimeUS : 50934618, Roll : -0.01, Pitch : 0.03, Yaw : 359.83, Alt : 44.5, Lat : 49.2835704, Lng : -123.1150207, Q1 : 0.999998867512, Q2 : -0.00013665422739, Q3 : 0.00029195722891, Q4 : -0.00148135202471}
2019-04-14 05:31:41.01: SIM {TimeUS : 51034578, Roll : -0.01, Pitch : 0.01, Yaw : 359.82, Alt : 44.7400016785, Lat : 49.2835704, Lng : -123.1150206, Q1 : 0.999998867512, Q2 : -0.000154648820171, Q3 : 0.000108487503894, Q4 : -0.00149286945816}
2019-04-14 05:31:41.11: SIM {TimeUS : 51135371, Roll : -0.02, Pitch : -0.02, Yaw : 359.82, Alt : 44.9799995422, Lat : 49.2835704, Lng : -123.1150206, Q1 : 0.999998807907, Q2 : -0.000223702852963, Q3 : -0.000193534622667, Q4 : -0.00150793592911}
2019-04-14 05:31:41.21: SIM {TimeUS : 51235331, Roll : -0.03, Pitch : -0.04, Yaw : 359.82, Alt : 45.2099990845, Lat : 49.2835704, Lng : -123.1150206, Q1 : 0.999998688698, Q2 : -0.00029836469912, Q3 : -0.00042477241368, Q4 : -0.00152564619202}
2019-04-14 05:31:41.31: SIM {TimeUS : 51335291, Roll : -0.02, Pitch : -0.05, Yaw : 359.82, Alt : 45.4500007629, Lat : 49.2835703, Lng : -123.1150206, Q1 : 0.999998629093, Q2 : -0.000241664602072, Q3 : -0.000485958677018, Q4 : -0.0015530489618}
2019-04-14 05:31:41.41: SIM {TimeUS : 51435251, Roll : -0.02, Pitch : -0.05, Yaw : 359.81, Alt : 45.6800003052, Lat : 49.2835703, Lng : -123.1150206, Q1 : 0.999998629093, Q2 : -0.000253310019616, Q3 : -0.000451949657872, Q4 : -0.00158524920698}
2019-04-14 05:31:41.51: SIM {TimeUS : 51535211, Roll : -0.04, Pitch : -0.03, Yaw : 359.81, Alt : 45.9199981689, Lat : 49.2835703, Lng : -123.1150206, Q1 : 0.999998569489, Q2 : -0.000410659064073, Q3 : -0.000345175358234, Q4 : -0.00162020628341}
2019-04-14 05:31:41.61: SIM {TimeUS : 51635171, Roll : -0.08, Pitch : -0.03, Yaw : 359.81, Alt : 46.1500015259, Lat : 49.2835703, Lng : -123.1150206, Q1 : 0.999998390675, Q2 : -0.000705723068677, Q3 : -0.000260684842942, Q4 : -0.00165734637994}
2019-04-14 05:31:41.71: SIM {TimeUS : 51735131, Roll : -0.1, Pitch : -0.02, Yaw : 359.8, Alt : 46.3699989319, Lat : 49.2835703, Lng : -123.1150206, Q1 : 0.999998092651, Q2 : -0.000948921835516, Q3 : -0.000180359522346, Q4 : -0.00169563875534}
2019-04-14 05:31:41.81: SIM {TimeUS : 51835091, Roll : -0.11, Pitch : 0.0, Yaw : 359.8, Alt : 46.5900001526, Lat : 49.2835703, Lng : -123.1150206, Q1 : 0.999997973442, Q2 : -0.00101405894384, Q3 : -1.34744441311e-05, Q4 : -0.00172996241599}
2019-04-14 05:31:41.91: SIM {TimeUS : 51935051, Roll : -0.1, Pitch : 0.02, Yaw : 359.79, Alt : 46.8100013733, Lat : 49.2835703, Lng : -123.1150206, Q1 : 0.999998033047, Q2 : -0.000910184287932, Q3 : 0.000179804599611, Q4 : -0.00176028255373}
2019-04-14 05:31:42.01: SIM {TimeUS : 52035011, Roll : -0.08, Pitch : 0.02, Yaw : 359.79, Alt : 47.0200004578, Lat : 49.2835703, Lng : -123.1150206, Q1 : 0.999998152256, Q2 : -0.000703973229975, Q3 : 0.000227543219808, Q4 : -0.00179130618926}
2019-04-14 05:31:42.11: SIM {TimeUS : 52134971, Roll : -0.06, Pitch : 0.01, Yaw : 359.79, Alt : 47.2200012207, Lat : 49.2835703, Lng : -123.1150206, Q1 : 0.999998211861, Q2 : -0.000533535785507, Q3 : 0.000138631090522, Q4 : -0.00182661693543}
2019-04-14 05:31:42.21: SIM {TimeUS : 52234931, Roll : -0.05, Pitch : 0.0, Yaw : 359.78, Alt : 47.4199981689, Lat : 49.2835703, Lng : -123.1150206, Q1 : 0.999998152256, Q2 : -0.000436687609181, Q3 : -4.36227601313e-05, Q4 : -0.00186486542225}
2019-04-14 05:31:42.31: SIM {TimeUS : 52334891, Roll : -0.03, Pitch : -0.03, Yaw : 359.78, Alt : 47.5999984741, Lat : 49.2835703, Lng : -123.1150206, Q1 : 0.999998092651, Q2 : -0.000285739108222, Q3 : -0.000327981542796, Q4 : -0.00190004520118}
2019-04-14 05:31:42.41: SIM {TimeUS : 52434851, Roll : -0.02, Pitch : -0.07, Yaw : 359.77, Alt : 47.7799987793, Lat : 49.2835703, Lng : -123.1150206, Q1 : 0.999997913837, Q2 : -0.000229400233366, Q3 : -0.000675982213579, Q4 : -0.00192957359832}
2019-04-14 05:31:42.51: SIM {TimeUS : 52534811, Roll : -0.03, Pitch : -0.11, Yaw : 359.77, Alt : 47.9399986267, Lat : 49.2835703, Lng : -123.1150206, Q1 : 0.99999755621, Q2 : -0.000274481339147, Q3 : -0.00102667952888, Q4 : -0.00195480533876}
2019-04-14 05:31:42.61: SIM {TimeUS : 52634771, Roll : -0.03, Pitch : -0.14, Yaw : 359.77, Alt : 48.0900001526, Lat : 49.2835703, Lng : -123.1150207, Q1 : 0.999997198582, Q2 : -0.00032796576852, Q3 : -0.00126632046886, Q4 : -0.00197693915106}
2019-04-14 05:31:42.71: SIM {TimeUS : 52734731, Roll : -0.01, Pitch : -0.13, Yaw : 359.77, Alt : 48.2400016785, Lat : 49.2835703, Lng : -123.1150207, Q1 : 0.999997258186, Q2 : -9.84109137789e-05, Q3 : -0.00121078151278, Q4 : -0.00199640495703}
2019-04-14 05:31:42.81: SIM {TimeUS : 52834691, Roll : 0.02, Pitch : -0.11, Yaw : 359.76, Alt : 48.3600006104, Lat : 49.2835703, Lng : -123.1150207, Q1 : 0.999997437, Q2 : 0.000251413963269, Q3 : -0.00100028351881, Q4 : -0.00201673526317}
2019-04-14 05:31:42.91: SIM {TimeUS : 52934651, Roll : 0.06, Pitch : -0.07, Yaw : 359.76, Alt : 48.4799995422, Lat : 49.2835703, Lng : -123.1150207, Q1 : 0.99999755621, Q2 : 0.000528994540218, Q3 : -0.000698280113284, Q4 : -0.00203696405515}
2019-04-14 05:31:43.01: SIM {TimeUS : 53034611, Roll : 0.06, Pitch : -0.04, Yaw : 359.76, Alt : 48.5800018311, Lat : 49.2835703, Lng : -123.1150207, Q1 : 0.999997615814, Q2 : 0.000598923012149, Q3 : -0.000422349286964, Q4 : -0.00205626082607}
2019-04-14 05:31:43.11: SIM {TimeUS : 53135404, Roll : 0.07, Pitch : -0.03, Yaw : 359.76, Alt : 48.6800003052, Lat : 49.2835703, Lng : -123.1150207, Q1 : 0.999997615814, Q2 : 0.000615499855485, Q3 : -0.000278489285847, Q4 : -0.00207954621874}
2019-04-14 05:31:43.21: SIM {TimeUS : 53235364, Roll : 0.06, Pitch : -0.03, Yaw : 359.75, Alt : 48.7599983215, Lat : 49.2835704, Lng : -123.1150207, Q1 : 0.99999755621, Q2 : 0.000531550962478, Q3 : -0.000342941173585, Q4 : -0.00211574928835}
2019-04-14 05:31:43.31: SIM {TimeUS : 53335324, Roll : 0.03, Pitch : -0.04, Yaw : 359.75, Alt : 48.8300018311, Lat : 49.2835704, Lng : -123.1150207, Q1 : 0.99999755621, Q2 : 0.000298690691125, Q3 : -0.000375019939383, Q4 : -0.00215109135024}
2019-04-14 05:31:43.41: SIM {TimeUS : 53435284, Roll : 0.01, Pitch : -0.03, Yaw : 359.74, Alt : 48.8899993896, Lat : 49.2835704, Lng : -123.1150207, Q1 : 0.99999755621, Q2 : 0.000125382473925, Q3 : -0.000305516412482, Q4 : -0.00218317122199}
2019-04-14 05:31:43.51: SIM {TimeUS : 53535244, Roll : 0.0, Pitch : -0.02, Yaw : 359.74, Alt : 48.9399986267, Lat : 49.2835704, Lng : -123.1150207, Q1 : 0.99999755621, Q2 : -1.21609546113e-05, Q3 : -0.00021991423273, Q4 : -0.00221041520126}
2019-04-14 05:31:43.61: SIM {TimeUS : 53635204, Roll : 0.0, Pitch : 0.0, Yaw : 359.74, Alt : 48.9799995422, Lat : 49.2835704, Lng : -123.1150207, Q1 : 0.999997496605, Q2 : -6.66579580866e-05, Q3 : -8.09664197732e-05, Q4 : -0.00223633809946}
2019-04-14 05:31:43.71: SIM {TimeUS : 53735164, Roll : 0.05, Pitch : -0.03, Yaw : 359.74, Alt : 49.0200004578, Lat : 49.2835704, Lng : -123.1150207, Q1 : 0.999997258186, Q2 : 0.000493384664878, Q3 : -0.000326898851199, Q4 : -0.00226223911159}
2019-04-14 05:31:43.81: SIM {TimeUS : 53835124, Roll : 0.24, Pitch : -0.23, Yaw : 359.73, Alt : 49.0499992371, Lat : 49.2835704, Lng : -123.1150207, Q1 : 0.999992966652, Q2 : 0.0021223379299, Q3 : -0.00208831531927, Q4 : -0.00228971592151}
2019-04-14 05:31:43.91: SIM {TimeUS : 53935084, Roll : 0.57, Pitch : -0.69, Yaw : 359.73, Alt : 49.0800018311, Lat : 49.2835704, Lng : -123.1150207, Q1 : 0.999966263771, Q2 : 0.00503362482414, Q3 : -0.00606723502278, Q4 : -0.00231463159434}
2019-04-14 05:31:44.01: SIM {TimeUS : 54035044, Roll : 1.02, Pitch : -1.36, Yaw : 359.72, Alt : 49.1100006104, Lat : 49.2835704, Lng : -123.1150207, Q1 : 0.999885678291, Q2 : 0.00894516147673, Q3 : -0.0119673814625, Q4 : -0.00232549710199}
2019-04-14 05:31:44.11: SIM {TimeUS : 54135004, Roll : 1.56, Pitch : -2.2, Yaw : 359.7, Alt : 49.1300010681, Lat : 49.2835706, Lng : -123.1150207, Q1 : 0.999719142914, Q2 : 0.0135816568509, Q3 : -0.019284280017, Q4 : -0.00230434490368}
2019-04-14 05:31:44.21: SIM {TimeUS : 54234964, Roll : 2.13, Pitch : -3.09, Yaw : 359.68, Alt : 49.1500015259, Lat : 49.2835706, Lng : -123.1150206, Q1 : 0.999460220337, Q2 : 0.0185221936554, Q3 : -0.0270418860018, Q4 : -0.00223063863814}
2019-04-14 05:31:44.31: SIM {TimeUS : 54334924, Roll : 2.64, Pitch : -3.86, Yaw : 359.67, Alt : 49.1599998474, Lat : 49.2835707, Lng : -123.1150205, Q1 : 0.999161958694, Q2 : 0.0230118501931, Q3 : -0.0337858498096, Q4 : -0.00208283797838}
2019-04-14 05:31:44.41: SIM {TimeUS : 54434884, Roll : 3.05, Pitch : -4.46, Yaw : 359.66, Alt : 49.1699981689, Lat : 49.2835709, Lng : -123.1150203, Q1 : 0.998884081841, Q2 : 0.0265346951783, Q3 : -0.0390272028744, Q4 : -0.0018617589958}
2019-04-14 05:31:44.51: SIM {TimeUS : 54534844, Roll : 3.35, Pitch : -4.89, Yaw : 359.67, Alt : 49.1899986267, Lat : 49.283571, Lng : -123.1150201, Q1 : 0.998659193516, Q2 : 0.0291072353721, Q3 : -0.042778711766, Q4 : -0.00160092266742}
2019-04-14 05:31:44.61: SIM {TimeUS : 54634804, Roll : 3.56, Pitch : -5.21, Yaw : 359.68, Alt : 49.2000007629, Lat : 49.2835714, Lng : -123.1150199, Q1 : 0.998479485512, Q2 : 0.0309867672622, Q3 : -0.0455726869404, Q4 : -0.00132914353162}
2019-04-14 05:31:44.71: SIM {TimeUS : 54734764, Roll : 3.75, Pitch : -5.5, Yaw : 359.69, Alt : 49.2099990845, Lat : 49.2835716, Lng : -123.1150196, Q1 : 0.998310208321, Q2 : 0.0325823687017, Q3 : -0.0481040254235, Q4 : -0.00106538436376}
2019-04-14 05:31:44.81: SIM {TimeUS : 54834724, Roll : 3.94, Pitch : -5.8, Yaw : 359.7, Alt : 49.2099990845, Lat : 49.2835721, Lng : -123.1150192, Q1 : 0.998123109341, Q2 : 0.0342868678272, Q3 : -0.0507346950471, Q4 : -0.000804893148597}
2019-04-14 05:31:44.91: SIM {TimeUS : 54934684, Roll : 4.18, Pitch : -6.13, Yaw : 359.71, Alt : 49.2200012207, Lat : 49.2835726, Lng : -123.1150187, Q1 : 0.997901022434, Q2 : 0.036342214793, Q3 : -0.0535957664251, Q4 : -0.000543061003555}
2019-04-14 05:31:45.01: SIM {TimeUS : 55034644, Roll : 4.4, Pitch : -6.43, Yaw : 359.71, Alt : 49.2299995422, Lat : 49.2835731, Lng : -123.1150181, Q1 : 0.997689068317, Q2 : 0.0382061414421, Q3 : -0.0561846755445, Q4 : -0.000295834906865}
2019-04-14 05:31:45.11: SIM {TimeUS : 55134604, Roll : 4.56, Pitch : -6.66, Yaw : 359.72, Alt : 49.2299995422, Lat : 49.2835737, Lng : -123.1150175, Q1 : 0.997518599033, Q2 : 0.039605602622, Q3 : -0.0582069605589, Q4 : -6.1315826315e-05}
2019-04-14 05:31:45.21: SIM {TimeUS : 55235397, Roll : 4.67, Pitch : -6.84, Yaw : 359.73, Alt : 49.2400016785, Lat : 49.2835743, Lng : -123.1150168, Q1 : 0.997391223907, Q2 : 0.0405789390206, Q3 : -0.0597004145384, Q4 : 0.000130120533868}
2019-04-14 05:31:45.31: SIM {TimeUS : 55335357, Roll : 4.75, Pitch : -6.95, Yaw : 359.74, Alt : 49.2400016785, Lat : 49.283575, Lng : -123.1150161, Q1 : 0.997302412987, Q2 : 0.0413012765348, Q3 : -0.0606792345643, Q4 : 0.000278137391433}
2019-04-14 05:31:45.41: SIM {TimeUS : 55435317, Roll : 4.81, Pitch : -7.03, Yaw : 359.74, Alt : 49.25, Lat : 49.2835758, Lng : -123.1150153, Q1 : 0.997237861156, Q2 : 0.0418277047575, Q3 : -0.0613756813109, Q4 : 0.000370992172975}
2019-04-14 05:31:45.51: SIM {TimeUS : 55535277, Roll : 4.88, Pitch : -7.13, Yaw : 359.74, Alt : 49.25, Lat : 49.2835765, Lng : -123.1150144, Q1 : 0.997156918049, Q2 : 0.0423896797001, Q3 : -0.062298040837, Q4 : 0.000408728723414}
2019-04-14 05:31:45.61: SIM {TimeUS : 55635237, Roll : 5.12, Pitch : -7.22, Yaw : 359.81, Alt : 49.2599983215, Lat : 49.2835775, Lng : -123.1150135, Q1 : 0.99701577425, Q2 : 0.044534958899, Q3 : -0.0630468800664, Q4 : 0.00117885845248}
2019-04-14 05:31:45.71: SIM {TimeUS : 55735197, Roll : 5.67, Pitch : -7.26, Yaw : 0.41, Alt : 49.2599983215, Lat : 49.2835783, Lng : -123.1150125, Q1 : 0.996750175953, Q2 : 0.0496598184109, Q3 : -0.0630713179708, Q4 : 0.00670882081613}
2019-04-14 05:31:45.81: SIM {TimeUS : 55835157, Roll : 6.34, Pitch : -7.36, Yaw : 2.22, Alt : 49.2599983215, Lat : 49.2835794, Lng : -123.1150115, Q1 : 0.996148645878, Q2 : 0.0564871989191, Q3 : -0.0630252286792, Q4 : 0.0229113455862}
2019-04-14 05:31:45.91: SIM {TimeUS : 55935117, Roll : 6.75, Pitch : -7.75, Yaw : 5.63, Alt : 49.2599983215, Lat : 49.2835804, Lng : -123.1150103, Q1 : 0.994582414627, Q2 : 0.0619840323925, Q3 : -0.0645037069917, Q4 : 0.0529445484281}
2019-04-14 05:31:46.01: SIM {TimeUS : 56035077, Roll : 6.61, Pitch : -8.47, Yaw : 10.59, Alt : 49.2599983215, Lat : 49.2835814, Lng : -123.1150091, Q1 : 0.990955710411, Q2 : 0.0640646368265, Q3 : -0.0681786760688, Q4 : 0.0961987525225}
2019-04-14 05:31:46.11: SIM {TimeUS : 56135037, Roll : 5.71, Pitch : -9.48, Yaw : 16.87, Alt : 49.2599983215, Lat : 49.2835825, Lng : -123.1150078, Q1 : 0.983955025673, Q2 : 0.0612494200468, Q3 : -0.0744183585048, Q4 : 0.150142908096}
2019-04-14 05:31:46.21: SIM {TimeUS : 56234997, Roll : 3.81, Pitch : -10.59, Yaw : 23.95, Alt : 49.2700004578, Lat : 49.2835837, Lng : -123.1150063, Q1 : 0.972866415977, Q2 : 0.0515392124653, Q3 : -0.0834268182516, Q4 : 0.209558203816}
2019-04-14 05:31:46.31: SIM {TimeUS : 56334957, Roll : 1.09, Pitch : -11.53, Yaw : 31.06, Alt : 49.2700004578, Lat : 49.2835849, Lng : -123.1150048, Q1 : 0.958305358887, Q2 : 0.0360642038286, Q3 : -0.0942608937621, Q4 : 0.267329603434}
2019-04-14 05:31:46.41: SIM {TimeUS : 56434917, Roll : -1.86, Pitch : -12.11, Yaw : 37.42, Alt : 49.2700004578, Lat : 49.2835861, Lng : -123.1150032, Q1 : 0.942274451256, Q2 : 0.0185588225722, Q3 : -0.105124257505, Q4 : 0.317369282246}
2019-04-14 05:31:46.51: SIM {TimeUS : 56534877, Roll : -4.39, Pitch : -12.37, Yaw : 42.42, Alt : 49.2700004578, Lat : 49.2835876, Lng : -123.1150015, Q1 : 0.927637994289, Q2 : 0.00341501482762, Q3 : -0.114219292998, Q4 : 0.355570107698}
2019-04-14 05:31:46.61: SIM {TimeUS : 56634837, Roll : -6.06, Pitch : -12.45, Yaw : 45.7, Alt : 49.2700004578, Lat : 49.283589, Lng : -123.1149999, Q1 : 0.917012572289, Q2 : -0.00642522517592, Q3 : -0.120228201151, Q4 : 0.380252361298}
2019-04-14 05:31:46.71: SIM {TimeUS : 56734797, Roll : -6.73, Pitch : -12.51, Yaw : 47.27, Alt : 49.2700004578, Lat : 49.2835904, Lng : -123.1149981, Q1 : 0.911637067795, Q2 : -0.00983955804259, Q3 : -0.12311873585, Q4 : 0.391998499632}
2019-04-14 05:31:46.81: SIM {TimeUS : 56834757, Roll : -6.51, Pitch : -12.71, Yaw : 47.34, Alt : 49.2700004578, Lat : 49.2835922, Lng : -123.1149966, Q1 : 0.911262512207, Q2 : -0.00734292343259, Q3 : -0.123944349587, Q4 : 0.392663449049}
2019-04-14 05:31:46.91: SIM {TimeUS : 56934717, Roll : -5.64, Pitch : -13.08, Yaw : 46.24, Alt : 49.2700004578, Lat : 49.2835939, Lng : -123.1149949, Q1 : 0.914779424667, Q2 : -0.000282907305518, Q3 : -0.12388600409, Q4 : 0.384487658739}
2019-04-14 05:31:47.01: SIM {TimeUS : 57034677, Roll : -4.33, Pitch : -13.62, Yaw : 44.27, Alt : 49.2700004578, Lat : 49.2835958, Lng : -123.1149932, Q1 : 0.920773208141, Q2 : 0.00987540185452, Q3 : -0.123936071992, Q4 : 0.369755446911}
2019-04-14 05:31:47.11: SIM {TimeUS : 57134637, Roll : -2.8, Pitch : -14.23, Yaw : 41.75, Alt : 49.2700004578, Lat : 49.2835976, Lng : -123.1149914, Q1 : 0.927944004536, Q2 : 0.0214518643916, Q3 : -0.124381810427, Q4 : 0.350697845221}
2019-04-14 05:31:47.21: SIM {TimeUS : 57234597, Roll : -1.23, Pitch : -14.79, Yaw : 38.98, Alt : 49.2799987793, Lat : 49.2835996, Lng : -123.1149897, Q1 : 0.935246825218, Q2 : 0.0328932404518, Q3 : -0.12491837889, Q4 : 0.329585909843}
2019-04-14 05:31:47.31: SIM {TimeUS : 57335390, Roll : 0.24, Pitch : -15.21, Yaw : 36.25, Alt : 49.2799987793, Lat : 49.2836018, Lng : -123.1149878, Q1 : 0.94191545248, Q2 : 0.0431864745915, Q3 : -0.125143826008, Q4 : 0.308657199144}
2019-04-14 05:31:47.41: SIM {TimeUS : 57435350, Roll : 1.46, Pitch : -15.46, Yaw : 33.89, Alt : 49.2799987793, Lat : 49.2836038, Lng : -123.1149858, Q1 : 0.947298824787, Q2 : 0.0512844435871, Q3 : -0.124975010753, Q4 : 0.290475636721}
2019-04-14 05:31:47.51: SIM {TimeUS : 57535310, Roll : 2.33, Pitch : -15.56, Yaw : 32.09, Alt : 49.2799987793, Lat : 49.283606, Lng : -123.1149837, Q1 : 0.95121461153, Q2 : 0.0568554848433, Q3 : -0.124502003193, Q4 : 0.276509553194}
2019-04-14 05:31:47.61: SIM {TimeUS : 57635270, Roll : 2.82, Pitch : -15.57, Yaw : 30.96, Alt : 49.2799987793, Lat : 49.2836081, Lng : -123.1149816, Q1 : 0.953637838364, Q2 : 0.0597261451185, Q3 : -0.12405090034, Q4 : 0.267617374659}
2019-04-14 05:31:47.71: SIM {TimeUS : 57735230, Roll : 2.93, Pitch : -15.57, Yaw : 30.5, Alt : 49.2799987793, Lat : 49.2836104, Lng : -123.1149792, Q1 : 0.95465451479, Q2 : 0.0600692927837, Q3 : -0.12400072068, Q4 : 0.263913273811}
2019-04-14 05:31:47.81: SIM {TimeUS : 57835190, Roll : 2.7, Pitch : -15.59, Yaw : 30.65, Alt : 49.2799987793, Lat : 49.2836127, Lng : -123.1149768, Q1 : 0.954402983189, Q2 : 0.0583864636719, Q3 : -0.124608382583, Q4 : 0.264912724495}
2019-04-14 05:31:47.91: SIM {TimeUS : 57935150, Roll : 2.22, Pitch : -15.67, Yaw : 31.29, Alt : 49.2799987793, Lat : 49.2836151, Lng : -123.1149744, Q1 : 0.953062832355, Q2 : 0.0552569553256, Q3 : -0.126112610102, Q4 : 0.269654452801}
2019-04-14 05:31:48.01: SIM {TimeUS : 58035110, Roll : 1.57, Pitch : -15.8, Yaw : 32.25, Alt : 49.2799987793, Lat : 49.2836174, Lng : -123.1149718, Q1 : 0.950904250145, Q2 : 0.0512298978865, Q3 : -0.128308340907, Q4 : 0.276936024427}
2019-04-14 05:31:48.11: SIM {TimeUS : 58135070, Roll : 0.83, Pitch : -15.96, Yaw : 33.39, Alt : 49.2799987793, Lat : 49.2836197, Lng : -123.1149692, Q1 : 0.948245346546, Q2 : 0.0468074642122, Q3 : -0.130920186639, Q4 : 0.285481601954}
2019-04-14 05:31:48.21: SIM {TimeUS : 58235030, Roll : 0.12, Pitch : -16.08, Yaw : 34.54, Alt : 49.2799987793, Lat : 49.2836223, Lng : -123.1149665, Q1 : 0.945460617542, Q2 : 0.042547352612, Q3 : -0.133315846324, Q4 : 0.294144302607}
2019-04-14 05:31:48.31: SIM {TimeUS : 58334990, Roll : -0.47, Pitch : -16.17, Yaw : 35.58, Alt : 49.2799987793, Lat : 49.2836248, Lng : -123.1149637, Q1 : 0.942869663239, Q2 : 0.0390518307686, Q3 : -0.135211795568, Q4 : 0.301976174116}
2019-04-14 05:31:48.41: SIM {TimeUS : 58434950, Roll : -0.94, Pitch : -16.23, Yaw : 36.41, Alt : 49.2799987793, Lat : 49.2836273, Lng : -123.114961, Q1 : 0.940743267536, Q2 : 0.0363930240273, Q3 : -0.136638581753, Q4 : 0.30823302269}
2019-04-14 05:31:48.51: SIM {TimeUS : 58534910, Roll : -1.21, Pitch : -16.26, Yaw : 36.98, Alt : 49.2799987793, Lat : 49.2836299, Lng : -123.1149582, Q1 : 0.939250051975, Q2 : 0.0349586978555, Q3 : -0.137495175004, Q4 : 0.312541723251}
2019-04-14 05:31:48.61: SIM {TimeUS : 58634870, Roll : -1.27, Pitch : -16.28, Yaw : 37.26, Alt : 49.2799987793, Lat : 49.2836324, Lng : -123.1149553, Q1 : 0.938475430012, Q2 : 0.0348090939224, Q3 : -0.13771186769, Q4 : 0.314781934023}
2019-04-14 05:31:48.71: SIM {TimeUS : 58734830, Roll : -1.18, Pitch : -16.29, Yaw : 37.28, Alt : 49.2799987793, Lat : 49.2836352, Lng : -123.1149525, Q1 : 0.938379466534, Q2 : 0.0355791412294, Q3 : -0.137575000525, Q4 : 0.315041661263}
2019-04-14 05:31:48.81: SIM {TimeUS : 58834790, Roll : -1.0, Pitch : -16.33, Yaw : 37.08, Alt : 49.2799987793, Lat : 49.2836378, Lng : -123.1149496, Q1 : 0.938823103905, Q2 : 0.0369891561568, Q3 : -0.137438550591, Q4 : 0.313613861799}
2019-04-14 05:31:48.91: SIM {TimeUS : 58934750, Roll : -0.74, Pitch : -16.39, Yaw : 36.72, Alt : 49.2799987793, Lat : 49.2836407, Lng : -123.1149467, Q1 : 0.939649641514, Q2 : 0.0387805812061, Q3 : -0.137377232313, Q4 : 0.31093749404}
2019-04-14 05:31:49.01: SIM {TimeUS : 59034710, Roll : -0.46, Pitch : -16.47, Yaw : 36.27, Alt : 49.2799987793, Lat : 49.2836434, Lng : -123.1149437, Q1 : 0.940681755543, Q2 : 0.040761269629, Q3 : -0.137435093522, Q4 : 0.307518988848}
2019-04-14 05:31:49.11: SIM {TimeUS : 59134670, Roll : -0.18, Pitch : -16.54, Yaw : 35.79, Alt : 49.2900009155, Lat : 49.2836463, Lng : -123.1149407, Q1 : 0.941784024239, Q2 : 0.0426716655493, Q3 : -0.137442171574, Q4 : 0.303861349821}
2019-04-14 05:31:49.21: SIM {TimeUS : 59234630, Roll : 0.07, Pitch : -16.6, Yaw : 35.33, Alt : 49.2900009155, Lat : 49.2836492, Lng : -123.1149377, Q1 : 0.942816913128, Q2 : 0.0444413535297, Q3 : -0.137389361858, Q4 : 0.300408661366}
2019-04-14 05:31:49.31: SIM {TimeUS : 59334590, Roll : 0.29, Pitch : -16.64, Yaw : 34.95, Alt : 49.2900009155, Lat : 49.2836519, Lng : -123.1149346, Q1 : 0.94368237257, Q2 : 0.0459197685122, Q3 : -0.13729968667, Q4 : 0.29749584198}
2019-04-14 05:31:49.41: SIM {TimeUS : 59435383, Roll : 0.45, Pitch : -16.67, Yaw : 34.66, Alt : 49.2900009155, Lat : 49.2836549, Lng : -123.1149315, Q1 : 0.944319725037, Q2 : 0.0469806715846, Q3 : -0.137241706252, Q4 : 0.295326709747}
2019-04-14 05:31:49.51: SIM {TimeUS : 59535343, Roll : 0.55, Pitch : -16.69, Yaw : 34.49, Alt : 49.2900009155, Lat : 49.2836578, Lng : -123.1149284, Q1 : 0.944693386555, Q2 : 0.0475999303162, Q3 : -0.137264356017, Q4 : 0.29401910305}
2019-04-14 05:31:49.61: SIM {TimeUS : 59635303, Roll : 0.56, Pitch : -16.72, Yaw : 34.43, Alt : 49.2900009155, Lat : 49.2836608, Lng : -123.1149251, Q1 : 0.944810330868, Q2 : 0.0477282591164, Q3 : -0.137483373284, Q4 : 0.293519645929}
2019-04-14 05:31:49.71: SIM {TimeUS : 59735263, Roll : 0.52, Pitch : -16.75, Yaw : 34.46, Alt : 49.2900009155, Lat : 49.2836638, Lng : -123.114922, Q1 : 0.9447067976, Q2 : 0.0474585704505, Q3 : -0.137828633189, Q4 : 0.293734580278}
2019-04-14 05:31:49.81: SIM {TimeUS : 59835223, Roll : 0.42, Pitch : -16.78, Yaw : 34.57, Alt : 49.2900009155, Lat : 49.2836668, Lng : -123.1149188, Q1 : 0.944432318211, Q2 : 0.0469029806554, Q3 : -0.138259127736, Q4 : 0.294503182173}
2019-04-14 05:31:49.91: SIM {TimeUS : 59935183, Roll : 0.31, Pitch : -16.82, Yaw : 34.73, Alt : 49.2900009155, Lat : 49.2836698, Lng : -123.1149155, Q1 : 0.944023013115, Q2 : 0.0462732389569, Q3 : -0.138848751783, Q4 : 0.295635551214}
2019-04-14 05:31:50.01: SIM {TimeUS : 60035143, Roll : 0.18, Pitch : -16.87, Yaw : 34.9, Alt : 49.2900009155, Lat : 49.2836728, Lng : -123.1149122, Q1 : 0.943553447723, Q2 : 0.0455641187727, Q3 : -0.139521554112, Q4 : 0.296925246716}
2019-04-14 05:31:50.11: SIM {TimeUS : 60135103, Roll : 0.04, Pitch : -16.92, Yaw : 35.08, Alt : 49.2900009155, Lat : 49.2836759, Lng : -123.1149089, Q1 : 0.943100631237, Q2 : 0.0446898378432, Q3 : -0.140195146203, Q4 : 0.29817673564}
2019-04-14 05:31:50.21: SIM {TimeUS : 60235063, Roll : -0.09, Pitch : -16.95, Yaw : 35.23, Alt : 49.2900009155, Lat : 49.2836789, Lng : -123.1149056, Q1 : 0.942709684372, Q2 : 0.0438780710101, Q3 : -0.140771642327, Q4 : 0.299260020256}
2019-04-14 05:31:50.31: SIM {TimeUS : 60335023, Roll : -0.19, Pitch : -16.98, Yaw : 35.35, Alt : 49.2999992371, Lat : 49.283682, Lng : -123.1149022, Q1 : 0.942412793636, Q2 : 0.0432052351534, Q3 : -0.141252577305, Q4 : 0.300065219402}
2019-04-14 05:31:50.41: SIM {TimeUS : 60434983, Roll : -0.24, Pitch : -17.02, Yaw : 35.42, Alt : 49.2999992371, Lat : 49.2836851, Lng : -123.1148989, Q1 : 0.942209005356, Q2 : 0.0429984927177, Q3 : -0.141639903188, Q4 : 0.300552070141}
2019-04-14 05:31:50.51: SIM {TimeUS : 60534943, Roll : -0.24, Pitch : -17.05, Yaw : 35.43, Alt : 49.2999992371, Lat : 49.2836882, Lng : -123.1148955, Q1 : 0.942116200924, Q2 : 0.0430900752544, Q3 : -0.141934543848, Q4 : 0.300690799952}
2019-04-14 05:31:50.61: SIM {TimeUS : 60634903, Roll : -0.2, Pitch : -17.09, Yaw : 35.41, Alt : 49.2999992371, Lat : 49.2836913, Lng : -123.1148921, Q1 : 0.942116320133, Q2 : 0.0434980876744, Q3 : -0.142166674137, Q4 : 0.300521850586}
2019-04-14 05:31:50.71: SIM {TimeUS : 60734863, Roll : -0.13, Pitch : -17.14, Yaw : 35.35, Alt : 49.2999992371, Lat : 49.2836944, Lng : -123.1148887, Q1 : 0.942191243172, Q2 : 0.0441248491406, Q3 : -0.14234419167, Q4 : 0.300111293793}
2019-04-14 05:31:50.81: SIM {TimeUS : 60834823, Roll : -0.06, Pitch : -17.16, Yaw : 35.27, Alt : 49.2999992371, Lat : 49.2836977, Lng : -123.1148853, Q1 : 0.942343533039, Q2 : 0.0447262637317, Q3 : -0.14241476357, Q4 : 0.299510121346}
2019-04-14 05:31:50.91: SIM {TimeUS : 60934783, Roll : 0.0, Pitch : -17.18, Yaw : 35.17, Alt : 49.2999992371, Lat : 49.2837009, Lng : -123.1148818, Q1 : 0.942552268505, Q2 : 0.045150090009, Q3 : -0.142408519983, Q4 : 0.298791855574}
2019-04-14 05:31:51.01: SIM {TimeUS : 61034743, Roll : 0.04, Pitch : -17.19, Yaw : 35.07, Alt : 49.2999992371, Lat : 49.283704, Lng : -123.1148784, Q1 : 0.942772448063, Q2 : 0.0454011410475, Q3 : -0.142464056611, Q4 : 0.298031628132}
2019-04-14 05:31:51.11: SIM {TimeUS : 61134703, Roll : 0.09, Pitch : -17.2, Yaw : 34.98, Alt : 49.2999992371, Lat : 49.2837072, Lng : -123.1148749, Q1 : 0.942977368832, Q2 : 0.0457247570157, Q3 : -0.142461717129, Q4 : 0.297334253788}
2019-04-14 05:31:51.21: SIM {TimeUS : 61234663, Roll : 0.13, Pitch : -17.22, Yaw : 34.91, Alt : 49.3100013733, Lat : 49.2837105, Lng : -123.1148714, Q1 : 0.943133294582, Q2 : 0.0460780486465, Q3 : -0.142532899976, Q4 : 0.296750426292}
2019-04-14 05:31:51.31: SIM {TimeUS : 61334623, Roll : 0.19, Pitch : -17.27, Yaw : 34.85, Alt : 49.3100013733, Lat : 49.2837137, Lng : -123.1148679, Q1 : 0.943208515644, Q2 : 0.0465509854257, Q3 : -0.142785444856, Q4 : 0.296315789223}
2019-04-14 05:31:51.41: SIM {TimeUS : 61434583, Roll : 0.23, Pitch : -17.33, Yaw : 34.81, Alt : 49.3100013733, Lat : 49.2837169, Lng : -123.1148643, Q1 : 0.943215787411, Q2 : 0.0470249354839, Q3 : -0.143176361918, Q4 : 0.296029120684}
2019-04-14 05:31:51.51: SIM {TimeUS : 61535376, Roll : 0.24, Pitch : -17.36, Yaw : 34.79, Alt : 49.3100013733, Lat : 49.2837203, Lng : -123.1148609, Q1 : 0.943220078945, Q2 : 0.0471851713955, Q3 : -0.143417075276, Q4 : 0.295873194933}
2019-04-14 05:31:51.61: SIM {TimeUS : 61635336, Roll : 0.23, Pitch : -17.36, Yaw : 34.79, Alt : 49.3100013733, Lat : 49.2837235, Lng : -123.1148573, Q1 : 0.943233311176, Q2 : 0.0470503605902, Q3 : -0.143431276083, Q4 : 0.295845717192}
2019-04-14 05:31:51.71: SIM {TimeUS : 61735296, Roll : 0.2, Pitch : -17.35, Yaw : 34.8, Alt : 49.3100013733, Lat : 49.2837267, Lng : -123.1148538, Q1 : 0.943224966526, Q2 : 0.0468323603272, Q3 : -0.143463298678, Q4 : 0.29589137435}
2019-04-14 05:31:51.81: SIM {TimeUS : 61835256, Roll : 0.16, Pitch : -17.37, Yaw : 34.81, Alt : 49.3100013733, Lat : 49.2837301, Lng : -123.1148502, Q1 : 0.943179965019, Q2 : 0.0465288721025, Q3 : -0.14370714128, Q4 : 0.29596427083}
2019-04-14 05:31:51.91: SIM {TimeUS : 61935216, Roll : 0.12, Pitch : -17.39, Yaw : 34.83, Alt : 49.3100013733, Lat : 49.2837333, Lng : -123.1148466, Q1 : 0.943112671375, Q2 : 0.0463356524706, Q3 : -0.143961682916, Q4 : 0.296085357666}
2019-04-14 05:31:52.01: SIM {TimeUS : 62035176, Roll : 0.09, Pitch : -17.42, Yaw : 34.85, Alt : 49.3100013733, Lat : 49.2837367, Lng : -123.114843, Q1 : 0.943037688732, Q2 : 0.0461991578341, Q3 : -0.144300550222, Q4 : 0.296180576086}
2019-04-14 05:31:52.11: SIM {TimeUS : 62135136, Roll : 0.08, Pitch : -17.45, Yaw : 34.86, Alt : 49.3100013733, Lat : 49.2837399, Lng : -123.1148394, Q1 : 0.942987322807, Q2 : 0.0461191684008, Q3 : -0.144549012184, Q4 : 0.296232163906}
2019-04-14 05:31:52.21: SIM {TimeUS : 62235096, Roll : 0.08, Pitch : -17.47, Yaw : 34.87, Alt : 49.3100013733, Lat : 49.2837434, Lng : -123.1148358, Q1 : 0.942944526672, Q2 : 0.046216648072, Q3 : -0.144749745727, Q4 : 0.296255201101}
2019-04-14 05:31:52.31: SIM {TimeUS : 62335056, Roll : 0.09, Pitch : -17.49, Yaw : 34.86, Alt : 49.3100013733, Lat : 49.2837466, Lng : -123.1148322, Q1 : 0.94293320179, Q2 : 0.0463495925069, Q3 : -0.14482139051, Q4 : 0.296235531569}
2019-04-14 05:31:52.41: SIM {TimeUS : 62435016, Roll : 0.11, Pitch : -17.5, Yaw : 34.85, Alt : 49.3199996948, Lat : 49.28375, Lng : -123.1148286, Q1 : 0.942933857441, Q2 : 0.0465475954115, Q3 : -0.144897133112, Q4 : 0.296165287495}
2019-04-14 05:31:52.51: SIM {TimeUS : 62534976, Roll : 0.13, Pitch : -17.53, Yaw : 34.83, Alt : 49.3199996948, Lat : 49.2837533, Lng : -123.114825, Q1 : 0.942934215069, Q2 : 0.0467819683254, Q3 : -0.145083993673, Q4 : 0.296035736799}
2019-04-14 05:31:52.61: SIM {TimeUS : 62634936, Roll : 0.15, Pitch : -17.57, Yaw : 34.81, Alt : 49.3199996948, Lat : 49.2837567, Lng : -123.1148213, Q1 : 0.942939817905, Q2 : 0.0469558276236, Q3 : -0.145414456725, Q4 : 0.295828133821}
2019-04-14 05:31:52.71: SIM {TimeUS : 62734896, Roll : 0.13, Pitch : -17.62, Yaw : 34.78, Alt : 49.3199996948, Lat : 49.28376, Lng : -123.1148177, Q1 : 0.942958176136, Q2 : 0.0469353795052, Q3 : -0.145831555128, Q4 : 0.295567333698}
2019-04-14 05:31:52.81: SIM {TimeUS : 62834856, Roll : 0.13, Pitch : -17.66, Yaw : 34.75, Alt : 49.3199996948, Lat : 49.2837635, Lng : -123.114814, Q1 : 0.9429859519, Q2 : 0.0469353422523, Q3 : -0.146196469665, Q4 : 0.295298457146}
2019-04-14 05:31:52.91: SIM {TimeUS : 62934816, Roll : 0.14, Pitch : -17.68, Yaw : 34.72, Alt : 49.3199996948, Lat : 49.2837668, Lng : -123.1148104, Q1 : 0.943026483059, Q2 : 0.0470865182579, Q3 : -0.146356835961, Q4 : 0.295065373182}
2019-04-14 05:31:53.01: SIM {TimeUS : 63034776, Roll : 0.16, Pitch : -17.68, Yaw : 34.69, Alt : 49.3199996948, Lat : 49.2837703, Lng : -123.1148067, Q1 : 0.943091750145, Q2 : 0.0471964105964, Q3 : -0.146300837398, Q4 : 0.294866979122}
2019-04-14 05:31:53.11: SIM {TimeUS : 63134736, Roll : 0.18, Pitch : -17.66, Yaw : 34.67, Alt : 49.3199996948, Lat : 49.2837737, Lng : -123.114803, Q1 : 0.943179309368, Q2 : 0.0472382865846, Q3 : -0.14606334269, Q4 : 0.294698029757}
2019-04-14 05:31:53.21: SIM {TimeUS : 63234696, Roll : 0.18, Pitch : -17.64, Yaw : 34.65, Alt : 49.3199996948, Lat : 49.283777, Lng : -123.1147993, Q1 : 0.943258166313, Q2 : 0.0471791774035, Q3 : -0.145919248462, Q4 : 0.294526189566}
2019-04-14 05:31:53.31: SIM {TimeUS : 63334656, Roll : 0.18, Pitch : -17.63, Yaw : 34.63, Alt : 49.3199996948, Lat : 49.2837805, Lng : -123.1147956, Q1 : 0.943314254284, Q2 : 0.0471188984811, Q3 : -0.145892441273, Q4 : 0.294369518757}
2019-04-14 05:31:53.41: SIM {TimeUS : 63434616, Roll : 0.18, Pitch : -17.63, Yaw : 34.61, Alt : 49.3199996948, Lat : 49.2837838, Lng : -123.1147919, Q1 : 0.94335860014, Q2 : 0.0471095629036, Q3 : -0.145859152079, Q4 : 0.294245451689}
2019-04-14 05:31:53.51: SIM {TimeUS : 63534576, Roll : 0.18, Pitch : -17.65, Yaw : 34.6, Alt : 49.3199996948, Lat : 49.2837873, Lng : -123.1147882, Q1 : 0.943360865116, Q2 : 0.0471431948245, Q3 : -0.146048784256, Q4 : 0.294138640165}
2019-04-14 05:31:53.61: SIM {TimeUS : 63635369, Roll : 0.18, Pitch : -17.69, Yaw : 34.59, Alt : 49.3199996948, Lat : 49.2837908, Lng : -123.1147845, Q1 : 0.943338990211, Q2 : 0.0472079478204, Q3 : -0.146353393793, Q4 : 0.294046998024}
2019-04-14 05:31:53.71: SIM {TimeUS : 63735329, Roll : 0.16, Pitch : -17.74, Yaw : 34.59, Alt : 49.3199996948, Lat : 49.2837942, Lng : -123.1147807, Q1 : 0.943293690681, Q2 : 0.0471907779574, Q3 : -0.146831616759, Q4 : 0.293956667185}
2019-04-14 05:31:53.81: SIM {TimeUS : 63835289, Roll : 0.15, Pitch : -17.79, Yaw : 34.58, Alt : 49.3300018311, Lat : 49.2837977, Lng : -123.114777, Q1 : 0.943243503571, Q2 : 0.0472259819508, Q3 : -0.147287711501, Q4 : 0.293883860111}
2019-04-14 05:31:53.91: SIM {TimeUS : 63935249, Roll : 0.15, Pitch : -17.82, Yaw : 34.58, Alt : 49.3300018311, Lat : 49.2838012, Lng : -123.1147733, Q1 : 0.943216919899, Q2 : 0.0473096929491, Q3 : -0.147519931197, Q4 : 0.293839246035}
2019-04-14 05:31:54.01: SIM {TimeUS : 64035209, Roll : 0.15, Pitch : -17.84, Yaw : 34.57, Alt : 49.3300018311, Lat : 49.2838045, Lng : -123.1147695, Q1 : 0.943198144436, Q2 : 0.0473689548671, Q3 : -0.147714629769, Q4 : 0.29379221797}
2019-04-14 05:31:54.11: SIM {TimeUS : 64135169, Roll : 0.14, Pitch : -17.85, Yaw : 34.57, Alt : 49.3300018311, Lat : 49.283808, Lng : -123.1147658, Q1 : 0.943200945854, Q2 : 0.0473331063986, Q3 : -0.14783205092, Q4 : 0.293729871511}
2019-04-14 05:31:54.21: SIM {TimeUS : 64235129, Roll : 0.15, Pitch : -17.84, Yaw : 34.56, Alt : 49.3300018311, Lat : 49.2838115, Lng : -123.1147621, Q1 : 0.943232595921, Q2 : 0.0473549515009, Q3 : -0.147725597024, Q4 : 0.293678224087}
2019-04-14 05:31:54.31: SIM {TimeUS : 64335089, Roll : 0.17, Pitch : -17.85, Yaw : 34.55, Alt : 49.3300018311, Lat : 49.283815, Lng : -123.1147583, Q1 : 0.94323849678, Q2 : 0.0475049093366, Q3 : -0.147766932845, Q4 : 0.293614387512}
2019-04-14 05:31:54.41: SIM {TimeUS : 64435049, Roll : 0.18, Pitch : -17.87, Yaw : 34.54, Alt : 49.3300018311, Lat : 49.2838184, Lng : -123.1147545, Q1 : 0.943237125874, Q2 : 0.0476374812424, Q3 : -0.14791636169, Q4 : 0.293522030115}
2019-04-14 05:31:54.51: SIM {TimeUS : 64535009, Roll : 0.19, Pitch : -17.89, Yaw : 34.52, Alt : 49.3300018311, Lat : 49.283822, Lng : -123.1147508, Q1 : 0.943241834641, Q2 : 0.0477350503206, Q3 : -0.148056432605, Q4 : 0.293420374393}
2019-04-14 05:31:54.61: SIM {TimeUS : 64634969, Roll : 0.2, Pitch : -17.89, Yaw : 34.51, Alt : 49.3300018311, Lat : 49.2838255, Lng : -123.114747, Q1 : 0.943274497986, Q2 : 0.0478228777647, Q3 : -0.148030146956, Q4 : 0.293314248323}
2019-04-14 05:31:54.71: SIM {TimeUS : 64734929, Roll : 0.2, Pitch : -17.89, Yaw : 34.49, Alt : 49.3300018311, Lat : 49.283829, Lng : -123.1147432, Q1 : 0.94331073761, Q2 : 0.0478360578418, Q3 : -0.14803288877, Q4 : 0.293194204569}
2019-04-14 05:31:54.81: SIM {TimeUS : 64834889, Roll : 0.19, Pitch : -17.91, Yaw : 34.48, Alt : 49.3300018311, Lat : 49.2838324, Lng : -123.1147395, Q1 : 0.943331420422, Q2 : 0.0477563589811, Q3 : -0.148226752877, Q4 : 0.293042629957}
2019-04-14 05:31:54.91: SIM {TimeUS : 64934849, Roll : 0.16, Pitch : -17.95, Yaw : 34.46, Alt : 49.3300018311, Lat : 49.283836, Lng : -123.1147357, Q1 : 0.943337380886, Q2 : 0.0475749671459, Q3 : -0.148611292243, Q4 : 0.292858242989}
2019-04-14 05:31:55.01: SIM {TimeUS : 65034809, Roll : 0.14, Pitch : -17.95, Yaw : 34.45, Alt : 49.3300018311, Lat : 49.2838395, Lng : -123.1147319, Q1 : 0.943380057812, Q2 : 0.0474334992468, Q3 : -0.148681327701, Q4 : 0.292708069086}
2019-04-14 05:31:55.11: SIM {TimeUS : 65134769, Roll : 0.15, Pitch : -17.94, Yaw : 34.43, Alt : 49.3300018311, Lat : 49.283843, Lng : -123.1147281, Q1 : 0.943428456783, Q2 : 0.0474338568747, Q3 : -0.148582488298, Q4 : 0.292602330446}
2019-04-14 05:31:55.21: SIM {TimeUS : 65234729, Roll : 0.17, Pitch : -17.93, Yaw : 34.42, Alt : 49.3300018311, Lat : 49.2838464, Lng : -123.1147243, Q1 : 0.943472146988, Q2 : 0.0475513972342, Q3 : -0.148430466652, Q4 : 0.29251947999}
2019-04-14 05:31:55.31: SIM {TimeUS : 65334689, Roll : 0.18, Pitch : -17.94, Yaw : 34.41, Alt : 49.3300018311, Lat : 49.28385, Lng : -123.1147205, Q1 : 0.943489432335, Q2 : 0.0476639904082, Q3 : -0.148489534855, Q4 : 0.292415261269}
2019-04-14 05:31:55.41: SIM {TimeUS : 65434649, Roll : 0.17, Pitch : -17.96, Yaw : 34.39, Alt : 49.3400001526, Lat : 49.2838536, Lng : -123.1147167, Q1 : 0.943492412567, Q2 : 0.0476469472051, Q3 : -0.148718193173, Q4 : 0.292292296886}
2019-04-14 05:31:55.51: SIM {TimeUS : 65534609, Roll : 0.15, Pitch : -17.99, Yaw : 34.38, Alt : 49.3400001526, Lat : 49.2838571, Lng : -123.1147129, Q1 : 0.943497359753, Q2 : 0.0475272871554, Q3 : -0.148987218738, Q4 : 0.292158722878}
2019-04-14 05:31:55.61: SIM {TimeUS : 65635402, Roll : 0.14, Pitch : -18.01, Yaw : 34.37, Alt : 49.3400001526, Lat : 49.2838607, Lng : -123.1147091, Q1 : 0.943501532078, Q2 : 0.0474864803255, Q3 : -0.149198442698, Q4 : 0.292043894529}
2019-04-14 05:31:55.71: SIM {TimeUS : 65735362, Roll : 0.15, Pitch : -18.03, Yaw : 34.36, Alt : 49.3400001526, Lat : 49.2838641, Lng : -123.1147052, Q1 : 0.943508505821, Q2 : 0.0475532598794, Q3 : -0.149318963289, Q4 : 0.291949003935}
2019-04-14 05:31:55.81: SIM {TimeUS : 65835322, Roll : 0.16, Pitch : -18.03, Yaw : 34.35, Alt : 49.3400001526, Lat : 49.2838676, Lng : -123.1147014, Q1 : 0.943519949913, Q2 : 0.0476351864636, Q3 : -0.149372622371, Q4 : 0.291871130466}
2019-04-14 05:31:55.91: SIM {TimeUS : 65935282, Roll : 0.18, Pitch : -18.04, Yaw : 34.34, Alt : 49.3400001526, Lat : 49.2838713, Lng : -123.1146976, Q1 : 0.94352132082, Q2 : 0.047822650522, Q3 : -0.149377167225, Q4 : 0.291833817959}
2019-04-14 05:31:56.01: SIM {TimeUS : 66035242, Roll : 0.19, Pitch : -18.06, Yaw : 34.33, Alt : 49.3400001526, Lat : 49.2838748, Lng : -123.1146938, Q1 : 0.943512797356, Q2 : 0.0479500629008, Q3 : -0.149473041296, Q4 : 0.291791379452}
2019-04-14 05:31:56.11: SIM {TimeUS : 66135202, Roll : 0.2, Pitch : -18.07, Yaw : 34.33, Alt : 49.3400001526, Lat : 49.2838784, Lng : -123.11469, Q1 : 0.943501830101, Q2 : 0.048071525991, Q3 : -0.149584278464, Q4 : 0.291749924421}
2019-04-14 05:31:56.21: SIM {TimeUS : 66235162, Roll : 0.21, Pitch : -18.09, Yaw : 34.32, Alt : 49.3400001526, Lat : 49.2838819, Lng : -123.1146862, Q1 : 0.943489730358, Q2 : 0.0482088811696, Q3 : -0.149683669209, Q4 : 0.29171538353}
2019-04-14 05:31:56.31: SIM {TimeUS : 66335122, Roll : 0.24, Pitch : -18.1, Yaw : 34.32, Alt : 49.3400001526, Lat : 49.2838854, Lng : -123.1146823, Q1 : 0.943474948406, Q2 : 0.0484287664294, Q3 : -0.149726584554, Q4 : 0.291704803705}
2019-04-14 05:31:56.41: SIM {TimeUS : 66435082, Roll : 0.27, Pitch : -18.11, Yaw : 34.31, Alt : 49.3400001526, Lat : 49.2838889, Lng : -123.1146785, Q1 : 0.943454444408, Q2 : 0.0486921444535, Q3 : -0.149763479829, Q4 : 0.291708290577}
2019-04-14 05:31:56.51: SIM {TimeUS : 66535042, Roll : 0.26, Pitch : -18.11, Yaw : 34.31, Alt : 49.3400001526, Lat : 49.2838925, Lng : -123.1146747, Q1 : 0.943465054035, Q2 : 0.0486646331847, Q3 : -0.149756893516, Q4 : 0.291681915522}
