2019-04-14 04:47:13.90: SIM {TimeUS : 40516287, Roll : 0.0, Pitch : 0.0, Yaw : 0.0, Alt : 30.1000003815, Lat : 49.28357, Lng : -123.11502, Q1 : 1.0, Q2 : 0.0, Q3 : 0.0, Q4 : 0.0}
2019-04-14 04:47:14.01: SIM {TimeUS : 40635406, Roll : 0.0, Pitch : 0.0, Yaw : 0.0, Alt : 30.1000003815, Lat : 49.28357, Lng : -123.11502, Q1 : 1.0, Q2 : 0.0, Q3 : 0.0, Q4 : 0.0}
2019-04-14 04:47:14.11: SIM {TimeUS : 40735366, Roll : 0.0, Pitch : 0.0, Yaw : 0.0, Alt : 30.1000003815, Lat : 49.28357, Lng : -123.11502, Q1 : 1.0, Q2 : 0.0, Q3 : 0.0, Q4 : 0.0}
2019-04-14 04:47:14.21: SIM {TimeUS : 40835326, Roll : 0.0, Pitch : 0.0, Yaw : 0.0, Alt : 30.1000003815, Lat : 49.28357, Lng : -123.11502, Q1 : 1.0, Q2 : 0.0, Q3 : 0.0, Q4 : 0.0}
2019-04-14 04:47:14.31: SIM {TimeUS : 40935286, Roll : 0.0, Pitch : 0.0, Yaw : 0.0, Alt : 30.1000003815, Lat : 49.28357, Lng : -123.11502, Q1 : 1.0, Q2 : 0.0, Q3 : 0.0, Q4 : 0.0}
2019-04-14 04:47:14.41: SIM {TimeUS : 41035246, Roll : 0.0, Pitch : 0.0, Yaw : 0.0, Alt : 30.1000003815, Lat : 49.28357, Lng : -123.11502, Q1 : 1.0, Q2 : 0.0, Q3 : 0.0, Q4 : 0.0}
2019-04-14 04:47:14.51: SIM {TimeUS : 41135206, Roll : 0.0, Pitch : 0.0, Yaw : 0.0, Alt : 30.1000003815, Lat : 49.28357, Lng : -123.11502, Q1 : 1.0, Q2 : 0.0, Q3 : 0.0, Q4 : 0.0}
2019-04-14 04:47:14.61: SIM {TimeUS : 41235166, Roll : 0.0, Pitch : 0.0, Yaw : 0.0, Alt : 30.1000003815, Lat : 49.28357, Lng : -123.11502, Q1 : 1.0, Q2 : 0.0, Q3 : 0.0, Q4 : 0.0}
2019-04-14 04:47:14.71: SIM {TimeUS : 41335126, Roll : 0.0, Pitch : 0.0, Yaw : 0.0, Alt : 30.1000003815, Lat : 49.28357, Lng : -123.11502, Q1 : 1.0, Q2 : 0.0, Q3 : 0.0, Q4 : 0.0}
2019-04-14 04:47:14.81: SIM {TimeUS : 41435086, Roll : 0.0, Pitch : 0.0, Yaw : 0.0, Alt : 30.1000003815, Lat : 49.28357, Lng : -123.11502, Q1 : 1.0, Q2 : 0.0, Q3 : 0.0, Q4 : 0.0}
2019-04-14 04:47:14.91: SIM {TimeUS : 41535046, Roll : 0.0, Pitch : 0.0, Yaw : 0.0, Alt : 30.1000003815, Lat : 49.28357, Lng : -123.11502, Q1 : 1.0, Q2 : 0.0, Q3 : 0.0, Q4 : 0.0}
2019-04-14 04:47:15.01: SIM {TimeUS : 41635006, Roll : 0.0, Pitch : 0.0, Yaw : 0.0, Alt : 30.1000003815, Lat : 49.28357, Lng : -123.11502, Q1 : 1.0, Q2 : 0.0, Q3 : 0.0, Q4 : 0.0}
2019-04-14 04:47:15.11: SIM {TimeUS : 41734966, Roll : 0.0, Pitch : 0.0, Yaw : 0.0, Alt : 30.1000003815, Lat : 49.28357, Lng : -123.11502, Q1 : 1.0, Q2 : 0.0, Q3 : 0.0, Q4 : 0.0}
2019-04-14 04:47:15.21: SIM {TimeUS : 41834926, Roll : 0.0, Pitch : 0.0, Yaw : 0.0, Alt : 30.1000003815, Lat : 49.28357, Lng : -123.11502, Q1 : 1.0, Q2 : 0.0, Q3 : 0.0, Q4 : 0.0}
2019-04-14 04:47:15.31: SIM {TimeUS : 41934886, Roll : 0.0, Pitch : 0.0, Yaw : 0.0, Alt : 30.1000003815, Lat : 49.28357, Lng : -123.11502, Q1 : 1.0, Q2 : 0.0, Q3 : 0.0, Q4 : 0.0}
2019-04-14 04:47:15.41: SIM {TimeUS : 42034846, Roll : 0.0, Pitch : 0.0, Yaw : 0.0, Alt : 30.1000003815, Lat : 49.28357, Lng : -123.11502, Q1 : 1.0, Q2 : 0.0, Q3 : 0.0, Q4 : 0.0}
2019-04-14 04:47:15.51: SIM {TimeUS : 42134806, Roll : 0.0, Pitch : 0.0, Yaw : 0.0, Alt : 30.1000003815, Lat : 49.28357, Lng : -123.11502, Q1 : 1.0, Q2 : 0.0, Q3 : 0.0, Q4 : 0.0}
2019-04-14 04:47:15.61: SIM {TimeUS : 42234766, Roll : 0.0, Pitch : 0.0, Yaw : 0.0, Alt : 30.1000003815, Lat : 49.28357, Lng : -123.11502, Q1 : 1.0, Q2 : 0.0, Q3 : 0.0, Q4 : 0.0}
2019-04-14 04:47:15.71: SIM {TimeUS : 42334726, Roll : 0.0, Pitch : 0.0, Yaw : 0.0, Alt : 30.1000003815, Lat : 49.28357, Lng : -123.11502, Q1 : 1.0, Q2 : 0.0, Q3 : 0.0, Q4 : 0.0}
2019-04-14 04:47:15.81: SIM {TimeUS : 42434686, Roll : 0.0, Pitch : 0.0, Yaw : 0.0, Alt : 30.1000003815, Lat : 49.28357, Lng : -123.11502, Q1 : 1.0, Q2 : 0.0, Q3 : 0.0, Q4 : 0.0}
2019-04-14 04:47:15.91: SIM {TimeUS : 42534646, Roll : 0.0, Pitch : 0.0, Yaw : 0.0, Alt : 30.1000003815, Lat : 49.28357, Lng : -123.11502, Q1 : 1.0, Q2 : 0.0, Q3 : 0.0, Q4 : 0.0}
2019-04-14 04:47:16.02: SIM {TimeUS : 42635439, Roll : 0.0, Pitch : 0.0, Yaw : 0.0, Alt : 30.1000003815, Lat : 49.28357, Lng : -123.11502, Q1 : 1.0, Q2 : 0.0, Q3 : 0.0, Q4 : 0.0}
2019-04-14 04:47:16.11: SIM {TimeUS : 42735399, Roll : 0.0, Pitch : 0.0, Yaw : 0.0, Alt : 30.1000003815, Lat : 49.28357, Lng : -123.11502, Q1 : 1.0, Q2 : 0.0, Q3 : 0.0, Q4 : 0.0}
2019-04-14 04:47:16.21: SIM {TimeUS : 42835359, Roll : 0.0, Pitch : 0.0, Yaw : 360.0, Alt : 30.1000003815, Lat : 49.28357, Lng : -123.11502, Q1 : 1.0, Q2 : 0.0, Q3 : 0.0, Q4 : -2.77582514266e-12}
2019-04-14 04:47:16.31: SIM {TimeUS : 42935319, Roll : 0.0, Pitch : 0.0, Yaw : 360.0, Alt : 30.1000003815, Lat : 49.28357, Lng : -123.11502, Q1 : 1.0, Q2 : 0.0, Q3 : 0.0, Q4 : -1.29439896301e-11}
2019-04-14 04:47:16.41: SIM {TimeUS : 43035279, Roll : 0.0, Pitch : 0.0, Yaw : 360.0, Alt : 30.1000003815, Lat : 49.28357, Lng : -123.11502, Q1 : 1.0, Q2 : 0.0, Q3 : 0.0, Q4 : -1.13559650572e-07}
2019-04-14 04:47:16.51: SIM {TimeUS : 43135239, Roll : 0.0, Pitch : 0.0, Yaw : 359.99, Alt : 30.1000003815, Lat : 49.28357, Lng : -123.11502, Q1 : 1.0, Q2 : 0.0, Q3 : 0.0, Q4 : -2.90839892614e-07}
2019-04-14 04:47:16.61: SIM {TimeUS : 43235199, Roll : 0.0, Pitch : 0.0, Yaw : 359.99, Alt : 30.1000003815, Lat : 49.28357, Lng : -123.11502, Q1 : 1.0, Q2 : 0.0, Q3 : 0.0, Q4 : -4.51791180467e-07}
2019-04-14 04:47:16.71: SIM {TimeUS : 43335159, Roll : 0.0, Pitch : 0.0, Yaw : 359.99, Alt : 30.1000003815, Lat : 49.28357, Lng : -123.11502, Q1 : 1.0, Q2 : 0.0, Q3 : 0.0, Q4 : -6.12166047631e-07}
2019-04-14 04:47:16.81: SIM {TimeUS : 43435119, Roll : 0.0, Pitch : 0.0, Yaw : 359.99, Alt : 30.1000003815, Lat : 49.28357, Lng : -123.11502, Q1 : 1.0, Q2 : 0.0, Q3 : 0.0, Q4 : -7.77330853907e-07}
2019-04-14 04:47:16.91: SIM {TimeUS : 43535079, Roll : 0.0, Pitch : 0.0, Yaw : 359.99, Alt : 30.1000003815, Lat : 49.28357, Lng : -123.11502, Q1 : 1.0, Q2 : 0.0, Q3 : 0.0, Q4 : -9.82872279565e-07}
2019-04-14 04:47:17.01: SIM {TimeUS : 43635039, Roll : 0.0, Pitch : 0.0, Yaw : 359.99, Alt : 30.1000003815, Lat : 49.28357, Lng : -123.11502, Q1 : 1.0, Q2 : 0.0, Q3 : 0.0, Q4 : -1.22541757719e-06}
2019-04-14 04:47:17.11: SIM {TimeUS : 43734999, Roll : 0.0, Pitch : 0.0, Yaw : 359.99, Alt : 30.1100006104, Lat : 49.28357, Lng : -123.11502, Q1 : 1.0, Q2 : 0.0, Q3 : 0.0, Q4 : -1.42928797686e-06}
2019-04-14 04:47:17.21: SIM {TimeUS : 43834959, Roll : 0.0, Pitch : 0.0, Yaw : 359.99, Alt : 30.1299991608, Lat : 49.28357, Lng : -123.11502, Q1 : 1.0, Q2 : 0.0, Q3 : 0.0, Q4 : -1.6536748717e-06}
2019-04-14 04:47:17.31: SIM {TimeUS : 43934919, Roll : 0.0, Pitch : 0.0, Yaw : 359.99, Alt : 30.1599998474, Lat : 49.28357, Lng : -123.11502, Q1 : 1.0, Q2 : 0.0, Q3 : 0.0, Q4 : -1.83690610811e-06}
2019-04-14 04:47:17.41: SIM {TimeUS : 44034879, Roll : 0.0, Pitch : 0.0, Yaw : 359.99, Alt : 30.1900005341, Lat : 49.28357, Lng : -123.11502, Q1 : 1.0, Q2 : 0.0, Q3 : 0.0, Q4 : -2.05376477425e-06}
2019-04-14 04:47:17.51: SIM {TimeUS : 44134839, Roll : -0.03, Pitch : -0.03, Yaw : 359.99, Alt : 30.2299995422, Lat : 49.28357, Lng : -123.11502, Q1 : 0.999999880791, Q2 : -0.000341069389833, Q3 : -0.000270151533186, Q4 : -5.04048784933e-06}
2019-04-14 04:47:17.61: SIM {TimeUS : 44234799, Roll : -0.3, Pitch : -0.26, Yaw : 359.99, Alt : 30.3099994659, Lat : 49.28357, Lng : -123.11502, Q1 : 0.999993860722, Q2 : -0.00266418326646, Q3 : -0.00227745715529, Q4 : -3.35356126016e-05}
2019-04-14 04:47:17.71: SIM {TimeUS : 44334759, Roll : -0.61, Pitch : -0.54, Yaw : 359.99, Alt : 30.4400005341, Lat : 49.28357, Lng : -123.11502, Q1 : 0.999974370003, Q2 : -0.0053720055148, Q3 : -0.00473414408043, Q4 : -9.04745174921e-05}
2019-04-14 04:47:17.81: SIM {TimeUS : 44434719, Roll : -0.79, Pitch : -0.74, Yaw : 359.98, Alt : 30.5900001526, Lat : 49.28357, Lng : -123.11502, Q1 : 0.999954760075, Q2 : -0.00693185580894, Q3 : -0.00651112524793, Q4 : -0.000166798912687}
2019-04-14 04:47:17.91: SIM {TimeUS : 44534679, Roll : -0.81, Pitch : -0.79, Yaw : 359.97, Alt : 30.75, Lat : 49.28357, Lng : -123.11502, Q1 : 0.999950528145, Q2 : -0.00715655926615, Q3 : -0.00690709752962, Q4 : -0.000248121388722}
2019-04-14 04:47:18.01: SIM {TimeUS : 44634639, Roll : -0.72, Pitch : -0.69, Yaw : 359.96, Alt : 30.9099998474, Lat : 49.28357, Lng : -123.1150201, Q1 : 0.999961733818, Q2 : -0.00631961831823, Q3 : -0.00604009069502, Q4 : -0.000331039744196}
2019-04-14 04:47:18.12: SIM {TimeUS : 44735432, Roll : -0.54, Pitch : -0.5, Yaw : 359.95, Alt : 31.0599994659, Lat : 49.2835701, Lng : -123.1150202, Q1 : 0.99997895956, Q2 : -0.00472829397768, Q3 : -0.00441796472296, Q4 : -0.000405740051065}
2019-04-14 04:47:18.21: SIM {TimeUS : 44835392, Roll : -0.32, Pitch : -0.29, Yaw : 359.94, Alt : 31.2199993134, Lat : 49.2835701, Lng : -123.1150202, Q1 : 0.999992549419, Q2 : -0.00284143607132, Q3 : -0.00257402216084, Q4 : -0.000469642778626}
2019-04-14 04:47:18.31: SIM {TimeUS : 44935352, Roll : -0.13, Pitch : -0.11, Yaw : 359.94, Alt : 31.3899993896, Lat : 49.2835702, Lng : -123.1150203, Q1 : 0.999998748302, Q2 : -0.00113689573482, Q3 : -0.000998285715468, Q4 : -0.000516887463164}
2019-04-14 04:47:18.41: SIM {TimeUS : 45035312, Roll : 0.01, Pitch : 0.0, Yaw : 359.93, Alt : 31.5599994659, Lat : 49.2835702, Lng : -123.1150204, Q1 : 0.999999821186, Q2 : 9.10574017325e-05, Q3 : -3.02124522022e-06, Q4 : -0.000543334754184}
2019-04-14 04:47:18.51: SIM {TimeUS : 45135272, Roll : 0.08, Pitch : 0.04, Yaw : 359.93, Alt : 31.7299995422, Lat : 49.2835702, Lng : -123.1150205, Q1 : 0.999999463558, Q2 : 0.000773886044044, Q3 : 0.000420388299972, Q4 : -0.000554517493583}
2019-04-14 04:47:18.61: SIM {TimeUS : 45235232, Roll : 0.11, Pitch : 0.06, Yaw : 359.93, Alt : 31.9200000763, Lat : 49.2835703, Lng : -123.1150205, Q1 : 0.99999922514, Q2 : 0.000971718982328, Q3 : 0.000557027000468, Q4 : -0.000552754790988}
2019-04-14 04:47:18.71: SIM {TimeUS : 45335192, Roll : 0.09, Pitch : 0.07, Yaw : 359.93, Alt : 32.0999984741, Lat : 49.2835703, Lng : -123.1150206, Q1 : 0.99999922514, Q2 : 0.000868106959388, Q3 : 0.000646848289762, Q4 : -0.000545342336409}
2019-04-14 04:47:18.81: SIM {TimeUS : 45435152, Roll : 0.07, Pitch : 0.08, Yaw : 359.93, Alt : 32.2900009155, Lat : 49.2835703, Lng : -123.1150206, Q1 : 0.999999344349, Q2 : 0.000634260301013, Q3 : 0.000754977925681, Q4 : -0.000527977128513}
2019-04-14 04:47:18.91: SIM {TimeUS : 45535112, Roll : 0.06, Pitch : 0.1, Yaw : 359.94, Alt : 32.4799995422, Lat : 49.2835703, Lng : -123.1150207, Q1 : 0.999999344349, Q2 : 0.000545366958249, Q3 : 0.000899060047232, Q4 : -0.000509136589244}
2019-04-14 04:47:19.01: SIM {TimeUS : 45635072, Roll : 0.08, Pitch : 0.12, Yaw : 359.94, Alt : 32.6800003052, Lat : 49.2835703, Lng : -123.1150207, Q1 : 0.999999046326, Q2 : 0.00071749149356, Q3 : 0.00110195681918, Q4 : -0.000492986524478}
2019-04-14 04:47:19.11: SIM {TimeUS : 45735032, Roll : 0.11, Pitch : 0.14, Yaw : 359.94, Alt : 32.8800010681, Lat : 49.2835704, Lng : -123.1150208, Q1 : 0.999998569489, Q2 : 0.000995871261694, Q3 : 0.00130752264522, Q4 : -0.000482486357214}
2019-04-14 04:47:19.21: SIM {TimeUS : 45834992, Roll : 0.13, Pitch : 0.17, Yaw : 359.94, Alt : 33.0800018311, Lat : 49.2835704, Lng : -123.1150208, Q1 : 0.999998033047, Q2 : 0.00121531414334, Q3 : 0.00151616474614, Q4 : -0.000473728025099}
2019-04-14 04:47:19.31: SIM {TimeUS : 45934952, Roll : 0.15, Pitch : 0.17, Yaw : 359.94, Alt : 33.2799987793, Lat : 49.2835704, Lng : -123.1150208, Q1 : 0.999997794628, Q2 : 0.00137836369686, Q3 : 0.00150219001807, Q4 : -0.000463717995444}
2019-04-14 04:47:19.41: SIM {TimeUS : 46034912, Roll : 0.16, Pitch : 0.14, Yaw : 359.94, Alt : 33.4799995422, Lat : 49.2835704, Lng : -123.1150208, Q1 : 0.999998152256, Q2 : 0.00140732817817, Q3 : 0.00123283988796, Q4 : -0.000466505705845}
2019-04-14 04:47:19.51: SIM {TimeUS : 46134872, Roll : 0.15, Pitch : 0.12, Yaw : 359.94, Alt : 33.6899986267, Lat : 49.2835704, Lng : -123.1150208, Q1 : 0.999998390675, Q2 : 0.00133783719502, Q3 : 0.00110960018355, Q4 : -0.00046914772247}
2019-04-14 04:47:19.61: SIM {TimeUS : 46234832, Roll : 0.14, Pitch : 0.12, Yaw : 359.94, Alt : 33.9000015259, Lat : 49.2835704, Lng : -123.1150208, Q1 : 0.999998509884, Q2 : 0.00128066947218, Q3 : 0.00108383712359, Q4 : -0.0004807288351}
2019-04-14 04:47:19.71: SIM {TimeUS : 46334792, Roll : 0.15, Pitch : 0.12, Yaw : 359.94, Alt : 34.1100006104, Lat : 49.2835704, Lng : -123.1150209, Q1 : 0.999998390675, Q2 : 0.00131078111008, Q3 : 0.00111049122643, Q4 : -0.000501530128531}
2019-04-14 04:47:19.81: SIM {TimeUS : 46434752, Roll : 0.14, Pitch : 0.1, Yaw : 359.94, Alt : 34.3199996948, Lat : 49.2835704, Lng : -123.1150208, Q1 : 0.999998629093, Q2 : 0.00124821451027, Q3 : 0.000953156326432, Q4 : -0.000518502143677}
2019-04-14 04:47:19.91: SIM {TimeUS : 46534712, Roll : 0.12, Pitch : 0.09, Yaw : 359.93, Alt : 34.5299987793, Lat : 49.2835704, Lng : -123.1150208, Q1 : 0.999998927116, Q2 : 0.00108789559454, Q3 : 0.000803514034487, Q4 : -0.000532684032805}
2019-04-14 04:47:20.01: SIM {TimeUS : 46634672, Roll : 0.09, Pitch : 0.08, Yaw : 359.93, Alt : 34.75, Lat : 49.2835704, Lng : -123.1150208, Q1 : 0.99999922514, Q2 : 0.000841201457661, Q3 : 0.000714380294085, Q4 : -0.000552902987693}
2019-04-14 04:47:20.11: SIM {TimeUS : 46734632, Roll : 0.06, Pitch : 0.07, Yaw : 359.93, Alt : 34.9599990845, Lat : 49.2835704, Lng : -123.1150208, Q1 : 0.999999463558, Q2 : 0.000562827510294, Q3 : 0.000647096661851, Q4 : -0.00057416659547}
2019-04-14 04:47:20.22: SIM {TimeUS : 46835425, Roll : 0.04, Pitch : 0.04, Yaw : 359.93, Alt : 35.1800003052, Lat : 49.2835704, Lng : -123.1150208, Q1 : 0.999999701977, Q2 : 0.000397895055357, Q3 : 0.000353118753992, Q4 : -0.00059709692141}
2019-04-14 04:47:20.31: SIM {TimeUS : 46935385, Roll : 0.03, Pitch : 0.01, Yaw : 359.92, Alt : 35.4000015259, Lat : 49.2835704, Lng : -123.1150208, Q1 : 0.999999761581, Q2 : 0.000312000192935, Q3 : 0.000102599027741, Q4 : -0.000624658656307}
2019-04-14 04:47:20.41: SIM {TimeUS : 47035345, Roll : 0.01, Pitch : 0.0, Yaw : 359.92, Alt : 35.6100006104, Lat : 49.2835704, Lng : -123.1150208, Q1 : 0.999999761581, Q2 : 9.85450824373e-05, Q3 : 5.73993133912e-07, Q4 : -0.000657096737996}
2019-04-14 04:47:20.51: SIM {TimeUS : 47135305, Roll : 0.0, Pitch : 0.0, Yaw : 359.92, Alt : 35.8300018311, Lat : 49.2835704, Lng : -123.1150208, Q1 : 0.999999761581, Q2 : 1.99198784685e-05, Q3 : -4.26646420237e-06, Q4 : -0.000686885323375}
2019-04-14 04:47:20.61: SIM {TimeUS : 47235265, Roll : 0.0, Pitch : 0.0, Yaw : 359.91, Alt : 36.0499992371, Lat : 49.2835704, Lng : -123.1150207, Q1 : 0.999999761581, Q2 : 4.1871189751e-05, Q3 : 1.54594563355e-05, Q4 : -0.000716420414392}
2019-04-14 04:47:20.71: SIM {TimeUS : 47335225, Roll : 0.0, Pitch : -0.01, Yaw : 359.91, Alt : 36.2700004578, Lat : 49.2835704, Lng : -123.1150207, Q1 : 0.999999701977, Q2 : -6.69270884828e-05, Q3 : -0.000160412557307, Q4 : -0.00074515567394}
2019-04-14 04:47:20.81: SIM {TimeUS : 47435185, Roll : -0.03, Pitch : -0.05, Yaw : 359.91, Alt : 36.5, Lat : 49.2835704, Lng : -123.1150207, Q1 : 0.999999523163, Q2 : -0.000311736599542, Q3 : -0.00048434783821, Q4 : -0.000772561645135}
2019-04-14 04:47:20.91: SIM {TimeUS : 47535145, Roll : -0.06, Pitch : -0.08, Yaw : 359.9, Alt : 36.7200012207, Lat : 49.2835704, Lng : -123.1150207, Q1 : 0.99999922514, Q2 : -0.000597752514295, Q3 : -0.000703024561517, Q4 : -0.000797220622189}
2019-04-14 04:47:21.01: SIM {TimeUS : 47635105, Roll : -0.1, Pitch : -0.1, Yaw : 359.9, Alt : 36.9399986267, Lat : 49.2835704, Lng : -123.1150207, Q1 : 0.999998927116, Q2 : -0.000876644684467, Q3 : -0.000877771293744, Q4 : -0.000820452056359}
2019-04-14 04:47:21.11: SIM {TimeUS : 47735065, Roll : -0.1, Pitch : -0.1, Yaw : 359.9, Alt : 37.1699981689, Lat : 49.2835704, Lng : -123.1150207, Q1 : 0.999998807907, Q2 : -0.000931641145144, Q3 : -0.000885394401848, Q4 : -0.000842876324896}
2019-04-14 04:47:21.21: SIM {TimeUS : 47835025, Roll : -0.09, Pitch : -0.08, Yaw : 359.9, Alt : 37.3899993896, Lat : 49.2835704, Lng : -123.1150207, Q1 : 0.999998986721, Q2 : -0.000843675108626, Q3 : -0.000759314338211, Q4 : -0.000865411653649}
2019-04-14 04:47:21.31: SIM {TimeUS : 47934985, Roll : -0.07, Pitch : -0.05, Yaw : 359.89, Alt : 37.6199989319, Lat : 49.2835704, Lng : -123.1150207, Q1 : 0.99999922514, Q2 : -0.000685219478328, Q3 : -0.000500278605614, Q4 : -0.000886628520675}
2019-04-14 04:47:21.41: SIM {TimeUS : 48034945, Roll : -0.06, Pitch : -0.03, Yaw : 359.89, Alt : 37.8400001526, Lat : 49.2835704, Lng : -123.1150207, Q1 : 0.999999403954, Q2 : -0.000527214840986, Q3 : -0.000300792395137, Q4 : -0.000906282744836}
2019-04-14 04:47:21.51: SIM {TimeUS : 48134905, Roll : -0.06, Pitch : -0.03, Yaw : 359.89, Alt : 38.0699996948, Lat : 49.2835704, Lng : -123.1150207, Q1 : 0.999999344349, Q2 : -0.000553186051548, Q3 : -0.000285595684545, Q4 : -0.000927234534174}
2019-04-14 04:47:21.61: SIM {TimeUS : 48234865, Roll : -0.07, Pitch : -0.02, Yaw : 359.89, Alt : 38.2999992371, Lat : 49.2835704, Lng : -123.1150207, Q1 : 0.999999344349, Q2 : -0.000638040772174, Q3 : -0.000179889466381, Q4 : -0.00094382656971}
2019-04-14 04:47:21.71: SIM {TimeUS : 48334825, Roll : -0.09, Pitch : 0.0, Yaw : 359.88, Alt : 38.5299987793, Lat : 49.2835704, Lng : -123.1150207, Q1 : 0.999999165535, Q2 : -0.000822867383249, Q3 : -4.79504196846e-05, Q4 : -0.000962050515227}
2019-04-14 04:47:21.81: SIM {TimeUS : 48434785, Roll : -0.09, Pitch : 0.0, Yaw : 359.88, Alt : 38.75, Lat : 49.2835706, Lng : -123.1150207, Q1 : 0.999999165535, Q2 : -0.000841429980937, Q3 : 6.87536376063e-05, Q4 : -0.0009745224379}
2019-04-14 04:47:21.91: SIM {TimeUS : 48534745, Roll : -0.07, Pitch : 0.03, Yaw : 359.88, Alt : 38.9799995422, Lat : 49.2835706, Lng : -123.1150207, Q1 : 0.999999284744, Q2 : -0.00061501073651, Q3 : 0.000289444142254, Q4 : -0.000989675056189}
2019-04-14 04:47:22.01: SIM {TimeUS : 48634705, Roll : -0.03, Pitch : 0.03, Yaw : 359.88, Alt : 39.2099990845, Lat : 49.2835706, Lng : -123.1150207, Q1 : 0.999999403954, Q2 : -0.000345934735378, Q3 : 0.000262751011178, Q4 : -0.000999309006147}
2019-04-14 04:47:22.11: SIM {TimeUS : 48734665, Roll : 0.0, Pitch : 0.02, Yaw : 359.88, Alt : 39.4399986267, Lat : 49.2835706, Lng : -123.1150207, Q1 : 0.999999463558, Q2 : -4.87223951495e-05, Q3 : 0.000203002811759, Q4 : -0.00100862386171}
2019-04-14 04:47:22.21: SIM {TimeUS : 48834625, Roll : 0.03, Pitch : 0.04, Yaw : 359.88, Alt : 39.6699981689, Lat : 49.2835706, Lng : -123.1150207, Q1 : 0.999999403954, Q2 : 0.000296239100862, Q3 : 0.000364372390322, Q4 : -0.00101644382812}
2019-04-14 04:47:22.32: SIM {TimeUS : 48935418, Roll : 0.07, Pitch : 0.07, Yaw : 359.88, Alt : 39.9099998474, Lat : 49.2835706, Lng : -123.1150207, Q1 : 0.999999046326, Q2 : 0.00066407880513, Q3 : 0.000682182901073, Q4 : -0.0010299407877}
2019-04-14 04:47:22.41: SIM {TimeUS : 49035378, Roll : 0.1, Pitch : 0.11, Yaw : 359.87, Alt : 40.1399993896, Lat : 49.2835706, Lng : -123.1150207, Q1 : 0.999998509884, Q2 : 0.00090922252275, Q3 : 0.000987904961221, Q4 : -0.00105054664891}
2019-04-14 04:47:22.51: SIM {TimeUS : 49135338, Roll : 0.09, Pitch : 0.14, Yaw : 359.87, Alt : 40.3699989319, Lat : 49.2835706, Lng : -123.1150207, Q1 : 0.999998271465, Q2 : 0.00083045498468, Q3 : 0.00127401354257, Q4 : -0.00106528587639}
2019-04-14 04:47:22.61: SIM {TimeUS : 49235298, Roll : 0.04, Pitch : 0.17, Yaw : 359.87, Alt : 40.5999984741, Lat : 49.2835706, Lng : -123.1150207, Q1 : 0.999998152256, Q2 : 0.000400443357648, Q3 : 0.00152649218217, Q4 : -0.00109511590563}
2019-04-14 04:47:22.71: SIM {TimeUS : 49335258, Roll : 0.0, Pitch : 0.18, Yaw : 359.87, Alt : 40.8300018311, Lat : 49.2835706, Lng : -123.1150207, Q1 : 0.999998033047, Q2 : -1.25105225379e-05, Q3 : 0.00165160710458, Q4 : -0.00111755833495}
2019-04-14 04:47:22.81: SIM {TimeUS : 49435218, Roll : -0.02, Pitch : 0.17, Yaw : 359.86, Alt : 41.0600013733, Lat : 49.2835706, Lng : -123.1150207, Q1 : 0.999998211861, Q2 : -0.000255868420936, Q3 : 0.00149796181358, Q4 : -0.00113792426419}
2019-04-14 04:47:22.91: SIM {TimeUS : 49535178, Roll : -0.03, Pitch : 0.14, Yaw : 359.86, Alt : 41.2999992371, Lat : 49.2835706, Lng : -123.1150207, Q1 : 0.999998509884, Q2 : -0.000319081358612, Q3 : 0.00122394273058, Q4 : -0.00116992287803}
2019-04-14 04:47:23.01: SIM {TimeUS : 49635138, Roll : -0.02, Pitch : 0.13, Yaw : 359.86, Alt : 41.5299987793, Lat : 49.2835706, Lng : -123.1150207, Q1 : 0.999998569489, Q2 : -0.000197512228624, Q3 : 0.00115279247984, Q4 : -0.00121224671602}
2019-04-14 04:47:23.11: SIM {TimeUS : 49735098, Roll : 0.01, Pitch : 0.14, Yaw : 359.85, Alt : 41.7599983215, Lat : 49.2835706, Lng : -123.1150207, Q1 : 0.999998450279, Q2 : 0.000158795330208, Q3 : 0.00123373582028, Q4 : -0.00126058596652}
2019-04-14 04:47:23.21: SIM {TimeUS : 49835058, Roll : 0.06, Pitch : 0.14, Yaw : 359.84, Alt : 42.0, Lat : 49.2835706, Lng : -123.1150207, Q1 : 0.999998152256, Q2 : 0.000586910929997, Q3 : 0.00126203079708, Q4 : -0.00131029554177}
2019-04-14 04:47:23.31: SIM {TimeUS : 49935018, Roll : 0.1, Pitch : 0.11, Yaw : 359.84, Alt : 42.2299995422, Lat : 49.2835706, Lng : -123.1150207, Q1 : 0.999998152256, Q2 : 0.000894610420801, Q3 : 0.00102887314279, Q4 : -0.00135825690813}
2019-04-14 04:47:23.41: SIM {TimeUS : 50034978, Roll : 0.1, Pitch : 0.07, Yaw : 359.83, Alt : 42.4700012207, Lat : 49.2835706, Lng : -123.1150207, Q1 : 0.999998390675, Q2 : 0.000902500178199, Q3 : 0.000675532093737, Q4 : -0.00139964045957}
2019-04-14 04:47:23.51: SIM {TimeUS : 50134938, Roll : 0.06, Pitch : 0.05, Yaw : 359.83, Alt : 42.7000007629, Lat : 49.2835706, Lng : -123.1150207, Q1 : 0.999998748302, Q2 : 0.000549766002223, Q3 : 0.000449013867183, Q4 : -0.00142471340951}
2019-04-14 04:47:23.61: SIM {TimeUS : 50234898, Roll : 0.0, Pitch : 0.04, Yaw : 359.83, Alt : 42.9399986267, Lat : 49.2835706, Lng : -123.1150207, Q1 : 0.999998867512, Q2 : 5.46415794815e-05, Q3 : 0.000409647036577, Q4 : -0.00143904751167}
2019-04-14 04:47:23.71: SIM {TimeUS : 50334858, Roll : -0.03, Pitch : 0.07, Yaw : 359.83, Alt : 43.1699981689, Lat : 49.2835706, Lng : -123.1150207, Q1 : 0.999998688698, Q2 : -0.000302673783153, Q3 : 0.000621438666712, Q4 : -0.00144485104829}
2019-04-14 04:47:23.81: SIM {TimeUS : 50434818, Roll : -0.05, Pitch : 0.08, Yaw : 359.83, Alt : 43.4099998474, Lat : 49.2835704, Lng : -123.1150207, Q1 : 0.999998509884, Q2 : -0.000479650130728, Q3 : 0.000766366836615, Q4 : -0.00144813198131}
2019-04-14 04:47:23.91: SIM {TimeUS : 50534778, Roll : -0.05, Pitch : 0.07, Yaw : 359.83, Alt : 43.6399993896, Lat : 49.2835704, Lng : -123.1150207, Q1 : 0.999998629093, Q2 : -0.000443067838205, Q3 : 0.000684706144966, Q4 : -0.00145190500189}
2019-04-14 04:47:24.01: SIM {TimeUS : 50634738, Roll : -0.05, Pitch : 0.05, Yaw : 359.83, Alt : 43.8800010681, Lat : 49.2835704, Lng : -123.1150207, Q1 : 0.999998688698, Q2 : -0.000453207147075, Q3 : 0.000513716950081, Q4 : -0.00146033987403}
2019-04-14 04:47:24.11: SIM {TimeUS : 50734698, Roll : -0.04, Pitch : 0.04, Yaw : 359.83, Alt : 44.1100006104, Lat : 49.2835704, Lng : -123.1150206, Q1 : 0.999998807907, Q2 : -0.000395550247049, Q3 : 0.000354720745236, Q4 : -0.00147466582712}
2019-04-14 04:47:24.21: SIM {TimeUS : 50834658, Roll : -0.02, Pitch : 0.03, Yaw : 359.82, Alt : 44.3499984741, Lat : 49.2835704, Lng : -123.1150206, Q1 : 0.999998807907, Q2 : -0.000258929998381, Q3 : 0.000308630143991, Q4 : -0.00149832398165}
2019-04-14 04:47:24.31: SIM {TimeUS : 50934618, Roll : -0.01, Pitch : 0.03, Yaw : 359.82, Alt : 44.5800018311, Lat : 49.2835704, Lng : -123.1150206, Q1 : 0.999998748302, Q2 : -0.000160458934261, Q3 : 0.000312621414196, Q4 : -0.0015256939223}
2019-04-14 04:47:24.41: SIM {TimeUS : 51035411, Roll : -0.02, Pitch : 0.01, Yaw : 359.82, Alt : 44.8199996948, Lat : 49.2835704, Lng : -123.1150206, Q1 : 0.999998748302, Q2 : -0.000175624867552, Q3 : 0.000151766143972, Q4 : -0.0015566815855}
2019-04-14 04:47:24.51: SIM {TimeUS : 51135371, Roll : -0.02, Pitch : -0.02, Yaw : 359.81, Alt : 45.0600013733, Lat : 49.2835704, Lng : -123.1150206, Q1 : 0.999998748302, Q2 : -0.000219249268412, Q3 : -0.000183243711945, Q4 : -0.00158774259035}
2019-04-14 04:47:24.61: SIM {TimeUS : 51235331, Roll : -0.03, Pitch : -0.04, Yaw : 359.81, Alt : 45.2999992371, Lat : 49.2835703, Lng : -123.1150206, Q1 : 0.999998569489, Q2 : -0.000271258293651, Q3 : -0.000410741369706, Q4 : -0.00161986215971}
2019-04-14 04:47:24.71: SIM {TimeUS : 51335291, Roll : -0.02, Pitch : -0.05, Yaw : 359.81, Alt : 45.5299987793, Lat : 49.2835703, Lng : -123.1150206, Q1 : 0.999998509884, Q2 : -0.000255395862041, Q3 : -0.000499305024277, Q4 : -0.00164909125306}
2019-04-14 04:47:24.81: SIM {TimeUS : 51435251, Roll : -0.03, Pitch : -0.05, Yaw : 359.8, Alt : 45.7599983215, Lat : 49.2835703, Lng : -123.1150206, Q1 : 0.999998450279, Q2 : -0.000312299147481, Q3 : -0.000466440542368, Q4 : -0.00167609925848}
2019-04-14 04:47:24.91: SIM {TimeUS : 51535211, Roll : -0.06, Pitch : -0.03, Yaw : 359.8, Alt : 46.0, Lat : 49.2835703, Lng : -123.1150206, Q1 : 0.999998390675, Q2 : -0.000532819656655, Q3 : -0.000338809419191, Q4 : -0.00170211773366}
2019-04-14 04:47:25.01: SIM {TimeUS : 51635171, Roll : -0.09, Pitch : -0.02, Yaw : 359.8, Alt : 46.2200012207, Lat : 49.2835703, Lng : -123.1150206, Q1 : 0.999998092651, Q2 : -0.000862499582581, Q3 : -0.000216678658035, Q4 : -0.0017281176988}
2019-04-14 04:47:25.11: SIM {TimeUS : 51735131, Roll : -0.12, Pitch : -0.01, Yaw : 359.79, Alt : 46.4500007629, Lat : 49.2835703, Lng : -123.1150206, Q1 : 0.999997854233, Q2 : -0.00108852412086, Q3 : -0.000126466635265, Q4 : -0.00175366620533}
2019-04-14 04:47:25.21: SIM {TimeUS : 51835091, Roll : -0.12, Pitch : 0.0, Yaw : 359.79, Alt : 46.6699981689, Lat : 49.2835703, Lng : -123.1150206, Q1 : 0.999997735023, Q2 : -0.00112597038969, Q3 : 1.27729174437e-06, Q4 : -0.0017793236766}
2019-04-14 04:47:25.31: SIM {TimeUS : 51935051, Roll : -0.11, Pitch : 0.01, Yaw : 359.79, Alt : 46.8800010681, Lat : 49.2835703, Lng : -123.1150206, Q1 : 0.999997913837, Q2 : -0.00098035717383, Q3 : 0.000170500934473, Q4 : -0.00180008332245}
2019-04-14 04:47:25.41: SIM {TimeUS : 52035011, Roll : -0.08, Pitch : 0.02, Yaw : 359.79, Alt : 47.0900001526, Lat : 49.2835703, Lng : -123.1150206, Q1 : 0.999998033047, Q2 : -0.000718332245015, Q3 : 0.000222733302508, Q4 : -0.00182016321924}
2019-04-14 04:47:25.51: SIM {TimeUS : 52134971, Roll : -0.05, Pitch : 0.01, Yaw : 359.78, Alt : 47.2900009155, Lat : 49.2835703, Lng : -123.1150206, Q1 : 0.999998152256, Q2 : -0.00048743802472, Q3 : 0.000133135050419, Q4 : -0.00184207770508}
2019-04-14 04:47:25.61: SIM {TimeUS : 52234931, Roll : -0.04, Pitch : 0.0, Yaw : 359.78, Alt : 47.4799995422, Lat : 49.2835703, Lng : -123.1150206, Q1 : 0.999998211861, Q2 : -0.000377268122975, Q3 : -7.40591640351e-05, Q4 : -0.00186957675032}
2019-04-14 04:47:25.71: SIM {TimeUS : 52334891, Roll : -0.03, Pitch : -0.04, Yaw : 359.78, Alt : 47.6699981689, Lat : 49.2835703, Lng : -123.1150206, Q1 : 0.999998092651, Q2 : -0.000298127997667, Q3 : -0.000385087914765, Q4 : -0.00190000387374}
2019-04-14 04:47:25.81: SIM {TimeUS : 52434851, Roll : -0.02, Pitch : -0.07, Yaw : 359.77, Alt : 47.8400001526, Lat : 49.2835703, Lng : -123.1150206, Q1 : 0.999997854233, Q2 : -0.000244006601861, Q3 : -0.000669838569593, Q4 : -0.00193069386296}
2019-04-14 04:47:25.91: SIM {TimeUS : 52534811, Roll : -0.02, Pitch : -0.1, Yaw : 359.77, Alt : 48.0, Lat : 49.2835703, Lng : -123.1150206, Q1 : 0.999997615814, Q2 : -0.000238128224737, Q3 : -0.000958734482992, Q4 : -0.00195802887902}
2019-04-14 04:47:26.01: SIM {TimeUS : 52634771, Roll : -0.03, Pitch : -0.13, Yaw : 359.77, Alt : 48.1500015259, Lat : 49.2835703, Lng : -123.1150206, Q1 : 0.999997377396, Q2 : -0.000282530701952, Q3 : -0.00115362019278, Q4 : -0.00197924906388}
2019-04-14 04:47:26.11: SIM {TimeUS : 52734731, Roll : 0.0, Pitch : -0.12, Yaw : 359.77, Alt : 48.2799987793, Lat : 49.2835703, Lng : -123.1150206, Q1 : 0.999997437, Q2 : -5.86841269978e-05, Q3 : -0.00107746408321, Q4 : -0.00199826364405}
2019-04-14 04:47:26.21: SIM {TimeUS : 52834691, Roll : 0.02, Pitch : -0.1, Yaw : 359.76, Alt : 48.4099998474, Lat : 49.2835703, Lng : -123.1150206, Q1 : 0.99999755621, Q2 : 0.000247930613114, Q3 : -0.000877129961737, Q4 : -0.00202112807892}
2019-04-14 04:47:26.31: SIM {TimeUS : 52934651, Roll : 0.05, Pitch : -0.07, Yaw : 359.76, Alt : 48.5200004578, Lat : 49.2835703, Lng : -123.1150207, Q1 : 0.999997615814, Q2 : 0.000482716190163, Q3 : -0.000625981134363, Q4 : -0.00204504560679}
2019-04-14 04:47:26.42: SIM {TimeUS : 53035444, Roll : 0.06, Pitch : -0.04, Yaw : 359.76, Alt : 48.6199989319, Lat : 49.2835703, Lng : -123.1150207, Q1 : 0.999997615814, Q2 : 0.000573130790144, Q3 : -0.000410088396166, Q4 : -0.0020662616007}
2019-04-14 04:47:26.51: SIM {TimeUS : 53135404, Roll : 0.07, Pitch : -0.03, Yaw : 359.76, Alt : 48.7099990845, Lat : 49.2835703, Lng : -123.1150207, Q1 : 0.99999755621, Q2 : 0.000633466348518, Q3 : -0.000305522466078, Q4 : -0.00209264853038}
2019-04-14 04:47:26.61: SIM {TimeUS : 53235364, Roll : 0.06, Pitch : -0.04, Yaw : 359.75, Alt : 48.7799987793, Lat : 49.2835703, Lng : -123.1150207, Q1 : 0.999997496605, Q2 : 0.000572066055611, Q3 : -0.000391725450754, Q4 : -0.0021229411941}
2019-04-14 04:47:26.71: SIM {TimeUS : 53335324, Roll : 0.03, Pitch : -0.04, Yaw : 359.75, Alt : 48.8499984741, Lat : 49.2835703, Lng : -123.1150207, Q1 : 0.99999755621, Q2 : 0.000342581741279, Q3 : -0.000414515699958, Q4 : -0.0021550708916}
2019-04-14 04:47:26.81: SIM {TimeUS : 53435284, Roll : 0.03, Pitch : -0.06, Yaw : 359.74, Alt : 48.9099998474, Lat : 49.2835703, Lng : -123.1150207, Q1 : 0.999997437, Q2 : 0.000322653329931, Q3 : -0.000561819353607, Q4 : -0.00218873354606}
2019-04-14 04:47:26.91: SIM {TimeUS : 53535244, Roll : 0.12, Pitch : -0.2, Yaw : 359.74, Alt : 48.9599990845, Lat : 49.2835704, Lng : -123.1150207, Q1 : 0.999995350838, Q2 : 0.00111459614709, Q3 : -0.00179150572512, Q4 : -0.00221600756049}
2019-04-14 04:47:27.01: SIM {TimeUS : 53635204, Roll : 0.37, Pitch : -0.54, Yaw : 359.74, Alt : 49.0, Lat : 49.2835704, Lng : -123.1150207, Q1 : 0.99998062849, Q2 : 0.00327741145156, Q3 : -0.00479768170044, Q4 : -0.00224221753888}
2019-04-14 04:47:27.11: SIM {TimeUS : 53735164, Roll : 0.8, Pitch : -1.1, Yaw : 359.73, Alt : 49.0299987793, Lat : 49.2835704, Lng : -123.1150207, Q1 : 0.999926030636, Q2 : 0.00698814447969, Q3 : -0.00969462282956, Q4 : -0.00225651985966}
2019-04-14 04:47:27.21: SIM {TimeUS : 53835124, Roll : 1.35, Pitch : -1.85, Yaw : 359.72, Alt : 49.0699996948, Lat : 49.2835704, Lng : -123.1150207, Q1 : 0.99979609251, Q2 : 0.0118236811832, Q3 : -0.0162169579417, Q4 : -0.00224949792027}
2019-04-14 04:47:27.31: SIM {TimeUS : 53935084, Roll : 1.96, Pitch : -2.72, Yaw : 359.69, Alt : 49.0900001526, Lat : 49.2835706, Lng : -123.1150206, Q1 : 0.999567627907, Q2 : 0.0171108916402, Q3 : -0.0238083563745, Q4 : -0.00221201893874}
2019-04-14 04:47:27.41: SIM {TimeUS : 54035044, Roll : 2.52, Pitch : -3.56, Yaw : 359.67, Alt : 49.1100006104, Lat : 49.2835707, Lng : -123.1150205, Q1 : 0.999271273613, Q2 : 0.0219687540084, Q3 : -0.0311417281628, Q4 : -0.00211148383096}
2019-04-14 04:47:27.51: SIM {TimeUS : 54135004, Roll : 2.96, Pitch : -4.26, Yaw : 359.66, Alt : 49.1300010681, Lat : 49.2835708, Lng : -123.1150204, Q1 : 0.998971283436, Q2 : 0.0257599651814, Q3 : -0.0372703447938, Q4 : -0.00194602576084}
2019-04-14 04:47:27.61: SIM {TimeUS : 54234964, Roll : 3.28, Pitch : -4.77, Yaw : 359.66, Alt : 49.1500015259, Lat : 49.2835709, Lng : -123.1150202, Q1 : 0.998718559742, Q2 : 0.0285308472812, Q3 : -0.0417647063732, Q4 : -0.00171258032788}
2019-04-14 04:47:27.71: SIM {TimeUS : 54334924, Roll : 3.52, Pitch : -5.13, Yaw : 359.67, Alt : 49.1699981689, Lat : 49.2835713, Lng : -123.11502, Q1 : 0.998521983624, Q2 : 0.0306142792106, Q3 : -0.0448841750622, Q4 : -0.00142634136137}
2019-04-14 04:47:27.81: SIM {TimeUS : 54434884, Roll : 3.72, Pitch : -5.42, Yaw : 359.69, Alt : 49.1800003052, Lat : 49.2835715, Lng : -123.1150197, Q1 : 0.998351454735, Q2 : 0.0323313325644, Q3 : -0.0474113710225, Q4 : -0.00112822803203}
2019-04-14 04:47:27.91: SIM {TimeUS : 54534844, Roll : 3.92, Pitch : -5.7, Yaw : 359.7, Alt : 49.1899986267, Lat : 49.2835719, Lng : -123.1150193, Q1 : 0.998177468777, Q2 : 0.0340414196253, Q3 : -0.0498218685389, Q4 : -0.000837174244225}
2019-04-14 04:47:28.01: SIM {TimeUS : 54634804, Roll : 4.13, Pitch : -6.0, Yaw : 359.71, Alt : 49.2000007629, Lat : 49.2835724, Lng : -123.1150188, Q1 : 0.997978150845, Q2 : 0.0358725227416, Q3 : -0.0524638220668, Q4 : -0.000564356334507}
2019-04-14 04:47:28.11: SIM {TimeUS : 54734764, Roll : 4.33, Pitch : -6.33, Yaw : 359.72, Alt : 49.2099990845, Lat : 49.2835728, Lng : -123.1150183, Q1 : 0.997760474682, Q2 : 0.0376476980746, Q3 : -0.0552866384387, Q4 : -0.000319290120387}
2019-04-14 04:47:28.21: SIM {TimeUS : 54834724, Roll : 4.52, Pitch : -6.61, Yaw : 359.72, Alt : 49.2200012207, Lat : 49.2835733, Lng : -123.1150177, Q1 : 0.997556447983, Q2 : 0.0392961874604, Q3 : -0.0577661655843, Q4 : -9.56688381848e-05}
2019-04-14 04:47:28.31: SIM {TimeUS : 54934684, Roll : 4.68, Pitch : -6.82, Yaw : 359.73, Alt : 49.2200012207, Lat : 49.283574, Lng : -123.1150171, Q1 : 0.997395992279, Q2 : 0.0406321883202, Q3 : -0.0595837533474, Q4 : 0.000112801812065}
2019-04-14 04:47:28.41: SIM {TimeUS : 55034644, Roll : 4.77, Pitch : -6.95, Yaw : 359.74, Alt : 49.2299995422, Lat : 49.2835746, Lng : -123.1150163, Q1 : 0.997295439243, Q2 : 0.0414532795548, Q3 : -0.0606905259192, Q4 : 0.000272555160336}
2019-04-14 04:47:28.52: SIM {TimeUS : 55135437, Roll : 4.83, Pitch : -7.05, Yaw : 359.74, Alt : 49.2299995422, Lat : 49.2835755, Lng : -123.1150156, Q1 : 0.997219741344, Q2 : 0.0419929847121, Q3 : -0.061556559056, Q4 : 0.000365324289305}
2019-04-14 04:47:28.61: SIM {TimeUS : 55235397, Roll : 4.88, Pitch : -7.14, Yaw : 359.74, Alt : 49.2400016785, Lat : 49.2835763, Lng : -123.1150147, Q1 : 0.997153759003, Q2 : 0.0423561818898, Q3 : -0.0623713210225, Q4 : 0.000398813921493}
2019-04-14 04:47:28.71: SIM {TimeUS : 55335357, Roll : 5.02, Pitch : -7.23, Yaw : 359.75, Alt : 49.2400016785, Lat : 49.283577, Lng : -123.1150138, Q1 : 0.997053265572, Q2 : 0.043589964509, Q3 : -0.0631220638752, Q4 : 0.000644162530079}
2019-04-14 04:47:28.81: SIM {TimeUS : 55435317, Roll : 5.43, Pitch : -7.26, Yaw : 0.09, Alt : 49.25, Lat : 49.2835781, Lng : -123.1150129, Q1 : 0.996869385242, Q2 : 0.0473362952471, Q3 : -0.0632135272026, Q4 : 0.00384296756238}
2019-04-14 04:47:28.91: SIM {TimeUS : 55535277, Roll : 6.06, Pitch : -7.29, Yaw : 1.41, Alt : 49.25, Lat : 49.2835789, Lng : -123.1150118, Q1 : 0.996458292007, Q2 : 0.0535422824323, Q3 : -0.0629113093019, Q4 : 0.0156949777156}
2019-04-14 04:47:29.01: SIM {TimeUS : 55635237, Roll : 6.57, Pitch : -7.58, Yaw : 4.26, Alt : 49.2599983215, Lat : 49.28358, Lng : -123.1150107, Q1 : 0.995338201523, Q2 : 0.0596657209098, Q3 : -0.0638434365392, Q4 : 0.0408163554966}
2019-04-14 04:47:29.11: SIM {TimeUS : 55735197, Roll : 6.67, Pitch : -8.21, Yaw : 8.69, Alt : 49.2599983215, Lat : 49.2835811, Lng : -123.1150095, Q1 : 0.992552936077, Q2 : 0.0633455365896, Q3 : -0.0669056400657, Q4 : 0.0796846449375}
2019-04-14 04:47:29.21: SIM {TimeUS : 55835157, Roll : 6.11, Pitch : -9.14, Yaw : 14.55, Alt : 49.2599983215, Lat : 49.2835822, Lng : -123.1150082, Q1 : 0.986837029457, Q2 : 0.0628480538726, Q3 : -0.0722067207098, Q4 : 0.130341827869}
2019-04-14 04:47:29.31: SIM {TimeUS : 55935117, Roll : 4.59, Pitch : -10.21, Yaw : 21.44, Alt : 49.2599983215, Lat : 49.2835832, Lng : -123.1150068, Q1 : 0.977187335491, Q2 : 0.0557678714395, Q3 : -0.0799908265471, Q4 : 0.188669845462}
2019-04-14 04:47:29.41: SIM {TimeUS : 56035077, Roll : 2.12, Pitch : -11.19, Yaw : 28.62, Alt : 49.2599983215, Lat : 49.2835844, Lng : -123.1150053, Q1 : 0.963723480701, Q2 : 0.0419694334269, Q3 : -0.0899074450135, Q4 : 0.247774809599}
2019-04-14 04:47:29.51: SIM {TimeUS : 56135037, Roll : -0.81, Pitch : -11.88, Yaw : 35.32, Alt : 49.2599983215, Lat : 49.2835856, Lng : -123.1150037, Q1 : 0.947952926159, Q2 : 0.0246820710599, Q3 : -0.100754961371, Q4 : 0.301038920879}
2019-04-14 04:47:29.61: SIM {TimeUS : 56234997, Roll : -3.55, Pitch : -12.24, Yaw : 40.83, Alt : 49.2700004578, Lat : 49.283587, Lng : -123.1150021, Q1 : 0.932541131973, Q2 : 0.00826742686331, Q3 : -0.110665224493, Q4 : 0.343586802483}
2019-04-14 04:47:29.71: SIM {TimeUS : 56334957, Roll : -5.58, Pitch : -12.38, Yaw : 44.71, Alt : 49.2700004578, Lat : 49.2835884, Lng : -123.1150005, Q1 : 0.920328915119, Q2 : -0.00377365970053, Q3 : -0.118047848344, Q4 : 0.372887611389}
2019-04-14 04:47:29.81: SIM {TimeUS : 56434917, Roll : -6.62, Pitch : -12.45, Yaw : 46.85, Alt : 49.2700004578, Lat : 49.2835898, Lng : -123.1149988, Q1 : 0.913111507893, Q2 : -0.00965474080294, Q3 : -0.122200325131, Q4 : 0.388846039772}
2019-04-14 04:47:29.91: SIM {TimeUS : 56534877, Roll : -6.7, Pitch : -12.6, Yaw : 47.41, Alt : 49.2700004578, Lat : 49.2835916, Lng : -123.1149972, Q1 : 0.911108314991, Q2 : -0.00915543362498, Q3 : -0.123715832829, Q4 : 0.393054991961}
2019-04-14 04:47:30.01: SIM {TimeUS : 56634837, Roll : -6.01, Pitch : -12.92, Yaw : 46.67, Alt : 49.2700004578, Lat : 49.2835933, Lng : -123.1149955, Q1 : 0.913425564766, Q2 : -0.00334986764938, Q3 : -0.123860798776, Q4 : 0.387686818838}
2019-04-14 04:47:30.11: SIM {TimeUS : 56734797, Roll : -4.79, Pitch : -13.43, Yaw : 44.97, Alt : 49.2700004578, Lat : 49.2835951, Lng : -123.1149938, Q1 : 0.918682157993, Q2 : 0.00629671057686, Q3 : -0.123910501599, Q4 : 0.375006198883}
2019-04-14 04:47:30.21: SIM {TimeUS : 56834757, Roll : -3.29, Pitch : -14.07, Yaw : 42.61, Alt : 49.2700004578, Lat : 49.283597, Lng : -123.1149921, Q1 : 0.925514519215, Q2 : 0.0179385337979, Q3 : -0.124440841377, Q4 : 0.357233285904}
2019-04-14 04:47:30.31: SIM {TimeUS : 56934717, Roll : -1.7, Pitch : -14.68, Yaw : 39.9, Alt : 49.2700004578, Lat : 49.2835989, Lng : -123.1149904, Q1 : 0.932818591595, Q2 : 0.0296970531344, Q3 : -0.125149354339, Q4 : 0.336608350277}
2019-04-14 04:47:30.41: SIM {TimeUS : 57034677, Roll : -0.18, Pitch : -15.15, Yaw : 37.14, Alt : 49.2799987793, Lat : 49.283601, Lng : -123.1149885, Q1 : 0.93970733881, Q2 : 0.0404666624963, Q3 : -0.125536397099, Q4 : 0.315520495176}
2019-04-14 04:47:30.51: SIM {TimeUS : 57134637, Roll : 1.12, Pitch : -15.44, Yaw : 34.64, Alt : 49.2799987793, Lat : 49.2836031, Lng : -123.1149866, Q1 : 0.945542037487, Q2 : 0.0493265911937, Q3 : -0.12536367774, Q4 : 0.29631242156}
2019-04-14 04:47:30.62: SIM {TimeUS : 57235430, Roll : 2.12, Pitch : -15.55, Yaw : 32.63, Alt : 49.2799987793, Lat : 49.2836051, Lng : -123.1149845, Q1 : 0.950019419193, Q2 : 0.0556955039501, Q3 : -0.124712437391, Q4 : 0.280727595091}
2019-04-14 04:47:30.71: SIM {TimeUS : 57335390, Roll : 2.73, Pitch : -15.56, Yaw : 31.28, Alt : 49.2799987793, Lat : 49.2836074, Lng : -123.1149824, Q1 : 0.952965497971, Q2 : 0.0592791326344, Q3 : -0.12394041568, Q4 : 0.270151019096}
2019-04-14 04:47:30.81: SIM {TimeUS : 57435350, Roll : 2.94, Pitch : -15.54, Yaw : 30.6, Alt : 49.2799987793, Lat : 49.2836096, Lng : -123.1149801, Q1 : 0.954445183277, Q2 : 0.0602511577308, Q3 : -0.123699389398, Q4 : 0.264769077301}
2019-04-14 04:47:30.91: SIM {TimeUS : 57535310, Roll : 2.79, Pitch : -15.56, Yaw : 30.56, Alt : 49.2799987793, Lat : 49.2836118, Lng : -123.1149777, Q1 : 0.954591691494, Q2 : 0.0590149313211, Q3 : -0.124203629792, Q4 : 0.264282733202}
2019-04-14 04:47:31.01: SIM {TimeUS : 57635270, Roll : 2.35, Pitch : -15.62, Yaw : 31.05, Alt : 49.2799987793, Lat : 49.2836141, Lng : -123.1149753, Q1 : 0.953601837158, Q2 : 0.0560406893492, Q3 : -0.125487610698, Q4 : 0.267872840166}
2019-04-14 04:47:31.11: SIM {TimeUS : 57735230, Roll : 1.72, Pitch : -15.72, Yaw : 31.93, Alt : 49.2799987793, Lat : 49.2836165, Lng : -123.1149727, Q1 : 0.951711237431, Q2 : 0.0519913323224, Q3 : -0.12742818892, Q4 : 0.274416804314}
2019-04-14 04:47:31.21: SIM {TimeUS : 57835190, Roll : 1.01, Pitch : -15.85, Yaw : 33.02, Alt : 49.2799987793, Lat : 49.2836189, Lng : -123.1149701, Q1 : 0.94920527935, Q2 : 0.0476445406675, Q3 : -0.129741773009, Q4 : 0.282677203417}
2019-04-14 04:47:31.31: SIM {TimeUS : 57935150, Roll : 0.32, Pitch : -16.0, Yaw : 34.18, Alt : 49.2799987793, Lat : 49.2836213, Lng : -123.1149674, Q1 : 0.94640648365, Q2 : 0.043558344245, Q3 : -0.132244467735, Q4 : 0.291425645351}
2019-04-14 04:47:31.41: SIM {TimeUS : 58035110, Roll : -0.3, Pitch : -16.14, Yaw : 35.27, Alt : 49.2799987793, Lat : 49.2836238, Lng : -123.1149646, Q1 : 0.943672657013, Q2 : 0.0400502644479, Q3 : -0.134590551257, Q4 : 0.299605160952}
2019-04-14 04:47:31.51: SIM {TimeUS : 58135070, Roll : -0.8, Pitch : -16.25, Yaw : 36.17, Alt : 49.2799987793, Lat : 49.2836262, Lng : -123.114962, Q1 : 0.941317677498, Q2 : 0.0372797474265, Q3 : -0.136550232768, Q4 : 0.306407064199}
2019-04-14 04:47:31.61: SIM {TimeUS : 58235030, Roll : -1.14, Pitch : -16.31, Yaw : 36.83, Alt : 49.2799987793, Lat : 49.2836288, Lng : -123.1149592, Q1 : 0.939594089985, Q2 : 0.0354296341538, Q3 : -0.137727335095, Q4 : 0.311350136995}
2019-04-14 04:47:31.71: SIM {TimeUS : 58334990, Roll : -1.28, Pitch : -16.32, Yaw : 37.2, Alt : 49.2799987793, Lat : 49.2836315, Lng : -123.1149564, Q1 : 0.938597202301, Q2 : 0.0347578860819, Q3 : -0.138101324439, Q4 : 0.314253300428}
2019-04-14 04:47:31.81: SIM {TimeUS : 58434950, Roll : -1.27, Pitch : -16.33, Yaw : 37.31, Alt : 49.2799987793, Lat : 49.2836341, Lng : -123.1149535, Q1 : 0.93829780817, Q2 : 0.0350042320788, Q3 : -0.138088017702, Q4 : 0.315124750137}
2019-04-14 04:47:31.91: SIM {TimeUS : 58534910, Roll : -1.11, Pitch : -16.35, Yaw : 37.17, Alt : 49.2799987793, Lat : 49.2836369, Lng : -123.1149506, Q1 : 0.938587963581, Q2 : 0.0362225659192, Q3 : -0.137840360403, Q4 : 0.314230233431}
2019-04-14 04:47:32.01: SIM {TimeUS : 58634870, Roll : -0.83, Pitch : -16.37, Yaw : 36.86, Alt : 49.2799987793, Lat : 49.2836396, Lng : -123.1149476, Q1 : 0.93933147192, Q2 : 0.0381728857756, Q3 : -0.137350931764, Q4 : 0.311983793974}
2019-04-14 04:47:32.11: SIM {TimeUS : 58734830, Roll : -0.51, Pitch : -16.4, Yaw : 36.43, Alt : 49.2799987793, Lat : 49.2836425, Lng : -123.1149448, Q1 : 0.940348505974, Q2 : 0.0403545126319, Q3 : -0.136895984411, Q4 : 0.308829694986}
2019-04-14 04:47:32.21: SIM {TimeUS : 58834790, Roll : -0.21, Pitch : -16.45, Yaw : 35.95, Alt : 49.2799987793, Lat : 49.2836452, Lng : -123.1149418, Q1 : 0.941454529762, Q2 : 0.0424456074834, Q3 : -0.136703103781, Q4 : 0.30524417758}
2019-04-14 04:47:32.31: SIM {TimeUS : 58934750, Roll : 0.05, Pitch : -16.53, Yaw : 35.49, Alt : 49.2799987793, Lat : 49.2836481, Lng : -123.1149388, Q1 : 0.942506432533, Q2 : 0.0442774146795, Q3 : -0.13676930964, Q4 : 0.301687449217}
2019-04-14 04:47:32.41: SIM {TimeUS : 59034710, Roll : 0.26, Pitch : -16.61, Yaw : 35.08, Alt : 49.2799987793, Lat : 49.283651, Lng : -123.1149357, Q1 : 0.943400323391, Q2 : 0.0457124300301, Q3 : -0.137038320303, Q4 : 0.298540860415}
2019-04-14 04:47:32.51: SIM {TimeUS : 59134670, Roll : 0.4, Pitch : -16.67, Yaw : 34.76, Alt : 49.2799987793, Lat : 49.2836539, Lng : -123.1149327, Q1 : 0.944087982178, Q2 : 0.0466820672154, Q3 : -0.137307882309, Q4 : 0.296083152294}
2019-04-14 04:47:32.61: SIM {TimeUS : 59234630, Roll : 0.48, Pitch : -16.71, Yaw : 34.55, Alt : 49.2900009155, Lat : 49.2836567, Lng : -123.1149295, Q1 : 0.944534063339, Q2 : 0.0472170673311, Q3 : -0.137552246451, Q4 : 0.294457763433}
2019-04-14 04:47:32.72: SIM {TimeUS : 59335423, Roll : 0.52, Pitch : -16.73, Yaw : 34.46, Alt : 49.2900009155, Lat : 49.2836597, Lng : -123.1149263, Q1 : 0.944741070271, Q2 : 0.0474341660738, Q3 : -0.137692034245, Q4 : 0.293692439795}
2019-04-14 04:47:32.81: SIM {TimeUS : 59435383, Roll : 0.5, Pitch : -16.75, Yaw : 34.46, Alt : 49.2900009155, Lat : 49.2836627, Lng : -123.1149232, Q1 : 0.944717109203, Q2 : 0.0472964346409, Q3 : -0.137854635715, Q4 : 0.293715417385}
2019-04-14 04:47:32.91: SIM {TimeUS : 59535343, Roll : 0.43, Pitch : -16.77, Yaw : 34.55, Alt : 49.2900009155, Lat : 49.2836657, Lng : -123.1149199, Q1 : 0.944496035576, Q2 : 0.0469230040908, Q3 : -0.138131514192, Q4 : 0.294355422258}
2019-04-14 04:47:33.01: SIM {TimeUS : 59635303, Roll : 0.34, Pitch : -16.8, Yaw : 34.69, Alt : 49.2900009155, Lat : 49.2836687, Lng : -123.1149167, Q1 : 0.944124996662, Q2 : 0.0464015267789, Q3 : -0.138590544462, Q4 : 0.29541093111}
2019-04-14 04:47:33.11: SIM {TimeUS : 59735263, Roll : 0.22, Pitch : -16.83, Yaw : 34.87, Alt : 49.2900009155, Lat : 49.2836717, Lng : -123.1149134, Q1 : 0.943686306477, Q2 : 0.0456847064197, Q3 : -0.139122366905, Q4 : 0.296671658754}
2019-04-14 04:47:33.21: SIM {TimeUS : 59835223, Roll : 0.09, Pitch : -16.87, Yaw : 35.04, Alt : 49.2900009155, Lat : 49.2836747, Lng : -123.1149101, Q1 : 0.943231999874, Q2 : 0.044977709651, Q3 : -0.139679834247, Q4 : 0.297959536314}
2019-04-14 04:47:33.31: SIM {TimeUS : 59935183, Roll : -0.01, Pitch : -16.92, Yaw : 35.2, Alt : 49.2900009155, Lat : 49.2836778, Lng : -123.1149068, Q1 : 0.94280821085, Q2 : 0.0443389452994, Q3 : -0.140278667212, Q4 : 0.299113065004}
2019-04-14 04:47:33.41: SIM {TimeUS : 60035143, Roll : -0.11, Pitch : -16.96, Yaw : 35.33, Alt : 49.2900009155, Lat : 49.2836809, Lng : -123.1149035, Q1 : 0.942456543446, Q2 : 0.0438217744231, Q3 : -0.140882879496, Q4 : 0.300012230873}
2019-04-14 04:47:33.51: SIM {TimeUS : 60135103, Roll : -0.19, Pitch : -17.0, Yaw : 35.41, Alt : 49.2900009155, Lat : 49.2836839, Lng : -123.1149001, Q1 : 0.942220151424, Q2 : 0.0433827526867, Q3 : -0.141397759318, Q4 : 0.300575911999}
2019-04-14 04:47:33.61: SIM {TimeUS : 60235063, Roll : -0.23, Pitch : -17.03, Yaw : 35.45, Alt : 49.2900009155, Lat : 49.283687, Lng : -123.1148967, Q1 : 0.942107021809, Q2 : 0.043181322515, Q3 : -0.141708537936, Q4 : 0.300813019276}
2019-04-14 04:47:33.71: SIM {TimeUS : 60335023, Roll : -0.24, Pitch : -17.06, Yaw : 35.44, Alt : 49.2900009155, Lat : 49.2836901, Lng : -123.1148933, Q1 : 0.942104756832, Q2 : 0.0431713834405, Q3 : -0.141931027174, Q4 : 0.300716608763}
2019-04-14 04:47:33.81: SIM {TimeUS : 60434983, Roll : -0.2, Pitch : -17.09, Yaw : 35.39, Alt : 49.2999992371, Lat : 49.2836932, Lng : -123.1148899, Q1 : 0.942175149918, Q2 : 0.0435021780431, Q3 : -0.142131194472, Q4 : 0.300353586674}
2019-04-14 04:47:33.91: SIM {TimeUS : 60534943, Roll : -0.13, Pitch : -17.13, Yaw : 35.31, Alt : 49.2999992371, Lat : 49.2836965, Lng : -123.1148865, Q1 : 0.94229978323, Q2 : 0.0440540276468, Q3 : -0.142325535417, Q4 : 0.299789726734}
2019-04-14 04:47:34.01: SIM {TimeUS : 60634903, Roll : -0.05, Pitch : -17.18, Yaw : 35.22, Alt : 49.2999992371, Lat : 49.2836997, Lng : -123.1148831, Q1 : 0.942458748817, Q2 : 0.0447272509336, Q3 : -0.142522588372, Q4 : 0.29909580946}
2019-04-14 04:47:34.11: SIM {TimeUS : 60734863, Roll : 0.02, Pitch : -17.22, Yaw : 35.12, Alt : 49.2999992371, Lat : 49.2837028, Lng : -123.1148796, Q1 : 0.942631959915, Q2 : 0.0454034432769, Q3 : -0.142705515027, Q4 : 0.298360019922}
2019-04-14 04:47:34.21: SIM {TimeUS : 60834823, Roll : 0.09, Pitch : -17.25, Yaw : 35.02, Alt : 49.2999992371, Lat : 49.283706, Lng : -123.1148762, Q1 : 0.942813515663, Q2 : 0.0459297932684, Q3 : -0.14285106957, Q4 : 0.297635227442}
2019-04-14 04:47:34.31: SIM {TimeUS : 60934783, Roll : 0.13, Pitch : -17.27, Yaw : 34.94, Alt : 49.2999992371, Lat : 49.2837093, Lng : -123.1148727, Q1 : 0.942999482155, Q2 : 0.0462115481496, Q3 : -0.142871245742, Q4 : 0.29699203372}
2019-04-14 04:47:34.41: SIM {TimeUS : 61034743, Roll : 0.14, Pitch : -17.28, Yaw : 34.87, Alt : 49.2999992371, Lat : 49.2837125, Lng : -123.1148692, Q1 : 0.943154454231, Q2 : 0.046257365495, Q3 : -0.142966300249, Q4 : 0.296446442604}
2019-04-14 04:47:34.51: SIM {TimeUS : 61134703, Roll : 0.15, Pitch : -17.29, Yaw : 34.82, Alt : 49.2999992371, Lat : 49.2837157, Lng : -123.1148657, Q1 : 0.943264901638, Q2 : 0.0463044457138, Q3 : -0.143027156591, Q4 : 0.29605832696}
2019-04-14 04:47:34.61: SIM {TimeUS : 61234663, Roll : 0.17, Pitch : -17.3, Yaw : 34.79, Alt : 49.3100013733, Lat : 49.283719, Lng : -123.1148622, Q1 : 0.943319618702, Q2 : 0.0464230403304, Q3 : -0.143099874258, Q4 : 0.295830011368}
2019-04-14 04:47:34.71: SIM {TimeUS : 61334623, Roll : 0.19, Pitch : -17.33, Yaw : 34.78, Alt : 49.3100013733, Lat : 49.2837223, Lng : -123.1148586, Q1 : 0.943302750587, Q2 : 0.0466704629362, Q3 : -0.143293112516, Q4 : 0.295751333237}
2019-04-14 04:47:34.82: SIM {TimeUS : 61435416, Roll : 0.21, Pitch : -17.38, Yaw : 34.78, Alt : 49.3100013733, Lat : 49.2837255, Lng : -123.1148551, Q1 : 0.943229854107, Q2 : 0.0469294078648, Q3 : -0.14363694191, Q4 : 0.295776128769}
2019-04-14 04:47:34.91: SIM {TimeUS : 61535376, Roll : 0.2, Pitch : -17.4, Yaw : 34.8, Alt : 49.3100013733, Lat : 49.2837289, Lng : -123.1148515, Q1 : 0.943173527718, Q2 : 0.0469437465072, Q3 : -0.143811836839, Q4 : 0.295868396759}
2019-04-14 04:47:35.01: SIM {TimeUS : 61635336, Roll : 0.18, Pitch : -17.39, Yaw : 34.81, Alt : 49.3100013733, Lat : 49.2837321, Lng : -123.1148479, Q1 : 0.943146586418, Q2 : 0.0467694997787, Q3 : -0.1437933743, Q4 : 0.295990794897}
2019-04-14 04:47:35.11: SIM {TimeUS : 61735296, Roll : 0.14, Pitch : -17.4, Yaw : 34.83, Alt : 49.3100013733, Lat : 49.2837355, Lng : -123.1148443, Q1 : 0.943096101284, Q2 : 0.04650432989, Q3 : -0.143987581134, Q4 : 0.296099066734}
2019-04-14 04:47:35.21: SIM {TimeUS : 61835256, Roll : 0.1, Pitch : -17.44, Yaw : 34.85, Alt : 49.3100013733, Lat : 49.2837387, Lng : -123.1148408, Q1 : 0.94302636385, Q2 : 0.0462423712015, Q3 : -0.144386470318, Q4 : 0.296168088913}
2019-04-14 04:47:35.31: SIM {TimeUS : 61935216, Roll : 0.08, Pitch : -17.47, Yaw : 34.86, Alt : 49.3100013733, Lat : 49.2837421, Lng : -123.1148372, Q1 : 0.942960321903, Q2 : 0.0461893081665, Q3 : -0.144745439291, Q4 : 0.296211153269}
2019-04-14 04:47:35.41: SIM {TimeUS : 62035176, Roll : 0.06, Pitch : -17.51, Yaw : 34.86, Alt : 49.3100013733, Lat : 49.2837454, Lng : -123.1148335, Q1 : 0.94291716814, Q2 : 0.0461754463613, Q3 : -0.145079165697, Q4 : 0.296187549829}
2019-04-14 04:47:35.51: SIM {TimeUS : 62135136, Roll : 0.06, Pitch : -17.53, Yaw : 34.85, Alt : 49.3100013733, Lat : 49.2837488, Lng : -123.1148299, Q1 : 0.94290715456, Q2 : 0.0462112687528, Q3 : -0.145294040442, Q4 : 0.296108543873}
2019-04-14 04:47:35.61: SIM {TimeUS : 62235096, Roll : 0.07, Pitch : -17.55, Yaw : 34.84, Alt : 49.3100013733, Lat : 49.2837521, Lng : -123.1148263, Q1 : 0.942921876907, Q2 : 0.0463280901313, Q3 : -0.145429044962, Q4 : 0.295977085829}
2019-04-14 04:47:35.71: SIM {TimeUS : 62335056, Roll : 0.09, Pitch : -17.56, Yaw : 34.81, Alt : 49.3100013733, Lat : 49.2837555, Lng : -123.1148227, Q1 : 0.942961931229, Q2 : 0.0464887805283, Q3 : -0.145447552204, Q4 : 0.295815199614}
2019-04-14 04:47:35.81: SIM {TimeUS : 62435016, Roll : 0.12, Pitch : -17.57, Yaw : 34.79, Alt : 49.3199996948, Lat : 49.2837588, Lng : -123.114819, Q1 : 0.942999660969, Q2 : 0.0467197187245, Q3 : -0.145456254482, Q4 : 0.29565423727}
2019-04-14 04:47:35.91: SIM {TimeUS : 62534976, Roll : 0.15, Pitch : -17.59, Yaw : 34.76, Alt : 49.3199996948, Lat : 49.2837622, Lng : -123.1148154, Q1 : 0.943032383919, Q2 : 0.0469604916871, Q3 : -0.145553693175, Q4 : 0.295463681221}
2019-04-14 04:47:36.01: SIM {TimeUS : 62634936, Roll : 0.16, Pitch : -17.63, Yaw : 34.74, Alt : 49.3199996948, Lat : 49.2837655, Lng : -123.1148117, Q1 : 0.943051159382, Q2 : 0.0470916815102, Q3 : -0.145871266723, Q4 : 0.295226067305}
2019-04-14 04:47:36.11: SIM {TimeUS : 62734896, Roll : 0.15, Pitch : -17.67, Yaw : 34.71, Alt : 49.3199996948, Lat : 49.283769, Lng : -123.114808, Q1 : 0.943069279194, Q2 : 0.0471389479935, Q3 : -0.146244183183, Q4 : 0.294976145029}
2019-04-14 04:47:36.21: SIM {TimeUS : 62834856, Roll : 0.15, Pitch : -17.71, Yaw : 34.68, Alt : 49.3199996948, Lat : 49.2837723, Lng : -123.1148044, Q1 : 0.94308835268, Q2 : 0.0471522994339, Q3 : -0.146608427167, Q4 : 0.294732064009}
2019-04-14 04:47:36.31: SIM {TimeUS : 62934816, Roll : 0.15, Pitch : -17.74, Yaw : 34.66, Alt : 49.3199996948, Lat : 49.2837758, Lng : -123.1148007, Q1 : 0.943116724491, Q2 : 0.0472443439066, Q3 : -0.146804824471, Q4 : 0.29452881217}
2019-04-14 04:47:36.41: SIM {TimeUS : 63034776, Roll : 0.17, Pitch : -17.74, Yaw : 34.63, Alt : 49.3199996948, Lat : 49.2837792, Lng : -123.114797, Q1 : 0.943165123463, Q2 : 0.0473250262439, Q3 : -0.146795034409, Q4 : 0.294365644455}
2019-04-14 04:47:36.51: SIM {TimeUS : 63134736, Roll : 0.18, Pitch : -17.72, Yaw : 34.62, Alt : 49.3199996948, Lat : 49.2837826, Lng : -123.1147933, Q1 : 0.943227291107, Q2 : 0.0473770834506, Q3 : -0.146636664867, Q4 : 0.294236958027}
2019-04-14 04:47:36.61: SIM {TimeUS : 63234696, Roll : 0.18, Pitch : -17.71, Yaw : 34.6, Alt : 49.3199996948, Lat : 49.2837861, Lng : -123.1147896, Q1 : 0.943277239799, Q2 : 0.0472966879606, Q3 : -0.146555960178, Q4 : 0.294129878283}
2019-04-14 04:47:36.71: SIM {TimeUS : 63334656, Roll : 0.17, Pitch : -17.7, Yaw : 34.59, Alt : 49.3199996948, Lat : 49.2837895, Lng : -123.1147859, Q1 : 0.943318426609, Q2 : 0.0471943430603, Q3 : -0.14651311934, Q4 : 0.294035702944}
2019-04-14 04:47:36.81: SIM {TimeUS : 63434616, Roll : 0.17, Pitch : -17.69, Yaw : 34.59, Alt : 49.3199996948, Lat : 49.2837929, Lng : -123.1147822, Q1 : 0.943348288536, Q2 : 0.0471571497619, Q3 : -0.146446734667, Q4 : 0.293978780508}
2019-04-14 04:47:36.91: SIM {TimeUS : 63535409, Roll : 0.16, Pitch : -17.7, Yaw : 34.58, Alt : 49.3199996948, Lat : 49.2837964, Lng : -123.1147784, Q1 : 0.943353533745, Q2 : 0.0471401363611, Q3 : -0.146528765559, Q4 : 0.293923795223}
2019-04-14 04:47:37.01: SIM {TimeUS : 63635369, Roll : 0.16, Pitch : -17.72, Yaw : 34.57, Alt : 49.3199996948, Lat : 49.2837999, Lng : -123.1147747, Q1 : 0.94334757328, Q2 : 0.0471655502915, Q3 : -0.146658867598, Q4 : 0.293874055147}
2019-04-14 04:47:37.11: SIM {TimeUS : 63735329, Roll : 0.15, Pitch : -17.76, Yaw : 34.57, Alt : 49.3199996948, Lat : 49.2838033, Lng : -123.1147709, Q1 : 0.943311035633, Q2 : 0.0471852570772, Q3 : -0.147027611732, Q4 : 0.293803930283}
2019-04-14 04:47:37.21: SIM {TimeUS : 63835289, Roll : 0.15, Pitch : -17.81, Yaw : 34.56, Alt : 49.3300018311, Lat : 49.2838068, Lng : -123.1147672, Q1 : 0.943262457848, Q2 : 0.0472866147757, Q3 : -0.147447243333, Q4 : 0.293733298779}
2019-04-14 04:47:37.31: SIM {TimeUS : 63935249, Roll : 0.16, Pitch : -17.85, Yaw : 34.56, Alt : 49.3300018311, Lat : 49.2838103, Lng : -123.1147634, Q1 : 0.943227767944, Q2 : 0.0474370419979, Q3 : -0.147752285004, Q4 : 0.293667256832}
2019-04-14 04:47:37.41: SIM {TimeUS : 64035209, Roll : 0.16, Pitch : -17.88, Yaw : 34.55, Alt : 49.3300018311, Lat : 49.2838138, Lng : -123.1147597, Q1 : 0.943203687668, Q2 : 0.0475470162928, Q3 : -0.148036688566, Q4 : 0.293583542109}
2019-04-14 04:47:37.51: SIM {TimeUS : 64135169, Roll : 0.16, Pitch : -17.9, Yaw : 34.54, Alt : 49.3300018311, Lat : 49.2838171, Lng : -123.1147559, Q1 : 0.943207919598, Q2 : 0.0475524701178, Q3 : -0.148197934031, Q4 : 0.293487638235}
2019-04-14 04:47:37.61: SIM {TimeUS : 64235129, Roll : 0.17, Pitch : -17.89, Yaw : 34.53, Alt : 49.3300018311, Lat : 49.2838207, Lng : -123.1147522, Q1 : 0.943246364594, Q2 : 0.047599632293, Q3 : -0.148084759712, Q4 : 0.293413579464}
2019-04-14 04:47:37.71: SIM {TimeUS : 64335089, Roll : 0.19, Pitch : -17.89, Yaw : 34.51, Alt : 49.3300018311, Lat : 49.2838242, Lng : -123.1147484, Q1 : 0.943268656731, Q2 : 0.047752533108, Q3 : -0.148063004017, Q4 : 0.293328106403}
2019-04-14 04:47:37.81: SIM {TimeUS : 64435049, Roll : 0.2, Pitch : -17.91, Yaw : 34.5, Alt : 49.3300018311, Lat : 49.2838276, Lng : -123.1147446, Q1 : 0.943282008171, Q2 : 0.047823946923, Q3 : -0.148173719645, Q4 : 0.293217480183}
2019-04-14 04:47:37.91: SIM {TimeUS : 64535009, Roll : 0.2, Pitch : -17.92, Yaw : 34.49, Alt : 49.3300018311, Lat : 49.2838311, Lng : -123.1147409, Q1 : 0.94330483675, Q2 : 0.0478725619614, Q3 : -0.148224517703, Q4 : 0.293110430241}
2019-04-14 04:47:38.01: SIM {TimeUS : 64634969, Roll : 0.21, Pitch : -17.91, Yaw : 34.47, Alt : 49.3300018311, Lat : 49.2838347, Lng : -123.1147371, Q1 : 0.943339645863, Q2 : 0.0479065217078, Q3 : -0.1481872648, Q4 : 0.293011665344}
2019-04-14 04:47:38.11: SIM {TimeUS : 64734929, Roll : 0.21, Pitch : -17.92, Yaw : 34.46, Alt : 49.3300018311, Lat : 49.2838382, Lng : -123.1147333, Q1 : 0.943365216255, Q2 : 0.0479208528996, Q3 : -0.148230522871, Q4 : 0.292905092239}
2019-04-14 04:47:38.21: SIM {TimeUS : 64834889, Roll : 0.19, Pitch : -17.94, Yaw : 34.45, Alt : 49.3300018311, Lat : 49.2838416, Lng : -123.1147295, Q1 : 0.943380355835, Q2 : 0.0478113926947, Q3 : -0.148434326053, Q4 : 0.292770862579}
2019-04-14 04:47:38.31: SIM {TimeUS : 64934849, Roll : 0.16, Pitch : -17.97, Yaw : 34.43, Alt : 49.3300018311, Lat : 49.2838451, Lng : -123.1147257, Q1 : 0.943379759789, Q2 : 0.047620754689, Q3 : -0.148813888431, Q4 : 0.292611122131}
2019-04-14 04:47:38.41: SIM {TimeUS : 65034809, Roll : 0.15, Pitch : -17.98, Yaw : 34.42, Alt : 49.3300018311, Lat : 49.2838488, Lng : -123.1147219, Q1 : 0.943412661552, Q2 : 0.0474944040179, Q3 : -0.148888096213, Q4 : 0.292487949133}
2019-04-14 04:47:38.51: SIM {TimeUS : 65134769, Roll : 0.15, Pitch : -17.96, Yaw : 34.41, Alt : 49.3300018311, Lat : 49.2838523, Lng : -123.1147181, Q1 : 0.943457067013, Q2 : 0.04750905931, Q3 : -0.148765593767, Q4 : 0.29240462184}
2019-04-14 04:47:38.61: SIM {TimeUS : 65234729, Roll : 0.17, Pitch : -17.95, Yaw : 34.4, Alt : 49.3300018311, Lat : 49.2838558, Lng : -123.1147143, Q1 : 0.943494856358, Q2 : 0.0476152822375, Q3 : -0.148627385497, Q4 : 0.292335748672}
2019-04-14 04:47:38.71: SIM {TimeUS : 65334689, Roll : 0.18, Pitch : -17.96, Yaw : 34.39, Alt : 49.3300018311, Lat : 49.2838592, Lng : -123.1147105, Q1 : 0.943509817123, Q2 : 0.0477161370218, Q3 : -0.148667693138, Q4 : 0.29225051403}
2019-04-14 04:47:38.81: SIM {TimeUS : 65434649, Roll : 0.17, Pitch : -17.98, Yaw : 34.37, Alt : 49.3400001526, Lat : 49.2838628, Lng : -123.1147067, Q1 : 0.943510830402, Q2 : 0.0476657114923, Q3 : -0.148901551962, Q4 : 0.292136281729}
2019-04-14 04:47:38.92: SIM {TimeUS : 65535442, Roll : 0.15, Pitch : -18.01, Yaw : 34.36, Alt : 49.3400001526, Lat : 49.2838664, Lng : -123.1147028, Q1 : 0.94351041317, Q2 : 0.0475333593786, Q3 : -0.149193152785, Q4 : 0.292010456324}
2019-04-14 04:47:39.01: SIM {TimeUS : 65635402, Roll : 0.14, Pitch : -18.03, Yaw : 34.35, Alt : 49.3400001526, Lat : 49.28387, Lng : -123.1146989, Q1 : 0.94351965189, Q2 : 0.0474609993398, Q3 : -0.149365648627, Q4 : 0.291904300451}
2019-04-14 04:47:39.11: SIM {TimeUS : 65735362, Roll : 0.14, Pitch : -18.04, Yaw : 34.34, Alt : 49.3400001526, Lat : 49.2838735, Lng : -123.1146952, Q1 : 0.943525254726, Q2 : 0.0475325286388, Q3 : -0.149488702416, Q4 : 0.291811436415}
2019-04-14 04:47:39.21: SIM {TimeUS : 65835322, Roll : 0.16, Pitch : -18.06, Yaw : 34.33, Alt : 49.3400001526, Lat : 49.2838771, Lng : -123.1146914, Q1 : 0.943528234959, Q2 : 0.0476792864501, Q3 : -0.149561196566, Q4 : 0.291740715504}
2019-04-14 04:47:39.31: SIM {TimeUS : 65935282, Roll : 0.19, Pitch : -18.07, Yaw : 34.32, Alt : 49.3400001526, Lat : 49.2838805, Lng : -123.1146876, Q1 : 0.943528056145, Q2 : 0.0479139685631, Q3 : -0.149562805891, Q4 : 0.291701883078}
2019-04-14 04:47:39.41: SIM {TimeUS : 66035242, Roll : 0.2, Pitch : -18.08, Yaw : 34.32, Alt : 49.3400001526, Lat : 49.2838841, Lng : -123.1146837, Q1 : 0.94352388382, Q2 : 0.04805643484, Q3 : -0.149622380733, Q4 : 0.291661411524}
2019-04-14 04:47:39.51: SIM {TimeUS : 66135202, Roll : 0.21, Pitch : -18.09, Yaw : 34.31, Alt : 49.3400001526, Lat : 49.2838877, Lng : -123.1146799, Q1 : 0.943515002728, Q2 : 0.0481901094317, Q3 : -0.14971254766, Q4 : 0.291621863842}
2019-04-14 04:47:39.61: SIM {TimeUS : 66235162, Roll : 0.23, Pitch : -18.11, Yaw : 34.31, Alt : 49.3400001526, Lat : 49.2838913, Lng : -123.1146761, Q1 : 0.943502247334, Q2 : 0.0483562424779, Q3 : -0.14980083704, Q4 : 0.29159027338}
2019-04-14 04:47:39.71: SIM {TimeUS : 66335122, Roll : 0.25, Pitch : -18.12, Yaw : 34.3, Alt : 49.3400001526, Lat : 49.2838949, Lng : -123.1146723, Q1 : 0.943486690521, Q2 : 0.0485928282142, Q3 : -0.149849876761, Q4 : 0.291576266289}
2019-04-14 04:47:39.81: SIM {TimeUS : 66435082, Roll : 0.28, Pitch : -18.14, Yaw : 34.3, Alt : 49.3400001526, Lat : 49.2838984, Lng : -123.1146684, Q1 : 0.943463921547, Q2 : 0.0488539896905, Q3 : -0.149913430214, Q4 : 0.29157358408}
