2019-04-14 05:11:49.90: SIM {TimeUS : 40516287, Roll : 0.0, Pitch : 0.0, Yaw : 0.0, Alt : 30.1000003815, Lat : 49.28357, Lng : -123.11502, Q1 : 1.0, Q2 : 0.0, Q3 : 0.0, Q4 : 0.0}
2019-04-14 05:11:50.01: SIM {TimeUS : 40635406, Roll : 0.0, Pitch : 0.0, Yaw : 0.0, Alt : 30.1000003815, Lat : 49.28357, Lng : -123.11502, Q1 : 1.0, Q2 : 0.0, Q3 : 0.0, Q4 : 0.0}
2019-04-14 05:11:50.11: SIM {TimeUS : 40735366, Roll : 0.0, Pitch : 0.0, Yaw : 0.0, Alt : 30.1000003815, Lat : 49.28357, Lng : -123.11502, Q1 : 1.0, Q2 : 0.0, Q3 : 0.0, Q4 : 0.0}
2019-04-14 05:11:50.21: SIM {TimeUS : 40835326, Roll : 0.0, Pitch : 0.0, Yaw : 0.0, Alt : 30.1000003815, Lat : 49.28357, Lng : -123.11502, Q1 : 1.0, Q2 : 0.0, Q3 : 0.0, Q4 : 0.0}
2019-04-14 05:11:50.31: SIM {TimeUS : 40935286, Roll : 0.0, Pitch : 0.0, Yaw : 0.0, Alt : 30.1000003815, Lat : 49.28357, Lng : -123.11502, Q1 : 1.0, Q2 : 0.0, Q3 : 0.0, Q4 : 0.0}
2019-04-14 05:11:50.41: SIM {TimeUS : 41035246, Roll : 0.0, Pitch : 0.0, Yaw : 0.0, Alt : 30.1000003815, Lat : 49.28357, Lng : -123.11502, Q1 : 1.0, Q2 : 0.0, Q3 : 0.0, Q4 : 0.0}
2019-04-14 05:11:50.51: SIM {TimeUS : 41135206, Roll : 0.0, Pitch : 0.0, Yaw : 0.0, Alt : 30.1000003815, Lat : 49.28357, Lng : -123.11502, Q1 : 1.0, Q2 : 0.0, Q3 : 0.0, Q4 : 0.0}
2019-04-14 05:11:50.61: SIM {TimeUS : 41235166, Roll : 0.0, Pitch : 0.0, Yaw : 0.0, Alt : 30.1000003815, Lat : 49.28357, Lng : -123.11502, Q1 : 1.0, Q2 : 0.0, Q3 : 0.0, Q4 : 0.0}
2019-04-14 05:11:50.71: SIM {TimeUS : 41335126, Roll : 0.0, Pitch : 0.0, Yaw : 0.0, Alt : 30.1000003815, Lat : 49.28357, Lng : -123.11502, Q1 : 1.0, Q2 : 0.0, Q3 : 0.0, Q4 : 0.0}
2019-04-14 05:11:50.81: SIM {TimeUS : 41435086, Roll : 0.0, Pitch : 0.0, Yaw : 0.0, Alt : 30.1000003815, Lat : 49.28357, Lng : -123.11502, Q1 : 1.0, Q2 : 0.0, Q3 : 0.0, Q4 : 0.0}
2019-04-14 05:11:50.91: SIM {TimeUS : 41535046, Roll : 0.0, Pitch : 0.0, Yaw : 0.0, Alt : 30.1000003815, Lat : 49.28357, Lng : -123.11502, Q1 : 1.0, Q2 : 0.0, Q3 : 0.0, Q4 : 0.0}
2019-04-14 05:11:51.01: SIM {TimeUS : 41635006, Roll : 0.0, Pitch : 0.0, Yaw : 0.0, Alt : 30.1000003815, Lat : 49.28357, Lng : -123.11502, Q1 : 1.0, Q2 : 0.0, Q3 : 0.0, Q4 : 0.0}
2019-04-14 05:11:51.11: SIM {TimeUS : 41734966, Roll : 0.0, Pitch : 0.0, Yaw : 0.0, Alt : 30.1000003815, Lat : 49.28357, Lng : -123.11502, Q1 : 1.0, Q2 : 0.0, Q3 : 0.0, Q4 : 0.0}
2019-04-14 05:11:51.21: SIM {TimeUS : 41834926, Roll : 0.0, Pitch : 0.0, Yaw : 0.0, Alt : 30.1000003815, Lat : 49.28357, Lng : -123.11502, Q1 : 1.0, Q2 : 0.0, Q3 : 0.0, Q4 : 0.0}
2019-04-14 05:11:51.31: SIM {TimeUS : 41934886, Roll : 0.0, Pitch : 0.0, Yaw : 0.0, Alt : 30.1000003815, Lat : 49.28357, Lng : -123.11502, Q1 : 1.0, Q2 : 0.0, Q3 : 0.0, Q4 : 0.0}
2019-04-14 05:11:51.41: SIM {TimeUS : 42034846, Roll : 0.0, Pitch : 0.0, Yaw : 0.0, Alt : 30.1000003815, Lat : 49.28357, Lng : -123.11502, Q1 : 1.0, Q2 : 0.0, Q3 : 0.0, Q4 : 0.0}
2019-04-14 05:11:51.51: SIM {TimeUS : 42134806, Roll : 0.0, Pitch : 0.0, Yaw : 0.0, Alt : 30.1000003815, Lat : 49.28357, Lng : -123.11502, Q1 : 1.0, Q2 : 0.0, Q3 : 0.0, Q4 : 0.0}
2019-04-14 05:11:51.61: SIM {TimeUS : 42234766, Roll : 0.0, Pitch : 0.0, Yaw : 0.0, Alt : 30.1000003815, Lat : 49.28357, Lng : -123.11502, Q1 : 1.0, Q2 : 0.0, Q3 : 0.0, Q4 : 0.0}
2019-04-14 05:11:51.71: SIM {TimeUS : 42334726, Roll : 0.0, Pitch : 0.0, Yaw : 0.0, Alt : 30.1000003815, Lat : 49.28357, Lng : -123.11502, Q1 : 1.0, Q2 : 0.0, Q3 : 0.0, Q4 : 0.0}
2019-04-14 05:11:51.81: SIM {TimeUS : 42434686, Roll : 0.0, Pitch : 0.0, Yaw : 0.0, Alt : 30.1000003815, Lat : 49.28357, Lng : -123.11502, Q1 : 1.0, Q2 : 0.0, Q3 : 0.0, Q4 : 0.0}
2019-04-14 05:11:51.91: SIM {TimeUS : 42534646, Roll : 0.0, Pitch : 0.0, Yaw : 0.0, Alt : 30.1000003815, Lat : 49.28357, Lng : -123.11502, Q1 : 1.0, Q2 : 0.0, Q3 : 0.0, Q4 : 0.0}
2019-04-14 05:11:52.02: SIM {TimeUS : 42635439, Roll : 0.0, Pitch : 0.0, Yaw : 0.0, Alt : 30.1000003815, Lat : 49.28357, Lng : -123.11502, Q1 : 1.0, Q2 : 0.0, Q3 : 0.0, Q4 : 0.0}
2019-04-14 05:11:52.11: SIM {TimeUS : 42735399, Roll : 0.0, Pitch : 0.0, Yaw : 0.0, Alt : 30.1000003815, Lat : 49.28357, Lng : -123.11502, Q1 : 1.0, Q2 : 0.0, Q3 : 0.0, Q4 : 0.0}
2019-04-14 05:11:52.21: SIM {TimeUS : 42835359, Roll : 0.0, Pitch : 0.0, Yaw : 360.0, Alt : 30.1000003815, Lat : 49.28357, Lng : -123.11502, Q1 : 1.0, Q2 : 0.0, Q3 : 0.0, Q4 : -2.77582514266e-12}
2019-04-14 05:11:52.31: SIM {TimeUS : 42935319, Roll : 0.0, Pitch : 0.0, Yaw : 360.0, Alt : 30.1000003815, Lat : 49.28357, Lng : -123.11502, Q1 : 1.0, Q2 : 0.0, Q3 : 0.0, Q4 : -1.29439896301e-11}
2019-04-14 05:11:52.41: SIM {TimeUS : 43035279, Roll : 0.0, Pitch : 0.0, Yaw : 360.0, Alt : 30.1000003815, Lat : 49.28357, Lng : -123.11502, Q1 : 1.0, Q2 : 0.0, Q3 : 0.0, Q4 : -1.05486080315e-07}
2019-04-14 05:11:52.51: SIM {TimeUS : 43135239, Roll : 0.0, Pitch : 0.0, Yaw : 359.99, Alt : 30.1000003815, Lat : 49.28357, Lng : -123.11502, Q1 : 1.0, Q2 : 0.0, Q3 : 0.0, Q4 : -2.90839778927e-07}
2019-04-14 05:11:52.61: SIM {TimeUS : 43235199, Roll : 0.0, Pitch : 0.0, Yaw : 359.99, Alt : 30.1000003815, Lat : 49.28357, Lng : -123.11502, Q1 : 1.0, Q2 : 0.0, Q3 : 0.0, Q4 : -4.5179106678e-07}
2019-04-14 05:11:52.71: SIM {TimeUS : 43335159, Roll : 0.0, Pitch : 0.0, Yaw : 359.99, Alt : 30.1000003815, Lat : 49.28357, Lng : -123.11502, Q1 : 1.0, Q2 : 0.0, Q3 : 0.0, Q4 : -6.12165933944e-07}
2019-04-14 05:11:52.81: SIM {TimeUS : 43435119, Roll : 0.0, Pitch : 0.0, Yaw : 359.99, Alt : 30.1000003815, Lat : 49.28357, Lng : -123.11502, Q1 : 1.0, Q2 : 0.0, Q3 : 0.0, Q4 : -7.7733074022e-07}
2019-04-14 05:11:52.91: SIM {TimeUS : 43535079, Roll : 0.0, Pitch : 0.0, Yaw : 359.99, Alt : 30.1000003815, Lat : 49.28357, Lng : -123.11502, Q1 : 1.0, Q2 : 0.0, Q3 : 0.0, Q4 : -9.82872165878e-07}
2019-04-14 05:11:53.01: SIM {TimeUS : 43635039, Roll : 0.0, Pitch : 0.0, Yaw : 359.99, Alt : 30.1000003815, Lat : 49.28357, Lng : -123.11502, Q1 : 1.0, Q2 : 0.0, Q3 : 0.0, Q4 : -1.22541780456e-06}
2019-04-14 05:11:53.11: SIM {TimeUS : 43734999, Roll : 0.0, Pitch : 0.0, Yaw : 359.99, Alt : 30.1100006104, Lat : 49.28357, Lng : -123.11502, Q1 : 1.0, Q2 : 0.0, Q3 : 0.0, Q4 : -1.43736167502e-06}
2019-04-14 05:11:53.21: SIM {TimeUS : 43834959, Roll : 0.0, Pitch : 0.0, Yaw : 359.99, Alt : 30.1299991608, Lat : 49.28357, Lng : -123.11502, Q1 : 1.0, Q2 : 0.0, Q3 : 0.0, Q4 : -1.66174856986e-06}
2019-04-14 05:11:53.31: SIM {TimeUS : 43934919, Roll : 0.0, Pitch : 0.0, Yaw : 359.99, Alt : 30.1599998474, Lat : 49.28357, Lng : -123.11502, Q1 : 1.0, Q2 : 0.0, Q3 : 0.0, Q4 : -1.82883240996e-06}
2019-04-14 05:11:53.41: SIM {TimeUS : 44034879, Roll : 0.0, Pitch : 0.0, Yaw : 359.99, Alt : 30.1900005341, Lat : 49.28357, Lng : -123.11502, Q1 : 1.0, Q2 : 0.0, Q3 : 0.0, Q4 : -2.03761737794e-06}
2019-04-14 05:11:53.51: SIM {TimeUS : 44134839, Roll : -0.03, Pitch : -0.03, Yaw : 359.99, Alt : 30.2299995422, Lat : 49.28357, Lng : -123.11502, Q1 : 0.999999880791, Q2 : -0.000341069389833, Q3 : -0.00027015156229, Q4 : -5.00819260196e-06}
2019-04-14 05:11:53.61: SIM {TimeUS : 44234799, Roll : -0.3, Pitch : -0.26, Yaw : 359.99, Alt : 30.3099994659, Lat : 49.28357, Lng : -123.11502, Q1 : 0.999993860722, Q2 : -0.00266027823091, Q3 : -0.00227534631267, Q4 : -3.28931128024e-05}
2019-04-14 05:11:53.71: SIM {TimeUS : 44334759, Roll : -0.61, Pitch : -0.54, Yaw : 359.99, Alt : 30.4400005341, Lat : 49.28357, Lng : -123.11502, Q1 : 0.999974370003, Q2 : -0.00536992261186, Q3 : -0.00473341112956, Q4 : -9.05889100977e-05}
2019-04-14 05:11:53.81: SIM {TimeUS : 44434719, Roll : -0.79, Pitch : -0.74, Yaw : 359.98, Alt : 30.5900001526, Lat : 49.28357, Lng : -123.11502, Q1 : 0.999954879284, Q2 : -0.00693224743009, Q3 : -0.00649668974802, Q4 : -0.000170680417796}
2019-04-14 05:11:53.91: SIM {TimeUS : 44534679, Roll : -0.81, Pitch : -0.78, Yaw : 359.97, Alt : 30.75, Lat : 49.28357, Lng : -123.11502, Q1 : 0.999950647354, Q2 : -0.00715662911534, Q3 : -0.00688524916768, Q4 : -0.000254506536294}
2019-04-14 05:11:54.01: SIM {TimeUS : 44634639, Roll : -0.72, Pitch : -0.69, Yaw : 359.96, Alt : 30.9099998474, Lat : 49.28357, Lng : -123.1150201, Q1 : 0.999961733818, Q2 : -0.00632886495441, Q3 : -0.00602920306846, Q4 : -0.000338775134878}
2019-04-14 05:11:54.12: SIM {TimeUS : 44735432, Roll : -0.54, Pitch : -0.5, Yaw : 359.95, Alt : 31.0599994659, Lat : 49.2835701, Lng : -123.1150202, Q1 : 0.999978899956, Q2 : -0.00474689947441, Q3 : -0.00440664123744, Q4 : -0.000416980328737}
2019-04-14 05:11:54.21: SIM {TimeUS : 44835392, Roll : -0.32, Pitch : -0.29, Yaw : 359.94, Alt : 31.2199993134, Lat : 49.2835701, Lng : -123.1150202, Q1 : 0.99999243021, Q2 : -0.00286608911119, Q3 : -0.00257656350732, Q4 : -0.000483812997118}
2019-04-14 05:11:54.31: SIM {TimeUS : 44935352, Roll : -0.13, Pitch : -0.11, Yaw : 359.93, Alt : 31.3899993896, Lat : 49.2835701, Lng : -123.1150203, Q1 : 0.999998688698, Q2 : -0.00113856082316, Q3 : -0.00101287534926, Q4 : -0.000536137027666}
2019-04-14 05:11:54.41: SIM {TimeUS : 45035312, Roll : 0.01, Pitch : 0.0, Yaw : 359.93, Alt : 31.5599994659, Lat : 49.2835702, Lng : -123.1150204, Q1 : 0.999999821186, Q2 : 0.000113351576147, Q3 : -3.97794283344e-05, Q4 : -0.000566632836126}
2019-04-14 05:11:54.51: SIM {TimeUS : 45135272, Roll : 0.09, Pitch : 0.04, Yaw : 359.93, Alt : 31.7299995422, Lat : 49.2835702, Lng : -123.1150205, Q1 : 0.999999463558, Q2 : 0.000804071780294, Q3 : 0.000387831241824, Q4 : -0.000576393911615}
2019-04-14 05:11:54.61: SIM {TimeUS : 45235232, Roll : 0.11, Pitch : 0.06, Yaw : 359.93, Alt : 31.9200000763, Lat : 49.2835703, Lng : -123.1150205, Q1 : 0.99999922514, Q2 : 0.000978616531938, Q3 : 0.000545785936993, Q4 : -0.000570554519072}
2019-04-14 05:11:54.71: SIM {TimeUS : 45335192, Roll : 0.09, Pitch : 0.07, Yaw : 359.93, Alt : 32.0999984741, Lat : 49.2835703, Lng : -123.1150206, Q1 : 0.99999922514, Q2 : 0.000870300631505, Q3 : 0.00067174033029, Q4 : -0.000559384992812}
2019-04-14 05:11:54.81: SIM {TimeUS : 45435152, Roll : 0.07, Pitch : 0.09, Yaw : 359.93, Alt : 32.2900009155, Lat : 49.2835703, Lng : -123.1150206, Q1 : 0.999999344349, Q2 : 0.000648362620268, Q3 : 0.000802049122285, Q4 : -0.000538122199941}
2019-04-14 05:11:54.91: SIM {TimeUS : 45535112, Roll : 0.06, Pitch : 0.1, Yaw : 359.94, Alt : 32.4799995422, Lat : 49.2835703, Lng : -123.1150207, Q1 : 0.999999284744, Q2 : 0.000576073594857, Q3 : 0.00094040366821, Q4 : -0.00051728147082}
2019-04-14 05:11:55.01: SIM {TimeUS : 45635072, Roll : 0.08, Pitch : 0.12, Yaw : 359.94, Alt : 32.6800003052, Lat : 49.2835703, Lng : -123.1150207, Q1 : 0.999998927116, Q2 : 0.000749721599277, Q3 : 0.00112692895345, Q4 : -0.000500676746015}
2019-04-14 05:11:55.11: SIM {TimeUS : 45735032, Roll : 0.11, Pitch : 0.15, Yaw : 359.94, Alt : 32.8800010681, Lat : 49.2835703, Lng : -123.1150208, Q1 : 0.999998450279, Q2 : 0.00101399200503, Q3 : 0.00133110163733, Q4 : -0.000490794249345}
2019-04-14 05:11:55.21: SIM {TimeUS : 45834992, Roll : 0.13, Pitch : 0.17, Yaw : 359.94, Alt : 33.0800018311, Lat : 49.2835704, Lng : -123.1150208, Q1 : 0.999997973442, Q2 : 0.00120153196622, Q3 : 0.00155120983254, Q4 : -0.000480868999148}
2019-04-14 05:11:55.31: SIM {TimeUS : 45934952, Roll : 0.15, Pitch : 0.17, Yaw : 359.94, Alt : 33.2799987793, Lat : 49.2835704, Lng : -123.1150208, Q1 : 0.999997854233, Q2 : 0.0013291714713, Q3 : 0.00152590998914, Q4 : -0.000469701975817}
2019-04-14 05:11:55.41: SIM {TimeUS : 46034912, Roll : 0.15, Pitch : 0.14, Yaw : 359.94, Alt : 33.4799995422, Lat : 49.2835704, Lng : -123.1150208, Q1 : 0.999998152256, Q2 : 0.00136725080665, Q3 : 0.00124424952082, Q4 : -0.000472667743452}
2019-04-14 05:11:55.51: SIM {TimeUS : 46134872, Roll : 0.15, Pitch : 0.12, Yaw : 359.94, Alt : 33.6899986267, Lat : 49.2835704, Lng : -123.1150208, Q1 : 0.999998390675, Q2 : 0.00132442591712, Q3 : 0.00110570399556, Q4 : -0.000480821152451}
2019-04-14 05:11:55.61: SIM {TimeUS : 46234832, Roll : 0.14, Pitch : 0.12, Yaw : 359.94, Alt : 33.9000015259, Lat : 49.2835704, Lng : -123.1150208, Q1 : 0.999998450279, Q2 : 0.00130091514438, Q3 : 0.00107374193612, Q4 : -0.00048992614029}
2019-04-14 05:11:55.71: SIM {TimeUS : 46334792, Roll : 0.15, Pitch : 0.12, Yaw : 359.94, Alt : 34.1100006104, Lat : 49.2835704, Lng : -123.1150209, Q1 : 0.99999833107, Q2 : 0.00134030601475, Q3 : 0.00110176182352, Q4 : -0.000505031784996}
2019-04-14 05:11:55.81: SIM {TimeUS : 46434752, Roll : 0.14, Pitch : 0.11, Yaw : 359.94, Alt : 34.3199996948, Lat : 49.2835704, Lng : -123.1150208, Q1 : 0.999998629093, Q2 : 0.00127099978272, Q3 : 0.000969348766375, Q4 : -0.000522785703652}
2019-04-14 05:11:55.91: SIM {TimeUS : 46534712, Roll : 0.12, Pitch : 0.09, Yaw : 359.93, Alt : 34.5299987793, Lat : 49.2835704, Lng : -123.1150208, Q1 : 0.999998867512, Q2 : 0.00111282011494, Q3 : 0.000843149609864, Q4 : -0.000540408014785}
2019-04-14 05:11:56.01: SIM {TimeUS : 46634672, Roll : 0.09, Pitch : 0.08, Yaw : 359.93, Alt : 34.75, Lat : 49.2835704, Lng : -123.1150208, Q1 : 0.999999165535, Q2 : 0.000863275723532, Q3 : 0.000753793341573, Q4 : -0.000563535490073}
2019-04-14 05:11:56.11: SIM {TimeUS : 46734632, Roll : 0.06, Pitch : 0.07, Yaw : 359.93, Alt : 34.9599990845, Lat : 49.2835704, Lng : -123.1150208, Q1 : 0.999999463558, Q2 : 0.000560479180422, Q3 : 0.000666032894515, Q4 : -0.000586198933888}
2019-04-14 05:11:56.22: SIM {TimeUS : 46835425, Roll : 0.04, Pitch : 0.03, Yaw : 359.92, Alt : 35.1800003052, Lat : 49.2835704, Lng : -123.1150208, Q1 : 0.999999642372, Q2 : 0.000388506363379, Q3 : 0.000346127024386, Q4 : -0.000613088952377}
2019-04-14 05:11:56.31: SIM {TimeUS : 46935385, Roll : 0.03, Pitch : 0.0, Yaw : 359.92, Alt : 35.4000015259, Lat : 49.2835704, Lng : -123.1150208, Q1 : 0.999999761581, Q2 : 0.000294352794299, Q3 : 8.2818150986e-05, Q4 : -0.000642790168058}
2019-04-14 05:11:56.41: SIM {TimeUS : 47035345, Roll : 0.01, Pitch : 0.0, Yaw : 359.92, Alt : 35.6100006104, Lat : 49.2835704, Lng : -123.1150208, Q1 : 0.999999761581, Q2 : 0.000110283290269, Q3 : -1.6912139472e-05, Q4 : -0.000674850540236}
2019-04-14 05:11:56.51: SIM {TimeUS : 47135305, Roll : 0.0, Pitch : 0.0, Yaw : 359.91, Alt : 35.8300018311, Lat : 49.2835704, Lng : -123.1150208, Q1 : 0.999999761581, Q2 : 5.95617129875e-05, Q3 : -2.10293856071e-05, Q4 : -0.000699496536981}
2019-04-14 05:11:56.61: SIM {TimeUS : 47235265, Roll : 0.01, Pitch : 0.0, Yaw : 359.91, Alt : 36.0499992371, Lat : 49.2835704, Lng : -123.1150207, Q1 : 0.999999761581, Q2 : 0.00012303168478, Q3 : 3.03264255308e-06, Q4 : -0.000725617515855}
2019-04-14 05:11:56.71: SIM {TimeUS : 47335225, Roll : 0.0, Pitch : -0.02, Yaw : 359.91, Alt : 36.2700004578, Lat : 49.2835704, Lng : -123.1150207, Q1 : 0.999999701977, Q2 : 4.50957259091e-06, Q3 : -0.000179971131729, Q4 : -0.000753917731345}
2019-04-14 05:11:56.81: SIM {TimeUS : 47435185, Roll : -0.03, Pitch : -0.05, Yaw : 359.91, Alt : 36.5, Lat : 49.2835704, Lng : -123.1150207, Q1 : 0.999999523163, Q2 : -0.000289106770651, Q3 : -0.000496453372762, Q4 : -0.000781309441663}
2019-04-14 05:11:56.91: SIM {TimeUS : 47535145, Roll : -0.07, Pitch : -0.07, Yaw : 359.9, Alt : 36.7200012207, Lat : 49.2835704, Lng : -123.1150207, Q1 : 0.99999922514, Q2 : -0.000634858617559, Q3 : -0.000678027048707, Q4 : -0.000801518501248}
2019-04-14 05:11:57.01: SIM {TimeUS : 47635105, Roll : -0.1, Pitch : -0.09, Yaw : 359.9, Alt : 36.9399986267, Lat : 49.2835704, Lng : -123.1150207, Q1 : 0.999998867512, Q2 : -0.000946793938056, Q3 : -0.000810639583506, Q4 : -0.000822391128168}
2019-04-14 05:11:57.11: SIM {TimeUS : 47735065, Roll : -0.11, Pitch : -0.09, Yaw : 359.9, Alt : 37.1699981689, Lat : 49.2835704, Lng : -123.1150207, Q1 : 0.999998807907, Q2 : -0.000980732263997, Q3 : -0.000829019059893, Q4 : -0.000850306998473}
2019-04-14 05:11:57.21: SIM {TimeUS : 47835025, Roll : -0.1, Pitch : -0.08, Yaw : 359.89, Alt : 37.3899993896, Lat : 49.2835704, Lng : -123.1150207, Q1 : 0.999998986721, Q2 : -0.000879990460817, Q3 : -0.000740947260056, Q4 : -0.000876971927937}
2019-04-14 05:11:57.31: SIM {TimeUS : 47934985, Roll : -0.08, Pitch : -0.05, Yaw : 359.89, Alt : 37.6199989319, Lat : 49.2835704, Lng : -123.1150207, Q1 : 0.99999922514, Q2 : -0.000729389605112, Q3 : -0.000515592342708, Q4 : -0.000897549558431}
2019-04-14 05:11:57.41: SIM {TimeUS : 48034945, Roll : -0.06, Pitch : -0.03, Yaw : 359.89, Alt : 37.8400001526, Lat : 49.2835704, Lng : -123.1150207, Q1 : 0.999999344349, Q2 : -0.00057054834906, Q3 : -0.000331635324983, Q4 : -0.000915033509955}
2019-04-14 05:11:57.51: SIM {TimeUS : 48134905, Roll : -0.06, Pitch : -0.03, Yaw : 359.89, Alt : 38.0699996948, Lat : 49.2835704, Lng : -123.1150207, Q1 : 0.999999344349, Q2 : -0.000595680961851, Q3 : -0.000323138578096, Q4 : -0.000930091307964}
2019-04-14 05:11:57.61: SIM {TimeUS : 48234865, Roll : -0.07, Pitch : -0.02, Yaw : 359.89, Alt : 38.2999992371, Lat : 49.2835704, Lng : -123.1150207, Q1 : 0.999999344349, Q2 : -0.000653335649986, Q3 : -0.00021322016255, Q4 : -0.000944493513089}
2019-04-14 05:11:57.71: SIM {TimeUS : 48334825, Roll : -0.09, Pitch : 0.0, Yaw : 359.89, Alt : 38.5299987793, Lat : 49.2835704, Lng : -123.1150207, Q1 : 0.99999922514, Q2 : -0.000816348183434, Q3 : -5.18965534866e-05, Q4 : -0.000959486234933}
2019-04-14 05:11:57.81: SIM {TimeUS : 48434785, Roll : -0.09, Pitch : 0.01, Yaw : 359.88, Alt : 38.75, Lat : 49.2835704, Lng : -123.1150207, Q1 : 0.99999922514, Q2 : -0.000807830307167, Q3 : 9.59174794843e-05, Q4 : -0.000969793240074}
2019-04-14 05:11:57.91: SIM {TimeUS : 48534745, Roll : -0.06, Pitch : 0.03, Yaw : 359.88, Alt : 38.9799995422, Lat : 49.2835706, Lng : -123.1150207, Q1 : 0.999999284744, Q2 : -0.000588745984714, Q3 : 0.000320863327943, Q4 : -0.000984233338386}
2019-04-14 05:11:58.01: SIM {TimeUS : 48634705, Roll : -0.04, Pitch : 0.03, Yaw : 359.88, Alt : 39.2099990845, Lat : 49.2835706, Lng : -123.1150207, Q1 : 0.999999403954, Q2 : -0.000355359370587, Q3 : 0.000293180113658, Q4 : -0.00099375040736}
2019-04-14 05:11:58.11: SIM {TimeUS : 48734665, Roll : -0.01, Pitch : 0.02, Yaw : 359.88, Alt : 39.4399986267, Lat : 49.2835706, Lng : -123.1150207, Q1 : 0.999999463558, Q2 : -8.79419239936e-05, Q3 : 0.00022067737882, Q4 : -0.00100240169559}
2019-04-14 05:11:58.21: SIM {TimeUS : 48834625, Roll : 0.02, Pitch : 0.04, Yaw : 359.88, Alt : 39.6699981689, Lat : 49.2835706, Lng : -123.1150207, Q1 : 0.999999403954, Q2 : 0.000257463252638, Q3 : 0.000371339992853, Q4 : -0.00101123063359}
2019-04-14 05:11:58.32: SIM {TimeUS : 48935418, Roll : 0.07, Pitch : 0.07, Yaw : 359.88, Alt : 39.9099998474, Lat : 49.2835706, Lng : -123.1150207, Q1 : 0.999999046326, Q2 : 0.000635184114799, Q3 : 0.00067098531872, Q4 : -0.00102755241096}
2019-04-14 05:11:58.41: SIM {TimeUS : 49035378, Roll : 0.1, Pitch : 0.1, Yaw : 359.87, Alt : 40.1399993896, Lat : 49.2835706, Lng : -123.1150207, Q1 : 0.999998569489, Q2 : 0.000904308166355, Q3 : 0.000957215554081, Q4 : -0.00105108122807}
2019-04-14 05:11:58.51: SIM {TimeUS : 49135338, Roll : 0.09, Pitch : 0.14, Yaw : 359.87, Alt : 40.3699989319, Lat : 49.2835706, Lng : -123.1150207, Q1 : 0.99999833107, Q2 : 0.00084240490105, Q3 : 0.00124108977616, Q4 : -0.00106941326521}
2019-04-14 05:11:58.61: SIM {TimeUS : 49235298, Roll : 0.04, Pitch : 0.17, Yaw : 359.87, Alt : 40.5999984741, Lat : 49.2835706, Lng : -123.1150207, Q1 : 0.999998211861, Q2 : 0.000405438739108, Q3 : 0.00149739102926, Q4 : -0.00110126228537}
2019-04-14 05:11:58.71: SIM {TimeUS : 49335258, Roll : 0.0, Pitch : 0.18, Yaw : 359.87, Alt : 40.8300018311, Lat : 49.2835706, Lng : -123.1150207, Q1 : 0.999998033047, Q2 : -1.32286140797e-05, Q3 : 0.00163353746757, Q4 : -0.00112481822725}
2019-04-14 05:11:58.81: SIM {TimeUS : 49435218, Roll : -0.02, Pitch : 0.17, Yaw : 359.86, Alt : 41.0600013733, Lat : 49.2835706, Lng : -123.1150207, Q1 : 0.999998211861, Q2 : -0.000251559453318, Q3 : 0.00148911040742, Q4 : -0.00114582898095}
2019-04-14 05:11:58.91: SIM {TimeUS : 49535178, Roll : -0.03, Pitch : 0.14, Yaw : 359.86, Alt : 41.2999992371, Lat : 49.2835706, Lng : -123.1150207, Q1 : 0.999998509884, Q2 : -0.000312822172418, Q3 : 0.00123357865959, Q4 : -0.00117841479369}
2019-04-14 05:11:59.01: SIM {TimeUS : 49635138, Roll : -0.02, Pitch : 0.13, Yaw : 359.86, Alt : 41.5299987793, Lat : 49.2835706, Lng : -123.1150207, Q1 : 0.999998569489, Q2 : -0.000197124682018, Q3 : 0.00115831033327, Q4 : -0.00121737259906}
2019-04-14 05:11:59.11: SIM {TimeUS : 49735098, Roll : 0.01, Pitch : 0.14, Yaw : 359.85, Alt : 41.7599983215, Lat : 49.2835706, Lng : -123.1150207, Q1 : 0.999998450279, Q2 : 0.000145028941915, Q3 : 0.00123665062711, Q4 : -0.00126143731177}
2019-04-14 05:11:59.21: SIM {TimeUS : 49835058, Roll : 0.06, Pitch : 0.14, Yaw : 359.85, Alt : 42.0, Lat : 49.2835706, Lng : -123.1150207, Q1 : 0.999998152256, Q2 : 0.000573897559661, Q3 : 0.00126996228937, Q4 : -0.00130681309383}
2019-04-14 05:11:59.31: SIM {TimeUS : 49935018, Roll : 0.1, Pitch : 0.12, Yaw : 359.84, Alt : 42.2299995422, Lat : 49.2835706, Lng : -123.1150207, Q1 : 0.999998152256, Q2 : 0.000900321407244, Q3 : 0.00104881450534, Q4 : -0.00135124090593}
2019-04-14 05:11:59.41: SIM {TimeUS : 50034978, Roll : 0.1, Pitch : 0.08, Yaw : 359.84, Alt : 42.4700012207, Lat : 49.2835706, Lng : -123.1150207, Q1 : 0.99999833107, Q2 : 0.000936020107474, Q3 : 0.000730689673219, Q4 : -0.00139140291139}
2019-04-14 05:11:59.51: SIM {TimeUS : 50134938, Roll : 0.06, Pitch : 0.05, Yaw : 359.83, Alt : 42.7000007629, Lat : 49.2835706, Lng : -123.1150207, Q1 : 0.999998688698, Q2 : 0.000583913177252, Q3 : 0.000494055158924, Q4 : -0.00141518935561}
2019-04-14 05:11:59.61: SIM {TimeUS : 50234898, Roll : 0.0, Pitch : 0.04, Yaw : 359.83, Alt : 42.9399986267, Lat : 49.2835706, Lng : -123.1150207, Q1 : 0.999998867512, Q2 : 8.10004203231e-05, Q3 : 0.00043612223817, Q4 : -0.00142791599501}
2019-04-14 05:11:59.71: SIM {TimeUS : 50334858, Roll : -0.03, Pitch : 0.07, Yaw : 359.83, Alt : 43.1699981689, Lat : 49.2835704, Lng : -123.1150207, Q1 : 0.999998748302, Q2 : -0.000288036098937, Q3 : 0.000642058905214, Q4 : -0.00143035512883}
2019-04-14 05:11:59.81: SIM {TimeUS : 50434818, Roll : -0.05, Pitch : 0.08, Yaw : 359.83, Alt : 43.4099998474, Lat : 49.2835704, Lng : -123.1150207, Q1 : 0.999998569489, Q2 : -0.000478681729874, Q3 : 0.000770907150581, Q4 : -0.00142775126733}
2019-04-14 05:11:59.91: SIM {TimeUS : 50534778, Roll : -0.05, Pitch : 0.07, Yaw : 359.83, Alt : 43.6399993896, Lat : 49.2835704, Lng : -123.1150207, Q1 : 0.999998629093, Q2 : -0.000464824348455, Q3 : 0.000694029266015, Q4 : -0.00142386869993}
2019-04-14 05:12:00.01: SIM {TimeUS : 50634738, Roll : -0.05, Pitch : 0.06, Yaw : 359.83, Alt : 43.8800010681, Lat : 49.2835704, Lng : -123.1150207, Q1 : 0.999998748302, Q2 : -0.000502212322317, Q3 : 0.000534768681973, Q4 : -0.00142477254849}
2019-04-14 05:12:00.11: SIM {TimeUS : 50734698, Roll : -0.05, Pitch : 0.04, Yaw : 359.83, Alt : 44.1100006104, Lat : 49.2835704, Lng : -123.1150206, Q1 : 0.999998807907, Q2 : -0.00044918700587, Q3 : 0.000363192433724, Q4 : -0.00143065757584}
2019-04-14 05:12:00.21: SIM {TimeUS : 50834658, Roll : -0.03, Pitch : 0.03, Yaw : 359.83, Alt : 44.3499984741, Lat : 49.2835704, Lng : -123.1150206, Q1 : 0.999998867512, Q2 : -0.000298686150927, Q3 : 0.000286494381726, Q4 : -0.00144626270048}
2019-04-14 05:12:00.31: SIM {TimeUS : 50934618, Roll : -0.02, Pitch : 0.03, Yaw : 359.83, Alt : 44.5800018311, Lat : 49.2835704, Lng : -123.1150206, Q1 : 0.999998867512, Q2 : -0.000198002628167, Q3 : 0.000293801596854, Q4 : -0.00146768381819}
2019-04-14 05:12:00.41: SIM {TimeUS : 51035411, Roll : -0.02, Pitch : 0.01, Yaw : 359.82, Alt : 44.8199996948, Lat : 49.2835704, Lng : -123.1150206, Q1 : 0.999998867512, Q2 : -0.000208529672818, Q3 : 0.000120082018839, Q4 : -0.00150543323252}
2019-04-14 05:12:00.51: SIM {TimeUS : 51135371, Roll : -0.02, Pitch : -0.02, Yaw : 359.82, Alt : 45.0600013733, Lat : 49.2835704, Lng : -123.1150206, Q1 : 0.999998748302, Q2 : -0.000256518804235, Q3 : -0.000214927946217, Q4 : -0.00155590765644}
2019-04-14 05:12:00.61: SIM {TimeUS : 51235331, Roll : -0.03, Pitch : -0.04, Yaw : 359.81, Alt : 45.2999992371, Lat : 49.2835703, Lng : -123.1150206, Q1 : 0.999998569489, Q2 : -0.000283681205474, Q3 : -0.000430388376117, Q4 : -0.00160751957446}
2019-04-14 05:12:00.71: SIM {TimeUS : 51335291, Roll : -0.02, Pitch : -0.05, Yaw : 359.81, Alt : 45.5299987793, Lat : 49.2835703, Lng : -123.1150206, Q1 : 0.999998509884, Q2 : -0.000241847403231, Q3 : -0.000491198443342, Q4 : -0.00165647070389}
2019-04-14 05:12:00.81: SIM {TimeUS : 51435251, Roll : -0.03, Pitch : -0.05, Yaw : 359.8, Alt : 45.7599983215, Lat : 49.2835703, Lng : -123.1150206, Q1 : 0.999998390675, Q2 : -0.000303563050693, Q3 : -0.000436195812654, Q4 : -0.00169630779419}
2019-04-14 05:12:00.91: SIM {TimeUS : 51535211, Roll : -0.05, Pitch : -0.03, Yaw : 359.8, Alt : 46.0, Lat : 49.2835703, Lng : -123.1150206, Q1 : 0.99999833107, Q2 : -0.000492947408929, Q3 : -0.000280999316601, Q4 : -0.00172859441955}
2019-04-14 05:12:01.01: SIM {TimeUS : 51635171, Roll : -0.09, Pitch : -0.02, Yaw : 359.79, Alt : 46.2200012207, Lat : 49.2835703, Lng : -123.1150206, Q1 : 0.999998092651, Q2 : -0.000786724674981, Q3 : -0.000183378448128, Q4 : -0.00175840815064}
2019-04-14 05:12:01.11: SIM {TimeUS : 51735131, Roll : -0.11, Pitch : -0.01, Yaw : 359.79, Alt : 46.4500007629, Lat : 49.2835703, Lng : -123.1150206, Q1 : 0.999997913837, Q2 : -0.00100179412402, Q3 : -0.000163188713486, Q4 : -0.00178572721779}
2019-04-14 05:12:01.21: SIM {TimeUS : 51835091, Roll : -0.11, Pitch : -0.01, Yaw : 359.79, Alt : 46.6699981689, Lat : 49.2835703, Lng : -123.1150206, Q1 : 0.999997854233, Q2 : -0.00104361295234, Q3 : -0.000115954593639, Q4 : -0.00181040191092}
2019-04-14 05:12:01.31: SIM {TimeUS : 51935051, Roll : -0.1, Pitch : 0.0, Yaw : 359.79, Alt : 46.8800010681, Lat : 49.2835703, Lng : -123.1150206, Q1 : 0.999997913837, Q2 : -0.000920167018194, Q3 : 1.35299114845e-05, Q4 : -0.00183213572018}
2019-04-14 05:12:01.41: SIM {TimeUS : 52035011, Roll : -0.08, Pitch : 0.0, Yaw : 359.78, Alt : 47.0900001526, Lat : 49.2835703, Lng : -123.1150206, Q1 : 0.999998033047, Q2 : -0.000717606162652, Q3 : 5.57742168894e-05, Q4 : -0.00185146264266}
2019-04-14 05:12:01.51: SIM {TimeUS : 52134971, Roll : -0.06, Pitch : 0.0, Yaw : 359.78, Alt : 47.2900009155, Lat : 49.2835703, Lng : -123.1150206, Q1 : 0.999998092651, Q2 : -0.000535244587809, Q3 : -2.0731222321e-05, Q4 : -0.00187046069186}
2019-04-14 05:12:01.61: SIM {TimeUS : 52234931, Roll : -0.05, Pitch : -0.01, Yaw : 359.78, Alt : 47.4799995422, Lat : 49.2835703, Lng : -123.1150206, Q1 : 0.999998092651, Q2 : -0.000441789714387, Q3 : -0.000164146855241, Q4 : -0.00188860972412}
2019-04-14 05:12:01.71: SIM {TimeUS : 52334891, Roll : -0.03, Pitch : -0.04, Yaw : 359.78, Alt : 47.6699981689, Lat : 49.2835703, Lng : -123.1150206, Q1 : 0.999998033047, Q2 : -0.000340457219863, Q3 : -0.000403855898185, Q4 : -0.0019052263815}
2019-04-14 05:12:01.81: SIM {TimeUS : 52434851, Roll : -0.03, Pitch : -0.07, Yaw : 359.77, Alt : 47.8400001526, Lat : 49.2835703, Lng : -123.1150206, Q1 : 0.999997913837, Q2 : -0.000282983848592, Q3 : -0.000650201749522, Q4 : -0.00192060787231}
2019-04-14 05:12:01.91: SIM {TimeUS : 52534811, Roll : -0.02, Pitch : -0.1, Yaw : 359.77, Alt : 48.0, Lat : 49.2835703, Lng : -123.1150206, Q1 : 0.999997675419, Q2 : -0.000248372758506, Q3 : -0.00089387682965, Q4 : -0.00193410995416}
2019-04-14 05:12:02.01: SIM {TimeUS : 52634771, Roll : -0.03, Pitch : -0.12, Yaw : 359.77, Alt : 48.1500015259, Lat : 49.2835703, Lng : -123.1150206, Q1 : 0.999997496605, Q2 : -0.000272983917966, Q3 : -0.00108894787263, Q4 : -0.00195145409089}
2019-04-14 05:12:02.11: SIM {TimeUS : 52734731, Roll : 0.0, Pitch : -0.12, Yaw : 359.77, Alt : 48.2799987793, Lat : 49.2835703, Lng : -123.1150206, Q1 : 0.999997496605, Q2 : -5.29849639861e-05, Q3 : -0.00108070031274, Q4 : -0.0019742839504}
2019-04-14 05:12:02.21: SIM {TimeUS : 52834691, Roll : 0.02, Pitch : -0.1, Yaw : 359.77, Alt : 48.4099998474, Lat : 49.2835703, Lng : -123.1150206, Q1 : 0.99999755621, Q2 : 0.000224660499953, Q3 : -0.000932707742322, Q4 : -0.00200466276146}
2019-04-14 05:12:02.31: SIM {TimeUS : 52934651, Roll : 0.05, Pitch : -0.07, Yaw : 359.76, Alt : 48.5200004578, Lat : 49.2835703, Lng : -123.1150207, Q1 : 0.999997615814, Q2 : 0.00047043550876, Q3 : -0.000684834318236, Q4 : -0.00203536381014}
2019-04-14 05:12:02.42: SIM {TimeUS : 53035444, Roll : 0.06, Pitch : -0.04, Yaw : 359.76, Alt : 48.6199989319, Lat : 49.2835703, Lng : -123.1150207, Q1 : 0.999997615814, Q2 : 0.000584867841098, Q3 : -0.000428197556175, Q4 : -0.00206471513957}
2019-04-14 05:12:02.51: SIM {TimeUS : 53135404, Roll : 0.07, Pitch : -0.03, Yaw : 359.75, Alt : 48.7099990845, Lat : 49.2835703, Lng : -123.1150207, Q1 : 0.99999755621, Q2 : 0.000643642211799, Q3 : -0.000290032534394, Q4 : -0.00209556799382}
2019-04-14 05:12:02.61: SIM {TimeUS : 53235364, Roll : 0.06, Pitch : -0.03, Yaw : 359.75, Alt : 48.7799987793, Lat : 49.2835703, Lng : -123.1150207, Q1 : 0.999997496605, Q2 : 0.000588363851421, Q3 : -0.000311299809255, Q4 : -0.00212446204387}
2019-04-14 05:12:02.71: SIM {TimeUS : 53335324, Roll : 0.04, Pitch : -0.03, Yaw : 359.75, Alt : 48.8499984741, Lat : 49.2835703, Lng : -123.1150207, Q1 : 0.999997615814, Q2 : 0.000349584559444, Q3 : -0.00032132139313, Q4 : -0.00215026643127}
2019-04-14 05:12:02.81: SIM {TimeUS : 53435284, Roll : 0.01, Pitch : -0.02, Yaw : 359.75, Alt : 48.9099998474, Lat : 49.2835703, Lng : -123.1150207, Q1 : 0.999997615814, Q2 : 0.00015491375234, Q3 : -0.000256236031419, Q4 : -0.00217826804146}
2019-04-14 05:12:02.91: SIM {TimeUS : 53535244, Roll : 0.01, Pitch : -0.03, Yaw : 359.74, Alt : 48.9599990845, Lat : 49.2835704, Lng : -123.1150207, Q1 : 0.999997496605, Q2 : 9.24180349102e-05, Q3 : -0.000325925531797, Q4 : -0.00220833253115}
2019-04-14 05:12:03.01: SIM {TimeUS : 53635204, Roll : 0.08, Pitch : -0.13, Yaw : 359.74, Alt : 49.0, Lat : 49.2835704, Lng : -123.1150207, Q1 : 0.999996542931, Q2 : 0.000740473158658, Q3 : -0.00116795895156, Q4 : -0.00223622540943}
2019-04-14 05:12:03.11: SIM {TimeUS : 53735164, Roll : 0.32, Pitch : -0.42, Yaw : 359.73, Alt : 49.0299987793, Lat : 49.2835704, Lng : -123.1150207, Q1 : 0.999986588955, Q2 : 0.00283909076825, Q3 : -0.00370182376355, Q4 : -0.0022634214256}
2019-04-14 05:12:03.21: SIM {TimeUS : 53835124, Roll : 0.73, Pitch : -0.95, Yaw : 359.73, Alt : 49.0699996948, Lat : 49.2835704, Lng : -123.1150207, Q1 : 0.999942421913, Q2 : 0.00636510690674, Q3 : -0.00833914428949, Q4 : -0.00227877218276}
2019-04-14 05:12:03.31: SIM {TimeUS : 53935084, Roll : 1.25, Pitch : -1.69, Yaw : 359.72, Alt : 49.0900001526, Lat : 49.2835704, Lng : -123.1150207, Q1 : 0.999827086926, Q2 : 0.010948786512, Q3 : -0.0148599119857, Q4 : -0.00227632909082}
2019-04-14 05:12:03.41: SIM {TimeUS : 54035044, Roll : 1.84, Pitch : -2.56, Yaw : 359.7, Alt : 49.1100006104, Lat : 49.2835706, Lng : -123.1150206, Q1 : 0.999617278576, Q2 : 0.0159977469593, Q3 : -0.0224581845105, Q4 : -0.00223813881166}
2019-04-14 05:12:03.51: SIM {TimeUS : 54135004, Roll : 2.39, Pitch : -3.43, Yaw : 359.68, Alt : 49.1300010681, Lat : 49.2835707, Lng : -123.1150205, Q1 : 0.999329984188, Q2 : 0.020805561915, Q3 : -0.0300358403474, Q4 : -0.00214586523362}
2019-04-14 05:12:03.61: SIM {TimeUS : 54234964, Roll : 2.85, Pitch : -4.16, Yaw : 359.66, Alt : 49.1500015259, Lat : 49.2835708, Lng : -123.1150204, Q1 : 0.999027132988, Q2 : 0.0248338971287, Q3 : -0.0363893546164, Q4 : -0.00198132614605}
2019-04-14 05:12:03.71: SIM {TimeUS : 54334924, Roll : 3.21, Pitch : -4.69, Yaw : 359.66, Alt : 49.1699981689, Lat : 49.2835709, Lng : -123.1150202, Q1 : 0.998768806458, Q2 : 0.0278918519616, Q3 : -0.0409856289625, Q4 : -0.00175255420618}
2019-04-14 05:12:03.81: SIM {TimeUS : 54434884, Roll : 3.46, Pitch : -5.06, Yaw : 359.67, Alt : 49.1800003052, Lat : 49.2835712, Lng : -123.11502, Q1 : 0.998563826084, Q2 : 0.0301081780344, Q3 : -0.0442899391055, Q4 : -0.00148352934048}
2019-04-14 05:12:03.91: SIM {TimeUS : 54534844, Roll : 3.67, Pitch : -5.37, Yaw : 359.68, Alt : 49.1899986267, Lat : 49.2835715, Lng : -123.1150198, Q1 : 0.998389482498, Q2 : 0.0318798422813, Q3 : -0.0469110496342, Q4 : -0.00120340066496}
2019-04-14 05:12:04.01: SIM {TimeUS : 54634804, Roll : 3.86, Pitch : -5.64, Yaw : 359.7, Alt : 49.2000007629, Lat : 49.2835719, Lng : -123.1150194, Q1 : 0.998217761517, Q2 : 0.0335591696203, Q3 : -0.0493370443583, Q4 : -0.000926660432015}
2019-04-14 05:12:04.11: SIM {TimeUS : 54734764, Roll : 4.07, Pitch : -5.96, Yaw : 359.71, Alt : 49.2099990845, Lat : 49.2835722, Lng : -123.1150189, Q1 : 0.998017907143, Q2 : 0.0353576652706, Q3 : -0.0520546808839, Q4 : -0.00067456351826}
2019-04-14 05:12:04.21: SIM {TimeUS : 54834724, Roll : 4.29, Pitch : -6.29, Yaw : 359.71, Alt : 49.2200012207, Lat : 49.2835727, Lng : -123.1150184, Q1 : 0.997792482376, Q2 : 0.0373153164983, Q3 : -0.0549323558807, Q4 : -0.00043002187158}
2019-04-14 05:12:04.31: SIM {TimeUS : 54934684, Roll : 4.51, Pitch : -6.58, Yaw : 359.71, Alt : 49.2200012207, Lat : 49.2835733, Lng : -123.1150179, Q1 : 0.997579932213, Q2 : 0.0391719900072, Q3 : -0.0574437491596, Q4 : -0.00019032129785}
2019-04-14 05:12:04.41: SIM {TimeUS : 55034644, Roll : 4.66, Pitch : -6.78, Yaw : 359.72, Alt : 49.2299995422, Lat : 49.2835739, Lng : -123.1150172, Q1 : 0.997424006462, Q2 : 0.0404553636909, Q3 : -0.0592346563935, Q4 : 2.40268018388e-05}
2019-04-14 05:12:04.52: SIM {TimeUS : 55135437, Roll : 4.75, Pitch : -6.92, Yaw : 359.73, Alt : 49.2400016785, Lat : 49.2835745, Lng : -123.1150165, Q1 : 0.997317969799, Q2 : 0.0412300974131, Q3 : -0.0604725889862, Q4 : 0.000185457014595}
2019-04-14 05:12:04.61: SIM {TimeUS : 55235397, Roll : 4.79, Pitch : -7.03, Yaw : 359.73, Alt : 49.2400016785, Lat : 49.2835752, Lng : -123.1150157, Q1 : 0.997245848179, Q2 : 0.0415970571339, Q3 : -0.0614025816321, Q4 : 0.00028027719236}
2019-04-14 05:12:04.71: SIM {TimeUS : 55335357, Roll : 4.84, Pitch : -7.12, Yaw : 359.73, Alt : 49.2400016785, Lat : 49.2835761, Lng : -123.1150149, Q1 : 0.997180402279, Q2 : 0.042016196996, Q3 : -0.0621751956642, Q4 : 0.0003396118409}
2019-04-14 05:12:04.81: SIM {TimeUS : 55435317, Roll : 4.96, Pitch : -7.21, Yaw : 359.74, Alt : 49.25, Lat : 49.283577, Lng : -123.1150139, Q1 : 0.997089505196, Q2 : 0.0430489890277, Q3 : -0.0629212260246, Q4 : 0.000490229926072}
2019-04-14 05:12:04.91: SIM {TimeUS : 55535277, Roll : 5.33, Pitch : -7.25, Yaw : 359.98, Alt : 49.25, Lat : 49.2835779, Lng : -123.1150131, Q1 : 0.996918439865, Q2 : 0.0464192256331, Q3 : -0.0631728321314, Q4 : 0.00283493194729}
2019-04-14 05:12:05.01: SIM {TimeUS : 55635237, Roll : 5.96, Pitch : -7.27, Yaw : 1.08, Alt : 49.2599983215, Lat : 49.2835788, Lng : -123.1150121, Q1 : 0.996556699276, Q2 : 0.0525308474898, Q3 : -0.0628668069839, Q4 : 0.0127687426284}
2019-04-14 05:12:05.11: SIM {TimeUS : 55735197, Roll : 6.55, Pitch : -7.5, Yaw : 3.64, Alt : 49.2599983215, Lat : 49.2835798, Lng : -123.115011, Q1 : 0.995600640774, Q2 : 0.0591122843325, Q3 : -0.0634643211961, Q4 : 0.0354602858424}
2019-04-14 05:12:05.21: SIM {TimeUS : 55835157, Roll : 6.75, Pitch : -8.06, Yaw : 7.81, Alt : 49.2599983215, Lat : 49.2835808, Lng : -123.1150098, Q1 : 0.99319589138, Q2 : 0.0633955970407, Q3 : -0.0660029947758, Q4 : 0.0720176845789}
2019-04-14 05:12:05.31: SIM {TimeUS : 55935117, Roll : 6.3, Pitch : -8.92, Yaw : 13.44, Alt : 49.2599983215, Lat : 49.2835819, Lng : -123.1150084, Q1 : 0.988110661507, Q2 : 0.0635725706816, Q3 : -0.070737361908, Q4 : 0.120797842741}
2019-04-14 05:12:05.41: SIM {TimeUS : 56035077, Roll : 4.95, Pitch : -9.98, Yaw : 20.19, Alt : 49.2599983215, Lat : 49.2835831, Lng : -123.1150071, Q1 : 0.979200005531, Q2 : 0.0575960688293, Q3 : -0.0780108943582, Q4 : 0.178225710988}
2019-04-14 05:12:05.51: SIM {TimeUS : 56135037, Roll : 2.61, Pitch : -11.01, Yaw : 27.38, Alt : 49.2599983215, Lat : 49.2835843, Lng : -123.1150056, Q1 : 0.966319262981, Q2 : 0.044749673456, Q3 : -0.0878193303943, Q4 : 0.23772315681}
2019-04-14 05:12:05.61: SIM {TimeUS : 56234997, Roll : -0.28, Pitch : -11.79, Yaw : 34.22, Alt : 49.2700004578, Lat : 49.2835855, Lng : -123.115004, Q1 : 0.95073646307, Q2 : 0.0278447382152, Q3 : -0.0989282205701, Q4 : 0.292468905449}
2019-04-14 05:12:05.71: SIM {TimeUS : 56334957, Roll : -3.12, Pitch : -12.23, Yaw : 39.99, Alt : 49.2700004578, Lat : 49.2835867, Lng : -123.1150024, Q1 : 0.934992849827, Q2 : 0.0109131950885, Q3 : -0.109352171421, Q4 : 0.33721113205}
2019-04-14 05:12:05.81: SIM {TimeUS : 56434917, Roll : -5.31, Pitch : -12.38, Yaw : 44.19, Alt : 49.2700004578, Lat : 49.2835881, Lng : -123.1150008, Q1 : 0.92201167345, Q2 : -0.00217000860721, Q3 : -0.117215871811, Q4 : 0.368985444307}
2019-04-14 05:12:05.91: SIM {TimeUS : 56534877, Roll : -6.52, Pitch : -12.45, Yaw : 46.64, Alt : 49.2700004578, Lat : 49.2835897, Lng : -123.1149991, Q1 : 0.913826406002, Q2 : -0.00906858593225, Q3 : -0.121831230819, Q4 : 0.387293547392}
2019-04-14 05:12:06.01: SIM {TimeUS : 56634837, Roll : -6.75, Pitch : -12.57, Yaw : 47.46, Alt : 49.2700004578, Lat : 49.2835913, Lng : -123.1149975, Q1 : 0.910931646824, Q2 : -0.00959633756429, Q3 : -0.123633727431, Q4 : 0.393479585648}
2019-04-14 05:12:06.11: SIM {TimeUS : 56734797, Roll : -6.17, Pitch : -12.85, Yaw : 46.94, Alt : 49.2700004578, Lat : 49.2835929, Lng : -123.1149958, Q1 : 0.912580251694, Q2 : -0.0045930952765, Q3 : -0.123871222138, Q4 : 0.38965639472}
2019-04-14 05:12:06.21: SIM {TimeUS : 56834757, Roll : -5.04, Pitch : -13.33, Yaw : 45.38, Alt : 49.2700004578, Lat : 49.2835946, Lng : -123.1149942, Q1 : 0.917432248592, Q2 : 0.00443365424871, Q3 : -0.123898819089, Q4 : 0.378084033728}
2019-04-14 05:12:06.31: SIM {TimeUS : 56934717, Roll : -3.59, Pitch : -13.94, Yaw : 43.11, Alt : 49.2700004578, Lat : 49.2835965, Lng : -123.1149925, Q1 : 0.924117982388, Q2 : 0.0155895790085, Q3 : -0.124268271029, Q4 : 0.360999107361}
2019-04-14 05:12:06.41: SIM {TimeUS : 57034677, Roll : -2.02, Pitch : -14.54, Yaw : 40.43, Alt : 49.2700004578, Lat : 49.2835986, Lng : -123.1149907, Q1 : 0.931457161903, Q2 : 0.0273250117898, Q3 : -0.124847218394, Q4 : 0.340667158365}
2019-04-14 05:12:06.51: SIM {TimeUS : 57134637, Roll : -0.48, Pitch : -15.04, Yaw : 37.65, Alt : 49.2799987793, Lat : 49.2836006, Lng : -123.1149889, Q1 : 0.938511252403, Q2 : 0.0383083410561, Q3 : -0.125287726521, Q4 : 0.319424718618}
2019-04-14 05:12:06.62: SIM {TimeUS : 57235430, Roll : 0.88, Pitch : -15.37, Yaw : 35.06, Alt : 49.2799987793, Lat : 49.2836026, Lng : -123.1149869, Q1 : 0.944641411304, Q2 : 0.0475892201066, Q3 : -0.125254109502, Q4 : 0.299498438835}
2019-04-14 05:12:06.71: SIM {TimeUS : 57335390, Roll : 1.94, Pitch : -15.52, Yaw : 32.95, Alt : 49.2799987793, Lat : 49.2836048, Lng : -123.1149849, Q1 : 0.949357151985, Q2 : 0.054431784898, Q3 : -0.124700970948, Q4 : 0.283209860325}
2019-04-14 05:12:06.81: SIM {TimeUS : 57435350, Roll : 2.63, Pitch : -15.56, Yaw : 31.47, Alt : 49.2799987793, Lat : 49.2836069, Lng : -123.1149828, Q1 : 0.952565252781, Q2 : 0.058596264571, Q3 : -0.124114885926, Q4 : 0.271627396345}
2019-04-14 05:12:06.91: SIM {TimeUS : 57535310, Roll : 2.91, Pitch : -15.56, Yaw : 30.66, Alt : 49.2799987793, Lat : 49.2836092, Lng : -123.1149805, Q1 : 0.954297304153, Q2 : 0.0601333156228, Q3 : -0.123855449259, Q4 : 0.2652554214}
2019-04-14 05:12:07.01: SIM {TimeUS : 57635270, Roll : 2.83, Pitch : -15.57, Yaw : 30.51, Alt : 49.2799987793, Lat : 49.2836115, Lng : -123.1149782, Q1 : 0.954682230949, Q2 : 0.0593232996762, Q3 : -0.124195069075, Q4 : 0.263890385628}
2019-04-14 05:12:07.11: SIM {TimeUS : 57735230, Roll : 2.45, Pitch : -15.61, Yaw : 30.91, Alt : 49.2799987793, Lat : 49.2836138, Lng : -123.1149756, Q1 : 0.953891634941, Q2 : 0.0566926971078, Q3 : -0.125274330378, Q4 : 0.266801565886}
2019-04-14 05:12:07.21: SIM {TimeUS : 57835190, Roll : 1.87, Pitch : -15.71, Yaw : 31.72, Alt : 49.2799987793, Lat : 49.283616, Lng : -123.1149732, Q1 : 0.952144443989, Q2 : 0.0529596321285, Q3 : -0.127028658986, Q4 : 0.27291020751}
2019-04-14 05:12:07.31: SIM {TimeUS : 57935150, Roll : 1.18, Pitch : -15.85, Yaw : 32.79, Alt : 49.2799987793, Lat : 49.2836184, Lng : -123.1149706, Q1 : 0.949708640575, Q2 : 0.0487446896732, Q3 : -0.129382535815, Q4 : 0.280958354473}
2019-04-14 05:12:07.41: SIM {TimeUS : 58035110, Roll : 0.47, Pitch : -16.0, Yaw : 33.95, Alt : 49.2799987793, Lat : 49.2836208, Lng : -123.114968, Q1 : 0.946926176548, Q2 : 0.0445612445474, Q3 : -0.131962880492, Q4 : 0.289708346128}
2019-04-14 05:12:07.51: SIM {TimeUS : 58135070, Roll : -0.18, Pitch : -16.14, Yaw : 35.06, Alt : 49.2799987793, Lat : 49.2836233, Lng : -123.1149652, Q1 : 0.944154262543, Q2 : 0.0407537445426, Q3 : -0.134430155158, Q4 : 0.298061132431}
2019-04-14 05:12:07.61: SIM {TimeUS : 58235030, Roll : -0.72, Pitch : -16.23, Yaw : 36.01, Alt : 49.2799987793, Lat : 49.2836258, Lng : -123.1149625, Q1 : 0.941744029522, Q2 : 0.0376543439925, Q3 : -0.136233061552, Q4 : 0.305189937353}
2019-04-14 05:12:07.71: SIM {TimeUS : 58334990, Roll : -1.08, Pitch : -16.27, Yaw : 36.72, Alt : 49.2799987793, Lat : 49.2836284, Lng : -123.1149597, Q1 : 0.939913988113, Q2 : 0.0356766730547, Q3 : -0.137269854546, Q4 : 0.310557365417}
2019-04-14 05:12:07.81: SIM {TimeUS : 58434950, Roll : -1.27, Pitch : -16.29, Yaw : 37.15, Alt : 49.2799987793, Lat : 49.2836311, Lng : -123.1149569, Q1 : 0.938778758049, Q2 : 0.0346859171987, Q3 : -0.137799784541, Q4 : 0.31385114789}
2019-04-14 05:12:07.91: SIM {TimeUS : 58534910, Roll : -1.28, Pitch : -16.31, Yaw : 37.3, Alt : 49.2799987793, Lat : 49.2836336, Lng : -123.114954, Q1 : 0.938329517841, Q2 : 0.0348653905094, Q3 : -0.137973293662, Q4 : 0.31509616971}
2019-04-14 05:12:08.01: SIM {TimeUS : 58634870, Roll : -1.12, Pitch : -16.33, Yaw : 37.21, Alt : 49.2799987793, Lat : 49.2836364, Lng : -123.1149512, Q1 : 0.938510298729, Q2 : 0.0360941290855, Q3 : -0.137705400586, Q4 : 0.314535975456}
2019-04-14 05:12:08.11: SIM {TimeUS : 58734830, Roll : -0.87, Pitch : -16.35, Yaw : 36.93, Alt : 49.2799987793, Lat : 49.2836391, Lng : -123.1149483, Q1 : 0.939178049564, Q2 : 0.0378868468106, Q3 : -0.13727632165, Q4 : 0.31251308322}
2019-04-14 05:12:08.21: SIM {TimeUS : 58834790, Roll : -0.58, Pitch : -16.39, Yaw : 36.52, Alt : 49.2799987793, Lat : 49.2836419, Lng : -123.1149452, Q1 : 0.940142929554, Q2 : 0.0398910529912, Q3 : -0.137001812458, Q4 : 0.309468090534}
2019-04-14 05:12:08.31: SIM {TimeUS : 58934750, Roll : -0.28, Pitch : -16.46, Yaw : 36.05, Alt : 49.2799987793, Lat : 49.2836448, Lng : -123.1149424, Q1 : 0.941230773926, Q2 : 0.0419245883822, Q3 : -0.136913195252, Q4 : 0.305911332369}
2019-04-14 05:12:08.41: SIM {TimeUS : 59034710, Roll : -0.01, Pitch : -16.54, Yaw : 35.57, Alt : 49.2799987793, Lat : 49.2836475, Lng : -123.1149393, Q1 : 0.942284882069, Q2 : 0.0438418202102, Q3 : -0.137044265866, Q4 : 0.302317738533}
2019-04-14 05:12:08.51: SIM {TimeUS : 59134670, Roll : 0.2, Pitch : -16.61, Yaw : 35.15, Alt : 49.2799987793, Lat : 49.2836505, Lng : -123.1149363, Q1 : 0.943225979805, Q2 : 0.0453502461314, Q3 : -0.137191712856, Q4 : 0.299076080322}
2019-04-14 05:12:08.61: SIM {TimeUS : 59234630, Roll : 0.37, Pitch : -16.66, Yaw : 34.81, Alt : 49.2900009155, Lat : 49.2836533, Lng : -123.1149332, Q1 : 0.943973183632, Q2 : 0.0464837402105, Q3 : -0.137284845114, Q4 : 0.296490699053}
2019-04-14 05:12:08.72: SIM {TimeUS : 59335423, Roll : 0.48, Pitch : -16.69, Yaw : 34.58, Alt : 49.2900009155, Lat : 49.2836562, Lng : -123.1149301, Q1 : 0.944483399391, Q2 : 0.0471892468631, Q3 : -0.137394115329, Q4 : 0.294698506594}
2019-04-14 05:12:08.81: SIM {TimeUS : 59435383, Roll : 0.53, Pitch : -16.72, Yaw : 34.46, Alt : 49.2900009155, Lat : 49.2836591, Lng : -123.1149269, Q1 : 0.944732010365, Q2 : 0.0474771894515, Q3 : -0.13755351305, Q4 : 0.293779611588}
2019-04-14 05:12:08.91: SIM {TimeUS : 59535343, Roll : 0.52, Pitch : -16.74, Yaw : 34.45, Alt : 49.2900009155, Lat : 49.2836621, Lng : -123.1149238, Q1 : 0.944738030434, Q2 : 0.0474958717823, Q3 : -0.137759312987, Q4 : 0.293660700321}
2019-04-14 05:12:09.01: SIM {TimeUS : 59635303, Roll : 0.46, Pitch : -16.77, Yaw : 34.52, Alt : 49.2900009155, Lat : 49.2836651, Lng : -123.1149205, Q1 : 0.94454407692, Q2 : 0.047151748091, Q3 : -0.138124808669, Q4 : 0.294167906046}
2019-04-14 05:12:09.11: SIM {TimeUS : 59735263, Roll : 0.36, Pitch : -16.8, Yaw : 34.66, Alt : 49.2900009155, Lat : 49.2836681, Lng : -123.1149172, Q1 : 0.944210708141, Q2 : 0.0465773828328, Q3 : -0.138553500175, Q4 : 0.295126378536}
2019-04-14 05:12:09.21: SIM {TimeUS : 59835223, Roll : 0.24, Pitch : -16.83, Yaw : 34.82, Alt : 49.2900009155, Lat : 49.2836711, Lng : -123.114914, Q1 : 0.943792879581, Q2 : 0.0458517856896, Q3 : -0.139041736722, Q4 : 0.29634436965}
2019-04-14 05:12:09.31: SIM {TimeUS : 59935183, Roll : 0.12, Pitch : -16.87, Yaw : 35.0, Alt : 49.2900009155, Lat : 49.2836742, Lng : -123.1149107, Q1 : 0.943336308002, Q2 : 0.0451447218657, Q3 : -0.139635443687, Q4 : 0.297624737024}
2019-04-14 05:12:09.41: SIM {TimeUS : 60035143, Roll : 0.0, Pitch : -16.92, Yaw : 35.16, Alt : 49.2900009155, Lat : 49.2836772, Lng : -123.1149074, Q1 : 0.942903339863, Q2 : 0.0444972701371, Q3 : -0.140261337161, Q4 : 0.298797816038}
2019-04-14 05:12:09.51: SIM {TimeUS : 60135103, Roll : -0.1, Pitch : -16.96, Yaw : 35.29, Alt : 49.2900009155, Lat : 49.2836803, Lng : -123.1149041, Q1 : 0.942549228668, Q2 : 0.0438477545977, Q3 : -0.140842691064, Q4 : 0.299736142159}
2019-04-14 05:12:09.61: SIM {TimeUS : 60235063, Roll : -0.19, Pitch : -17.0, Yaw : 35.38, Alt : 49.2900009155, Lat : 49.2836834, Lng : -123.1149007, Q1 : 0.942295014858, Q2 : 0.0433434545994, Q3 : -0.141351670027, Q4 : 0.300368517637}
2019-04-14 05:12:09.71: SIM {TimeUS : 60335023, Roll : -0.25, Pitch : -17.04, Yaw : 35.43, Alt : 49.2900009155, Lat : 49.2836864, Lng : -123.1148974, Q1 : 0.942153453827, Q2 : 0.0430104061961, Q3 : -0.141797438264, Q4 : 0.300650179386}
2019-04-14 05:12:09.81: SIM {TimeUS : 60434983, Roll : -0.25, Pitch : -17.07, Yaw : 35.43, Alt : 49.2999992371, Lat : 49.2836895, Lng : -123.114894, Q1 : 0.942110419273, Q2 : 0.0430922396481, Q3 : -0.142101481557, Q4 : 0.300629705191}
2019-04-14 05:12:09.91: SIM {TimeUS : 60534943, Roll : -0.2, Pitch : -17.1, Yaw : 35.39, Alt : 49.2999992371, Lat : 49.2836928, Lng : -123.1148906, Q1 : 0.942166805267, Q2 : 0.043497312814, Q3 : -0.142225980759, Q4 : 0.300335556269}
2019-04-14 05:12:10.01: SIM {TimeUS : 60634903, Roll : -0.13, Pitch : -17.13, Yaw : 35.32, Alt : 49.2999992371, Lat : 49.2836959, Lng : -123.1148872, Q1 : 0.942287564278, Q2 : 0.0441080741584, Q3 : -0.142319634557, Q4 : 0.299822807312}
2019-04-14 05:12:10.11: SIM {TimeUS : 60734863, Roll : -0.04, Pitch : -17.17, Yaw : 35.22, Alt : 49.2999992371, Lat : 49.2836991, Lng : -123.1148837, Q1 : 0.942443430424, Q2 : 0.0447839535773, Q3 : -0.142466977239, Q4 : 0.299162119627}
2019-04-14 05:12:10.21: SIM {TimeUS : 60834823, Roll : 0.02, Pitch : -17.21, Yaw : 35.13, Alt : 49.2999992371, Lat : 49.2837022, Lng : -123.1148803, Q1 : 0.942626833916, Q2 : 0.0453543700278, Q3 : -0.142609283328, Q4 : 0.298429578543}
2019-04-14 05:12:10.31: SIM {TimeUS : 60934783, Roll : 0.07, Pitch : -17.23, Yaw : 35.03, Alt : 49.2999992371, Lat : 49.2837054, Lng : -123.1148768, Q1 : 0.942827045918, Q2 : 0.0456893593073, Q3 : -0.142743259668, Q4 : 0.297681033611}
2019-04-14 05:12:10.41: SIM {TimeUS : 61034743, Roll : 0.09, Pitch : -17.25, Yaw : 34.94, Alt : 49.2999992371, Lat : 49.2837087, Lng : -123.1148733, Q1 : 0.943026959896, Q2 : 0.0458251126111, Q3 : -0.142826721072, Q4 : 0.29698613286}
2019-04-14 05:12:10.51: SIM {TimeUS : 61134703, Roll : 0.13, Pitch : -17.25, Yaw : 34.87, Alt : 49.2999992371, Lat : 49.2837119, Lng : -123.1148698, Q1 : 0.943194687366, Q2 : 0.0460391417146, Q3 : -0.142782375216, Q4 : 0.296441197395}
2019-04-14 05:12:10.61: SIM {TimeUS : 61234663, Roll : 0.16, Pitch : -17.26, Yaw : 34.82, Alt : 49.3100013733, Lat : 49.2837151, Lng : -123.1148663, Q1 : 0.943300962448, Q2 : 0.0462949238718, Q3 : -0.142814144492, Q4 : 0.296047568321}
2019-04-14 05:12:10.71: SIM {TimeUS : 61334623, Roll : 0.2, Pitch : -17.3, Yaw : 34.79, Alt : 49.3100013733, Lat : 49.2837184, Lng : -123.1148628, Q1 : 0.943319618702, Q2 : 0.0466725341976, Q3 : -0.143046945333, Q4 : 0.29581657052}
2019-04-14 05:12:10.82: SIM {TimeUS : 61435416, Roll : 0.22, Pitch : -17.36, Yaw : 34.77, Alt : 49.3100013733, Lat : 49.2837217, Lng : -123.1148593, Q1 : 0.943270742893, Q2 : 0.0469933636487, Q3 : -0.14347833395, Q4 : 0.295712590218}
2019-04-14 05:12:10.91: SIM {TimeUS : 61535376, Roll : 0.22, Pitch : -17.39, Yaw : 34.77, Alt : 49.3100013733, Lat : 49.2837249, Lng : -123.1148557, Q1 : 0.943229138851, Q2 : 0.0470400713384, Q3 : -0.143724277616, Q4 : 0.295718431473}
2019-04-14 05:12:11.01: SIM {TimeUS : 61635336, Roll : 0.2, Pitch : -17.38, Yaw : 34.79, Alt : 49.3100013733, Lat : 49.2837283, Lng : -123.1148522, Q1 : 0.943217098713, Q2 : 0.0468652434647, Q3 : -0.143706172705, Q4 : 0.295793384314}
2019-04-14 05:12:11.11: SIM {TimeUS : 61735296, Roll : 0.17, Pitch : -17.38, Yaw : 34.81, Alt : 49.3100013733, Lat : 49.2837315, Lng : -123.1148485, Q1 : 0.943185865879, Q2 : 0.046634465456, Q3 : -0.143731281161, Q4 : 0.295917183161}
2019-04-14 05:12:11.21: SIM {TimeUS : 61835256, Roll : 0.13, Pitch : -17.39, Yaw : 34.83, Alt : 49.3100013733, Lat : 49.2837349, Lng : -123.114845, Q1 : 0.943127155304, Q2 : 0.0464059747756, Q3 : -0.143952831626, Q4 : 0.296032488346}
2019-04-14 05:12:11.31: SIM {TimeUS : 61935216, Roll : 0.11, Pitch : -17.42, Yaw : 34.84, Alt : 49.3100013733, Lat : 49.2837381, Lng : -123.1148414, Q1 : 0.943064928055, Q2 : 0.0463093519211, Q3 : -0.144211098552, Q4 : 0.296120136976}
2019-04-14 05:12:11.41: SIM {TimeUS : 62035176, Roll : 0.09, Pitch : -17.45, Yaw : 34.85, Alt : 49.3100013733, Lat : 49.2837415, Lng : -123.1148378, Q1 : 0.943006038666, Q2 : 0.0462660305202, Q3 : -0.144543781877, Q4 : 0.29615226388}
2019-04-14 05:12:11.51: SIM {TimeUS : 62135136, Roll : 0.09, Pitch : -17.48, Yaw : 34.85, Alt : 49.3100013733, Lat : 49.2837448, Lng : -123.1148342, Q1 : 0.942970335484, Q2 : 0.046274933964, Q3 : -0.144817456603, Q4 : 0.296130955219}
2019-04-14 05:12:11.61: SIM {TimeUS : 62235096, Roll : 0.09, Pitch : -17.51, Yaw : 34.84, Alt : 49.3100013733, Lat : 49.2837482, Lng : -123.1148306, Q1 : 0.942947924137, Q2 : 0.046393789351, Q3 : -0.14502042532, Q4 : 0.296084284782}
2019-04-14 05:12:11.71: SIM {TimeUS : 62335056, Roll : 0.11, Pitch : -17.52, Yaw : 34.83, Alt : 49.3100013733, Lat : 49.2837515, Lng : -123.114827, Q1 : 0.942957222462, Q2 : 0.046525310725, Q3 : -0.145079657435, Q4 : 0.296005100012}
2019-04-14 05:12:11.81: SIM {TimeUS : 62435016, Roll : 0.13, Pitch : -17.53, Yaw : 34.82, Alt : 49.3199996948, Lat : 49.2837549, Lng : -123.1148234, Q1 : 0.942977011204, Q2 : 0.0467004440725, Q3 : -0.145139425993, Q4 : 0.295885145664}
2019-04-14 05:12:11.91: SIM {TimeUS : 62534976, Roll : 0.15, Pitch : -17.56, Yaw : 34.79, Alt : 49.3199996948, Lat : 49.2837582, Lng : -123.1148197, Q1 : 0.942991912365, Q2 : 0.0469480678439, Q3 : -0.145283713937, Q4 : 0.295727550983}
2019-04-14 05:12:12.01: SIM {TimeUS : 62634936, Roll : 0.16, Pitch : -17.6, Yaw : 34.77, Alt : 49.3199996948, Lat : 49.2837616, Lng : -123.1148161, Q1 : 0.943005681038, Q2 : 0.0470935031772, Q3 : -0.145594343543, Q4 : 0.295507669449}
2019-04-14 05:12:12.11: SIM {TimeUS : 62734896, Roll : 0.16, Pitch : -17.64, Yaw : 34.74, Alt : 49.3199996948, Lat : 49.2837649, Lng : -123.1148124, Q1 : 0.943024098873, Q2 : 0.0471186228096, Q3 : -0.145976498723, Q4 : 0.295256227255}
2019-04-14 05:12:12.21: SIM {TimeUS : 62834856, Roll : 0.14, Pitch : -17.68, Yaw : 34.71, Alt : 49.3199996948, Lat : 49.2837684, Lng : -123.1148087, Q1 : 0.943045675755, Q2 : 0.0470955334604, Q3 : -0.146371558309, Q4 : 0.294995397329}
2019-04-14 05:12:12.31: SIM {TimeUS : 62934816, Roll : 0.15, Pitch : -17.71, Yaw : 34.69, Alt : 49.3199996948, Lat : 49.2837717, Lng : -123.1148051, Q1 : 0.943074762821, Q2 : 0.0471961610019, Q3 : -0.146581962705, Q4 : 0.29478174448}
2019-04-14 05:12:12.41: SIM {TimeUS : 63034776, Roll : 0.16, Pitch : -17.71, Yaw : 34.66, Alt : 49.3199996948, Lat : 49.2837752, Lng : -123.1148014, Q1 : 0.943128764629, Q2 : 0.0472563877702, Q3 : -0.146575808525, Q4 : 0.29460221529}
2019-04-14 05:12:12.51: SIM {TimeUS : 63134736, Roll : 0.18, Pitch : -17.69, Yaw : 34.64, Alt : 49.3199996948, Lat : 49.2837786, Lng : -123.1147977, Q1 : 0.943200647831, Q2 : 0.0472943633795, Q3 : -0.146386280656, Q4 : 0.294460147619}
2019-04-14 05:12:12.61: SIM {TimeUS : 63234696, Roll : 0.18, Pitch : -17.68, Yaw : 34.63, Alt : 49.3199996948, Lat : 49.2837819, Lng : -123.114794, Q1 : 0.943259179592, Q2 : 0.0472536534071, Q3 : -0.146273553371, Q4 : 0.294335395098}
2019-04-14 05:12:12.71: SIM {TimeUS : 63334656, Roll : 0.18, Pitch : -17.67, Yaw : 34.61, Alt : 49.3199996948, Lat : 49.2837855, Lng : -123.1147903, Q1 : 0.943303883076, Q2 : 0.0472351051867, Q3 : -0.14621207118, Q4 : 0.29422545433}
2019-04-14 05:12:12.81: SIM {TimeUS : 63434616, Roll : 0.18, Pitch : -17.67, Yaw : 34.6, Alt : 49.3199996948, Lat : 49.2837889, Lng : -123.1147865, Q1 : 0.943337976933, Q2 : 0.0472127012908, Q3 : -0.146168798208, Q4 : 0.294141471386}
2019-04-14 05:12:12.91: SIM {TimeUS : 63535409, Roll : 0.17, Pitch : -17.68, Yaw : 34.59, Alt : 49.3199996948, Lat : 49.2837923, Lng : -123.1147828, Q1 : 0.94334590435, Q2 : 0.0471653044224, Q3 : -0.14630267024, Q4 : 0.294056862593}
2019-04-14 05:12:13.01: SIM {TimeUS : 63635369, Roll : 0.16, Pitch : -17.7, Yaw : 34.59, Alt : 49.3199996948, Lat : 49.2837958, Lng : -123.1147791, Q1 : 0.943341195583, Q2 : 0.0471440255642, Q3 : -0.146505787969, Q4 : 0.293974429369}
2019-04-14 05:12:13.11: SIM {TimeUS : 63735329, Roll : 0.15, Pitch : -17.74, Yaw : 34.58, Alt : 49.3199996948, Lat : 49.2837992, Lng : -123.1147754, Q1 : 0.943309009075, Q2 : 0.0471287891269, Q3 : -0.146904170513, Q4 : 0.293881207705}
2019-04-14 05:12:13.21: SIM {TimeUS : 63835289, Roll : 0.14, Pitch : -17.8, Yaw : 34.57, Alt : 49.3300018311, Lat : 49.2838026, Lng : -123.1147716, Q1 : 0.943262934685, Q2 : 0.0471919178963, Q3 : -0.147357150912, Q4 : 0.293792247772}
2019-04-14 05:12:13.31: SIM {TimeUS : 63935249, Roll : 0.14, Pitch : -17.83, Yaw : 34.56, Alt : 49.3300018311, Lat : 49.2838062, Lng : -123.1147679, Q1 : 0.943238973618, Q2 : 0.0472803749144, Q3 : -0.147623986006, Q4 : 0.29372087121}
2019-04-14 05:12:13.41: SIM {TimeUS : 64035209, Roll : 0.14, Pitch : -17.86, Yaw : 34.56, Alt : 49.3300018311, Lat : 49.2838096, Lng : -123.114764, Q1 : 0.94322425127, Q2 : 0.0473248437047, Q3 : -0.147868946195, Q4 : 0.293637782335}
2019-04-14 05:12:13.51: SIM {TimeUS : 64135169, Roll : 0.14, Pitch : -17.87, Yaw : 34.55, Alt : 49.3300018311, Lat : 49.283813, Lng : -123.1147604, Q1 : 0.943226516247, Q2 : 0.0473351217806, Q3 : -0.148020073771, Q4 : 0.293552726507}
2019-04-14 05:12:13.61: SIM {TimeUS : 64235129, Roll : 0.15, Pitch : -17.87, Yaw : 34.54, Alt : 49.3300018311, Lat : 49.2838165, Lng : -123.1147566, Q1 : 0.943258881569, Q2 : 0.0474271774292, Q3 : -0.147905111313, Q4 : 0.293491661549}
2019-04-14 05:12:13.71: SIM {TimeUS : 64335089, Roll : 0.18, Pitch : -17.87, Yaw : 34.52, Alt : 49.3300018311, Lat : 49.28382, Lng : -123.1147529, Q1 : 0.943268477917, Q2 : 0.0476415157318, Q3 : -0.147914335132, Q4 : 0.293421685696}
2019-04-14 05:12:13.81: SIM {TimeUS : 64435049, Roll : 0.19, Pitch : -17.9, Yaw : 34.51, Alt : 49.3300018311, Lat : 49.2838234, Lng : -123.1147491, Q1 : 0.943266808987, Q2 : 0.0477881170809, Q3 : -0.14806483686, Q4 : 0.293327152729}
2019-04-14 05:12:13.91: SIM {TimeUS : 64535009, Roll : 0.2, Pitch : -17.91, Yaw : 34.5, Alt : 49.3300018311, Lat : 49.2838269, Lng : -123.1147453, Q1 : 0.943274080753, Q2 : 0.0478925667703, Q3 : -0.148171976209, Q4 : 0.293232768774}
2019-04-14 05:12:14.01: SIM {TimeUS : 64634969, Roll : 0.21, Pitch : -17.91, Yaw : 34.49, Alt : 49.3300018311, Lat : 49.2838305, Lng : -123.1147415, Q1 : 0.943314611912, Q2 : 0.0479066744447, Q3 : -0.148121133447, Q4 : 0.293125540018}
2019-04-14 05:12:14.11: SIM {TimeUS : 64734929, Roll : 0.2, Pitch : -17.9, Yaw : 34.47, Alt : 49.3300018311, Lat : 49.283834, Lng : -123.1147378, Q1 : 0.943360209465, Q2 : 0.0478425621986, Q3 : -0.148104205728, Q4 : 0.292997956276}
2019-04-14 05:12:14.21: SIM {TimeUS : 64834889, Roll : 0.18, Pitch : -17.92, Yaw : 34.46, Alt : 49.3300018311, Lat : 49.2838375, Lng : -123.114734, Q1 : 0.943388998508, Q2 : 0.047664552927, Q3 : -0.14830185473, Q4 : 0.29283413291}
2019-04-14 05:12:14.31: SIM {TimeUS : 64934849, Roll : 0.15, Pitch : -17.95, Yaw : 34.44, Alt : 49.3300018311, Lat : 49.2838409, Lng : -123.1147302, Q1 : 0.943394005299, Q2 : 0.0474720224738, Q3 : -0.148686423898, Q4 : 0.292654335499}
2019-04-14 05:12:14.41: SIM {TimeUS : 65034809, Roll : 0.14, Pitch : -17.96, Yaw : 34.43, Alt : 49.3300018311, Lat : 49.2838445, Lng : -123.1147264, Q1 : 0.943424701691, Q2 : 0.047389741987, Q3 : -0.148784160614, Q4 : 0.292518973351}
2019-04-14 05:12:14.51: SIM {TimeUS : 65134769, Roll : 0.15, Pitch : -17.95, Yaw : 34.41, Alt : 49.3300018311, Lat : 49.2838481, Lng : -123.1147226, Q1 : 0.94346344471, Q2 : 0.047451376915, Q3 : -0.148703128099, Q4 : 0.292425274849}
2019-04-14 05:12:14.61: SIM {TimeUS : 65234729, Roll : 0.17, Pitch : -17.95, Yaw : 34.4, Alt : 49.3300018311, Lat : 49.2838516, Lng : -123.1147188, Q1 : 0.943498909473, Q2 : 0.0475827790797, Q3 : -0.148592233658, Q4 : 0.292345643044}
2019-04-14 05:12:14.71: SIM {TimeUS : 65334689, Roll : 0.18, Pitch : -17.95, Yaw : 34.39, Alt : 49.3300018311, Lat : 49.283855, Lng : -123.114715, Q1 : 0.943517029285, Q2 : 0.0476895421743, Q3 : -0.148621708155, Q4 : 0.292254835367}
2019-04-14 05:12:14.81: SIM {TimeUS : 65434649, Roll : 0.18, Pitch : -17.97, Yaw : 34.37, Alt : 49.3400001526, Lat : 49.2838586, Lng : -123.1147111, Q1 : 0.94352221489, Q2 : 0.0476696304977, Q3 : -0.148817956448, Q4 : 0.292141467333}
2019-04-14 05:12:14.92: SIM {TimeUS : 65535442, Roll : 0.15, Pitch : -18.0, Yaw : 34.36, Alt : 49.3400001526, Lat : 49.2838621, Lng : -123.1147074, Q1 : 0.943529069424, Q2 : 0.0475068874657, Q3 : -0.149078309536, Q4 : 0.292013168335}
2019-04-14 05:12:15.01: SIM {TimeUS : 65635402, Roll : 0.14, Pitch : -18.01, Yaw : 34.35, Alt : 49.3400001526, Lat : 49.2838658, Lng : -123.1147036, Q1 : 0.943542182446, Q2 : 0.0474059022963, Q3 : -0.149241045117, Q4 : 0.291903913021}
2019-04-14 05:12:15.11: SIM {TimeUS : 65735362, Roll : 0.14, Pitch : -18.02, Yaw : 34.34, Alt : 49.3400001526, Lat : 49.2838693, Lng : -123.1146997, Q1 : 0.943553626537, Q2 : 0.0474603511393, Q3 : -0.149332344532, Q4 : 0.291811496019}
2019-04-14 05:12:15.21: SIM {TimeUS : 65835322, Roll : 0.15, Pitch : -18.04, Yaw : 34.33, Alt : 49.3400001526, Lat : 49.2838728, Lng : -123.1146959, Q1 : 0.943560540676, Q2 : 0.0475733615458, Q3 : -0.149401709437, Q4 : 0.291735112667}
2019-04-14 05:12:15.31: SIM {TimeUS : 65935282, Roll : 0.18, Pitch : -18.05, Yaw : 34.32, Alt : 49.3400001526, Lat : 49.2838763, Lng : -123.1146921, Q1 : 0.94354724884, Q2 : 0.0478389449418, Q3 : -0.149461477995, Q4 : 0.291704118252}
2019-04-14 05:12:15.41: SIM {TimeUS : 66035242, Roll : 0.2, Pitch : -18.07, Yaw : 34.32, Alt : 49.3400001526, Lat : 49.2838799, Lng : -123.1146883, Q1 : 0.943523287773, Q2 : 0.0480305701494, Q3 : -0.149611458182, Q4 : 0.29167330265}
2019-04-14 05:12:15.51: SIM {TimeUS : 66135202, Roll : 0.21, Pitch : -18.1, Yaw : 34.31, Alt : 49.3400001526, Lat : 49.2838834, Lng : -123.1146845, Q1 : 0.943498492241, Q2 : 0.0482090450823, Q3 : -0.149773091078, Q4 : 0.291641145945}
2019-04-14 05:12:15.61: SIM {TimeUS : 66235162, Roll : 0.23, Pitch : -18.12, Yaw : 34.31, Alt : 49.3400001526, Lat : 49.2838871, Lng : -123.1146807, Q1 : 0.943477272987, Q2 : 0.0483967028558, Q3 : -0.14989592135, Q4 : 0.291615575552}
2019-04-14 05:12:15.71: SIM {TimeUS : 66335122, Roll : 0.26, Pitch : -18.13, Yaw : 34.3, Alt : 49.3400001526, Lat : 49.2838906, Lng : -123.1146768, Q1 : 0.943466246128, Q2 : 0.0486289188266, Q3 : -0.149909302592, Q4 : 0.291605591774}
2019-04-14 05:12:15.81: SIM {TimeUS : 66435082, Roll : 0.28, Pitch : -18.14, Yaw : 34.3, Alt : 49.3400001526, Lat : 49.2838942, Lng : -123.114673, Q1 : 0.943456709385, Q2 : 0.048870138824, Q3 : -0.149910911918, Q4 : 0.29159528017}
