2019-04-14 05:06:53.90: SIM {TimeUS : 39915694, Roll : 0.0, Pitch : 0.0, Yaw : 0.0, Alt : 30.1000003815, Lat : 49.28357, Lng : -123.11502, Q1 : 1.0, Q2 : 0.0, Q3 : 0.0, Q4 : 0.0}
2019-04-14 05:06:54.01: SIM {TimeUS : 40034813, Roll : 0.0, Pitch : 0.0, Yaw : 0.0, Alt : 30.1000003815, Lat : 49.28357, Lng : -123.11502, Q1 : 1.0, Q2 : 0.0, Q3 : 0.0, Q4 : 0.0}
2019-04-14 05:06:54.11: SIM {TimeUS : 40134773, Roll : 0.0, Pitch : 0.0, Yaw : 0.0, Alt : 30.1000003815, Lat : 49.28357, Lng : -123.11502, Q1 : 1.0, Q2 : 0.0, Q3 : 0.0, Q4 : 0.0}
2019-04-14 05:06:54.21: SIM {TimeUS : 40234733, Roll : 0.0, Pitch : 0.0, Yaw : 0.0, Alt : 30.1000003815, Lat : 49.28357, Lng : -123.11502, Q1 : 1.0, Q2 : 0.0, Q3 : 0.0, Q4 : 0.0}
2019-04-14 05:06:54.31: SIM {TimeUS : 40334693, Roll : 0.0, Pitch : 0.0, Yaw : 0.0, Alt : 30.1000003815, Lat : 49.28357, Lng : -123.11502, Q1 : 1.0, Q2 : 0.0, Q3 : 0.0, Q4 : 0.0}
2019-04-14 05:06:54.41: SIM {TimeUS : 40434653, Roll : 0.0, Pitch : 0.0, Yaw : 0.0, Alt : 30.1000003815, Lat : 49.28357, Lng : -123.11502, Q1 : 1.0, Q2 : 0.0, Q3 : 0.0, Q4 : 0.0}
2019-04-14 05:06:54.51: SIM {TimeUS : 40534613, Roll : 0.0, Pitch : 0.0, Yaw : 0.0, Alt : 30.1000003815, Lat : 49.28357, Lng : -123.11502, Q1 : 1.0, Q2 : 0.0, Q3 : 0.0, Q4 : 0.0}
2019-04-14 05:06:54.61: SIM {TimeUS : 40634573, Roll : 0.0, Pitch : 0.0, Yaw : 0.0, Alt : 30.1000003815, Lat : 49.28357, Lng : -123.11502, Q1 : 1.0, Q2 : 0.0, Q3 : 0.0, Q4 : 0.0}
2019-04-14 05:06:54.71: SIM {TimeUS : 40734533, Roll : 0.0, Pitch : 0.0, Yaw : 0.0, Alt : 30.1000003815, Lat : 49.28357, Lng : -123.11502, Q1 : 1.0, Q2 : 0.0, Q3 : 0.0, Q4 : 0.0}
2019-04-14 05:06:54.81: SIM {TimeUS : 40834493, Roll : 0.0, Pitch : 0.0, Yaw : 0.0, Alt : 30.1000003815, Lat : 49.28357, Lng : -123.11502, Q1 : 1.0, Q2 : 0.0, Q3 : 0.0, Q4 : 0.0}
2019-04-14 05:06:54.91: SIM {TimeUS : 40934453, Roll : 0.0, Pitch : 0.0, Yaw : 0.0, Alt : 30.1000003815, Lat : 49.28357, Lng : -123.11502, Q1 : 1.0, Q2 : 0.0, Q3 : 0.0, Q4 : 0.0}
2019-04-14 05:06:55.01: SIM {TimeUS : 41034413, Roll : 0.0, Pitch : 0.0, Yaw : 0.0, Alt : 30.1000003815, Lat : 49.28357, Lng : -123.11502, Q1 : 1.0, Q2 : 0.0, Q3 : 0.0, Q4 : 0.0}
2019-04-14 05:06:55.11: SIM {TimeUS : 41134373, Roll : 0.0, Pitch : 0.0, Yaw : 0.0, Alt : 30.1000003815, Lat : 49.28357, Lng : -123.11502, Q1 : 1.0, Q2 : 0.0, Q3 : 0.0, Q4 : 0.0}
2019-04-14 05:06:55.21: SIM {TimeUS : 41234333, Roll : 0.0, Pitch : 0.0, Yaw : 0.0, Alt : 30.1000003815, Lat : 49.28357, Lng : -123.11502, Q1 : 1.0, Q2 : 0.0, Q3 : 0.0, Q4 : 0.0}
2019-04-14 05:06:55.31: SIM {TimeUS : 41334293, Roll : 0.0, Pitch : 0.0, Yaw : 0.0, Alt : 30.1000003815, Lat : 49.28357, Lng : -123.11502, Q1 : 1.0, Q2 : 0.0, Q3 : 0.0, Q4 : 0.0}
2019-04-14 05:06:55.41: SIM {TimeUS : 41434253, Roll : 0.0, Pitch : 0.0, Yaw : 0.0, Alt : 30.1000003815, Lat : 49.28357, Lng : -123.11502, Q1 : 1.0, Q2 : 0.0, Q3 : 0.0, Q4 : 0.0}
2019-04-14 05:06:55.51: SIM {TimeUS : 41534213, Roll : 0.0, Pitch : 0.0, Yaw : 0.0, Alt : 30.1000003815, Lat : 49.28357, Lng : -123.11502, Q1 : 1.0, Q2 : 0.0, Q3 : 0.0, Q4 : 0.0}
2019-04-14 05:06:55.61: SIM {TimeUS : 41634173, Roll : 0.0, Pitch : 0.0, Yaw : 0.0, Alt : 30.1000003815, Lat : 49.28357, Lng : -123.11502, Q1 : 1.0, Q2 : 0.0, Q3 : 0.0, Q4 : 0.0}
2019-04-14 05:06:55.71: SIM {TimeUS : 41734133, Roll : 0.0, Pitch : 0.0, Yaw : 0.0, Alt : 30.1000003815, Lat : 49.28357, Lng : -123.11502, Q1 : 1.0, Q2 : 0.0, Q3 : 0.0, Q4 : 0.0}
2019-04-14 05:06:55.81: SIM {TimeUS : 41834093, Roll : 0.0, Pitch : 0.0, Yaw : 0.0, Alt : 30.1000003815, Lat : 49.28357, Lng : -123.11502, Q1 : 1.0, Q2 : 0.0, Q3 : 0.0, Q4 : 0.0}
2019-04-14 05:06:55.91: SIM {TimeUS : 41934053, Roll : 0.0, Pitch : 0.0, Yaw : 0.0, Alt : 30.1000003815, Lat : 49.28357, Lng : -123.11502, Q1 : 1.0, Q2 : 0.0, Q3 : 0.0, Q4 : 0.0}
2019-04-14 05:06:56.02: SIM {TimeUS : 42034846, Roll : 0.0, Pitch : 0.0, Yaw : 0.0, Alt : 30.1000003815, Lat : 49.28357, Lng : -123.11502, Q1 : 1.0, Q2 : 0.0, Q3 : 0.0, Q4 : 0.0}
2019-04-14 05:06:56.11: SIM {TimeUS : 42134806, Roll : 0.0, Pitch : 0.0, Yaw : 0.0, Alt : 30.1000003815, Lat : 49.28357, Lng : -123.11502, Q1 : 1.0, Q2 : 0.0, Q3 : 0.0, Q4 : 0.0}
2019-04-14 05:06:56.21: SIM {TimeUS : 42234766, Roll : 0.0, Pitch : 0.0, Yaw : 0.0, Alt : 30.1000003815, Lat : 49.28357, Lng : -123.11502, Q1 : 1.0, Q2 : 0.0, Q3 : 0.0, Q4 : 2.32067349278e-13}
2019-04-14 05:06:56.31: SIM {TimeUS : 42334726, Roll : 0.0, Pitch : 0.0, Yaw : 0.0, Alt : 30.1000003815, Lat : 49.28357, Lng : -123.11502, Q1 : 1.0, Q2 : 0.0, Q3 : 0.0, Q4 : 2.44555417583e-12}
2019-04-14 05:06:56.41: SIM {TimeUS : 42434686, Roll : 0.0, Pitch : 0.0, Yaw : 360.0, Alt : 30.1000003815, Lat : 49.28357, Lng : -123.11502, Q1 : 1.0, Q2 : 0.0, Q3 : 0.0, Q4 : -8.00653268129e-08}
2019-04-14 05:06:56.51: SIM {TimeUS : 42534646, Roll : 0.0, Pitch : 0.0, Yaw : 359.99, Alt : 30.1000003815, Lat : 49.28357, Lng : -123.11502, Q1 : 1.0, Q2 : 0.0, Q3 : 0.0, Q4 : -2.23887312245e-07}
2019-04-14 05:06:56.61: SIM {TimeUS : 42634606, Roll : 0.0, Pitch : 0.0, Yaw : 359.99, Alt : 30.1000003815, Lat : 49.28357, Lng : -123.11502, Q1 : 1.0, Q2 : 0.0, Q3 : 0.0, Q4 : -4.17402674202e-07}
2019-04-14 05:06:56.71: SIM {TimeUS : 42734566, Roll : 0.0, Pitch : 0.0, Yaw : 359.99, Alt : 30.1000003815, Lat : 49.28357, Lng : -123.11502, Q1 : 1.0, Q2 : 0.0, Q3 : 0.0, Q4 : -6.17393141056e-07}
2019-04-14 05:06:56.81: SIM {TimeUS : 42834526, Roll : 0.0, Pitch : 0.0, Yaw : 359.99, Alt : 30.1000003815, Lat : 49.28357, Lng : -123.11502, Q1 : 1.0, Q2 : 0.0, Q3 : 0.0, Q4 : -7.99909230409e-07}
2019-04-14 05:06:56.91: SIM {TimeUS : 42934486, Roll : 0.0, Pitch : 0.0, Yaw : 359.99, Alt : 30.1000003815, Lat : 49.28357, Lng : -123.11502, Q1 : 1.0, Q2 : 0.0, Q3 : 0.0, Q4 : -1.0196039284e-06}
2019-04-14 05:06:57.01: SIM {TimeUS : 43034446, Roll : 0.0, Pitch : 0.0, Yaw : 359.99, Alt : 30.1000003815, Lat : 49.28357, Lng : -123.11502, Q1 : 1.0, Q2 : 0.0, Q3 : 0.0, Q4 : -1.18547120564e-06}
2019-04-14 05:06:57.11: SIM {TimeUS : 43134406, Roll : 0.0, Pitch : 0.0, Yaw : 359.99, Alt : 30.1100006104, Lat : 49.28357, Lng : -123.11502, Q1 : 1.0, Q2 : 0.0, Q3 : 0.0, Q4 : -1.40186659792e-06}
2019-04-14 05:06:57.21: SIM {TimeUS : 43234366, Roll : 0.0, Pitch : 0.0, Yaw : 359.99, Alt : 30.1299991608, Lat : 49.28357, Lng : -123.11502, Q1 : 1.0, Q2 : 0.0, Q3 : 0.0, Q4 : -1.63483696269e-06}
2019-04-14 05:06:57.31: SIM {TimeUS : 43334326, Roll : 0.0, Pitch : 0.0, Yaw : 359.99, Alt : 30.1499996185, Lat : 49.28357, Lng : -123.11502, Q1 : 1.0, Q2 : 0.0, Q3 : 0.0, Q4 : -1.86819681858e-06}
2019-04-14 05:06:57.41: SIM {TimeUS : 43434286, Roll : 0.0, Pitch : 0.0, Yaw : 359.99, Alt : 30.1900005341, Lat : 49.28357, Lng : -123.11502, Q1 : 1.0, Q2 : 0.0, Q3 : 0.0, Q4 : -2.11918222703e-06}
2019-04-14 05:06:57.51: SIM {TimeUS : 43534246, Roll : -0.02, Pitch : -0.02, Yaw : 359.99, Alt : 30.2299995422, Lat : 49.28357, Lng : -123.11502, Q1 : 0.999999940395, Q2 : -0.000243899281486, Q3 : -0.000243227957981, Q4 : -3.5258015032e-06}
2019-04-14 05:06:57.61: SIM {TimeUS : 43634206, Roll : -0.25, Pitch : -0.25, Yaw : 359.99, Alt : 30.2999992371, Lat : 49.28357, Lng : -123.11502, Q1 : 0.99999499321, Q2 : -0.00221623433754, Q3 : -0.00225012865849, Q4 : -2.46055678872e-05}
2019-04-14 05:06:57.71: SIM {TimeUS : 43734166, Roll : -0.54, Pitch : -0.56, Yaw : 359.99, Alt : 30.4300003052, Lat : 49.28357, Lng : -123.11502, Q1 : 0.999976336956, Q2 : -0.00478630093858, Q3 : -0.00493888976052, Q4 : -7.75883672759e-05}
2019-04-14 05:06:57.81: SIM {TimeUS : 43834126, Roll : -0.76, Pitch : -0.76, Yaw : 359.98, Alt : 30.5900001526, Lat : 49.28357, Lng : -123.11502, Q1 : 0.99995559454, Q2 : -0.00666510406882, Q3 : -0.00666082790121, Q4 : -0.000157620277605}
2019-04-14 05:06:57.91: SIM {TimeUS : 43934086, Roll : -0.82, Pitch : -0.77, Yaw : 359.97, Alt : 30.75, Lat : 49.28357, Lng : -123.11502, Q1 : 0.999951243401, Q2 : -0.0072318459861, Q3 : -0.00672019366175, Q4 : -0.000250126700848}
2019-04-14 05:06:58.01: SIM {TimeUS : 44034046, Roll : -0.74, Pitch : -0.63, Yaw : 359.96, Alt : 30.8999996185, Lat : 49.28357, Lng : -123.1150201, Q1 : 0.999963402748, Q2 : -0.00649121915922, Q3 : -0.00555957341567, Q4 : -0.000341426610248}
2019-04-14 05:06:58.12: SIM {TimeUS : 44134839, Roll : -0.56, Pitch : -0.43, Yaw : 359.95, Alt : 31.0599994659, Lat : 49.2835701, Lng : -123.1150202, Q1 : 0.999980688095, Q2 : -0.00489202700555, Q3 : -0.00380351603962, Q4 : -0.000423251534812}
2019-04-14 05:06:58.21: SIM {TimeUS : 44234799, Roll : -0.35, Pitch : -0.23, Yaw : 359.94, Alt : 31.2199993134, Lat : 49.2835701, Lng : -123.1150202, Q1 : 0.999993085861, Q2 : -0.00307810190134, Q3 : -0.00202547060326, Q4 : -0.000488117337227}
2019-04-14 05:06:58.31: SIM {TimeUS : 44334759, Roll : -0.16, Pitch : -0.07, Yaw : 359.93, Alt : 31.3799991608, Lat : 49.2835702, Lng : -123.1150203, Q1 : 0.999998629093, Q2 : -0.0014269297244, Q3 : -0.000665504485369, Q4 : -0.00053760613082}
2019-04-14 05:06:58.41: SIM {TimeUS : 44434719, Roll : -0.01, Pitch : 0.0, Yaw : 359.93, Alt : 31.5499992371, Lat : 49.2835702, Lng : -123.1150204, Q1 : 0.999999821186, Q2 : -9.63514612522e-05, Q3 : -3.79658595193e-05, Q4 : -0.000570082338527}
2019-04-14 05:06:58.51: SIM {TimeUS : 44534679, Roll : 0.06, Pitch : 0.02, Yaw : 359.93, Alt : 31.7299995422, Lat : 49.2835703, Lng : -123.1150205, Q1 : 0.999999642372, Q2 : 0.000602595857345, Q3 : 0.000215439140447, Q4 : -0.000583945424296}
2019-04-14 05:06:58.61: SIM {TimeUS : 44634639, Roll : 0.07, Pitch : 0.02, Yaw : 359.93, Alt : 31.9099998474, Lat : 49.2835703, Lng : -123.1150206, Q1 : 0.999999582767, Q2 : 0.000694618851412, Q3 : 0.00024028372718, Q4 : -0.000579883169848}
2019-04-14 05:06:58.71: SIM {TimeUS : 44734599, Roll : 0.06, Pitch : 0.01, Yaw : 359.93, Alt : 32.0900001526, Lat : 49.2835703, Lng : -123.1150206, Q1 : 0.999999701977, Q2 : 0.000548915879335, Q3 : 0.000103257203591, Q4 : -0.000559891515877}
2019-04-14 05:06:58.81: SIM {TimeUS : 44834559, Roll : 0.05, Pitch : 0.0, Yaw : 359.93, Alt : 32.2799987793, Lat : 49.2835703, Lng : -123.1150207, Q1 : 0.999999701977, Q2 : 0.000505341275129, Q3 : 5.13580162078e-05, Q4 : -0.000536403211299}
2019-04-14 05:06:58.91: SIM {TimeUS : 44934519, Roll : 0.06, Pitch : 0.01, Yaw : 359.94, Alt : 32.4700012207, Lat : 49.2835703, Lng : -123.1150207, Q1 : 0.999999701977, Q2 : 0.000610769900959, Q3 : 0.000115946022561, Q4 : -0.00051555869868}
2019-04-14 05:06:59.01: SIM {TimeUS : 45034479, Roll : 0.1, Pitch : 0.02, Yaw : 359.94, Alt : 32.6699981689, Lat : 49.2835703, Lng : -123.1150208, Q1 : 0.999999463558, Q2 : 0.000877796090208, Q3 : 0.000252435478615, Q4 : -0.000502653012518}
2019-04-14 05:06:59.11: SIM {TimeUS : 45134439, Roll : 0.13, Pitch : 0.05, Yaw : 359.94, Alt : 32.8699989319, Lat : 49.2835703, Lng : -123.1150208, Q1 : 0.99999910593, Q2 : 0.00119369558524, Q3 : 0.000437731941929, Q4 : -0.000495457788929}
2019-04-14 05:06:59.21: SIM {TimeUS : 45234399, Roll : 0.16, Pitch : 0.08, Yaw : 359.94, Alt : 33.0699996948, Lat : 49.2835704, Lng : -123.1150208, Q1 : 0.999998629093, Q2 : 0.0014074271312, Q3 : 0.000767775811255, Q4 : -0.000490620848723}
2019-04-14 05:06:59.31: SIM {TimeUS : 45334359, Roll : 0.16, Pitch : 0.13, Yaw : 359.94, Alt : 33.2700004578, Lat : 49.2835704, Lng : -123.1150209, Q1 : 0.999998211861, Q2 : 0.00143781653605, Q3 : 0.00113868073095, Q4 : -0.000491396931466}
2019-04-14 05:06:59.41: SIM {TimeUS : 45434319, Roll : 0.15, Pitch : 0.16, Yaw : 359.94, Alt : 33.4799995422, Lat : 49.2835704, Lng : -123.1150209, Q1 : 0.999997973442, Q2 : 0.0013452603016, Q3 : 0.00142174714711, Q4 : -0.000492970517371}
2019-04-14 05:06:59.51: SIM {TimeUS : 45534279, Roll : 0.14, Pitch : 0.18, Yaw : 359.94, Alt : 33.6800003052, Lat : 49.2835704, Lng : -123.1150209, Q1 : 0.999997735023, Q2 : 0.00128011405468, Q3 : 0.00163075700402, Q4 : -0.000494746433105}
2019-04-14 05:06:59.61: SIM {TimeUS : 45634239, Roll : 0.15, Pitch : 0.18, Yaw : 359.94, Alt : 33.8899993896, Lat : 49.2835704, Lng : -123.1150209, Q1 : 0.999997675419, Q2 : 0.00136081781238, Q3 : 0.00159526290372, Q4 : -0.00050517951604}
2019-04-14 05:06:59.71: SIM {TimeUS : 45734199, Roll : 0.15, Pitch : 0.17, Yaw : 359.93, Alt : 34.0999984741, Lat : 49.2835704, Lng : -123.1150209, Q1 : 0.999997794628, Q2 : 0.00136127253063, Q3 : 0.00150532985572, Q4 : -0.00052872824017}
2019-04-14 05:06:59.81: SIM {TimeUS : 45834159, Roll : 0.13, Pitch : 0.16, Yaw : 359.93, Alt : 34.3100013733, Lat : 49.2835706, Lng : -123.1150209, Q1 : 0.999998152256, Q2 : 0.00116966990754, Q3 : 0.00141076731961, Q4 : -0.000558856758289}
2019-04-14 05:06:59.91: SIM {TimeUS : 45934119, Roll : 0.11, Pitch : 0.11, Yaw : 359.93, Alt : 34.5200004578, Lat : 49.2835706, Lng : -123.1150209, Q1 : 0.999998807907, Q2 : 0.000988205894828, Q3 : 0.00102283386514, Q4 : -0.000579143641517}
2019-04-14 05:07:00.01: SIM {TimeUS : 46034079, Roll : 0.09, Pitch : 0.05, Yaw : 359.93, Alt : 34.7400016785, Lat : 49.2835706, Lng : -123.1150209, Q1 : 0.999999344349, Q2 : 0.000829518947285, Q3 : 0.000486259436002, Q4 : -0.000600508821663}
2019-04-14 05:07:00.11: SIM {TimeUS : 46134039, Roll : 0.07, Pitch : 0.01, Yaw : 359.92, Alt : 34.9500007629, Lat : 49.2835706, Lng : -123.1150209, Q1 : 0.999999523163, Q2 : 0.000675185583532, Q3 : 0.000137653740239, Q4 : -0.000634819385596}
2019-04-14 05:07:00.22: SIM {TimeUS : 46234832, Roll : 0.06, Pitch : 0.0, Yaw : 359.92, Alt : 35.1699981689, Lat : 49.2835706, Lng : -123.1150209, Q1 : 0.999999642372, Q2 : 0.000541056331713, Q3 : 4.13869820477e-05, Q4 : -0.000687175430357}
2019-04-14 05:07:00.31: SIM {TimeUS : 46334792, Roll : 0.05, Pitch : 0.02, Yaw : 359.91, Alt : 35.3899993896, Lat : 49.2835706, Lng : -123.1150208, Q1 : 0.999999582767, Q2 : 0.000503928400576, Q3 : 0.000177042835276, Q4 : -0.000748453720007}
2019-04-14 05:07:00.41: SIM {TimeUS : 46434752, Roll : 0.04, Pitch : 0.03, Yaw : 359.9, Alt : 35.5999984741, Lat : 49.2835706, Lng : -123.1150208, Q1 : 0.999999523163, Q2 : 0.000424132973421, Q3 : 0.000303036038531, Q4 : -0.000802529684734}
2019-04-14 05:07:00.51: SIM {TimeUS : 46534712, Roll : 0.02, Pitch : 0.04, Yaw : 359.9, Alt : 35.8199996948, Lat : 49.2835706, Lng : -123.1150208, Q1 : 0.999999523163, Q2 : 0.000254101672908, Q3 : 0.000423367455369, Q4 : -0.000843811023515}
2019-04-14 05:07:00.61: SIM {TimeUS : 46634672, Roll : 0.01, Pitch : 0.06, Yaw : 359.89, Alt : 36.0400009155, Lat : 49.2835706, Lng : -123.1150208, Q1 : 0.999999403954, Q2 : 8.81683299667e-05, Q3 : 0.000567308452446, Q4 : -0.000880953099113}
2019-04-14 05:07:00.71: SIM {TimeUS : 46734632, Roll : 0.0, Pitch : 0.08, Yaw : 359.89, Alt : 36.2599983215, Lat : 49.2835706, Lng : -123.1150208, Q1 : 0.999999344349, Q2 : 1.01955652099e-06, Q3 : 0.00072656350676, Q4 : -0.000910318922251}
2019-04-14 05:07:00.81: SIM {TimeUS : 46834592, Roll : 0.0, Pitch : 0.07, Yaw : 359.89, Alt : 36.4900016785, Lat : 49.2835704, Lng : -123.1150207, Q1 : 0.999999344349, Q2 : -8.38253763504e-05, Q3 : 0.000672203779686, Q4 : -0.000926947803237}
2019-04-14 05:07:00.91: SIM {TimeUS : 46934552, Roll : -0.01, Pitch : 0.06, Yaw : 359.89, Alt : 36.7099990845, Lat : 49.2835704, Lng : -123.1150207, Q1 : 0.999999403954, Q2 : -0.000166332683875, Q3 : 0.000545215501916, Q4 : -0.000939196557738}
2019-04-14 05:07:01.01: SIM {TimeUS : 47034512, Roll : -0.02, Pitch : 0.04, Yaw : 359.89, Alt : 36.9300003052, Lat : 49.2835704, Lng : -123.1150207, Q1 : 0.999999463558, Q2 : -0.000232601756579, Q3 : 0.000387785636121, Q4 : -0.000946282467339}
2019-04-14 05:07:01.11: SIM {TimeUS : 47134472, Roll : -0.02, Pitch : 0.02, Yaw : 359.89, Alt : 37.1599998474, Lat : 49.2835704, Lng : -123.1150207, Q1 : 0.999999523163, Q2 : -0.000238142936723, Q3 : 0.000225176292588, Q4 : -0.000944762025028}
2019-04-14 05:07:01.21: SIM {TimeUS : 47234432, Roll : 0.0, Pitch : 0.0, Yaw : 359.89, Alt : 37.3800010681, Lat : 49.2835704, Lng : -123.1150207, Q1 : 0.999999582767, Q2 : -7.13185509085e-05, Q3 : 4.87497636641e-05, Q4 : -0.000935330812354}
2019-04-14 05:07:01.31: SIM {TimeUS : 47334392, Roll : 0.0, Pitch : -0.02, Yaw : 359.89, Alt : 37.6100006104, Lat : 49.2835704, Lng : -123.1150207, Q1 : 0.999999523163, Q2 : -3.3716816688e-05, Q3 : -0.000196422479348, Q4 : -0.000922354636714}
2019-04-14 05:07:01.41: SIM {TimeUS : 47434352, Roll : -0.02, Pitch : -0.05, Yaw : 359.89, Alt : 37.8300018311, Lat : 49.2835704, Lng : -123.1150207, Q1 : 0.999999463558, Q2 : -0.00018619702314, Q3 : -0.000516063708346, Q4 : -0.000910740986001}
2019-04-14 05:07:01.51: SIM {TimeUS : 47534312, Roll : -0.05, Pitch : -0.08, Yaw : 359.89, Alt : 38.0600013733, Lat : 49.2835704, Lng : -123.1150207, Q1 : 0.99999922514, Q2 : -0.000470790313557, Q3 : -0.000739720766433, Q4 : -0.000908940564841}
2019-04-14 05:07:01.61: SIM {TimeUS : 47634272, Roll : -0.08, Pitch : -0.09, Yaw : 359.89, Alt : 38.2900009155, Lat : 49.2835704, Lng : -123.1150207, Q1 : 0.999998927116, Q2 : -0.00078059558291, Q3 : -0.000796325213742, Q4 : -0.000933279341552}
2019-04-14 05:07:01.71: SIM {TimeUS : 47734232, Roll : -0.11, Pitch : -0.09, Yaw : 359.88, Alt : 38.5200004578, Lat : 49.2835704, Lng : -123.1150206, Q1 : 0.999998748302, Q2 : -0.00101030303631, Q3 : -0.000784594449215, Q4 : -0.00096295698313}
2019-04-14 05:07:01.81: SIM {TimeUS : 47834192, Roll : -0.12, Pitch : -0.07, Yaw : 359.88, Alt : 38.7400016785, Lat : 49.2835704, Lng : -123.1150206, Q1 : 0.999998688698, Q2 : -0.00108157505747, Q3 : -0.000691470690072, Q4 : -0.000990516156889}
2019-04-14 05:07:01.91: SIM {TimeUS : 47934152, Roll : -0.1, Pitch : -0.05, Yaw : 359.88, Alt : 38.9700012207, Lat : 49.2835704, Lng : -123.1150206, Q1 : 0.999998927116, Q2 : -0.000951582798734, Q3 : -0.000449978047982, Q4 : -0.00101960578468}
2019-04-14 05:07:02.01: SIM {TimeUS : 48034112, Roll : -0.08, Pitch : -0.04, Yaw : 359.87, Alt : 39.2000007629, Lat : 49.2835704, Lng : -123.1150206, Q1 : 0.99999910593, Q2 : -0.000723816512618, Q3 : -0.000353691197233, Q4 : -0.00105215236545}
2019-04-14 05:07:02.11: SIM {TimeUS : 48134072, Roll : -0.06, Pitch : -0.04, Yaw : 359.87, Alt : 39.4300003052, Lat : 49.2835704, Lng : -123.1150206, Q1 : 0.99999922514, Q2 : -0.000550799944904, Q3 : -0.000383863167372, Q4 : -0.00109741592314}
2019-04-14 05:07:02.21: SIM {TimeUS : 48234032, Roll : -0.05, Pitch : -0.02, Yaw : 359.86, Alt : 39.6599998474, Lat : 49.2835704, Lng : -123.1150206, Q1 : 0.99999922514, Q2 : -0.000468734971946, Q3 : -0.000261053297436, Q4 : -0.00113548943773}
2019-04-14 05:07:02.32: SIM {TimeUS : 48334825, Roll : -0.06, Pitch : 0.0, Yaw : 359.86, Alt : 39.9000015259, Lat : 49.2835704, Lng : -123.1150206, Q1 : 0.999999165535, Q2 : -0.00056457327446, Q3 : -4.78824840684e-05, Q4 : -0.00117398879956}
2019-04-14 05:07:02.41: SIM {TimeUS : 48434785, Roll : -0.06, Pitch : 0.01, Yaw : 359.86, Alt : 40.1300010681, Lat : 49.2835704, Lng : -123.1150206, Q1 : 0.99999910593, Q2 : -0.000543007743545, Q3 : 0.000155595931574, Q4 : -0.00120718975086}
2019-04-14 05:07:02.51: SIM {TimeUS : 48534745, Roll : -0.04, Pitch : 0.04, Yaw : 359.85, Alt : 40.3600006104, Lat : 49.2835704, Lng : -123.1150207, Q1 : 0.999999046326, Q2 : -0.000422612822149, Q3 : 0.000435308029409, Q4 : -0.00123120727949}
2019-04-14 05:07:02.61: SIM {TimeUS : 48634705, Roll : -0.02, Pitch : 0.05, Yaw : 359.85, Alt : 40.5900001526, Lat : 49.2835704, Lng : -123.1150207, Q1 : 0.99999910593, Q2 : -0.000257378502283, Q3 : 0.000522117770743, Q4 : -0.00124095985666}
2019-04-14 05:07:02.71: SIM {TimeUS : 48734665, Roll : 0.0, Pitch : 0.06, Yaw : 359.85, Alt : 40.8199996948, Lat : 49.2835704, Lng : -123.1150207, Q1 : 0.99999910593, Q2 : 7.86861346569e-06, Q3 : 0.000533294049092, Q4 : -0.00124871521257}
2019-04-14 05:07:02.81: SIM {TimeUS : 48834625, Roll : 0.04, Pitch : 0.07, Yaw : 359.85, Alt : 41.0499992371, Lat : 49.2835704, Lng : -123.1150207, Q1 : 0.999998927116, Q2 : 0.000367443019059, Q3 : 0.000666480162181, Q4 : -0.00125848897733}
2019-04-14 05:07:02.91: SIM {TimeUS : 48934585, Roll : 0.08, Pitch : 0.1, Yaw : 359.85, Alt : 41.2900009155, Lat : 49.2835706, Lng : -123.1150207, Q1 : 0.999998509884, Q2 : 0.000779855879955, Q3 : 0.000890500552487, Q4 : -0.00127313286066}
2019-04-14 05:07:03.01: SIM {TimeUS : 49034545, Roll : 0.11, Pitch : 0.12, Yaw : 359.85, Alt : 41.5200004578, Lat : 49.2835706, Lng : -123.1150207, Q1 : 0.999998033047, Q2 : 0.000997007708065, Q3 : 0.001124659786, Q4 : -0.00129113579169}
2019-04-14 05:07:03.11: SIM {TimeUS : 49134505, Roll : 0.09, Pitch : 0.14, Yaw : 359.85, Alt : 41.75, Lat : 49.2835706, Lng : -123.1150207, Q1 : 0.999997973442, Q2 : 0.000843825808261, Q3 : 0.00130132574122, Q4 : -0.00129599764477}
2019-04-14 05:07:03.21: SIM {TimeUS : 49234465, Roll : 0.04, Pitch : 0.16, Yaw : 359.85, Alt : 41.9900016785, Lat : 49.2835706, Lng : -123.1150207, Q1 : 0.999998092651, Q2 : 0.000406263716286, Q3 : 0.00140243209898, Q4 : -0.00130460073706}
2019-04-14 05:07:03.31: SIM {TimeUS : 49334425, Roll : 0.0, Pitch : 0.15, Yaw : 359.84, Alt : 42.2200012207, Lat : 49.2835706, Lng : -123.1150207, Q1 : 0.999998152256, Q2 : -2.84323300548e-06, Q3 : 0.00138665304985, Q4 : -0.00132229318842}
2019-04-14 05:07:03.41: SIM {TimeUS : 49434385, Roll : -0.01, Pitch : 0.12, Yaw : 359.84, Alt : 42.4599990845, Lat : 49.2835706, Lng : -123.1150207, Q1 : 0.999998450279, Q2 : -0.000148862309288, Q3 : 0.00112719496246, Q4 : -0.00134282163344}
2019-04-14 05:07:03.51: SIM {TimeUS : 49534345, Roll : -0.01, Pitch : 0.09, Yaw : 359.84, Alt : 42.6899986267, Lat : 49.2835706, Lng : -123.1150207, Q1 : 0.999998748302, Q2 : -0.000148052175064, Q3 : 0.000800305162556, Q4 : -0.00136783160269}
2019-04-14 05:07:03.61: SIM {TimeUS : 49634305, Roll : 0.0, Pitch : 0.09, Yaw : 359.84, Alt : 42.9300003052, Lat : 49.2835706, Lng : -123.1150207, Q1 : 0.999998688698, Q2 : -5.60906410101e-05, Q3 : 0.000803767237812, Q4 : -0.0013949663844}
2019-04-14 05:07:03.71: SIM {TimeUS : 49734265, Roll : 0.02, Pitch : 0.11, Yaw : 359.83, Alt : 43.1599998474, Lat : 49.2835706, Lng : -123.1150207, Q1 : 0.999998450279, Q2 : 0.0002398374927, Q3 : 0.000999714829959, Q4 : -0.00143497262616}
2019-04-14 05:07:03.81: SIM {TimeUS : 49834225, Roll : 0.07, Pitch : 0.14, Yaw : 359.83, Alt : 43.4000015259, Lat : 49.2835706, Lng : -123.1150207, Q1 : 0.999997913837, Q2 : 0.000693916983437, Q3 : 0.0012306853896, Q4 : -0.00147188932169}
2019-04-14 05:07:03.91: SIM {TimeUS : 49934185, Roll : 0.11, Pitch : 0.13, Yaw : 359.82, Alt : 43.6300010681, Lat : 49.2835704, Lng : -123.1150207, Q1 : 0.999997615814, Q2 : 0.001037510694, Q3 : 0.00121435138863, Q4 : -0.00151102570817}
2019-04-14 05:07:04.01: SIM {TimeUS : 50034145, Roll : 0.12, Pitch : 0.12, Yaw : 359.82, Alt : 43.8699989319, Lat : 49.2835704, Lng : -123.1150207, Q1 : 0.999997675419, Q2 : 0.00105052872095, Q3 : 0.00107471877709, Q4 : -0.00154867279343}
2019-04-14 05:07:04.11: SIM {TimeUS : 50134105, Roll : 0.07, Pitch : 0.1, Yaw : 359.82, Alt : 44.0999984741, Lat : 49.2835704, Lng : -123.1150207, Q1 : 0.999998092651, Q2 : 0.000682371493895, Q3 : 0.000932992377784, Q4 : -0.00157097214833}
2019-04-14 05:07:04.21: SIM {TimeUS : 50234065, Roll : 0.02, Pitch : 0.09, Yaw : 359.81, Alt : 44.3400001526, Lat : 49.2835704, Lng : -123.1150207, Q1 : 0.999998390675, Q2 : 0.000178599497303, Q3 : 0.000808519893326, Q4 : -0.00158815854229}
2019-04-14 05:07:04.31: SIM {TimeUS : 50334025, Roll : -0.02, Pitch : 0.09, Yaw : 359.81, Alt : 44.5699996948, Lat : 49.2835704, Lng : -123.1150206, Q1 : 0.999998390675, Q2 : -0.000188461897778, Q3 : 0.000787342898548, Q4 : -0.00160725368187}
2019-04-14 05:07:04.41: SIM {TimeUS : 50434818, Roll : -0.04, Pitch : 0.08, Yaw : 359.81, Alt : 44.8100013733, Lat : 49.2835704, Lng : -123.1150206, Q1 : 0.99999833107, Q2 : -0.000380819954444, Q3 : 0.000734846515115, Q4 : -0.00162627187092}
2019-04-14 05:07:04.51: SIM {TimeUS : 50534778, Roll : -0.04, Pitch : 0.05, Yaw : 359.81, Alt : 45.0499992371, Lat : 49.2835704, Lng : -123.1150206, Q1 : 0.999998450279, Q2 : -0.000377647171263, Q3 : 0.000507461489178, Q4 : -0.00164748076349}
2019-04-14 05:07:04.61: SIM {TimeUS : 50634738, Roll : -0.04, Pitch : 0.02, Yaw : 359.8, Alt : 45.2799987793, Lat : 49.2835704, Lng : -123.1150206, Q1 : 0.999998450279, Q2 : -0.000403618934797, Q3 : 0.000258434563875, Q4 : -0.00167507701553}
2019-04-14 05:07:04.71: SIM {TimeUS : 50734698, Roll : -0.03, Pitch : 0.01, Yaw : 359.8, Alt : 45.5200004578, Lat : 49.2835703, Lng : -123.1150206, Q1 : 0.999998450279, Q2 : -0.000329481437802, Q3 : 9.46049258346e-05, Q4 : -0.00170606106985}
2019-04-14 05:07:04.81: SIM {TimeUS : 50834658, Roll : -0.02, Pitch : 0.0, Yaw : 359.8, Alt : 45.75, Lat : 49.2835703, Lng : -123.1150206, Q1 : 0.999998450279, Q2 : -0.000178379457793, Q3 : 2.92102995445e-05, Q4 : -0.00173994130455}
2019-04-14 05:07:04.91: SIM {TimeUS : 50934618, Roll : -0.01, Pitch : 0.0, Yaw : 359.79, Alt : 45.9799995422, Lat : 49.2835703, Lng : -123.1150206, Q1 : 0.999998390675, Q2 : -0.000136421309435, Q3 : 3.91966423194e-05, Q4 : -0.00177410885226}
2019-04-14 05:07:05.01: SIM {TimeUS : 51034578, Roll : -0.02, Pitch : 0.0, Yaw : 359.79, Alt : 46.2099990845, Lat : 49.2835703, Lng : -123.1150205, Q1 : 0.999998390675, Q2 : -0.000188168589375, Q3 : 5.58962995001e-07, Q4 : -0.00180746661499}
2019-04-14 05:07:05.11: SIM {TimeUS : 51134538, Roll : -0.03, Pitch : -0.01, Yaw : 359.78, Alt : 46.4399986267, Lat : 49.2835703, Lng : -123.1150205, Q1 : 0.999998271465, Q2 : -0.000265257898718, Q3 : -0.000152998050908, Q4 : -0.00183721899521}
2019-04-14 05:07:05.21: SIM {TimeUS : 51234498, Roll : -0.03, Pitch : -0.03, Yaw : 359.78, Alt : 46.6599998474, Lat : 49.2835703, Lng : -123.1150205, Q1 : 0.999998211861, Q2 : -0.000294711237075, Q3 : -0.000286449940177, Q4 : -0.00186480919365}
2019-04-14 05:07:05.31: SIM {TimeUS : 51334458, Roll : -0.02, Pitch : -0.04, Yaw : 359.78, Alt : 46.8699989319, Lat : 49.2835703, Lng : -123.1150205, Q1 : 0.999998152256, Q2 : -0.000252015539445, Q3 : -0.000364256819012, Q4 : -0.00188806909136}
2019-04-14 05:07:05.41: SIM {TimeUS : 51434418, Roll : -0.03, Pitch : -0.04, Yaw : 359.78, Alt : 47.0800018311, Lat : 49.2835703, Lng : -123.1150205, Q1 : 0.999998033047, Q2 : -0.000296320067719, Q3 : -0.000413250119891, Q4 : -0.00191105948761}
2019-04-14 05:07:05.51: SIM {TimeUS : 51534378, Roll : -0.05, Pitch : -0.04, Yaw : 359.77, Alt : 47.2799987793, Lat : 49.2835703, Lng : -123.1150205, Q1 : 0.999997913837, Q2 : -0.000480934162624, Q3 : -0.000361224927474, Q4 : -0.00193461251911}
2019-04-14 05:07:05.61: SIM {TimeUS : 51634338, Roll : -0.09, Pitch : -0.03, Yaw : 359.77, Alt : 47.4700012207, Lat : 49.2835703, Lng : -123.1150205, Q1 : 0.999997735023, Q2 : -0.000786409538705, Q3 : -0.000344723317539, Q4 : -0.00195880839601}
2019-04-14 05:07:05.71: SIM {TimeUS : 51734298, Roll : -0.12, Pitch : -0.04, Yaw : 359.77, Alt : 47.6599998474, Lat : 49.2835703, Lng : -123.1150205, Q1 : 0.999997377396, Q2 : -0.00110243668314, Q3 : -0.000391870649764, Q4 : -0.0019854279235}
2019-04-14 05:07:05.81: SIM {TimeUS : 51834258, Roll : -0.16, Pitch : -0.06, Yaw : 359.76, Alt : 47.8300018311, Lat : 49.2835703, Lng : -123.1150205, Q1 : 0.999996781349, Q2 : -0.00143139739521, Q3 : -0.000563171051908, Q4 : -0.0020126583986}
2019-04-14 05:07:05.91: SIM {TimeUS : 51934218, Roll : -0.17, Pitch : -0.06, Yaw : 359.76, Alt : 47.9900016785, Lat : 49.2835703, Lng : -123.1150205, Q1 : 0.999996542931, Q2 : -0.00154678663239, Q3 : -0.000587488000747, Q4 : -0.00203821877949}
2019-04-14 05:07:06.01: SIM {TimeUS : 52034178, Roll : -0.16, Pitch : -0.05, Yaw : 359.76, Alt : 48.1399993896, Lat : 49.2835703, Lng : -123.1150205, Q1 : 0.999996721745, Q2 : -0.00143181229942, Q3 : -0.000517195090652, Q4 : -0.00206367042847}
2019-04-14 05:07:06.11: SIM {TimeUS : 52134138, Roll : -0.13, Pitch : -0.04, Yaw : 359.76, Alt : 48.2700004578, Lat : 49.2835703, Lng : -123.1150205, Q1 : 0.999997019768, Q2 : -0.00120537332259, Q3 : -0.000415981659899, Q4 : -0.00208947085775}
2019-04-14 05:07:06.21: SIM {TimeUS : 52234098, Roll : -0.11, Pitch : -0.03, Yaw : 359.75, Alt : 48.4000015259, Lat : 49.2835703, Lng : -123.1150205, Q1 : 0.999997198582, Q2 : -0.000982585828751, Q3 : -0.000344324129401, Q4 : -0.00211666314863}
2019-04-14 05:07:06.31: SIM {TimeUS : 52334058, Roll : -0.08, Pitch : -0.04, Yaw : 359.75, Alt : 48.5099983215, Lat : 49.2835703, Lng : -123.1150205, Q1 : 0.999997377396, Q2 : -0.000703882193193, Q3 : -0.000401909986977, Q4 : -0.00214220886119}
2019-04-14 05:07:06.42: SIM {TimeUS : 52434851, Roll : -0.04, Pitch : -0.05, Yaw : 359.75, Alt : 48.6100006104, Lat : 49.2835703, Lng : -123.1150205, Q1 : 0.999997437, Q2 : -0.000409269530792, Q3 : -0.000510450801812, Q4 : -0.00216297805309}
2019-04-14 05:07:06.51: SIM {TimeUS : 52534811, Roll : -0.02, Pitch : -0.06, Yaw : 359.74, Alt : 48.7000007629, Lat : 49.2835703, Lng : -123.1150205, Q1 : 0.999997377396, Q2 : -0.000254248065175, Q3 : -0.000601637701038, Q4 : -0.00218926742673}
2019-04-14 05:07:06.61: SIM {TimeUS : 52634771, Roll : -0.03, Pitch : -0.08, Yaw : 359.74, Alt : 48.7799987793, Lat : 49.2835703, Lng : -123.1150206, Q1 : 0.999997258186, Q2 : -0.000279758736724, Q3 : -0.000701999582816, Q4 : -0.00221827579662}
2019-04-14 05:07:06.71: SIM {TimeUS : 52734731, Roll : -0.01, Pitch : -0.07, Yaw : 359.74, Alt : 48.8400001526, Lat : 49.2835703, Lng : -123.1150206, Q1 : 0.999997258186, Q2 : -9.24094129005e-05, Q3 : -0.000633371062577, Q4 : -0.0022439355962}
2019-04-14 05:07:06.81: SIM {TimeUS : 52834691, Roll : 0.01, Pitch : -0.05, Yaw : 359.73, Alt : 48.9000015259, Lat : 49.2835703, Lng : -123.1150206, Q1 : 0.999997317791, Q2 : 0.000146545935422, Q3 : -0.00046939344611, Q4 : -0.0022702421993}
2019-04-14 05:07:06.91: SIM {TimeUS : 52934651, Roll : 0.03, Pitch : -0.03, Yaw : 359.73, Alt : 48.9500007629, Lat : 49.2835703, Lng : -123.1150206, Q1 : 0.999997317791, Q2 : 0.000312090123771, Q3 : -0.000284264155198, Q4 : -0.00229438627139}
2019-04-14 05:07:07.01: SIM {TimeUS : 53034611, Roll : 0.06, Pitch : -0.04, Yaw : 359.73, Alt : 49.0, Lat : 49.2835703, Lng : -123.1150206, Q1 : 0.999997079372, Q2 : 0.000547556614038, Q3 : -0.000351074821083, Q4 : -0.00232166401111}
2019-04-14 05:07:07.11: SIM {TimeUS : 53134571, Roll : 0.17, Pitch : -0.18, Yaw : 359.73, Alt : 49.0299987793, Lat : 49.2835703, Lng : -123.1150206, Q1 : 0.999994754791, Q2 : 0.0015655454481, Q3 : -0.00160171987955, Q4 : -0.00234939856455}
2019-04-14 05:07:07.21: SIM {TimeUS : 53234531, Roll : 0.43, Pitch : -0.56, Yaw : 359.72, Alt : 49.0600013733, Lat : 49.2835703, Lng : -123.1150206, Q1 : 0.9999781847, Q2 : 0.0037457535509, Q3 : -0.00490149110556, Q4 : -0.00237383833155}
2019-04-14 05:07:07.31: SIM {TimeUS : 53334491, Roll : 0.81, Pitch : -1.15, Yaw : 359.71, Alt : 49.0900001526, Lat : 49.2835703, Lng : -123.1150206, Q1 : 0.999920666218, Q2 : 0.00709713390097, Q3 : -0.0101286591962, Q4 : -0.00238913018256}
2019-04-14 05:07:07.41: SIM {TimeUS : 53434451, Roll : 1.32, Pitch : -1.91, Yaw : 359.7, Alt : 49.1100006104, Lat : 49.2835704, Lng : -123.1150206, Q1 : 0.999790251255, Q2 : 0.0115322787315, Q3 : -0.016756856814, Q4 : -0.00238057994284}
2019-04-14 05:07:07.51: SIM {TimeUS : 53534411, Roll : 1.9, Pitch : -2.76, Yaw : 359.68, Alt : 49.1300010681, Lat : 49.2835704, Lng : -123.1150205, Q1 : 0.999569118023, Q2 : 0.0165547523648, Q3 : -0.024127015844, Q4 : -0.00232855812646}
2019-04-14 05:07:07.61: SIM {TimeUS : 53634371, Roll : 2.46, Pitch : -3.55, Yaw : 359.66, Alt : 49.1500015259, Lat : 49.2835706, Lng : -123.1150205, Q1 : 0.999285697937, Q2 : 0.0214166007936, Q3 : -0.0310576185584, Q4 : -0.002220854396}
2019-04-14 05:07:07.71: SIM {TimeUS : 53734331, Roll : 2.94, Pitch : -4.18, Yaw : 359.65, Alt : 49.1699981689, Lat : 49.2835708, Lng : -123.1150203, Q1 : 0.999002099037, Q2 : 0.0255882013589, Q3 : -0.0365502387285, Q4 : -0.00204191403463}
2019-04-14 05:07:07.81: SIM {TimeUS : 53834291, Roll : 3.31, Pitch : -4.64, Yaw : 359.65, Alt : 49.1800003052, Lat : 49.2835709, Lng : -123.1150201, Q1 : 0.998760044575, Q2 : 0.0287561211735, Q3 : -0.0405978932977, Q4 : -0.00181420217268}
2019-04-14 05:07:07.91: SIM {TimeUS : 53934251, Roll : 3.57, Pitch : -5.0, Yaw : 359.66, Alt : 49.1899986267, Lat : 49.2835712, Lng : -123.11502, Q1 : 0.998558878899, Q2 : 0.0310149826109, Q3 : -0.043769814074, Q4 : -0.00156426022295}
2019-04-14 05:07:08.01: SIM {TimeUS : 54034211, Roll : 3.76, Pitch : -5.31, Yaw : 359.67, Alt : 49.2000007629, Lat : 49.2835715, Lng : -123.1150197, Q1 : 0.998384892941, Q2 : 0.0327021181583, Q3 : -0.0464372895658, Q4 : -0.00131405238062}
2019-04-14 05:07:08.11: SIM {TimeUS : 54134171, Roll : 3.94, Pitch : -5.62, Yaw : 359.68, Alt : 49.2099990845, Lat : 49.2835719, Lng : -123.1150193, Q1 : 0.99820291996, Q2 : 0.0342434756458, Q3 : -0.0491644926369, Q4 : -0.00106801686343}
2019-04-14 05:07:08.21: SIM {TimeUS : 54234131, Roll : 4.13, Pitch : -5.96, Yaw : 359.68, Alt : 49.2200012207, Lat : 49.2835722, Lng : -123.1150188, Q1 : 0.997994303703, Q2 : 0.0359272807837, Q3 : -0.0521145686507, Q4 : -0.000822130008601}
2019-04-14 05:07:08.31: SIM {TimeUS : 54334091, Roll : 4.34, Pitch : -6.28, Yaw : 359.69, Alt : 49.2200012207, Lat : 49.2835727, Lng : -123.1150183, Q1 : 0.99777919054, Q2 : 0.0377123057842, Q3 : -0.0549015365541, Q4 : -0.000564101559576}
2019-04-14 05:07:08.41: SIM {TimeUS : 54434051, Roll : 4.52, Pitch : -6.56, Yaw : 359.7, Alt : 49.2299995422, Lat : 49.2835733, Lng : -123.1150177, Q1 : 0.99758464098, Q2 : 0.0392654016614, Q3 : -0.0572972074151, Q4 : -0.00032255492988}
2019-04-14 05:07:08.52: SIM {TimeUS : 54534844, Roll : 4.66, Pitch : -6.78, Yaw : 359.71, Alt : 49.2400016785, Lat : 49.2835739, Lng : -123.1150171, Q1 : 0.997423291206, Q2 : 0.0405129157007, Q3 : -0.0592075958848, Q4 : -9.85096412478e-05}
2019-04-14 05:07:08.61: SIM {TimeUS : 54634804, Roll : 4.76, Pitch : -6.92, Yaw : 359.72, Alt : 49.2400016785, Lat : 49.2835746, Lng : -123.1150163, Q1 : 0.997316002846, Q2 : 0.0413138307631, Q3 : -0.0604485720396, Q4 : 9.12582036108e-05}
2019-04-14 05:07:08.71: SIM {TimeUS : 54734764, Roll : 4.82, Pitch : -7.04, Yaw : 359.72, Alt : 49.25, Lat : 49.2835753, Lng : -123.1150156, Q1 : 0.997229576111, Q2 : 0.0419090799987, Q3 : -0.0614557303488, Q4 : 0.00022137738415}
2019-04-14 05:07:08.81: SIM {TimeUS : 54834724, Roll : 4.9, Pitch : -7.15, Yaw : 359.72, Alt : 49.25, Lat : 49.2835762, Lng : -123.1150147, Q1 : 0.997138559818, Q2 : 0.0425460413098, Q3 : -0.062485922128, Q4 : 0.000303816021187}
2019-04-14 05:07:08.91: SIM {TimeUS : 54934684, Roll : 5.07, Pitch : -7.27, Yaw : 359.74, Alt : 49.25, Lat : 49.283577, Lng : -123.1150138, Q1 : 0.997011840343, Q2 : 0.0440740846097, Q3 : -0.0634397491813, Q4 : 0.000596647732891}
2019-04-14 05:07:09.01: SIM {TimeUS : 55034644, Roll : 5.5, Pitch : -7.29, Yaw : 0.08, Alt : 49.2599983215, Lat : 49.283578, Lng : -123.1150129, Q1 : 0.996819853783, Q2 : 0.047963630408, Q3 : -0.0635219886899, Q4 : 0.00383297121152}
2019-04-14 05:07:09.11: SIM {TimeUS : 55134604, Roll : 6.13, Pitch : -7.32, Yaw : 1.41, Alt : 49.2599983215, Lat : 49.2835788, Lng : -123.1150119, Q1 : 0.996409952641, Q2 : 0.0541773997247, Q3 : -0.0631316155195, Q4 : 0.015698088333}
2019-04-14 05:07:09.21: SIM {TimeUS : 55234564, Roll : 6.61, Pitch : -7.59, Yaw : 4.25, Alt : 49.2599983215, Lat : 49.2835799, Lng : -123.1150107, Q1 : 0.995312213898, Q2 : 0.0600134469569, Q3 : -0.0639416277409, Q4 : 0.0407855436206}
2019-04-14 05:07:09.31: SIM {TimeUS : 55334524, Roll : 6.66, Pitch : -8.2, Yaw : 8.68, Alt : 49.2599983215, Lat : 49.283581, Lng : -123.1150095, Q1 : 0.992573082447, Q2 : 0.0632399022579, Q3 : -0.0668420121074, Q4 : 0.0795708298683}
2019-04-14 05:07:09.41: SIM {TimeUS : 55434484, Roll : 6.06, Pitch : -9.11, Yaw : 14.53, Alt : 49.2599983215, Lat : 49.283582, Lng : -123.1150082, Q1 : 0.986909627914, Q2 : 0.0623299479485, Q3 : -0.072036229074, Q4 : 0.130135208368}
2019-04-14 05:07:09.51: SIM {TimeUS : 55534444, Roll : 4.52, Pitch : -10.19, Yaw : 21.42, Alt : 49.2599983215, Lat : 49.2835831, Lng : -123.1150068, Q1 : 0.977277696133, Q2 : 0.0551003925502, Q3 : -0.0799529477954, Q4 : 0.188413828611}
2019-04-14 05:07:09.61: SIM {TimeUS : 55634404, Roll : 2.05, Pitch : -11.18, Yaw : 28.6, Alt : 49.2700004578, Lat : 49.2835843, Lng : -123.1150053, Q1 : 0.963794231415, Q2 : 0.0414093993604, Q3 : -0.0900249034166, Q4 : 0.247551053762}
2019-04-14 05:07:09.71: SIM {TimeUS : 55734364, Roll : -0.85, Pitch : -11.87, Yaw : 35.3, Alt : 49.2700004578, Lat : 49.2835855, Lng : -123.1150037, Q1 : 0.947998464108, Q2 : 0.0243307705969, Q3 : -0.100815400481, Q4 : 0.300903975964}
2019-04-14 05:07:09.81: SIM {TimeUS : 55834324, Roll : -3.57, Pitch : -12.21, Yaw : 40.83, Alt : 49.2700004578, Lat : 49.2835868, Lng : -123.1150021, Q1 : 0.932571172714, Q2 : 0.00804014317691, Q3 : -0.110468171537, Q4 : 0.343574136496}
2019-04-14 05:07:09.91: SIM {TimeUS : 55934284, Roll : -5.57, Pitch : -12.31, Yaw : 44.72, Alt : 49.2700004578, Lat : 49.2835883, Lng : -123.1150005, Q1 : 0.920353531837, Q2 : -0.00395123148337, Q3 : -0.117487564683, Q4 : 0.373001992702}
2019-04-14 05:07:10.01: SIM {TimeUS : 56034244, Roll : -6.6, Pitch : -12.35, Yaw : 46.87, Alt : 49.2700004578, Lat : 49.2835897, Lng : -123.1149988, Q1 : 0.913132607937, Q2 : -0.00984486564994, Q3 : -0.121346637607, Q4 : 0.38905903697}
2019-04-14 05:07:10.11: SIM {TimeUS : 56134204, Roll : -6.68, Pitch : -12.49, Yaw : 47.43, Alt : 49.2700004578, Lat : 49.2835914, Lng : -123.1149972, Q1 : 0.911117851734, Q2 : -0.00941515620798, Q3 : -0.122759200633, Q4 : 0.393326640129}
2019-04-14 05:07:10.21: SIM {TimeUS : 56234164, Roll : -6.0, Pitch : -12.82, Yaw : 46.7, Alt : 49.2700004578, Lat : 49.2835932, Lng : -123.1149955, Q1 : 0.913412451744, Q2 : -0.00360688753426, Q3 : -0.1230333969, Q4 : 0.387978732586}
2019-04-14 05:07:10.31: SIM {TimeUS : 56334124, Roll : -4.82, Pitch : -13.36, Yaw : 45.0, Alt : 49.2700004578, Lat : 49.283595, Lng : -123.1149938, Q1 : 0.91865336895, Q2 : 0.00587568758056, Q3 : -0.123377420008, Q4 : 0.375259250402}
2019-04-14 05:07:10.41: SIM {TimeUS : 56434084, Roll : -3.35, Pitch : -14.01, Yaw : 42.64, Alt : 49.2700004578, Lat : 49.2835968, Lng : -123.1149921, Q1 : 0.925497293472, Q2 : 0.0172802526504, Q3 : -0.124128997326, Q4 : 0.357418835163}
2019-04-14 05:07:10.51: SIM {TimeUS : 56534044, Roll : -1.77, Pitch : -14.65, Yaw : 39.92, Alt : 49.2799987793, Lat : 49.2835988, Lng : -123.1149904, Q1 : 0.932798504829, Q2 : 0.029142152518, Q3 : -0.12510573864, Q4 : 0.336728721857}
2019-04-14 05:07:10.62: SIM {TimeUS : 56634837, Roll : -0.21, Pitch : -15.17, Yaw : 37.13, Alt : 49.2799987793, Lat : 49.2836007, Lng : -123.1149885, Q1 : 0.93973249197, Q2 : 0.040258217603, Q3 : -0.125722885132, Q4 : 0.315398037434}
2019-04-14 05:07:10.71: SIM {TimeUS : 56734797, Roll : 1.13, Pitch : -15.48, Yaw : 34.62, Alt : 49.2799987793, Lat : 49.2836029, Lng : -123.1149866, Q1 : 0.945546150208, Q2 : 0.0494577512145, Q3 : -0.125712051988, Q4 : 0.296129852533}
2019-04-14 05:07:10.81: SIM {TimeUS : 56834757, Roll : 2.17, Pitch : -15.62, Yaw : 32.61, Alt : 49.2799987793, Lat : 49.2836049, Lng : -123.1149846, Q1 : 0.949962675571, Q2 : 0.0561922751367, Q3 : -0.125179588795, Q4 : 0.280612528324}
2019-04-14 05:07:10.91: SIM {TimeUS : 56934717, Roll : 2.81, Pitch : -15.63, Yaw : 31.24, Alt : 49.2799987793, Lat : 49.2836072, Lng : -123.1149824, Q1 : 0.952912032604, Q2 : 0.060045350343, Q3 : -0.12438519299, Q4 : 0.269965797663}
2019-04-14 05:07:11.01: SIM {TimeUS : 57034677, Roll : 3.05, Pitch : -15.59, Yaw : 30.56, Alt : 49.2799987793, Lat : 49.2836095, Lng : -123.1149802, Q1 : 0.954417467117, Q2 : 0.0612111464143, Q3 : -0.123897455633, Q4 : 0.264556020498}
2019-04-14 05:07:11.11: SIM {TimeUS : 57134637, Roll : 2.91, Pitch : -15.57, Yaw : 30.52, Alt : 49.2799987793, Lat : 49.2836116, Lng : -123.1149778, Q1 : 0.954610049725, Q2 : 0.0599534884095, Q3 : -0.124070927501, Q4 : 0.264067411423}
2019-04-14 05:07:11.21: SIM {TimeUS : 57234597, Roll : 2.46, Pitch : -15.6, Yaw : 31.01, Alt : 49.2799987793, Lat : 49.283614, Lng : -123.1149754, Q1 : 0.953665196896, Q2 : 0.056797452271, Q3 : -0.125097200274, Q4 : 0.267670303583}
2019-04-14 05:07:11.31: SIM {TimeUS : 57334557, Roll : 1.8, Pitch : -15.68, Yaw : 31.89, Alt : 49.2799987793, Lat : 49.2836164, Lng : -123.1149728, Q1 : 0.951803028584, Q2 : 0.0525046885014, Q3 : -0.126916095614, Q4 : 0.274238228798}
2019-04-14 05:07:11.41: SIM {TimeUS : 57434517, Roll : 1.04, Pitch : -15.82, Yaw : 32.99, Alt : 49.2799987793, Lat : 49.2836187, Lng : -123.1149701, Q1 : 0.949301242828, Q2 : 0.0477393865585, Q3 : -0.12939144671, Q4 : 0.28249964118}
2019-04-14 05:07:11.51: SIM {TimeUS : 57534477, Roll : 0.29, Pitch : -15.96, Yaw : 34.16, Alt : 49.2799987793, Lat : 49.2836212, Lng : -123.1149675, Q1 : 0.946503639221, Q2 : 0.0432052910328, Q3 : -0.132031932473, Q4 : 0.291258990765}
2019-04-14 05:07:11.61: SIM {TimeUS : 57634437, Roll : -0.37, Pitch : -16.1, Yaw : 35.26, Alt : 49.2799987793, Lat : 49.2836236, Lng : -123.1149648, Q1 : 0.943767547607, Q2 : 0.0393499545753, Q3 : -0.134434893727, Q4 : 0.299469083548}
2019-04-14 05:07:11.71: SIM {TimeUS : 57734397, Roll : -0.88, Pitch : -16.19, Yaw : 36.17, Alt : 49.2799987793, Lat : 49.2836262, Lng : -123.1149621, Q1 : 0.941412806511, Q2 : 0.0364619530737, Q3 : -0.136286959052, Q4 : 0.306330412626}
2019-04-14 05:07:11.81: SIM {TimeUS : 57834357, Roll : -1.2, Pitch : -16.25, Yaw : 36.83, Alt : 49.2799987793, Lat : 49.2836287, Lng : -123.1149593, Q1 : 0.939664661884, Q2 : 0.0347825959325, Q3 : -0.137442544103, Q4 : 0.311335921288}
2019-04-14 05:07:11.91: SIM {TimeUS : 57934317, Roll : -1.33, Pitch : -16.31, Yaw : 37.21, Alt : 49.2799987793, Lat : 49.2836312, Lng : -123.1149564, Q1 : 0.938606321812, Q2 : 0.0343553908169, Q3 : -0.138121441007, Q4 : 0.314261585474}
2019-04-14 05:07:12.01: SIM {TimeUS : 58034277, Roll : -1.29, Pitch : -16.37, Yaw : 37.31, Alt : 49.2799987793, Lat : 49.283634, Lng : -123.1149536, Q1 : 0.938242614269, Q2 : 0.0349265560508, Q3 : -0.13847848773, Q4 : 0.315126478672}
2019-04-14 05:07:12.11: SIM {TimeUS : 58134237, Roll : -1.14, Pitch : -16.42, Yaw : 37.18, Alt : 49.2799987793, Lat : 49.2836366, Lng : -123.1149507, Q1 : 0.938499748707, Q2 : 0.0362093783915, Q3 : -0.138560578227, Q4 : 0.31417837739}
2019-04-14 05:07:12.21: SIM {TimeUS : 58234197, Roll : -0.89, Pitch : -16.46, Yaw : 36.86, Alt : 49.2799987793, Lat : 49.2836395, Lng : -123.1149478, Q1 : 0.939250290394, Q2 : 0.037966851145, Q3 : -0.138270005584, Q4 : 0.311847656965}
2019-04-14 05:07:12.31: SIM {TimeUS : 58334157, Roll : -0.57, Pitch : -16.48, Yaw : 36.42, Alt : 49.2799987793, Lat : 49.2836421, Lng : -123.1149449, Q1 : 0.940298616886, Q2 : 0.0400922484696, Q3 : -0.13774921, Q4 : 0.308636248112}
2019-04-14 05:07:12.41: SIM {TimeUS : 58434117, Roll : -0.26, Pitch : -16.5, Yaw : 35.94, Alt : 49.2799987793, Lat : 49.283645, Lng : -123.1149419, Q1 : 0.94146156311, Q2 : 0.0421384461224, Q3 : -0.137269422412, Q4 : 0.305010765791}
2019-04-14 05:07:12.51: SIM {TimeUS : 58534077, Roll : 0.03, Pitch : -16.54, Yaw : 35.46, Alt : 49.2900009155, Lat : 49.2836479, Lng : -123.1149389, Q1 : 0.942567527294, Q2 : 0.0441103614867, Q3 : -0.136916920543, Q4 : 0.301454007626}
2019-04-14 05:07:12.61: SIM {TimeUS : 58634037, Roll : 0.3, Pitch : -16.56, Yaw : 35.05, Alt : 49.2900009155, Lat : 49.2836507, Lng : -123.1149359, Q1 : 0.943515181541, Q2 : 0.0459094718099, Q3 : -0.136598095298, Q4 : 0.298349440098}
2019-04-14 05:07:12.72: SIM {TimeUS : 58734830, Roll : 0.5, Pitch : -16.59, Yaw : 34.72, Alt : 49.2900009155, Lat : 49.2836536, Lng : -123.1149328, Q1 : 0.944248557091, Q2 : 0.0472074858844, Q3 : -0.136395692825, Q4 : 0.295909374952}
2019-04-14 05:07:12.81: SIM {TimeUS : 58834790, Roll : 0.59, Pitch : -16.62, Yaw : 34.51, Alt : 49.2900009155, Lat : 49.2836566, Lng : -123.1149296, Q1 : 0.944704473019, Q2 : 0.0477973334491, Q3 : -0.136561542749, Q4 : 0.294278502464}
2019-04-14 05:07:12.91: SIM {TimeUS : 58934750, Roll : 0.59, Pitch : -16.68, Yaw : 34.42, Alt : 49.2900009155, Lat : 49.2836595, Lng : -123.1149265, Q1 : 0.944870114326, Q2 : 0.0478616654873, Q3 : -0.137088358402, Q4 : 0.293490171432}
2019-04-14 05:07:13.01: SIM {TimeUS : 59034710, Roll : 0.52, Pitch : -16.76, Yaw : 34.43, Alt : 49.2900009155, Lat : 49.2836625, Lng : -123.1149233, Q1 : 0.94478648901, Q2 : 0.0474652461708, Q3 : -0.137871876359, Q4 : 0.293456822634}
2019-04-14 05:07:13.11: SIM {TimeUS : 59134670, Roll : 0.4, Pitch : -16.81, Yaw : 34.52, Alt : 49.2900009155, Lat : 49.2836655, Lng : -123.1149201, Q1 : 0.944527447224, Q2 : 0.0467630960047, Q3 : -0.138604551554, Q4 : 0.294057697058}
2019-04-14 05:07:13.21: SIM {TimeUS : 59234630, Roll : 0.27, Pitch : -16.86, Yaw : 34.67, Alt : 49.2900009155, Lat : 49.2836685, Lng : -123.1149168, Q1 : 0.944146811962, Q2 : 0.0459751188755, Q3 : -0.139234870672, Q4 : 0.295104622841}
2019-04-14 05:07:13.31: SIM {TimeUS : 59334590, Roll : 0.15, Pitch : -16.89, Yaw : 34.84, Alt : 49.2900009155, Lat : 49.2836714, Lng : -123.1149135, Q1 : 0.94369918108, Q2 : 0.0452562645078, Q3 : -0.139768645167, Q4 : 0.296392560005}
2019-04-14 05:07:13.41: SIM {TimeUS : 59434550, Roll : 0.04, Pitch : -16.92, Yaw : 35.02, Alt : 49.2900009155, Lat : 49.2836744, Lng : -123.1149102, Q1 : 0.943247020245, Q2 : 0.0446514189243, Q3 : -0.14018855989, Q4 : 0.297722280025}
2019-04-14 05:07:13.51: SIM {TimeUS : 59534510, Roll : -0.03, Pitch : -16.94, Yaw : 35.18, Alt : 49.2900009155, Lat : 49.2836776, Lng : -123.1149069, Q1 : 0.942839503288, Q2 : 0.0442168414593, Q3 : -0.140532419086, Q4 : 0.298913359642}
2019-04-14 05:07:13.61: SIM {TimeUS : 59634470, Roll : -0.08, Pitch : -16.96, Yaw : 35.31, Alt : 49.2900009155, Lat : 49.2836807, Lng : -123.1149036, Q1 : 0.942501425743, Q2 : 0.0440385825932, Q3 : -0.140809863806, Q4 : 0.299873828888}
2019-04-14 05:07:13.71: SIM {TimeUS : 59734430, Roll : -0.11, Pitch : -16.99, Yaw : 35.39, Alt : 49.2900009155, Lat : 49.2836838, Lng : -123.1149002, Q1 : 0.942268967628, Q2 : 0.0439474992454, Q3 : -0.141065359116, Q4 : 0.300496846437}
2019-04-14 05:07:13.81: SIM {TimeUS : 59834390, Roll : -0.13, Pitch : -17.01, Yaw : 35.42, Alt : 49.2999992371, Lat : 49.2836869, Lng : -123.1148969, Q1 : 0.942152321339, Q2 : 0.0439298227429, Q3 : -0.141312107444, Q4 : 0.300749242306}
2019-04-14 05:07:13.91: SIM {TimeUS : 59934350, Roll : -0.12, Pitch : -17.04, Yaw : 35.41, Alt : 49.2999992371, Lat : 49.28369, Lng : -123.1148935, Q1 : 0.942132771015, Q2 : 0.0440925173461, Q3 : -0.141535177827, Q4 : 0.300681769848}
2019-04-14 05:07:14.01: SIM {TimeUS : 60034310, Roll : -0.09, Pitch : -17.08, Yaw : 35.37, Alt : 49.2999992371, Lat : 49.2836931, Lng : -123.1148901, Q1 : 0.942198634148, Q2 : 0.0443289466202, Q3 : -0.141772314906, Q4 : 0.300328701735}
2019-04-14 05:07:14.11: SIM {TimeUS : 60134270, Roll : -0.08, Pitch : -17.11, Yaw : 35.3, Alt : 49.2999992371, Lat : 49.2836962, Lng : -123.1148866, Q1 : 0.942336857319, Q2 : 0.0444704145193, Q3 : -0.142032727599, Q4 : 0.299750566483}
2019-04-14 05:07:14.21: SIM {TimeUS : 60234230, Roll : -0.06, Pitch : -17.13, Yaw : 35.21, Alt : 49.2999992371, Lat : 49.2836995, Lng : -123.1148832, Q1 : 0.942536473274, Q2 : 0.0445621982217, Q3 : -0.142184883356, Q4 : 0.299036175013}
2019-04-14 05:07:14.31: SIM {TimeUS : 60334190, Roll : -0.04, Pitch : -17.16, Yaw : 35.11, Alt : 49.2999992371, Lat : 49.2837027, Lng : -123.1148798, Q1 : 0.942751288414, Q2 : 0.0446771755815, Q3 : -0.1423458606, Q4 : 0.298264324665}
2019-04-14 05:07:14.41: SIM {TimeUS : 60434150, Roll : 0.0, Pitch : -17.19, Yaw : 35.02, Alt : 49.2999992371, Lat : 49.2837059, Lng : -123.1148763, Q1 : 0.942935168743, Q2 : 0.0450132824481, Q3 : -0.142548054457, Q4 : 0.297535032034}
2019-04-14 05:07:14.51: SIM {TimeUS : 60534110, Roll : 0.06, Pitch : -17.23, Yaw : 34.94, Alt : 49.2999992371, Lat : 49.283709, Lng : -123.1148728, Q1 : 0.943081796169, Q2 : 0.0454796478152, Q3 : -0.142745703459, Q4 : 0.296904057264}
2019-04-14 05:07:14.61: SIM {TimeUS : 60634070, Roll : 0.12, Pitch : -17.26, Yaw : 34.87, Alt : 49.2999992371, Lat : 49.2837123, Lng : -123.1148693, Q1 : 0.943190395832, Q2 : 0.0460040643811, Q3 : -0.142900824547, Q4 : 0.296403348446}
2019-04-14 05:07:14.71: SIM {TimeUS : 60734030, Roll : 0.18, Pitch : -17.3, Yaw : 34.82, Alt : 49.3100013733, Lat : 49.2837156, Lng : -123.1148658, Q1 : 0.94324606657, Q2 : 0.0465574748814, Q3 : -0.143091470003, Q4 : 0.296047568321}
2019-04-14 05:07:14.82: SIM {TimeUS : 60834823, Roll : 0.22, Pitch : -17.34, Yaw : 34.78, Alt : 49.3100013733, Lat : 49.2837187, Lng : -123.1148623, Q1 : 0.943271160126, Q2 : 0.0468958280981, Q3 : -0.143294602633, Q4 : 0.295815914869}
2019-04-14 05:07:14.91: SIM {TimeUS : 60934783, Roll : 0.2, Pitch : -17.35, Yaw : 34.77, Alt : 49.3100013733, Lat : 49.2837221, Lng : -123.1148587, Q1 : 0.943295061588, Q2 : 0.0468033216894, Q3 : -0.143451809883, Q4 : 0.295677870512}
2019-04-14 05:07:15.01: SIM {TimeUS : 61034743, Roll : 0.16, Pitch : -17.36, Yaw : 34.77, Alt : 49.3100013733, Lat : 49.2837253, Lng : -123.1148552, Q1 : 0.943308949471, Q2 : 0.0464215278625, Q3 : -0.143606871367, Q4 : 0.29561856389}
2019-04-14 05:07:15.11: SIM {TimeUS : 61134703, Roll : 0.11, Pitch : -17.36, Yaw : 34.78, Alt : 49.3100013733, Lat : 49.2837287, Lng : -123.1148516, Q1 : 0.943296551704, Q2 : 0.0461044125259, Q3 : -0.143729194999, Q4 : 0.295648306608}
2019-04-14 05:07:15.21: SIM {TimeUS : 61234663, Roll : 0.09, Pitch : -17.38, Yaw : 34.8, Alt : 49.3100013733, Lat : 49.283732, Lng : -123.114848, Q1 : 0.943243265152, Q2 : 0.0459734164178, Q3 : -0.143942803144, Q4 : 0.295734792948}
2019-04-14 05:07:15.31: SIM {TimeUS : 61334623, Roll : 0.1, Pitch : -17.42, Yaw : 34.81, Alt : 49.3100013733, Lat : 49.2837352, Lng : -123.1148445, Q1 : 0.943149209023, Q2 : 0.0461622215807, Q3 : -0.14424186945, Q4 : 0.295859694481}
2019-04-14 05:07:15.41: SIM {TimeUS : 61434583, Roll : 0.12, Pitch : -17.47, Yaw : 34.82, Alt : 49.3100013733, Lat : 49.2837386, Lng : -123.1148409, Q1 : 0.943034231663, Q2 : 0.0465183481574, Q3 : -0.144649490714, Q4 : 0.295971244574}
2019-04-14 05:07:15.51: SIM {TimeUS : 61534543, Roll : 0.13, Pitch : -17.51, Yaw : 34.83, Alt : 49.3100013733, Lat : 49.2837418, Lng : -123.1148373, Q1 : 0.942974686623, Q2 : 0.0466551929712, Q3 : -0.144892930984, Q4 : 0.296020358801}
2019-04-14 05:07:15.61: SIM {TimeUS : 61634503, Roll : 0.13, Pitch : -17.51, Yaw : 34.83, Alt : 49.3100013733, Lat : 49.2837452, Lng : -123.1148337, Q1 : 0.942974328995, Q2 : 0.0466560013592, Q3 : -0.144894838333, Q4 : 0.296020537615}
2019-04-14 05:07:15.71: SIM {TimeUS : 61734463, Roll : 0.12, Pitch : -17.51, Yaw : 34.82, Alt : 49.3199996948, Lat : 49.2837485, Lng : -123.11483, Q1 : 0.942990779877, Q2 : 0.0466013327241, Q3 : -0.144956722856, Q4 : 0.295946389437}
2019-04-14 05:07:15.81: SIM {TimeUS : 61834423, Roll : 0.1, Pitch : -17.54, Yaw : 34.81, Alt : 49.3199996948, Lat : 49.2837519, Lng : -123.1148264, Q1 : 0.94300109148, Q2 : 0.0465174689889, Q3 : -0.145215451717, Q4 : 0.295799791813}
2019-04-14 05:07:15.91: SIM {TimeUS : 61934383, Roll : 0.1, Pitch : -17.56, Yaw : 34.79, Alt : 49.3199996948, Lat : 49.2837552, Lng : -123.1148228, Q1 : 0.943020880222, Q2 : 0.046522282064, Q3 : -0.145405143499, Q4 : 0.295642852783}
2019-04-14 05:07:16.01: SIM {TimeUS : 62034343, Roll : 0.11, Pitch : -17.58, Yaw : 34.77, Alt : 49.3199996948, Lat : 49.2837586, Lng : -123.1148191, Q1 : 0.943047046661, Q2 : 0.0465926118195, Q3 : -0.145568206906, Q4 : 0.295467942953}
2019-04-14 05:07:16.11: SIM {TimeUS : 62134303, Roll : 0.11, Pitch : -17.59, Yaw : 34.75, Alt : 49.3199996948, Lat : 49.2837619, Lng : -123.1148155, Q1 : 0.943085491657, Q2 : 0.046654060483, Q3 : -0.145671591163, Q4 : 0.295284539461}
2019-04-14 05:07:16.21: SIM {TimeUS : 62234263, Roll : 0.13, Pitch : -17.61, Yaw : 34.72, Alt : 49.3199996948, Lat : 49.2837654, Lng : -123.1148118, Q1 : 0.943118214607, Q2 : 0.0468305237591, Q3 : -0.145787999034, Q4 : 0.295094519854}
2019-04-14 05:07:16.31: SIM {TimeUS : 62334223, Roll : 0.15, Pitch : -17.62, Yaw : 34.7, Alt : 49.3199996948, Lat : 49.2837688, Lng : -123.1148082, Q1 : 0.943163871765, Q2 : 0.0469891801476, Q3 : -0.145810857415, Q4 : 0.294912040234}
2019-04-14 05:07:16.41: SIM {TimeUS : 62434183, Roll : 0.18, Pitch : -17.63, Yaw : 34.67, Alt : 49.3199996948, Lat : 49.2837721, Lng : -123.1148045, Q1 : 0.943204760551, Q2 : 0.0471869260073, Q3 : -0.145821034908, Q4 : 0.294744729996}
2019-04-14 05:07:16.51: SIM {TimeUS : 62534143, Roll : 0.2, Pitch : -17.64, Yaw : 34.65, Alt : 49.3199996948, Lat : 49.2837756, Lng : -123.1148008, Q1 : 0.943228602409, Q2 : 0.0474024750292, Q3 : -0.145901858807, Q4 : 0.294593840837}
2019-04-14 05:07:16.61: SIM {TimeUS : 62634103, Roll : 0.2, Pitch : -17.68, Yaw : 34.63, Alt : 49.3199996948, Lat : 49.2837789, Lng : -123.1147971, Q1 : 0.943226456642, Q2 : 0.0474826395512, Q3 : -0.146209165454, Q4 : 0.294435411692}
2019-04-14 05:07:16.71: SIM {TimeUS : 62734063, Roll : 0.18, Pitch : -17.72, Yaw : 34.62, Alt : 49.3199996948, Lat : 49.2837824, Lng : -123.1147934, Q1 : 0.943217635155, Q2 : 0.0474096536636, Q3 : -0.146615430713, Q4 : 0.294273287058}
2019-04-14 05:07:16.81: SIM {TimeUS : 62834023, Roll : 0.16, Pitch : -17.77, Yaw : 34.61, Alt : 49.3199996948, Lat : 49.2837857, Lng : -123.1147897, Q1 : 0.943201065063, Q2 : 0.0473323836923, Q3 : -0.147040978074, Q4 : 0.294126421213}
2019-04-14 05:07:16.91: SIM {TimeUS : 62934816, Roll : 0.16, Pitch : -17.8, Yaw : 34.6, Alt : 49.3199996948, Lat : 49.2837892, Lng : -123.114786, Q1 : 0.943186223507, Q2 : 0.0473906099796, Q3 : -0.147317007184, Q4 : 0.294026494026}
2019-04-14 05:07:17.01: SIM {TimeUS : 63034776, Roll : 0.17, Pitch : -17.81, Yaw : 34.59, Alt : 49.3199996948, Lat : 49.2837927, Lng : -123.1147822, Q1 : 0.943196833134, Q2 : 0.0474827624857, Q3 : -0.147366821766, Q4 : 0.293952673674}
2019-04-14 05:07:17.11: SIM {TimeUS : 63134736, Roll : 0.18, Pitch : -17.78, Yaw : 34.58, Alt : 49.3300018311, Lat : 49.2837962, Lng : -123.1147786, Q1 : 0.943248748779, Q2 : 0.0475192181766, Q3 : -0.147142857313, Q4 : 0.29389244318}
2019-04-14 05:07:17.21: SIM {TimeUS : 63234696, Roll : 0.18, Pitch : -17.77, Yaw : 34.57, Alt : 49.3300018311, Lat : 49.2837995, Lng : -123.1147748, Q1 : 0.943298637867, Q2 : 0.0474149547517, Q3 : -0.147003650665, Q4 : 0.29381865263}
2019-04-14 05:07:17.31: SIM {TimeUS : 63334656, Roll : 0.17, Pitch : -17.76, Yaw : 34.56, Alt : 49.3300018311, Lat : 49.2838031, Lng : -123.1147711, Q1 : 0.943336725235, Q2 : 0.0473159588873, Q3 : -0.146945029497, Q4 : 0.293741703033}
2019-04-14 05:07:17.41: SIM {TimeUS : 63434616, Roll : 0.17, Pitch : -17.75, Yaw : 34.55, Alt : 49.3300018311, Lat : 49.2838066, Lng : -123.1147673, Q1 : 0.943369150162, Q2 : 0.047300323844, Q3 : -0.14689090848, Q4 : 0.293667167425}
2019-04-14 05:07:17.51: SIM {TimeUS : 63534576, Roll : 0.18, Pitch : -17.76, Yaw : 34.54, Alt : 49.3300018311, Lat : 49.2838099, Lng : -123.1147636, Q1 : 0.943374454975, Q2 : 0.0473365746439, Q3 : -0.147011354566, Q4 : 0.293583989143}
2019-04-14 05:07:17.61: SIM {TimeUS : 63634536, Roll : 0.19, Pitch : -17.78, Yaw : 34.53, Alt : 49.3300018311, Lat : 49.2838135, Lng : -123.1147597, Q1 : 0.943367481232, Q2 : 0.0474619194865, Q3 : -0.147165611386, Q4 : 0.293508976698}
2019-04-14 05:07:17.71: SIM {TimeUS : 63734496, Roll : 0.18, Pitch : -17.82, Yaw : 34.52, Alt : 49.3300018311, Lat : 49.283817, Lng : -123.1147561, Q1 : 0.943349599838, Q2 : 0.0475053749979, Q3 : -0.14746966958, Q4 : 0.29340672493}
2019-04-14 05:07:17.81: SIM {TimeUS : 63834456, Roll : 0.18, Pitch : -17.86, Yaw : 34.51, Alt : 49.3300018311, Lat : 49.2838205, Lng : -123.1147523, Q1 : 0.943320095539, Q2 : 0.0475616492331, Q3 : -0.147858515382, Q4 : 0.293296664953}
2019-04-14 05:07:17.91: SIM {TimeUS : 63934416, Roll : 0.18, Pitch : -17.9, Yaw : 34.5, Alt : 49.3300018311, Lat : 49.2838238, Lng : -123.1147485, Q1 : 0.94329893589, Q2 : 0.047645252198, Q3 : -0.148145794868, Q4 : 0.293206334114}
2019-04-14 05:07:18.01: SIM {TimeUS : 64034376, Roll : 0.17, Pitch : -17.93, Yaw : 34.49, Alt : 49.3300018311, Lat : 49.2838274, Lng : -123.1147448, Q1 : 0.94328892231, Q2 : 0.0476553142071, Q3 : -0.148404195905, Q4 : 0.293106108904}
2019-04-14 05:07:18.11: SIM {TimeUS : 64134336, Roll : 0.16, Pitch : -17.95, Yaw : 34.48, Alt : 49.3300018311, Lat : 49.2838309, Lng : -123.114741, Q1 : 0.943293452263, Q2 : 0.0476124361157, Q3 : -0.148593768477, Q4 : 0.293002486229}
2019-04-14 05:07:18.21: SIM {TimeUS : 64234296, Roll : 0.17, Pitch : -17.94, Yaw : 34.47, Alt : 49.3300018311, Lat : 49.2838343, Lng : -123.1147372, Q1 : 0.943322837353, Q2 : 0.0476775206625, Q3 : -0.148529067636, Q4 : 0.292930096388}
2019-04-14 05:07:18.31: SIM {TimeUS : 64334256, Roll : 0.19, Pitch : -17.95, Yaw : 34.46, Alt : 49.3300018311, Lat : 49.2838378, Lng : -123.1147334, Q1 : 0.94333845377, Q2 : 0.0478572100401, Q3 : -0.148522809148, Q4 : 0.292853653431}
2019-04-14 05:07:18.41: SIM {TimeUS : 64434216, Roll : 0.2, Pitch : -17.96, Yaw : 34.44, Alt : 49.3300018311, Lat : 49.2838414, Lng : -123.1147297, Q1 : 0.94334846735, Q2 : 0.0479160137475, Q3 : -0.148651584983, Q4 : 0.292746514082}
2019-04-14 05:07:18.51: SIM {TimeUS : 64534176, Roll : 0.2, Pitch : -17.97, Yaw : 34.43, Alt : 49.3300018311, Lat : 49.283845, Lng : -123.1147259, Q1 : 0.943371713161, Q2 : 0.0479648634791, Q3 : -0.148691385984, Q4 : 0.292643249035}
2019-04-14 05:07:18.61: SIM {TimeUS : 64634136, Roll : 0.21, Pitch : -17.96, Yaw : 34.42, Alt : 49.3400001526, Lat : 49.2838485, Lng : -123.1147221, Q1 : 0.943411946297, Q2 : 0.0479849129915, Q3 : -0.148603916168, Q4 : 0.29255464673}
2019-04-14 05:07:18.71: SIM {TimeUS : 64734096, Roll : 0.21, Pitch : -17.95, Yaw : 34.41, Alt : 49.3400001526, Lat : 49.2838519, Lng : -123.1147183, Q1 : 0.943449139595, Q2 : 0.0479795150459, Q3 : -0.148541137576, Q4 : 0.292467564344}
2019-04-14 05:07:18.81: SIM {TimeUS : 64834056, Roll : 0.2, Pitch : -17.97, Yaw : 34.4, Alt : 49.3400001526, Lat : 49.2838554, Lng : -123.1147145, Q1 : 0.943465709686, Q2 : 0.0478658638895, Q3 : -0.148708671331, Q4 : 0.29234752059}
2019-04-14 05:07:18.92: SIM {TimeUS : 64934849, Roll : 0.17, Pitch : -18.01, Yaw : 34.38, Alt : 49.3400001526, Lat : 49.2838591, Lng : -123.1147106, Q1 : 0.943458974361, Q2 : 0.0476946979761, Q3 : -0.149086713791, Q4 : 0.292204588652}
2019-04-14 05:07:19.01: SIM {TimeUS : 65034809, Roll : 0.15, Pitch : -18.01, Yaw : 34.37, Alt : 49.3400001526, Lat : 49.2838626, Lng : -123.1147068, Q1 : 0.943482041359, Q2 : 0.0475801862776, Q3 : -0.149191439152, Q4 : 0.29209536314}
2019-04-14 05:07:19.11: SIM {TimeUS : 65134769, Roll : 0.16, Pitch : -18.0, Yaw : 34.36, Alt : 49.3400001526, Lat : 49.2838662, Lng : -123.114703, Q1 : 0.943519592285, Q2 : 0.0476223677397, Q3 : -0.149072572589, Q4 : 0.292027801275}
2019-04-14 05:07:19.21: SIM {TimeUS : 65234729, Roll : 0.18, Pitch : -17.99, Yaw : 34.35, Alt : 49.3400001526, Lat : 49.2838696, Lng : -123.1146992, Q1 : 0.943552434444, Q2 : 0.047742523253, Q3 : -0.148933902383, Q4 : 0.29197281599}
2019-04-14 05:07:19.31: SIM {TimeUS : 65334689, Roll : 0.19, Pitch : -18.0, Yaw : 34.34, Alt : 49.3400001526, Lat : 49.2838732, Lng : -123.1146953, Q1 : 0.943563044071, Q2 : 0.0478442981839, Q3 : -0.148992434144, Q4 : 0.29189196229}
2019-04-14 05:07:19.41: SIM {TimeUS : 65434649, Roll : 0.18, Pitch : -18.02, Yaw : 34.33, Alt : 49.3400001526, Lat : 49.2838767, Lng : -123.1146915, Q1 : 0.943567872047, Q2 : 0.0477972477674, Q3 : -0.149183496833, Q4 : 0.291786551476}
2019-04-14 05:07:19.51: SIM {TimeUS : 65534609, Roll : 0.16, Pitch : -18.04, Yaw : 34.32, Alt : 49.3400001526, Lat : 49.2838804, Lng : -123.1146877, Q1 : 0.943571269512, Q2 : 0.0476238168776, Q3 : -0.149449184537, Q4 : 0.291667938232}
2019-04-14 05:07:19.61: SIM {TimeUS : 65634569, Roll : 0.14, Pitch : -18.07, Yaw : 34.31, Alt : 49.3400001526, Lat : 49.2838839, Lng : -123.1146839, Q1 : 0.943569242954, Q2 : 0.0475275814533, Q3 : -0.149707257748, Q4 : 0.291557967663}
2019-04-14 05:07:19.71: SIM {TimeUS : 65734529, Roll : 0.14, Pitch : -18.09, Yaw : 34.3, Alt : 49.3400001526, Lat : 49.2838875, Lng : -123.1146801, Q1 : 0.943562686443, Q2 : 0.0476022399962, Q3 : -0.149906814098, Q4 : 0.291464328766}
2019-04-14 05:07:19.81: SIM {TimeUS : 65834489, Roll : 0.16, Pitch : -18.11, Yaw : 34.29, Alt : 49.3400001526, Lat : 49.2838909, Lng : -123.1146762, Q1 : 0.943559348583, Q2 : 0.0477426350117, Q3 : -0.150030046701, Q4 : 0.291388779879}
