2019-04-14 04:22:33.70: SIM {TimeUS : 39915694, Roll : 0.0, Pitch : 0.0, Yaw : 0.0, Alt : 30.1000003815, Lat : 49.28357, Lng : -123.11502, Q1 : 1.0, Q2 : 0.0, Q3 : 0.0, Q4 : 0.0}
2019-04-14 04:22:33.81: SIM {TimeUS : 40034813, Roll : 0.0, Pitch : 0.0, Yaw : 0.0, Alt : 30.1000003815, Lat : 49.28357, Lng : -123.11502, Q1 : 1.0, Q2 : 0.0, Q3 : 0.0, Q4 : 0.0}
2019-04-14 04:22:33.91: SIM {TimeUS : 40134773, Roll : 0.0, Pitch : 0.0, Yaw : 0.0, Alt : 30.1000003815, Lat : 49.28357, Lng : -123.11502, Q1 : 1.0, Q2 : 0.0, Q3 : 0.0, Q4 : 0.0}
2019-04-14 04:22:34.01: SIM {TimeUS : 40234733, Roll : 0.0, Pitch : 0.0, Yaw : 0.0, Alt : 30.1000003815, Lat : 49.28357, Lng : -123.11502, Q1 : 1.0, Q2 : 0.0, Q3 : 0.0, Q4 : 0.0}
2019-04-14 04:22:34.11: SIM {TimeUS : 40334693, Roll : 0.0, Pitch : 0.0, Yaw : 0.0, Alt : 30.1000003815, Lat : 49.28357, Lng : -123.11502, Q1 : 1.0, Q2 : 0.0, Q3 : 0.0, Q4 : 0.0}
2019-04-14 04:22:34.21: SIM {TimeUS : 40434653, Roll : 0.0, Pitch : 0.0, Yaw : 0.0, Alt : 30.1000003815, Lat : 49.28357, Lng : -123.11502, Q1 : 1.0, Q2 : 0.0, Q3 : 0.0, Q4 : 0.0}
2019-04-14 04:22:34.31: SIM {TimeUS : 40534613, Roll : 0.0, Pitch : 0.0, Yaw : 0.0, Alt : 30.1000003815, Lat : 49.28357, Lng : -123.11502, Q1 : 1.0, Q2 : 0.0, Q3 : 0.0, Q4 : 0.0}
2019-04-14 04:22:34.41: SIM {TimeUS : 40634573, Roll : 0.0, Pitch : 0.0, Yaw : 0.0, Alt : 30.1000003815, Lat : 49.28357, Lng : -123.11502, Q1 : 1.0, Q2 : 0.0, Q3 : 0.0, Q4 : 0.0}
2019-04-14 04:22:34.51: SIM {TimeUS : 40734533, Roll : 0.0, Pitch : 0.0, Yaw : 0.0, Alt : 30.1000003815, Lat : 49.28357, Lng : -123.11502, Q1 : 1.0, Q2 : 0.0, Q3 : 0.0, Q4 : 0.0}
2019-04-14 04:22:34.61: SIM {TimeUS : 40834493, Roll : 0.0, Pitch : 0.0, Yaw : 0.0, Alt : 30.1000003815, Lat : 49.28357, Lng : -123.11502, Q1 : 1.0, Q2 : 0.0, Q3 : 0.0, Q4 : 0.0}
2019-04-14 04:22:34.71: SIM {TimeUS : 40934453, Roll : 0.0, Pitch : 0.0, Yaw : 0.0, Alt : 30.1000003815, Lat : 49.28357, Lng : -123.11502, Q1 : 1.0, Q2 : 0.0, Q3 : 0.0, Q4 : 0.0}
2019-04-14 04:22:34.81: SIM {TimeUS : 41034413, Roll : 0.0, Pitch : 0.0, Yaw : 0.0, Alt : 30.1000003815, Lat : 49.28357, Lng : -123.11502, Q1 : 1.0, Q2 : 0.0, Q3 : 0.0, Q4 : 0.0}
2019-04-14 04:22:34.91: SIM {TimeUS : 41134373, Roll : 0.0, Pitch : 0.0, Yaw : 0.0, Alt : 30.1000003815, Lat : 49.28357, Lng : -123.11502, Q1 : 1.0, Q2 : 0.0, Q3 : 0.0, Q4 : 0.0}
2019-04-14 04:22:35.01: SIM {TimeUS : 41234333, Roll : 0.0, Pitch : 0.0, Yaw : 0.0, Alt : 30.1000003815, Lat : 49.28357, Lng : -123.11502, Q1 : 1.0, Q2 : 0.0, Q3 : 0.0, Q4 : 0.0}
2019-04-14 04:22:35.11: SIM {TimeUS : 41334293, Roll : 0.0, Pitch : 0.0, Yaw : 0.0, Alt : 30.1000003815, Lat : 49.28357, Lng : -123.11502, Q1 : 1.0, Q2 : 0.0, Q3 : 0.0, Q4 : 0.0}
2019-04-14 04:22:35.21: SIM {TimeUS : 41434253, Roll : 0.0, Pitch : 0.0, Yaw : 0.0, Alt : 30.1000003815, Lat : 49.28357, Lng : -123.11502, Q1 : 1.0, Q2 : 0.0, Q3 : 0.0, Q4 : 0.0}
2019-04-14 04:22:35.31: SIM {TimeUS : 41534213, Roll : 0.0, Pitch : 0.0, Yaw : 0.0, Alt : 30.1000003815, Lat : 49.28357, Lng : -123.11502, Q1 : 1.0, Q2 : 0.0, Q3 : 0.0, Q4 : 0.0}
2019-04-14 04:22:35.41: SIM {TimeUS : 41634173, Roll : 0.0, Pitch : 0.0, Yaw : 0.0, Alt : 30.1000003815, Lat : 49.28357, Lng : -123.11502, Q1 : 1.0, Q2 : 0.0, Q3 : 0.0, Q4 : 0.0}
2019-04-14 04:22:35.51: SIM {TimeUS : 41734133, Roll : 0.0, Pitch : 0.0, Yaw : 0.0, Alt : 30.1000003815, Lat : 49.28357, Lng : -123.11502, Q1 : 1.0, Q2 : 0.0, Q3 : 0.0, Q4 : 0.0}
2019-04-14 04:22:35.61: SIM {TimeUS : 41834093, Roll : 0.0, Pitch : 0.0, Yaw : 0.0, Alt : 30.1000003815, Lat : 49.28357, Lng : -123.11502, Q1 : 1.0, Q2 : 0.0, Q3 : 0.0, Q4 : 0.0}
2019-04-14 04:22:35.71: SIM {TimeUS : 41934053, Roll : 0.0, Pitch : 0.0, Yaw : 0.0, Alt : 30.1000003815, Lat : 49.28357, Lng : -123.11502, Q1 : 1.0, Q2 : 0.0, Q3 : 0.0, Q4 : 0.0}
2019-04-14 04:22:35.82: SIM {TimeUS : 42034846, Roll : 0.0, Pitch : 0.0, Yaw : 0.0, Alt : 30.1000003815, Lat : 49.28357, Lng : -123.11502, Q1 : 1.0, Q2 : 0.0, Q3 : 0.0, Q4 : 0.0}
2019-04-14 04:22:35.91: SIM {TimeUS : 42134806, Roll : 0.0, Pitch : 0.0, Yaw : 0.0, Alt : 30.1000003815, Lat : 49.28357, Lng : -123.11502, Q1 : 1.0, Q2 : 0.0, Q3 : 0.0, Q4 : 0.0}
2019-04-14 04:22:36.01: SIM {TimeUS : 42234766, Roll : 0.0, Pitch : 0.0, Yaw : 0.0, Alt : 30.1000003815, Lat : 49.28357, Lng : -123.11502, Q1 : 1.0, Q2 : 0.0, Q3 : 0.0, Q4 : 2.50972402582e-11}
2019-04-14 04:22:36.11: SIM {TimeUS : 42334726, Roll : 0.0, Pitch : 0.0, Yaw : 360.0, Alt : 30.1000003815, Lat : 49.28357, Lng : -123.11502, Q1 : 1.0, Q2 : 0.0, Q3 : 0.0, Q4 : -2.4248850039e-08}
2019-04-14 04:22:36.21: SIM {TimeUS : 42434686, Roll : 0.0, Pitch : 0.0, Yaw : 359.99, Alt : 30.1000003815, Lat : 49.28357, Lng : -123.11502, Q1 : 1.0, Q2 : 0.0, Q3 : 0.0, Q4 : -2.24946290928e-07}
2019-04-14 04:22:36.31: SIM {TimeUS : 42534646, Roll : 0.0, Pitch : 0.0, Yaw : 359.99, Alt : 30.1000003815, Lat : 49.28357, Lng : -123.11502, Q1 : 1.0, Q2 : 0.0, Q3 : 0.0, Q4 : -4.33072557371e-07}
2019-04-14 04:22:36.41: SIM {TimeUS : 42634606, Roll : 0.0, Pitch : 0.0, Yaw : 359.99, Alt : 30.1000003815, Lat : 49.28357, Lng : -123.11502, Q1 : 1.0, Q2 : 0.0, Q3 : 0.0, Q4 : -6.26563064543e-07}
2019-04-14 04:22:36.51: SIM {TimeUS : 42734566, Roll : 0.0, Pitch : 0.0, Yaw : 359.99, Alt : 30.1000003815, Lat : 49.28357, Lng : -123.11502, Q1 : 1.0, Q2 : 0.0, Q3 : 0.0, Q4 : -8.26377004159e-07}
2019-04-14 04:22:36.61: SIM {TimeUS : 42834526, Roll : 0.0, Pitch : 0.0, Yaw : 359.99, Alt : 30.1000003815, Lat : 49.28357, Lng : -123.11502, Q1 : 1.0, Q2 : 0.0, Q3 : 0.0, Q4 : -1.02474291452e-06}
2019-04-14 04:22:36.71: SIM {TimeUS : 42934486, Roll : 0.0, Pitch : 0.0, Yaw : 359.99, Alt : 30.1000003815, Lat : 49.28357, Lng : -123.11502, Q1 : 1.0, Q2 : 0.0, Q3 : 0.0, Q4 : -1.24459177187e-06}
2019-04-14 04:22:36.81: SIM {TimeUS : 43034446, Roll : 0.0, Pitch : 0.0, Yaw : 359.99, Alt : 30.1000003815, Lat : 49.28357, Lng : -123.11502, Q1 : 1.0, Q2 : 0.0, Q3 : 0.0, Q4 : -1.45909496041e-06}
2019-04-14 04:22:36.91: SIM {TimeUS : 43134406, Roll : 0.0, Pitch : 0.0, Yaw : 359.99, Alt : 30.1200008392, Lat : 49.28357, Lng : -123.11502, Q1 : 1.0, Q2 : 0.0, Q3 : 0.0, Q4 : -1.71579097241e-06}
2019-04-14 04:22:37.01: SIM {TimeUS : 43234366, Roll : 0.0, Pitch : 0.0, Yaw : 359.99, Alt : 30.1399993896, Lat : 49.28357, Lng : -123.11502, Q1 : 1.0, Q2 : 0.0, Q3 : 0.0, Q4 : -1.91641333913e-06}
2019-04-14 04:22:37.11: SIM {TimeUS : 43334326, Roll : 0.0, Pitch : 0.0, Yaw : 359.99, Alt : 30.1800003052, Lat : 49.28357, Lng : -123.11502, Q1 : 1.0, Q2 : 0.0, Q3 : 0.0, Q4 : -2.19818525693e-06}
2019-04-14 04:22:37.21: SIM {TimeUS : 43434286, Roll : 0.0, Pitch : 0.0, Yaw : 359.99, Alt : 30.2099990845, Lat : 49.28357, Lng : -123.11502, Q1 : 1.0, Q2 : -7.53603580961e-06, Q3 : -6.59044553686e-06, Q4 : -2.45959154199e-06}
2019-04-14 04:22:37.31: SIM {TimeUS : 43534246, Roll : -0.16, Pitch : -0.15, Yaw : 359.99, Alt : 30.2700004578, Lat : 49.28357, Lng : -123.11502, Q1 : 0.999997973442, Q2 : -0.00148071127478, Q3 : -0.00134852353949, Q4 : -1.90190039575e-05}
2019-04-14 04:22:37.41: SIM {TimeUS : 43634206, Roll : -0.45, Pitch : -0.44, Yaw : 359.99, Alt : 30.3899993896, Lat : 49.28357, Lng : -123.11502, Q1 : 0.999984502792, Q2 : -0.00396450795233, Q3 : -0.0039061291609, Q4 : -6.44387837383e-05}
2019-04-14 04:22:37.51: SIM {TimeUS : 43734166, Roll : -0.69, Pitch : -0.72, Yaw : 359.98, Alt : 30.5400009155, Lat : 49.28357, Lng : -123.11502, Q1 : 0.999961853027, Q2 : -0.00603724597022, Q3 : -0.0063127358444, Q4 : -0.000137578943395}
2019-04-14 04:22:37.61: SIM {TimeUS : 43834126, Roll : -0.79, Pitch : -0.84, Yaw : 359.98, Alt : 30.7000007629, Lat : 49.28357, Lng : -123.11502, Q1 : 0.999948680401, Q2 : -0.00696425884962, Q3 : -0.00735674845055, Q4 : -0.000223983777687}
2019-04-14 04:22:37.71: SIM {TimeUS : 43934086, Roll : -0.75, Pitch : -0.76, Yaw : 359.96, Alt : 30.8500003815, Lat : 49.28357, Lng : -123.1150201, Q1 : 0.999955713749, Q2 : -0.00661720568314, Q3 : -0.00668131513521, Q4 : -0.000313193566399}
2019-04-14 04:22:37.81: SIM {TimeUS : 44034046, Roll : -0.6, Pitch : -0.55, Yaw : 359.95, Alt : 31.0100002289, Lat : 49.2835701, Lng : -123.1150201, Q1 : 0.999973893166, Q2 : -0.00531134661287, Q3 : -0.00488229468465, Q4 : -0.000399128010031}
2019-04-14 04:22:37.92: SIM {TimeUS : 44134839, Roll : -0.4, Pitch : -0.31, Yaw : 359.94, Alt : 31.1599998474, Lat : 49.2835701, Lng : -123.1150202, Q1 : 0.99998986721, Q2 : -0.00352767249569, Q3 : -0.00276237586513, Q4 : -0.000472589716082}
2019-04-14 04:22:38.01: SIM {TimeUS : 44234799, Roll : -0.21, Pitch : -0.11, Yaw : 359.94, Alt : 31.3199996948, Lat : 49.2835702, Lng : -123.1150203, Q1 : 0.99999755621, Q2 : -0.0018997346051, Q3 : -0.00101746886503, Q4 : -0.000523306545801}
2019-04-14 04:22:38.11: SIM {TimeUS : 44334759, Roll : -0.07, Pitch : 0.01, Yaw : 359.93, Alt : 31.4899997711, Lat : 49.2835702, Lng : -123.1150204, Q1 : 0.999999642372, Q2 : -0.000657270138618, Q3 : 9.52990594669e-05, Q4 : -0.000559882784728}
2019-04-14 04:22:38.21: SIM {TimeUS : 44434719, Roll : 0.02, Pitch : 0.04, Yaw : 359.93, Alt : 31.6700000763, Lat : 49.2835702, Lng : -123.1150205, Q1 : 0.999999761581, Q2 : 0.000209218880627, Q3 : 0.000413045490859, Q4 : -0.000582998385653}
2019-04-14 04:22:38.31: SIM {TimeUS : 44534679, Roll : 0.07, Pitch : 0.03, Yaw : 359.93, Alt : 31.8400001526, Lat : 49.2835703, Lng : -123.1150205, Q1 : 0.999999582767, Q2 : 0.000624014413916, Q3 : 0.000315900193527, Q4 : -0.000596325146034}
2019-04-14 04:22:38.41: SIM {TimeUS : 44634639, Roll : 0.07, Pitch : 0.01, Yaw : 359.93, Alt : 32.0299987793, Lat : 49.2835703, Lng : -123.1150206, Q1 : 0.999999642372, Q2 : 0.000633350224234, Q3 : 0.000108303400339, Q4 : -0.000593749340624}
2019-04-14 04:22:38.51: SIM {TimeUS : 44734599, Roll : 0.06, Pitch : 0.0, Yaw : 359.93, Alt : 32.2099990845, Lat : 49.2835703, Lng : -123.1150207, Q1 : 0.999999701977, Q2 : 0.000534142774995, Q3 : -1.31977976707e-05, Q4 : -0.000577404978685}
2019-04-14 04:22:38.61: SIM {TimeUS : 44834559, Roll : 0.05, Pitch : 0.0, Yaw : 359.93, Alt : 32.4099998474, Lat : 49.2835703, Lng : -123.1150207, Q1 : 0.999999701977, Q2 : 0.000470931263408, Q3 : -2.53961916314e-05, Q4 : -0.0005514920922}
2019-04-14 04:22:38.71: SIM {TimeUS : 44934519, Roll : 0.06, Pitch : 0.01, Yaw : 359.93, Alt : 32.5999984741, Lat : 49.2835703, Lng : -123.1150208, Q1 : 0.999999701977, Q2 : 0.000551891222131, Q3 : 0.000114361355372, Q4 : -0.00052830047207}
2019-04-14 04:22:38.81: SIM {TimeUS : 45034479, Roll : 0.09, Pitch : 0.03, Yaw : 359.94, Alt : 32.7999992371, Lat : 49.2835703, Lng : -123.1150208, Q1 : 0.999999463558, Q2 : 0.000840230670292, Q3 : 0.000335489021381, Q4 : -0.000505919626448}
2019-04-14 04:22:38.91: SIM {TimeUS : 45134439, Roll : 0.14, Pitch : 0.06, Yaw : 359.94, Alt : 32.9900016785, Lat : 49.2835704, Lng : -123.1150208, Q1 : 0.999998867512, Q2 : 0.00126293557696, Q3 : 0.000608502188697, Q4 : -0.000499422603752}
2019-04-14 04:22:39.01: SIM {TimeUS : 45234399, Roll : 0.17, Pitch : 0.1, Yaw : 359.94, Alt : 33.2000007629, Lat : 49.2835704, Lng : -123.1150209, Q1 : 0.999998211861, Q2 : 0.00156596978195, Q3 : 0.000934889016207, Q4 : -0.000502278562635}
2019-04-14 04:22:39.11: SIM {TimeUS : 45334359, Roll : 0.18, Pitch : 0.13, Yaw : 359.94, Alt : 33.4000015259, Lat : 49.2835704, Lng : -123.1150209, Q1 : 0.999997854233, Q2 : 0.0016075426247, Q3 : 0.00121810473502, Q4 : -0.000503266346641}
2019-04-14 04:22:39.21: SIM {TimeUS : 45434319, Roll : 0.17, Pitch : 0.16, Yaw : 359.94, Alt : 33.6100006104, Lat : 49.2835704, Lng : -123.1150209, Q1 : 0.999997794628, Q2 : 0.00148589618038, Q3 : 0.00139964243863, Q4 : -0.000506567419507}
2019-04-14 04:22:39.31: SIM {TimeUS : 45534279, Roll : 0.15, Pitch : 0.17, Yaw : 359.94, Alt : 33.8100013733, Lat : 49.2835704, Lng : -123.1150209, Q1 : 0.999997735023, Q2 : 0.00137546670157, Q3 : 0.00154400151223, Q4 : -0.000516589381732}
2019-04-14 04:22:39.41: SIM {TimeUS : 45634239, Roll : 0.15, Pitch : 0.17, Yaw : 359.93, Alt : 34.0200004578, Lat : 49.2835706, Lng : -123.1150209, Q1 : 0.999997735023, Q2 : 0.00137559405994, Q3 : 0.00152145815082, Q4 : -0.000529739656486}
2019-04-14 04:22:39.51: SIM {TimeUS : 45734199, Roll : 0.15, Pitch : 0.16, Yaw : 359.93, Alt : 34.2299995422, Lat : 49.2835706, Lng : -123.1150209, Q1 : 0.999997854233, Q2 : 0.00135803373996, Q3 : 0.0014352487633, Q4 : -0.000548034673557}
2019-04-14 04:22:39.61: SIM {TimeUS : 45834159, Roll : 0.13, Pitch : 0.15, Yaw : 359.93, Alt : 34.4399986267, Lat : 49.2835706, Lng : -123.1150209, Q1 : 0.999998211861, Q2 : 0.00118780974299, Q3 : 0.0013455748558, Q4 : -0.000567771436181}
2019-04-14 04:22:39.71: SIM {TimeUS : 45934119, Roll : 0.11, Pitch : 0.11, Yaw : 359.93, Alt : 34.6599998474, Lat : 49.2835706, Lng : -123.1150209, Q1 : 0.999998807907, Q2 : 0.000996415386908, Q3 : 0.00101827003527, Q4 : -0.000576792284846}
2019-04-14 04:22:39.81: SIM {TimeUS : 46034079, Roll : 0.09, Pitch : 0.06, Yaw : 359.93, Alt : 34.8699989319, Lat : 49.2835706, Lng : -123.1150209, Q1 : 0.999999344349, Q2 : 0.000811233709101, Q3 : 0.000569066847675, Q4 : -0.000577034661546}
2019-04-14 04:22:39.91: SIM {TimeUS : 46134039, Roll : 0.06, Pitch : 0.03, Yaw : 359.93, Alt : 35.0900001526, Lat : 49.2835706, Lng : -123.1150209, Q1 : 0.999999582767, Q2 : 0.00059701903956, Q3 : 0.000288393523078, Q4 : -0.000600272906013}
2019-04-14 04:22:40.02: SIM {TimeUS : 46234832, Roll : 0.05, Pitch : 0.02, Yaw : 359.92, Alt : 35.3100013733, Lat : 49.2835706, Lng : -123.1150208, Q1 : 0.999999642372, Q2 : 0.000474832952023, Q3 : 0.000198269524844, Q4 : -0.000648577755783}
2019-04-14 04:22:40.11: SIM {TimeUS : 46334792, Roll : 0.05, Pitch : 0.02, Yaw : 359.91, Alt : 35.5200004578, Lat : 49.2835706, Lng : -123.1150208, Q1 : 0.999999582767, Q2 : 0.000486851669848, Q3 : 0.000242816298851, Q4 : -0.000711712578777}
2019-04-14 04:22:40.21: SIM {TimeUS : 46434752, Roll : 0.05, Pitch : 0.02, Yaw : 359.91, Alt : 35.7400016785, Lat : 49.2835706, Lng : -123.1150208, Q1 : 0.999999582767, Q2 : 0.000437401758973, Q3 : 0.000251734629273, Q4 : -0.000772277940996}
2019-04-14 04:22:40.31: SIM {TimeUS : 46534712, Roll : 0.02, Pitch : 0.02, Yaw : 359.9, Alt : 35.9599990845, Lat : 49.2835706, Lng : -123.1150208, Q1 : 0.999999642372, Q2 : 0.000184976684977, Q3 : 0.00022132624872, Q4 : -0.000818810483906}
2019-04-14 04:22:40.41: SIM {TimeUS : 46634672, Roll : 0.0, Pitch : 0.02, Yaw : 359.9, Alt : 36.1800003052, Lat : 49.2835706, Lng : -123.1150208, Q1 : 0.999999642372, Q2 : -5.67177630728e-05, Q3 : 0.000203516305191, Q4 : -0.000853645091411}
2019-04-14 04:22:40.51: SIM {TimeUS : 46734632, Roll : -0.01, Pitch : 0.04, Yaw : 359.89, Alt : 36.4000015259, Lat : 49.2835706, Lng : -123.1150208, Q1 : 0.999999523163, Q2 : -0.000170092913322, Q3 : 0.000386003521271, Q4 : -0.000882755673956}
2019-04-14 04:22:40.61: SIM {TimeUS : 46834592, Roll : -0.02, Pitch : 0.04, Yaw : 359.89, Alt : 36.6300010681, Lat : 49.2835706, Lng : -123.1150207, Q1 : 0.999999463558, Q2 : -0.000241279791226, Q3 : 0.000417824310716, Q4 : -0.000915912445635}
2019-04-14 04:22:40.71: SIM {TimeUS : 46934552, Roll : -0.02, Pitch : 0.04, Yaw : 359.89, Alt : 36.8499984741, Lat : 49.2835706, Lng : -123.1150207, Q1 : 0.999999463558, Q2 : -0.000231593498029, Q3 : 0.000351691385731, Q4 : -0.000948902859818}
2019-04-14 04:22:40.81: SIM {TimeUS : 47034512, Roll : -0.02, Pitch : 0.03, Yaw : 359.88, Alt : 37.0699996948, Lat : 49.2835706, Lng : -123.1150207, Q1 : 0.999999463558, Q2 : -0.00022446596995, Q3 : 0.000280434411252, Q4 : -0.000976477225777}
2019-04-14 04:22:40.91: SIM {TimeUS : 47134472, Roll : -0.02, Pitch : 0.02, Yaw : 359.88, Alt : 37.2999992371, Lat : 49.2835706, Lng : -123.1150207, Q1 : 0.999999463558, Q2 : -0.000192979539861, Q3 : 0.000214182568016, Q4 : -0.000991997425444}
2019-04-14 04:22:41.01: SIM {TimeUS : 47234432, Roll : 0.0, Pitch : 0.01, Yaw : 359.88, Alt : 37.5200004578, Lat : 49.2835704, Lng : -123.1150207, Q1 : 0.999999523163, Q2 : -7.51280749682e-05, Q3 : 0.000169016304426, Q4 : -0.00099433970172}
2019-04-14 04:22:41.11: SIM {TimeUS : 47334392, Roll : -0.01, Pitch : 0.0, Yaw : 359.88, Alt : 37.75, Lat : 49.2835704, Lng : -123.1150207, Q1 : 0.999999523163, Q2 : -0.000146527701872, Q3 : 1.73782082129e-05, Q4 : -0.000984433223493}
2019-04-14 04:22:41.21: SIM {TimeUS : 47434352, Roll : -0.04, Pitch : -0.02, Yaw : 359.88, Alt : 37.9799995422, Lat : 49.2835704, Lng : -123.1150207, Q1 : 0.999999463558, Q2 : -0.000371258094674, Q3 : -0.000226043659495, Q4 : -0.000969847955275}
2019-04-14 04:22:41.31: SIM {TimeUS : 47534312, Roll : -0.07, Pitch : -0.04, Yaw : 359.89, Alt : 38.2000007629, Lat : 49.2835704, Lng : -123.1150207, Q1 : 0.999999284744, Q2 : -0.000630073831417, Q3 : -0.000401049794164, Q4 : -0.000956589356065}
2019-04-14 04:22:41.41: SIM {TimeUS : 47634272, Roll : -0.09, Pitch : -0.04, Yaw : 359.89, Alt : 38.4300003052, Lat : 49.2835704, Lng : -123.1150207, Q1 : 0.99999910593, Q2 : -0.000860133266542, Q3 : -0.000399460026529, Q4 : -0.000953976006713}
2019-04-14 04:22:41.51: SIM {TimeUS : 47734232, Roll : -0.11, Pitch : -0.04, Yaw : 359.89, Alt : 38.6599998474, Lat : 49.2835704, Lng : -123.1150206, Q1 : 0.999998986721, Q2 : -0.000984650221653, Q3 : -0.000354456191417, Q4 : -0.000958699441981}
2019-04-14 04:22:41.61: SIM {TimeUS : 47834192, Roll : -0.11, Pitch : -0.03, Yaw : 359.88, Alt : 38.8899993896, Lat : 49.2835704, Lng : -123.1150206, Q1 : 0.999998986721, Q2 : -0.000981630408205, Q3 : -0.000337502977345, Q4 : -0.000969075539615}
2019-04-14 04:22:41.71: SIM {TimeUS : 47934152, Roll : -0.09, Pitch : -0.02, Yaw : 359.88, Alt : 39.1199989319, Lat : 49.2835704, Lng : -123.1150206, Q1 : 0.99999910593, Q2 : -0.000852453580592, Q3 : -0.000260269938735, Q4 : -0.000986500759609}
2019-04-14 04:22:41.81: SIM {TimeUS : 48034112, Roll : -0.07, Pitch : -0.03, Yaw : 359.88, Alt : 39.3499984741, Lat : 49.2835704, Lng : -123.1150206, Q1 : 0.99999922514, Q2 : -0.000631611503195, Q3 : -0.000346952030668, Q4 : -0.00101039500441}
2019-04-14 04:22:41.91: SIM {TimeUS : 48134072, Roll : -0.05, Pitch : -0.05, Yaw : 359.88, Alt : 39.5800018311, Lat : 49.2835704, Lng : -123.1150206, Q1 : 0.99999922514, Q2 : -0.00049993704306, Q3 : -0.00046408502385, Q4 : -0.00104578328319}
2019-04-14 04:22:42.01: SIM {TimeUS : 48234032, Roll : -0.04, Pitch : -0.04, Yaw : 359.87, Alt : 39.8100013733, Lat : 49.2835704, Lng : -123.1150206, Q1 : 0.99999922514, Q2 : -0.000434575136751, Q3 : -0.000416906783357, Q4 : -0.00107540294994}
2019-04-14 04:22:42.12: SIM {TimeUS : 48334825, Roll : -0.06, Pitch : -0.02, Yaw : 359.87, Alt : 40.0400009155, Lat : 49.2835704, Lng : -123.1150206, Q1 : 0.99999922514, Q2 : -0.000545300601516, Q3 : -0.000176632733201, Q4 : -0.00110601575579}
2019-04-14 04:22:42.21: SIM {TimeUS : 48434785, Roll : -0.06, Pitch : 0.01, Yaw : 359.86, Alt : 40.2700004578, Lat : 49.2835704, Lng : -123.1150206, Q1 : 0.99999922514, Q2 : -0.000549465825316, Q3 : 0.000103259248135, Q4 : -0.00114006025251}
2019-04-14 04:22:42.31: SIM {TimeUS : 48534745, Roll : -0.04, Pitch : 0.05, Yaw : 359.86, Alt : 40.5099983215, Lat : 49.2835704, Lng : -123.1150206, Q1 : 0.99999910593, Q2 : -0.000426101934863, Q3 : 0.00044854026055, Q4 : -0.00118238374125}
2019-04-14 04:22:42.41: SIM {TimeUS : 48634705, Roll : -0.03, Pitch : 0.06, Yaw : 359.86, Alt : 40.7400016785, Lat : 49.2835704, Lng : -123.1150207, Q1 : 0.999999046326, Q2 : -0.000268233969109, Q3 : 0.000601906271186, Q4 : -0.00121842091903}
2019-04-14 04:22:42.51: SIM {TimeUS : 48734665, Roll : 0.0, Pitch : 0.07, Yaw : 359.85, Alt : 40.9700012207, Lat : 49.2835704, Lng : -123.1150207, Q1 : 0.999999046326, Q2 : 4.51778078059e-06, Q3 : 0.000616739038378, Q4 : -0.00125253503211}
2019-04-14 04:22:42.61: SIM {TimeUS : 48834625, Roll : 0.03, Pitch : 0.08, Yaw : 359.85, Alt : 41.2000007629, Lat : 49.2835704, Lng : -123.1150207, Q1 : 0.999998867512, Q2 : 0.000336730765412, Q3 : 0.000714448397048, Q4 : -0.00128384225536}
2019-04-14 04:22:42.71: SIM {TimeUS : 48934585, Roll : 0.08, Pitch : 0.1, Yaw : 359.84, Alt : 41.4399986267, Lat : 49.2835704, Lng : -123.1150207, Q1 : 0.999998450279, Q2 : 0.000746169651393, Q3 : 0.000921324361116, Q4 : -0.0013128623832}
2019-04-14 04:22:42.81: SIM {TimeUS : 49034545, Roll : 0.11, Pitch : 0.12, Yaw : 359.84, Alt : 41.6699981689, Lat : 49.2835704, Lng : -123.1150207, Q1 : 0.999998033047, Q2 : 0.000967953528743, Q3 : 0.00111085281242, Q4 : -0.00134127039928}
2019-04-14 04:22:42.91: SIM {TimeUS : 49134505, Roll : 0.09, Pitch : 0.14, Yaw : 359.84, Alt : 41.9099998474, Lat : 49.2835706, Lng : -123.1150207, Q1 : 0.999997973442, Q2 : 0.000837853935082, Q3 : 0.00122724857647, Q4 : -0.00135593803134}
2019-04-14 04:22:43.01: SIM {TimeUS : 49234465, Roll : 0.05, Pitch : 0.14, Yaw : 359.84, Alt : 42.1399993896, Lat : 49.2835706, Lng : -123.1150207, Q1 : 0.999998152256, Q2 : 0.00044807663653, Q3 : 0.00129767425824, Q4 : -0.00136486394331}
2019-04-14 04:22:43.11: SIM {TimeUS : 49334425, Roll : 0.0, Pitch : 0.14, Yaw : 359.84, Alt : 42.3699989319, Lat : 49.2835706, Lng : -123.1150207, Q1 : 0.999998211861, Q2 : 4.98037625221e-05, Q3 : 0.00130731589161, Q4 : -0.00137779500801}
2019-04-14 04:22:43.21: SIM {TimeUS : 49434385, Roll : -0.01, Pitch : 0.11, Yaw : 359.84, Alt : 42.6100006104, Lat : 49.2835706, Lng : -123.1150207, Q1 : 0.999998509884, Q2 : -0.000124188853079, Q3 : 0.00103859498631, Q4 : -0.00139034248423}
2019-04-14 04:22:43.31: SIM {TimeUS : 49534345, Roll : -0.01, Pitch : 0.07, Yaw : 359.83, Alt : 42.8400001526, Lat : 49.2835704, Lng : -123.1150207, Q1 : 0.999998807907, Q2 : -0.000121479359223, Q3 : 0.000621343264356, Q4 : -0.0014053870691}
2019-04-14 04:22:43.41: SIM {TimeUS : 49634305, Roll : 0.0, Pitch : 0.06, Yaw : 359.83, Alt : 43.0800018311, Lat : 49.2835704, Lng : -123.1150207, Q1 : 0.999998867512, Q2 : -3.34616997861e-05, Q3 : 0.000545301067177, Q4 : -0.00142532493919}
2019-04-14 04:22:43.51: SIM {TimeUS : 49734265, Roll : 0.02, Pitch : 0.08, Yaw : 359.83, Alt : 43.3100013733, Lat : 49.2835704, Lng : -123.1150207, Q1 : 0.999998629093, Q2 : 0.000240363951889, Q3 : 0.0007407789235, Q4 : -0.00145347742364}
2019-04-14 04:22:43.61: SIM {TimeUS : 49834225, Roll : 0.08, Pitch : 0.11, Yaw : 359.83, Alt : 43.5499992371, Lat : 49.2835704, Lng : -123.1150207, Q1 : 0.999998152256, Q2 : 0.000705119688064, Q3 : 0.000995949376374, Q4 : -0.00147897063289}
2019-04-14 04:22:43.71: SIM {TimeUS : 49934185, Roll : 0.12, Pitch : 0.11, Yaw : 359.82, Alt : 43.7799987793, Lat : 49.2835704, Lng : -123.1150207, Q1 : 0.999997794628, Q2 : 0.00105189753231, Q3 : 0.00104006100446, Q4 : -0.0015113906702}
2019-04-14 04:22:43.81: SIM {TimeUS : 50034145, Roll : 0.12, Pitch : 0.1, Yaw : 359.82, Alt : 44.0200004578, Lat : 49.2835704, Lng : -123.1150207, Q1 : 0.999997794628, Q2 : 0.00105831003748, Q3 : 0.000945558655076, Q4 : -0.001541691483}
2019-04-14 04:22:43.91: SIM {TimeUS : 50134105, Roll : 0.07, Pitch : 0.08, Yaw : 359.82, Alt : 44.2599983215, Lat : 49.2835704, Lng : -123.1150207, Q1 : 0.999998211861, Q2 : 0.000696741626598, Q3 : 0.000776106491685, Q4 : -0.00155875261407}
2019-04-14 04:22:44.01: SIM {TimeUS : 50234065, Roll : 0.01, Pitch : 0.06, Yaw : 359.81, Alt : 44.4900016785, Lat : 49.2835704, Lng : -123.1150207, Q1 : 0.999998569489, Q2 : 0.000163307355251, Q3 : 0.000580757448915, Q4 : -0.00157231767662}
2019-04-14 04:22:44.11: SIM {TimeUS : 50334025, Roll : -0.02, Pitch : 0.05, Yaw : 359.81, Alt : 44.7299995422, Lat : 49.2835704, Lng : -123.1150206, Q1 : 0.999998629093, Q2 : -0.000198268127861, Q3 : 0.000473878200864, Q4 : -0.00158735166769}
2019-04-14 04:22:44.21: SIM {TimeUS : 50434818, Roll : -0.04, Pitch : 0.04, Yaw : 359.81, Alt : 44.9700012207, Lat : 49.2835704, Lng : -123.1150206, Q1 : 0.999998569489, Q2 : -0.000387950363802, Q3 : 0.000354396441253, Q4 : -0.00160641537514}
2019-04-14 04:22:44.31: SIM {TimeUS : 50534778, Roll : -0.03, Pitch : 0.01, Yaw : 359.81, Alt : 45.2000007629, Lat : 49.2835704, Lng : -123.1150206, Q1 : 0.999998569489, Q2 : -0.000346041546436, Q3 : 0.000163068209076, Q4 : -0.00164267979562}
2019-04-14 04:22:44.41: SIM {TimeUS : 50634738, Roll : -0.04, Pitch : 0.0, Yaw : 359.8, Alt : 45.4399986267, Lat : 49.2835704, Lng : -123.1150206, Q1 : 0.999998509884, Q2 : -0.000384141108952, Q3 : 1.85565731954e-05, Q4 : -0.00168481690343}
2019-04-14 04:22:44.51: SIM {TimeUS : 50734698, Roll : -0.03, Pitch : 0.0, Yaw : 359.8, Alt : 45.6699981689, Lat : 49.2835704, Lng : -123.1150206, Q1 : 0.999998450279, Q2 : -0.000308284652419, Q3 : -5.00527930853e-05, Q4 : -0.00172625773121}
2019-04-14 04:22:44.61: SIM {TimeUS : 50834658, Roll : -0.01, Pitch : 0.0, Yaw : 359.79, Alt : 45.9099998474, Lat : 49.2835703, Lng : -123.1150206, Q1 : 0.999998450279, Q2 : -0.000139390773256, Q3 : -2.76831342489e-05, Q4 : -0.00176740810275}
2019-04-14 04:22:44.71: SIM {TimeUS : 50934618, Roll : -0.01, Pitch : 0.0, Yaw : 359.79, Alt : 46.1399993896, Lat : 49.2835703, Lng : -123.1150206, Q1 : 0.999998390675, Q2 : -0.000109771979623, Q3 : 6.8370201916e-05, Q4 : -0.00179927051067}
2019-04-14 04:22:44.81: SIM {TimeUS : 51034578, Roll : -0.01, Pitch : 0.0, Yaw : 359.79, Alt : 46.3600006104, Lat : 49.2835703, Lng : -123.1150205, Q1 : 0.99999833107, Q2 : -0.000156908849021, Q3 : 4.92177678098e-05, Q4 : -0.00182284344919}
2019-04-14 04:22:44.91: SIM {TimeUS : 51134538, Roll : -0.02, Pitch : -0.01, Yaw : 359.78, Alt : 46.5800018311, Lat : 49.2835703, Lng : -123.1150205, Q1 : 0.999998271465, Q2 : -0.000225628755288, Q3 : -9.44819694269e-05, Q4 : -0.00184180308133}
2019-04-14 04:22:45.01: SIM {TimeUS : 51234498, Roll : -0.02, Pitch : -0.02, Yaw : 359.78, Alt : 46.7999992371, Lat : 49.2835703, Lng : -123.1150205, Q1 : 0.999998271465, Q2 : -0.000222463131649, Q3 : -0.000179025446414, Q4 : -0.00186092057265}
2019-04-14 04:22:45.11: SIM {TimeUS : 51334458, Roll : -0.02, Pitch : -0.02, Yaw : 359.78, Alt : 47.0099983215, Lat : 49.2835703, Lng : -123.1150205, Q1 : 0.999998211861, Q2 : -0.000176445639227, Q3 : -0.00022664401331, Q4 : -0.00187974481378}
2019-04-14 04:22:45.21: SIM {TimeUS : 51434418, Roll : -0.02, Pitch : -0.02, Yaw : 359.78, Alt : 47.2099990845, Lat : 49.2835703, Lng : -123.1150205, Q1 : 0.999998152256, Q2 : -0.000255195656791, Q3 : -0.000207373668673, Q4 : -0.00189892330673}
2019-04-14 04:22:45.31: SIM {TimeUS : 51534378, Roll : -0.05, Pitch : -0.01, Yaw : 359.77, Alt : 47.4099998474, Lat : 49.2835703, Lng : -123.1150205, Q1 : 0.999998033047, Q2 : -0.000479941954836, Q3 : -0.000140611824463, Q4 : -0.00192185060587}
2019-04-14 04:22:45.41: SIM {TimeUS : 51634338, Roll : -0.09, Pitch : -0.01, Yaw : 359.77, Alt : 47.5900001526, Lat : 49.2835703, Lng : -123.1150205, Q1 : 0.999997735023, Q2 : -0.000821445253678, Q3 : -0.000122028497572, Q4 : -0.00194953544997}
2019-04-14 04:22:45.51: SIM {TimeUS : 51734298, Roll : -0.14, Pitch : -0.03, Yaw : 359.77, Alt : 47.7700004578, Lat : 49.2835703, Lng : -123.1150205, Q1 : 0.999997198582, Q2 : -0.0012569532264, Q3 : -0.000291941221803, Q4 : -0.00198403489776}
2019-04-14 04:22:45.61: SIM {TimeUS : 51834258, Roll : -0.17, Pitch : -0.04, Yaw : 359.76, Alt : 47.9300003052, Lat : 49.2835703, Lng : -123.1150205, Q1 : 0.999996781349, Q2 : -0.00151286879554, Q3 : -0.000373376737116, Q4 : -0.00201904890127}
2019-04-14 04:22:45.71: SIM {TimeUS : 51934218, Roll : -0.17, Pitch : -0.03, Yaw : 359.76, Alt : 48.0900001526, Lat : 49.2835703, Lng : -123.1150205, Q1 : 0.99999666214, Q2 : -0.0015533050755, Q3 : -0.000291922042379, Q4 : -0.00205120560713}
2019-04-14 04:22:45.81: SIM {TimeUS : 52034178, Roll : -0.15, Pitch : -0.02, Yaw : 359.76, Alt : 48.2299995422, Lat : 49.2835703, Lng : -123.1150205, Q1 : 0.999996840954, Q2 : -0.00138723989949, Q3 : -0.000186398829101, Q4 : -0.00208351900801}
2019-04-14 04:22:45.91: SIM {TimeUS : 52134138, Roll : -0.12, Pitch : -0.01, Yaw : 359.75, Alt : 48.3600006104, Lat : 49.2835703, Lng : -123.1150205, Q1 : 0.999997138977, Q2 : -0.00112779694609, Q3 : -0.000132389817736, Q4 : -0.00211366522126}
2019-04-14 04:22:46.01: SIM {TimeUS : 52234098, Roll : -0.1, Pitch : -0.01, Yaw : 359.75, Alt : 48.4700012207, Lat : 49.2835703, Lng : -123.1150205, Q1 : 0.999997258186, Q2 : -0.000905289431103, Q3 : -0.000143051947816, Q4 : -0.00214391550981}
2019-04-14 04:22:46.11: SIM {TimeUS : 52334058, Roll : -0.07, Pitch : -0.02, Yaw : 359.75, Alt : 48.5800018311, Lat : 49.2835703, Lng : -123.1150205, Q1 : 0.999997377396, Q2 : -0.000663870421704, Q3 : -0.000249906734098, Q4 : -0.00217652390711}
2019-04-14 04:22:46.22: SIM {TimeUS : 52434851, Roll : -0.04, Pitch : -0.04, Yaw : 359.74, Alt : 48.6699981689, Lat : 49.2835703, Lng : -123.1150205, Q1 : 0.999997437, Q2 : -0.00037332487409, Q3 : -0.000358995224815, Q4 : -0.0022051455453}
2019-04-14 04:22:46.31: SIM {TimeUS : 52534811, Roll : -0.02, Pitch : -0.05, Yaw : 359.74, Alt : 48.75, Lat : 49.2835703, Lng : -123.1150205, Q1 : 0.999997377396, Q2 : -0.000201833783649, Q3 : -0.000472090701805, Q4 : -0.00222682650201}
2019-04-14 04:22:46.41: SIM {TimeUS : 52634771, Roll : -0.02, Pitch : -0.07, Yaw : 359.74, Alt : 48.8199996948, Lat : 49.2835703, Lng : -123.1150205, Q1 : 0.999997258186, Q2 : -0.000240760637098, Q3 : -0.000616373086814, Q4 : -0.00224164733663}
2019-04-14 04:22:46.51: SIM {TimeUS : 52734731, Roll : 0.0, Pitch : -0.07, Yaw : 359.74, Alt : 48.8800010681, Lat : 49.2835703, Lng : -123.1150206, Q1 : 0.999997258186, Q2 : -7.26482903701e-05, Q3 : -0.000638752360828, Q4 : -0.00225765700452}
2019-04-14 04:22:46.61: SIM {TimeUS : 52834691, Roll : 0.02, Pitch : -0.06, Yaw : 359.73, Alt : 48.9300003052, Lat : 49.2835703, Lng : -123.1150206, Q1 : 0.999997258186, Q2 : 0.000175095439772, Q3 : -0.000561301480047, Q4 : -0.00227252393961}
2019-04-14 04:22:46.71: SIM {TimeUS : 52934651, Roll : 0.05, Pitch : -0.05, Yaw : 359.73, Alt : 48.9799995422, Lat : 49.2835703, Lng : -123.1150206, Q1 : 0.999997198582, Q2 : 0.000445840501925, Q3 : -0.000493732572068, Q4 : -0.00228791218251}
2019-04-14 04:22:46.81: SIM {TimeUS : 53034611, Roll : 0.11, Pitch : -0.11, Yaw : 359.73, Alt : 49.0200004578, Lat : 49.2835703, Lng : -123.1150206, Q1 : 0.999996304512, Q2 : 0.000973934540525, Q3 : -0.00103836983908, Q4 : -0.00230053765699}
2019-04-14 04:22:46.91: SIM {TimeUS : 53134571, Roll : 0.29, Pitch : -0.36, Yaw : 359.73, Alt : 49.0499992371, Lat : 49.2835703, Lng : -123.1150206, Q1 : 0.999988913536, Q2 : 0.00257072714157, Q3 : -0.00319790933281, Q4 : -0.00231694290414}
2019-04-14 04:22:47.01: SIM {TimeUS : 53234531, Roll : 0.62, Pitch : -0.85, Yaw : 359.72, Alt : 49.0800018311, Lat : 49.2835703, Lng : -123.1150206, Q1 : 0.999954521656, Q2 : 0.00542869232595, Q3 : -0.00748888216913, Q4 : -0.00233487854712}
2019-04-14 04:22:47.11: SIM {TimeUS : 53334491, Roll : 1.08, Pitch : -1.54, Yaw : 359.71, Alt : 49.0999984741, Lat : 49.2835704, Lng : -123.1150206, Q1 : 0.99986153841, Q2 : 0.00941366329789, Q3 : -0.0135229676962, Q4 : -0.00234270351939}
2019-04-14 04:22:47.21: SIM {TimeUS : 53434451, Roll : 1.64, Pitch : -2.36, Yaw : 359.69, Alt : 49.1300010681, Lat : 49.2835704, Lng : -123.1150206, Q1 : 0.999680936337, Q2 : 0.0143060227856, Q3 : -0.020686307922, Q4 : -0.00232633529231}
2019-04-14 04:22:47.31: SIM {TimeUS : 53534411, Roll : 2.22, Pitch : -3.21, Yaw : 359.67, Alt : 49.1399993896, Lat : 49.2835706, Lng : -123.1150205, Q1 : 0.999416351318, Q2 : 0.0193277914077, Q3 : -0.0280761886388, Q4 : -0.00226059439592}
2019-04-14 04:22:47.41: SIM {TimeUS : 53634371, Roll : 2.72, Pitch : -3.93, Yaw : 359.66, Alt : 49.1599998474, Lat : 49.2835707, Lng : -123.1150204, Q1 : 0.999125599861, Q2 : 0.0237022470683, Q3 : -0.0343780480325, Q4 : -0.00211964175105}
2019-04-14 04:22:47.51: SIM {TimeUS : 53734331, Roll : 3.13, Pitch : -4.47, Yaw : 359.65, Alt : 49.1699981689, Lat : 49.2835709, Lng : -123.1150202, Q1 : 0.998862624168, Q2 : 0.0272461045533, Q3 : -0.0390825979412, Q4 : -0.00190899486188}
2019-04-14 04:22:47.61: SIM {TimeUS : 53834291, Roll : 3.44, Pitch : -4.86, Yaw : 359.66, Alt : 49.1800003052, Lat : 49.283571, Lng : -123.11502, Q1 : 0.998646438122, Q2 : 0.02994206734, Q3 : -0.0424978323281, Q4 : -0.00165660376661}
2019-04-14 04:22:47.71: SIM {TimeUS : 53934251, Roll : 3.68, Pitch : -5.19, Yaw : 359.67, Alt : 49.2000007629, Lat : 49.2835714, Lng : -123.1150198, Q1 : 0.998457252979, Q2 : 0.0319841504097, Q3 : -0.045367397368, Q4 : -0.00139372155536}
2019-04-14 04:22:47.81: SIM {TimeUS : 54034211, Roll : 3.86, Pitch : -5.49, Yaw : 359.68, Alt : 49.2000007629, Lat : 49.2835716, Lng : -123.1150194, Q1 : 0.998281478882, Q2 : 0.0335871875286, Q3 : -0.0480075478554, Q4 : -0.00113671121653}
2019-04-14 04:22:47.91: SIM {TimeUS : 54134171, Roll : 4.05, Pitch : -5.82, Yaw : 359.69, Alt : 49.2099990845, Lat : 49.2835721, Lng : -123.115019, Q1 : 0.998083055019, Q2 : 0.0351970493793, Q3 : -0.0508973859251, Q4 : -0.00089957594173}
2019-04-14 04:22:48.01: SIM {TimeUS : 54234131, Roll : 4.26, Pitch : -6.16, Yaw : 359.69, Alt : 49.2200012207, Lat : 49.2835726, Lng : -123.1150185, Q1 : 0.997862517834, Q2 : 0.0369857624173, Q3 : -0.0538706034422, Q4 : -0.000653029361274}
2019-04-14 04:22:48.11: SIM {TimeUS : 54334091, Roll : 4.45, Pitch : -6.46, Yaw : 359.7, Alt : 49.2299995422, Lat : 49.2835731, Lng : -123.115018, Q1 : 0.997656464577, Q2 : 0.0386985652149, Q3 : -0.0564262382686, Q4 : -0.000389103312045}
2019-04-14 04:22:48.21: SIM {TimeUS : 54434051, Roll : 4.6, Pitch : -6.69, Yaw : 359.71, Alt : 49.2299995422, Lat : 49.2835737, Lng : -123.1150174, Q1 : 0.997489333153, Q2 : 0.0399878583848, Q3 : -0.058446623385, Q4 : -0.000151489875861}
2019-04-14 04:22:48.32: SIM {TimeUS : 54534844, Roll : 4.71, Pitch : -6.86, Yaw : 359.72, Alt : 49.2400016785, Lat : 49.2835744, Lng : -123.1150167, Q1 : 0.997364580631, Q2 : 0.0409288108349, Q3 : -0.0599057748914, Q4 : 4.48777500424e-05}
2019-04-14 04:22:48.41: SIM {TimeUS : 54634804, Roll : 4.78, Pitch : -6.97, Yaw : 359.72, Alt : 49.2400016785, Lat : 49.2835751, Lng : -123.1150159, Q1 : 0.997278034687, Q2 : 0.0415507517755, Q3 : -0.0609100610018, Q4 : 0.000185011056601}
2019-04-14 04:22:48.51: SIM {TimeUS : 54734764, Roll : 4.85, Pitch : -7.08, Yaw : 359.72, Alt : 49.25, Lat : 49.2835758, Lng : -123.1150151, Q1 : 0.997197329998, Q2 : 0.0421001687646, Q3 : -0.0618469938636, Q4 : 0.000262637855485}
2019-04-14 04:22:48.61: SIM {TimeUS : 54834724, Roll : 4.95, Pitch : -7.21, Yaw : 359.72, Alt : 49.25, Lat : 49.2835767, Lng : -123.1150142, Q1 : 0.997089326382, Q2 : 0.0429851934314, Q3 : -0.0629682317376, Q4 : 0.000325459899614}
2019-04-14 04:22:48.71: SIM {TimeUS : 54934684, Roll : 5.27, Pitch : -7.29, Yaw : 359.85, Alt : 49.25, Lat : 49.2835776, Lng : -123.1150133, Q1 : 0.996919333935, Q2 : 0.0458469875157, Q3 : -0.0636172145605, Q4 : 0.00164821813814}
2019-04-14 04:22:48.81: SIM {TimeUS : 55034644, Roll : 5.85, Pitch : -7.3, Yaw : 0.64, Alt : 49.2599983215, Lat : 49.2835785, Lng : -123.1150123, Q1 : 0.996633529663, Q2 : 0.0513501167297, Q3 : -0.0632932782173, Q4 : 0.00887296069413}
2019-04-14 04:22:48.91: SIM {TimeUS : 55134604, Roll : 6.46, Pitch : -7.43, Yaw : 2.76, Alt : 49.2599983215, Lat : 49.2835794, Lng : -123.1150112, Q1 : 0.995924413204, Q2 : 0.0578436478972, Q3 : -0.0633973553777, Q4 : 0.0277394019067}
2019-04-14 04:22:49.01: SIM {TimeUS : 55234564, Roll : 6.74, Pitch : -7.9, Yaw : 6.5, Alt : 49.2599983215, Lat : 49.2835805, Lng : -123.1150101, Q1 : 0.994063794613, Q2 : 0.0624762810767, Q3 : -0.0653556883335, Q4 : 0.0605192892253}
2019-04-14 04:22:49.11: SIM {TimeUS : 55334524, Roll : 6.45, Pitch : -8.69, Yaw : 11.74, Alt : 49.2599983215, Lat : 49.2835816, Lng : -123.1150088, Q1 : 0.989877820015, Q2 : 0.0636008307338, Q3 : -0.0695249065757, Q4 : 0.106127776206}
2019-04-14 04:22:49.21: SIM {TimeUS : 55434484, Roll : 5.36, Pitch : -9.71, Yaw : 18.23, Alt : 49.2599983215, Lat : 49.2835826, Lng : -123.1150074, Q1 : 0.98211067915, Q2 : 0.0594474300742, Q3 : -0.076081186533, Q4 : 0.161666929722}
2019-04-14 04:22:49.31: SIM {TimeUS : 55534444, Roll : 3.26, Pitch : -10.76, Yaw : 25.38, Alt : 49.2599983215, Lat : 49.2835837, Lng : -123.115006, Q1 : 0.970274984837, Q2 : 0.0483055301011, Q3 : -0.0852307602763, Q4 : 0.221288889647}
2019-04-14 04:22:49.41: SIM {TimeUS : 55634404, Roll : 0.47, Pitch : -11.59, Yaw : 32.39, Alt : 49.2700004578, Lat : 49.283585, Lng : -123.1150044, Q1 : 0.955263674259, Q2 : 0.0321440286934, Q3 : -0.0958390757442, Q4 : 0.277944296598}
2019-04-14 04:22:49.51: SIM {TimeUS : 55734364, Roll : -2.4, Pitch : -12.08, Yaw : 38.52, Alt : 49.2700004578, Lat : 49.2835862, Lng : -123.1150028, Q1 : 0.939303874969, Q2 : 0.015017955564, Q3 : -0.106233797967, Q4 : 0.325878888369}
2019-04-14 04:22:49.61: SIM {TimeUS : 55834324, Roll : -4.77, Pitch : -12.27, Yaw : 43.18, Alt : 49.2700004578, Lat : 49.2835877, Lng : -123.1150012, Q1 : 0.925328612328, Q2 : 0.000807219243143, Q3 : -0.114603437483, Q4 : 0.36143091321}
2019-04-14 04:22:49.71: SIM {TimeUS : 55934284, Roll : -6.25, Pitch : -12.33, Yaw : 46.11, Alt : 49.2700004578, Lat : 49.2835891, Lng : -123.1149995, Q1 : 0.915727317333, Q2 : -0.00789946876466, Q3 : -0.119938313961, Q4 : 0.383400440216}
2019-04-14 04:22:49.81: SIM {TimeUS : 56034244, Roll : -6.75, Pitch : -12.4, Yaw : 47.35, Alt : 49.2700004578, Lat : 49.2835907, Lng : -123.1149979, Q1 : 0.911423921585, Q2 : -0.0102960532531, Q3 : -0.122319832444, Q4 : 0.392731875181}
2019-04-14 04:22:49.91: SIM {TimeUS : 56134204, Roll : -6.39, Pitch : -12.63, Yaw : 47.17, Alt : 49.2700004578, Lat : 49.2835923, Lng : -123.1149962, Q1 : 0.911934435368, Q2 : -0.00683737965301, Q3 : -0.122909069061, Q4 : 0.391436100006}
2019-04-14 04:22:50.01: SIM {TimeUS : 56234164, Roll : -5.4, Pitch : -13.08, Yaw : 45.87, Alt : 49.2700004578, Lat : 49.2835941, Lng : -123.1149946, Q1 : 0.91602396965, Q2 : 0.00118877168279, Q3 : -0.123087443411, Q4 : 0.381769806147}
2019-04-14 04:22:50.11: SIM {TimeUS : 56334124, Roll : -4.04, Pitch : -13.7, Yaw : 43.77, Alt : 49.2700004578, Lat : 49.2835959, Lng : -123.1149929, Q1 : 0.922289431095, Q2 : 0.0119606209919, Q3 : -0.123715773225, Q4 : 0.365969419479}
2019-04-14 04:22:50.21: SIM {TimeUS : 56434084, Roll : -2.49, Pitch : -14.36, Yaw : 41.17, Alt : 49.2700004578, Lat : 49.2835978, Lng : -123.1149912, Q1 : 0.929511547089, Q2 : 0.0237467139959, Q3 : -0.124639518559, Q4 : 0.346279382706}
2019-04-14 04:22:50.31: SIM {TimeUS : 56534044, Roll : -0.91, Pitch : -14.95, Yaw : 38.39, Alt : 49.2799987793, Lat : 49.2835999, Lng : -123.1149894, Q1 : 0.936676740646, Q2 : 0.0352778285742, Q3 : -0.125502377748, Q4 : 0.325025051832}
2019-04-14 04:22:50.42: SIM {TimeUS : 56634837, Roll : 0.54, Pitch : -15.36, Yaw : 35.7, Alt : 49.2799987793, Lat : 49.2836019, Lng : -123.1149875, Q1 : 0.94308412075, Q2 : 0.0454918071628, Q3 : -0.12582243979, Q4 : 0.304452955723}
2019-04-14 04:22:50.51: SIM {TimeUS : 56734797, Roll : 1.73, Pitch : -15.58, Yaw : 33.44, Alt : 49.2799987793, Lat : 49.2836041, Lng : -123.1149855, Q1 : 0.948163807392, Q2 : 0.0533800646663, Q3 : -0.125479906797, Q4 : 0.287037938833}
2019-04-14 04:22:50.61: SIM {TimeUS : 56834757, Roll : 2.56, Pitch : -15.64, Yaw : 31.77, Alt : 49.2799987793, Lat : 49.2836062, Lng : -123.1149834, Q1 : 0.951771140099, Q2 : 0.0585952475667, Q3 : -0.12481033802, Q4 : 0.274081557989}
2019-04-14 04:22:50.71: SIM {TimeUS : 56934717, Roll : 2.98, Pitch : -15.62, Yaw : 30.78, Alt : 49.2799987793, Lat : 49.2836085, Lng : -123.1149812, Q1 : 0.953921377659, Q2 : 0.060926694423, Q3 : -0.124144330621, Q4 : 0.266289621592}
2019-04-14 04:22:50.81: SIM {TimeUS : 57034677, Roll : 3.0, Pitch : -15.58, Yaw : 30.46, Alt : 49.2799987793, Lat : 49.2836106, Lng : -123.1149789, Q1 : 0.954696774483, Q2 : 0.0607078447938, Q3 : -0.123947158456, Q4 : 0.263639420271}
2019-04-14 04:22:50.91: SIM {TimeUS : 57134637, Roll : 2.69, Pitch : -15.58, Yaw : 30.72, Alt : 49.2799987793, Lat : 49.2836129, Lng : -123.1149765, Q1 : 0.954242408276, Q2 : 0.058406252414, Q3 : -0.12456201762, Q4 : 0.265507906675}
2019-04-14 04:22:51.01: SIM {TimeUS : 57234597, Roll : 2.12, Pitch : -15.64, Yaw : 31.44, Alt : 49.2799987793, Lat : 49.2836153, Lng : -123.114974, Q1 : 0.952765524387, Q2 : 0.0545710027218, Q3 : -0.126051545143, Q4 : 0.270870625973}
2019-04-14 04:22:51.11: SIM {TimeUS : 57334557, Roll : 1.4, Pitch : -15.75, Yaw : 32.46, Alt : 49.2799987793, Lat : 49.2836177, Lng : -123.1149713, Q1 : 0.95052164793, Q2 : 0.0499779395759, Q3 : -0.128202259541, Q4 : 0.278522878885}
2019-04-14 04:22:51.21: SIM {TimeUS : 57434517, Roll : 0.63, Pitch : -15.89, Yaw : 33.62, Alt : 49.2799987793, Lat : 49.2836201, Lng : -123.1149687, Q1 : 0.947819828987, Q2 : 0.0452681146562, Q3 : -0.130782529712, Q4 : 0.287200957537}
2019-04-14 04:22:51.31: SIM {TimeUS : 57534477, Roll : -0.07, Pitch : -16.03, Yaw : 34.77, Alt : 49.2799987793, Lat : 49.2836225, Lng : -123.114966, Q1 : 0.94501376152, Q2 : 0.0410506278276, Q3 : -0.133331507444, Q4 : 0.295781254768}
2019-04-14 04:22:51.41: SIM {TimeUS : 57634437, Roll : -0.66, Pitch : -16.15, Yaw : 35.77, Alt : 49.2799987793, Lat : 49.283625, Lng : -123.1149633, Q1 : 0.942446529865, Q2 : 0.0376735068858, Q3 : -0.135508015752, Q4 : 0.303336232901}
2019-04-14 04:22:51.51: SIM {TimeUS : 57734397, Roll : -1.08, Pitch : -16.23, Yaw : 36.56, Alt : 49.2799987793, Lat : 49.2836275, Lng : -123.1149605, Q1 : 0.940394103527, Q2 : 0.0353827401996, Q3 : -0.137037828565, Q4 : 0.309237152338}
2019-04-14 04:22:51.61: SIM {TimeUS : 57834357, Roll : -1.3, Pitch : -16.28, Yaw : 37.07, Alt : 49.2799987793, Lat : 49.2836302, Lng : -123.1149577, Q1 : 0.939022541046, Q2 : 0.0343342833221, Q3 : -0.137855499983, Q4 : 0.313135296106}
2019-04-14 04:22:51.71: SIM {TimeUS : 57934317, Roll : -1.33, Pitch : -16.32, Yaw : 37.29, Alt : 49.2900009155, Lat : 49.2836328, Lng : -123.1149549, Q1 : 0.938359081745, Q2 : 0.0345164313912, Q3 : -0.1382175982, Q4 : 0.31493923068}
2019-04-14 04:22:51.81: SIM {TimeUS : 58034277, Roll : -1.21, Pitch : -16.37, Yaw : 37.26, Alt : 49.2900009155, Lat : 49.2836354, Lng : -123.114952, Q1 : 0.938349068165, Q2 : 0.0355947390199, Q3 : -0.138294890523, Q4 : 0.314815163612}
2019-04-14 04:22:51.91: SIM {TimeUS : 58134237, Roll : -0.99, Pitch : -16.43, Yaw : 37.02, Alt : 49.2900009155, Lat : 49.2836382, Lng : -123.1149491, Q1 : 0.938866376877, Q2 : 0.0372364930809, Q3 : -0.138284519315, Q4 : 0.313082695007}
2019-04-14 04:22:52.01: SIM {TimeUS : 58234197, Roll : -0.71, Pitch : -16.47, Yaw : 36.63, Alt : 49.2900009155, Lat : 49.2836409, Lng : -123.1149462, Q1 : 0.939783513546, Q2 : 0.039161387831, Q3 : -0.137983590364, Q4 : 0.310215830803}
2019-04-14 04:22:52.11: SIM {TimeUS : 58334157, Roll : -0.39, Pitch : -16.5, Yaw : 36.17, Alt : 49.2900009155, Lat : 49.2836438, Lng : -123.1149432, Q1 : 0.940905451775, Q2 : 0.0413138866425, Q3 : -0.137470647693, Q4 : 0.306744098663}
2019-04-14 04:22:52.21: SIM {TimeUS : 58434117, Roll : -0.09, Pitch : -16.52, Yaw : 35.68, Alt : 49.2900009155, Lat : 49.2836466, Lng : -123.1149402, Q1 : 0.942054986954, Q2 : 0.0432657971978, Q3 : -0.137075796723, Q4 : 0.303101867437}
2019-04-14 04:22:52.31: SIM {TimeUS : 58534077, Roll : 0.17, Pitch : -16.56, Yaw : 35.23, Alt : 49.2900009155, Lat : 49.2836494, Lng : -123.1149372, Q1 : 0.943084955215, Q2 : 0.045047737658, Q3 : -0.136808678508, Q4 : 0.299741327763}
2019-04-14 04:22:52.41: SIM {TimeUS : 58634037, Roll : 0.4, Pitch : -16.58, Yaw : 34.87, Alt : 49.2900009155, Lat : 49.2836524, Lng : -123.1149341, Q1 : 0.943924546242, Q2 : 0.046562936157, Q3 : -0.136515334249, Q4 : 0.296988099813}
2019-04-14 04:22:52.52: SIM {TimeUS : 58734830, Roll : 0.56, Pitch : -16.59, Yaw : 34.6, Alt : 49.2900009155, Lat : 49.2836553, Lng : -123.114931, Q1 : 0.944520533085, Q2 : 0.0475729070604, Q3 : -0.136360287666, Q4 : 0.294997781515}
2019-04-14 04:22:52.61: SIM {TimeUS : 58834790, Roll : 0.61, Pitch : -16.63, Yaw : 34.46, Alt : 49.2900009155, Lat : 49.2836582, Lng : -123.1149279, Q1 : 0.944828152657, Q2 : 0.047943584621, Q3 : -0.136581540108, Q4 : 0.293848067522}
2019-04-14 04:22:52.71: SIM {TimeUS : 58934750, Roll : 0.58, Pitch : -16.69, Yaw : 34.42, Alt : 49.2900009155, Lat : 49.2836612, Lng : -123.1149247, Q1 : 0.94485604763, Q2 : 0.047820545733, Q3 : -0.137167274952, Q4 : 0.293505370617}
2019-04-14 04:22:52.81: SIM {TimeUS : 59034710, Roll : 0.5, Pitch : -16.76, Yaw : 34.48, Alt : 49.2900009155, Lat : 49.283664, Lng : -123.1149215, Q1 : 0.944655060768, Q2 : 0.0473575852811, Q3 : -0.137974277139, Q4 : 0.293849021196}
2019-04-14 04:22:52.91: SIM {TimeUS : 59134670, Roll : 0.37, Pitch : -16.82, Yaw : 34.61, Alt : 49.2900009155, Lat : 49.283667, Lng : -123.1149183, Q1 : 0.944306969643, Q2 : 0.0466401055455, Q3 : -0.138736918569, Q4 : 0.294722110033}
2019-04-14 04:22:53.01: SIM {TimeUS : 59234630, Roll : 0.23, Pitch : -16.87, Yaw : 34.77, Alt : 49.2900009155, Lat : 49.28367, Lng : -123.114915, Q1 : 0.943876981735, Q2 : 0.0457888990641, Q3 : -0.139385357499, Q4 : 0.295924603939}
2019-04-14 04:22:53.11: SIM {TimeUS : 59334590, Roll : 0.1, Pitch : -16.9, Yaw : 34.96, Alt : 49.2900009155, Lat : 49.2836731, Lng : -123.1149117, Q1 : 0.943412125111, Q2 : 0.0449921824038, Q3 : -0.139972507954, Q4 : 0.297249048948}
2019-04-14 04:22:53.21: SIM {TimeUS : 59434550, Roll : -0.01, Pitch : -16.93, Yaw : 35.13, Alt : 49.2900009155, Lat : 49.2836761, Lng : -123.1149084, Q1 : 0.942969024181, Q2 : 0.0443249046803, Q3 : -0.140447303653, Q4 : 0.298528581858}
2019-04-14 04:22:53.31: SIM {TimeUS : 59534510, Roll : -0.08, Pitch : -16.95, Yaw : 35.28, Alt : 49.2900009155, Lat : 49.2836792, Lng : -123.1149051, Q1 : 0.942598819733, Q2 : 0.0439435578883, Q3 : -0.140720248222, Q4 : 0.299623370171}
2019-04-14 04:22:53.41: SIM {TimeUS : 59634470, Roll : -0.13, Pitch : -16.97, Yaw : 35.38, Alt : 49.2900009155, Lat : 49.2836822, Lng : -123.1149017, Q1 : 0.942321717739, Q2 : 0.0437747947872, Q3 : -0.140968501568, Q4 : 0.300402134657}
2019-04-14 04:22:53.51: SIM {TimeUS : 59734430, Roll : -0.15, Pitch : -16.99, Yaw : 35.43, Alt : 49.2900009155, Lat : 49.2836853, Lng : -123.1148984, Q1 : 0.942157864571, Q2 : 0.0437398590147, Q3 : -0.141193553805, Q4 : 0.300815165043}
2019-04-14 04:22:53.61: SIM {TimeUS : 59834390, Roll : -0.15, Pitch : -17.02, Yaw : 35.44, Alt : 49.2999992371, Lat : 49.2836886, Lng : -123.114895, Q1 : 0.942105412483, Q2 : 0.0438276901841, Q3 : -0.141395881772, Q4 : 0.300871700048}
2019-04-14 04:22:53.71: SIM {TimeUS : 59934350, Roll : -0.12, Pitch : -17.06, Yaw : 35.41, Alt : 49.2999992371, Lat : 49.2836917, Lng : -123.1148916, Q1 : 0.942136824131, Q2 : 0.0440643429756, Q3 : -0.141658902168, Q4 : 0.300615012646}
2019-04-14 04:22:53.81: SIM {TimeUS : 60034310, Roll : -0.09, Pitch : -17.1, Yaw : 35.34, Alt : 49.2999992371, Lat : 49.2836949, Lng : -123.1148882, Q1 : 0.942240834236, Q2 : 0.0444086715579, Q3 : -0.141938075423, Q4 : 0.300106227398}
2019-04-14 04:22:53.91: SIM {TimeUS : 60134270, Roll : -0.06, Pitch : -17.14, Yaw : 35.25, Alt : 49.2999992371, Lat : 49.283698, Lng : -123.1148847, Q1 : 0.942409396172, Q2 : 0.0446470566094, Q3 : -0.142219111323, Q4 : 0.299407690763}
2019-04-14 04:22:54.01: SIM {TimeUS : 60234230, Roll : -0.03, Pitch : -17.16, Yaw : 35.16, Alt : 49.2999992371, Lat : 49.2837011, Lng : -123.1148813, Q1 : 0.942630410194, Q2 : 0.0448091961443, Q3 : -0.142320454121, Q4 : 0.298638522625}
2019-04-14 04:22:54.11: SIM {TimeUS : 60334190, Roll : 0.0, Pitch : -17.17, Yaw : 35.06, Alt : 49.2999992371, Lat : 49.2837044, Lng : -123.1148777, Q1 : 0.942851483822, Q2 : 0.0449630469084, Q3 : -0.142392620444, Q4 : 0.29788222909}
2019-04-14 04:22:54.21: SIM {TimeUS : 60434150, Roll : 0.03, Pitch : -17.2, Yaw : 34.97, Alt : 49.2999992371, Lat : 49.2837076, Lng : -123.1148744, Q1 : 0.943030357361, Q2 : 0.0452345274389, Q3 : -0.142552137375, Q4 : 0.297197669744}
2019-04-14 04:22:54.31: SIM {TimeUS : 60534110, Roll : 0.07, Pitch : -17.23, Yaw : 34.9, Alt : 49.2999992371, Lat : 49.2837107, Lng : -123.1148709, Q1 : 0.943158984184, Q2 : 0.0455828048289, Q3 : -0.142760306597, Q4 : 0.296635746956}
2019-04-14 04:22:54.41: SIM {TimeUS : 60634070, Roll : 0.12, Pitch : -17.28, Yaw : 34.85, Alt : 49.2999992371, Lat : 49.2837141, Lng : -123.1148674, Q1 : 0.943230092525, Q2 : 0.0460368320346, Q3 : -0.143008857965, Q4 : 0.296219617128}
2019-04-14 04:22:54.51: SIM {TimeUS : 60734030, Roll : 0.18, Pitch : -17.32, Yaw : 34.81, Alt : 49.3100013733, Lat : 49.2837173, Lng : -123.1148638, Q1 : 0.943248569965, Q2 : 0.0465556159616, Q3 : -0.143272459507, Q4 : 0.295952260494}
2019-04-14 04:22:54.62: SIM {TimeUS : 60834823, Roll : 0.2, Pitch : -17.36, Yaw : 34.79, Alt : 49.3100013733, Lat : 49.2837205, Lng : -123.1148603, Q1 : 0.943243145943, Q2 : 0.0468341894448, Q3 : -0.143535733223, Q4 : 0.295797973871}
2019-04-14 04:22:54.71: SIM {TimeUS : 60934783, Roll : 0.19, Pitch : -17.38, Yaw : 34.78, Alt : 49.3100013733, Lat : 49.2837239, Lng : -123.1148567, Q1 : 0.943245172501, Q2 : 0.0467668734491, Q3 : -0.143687829375, Q4 : 0.295728325844}
2019-04-14 04:22:54.81: SIM {TimeUS : 61034743, Roll : 0.15, Pitch : -17.38, Yaw : 34.78, Alt : 49.3100013733, Lat : 49.2837271, Lng : -123.1148532, Q1 : 0.943247616291, Q2 : 0.0464271716774, Q3 : -0.143808484077, Q4 : 0.295715421438}
2019-04-14 04:22:54.91: SIM {TimeUS : 61134703, Roll : 0.11, Pitch : -17.38, Yaw : 34.8, Alt : 49.3100013733, Lat : 49.2837303, Lng : -123.1148496, Q1 : 0.943226277828, Q2 : 0.0461349748075, Q3 : -0.143934056163, Q4 : 0.295767992735}
2019-04-14 04:22:55.01: SIM {TimeUS : 61234663, Roll : 0.09, Pitch : -17.39, Yaw : 34.81, Alt : 49.3100013733, Lat : 49.2837337, Lng : -123.114846, Q1 : 0.943180859089, Q2 : 0.0460061505437, Q3 : -0.144093647599, Q4 : 0.295855343342}
2019-04-14 04:22:55.11: SIM {TimeUS : 61334623, Roll : 0.1, Pitch : -17.42, Yaw : 34.82, Alt : 49.3100013733, Lat : 49.2837369, Lng : -123.1148425, Q1 : 0.943107962608, Q2 : 0.0461773909628, Q3 : -0.144295588136, Q4 : 0.295962661505}
2019-04-14 04:22:55.21: SIM {TimeUS : 61434583, Roll : 0.12, Pitch : -17.47, Yaw : 34.83, Alt : 49.3100013733, Lat : 49.2837404, Lng : -123.1148389, Q1 : 0.943015694618, Q2 : 0.0464746952057, Q3 : -0.144654899836, Q4 : 0.296034634113}
2019-04-14 04:22:55.31: SIM {TimeUS : 61534543, Roll : 0.12, Pitch : -17.51, Yaw : 34.83, Alt : 49.3100013733, Lat : 49.2837436, Lng : -123.1148353, Q1 : 0.942969501019, Q2 : 0.0465736165643, Q3 : -0.144925624132, Q4 : 0.296033889055}
2019-04-14 04:22:55.41: SIM {TimeUS : 61634503, Roll : 0.11, Pitch : -17.51, Yaw : 34.83, Alt : 49.3100013733, Lat : 49.283747, Lng : -123.1148315, Q1 : 0.942976415157, Q2 : 0.0465634390712, Q3 : -0.144971743226, Q4 : 0.295990824699}
2019-04-14 04:22:55.51: SIM {TimeUS : 61734463, Roll : 0.11, Pitch : -17.52, Yaw : 34.82, Alt : 49.3199996948, Lat : 49.2837503, Lng : -123.114828, Q1 : 0.942996680737, Q2 : 0.0465422607958, Q3 : -0.145075425506, Q4 : 0.295878738165}
2019-04-14 04:22:55.61: SIM {TimeUS : 61834423, Roll : 0.1, Pitch : -17.55, Yaw : 34.8, Alt : 49.3199996948, Lat : 49.2837537, Lng : -123.1148244, Q1 : 0.943012356758, Q2 : 0.0464900024235, Q3 : -0.145355224609, Q4 : 0.295699775219}
2019-04-14 04:22:55.71: SIM {TimeUS : 61934383, Roll : 0.09, Pitch : -17.58, Yaw : 34.78, Alt : 49.3199996948, Lat : 49.283757, Lng : -123.1148208, Q1 : 0.943032085896, Q2 : 0.0465012229979, Q3 : -0.145586758852, Q4 : 0.295520991087}
2019-04-14 04:22:55.81: SIM {TimeUS : 62034343, Roll : 0.1, Pitch : -17.6, Yaw : 34.76, Alt : 49.3199996948, Lat : 49.2837605, Lng : -123.1148171, Q1 : 0.943052232265, Q2 : 0.046573035419, Q3 : -0.145798757672, Q4 : 0.295340776443}
2019-04-14 04:22:55.91: SIM {TimeUS : 62134303, Roll : 0.11, Pitch : -17.62, Yaw : 34.74, Alt : 49.3199996948, Lat : 49.2837638, Lng : -123.1148135, Q1 : 0.943083107471, Q2 : 0.0467006452382, Q3 : -0.145901426673, Q4 : 0.295171260834}
2019-04-14 04:22:56.01: SIM {TimeUS : 62234263, Roll : 0.14, Pitch : -17.63, Yaw : 34.71, Alt : 49.3199996948, Lat : 49.2837672, Lng : -123.1148098, Q1 : 0.943121671677, Q2 : 0.0469141751528, Q3 : -0.145936697721, Q4 : 0.294996708632}
2019-04-14 04:22:56.11: SIM {TimeUS : 62334223, Roll : 0.16, Pitch : -17.63, Yaw : 34.69, Alt : 49.3199996948, Lat : 49.2837705, Lng : -123.1148061, Q1 : 0.94317561388, Q2 : 0.0470646396279, Q3 : -0.14589317143, Q4 : 0.294821828604}
2019-04-14 04:22:56.21: SIM {TimeUS : 62434183, Roll : 0.19, Pitch : -17.63, Yaw : 34.66, Alt : 49.3199996948, Lat : 49.283774, Lng : -123.1148025, Q1 : 0.943221271038, Q2 : 0.0472509525716, Q3 : -0.145868420601, Q4 : 0.294658124447}
2019-04-14 04:22:56.31: SIM {TimeUS : 62534143, Roll : 0.21, Pitch : -17.65, Yaw : 34.64, Alt : 49.3199996948, Lat : 49.2837774, Lng : -123.1147988, Q1 : 0.943243801594, Q2 : 0.047431178391, Q3 : -0.145971491933, Q4 : 0.294506072998}
2019-04-14 04:22:56.41: SIM {TimeUS : 62634103, Roll : 0.2, Pitch : -17.69, Yaw : 34.62, Alt : 49.3199996948, Lat : 49.2837808, Lng : -123.1147951, Q1 : 0.94324028492, Q2 : 0.0474775917828, Q3 : -0.146296814084, Q4 : 0.294348299503}
2019-04-14 04:22:56.51: SIM {TimeUS : 62734063, Roll : 0.17, Pitch : -17.73, Yaw : 34.61, Alt : 49.3199996948, Lat : 49.2837843, Lng : -123.1147914, Q1 : 0.943233311176, Q2 : 0.0473362728953, Q3 : -0.14671754837, Q4 : 0.294183880091}
2019-04-14 04:22:56.61: SIM {TimeUS : 62834023, Roll : 0.15, Pitch : -17.78, Yaw : 34.6, Alt : 49.3199996948, Lat : 49.2837877, Lng : -123.1147877, Q1 : 0.943217277527, Q2 : 0.0472173057497, Q3 : -0.147157505155, Q4 : 0.294034659863}
2019-04-14 04:22:56.71: SIM {TimeUS : 62934816, Roll : 0.15, Pitch : -17.81, Yaw : 34.59, Alt : 49.3199996948, Lat : 49.2837911, Lng : -123.1147839, Q1 : 0.943200409412, Q2 : 0.0473093912005, Q3 : -0.147432550788, Q4 : 0.293936312199}
2019-04-14 04:22:56.81: SIM {TimeUS : 63034776, Roll : 0.17, Pitch : -17.82, Yaw : 34.58, Alt : 49.3199996948, Lat : 49.2837946, Lng : -123.1147802, Q1 : 0.943208694458, Q2 : 0.0474698208272, Q3 : -0.147460579872, Q4 : 0.293869584799}
2019-04-14 04:22:56.91: SIM {TimeUS : 63134736, Roll : 0.19, Pitch : -17.79, Yaw : 34.57, Alt : 49.3300018311, Lat : 49.2837981, Lng : -123.1147765, Q1 : 0.943259000778, Q2 : 0.0475555025041, Q3 : -0.147220000625, Q4 : 0.293814986944}
2019-04-14 04:22:57.01: SIM {TimeUS : 63234696, Roll : 0.19, Pitch : -17.77, Yaw : 34.56, Alt : 49.3300018311, Lat : 49.2838014, Lng : -123.1147728, Q1 : 0.94330817461, Q2 : 0.047485217452, Q3 : -0.1470528543, Q4 : 0.293752104044}
2019-04-14 04:22:57.11: SIM {TimeUS : 63334656, Roll : 0.18, Pitch : -17.76, Yaw : 34.55, Alt : 49.3300018311, Lat : 49.283805, Lng : -123.114769, Q1 : 0.943347215652, Q2 : 0.0473782643676, Q3 : -0.146979600191, Q4 : 0.293680727482}
2019-04-14 04:22:57.21: SIM {TimeUS : 63434616, Roll : 0.17, Pitch : -17.75, Yaw : 34.54, Alt : 49.3300018311, Lat : 49.2838084, Lng : -123.1147652, Q1 : 0.94337952137, Q2 : 0.0473075658083, Q3 : -0.146934762597, Q4 : 0.293610751629}
2019-04-14 04:22:57.31: SIM {TimeUS : 63534576, Roll : 0.17, Pitch : -17.77, Yaw : 34.53, Alt : 49.3300018311, Lat : 49.2838118, Lng : -123.1147615, Q1 : 0.943390369415, Q2 : 0.0472640581429, Q3 : -0.147056430578, Q4 : 0.293521881104}
2019-04-14 04:22:57.41: SIM {TimeUS : 63634536, Roll : 0.17, Pitch : -17.79, Yaw : 34.52, Alt : 49.3300018311, Lat : 49.2838153, Lng : -123.1147578, Q1 : 0.943384945393, Q2 : 0.0473140068352, Q3 : -0.147243350744, Q4 : 0.293437540531}
2019-04-14 04:22:57.51: SIM {TimeUS : 63734496, Roll : 0.16, Pitch : -17.83, Yaw : 34.51, Alt : 49.3300018311, Lat : 49.2838189, Lng : -123.114754, Q1 : 0.943361461163, Q2 : 0.0473547540605, Q3 : -0.147587105632, Q4 : 0.293333888054}
2019-04-14 04:22:57.61: SIM {TimeUS : 63834456, Roll : 0.16, Pitch : -17.88, Yaw : 34.5, Alt : 49.3300018311, Lat : 49.2838224, Lng : -123.1147503, Q1 : 0.943323910236, Q2 : 0.0474602654576, Q3 : -0.148005783558, Q4 : 0.293226629496}
2019-04-14 04:22:57.71: SIM {TimeUS : 63934416, Roll : 0.17, Pitch : -17.92, Yaw : 34.49, Alt : 49.3300018311, Lat : 49.2838257, Lng : -123.1147465, Q1 : 0.943295419216, Q2 : 0.047626145184, Q3 : -0.148311316967, Q4 : 0.293136894703}
2019-04-14 04:22:57.81: SIM {TimeUS : 64034376, Roll : 0.17, Pitch : -17.95, Yaw : 34.48, Alt : 49.3300018311, Lat : 49.2838293, Lng : -123.1147427, Q1 : 0.943284273148, Q2 : 0.0476567223668, Q3 : -0.148595064878, Q4 : 0.293024152517}
2019-04-14 04:22:57.91: SIM {TimeUS : 64134336, Roll : 0.16, Pitch : -17.97, Yaw : 34.47, Alt : 49.3300018311, Lat : 49.2838328, Lng : -123.1147389, Q1 : 0.943294048309, Q2 : 0.0476429872215, Q3 : -0.148758262396, Q4 : 0.292912065983}
2019-04-14 04:22:58.01: SIM {TimeUS : 64234296, Roll : 0.17, Pitch : -17.96, Yaw : 34.46, Alt : 49.3300018311, Lat : 49.2838363, Lng : -123.1147352, Q1 : 0.943332612514, Q2 : 0.0477098226547, Q3 : -0.148655250669, Q4 : 0.292829334736}
2019-04-14 04:22:58.11: SIM {TimeUS : 64334256, Roll : 0.2, Pitch : -17.96, Yaw : 34.44, Alt : 49.3300018311, Lat : 49.2838398, Lng : -123.1147314, Q1 : 0.943356096745, Q2 : 0.0478803776205, Q3 : -0.148612186313, Q4 : 0.29274764657}
2019-04-14 04:22:58.21: SIM {TimeUS : 64434216, Roll : 0.2, Pitch : -17.97, Yaw : 34.43, Alt : 49.3300018311, Lat : 49.2838433, Lng : -123.1147276, Q1 : 0.943368434906, Q2 : 0.0479664541781, Q3 : -0.148718312383, Q4 : 0.292639940977}
2019-04-14 04:22:58.31: SIM {TimeUS : 64534176, Roll : 0.21, Pitch : -17.98, Yaw : 34.42, Alt : 49.3400001526, Lat : 49.2838469, Lng : -123.1147238, Q1 : 0.943391859531, Q2 : 0.0480251759291, Q3 : -0.148748263717, Q4 : 0.292539566755}
2019-04-14 04:22:58.41: SIM {TimeUS : 64634136, Roll : 0.22, Pitch : -17.97, Yaw : 34.4, Alt : 49.3400001526, Lat : 49.2838504, Lng : -123.11472, Q1 : 0.943432271481, Q2 : 0.0480442941189, Q3 : -0.14866374433, Q4 : 0.292448967695}
2019-04-14 04:22:58.51: SIM {TimeUS : 64734096, Roll : 0.22, Pitch : -17.96, Yaw : 34.39, Alt : 49.3400001526, Lat : 49.2838538, Lng : -123.1147162, Q1 : 0.943474292755, Q2 : 0.0480135045946, Q3 : -0.148578241467, Q4 : 0.292362034321}
2019-04-14 04:22:58.61: SIM {TimeUS : 64834056, Roll : 0.2, Pitch : -17.98, Yaw : 34.38, Alt : 49.3400001526, Lat : 49.2838574, Lng : -123.1147123, Q1 : 0.94348859787, Q2 : 0.0478770807385, Q3 : -0.148767501116, Q4 : 0.29224178195}
2019-04-14 04:22:58.72: SIM {TimeUS : 64934849, Roll : 0.17, Pitch : -18.01, Yaw : 34.37, Alt : 49.3400001526, Lat : 49.2838609, Lng : -123.1147085, Q1 : 0.943477809429, Q2 : 0.0477114021778, Q3 : -0.149141460657, Q4 : 0.292113155127}
2019-04-14 04:22:58.81: SIM {TimeUS : 65034809, Roll : 0.15, Pitch : -18.02, Yaw : 34.37, Alt : 49.3400001526, Lat : 49.2838646, Lng : -123.1147047, Q1 : 0.943491578102, Q2 : 0.0475836582482, Q3 : -0.149263441563, Q4 : 0.292027205229}
2019-04-14 04:22:58.91: SIM {TimeUS : 65134769, Roll : 0.16, Pitch : -18.01, Yaw : 34.36, Alt : 49.3400001526, Lat : 49.2838681, Lng : -123.1147009, Q1 : 0.943516075611, Q2 : 0.0476534031332, Q3 : -0.149151101708, Q4 : 0.291994005442}
2019-04-14 04:22:59.01: SIM {TimeUS : 65234729, Roll : 0.19, Pitch : -18.0, Yaw : 34.35, Alt : 49.3400001526, Lat : 49.2838717, Lng : -123.1146971, Q1 : 0.943534374237, Q2 : 0.0478111878037, Q3 : -0.149022951722, Q4 : 0.29197460413}
2019-04-14 04:22:59.11: SIM {TimeUS : 65334689, Roll : 0.2, Pitch : -18.01, Yaw : 34.35, Alt : 49.3400001526, Lat : 49.2838752, Lng : -123.1146933, Q1 : 0.943536400795, Q2 : 0.0479212738574, Q3 : -0.149065628648, Q4 : 0.291928231716}
2019-04-14 04:22:59.21: SIM {TimeUS : 65434649, Roll : 0.19, Pitch : -18.03, Yaw : 34.34, Alt : 49.3400001526, Lat : 49.2838787, Lng : -123.1146895, Q1 : 0.943532526493, Q2 : 0.0478608943522, Q3 : -0.149269610643, Q4 : 0.291846364737}
2019-04-14 04:22:59.31: SIM {TimeUS : 65534609, Roll : 0.16, Pitch : -18.06, Yaw : 34.33, Alt : 49.3400001526, Lat : 49.2838822, Lng : -123.1146856, Q1 : 0.943529129028, Q2 : 0.0476847402751, Q3 : -0.149547323585, Q4 : 0.291744023561}
2019-04-14 04:22:59.41: SIM {TimeUS : 65634569, Roll : 0.14, Pitch : -18.07, Yaw : 34.32, Alt : 49.3400001526, Lat : 49.2838858, Lng : -123.1146818, Q1 : 0.943533360958, Q2 : 0.0475872904062, Q3 : -0.149741262197, Q4 : 0.29164686799}
2019-04-14 04:22:59.51: SIM {TimeUS : 65734529, Roll : 0.15, Pitch : -18.09, Yaw : 34.31, Alt : 49.3400001526, Lat : 49.2838894, Lng : -123.114678, Q1 : 0.943532884121, Q2 : 0.0476763397455, Q3 : -0.149872630835, Q4 : 0.291566252708}
2019-04-14 04:22:59.61: SIM {TimeUS : 65834489, Roll : 0.17, Pitch : -18.11, Yaw : 34.3, Alt : 49.3400001526, Lat : 49.283893, Lng : -123.114674, Q1 : 0.943529784679, Q2 : 0.0478402972221, Q3 : -0.149958595634, Q4 : 0.291505336761}
