2019-04-14 11:05:44.90: SIM {TimeUS : 39915694, Roll : 0.0, Pitch : 0.0, Yaw : 0.0, Alt : 30.1000003815, Lat : 49.28357, Lng : -123.11502, Q1 : 1.0, Q2 : 0.0, Q3 : 0.0, Q4 : 0.0}
2019-04-14 11:05:45.01: SIM {TimeUS : 40034813, Roll : 0.0, Pitch : 0.0, Yaw : 0.0, Alt : 30.1000003815, Lat : 49.28357, Lng : -123.11502, Q1 : 1.0, Q2 : 0.0, Q3 : 0.0, Q4 : 0.0}
2019-04-14 11:05:45.11: SIM {TimeUS : 40134773, Roll : 0.0, Pitch : 0.0, Yaw : 0.0, Alt : 30.1000003815, Lat : 49.28357, Lng : -123.11502, Q1 : 1.0, Q2 : 0.0, Q3 : 0.0, Q4 : 0.0}
2019-04-14 11:05:45.21: SIM {TimeUS : 40234733, Roll : 0.0, Pitch : 0.0, Yaw : 0.0, Alt : 30.1000003815, Lat : 49.28357, Lng : -123.11502, Q1 : 1.0, Q2 : 0.0, Q3 : 0.0, Q4 : 0.0}
2019-04-14 11:05:45.31: SIM {TimeUS : 40334693, Roll : 0.0, Pitch : 0.0, Yaw : 0.0, Alt : 30.1000003815, Lat : 49.28357, Lng : -123.11502, Q1 : 1.0, Q2 : 0.0, Q3 : 0.0, Q4 : 0.0}
2019-04-14 11:05:45.41: SIM {TimeUS : 40434653, Roll : 0.0, Pitch : 0.0, Yaw : 0.0, Alt : 30.1000003815, Lat : 49.28357, Lng : -123.11502, Q1 : 1.0, Q2 : 0.0, Q3 : 0.0, Q4 : 0.0}
2019-04-14 11:05:45.51: SIM {TimeUS : 40534613, Roll : 0.0, Pitch : 0.0, Yaw : 0.0, Alt : 30.1000003815, Lat : 49.28357, Lng : -123.11502, Q1 : 1.0, Q2 : 0.0, Q3 : 0.0, Q4 : 0.0}
2019-04-14 11:05:45.61: SIM {TimeUS : 40634573, Roll : 0.0, Pitch : 0.0, Yaw : 0.0, Alt : 30.1000003815, Lat : 49.28357, Lng : -123.11502, Q1 : 1.0, Q2 : 0.0, Q3 : 0.0, Q4 : 0.0}
2019-04-14 11:05:45.71: SIM {TimeUS : 40734533, Roll : 0.0, Pitch : 0.0, Yaw : 0.0, Alt : 30.1000003815, Lat : 49.28357, Lng : -123.11502, Q1 : 1.0, Q2 : 0.0, Q3 : 0.0, Q4 : 0.0}
2019-04-14 11:05:45.81: SIM {TimeUS : 40834493, Roll : 0.0, Pitch : 0.0, Yaw : 0.0, Alt : 30.1000003815, Lat : 49.28357, Lng : -123.11502, Q1 : 1.0, Q2 : 0.0, Q3 : 0.0, Q4 : 0.0}
2019-04-14 11:05:45.91: SIM {TimeUS : 40934453, Roll : 0.0, Pitch : 0.0, Yaw : 0.0, Alt : 30.1000003815, Lat : 49.28357, Lng : -123.11502, Q1 : 1.0, Q2 : 0.0, Q3 : 0.0, Q4 : 0.0}
2019-04-14 11:05:46.01: SIM {TimeUS : 41034413, Roll : 0.0, Pitch : 0.0, Yaw : 0.0, Alt : 30.1000003815, Lat : 49.28357, Lng : -123.11502, Q1 : 1.0, Q2 : 0.0, Q3 : 0.0, Q4 : 0.0}
2019-04-14 11:05:46.11: SIM {TimeUS : 41134373, Roll : 0.0, Pitch : 0.0, Yaw : 0.0, Alt : 30.1000003815, Lat : 49.28357, Lng : -123.11502, Q1 : 1.0, Q2 : 0.0, Q3 : 0.0, Q4 : 0.0}
2019-04-14 11:05:46.21: SIM {TimeUS : 41234333, Roll : 0.0, Pitch : 0.0, Yaw : 0.0, Alt : 30.1000003815, Lat : 49.28357, Lng : -123.11502, Q1 : 1.0, Q2 : 0.0, Q3 : 0.0, Q4 : 0.0}
2019-04-14 11:05:46.31: SIM {TimeUS : 41334293, Roll : 0.0, Pitch : 0.0, Yaw : 0.0, Alt : 30.1000003815, Lat : 49.28357, Lng : -123.11502, Q1 : 1.0, Q2 : 0.0, Q3 : 0.0, Q4 : 0.0}
2019-04-14 11:05:46.41: SIM {TimeUS : 41434253, Roll : 0.0, Pitch : 0.0, Yaw : 0.0, Alt : 30.1000003815, Lat : 49.28357, Lng : -123.11502, Q1 : 1.0, Q2 : 0.0, Q3 : 0.0, Q4 : 0.0}
2019-04-14 11:05:46.51: SIM {TimeUS : 41534213, Roll : 0.0, Pitch : 0.0, Yaw : 0.0, Alt : 30.1000003815, Lat : 49.28357, Lng : -123.11502, Q1 : 1.0, Q2 : 0.0, Q3 : 0.0, Q4 : 0.0}
2019-04-14 11:05:46.61: SIM {TimeUS : 41634173, Roll : 0.0, Pitch : 0.0, Yaw : 0.0, Alt : 30.1000003815, Lat : 49.28357, Lng : -123.11502, Q1 : 1.0, Q2 : 0.0, Q3 : 0.0, Q4 : 0.0}
2019-04-14 11:05:46.71: SIM {TimeUS : 41734133, Roll : 0.0, Pitch : 0.0, Yaw : 0.0, Alt : 30.1000003815, Lat : 49.28357, Lng : -123.11502, Q1 : 1.0, Q2 : 0.0, Q3 : 0.0, Q4 : 0.0}
2019-04-14 11:05:46.81: SIM {TimeUS : 41834093, Roll : 0.0, Pitch : 0.0, Yaw : 0.0, Alt : 30.1000003815, Lat : 49.28357, Lng : -123.11502, Q1 : 1.0, Q2 : 0.0, Q3 : 0.0, Q4 : 0.0}
2019-04-14 11:05:46.91: SIM {TimeUS : 41934053, Roll : 0.0, Pitch : 0.0, Yaw : 0.0, Alt : 30.1000003815, Lat : 49.28357, Lng : -123.11502, Q1 : 1.0, Q2 : 0.0, Q3 : 0.0, Q4 : 0.0}
2019-04-14 11:05:47.02: SIM {TimeUS : 42034846, Roll : 0.0, Pitch : 0.0, Yaw : 0.0, Alt : 30.1000003815, Lat : 49.28357, Lng : -123.11502, Q1 : 1.0, Q2 : 0.0, Q3 : 0.0, Q4 : 0.0}
2019-04-14 11:05:47.11: SIM {TimeUS : 42134806, Roll : 0.0, Pitch : 0.0, Yaw : 0.0, Alt : 30.1000003815, Lat : 49.28357, Lng : -123.11502, Q1 : 1.0, Q2 : 0.0, Q3 : 0.0, Q4 : 0.0}
2019-04-14 11:05:47.21: SIM {TimeUS : 42234766, Roll : 0.0, Pitch : 0.0, Yaw : 0.0, Alt : 30.1000003815, Lat : 49.28357, Lng : -123.11502, Q1 : 1.0, Q2 : 0.0, Q3 : 0.0, Q4 : 2.32067349278e-13}
2019-04-14 11:05:47.31: SIM {TimeUS : 42334726, Roll : 0.0, Pitch : 0.0, Yaw : 0.0, Alt : 30.1000003815, Lat : 49.28357, Lng : -123.11502, Q1 : 1.0, Q2 : 0.0, Q3 : 0.0, Q4 : 2.44555417583e-12}
2019-04-14 11:05:47.41: SIM {TimeUS : 42434686, Roll : 0.0, Pitch : 0.0, Yaw : 360.0, Alt : 30.1000003815, Lat : 49.28357, Lng : -123.11502, Q1 : 1.0, Q2 : 0.0, Q3 : 0.0, Q4 : -8.00653268129e-08}
2019-04-14 11:05:47.51: SIM {TimeUS : 42534646, Roll : 0.0, Pitch : 0.0, Yaw : 359.99, Alt : 30.1000003815, Lat : 49.28357, Lng : -123.11502, Q1 : 1.0, Q2 : 0.0, Q3 : 0.0, Q4 : -2.31961436725e-07}
2019-04-14 11:05:47.61: SIM {TimeUS : 42634606, Roll : 0.0, Pitch : 0.0, Yaw : 359.99, Alt : 30.1000003815, Lat : 49.28357, Lng : -123.11502, Q1 : 1.0, Q2 : 0.0, Q3 : 0.0, Q4 : -4.25476770261e-07}
2019-04-14 11:05:47.71: SIM {TimeUS : 42734566, Roll : 0.0, Pitch : 0.0, Yaw : 359.99, Alt : 30.1000003815, Lat : 49.28357, Lng : -123.11502, Q1 : 1.0, Q2 : 0.0, Q3 : 0.0, Q4 : -6.25467521331e-07}
2019-04-14 11:05:47.81: SIM {TimeUS : 42834526, Roll : 0.0, Pitch : 0.0, Yaw : 359.99, Alt : 30.1000003815, Lat : 49.28357, Lng : -123.11502, Q1 : 1.0, Q2 : 0.0, Q3 : 0.0, Q4 : -8.16057479369e-07}
2019-04-14 11:05:47.91: SIM {TimeUS : 42934486, Roll : 0.0, Pitch : 0.0, Yaw : 359.99, Alt : 30.1000003815, Lat : 49.28357, Lng : -123.11502, Q1 : 1.0, Q2 : 0.0, Q3 : 0.0, Q4 : -1.01960449683e-06}
2019-04-14 11:05:48.01: SIM {TimeUS : 43034446, Roll : 0.0, Pitch : 0.0, Yaw : 359.99, Alt : 30.1000003815, Lat : 49.28357, Lng : -123.11502, Q1 : 1.0, Q2 : 0.0, Q3 : 0.0, Q4 : -1.16124999749e-06}
2019-04-14 11:05:48.11: SIM {TimeUS : 43134406, Roll : 0.0, Pitch : 0.0, Yaw : 359.99, Alt : 30.1100006104, Lat : 49.28357, Lng : -123.11502, Q1 : 1.0, Q2 : 0.0, Q3 : 0.0, Q4 : -1.37764413921e-06}
2019-04-14 11:05:48.21: SIM {TimeUS : 43234366, Roll : 0.0, Pitch : 0.0, Yaw : 359.99, Alt : 30.1299991608, Lat : 49.28357, Lng : -123.11502, Q1 : 1.0, Q2 : 0.0, Q3 : 0.0, Q4 : -1.60254103321e-06}
2019-04-14 11:05:48.31: SIM {TimeUS : 43334326, Roll : 0.0, Pitch : 0.0, Yaw : 359.99, Alt : 30.1499996185, Lat : 49.28357, Lng : -123.11502, Q1 : 1.0, Q2 : 0.0, Q3 : 0.0, Q4 : -1.8358990701e-06}
2019-04-14 11:05:48.41: SIM {TimeUS : 43434286, Roll : 0.0, Pitch : 0.0, Yaw : 359.99, Alt : 30.1900005341, Lat : 49.28357, Lng : -123.11502, Q1 : 1.0, Q2 : 0.0, Q3 : 0.0, Q4 : -2.08688197745e-06}
2019-04-14 11:05:48.51: SIM {TimeUS : 43534246, Roll : -0.02, Pitch : -0.02, Yaw : 359.99, Alt : 30.2299995422, Lat : 49.28357, Lng : -123.11502, Q1 : 0.999999940395, Q2 : -0.000241282890784, Q3 : -0.000243227972533, Q4 : -3.71083820028e-06}
2019-04-14 11:05:48.61: SIM {TimeUS : 43634206, Roll : -0.25, Pitch : -0.25, Yaw : 359.99, Alt : 30.2999992371, Lat : 49.28357, Lng : -123.11502, Q1 : 0.999995052814, Q2 : -0.00221560662612, Q3 : -0.00225012889132, Q4 : -2.65363614744e-05}
2019-04-14 11:05:48.71: SIM {TimeUS : 43734166, Roll : -0.55, Pitch : -0.56, Yaw : 359.99, Alt : 30.4300003052, Lat : 49.28357, Lng : -123.11502, Q1 : 0.999976217747, Q2 : -0.00481275841594, Q3 : -0.00493887998164, Q4 : -7.98675682745e-05}
2019-04-14 11:05:48.81: SIM {TimeUS : 43834126, Roll : -0.76, Pitch : -0.76, Yaw : 359.98, Alt : 30.5900001526, Lat : 49.28357, Lng : -123.11502, Q1 : 0.999955356121, Q2 : -0.00670485757291, Q3 : -0.00665509747341, Q4 : -0.000157986607519}
2019-04-14 11:05:48.91: SIM {TimeUS : 43934086, Roll : -0.83, Pitch : -0.76, Yaw : 359.97, Alt : 30.75, Lat : 49.28357, Lng : -123.11502, Q1 : 0.999951124191, Q2 : -0.00726163107902, Q3 : -0.00671199709177, Q4 : -0.00024893914815}
2019-04-14 11:05:49.01: SIM {TimeUS : 44034046, Roll : -0.74, Pitch : -0.63, Yaw : 359.96, Alt : 30.8999996185, Lat : 49.28357, Lng : -123.1150201, Q1 : 0.999963462353, Q2 : -0.00649071345106, Q3 : -0.00554994819686, Q4 : -0.000336113327648}
2019-04-14 11:05:49.12: SIM {TimeUS : 44134839, Roll : -0.55, Pitch : -0.43, Yaw : 359.95, Alt : 31.0599994659, Lat : 49.2835701, Lng : -123.1150202, Q1 : 0.999980807304, Q2 : -0.00488056102768, Q3 : -0.00379713391885, Q4 : -0.000416557013523}
2019-04-14 11:05:49.21: SIM {TimeUS : 44234799, Roll : -0.35, Pitch : -0.23, Yaw : 359.94, Alt : 31.2199993134, Lat : 49.2835701, Lng : -123.1150202, Q1 : 0.999993145466, Q2 : -0.00306089082733, Q3 : -0.00202463753521, Q4 : -0.000482210511109}
2019-04-14 11:05:49.31: SIM {TimeUS : 44334759, Roll : -0.16, Pitch : -0.07, Yaw : 359.93, Alt : 31.3799991608, Lat : 49.2835702, Lng : -123.1150203, Q1 : 0.999998629093, Q2 : -0.0014091291232, Q3 : -0.000663937767968, Q4 : -0.000534586142749}
2019-04-14 11:05:49.41: SIM {TimeUS : 44434719, Roll : -0.01, Pitch : 0.0, Yaw : 359.93, Alt : 31.5499992371, Lat : 49.2835702, Lng : -123.1150204, Q1 : 0.999999821186, Q2 : -9.23485786188e-05, Q3 : -2.58353447862e-05, Q4 : -0.000571333803236}
2019-04-14 11:05:49.51: SIM {TimeUS : 44534679, Roll : 0.06, Pitch : 0.02, Yaw : 359.93, Alt : 31.7299995422, Lat : 49.2835703, Lng : -123.1150205, Q1 : 0.999999642372, Q2 : 0.000604168279096, Q3 : 0.000198913374334, Q4 : -0.000587250455283}
2019-04-14 11:05:49.61: SIM {TimeUS : 44634639, Roll : 0.07, Pitch : 0.02, Yaw : 359.93, Alt : 31.9099998474, Lat : 49.2835703, Lng : -123.1150206, Q1 : 0.999999582767, Q2 : 0.000688166648615, Q3 : 0.000199111673282, Q4 : -0.000587524089497}
2019-04-14 11:05:49.71: SIM {TimeUS : 44734599, Roll : 0.06, Pitch : 0.0, Yaw : 359.93, Alt : 32.0900001526, Lat : 49.2835703, Lng : -123.1150206, Q1 : 0.999999701977, Q2 : 0.000536952575203, Q3 : 6.94094705977e-05, Q4 : -0.000571672164369}
2019-04-14 11:05:49.81: SIM {TimeUS : 44834559, Roll : 0.05, Pitch : 0.0, Yaw : 359.93, Alt : 32.2799987793, Lat : 49.2835703, Lng : -123.1150207, Q1 : 0.999999701977, Q2 : 0.00050392880803, Q3 : 4.16400362155e-05, Q4 : -0.000552097510081}
2019-04-14 11:05:49.91: SIM {TimeUS : 44934519, Roll : 0.06, Pitch : 0.01, Yaw : 359.93, Alt : 32.4700012207, Lat : 49.2835703, Lng : -123.1150207, Q1 : 0.999999701977, Q2 : 0.000597713689785, Q3 : 0.000164415076142, Q4 : -0.000528060947545}
2019-04-14 11:05:50.01: SIM {TimeUS : 45034479, Roll : 0.09, Pitch : 0.03, Yaw : 359.94, Alt : 32.6699981689, Lat : 49.2835703, Lng : -123.1150208, Q1 : 0.999999463558, Q2 : 0.000872541684657, Q3 : 0.000291954958811, Q4 : -0.000512761704158}
2019-04-14 11:05:50.11: SIM {TimeUS : 45134439, Roll : 0.13, Pitch : 0.05, Yaw : 359.94, Alt : 32.8699989319, Lat : 49.2835703, Lng : -123.1150208, Q1 : 0.999999046326, Q2 : 0.00120035908185, Q3 : 0.000482921954244, Q4 : -0.000502535200212}
2019-04-14 11:05:50.21: SIM {TimeUS : 45234399, Roll : 0.16, Pitch : 0.09, Yaw : 359.94, Alt : 33.0699996948, Lat : 49.2835704, Lng : -123.1150208, Q1 : 0.999998569489, Q2 : 0.00142648105975, Q3 : 0.000790007528849, Q4 : -0.000497683591675}
2019-04-14 11:05:50.31: SIM {TimeUS : 45334359, Roll : 0.16, Pitch : 0.12, Yaw : 359.94, Alt : 33.2700004578, Lat : 49.2835704, Lng : -123.1150209, Q1 : 0.999998152256, Q2 : 0.00146188877989, Q3 : 0.00112729030661, Q4 : -0.000497604603879}
2019-04-14 11:05:50.41: SIM {TimeUS : 45434319, Roll : 0.15, Pitch : 0.15, Yaw : 359.94, Alt : 33.4799995422, Lat : 49.2835704, Lng : -123.1150209, Q1 : 0.999998033047, Q2 : 0.00136821996421, Q3 : 0.00137563818134, Q4 : -0.000497670902405}
2019-04-14 11:05:50.51: SIM {TimeUS : 45534279, Roll : 0.14, Pitch : 0.17, Yaw : 359.94, Alt : 33.6800003052, Lat : 49.2835704, Lng : -123.1150209, Q1 : 0.999997854233, Q2 : 0.00128557789139, Q3 : 0.00156573811546, Q4 : -0.000498759036418}
2019-04-14 11:05:50.61: SIM {TimeUS : 45634239, Roll : 0.15, Pitch : 0.17, Yaw : 359.94, Alt : 33.8899993896, Lat : 49.2835704, Lng : -123.1150209, Q1 : 0.999997794628, Q2 : 0.00132862001192, Q3 : 0.00155182997696, Q4 : -0.000500238093082}
2019-04-14 11:05:50.71: SIM {TimeUS : 45734199, Roll : 0.15, Pitch : 0.16, Yaw : 359.94, Alt : 34.0999984741, Lat : 49.2835704, Lng : -123.1150209, Q1 : 0.999997913837, Q2 : 0.00132892630063, Q3 : 0.00147501740139, Q4 : -0.000510012614541}
2019-04-14 11:05:50.81: SIM {TimeUS : 45834159, Roll : 0.13, Pitch : 0.15, Yaw : 359.93, Alt : 34.3100013733, Lat : 49.2835706, Lng : -123.1150209, Q1 : 0.999998211861, Q2 : 0.00115216127597, Q3 : 0.00139050150756, Q4 : -0.000531059224159}
2019-04-14 11:05:50.91: SIM {TimeUS : 45934119, Roll : 0.11, Pitch : 0.11, Yaw : 359.93, Alt : 34.5200004578, Lat : 49.2835706, Lng : -123.1150209, Q1 : 0.999998867512, Q2 : 0.000987034640275, Q3 : 0.00101586023811, Q4 : -0.000546731287614}
2019-04-14 11:05:51.01: SIM {TimeUS : 46034079, Roll : 0.09, Pitch : 0.05, Yaw : 359.93, Alt : 34.7400016785, Lat : 49.2835706, Lng : -123.1150209, Q1 : 0.999999344349, Q2 : 0.000835240643937, Q3 : 0.000502128852531, Q4 : -0.0005706170341}
2019-04-14 11:05:51.11: SIM {TimeUS : 46134039, Roll : 0.07, Pitch : 0.02, Yaw : 359.93, Alt : 34.9500007629, Lat : 49.2835706, Lng : -123.1150209, Q1 : 0.999999582767, Q2 : 0.000683651538566, Q3 : 0.00018805853324, Q4 : -0.000608917383943}
2019-04-14 11:05:51.22: SIM {TimeUS : 46234832, Roll : 0.06, Pitch : 0.01, Yaw : 359.92, Alt : 35.1699981689, Lat : 49.2835706, Lng : -123.1150209, Q1 : 0.999999642372, Q2 : 0.000541262619663, Q3 : 9.50685644057e-05, Q4 : -0.000663630431518}
2019-04-14 11:05:51.31: SIM {TimeUS : 46334792, Roll : 0.05, Pitch : 0.02, Yaw : 359.91, Alt : 35.3899993896, Lat : 49.2835706, Lng : -123.1150208, Q1 : 0.999999582767, Q2 : 0.000499370857142, Q3 : 0.000220478948904, Q4 : -0.000725864374544}
2019-04-14 11:05:51.41: SIM {TimeUS : 46434752, Roll : 0.05, Pitch : 0.03, Yaw : 359.91, Alt : 35.5999984741, Lat : 49.2835706, Lng : -123.1150208, Q1 : 0.999999582767, Q2 : 0.000438247225247, Q3 : 0.000317025318509, Q4 : -0.000778690504376}
2019-04-14 11:05:51.51: SIM {TimeUS : 46534712, Roll : 0.03, Pitch : 0.04, Yaw : 359.9, Alt : 35.8199996948, Lat : 49.2835706, Lng : -123.1150208, Q1 : 0.999999523163, Q2 : 0.000262938498054, Q3 : 0.000406552804634, Q4 : -0.000822483329102}
2019-04-14 11:05:51.61: SIM {TimeUS : 46634672, Roll : 0.0, Pitch : 0.05, Yaw : 359.9, Alt : 36.0400009155, Lat : 49.2835706, Lng : -123.1150208, Q1 : 0.999999523163, Q2 : 7.00849996065e-05, Q3 : 0.000499911955558, Q4 : -0.000862128217705}
2019-04-14 11:05:51.71: SIM {TimeUS : 46734632, Roll : 0.0, Pitch : 0.07, Yaw : 359.89, Alt : 36.2599983215, Lat : 49.2835706, Lng : -123.1150208, Q1 : 0.999999403954, Q2 : -3.65815649275e-05, Q3 : 0.000655518728308, Q4 : -0.000892046198715}
2019-04-14 11:05:51.81: SIM {TimeUS : 46834592, Roll : -0.01, Pitch : 0.07, Yaw : 359.89, Alt : 36.4900016785, Lat : 49.2835704, Lng : -123.1150208, Q1 : 0.999999403954, Q2 : -0.000140282747452, Q3 : 0.000627187779173, Q4 : -0.000910269503947}
2019-04-14 11:05:51.91: SIM {TimeUS : 46934552, Roll : -0.02, Pitch : 0.05, Yaw : 359.89, Alt : 36.7099990845, Lat : 49.2835704, Lng : -123.1150207, Q1 : 0.999999403954, Q2 : -0.000222757211304, Q3 : 0.00052223354578, Q4 : -0.000924509193283}
2019-04-14 11:05:52.01: SIM {TimeUS : 47034512, Roll : -0.02, Pitch : 0.04, Yaw : 359.89, Alt : 36.9300003052, Lat : 49.2835704, Lng : -123.1150207, Q1 : 0.999999463558, Q2 : -0.000258311833022, Q3 : 0.000370574678527, Q4 : -0.00093196000671}
2019-04-14 11:05:52.11: SIM {TimeUS : 47134472, Roll : -0.02, Pitch : 0.02, Yaw : 359.89, Alt : 37.1599998474, Lat : 49.2835704, Lng : -123.1150207, Q1 : 0.999999523163, Q2 : -0.000209181234823, Q3 : 0.000196238397621, Q4 : -0.000930413254537}
2019-04-14 11:05:52.21: SIM {TimeUS : 47234432, Roll : 0.0, Pitch : 0.0, Yaw : 359.89, Alt : 37.3800010681, Lat : 49.2835704, Lng : -123.1150207, Q1 : 0.999999582767, Q2 : -1.27420080389e-05, Q3 : 4.6929326345e-05, Q4 : -0.000925450178329}
2019-04-14 11:05:52.31: SIM {TimeUS : 47334392, Roll : 0.0, Pitch : -0.01, Yaw : 359.89, Alt : 37.6100006104, Lat : 49.2835704, Lng : -123.1150207, Q1 : 0.999999582767, Q2 : 3.46300657839e-05, Q3 : -0.000167793550645, Q4 : -0.000915053009521}
2019-04-14 11:05:52.41: SIM {TimeUS : 47434352, Roll : -0.01, Pitch : -0.05, Yaw : 359.89, Alt : 37.8300018311, Lat : 49.2835704, Lng : -123.1150207, Q1 : 0.999999523163, Q2 : -0.000116226168757, Q3 : -0.000453864020528, Q4 : -0.000904645363335}
2019-04-14 11:05:52.51: SIM {TimeUS : 47534312, Roll : -0.04, Pitch : -0.07, Yaw : 359.89, Alt : 38.0600013733, Lat : 49.2835704, Lng : -123.1150207, Q1 : 0.999999284744, Q2 : -0.000436569243902, Q3 : -0.000659960031044, Q4 : -0.000907562032808}
2019-04-14 11:05:52.61: SIM {TimeUS : 47634272, Roll : -0.09, Pitch : -0.08, Yaw : 359.89, Alt : 38.2900009155, Lat : 49.2835704, Lng : -123.1150207, Q1 : 0.999998986721, Q2 : -0.000796378822997, Q3 : -0.000726711296011, Q4 : -0.000930329493713}
2019-04-14 11:05:52.71: SIM {TimeUS : 47734232, Roll : -0.11, Pitch : -0.08, Yaw : 359.89, Alt : 38.5200004578, Lat : 49.2835704, Lng : -123.1150207, Q1 : 0.999998748302, Q2 : -0.00103532779031, Q3 : -0.000740882358514, Q4 : -0.000959113473073}
2019-04-14 11:05:52.81: SIM {TimeUS : 47834192, Roll : -0.12, Pitch : -0.07, Yaw : 359.88, Alt : 38.7400016785, Lat : 49.2835704, Lng : -123.1150206, Q1 : 0.999998688698, Q2 : -0.0011095587397, Q3 : -0.000682083016727, Q4 : -0.000986556406133}
2019-04-14 11:05:52.91: SIM {TimeUS : 47934152, Roll : -0.11, Pitch : -0.05, Yaw : 359.88, Alt : 38.9700012207, Lat : 49.2835704, Lng : -123.1150206, Q1 : 0.999998867512, Q2 : -0.000973873306066, Q3 : -0.00048435467761, Q4 : -0.00101776444353}
2019-04-14 11:05:53.01: SIM {TimeUS : 48034112, Roll : -0.08, Pitch : -0.04, Yaw : 359.87, Alt : 39.2000007629, Lat : 49.2835704, Lng : -123.1150206, Q1 : 0.99999910593, Q2 : -0.000733115070034, Q3 : -0.00041631856584, Q4 : -0.00104983407073}
2019-04-14 11:05:53.11: SIM {TimeUS : 48134072, Roll : -0.06, Pitch : -0.05, Yaw : 359.87, Alt : 39.4300003052, Lat : 49.2835704, Lng : -123.1150206, Q1 : 0.999999165535, Q2 : -0.000543832662515, Q3 : -0.000449998333352, Q4 : -0.0010907643009}
2019-04-14 11:05:53.21: SIM {TimeUS : 48234032, Roll : -0.05, Pitch : -0.03, Yaw : 359.87, Alt : 39.6599998474, Lat : 49.2835704, Lng : -123.1150206, Q1 : 0.99999922514, Q2 : -0.000442647666205, Q3 : -0.000313962635119, Q4 : -0.00112710054964}
2019-04-14 11:05:53.32: SIM {TimeUS : 48334825, Roll : -0.06, Pitch : 0.0, Yaw : 359.86, Alt : 39.9000015259, Lat : 49.2835704, Lng : -123.1150206, Q1 : 0.999999165535, Q2 : -0.000567962764762, Q3 : -7.00824457454e-05, Q4 : -0.00115998717956}
2019-04-14 11:05:53.41: SIM {TimeUS : 48434785, Roll : -0.07, Pitch : 0.01, Yaw : 359.86, Alt : 40.1300010681, Lat : 49.2835704, Lng : -123.1150206, Q1 : 0.99999910593, Q2 : -0.000618843827397, Q3 : 0.000169521896169, Q4 : -0.00119125598576}
2019-04-14 11:05:53.51: SIM {TimeUS : 48534745, Roll : -0.06, Pitch : 0.05, Yaw : 359.85, Alt : 40.3600006104, Lat : 49.2835704, Lng : -123.1150207, Q1 : 0.999998986721, Q2 : -0.000524197530467, Q3 : 0.000457332556834, Q4 : -0.00122552004177}
2019-04-14 11:05:53.61: SIM {TimeUS : 48634705, Roll : -0.04, Pitch : 0.06, Yaw : 359.85, Alt : 40.5900001526, Lat : 49.2835704, Lng : -123.1150207, Q1 : 0.999999046326, Q2 : -0.000377793272492, Q3 : 0.000535196333658, Q4 : -0.00124916154891}
2019-04-14 11:05:53.71: SIM {TimeUS : 48734665, Roll : 0.0, Pitch : 0.06, Yaw : 359.85, Alt : 40.8199996948, Lat : 49.2835704, Lng : -123.1150207, Q1 : 0.999999046326, Q2 : -7.55993460189e-05, Q3 : 0.000542307330761, Q4 : -0.00126226083376}
2019-04-14 11:05:53.81: SIM {TimeUS : 48834625, Roll : 0.03, Pitch : 0.07, Yaw : 359.85, Alt : 41.0499992371, Lat : 49.2835706, Lng : -123.1150207, Q1 : 0.999998927116, Q2 : 0.000293138291454, Q3 : 0.000676124356687, Q4 : -0.00127010513097}
2019-04-14 11:05:53.91: SIM {TimeUS : 48934585, Roll : 0.09, Pitch : 0.1, Yaw : 359.85, Alt : 41.2900009155, Lat : 49.2835706, Lng : -123.1150207, Q1 : 0.999998450279, Q2 : 0.000787216704339, Q3 : 0.00091175083071, Q4 : -0.00127849553246}
2019-04-14 11:05:54.01: SIM {TimeUS : 49034545, Roll : 0.12, Pitch : 0.13, Yaw : 359.85, Alt : 41.5200004578, Lat : 49.2835706, Lng : -123.1150207, Q1 : 0.999997913837, Q2 : 0.00108177552465, Q3 : 0.00113759795204, Q4 : -0.00129084021319}
2019-04-14 11:05:54.11: SIM {TimeUS : 49134505, Roll : 0.1, Pitch : 0.14, Yaw : 359.85, Alt : 41.75, Lat : 49.2835706, Lng : -123.1150207, Q1 : 0.999997913837, Q2 : 0.000957394368015, Q3 : 0.00128544971813, Q4 : -0.0012978122104}
2019-04-14 11:05:54.21: SIM {TimeUS : 49234465, Roll : 0.05, Pitch : 0.15, Yaw : 359.84, Alt : 41.9900016785, Lat : 49.2835706, Lng : -123.1150207, Q1 : 0.999998092651, Q2 : 0.000493619241752, Q3 : 0.0013607009314, Q4 : -0.00131191604305}
2019-04-14 11:05:54.31: SIM {TimeUS : 49334425, Roll : 0.0, Pitch : 0.15, Yaw : 359.84, Alt : 42.2200012207, Lat : 49.2835706, Lng : -123.1150207, Q1 : 0.999998211861, Q2 : 2.26093252422e-05, Q3 : 0.00136375625152, Q4 : -0.00133248884231}
2019-04-14 11:05:54.41: SIM {TimeUS : 49434385, Roll : -0.02, Pitch : 0.13, Yaw : 359.84, Alt : 42.4599990845, Lat : 49.2835706, Lng : -123.1150207, Q1 : 0.999998390675, Q2 : -0.000207686491194, Q3 : 0.00115261401515, Q4 : -0.00135288678575}
2019-04-14 11:05:54.51: SIM {TimeUS : 49534345, Roll : -0.02, Pitch : 0.09, Yaw : 359.84, Alt : 42.6899986267, Lat : 49.2835706, Lng : -123.1150207, Q1 : 0.999998688698, Q2 : -0.000228496894124, Q3 : 0.000841896573547, Q4 : -0.00137094117235}
2019-04-14 11:05:54.61: SIM {TimeUS : 49634305, Roll : -0.01, Pitch : 0.09, Yaw : 359.84, Alt : 42.9300003052, Lat : 49.2835706, Lng : -123.1150207, Q1 : 0.999998688698, Q2 : -0.000112130554044, Q3 : 0.000833560538013, Q4 : -0.00139333563857}
2019-04-14 11:05:54.71: SIM {TimeUS : 49734265, Roll : 0.02, Pitch : 0.11, Yaw : 359.83, Alt : 43.1599998474, Lat : 49.2835706, Lng : -123.1150207, Q1 : 0.999998450279, Q2 : 0.000204850628506, Q3 : 0.0010334784165, Q4 : -0.00143005454447}
2019-04-14 11:05:54.81: SIM {TimeUS : 49834225, Roll : 0.07, Pitch : 0.14, Yaw : 359.83, Alt : 43.4000015259, Lat : 49.2835706, Lng : -123.1150207, Q1 : 0.999997913837, Q2 : 0.000694706221111, Q3 : 0.00124365102965, Q4 : -0.00146092916839}
2019-04-14 11:05:54.91: SIM {TimeUS : 49934185, Roll : 0.12, Pitch : 0.13, Yaw : 359.82, Alt : 43.6300010681, Lat : 49.2835704, Lng : -123.1150207, Q1 : 0.99999755621, Q2 : 0.00107659306377, Q3 : 0.00120179506484, Q4 : -0.00148984917905}
2019-04-14 11:05:55.01: SIM {TimeUS : 50034145, Roll : 0.12, Pitch : 0.11, Yaw : 359.82, Alt : 43.8699989319, Lat : 49.2835704, Lng : -123.1150207, Q1 : 0.999997675419, Q2 : 0.00112084986176, Q3 : 0.00103751558345, Q4 : -0.00152538018301}
2019-04-14 11:05:55.11: SIM {TimeUS : 50134105, Roll : 0.08, Pitch : 0.09, Yaw : 359.82, Alt : 44.0999984741, Lat : 49.2835704, Lng : -123.1150207, Q1 : 0.999998152256, Q2 : 0.000759839138482, Q3 : 0.000867044960614, Q4 : -0.00154912797734}
2019-04-14 11:05:55.21: SIM {TimeUS : 50234065, Roll : 0.02, Pitch : 0.08, Yaw : 359.82, Alt : 44.3400001526, Lat : 49.2835704, Lng : -123.1150207, Q1 : 0.999998450279, Q2 : 0.000240919049247, Q3 : 0.000740960473195, Q4 : -0.00156953383703}
2019-04-14 11:05:55.31: SIM {TimeUS : 50334025, Roll : -0.01, Pitch : 0.08, Yaw : 359.81, Alt : 44.5699996948, Lat : 49.2835704, Lng : -123.1150207, Q1 : 0.999998450279, Q2 : -0.000125506296172, Q3 : 0.000738841423299, Q4 : -0.00159243110102}
2019-04-14 11:05:55.41: SIM {TimeUS : 50434818, Roll : -0.03, Pitch : 0.07, Yaw : 359.81, Alt : 44.8100013733, Lat : 49.2835704, Lng : -123.1150206, Q1 : 0.999998390675, Q2 : -0.000329632021021, Q3 : 0.000696066475939, Q4 : -0.00161566957831}
2019-04-14 11:05:55.51: SIM {TimeUS : 50534778, Roll : -0.03, Pitch : 0.05, Yaw : 359.81, Alt : 45.0499992371, Lat : 49.2835704, Lng : -123.1150206, Q1 : 0.999998450279, Q2 : -0.00033596274443, Q3 : 0.000494508596603, Q4 : -0.00164187769406}
2019-04-14 11:05:55.61: SIM {TimeUS : 50634738, Roll : -0.04, Pitch : 0.03, Yaw : 359.8, Alt : 45.2799987793, Lat : 49.2835704, Lng : -123.1150206, Q1 : 0.999998509884, Q2 : -0.000377823103918, Q3 : 0.000280716252746, Q4 : -0.00166898209136}
2019-04-14 11:05:55.71: SIM {TimeUS : 50734698, Roll : -0.03, Pitch : 0.01, Yaw : 359.8, Alt : 45.5200004578, Lat : 49.2835703, Lng : -123.1150206, Q1 : 0.999998509884, Q2 : -0.000325944769429, Q3 : 0.000108323059976, Q4 : -0.00169605505653}
2019-04-14 11:05:55.81: SIM {TimeUS : 50834658, Roll : -0.02, Pitch : 0.0, Yaw : 359.8, Alt : 45.75, Lat : 49.2835703, Lng : -123.1150206, Q1 : 0.999998509884, Q2 : -0.000193237530766, Q3 : 2.25650983339e-05, Q4 : -0.00172691582702}
2019-04-14 11:05:55.91: SIM {TimeUS : 50934618, Roll : -0.02, Pitch : 0.0, Yaw : 359.79, Alt : 45.9799995422, Lat : 49.2835703, Lng : -123.1150206, Q1 : 0.999998450279, Q2 : -0.000180933988304, Q3 : 5.12030310347e-05, Q4 : -0.00175789918285}
2019-04-14 11:05:56.01: SIM {TimeUS : 51034578, Roll : -0.02, Pitch : 0.0, Yaw : 359.79, Alt : 46.2099990845, Lat : 49.2835703, Lng : -123.1150206, Q1 : 0.999998390675, Q2 : -0.000258027808741, Q3 : 7.30214105715e-06, Q4 : -0.00178965379018}
2019-04-14 11:05:56.11: SIM {TimeUS : 51134538, Roll : -0.03, Pitch : -0.01, Yaw : 359.79, Alt : 46.4399986267, Lat : 49.2835703, Lng : -123.1150205, Q1 : 0.999998271465, Q2 : -0.00032212890801, Q3 : -0.000160521492944, Q4 : -0.0018227720866}
2019-04-14 11:05:56.21: SIM {TimeUS : 51234498, Roll : -0.03, Pitch : -0.03, Yaw : 359.78, Alt : 46.6599998474, Lat : 49.2835703, Lng : -123.1150205, Q1 : 0.999998211861, Q2 : -0.000315237703035, Q3 : -0.000304320274154, Q4 : -0.00185452052392}
2019-04-14 11:05:56.31: SIM {TimeUS : 51334458, Roll : -0.02, Pitch : -0.04, Yaw : 359.78, Alt : 46.8699989319, Lat : 49.2835703, Lng : -123.1150205, Q1 : 0.999998152256, Q2 : -0.000228810589761, Q3 : -0.000406155129895, Q4 : -0.00188643974252}
2019-04-14 11:05:56.41: SIM {TimeUS : 51434418, Roll : -0.02, Pitch : -0.05, Yaw : 359.78, Alt : 47.0800018311, Lat : 49.2835703, Lng : -123.1150205, Q1 : 0.999998033047, Q2 : -0.00025460094912, Q3 : -0.000445268757176, Q4 : -0.00191987142898}
2019-04-14 11:05:56.51: SIM {TimeUS : 51534378, Roll : -0.05, Pitch : -0.04, Yaw : 359.77, Alt : 47.2799987793, Lat : 49.2835703, Lng : -123.1150205, Q1 : 0.999997973442, Q2 : -0.000453645770904, Q3 : -0.000362717459211, Q4 : -0.0019489643164}
2019-04-14 11:05:56.61: SIM {TimeUS : 51634338, Roll : -0.08, Pitch : -0.03, Yaw : 359.77, Alt : 47.4700012207, Lat : 49.2835703, Lng : -123.1150205, Q1 : 0.999997735023, Q2 : -0.000744787452277, Q3 : -0.000318722683005, Q4 : -0.00197247718461}
2019-04-14 11:05:56.71: SIM {TimeUS : 51734298, Roll : -0.11, Pitch : -0.04, Yaw : 359.77, Alt : 47.6599998474, Lat : 49.2835703, Lng : -123.1150205, Q1 : 0.999997377396, Q2 : -0.00104104704224, Q3 : -0.000381400401238, Q4 : -0.00199579214677}
2019-04-14 11:05:56.81: SIM {TimeUS : 51834258, Roll : -0.15, Pitch : -0.06, Yaw : 359.76, Alt : 47.8300018311, Lat : 49.2835703, Lng : -123.1150205, Q1 : 0.999996840954, Q2 : -0.00137449696194, Q3 : -0.000562514353078, Q4 : -0.00202123471536}
2019-04-14 11:05:56.91: SIM {TimeUS : 51934218, Roll : -0.17, Pitch : -0.06, Yaw : 359.76, Alt : 47.9900016785, Lat : 49.2835703, Lng : -123.1150205, Q1 : 0.999996542931, Q2 : -0.00153320725076, Q3 : -0.000592613650952, Q4 : -0.00204770220444}
2019-04-14 11:05:57.01: SIM {TimeUS : 52034178, Roll : -0.16, Pitch : -0.06, Yaw : 359.76, Alt : 48.1399993896, Lat : 49.2835703, Lng : -123.1150205, Q1 : 0.999996721745, Q2 : -0.0014208953362, Q3 : -0.000530490302481, Q4 : -0.00207154988311}
2019-04-14 11:05:57.11: SIM {TimeUS : 52134138, Roll : -0.13, Pitch : -0.04, Yaw : 359.76, Alt : 48.2700004578, Lat : 49.2835703, Lng : -123.1150205, Q1 : 0.999997019768, Q2 : -0.00116169138346, Q3 : -0.000416532304371, Q4 : -0.00209425133653}
2019-04-14 11:05:57.21: SIM {TimeUS : 52234098, Roll : -0.1, Pitch : -0.03, Yaw : 359.75, Alt : 48.4000015259, Lat : 49.2835703, Lng : -123.1150205, Q1 : 0.999997258186, Q2 : -0.000930239795707, Q3 : -0.000342512823408, Q4 : -0.00211636628956}
2019-04-14 11:05:57.31: SIM {TimeUS : 52334058, Roll : -0.07, Pitch : -0.04, Yaw : 359.75, Alt : 48.5099983215, Lat : 49.2835703, Lng : -123.1150205, Q1 : 0.999997377396, Q2 : -0.000686763378326, Q3 : -0.000377900258172, Q4 : -0.00213912059553}
2019-04-14 11:05:57.42: SIM {TimeUS : 52434851, Roll : -0.04, Pitch : -0.05, Yaw : 359.75, Alt : 48.6100006104, Lat : 49.2835703, Lng : -123.1150205, Q1 : 0.999997496605, Q2 : -0.000404644088121, Q3 : -0.000457026646473, Q4 : -0.00216337898746}
2019-04-14 11:05:57.51: SIM {TimeUS : 52534811, Roll : -0.03, Pitch : -0.06, Yaw : 359.74, Alt : 48.7000007629, Lat : 49.2835703, Lng : -123.1150205, Q1 : 0.999997377396, Q2 : -0.000264072557911, Q3 : -0.000560757296626, Q4 : -0.00219461624511}
2019-04-14 11:05:57.61: SIM {TimeUS : 52634771, Roll : -0.03, Pitch : -0.07, Yaw : 359.74, Alt : 48.7799987793, Lat : 49.2835703, Lng : -123.1150206, Q1 : 0.999997258186, Q2 : -0.000279384432361, Q3 : -0.000669578264933, Q4 : -0.00222438992932}
2019-04-14 11:05:57.71: SIM {TimeUS : 52734731, Roll : -0.01, Pitch : -0.07, Yaw : 359.74, Alt : 48.8400001526, Lat : 49.2835703, Lng : -123.1150206, Q1 : 0.999997258186, Q2 : -9.03241088963e-05, Q3 : -0.000640687183477, Q4 : -0.00224974215962}
2019-04-14 11:05:57.81: SIM {TimeUS : 52834691, Roll : 0.02, Pitch : -0.06, Yaw : 359.73, Alt : 48.9000015259, Lat : 49.2835703, Lng : -123.1150206, Q1 : 0.999997198582, Q2 : 0.000236860476434, Q3 : -0.000566734874155, Q4 : -0.0022792101372}
2019-04-14 11:05:57.91: SIM {TimeUS : 52934651, Roll : 0.14, Pitch : -0.12, Yaw : 359.73, Alt : 48.9500007629, Lat : 49.2835703, Lng : -123.1150206, Q1 : 0.999996006489, Q2 : 0.00123971840367, Q3 : -0.00106274615973, Q4 : -0.0023095482029}
2019-04-14 11:05:58.01: SIM {TimeUS : 53034611, Roll : 0.4, Pitch : -0.33, Yaw : 359.73, Alt : 48.9900016785, Lat : 49.2835703, Lng : -123.1150206, Q1 : 0.99998664856, Q2 : 0.00356041686609, Q3 : -0.00292150024325, Q4 : -0.00233481312171}
2019-04-14 11:05:58.11: SIM {TimeUS : 53134571, Roll : 0.87, Pitch : -0.74, Yaw : 359.72, Alt : 49.0299987793, Lat : 49.2835703, Lng : -123.1150206, Q1 : 0.999946892262, Q2 : 0.00759422779083, Q3 : -0.00656102458015, Q4 : -0.00235100160353}
2019-04-14 11:05:58.21: SIM {TimeUS : 53234531, Roll : 1.49, Pitch : -1.35, Yaw : 359.71, Alt : 49.0600013733, Lat : 49.2835703, Lng : -123.1150206, Q1 : 0.99984228611, Q2 : 0.0130314314738, Q3 : -0.0118374340236, Q4 : -0.00234843720682}
2019-04-14 11:05:58.31: SIM {TimeUS : 53334491, Roll : 2.22, Pitch : -2.05, Yaw : 359.69, Alt : 49.0900001526, Lat : 49.2835704, Lng : -123.1150205, Q1 : 0.9996483922, Q2 : 0.0193542111665, Q3 : -0.0179764460772, Q4 : -0.00231258757412}
2019-04-14 11:05:58.41: SIM {TimeUS : 53434451, Roll : 2.96, Pitch : -2.75, Yaw : 359.67, Alt : 49.1100006104, Lat : 49.2835706, Lng : -123.1150204, Q1 : 0.999374449253, Q2 : 0.0258018132299, Q3 : -0.0240846443921, Q4 : -0.00222509168088}
2019-04-14 11:05:58.51: SIM {TimeUS : 53534411, Roll : 3.6, Pitch : -3.34, Yaw : 359.65, Alt : 49.1300010681, Lat : 49.2835707, Lng : -123.1150203, Q1 : 0.999077439308, Q2 : 0.03133893013, Q3 : -0.0292896330357, Q4 : -0.00206779432483}
2019-04-14 11:05:58.61: SIM {TimeUS : 53634371, Roll : 4.09, Pitch : -3.79, Yaw : 359.65, Alt : 49.1500015259, Lat : 49.2835708, Lng : -123.11502, Q1 : 0.998813152313, Q2 : 0.0356148593128, Q3 : -0.0331733711064, Q4 : -0.00184446433559}
2019-04-14 11:05:58.71: SIM {TimeUS : 53734331, Roll : 4.46, Pitch : -4.09, Yaw : 359.66, Alt : 49.1599998474, Lat : 49.2835709, Lng : -123.1150198, Q1 : 0.998601615429, Q2 : 0.0388629473746, Q3 : -0.0358062125742, Q4 : -0.00156730145682}
2019-04-14 11:05:58.81: SIM {TimeUS : 53834291, Roll : 4.76, Pitch : -4.32, Yaw : 359.67, Alt : 49.1800003052, Lat : 49.2835712, Lng : -123.1150195, Q1 : 0.998421788216, Q2 : 0.0414758957922, Q3 : -0.0378425568342, Q4 : -0.00127948715817}
2019-04-14 11:05:58.91: SIM {TimeUS : 53934251, Roll : 5.03, Pitch : -4.57, Yaw : 359.68, Alt : 49.1899986267, Lat : 49.2835715, Lng : -123.115019, Q1 : 0.998240113258, Q2 : 0.0437662154436, Q3 : -0.0400029011071, Q4 : -0.00100961222779}
2019-04-14 11:05:59.01: SIM {TimeUS : 54034211, Roll : 5.29, Pitch : -4.85, Yaw : 359.68, Alt : 49.2000007629, Lat : 49.2835719, Lng : -123.1150184, Q1 : 0.998037934303, Q2 : 0.0460497885942, Q3 : -0.042416844517, Q4 : -0.000749449769501}
2019-04-14 11:05:59.11: SIM {TimeUS : 54134171, Roll : 5.55, Pitch : -5.15, Yaw : 359.69, Alt : 49.2099990845, Lat : 49.2835722, Lng : -123.1150178, Q1 : 0.997816741467, Q2 : 0.0482760518789, Q3 : -0.0450664646924, Q4 : -0.0004896504106}
2019-04-14 11:05:59.21: SIM {TimeUS : 54234131, Roll : 5.78, Pitch : -5.42, Yaw : 359.7, Alt : 49.2200012207, Lat : 49.2835727, Lng : -123.1150171, Q1 : 0.997612953186, Q2 : 0.050246655941, Q3 : -0.0473669804633, Q4 : -0.000223452196224}
2019-04-14 11:05:59.31: SIM {TimeUS : 54334091, Roll : 5.96, Pitch : -5.6, Yaw : 359.71, Alt : 49.2200012207, Lat : 49.2835732, Lng : -123.1150163, Q1 : 0.997455060482, Q2 : 0.0518527068198, Q3 : -0.0489358492196, Q4 : 2.76253449556e-05}
2019-04-14 11:05:59.41: SIM {TimeUS : 54434051, Roll : 6.1, Pitch : -5.72, Yaw : 359.71, Alt : 49.2299995422, Lat : 49.2835738, Lng : -123.1150154, Q1 : 0.997339069843, Q2 : 0.0530197434127, Q3 : -0.0500366203487, Q4 : 0.000212737431866}
2019-04-14 11:05:59.52: SIM {TimeUS : 54534844, Roll : 6.2, Pitch : -5.82, Yaw : 359.72, Alt : 49.2400016785, Lat : 49.2835744, Lng : -123.1150144, Q1 : 0.997250497341, Q2 : 0.0539100877941, Q3 : -0.0508435368538, Q4 : 0.000352260278305}
2019-04-14 11:05:59.61: SIM {TimeUS : 54634804, Roll : 6.28, Pitch : -5.89, Yaw : 359.72, Alt : 49.2400016785, Lat : 49.283575, Lng : -123.1150133, Q1 : 0.997179508209, Q2 : 0.0546288751066, Q3 : -0.0514636263251, Q4 : 0.000458487804281}
2019-04-14 11:05:59.71: SIM {TimeUS : 54734764, Roll : 6.42, Pitch : -5.97, Yaw : 359.73, Alt : 49.2400016785, Lat : 49.2835757, Lng : -123.1150122, Q1 : 0.997074723244, Q2 : 0.0558488108218, Q3 : -0.0521776378155, Q4 : 0.00063671375392}
2019-04-14 11:05:59.81: SIM {TimeUS : 54834724, Roll : 6.8, Pitch : -5.95, Yaw : 359.99, Alt : 49.25, Lat : 49.2835764, Lng : -123.115011, Q1 : 0.996887803078, Q2 : 0.0592673681676, Q3 : -0.05189550668, Q4 : 0.00301178311929}
2019-04-14 11:05:59.91: SIM {TimeUS : 54934684, Roll : 7.44, Pitch : -5.85, Yaw : 1.11, Alt : 49.25, Lat : 49.2835771, Lng : -123.1150096, Q1 : 0.996509969234, Q2 : 0.0652987957001, Q3 : -0.0503483973444, Q4 : 0.0130020901561}
2019-04-14 11:06:00.01: SIM {TimeUS : 55034644, Roll : 8.03, Pitch : -5.94, Yaw : 3.69, Alt : 49.25, Lat : 49.283578, Lng : -123.1150083, Q1 : 0.995562016964, Q2 : 0.0716394111514, Q3 : -0.049449339509, Q4 : 0.0357606559992}
2019-04-14 11:06:00.11: SIM {TimeUS : 55134604, Roll : 8.3, Pitch : -6.46, Yaw : 7.86, Alt : 49.2599983215, Lat : 49.2835788, Lng : -123.1150068, Q1 : 0.993159234524, Q2 : 0.0760234370828, Q3 : -0.0511374548078, Q4 : 0.0723889842629}
2019-04-14 11:06:00.21: SIM {TimeUS : 55234564, Roll : 8.02, Pitch : -7.42, Yaw : 13.47, Alt : 49.2599983215, Lat : 49.2835797, Lng : -123.1150052, Q1 : 0.988045573235, Q2 : 0.0769634395838, Q3 : -0.0559790618718, Q4 : 0.121280618012}
2019-04-14 11:06:00.31: SIM {TimeUS : 55334524, Roll : 7.11, Pitch : -8.69, Yaw : 20.27, Alt : 49.2599983215, Lat : 49.2835806, Lng : -123.1150035, Q1 : 0.978840172291, Q2 : 0.0741861015558, Q3 : -0.0636225566268, Q4 : 0.179779246449}
2019-04-14 11:06:00.41: SIM {TimeUS : 55434484, Roll : 5.54, Pitch : -10.07, Yaw : 28.0, Alt : 49.2599983215, Lat : 49.2835816, Lng : -123.1150016, Q1 : 0.964382886887, Q2 : 0.0679391399026, Q3 : -0.0734435319901, Q4 : 0.24485899508}
2019-04-14 11:06:00.51: SIM {TimeUS : 55534444, Roll : 3.2, Pitch : -11.35, Yaw : 36.3, Alt : 49.2599983215, Lat : 49.2835824, Lng : -123.1149997, Q1 : 0.944331765175, Q2 : 0.0572193786502, Q3 : -0.0852684825659, Q4 : 0.312558442354}
2019-04-14 11:06:00.61: SIM {TimeUS : 55634404, Roll : 0.16, Pitch : -12.25, Yaw : 44.47, Alt : 49.2700004578, Lat : 49.2835835, Lng : -123.1149976, Q1 : 0.920281469822, Q2 : 0.0416915975511, Q3 : -0.0982930883765, Q4 : 0.376407116652}
2019-04-14 11:06:00.71: SIM {TimeUS : 55734364, Roll : -3.01, Pitch : -12.66, Yaw : 51.61, Alt : 49.2700004578, Lat : 49.2835846, Lng : -123.1149955, Q1 : 0.895733296871, Q2 : 0.0244773626328, Q3 : -0.110644154251, Q4 : 0.429907679558}
2019-04-14 11:06:00.81: SIM {TimeUS : 55834324, Roll : -5.66, Pitch : -12.67, Yaw : 57.03, Alt : 49.2700004578, Lat : 49.2835858, Lng : -123.1149934, Q1 : 0.874843895435, Q2 : 0.00949503201991, Q3 : -0.120286285877, Q4 : 0.469136655331}
2019-04-14 11:06:00.91: SIM {TimeUS : 55934284, Roll : -7.34, Pitch : -12.51, Yaw : 60.44, Alt : 49.2700004578, Lat : 49.2835871, Lng : -123.1149912, Q1 : 0.860680937767, Q2 : -0.000295660080155, Q3 : -0.126066803932, Q4 : 0.493290364742}
2019-04-14 11:06:01.01: SIM {TimeUS : 56034244, Roll : -7.96, Pitch : -12.41, Yaw : 61.94, Alt : 49.2700004578, Lat : 49.2835884, Lng : -123.1149889, Q1 : 0.854206621647, Q2 : -0.00366034847684, Q3 : -0.128048047423, Q4 : 0.503906130791}
2019-04-14 11:06:01.11: SIM {TimeUS : 56134204, Roll : -7.62, Pitch : -12.55, Yaw : 61.83, Alt : 49.2700004578, Lat : 49.2835898, Lng : -123.1149867, Q1 : 0.854623734951, Q2 : -0.000667111831717, Q3 : -0.12757255137, Q4 : 0.503331959248}
2019-04-14 11:06:01.21: SIM {TimeUS : 56234164, Roll : -6.57, Pitch : -12.97, Yaw : 60.47, Alt : 49.2700004578, Lat : 49.2835915, Lng : -123.1149844, Q1 : 0.86027187109, Q2 : 0.00759588507935, Q3 : -0.126108422875, Q4 : 0.493934482336}
2019-04-14 11:06:01.31: SIM {TimeUS : 56334124, Roll : -5.05, Pitch : -13.6, Yaw : 58.2, Alt : 49.2700004578, Lat : 49.2835932, Lng : -123.114982, Q1 : 0.86929666996, Q2 : 0.0192860644311, Q3 : -0.124686032534, Q4 : 0.477917045355}
2019-04-14 11:06:01.41: SIM {TimeUS : 56434084, Roll : -3.29, Pitch : -14.31, Yaw : 55.34, Alt : 49.2700004578, Lat : 49.2835949, Lng : -123.1149797, Q1 : 0.880002140999, Q2 : 0.0325759723783, Q3 : -0.123589709401, Q4 : 0.457450121641}
2019-04-14 11:06:01.51: SIM {TimeUS : 56534044, Roll : -1.46, Pitch : -14.99, Yaw : 52.21, Alt : 49.2799987793, Lat : 49.2835966, Lng : -123.1149772, Q1 : 0.890966176987, Q2 : 0.0459971763194, Q3 : -0.122720338404, Q4 : 0.434745073318}
2019-04-14 11:06:01.62: SIM {TimeUS : 56634837, Roll : 0.27, Pitch : -15.49, Yaw : 49.1, Alt : 49.2799987793, Lat : 49.2835984, Lng : -123.1149746, Q1 : 0.901159584522, Q2 : 0.0581972002983, Q3 : -0.121586173773, Q4 : 0.411996722221}
2019-04-14 11:06:01.71: SIM {TimeUS : 56734797, Roll : 1.74, Pitch : -15.76, Yaw : 46.38, Alt : 49.2799987793, Lat : 49.2836004, Lng : -123.1149719, Q1 : 0.909574985504, Q2 : 0.0679033622146, Q3 : -0.120098076761, Q4 : 0.391968071461}
2019-04-14 11:06:01.81: SIM {TimeUS : 56834757, Roll : 2.82, Pitch : -15.85, Yaw : 44.28, Alt : 49.2799987793, Lat : 49.2836023, Lng : -123.1149691, Q1 : 0.915843904018, Q2 : 0.0745724961162, Q3 : -0.118478320539, Q4 : 0.376339912415}
2019-04-14 11:06:01.91: SIM {TimeUS : 56934717, Roll : 3.43, Pitch : -15.8, Yaw : 42.93, Alt : 49.2799987793, Lat : 49.2836042, Lng : -123.1149662, Q1 : 0.919858217239, Q2 : 0.0779285952449, Q3 : -0.117063298821, Q4 : 0.366175085306}
2019-04-14 11:06:02.01: SIM {TimeUS : 57034677, Roll : 3.57, Pitch : -15.73, Yaw : 42.35, Alt : 49.2799987793, Lat : 49.2836062, Lng : -123.1149631, Q1 : 0.921689987183, Q2 : 0.0782556682825, Q3 : -0.116379417479, Q4 : 0.361689776182}
2019-04-14 11:06:02.11: SIM {TimeUS : 57134637, Roll : 3.3, Pitch : -15.69, Yaw : 42.47, Alt : 49.2799987793, Lat : 49.283608, Lng : -123.1149599, Q1 : 0.921533644199, Q2 : 0.0760972797871, Q3 : -0.116892747581, Q4 : 0.362382560968}
2019-04-14 11:06:02.21: SIM {TimeUS : 57234597, Roll : 2.7, Pitch : -15.73, Yaw : 43.16, Alt : 49.2799987793, Lat : 49.2836101, Lng : -123.1149566, Q1 : 0.919702887535, Q2 : 0.0721012800932, Q3 : -0.118632927537, Q4 : 0.367252379656}
2019-04-14 11:06:02.31: SIM {TimeUS : 57334557, Roll : 1.9, Pitch : -15.83, Yaw : 44.23, Alt : 49.2799987793, Lat : 49.2836121, Lng : -123.1149533, Q1 : 0.916586458683, Q2 : 0.0671317800879, Q3 : -0.121354714036, Q4 : 0.375014215708}
2019-04-14 11:06:02.41: SIM {TimeUS : 57434517, Roll : 1.02, Pitch : -15.97, Yaw : 45.52, Alt : 49.2799987793, Lat : 49.2836141, Lng : -123.1149498, Q1 : 0.912658572197, Q2 : 0.0619157664478, Q3 : -0.124714046717, Q4 : 0.384274959564}
2019-04-14 11:06:02.51: SIM {TimeUS : 57534477, Roll : 0.17, Pitch : -16.12, Yaw : 46.84, Alt : 49.2799987793, Lat : 49.2836162, Lng : -123.1149463, Q1 : 0.908445358276, Q2 : 0.0571513846517, Q3 : -0.12810768187, Q4 : 0.393762856722}
2019-04-14 11:06:02.61: SIM {TimeUS : 57634437, Roll : -0.55, Pitch : -16.25, Yaw : 48.04, Alt : 49.2900009155, Lat : 49.2836183, Lng : -123.1149427, Q1 : 0.904470145702, Q2 : 0.0532138571143, Q3 : -0.131072640419, Q4 : 0.402395367622}
2019-04-14 11:06:02.71: SIM {TimeUS : 57734397, Roll : -1.09, Pitch : -16.34, Yaw : 49.02, Alt : 49.2900009155, Lat : 49.2836203, Lng : -123.1149391, Q1 : 0.901170432568, Q2 : 0.0503565631807, Q3 : -0.133248120546, Q4 : 0.409390985966}
2019-04-14 11:06:02.81: SIM {TimeUS : 57834357, Roll : -1.42, Pitch : -16.38, Yaw : 49.69, Alt : 49.2900009155, Lat : 49.2836226, Lng : -123.1149354, Q1 : 0.898834764957, Q2 : 0.0487582609057, Q3 : -0.134483844042, Q4 : 0.414285928011}
2019-04-14 11:06:02.91: SIM {TimeUS : 57934317, Roll : -1.52, Pitch : -16.42, Yaw : 50.04, Alt : 49.2900009155, Lat : 49.2836248, Lng : -123.1149317, Q1 : 0.89755666256, Q2 : 0.0485260747373, Q3 : -0.135011389852, Q4 : 0.416904270649}
2019-04-14 11:06:03.01: SIM {TimeUS : 58034277, Roll : -1.43, Pitch : -16.47, Yaw : 50.09, Alt : 49.2900009155, Lat : 49.2836269, Lng : -123.1149279, Q1 : 0.897301256657, Q2 : 0.0494152642787, Q3 : -0.135017901659, Q4 : 0.417347341776}
2019-04-14 11:06:03.11: SIM {TimeUS : 58134237, Roll : -1.22, Pitch : -16.52, Yaw : 49.88, Alt : 49.2900009155, Lat : 49.2836293, Lng : -123.1149241, Q1 : 0.897921562195, Q2 : 0.0509730689228, Q3 : -0.134729996324, Q4 : 0.415916472673}
2019-04-14 11:06:03.21: SIM {TimeUS : 58234197, Roll : -0.92, Pitch : -16.55, Yaw : 49.48, Alt : 49.2900009155, Lat : 49.2836317, Lng : -123.1149203, Q1 : 0.899195730686, Q2 : 0.0529832430184, Q3 : -0.134125709534, Q4 : 0.413098245859}
2019-04-14 11:06:03.31: SIM {TimeUS : 58334157, Roll : -0.56, Pitch : -16.57, Yaw : 48.96, Alt : 49.2900009155, Lat : 49.283634, Lng : -123.1149164, Q1 : 0.900856137276, Q2 : 0.0552900582552, Q3 : -0.133237302303, Q4 : 0.409449726343}
2019-04-14 11:06:03.41: SIM {TimeUS : 58434117, Roll : -0.21, Pitch : -16.59, Yaw : 48.41, Alt : 49.2900009155, Lat : 49.2836364, Lng : -123.1149125, Q1 : 0.902642607689, Q2 : 0.0574584342539, Q3 : -0.132402941585, Q4 : 0.405468046665}
2019-04-14 11:06:03.51: SIM {TimeUS : 58534077, Roll : 0.1, Pitch : -16.62, Yaw : 47.88, Alt : 49.2900009155, Lat : 49.2836388, Lng : -123.1149086, Q1 : 0.904305875301, Q2 : 0.0595186799765, Q3 : -0.13176587224, Q4 : 0.401654183865}
2019-04-14 11:06:03.61: SIM {TimeUS : 58634037, Roll : 0.39, Pitch : -16.64, Yaw : 47.43, Alt : 49.2900009155, Lat : 49.2836412, Lng : -123.1149046, Q1 : 0.905704796314, Q2 : 0.0613311938941, Q3 : -0.13117171824, Q4 : 0.398410946131}
2019-04-14 11:06:03.72: SIM {TimeUS : 58734830, Roll : 0.59, Pitch : -16.66, Yaw : 47.09, Alt : 49.2900009155, Lat : 49.2836437, Lng : -123.1149005, Q1 : 0.9067517519, Q2 : 0.0625984966755, Q3 : -0.130805879831, Q4 : 0.395945161581}
2019-04-14 11:06:03.81: SIM {TimeUS : 58834790, Roll : 0.67, Pitch : -16.7, Yaw : 46.88, Alt : 49.2900009155, Lat : 49.2836461, Lng : -123.1148964, Q1 : 0.907376825809, Q2 : 0.0631559565663, Q3 : -0.130919858813, Q4 : 0.394383877516}
2019-04-14 11:06:03.91: SIM {TimeUS : 58934750, Roll : 0.66, Pitch : -16.75, Yaw : 46.8, Alt : 49.2900009155, Lat : 49.2836486, Lng : -123.1148923, Q1 : 0.907597124577, Q2 : 0.0631432980299, Q3 : -0.131440222263, Q4 : 0.393705368042}
2019-04-14 11:06:04.01: SIM {TimeUS : 59034710, Roll : 0.58, Pitch : -16.83, Yaw : 46.83, Alt : 49.2900009155, Lat : 49.283651, Lng : -123.1148882, Q1 : 0.907445669174, Q2 : 0.0627680420876, Q3 : -0.13230933249, Q4 : 0.393823325634}
2019-04-14 11:06:04.11: SIM {TimeUS : 59134670, Roll : 0.44, Pitch : -16.88, Yaw : 46.95, Alt : 49.2900009155, Lat : 49.2836535, Lng : -123.114884, Q1 : 0.907039582729, Q2 : 0.0620591118932, Q3 : -0.133158400655, Q4 : 0.394584327936}
2019-04-14 11:06:04.21: SIM {TimeUS : 59234630, Roll : 0.29, Pitch : -16.93, Yaw : 47.12, Alt : 49.2900009155, Lat : 49.283656, Lng : -123.1148798, Q1 : 0.906465530396, Q2 : 0.0611807219684, Q3 : -0.133944630623, Q4 : 0.395772695541}
2019-04-14 11:06:04.31: SIM {TimeUS : 59334590, Roll : 0.14, Pitch : -16.96, Yaw : 47.33, Alt : 49.2900009155, Lat : 49.2836584, Lng : -123.1148755, Q1 : 0.905813276768, Q2 : 0.0603217668831, Q3 : -0.134607821703, Q4 : 0.397170424461}
2019-04-14 11:06:04.41: SIM {TimeUS : 59434550, Roll : 0.0, Pitch : -16.98, Yaw : 47.52, Alt : 49.2900009155, Lat : 49.283661, Lng : -123.1148712, Q1 : 0.905170023441, Q2 : 0.0595420636237, Q3 : -0.135168343782, Q4 : 0.398561835289}
2019-04-14 11:06:04.51: SIM {TimeUS : 59534510, Roll : -0.1, Pitch : -16.99, Yaw : 47.7, Alt : 49.2900009155, Lat : 49.2836635, Lng : -123.1148669, Q1 : 0.904613733292, Q2 : 0.0589556246996, Q3 : -0.135527387261, Q4 : 0.399788171053}
2019-04-14 11:06:04.61: SIM {TimeUS : 59634470, Roll : -0.15, Pitch : -17.01, Yaw : 47.83, Alt : 49.2900009155, Lat : 49.2836662, Lng : -123.1148626, Q1 : 0.904162585735, Q2 : 0.0587781853974, Q3 : -0.135811194777, Q4 : 0.400737434626}
2019-04-14 11:06:04.71: SIM {TimeUS : 59734430, Roll : -0.17, Pitch : -17.04, Yaw : 47.9, Alt : 49.2900009155, Lat : 49.2836687, Lng : -123.1148583, Q1 : 0.903866052628, Q2 : 0.0587733574212, Q3 : -0.136088699102, Q4 : 0.401312530041}
2019-04-14 11:06:04.81: SIM {TimeUS : 59834390, Roll : -0.17, Pitch : -17.08, Yaw : 47.93, Alt : 49.2999992371, Lat : 49.2836712, Lng : -123.1148539, Q1 : 0.903731822968, Q2 : 0.0589263811707, Q3 : -0.136364743114, Q4 : 0.401498705149}
2019-04-14 11:06:04.91: SIM {TimeUS : 59934350, Roll : -0.15, Pitch : -17.12, Yaw : 47.91, Alt : 49.2999992371, Lat : 49.2836738, Lng : -123.1148495, Q1 : 0.903750896454, Q2 : 0.0592177025974, Q3 : -0.13658618927, Q4 : 0.401337563992}
2019-04-14 11:06:05.01: SIM {TimeUS : 60034310, Roll : -0.12, Pitch : -17.16, Yaw : 47.85, Alt : 49.2999992371, Lat : 49.2836766, Lng : -123.1148451, Q1 : 0.903894782066, Q2 : 0.059537768364, Q3 : -0.13680164516, Q4 : 0.400892525911}
2019-04-14 11:06:05.11: SIM {TimeUS : 60134270, Roll : -0.1, Pitch : -17.18, Yaw : 47.76, Alt : 49.2999992371, Lat : 49.2836791, Lng : -123.1148406, Q1 : 0.904150664806, Q2 : 0.0597163401544, Q3 : -0.136998668313, Q4 : 0.400221139193}
2019-04-14 11:06:05.21: SIM {TimeUS : 60234230, Roll : -0.07, Pitch : -17.2, Yaw : 47.66, Alt : 49.2999992371, Lat : 49.2836817, Lng : -123.1148362, Q1 : 0.904470264912, Q2 : 0.0598454959691, Q3 : -0.137130618095, Q4 : 0.39943370223}
2019-04-14 11:06:05.31: SIM {TimeUS : 60334190, Roll : -0.05, Pitch : -17.22, Yaw : 47.56, Alt : 49.2999992371, Lat : 49.2836845, Lng : -123.1148318, Q1 : 0.904798686504, Q2 : 0.0600025989115, Q3 : -0.13724771142, Q4 : 0.398625284433}
2019-04-14 11:06:05.41: SIM {TimeUS : 60434150, Roll : 0.0, Pitch : -17.26, Yaw : 47.46, Alt : 49.2999992371, Lat : 49.283687, Lng : -123.1148272, Q1 : 0.905083835125, Q2 : 0.0603628344834, Q3 : -0.137399315834, Q4 : 0.397870689631}
2019-04-14 11:06:05.51: SIM {TimeUS : 60534110, Roll : 0.05, Pitch : -17.29, Yaw : 47.37, Alt : 49.2999992371, Lat : 49.2836898, Lng : -123.1148228, Q1 : 0.9053145051, Q2 : 0.0608213804662, Q3 : -0.137501254678, Q4 : 0.397240251303}
2019-04-14 11:06:05.61: SIM {TimeUS : 60634070, Roll : 0.11, Pitch : -17.32, Yaw : 47.3, Alt : 49.2999992371, Lat : 49.2836925, Lng : -123.1148183, Q1 : 0.905477881432, Q2 : 0.0613310858607, Q3 : -0.13757969439, Q4 : 0.396762162447}
2019-04-14 11:06:05.71: SIM {TimeUS : 60734030, Roll : 0.17, Pitch : -17.36, Yaw : 47.25, Alt : 49.3100013733, Lat : 49.2836951, Lng : -123.1148138, Q1 : 0.90555781126, Q2 : 0.0618873499334, Q3 : -0.137738853693, Q4 : 0.396437883377}
2019-04-14 11:06:05.82: SIM {TimeUS : 60834823, Roll : 0.2, Pitch : -17.4, Yaw : 47.23, Alt : 49.3100013733, Lat : 49.2836979, Lng : -123.1148092, Q1 : 0.905589342117, Q2 : 0.0622324943542, Q3 : -0.137939274311, Q4 : 0.396242141724}
2019-04-14 11:06:05.91: SIM {TimeUS : 60934783, Roll : 0.19, Pitch : -17.41, Yaw : 47.22, Alt : 49.3100013733, Lat : 49.2837005, Lng : -123.1148046, Q1 : 0.905612051487, Q2 : 0.0621635839343, Q3 : -0.138088911772, Q4 : 0.396148949862}
2019-04-14 11:06:06.01: SIM {TimeUS : 61034743, Roll : 0.15, Pitch : -17.41, Yaw : 47.22, Alt : 49.3100013733, Lat : 49.2837033, Lng : -123.1148, Q1 : 0.905620932579, Q2 : 0.0618515685201, Q3 : -0.138209700584, Q4 : 0.3961353302}
2019-04-14 11:06:06.11: SIM {TimeUS : 61134703, Roll : 0.11, Pitch : -17.41, Yaw : 47.24, Alt : 49.3100013733, Lat : 49.283706, Lng : -123.1147955, Q1 : 0.905592143536, Q2 : 0.0616049133241, Q3 : -0.138337999582, Q4 : 0.396194845438}
2019-04-14 11:06:06.21: SIM {TimeUS : 61234663, Roll : 0.09, Pitch : -17.43, Yaw : 47.25, Alt : 49.3100013733, Lat : 49.2837088, Lng : -123.1147909, Q1 : 0.905531346798, Q2 : 0.0614871717989, Q3 : -0.138518929482, Q4 : 0.396288841963}
2019-04-14 11:06:06.31: SIM {TimeUS : 61334623, Roll : 0.09, Pitch : -17.46, Yaw : 47.27, Alt : 49.3100013733, Lat : 49.2837114, Lng : -123.1147862, Q1 : 0.905436635017, Q2 : 0.0616168528795, Q3 : -0.138758301735, Q4 : 0.396401256323}
2019-04-14 11:06:06.41: SIM {TimeUS : 61434583, Roll : 0.1, Pitch : -17.51, Yaw : 47.28, Alt : 49.3100013733, Lat : 49.2837143, Lng : -123.1147816, Q1 : 0.905324995518, Q2 : 0.0619145333767, Q3 : -0.139112040401, Q4 : 0.396486014128}
2019-04-14 11:06:06.51: SIM {TimeUS : 61534543, Roll : 0.11, Pitch : -17.54, Yaw : 47.28, Alt : 49.3100013733, Lat : 49.2837169, Lng : -123.114777, Q1 : 0.905270218849, Q2 : 0.0620487779379, Q3 : -0.139352977276, Q4 : 0.39650541544}
2019-04-14 11:06:06.61: SIM {TimeUS : 61634503, Roll : 0.1, Pitch : -17.54, Yaw : 47.28, Alt : 49.3100013733, Lat : 49.2837198, Lng : -123.1147723, Q1 : 0.905279159546, Q2 : 0.0620387531817, Q3 : -0.139354035258, Q4 : 0.396486252546}
2019-04-14 11:06:06.71: SIM {TimeUS : 61734463, Roll : 0.1, Pitch : -17.55, Yaw : 47.27, Alt : 49.3199996948, Lat : 49.2837226, Lng : -123.1147676, Q1 : 0.90530705452, Q2 : 0.061990160495, Q3 : -0.13945633173, Q4 : 0.396394073963}
2019-04-14 11:06:06.81: SIM {TimeUS : 61834423, Roll : 0.08, Pitch : -17.58, Yaw : 47.26, Alt : 49.3199996948, Lat : 49.2837253, Lng : -123.114763, Q1 : 0.905332565308, Q2 : 0.0619713254273, Q3 : -0.139770463109, Q4 : 0.39622810483}
2019-04-14 11:06:06.91: SIM {TimeUS : 61934383, Roll : 0.08, Pitch : -17.61, Yaw : 47.24, Alt : 49.3199996948, Lat : 49.2837281, Lng : -123.1147583, Q1 : 0.905369579792, Q2 : 0.0620014183223, Q3 : -0.140041291714, Q4 : 0.396043181419}
2019-04-14 11:06:07.01: SIM {TimeUS : 62034343, Roll : 0.08, Pitch : -17.64, Yaw : 47.21, Alt : 49.3199996948, Lat : 49.2837308, Lng : -123.1147536, Q1 : 0.905412375927, Q2 : 0.0620815940201, Q3 : -0.140269204974, Q4 : 0.395852148533}
2019-04-14 11:06:07.11: SIM {TimeUS : 62134303, Roll : 0.09, Pitch : -17.66, Yaw : 47.19, Alt : 49.3199996948, Lat : 49.2837337, Lng : -123.1147489, Q1 : 0.905469477177, Q2 : 0.0621913522482, Q3 : -0.140383005142, Q4 : 0.395663887262}
2019-04-14 11:06:07.21: SIM {TimeUS : 62234263, Roll : 0.11, Pitch : -17.68, Yaw : 47.16, Alt : 49.3199996948, Lat : 49.2837364, Lng : -123.1147442, Q1 : 0.905530631542, Q2 : 0.0624319538474, Q3 : -0.140431955457, Q4 : 0.395468592644}
2019-04-14 11:06:07.31: SIM {TimeUS : 62334223, Roll : 0.14, Pitch : -17.68, Yaw : 47.13, Alt : 49.3199996948, Lat : 49.2837393, Lng : -123.1147395, Q1 : 0.905607640743, Q2 : 0.0626128092408, Q3 : -0.14039863646, Q4 : 0.395275503397}
2019-04-14 11:06:07.41: SIM {TimeUS : 62434183, Roll : 0.17, Pitch : -17.69, Yaw : 47.11, Alt : 49.3199996948, Lat : 49.2837422, Lng : -123.1147348, Q1 : 0.905670583248, Q2 : 0.0628548935056, Q3 : -0.140370503068, Q4 : 0.395102769136}
2019-04-14 11:06:07.51: SIM {TimeUS : 62534143, Roll : 0.2, Pitch : -17.71, Yaw : 47.08, Alt : 49.3199996948, Lat : 49.2837449, Lng : -123.1147301, Q1 : 0.905711352825, Q2 : 0.0631264448166, Q3 : -0.140437558293, Q4 : 0.394942194223}
2019-04-14 11:06:07.61: SIM {TimeUS : 62634103, Roll : 0.21, Pitch : -17.74, Yaw : 47.06, Alt : 49.3199996948, Lat : 49.2837478, Lng : -123.1147253, Q1 : 0.905741333961, Q2 : 0.0632568746805, Q3 : -0.140675321221, Q4 : 0.39476788044}
2019-04-14 11:06:07.71: SIM {TimeUS : 62734063, Roll : 0.18, Pitch : -17.77, Yaw : 47.05, Alt : 49.3199996948, Lat : 49.2837506, Lng : -123.1147206, Q1 : 0.905772686005, Q2 : 0.063113540411, Q3 : -0.141062557697, Q4 : 0.394580692053}
2019-04-14 11:06:07.81: SIM {TimeUS : 62834023, Roll : 0.15, Pitch : -17.81, Yaw : 47.03, Alt : 49.3199996948, Lat : 49.2837534, Lng : -123.1147158, Q1 : 0.90578854084, Q2 : 0.0629887729883, Q3 : -0.14148029685, Q4 : 0.39441460371}
2019-04-14 11:06:07.91: SIM {TimeUS : 62934816, Roll : 0.15, Pitch : -17.84, Yaw : 47.02, Alt : 49.3199996948, Lat : 49.2837563, Lng : -123.114711, Q1 : 0.905790925026, Q2 : 0.0630781501532, Q3 : -0.141695037484, Q4 : 0.394317805767}
2019-04-14 11:06:08.01: SIM {TimeUS : 63034776, Roll : 0.17, Pitch : -17.84, Yaw : 47.01, Alt : 49.3199996948, Lat : 49.2837592, Lng : -123.1147062, Q1 : 0.905813097954, Q2 : 0.0632339939475, Q3 : -0.141625225544, Q4 : 0.394266992807}
2019-04-14 11:06:08.11: SIM {TimeUS : 63134736, Roll : 0.19, Pitch : -17.81, Yaw : 47.0, Alt : 49.3300018311, Lat : 49.2837619, Lng : -123.1147014, Q1 : 0.905869007111, Q2 : 0.0632690936327, Q3 : -0.141331672668, Q4 : 0.394238173962}
2019-04-14 11:06:08.21: SIM {TimeUS : 63234696, Roll : 0.19, Pitch : -17.79, Yaw : 47.0, Alt : 49.3300018311, Lat : 49.2837649, Lng : -123.1146965, Q1 : 0.905914485455, Q2 : 0.0631742030382, Q3 : -0.141166821122, Q4 : 0.394208014011}
2019-04-14 11:06:08.31: SIM {TimeUS : 63334656, Roll : 0.17, Pitch : -17.78, Yaw : 46.99, Alt : 49.3300018311, Lat : 49.2837678, Lng : -123.1146918, Q1 : 0.905949532986, Q2 : 0.063037596643, Q3 : -0.141128242016, Q4 : 0.394163072109}
2019-04-14 11:06:08.41: SIM {TimeUS : 63434616, Roll : 0.16, Pitch : -17.78, Yaw : 46.99, Alt : 49.3300018311, Lat : 49.2837705, Lng : -123.114687, Q1 : 0.905973851681, Q2 : 0.0629399940372, Q3 : -0.141150802374, Q4 : 0.394114732742}
2019-04-14 11:06:08.51: SIM {TimeUS : 63534576, Roll : 0.15, Pitch : -17.79, Yaw : 46.98, Alt : 49.3300018311, Lat : 49.2837734, Lng : -123.1146822, Q1 : 0.905978739262, Q2 : 0.0629151016474, Q3 : -0.141306966543, Q4 : 0.394051462412}
2019-04-14 11:06:08.61: SIM {TimeUS : 63634536, Roll : 0.15, Pitch : -17.81, Yaw : 46.98, Alt : 49.3300018311, Lat : 49.2837764, Lng : -123.1146774, Q1 : 0.905974209309, Q2 : 0.0629955157638, Q3 : -0.141486138105, Q4 : 0.393984824419}
2019-04-14 11:06:08.71: SIM {TimeUS : 63734496, Roll : 0.15, Pitch : -17.86, Yaw : 46.97, Alt : 49.3300018311, Lat : 49.2837793, Lng : -123.1146725, Q1 : 0.905956089497, Q2 : 0.0630695149302, Q3 : -0.141849055886, Q4 : 0.393884122372}
2019-04-14 11:06:08.81: SIM {TimeUS : 63834456, Roll : 0.14, Pitch : -17.91, Yaw : 46.96, Alt : 49.3300018311, Lat : 49.283782, Lng : -123.1146677, Q1 : 0.905929505825, Q2 : 0.063176959753, Q3 : -0.142288058996, Q4 : 0.393769681454}
2019-04-14 11:06:08.91: SIM {TimeUS : 63934416, Roll : 0.14, Pitch : -17.94, Yaw : 46.95, Alt : 49.3300018311, Lat : 49.2837849, Lng : -123.1146628, Q1 : 0.905921757221, Q2 : 0.063303373754, Q3 : -0.142572432756, Q4 : 0.393664389849}
2019-04-14 11:06:09.01: SIM {TimeUS : 64034376, Roll : 0.14, Pitch : -17.97, Yaw : 46.93, Alt : 49.3300018311, Lat : 49.2837879, Lng : -123.114658, Q1 : 0.905934810638, Q2 : 0.0633360370994, Q3 : -0.142813980579, Q4 : 0.393541395664}
2019-04-14 11:06:09.11: SIM {TimeUS : 64134336, Roll : 0.13, Pitch : -17.99, Yaw : 46.92, Alt : 49.3300018311, Lat : 49.2837908, Lng : -123.1146531, Q1 : 0.905962944031, Q2 : 0.063344322145, Q3 : -0.142971158028, Q4 : 0.393418252468}
2019-04-14 11:06:09.21: SIM {TimeUS : 64234296, Roll : 0.15, Pitch : -17.98, Yaw : 46.9, Alt : 49.3300018311, Lat : 49.2837936, Lng : -123.1146483, Q1 : 0.906017482281, Q2 : 0.0634373873472, Q3 : -0.142819643021, Q4 : 0.393332660198}
2019-04-14 11:06:09.31: SIM {TimeUS : 64334256, Roll : 0.18, Pitch : -17.98, Yaw : 46.89, Alt : 49.3300018311, Lat : 49.2837965, Lng : -123.1146434, Q1 : 0.906052947044, Q2 : 0.0636648312211, Q3 : -0.142727553844, Q4 : 0.393247663975}
2019-04-14 11:06:09.41: SIM {TimeUS : 64434216, Roll : 0.2, Pitch : -17.99, Yaw : 46.87, Alt : 49.3300018311, Lat : 49.2837995, Lng : -123.1146386, Q1 : 0.906075537205, Q2 : 0.0638371407986, Q3 : -0.142791718245, Q4 : 0.393144339323}
2019-04-14 11:06:09.51: SIM {TimeUS : 64534176, Roll : 0.21, Pitch : -18.0, Yaw : 46.86, Alt : 49.3300018311, Lat : 49.2838024, Lng : -123.1146337, Q1 : 0.90610486269, Q2 : 0.0639182850718, Q3 : -0.142850518227, Q4 : 0.393042206764}
2019-04-14 11:06:09.61: SIM {TimeUS : 64634136, Roll : 0.21, Pitch : -18.0, Yaw : 46.85, Alt : 49.3400001526, Lat : 49.2838054, Lng : -123.1146288, Q1 : 0.906143963337, Q2 : 0.0639389678836, Q3 : -0.142825558782, Q4 : 0.392957746983}
2019-04-14 11:06:09.71: SIM {TimeUS : 64734096, Roll : 0.21, Pitch : -18.0, Yaw : 46.84, Alt : 49.3400001526, Lat : 49.2838082, Lng : -123.1146239, Q1 : 0.90618211031, Q2 : 0.0638922154903, Q3 : -0.142816975713, Q4 : 0.392880499363}
2019-04-14 11:06:09.81: SIM {TimeUS : 64834056, Roll : 0.19, Pitch : -18.01, Yaw : 46.83, Alt : 49.3400001526, Lat : 49.2838111, Lng : -123.114619, Q1 : 0.906199574471, Q2 : 0.0637946054339, Q3 : -0.143016085029, Q4 : 0.392783671618}
2019-04-14 11:06:09.92: SIM {TimeUS : 64934849, Roll : 0.16, Pitch : -18.04, Yaw : 46.82, Alt : 49.3400001526, Lat : 49.2838141, Lng : -123.1146141, Q1 : 0.906201839447, Q2 : 0.0636669173837, Q3 : -0.143358632922, Q4 : 0.392674326897}
2019-04-14 11:06:10.01: SIM {TimeUS : 65034809, Roll : 0.15, Pitch : -18.05, Yaw : 46.82, Alt : 49.3400001526, Lat : 49.2838171, Lng : -123.1146092, Q1 : 0.906228661537, Q2 : 0.0635295957327, Q3 : -0.143453508615, Q4 : 0.392599999905}
2019-04-14 11:06:10.11: SIM {TimeUS : 65134769, Roll : 0.16, Pitch : -18.03, Yaw : 46.81, Alt : 49.3400001526, Lat : 49.28382, Lng : -123.1146043, Q1 : 0.906269967556, Q2 : 0.0635484084487, Q3 : -0.143263861537, Q4 : 0.392570763826}
2019-04-14 11:06:10.21: SIM {TimeUS : 65234729, Roll : 0.18, Pitch : -18.01, Yaw : 46.8, Alt : 49.3400001526, Lat : 49.2838228, Lng : -123.1145994, Q1 : 0.906301379204, Q2 : 0.0636507347226, Q3 : -0.143088728189, Q4 : 0.392545610666}
2019-04-14 11:06:10.31: SIM {TimeUS : 65334689, Roll : 0.19, Pitch : -18.02, Yaw : 46.8, Alt : 49.3400001526, Lat : 49.2838258, Lng : -123.1145945, Q1 : 0.906313657761, Q2 : 0.0637529268861, Q3 : -0.143124699593, Q4 : 0.392487496138}
2019-04-14 11:06:10.41: SIM {TimeUS : 65434649, Roll : 0.18, Pitch : -18.04, Yaw : 46.79, Alt : 49.3400001526, Lat : 49.2838287, Lng : -123.1145895, Q1 : 0.906321465969, Q2 : 0.0637176260352, Q3 : -0.143329337239, Q4 : 0.392400503159}
2019-04-14 11:06:10.51: SIM {TimeUS : 65534609, Roll : 0.15, Pitch : -18.07, Yaw : 46.78, Alt : 49.3400001526, Lat : 49.2838317, Lng : -123.1145847, Q1 : 0.906329572201, Q2 : 0.0635767579079, Q3 : -0.143627002835, Q4 : 0.392295777798}
2019-04-14 11:06:10.61: SIM {TimeUS : 65634569, Roll : 0.13, Pitch : -18.09, Yaw : 46.77, Alt : 49.3400001526, Lat : 49.2838347, Lng : -123.1145797, Q1 : 0.906338691711, Q2 : 0.0635095015168, Q3 : -0.143862947822, Q4 : 0.392199188471}
2019-04-14 11:06:10.71: SIM {TimeUS : 65734529, Roll : 0.13, Pitch : -18.11, Yaw : 46.76, Alt : 49.3400001526, Lat : 49.2838376, Lng : -123.1145748, Q1 : 0.906343221664, Q2 : 0.0635754093528, Q3 : -0.144034042954, Q4 : 0.392115265131}
2019-04-14 11:06:10.81: SIM {TimeUS : 65834489, Roll : 0.15, Pitch : -18.12, Yaw : 46.75, Alt : 49.3400001526, Lat : 49.2838406, Lng : -123.1145699, Q1 : 0.906349360943, Q2 : 0.0637170672417, Q3 : -0.144099354744, Q4 : 0.392054080963}
