2019-04-14 12:24:55.30: SIM {TimeUS : 39915694, Roll : 0.0, Pitch : 0.0, Yaw : 0.0, Alt : 30.1000003815, Lat : 49.28357, Lng : -123.11502, Q1 : 1.0, Q2 : 0.0, Q3 : 0.0, Q4 : 0.0}
2019-04-14 12:24:55.41: SIM {TimeUS : 40034813, Roll : 0.0, Pitch : 0.0, Yaw : 0.0, Alt : 30.1000003815, Lat : 49.28357, Lng : -123.11502, Q1 : 1.0, Q2 : 0.0, Q3 : 0.0, Q4 : 0.0}
2019-04-14 12:24:55.51: SIM {TimeUS : 40134773, Roll : 0.0, Pitch : 0.0, Yaw : 0.0, Alt : 30.1000003815, Lat : 49.28357, Lng : -123.11502, Q1 : 1.0, Q2 : 0.0, Q3 : 0.0, Q4 : 0.0}
2019-04-14 12:24:55.61: SIM {TimeUS : 40234733, Roll : 0.0, Pitch : 0.0, Yaw : 0.0, Alt : 30.1000003815, Lat : 49.28357, Lng : -123.11502, Q1 : 1.0, Q2 : 0.0, Q3 : 0.0, Q4 : 0.0}
2019-04-14 12:24:55.71: SIM {TimeUS : 40334693, Roll : 0.0, Pitch : 0.0, Yaw : 0.0, Alt : 30.1000003815, Lat : 49.28357, Lng : -123.11502, Q1 : 1.0, Q2 : 0.0, Q3 : 0.0, Q4 : 0.0}
2019-04-14 12:24:55.81: SIM {TimeUS : 40434653, Roll : 0.0, Pitch : 0.0, Yaw : 0.0, Alt : 30.1000003815, Lat : 49.28357, Lng : -123.11502, Q1 : 1.0, Q2 : 0.0, Q3 : 0.0, Q4 : 0.0}
2019-04-14 12:24:55.91: SIM {TimeUS : 40534613, Roll : 0.0, Pitch : 0.0, Yaw : 0.0, Alt : 30.1000003815, Lat : 49.28357, Lng : -123.11502, Q1 : 1.0, Q2 : 0.0, Q3 : 0.0, Q4 : 0.0}
2019-04-14 12:24:56.01: SIM {TimeUS : 40634573, Roll : 0.0, Pitch : 0.0, Yaw : 0.0, Alt : 30.1000003815, Lat : 49.28357, Lng : -123.11502, Q1 : 1.0, Q2 : 0.0, Q3 : 0.0, Q4 : 0.0}
2019-04-14 12:24:56.11: SIM {TimeUS : 40734533, Roll : 0.0, Pitch : 0.0, Yaw : 0.0, Alt : 30.1000003815, Lat : 49.28357, Lng : -123.11502, Q1 : 1.0, Q2 : 0.0, Q3 : 0.0, Q4 : 0.0}
2019-04-14 12:24:56.21: SIM {TimeUS : 40834493, Roll : 0.0, Pitch : 0.0, Yaw : 0.0, Alt : 30.1000003815, Lat : 49.28357, Lng : -123.11502, Q1 : 1.0, Q2 : 0.0, Q3 : 0.0, Q4 : 0.0}
2019-04-14 12:24:56.31: SIM {TimeUS : 40934453, Roll : 0.0, Pitch : 0.0, Yaw : 0.0, Alt : 30.1000003815, Lat : 49.28357, Lng : -123.11502, Q1 : 1.0, Q2 : 0.0, Q3 : 0.0, Q4 : 0.0}
2019-04-14 12:24:56.41: SIM {TimeUS : 41034413, Roll : 0.0, Pitch : 0.0, Yaw : 0.0, Alt : 30.1000003815, Lat : 49.28357, Lng : -123.11502, Q1 : 1.0, Q2 : 0.0, Q3 : 0.0, Q4 : 0.0}
2019-04-14 12:24:56.51: SIM {TimeUS : 41134373, Roll : 0.0, Pitch : 0.0, Yaw : 0.0, Alt : 30.1000003815, Lat : 49.28357, Lng : -123.11502, Q1 : 1.0, Q2 : 0.0, Q3 : 0.0, Q4 : 0.0}
2019-04-14 12:24:56.61: SIM {TimeUS : 41234333, Roll : 0.0, Pitch : 0.0, Yaw : 0.0, Alt : 30.1000003815, Lat : 49.28357, Lng : -123.11502, Q1 : 1.0, Q2 : 0.0, Q3 : 0.0, Q4 : 0.0}
2019-04-14 12:24:56.71: SIM {TimeUS : 41334293, Roll : 0.0, Pitch : 0.0, Yaw : 0.0, Alt : 30.1000003815, Lat : 49.28357, Lng : -123.11502, Q1 : 1.0, Q2 : 0.0, Q3 : 0.0, Q4 : 0.0}
2019-04-14 12:24:56.81: SIM {TimeUS : 41434253, Roll : 0.0, Pitch : 0.0, Yaw : 0.0, Alt : 30.1000003815, Lat : 49.28357, Lng : -123.11502, Q1 : 1.0, Q2 : 0.0, Q3 : 0.0, Q4 : 0.0}
2019-04-14 12:24:56.91: SIM {TimeUS : 41534213, Roll : 0.0, Pitch : 0.0, Yaw : 0.0, Alt : 30.1000003815, Lat : 49.28357, Lng : -123.11502, Q1 : 1.0, Q2 : 0.0, Q3 : 0.0, Q4 : 0.0}
2019-04-14 12:24:57.01: SIM {TimeUS : 41634173, Roll : 0.0, Pitch : 0.0, Yaw : 0.0, Alt : 30.1000003815, Lat : 49.28357, Lng : -123.11502, Q1 : 1.0, Q2 : 0.0, Q3 : 0.0, Q4 : 0.0}
2019-04-14 12:24:57.11: SIM {TimeUS : 41734133, Roll : 0.0, Pitch : 0.0, Yaw : 0.0, Alt : 30.1000003815, Lat : 49.28357, Lng : -123.11502, Q1 : 1.0, Q2 : 0.0, Q3 : 0.0, Q4 : 0.0}
2019-04-14 12:24:57.21: SIM {TimeUS : 41834093, Roll : 0.0, Pitch : 0.0, Yaw : 0.0, Alt : 30.1000003815, Lat : 49.28357, Lng : -123.11502, Q1 : 1.0, Q2 : 0.0, Q3 : 0.0, Q4 : 0.0}
2019-04-14 12:24:57.31: SIM {TimeUS : 41934053, Roll : 0.0, Pitch : 0.0, Yaw : 0.0, Alt : 30.1000003815, Lat : 49.28357, Lng : -123.11502, Q1 : 1.0, Q2 : 0.0, Q3 : 0.0, Q4 : 0.0}
2019-04-14 12:24:57.42: SIM {TimeUS : 42034846, Roll : 0.0, Pitch : 0.0, Yaw : 0.0, Alt : 30.1000003815, Lat : 49.28357, Lng : -123.11502, Q1 : 1.0, Q2 : 0.0, Q3 : 0.0, Q4 : 0.0}
2019-04-14 12:24:57.51: SIM {TimeUS : 42134806, Roll : 0.0, Pitch : 0.0, Yaw : 0.0, Alt : 30.1000003815, Lat : 49.28357, Lng : -123.11502, Q1 : 1.0, Q2 : 0.0, Q3 : 0.0, Q4 : 0.0}
2019-04-14 12:24:57.61: SIM {TimeUS : 42234766, Roll : 0.0, Pitch : 0.0, Yaw : 0.0, Alt : 30.1000003815, Lat : 49.28357, Lng : -123.11502, Q1 : 1.0, Q2 : 0.0, Q3 : 0.0, Q4 : 2.50972402582e-11}
2019-04-14 12:24:57.71: SIM {TimeUS : 42334726, Roll : 0.0, Pitch : 0.0, Yaw : 360.0, Alt : 30.1000003815, Lat : 49.28357, Lng : -123.11502, Q1 : 1.0, Q2 : 0.0, Q3 : 0.0, Q4 : -2.4248850039e-08}
2019-04-14 12:24:57.81: SIM {TimeUS : 42434686, Roll : 0.0, Pitch : 0.0, Yaw : 359.99, Alt : 30.1000003815, Lat : 49.28357, Lng : -123.11502, Q1 : 1.0, Q2 : 0.0, Q3 : 0.0, Q4 : -2.08798383028e-07}
2019-04-14 12:24:57.91: SIM {TimeUS : 42534646, Roll : 0.0, Pitch : 0.0, Yaw : 359.99, Alt : 30.1000003815, Lat : 49.28357, Lng : -123.11502, Q1 : 1.0, Q2 : 0.0, Q3 : 0.0, Q4 : -4.00776627885e-07}
2019-04-14 12:24:58.01: SIM {TimeUS : 42634606, Roll : 0.0, Pitch : 0.0, Yaw : 359.99, Alt : 30.1000003815, Lat : 49.28357, Lng : -123.11502, Q1 : 1.0, Q2 : 0.0, Q3 : 0.0, Q4 : -5.78120477712e-07}
2019-04-14 12:24:58.11: SIM {TimeUS : 42734566, Roll : 0.0, Pitch : 0.0, Yaw : 359.99, Alt : 30.1000003815, Lat : 49.28357, Lng : -123.11502, Q1 : 1.0, Q2 : 0.0, Q3 : 0.0, Q4 : -7.69860662331e-07}
2019-04-14 12:24:58.21: SIM {TimeUS : 42834526, Roll : 0.0, Pitch : 0.0, Yaw : 359.99, Alt : 30.1000003815, Lat : 49.28357, Lng : -123.11502, Q1 : 1.0, Q2 : 0.0, Q3 : 0.0, Q4 : -9.60149350249e-07}
2019-04-14 12:24:58.31: SIM {TimeUS : 42934486, Roll : 0.0, Pitch : 0.0, Yaw : 359.99, Alt : 30.1000003815, Lat : 49.28357, Lng : -123.11502, Q1 : 1.0, Q2 : 0.0, Q3 : 0.0, Q4 : -1.19614480809e-06}
2019-04-14 12:24:58.41: SIM {TimeUS : 43034446, Roll : 0.0, Pitch : 0.0, Yaw : 359.99, Alt : 30.1000003815, Lat : 49.28357, Lng : -123.11502, Q1 : 1.0, Q2 : 0.0, Q3 : 0.0, Q4 : -1.41064708714e-06}
2019-04-14 12:24:58.51: SIM {TimeUS : 43134406, Roll : 0.0, Pitch : 0.0, Yaw : 359.99, Alt : 30.1200008392, Lat : 49.28357, Lng : -123.11502, Q1 : 1.0, Q2 : 0.0, Q3 : 0.0, Q4 : -1.63504864759e-06}
2019-04-14 12:24:58.61: SIM {TimeUS : 43234366, Roll : 0.0, Pitch : 0.0, Yaw : 359.99, Alt : 30.1399993896, Lat : 49.28357, Lng : -123.11502, Q1 : 1.0, Q2 : 0.0, Q3 : 0.0, Q4 : -1.84374414403e-06}
2019-04-14 12:24:58.71: SIM {TimeUS : 43334326, Roll : 0.0, Pitch : 0.0, Yaw : 359.99, Alt : 30.1800003052, Lat : 49.28357, Lng : -123.11502, Q1 : 1.0, Q2 : 0.0, Q3 : 0.0, Q4 : -2.11744054468e-06}
2019-04-14 12:24:58.81: SIM {TimeUS : 43434286, Roll : 0.0, Pitch : 0.0, Yaw : 359.99, Alt : 30.2099990845, Lat : 49.28357, Lng : -123.11502, Q1 : 1.0, Q2 : -7.53603490011e-06, Q3 : -6.59044599161e-06, Q4 : -2.37884660237e-06}
2019-04-14 12:24:58.91: SIM {TimeUS : 43534246, Roll : -0.16, Pitch : -0.15, Yaw : 359.99, Alt : 30.2700004578, Lat : 49.28357, Lng : -123.11502, Q1 : 0.999997973442, Q2 : -0.00148071115837, Q3 : -0.00134852377232, Q4 : -1.89382608369e-05}
2019-04-14 12:24:59.01: SIM {TimeUS : 43634206, Roll : -0.45, Pitch : -0.44, Yaw : 359.99, Alt : 30.3899993896, Lat : 49.28357, Lng : -123.11502, Q1 : 0.999984502792, Q2 : -0.0039582978934, Q3 : -0.0039245034568, Q4 : -6.38083074591e-05}
2019-04-14 12:24:59.11: SIM {TimeUS : 43734166, Roll : -0.69, Pitch : -0.72, Yaw : 359.98, Alt : 30.5400009155, Lat : 49.28357, Lng : -123.11502, Q1 : 0.999961614609, Q2 : -0.00603447668254, Q3 : -0.00634928047657, Q4 : -0.000137656475999}
2019-04-14 12:24:59.21: SIM {TimeUS : 43834126, Roll : -0.79, Pitch : -0.84, Yaw : 359.97, Alt : 30.7000007629, Lat : 49.28357, Lng : -123.11502, Q1 : 0.999948382378, Q2 : -0.00697223376483, Q3 : -0.00738861272112, Q4 : -0.00022761085711}
2019-04-14 12:24:59.31: SIM {TimeUS : 43934086, Roll : -0.75, Pitch : -0.76, Yaw : 359.96, Alt : 30.8500003815, Lat : 49.28357, Lng : -123.1150201, Q1 : 0.99995559454, Q2 : -0.00662430375814, Q3 : -0.0066973301582, Q4 : -0.000319376296829}
2019-04-14 12:24:59.41: SIM {TimeUS : 44034046, Roll : -0.6, Pitch : -0.56, Yaw : 359.95, Alt : 31.0100002289, Lat : 49.2835701, Lng : -123.1150201, Q1 : 0.999973773956, Q2 : -0.00532066542655, Q3 : -0.00489302538335, Q4 : -0.000403066893341}
2019-04-14 12:24:59.52: SIM {TimeUS : 44134839, Roll : -0.4, Pitch : -0.31, Yaw : 359.94, Alt : 31.1599998474, Lat : 49.2835701, Lng : -123.1150202, Q1 : 0.999989807606, Q2 : -0.00354826892726, Q3 : -0.00275031011552, Q4 : -0.000473060295917}
2019-04-14 12:24:59.61: SIM {TimeUS : 44234799, Roll : -0.21, Pitch : -0.11, Yaw : 359.94, Alt : 31.3199996948, Lat : 49.2835702, Lng : -123.1150203, Q1 : 0.99999755621, Q2 : -0.00191588024609, Q3 : -0.000992335495539, Q4 : -0.000522103917319}
2019-04-14 12:24:59.71: SIM {TimeUS : 44334759, Roll : -0.07, Pitch : 0.01, Yaw : 359.93, Alt : 31.4899997711, Lat : 49.2835702, Lng : -123.1150204, Q1 : 0.999999582767, Q2 : -0.000675376446452, Q3 : 0.000130094966153, Q4 : -0.000556962331757}
2019-04-14 12:24:59.81: SIM {TimeUS : 44434719, Roll : 0.02, Pitch : 0.05, Yaw : 359.93, Alt : 31.6700000763, Lat : 49.2835702, Lng : -123.1150205, Q1 : 0.999999701977, Q2 : 0.000197830959223, Q3 : 0.000454850931419, Q4 : -0.000577971688472}
2019-04-14 12:24:59.91: SIM {TimeUS : 44534679, Roll : 0.07, Pitch : 0.04, Yaw : 359.93, Alt : 31.8400001526, Lat : 49.2835703, Lng : -123.1150205, Q1 : 0.999999582767, Q2 : 0.000634712399915, Q3 : 0.000363705534255, Q4 : -0.000590118172113}
2019-04-14 12:25:00.01: SIM {TimeUS : 44634639, Roll : 0.07, Pitch : 0.01, Yaw : 359.93, Alt : 32.0299987793, Lat : 49.2835703, Lng : -123.1150206, Q1 : 0.999999582767, Q2 : 0.000646853994112, Q3 : 0.000149043393321, Q4 : -0.000588478636928}
2019-04-14 12:25:00.11: SIM {TimeUS : 44734599, Roll : 0.06, Pitch : 0.0, Yaw : 359.93, Alt : 32.2099990845, Lat : 49.2835703, Lng : -123.1150207, Q1 : 0.999999701977, Q2 : 0.000535238243174, Q3 : 2.30914556596e-05, Q4 : -0.000575046811718}
2019-04-14 12:25:00.21: SIM {TimeUS : 44834559, Roll : 0.05, Pitch : 0.0, Yaw : 359.93, Alt : 32.4099998474, Lat : 49.2835703, Lng : -123.1150207, Q1 : 0.999999761581, Q2 : 0.000483838928631, Q3 : -6.27152667221e-06, Q4 : -0.000550283410121}
2019-04-14 12:25:00.31: SIM {TimeUS : 44934519, Roll : 0.06, Pitch : 0.01, Yaw : 359.93, Alt : 32.5999984741, Lat : 49.2835703, Lng : -123.1150208, Q1 : 0.999999701977, Q2 : 0.000568481336813, Q3 : 0.000115841387014, Q4 : -0.000528873119038}
2019-04-14 12:25:00.41: SIM {TimeUS : 45034479, Roll : 0.09, Pitch : 0.03, Yaw : 359.94, Alt : 32.7999992371, Lat : 49.2835703, Lng : -123.1150208, Q1 : 0.999999463558, Q2 : 0.000841994769871, Q3 : 0.000335038930643, Q4 : -0.000507881341036}
2019-04-14 12:25:00.51: SIM {TimeUS : 45134439, Roll : 0.14, Pitch : 0.06, Yaw : 359.94, Alt : 32.9900016785, Lat : 49.2835704, Lng : -123.1150208, Q1 : 0.999998927116, Q2 : 0.00125899072737, Q3 : 0.000587530375924, Q4 : -0.000500169175211}
2019-04-14 12:25:00.61: SIM {TimeUS : 45234399, Roll : 0.17, Pitch : 0.1, Yaw : 359.94, Alt : 33.2000007629, Lat : 49.2835704, Lng : -123.1150209, Q1 : 0.999998271465, Q2 : 0.00154268799815, Q3 : 0.000942882616073, Q4 : -0.000502395036165}
2019-04-14 12:25:00.71: SIM {TimeUS : 45334359, Roll : 0.17, Pitch : 0.13, Yaw : 359.94, Alt : 33.4000015259, Lat : 49.2835704, Lng : -123.1150209, Q1 : 0.999997913837, Q2 : 0.00156560493633, Q3 : 0.00120592990424, Q4 : -0.000503420014866}
2019-04-14 12:25:00.81: SIM {TimeUS : 45434319, Roll : 0.16, Pitch : 0.15, Yaw : 359.94, Alt : 33.6100006104, Lat : 49.2835704, Lng : -123.1150209, Q1 : 0.999997854233, Q2 : 0.00143116316758, Q3 : 0.00138349446934, Q4 : -0.000506601121742}
2019-04-14 12:25:00.91: SIM {TimeUS : 45534279, Roll : 0.15, Pitch : 0.17, Yaw : 359.94, Alt : 33.8100013733, Lat : 49.2835704, Lng : -123.1150209, Q1 : 0.999997794628, Q2 : 0.00133645639289, Q3 : 0.00152407342102, Q4 : -0.000511646212544}
2019-04-14 12:25:01.01: SIM {TimeUS : 45634239, Roll : 0.15, Pitch : 0.17, Yaw : 359.94, Alt : 34.0200004578, Lat : 49.2835704, Lng : -123.1150209, Q1 : 0.999997794628, Q2 : 0.00135566305835, Q3 : 0.00152235699352, Q4 : -0.00051987497136}
2019-04-14 12:25:01.11: SIM {TimeUS : 45734199, Roll : 0.15, Pitch : 0.16, Yaw : 359.93, Alt : 34.2299995422, Lat : 49.2835706, Lng : -123.1150209, Q1 : 0.999997854233, Q2 : 0.00137220032047, Q3 : 0.00145338615403, Q4 : -0.000532458419912}
2019-04-14 12:25:01.21: SIM {TimeUS : 45834159, Roll : 0.14, Pitch : 0.15, Yaw : 359.93, Alt : 34.4399986267, Lat : 49.2835706, Lng : -123.1150209, Q1 : 0.999998152256, Q2 : 0.00123854656704, Q3 : 0.00136822974309, Q4 : -0.000548073148821}
2019-04-14 12:25:01.31: SIM {TimeUS : 45934119, Roll : 0.12, Pitch : 0.11, Yaw : 359.93, Alt : 34.6599998474, Lat : 49.2835706, Lng : -123.1150209, Q1 : 0.999998748302, Q2 : 0.0010642389534, Q3 : 0.00104246346746, Q4 : -0.000555905571673}
2019-04-14 12:25:01.41: SIM {TimeUS : 46034079, Roll : 0.09, Pitch : 0.06, Yaw : 359.93, Alt : 34.8699989319, Lat : 49.2835706, Lng : -123.1150209, Q1 : 0.999999284744, Q2 : 0.000863775378093, Q3 : 0.00058536924189, Q4 : -0.000553488323931}
2019-04-14 12:25:01.51: SIM {TimeUS : 46134039, Roll : 0.07, Pitch : 0.03, Yaw : 359.93, Alt : 35.0900001526, Lat : 49.2835706, Lng : -123.1150209, Q1 : 0.999999582767, Q2 : 0.000625282758847, Q3 : 0.000274812569842, Q4 : -0.000572748249397}
2019-04-14 12:25:01.62: SIM {TimeUS : 46234832, Roll : 0.05, Pitch : 0.01, Yaw : 359.92, Alt : 35.3100013733, Lat : 49.2835706, Lng : -123.1150208, Q1 : 0.999999701977, Q2 : 0.000474612199469, Q3 : 0.000172402593307, Q4 : -0.000622000428848}
2019-04-14 12:25:01.71: SIM {TimeUS : 46334792, Roll : 0.05, Pitch : 0.02, Yaw : 359.92, Alt : 35.5200004578, Lat : 49.2835706, Lng : -123.1150208, Q1 : 0.999999642372, Q2 : 0.000460397044662, Q3 : 0.00022727905889, Q4 : -0.000686810235493}
2019-04-14 12:25:01.81: SIM {TimeUS : 46434752, Roll : 0.04, Pitch : 0.02, Yaw : 359.91, Alt : 35.7400016785, Lat : 49.2835706, Lng : -123.1150208, Q1 : 0.999999642372, Q2 : 0.000376145879272, Q3 : 0.000236781910644, Q4 : -0.00075225654291}
2019-04-14 12:25:01.91: SIM {TimeUS : 46534712, Roll : 0.01, Pitch : 0.02, Yaw : 359.9, Alt : 35.9599990845, Lat : 49.2835706, Lng : -123.1150208, Q1 : 0.999999642372, Q2 : 0.000156814567163, Q3 : 0.000185596858501, Q4 : -0.000808836601209}
2019-04-14 12:25:02.01: SIM {TimeUS : 46634672, Roll : 0.0, Pitch : 0.01, Yaw : 359.9, Alt : 36.1800003052, Lat : 49.2835706, Lng : -123.1150208, Q1 : 0.999999642372, Q2 : -6.75409755786e-05, Q3 : 0.000172765081516, Q4 : -0.000851083954331}
2019-04-14 12:25:02.11: SIM {TimeUS : 46734632, Roll : -0.02, Pitch : 0.04, Yaw : 359.89, Alt : 36.4000015259, Lat : 49.2835706, Lng : -123.1150208, Q1 : 0.999999523163, Q2 : -0.000178889808012, Q3 : 0.000370093272068, Q4 : -0.000886682013515}
2019-04-14 12:25:02.21: SIM {TimeUS : 46834592, Roll : -0.02, Pitch : 0.05, Yaw : 359.89, Alt : 36.6300010681, Lat : 49.2835706, Lng : -123.1150207, Q1 : 0.999999463558, Q2 : -0.000234670675127, Q3 : 0.000439828610979, Q4 : -0.000921308062971}
2019-04-14 12:25:02.31: SIM {TimeUS : 46934552, Roll : -0.02, Pitch : 0.04, Yaw : 359.89, Alt : 36.8499984741, Lat : 49.2835706, Lng : -123.1150207, Q1 : 0.999999463558, Q2 : -0.000201251605176, Q3 : 0.00039297726471, Q4 : -0.000956418632995}
2019-04-14 12:25:02.41: SIM {TimeUS : 47034512, Roll : -0.02, Pitch : 0.03, Yaw : 359.88, Alt : 37.0699996948, Lat : 49.2835706, Lng : -123.1150207, Q1 : 0.999999463558, Q2 : -0.000193746163859, Q3 : 0.000326704699546, Q4 : -0.000987844658084}
2019-04-14 12:25:02.51: SIM {TimeUS : 47134472, Roll : -0.01, Pitch : 0.03, Yaw : 359.88, Alt : 37.2999992371, Lat : 49.2835704, Lng : -123.1150207, Q1 : 0.999999463558, Q2 : -0.000157349568326, Q3 : 0.000272539240541, Q4 : -0.00100820383523}
2019-04-14 12:25:02.61: SIM {TimeUS : 47234432, Roll : 0.0, Pitch : 0.02, Yaw : 359.88, Alt : 37.5200004578, Lat : 49.2835704, Lng : -123.1150207, Q1 : 0.999999463558, Q2 : -5.45484144823e-05, Q3 : 0.000181756942766, Q4 : -0.00101040420122}
2019-04-14 12:25:02.71: SIM {TimeUS : 47334392, Roll : -0.01, Pitch : 0.0, Yaw : 359.88, Alt : 37.75, Lat : 49.2835704, Lng : -123.1150207, Q1 : 0.999999523163, Q2 : -0.000148866150994, Q3 : 3.10959353556e-06, Q4 : -0.00100233615376}
2019-04-14 12:25:02.81: SIM {TimeUS : 47434352, Roll : -0.04, Pitch : -0.02, Yaw : 359.88, Alt : 37.9799995422, Lat : 49.2835704, Lng : -123.1150207, Q1 : 0.999999403954, Q2 : -0.00038549938472, Q3 : -0.000258890679106, Q4 : -0.000989757361822}
2019-04-14 12:25:02.91: SIM {TimeUS : 47534312, Roll : -0.07, Pitch : -0.05, Yaw : 359.88, Alt : 38.2000007629, Lat : 49.2835704, Lng : -123.1150207, Q1 : 0.99999922514, Q2 : -0.000643779581878, Q3 : -0.000438324699644, Q4 : -0.000980171491392}
2019-04-14 12:25:03.01: SIM {TimeUS : 47634272, Roll : -0.1, Pitch : -0.04, Yaw : 359.88, Alt : 38.4300003052, Lat : 49.2835704, Lng : -123.1150207, Q1 : 0.999999046326, Q2 : -0.000884437002242, Q3 : -0.000402084056986, Q4 : -0.000981616787612}
2019-04-14 12:25:03.11: SIM {TimeUS : 47734232, Roll : -0.11, Pitch : -0.03, Yaw : 359.88, Alt : 38.6599998474, Lat : 49.2835704, Lng : -123.1150206, Q1 : 0.999998927116, Q2 : -0.00102711364161, Q3 : -0.000347013090504, Q4 : -0.000988134765066}
2019-04-14 12:25:03.21: SIM {TimeUS : 47834192, Roll : -0.11, Pitch : -0.03, Yaw : 359.88, Alt : 38.8899993896, Lat : 49.2835704, Lng : -123.1150206, Q1 : 0.999998986721, Q2 : -0.0010093433084, Q3 : -0.000323103886331, Q4 : -0.000993599067442}
2019-04-14 12:25:03.31: SIM {TimeUS : 47934152, Roll : -0.09, Pitch : -0.02, Yaw : 359.88, Alt : 39.1199989319, Lat : 49.2835704, Lng : -123.1150206, Q1 : 0.99999910593, Q2 : -0.000848275027238, Q3 : -0.000226093165111, Q4 : -0.0010062858928}
2019-04-14 12:25:03.41: SIM {TimeUS : 48034112, Roll : -0.07, Pitch : -0.03, Yaw : 359.88, Alt : 39.3499984741, Lat : 49.2835704, Lng : -123.1150206, Q1 : 0.99999922514, Q2 : -0.000614588381723, Q3 : -0.000305476307403, Q4 : -0.00102552550379}
2019-04-14 12:25:03.51: SIM {TimeUS : 48134072, Roll : -0.05, Pitch : -0.04, Yaw : 359.87, Alt : 39.5800018311, Lat : 49.2835704, Lng : -123.1150206, Q1 : 0.99999922514, Q2 : -0.000497599539813, Q3 : -0.000427711842349, Q4 : -0.00105545285624}
2019-04-14 12:25:03.61: SIM {TimeUS : 48234032, Roll : -0.05, Pitch : -0.04, Yaw : 359.87, Alt : 39.8100013733, Lat : 49.2835704, Lng : -123.1150206, Q1 : 0.99999922514, Q2 : -0.000455260742456, Q3 : -0.000405530649005, Q4 : -0.00108004675712}
2019-04-14 12:25:03.72: SIM {TimeUS : 48334825, Roll : -0.07, Pitch : -0.02, Yaw : 359.87, Alt : 40.0400009155, Lat : 49.2835704, Lng : -123.1150206, Q1 : 0.999999165535, Q2 : -0.000612049014308, Q3 : -0.000192353734747, Q4 : -0.00111075595487}
2019-04-14 12:25:03.81: SIM {TimeUS : 48434785, Roll : -0.07, Pitch : 0.0, Yaw : 359.86, Alt : 40.2700004578, Lat : 49.2835704, Lng : -123.1150206, Q1 : 0.999999165535, Q2 : -0.000643237144686, Q3 : 7.58791793487e-05, Q4 : -0.00114742782898}
2019-04-14 12:25:03.91: SIM {TimeUS : 48534745, Roll : -0.05, Pitch : 0.04, Yaw : 359.86, Alt : 40.5099983215, Lat : 49.2835704, Lng : -123.1150207, Q1 : 0.99999910593, Q2 : -0.000494336010888, Q3 : 0.000428188272053, Q4 : -0.00119922985323}
2019-04-14 12:25:04.01: SIM {TimeUS : 48634705, Roll : -0.03, Pitch : 0.06, Yaw : 359.85, Alt : 40.7400016785, Lat : 49.2835704, Lng : -123.1150207, Q1 : 0.999998986721, Q2 : -0.000295243342407, Q3 : 0.000583224697039, Q4 : -0.00124611181673}
2019-04-14 12:25:04.11: SIM {TimeUS : 48734665, Roll : 0.0, Pitch : 0.06, Yaw : 359.85, Alt : 40.9700012207, Lat : 49.2835704, Lng : -123.1150207, Q1 : 0.999998986721, Q2 : 3.65687483281e-05, Q3 : 0.000610763323493, Q4 : -0.00128657266032}
2019-04-14 12:25:04.21: SIM {TimeUS : 48834625, Roll : 0.04, Pitch : 0.08, Yaw : 359.84, Alt : 41.2000007629, Lat : 49.2835704, Lng : -123.1150207, Q1 : 0.999998807907, Q2 : 0.000426320941187, Q3 : 0.000729014223907, Q4 : -0.00131979770958}
2019-04-14 12:25:04.31: SIM {TimeUS : 48934585, Roll : 0.09, Pitch : 0.1, Yaw : 359.84, Alt : 41.4399986267, Lat : 49.2835704, Lng : -123.1150207, Q1 : 0.99999833107, Q2 : 0.000795974687207, Q3 : 0.000923542538658, Q4 : -0.00134859618265}
2019-04-14 12:25:04.41: SIM {TimeUS : 49034545, Roll : 0.11, Pitch : 0.12, Yaw : 359.84, Alt : 41.6699981689, Lat : 49.2835704, Lng : -123.1150207, Q1 : 0.999997973442, Q2 : 0.000999613315798, Q3 : 0.00110677804332, Q4 : -0.00137079518754}
2019-04-14 12:25:04.51: SIM {TimeUS : 49134505, Roll : 0.09, Pitch : 0.14, Yaw : 359.84, Alt : 41.9099998474, Lat : 49.2835704, Lng : -123.1150207, Q1 : 0.999997973442, Q2 : 0.000829192867968, Q3 : 0.00122304516844, Q4 : -0.00137556705158}
2019-04-14 12:25:04.61: SIM {TimeUS : 49234465, Roll : 0.04, Pitch : 0.14, Yaw : 359.84, Alt : 42.1399993896, Lat : 49.2835704, Lng : -123.1150207, Q1 : 0.999998152256, Q2 : 0.00041002756916, Q3 : 0.00128455716185, Q4 : -0.00137559184805}
2019-04-14 12:25:04.71: SIM {TimeUS : 49334425, Roll : 0.0, Pitch : 0.14, Yaw : 359.84, Alt : 42.3699989319, Lat : 49.2835706, Lng : -123.1150207, Q1 : 0.999998211861, Q2 : 2.45450301009e-05, Q3 : 0.00128357065842, Q4 : -0.0013794322731}
2019-04-14 12:25:04.81: SIM {TimeUS : 49434385, Roll : -0.01, Pitch : 0.11, Yaw : 359.84, Alt : 42.6100006104, Lat : 49.2835704, Lng : -123.1150207, Q1 : 0.999998509884, Q2 : -0.00010838106391, Q3 : 0.00102418113966, Q4 : -0.0013884305954}
2019-04-14 12:25:04.91: SIM {TimeUS : 49534345, Roll : -0.01, Pitch : 0.07, Yaw : 359.83, Alt : 42.8400001526, Lat : 49.2835704, Lng : -123.1150207, Q1 : 0.999998807907, Q2 : -9.41261605476e-05, Q3 : 0.000631934206467, Q4 : -0.00140322209336}
2019-04-14 12:25:05.01: SIM {TimeUS : 49634305, Roll : 0.0, Pitch : 0.06, Yaw : 359.83, Alt : 43.0800018311, Lat : 49.2835704, Lng : -123.1150207, Q1 : 0.999998867512, Q2 : -9.40535937843e-06, Q3 : 0.000540819077287, Q4 : -0.00142511504237}
2019-04-14 12:25:05.11: SIM {TimeUS : 49734265, Roll : 0.02, Pitch : 0.07, Yaw : 359.83, Alt : 43.3100013733, Lat : 49.2835704, Lng : -123.1150207, Q1 : 0.999998688698, Q2 : 0.000250720768236, Q3 : 0.00064343737904, Q4 : -0.00145709002391}
2019-04-14 12:25:05.21: SIM {TimeUS : 49834225, Roll : 0.08, Pitch : 0.08, Yaw : 359.83, Alt : 43.5499992371, Lat : 49.2835704, Lng : -123.1150207, Q1 : 0.99999833107, Q2 : 0.000707374303602, Q3 : 0.000781945185736, Q4 : -0.00148260896094}
2019-04-14 12:25:05.31: SIM {TimeUS : 49934185, Roll : 0.12, Pitch : 0.07, Yaw : 359.82, Alt : 43.7799987793, Lat : 49.2835704, Lng : -123.1150207, Q1 : 0.999998092651, Q2 : 0.00106227037031, Q3 : 0.000694008893333, Q4 : -0.00150873034727}
2019-04-14 12:25:05.41: SIM {TimeUS : 50034145, Roll : 0.12, Pitch : 0.06, Yaw : 359.82, Alt : 44.0200004578, Lat : 49.2835704, Lng : -123.1150207, Q1 : 0.999998092651, Q2 : 0.00106458680239, Q3 : 0.000522269459907, Q4 : -0.00153116590809}
2019-04-14 12:25:05.51: SIM {TimeUS : 50134105, Roll : 0.07, Pitch : 0.04, Yaw : 359.82, Alt : 44.2599983215, Lat : 49.2835704, Lng : -123.1150207, Q1 : 0.999998509884, Q2 : 0.000669745786581, Q3 : 0.00036381254904, Q4 : -0.00153936620336}
2019-04-14 12:25:05.61: SIM {TimeUS : 50234065, Roll : 0.01, Pitch : 0.03, Yaw : 359.82, Alt : 44.4900016785, Lat : 49.2835704, Lng : -123.1150207, Q1 : 0.999998748302, Q2 : 0.000137240727781, Q3 : 0.000286209688056, Q4 : -0.00154574401677}
2019-04-14 12:25:05.71: SIM {TimeUS : 50334025, Roll : -0.02, Pitch : 0.03, Yaw : 359.82, Alt : 44.7299995422, Lat : 49.2835704, Lng : -123.1150206, Q1 : 0.999998688698, Q2 : -0.000231834870647, Q3 : 0.000296338927001, Q4 : -0.00155761628412}
2019-04-14 12:25:05.81: SIM {TimeUS : 50434818, Roll : -0.04, Pitch : 0.03, Yaw : 359.81, Alt : 44.9700012207, Lat : 49.2835704, Lng : -123.1150206, Q1 : 0.999998629093, Q2 : -0.000429566483945, Q3 : 0.000266725226538, Q4 : -0.00157688313629}
2019-04-14 12:25:05.91: SIM {TimeUS : 50534778, Roll : -0.03, Pitch : 0.01, Yaw : 359.81, Alt : 45.2000007629, Lat : 49.2835704, Lng : -123.1150206, Q1 : 0.999998629093, Q2 : -0.000341107253917, Q3 : 0.000167956255609, Q4 : -0.00161890184972}
2019-04-14 12:25:06.01: SIM {TimeUS : 50634738, Roll : -0.03, Pitch : 0.0, Yaw : 359.8, Alt : 45.4399986267, Lat : 49.2835704, Lng : -123.1150206, Q1 : 0.999998569489, Q2 : -0.000313711265335, Q3 : 6.98120857123e-05, Q4 : -0.00166946870741}
2019-04-14 12:25:06.11: SIM {TimeUS : 50734698, Roll : -0.02, Pitch : 0.0, Yaw : 359.8, Alt : 45.6699981689, Lat : 49.2835704, Lng : -123.1150206, Q1 : 0.999998509884, Q2 : -0.000239540691837, Q3 : 3.21474931297e-06, Q4 : -0.00172169297002}
2019-04-14 12:25:06.21: SIM {TimeUS : 50834658, Roll : -0.01, Pitch : 0.0, Yaw : 359.79, Alt : 45.9099998474, Lat : 49.2835704, Lng : -123.1150206, Q1 : 0.999998450279, Q2 : -8.84213586687e-05, Q3 : 3.85642415495e-05, Q4 : -0.00177018821705}
2019-04-14 12:25:06.31: SIM {TimeUS : 50934618, Roll : -0.01, Pitch : 0.01, Yaw : 359.79, Alt : 46.1399993896, Lat : 49.2835704, Lng : -123.1150206, Q1 : 0.999998390675, Q2 : -9.06736750039e-05, Q3 : 0.000128376326757, Q4 : -0.00180998293217}
2019-04-14 12:25:06.41: SIM {TimeUS : 51034578, Roll : -0.02, Pitch : 0.01, Yaw : 359.78, Alt : 46.3600006104, Lat : 49.2835704, Lng : -123.1150205, Q1 : 0.999998271465, Q2 : -0.000196941226022, Q3 : 0.00013017647143, Q4 : -0.0018457500264}
2019-04-14 12:25:06.51: SIM {TimeUS : 51134538, Roll : -0.03, Pitch : 0.0, Yaw : 359.78, Alt : 46.5800018311, Lat : 49.2835704, Lng : -123.1150205, Q1 : 0.999998211861, Q2 : -0.000313787721097, Q3 : -1.58642251336e-05, Q4 : -0.00187860138249}
2019-04-14 12:25:06.61: SIM {TimeUS : 51234498, Roll : -0.04, Pitch : -0.01, Yaw : 359.78, Alt : 46.7999992371, Lat : 49.2835704, Lng : -123.1150205, Q1 : 0.999998092651, Q2 : -0.000370157242287, Q3 : -0.000123887206428, Q4 : -0.00190511008259}
2019-04-14 12:25:06.71: SIM {TimeUS : 51334458, Roll : -0.03, Pitch : -0.02, Yaw : 359.77, Alt : 47.0099983215, Lat : 49.2835703, Lng : -123.1150205, Q1 : 0.999998092651, Q2 : -0.000339863123372, Q3 : -0.000182956340723, Q4 : -0.00192658649758}
2019-04-14 12:25:06.81: SIM {TimeUS : 51434418, Roll : -0.03, Pitch : -0.01, Yaw : 359.77, Alt : 47.2099990845, Lat : 49.2835703, Lng : -123.1150205, Q1 : 0.999998033047, Q2 : -0.000338922691299, Q3 : -0.000161267555086, Q4 : -0.00194473366719}
2019-04-14 12:25:06.91: SIM {TimeUS : 51534378, Roll : -0.05, Pitch : 0.0, Yaw : 359.77, Alt : 47.4099998474, Lat : 49.2835703, Lng : -123.1150205, Q1 : 0.999997973442, Q2 : -0.000470559549285, Q3 : -7.47013255022e-05, Q4 : -0.00196236581542}
2019-04-14 12:25:07.01: SIM {TimeUS : 51634338, Roll : -0.08, Pitch : 0.0, Yaw : 359.77, Alt : 47.5900001526, Lat : 49.2835703, Lng : -123.1150205, Q1 : 0.999997794628, Q2 : -0.000737119349651, Q3 : 3.89311435356e-06, Q4 : -0.0019821554888}
2019-04-14 12:25:07.11: SIM {TimeUS : 51734298, Roll : -0.12, Pitch : -0.01, Yaw : 359.76, Alt : 47.7700004578, Lat : 49.2835703, Lng : -123.1150205, Q1 : 0.999997377396, Q2 : -0.00112175929826, Q3 : -0.000107007130282, Q4 : -0.00200756988488}
2019-04-14 12:25:07.21: SIM {TimeUS : 51834258, Roll : -0.15, Pitch : -0.01, Yaw : 359.76, Alt : 47.9300003052, Lat : 49.2835703, Lng : -123.1150205, Q1 : 0.999997019768, Q2 : -0.00136801495682, Q3 : -0.000118835821922, Q4 : -0.00203377800062}
2019-04-14 12:25:07.31: SIM {TimeUS : 51934218, Roll : -0.15, Pitch : 0.0, Yaw : 359.76, Alt : 48.0900001526, Lat : 49.2835703, Lng : -123.1150205, Q1 : 0.999996900558, Q2 : -0.00139159173705, Q3 : 3.05674111587e-05, Q4 : -0.00206185714342}
2019-04-14 12:25:07.41: SIM {TimeUS : 52034178, Roll : -0.13, Pitch : 0.01, Yaw : 359.76, Alt : 48.2299995422, Lat : 49.2835703, Lng : -123.1150205, Q1 : 0.999997079372, Q2 : -0.00121171586215, Q3 : 0.000161698058946, Q4 : -0.00208561099134}
2019-04-14 12:25:07.51: SIM {TimeUS : 52134138, Roll : -0.11, Pitch : 0.02, Yaw : 359.75, Alt : 48.3600006104, Lat : 49.2835703, Lng : -123.1150205, Q1 : 0.999997258186, Q2 : -0.00103040644899, Q3 : 0.000185483819223, Q4 : -0.00211032037623}
2019-04-14 12:25:07.61: SIM {TimeUS : 52234098, Roll : -0.1, Pitch : 0.01, Yaw : 359.75, Alt : 48.4700012207, Lat : 49.2835703, Lng : -123.1150205, Q1 : 0.999997317791, Q2 : -0.000875695492141, Q3 : 9.55073992372e-05, Q4 : -0.00213442672975}
2019-04-14 12:25:07.71: SIM {TimeUS : 52334058, Roll : -0.07, Pitch : -0.01, Yaw : 359.75, Alt : 48.5800018311, Lat : 49.2835703, Lng : -123.1150205, Q1 : 0.999997437, Q2 : -0.000673791160807, Q3 : -9.94717920548e-05, Q4 : -0.00215621199459}
2019-04-14 12:25:07.82: SIM {TimeUS : 52434851, Roll : -0.04, Pitch : -0.03, Yaw : 359.75, Alt : 48.6699981689, Lat : 49.2835703, Lng : -123.1150205, Q1 : 0.999997496605, Q2 : -0.000420537253376, Q3 : -0.00028447189834, Q4 : -0.00217805546708}
2019-04-14 12:25:07.91: SIM {TimeUS : 52534811, Roll : -0.02, Pitch : -0.05, Yaw : 359.74, Alt : 48.75, Lat : 49.2835703, Lng : -123.1150205, Q1 : 0.999997496605, Q2 : -0.000253218953731, Q3 : -0.000444656645413, Q4 : -0.00219702813774}
2019-04-14 12:25:08.01: SIM {TimeUS : 52634771, Roll : -0.02, Pitch : -0.06, Yaw : 359.74, Alt : 48.8199996948, Lat : 49.2835703, Lng : -123.1150205, Q1 : 0.999997377396, Q2 : -0.00025917973835, Q3 : -0.000577180820983, Q4 : -0.00220827036537}
2019-04-14 12:25:08.11: SIM {TimeUS : 52734731, Roll : 0.0, Pitch : -0.06, Yaw : 359.74, Alt : 48.8800010681, Lat : 49.2835703, Lng : -123.1150206, Q1 : 0.999997377396, Q2 : -6.11412833678e-05, Q3 : -0.000594223150983, Q4 : -0.00221904600039}
2019-04-14 12:25:08.21: SIM {TimeUS : 52834691, Roll : 0.02, Pitch : -0.06, Yaw : 359.74, Alt : 48.9300003052, Lat : 49.2835703, Lng : -123.1150206, Q1 : 0.999997317791, Q2 : 0.000174301298102, Q3 : -0.000560322368983, Q4 : -0.00223331525922}
2019-04-14 12:25:08.31: SIM {TimeUS : 52934651, Roll : 0.04, Pitch : -0.05, Yaw : 359.74, Alt : 48.9799995422, Lat : 49.2835703, Lng : -123.1150206, Q1 : 0.999997258186, Q2 : 0.000390966830309, Q3 : -0.000503518502228, Q4 : -0.0022517752368}
2019-04-14 12:25:08.41: SIM {TimeUS : 53034611, Roll : 0.1, Pitch : -0.08, Yaw : 359.73, Alt : 49.0200004578, Lat : 49.2835703, Lng : -123.1150206, Q1 : 0.999996721745, Q2 : 0.000883149157744, Q3 : -0.0007365863421, Q4 : -0.00227543525398}
2019-04-14 12:25:08.51: SIM {TimeUS : 53134571, Roll : 0.3, Pitch : -0.24, Yaw : 359.73, Alt : 49.0499992371, Lat : 49.2835703, Lng : -123.1150206, Q1 : 0.999991595745, Q2 : 0.00261415075511, Q3 : -0.00215605273843, Q4 : -0.00231132772751}
2019-04-14 12:25:08.61: SIM {TimeUS : 53234531, Roll : 0.68, Pitch : -0.61, Yaw : 359.72, Alt : 49.0800018311, Lat : 49.2835703, Lng : -123.1150206, Q1 : 0.999964773655, Q2 : 0.00596856512129, Q3 : -0.00541167752817, Q4 : -0.00234977714717}
2019-04-14 12:25:08.71: SIM {TimeUS : 53334491, Roll : 1.23, Pitch : -1.16, Yaw : 359.71, Alt : 49.0999984741, Lat : 49.2835704, Lng : -123.1150206, Q1 : 0.999887466431, Q2 : 0.0107769165188, Q3 : -0.0101630780846, Q4 : -0.0023800896015}
2019-04-14 12:25:08.81: SIM {TimeUS : 53434451, Roll : 1.93, Pitch : -1.82, Yaw : 359.69, Alt : 49.1300010681, Lat : 49.2835704, Lng : -123.1150205, Q1 : 0.999728620052, Q2 : 0.0168351307511, Q3 : -0.0159264616668, Q4 : -0.00238256738521}
2019-04-14 12:25:08.91: SIM {TimeUS : 53534411, Roll : 2.68, Pitch : -2.51, Yaw : 359.67, Alt : 49.1399993896, Lat : 49.2835706, Lng : -123.1150205, Q1 : 0.999480605125, Q2 : 0.023399380967, Q3 : -0.022036800161, Q4 : -0.0023248877842}
2019-04-14 12:25:09.01: SIM {TimeUS : 53634371, Roll : 3.37, Pitch : -3.13, Yaw : 359.65, Alt : 49.1599998474, Lat : 49.2835706, Lng : -123.1150203, Q1 : 0.999188959599, Q2 : 0.0293655134737, Q3 : -0.0274636242539, Q4 : -0.00219372846186}
2019-04-14 12:25:09.11: SIM {TimeUS : 53734331, Roll : 3.93, Pitch : -3.61, Yaw : 359.64, Alt : 49.1699981689, Lat : 49.2835708, Lng : -123.1150201, Q1 : 0.998911201954, Q2 : 0.0342456437647, Q3 : -0.0316185317934, Q4 : -0.00198891106993}
2019-04-14 12:25:09.21: SIM {TimeUS : 53834291, Roll : 4.36, Pitch : -3.96, Yaw : 359.65, Alt : 49.1800003052, Lat : 49.2835709, Lng : -123.11502, Q1 : 0.998676717281, Q2 : 0.0379486717284, Q3 : -0.0346667282283, Q4 : -0.00172398472205}
2019-04-14 12:25:09.31: SIM {TimeUS : 53934251, Roll : 4.68, Pitch : -4.25, Yaw : 359.66, Alt : 49.2000007629, Lat : 49.2835712, Lng : -123.1150196, Q1 : 0.998478651047, Q2 : 0.0406959429383, Q3 : -0.0371779687703, Q4 : -0.00143691641279}
2019-04-14 12:25:09.41: SIM {TimeUS : 54034211, Roll : 4.92, Pitch : -4.5, Yaw : 359.67, Alt : 49.2000007629, Lat : 49.2835715, Lng : -123.1150192, Q1 : 0.998303115368, Q2 : 0.0428407117724, Q3 : -0.0394236519933, Q4 : -0.0011429938022}
2019-04-14 12:25:09.51: SIM {TimeUS : 54134171, Roll : 5.17, Pitch : -4.78, Yaw : 359.68, Alt : 49.2099990845, Lat : 49.2835718, Lng : -123.1150186, Q1 : 0.998111248016, Q2 : 0.044947873801, Q3 : -0.0418680347502, Q4 : -0.000854293757584}
2019-04-14 12:25:09.61: SIM {TimeUS : 54234131, Roll : 5.43, Pitch : -5.07, Yaw : 359.69, Alt : 49.2200012207, Lat : 49.2835721, Lng : -123.115018, Q1 : 0.997897088528, Q2 : 0.0472678169608, Q3 : -0.0443485565484, Q4 : -0.000554908881895}
2019-04-14 12:25:09.71: SIM {TimeUS : 54334091, Roll : 5.69, Pitch : -5.32, Yaw : 359.7, Alt : 49.2299995422, Lat : 49.2835726, Lng : -123.1150173, Q1 : 0.997692227364, Q2 : 0.049480304122, Q3 : -0.046496104449, Q4 : -0.000250243087066}
2019-04-14 12:25:09.81: SIM {TimeUS : 54434051, Roll : 5.89, Pitch : -5.51, Yaw : 359.71, Alt : 49.2299995422, Lat : 49.2835731, Lng : -123.1150165, Q1 : 0.9975233078, Q2 : 0.0512234084308, Q3 : -0.0482019409537, Q4 : 2.44621678576e-05}
2019-04-14 12:25:09.92: SIM {TimeUS : 54534844, Roll : 6.04, Pitch : -5.65, Yaw : 359.73, Alt : 49.2400016785, Lat : 49.2835735, Lng : -123.1150157, Q1 : 0.997393667698, Q2 : 0.0525800026953, Q3 : -0.0494085289538, Q4 : 0.000259771099081}
2019-04-14 12:25:10.01: SIM {TimeUS : 54634804, Roll : 6.15, Pitch : -5.74, Yaw : 359.73, Alt : 49.2400016785, Lat : 49.2835741, Lng : -123.1150147, Q1 : 0.997306764126, Q2 : 0.053467143327, Q3 : -0.050202999264, Q4 : 0.000426702870755}
2019-04-14 12:25:10.11: SIM {TimeUS : 54734764, Roll : 6.23, Pitch : -5.83, Yaw : 359.74, Alt : 49.25, Lat : 49.2835747, Lng : -123.1150137, Q1 : 0.997227489948, Q2 : 0.054215028882, Q3 : -0.0509687289596, Q4 : 0.000516839209013}
2019-04-14 12:25:10.21: SIM {TimeUS : 54834724, Roll : 6.34, Pitch : -5.94, Yaw : 359.73, Alt : 49.25, Lat : 49.2835755, Lng : -123.1150126, Q1 : 0.997124016285, Q2 : 0.0551903694868, Q3 : -0.051936224103, Q4 : 0.000559006119147}
2019-04-14 12:25:10.31: SIM {TimeUS : 54934684, Roll : 6.65, Pitch : -5.97, Yaw : 359.84, Alt : 49.25, Lat : 49.2835762, Lng : -123.1150114, Q1 : 0.996958553791, Q2 : 0.0578987598419, Q3 : -0.0521404929459, Q4 : 0.00164866831619}
2019-04-14 12:25:10.41: SIM {TimeUS : 55034644, Roll : 7.2, Pitch : -5.86, Yaw : 0.57, Alt : 49.2599983215, Lat : 49.283577, Lng : -123.1150101, Q1 : 0.996687889099, Q2 : 0.0630019456148, Q3 : -0.0507580824196, Q4 : 0.00822873227298}
2019-04-14 12:25:10.51: SIM {TimeUS : 55134604, Roll : 7.83, Pitch : -5.85, Yaw : 2.6, Alt : 49.2599983215, Lat : 49.2835777, Lng : -123.1150088, Q1 : 0.996026396751, Q2 : 0.0693752765656, Q3 : -0.0493560805917, Q4 : 0.026124464348}
2019-04-14 12:25:10.61: SIM {TimeUS : 55234564, Roll : 8.22, Pitch : -6.22, Yaw : 6.22, Alt : 49.2599983215, Lat : 49.2835786, Lng : -123.1150072, Q1 : 0.994275152683, Q2 : 0.0744692906737, Q3 : -0.0501492880285, Q4 : 0.05793338269}
2019-04-14 12:25:10.71: SIM {TimeUS : 55334524, Roll : 8.15, Pitch : -7.03, Yaw : 11.34, Alt : 49.2599983215, Lat : 49.2835794, Lng : -123.1150058, Q1 : 0.990277647972, Q2 : 0.0767155960202, Q3 : -0.0538934990764, Q4 : 0.10276363045}
2019-04-14 12:25:10.81: SIM {TimeUS : 55434484, Roll : 7.47, Pitch : -8.21, Yaw : 17.75, Alt : 49.2599983215, Lat : 49.2835802, Lng : -123.1150041, Q1 : 0.982666134834, Q2 : 0.0752842575312, Q3 : -0.0605581477284, Q4 : 0.158215880394}
2019-04-14 12:25:10.91: SIM {TimeUS : 55534444, Roll : 6.14, Pitch : -9.58, Yaw : 25.18, Alt : 49.2599983215, Lat : 49.2835812, Lng : -123.1150023, Q1 : 0.970154166222, Q2 : 0.0702958628535, Q3 : -0.0697496011853, Q4 : 0.221346735954}
2019-04-14 12:25:11.01: SIM {TimeUS : 55634404, Roll : 4.11, Pitch : -10.92, Yaw : 33.35, Alt : 49.2700004578, Lat : 49.2835822, Lng : -123.1150003, Q1 : 0.951984465122, Q2 : 0.0615412741899, Q3 : -0.0808751806617, Q4 : 0.288786143064}
2019-04-14 12:25:11.11: SIM {TimeUS : 55734364, Roll : 1.29, Pitch : -11.99, Yaw : 41.67, Alt : 49.2700004578, Lat : 49.2835831, Lng : -123.1149983, Q1 : 0.929000496864, Q2 : 0.0477102398872, Q3 : -0.093655705452, Q4 : 0.354838579893}
2019-04-14 12:25:11.21: SIM {TimeUS : 55834324, Roll : -1.9, Pitch : -12.58, Yaw : 49.26, Alt : 49.2700004578, Lat : 49.2835843, Lng : -123.1149962, Q1 : 0.904152750969, Q2 : 0.0306947994977, Q3 : -0.106497772038, Q4 : 0.412581920624}
2019-04-14 12:25:11.31: SIM {TimeUS : 55934284, Roll : -4.81, Pitch : -12.7, Yaw : 55.34, Alt : 49.2700004578, Lat : 49.2835854, Lng : -123.1149941, Q1 : 0.881558895111, Q2 : 0.0143576534465, Q3 : -0.117279984057, Q4 : 0.457048416138}
2019-04-14 12:25:11.41: SIM {TimeUS : 56034244, Roll : -6.87, Pitch : -12.55, Yaw : 59.46, Alt : 49.2700004578, Lat : 49.2835866, Lng : -123.1149919, Q1 : 0.864849746227, Q2 : 0.00234878575429, Q3 : -0.124353855848, Q4 : 0.486380010843}
2019-04-14 12:25:11.51: SIM {TimeUS : 56134204, Roll : -7.85, Pitch : -12.41, Yaw : 61.6, Alt : 49.2700004578, Lat : 49.2835879, Lng : -123.1149897, Q1 : 0.855706989765, Q2 : -0.00326844863594, Q3 : -0.127507790923, Q4 : 0.501494407654}
2019-04-14 12:25:11.61: SIM {TimeUS : 56234164, Roll : -7.81, Pitch : -12.46, Yaw : 62.01, Alt : 49.2700004578, Lat : 49.2835893, Lng : -123.1149874, Q1 : 0.853858709335, Q2 : -0.00223259907216, Q3 : -0.127756372094, Q4 : 0.504577636719}
2019-04-14 12:25:11.71: SIM {TimeUS : 56334124, Roll : -6.98, Pitch : -12.8, Yaw : 61.05, Alt : 49.2700004578, Lat : 49.2835909, Lng : -123.1149852, Q1 : 0.857870817184, Q2 : 0.00437982054427, Q3 : -0.1266489923, Q4 : 0.497994452715}
2019-04-14 12:25:11.81: SIM {TimeUS : 56434084, Roll : -5.62, Pitch : -13.37, Yaw : 59.06, Alt : 49.2700004578, Lat : 49.2835926, Lng : -123.1149829, Q1 : 0.865918040276, Q2 : 0.0149603793398, Q3 : -0.125224977732, Q4 : 0.484025627375}
2019-04-14 12:25:11.91: SIM {TimeUS : 56534044, Roll : -3.92, Pitch : -14.08, Yaw : 56.38, Alt : 49.2799987793, Lat : 49.2835943, Lng : -123.1149805, Q1 : 0.876200377941, Q2 : 0.0279341898859, Q3 : -0.12402831763, Q4 : 0.464875817299}
2019-04-14 12:25:12.02: SIM {TimeUS : 56634837, Roll : -2.07, Pitch : -14.78, Yaw : 53.28, Alt : 49.2799987793, Lat : 49.283596, Lng : -123.114978, Q1 : 0.887300491333, Q2 : 0.0416323579848, Q3 : -0.123035930097, Q4 : 0.442523211241}
2019-04-14 12:25:12.11: SIM {TimeUS : 56734797, Roll : -0.28, Pitch : -15.34, Yaw : 50.14, Alt : 49.2799987793, Lat : 49.2835978, Lng : -123.1149755, Q1 : 0.897821187973, Q2 : 0.0543361976743, Q3 : -0.121938824654, Q4 : 0.419637531042}
2019-04-14 12:25:12.21: SIM {TimeUS : 56834757, Roll : 1.29, Pitch : -15.68, Yaw : 47.26, Alt : 49.2799987793, Lat : 49.2835998, Lng : -123.1149729, Q1 : 0.906900823116, Q2 : 0.0649462491274, Q3 : -0.120537117124, Q4 : 0.398476779461}
2019-04-14 12:25:12.31: SIM {TimeUS : 56934717, Roll : 2.5, Pitch : -15.81, Yaw : 44.92, Alt : 49.2799987793, Lat : 49.2836017, Lng : -123.1149701, Q1 : 0.91397601366, Q2 : 0.0725238919258, Q3 : -0.118820786476, Q4 : 0.381142765284}
2019-04-14 12:25:12.41: SIM {TimeUS : 57034677, Roll : 3.26, Pitch : -15.78, Yaw : 43.3, Alt : 49.2799987793, Lat : 49.2836036, Lng : -123.1149672, Q1 : 0.918798327446, Q2 : 0.0769038125873, Q3 : -0.117194473743, Q4 : 0.368999868631}
2019-04-14 12:25:12.51: SIM {TimeUS : 57134637, Roll : 3.55, Pitch : -15.72, Yaw : 42.46, Alt : 49.2799987793, Lat : 49.2836055, Lng : -123.1149642, Q1 : 0.921375930309, Q2 : 0.0781624913216, Q3 : -0.11627472192, Q4 : 0.362542659044}
2019-04-14 12:25:12.61: SIM {TimeUS : 57234597, Roll : 3.4, Pitch : -15.67, Yaw : 42.35, Alt : 49.2799987793, Lat : 49.2836074, Lng : -123.114961, Q1 : 0.921886146069, Q2 : 0.0766929015517, Q3 : -0.116441205144, Q4 : 0.361504733562}
2019-04-14 12:25:12.71: SIM {TimeUS : 57334557, Roll : 2.9, Pitch : -15.68, Yaw : 42.85, Alt : 49.2799987793, Lat : 49.2836093, Lng : -123.1149578, Q1 : 0.920597612858, Q2 : 0.0732251480222, Q3 : -0.11781283468, Q4 : 0.365045577288}
2019-04-14 12:25:12.81: SIM {TimeUS : 57434517, Roll : 2.15, Pitch : -15.78, Yaw : 43.81, Alt : 49.2900009155, Lat : 49.2836114, Lng : -123.1149543, Q1 : 0.917865812778, Q2 : 0.06853094697, Q3 : -0.120403364301, Q4 : 0.371925890446}
2019-04-14 12:25:12.91: SIM {TimeUS : 57534477, Roll : 1.29, Pitch : -15.93, Yaw : 45.04, Alt : 49.2900009155, Lat : 49.2836134, Lng : -123.114951, Q1 : 0.914145886898, Q2 : 0.0634583607316, Q3 : -0.123693354428, Q4 : 0.380802124739}
2019-04-14 12:25:13.01: SIM {TimeUS : 57634437, Roll : 0.44, Pitch : -16.08, Yaw : 46.37, Alt : 49.2900009155, Lat : 49.2836154, Lng : -123.1149475, Q1 : 0.909965932369, Q2 : 0.05861152336, Q3 : -0.12712611258, Q4 : 0.39034050703}
2019-04-14 12:25:13.11: SIM {TimeUS : 57734397, Roll : -0.31, Pitch : -16.21, Yaw : 47.62, Alt : 49.2900009155, Lat : 49.2836175, Lng : -123.114944, Q1 : 0.905863583088, Q2 : 0.0544427596033, Q3 : -0.130155220628, Q4 : 0.399383068085}
2019-04-14 12:25:13.21: SIM {TimeUS : 57834357, Roll : -0.9, Pitch : -16.3, Yaw : 48.69, Alt : 49.2900009155, Lat : 49.2836196, Lng : -123.1149403, Q1 : 0.902297616005, Q2 : 0.0513539835811, Q3 : -0.13243471086, Q4 : 0.40704151988}
2019-04-14 12:25:13.31: SIM {TimeUS : 57934317, Roll : -1.28, Pitch : -16.37, Yaw : 49.47, Alt : 49.2900009155, Lat : 49.2836218, Lng : -123.1149367, Q1 : 0.899591207504, Q2 : 0.0495319515467, Q3 : -0.133991226554, Q4 : 0.412708908319}
2019-04-14 12:25:13.41: SIM {TimeUS : 58034277, Roll : -1.46, Pitch : -16.43, Yaw : 49.93, Alt : 49.2900009155, Lat : 49.2836239, Lng : -123.114933, Q1 : 0.897924542427, Q2 : 0.0488745383918, Q3 : -0.134861290455, Q4 : 0.416119337082}
2019-04-14 12:25:13.51: SIM {TimeUS : 58134237, Roll : -1.47, Pitch : -16.47, Yaw : 50.09, Alt : 49.2900009155, Lat : 49.2836262, Lng : -123.1149293, Q1 : 0.897315204144, Q2 : 0.0491633825004, Q3 : -0.135208532214, Q4 : 0.417285352945}
2019-04-14 12:25:13.61: SIM {TimeUS : 58234197, Roll : -1.32, Pitch : -16.5, Yaw : 49.97, Alt : 49.2900009155, Lat : 49.2836285, Lng : -123.1149255, Q1 : 0.897674679756, Q2 : 0.0502420663834, Q3 : -0.134921103716, Q4 : 0.416475951672}
2019-04-14 12:25:13.71: SIM {TimeUS : 58334157, Roll : -1.04, Pitch : -16.51, Yaw : 49.63, Alt : 49.2900009155, Lat : 49.2836308, Lng : -123.1149217, Q1 : 0.898770570755, Q2 : 0.0520662926137, Q3 : -0.134140312672, Q4 : 0.414134085178}
2019-04-14 12:25:13.81: SIM {TimeUS : 58434117, Roll : -0.71, Pitch : -16.52, Yaw : 49.14, Alt : 49.2900009155, Lat : 49.2836332, Lng : -123.1149178, Q1 : 0.900336027145, Q2 : 0.0541868433356, Q3 : -0.133248105645, Q4 : 0.410735696554}
2019-04-14 12:25:13.91: SIM {TimeUS : 58534077, Roll : -0.34, Pitch : -16.55, Yaw : 48.6, Alt : 49.2900009155, Lat : 49.2836355, Lng : -123.1149139, Q1 : 0.902080655098, Q2 : 0.056541968137, Q3 : -0.132438346744, Q4 : 0.406833559275}
2019-04-14 12:25:14.01: SIM {TimeUS : 58634037, Roll : 0.02, Pitch : -16.58, Yaw : 48.05, Alt : 49.2900009155, Lat : 49.2836379, Lng : -123.11491, Q1 : 0.903786242008, Q2 : 0.0589209198952, Q3 : -0.131637573242, Q4 : 0.402951955795}
2019-04-14 12:25:14.12: SIM {TimeUS : 58734830, Roll : 0.33, Pitch : -16.61, Yaw : 47.56, Alt : 49.2900009155, Lat : 49.2836403, Lng : -123.114906, Q1 : 0.905298769474, Q2 : 0.0609112754464, Q3 : -0.131023570895, Q4 : 0.399445623159}
2019-04-14 12:25:14.21: SIM {TimeUS : 58834790, Roll : 0.54, Pitch : -16.65, Yaw : 47.18, Alt : 49.2900009155, Lat : 49.2836427, Lng : -123.114902, Q1 : 0.906458675861, Q2 : 0.0622479356825, Q3 : -0.130823925138, Q4 : 0.396664857864}
2019-04-14 12:25:14.31: SIM {TimeUS : 58934750, Roll : 0.64, Pitch : -16.7, Yaw : 46.93, Alt : 49.2900009155, Lat : 49.2836452, Lng : -123.1148979, Q1 : 0.907216012478, Q2 : 0.0629550293088, Q3 : -0.131041064858, Q4 : 0.3947455585}
2019-04-14 12:25:14.41: SIM {TimeUS : 59034710, Roll : 0.65, Pitch : -16.77, Yaw : 46.8, Alt : 49.2900009155, Lat : 49.2836476, Lng : -123.1148938, Q1 : 0.907554984093, Q2 : 0.0631570369005, Q3 : -0.131634116173, Q4 : 0.393735468388}
2019-04-14 12:25:14.51: SIM {TimeUS : 59134670, Roll : 0.59, Pitch : -16.83, Yaw : 46.8, Alt : 49.2900009155, Lat : 49.2836501, Lng : -123.1148897, Q1 : 0.907548904419, Q2 : 0.0628287866712, Q3 : -0.132305458188, Q4 : 0.393577009439}
2019-04-14 12:25:14.61: SIM {TimeUS : 59234630, Roll : 0.48, Pitch : -16.87, Yaw : 46.89, Alt : 49.2900009155, Lat : 49.2836527, Lng : -123.1148855, Q1 : 0.907249689102, Q2 : 0.0621989332139, Q3 : -0.132964044809, Q4 : 0.39414447546}
2019-04-14 12:25:14.71: SIM {TimeUS : 59334590, Roll : 0.35, Pitch : -16.91, Yaw : 47.05, Alt : 49.2900009155, Lat : 49.2836551, Lng : -123.1148813, Q1 : 0.906724572182, Q2 : 0.0614962764084, Q3 : -0.133599922061, Q4 : 0.395246684551}
2019-04-14 12:25:14.81: SIM {TimeUS : 59434550, Roll : 0.21, Pitch : -16.94, Yaw : 47.25, Alt : 49.2900009155, Lat : 49.2836577, Lng : -123.1148771, Q1 : 0.906074404716, Q2 : 0.0607692785561, Q3 : -0.134193047881, Q4 : 0.396646589041}
2019-04-14 12:25:14.91: SIM {TimeUS : 59534510, Roll : 0.09, Pitch : -16.96, Yaw : 47.45, Alt : 49.2900009155, Lat : 49.2836602, Lng : -123.1148728, Q1 : 0.905392467976, Q2 : 0.060116045177, Q3 : -0.134694978595, Q4 : 0.398130476475}
2019-04-14 12:25:15.01: SIM {TimeUS : 59634470, Roll : 0.0, Pitch : -16.98, Yaw : 47.64, Alt : 49.2999992371, Lat : 49.2836627, Lng : -123.1148685, Q1 : 0.904756367207, Q2 : 0.0596089586616, Q3 : -0.13513995707, Q4 : 0.399499565363}
2019-04-14 12:25:15.11: SIM {TimeUS : 59734430, Roll : -0.09, Pitch : -17.0, Yaw : 47.8, Alt : 49.2999992371, Lat : 49.2836652, Lng : -123.1148642, Q1 : 0.904244661331, Q2 : 0.0591866262257, Q3 : -0.135489523411, Q4 : 0.400600999594}
2019-04-14 12:25:15.21: SIM {TimeUS : 59834390, Roll : -0.15, Pitch : -17.02, Yaw : 47.9, Alt : 49.2999992371, Lat : 49.2836677, Lng : -123.1148599, Q1 : 0.903886854649, Q2 : 0.0589091405272, Q3 : -0.135797426105, Q4 : 0.401344358921}
2019-04-14 12:25:15.31: SIM {TimeUS : 59934350, Roll : -0.18, Pitch : -17.05, Yaw : 47.95, Alt : 49.2999992371, Lat : 49.2836704, Lng : -123.1148555, Q1 : 0.903692901134, Q2 : 0.0588073097169, Q3 : -0.136145323515, Q4 : 0.401678115129}
2019-04-14 12:25:15.41: SIM {TimeUS : 60034310, Roll : -0.19, Pitch : -17.1, Yaw : 47.95, Alt : 49.2999992371, Lat : 49.283673, Lng : -123.1148511, Q1 : 0.903652191162, Q2 : 0.0589067600667, Q3 : -0.136543393135, Q4 : 0.401619970798}
2019-04-14 12:25:15.51: SIM {TimeUS : 60134270, Roll : -0.18, Pitch : -17.14, Yaw : 47.9, Alt : 49.2999992371, Lat : 49.2836755, Lng : -123.1148467, Q1 : 0.90376406908, Q2 : 0.0590698942542, Q3 : -0.136895015836, Q4 : 0.401224434376}
2019-04-14 12:25:15.61: SIM {TimeUS : 60234230, Roll : -0.16, Pitch : -17.17, Yaw : 47.82, Alt : 49.2999992371, Lat : 49.2836782, Lng : -123.1148423, Q1 : 0.904012143612, Q2 : 0.0592274181545, Q3 : -0.137080445886, Q4 : 0.40057849884}
2019-04-14 12:25:15.71: SIM {TimeUS : 60334190, Roll : -0.13, Pitch : -17.19, Yaw : 47.71, Alt : 49.2999992371, Lat : 49.2836809, Lng : -123.1148379, Q1 : 0.904332756996, Q2 : 0.0594321116805, Q3 : -0.137184947729, Q4 : 0.399787962437}
2019-04-14 12:25:15.81: SIM {TimeUS : 60434150, Roll : -0.07, Pitch : -17.22, Yaw : 47.6, Alt : 49.2999992371, Lat : 49.2836834, Lng : -123.1148334, Q1 : 0.904660642147, Q2 : 0.0598698817194, Q3 : -0.137228742242, Q4 : 0.398964911699}
2019-04-14 12:25:15.91: SIM {TimeUS : 60534110, Roll : 0.0, Pitch : -17.25, Yaw : 47.49, Alt : 49.2999992371, Lat : 49.2836862, Lng : -123.1148289, Q1 : 0.904961228371, Q2 : 0.060438927263, Q3 : -0.137317493558, Q4 : 0.398166060448}
2019-04-14 12:25:16.01: SIM {TimeUS : 60634070, Roll : 0.07, Pitch : -17.29, Yaw : 47.39, Alt : 49.3100013733, Lat : 49.2836888, Lng : -123.1148244, Q1 : 0.905215084553, Q2 : 0.0610687658191, Q3 : -0.137419894338, Q4 : 0.397456914186}
2019-04-14 12:25:16.11: SIM {TimeUS : 60734030, Roll : 0.15, Pitch : -17.34, Yaw : 47.31, Alt : 49.3100013733, Lat : 49.2836914, Lng : -123.1148199, Q1 : 0.905404150486, Q2 : 0.0617188066244, Q3 : -0.137554883957, Q4 : 0.396878838539}
2019-04-14 12:25:16.22: SIM {TimeUS : 60834823, Roll : 0.19, Pitch : -17.37, Yaw : 47.25, Alt : 49.3100013733, Lat : 49.2836942, Lng : -123.1148154, Q1 : 0.905542492867, Q2 : 0.0621340461075, Q3 : -0.137730821967, Q4 : 0.396437078714}
2019-04-14 12:25:16.31: SIM {TimeUS : 60934783, Roll : 0.19, Pitch : -17.39, Yaw : 47.21, Alt : 49.3100013733, Lat : 49.2836968, Lng : -123.1148108, Q1 : 0.905649781227, Q2 : 0.0621300339699, Q3 : -0.137887120247, Q4 : 0.396138161421}
2019-04-14 12:25:16.41: SIM {TimeUS : 61034743, Roll : 0.16, Pitch : -17.4, Yaw : 47.2, Alt : 49.3100013733, Lat : 49.2836996, Lng : -123.1148063, Q1 : 0.905706942081, Q2 : 0.061916526407, Q3 : -0.138057589531, Q4 : 0.395981520414}
2019-04-14 12:25:16.51: SIM {TimeUS : 61134703, Roll : 0.15, Pitch : -17.4, Yaw : 47.2, Alt : 49.3100013733, Lat : 49.2837023, Lng : -123.1148017, Q1 : 0.905713737011, Q2 : 0.061789251864, Q3 : -0.13807888329, Q4 : 0.39597851038}
2019-04-14 12:25:16.61: SIM {TimeUS : 61234663, Roll : 0.13, Pitch : -17.4, Yaw : 47.22, Alt : 49.3100013733, Lat : 49.2837051, Lng : -123.1147971, Q1 : 0.905669689178, Q2 : 0.0616810806096, Q3 : -0.138157352805, Q4 : 0.39606872201}
2019-04-14 12:25:16.71: SIM {TimeUS : 61334623, Roll : 0.12, Pitch : -17.44, Yaw : 47.24, Alt : 49.3100013733, Lat : 49.2837077, Lng : -123.1147925, Q1 : 0.905560076237, Q2 : 0.0617586448789, Q3 : -0.138464182615, Q4 : 0.396200120449}
2019-04-14 12:25:16.81: SIM {TimeUS : 61434583, Roll : 0.12, Pitch : -17.5, Yaw : 47.26, Alt : 49.3100013733, Lat : 49.2837105, Lng : -123.1147879, Q1 : 0.905413091183, Q2 : 0.0619792304933, Q3 : -0.138937011361, Q4 : 0.396336019039}
2019-04-14 12:25:16.91: SIM {TimeUS : 61534543, Roll : 0.11, Pitch : -17.53, Yaw : 47.28, Alt : 49.3199996948, Lat : 49.2837132, Lng : -123.1147833, Q1 : 0.9053170681, Q2 : 0.0620220676064, Q3 : -0.139238089323, Q4 : 0.396442949772}
2019-04-14 12:25:17.01: SIM {TimeUS : 61634503, Roll : 0.1, Pitch : -17.53, Yaw : 47.29, Alt : 49.3199996948, Lat : 49.283716, Lng : -123.1147786, Q1 : 0.905281722546, Q2 : 0.0619362667203, Q3 : -0.1392865628, Q4 : 0.39652004838}
2019-04-14 12:25:17.11: SIM {TimeUS : 61734463, Roll : 0.08, Pitch : -17.54, Yaw : 47.29, Alt : 49.3199996948, Lat : 49.2837187, Lng : -123.114774, Q1 : 0.905269503593, Q2 : 0.0618453994393, Q3 : -0.139406710863, Q4 : 0.396519929171}
2019-04-14 12:25:17.21: SIM {TimeUS : 61834423, Roll : 0.06, Pitch : -17.57, Yaw : 47.28, Alt : 49.3199996948, Lat : 49.2837216, Lng : -123.1147694, Q1 : 0.905269801617, Q2 : 0.0617690943182, Q3 : -0.139684855938, Q4 : 0.396433204412}
2019-04-14 12:25:17.31: SIM {TimeUS : 61934383, Roll : 0.06, Pitch : -17.59, Yaw : 47.27, Alt : 49.3199996948, Lat : 49.2837242, Lng : -123.1147647, Q1 : 0.905291616917, Q2 : 0.0618429034948, Q3 : -0.139889344573, Q4 : 0.39629983902}
2019-04-14 12:25:17.41: SIM {TimeUS : 62034343, Roll : 0.06, Pitch : -17.61, Yaw : 47.25, Alt : 49.3199996948, Lat : 49.2837271, Lng : -123.11476, Q1 : 0.905336737633, Q2 : 0.0619217604399, Q3 : -0.140078514814, Q4 : 0.396117568016}
2019-04-14 12:25:17.51: SIM {TimeUS : 62134303, Roll : 0.07, Pitch : -17.63, Yaw : 47.22, Alt : 49.3199996948, Lat : 49.2837299, Lng : -123.1147553, Q1 : 0.905403614044, Q2 : 0.062011513859, Q3 : -0.140166327357, Q4 : 0.395919561386}
2019-04-14 12:25:17.61: SIM {TimeUS : 62234263, Roll : 0.09, Pitch : -17.65, Yaw : 47.19, Alt : 49.3199996948, Lat : 49.2837326, Lng : -123.1147506, Q1 : 0.905476689339, Q2 : 0.0622007623315, Q3 : -0.140255376697, Q4 : 0.395691156387}
2019-04-14 12:25:17.71: SIM {TimeUS : 62334223, Roll : 0.12, Pitch : -17.65, Yaw : 47.16, Alt : 49.3199996948, Lat : 49.2837355, Lng : -123.1147459, Q1 : 0.905567586422, Q2 : 0.0623807013035, Q3 : -0.140255272388, Q4 : 0.395454764366}
2019-04-14 12:25:17.81: SIM {TimeUS : 62434183, Roll : 0.15, Pitch : -17.66, Yaw : 47.13, Alt : 49.3199996948, Lat : 49.2837382, Lng : -123.1147412, Q1 : 0.905649602413, Q2 : 0.0625953525305, Q3 : -0.140255719423, Q4 : 0.395232766867}
2019-04-14 12:25:17.91: SIM {TimeUS : 62534143, Roll : 0.18, Pitch : -17.69, Yaw : 47.1, Alt : 49.3199996948, Lat : 49.2837411, Lng : -123.1147365, Q1 : 0.905708372593, Q2 : 0.0628850162029, Q3 : -0.140326082706, Q4 : 0.395027190447}
2019-04-14 12:25:18.01: SIM {TimeUS : 62634103, Roll : 0.19, Pitch : -17.72, Yaw : 47.07, Alt : 49.3199996948, Lat : 49.283744, Lng : -123.1147318, Q1 : 0.905748486519, Q2 : 0.0630711168051, Q3 : -0.140567585826, Q4 : 0.394819647074}
2019-04-14 12:25:18.11: SIM {TimeUS : 62734063, Roll : 0.17, Pitch : -17.76, Yaw : 47.05, Alt : 49.3199996948, Lat : 49.2837467, Lng : -123.1147269, Q1 : 0.905785143375, Q2 : 0.0630219206214, Q3 : -0.140945076942, Q4 : 0.394608646631}
2019-04-14 12:25:18.21: SIM {TimeUS : 62834023, Roll : 0.15, Pitch : -17.79, Yaw : 47.03, Alt : 49.3199996948, Lat : 49.2837496, Lng : -123.1147223, Q1 : 0.905805051327, Q2 : 0.0629941746593, Q3 : -0.141310304403, Q4 : 0.394436776638}
2019-04-14 12:25:18.31: SIM {TimeUS : 62934816, Roll : 0.16, Pitch : -17.82, Yaw : 47.02, Alt : 49.3300018311, Lat : 49.2837525, Lng : -123.1147175, Q1 : 0.905809819698, Q2 : 0.0631334781647, Q3 : -0.141487017274, Q4 : 0.394340157509}
2019-04-14 12:25:18.41: SIM {TimeUS : 63034776, Roll : 0.19, Pitch : -17.82, Yaw : 47.01, Alt : 49.3300018311, Lat : 49.2837552, Lng : -123.1147127, Q1 : 0.905821144581, Q2 : 0.0633154138923, Q3 : -0.141447305679, Q4 : 0.39429923892}
2019-04-14 12:25:18.51: SIM {TimeUS : 63134736, Roll : 0.2, Pitch : -17.8, Yaw : 47.01, Alt : 49.3300018311, Lat : 49.2837582, Lng : -123.1147079, Q1 : 0.905858814716, Q2 : 0.0633309110999, Q3 : -0.141220316291, Q4 : 0.394291549921}
2019-04-14 12:25:18.61: SIM {TimeUS : 63234696, Roll : 0.19, Pitch : -17.78, Yaw : 47.01, Alt : 49.3300018311, Lat : 49.283761, Lng : -123.1147032, Q1 : 0.905885756016, Q2 : 0.0632087513804, Q3 : -0.141123324633, Q4 : 0.394284039736}
2019-04-14 12:25:18.71: SIM {TimeUS : 63334656, Roll : 0.17, Pitch : -17.77, Yaw : 47.01, Alt : 49.3300018311, Lat : 49.2837638, Lng : -123.1146984, Q1 : 0.905908048153, Q2 : 0.0630391165614, Q3 : -0.141102060676, Q4 : 0.394267559052}
2019-04-14 12:25:18.81: SIM {TimeUS : 63434616, Roll : 0.16, Pitch : -17.77, Yaw : 47.0, Alt : 49.3300018311, Lat : 49.2837667, Lng : -123.1146935, Q1 : 0.905929207802, Q2 : 0.0629262551665, Q3 : -0.141085386276, Q4 : 0.394242972136}
2019-04-14 12:25:18.91: SIM {TimeUS : 63534576, Roll : 0.15, Pitch : -17.78, Yaw : 47.0, Alt : 49.3300018311, Lat : 49.2837696, Lng : -123.1146886, Q1 : 0.905932366848, Q2 : 0.0628856420517, Q3 : -0.141223371029, Q4 : 0.394192814827}
2019-04-14 12:25:19.01: SIM {TimeUS : 63634536, Roll : 0.15, Pitch : -17.8, Yaw : 47.0, Alt : 49.3300018311, Lat : 49.2837725, Lng : -123.1146839, Q1 : 0.905924320221, Q2 : 0.0629523396492, Q3 : -0.141380682588, Q4 : 0.394144266844}
2019-04-14 12:25:19.11: SIM {TimeUS : 63734496, Roll : 0.15, Pitch : -17.83, Yaw : 46.99, Alt : 49.3300018311, Lat : 49.2837753, Lng : -123.1146791, Q1 : 0.905907452106, Q2 : 0.0630078092217, Q3 : -0.14167419076, Q4 : 0.394068807364}
2019-04-14 12:25:19.21: SIM {TimeUS : 63834456, Roll : 0.14, Pitch : -17.88, Yaw : 46.98, Alt : 49.3300018311, Lat : 49.2837782, Lng : -123.1146743, Q1 : 0.905878961086, Q2 : 0.063132122159, Q3 : -0.142047435045, Q4 : 0.393979907036}
2019-04-14 12:25:19.31: SIM {TimeUS : 63934416, Roll : 0.15, Pitch : -17.92, Yaw : 46.97, Alt : 49.3300018311, Lat : 49.2837811, Lng : -123.1146694, Q1 : 0.905861794949, Q2 : 0.0633056387305, Q3 : -0.142330437899, Q4 : 0.393889427185}
2019-04-14 12:25:19.41: SIM {TimeUS : 64034376, Roll : 0.15, Pitch : -17.95, Yaw : 46.96, Alt : 49.3300018311, Lat : 49.283784, Lng : -123.1146646, Q1 : 0.905863285065, Q2 : 0.0633829459548, Q3 : -0.142608195543, Q4 : 0.393773108721}
2019-04-14 12:25:19.51: SIM {TimeUS : 64134336, Roll : 0.14, Pitch : -17.97, Yaw : 46.95, Alt : 49.3300018311, Lat : 49.2837868, Lng : -123.1146597, Q1 : 0.905884504318, Q2 : 0.0634066015482, Q3 : -0.142799243331, Q4 : 0.39365118742}
2019-04-14 12:25:19.61: SIM {TimeUS : 64234296, Roll : 0.16, Pitch : -17.97, Yaw : 46.93, Alt : 49.3300018311, Lat : 49.2837898, Lng : -123.1146549, Q1 : 0.905932188034, Q2 : 0.0635158196092, Q3 : -0.142695859075, Q4 : 0.39356136322}
2019-04-14 12:25:19.71: SIM {TimeUS : 64334256, Roll : 0.19, Pitch : -17.97, Yaw : 46.92, Alt : 49.3300018311, Lat : 49.2837927, Lng : -123.11465, Q1 : 0.905971765518, Q2 : 0.0637115240097, Q3 : -0.142616346478, Q4 : 0.393467456102}
2019-04-14 12:25:19.81: SIM {TimeUS : 64434216, Roll : 0.2, Pitch : -17.98, Yaw : 46.9, Alt : 49.3300018311, Lat : 49.2837956, Lng : -123.1146452, Q1 : 0.90600913763, Q2 : 0.0637973546982, Q3 : -0.142670422792, Q4 : 0.39334782958}
2019-04-14 12:25:19.91: SIM {TimeUS : 64534176, Roll : 0.2, Pitch : -17.98, Yaw : 46.88, Alt : 49.3400001526, Lat : 49.2837984, Lng : -123.1146403, Q1 : 0.906051933765, Q2 : 0.063837826252, Q3 : -0.142712056637, Q4 : 0.393227577209}
2019-04-14 12:25:20.01: SIM {TimeUS : 64634136, Roll : 0.21, Pitch : -17.97, Yaw : 46.87, Alt : 49.3400001526, Lat : 49.2838013, Lng : -123.1146354, Q1 : 0.906107544899, Q2 : 0.0638355538249, Q3 : -0.142620369792, Q4 : 0.393133074045}
2019-04-14 12:25:20.11: SIM {TimeUS : 64734096, Roll : 0.21, Pitch : -17.97, Yaw : 46.86, Alt : 49.3400001526, Lat : 49.2838043, Lng : -123.1146306, Q1 : 0.906154632568, Q2 : 0.0638042315841, Q3 : -0.142572626472, Q4 : 0.393046975136}
2019-04-14 12:25:20.21: SIM {TimeUS : 64834056, Roll : 0.19, Pitch : -17.98, Yaw : 46.85, Alt : 49.3400001526, Lat : 49.2838072, Lng : -123.1146257, Q1 : 0.906178176403, Q2 : 0.0637070909142, Q3 : -0.14275982976, Q4 : 0.392940431833}
2019-04-14 12:25:20.32: SIM {TimeUS : 64934849, Roll : 0.17, Pitch : -18.02, Yaw : 46.84, Alt : 49.3400001526, Lat : 49.2838102, Lng : -123.1146207, Q1 : 0.906179010868, Q2 : 0.063608199358, Q3 : -0.143114745617, Q4 : 0.392825424671}
2019-04-14 12:25:20.41: SIM {TimeUS : 65034809, Roll : 0.15, Pitch : -18.02, Yaw : 46.83, Alt : 49.3400001526, Lat : 49.283813, Lng : -123.1146159, Q1 : 0.906202197075, Q2 : 0.0635026842356, Q3 : -0.143217772245, Q4 : 0.392751455307}
2019-04-14 12:25:20.51: SIM {TimeUS : 65134769, Roll : 0.16, Pitch : -18.01, Yaw : 46.83, Alt : 49.3400001526, Lat : 49.2838159, Lng : -123.114611, Q1 : 0.906238496304, Q2 : 0.0635064765811, Q3 : -0.143087893724, Q4 : 0.392714351416}
2019-04-14 12:25:20.61: SIM {TimeUS : 65234729, Roll : 0.17, Pitch : -18.0, Yaw : 46.82, Alt : 49.3400001526, Lat : 49.283819, Lng : -123.1146061, Q1 : 0.906264543533, Q2 : 0.0635869577527, Q3 : -0.142985522747, Q4 : 0.392678558826}
2019-04-14 12:25:20.71: SIM {TimeUS : 65334689, Roll : 0.18, Pitch : -18.01, Yaw : 46.81, Alt : 49.3400001526, Lat : 49.2838219, Lng : -123.1146012, Q1 : 0.906273424625, Q2 : 0.0636787340045, Q3 : -0.143082082272, Q4 : 0.392608016729}
2019-04-14 12:25:20.81: SIM {TimeUS : 65434649, Roll : 0.17, Pitch : -18.04, Yaw : 46.8, Alt : 49.3400001526, Lat : 49.2838248, Lng : -123.1145962, Q1 : 0.906283140182, Q2 : 0.0636427402496, Q3 : -0.143313452601, Q4 : 0.392506957054}
2019-04-14 12:25:20.91: SIM {TimeUS : 65534609, Roll : 0.14, Pitch : -18.06, Yaw : 46.79, Alt : 49.3400001526, Lat : 49.2838276, Lng : -123.1145913, Q1 : 0.906296849251, Q2 : 0.0635161921382, Q3 : -0.143599972129, Q4 : 0.392391115427}
2019-04-14 12:25:21.01: SIM {TimeUS : 65634569, Roll : 0.13, Pitch : -18.08, Yaw : 46.78, Alt : 49.3400001526, Lat : 49.2838306, Lng : -123.1145864, Q1 : 0.906313240528, Q2 : 0.0634675100446, Q3 : -0.143833443522, Q4 : 0.392275601625}
2019-04-14 12:25:21.11: SIM {TimeUS : 65734529, Roll : 0.13, Pitch : -18.11, Yaw : 46.77, Alt : 49.3400001526, Lat : 49.2838336, Lng : -123.1145815, Q1 : 0.906325161457, Q2 : 0.0635470449924, Q3 : -0.144004464149, Q4 : 0.39217248559}
2019-04-14 12:25:21.21: SIM {TimeUS : 65834489, Roll : 0.14, Pitch : -18.12, Yaw : 46.76, Alt : 49.3400001526, Lat : 49.2838366, Lng : -123.1145766, Q1 : 0.906342744827, Q2 : 0.0636696964502, Q3 : -0.144069612026, Q4 : 0.392087996006}
