2019-04-14 11:59:23.50: SIM {TimeUS : 39915694, Roll : 0.0, Pitch : 0.0, Yaw : 0.0, Alt : 30.1000003815, Lat : 49.28357, Lng : -123.11502, Q1 : 1.0, Q2 : 0.0, Q3 : 0.0, Q4 : 0.0}
2019-04-14 11:59:23.61: SIM {TimeUS : 40034813, Roll : 0.0, Pitch : 0.0, Yaw : 0.0, Alt : 30.1000003815, Lat : 49.28357, Lng : -123.11502, Q1 : 1.0, Q2 : 0.0, Q3 : 0.0, Q4 : 0.0}
2019-04-14 11:59:23.71: SIM {TimeUS : 40134773, Roll : 0.0, Pitch : 0.0, Yaw : 0.0, Alt : 30.1000003815, Lat : 49.28357, Lng : -123.11502, Q1 : 1.0, Q2 : 0.0, Q3 : 0.0, Q4 : 0.0}
2019-04-14 11:59:23.81: SIM {TimeUS : 40234733, Roll : 0.0, Pitch : 0.0, Yaw : 0.0, Alt : 30.1000003815, Lat : 49.28357, Lng : -123.11502, Q1 : 1.0, Q2 : 0.0, Q3 : 0.0, Q4 : 0.0}
2019-04-14 11:59:23.91: SIM {TimeUS : 40334693, Roll : 0.0, Pitch : 0.0, Yaw : 0.0, Alt : 30.1000003815, Lat : 49.28357, Lng : -123.11502, Q1 : 1.0, Q2 : 0.0, Q3 : 0.0, Q4 : 0.0}
2019-04-14 11:59:24.01: SIM {TimeUS : 40434653, Roll : 0.0, Pitch : 0.0, Yaw : 0.0, Alt : 30.1000003815, Lat : 49.28357, Lng : -123.11502, Q1 : 1.0, Q2 : 0.0, Q3 : 0.0, Q4 : 0.0}
2019-04-14 11:59:24.11: SIM {TimeUS : 40534613, Roll : 0.0, Pitch : 0.0, Yaw : 0.0, Alt : 30.1000003815, Lat : 49.28357, Lng : -123.11502, Q1 : 1.0, Q2 : 0.0, Q3 : 0.0, Q4 : 0.0}
2019-04-14 11:59:24.21: SIM {TimeUS : 40634573, Roll : 0.0, Pitch : 0.0, Yaw : 0.0, Alt : 30.1000003815, Lat : 49.28357, Lng : -123.11502, Q1 : 1.0, Q2 : 0.0, Q3 : 0.0, Q4 : 0.0}
2019-04-14 11:59:24.31: SIM {TimeUS : 40734533, Roll : 0.0, Pitch : 0.0, Yaw : 0.0, Alt : 30.1000003815, Lat : 49.28357, Lng : -123.11502, Q1 : 1.0, Q2 : 0.0, Q3 : 0.0, Q4 : 0.0}
2019-04-14 11:59:24.41: SIM {TimeUS : 40834493, Roll : 0.0, Pitch : 0.0, Yaw : 0.0, Alt : 30.1000003815, Lat : 49.28357, Lng : -123.11502, Q1 : 1.0, Q2 : 0.0, Q3 : 0.0, Q4 : 0.0}
2019-04-14 11:59:24.51: SIM {TimeUS : 40934453, Roll : 0.0, Pitch : 0.0, Yaw : 0.0, Alt : 30.1000003815, Lat : 49.28357, Lng : -123.11502, Q1 : 1.0, Q2 : 0.0, Q3 : 0.0, Q4 : 0.0}
2019-04-14 11:59:24.61: SIM {TimeUS : 41034413, Roll : 0.0, Pitch : 0.0, Yaw : 0.0, Alt : 30.1000003815, Lat : 49.28357, Lng : -123.11502, Q1 : 1.0, Q2 : 0.0, Q3 : 0.0, Q4 : 0.0}
2019-04-14 11:59:24.71: SIM {TimeUS : 41134373, Roll : 0.0, Pitch : 0.0, Yaw : 0.0, Alt : 30.1000003815, Lat : 49.28357, Lng : -123.11502, Q1 : 1.0, Q2 : 0.0, Q3 : 0.0, Q4 : 0.0}
2019-04-14 11:59:24.81: SIM {TimeUS : 41234333, Roll : 0.0, Pitch : 0.0, Yaw : 0.0, Alt : 30.1000003815, Lat : 49.28357, Lng : -123.11502, Q1 : 1.0, Q2 : 0.0, Q3 : 0.0, Q4 : 0.0}
2019-04-14 11:59:24.91: SIM {TimeUS : 41334293, Roll : 0.0, Pitch : 0.0, Yaw : 0.0, Alt : 30.1000003815, Lat : 49.28357, Lng : -123.11502, Q1 : 1.0, Q2 : 0.0, Q3 : 0.0, Q4 : 0.0}
2019-04-14 11:59:25.01: SIM {TimeUS : 41434253, Roll : 0.0, Pitch : 0.0, Yaw : 0.0, Alt : 30.1000003815, Lat : 49.28357, Lng : -123.11502, Q1 : 1.0, Q2 : 0.0, Q3 : 0.0, Q4 : 0.0}
2019-04-14 11:59:25.11: SIM {TimeUS : 41534213, Roll : 0.0, Pitch : 0.0, Yaw : 0.0, Alt : 30.1000003815, Lat : 49.28357, Lng : -123.11502, Q1 : 1.0, Q2 : 0.0, Q3 : 0.0, Q4 : 0.0}
2019-04-14 11:59:25.21: SIM {TimeUS : 41634173, Roll : 0.0, Pitch : 0.0, Yaw : 0.0, Alt : 30.1000003815, Lat : 49.28357, Lng : -123.11502, Q1 : 1.0, Q2 : 0.0, Q3 : 0.0, Q4 : 0.0}
2019-04-14 11:59:25.31: SIM {TimeUS : 41734133, Roll : 0.0, Pitch : 0.0, Yaw : 0.0, Alt : 30.1000003815, Lat : 49.28357, Lng : -123.11502, Q1 : 1.0, Q2 : 0.0, Q3 : 0.0, Q4 : 0.0}
2019-04-14 11:59:25.41: SIM {TimeUS : 41834093, Roll : 0.0, Pitch : 0.0, Yaw : 0.0, Alt : 30.1000003815, Lat : 49.28357, Lng : -123.11502, Q1 : 1.0, Q2 : 0.0, Q3 : 0.0, Q4 : 0.0}
2019-04-14 11:59:25.51: SIM {TimeUS : 41934053, Roll : 0.0, Pitch : 0.0, Yaw : 0.0, Alt : 30.1000003815, Lat : 49.28357, Lng : -123.11502, Q1 : 1.0, Q2 : 0.0, Q3 : 0.0, Q4 : 0.0}
2019-04-14 11:59:25.62: SIM {TimeUS : 42034846, Roll : 0.0, Pitch : 0.0, Yaw : 0.0, Alt : 30.1000003815, Lat : 49.28357, Lng : -123.11502, Q1 : 1.0, Q2 : 0.0, Q3 : 0.0, Q4 : 0.0}
2019-04-14 11:59:25.71: SIM {TimeUS : 42134806, Roll : 0.0, Pitch : 0.0, Yaw : 0.0, Alt : 30.1000003815, Lat : 49.28357, Lng : -123.11502, Q1 : 1.0, Q2 : 0.0, Q3 : 0.0, Q4 : 0.0}
2019-04-14 11:59:25.81: SIM {TimeUS : 42234766, Roll : 0.0, Pitch : 0.0, Yaw : 0.0, Alt : 30.1000003815, Lat : 49.28357, Lng : -123.11502, Q1 : 1.0, Q2 : 0.0, Q3 : 0.0, Q4 : 2.32067349278e-13}
2019-04-14 11:59:25.91: SIM {TimeUS : 42334726, Roll : 0.0, Pitch : 0.0, Yaw : 0.0, Alt : 30.1000003815, Lat : 49.28357, Lng : -123.11502, Q1 : 1.0, Q2 : 0.0, Q3 : 0.0, Q4 : 2.44555417583e-12}
2019-04-14 11:59:26.01: SIM {TimeUS : 42434686, Roll : 0.0, Pitch : 0.0, Yaw : 360.0, Alt : 30.1000003815, Lat : 49.28357, Lng : -123.11502, Q1 : 1.0, Q2 : 0.0, Q3 : 0.0, Q4 : -8.00653268129e-08}
2019-04-14 11:59:26.11: SIM {TimeUS : 42534646, Roll : 0.0, Pitch : 0.0, Yaw : 359.99, Alt : 30.1000003815, Lat : 49.28357, Lng : -123.11502, Q1 : 1.0, Q2 : 0.0, Q3 : 0.0, Q4 : -2.31961436725e-07}
2019-04-14 11:59:26.21: SIM {TimeUS : 42634606, Roll : 0.0, Pitch : 0.0, Yaw : 359.99, Alt : 30.1000003815, Lat : 49.28357, Lng : -123.11502, Q1 : 1.0, Q2 : 0.0, Q3 : 0.0, Q4 : -4.25476770261e-07}
2019-04-14 11:59:26.31: SIM {TimeUS : 42734566, Roll : 0.0, Pitch : 0.0, Yaw : 359.99, Alt : 30.1000003815, Lat : 49.28357, Lng : -123.11502, Q1 : 1.0, Q2 : 0.0, Q3 : 0.0, Q4 : -6.25467521331e-07}
2019-04-14 11:59:26.41: SIM {TimeUS : 42834526, Roll : 0.0, Pitch : 0.0, Yaw : 359.99, Alt : 30.1000003815, Lat : 49.28357, Lng : -123.11502, Q1 : 1.0, Q2 : 0.0, Q3 : 0.0, Q4 : -8.16057479369e-07}
2019-04-14 11:59:26.51: SIM {TimeUS : 42934486, Roll : 0.0, Pitch : 0.0, Yaw : 359.99, Alt : 30.1000003815, Lat : 49.28357, Lng : -123.11502, Q1 : 1.0, Q2 : 0.0, Q3 : 0.0, Q4 : -1.01960449683e-06}
2019-04-14 11:59:26.61: SIM {TimeUS : 43034446, Roll : 0.0, Pitch : 0.0, Yaw : 359.99, Alt : 30.1000003815, Lat : 49.28357, Lng : -123.11502, Q1 : 1.0, Q2 : 0.0, Q3 : 0.0, Q4 : -1.16124999749e-06}
2019-04-14 11:59:26.71: SIM {TimeUS : 43134406, Roll : 0.0, Pitch : 0.0, Yaw : 359.99, Alt : 30.1100006104, Lat : 49.28357, Lng : -123.11502, Q1 : 1.0, Q2 : 0.0, Q3 : 0.0, Q4 : -1.37764413921e-06}
2019-04-14 11:59:26.81: SIM {TimeUS : 43234366, Roll : 0.0, Pitch : 0.0, Yaw : 359.99, Alt : 30.1299991608, Lat : 49.28357, Lng : -123.11502, Q1 : 1.0, Q2 : 0.0, Q3 : 0.0, Q4 : -1.60254103321e-06}
2019-04-14 11:59:26.91: SIM {TimeUS : 43334326, Roll : 0.0, Pitch : 0.0, Yaw : 359.99, Alt : 30.1499996185, Lat : 49.28357, Lng : -123.11502, Q1 : 1.0, Q2 : 0.0, Q3 : 0.0, Q4 : -1.8358990701e-06}
2019-04-14 11:59:27.01: SIM {TimeUS : 43434286, Roll : 0.0, Pitch : 0.0, Yaw : 359.99, Alt : 30.1900005341, Lat : 49.28357, Lng : -123.11502, Q1 : 1.0, Q2 : 0.0, Q3 : 0.0, Q4 : -2.08688197745e-06}
2019-04-14 11:59:27.11: SIM {TimeUS : 43534246, Roll : -0.02, Pitch : -0.02, Yaw : 359.99, Alt : 30.2299995422, Lat : 49.28357, Lng : -123.11502, Q1 : 0.999999940395, Q2 : -0.000241282890784, Q3 : -0.000243227972533, Q4 : -3.71083820028e-06}
2019-04-14 11:59:27.21: SIM {TimeUS : 43634206, Roll : -0.25, Pitch : -0.25, Yaw : 359.99, Alt : 30.2999992371, Lat : 49.28357, Lng : -123.11502, Q1 : 0.999995052814, Q2 : -0.00221560662612, Q3 : -0.00225012889132, Q4 : -2.65363614744e-05}
2019-04-14 11:59:27.31: SIM {TimeUS : 43734166, Roll : -0.55, Pitch : -0.56, Yaw : 359.99, Alt : 30.4300003052, Lat : 49.28357, Lng : -123.11502, Q1 : 0.999976217747, Q2 : -0.00481275841594, Q3 : -0.00493887998164, Q4 : -7.98675682745e-05}
2019-04-14 11:59:27.41: SIM {TimeUS : 43834126, Roll : -0.76, Pitch : -0.76, Yaw : 359.98, Alt : 30.5900001526, Lat : 49.28357, Lng : -123.11502, Q1 : 0.999955356121, Q2 : -0.00670485757291, Q3 : -0.00665509747341, Q4 : -0.000157986607519}
2019-04-14 11:59:27.51: SIM {TimeUS : 43934086, Roll : -0.83, Pitch : -0.76, Yaw : 359.97, Alt : 30.75, Lat : 49.28357, Lng : -123.11502, Q1 : 0.999951124191, Q2 : -0.00726163107902, Q3 : -0.00671199709177, Q4 : -0.00024893914815}
2019-04-14 11:59:27.61: SIM {TimeUS : 44034046, Roll : -0.74, Pitch : -0.63, Yaw : 359.96, Alt : 30.8999996185, Lat : 49.28357, Lng : -123.1150201, Q1 : 0.999963462353, Q2 : -0.00649071345106, Q3 : -0.00554994819686, Q4 : -0.000336113327648}
2019-04-14 11:59:27.72: SIM {TimeUS : 44134839, Roll : -0.55, Pitch : -0.43, Yaw : 359.95, Alt : 31.0599994659, Lat : 49.2835701, Lng : -123.1150202, Q1 : 0.999980807304, Q2 : -0.00488056102768, Q3 : -0.00379713391885, Q4 : -0.000416557013523}
2019-04-14 11:59:27.81: SIM {TimeUS : 44234799, Roll : -0.35, Pitch : -0.23, Yaw : 359.94, Alt : 31.2199993134, Lat : 49.2835701, Lng : -123.1150202, Q1 : 0.999993145466, Q2 : -0.00306089082733, Q3 : -0.00202463753521, Q4 : -0.000482210511109}
2019-04-14 11:59:27.91: SIM {TimeUS : 44334759, Roll : -0.16, Pitch : -0.07, Yaw : 359.93, Alt : 31.3799991608, Lat : 49.2835702, Lng : -123.1150203, Q1 : 0.999998629093, Q2 : -0.0014091291232, Q3 : -0.000663937767968, Q4 : -0.000534586142749}
2019-04-14 11:59:28.01: SIM {TimeUS : 44434719, Roll : -0.01, Pitch : 0.0, Yaw : 359.93, Alt : 31.5499992371, Lat : 49.2835702, Lng : -123.1150204, Q1 : 0.999999821186, Q2 : -9.23485786188e-05, Q3 : -2.58353447862e-05, Q4 : -0.000571333803236}
2019-04-14 11:59:28.11: SIM {TimeUS : 44534679, Roll : 0.06, Pitch : 0.02, Yaw : 359.93, Alt : 31.7299995422, Lat : 49.2835703, Lng : -123.1150205, Q1 : 0.999999642372, Q2 : 0.000604168279096, Q3 : 0.000198913374334, Q4 : -0.000587250455283}
2019-04-14 11:59:28.21: SIM {TimeUS : 44634639, Roll : 0.07, Pitch : 0.02, Yaw : 359.93, Alt : 31.9099998474, Lat : 49.2835703, Lng : -123.1150206, Q1 : 0.999999582767, Q2 : 0.000688166648615, Q3 : 0.000199111673282, Q4 : -0.000587524089497}
2019-04-14 11:59:28.31: SIM {TimeUS : 44734599, Roll : 0.06, Pitch : 0.0, Yaw : 359.93, Alt : 32.0900001526, Lat : 49.2835703, Lng : -123.1150206, Q1 : 0.999999701977, Q2 : 0.000536952575203, Q3 : 6.94094705977e-05, Q4 : -0.000571672164369}
2019-04-14 11:59:28.41: SIM {TimeUS : 44834559, Roll : 0.05, Pitch : 0.0, Yaw : 359.93, Alt : 32.2799987793, Lat : 49.2835703, Lng : -123.1150207, Q1 : 0.999999701977, Q2 : 0.00050392880803, Q3 : 4.16400362155e-05, Q4 : -0.000552097510081}
2019-04-14 11:59:28.51: SIM {TimeUS : 44934519, Roll : 0.06, Pitch : 0.01, Yaw : 359.93, Alt : 32.4700012207, Lat : 49.2835703, Lng : -123.1150207, Q1 : 0.999999701977, Q2 : 0.000597713689785, Q3 : 0.000164415076142, Q4 : -0.000528060947545}
2019-04-14 11:59:28.61: SIM {TimeUS : 45034479, Roll : 0.09, Pitch : 0.03, Yaw : 359.94, Alt : 32.6699981689, Lat : 49.2835703, Lng : -123.1150208, Q1 : 0.999999463558, Q2 : 0.000872541684657, Q3 : 0.000291954958811, Q4 : -0.000512761704158}
2019-04-14 11:59:28.71: SIM {TimeUS : 45134439, Roll : 0.13, Pitch : 0.05, Yaw : 359.94, Alt : 32.8699989319, Lat : 49.2835703, Lng : -123.1150208, Q1 : 0.999999046326, Q2 : 0.00120035908185, Q3 : 0.000482921954244, Q4 : -0.000502535200212}
2019-04-14 11:59:28.81: SIM {TimeUS : 45234399, Roll : 0.16, Pitch : 0.09, Yaw : 359.94, Alt : 33.0699996948, Lat : 49.2835704, Lng : -123.1150208, Q1 : 0.999998569489, Q2 : 0.00142648105975, Q3 : 0.000790007528849, Q4 : -0.000497683591675}
2019-04-14 11:59:28.91: SIM {TimeUS : 45334359, Roll : 0.16, Pitch : 0.12, Yaw : 359.94, Alt : 33.2700004578, Lat : 49.2835704, Lng : -123.1150209, Q1 : 0.999998152256, Q2 : 0.00146188877989, Q3 : 0.00112729030661, Q4 : -0.000497604603879}
2019-04-14 11:59:29.01: SIM {TimeUS : 45434319, Roll : 0.15, Pitch : 0.15, Yaw : 359.94, Alt : 33.4799995422, Lat : 49.2835704, Lng : -123.1150209, Q1 : 0.999998033047, Q2 : 0.00136821996421, Q3 : 0.00137563818134, Q4 : -0.000497670902405}
2019-04-14 11:59:29.11: SIM {TimeUS : 45534279, Roll : 0.14, Pitch : 0.17, Yaw : 359.94, Alt : 33.6800003052, Lat : 49.2835704, Lng : -123.1150209, Q1 : 0.999997854233, Q2 : 0.00128557789139, Q3 : 0.00156573811546, Q4 : -0.000498759036418}
2019-04-14 11:59:29.21: SIM {TimeUS : 45634239, Roll : 0.15, Pitch : 0.17, Yaw : 359.94, Alt : 33.8899993896, Lat : 49.2835704, Lng : -123.1150209, Q1 : 0.999997794628, Q2 : 0.00132862001192, Q3 : 0.00155182997696, Q4 : -0.000500238093082}
2019-04-14 11:59:29.31: SIM {TimeUS : 45734199, Roll : 0.15, Pitch : 0.16, Yaw : 359.94, Alt : 34.0999984741, Lat : 49.2835704, Lng : -123.1150209, Q1 : 0.999997913837, Q2 : 0.00132892630063, Q3 : 0.00147501740139, Q4 : -0.000510012614541}
2019-04-14 11:59:29.41: SIM {TimeUS : 45834159, Roll : 0.13, Pitch : 0.15, Yaw : 359.93, Alt : 34.3100013733, Lat : 49.2835706, Lng : -123.1150209, Q1 : 0.999998211861, Q2 : 0.00115216127597, Q3 : 0.00139050150756, Q4 : -0.000531059224159}
2019-04-14 11:59:29.51: SIM {TimeUS : 45934119, Roll : 0.11, Pitch : 0.11, Yaw : 359.93, Alt : 34.5200004578, Lat : 49.2835706, Lng : -123.1150209, Q1 : 0.999998867512, Q2 : 0.000987034640275, Q3 : 0.00101586023811, Q4 : -0.000546731287614}
2019-04-14 11:59:29.61: SIM {TimeUS : 46034079, Roll : 0.09, Pitch : 0.05, Yaw : 359.93, Alt : 34.7400016785, Lat : 49.2835706, Lng : -123.1150209, Q1 : 0.999999344349, Q2 : 0.000835240643937, Q3 : 0.000502128852531, Q4 : -0.0005706170341}
2019-04-14 11:59:29.71: SIM {TimeUS : 46134039, Roll : 0.07, Pitch : 0.02, Yaw : 359.93, Alt : 34.9500007629, Lat : 49.2835706, Lng : -123.1150209, Q1 : 0.999999582767, Q2 : 0.000683651538566, Q3 : 0.00018805853324, Q4 : -0.000608917383943}
2019-04-14 11:59:29.82: SIM {TimeUS : 46234832, Roll : 0.06, Pitch : 0.01, Yaw : 359.92, Alt : 35.1699981689, Lat : 49.2835706, Lng : -123.1150209, Q1 : 0.999999642372, Q2 : 0.000541262619663, Q3 : 9.50685644057e-05, Q4 : -0.000663630431518}
2019-04-14 11:59:29.91: SIM {TimeUS : 46334792, Roll : 0.05, Pitch : 0.02, Yaw : 359.91, Alt : 35.3899993896, Lat : 49.2835706, Lng : -123.1150208, Q1 : 0.999999582767, Q2 : 0.000499370857142, Q3 : 0.000220478948904, Q4 : -0.000725864374544}
2019-04-14 11:59:30.01: SIM {TimeUS : 46434752, Roll : 0.05, Pitch : 0.03, Yaw : 359.91, Alt : 35.5999984741, Lat : 49.2835706, Lng : -123.1150208, Q1 : 0.999999582767, Q2 : 0.000438247225247, Q3 : 0.000317025318509, Q4 : -0.000778690504376}
2019-04-14 11:59:30.11: SIM {TimeUS : 46534712, Roll : 0.03, Pitch : 0.04, Yaw : 359.9, Alt : 35.8199996948, Lat : 49.2835706, Lng : -123.1150208, Q1 : 0.999999523163, Q2 : 0.000262938498054, Q3 : 0.000406552804634, Q4 : -0.000822483329102}
2019-04-14 11:59:30.21: SIM {TimeUS : 46634672, Roll : 0.0, Pitch : 0.05, Yaw : 359.9, Alt : 36.0400009155, Lat : 49.2835706, Lng : -123.1150208, Q1 : 0.999999523163, Q2 : 7.00849996065e-05, Q3 : 0.000499911955558, Q4 : -0.000862128217705}
2019-04-14 11:59:30.31: SIM {TimeUS : 46734632, Roll : 0.0, Pitch : 0.07, Yaw : 359.89, Alt : 36.2599983215, Lat : 49.2835706, Lng : -123.1150208, Q1 : 0.999999403954, Q2 : -3.65815649275e-05, Q3 : 0.000655518728308, Q4 : -0.000892046198715}
2019-04-14 11:59:30.41: SIM {TimeUS : 46834592, Roll : -0.01, Pitch : 0.07, Yaw : 359.89, Alt : 36.4900016785, Lat : 49.2835704, Lng : -123.1150208, Q1 : 0.999999403954, Q2 : -0.000140282747452, Q3 : 0.000627187779173, Q4 : -0.000910269503947}
2019-04-14 11:59:30.51: SIM {TimeUS : 46934552, Roll : -0.02, Pitch : 0.05, Yaw : 359.89, Alt : 36.7099990845, Lat : 49.2835704, Lng : -123.1150207, Q1 : 0.999999403954, Q2 : -0.000222757211304, Q3 : 0.00052223354578, Q4 : -0.000924509193283}
2019-04-14 11:59:30.61: SIM {TimeUS : 47034512, Roll : -0.02, Pitch : 0.04, Yaw : 359.89, Alt : 36.9300003052, Lat : 49.2835704, Lng : -123.1150207, Q1 : 0.999999463558, Q2 : -0.000258311833022, Q3 : 0.000370574678527, Q4 : -0.00093196000671}
2019-04-14 11:59:30.71: SIM {TimeUS : 47134472, Roll : -0.02, Pitch : 0.02, Yaw : 359.89, Alt : 37.1599998474, Lat : 49.2835704, Lng : -123.1150207, Q1 : 0.999999523163, Q2 : -0.000209181234823, Q3 : 0.000196238397621, Q4 : -0.000930413254537}
2019-04-14 11:59:30.81: SIM {TimeUS : 47234432, Roll : 0.0, Pitch : 0.0, Yaw : 359.89, Alt : 37.3800010681, Lat : 49.2835704, Lng : -123.1150207, Q1 : 0.999999582767, Q2 : -1.27420080389e-05, Q3 : 4.6929326345e-05, Q4 : -0.000925450178329}
2019-04-14 11:59:30.91: SIM {TimeUS : 47334392, Roll : 0.0, Pitch : -0.01, Yaw : 359.89, Alt : 37.6100006104, Lat : 49.2835704, Lng : -123.1150207, Q1 : 0.999999582767, Q2 : 3.46300657839e-05, Q3 : -0.000167793550645, Q4 : -0.000915053009521}
2019-04-14 11:59:31.01: SIM {TimeUS : 47434352, Roll : -0.01, Pitch : -0.05, Yaw : 359.89, Alt : 37.8300018311, Lat : 49.2835704, Lng : -123.1150207, Q1 : 0.999999523163, Q2 : -0.000116226168757, Q3 : -0.000453864020528, Q4 : -0.000904645363335}
2019-04-14 11:59:31.11: SIM {TimeUS : 47534312, Roll : -0.04, Pitch : -0.07, Yaw : 359.89, Alt : 38.0600013733, Lat : 49.2835704, Lng : -123.1150207, Q1 : 0.999999284744, Q2 : -0.000436569243902, Q3 : -0.000659960031044, Q4 : -0.000907562032808}
2019-04-14 11:59:31.21: SIM {TimeUS : 47634272, Roll : -0.09, Pitch : -0.08, Yaw : 359.89, Alt : 38.2900009155, Lat : 49.2835704, Lng : -123.1150207, Q1 : 0.999998986721, Q2 : -0.000796378822997, Q3 : -0.000726711296011, Q4 : -0.000930329493713}
2019-04-14 11:59:31.31: SIM {TimeUS : 47734232, Roll : -0.11, Pitch : -0.08, Yaw : 359.89, Alt : 38.5200004578, Lat : 49.2835704, Lng : -123.1150207, Q1 : 0.999998748302, Q2 : -0.00103532779031, Q3 : -0.000740882358514, Q4 : -0.000959113473073}
2019-04-14 11:59:31.41: SIM {TimeUS : 47834192, Roll : -0.12, Pitch : -0.07, Yaw : 359.88, Alt : 38.7400016785, Lat : 49.2835704, Lng : -123.1150206, Q1 : 0.999998688698, Q2 : -0.0011095587397, Q3 : -0.000682083016727, Q4 : -0.000986556406133}
2019-04-14 11:59:31.51: SIM {TimeUS : 47934152, Roll : -0.11, Pitch : -0.05, Yaw : 359.88, Alt : 38.9700012207, Lat : 49.2835704, Lng : -123.1150206, Q1 : 0.999998867512, Q2 : -0.000973873306066, Q3 : -0.00048435467761, Q4 : -0.00101776444353}
2019-04-14 11:59:31.61: SIM {TimeUS : 48034112, Roll : -0.08, Pitch : -0.04, Yaw : 359.87, Alt : 39.2000007629, Lat : 49.2835704, Lng : -123.1150206, Q1 : 0.99999910593, Q2 : -0.000733115070034, Q3 : -0.00041631856584, Q4 : -0.00104983407073}
2019-04-14 11:59:31.71: SIM {TimeUS : 48134072, Roll : -0.06, Pitch : -0.05, Yaw : 359.87, Alt : 39.4300003052, Lat : 49.2835704, Lng : -123.1150206, Q1 : 0.999999165535, Q2 : -0.000543832662515, Q3 : -0.000449998333352, Q4 : -0.0010907643009}
2019-04-14 11:59:31.81: SIM {TimeUS : 48234032, Roll : -0.05, Pitch : -0.03, Yaw : 359.87, Alt : 39.6599998474, Lat : 49.2835704, Lng : -123.1150206, Q1 : 0.99999922514, Q2 : -0.000442647666205, Q3 : -0.000313962635119, Q4 : -0.00112710054964}
2019-04-14 11:59:31.92: SIM {TimeUS : 48334825, Roll : -0.06, Pitch : 0.0, Yaw : 359.86, Alt : 39.9000015259, Lat : 49.2835704, Lng : -123.1150206, Q1 : 0.999999165535, Q2 : -0.000567962764762, Q3 : -7.00824457454e-05, Q4 : -0.00115998717956}
2019-04-14 11:59:32.01: SIM {TimeUS : 48434785, Roll : -0.07, Pitch : 0.01, Yaw : 359.86, Alt : 40.1300010681, Lat : 49.2835704, Lng : -123.1150206, Q1 : 0.99999910593, Q2 : -0.000618843827397, Q3 : 0.000169521896169, Q4 : -0.00119125598576}
2019-04-14 11:59:32.11: SIM {TimeUS : 48534745, Roll : -0.06, Pitch : 0.05, Yaw : 359.85, Alt : 40.3600006104, Lat : 49.2835704, Lng : -123.1150207, Q1 : 0.999998986721, Q2 : -0.000524197530467, Q3 : 0.000457332556834, Q4 : -0.00122552004177}
2019-04-14 11:59:32.21: SIM {TimeUS : 48634705, Roll : -0.04, Pitch : 0.06, Yaw : 359.85, Alt : 40.5900001526, Lat : 49.2835704, Lng : -123.1150207, Q1 : 0.999999046326, Q2 : -0.000377793272492, Q3 : 0.000535196333658, Q4 : -0.00124916154891}
2019-04-14 11:59:32.31: SIM {TimeUS : 48734665, Roll : 0.0, Pitch : 0.06, Yaw : 359.85, Alt : 40.8199996948, Lat : 49.2835704, Lng : -123.1150207, Q1 : 0.999999046326, Q2 : -7.55993460189e-05, Q3 : 0.000542307330761, Q4 : -0.00126226083376}
2019-04-14 11:59:32.41: SIM {TimeUS : 48834625, Roll : 0.03, Pitch : 0.07, Yaw : 359.85, Alt : 41.0499992371, Lat : 49.2835706, Lng : -123.1150207, Q1 : 0.999998927116, Q2 : 0.000293138291454, Q3 : 0.000676124356687, Q4 : -0.00127010513097}
2019-04-14 11:59:32.51: SIM {TimeUS : 48934585, Roll : 0.09, Pitch : 0.1, Yaw : 359.85, Alt : 41.2900009155, Lat : 49.2835706, Lng : -123.1150207, Q1 : 0.999998450279, Q2 : 0.000787216704339, Q3 : 0.00091175083071, Q4 : -0.00127849553246}
2019-04-14 11:59:32.61: SIM {TimeUS : 49034545, Roll : 0.12, Pitch : 0.13, Yaw : 359.85, Alt : 41.5200004578, Lat : 49.2835706, Lng : -123.1150207, Q1 : 0.999997913837, Q2 : 0.00108177552465, Q3 : 0.00113759795204, Q4 : -0.00129084021319}
2019-04-14 11:59:32.71: SIM {TimeUS : 49134505, Roll : 0.1, Pitch : 0.14, Yaw : 359.85, Alt : 41.75, Lat : 49.2835706, Lng : -123.1150207, Q1 : 0.999997913837, Q2 : 0.000957394368015, Q3 : 0.00128544971813, Q4 : -0.0012978122104}
2019-04-14 11:59:32.81: SIM {TimeUS : 49234465, Roll : 0.05, Pitch : 0.15, Yaw : 359.84, Alt : 41.9900016785, Lat : 49.2835706, Lng : -123.1150207, Q1 : 0.999998092651, Q2 : 0.000493619241752, Q3 : 0.0013607009314, Q4 : -0.00131191604305}
2019-04-14 11:59:32.91: SIM {TimeUS : 49334425, Roll : 0.0, Pitch : 0.15, Yaw : 359.84, Alt : 42.2200012207, Lat : 49.2835706, Lng : -123.1150207, Q1 : 0.999998211861, Q2 : 2.26093252422e-05, Q3 : 0.00136375625152, Q4 : -0.00133248884231}
2019-04-14 11:59:33.01: SIM {TimeUS : 49434385, Roll : -0.02, Pitch : 0.13, Yaw : 359.84, Alt : 42.4599990845, Lat : 49.2835706, Lng : -123.1150207, Q1 : 0.999998390675, Q2 : -0.000207686491194, Q3 : 0.00115261401515, Q4 : -0.00135288678575}
2019-04-14 11:59:33.11: SIM {TimeUS : 49534345, Roll : -0.02, Pitch : 0.09, Yaw : 359.84, Alt : 42.6899986267, Lat : 49.2835706, Lng : -123.1150207, Q1 : 0.999998688698, Q2 : -0.000228496894124, Q3 : 0.000841896573547, Q4 : -0.00137094117235}
2019-04-14 11:59:33.21: SIM {TimeUS : 49634305, Roll : -0.01, Pitch : 0.09, Yaw : 359.84, Alt : 42.9300003052, Lat : 49.2835706, Lng : -123.1150207, Q1 : 0.999998688698, Q2 : -0.000112130554044, Q3 : 0.000833560538013, Q4 : -0.00139333563857}
2019-04-14 11:59:33.31: SIM {TimeUS : 49734265, Roll : 0.02, Pitch : 0.11, Yaw : 359.83, Alt : 43.1599998474, Lat : 49.2835706, Lng : -123.1150207, Q1 : 0.999998450279, Q2 : 0.000204850628506, Q3 : 0.0010334784165, Q4 : -0.00143005454447}
2019-04-14 11:59:33.41: SIM {TimeUS : 49834225, Roll : 0.07, Pitch : 0.14, Yaw : 359.83, Alt : 43.4000015259, Lat : 49.2835706, Lng : -123.1150207, Q1 : 0.999997913837, Q2 : 0.000694706221111, Q3 : 0.00124365102965, Q4 : -0.00146092916839}
2019-04-14 11:59:33.51: SIM {TimeUS : 49934185, Roll : 0.12, Pitch : 0.13, Yaw : 359.82, Alt : 43.6300010681, Lat : 49.2835704, Lng : -123.1150207, Q1 : 0.99999755621, Q2 : 0.00107659306377, Q3 : 0.00120179506484, Q4 : -0.00148984917905}
2019-04-14 11:59:33.61: SIM {TimeUS : 50034145, Roll : 0.12, Pitch : 0.11, Yaw : 359.82, Alt : 43.8699989319, Lat : 49.2835704, Lng : -123.1150207, Q1 : 0.999997675419, Q2 : 0.00112084986176, Q3 : 0.00103751558345, Q4 : -0.00152538018301}
2019-04-14 11:59:33.71: SIM {TimeUS : 50134105, Roll : 0.08, Pitch : 0.09, Yaw : 359.82, Alt : 44.0999984741, Lat : 49.2835704, Lng : -123.1150207, Q1 : 0.999998152256, Q2 : 0.000759839138482, Q3 : 0.000867044960614, Q4 : -0.00154912797734}
2019-04-14 11:59:33.81: SIM {TimeUS : 50234065, Roll : 0.02, Pitch : 0.08, Yaw : 359.82, Alt : 44.3400001526, Lat : 49.2835704, Lng : -123.1150207, Q1 : 0.999998450279, Q2 : 0.000240919049247, Q3 : 0.000740960473195, Q4 : -0.00156953383703}
2019-04-14 11:59:33.91: SIM {TimeUS : 50334025, Roll : -0.01, Pitch : 0.08, Yaw : 359.81, Alt : 44.5699996948, Lat : 49.2835704, Lng : -123.1150207, Q1 : 0.999998450279, Q2 : -0.000125506296172, Q3 : 0.000738841423299, Q4 : -0.00159243110102}
2019-04-14 11:59:34.01: SIM {TimeUS : 50434818, Roll : -0.03, Pitch : 0.07, Yaw : 359.81, Alt : 44.8100013733, Lat : 49.2835704, Lng : -123.1150206, Q1 : 0.999998390675, Q2 : -0.000329632021021, Q3 : 0.000696066475939, Q4 : -0.00161566957831}
2019-04-14 11:59:34.11: SIM {TimeUS : 50534778, Roll : -0.03, Pitch : 0.05, Yaw : 359.81, Alt : 45.0499992371, Lat : 49.2835704, Lng : -123.1150206, Q1 : 0.999998450279, Q2 : -0.00033596274443, Q3 : 0.000494508596603, Q4 : -0.00164187769406}
2019-04-14 11:59:34.21: SIM {TimeUS : 50634738, Roll : -0.04, Pitch : 0.03, Yaw : 359.8, Alt : 45.2799987793, Lat : 49.2835704, Lng : -123.1150206, Q1 : 0.999998509884, Q2 : -0.000377823103918, Q3 : 0.000280716252746, Q4 : -0.00166898209136}
2019-04-14 11:59:34.31: SIM {TimeUS : 50734698, Roll : -0.03, Pitch : 0.01, Yaw : 359.8, Alt : 45.5200004578, Lat : 49.2835703, Lng : -123.1150206, Q1 : 0.999998509884, Q2 : -0.000325944769429, Q3 : 0.000108323059976, Q4 : -0.00169605505653}
2019-04-14 11:59:34.41: SIM {TimeUS : 50834658, Roll : -0.02, Pitch : 0.0, Yaw : 359.8, Alt : 45.75, Lat : 49.2835703, Lng : -123.1150206, Q1 : 0.999998509884, Q2 : -0.000193237530766, Q3 : 2.25650983339e-05, Q4 : -0.00172691582702}
2019-04-14 11:59:34.51: SIM {TimeUS : 50934618, Roll : -0.02, Pitch : 0.0, Yaw : 359.79, Alt : 45.9799995422, Lat : 49.2835703, Lng : -123.1150206, Q1 : 0.999998450279, Q2 : -0.000180933988304, Q3 : 5.12030310347e-05, Q4 : -0.00175789918285}
2019-04-14 11:59:34.61: SIM {TimeUS : 51034578, Roll : -0.02, Pitch : 0.0, Yaw : 359.79, Alt : 46.2099990845, Lat : 49.2835703, Lng : -123.1150206, Q1 : 0.999998390675, Q2 : -0.000258027808741, Q3 : 7.30214105715e-06, Q4 : -0.00178965379018}
2019-04-14 11:59:34.71: SIM {TimeUS : 51134538, Roll : -0.03, Pitch : -0.01, Yaw : 359.79, Alt : 46.4399986267, Lat : 49.2835703, Lng : -123.1150205, Q1 : 0.999998271465, Q2 : -0.00032212890801, Q3 : -0.000160521492944, Q4 : -0.0018227720866}
2019-04-14 11:59:34.81: SIM {TimeUS : 51234498, Roll : -0.03, Pitch : -0.03, Yaw : 359.78, Alt : 46.6599998474, Lat : 49.2835703, Lng : -123.1150205, Q1 : 0.999998211861, Q2 : -0.000315237703035, Q3 : -0.000304320274154, Q4 : -0.00185452052392}
2019-04-14 11:59:34.91: SIM {TimeUS : 51334458, Roll : -0.02, Pitch : -0.04, Yaw : 359.78, Alt : 46.8699989319, Lat : 49.2835703, Lng : -123.1150205, Q1 : 0.999998152256, Q2 : -0.000228810589761, Q3 : -0.000406155129895, Q4 : -0.00188643974252}
2019-04-14 11:59:35.01: SIM {TimeUS : 51434418, Roll : -0.02, Pitch : -0.05, Yaw : 359.78, Alt : 47.0800018311, Lat : 49.2835703, Lng : -123.1150205, Q1 : 0.999998033047, Q2 : -0.00025460094912, Q3 : -0.000445268757176, Q4 : -0.00191987142898}
2019-04-14 11:59:35.11: SIM {TimeUS : 51534378, Roll : -0.05, Pitch : -0.04, Yaw : 359.77, Alt : 47.2799987793, Lat : 49.2835703, Lng : -123.1150205, Q1 : 0.999997973442, Q2 : -0.000453645770904, Q3 : -0.000362717459211, Q4 : -0.0019489643164}
2019-04-14 11:59:35.21: SIM {TimeUS : 51634338, Roll : -0.08, Pitch : -0.03, Yaw : 359.77, Alt : 47.4700012207, Lat : 49.2835703, Lng : -123.1150205, Q1 : 0.999997735023, Q2 : -0.000744787452277, Q3 : -0.000318722683005, Q4 : -0.00197247718461}
2019-04-14 11:59:35.31: SIM {TimeUS : 51734298, Roll : -0.11, Pitch : -0.04, Yaw : 359.77, Alt : 47.6599998474, Lat : 49.2835703, Lng : -123.1150205, Q1 : 0.999997377396, Q2 : -0.00104104704224, Q3 : -0.000381400401238, Q4 : -0.00199579214677}
2019-04-14 11:59:35.41: SIM {TimeUS : 51834258, Roll : -0.15, Pitch : -0.06, Yaw : 359.76, Alt : 47.8300018311, Lat : 49.2835703, Lng : -123.1150205, Q1 : 0.999996840954, Q2 : -0.00137449696194, Q3 : -0.000562514353078, Q4 : -0.00202123471536}
2019-04-14 11:59:35.51: SIM {TimeUS : 51934218, Roll : -0.17, Pitch : -0.06, Yaw : 359.76, Alt : 47.9900016785, Lat : 49.2835703, Lng : -123.1150205, Q1 : 0.999996542931, Q2 : -0.00153320725076, Q3 : -0.000592613650952, Q4 : -0.00204770220444}
2019-04-14 11:59:35.61: SIM {TimeUS : 52034178, Roll : -0.16, Pitch : -0.06, Yaw : 359.76, Alt : 48.1399993896, Lat : 49.2835703, Lng : -123.1150205, Q1 : 0.999996721745, Q2 : -0.0014208953362, Q3 : -0.000530490302481, Q4 : -0.00207154988311}
2019-04-14 11:59:35.71: SIM {TimeUS : 52134138, Roll : -0.13, Pitch : -0.04, Yaw : 359.76, Alt : 48.2700004578, Lat : 49.2835703, Lng : -123.1150205, Q1 : 0.999997019768, Q2 : -0.00116169138346, Q3 : -0.000416532304371, Q4 : -0.00209425133653}
2019-04-14 11:59:35.81: SIM {TimeUS : 52234098, Roll : -0.1, Pitch : -0.03, Yaw : 359.75, Alt : 48.4000015259, Lat : 49.2835703, Lng : -123.1150205, Q1 : 0.999997258186, Q2 : -0.000930239795707, Q3 : -0.000342512823408, Q4 : -0.00211636628956}
2019-04-14 11:59:35.91: SIM {TimeUS : 52334058, Roll : -0.07, Pitch : -0.04, Yaw : 359.75, Alt : 48.5099983215, Lat : 49.2835703, Lng : -123.1150205, Q1 : 0.999997377396, Q2 : -0.000686763378326, Q3 : -0.000377900258172, Q4 : -0.00213912059553}
2019-04-14 11:59:36.02: SIM {TimeUS : 52434851, Roll : -0.04, Pitch : -0.05, Yaw : 359.75, Alt : 48.6100006104, Lat : 49.2835703, Lng : -123.1150205, Q1 : 0.999997496605, Q2 : -0.000404644088121, Q3 : -0.000457026646473, Q4 : -0.00216337898746}
2019-04-14 11:59:36.11: SIM {TimeUS : 52534811, Roll : -0.03, Pitch : -0.06, Yaw : 359.74, Alt : 48.7000007629, Lat : 49.2835703, Lng : -123.1150205, Q1 : 0.999997377396, Q2 : -0.000264072557911, Q3 : -0.000560757296626, Q4 : -0.00219461624511}
2019-04-14 11:59:36.21: SIM {TimeUS : 52634771, Roll : -0.03, Pitch : -0.07, Yaw : 359.74, Alt : 48.7799987793, Lat : 49.2835703, Lng : -123.1150206, Q1 : 0.999997258186, Q2 : -0.000279384432361, Q3 : -0.000669578264933, Q4 : -0.00222438992932}
2019-04-14 11:59:36.31: SIM {TimeUS : 52734731, Roll : -0.01, Pitch : -0.07, Yaw : 359.74, Alt : 48.8400001526, Lat : 49.2835703, Lng : -123.1150206, Q1 : 0.999997258186, Q2 : -9.11282841116e-05, Q3 : -0.000639576581307, Q4 : -0.0022497670725}
2019-04-14 11:59:36.41: SIM {TimeUS : 52834691, Roll : 0.01, Pitch : -0.05, Yaw : 359.73, Alt : 48.9000015259, Lat : 49.2835703, Lng : -123.1150206, Q1 : 0.999997258186, Q2 : 0.000152943204739, Q3 : -0.000498389417771, Q4 : -0.00227335724048}
2019-04-14 11:59:36.51: SIM {TimeUS : 52934651, Roll : 0.03, Pitch : -0.03, Yaw : 359.73, Alt : 48.9500007629, Lat : 49.2835703, Lng : -123.1150206, Q1 : 0.999997198582, Q2 : 0.000344130821759, Q3 : -0.000302688073134, Q4 : -0.00230244384147}
2019-04-14 11:59:36.61: SIM {TimeUS : 53034611, Roll : 0.05, Pitch : -0.02, Yaw : 359.73, Alt : 48.9900016785, Lat : 49.2835703, Lng : -123.1150206, Q1 : 0.999997138977, Q2 : 0.000487667566631, Q3 : -0.000199964953936, Q4 : -0.00233494630083}
2019-04-14 11:59:36.71: SIM {TimeUS : 53134571, Roll : 0.15, Pitch : -0.09, Yaw : 359.72, Alt : 49.0299987793, Lat : 49.2835703, Lng : -123.1150206, Q1 : 0.999996006489, Q2 : 0.00132193800528, Q3 : -0.000790153862908, Q4 : -0.00236921431497}
2019-04-14 11:59:36.81: SIM {TimeUS : 53234531, Roll : 0.4, Pitch : -0.33, Yaw : 359.72, Alt : 49.0600013733, Lat : 49.2835703, Lng : -123.1150206, Q1 : 0.999986469746, Q2 : 0.00354028912261, Q3 : -0.00296214502305, Q4 : -0.00240103108808}
2019-04-14 11:59:36.91: SIM {TimeUS : 53334491, Roll : 0.84, Pitch : -0.77, Yaw : 359.71, Alt : 49.0900001526, Lat : 49.2835703, Lng : -123.1150206, Q1 : 0.99994713068, Q2 : 0.00735432142392, Q3 : -0.00676509831101, Q4 : -0.00243013678119}
2019-04-14 11:59:37.01: SIM {TimeUS : 53434451, Roll : 1.46, Pitch : -1.35, Yaw : 359.7, Alt : 49.1100006104, Lat : 49.2835704, Lng : -123.1150206, Q1 : 0.999845504761, Q2 : 0.0127213066444, Q3 : -0.0118856495246, Q4 : -0.0024443725124}
2019-04-14 11:59:37.11: SIM {TimeUS : 53534411, Roll : 2.19, Pitch : -2.04, Yaw : 359.68, Alt : 49.1300010681, Lat : 49.2835704, Lng : -123.1150205, Q1 : 0.999654650688, Q2 : 0.0190976951271, Q3 : -0.0178914722055, Q4 : -0.00240574032068}
2019-04-14 11:59:37.21: SIM {TimeUS : 53634371, Roll : 2.94, Pitch : -2.72, Yaw : 359.66, Alt : 49.1500015259, Lat : 49.2835706, Lng : -123.1150204, Q1 : 0.999385178089, Q2 : 0.0256205350161, Q3 : -0.0238250661641, Q4 : -0.00230032508262}
2019-04-14 11:59:37.31: SIM {TimeUS : 53734331, Roll : 3.61, Pitch : -3.29, Yaw : 359.65, Alt : 49.1699981689, Lat : 49.2835707, Lng : -123.1150203, Q1 : 0.999089002609, Q2 : 0.0314141884446, Q3 : -0.0288083255291, Q4 : -0.00211654650047}
2019-04-14 11:59:37.41: SIM {TimeUS : 53834291, Roll : 4.12, Pitch : -3.73, Yaw : 359.64, Alt : 49.1800003052, Lat : 49.2835708, Lng : -123.1150201, Q1 : 0.998818337917, Q2 : 0.0359086953104, Q3 : -0.0326965637505, Q4 : -0.00187744386494}
2019-04-14 11:59:37.51: SIM {TimeUS : 53934251, Roll : 4.49, Pitch : -4.08, Yaw : 359.65, Alt : 49.1899986267, Lat : 49.2835709, Lng : -123.1150199, Q1 : 0.998595178127, Q2 : 0.0391179211438, Q3 : -0.0357050411403, Q4 : -0.00160502805375}
2019-04-14 11:59:37.61: SIM {TimeUS : 54034211, Roll : 4.76, Pitch : -4.36, Yaw : 359.66, Alt : 49.2000007629, Lat : 49.2835713, Lng : -123.1150195, Q1 : 0.998413324356, Q2 : 0.0413975343108, Q3 : -0.0381497740746, Q4 : -0.00132172007579}
2019-04-14 11:59:37.71: SIM {TimeUS : 54134171, Roll : 4.99, Pitch : -4.63, Yaw : 359.67, Alt : 49.2099990845, Lat : 49.2835715, Lng : -123.115019, Q1 : 0.998234391212, Q2 : 0.0434165634215, Q3 : -0.0405219309032, Q4 : -0.0010445547523}
2019-04-14 11:59:37.81: SIM {TimeUS : 54234131, Roll : 5.24, Pitch : -4.91, Yaw : 359.68, Alt : 49.2200012207, Lat : 49.2835719, Lng : -123.1150184, Q1 : 0.998034894466, Q2 : 0.0456164777279, Q3 : -0.0429524928331, Q4 : -0.000765650242101}
2019-04-14 11:59:37.91: SIM {TimeUS : 54334091, Roll : 5.52, Pitch : -5.17, Yaw : 359.69, Alt : 49.2200012207, Lat : 49.2835722, Lng : -123.1150178, Q1 : 0.997823536396, Q2 : 0.047998547554, Q3 : -0.0452121980488, Q4 : -0.000473766587675}
2019-04-14 11:59:38.01: SIM {TimeUS : 54434051, Roll : 5.76, Pitch : -5.4, Yaw : 359.7, Alt : 49.2299995422, Lat : 49.2835727, Lng : -123.1150171, Q1 : 0.997625827789, Q2 : 0.0501373820007, Q3 : -0.0472113788128, Q4 : -0.000204382944503}
2019-04-14 11:59:38.12: SIM {TimeUS : 54534844, Roll : 5.96, Pitch : -5.58, Yaw : 359.71, Alt : 49.2400016785, Lat : 49.2835732, Lng : -123.1150163, Q1 : 0.997464179993, Q2 : 0.0518303699791, Q3 : -0.0487734898925, Q4 : 4.34863904957e-05}
2019-04-14 11:59:38.21: SIM {TimeUS : 54634804, Roll : 6.09, Pitch : -5.7, Yaw : 359.72, Alt : 49.2400016785, Lat : 49.2835738, Lng : -123.1150154, Q1 : 0.997352540493, Q2 : 0.0529477261007, Q3 : -0.0498437099159, Q4 : 0.000261610781308}
2019-04-14 11:59:38.31: SIM {TimeUS : 54734764, Roll : 6.18, Pitch : -5.8, Yaw : 359.73, Alt : 49.25, Lat : 49.2835744, Lng : -123.1150144, Q1 : 0.997266709805, Q2 : 0.0537310428917, Q3 : -0.0507144778967, Q4 : 0.000409788131947}
2019-04-14 11:59:38.41: SIM {TimeUS : 54834724, Roll : 6.27, Pitch : -5.9, Yaw : 359.73, Alt : 49.25, Lat : 49.283575, Lng : -123.1150133, Q1 : 0.997179150581, Q2 : 0.0545211359859, Q3 : -0.0515841580927, Q4 : 0.000504910305608}
2019-04-14 11:59:38.51: SIM {TimeUS : 54934684, Roll : 6.43, Pitch : -5.99, Yaw : 359.73, Alt : 49.25, Lat : 49.2835757, Lng : -123.1150122, Q1 : 0.997059822083, Q2 : 0.0559368915856, Q3 : -0.052367284894, Q4 : 0.000674334936775}
2019-04-14 11:59:38.61: SIM {TimeUS : 55034644, Roll : 6.81, Pitch : -5.95, Yaw : 359.99, Alt : 49.2599983215, Lat : 49.2835764, Lng : -123.115011, Q1 : 0.996883809566, Q2 : 0.0593483708799, Q3 : -0.0518774203956, Q4 : 0.00303528481163}
2019-04-14 11:59:38.71: SIM {TimeUS : 55134604, Roll : 7.42, Pitch : -5.83, Yaw : 1.11, Alt : 49.2599983215, Lat : 49.2835771, Lng : -123.1150096, Q1 : 0.996531009674, Q2 : 0.0651296377182, Q3 : -0.0501582399011, Q4 : 0.0129722738639}
2019-04-14 11:59:38.81: SIM {TimeUS : 55234564, Roll : 7.99, Pitch : -5.93, Yaw : 3.68, Alt : 49.2599983215, Lat : 49.2835781, Lng : -123.1150083, Q1 : 0.995598435402, Q2 : 0.0712466388941, Q3 : -0.0493623651564, Q4 : 0.0356511883438}
2019-04-14 11:59:38.91: SIM {TimeUS : 55334524, Roll : 8.25, Pitch : -6.45, Yaw : 7.85, Alt : 49.2599983215, Lat : 49.2835788, Lng : -123.1150068, Q1 : 0.993212103844, Q2 : 0.0755481421947, Q3 : -0.0510605461895, Q4 : 0.072214461863}
2019-04-14 11:59:39.01: SIM {TimeUS : 55434484, Roll : 7.99, Pitch : -7.39, Yaw : 13.45, Alt : 49.2599983215, Lat : 49.2835798, Lng : -123.1150052, Q1 : 0.988110601902, Q2 : 0.0766013339162, Q3 : -0.0557845197618, Q4 : 0.121069394052}
2019-04-14 11:59:39.11: SIM {TimeUS : 55534444, Roll : 7.08, Pitch : -8.67, Yaw : 20.24, Alt : 49.2599983215, Lat : 49.2835806, Lng : -123.1150035, Q1 : 0.978912651539, Q2 : 0.0739219337702, Q3 : -0.0634464472532, Q4 : 0.179555341601}
2019-04-14 11:59:39.21: SIM {TimeUS : 55634404, Roll : 5.53, Pitch : -10.05, Yaw : 27.98, Alt : 49.2700004578, Lat : 49.2835816, Lng : -123.1150016, Q1 : 0.964444041252, Q2 : 0.0678495168686, Q3 : -0.0733438283205, Q4 : 0.244672864676}
2019-04-14 11:59:39.31: SIM {TimeUS : 55734364, Roll : 3.22, Pitch : -11.34, Yaw : 36.29, Alt : 49.2700004578, Lat : 49.2835825, Lng : -123.1149997, Q1 : 0.944364130497, Q2 : 0.0574248805642, Q3 : -0.085172906518, Q4 : 0.312448948622}
2019-04-14 11:59:39.41: SIM {TimeUS : 55834324, Roll : 0.21, Pitch : -12.26, Yaw : 44.46, Alt : 49.2700004578, Lat : 49.2835836, Lng : -123.1149976, Q1 : 0.920288145542, Q2 : 0.0421101637185, Q3 : -0.0981836095452, Q4 : 0.376372754574}
2019-04-14 11:59:39.51: SIM {TimeUS : 55934284, Roll : -2.97, Pitch : -12.67, Yaw : 51.61, Alt : 49.2700004578, Lat : 49.2835846, Lng : -123.1149955, Q1 : 0.895725488663, Q2 : 0.0247967075557, Q3 : -0.110546842217, Q4 : 0.429930627346}
2019-04-14 11:59:39.61: SIM {TimeUS : 56034244, Roll : -5.64, Pitch : -12.66, Yaw : 57.03, Alt : 49.2700004578, Lat : 49.2835858, Lng : -123.1149934, Q1 : 0.87483048439, Q2 : 0.00958390999585, Q3 : -0.120150901377, Q4 : 0.469194620848}
2019-04-14 11:59:39.71: SIM {TimeUS : 56134204, Roll : -7.33, Pitch : -12.49, Yaw : 60.45, Alt : 49.2700004578, Lat : 49.2835871, Lng : -123.1149912, Q1 : 0.860645234585, Q2 : -0.000275250553386, Q3 : -0.125899344683, Q4 : 0.493395417929}
2019-04-14 11:59:39.81: SIM {TimeUS : 56234164, Roll : -7.94, Pitch : -12.42, Yaw : 61.95, Alt : 49.2700004578, Lat : 49.2835885, Lng : -123.1149889, Q1 : 0.854124724865, Q2 : -0.00348977325484, Q3 : -0.127999871969, Q4 : 0.504058420658}
2019-04-14 11:59:39.91: SIM {TimeUS : 56334124, Roll : -7.62, Pitch : -12.57, Yaw : 61.85, Alt : 49.2700004578, Lat : 49.2835898, Lng : -123.1149867, Q1 : 0.854510486126, Q2 : -0.00047426787205, Q3 : -0.127718627453, Q4 : 0.503487467766}
2019-04-14 11:59:40.01: SIM {TimeUS : 56434084, Roll : -6.58, Pitch : -12.99, Yaw : 60.49, Alt : 49.2700004578, Lat : 49.2835915, Lng : -123.1149844, Q1 : 0.860164821148, Q2 : 0.00758773088455, Q3 : -0.126349210739, Q4 : 0.494059562683}
2019-04-14 11:59:40.11: SIM {TimeUS : 56534044, Roll : -5.07, Pitch : -13.61, Yaw : 58.22, Alt : 49.2700004578, Lat : 49.2835932, Lng : -123.1149821, Q1 : 0.869202256203, Q2 : 0.0192463677377, Q3 : -0.124869175255, Q4 : 0.478042572737}
2019-04-14 11:59:40.22: SIM {TimeUS : 56634837, Roll : -3.27, Pitch : -14.33, Yaw : 55.34, Alt : 49.2799987793, Lat : 49.2835949, Lng : -123.1149796, Q1 : 0.880008995533, Q2 : 0.0327668115497, Q3 : -0.123627401888, Q4 : 0.457413166761}
2019-04-14 11:59:40.31: SIM {TimeUS : 56734797, Roll : -1.43, Pitch : -14.98, Yaw : 52.2, Alt : 49.2799987793, Lat : 49.2835966, Lng : -123.1149772, Q1 : 0.890995621681, Q2 : 0.0462447442114, Q3 : -0.122541405261, Q4 : 0.434708863497}
2019-04-14 11:59:40.41: SIM {TimeUS : 56834757, Roll : 0.3, Pitch : -15.47, Yaw : 49.11, Alt : 49.2799987793, Lat : 49.2835986, Lng : -123.1149746, Q1 : 0.901114821434, Q2 : 0.0583681873977, Q3 : -0.121369168162, Q4 : 0.412134438753}
2019-04-14 11:59:40.51: SIM {TimeUS : 56934717, Roll : 1.75, Pitch : -15.73, Yaw : 46.39, Alt : 49.2799987793, Lat : 49.2836004, Lng : -123.1149719, Q1 : 0.909560859203, Q2 : 0.0679087564349, Q3 : -0.119844421744, Q4 : 0.392077565193}
2019-04-14 11:59:40.61: SIM {TimeUS : 57034677, Roll : 2.81, Pitch : -15.8, Yaw : 44.29, Alt : 49.2799987793, Lat : 49.2836023, Lng : -123.1149691, Q1 : 0.915870964527, Q2 : 0.0743810757995, Q3 : -0.118111267686, Q4 : 0.376427322626}
2019-04-14 11:59:40.71: SIM {TimeUS : 57134637, Roll : 3.41, Pitch : -15.75, Yaw : 42.94, Alt : 49.2799987793, Lat : 49.2836043, Lng : -123.1149662, Q1 : 0.919906795025, Q2 : 0.0776220336556, Q3 : -0.11668099463, Q4 : 0.366240262985}
2019-04-14 11:59:40.81: SIM {TimeUS : 57234597, Roll : 3.54, Pitch : -15.68, Yaw : 42.36, Alt : 49.2799987793, Lat : 49.2836062, Lng : -123.1149631, Q1 : 0.921749353409, Q2 : 0.0778252109885, Q3 : -0.116088524461, Q4 : 0.361724793911}
2019-04-14 11:59:40.91: SIM {TimeUS : 57334557, Roll : 3.26, Pitch : -15.65, Yaw : 42.48, Alt : 49.2799987793, Lat : 49.2836081, Lng : -123.1149599, Q1 : 0.921593487263, Q2 : 0.0755958259106, Q3 : -0.116687864065, Q4 : 0.362401247025}
2019-04-14 11:59:41.01: SIM {TimeUS : 57434517, Roll : 2.65, Pitch : -15.71, Yaw : 43.16, Alt : 49.2799987793, Lat : 49.2836101, Lng : -123.1149566, Q1 : 0.919739663601, Q2 : 0.0716344714165, Q3 : -0.118647433817, Q4 : 0.367246896029}
2019-04-14 11:59:41.11: SIM {TimeUS : 57534477, Roll : 1.86, Pitch : -15.84, Yaw : 44.24, Alt : 49.2900009155, Lat : 49.2836121, Lng : -123.1149533, Q1 : 0.916594564915, Q2 : 0.0667811632156, Q3 : -0.121575750411, Q4 : 0.374985396862}
2019-04-14 11:59:41.21: SIM {TimeUS : 57634437, Roll : 0.99, Pitch : -15.99, Yaw : 45.52, Alt : 49.2900009155, Lat : 49.2836141, Lng : -123.1149498, Q1 : 0.912642538548, Q2 : 0.0617570914328, Q3 : -0.12500551343, Q4 : 0.38424384594}
2019-04-14 11:59:41.31: SIM {TimeUS : 57734397, Roll : 0.16, Pitch : -16.14, Yaw : 46.84, Alt : 49.2900009155, Lat : 49.2836162, Lng : -123.1149463, Q1 : 0.908427834511, Q2 : 0.0571295246482, Q3 : -0.128305405378, Q4 : 0.393742084503}
2019-04-14 11:59:41.41: SIM {TimeUS : 57834357, Roll : -0.52, Pitch : -16.25, Yaw : 48.04, Alt : 49.2900009155, Lat : 49.2836183, Lng : -123.1149427, Q1 : 0.904462456703, Q2 : 0.0533879548311, Q3 : -0.131025239825, Q4 : 0.402405083179}
2019-04-14 11:59:41.51: SIM {TimeUS : 57934317, Roll : -1.04, Pitch : -16.35, Yaw : 49.01, Alt : 49.2900009155, Lat : 49.2836203, Lng : -123.1149391, Q1 : 0.901153862476, Q2 : 0.0507824644446, Q3 : -0.133122369647, Q4 : 0.409415781498}
2019-04-14 11:59:41.61: SIM {TimeUS : 58034277, Roll : -1.36, Pitch : -16.41, Yaw : 49.69, Alt : 49.2900009155, Lat : 49.2836226, Lng : -123.1149354, Q1 : 0.89879578352, Q2 : 0.0493225157261, Q3 : -0.134482249618, Q4 : 0.414304226637}
2019-04-14 11:59:41.71: SIM {TimeUS : 58134237, Roll : -1.48, Pitch : -16.46, Yaw : 50.04, Alt : 49.2900009155, Lat : 49.2836248, Lng : -123.1149317, Q1 : 0.897510409355, Q2 : 0.0489162355661, Q3 : -0.135171413422, Q4 : 0.416906446218}
2019-04-14 11:59:41.81: SIM {TimeUS : 58234197, Roll : -1.44, Pitch : -16.48, Yaw : 50.09, Alt : 49.2900009155, Lat : 49.283627, Lng : -123.114928, Q1 : 0.897292077541, Q2 : 0.0493978112936, Q3 : -0.135100603104, Q4 : 0.41734239459}
2019-04-14 11:59:41.91: SIM {TimeUS : 58334157, Roll : -1.23, Pitch : -16.48, Yaw : 49.88, Alt : 49.2900009155, Lat : 49.2836293, Lng : -123.1149242, Q1 : 0.897951066494, Q2 : 0.0508143305779, Q3 : -0.134490311146, Q4 : 0.415949732065}
2019-04-14 11:59:42.01: SIM {TimeUS : 58434117, Roll : -0.93, Pitch : -16.5, Yaw : 49.48, Alt : 49.2900009155, Lat : 49.2836317, Lng : -123.1149203, Q1 : 0.899243175983, Q2 : 0.052770242095, Q3 : -0.133715763688, Q4 : 0.413155078888}
2019-04-14 11:59:42.11: SIM {TimeUS : 58534077, Roll : -0.57, Pitch : -16.53, Yaw : 48.97, Alt : 49.2900009155, Lat : 49.283634, Lng : -123.1149165, Q1 : 0.900887906551, Q2 : 0.0551191978157, Q3 : -0.132919237018, Q4 : 0.409506291151}
2019-04-14 11:59:42.21: SIM {TimeUS : 58634037, Roll : -0.18, Pitch : -16.56, Yaw : 48.41, Alt : 49.2900009155, Lat : 49.2836364, Lng : -123.1149126, Q1 : 0.902645230293, Q2 : 0.0576093271375, Q3 : -0.132044970989, Q4 : 0.405557453632}
2019-04-14 11:59:42.32: SIM {TimeUS : 58734830, Roll : 0.15, Pitch : -16.59, Yaw : 47.88, Alt : 49.2900009155, Lat : 49.2836388, Lng : -123.1149086, Q1 : 0.904317080975, Q2 : 0.0598186738789, Q3 : -0.131327405572, Q4 : 0.401728123426}
2019-04-14 11:59:42.41: SIM {TimeUS : 58834790, Roll : 0.41, Pitch : -16.63, Yaw : 47.42, Alt : 49.2900009155, Lat : 49.2836412, Lng : -123.1149046, Q1 : 0.905715048313, Q2 : 0.0614225827157, Q3 : -0.131010055542, Q4 : 0.398426771164}
2019-04-14 11:59:42.51: SIM {TimeUS : 58934750, Roll : 0.56, Pitch : -16.68, Yaw : 47.09, Alt : 49.2900009155, Lat : 49.2836437, Lng : -123.1149006, Q1 : 0.906748652458, Q2 : 0.0624318383634, Q3 : -0.131045535207, Q4 : 0.395899266005}
2019-04-14 11:59:42.61: SIM {TimeUS : 59034710, Roll : 0.63, Pitch : -16.74, Yaw : 46.88, Alt : 49.2900009155, Lat : 49.2836461, Lng : -123.1148965, Q1 : 0.907359004021, Q2 : 0.0629535838962, Q3 : -0.131453379989, Q4 : 0.394279748201}
2019-04-14 11:59:42.71: SIM {TimeUS : 59134670, Roll : 0.61, Pitch : -16.8, Yaw : 46.79, Alt : 49.2900009155, Lat : 49.2836486, Lng : -123.1148923, Q1 : 0.907580435276, Q2 : 0.0629225298762, Q3 : -0.132017314434, Q4 : 0.393586039543}
2019-04-14 11:59:42.81: SIM {TimeUS : 59234630, Roll : 0.54, Pitch : -16.85, Yaw : 46.82, Alt : 49.2900009155, Lat : 49.283651, Lng : -123.1148882, Q1 : 0.907451868057, Q2 : 0.0625567361712, Q3 : -0.132657319307, Q4 : 0.393725544214}
2019-04-14 11:59:42.91: SIM {TimeUS : 59334590, Roll : 0.42, Pitch : -16.9, Yaw : 46.94, Alt : 49.2900009155, Lat : 49.2836535, Lng : -123.114884, Q1 : 0.907053172588, Q2 : 0.0619294419885, Q3 : -0.133325770497, Q4 : 0.394516885281}
2019-04-14 11:59:43.01: SIM {TimeUS : 59434550, Roll : 0.29, Pitch : -16.92, Yaw : 47.12, Alt : 49.2900009155, Lat : 49.283656, Lng : -123.1148798, Q1 : 0.906483471394, Q2 : 0.0611746050417, Q3 : -0.133911177516, Q4 : 0.395743906498}
2019-04-14 11:59:43.11: SIM {TimeUS : 59534510, Roll : 0.16, Pitch : -16.94, Yaw : 47.32, Alt : 49.2900009155, Lat : 49.2836584, Lng : -123.1148756, Q1 : 0.905826330185, Q2 : 0.0604733340442, Q3 : -0.134392157197, Q4 : 0.397190570831}
2019-04-14 11:59:43.21: SIM {TimeUS : 59634470, Roll : 0.05, Pitch : -16.97, Yaw : 47.52, Alt : 49.2999992371, Lat : 49.283661, Lng : -123.1148713, Q1 : 0.905163288116, Q2 : 0.0598979108036, Q3 : -0.134867891669, Q4 : 0.398625522852}
2019-04-14 11:59:43.31: SIM {TimeUS : 59734430, Roll : -0.04, Pitch : -16.99, Yaw : 47.7, Alt : 49.2999992371, Lat : 49.2836635, Lng : -123.114867, Q1 : 0.904580414295, Q2 : 0.0593986921012, Q3 : -0.135322511196, Q4 : 0.399867385626}
2019-04-14 11:59:43.41: SIM {TimeUS : 59834390, Roll : -0.12, Pitch : -17.02, Yaw : 47.83, Alt : 49.2999992371, Lat : 49.2836662, Lng : -123.1148627, Q1 : 0.90412914753, Q2 : 0.0590534061193, Q3 : -0.135754778981, Q4 : 0.400791555643}
2019-04-14 11:59:43.51: SIM {TimeUS : 59934350, Roll : -0.16, Pitch : -17.06, Yaw : 47.91, Alt : 49.2999992371, Lat : 49.2836688, Lng : -123.1148583, Q1 : 0.903830945492, Q2 : 0.0589260831475, Q3 : -0.136175200343, Q4 : 0.40133985877}
2019-04-14 11:59:43.61: SIM {TimeUS : 60034310, Roll : -0.18, Pitch : -17.1, Yaw : 47.93, Alt : 49.2999992371, Lat : 49.2836712, Lng : -123.1148539, Q1 : 0.903703033924, Q2 : 0.0589261986315, Q3 : -0.136573538184, Q4 : 0.40149256587}
2019-04-14 11:59:43.71: SIM {TimeUS : 60134270, Roll : -0.2, Pitch : -17.13, Yaw : 47.91, Alt : 49.2999992371, Lat : 49.2836738, Lng : -123.1148496, Q1 : 0.903746783733, Q2 : 0.0589223541319, Q3 : -0.136881500483, Q4 : 0.401289641857}
2019-04-14 11:59:43.81: SIM {TimeUS : 60234230, Roll : -0.19, Pitch : -17.15, Yaw : 47.85, Alt : 49.2999992371, Lat : 49.2836766, Lng : -123.1148451, Q1 : 0.903940498829, Q2 : 0.0589562468231, Q3 : -0.137022569776, Q4 : 0.400799930096}
2019-04-14 11:59:43.91: SIM {TimeUS : 60334190, Roll : -0.16, Pitch : -17.17, Yaw : 47.76, Alt : 49.2999992371, Lat : 49.2836791, Lng : -123.1148406, Q1 : 0.904222369194, Q2 : 0.0591118857265, Q3 : -0.137132942677, Q4 : 0.40010279417}
2019-04-14 11:59:44.01: SIM {TimeUS : 60434150, Roll : -0.11, Pitch : -17.2, Yaw : 47.65, Alt : 49.2999992371, Lat : 49.2836817, Lng : -123.1148363, Q1 : 0.904528081417, Q2 : 0.0595151148736, Q3 : -0.137243568897, Q4 : 0.399313360453}
2019-04-14 11:59:44.11: SIM {TimeUS : 60534110, Roll : -0.04, Pitch : -17.23, Yaw : 47.54, Alt : 49.2999992371, Lat : 49.2836845, Lng : -123.1148318, Q1 : 0.904831051826, Q2 : 0.0600777156651, Q3 : -0.137289866805, Q4 : 0.398525923491}
2019-04-14 11:59:44.21: SIM {TimeUS : 60634070, Roll : 0.04, Pitch : -17.27, Yaw : 47.44, Alt : 49.3100013733, Lat : 49.283687, Lng : -123.1148272, Q1 : 0.90509057045, Q2 : 0.0607738979161, Q3 : -0.13735242188, Q4 : 0.397808939219}
2019-04-14 11:59:44.31: SIM {TimeUS : 60734030, Roll : 0.12, Pitch : -17.31, Yaw : 47.35, Alt : 49.3100013733, Lat : 49.2836898, Lng : -123.1148228, Q1 : 0.905306696892, Q2 : 0.0614624321461, Q3 : -0.137392953038, Q4 : 0.397196859121}
2019-04-14 11:59:44.42: SIM {TimeUS : 60834823, Roll : 0.18, Pitch : -17.34, Yaw : 47.29, Alt : 49.3100013733, Lat : 49.2836925, Lng : -123.1148183, Q1 : 0.905467331409, Q2 : 0.0619863532484, Q3 : -0.137505486608, Q4 : 0.396710067987}
2019-04-14 11:59:44.51: SIM {TimeUS : 60934783, Roll : 0.2, Pitch : -17.36, Yaw : 47.24, Alt : 49.3100013733, Lat : 49.2836951, Lng : -123.1148138, Q1 : 0.905597448349, Q2 : 0.0620926916599, Q3 : -0.13760329783, Q4 : 0.396362394094}
2019-04-14 11:59:44.61: SIM {TimeUS : 61034743, Roll : 0.18, Pitch : -17.36, Yaw : 47.22, Alt : 49.3100013733, Lat : 49.2836979, Lng : -123.1148092, Q1 : 0.905683815479, Q2 : 0.0619155839086, Q3 : -0.137730911374, Q4 : 0.396148353815}
2019-04-14 11:59:44.71: SIM {TimeUS : 61134703, Roll : 0.16, Pitch : -17.36, Yaw : 47.21, Alt : 49.3100013733, Lat : 49.2837005, Lng : -123.1148047, Q1 : 0.905719816685, Q2 : 0.0617831796408, Q3 : -0.137744143605, Q4 : 0.39608207345}
2019-04-14 11:59:44.81: SIM {TimeUS : 61234663, Roll : 0.15, Pitch : -17.36, Yaw : 47.22, Alt : 49.3100013733, Lat : 49.2837033, Lng : -123.1148001, Q1 : 0.905697226524, Q2 : 0.0616882070899, Q3 : -0.137832358479, Q4 : 0.396117866039}
2019-04-14 11:59:44.91: SIM {TimeUS : 61334623, Roll : 0.14, Pitch : -17.4, Yaw : 47.23, Alt : 49.3100013733, Lat : 49.283706, Lng : -123.1147955, Q1 : 0.905606389046, Q2 : 0.0617862343788, Q3 : -0.138117656112, Q4 : 0.39621090889}
2019-04-14 11:59:45.01: SIM {TimeUS : 61434583, Roll : 0.15, Pitch : -17.46, Yaw : 47.25, Alt : 49.3100013733, Lat : 49.2837088, Lng : -123.1147909, Q1 : 0.905464231968, Q2 : 0.0620420686901, Q3 : -0.138588681817, Q4 : 0.396331310272}
2019-04-14 11:59:45.11: SIM {TimeUS : 61534543, Roll : 0.14, Pitch : -17.5, Yaw : 47.27, Alt : 49.3100013733, Lat : 49.2837114, Lng : -123.1147863, Q1 : 0.905349195004, Q2 : 0.0621493421495, Q3 : -0.138947442174, Q4 : 0.396451681852}
2019-04-14 11:59:45.21: SIM {TimeUS : 61634503, Roll : 0.13, Pitch : -17.52, Yaw : 47.29, Alt : 49.3199996948, Lat : 49.2837143, Lng : -123.1147817, Q1 : 0.905281841755, Q2 : 0.0621588602662, Q3 : -0.139072224498, Q4 : 0.39656022191}
2019-04-14 11:59:45.31: SIM {TimeUS : 61734463, Roll : 0.11, Pitch : -17.53, Yaw : 47.29, Alt : 49.3199996948, Lat : 49.2837169, Lng : -123.114777, Q1 : 0.905245602131, Q2 : 0.0620684437454, Q3 : -0.139256417751, Q4 : 0.396592468023}
2019-04-14 11:59:45.41: SIM {TimeUS : 61834423, Roll : 0.08, Pitch : -17.56, Yaw : 47.29, Alt : 49.3199996948, Lat : 49.2837198, Lng : -123.1147724, Q1 : 0.90523314476, Q2 : 0.0619199685752, Q3 : -0.139562532306, Q4 : 0.39653646946}
2019-04-14 11:59:45.51: SIM {TimeUS : 61934383, Roll : 0.07, Pitch : -17.58, Yaw : 47.28, Alt : 49.3199996948, Lat : 49.2837226, Lng : -123.1147676, Q1 : 0.905243515968, Q2 : 0.0619288869202, Q3 : -0.139736741781, Q4 : 0.396450012922}
2019-04-14 11:59:45.61: SIM {TimeUS : 62034343, Roll : 0.07, Pitch : -17.6, Yaw : 47.27, Alt : 49.3199996948, Lat : 49.2837253, Lng : -123.1147631, Q1 : 0.905282080173, Q2 : 0.0619369708002, Q3 : -0.139890044928, Q4 : 0.396306633949}
2019-04-14 11:59:45.71: SIM {TimeUS : 62134303, Roll : 0.07, Pitch : -17.61, Yaw : 47.25, Alt : 49.3199996948, Lat : 49.2837281, Lng : -123.1147584, Q1 : 0.905342638493, Q2 : 0.0619560927153, Q3 : -0.139996111393, Q4 : 0.39612787962}
2019-04-14 11:59:45.81: SIM {TimeUS : 62234263, Roll : 0.08, Pitch : -17.62, Yaw : 47.22, Alt : 49.3199996948, Lat : 49.2837308, Lng : -123.1147537, Q1 : 0.905413806438, Q2 : 0.062064897269, Q3 : -0.140110746026, Q4 : 0.39590755105}
2019-04-14 11:59:45.91: SIM {TimeUS : 62334223, Roll : 0.1, Pitch : -17.63, Yaw : 47.19, Alt : 49.3199996948, Lat : 49.2837337, Lng : -123.114749, Q1 : 0.905503153801, Q2 : 0.0622091814876, Q3 : -0.140125110745, Q4 : 0.395675480366}
2019-04-14 11:59:46.01: SIM {TimeUS : 62434183, Roll : 0.12, Pitch : -17.64, Yaw : 47.16, Alt : 49.3199996948, Lat : 49.2837364, Lng : -123.1147443, Q1 : 0.905585646629, Q2 : 0.0623860880733, Q3 : -0.140133008361, Q4 : 0.395455926657}
2019-04-14 11:59:46.11: SIM {TimeUS : 62534143, Roll : 0.16, Pitch : -17.66, Yaw : 47.13, Alt : 49.3199996948, Lat : 49.2837393, Lng : -123.1147396, Q1 : 0.905639111996, Q2 : 0.0626682564616, Q3 : -0.140218302608, Q4 : 0.395258545876}
2019-04-14 11:59:46.21: SIM {TimeUS : 62634103, Roll : 0.17, Pitch : -17.7, Yaw : 47.1, Alt : 49.3199996948, Lat : 49.2837421, Lng : -123.1147348, Q1 : 0.90566688776, Q2 : 0.0629076063633, Q3 : -0.140498548746, Q4 : 0.39505726099}
2019-04-14 11:59:46.31: SIM {TimeUS : 62734063, Roll : 0.16, Pitch : -17.75, Yaw : 47.08, Alt : 49.3199996948, Lat : 49.2837449, Lng : -123.1147301, Q1 : 0.90569537878, Q2 : 0.0629626065493, Q3 : -0.140876203775, Q4 : 0.394848674536}
2019-04-14 11:59:46.41: SIM {TimeUS : 62834023, Roll : 0.15, Pitch : -17.79, Yaw : 47.06, Alt : 49.3199996948, Lat : 49.2837478, Lng : -123.1147254, Q1 : 0.905715405941, Q2 : 0.0629948601127, Q3 : -0.141250789165, Q4 : 0.394663840532}
2019-04-14 11:59:46.51: SIM {TimeUS : 62934816, Roll : 0.17, Pitch : -17.82, Yaw : 47.05, Alt : 49.3199996948, Lat : 49.2837506, Lng : -123.1147206, Q1 : 0.905725717545, Q2 : 0.0631935968995, Q3 : -0.141420379281, Q4 : 0.394547581673}
2019-04-14 11:59:46.61: SIM {TimeUS : 63034776, Roll : 0.19, Pitch : -17.82, Yaw : 47.03, Alt : 49.3300018311, Lat : 49.2837534, Lng : -123.1147158, Q1 : 0.905755281448, Q2 : 0.0633819624782, Q3 : -0.141345366836, Q4 : 0.394476413727}
2019-04-14 11:59:46.71: SIM {TimeUS : 63134736, Roll : 0.2, Pitch : -17.79, Yaw : 47.02, Alt : 49.3300018311, Lat : 49.2837563, Lng : -123.114711, Q1 : 0.905808031559, Q2 : 0.0633757337928, Q3 : -0.141133263707, Q4 : 0.394432157278}
2019-04-14 11:59:46.81: SIM {TimeUS : 63234696, Roll : 0.19, Pitch : -17.77, Yaw : 47.02, Alt : 49.3300018311, Lat : 49.2837592, Lng : -123.1147062, Q1 : 0.905854105949, Q2 : 0.0632182583213, Q3 : -0.141015544534, Q4 : 0.394393771887}
2019-04-14 11:59:46.91: SIM {TimeUS : 63334656, Roll : 0.18, Pitch : -17.76, Yaw : 47.02, Alt : 49.3300018311, Lat : 49.2837619, Lng : -123.1147014, Q1 : 0.905887246132, Q2 : 0.0630354359746, Q3 : -0.140986144543, Q4 : 0.394357353449}
2019-04-14 11:59:47.01: SIM {TimeUS : 63434616, Roll : 0.17, Pitch : -17.75, Yaw : 47.01, Alt : 49.3300018311, Lat : 49.2837649, Lng : -123.1146965, Q1 : 0.90592110157, Q2 : 0.0629052147269, Q3 : -0.140933260322, Q4 : 0.394319295883}
2019-04-14 11:59:47.11: SIM {TimeUS : 63534576, Roll : 0.16, Pitch : -17.76, Yaw : 47.01, Alt : 49.3300018311, Lat : 49.2837678, Lng : -123.1146918, Q1 : 0.905933558941, Q2 : 0.0628614872694, Q3 : -0.141033127904, Q4 : 0.394261866808}
2019-04-14 11:59:47.21: SIM {TimeUS : 63634536, Roll : 0.15, Pitch : -17.78, Yaw : 47.0, Alt : 49.3300018311, Lat : 49.2837705, Lng : -123.114687, Q1 : 0.905933082104, Q2 : 0.0628937408328, Q3 : -0.141209244728, Q4 : 0.394194960594}
2019-04-14 11:59:47.31: SIM {TimeUS : 63734496, Roll : 0.14, Pitch : -17.82, Yaw : 46.99, Alt : 49.3300018311, Lat : 49.2837734, Lng : -123.1146822, Q1 : 0.905917882919, Q2 : 0.0629321783781, Q3 : -0.141573056579, Q4 : 0.394093155861}
2019-04-14 11:59:47.41: SIM {TimeUS : 63834456, Roll : 0.14, Pitch : -17.87, Yaw : 46.98, Alt : 49.3300018311, Lat : 49.2837764, Lng : -123.1146774, Q1 : 0.905890345573, Q2 : 0.0630614608526, Q3 : -0.142009630799, Q4 : 0.393978655338}
2019-04-14 11:59:47.51: SIM {TimeUS : 63934416, Roll : 0.15, Pitch : -17.91, Yaw : 46.97, Alt : 49.3300018311, Lat : 49.2837792, Lng : -123.1146725, Q1 : 0.905875146389, Q2 : 0.0632696226239, Q3 : -0.142314091325, Q4 : 0.393870323896}
2019-04-14 11:59:47.61: SIM {TimeUS : 64034376, Roll : 0.14, Pitch : -17.95, Yaw : 46.96, Alt : 49.3300018311, Lat : 49.283782, Lng : -123.1146677, Q1 : 0.905882179737, Q2 : 0.0633390545845, Q3 : -0.142597153783, Q4 : 0.393740653992}
2019-04-14 11:59:47.71: SIM {TimeUS : 64134336, Roll : 0.14, Pitch : -17.97, Yaw : 46.94, Alt : 49.3300018311, Lat : 49.2837849, Lng : -123.1146629, Q1 : 0.905912458897, Q2 : 0.0633356124163, Q3 : -0.14276380837, Q4 : 0.393611133099}
2019-04-14 11:59:47.81: SIM {TimeUS : 64234296, Roll : 0.15, Pitch : -17.96, Yaw : 46.93, Alt : 49.3300018311, Lat : 49.2837879, Lng : -123.114658, Q1 : 0.905966460705, Q2 : 0.0634001716971, Q3 : -0.142659246922, Q4 : 0.393514364958}
2019-04-14 11:59:47.91: SIM {TimeUS : 64334256, Roll : 0.18, Pitch : -17.96, Yaw : 46.91, Alt : 49.3300018311, Lat : 49.2837908, Lng : -123.1146532, Q1 : 0.90600758791, Q2 : 0.0635754391551, Q3 : -0.142609611154, Q4 : 0.393409341574}
2019-04-14 11:59:48.01: SIM {TimeUS : 64434216, Roll : 0.18, Pitch : -17.97, Yaw : 46.89, Alt : 49.3300018311, Lat : 49.2837936, Lng : -123.1146483, Q1 : 0.906044483185, Q2 : 0.0636654496193, Q3 : -0.142709061503, Q4 : 0.393273741007}
2019-04-14 11:59:48.11: SIM {TimeUS : 64534176, Roll : 0.19, Pitch : -17.98, Yaw : 46.88, Alt : 49.3400001526, Lat : 49.2837965, Lng : -123.1146434, Q1 : 0.906089007854, Q2 : 0.0637335479259, Q3 : -0.142751172185, Q4 : 0.393144875765}
2019-04-14 11:59:48.21: SIM {TimeUS : 64634136, Roll : 0.2, Pitch : -17.97, Yaw : 46.86, Alt : 49.3400001526, Lat : 49.2837995, Lng : -123.1146386, Q1 : 0.906147122383, Q2 : 0.063756339252, Q3 : -0.142668902874, Q4 : 0.393037110567}
2019-04-14 11:59:48.31: SIM {TimeUS : 64734096, Roll : 0.21, Pitch : -17.97, Yaw : 46.85, Alt : 49.3400001526, Lat : 49.2838024, Lng : -123.1146337, Q1 : 0.906198441982, Q2 : 0.0637635216117, Q3 : -0.142598316073, Q4 : 0.392943233252}
2019-04-14 11:59:48.41: SIM {TimeUS : 64834056, Roll : 0.19, Pitch : -17.98, Yaw : 46.84, Alt : 49.3400001526, Lat : 49.2838053, Lng : -123.1146288, Q1 : 0.90622317791, Q2 : 0.0637077689171, Q3 : -0.142782524228, Q4 : 0.392828345299}
2019-04-14 11:59:48.52: SIM {TimeUS : 64934849, Roll : 0.17, Pitch : -18.02, Yaw : 46.83, Alt : 49.3400001526, Lat : 49.2838082, Lng : -123.1146239, Q1 : 0.906221628189, Q2 : 0.0636351332068, Q3 : -0.143154665828, Q4 : 0.392708092928}
2019-04-14 11:59:48.61: SIM {TimeUS : 65034809, Roll : 0.15, Pitch : -18.02, Yaw : 46.82, Alt : 49.3400001526, Lat : 49.2838111, Lng : -123.114619, Q1 : 0.906247913837, Q2 : 0.0635031759739, Q3 : -0.143252298236, Q4 : 0.392633229494}
2019-04-14 11:59:48.71: SIM {TimeUS : 65134769, Roll : 0.16, Pitch : -18.01, Yaw : 46.81, Alt : 49.3400001526, Lat : 49.2838141, Lng : -123.1146141, Q1 : 0.906283020973, Q2 : 0.0635018646717, Q3 : -0.143110096455, Q4 : 0.392604321241}
2019-04-14 11:59:48.81: SIM {TimeUS : 65234729, Roll : 0.17, Pitch : -18.0, Yaw : 46.81, Alt : 49.3400001526, Lat : 49.283817, Lng : -123.1146092, Q1 : 0.906310319901, Q2 : 0.0635696724057, Q3 : -0.142959535122, Q4 : 0.39258518815}
2019-04-14 11:59:48.91: SIM {TimeUS : 65334689, Roll : 0.18, Pitch : -18.01, Yaw : 46.8, Alt : 49.3400001526, Lat : 49.28382, Lng : -123.1146043, Q1 : 0.9063180089, Q2 : 0.0636238306761, Q3 : -0.143037557602, Q4 : 0.392530113459}
2019-04-14 11:59:49.01: SIM {TimeUS : 65434649, Roll : 0.17, Pitch : -18.03, Yaw : 46.79, Alt : 49.3400001526, Lat : 49.2838228, Lng : -123.1145994, Q1 : 0.906318306923, Q2 : 0.0636142119765, Q3 : -0.143261909485, Q4 : 0.392449110746}
2019-04-14 11:59:49.11: SIM {TimeUS : 65534609, Roll : 0.15, Pitch : -18.06, Yaw : 46.79, Alt : 49.3400001526, Lat : 49.2838257, Lng : -123.1145945, Q1 : 0.906321644783, Q2 : 0.0635208934546, Q3 : -0.143557459116, Q4 : 0.392348706722}
2019-04-14 11:59:49.21: SIM {TimeUS : 65634569, Roll : 0.13, Pitch : -18.08, Yaw : 46.78, Alt : 49.3400001526, Lat : 49.2838287, Lng : -123.1145895, Q1 : 0.906330525875, Q2 : 0.0635020360351, Q3 : -0.14376911521, Q4 : 0.392253696918}
2019-04-14 11:59:49.31: SIM {TimeUS : 65734529, Roll : 0.14, Pitch : -18.1, Yaw : 46.77, Alt : 49.3400001526, Lat : 49.2838317, Lng : -123.1145847, Q1 : 0.906334996223, Q2 : 0.0636139735579, Q3 : -0.143917500973, Q4 : 0.392170786858}
2019-04-14 11:59:49.41: SIM {TimeUS : 65834489, Roll : 0.15, Pitch : -18.12, Yaw : 46.76, Alt : 49.3400001526, Lat : 49.2838347, Lng : -123.1145798, Q1 : 0.906345129013, Q2 : 0.0637376829982, Q3 : -0.144000589848, Q4 : 0.392096817493}
