2019-04-14 11:28:46.30: SIM {TimeUS : 40316367, Roll : 0.0, Pitch : 0.0, Yaw : 0.0, Alt : 30.1000003815, Lat : 49.28357, Lng : -123.11502, Q1 : 1.0, Q2 : 0.0, Q3 : 0.0, Q4 : 0.0}
2019-04-14 11:28:46.41: SIM {TimeUS : 40435486, Roll : 0.0, Pitch : 0.0, Yaw : 0.0, Alt : 30.1000003815, Lat : 49.28357, Lng : -123.11502, Q1 : 1.0, Q2 : 0.0, Q3 : 0.0, Q4 : 0.0}
2019-04-14 11:28:46.51: SIM {TimeUS : 40535446, Roll : 0.0, Pitch : 0.0, Yaw : 0.0, Alt : 30.1000003815, Lat : 49.28357, Lng : -123.11502, Q1 : 1.0, Q2 : 0.0, Q3 : 0.0, Q4 : 0.0}
2019-04-14 11:28:46.61: SIM {TimeUS : 40635406, Roll : 0.0, Pitch : 0.0, Yaw : 0.0, Alt : 30.1000003815, Lat : 49.28357, Lng : -123.11502, Q1 : 1.0, Q2 : 0.0, Q3 : 0.0, Q4 : 0.0}
2019-04-14 11:28:46.71: SIM {TimeUS : 40735366, Roll : 0.0, Pitch : 0.0, Yaw : 0.0, Alt : 30.1000003815, Lat : 49.28357, Lng : -123.11502, Q1 : 1.0, Q2 : 0.0, Q3 : 0.0, Q4 : 0.0}
2019-04-14 11:28:46.81: SIM {TimeUS : 40835326, Roll : 0.0, Pitch : 0.0, Yaw : 0.0, Alt : 30.1000003815, Lat : 49.28357, Lng : -123.11502, Q1 : 1.0, Q2 : 0.0, Q3 : 0.0, Q4 : 0.0}
2019-04-14 11:28:46.91: SIM {TimeUS : 40935286, Roll : 0.0, Pitch : 0.0, Yaw : 0.0, Alt : 30.1000003815, Lat : 49.28357, Lng : -123.11502, Q1 : 1.0, Q2 : 0.0, Q3 : 0.0, Q4 : 0.0}
2019-04-14 11:28:47.01: SIM {TimeUS : 41035246, Roll : 0.0, Pitch : 0.0, Yaw : 0.0, Alt : 30.1000003815, Lat : 49.28357, Lng : -123.11502, Q1 : 1.0, Q2 : 0.0, Q3 : 0.0, Q4 : 0.0}
2019-04-14 11:28:47.11: SIM {TimeUS : 41135206, Roll : 0.0, Pitch : 0.0, Yaw : 0.0, Alt : 30.1000003815, Lat : 49.28357, Lng : -123.11502, Q1 : 1.0, Q2 : 0.0, Q3 : 0.0, Q4 : 0.0}
2019-04-14 11:28:47.21: SIM {TimeUS : 41235166, Roll : 0.0, Pitch : 0.0, Yaw : 0.0, Alt : 30.1000003815, Lat : 49.28357, Lng : -123.11502, Q1 : 1.0, Q2 : 0.0, Q3 : 0.0, Q4 : 0.0}
2019-04-14 11:28:47.31: SIM {TimeUS : 41335126, Roll : 0.0, Pitch : 0.0, Yaw : 0.0, Alt : 30.1000003815, Lat : 49.28357, Lng : -123.11502, Q1 : 1.0, Q2 : 0.0, Q3 : 0.0, Q4 : 0.0}
2019-04-14 11:28:47.41: SIM {TimeUS : 41435086, Roll : 0.0, Pitch : 0.0, Yaw : 0.0, Alt : 30.1000003815, Lat : 49.28357, Lng : -123.11502, Q1 : 1.0, Q2 : 0.0, Q3 : 0.0, Q4 : 0.0}
2019-04-14 11:28:47.51: SIM {TimeUS : 41535046, Roll : 0.0, Pitch : 0.0, Yaw : 0.0, Alt : 30.1000003815, Lat : 49.28357, Lng : -123.11502, Q1 : 1.0, Q2 : 0.0, Q3 : 0.0, Q4 : 0.0}
2019-04-14 11:28:47.61: SIM {TimeUS : 41635006, Roll : 0.0, Pitch : 0.0, Yaw : 0.0, Alt : 30.1000003815, Lat : 49.28357, Lng : -123.11502, Q1 : 1.0, Q2 : 0.0, Q3 : 0.0, Q4 : 0.0}
2019-04-14 11:28:47.71: SIM {TimeUS : 41734966, Roll : 0.0, Pitch : 0.0, Yaw : 0.0, Alt : 30.1000003815, Lat : 49.28357, Lng : -123.11502, Q1 : 1.0, Q2 : 0.0, Q3 : 0.0, Q4 : 0.0}
2019-04-14 11:28:47.81: SIM {TimeUS : 41834926, Roll : 0.0, Pitch : 0.0, Yaw : 0.0, Alt : 30.1000003815, Lat : 49.28357, Lng : -123.11502, Q1 : 1.0, Q2 : 0.0, Q3 : 0.0, Q4 : 0.0}
2019-04-14 11:28:47.91: SIM {TimeUS : 41934886, Roll : 0.0, Pitch : 0.0, Yaw : 0.0, Alt : 30.1000003815, Lat : 49.28357, Lng : -123.11502, Q1 : 1.0, Q2 : 0.0, Q3 : 0.0, Q4 : 0.0}
2019-04-14 11:28:48.01: SIM {TimeUS : 42034846, Roll : 0.0, Pitch : 0.0, Yaw : 0.0, Alt : 30.1000003815, Lat : 49.28357, Lng : -123.11502, Q1 : 1.0, Q2 : 0.0, Q3 : 0.0, Q4 : 0.0}
2019-04-14 11:28:48.11: SIM {TimeUS : 42134806, Roll : 0.0, Pitch : 0.0, Yaw : 0.0, Alt : 30.1000003815, Lat : 49.28357, Lng : -123.11502, Q1 : 1.0, Q2 : 0.0, Q3 : 0.0, Q4 : 0.0}
2019-04-14 11:28:48.21: SIM {TimeUS : 42234766, Roll : 0.0, Pitch : 0.0, Yaw : 0.0, Alt : 30.1000003815, Lat : 49.28357, Lng : -123.11502, Q1 : 1.0, Q2 : 0.0, Q3 : 0.0, Q4 : 0.0}
2019-04-14 11:28:48.31: SIM {TimeUS : 42334726, Roll : 0.0, Pitch : 0.0, Yaw : 0.0, Alt : 30.1000003815, Lat : 49.28357, Lng : -123.11502, Q1 : 1.0, Q2 : 0.0, Q3 : 0.0, Q4 : 0.0}
2019-04-14 11:28:48.42: SIM {TimeUS : 42435519, Roll : 0.0, Pitch : 0.0, Yaw : 0.0, Alt : 30.1000003815, Lat : 49.28357, Lng : -123.11502, Q1 : 1.0, Q2 : 0.0, Q3 : 0.0, Q4 : 0.0}
2019-04-14 11:28:48.51: SIM {TimeUS : 42535479, Roll : 0.0, Pitch : 0.0, Yaw : 0.0, Alt : 30.1000003815, Lat : 49.28357, Lng : -123.11502, Q1 : 1.0, Q2 : 0.0, Q3 : 0.0, Q4 : 0.0}
2019-04-14 11:28:48.61: SIM {TimeUS : 42635439, Roll : 0.0, Pitch : 0.0, Yaw : 360.0, Alt : 30.1000003815, Lat : 49.28357, Lng : -123.11502, Q1 : 1.0, Q2 : 0.0, Q3 : 0.0, Q4 : -7.26646824309e-12}
2019-04-14 11:28:48.71: SIM {TimeUS : 42735399, Roll : 0.0, Pitch : 0.0, Yaw : 0.0, Alt : 30.1000003815, Lat : 49.28357, Lng : -123.11502, Q1 : 1.0, Q2 : 0.0, Q3 : 0.0, Q4 : 2.12949782807e-10}
2019-04-14 11:28:48.81: SIM {TimeUS : 42835359, Roll : 0.0, Pitch : 0.0, Yaw : 360.0, Alt : 30.1000003815, Lat : 49.28357, Lng : -123.11502, Q1 : 1.0, Q2 : 0.0, Q3 : 0.0, Q4 : -1.12301528077e-07}
2019-04-14 11:28:48.91: SIM {TimeUS : 42935319, Roll : 0.0, Pitch : 0.0, Yaw : 359.99, Alt : 30.1000003815, Lat : 49.28357, Lng : -123.11502, Q1 : 1.0, Q2 : 0.0, Q3 : 0.0, Q4 : -2.66326679821e-07}
2019-04-14 11:28:49.01: SIM {TimeUS : 43035279, Roll : 0.0, Pitch : 0.0, Yaw : 359.99, Alt : 30.1000003815, Lat : 49.28357, Lng : -123.11502, Q1 : 1.0, Q2 : 0.0, Q3 : 0.0, Q4 : -4.62444518234e-07}
2019-04-14 11:28:49.11: SIM {TimeUS : 43135239, Roll : 0.0, Pitch : 0.0, Yaw : 359.99, Alt : 30.1000003815, Lat : 49.28357, Lng : -123.11502, Q1 : 1.0, Q2 : 0.0, Q3 : 0.0, Q4 : -6.63711034576e-07}
2019-04-14 11:28:49.21: SIM {TimeUS : 43235199, Roll : 0.0, Pitch : 0.0, Yaw : 359.99, Alt : 30.1000003815, Lat : 49.28357, Lng : -123.11502, Q1 : 1.0, Q2 : 0.0, Q3 : 0.0, Q4 : -8.16383078472e-07}
2019-04-14 11:28:49.31: SIM {TimeUS : 43335159, Roll : 0.0, Pitch : 0.0, Yaw : 359.99, Alt : 30.1000003815, Lat : 49.28357, Lng : -123.11502, Q1 : 1.0, Q2 : 0.0, Q3 : 0.0, Q4 : -9.84465373222e-07}
2019-04-14 11:28:49.41: SIM {TimeUS : 43435119, Roll : 0.0, Pitch : 0.0, Yaw : 359.99, Alt : 30.1000003815, Lat : 49.28357, Lng : -123.11502, Q1 : 1.0, Q2 : 0.0, Q3 : 0.0, Q4 : -1.16464218536e-06}
2019-04-14 11:28:49.51: SIM {TimeUS : 43535079, Roll : 0.0, Pitch : 0.0, Yaw : 359.99, Alt : 30.1100006104, Lat : 49.28357, Lng : -123.11502, Q1 : 1.0, Q2 : 0.0, Q3 : 0.0, Q4 : -1.37893414376e-06}
2019-04-14 11:28:49.61: SIM {TimeUS : 43635039, Roll : 0.0, Pitch : 0.0, Yaw : 359.99, Alt : 30.1299991608, Lat : 49.28357, Lng : -123.11502, Q1 : 1.0, Q2 : 0.0, Q3 : 0.0, Q4 : -1.6295845171e-06}
2019-04-14 11:28:49.71: SIM {TimeUS : 43734999, Roll : 0.0, Pitch : 0.0, Yaw : 359.99, Alt : 30.1499996185, Lat : 49.28357, Lng : -123.11502, Q1 : 1.0, Q2 : 0.0, Q3 : 0.0, Q4 : -1.87301941423e-06}
2019-04-14 11:28:49.81: SIM {TimeUS : 43834959, Roll : 0.0, Pitch : 0.0, Yaw : 359.99, Alt : 30.1900005341, Lat : 49.28357, Lng : -123.11502, Q1 : 1.0, Q2 : 0.0, Q3 : 0.0, Q4 : -2.08912365451e-06}
2019-04-14 11:28:49.91: SIM {TimeUS : 43934919, Roll : -0.03, Pitch : -0.03, Yaw : 359.99, Alt : 30.2299995422, Lat : 49.28357, Lng : -123.11502, Q1 : 0.999999940395, Q2 : -0.00032255917904, Q3 : -0.000286090013105, Q4 : -4.43118960902e-06}
2019-04-14 11:28:50.01: SIM {TimeUS : 44034879, Roll : -0.28, Pitch : -0.25, Yaw : 359.99, Alt : 30.3099994659, Lat : 49.28357, Lng : -123.11502, Q1 : 0.999994277954, Q2 : -0.00251340540126, Q3 : -0.00225874548778, Q4 : -2.87466573354e-05}
2019-04-14 11:28:50.11: SIM {TimeUS : 44134839, Roll : -0.59, Pitch : -0.54, Yaw : 359.99, Alt : 30.4400005341, Lat : 49.28357, Lng : -123.11502, Q1 : 0.999975204468, Q2 : -0.00521771702915, Q3 : -0.00472341757268, Q4 : -8.31321449368e-05}
2019-04-14 11:28:50.21: SIM {TimeUS : 44234799, Roll : -0.81, Pitch : -0.72, Yaw : 359.98, Alt : 30.6000003815, Lat : 49.28357, Lng : -123.11502, Q1 : 0.999954581261, Q2 : -0.00710397865623, Q3 : -0.00635072682053, Q4 : -0.000160413081176}
2019-04-14 11:28:50.31: SIM {TimeUS : 44334759, Roll : -0.86, Pitch : -0.76, Yaw : 359.97, Alt : 30.75, Lat : 49.28357, Lng : -123.11502, Q1 : 0.999949038029, Q2 : -0.00756206922233, Q3 : -0.00668180314824, Q4 : -0.000247972202487}
2019-04-14 11:28:50.41: SIM {TimeUS : 44434719, Roll : -0.75, Pitch : -0.68, Yaw : 359.96, Alt : 30.9099998474, Lat : 49.28357, Lng : -123.1150201, Q1 : 0.999960541725, Q2 : -0.00656243599951, Q3 : -0.00598342018202, Q4 : -0.000339701073244}
2019-04-14 11:28:50.52: SIM {TimeUS : 44535512, Roll : -0.54, Pitch : -0.51, Yaw : 359.95, Alt : 31.0599994659, Lat : 49.2835701, Lng : -123.1150202, Q1 : 0.999978661537, Q2 : -0.00473114429042, Q3 : -0.0044811652042, Q4 : -0.000421981414547}
2019-04-14 11:28:50.61: SIM {TimeUS : 44635472, Roll : -0.32, Pitch : -0.3, Yaw : 359.94, Alt : 31.2199993134, Lat : 49.2835701, Lng : -123.1150202, Q1 : 0.99999243021, Q2 : -0.00282893469557, Q3 : -0.00262339645997, Q4 : -0.000482984469272}
2019-04-14 11:28:50.71: SIM {TimeUS : 44735432, Roll : -0.13, Pitch : -0.11, Yaw : 359.93, Alt : 31.3899993896, Lat : 49.2835702, Lng : -123.1150203, Q1 : 0.999998629093, Q2 : -0.0011746622622, Q3 : -0.00102778547443, Q4 : -0.000527796160895}
2019-04-14 11:28:50.81: SIM {TimeUS : 44835392, Roll : 0.0, Pitch : 0.0, Yaw : 359.93, Alt : 31.5599994659, Lat : 49.2835702, Lng : -123.1150204, Q1 : 0.999999821186, Q2 : -1.57342528837e-05, Q3 : 4.06900380767e-06, Q4 : -0.000556337297894}
2019-04-14 11:28:50.91: SIM {TimeUS : 44935352, Roll : 0.06, Pitch : 0.05, Yaw : 359.93, Alt : 31.7299995422, Lat : 49.2835703, Lng : -123.1150205, Q1 : 0.999999582767, Q2 : 0.000582742039114, Q3 : 0.000448840844911, Q4 : -0.000571717508137}
2019-04-14 11:28:51.01: SIM {TimeUS : 45035312, Roll : 0.09, Pitch : 0.05, Yaw : 359.93, Alt : 31.9200000763, Lat : 49.2835703, Lng : -123.1150205, Q1 : 0.999999403954, Q2 : 0.000811239820905, Q3 : 0.000471493753139, Q4 : -0.000573991332203}
2019-04-14 11:28:51.11: SIM {TimeUS : 45135272, Roll : 0.09, Pitch : 0.03, Yaw : 359.93, Alt : 32.0999984741, Lat : 49.2835703, Lng : -123.1150206, Q1 : 0.999999403954, Q2 : 0.000864069384988, Q3 : 0.000330107082846, Q4 : -0.00056375854183}
2019-04-14 11:28:51.21: SIM {TimeUS : 45235232, Roll : 0.09, Pitch : 0.03, Yaw : 359.93, Alt : 32.2900009155, Lat : 49.2835703, Lng : -123.1150207, Q1 : 0.999999463558, Q2 : 0.000828719174024, Q3 : 0.00028712200583, Q4 : -0.000539621629287}
2019-04-14 11:28:51.31: SIM {TimeUS : 45335192, Roll : 0.08, Pitch : 0.05, Yaw : 359.94, Alt : 32.4799995422, Lat : 49.2835703, Lng : -123.1150207, Q1 : 0.999999523163, Q2 : 0.000749959261157, Q3 : 0.000485799217131, Q4 : -0.000496997847222}
2019-04-14 11:28:51.41: SIM {TimeUS : 45435152, Roll : 0.07, Pitch : 0.08, Yaw : 359.94, Alt : 32.6800003052, Lat : 49.2835703, Lng : -123.1150207, Q1 : 0.999999403954, Q2 : 0.000639178731944, Q3 : 0.000729863299057, Q4 : -0.000457968824776}
2019-04-14 11:28:51.51: SIM {TimeUS : 45535112, Roll : 0.09, Pitch : 0.13, Yaw : 359.95, Alt : 32.8800010681, Lat : 49.2835704, Lng : -123.1150208, Q1 : 0.999998927116, Q2 : 0.000801887770649, Q3 : 0.00115900894161, Q4 : -0.000433439825429}
2019-04-14 11:28:51.61: SIM {TimeUS : 45635072, Roll : 0.12, Pitch : 0.17, Yaw : 359.95, Alt : 33.0800018311, Lat : 49.2835704, Lng : -123.1150208, Q1 : 0.999998092651, Q2 : 0.00113486789633, Q3 : 0.00152795214672, Q4 : -0.000419484014856}
2019-04-14 11:28:51.71: SIM {TimeUS : 45735032, Roll : 0.15, Pitch : 0.19, Yaw : 359.95, Alt : 33.2799987793, Lat : 49.2835704, Lng : -123.1150208, Q1 : 0.999997437, Q2 : 0.00136857992038, Q3 : 0.00173459644429, Q4 : -0.000428445433499}
2019-04-14 11:28:51.81: SIM {TimeUS : 45834992, Roll : 0.16, Pitch : 0.21, Yaw : 359.94, Alt : 33.4900016785, Lat : 49.2835704, Lng : -123.1150208, Q1 : 0.999997079372, Q2 : 0.00145812018309, Q3 : 0.00186099240091, Q4 : -0.000442541204393}
2019-04-14 11:28:51.91: SIM {TimeUS : 45934952, Roll : 0.16, Pitch : 0.18, Yaw : 359.94, Alt : 33.6899986267, Lat : 49.2835704, Lng : -123.1150209, Q1 : 0.99999755621, Q2 : 0.00145537068602, Q3 : 0.0016127047129, Q4 : -0.000476682384033}
2019-04-14 11:28:52.01: SIM {TimeUS : 46034912, Roll : 0.15, Pitch : 0.14, Yaw : 359.94, Alt : 33.9000015259, Lat : 49.2835704, Lng : -123.1150209, Q1 : 0.999998211861, Q2 : 0.00136411178391, Q3 : 0.0012427183101, Q4 : -0.000512519443873}
2019-04-14 11:28:52.11: SIM {TimeUS : 46134872, Roll : 0.13, Pitch : 0.11, Yaw : 359.93, Alt : 34.1100006104, Lat : 49.2835704, Lng : -123.1150209, Q1 : 0.999998629093, Q2 : 0.00119774171617, Q3 : 0.000989124178886, Q4 : -0.000548695854377}
2019-04-14 11:28:52.21: SIM {TimeUS : 46234832, Roll : 0.12, Pitch : 0.09, Yaw : 359.93, Alt : 34.3199996948, Lat : 49.2835704, Lng : -123.1150209, Q1 : 0.999998927116, Q2 : 0.00108611315954, Q3 : 0.000822032627184, Q4 : -0.000579232699238}
2019-04-14 11:28:52.31: SIM {TimeUS : 46334792, Roll : 0.12, Pitch : 0.09, Yaw : 359.93, Alt : 34.5299987793, Lat : 49.2835706, Lng : -123.1150209, Q1 : 0.999998927116, Q2 : 0.00106589263305, Q3 : 0.000797177723143, Q4 : -0.000606278597843}
2019-04-14 11:28:52.41: SIM {TimeUS : 46434752, Roll : 0.11, Pitch : 0.07, Yaw : 359.92, Alt : 34.75, Lat : 49.2835706, Lng : -123.1150208, Q1 : 0.999999165535, Q2 : 0.000968588457908, Q3 : 0.000630571797956, Q4 : -0.000624267209787}
2019-04-14 11:28:52.51: SIM {TimeUS : 46534712, Roll : 0.09, Pitch : 0.05, Yaw : 359.92, Alt : 34.9599990845, Lat : 49.2835704, Lng : -123.1150208, Q1 : 0.999999403954, Q2 : 0.000787075259723, Q3 : 0.000449949089671, Q4 : -0.000636397860944}
2019-04-14 11:28:52.62: SIM {TimeUS : 46635505, Roll : 0.06, Pitch : 0.04, Yaw : 359.92, Alt : 35.1800003052, Lat : 49.2835704, Lng : -123.1150208, Q1 : 0.999999582767, Q2 : 0.0005726137897, Q3 : 0.000365226907888, Q4 : -0.000647828564979}
2019-04-14 11:28:52.71: SIM {TimeUS : 46735465, Roll : 0.03, Pitch : 0.03, Yaw : 359.92, Alt : 35.4000015259, Lat : 49.2835704, Lng : -123.1150208, Q1 : 0.999999642372, Q2 : 0.000337321049301, Q3 : 0.000342612271197, Q4 : -0.000657122058328}
2019-04-14 11:28:52.81: SIM {TimeUS : 46835425, Roll : 0.02, Pitch : 0.01, Yaw : 359.92, Alt : 35.6199989319, Lat : 49.2835704, Lng : -123.1150208, Q1 : 0.999999701977, Q2 : 0.000251047662459, Q3 : 0.000127233783132, Q4 : -0.000669240776915}
2019-04-14 11:28:52.91: SIM {TimeUS : 46935385, Roll : 0.02, Pitch : 0.0, Yaw : 359.92, Alt : 35.8400001526, Lat : 49.2835704, Lng : -123.1150208, Q1 : 0.999999761581, Q2 : 0.000203858784516, Q3 : 9.5783946108e-07, Q4 : -0.000688396336045}
2019-04-14 11:28:53.01: SIM {TimeUS : 47035345, Roll : 0.0, Pitch : 0.0, Yaw : 359.91, Alt : 36.0600013733, Lat : 49.2835704, Lng : -123.1150208, Q1 : 0.999999761581, Q2 : 4.64905715489e-05, Q3 : -8.7724547484e-06, Q4 : -0.000715656962711}
2019-04-14 11:28:53.11: SIM {TimeUS : 47135305, Roll : 0.0, Pitch : 0.0, Yaw : 359.91, Alt : 36.2799987793, Lat : 49.2835704, Lng : -123.1150207, Q1 : 0.999999701977, Q2 : 2.15574764297e-05, Q3 : 6.50950096315e-05, Q4 : -0.000740676186979}
2019-04-14 11:28:53.21: SIM {TimeUS : 47235265, Roll : 0.01, Pitch : 0.01, Yaw : 359.91, Alt : 36.5, Lat : 49.2835704, Lng : -123.1150207, Q1 : 0.999999701977, Q2 : 0.000106702340418, Q3 : 9.45577921811e-05, Q4 : -0.000769234145992}
2019-04-14 11:28:53.31: SIM {TimeUS : 47335225, Roll : 0.0, Pitch : 0.0, Yaw : 359.9, Alt : 36.7200012207, Lat : 49.2835704, Lng : -123.1150207, Q1 : 0.999999701977, Q2 : 2.45702576649e-05, Q3 : -6.26182009e-05, Q4 : -0.000799547182396}
2019-04-14 11:28:53.41: SIM {TimeUS : 47435185, Roll : -0.03, Pitch : -0.04, Yaw : 359.9, Alt : 36.9500007629, Lat : 49.2835704, Lng : -123.1150207, Q1 : 0.999999523163, Q2 : -0.000267760362476, Q3 : -0.000412688677898, Q4 : -0.000832769961562}
2019-04-14 11:28:53.51: SIM {TimeUS : 47535145, Roll : -0.07, Pitch : -0.08, Yaw : 359.9, Alt : 37.1699981689, Lat : 49.2835704, Lng : -123.1150207, Q1 : 0.999999165535, Q2 : -0.000626853958238, Q3 : -0.000704953738023, Q4 : -0.000867865979671}
2019-04-14 11:28:53.61: SIM {TimeUS : 47635105, Roll : -0.11, Pitch : -0.1, Yaw : 359.89, Alt : 37.3899993896, Lat : 49.2835704, Lng : -123.1150207, Q1 : 0.999998688698, Q2 : -0.000961456098594, Q3 : -0.000928293447942, Q4 : -0.000904579414055}
2019-04-14 11:28:53.71: SIM {TimeUS : 47735065, Roll : -0.12, Pitch : -0.11, Yaw : 359.89, Alt : 37.6199989319, Lat : 49.2835704, Lng : -123.1150207, Q1 : 0.999998450279, Q2 : -0.00109098711982, Q3 : -0.000982263241895, Q4 : -0.000940019148402}
2019-04-14 11:28:53.81: SIM {TimeUS : 47835025, Roll : -0.11, Pitch : -0.09, Yaw : 359.88, Alt : 37.8499984741, Lat : 49.2835704, Lng : -123.1150207, Q1 : 0.999998629093, Q2 : -0.00104734033812, Q3 : -0.000844407652039, Q4 : -0.000973312009592}
2019-04-14 11:28:53.91: SIM {TimeUS : 47934985, Roll : -0.09, Pitch : -0.06, Yaw : 359.88, Alt : 38.0699996948, Lat : 49.2835704, Lng : -123.1150206, Q1 : 0.999998986721, Q2 : -0.000858741346747, Q3 : -0.000526973686647, Q4 : -0.0010018554749}
2019-04-14 11:28:54.01: SIM {TimeUS : 48034945, Roll : -0.07, Pitch : -0.03, Yaw : 359.88, Alt : 38.2999992371, Lat : 49.2835704, Lng : -123.1150206, Q1 : 0.99999922514, Q2 : -0.000627343019005, Q3 : -0.000282685738057, Q4 : -0.0010278619593}
2019-04-14 11:28:54.11: SIM {TimeUS : 48134905, Roll : -0.06, Pitch : -0.02, Yaw : 359.87, Alt : 38.5299987793, Lat : 49.2835704, Lng : -123.1150206, Q1 : 0.99999922514, Q2 : -0.000563394452911, Q3 : -0.000246403942583, Q4 : -0.00105250917841}
2019-04-14 11:28:54.21: SIM {TimeUS : 48234865, Roll : -0.06, Pitch : -0.01, Yaw : 359.87, Alt : 38.7599983215, Lat : 49.2835704, Lng : -123.1150206, Q1 : 0.999999284744, Q2 : -0.000567696872167, Q3 : -0.000130602944409, Q4 : -0.00106585340109}
2019-04-14 11:28:54.31: SIM {TimeUS : 48334825, Roll : -0.08, Pitch : 0.0, Yaw : 359.87, Alt : 38.9900016785, Lat : 49.2835706, Lng : -123.1150206, Q1 : 0.999999165535, Q2 : -0.000724364072084, Q3 : 1.46804331962e-05, Q4 : -0.00107173831202}
2019-04-14 11:28:54.41: SIM {TimeUS : 48434785, Roll : -0.08, Pitch : 0.01, Yaw : 359.87, Alt : 39.2099990845, Lat : 49.2835706, Lng : -123.1150206, Q1 : 0.999999165535, Q2 : -0.000732109765522, Q3 : 0.000127170220367, Q4 : -0.00107117579319}
2019-04-14 11:28:54.51: SIM {TimeUS : 48534745, Roll : -0.06, Pitch : 0.03, Yaw : 359.87, Alt : 39.4399986267, Lat : 49.2835706, Lng : -123.1150207, Q1 : 0.99999922514, Q2 : -0.00056913663866, Q3 : 0.000335325108608, Q4 : -0.00107107544318}
2019-04-14 11:28:54.61: SIM {TimeUS : 48634705, Roll : -0.04, Pitch : 0.04, Yaw : 359.87, Alt : 39.6800003052, Lat : 49.2835706, Lng : -123.1150207, Q1 : 0.999999284744, Q2 : -0.000367776287021, Q3 : 0.000352743605617, Q4 : -0.00107175612357}
2019-04-14 11:28:54.72: SIM {TimeUS : 48735498, Roll : -0.01, Pitch : 0.03, Yaw : 359.87, Alt : 39.9099998474, Lat : 49.2835706, Lng : -123.1150207, Q1 : 0.999999344349, Q2 : -0.000132438348373, Q3 : 0.000320557883242, Q4 : -0.00107258581556}
2019-04-14 11:28:54.81: SIM {TimeUS : 48835458, Roll : 0.02, Pitch : 0.06, Yaw : 359.87, Alt : 40.1399993896, Lat : 49.2835706, Lng : -123.1150207, Q1 : 0.999999284744, Q2 : 0.000197742920136, Q3 : 0.000523880473338, Q4 : -0.00106647377834}
2019-04-14 11:28:54.91: SIM {TimeUS : 48935418, Roll : 0.06, Pitch : 0.1, Yaw : 359.87, Alt : 40.3699989319, Lat : 49.2835706, Lng : -123.1150207, Q1 : 0.999998867512, Q2 : 0.000577649276238, Q3 : 0.00087894249009, Q4 : -0.00106671988033}
2019-04-14 11:28:55.01: SIM {TimeUS : 49035378, Roll : 0.09, Pitch : 0.14, Yaw : 359.87, Alt : 40.5999984741, Lat : 49.2835706, Lng : -123.1150207, Q1 : 0.999998271465, Q2 : 0.00084993179189, Q3 : 0.00124163553119, Q4 : -0.00107606477104}
2019-04-14 11:28:55.11: SIM {TimeUS : 49135338, Roll : 0.09, Pitch : 0.17, Yaw : 359.87, Alt : 40.8300018311, Lat : 49.2835706, Lng : -123.1150207, Q1 : 0.999997913837, Q2 : 0.000800516048912, Q3 : 0.00155147549231, Q4 : -0.00108122371603}
2019-04-14 11:28:55.21: SIM {TimeUS : 49235298, Roll : 0.04, Pitch : 0.19, Yaw : 359.87, Alt : 41.0699996948, Lat : 49.2835706, Lng : -123.1150207, Q1 : 0.999997794628, Q2 : 0.000386859348509, Q3 : 0.00174409139436, Q4 : -0.00110478734132}
2019-04-14 11:28:55.31: SIM {TimeUS : 49335258, Roll : 0.0, Pitch : 0.2, Yaw : 359.87, Alt : 41.2999992371, Lat : 49.2835706, Lng : -123.1150207, Q1 : 0.999997794628, Q2 : -4.81054803458e-06, Q3 : 0.00177654169966, Q4 : -0.00112750206608}
2019-04-14 11:28:55.41: SIM {TimeUS : 49435218, Roll : -0.02, Pitch : 0.17, Yaw : 359.86, Alt : 41.5299987793, Lat : 49.2835706, Lng : -123.1150207, Q1 : 0.999998211861, Q2 : -0.000237478365307, Q3 : 0.00150413857773, Q4 : -0.00114727253094}
2019-04-14 11:28:55.51: SIM {TimeUS : 49535178, Roll : -0.03, Pitch : 0.13, Yaw : 359.86, Alt : 41.7700004578, Lat : 49.2835706, Lng : -123.1150207, Q1 : 0.999998569489, Q2 : -0.000318031874485, Q3 : 0.00113909225911, Q4 : -0.00118174555246}
2019-04-14 11:28:55.61: SIM {TimeUS : 49635138, Roll : -0.02, Pitch : 0.12, Yaw : 359.85, Alt : 42.0, Lat : 49.2835706, Lng : -123.1150207, Q1 : 0.999998688698, Q2 : -0.000192715859157, Q3 : 0.0010526238475, Q4 : -0.00122433318757}
2019-04-14 11:28:55.71: SIM {TimeUS : 49735098, Roll : 0.01, Pitch : 0.13, Yaw : 359.85, Alt : 42.2299995422, Lat : 49.2835706, Lng : -123.1150207, Q1 : 0.999998509884, Q2 : 0.000163133663591, Q3 : 0.00114092812873, Q4 : -0.00127534242347}
2019-04-14 11:28:55.81: SIM {TimeUS : 49835058, Roll : 0.07, Pitch : 0.13, Yaw : 359.84, Alt : 42.4700012207, Lat : 49.2835706, Lng : -123.1150207, Q1 : 0.999998211861, Q2 : 0.00061503588222, Q3 : 0.00120592431631, Q4 : -0.00132719171233}
2019-04-14 11:28:55.91: SIM {TimeUS : 49935018, Roll : 0.1, Pitch : 0.12, Yaw : 359.84, Alt : 42.7000007629, Lat : 49.2835706, Lng : -123.1150207, Q1 : 0.999998033047, Q2 : 0.000935625983402, Q3 : 0.00106142566074, Q4 : -0.00138160993811}
2019-04-14 11:28:56.01: SIM {TimeUS : 50034978, Roll : 0.1, Pitch : 0.09, Yaw : 359.83, Alt : 42.9399986267, Lat : 49.2835706, Lng : -123.1150207, Q1 : 0.999998211861, Q2 : 0.000947917986196, Q3 : 0.000804890121799, Q4 : -0.00143060646951}
2019-04-14 11:28:56.11: SIM {TimeUS : 50134938, Roll : 0.06, Pitch : 0.07, Yaw : 359.83, Alt : 43.1699981689, Lat : 49.2835706, Lng : -123.1150207, Q1 : 0.999998569489, Q2 : 0.000587748363614, Q3 : 0.000632770941593, Q4 : -0.00146366958506}
2019-04-14 11:28:56.21: SIM {TimeUS : 50234898, Roll : 0.0, Pitch : 0.06, Yaw : 359.82, Alt : 43.4099998474, Lat : 49.2835704, Lng : -123.1150207, Q1 : 0.999998748302, Q2 : 8.32265504869e-05, Q3 : 0.00058110896498, Q4 : -0.00148841133341}
2019-04-14 11:28:56.31: SIM {TimeUS : 50334858, Roll : -0.03, Pitch : 0.08, Yaw : 359.82, Alt : 43.6399993896, Lat : 49.2835704, Lng : -123.1150207, Q1 : 0.999998569489, Q2 : -0.000275836326182, Q3 : 0.000698670453858, Q4 : -0.00151096505579}
2019-04-14 11:28:56.41: SIM {TimeUS : 50434818, Roll : -0.05, Pitch : 0.08, Yaw : 359.82, Alt : 43.8800010681, Lat : 49.2835704, Lng : -123.1150207, Q1 : 0.999998450279, Q2 : -0.000452094041975, Q3 : 0.000748633290641, Q4 : -0.00153035065159}
2019-04-14 11:28:56.51: SIM {TimeUS : 50534778, Roll : -0.04, Pitch : 0.07, Yaw : 359.82, Alt : 44.1100006104, Lat : 49.2835704, Lng : -123.1150207, Q1 : 0.999998509884, Q2 : -0.000426152051659, Q3 : 0.00064736418426, Q4 : -0.00154373084661}
2019-04-14 11:28:56.61: SIM {TimeUS : 50634738, Roll : -0.05, Pitch : 0.05, Yaw : 359.82, Alt : 44.3499984741, Lat : 49.2835704, Lng : -123.1150206, Q1 : 0.999998569489, Q2 : -0.000453395128716, Q3 : 0.000485214637592, Q4 : -0.0015568457311}
2019-04-14 11:28:56.71: SIM {TimeUS : 50734698, Roll : -0.04, Pitch : 0.03, Yaw : 359.81, Alt : 44.5900001526, Lat : 49.2835704, Lng : -123.1150206, Q1 : 0.999998629093, Q2 : -0.000396081712097, Q3 : 0.000337710313033, Q4 : -0.00157258112449}
2019-04-14 11:28:56.81: SIM {TimeUS : 50835491, Roll : -0.03, Pitch : 0.02, Yaw : 359.81, Alt : 44.8199996948, Lat : 49.2835704, Lng : -123.1150206, Q1 : 0.999998629093, Q2 : -0.000280031817965, Q3 : 0.000250064418651, Q4 : -0.00159468210768}
2019-04-14 11:28:56.91: SIM {TimeUS : 50935451, Roll : -0.02, Pitch : 0.02, Yaw : 359.81, Alt : 45.0600013733, Lat : 49.2835704, Lng : -123.1150206, Q1 : 0.999998629093, Q2 : -0.000249568140134, Q3 : 0.000211822189158, Q4 : -0.0016224271385}
2019-04-14 11:28:57.01: SIM {TimeUS : 51035411, Roll : -0.03, Pitch : 0.01, Yaw : 359.81, Alt : 45.2999992371, Lat : 49.2835703, Lng : -123.1150206, Q1 : 0.999998569489, Q2 : -0.000276002043393, Q3 : 0.000133260487928, Q4 : -0.00165249116253}
2019-04-14 11:28:57.11: SIM {TimeUS : 51135371, Roll : -0.03, Pitch : -0.01, Yaw : 359.8, Alt : 45.5299987793, Lat : 49.2835703, Lng : -123.1150206, Q1 : 0.999998509884, Q2 : -0.000316291028867, Q3 : -0.000111008055683, Q4 : -0.0016834033886}
2019-04-14 11:28:57.21: SIM {TimeUS : 51235331, Roll : -0.03, Pitch : -0.03, Yaw : 359.8, Alt : 45.7700004578, Lat : 49.2835703, Lng : -123.1150206, Q1 : 0.999998450279, Q2 : -0.000311746407533, Q3 : -0.000276977632893, Q4 : -0.00171360315289}
2019-04-14 11:28:57.31: SIM {TimeUS : 51335291, Roll : -0.02, Pitch : -0.04, Yaw : 359.8, Alt : 46.0, Lat : 49.2835703, Lng : -123.1150206, Q1 : 0.99999833107, Q2 : -0.000238460415858, Q3 : -0.000391851353925, Q4 : -0.00174375995994}
2019-04-14 11:28:57.41: SIM {TimeUS : 51435251, Roll : -0.02, Pitch : -0.05, Yaw : 359.79, Alt : 46.2299995422, Lat : 49.2835703, Lng : -123.1150206, Q1 : 0.999998271465, Q2 : -0.000260915112449, Q3 : -0.000437021924881, Q4 : -0.00177338940557}
2019-04-14 11:28:57.51: SIM {TimeUS : 51535211, Roll : -0.04, Pitch : -0.04, Yaw : 359.79, Alt : 46.4500007629, Lat : 49.2835703, Lng : -123.1150206, Q1 : 0.999998211861, Q2 : -0.00043509239913, Q3 : -0.000373692048015, Q4 : -0.00180114980321}
2019-04-14 11:28:57.61: SIM {TimeUS : 51635171, Roll : -0.08, Pitch : -0.03, Yaw : 359.79, Alt : 46.6699981689, Lat : 49.2835703, Lng : -123.1150206, Q1 : 0.999998033047, Q2 : -0.000739481998608, Q3 : -0.000337406905601, Q4 : -0.00182928692084}
2019-04-14 11:28:57.71: SIM {TimeUS : 51735131, Roll : -0.11, Pitch : -0.03, Yaw : 359.78, Alt : 46.8800010681, Lat : 49.2835703, Lng : -123.1150206, Q1 : 0.999997794628, Q2 : -0.00096451601712, Q3 : -0.000330173381371, Q4 : -0.00185613625217}
2019-04-14 11:28:57.81: SIM {TimeUS : 51835091, Roll : -0.11, Pitch : -0.02, Yaw : 359.78, Alt : 47.0900001526, Lat : 49.2835703, Lng : -123.1150206, Q1 : 0.999997675419, Q2 : -0.00101921730675, Q3 : -0.000234713792452, Q4 : -0.00188288872596}
2019-04-14 11:28:57.91: SIM {TimeUS : 51935051, Roll : -0.1, Pitch : 0.0, Yaw : 359.78, Alt : 47.2900009155, Lat : 49.2835703, Lng : -123.1150206, Q1 : 0.999997735023, Q2 : -0.000901873630937, Q3 : -3.4614080505e-05, Q4 : -0.00190788402688}
2019-04-14 11:28:58.01: SIM {TimeUS : 52035011, Roll : -0.07, Pitch : 0.0, Yaw : 359.77, Alt : 47.4799995422, Lat : 49.2835703, Lng : -123.1150206, Q1 : 0.999997913837, Q2 : -0.000682773650624, Q3 : 7.62887502788e-05, Q4 : -0.00193252100144}
2019-04-14 11:28:58.11: SIM {TimeUS : 52134971, Roll : -0.06, Pitch : 0.0, Yaw : 359.77, Alt : 47.6699981689, Lat : 49.2835703, Lng : -123.1150206, Q1 : 0.999997913837, Q2 : -0.000597253616434, Q3 : 1.53222790686e-05, Q4 : -0.00196070503443}
2019-04-14 11:28:58.21: SIM {TimeUS : 52234931, Roll : -0.07, Pitch : -0.02, Yaw : 359.77, Alt : 47.8400001526, Lat : 49.2835703, Lng : -123.1150206, Q1 : 0.999997794628, Q2 : -0.00065900478512, Q3 : -0.00018543805345, Q4 : -0.00198876229115}
2019-04-14 11:28:58.31: SIM {TimeUS : 52334891, Roll : -0.07, Pitch : -0.05, Yaw : 359.76, Alt : 48.0, Lat : 49.2835703, Lng : -123.1150206, Q1 : 0.999997675419, Q2 : -0.000616224773694, Q3 : -0.000435595662566, Q4 : -0.00201748358086}
2019-04-14 11:28:58.41: SIM {TimeUS : 52434851, Roll : -0.05, Pitch : -0.07, Yaw : 359.76, Alt : 48.1500015259, Lat : 49.2835703, Lng : -123.1150206, Q1 : 0.999997615814, Q2 : -0.000467352685519, Q3 : -0.000634971889667, Q4 : -0.00204414711334}
2019-04-14 11:28:58.51: SIM {TimeUS : 52534811, Roll : -0.04, Pitch : -0.09, Yaw : 359.76, Alt : 48.2799987793, Lat : 49.2835703, Lng : -123.1150206, Q1 : 0.999997437, Q2 : -0.000370882218704, Q3 : -0.00081816711463, Q4 : -0.00206374051049}
2019-04-14 11:28:58.61: SIM {TimeUS : 52634771, Roll : -0.04, Pitch : -0.1, Yaw : 359.76, Alt : 48.4099998474, Lat : 49.2835703, Lng : -123.1150206, Q1 : 0.999997317791, Q2 : -0.000354414485628, Q3 : -0.000947160820942, Q4 : -0.00207669194788}
2019-04-14 11:28:58.71: SIM {TimeUS : 52734731, Roll : -0.01, Pitch : -0.1, Yaw : 359.76, Alt : 48.5200004578, Lat : 49.2835703, Lng : -123.1150206, Q1 : 0.999997377396, Q2 : -0.000118425137771, Q3 : -0.00089276349172, Q4 : -0.0020922254771}
2019-04-14 11:28:58.82: SIM {TimeUS : 52835524, Roll : 0.02, Pitch : -0.07, Yaw : 359.75, Alt : 48.6199989319, Lat : 49.2835703, Lng : -123.1150206, Q1 : 0.999997496605, Q2 : 0.000200618276722, Q3 : -0.000692975590937, Q4 : -0.00211099651642}
2019-04-14 11:28:58.91: SIM {TimeUS : 52935484, Roll : 0.04, Pitch : -0.05, Yaw : 359.75, Alt : 48.7099990845, Lat : 49.2835703, Lng : -123.1150207, Q1 : 0.99999755621, Q2 : 0.000435037480202, Q3 : -0.000455527682789, Q4 : -0.00213382765651}
2019-04-14 11:28:59.01: SIM {TimeUS : 53035444, Roll : 0.05, Pitch : -0.02, Yaw : 359.75, Alt : 48.7799987793, Lat : 49.2835703, Lng : -123.1150207, Q1 : 0.999997496605, Q2 : 0.000518512853887, Q3 : -0.000259422988165, Q4 : -0.00215739454143}
2019-04-14 11:28:59.11: SIM {TimeUS : 53135404, Roll : 0.06, Pitch : -0.01, Yaw : 359.74, Alt : 48.8499984741, Lat : 49.2835703, Lng : -123.1150207, Q1 : 0.999997437, Q2 : 0.000575931102503, Q3 : -0.00017161789583, Q4 : -0.00218476471491}
2019-04-14 11:28:59.21: SIM {TimeUS : 53235364, Roll : 0.05, Pitch : -0.02, Yaw : 359.74, Alt : 48.9099998474, Lat : 49.2835703, Lng : -123.1150207, Q1 : 0.999997377396, Q2 : 0.000521350943018, Q3 : -0.000257468753261, Q4 : -0.00221640150994}
2019-04-14 11:28:59.31: SIM {TimeUS : 53335324, Roll : 0.03, Pitch : -0.04, Yaw : 359.74, Alt : 48.9599990845, Lat : 49.2835703, Lng : -123.1150207, Q1 : 0.999997377396, Q2 : 0.000305777037283, Q3 : -0.000356625649147, Q4 : -0.00225027580746}
2019-04-14 11:28:59.41: SIM {TimeUS : 53435284, Roll : 0.03, Pitch : -0.06, Yaw : 359.73, Alt : 49.0, Lat : 49.2835703, Lng : -123.1150207, Q1 : 0.999997198582, Q2 : 0.000326905690599, Q3 : -0.000554522965103, Q4 : -0.00228505791165}
2019-04-14 11:28:59.51: SIM {TimeUS : 53535244, Roll : 0.16, Pitch : -0.18, Yaw : 359.73, Alt : 49.0400009155, Lat : 49.2835703, Lng : -123.1150207, Q1 : 0.999995052814, Q2 : 0.00139277218841, Q3 : -0.00160428741947, Q4 : -0.00231728423387}
2019-04-14 11:28:59.61: SIM {TimeUS : 53635204, Roll : 0.48, Pitch : -0.46, Yaw : 359.73, Alt : 49.0699996948, Lat : 49.2835703, Lng : -123.1150207, Q1 : 0.999980270863, Q2 : 0.00418148236349, Q3 : -0.0040695136413, Q4 : -0.00233856774867}
2019-04-14 11:28:59.71: SIM {TimeUS : 53735164, Roll : 1.02, Pitch : -0.92, Yaw : 359.72, Alt : 49.0900001526, Lat : 49.2835703, Lng : -123.1150207, Q1 : 0.99992454052, Q2 : 0.0089623555541, Q3 : -0.00807267427444, Q4 : -0.00234388839453}
2019-04-14 11:28:59.81: SIM {TimeUS : 53835124, Roll : 1.74, Pitch : -1.53, Yaw : 359.7, Alt : 49.1199989319, Lat : 49.2835704, Lng : -123.1150207, Q1 : 0.999791622162, Q2 : 0.0151710510254, Q3 : -0.0134582128376, Q4 : -0.00233224523254}
2019-04-14 11:28:59.91: SIM {TimeUS : 53935084, Roll : 2.52, Pitch : -2.26, Yaw : 359.68, Alt : 49.1399993896, Lat : 49.2835704, Lng : -123.1150206, Q1 : 0.999560773373, Q2 : 0.0219447407871, Q3 : -0.0197826456279, Q4 : -0.0022884781938}
2019-04-14 11:29:00.01: SIM {TimeUS : 54035044, Roll : 3.24, Pitch : -2.95, Yaw : 359.66, Alt : 49.1500015259, Lat : 49.2835706, Lng : -123.1150205, Q1 : 0.999264478683, Q2 : 0.0282408501953, Q3 : -0.0258486438543, Q4 : -0.00218030624092}
2019-04-14 11:29:00.11: SIM {TimeUS : 54135004, Roll : 3.81, Pitch : -3.54, Yaw : 359.65, Alt : 49.1699981689, Lat : 49.2835707, Lng : -123.1150203, Q1 : 0.998966395855, Q2 : 0.0331951342523, Q3 : -0.0309877749532, Q4 : -0.00201074592769}
2019-04-14 11:29:00.21: SIM {TimeUS : 54234964, Roll : 4.23, Pitch : -3.98, Yaw : 359.64, Alt : 49.1800003052, Lat : 49.2835709, Lng : -123.11502, Q1 : 0.998711705208, Q2 : 0.0368592329323, Q3 : -0.0348305851221, Q4 : -0.00177351094317}
2019-04-14 11:29:00.31: SIM {TimeUS : 54334924, Roll : 4.55, Pitch : -4.28, Yaw : 359.65, Alt : 49.1899986267, Lat : 49.283571, Lng : -123.1150198, Q1 : 0.99851077795, Q2 : 0.0395941734314, Q3 : -0.0375013872981, Q4 : -0.00147780345287}
2019-04-14 11:29:00.41: SIM {TimeUS : 54434884, Roll : 4.8, Pitch : -4.53, Yaw : 359.67, Alt : 49.2000007629, Lat : 49.2835714, Lng : -123.1150194, Q1 : 0.99833959341, Q2 : 0.0418063700199, Q3 : -0.0396093055606, Q4 : -0.00116767315194}
2019-04-14 11:29:00.51: SIM {TimeUS : 54534844, Roll : 5.06, Pitch : -4.76, Yaw : 359.69, Alt : 49.2099990845, Lat : 49.2835716, Lng : -123.1150189, Q1 : 0.998164057732, Q2 : 0.0439985319972, Q3 : -0.0416163057089, Q4 : -0.000854542013258}
2019-04-14 11:29:00.61: SIM {TimeUS : 54634804, Roll : 5.33, Pitch : -5.0, Yaw : 359.7, Alt : 49.2200012207, Lat : 49.283572, Lng : -123.1150183, Q1 : 0.997964441776, Q2 : 0.0463989265263, Q3 : -0.0437473841012, Q4 : -0.000548767799046}
2019-04-14 11:29:00.71: SIM {TimeUS : 54734764, Roll : 5.6, Pitch : -5.26, Yaw : 359.71, Alt : 49.2200012207, Lat : 49.2835724, Lng : -123.1150175, Q1 : 0.997753918171, Q2 : 0.0486897267401, Q3 : -0.0460049398243, Q4 : -0.000273774145171}
2019-04-14 11:29:00.81: SIM {TimeUS : 54834724, Roll : 5.83, Pitch : -5.49, Yaw : 359.71, Alt : 49.2299995422, Lat : 49.2835728, Lng : -123.1150168, Q1 : 0.997558712959, Q2 : 0.0506966821849, Q3 : -0.048025354743, Q4 : -2.39428009081e-05}
2019-04-14 11:29:00.92: SIM {TimeUS : 54935517, Roll : 6.01, Pitch : -5.66, Yaw : 359.72, Alt : 49.2400016785, Lat : 49.2835733, Lng : -123.115016, Q1 : 0.997403264046, Q2 : 0.0523027889431, Q3 : -0.0495084524155, Q4 : 0.000192881489056}
2019-04-14 11:29:01.01: SIM {TimeUS : 55035477, Roll : 6.12, Pitch : -5.76, Yaw : 359.73, Alt : 49.2400016785, Lat : 49.2835739, Lng : -123.1150151, Q1 : 0.997309029102, Q2 : 0.0532766953111, Q3 : -0.050360314548, Q4 : 0.00036297753104}
2019-04-14 11:29:01.11: SIM {TimeUS : 55135437, Roll : 6.21, Pitch : -5.83, Yaw : 359.73, Alt : 49.25, Lat : 49.2835745, Lng : -123.1150139, Q1 : 0.99723803997, Q2 : 0.0540063902736, Q3 : -0.050985109061, Q4 : 0.000471988227218}
2019-04-14 11:29:01.21: SIM {TimeUS : 55235397, Roll : 6.29, Pitch : -5.91, Yaw : 359.73, Alt : 49.25, Lat : 49.2835752, Lng : -123.115013, Q1 : 0.997166156769, Q2 : 0.0546869039536, Q3 : -0.0516596212983, Q4 : 0.000529988610651}
2019-04-14 11:29:01.31: SIM {TimeUS : 55335357, Roll : 6.49, Pitch : -5.95, Yaw : 359.77, Alt : 49.25, Lat : 49.2835759, Lng : -123.1150118, Q1 : 0.997046649456, Q2 : 0.056504946202, Q3 : -0.0520011931658, Q4 : 0.00100203475449}
2019-04-14 11:29:01.41: SIM {TimeUS : 55435317, Roll : 6.96, Pitch : -5.87, Yaw : 0.24, Alt : 49.2599983215, Lat : 49.2835768, Lng : -123.1150105, Q1 : 0.996832370758, Q2 : 0.0607749596238, Q3 : -0.0510256849229, Q4 : 0.00528663955629}
2019-04-14 11:29:01.51: SIM {TimeUS : 55535277, Roll : 7.6, Pitch : -5.79, Yaw : 1.83, Alt : 49.2599983215, Lat : 49.2835776, Lng : -123.1150092, Q1 : 0.99634039402, Q2 : 0.0670561119914, Q3 : -0.0493692867458, Q4 : 0.0192874465138}
2019-04-14 11:29:01.61: SIM {TimeUS : 55635237, Roll : 8.12, Pitch : -6.02, Yaw : 4.97, Alt : 49.2599983215, Lat : 49.2835783, Lng : -123.1150078, Q1 : 0.995008230209, Q2 : 0.0729485601187, Q3 : -0.0493413619697, Q4 : 0.0469311662018}
2019-04-14 11:29:01.71: SIM {TimeUS : 55735197, Roll : 8.25, Pitch : -6.71, Yaw : 9.66, Alt : 49.2599983215, Lat : 49.2835793, Lng : -123.1150063, Q1 : 0.991792857647, Q2 : 0.0765333101153, Q3 : -0.0521921440959, Q4 : 0.0881221666932}
2019-04-14 11:29:01.81: SIM {TimeUS : 55835157, Roll : 7.8, Pitch : -7.81, Yaw : 15.72, Alt : 49.2599983215, Lat : 49.28358, Lng : -123.1150046, Q1 : 0.985370516777, Q2 : 0.0765636712313, Q3 : -0.0580750666559, Q4 : 0.140748843551}
2019-04-14 11:29:01.91: SIM {TimeUS : 55935117, Roll : 6.67, Pitch : -9.15, Yaw : 22.88, Alt : 49.2700004578, Lat : 49.283581, Lng : -123.1150029, Q1 : 0.974417865276, Q2 : 0.072718821466, Q3 : -0.0665768161416, Q4 : 0.2019636482}
2019-04-14 11:29:02.01: SIM {TimeUS : 56035077, Roll : 4.87, Pitch : -10.52, Yaw : 30.87, Alt : 49.2700004578, Lat : 49.2835819, Lng : -123.115001, Q1 : 0.957948446274, Q2 : 0.0651743933558, Q3 : -0.0770660191774, Q4 : 0.268603652716}
2019-04-14 11:29:02.11: SIM {TimeUS : 56135037, Roll : 2.24, Pitch : -11.71, Yaw : 39.23, Alt : 49.2700004578, Lat : 49.283583, Lng : -123.114999, Q1 : 0.936182618141, Q2 : 0.052618060261, Q3 : -0.0895278006792, Q4 : 0.335824757814}
2019-04-14 11:29:02.21: SIM {TimeUS : 56234997, Roll : -0.93, Pitch : -12.47, Yaw : 47.14, Alt : 49.2700004578, Lat : 49.283584, Lng : -123.1149969, Q1 : 0.91146081686, Q2 : 0.0360450558364, Q3 : -0.102835163474, Q4 : 0.396692484617}
2019-04-14 11:29:02.31: SIM {TimeUS : 56334957, Roll : -4.03, Pitch : -12.75, Yaw : 53.74, Alt : 49.2700004578, Lat : 49.283585, Lng : -123.1149948, Q1 : 0.887709856033, Q2 : 0.019007012248, Q3 : -0.114841662347, Q4 : 0.44544506073}
2019-04-14 11:29:02.41: SIM {TimeUS : 56434917, Roll : -6.4, Pitch : -12.69, Yaw : 58.47, Alt : 49.2700004578, Lat : 49.2835862, Lng : -123.1149926, Q1 : 0.868910849094, Q2 : 0.00544756790623, Q3 : -0.123477466404, Q4 : 0.479288607836}
2019-04-14 11:29:02.51: SIM {TimeUS : 56534877, Roll : -7.71, Pitch : -12.55, Yaw : 61.19, Alt : 49.2700004578, Lat : 49.2835876, Lng : -123.1149904, Q1 : 0.857421278954, Q2 : -0.00203255517408, Q3 : -0.127950802445, Q4 : 0.498450905085}
2019-04-14 11:29:02.61: SIM {TimeUS : 56634837, Roll : -7.95, Pitch : -12.53, Yaw : 62.08, Alt : 49.2700004578, Lat : 49.283589, Lng : -123.1149882, Q1 : 0.853508770466, Q2 : -0.00291251414455, Q3 : -0.128830716014, Q4 : 0.504893004894}
2019-04-14 11:29:02.71: SIM {TimeUS : 56734797, Roll : -7.3, Pitch : -12.75, Yaw : 61.49, Alt : 49.2700004578, Lat : 49.2835904, Lng : -123.1149859, Q1 : 0.855980038643, Q2 : 0.0022597850766, Q3 : -0.127656444907, Q4 : 0.500995993614}
2019-04-14 11:29:02.81: SIM {TimeUS : 56834757, Roll : -6.03, Pitch : -13.24, Yaw : 59.78, Alt : 49.2700004578, Lat : 49.2835921, Lng : -123.1149835, Q1 : 0.863033413887, Q2 : 0.0120031349361, Q3 : -0.125894993544, Q4 : 0.489060103893}
2019-04-14 11:29:02.91: SIM {TimeUS : 56934717, Roll : -4.4, Pitch : -13.88, Yaw : 57.26, Alt : 49.2799987793, Lat : 49.2835938, Lng : -123.1149812, Q1 : 0.872841000557, Q2 : 0.0243805646896, Q3 : -0.124321065843, Q4 : 0.471273243427}
2019-04-14 11:29:03.02: SIM {TimeUS : 57035510, Roll : -2.59, Pitch : -14.56, Yaw : 54.25, Alt : 49.2799987793, Lat : 49.2835956, Lng : -123.1149788, Q1 : 0.883889496326, Q2 : 0.0378494001925, Q3 : -0.123045369983, Q4 : 0.449629426003}
2019-04-14 11:29:03.11: SIM {TimeUS : 57135470, Roll : -0.79, Pitch : -15.14, Yaw : 51.1, Alt : 49.2799987793, Lat : 49.2835974, Lng : -123.1149763, Q1 : 0.894700884819, Q2 : 0.0506095327437, Q3 : -0.12184523046, Q4 : 0.426734924316}
2019-04-14 11:29:03.21: SIM {TimeUS : 57235430, Roll : 0.81, Pitch : -15.53, Yaw : 48.12, Alt : 49.2799987793, Lat : 49.2835993, Lng : -123.1149737, Q1 : 0.904325902462, Q2 : 0.0615169405937, Q3 : -0.120505727828, Q4 : 0.404831826687}
2019-04-14 11:29:03.31: SIM {TimeUS : 57335390, Roll : 2.11, Pitch : -15.71, Yaw : 45.6, Alt : 49.2799987793, Lat : 49.2836012, Lng : -123.1149709, Q1 : 0.912051975727, Q2 : 0.0698040351272, Q3 : -0.118947066367, Q4 : 0.386186748743}
2019-04-14 11:29:03.41: SIM {TimeUS : 57435350, Roll : 2.98, Pitch : -15.75, Yaw : 43.76, Alt : 49.2799987793, Lat : 49.2836031, Lng : -123.114968, Q1 : 0.917542457581, Q2 : 0.0750409811735, Q3 : -0.117547392845, Q4 : 0.372380703688}
2019-04-14 11:29:03.51: SIM {TimeUS : 57535310, Roll : 3.41, Pitch : -15.73, Yaw : 42.68, Alt : 49.2799987793, Lat : 49.2836049, Lng : -123.1149651, Q1 : 0.920751571655, Q2 : 0.0772815644741, Q3 : -0.116668492556, Q4 : 0.364187628031}
2019-04-14 11:29:03.61: SIM {TimeUS : 57635270, Roll : 3.4, Pitch : -15.7, Yaw : 42.36, Alt : 49.2799987793, Lat : 49.2836068, Lng : -123.1149619, Q1 : 0.921824991703, Q2 : 0.076777100563, Q3 : -0.116692431271, Q4 : 0.361561626196}
2019-04-14 11:29:03.71: SIM {TimeUS : 57735230, Roll : 3.02, Pitch : -15.71, Yaw : 42.69, Alt : 49.2799987793, Lat : 49.2836089, Lng : -123.1149587, Q1 : 0.921017944813, Q2 : 0.0741020143032, Q3 : -0.117773063481, Q4 : 0.363819092512}
2019-04-14 11:29:03.81: SIM {TimeUS : 57835190, Roll : 2.38, Pitch : -15.78, Yaw : 43.52, Alt : 49.2799987793, Lat : 49.2836109, Lng : -123.1149554, Q1 : 0.918662130833, Q2 : 0.0700733810663, Q3 : -0.119849212468, Q4 : 0.369845598936}
2019-04-14 11:29:03.91: SIM {TimeUS : 57935150, Roll : 1.6, Pitch : -15.92, Yaw : 44.69, Alt : 49.2799987793, Lat : 49.2836128, Lng : -123.114952, Q1 : 0.915173649788, Q2 : 0.0654533132911, Q3 : -0.122807279229, Q4 : 0.378274381161}
2019-04-14 11:29:04.01: SIM {TimeUS : 58035110, Roll : 0.76, Pitch : -16.08, Yaw : 45.99, Alt : 49.2799987793, Lat : 49.2836148, Lng : -123.1149485, Q1 : 0.911074876785, Q2 : 0.0607608184218, Q3 : -0.126164779067, Q4 : 0.387728303671}
2019-04-14 11:29:04.11: SIM {TimeUS : 58135070, Roll : -0.02, Pitch : -16.23, Yaw : 47.28, Alt : 49.2799987793, Lat : 49.283617, Lng : -123.114945, Q1 : 0.90690022707, Q2 : 0.0564249753952, Q3 : -0.12947177887, Q4 : 0.396970182657}
2019-04-14 11:29:04.21: SIM {TimeUS : 58235030, Roll : -0.69, Pitch : -16.33, Yaw : 48.4, Alt : 49.2799987793, Lat : 49.283619, Lng : -123.1149414, Q1 : 0.903164029121, Q2 : 0.0528075322509, Q3 : -0.132062092423, Q4 : 0.40505027771}
2019-04-14 11:29:04.31: SIM {TimeUS : 58334990, Roll : -1.15, Pitch : -16.38, Yaw : 49.27, Alt : 49.2900009155, Lat : 49.2836213, Lng : -123.1149377, Q1 : 0.900225818157, Q2 : 0.0503413714468, Q3 : -0.133681461215, Q4 : 0.411325275898}
2019-04-14 11:29:04.41: SIM {TimeUS : 58434950, Roll : -1.41, Pitch : -16.4, Yaw : 49.83, Alt : 49.2900009155, Lat : 49.2836235, Lng : -123.114934, Q1 : 0.898302853107, Q2 : 0.0489867702127, Q3 : -0.134509533644, Q4 : 0.415402710438}
2019-04-14 11:29:04.51: SIM {TimeUS : 58534910, Roll : -1.47, Pitch : -16.41, Yaw : 50.08, Alt : 49.2900009155, Lat : 49.2836256, Lng : -123.1149303, Q1 : 0.897432267666, Q2 : 0.04887746647, Q3 : -0.134698286653, Q4 : 0.417232245207}
2019-04-14 11:29:04.61: SIM {TimeUS : 58634870, Roll : -1.33, Pitch : -16.41, Yaw : 50.03, Alt : 49.2900009155, Lat : 49.283628, Lng : -123.1149265, Q1 : 0.897541344166, Q2 : 0.0498968176544, Q3 : -0.134249612689, Q4 : 0.417021453381}
2019-04-14 11:29:04.71: SIM {TimeUS : 58734830, Roll : -1.07, Pitch : -16.42, Yaw : 49.75, Alt : 49.2900009155, Lat : 49.2836303, Lng : -123.1149227, Q1 : 0.898440361023, Q2 : 0.0516424179077, Q3 : -0.133493244648, Q4 : 0.415111511946}
2019-04-14 11:29:04.81: SIM {TimeUS : 58834790, Roll : -0.76, Pitch : -16.46, Yaw : 49.3, Alt : 49.2900009155, Lat : 49.2836326, Lng : -123.1149189, Q1 : 0.899855732918, Q2 : 0.0537623912096, Q3 : -0.132887452841, Q4 : 0.411959022284}
2019-04-14 11:29:04.91: SIM {TimeUS : 58934750, Roll : -0.42, Pitch : -16.53, Yaw : 48.77, Alt : 49.2900009155, Lat : 49.2836349, Lng : -123.114915, Q1 : 0.901526927948, Q2 : 0.0560217984021, Q3 : -0.132498204708, Q4 : 0.408111482859}
2019-04-14 11:29:05.01: SIM {TimeUS : 59034710, Roll : -0.1, Pitch : -16.62, Yaw : 48.22, Alt : 49.2900009155, Lat : 49.2836372, Lng : -123.1149111, Q1 : 0.903219938278, Q2 : 0.0582176186144, Q3 : -0.132310330868, Q4 : 0.404101997614}
2019-04-14 11:29:05.12: SIM {TimeUS : 59135503, Roll : 0.17, Pitch : -16.68, Yaw : 47.71, Alt : 49.2900009155, Lat : 49.2836397, Lng : -123.1149071, Q1 : 0.904785037041, Q2 : 0.0600622035563, Q3 : -0.132126927376, Q4 : 0.400373607874}
2019-04-14 11:29:05.21: SIM {TimeUS : 59235463, Roll : 0.38, Pitch : -16.73, Yaw : 47.3, Alt : 49.2900009155, Lat : 49.2836421, Lng : -123.1149031, Q1 : 0.906052410603, Q2 : 0.061460763216, Q3 : -0.131963253021, Q4 : 0.397337764502}
2019-04-14 11:29:05.31: SIM {TimeUS : 59335423, Roll : 0.53, Pitch : -16.77, Yaw : 47.0, Alt : 49.2900009155, Lat : 49.2836445, Lng : -123.114899, Q1 : 0.906948208809, Q2 : 0.0623713992536, Q3 : -0.131909742951, Q4 : 0.395164102316}
2019-04-14 11:29:05.41: SIM {TimeUS : 59435383, Roll : 0.59, Pitch : -16.8, Yaw : 46.84, Alt : 49.2900009155, Lat : 49.283647, Lng : -123.1148949, Q1 : 0.907443523407, Q2 : 0.0628002285957, Q3 : -0.132000729442, Q4 : 0.393926620483}
2019-04-14 11:29:05.51: SIM {TimeUS : 59535343, Roll : 0.6, Pitch : -16.81, Yaw : 46.8, Alt : 49.2900009155, Lat : 49.2836494, Lng : -123.1148908, Q1 : 0.907565414906, Q2 : 0.062852434814, Q3 : -0.132143199444, Q4 : 0.393589615822}
2019-04-14 11:29:05.61: SIM {TimeUS : 59635303, Roll : 0.54, Pitch : -16.84, Yaw : 46.86, Alt : 49.2900009155, Lat : 49.2836519, Lng : -123.1148867, Q1 : 0.90736323595, Q2 : 0.0625290796161, Q3 : -0.132506102324, Q4 : 0.393985062838}
2019-04-14 11:29:05.71: SIM {TimeUS : 59735263, Roll : 0.43, Pitch : -16.86, Yaw : 46.99, Alt : 49.2900009155, Lat : 49.2836545, Lng : -123.1148825, Q1 : 0.906915843487, Q2 : 0.0619402565062, Q3 : -0.132993102074, Q4 : 0.394942969084}
2019-04-14 11:29:05.81: SIM {TimeUS : 59835223, Roll : 0.3, Pitch : -16.89, Yaw : 47.18, Alt : 49.2900009155, Lat : 49.283657, Lng : -123.1148782, Q1 : 0.906315267086, Q2 : 0.0611932836473, Q3 : -0.133587449789, Q4 : 0.396235316992}
2019-04-14 11:29:05.91: SIM {TimeUS : 59935183, Roll : 0.16, Pitch : -16.93, Yaw : 47.38, Alt : 49.2900009155, Lat : 49.2836595, Lng : -123.114874, Q1 : 0.905639350414, Q2 : 0.0604497678578, Q3 : -0.134288132191, Q4 : 0.397655546665}
2019-04-14 11:29:06.01: SIM {TimeUS : 60035143, Roll : 0.02, Pitch : -16.98, Yaw : 47.58, Alt : 49.2999992371, Lat : 49.2836621, Lng : -123.1148697, Q1 : 0.904985845089, Q2 : 0.0597482100129, Q3 : -0.13500751555, Q4 : 0.399003475904}
2019-04-14 11:29:06.11: SIM {TimeUS : 60135103, Roll : -0.1, Pitch : -17.01, Yaw : 47.74, Alt : 49.2999992371, Lat : 49.2836645, Lng : -123.1148654, Q1 : 0.904438197613, Q2 : 0.0590320974588, Q3 : -0.13569752872, Q4 : 0.400116175413}
2019-04-14 11:29:06.21: SIM {TimeUS : 60235063, Roll : -0.21, Pitch : -17.04, Yaw : 47.86, Alt : 49.2999992371, Lat : 49.2836671, Lng : -123.114861, Q1 : 0.90405023098, Q2 : 0.0583978258073, Q3 : -0.136212944984, Q4 : 0.400910139084}
2019-04-14 11:29:06.31: SIM {TimeUS : 60335023, Roll : -0.28, Pitch : -17.07, Yaw : 47.92, Alt : 49.2999992371, Lat : 49.2836698, Lng : -123.1148567, Q1 : 0.903818547726, Q2 : 0.0580228306353, Q3 : -0.136680200696, Q4 : 0.401327818632}
2019-04-14 11:29:06.41: SIM {TimeUS : 60434983, Roll : -0.3, Pitch : -17.11, Yaw : 47.94, Alt : 49.2999992371, Lat : 49.2836723, Lng : -123.1148523, Q1 : 0.903731584549, Q2 : 0.0580833554268, Q3 : -0.137052580714, Q4 : 0.401387840509}
2019-04-14 11:29:06.51: SIM {TimeUS : 60534943, Roll : -0.26, Pitch : -17.16, Yaw : 47.9, Alt : 49.2999992371, Lat : 49.2836749, Lng : -123.1148479, Q1 : 0.903785288334, Q2 : 0.0584743544459, Q3 : -0.137303724885, Q4 : 0.401124149561}
2019-04-14 11:29:06.61: SIM {TimeUS : 60634903, Roll : -0.18, Pitch : -17.2, Yaw : 47.83, Alt : 49.2999992371, Lat : 49.2836776, Lng : -123.1148435, Q1 : 0.903953969479, Q2 : 0.0591625459492, Q3 : -0.137390315533, Q4 : 0.400613188744}
2019-04-14 11:29:06.71: SIM {TimeUS : 60734863, Roll : -0.08, Pitch : -17.24, Yaw : 47.73, Alt : 49.2999992371, Lat : 49.2836802, Lng : -123.1148391, Q1 : 0.904202878475, Q2 : 0.0599930882454, Q3 : -0.13737308979, Q4 : 0.399933308363}
2019-04-14 11:29:06.81: SIM {TimeUS : 60834823, Roll : 0.01, Pitch : -17.26, Yaw : 47.62, Alt : 49.2999992371, Lat : 49.2836828, Lng : -123.1148346, Q1 : 0.90451079607, Q2 : 0.0607101358473, Q3 : -0.137294605374, Q4 : 0.399155020714}
2019-04-14 11:29:06.91: SIM {TimeUS : 60934783, Roll : 0.07, Pitch : -17.28, Yaw : 47.51, Alt : 49.3100013733, Lat : 49.2836855, Lng : -123.1148302, Q1 : 0.9048422575, Q2 : 0.0611450187862, Q3 : -0.137259677052, Q4 : 0.398348599672}
2019-04-14 11:29:07.01: SIM {TimeUS : 61034743, Roll : 0.1, Pitch : -17.28, Yaw : 47.4, Alt : 49.3100013733, Lat : 49.2836882, Lng : -123.1148257, Q1 : 0.905171096325, Q2 : 0.0612634494901, Q3 : -0.13726092875, Q4 : 0.397582143545}
2019-04-14 11:29:07.11: SIM {TimeUS : 61134703, Roll : 0.13, Pitch : -17.29, Yaw : 47.32, Alt : 49.3100013733, Lat : 49.2836908, Lng : -123.1148212, Q1 : 0.905438184738, Q2 : 0.0614362545311, Q3 : -0.137223049998, Q4 : 0.396959900856}
2019-04-14 11:29:07.22: SIM {TimeUS : 61235496, Roll : 0.17, Pitch : -17.3, Yaw : 47.26, Alt : 49.3100013733, Lat : 49.2836936, Lng : -123.1148166, Q1 : 0.90561747551, Q2 : 0.0616802759469, Q3 : -0.137259408832, Q4 : 0.396500200033}
2019-04-14 11:29:07.31: SIM {TimeUS : 61335456, Roll : 0.2, Pitch : -17.34, Yaw : 47.22, Alt : 49.3100013733, Lat : 49.2836962, Lng : -123.1148121, Q1 : 0.905686080456, Q2 : 0.0620456971228, Q3 : -0.137426704168, Q4 : 0.396228373051}
2019-04-14 11:29:07.41: SIM {TimeUS : 61435416, Roll : 0.23, Pitch : -17.39, Yaw : 47.2, Alt : 49.3100013733, Lat : 49.283699, Lng : -123.1148075, Q1 : 0.905663371086, Q2 : 0.0624090023339, Q3 : -0.137781918049, Q4 : 0.396099895239}
2019-04-14 11:29:07.51: SIM {TimeUS : 61535376, Roll : 0.22, Pitch : -17.43, Yaw : 47.21, Alt : 49.3100013733, Lat : 49.2837016, Lng : -123.114803, Q1 : 0.905616104603, Q2 : 0.0625035986304, Q3 : -0.138075083494, Q4 : 0.396090954542}
2019-04-14 11:29:07.61: SIM {TimeUS : 61635336, Roll : 0.2, Pitch : -17.43, Yaw : 47.22, Alt : 49.3100013733, Lat : 49.2837044, Lng : -123.1147984, Q1 : 0.905570089817, Q2 : 0.0623721107841, Q3 : -0.138172656298, Q4 : 0.396182864904}
2019-04-14 11:29:07.71: SIM {TimeUS : 61735296, Roll : 0.17, Pitch : -17.44, Yaw : 47.24, Alt : 49.3100013733, Lat : 49.2837071, Lng : -123.1147938, Q1 : 0.905502080917, Q2 : 0.0621601119637, Q3 : -0.138325542212, Q4 : 0.396318376064}
2019-04-14 11:29:07.81: SIM {TimeUS : 61835256, Roll : 0.12, Pitch : -17.46, Yaw : 47.27, Alt : 49.3100013733, Lat : 49.2837099, Lng : -123.1147892, Q1 : 0.905420660973, Q2 : 0.0618880130351, Q3 : -0.138629719615, Q4 : 0.396440565586}
2019-04-14 11:29:07.91: SIM {TimeUS : 61935216, Roll : 0.09, Pitch : -17.48, Yaw : 47.29, Alt : 49.3100013733, Lat : 49.2837126, Lng : -123.1147846, Q1 : 0.905344009399, Q2 : 0.0617223195732, Q3 : -0.138893216848, Q4 : 0.396549254656}
2019-04-14 11:29:08.01: SIM {TimeUS : 62035176, Roll : 0.06, Pitch : -17.5, Yaw : 47.3, Alt : 49.3100013733, Lat : 49.2837154, Lng : -123.1147798, Q1 : 0.905293703079, Q2 : 0.0615982040763, Q3 : -0.139145001769, Q4 : 0.396595060825}
2019-04-14 11:29:08.11: SIM {TimeUS : 62135136, Roll : 0.05, Pitch : -17.52, Yaw : 47.3, Alt : 49.3199996948, Lat : 49.283718, Lng : -123.1147753, Q1 : 0.905268788338, Q2 : 0.0615566857159, Q3 : -0.139364689589, Q4 : 0.396581321955}
2019-04-14 11:29:08.21: SIM {TimeUS : 62235096, Roll : 0.06, Pitch : -17.55, Yaw : 47.29, Alt : 49.3199996948, Lat : 49.2837209, Lng : -123.1147707, Q1 : 0.905258953571, Q2 : 0.0616909302771, Q3 : -0.139560729265, Q4 : 0.396513968706}
2019-04-14 11:29:08.31: SIM {TimeUS : 62335056, Roll : 0.08, Pitch : -17.56, Yaw : 47.28, Alt : 49.3199996948, Lat : 49.2837236, Lng : -123.114766, Q1 : 0.90528601408, Q2 : 0.0618727467954, Q3 : -0.139618739486, Q4 : 0.396403342485}
2019-04-14 11:29:08.41: SIM {TimeUS : 62435016, Roll : 0.1, Pitch : -17.58, Yaw : 47.26, Alt : 49.3199996948, Lat : 49.2837265, Lng : -123.1147613, Q1 : 0.905322015285, Q2 : 0.0621303506196, Q3 : -0.139667883515, Q4 : 0.396263480186}
2019-04-14 11:29:08.51: SIM {TimeUS : 62534976, Roll : 0.13, Pitch : -17.6, Yaw : 47.23, Alt : 49.3199996948, Lat : 49.2837291, Lng : -123.1147566, Q1 : 0.905366897583, Q2 : 0.0624139346182, Q3 : -0.139772117138, Q4 : 0.39607962966}
2019-04-14 11:29:08.61: SIM {TimeUS : 62634936, Roll : 0.15, Pitch : -17.64, Yaw : 47.2, Alt : 49.3199996948, Lat : 49.283732, Lng : -123.1147518, Q1 : 0.905416965485, Q2 : 0.0626094266772, Q3 : -0.140047445893, Q4 : 0.395836919546}
2019-04-14 11:29:08.71: SIM {TimeUS : 62734896, Roll : 0.15, Pitch : -17.68, Yaw : 47.17, Alt : 49.3199996948, Lat : 49.2837348, Lng : -123.1147472, Q1 : 0.905472576618, Q2 : 0.0627162531018, Q3 : -0.140386641026, Q4 : 0.395572572947}
2019-04-14 11:29:08.81: SIM {TimeUS : 62834856, Roll : 0.14, Pitch : -17.72, Yaw : 47.14, Alt : 49.3199996948, Lat : 49.2837375, Lng : -123.1147425, Q1 : 0.905534684658, Q2 : 0.0627432316542, Q3 : -0.140737384558, Q4 : 0.395301550627}
2019-04-14 11:29:08.91: SIM {TimeUS : 62934816, Roll : 0.15, Pitch : -17.75, Yaw : 47.11, Alt : 49.3199996948, Lat : 49.2837404, Lng : -123.1147378, Q1 : 0.905597567558, Q2 : 0.0628801286221, Q3 : -0.140910834074, Q4 : 0.395073771477}
2019-04-14 11:29:09.01: SIM {TimeUS : 63034776, Roll : 0.16, Pitch : -17.75, Yaw : 47.08, Alt : 49.3199996948, Lat : 49.2837433, Lng : -123.1147331, Q1 : 0.905673503876, Q2 : 0.0629886090755, Q3 : -0.140903562307, Q4 : 0.394884973764}
2019-04-14 11:29:09.11: SIM {TimeUS : 63134736, Roll : 0.18, Pitch : -17.74, Yaw : 47.06, Alt : 49.3199996948, Lat : 49.283746, Lng : -123.1147283, Q1 : 0.90575581789, Q2 : 0.0630498453975, Q3 : -0.14074704051, Q4 : 0.39474222064}
2019-04-14 11:29:09.21: SIM {TimeUS : 63234696, Roll : 0.18, Pitch : -17.72, Yaw : 47.05, Alt : 49.3199996948, Lat : 49.2837489, Lng : -123.1147236, Q1 : 0.905827701092, Q2 : 0.0629516467452, Q3 : -0.140642613173, Q4 : 0.394630104303}
2019-04-14 11:29:09.31: SIM {TimeUS : 63335489, Roll : 0.17, Pitch : -17.7, Yaw : 47.04, Alt : 49.3199996948, Lat : 49.2837518, Lng : -123.1147188, Q1 : 0.905892491341, Q2 : 0.0628152564168, Q3 : -0.140527501702, Q4 : 0.394544243813}
2019-04-14 11:29:09.41: SIM {TimeUS : 63435449, Roll : 0.17, Pitch : -17.69, Yaw : 47.03, Alt : 49.3199996948, Lat : 49.2837545, Lng : -123.114714, Q1 : 0.905935049057, Q2 : 0.0627233162522, Q3 : -0.140426307917, Q4 : 0.394497156143}
2019-04-14 11:29:09.51: SIM {TimeUS : 63535409, Roll : 0.16, Pitch : -17.7, Yaw : 47.03, Alt : 49.3199996948, Lat : 49.2837575, Lng : -123.1147092, Q1 : 0.905941069126, Q2 : 0.0626963376999, Q3 : -0.140539109707, Q4 : 0.394447356462}
2019-04-14 11:29:09.61: SIM {TimeUS : 63635369, Roll : 0.16, Pitch : -17.72, Yaw : 47.02, Alt : 49.3300018311, Lat : 49.2837603, Lng : -123.1147044, Q1 : 0.905929744244, Q2 : 0.0627403184772, Q3 : -0.140720009804, Q4 : 0.394401818514}
2019-04-14 11:29:09.71: SIM {TimeUS : 63735329, Roll : 0.14, Pitch : -17.77, Yaw : 47.02, Alt : 49.3300018311, Lat : 49.2837631, Lng : -123.1146996, Q1 : 0.905889034271, Q2 : 0.0627944767475, Q3 : -0.141166329384, Q4 : 0.394327223301}
2019-04-14 11:29:09.81: SIM {TimeUS : 63835289, Roll : 0.13, Pitch : -17.83, Yaw : 47.01, Alt : 49.3300018311, Lat : 49.283766, Lng : -123.1146948, Q1 : 0.905842840672, Q2 : 0.0629205480218, Q3 : -0.141633465886, Q4 : 0.394245743752}
2019-04-14 11:29:09.91: SIM {TimeUS : 63935249, Roll : 0.14, Pitch : -17.87, Yaw : 47.01, Alt : 49.3300018311, Lat : 49.2837689, Lng : -123.11469, Q1 : 0.905813515186, Q2 : 0.0631195306778, Q3 : -0.141930416226, Q4 : 0.394174546003}
2019-04-14 11:29:10.01: SIM {TimeUS : 64035209, Roll : 0.14, Pitch : -17.9, Yaw : 47.0, Alt : 49.3300018311, Lat : 49.2837717, Lng : -123.1146852, Q1 : 0.905804097652, Q2 : 0.0632313415408, Q3 : -0.142203062773, Q4 : 0.394080013037}
2019-04-14 11:29:10.11: SIM {TimeUS : 64135169, Roll : 0.14, Pitch : -17.92, Yaw : 46.98, Alt : 49.3300018311, Lat : 49.2837746, Lng : -123.1146804, Q1 : 0.90581792593, Q2 : 0.0632643401623, Q3 : -0.142376244068, Q4 : 0.393980354071}
2019-04-14 11:29:10.21: SIM {TimeUS : 64235129, Roll : 0.16, Pitch : -17.91, Yaw : 46.97, Alt : 49.3300018311, Lat : 49.2837775, Lng : -123.1146755, Q1 : 0.90586066246, Q2 : 0.0633407905698, Q3 : -0.142273843288, Q4 : 0.393906801939}
2019-04-14 11:29:10.31: SIM {TimeUS : 64335089, Roll : 0.18, Pitch : -17.92, Yaw : 46.96, Alt : 49.3300018311, Lat : 49.2837804, Lng : -123.1146707, Q1 : 0.90589183569, Q2 : 0.0635383948684, Q3 : -0.142238676548, Q4 : 0.393816053867}
2019-04-14 11:29:10.41: SIM {TimeUS : 64435049, Roll : 0.19, Pitch : -17.93, Yaw : 46.94, Alt : 49.3300018311, Lat : 49.2837832, Lng : -123.1146659, Q1 : 0.90592110157, Q2 : 0.0636523514986, Q3 : -0.142327934504, Q4 : 0.393698036671}
2019-04-14 11:29:10.51: SIM {TimeUS : 64535009, Roll : 0.2, Pitch : -17.94, Yaw : 46.93, Alt : 49.3300018311, Lat : 49.2837861, Lng : -123.114661, Q1 : 0.905956923962, Q2 : 0.063727915287, Q3 : -0.142387986183, Q4 : 0.393581598997}
2019-04-14 11:29:10.61: SIM {TimeUS : 64634969, Roll : 0.21, Pitch : -17.94, Yaw : 46.91, Alt : 49.3300018311, Lat : 49.2837891, Lng : -123.1146562, Q1 : 0.906011044979, Q2 : 0.0637401491404, Q3 : -0.142335221171, Q4 : 0.39347422123}
2019-04-14 11:29:10.71: SIM {TimeUS : 64734929, Roll : 0.21, Pitch : -17.93, Yaw : 46.9, Alt : 49.3300018311, Lat : 49.283792, Lng : -123.1146513, Q1 : 0.906066834927, Q2 : 0.0637098178267, Q3 : -0.142307698727, Q4 : 0.393360555172}
2019-04-14 11:29:10.81: SIM {TimeUS : 64834889, Roll : 0.19, Pitch : -17.95, Yaw : 46.88, Alt : 49.3300018311, Lat : 49.2837948, Lng : -123.1146465, Q1 : 0.906106352806, Q2 : 0.0635819733143, Q3 : -0.142501860857, Q4 : 0.393219769001}
2019-04-14 11:29:10.91: SIM {TimeUS : 64934849, Roll : 0.15, Pitch : -17.99, Yaw : 46.87, Alt : 49.3300018311, Lat : 49.2837977, Lng : -123.1146416, Q1 : 0.906121075153, Q2 : 0.063434459269, Q3 : -0.14290946722, Q4 : 0.39306178689}
2019-04-14 11:29:11.01: SIM {TimeUS : 65034809, Roll : 0.14, Pitch : -17.99, Yaw : 46.86, Alt : 49.3300018311, Lat : 49.2838007, Lng : -123.1146367, Q1 : 0.906157433987, Q2 : 0.0633198320866, Q3 : -0.143040820956, Q4 : 0.392948627472}
2019-04-14 11:29:11.11: SIM {TimeUS : 65134769, Roll : 0.15, Pitch : -17.98, Yaw : 46.85, Alt : 49.3300018311, Lat : 49.2838036, Lng : -123.1146318, Q1 : 0.90620470047, Q2 : 0.0633335933089, Q3 : -0.142910093069, Q4 : 0.392884969711}
2019-04-14 11:29:11.21: SIM {TimeUS : 65234729, Roll : 0.16, Pitch : -17.97, Yaw : 46.84, Alt : 49.3400001526, Lat : 49.2838065, Lng : -123.114627, Q1 : 0.906243145466, Q2 : 0.0634161159396, Q3 : -0.142777130008, Q4 : 0.392831355333}
2019-04-14 11:29:11.32: SIM {TimeUS : 65335522, Roll : 0.17, Pitch : -17.98, Yaw : 46.83, Alt : 49.3400001526, Lat : 49.2838093, Lng : -123.114622, Q1 : 0.906266689301, Q2 : 0.0635159611702, Q3 : -0.142797738314, Q4 : 0.392753362656}
2019-04-14 11:29:11.41: SIM {TimeUS : 65435482, Roll : 0.17, Pitch : -17.99, Yaw : 46.82, Alt : 49.3400001526, Lat : 49.2838123, Lng : -123.1146171, Q1 : 0.906289815903, Q2 : 0.063494078815, Q3 : -0.142944380641, Q4 : 0.392650336027}
2019-04-14 11:29:11.51: SIM {TimeUS : 65535442, Roll : 0.14, Pitch : -18.01, Yaw : 46.81, Alt : 49.3400001526, Lat : 49.2838153, Lng : -123.1146122, Q1 : 0.906313061714, Q2 : 0.0633741468191, Q3 : -0.143163755536, Q4 : 0.392536014318}
2019-04-14 11:29:11.61: SIM {TimeUS : 65635402, Roll : 0.13, Pitch : -18.03, Yaw : 46.8, Alt : 49.3400001526, Lat : 49.2838182, Lng : -123.1146073, Q1 : 0.906332552433, Q2 : 0.0633338168263, Q3 : -0.143334656954, Q4 : 0.39243516326}
2019-04-14 11:29:11.71: SIM {TimeUS : 65735362, Roll : 0.14, Pitch : -18.04, Yaw : 46.79, Alt : 49.3400001526, Lat : 49.2838211, Lng : -123.1146024, Q1 : 0.906345963478, Q2 : 0.0634276270866, Q3 : -0.143448382616, Q4 : 0.392347425222}
2019-04-14 11:29:11.81: SIM {TimeUS : 65835322, Roll : 0.15, Pitch : -18.06, Yaw : 46.78, Alt : 49.3400001526, Lat : 49.283824, Lng : -123.1145974, Q1 : 0.906358003616, Q2 : 0.0635451674461, Q3 : -0.143542483449, Q4 : 0.392266243696}
2019-04-14 11:29:11.91: SIM {TimeUS : 65935282, Roll : 0.17, Pitch : -18.08, Yaw : 46.77, Alt : 49.3400001526, Lat : 49.2838269, Lng : -123.1145926, Q1 : 0.906356215477, Q2 : 0.0637628138065, Q3 : -0.143624424934, Q4 : 0.392204999924}
2019-04-14 11:29:12.01: SIM {TimeUS : 66035242, Roll : 0.18, Pitch : -18.1, Yaw : 46.76, Alt : 49.3400001526, Lat : 49.2838299, Lng : -123.1145877, Q1 : 0.906350910664, Q2 : 0.063925743103, Q3 : -0.143780142069, Q4 : 0.392133712769}
2019-04-14 11:29:12.11: SIM {TimeUS : 66135202, Roll : 0.19, Pitch : -18.13, Yaw : 46.75, Alt : 49.3400001526, Lat : 49.2838329, Lng : -123.1145828, Q1 : 0.906342804432, Q2 : 0.0640937760472, Q3 : -0.143945679069, Q4 : 0.392064243555}
2019-04-14 11:29:12.21: SIM {TimeUS : 66235162, Roll : 0.21, Pitch : -18.14, Yaw : 46.74, Alt : 49.3400001526, Lat : 49.2838358, Lng : -123.1145779, Q1 : 0.906339406967, Q2 : 0.0642878636718, Q3 : -0.144036024809, Q4 : 0.39200720191}
