2019-04-14 11:49:13.30: SIM {TimeUS : 40916127, Roll : 0.0, Pitch : 0.0, Yaw : 0.0, Alt : 30.1000003815, Lat : 49.28357, Lng : -123.11502, Q1 : 1.0, Q2 : 0.0, Q3 : 0.0, Q4 : 0.0}
2019-04-14 11:49:13.41: SIM {TimeUS : 41035246, Roll : 0.0, Pitch : 0.0, Yaw : 0.0, Alt : 30.1000003815, Lat : 49.28357, Lng : -123.11502, Q1 : 1.0, Q2 : 0.0, Q3 : 0.0, Q4 : 0.0}
2019-04-14 11:49:13.51: SIM {TimeUS : 41135206, Roll : 0.0, Pitch : 0.0, Yaw : 0.0, Alt : 30.1000003815, Lat : 49.28357, Lng : -123.11502, Q1 : 1.0, Q2 : 0.0, Q3 : 0.0, Q4 : 0.0}
2019-04-14 11:49:13.61: SIM {TimeUS : 41235166, Roll : 0.0, Pitch : 0.0, Yaw : 0.0, Alt : 30.1000003815, Lat : 49.28357, Lng : -123.11502, Q1 : 1.0, Q2 : 0.0, Q3 : 0.0, Q4 : 0.0}
2019-04-14 11:49:13.71: SIM {TimeUS : 41335126, Roll : 0.0, Pitch : 0.0, Yaw : 0.0, Alt : 30.1000003815, Lat : 49.28357, Lng : -123.11502, Q1 : 1.0, Q2 : 0.0, Q3 : 0.0, Q4 : 0.0}
2019-04-14 11:49:13.81: SIM {TimeUS : 41435086, Roll : 0.0, Pitch : 0.0, Yaw : 0.0, Alt : 30.1000003815, Lat : 49.28357, Lng : -123.11502, Q1 : 1.0, Q2 : 0.0, Q3 : 0.0, Q4 : 0.0}
2019-04-14 11:49:13.91: SIM {TimeUS : 41535046, Roll : 0.0, Pitch : 0.0, Yaw : 0.0, Alt : 30.1000003815, Lat : 49.28357, Lng : -123.11502, Q1 : 1.0, Q2 : 0.0, Q3 : 0.0, Q4 : 0.0}
2019-04-14 11:49:14.01: SIM {TimeUS : 41635006, Roll : 0.0, Pitch : 0.0, Yaw : 0.0, Alt : 30.1000003815, Lat : 49.28357, Lng : -123.11502, Q1 : 1.0, Q2 : 0.0, Q3 : 0.0, Q4 : 0.0}
2019-04-14 11:49:14.11: SIM {TimeUS : 41734966, Roll : 0.0, Pitch : 0.0, Yaw : 0.0, Alt : 30.1000003815, Lat : 49.28357, Lng : -123.11502, Q1 : 1.0, Q2 : 0.0, Q3 : 0.0, Q4 : 0.0}
2019-04-14 11:49:14.21: SIM {TimeUS : 41834926, Roll : 0.0, Pitch : 0.0, Yaw : 0.0, Alt : 30.1000003815, Lat : 49.28357, Lng : -123.11502, Q1 : 1.0, Q2 : 0.0, Q3 : 0.0, Q4 : 0.0}
2019-04-14 11:49:14.31: SIM {TimeUS : 41934886, Roll : 0.0, Pitch : 0.0, Yaw : 0.0, Alt : 30.1000003815, Lat : 49.28357, Lng : -123.11502, Q1 : 1.0, Q2 : 0.0, Q3 : 0.0, Q4 : 0.0}
2019-04-14 11:49:14.41: SIM {TimeUS : 42034846, Roll : 0.0, Pitch : 0.0, Yaw : 0.0, Alt : 30.1000003815, Lat : 49.28357, Lng : -123.11502, Q1 : 1.0, Q2 : 0.0, Q3 : 0.0, Q4 : 0.0}
2019-04-14 11:49:14.51: SIM {TimeUS : 42134806, Roll : 0.0, Pitch : 0.0, Yaw : 0.0, Alt : 30.1000003815, Lat : 49.28357, Lng : -123.11502, Q1 : 1.0, Q2 : 0.0, Q3 : 0.0, Q4 : 0.0}
2019-04-14 11:49:14.61: SIM {TimeUS : 42234766, Roll : 0.0, Pitch : 0.0, Yaw : 0.0, Alt : 30.1000003815, Lat : 49.28357, Lng : -123.11502, Q1 : 1.0, Q2 : 0.0, Q3 : 0.0, Q4 : 0.0}
2019-04-14 11:49:14.71: SIM {TimeUS : 42334726, Roll : 0.0, Pitch : 0.0, Yaw : 0.0, Alt : 30.1000003815, Lat : 49.28357, Lng : -123.11502, Q1 : 1.0, Q2 : 0.0, Q3 : 0.0, Q4 : 0.0}
2019-04-14 11:49:14.81: SIM {TimeUS : 42434686, Roll : 0.0, Pitch : 0.0, Yaw : 0.0, Alt : 30.1000003815, Lat : 49.28357, Lng : -123.11502, Q1 : 1.0, Q2 : 0.0, Q3 : 0.0, Q4 : 0.0}
2019-04-14 11:49:14.91: SIM {TimeUS : 42534646, Roll : 0.0, Pitch : 0.0, Yaw : 0.0, Alt : 30.1000003815, Lat : 49.28357, Lng : -123.11502, Q1 : 1.0, Q2 : 0.0, Q3 : 0.0, Q4 : 0.0}
2019-04-14 11:49:15.01: SIM {TimeUS : 42634606, Roll : 0.0, Pitch : 0.0, Yaw : 0.0, Alt : 30.1000003815, Lat : 49.28357, Lng : -123.11502, Q1 : 1.0, Q2 : 0.0, Q3 : 0.0, Q4 : 0.0}
2019-04-14 11:49:15.11: SIM {TimeUS : 42734566, Roll : 0.0, Pitch : 0.0, Yaw : 0.0, Alt : 30.1000003815, Lat : 49.28357, Lng : -123.11502, Q1 : 1.0, Q2 : 0.0, Q3 : 0.0, Q4 : 0.0}
2019-04-14 11:49:15.21: SIM {TimeUS : 42834526, Roll : 0.0, Pitch : 0.0, Yaw : 0.0, Alt : 30.1000003815, Lat : 49.28357, Lng : -123.11502, Q1 : 1.0, Q2 : 0.0, Q3 : 0.0, Q4 : 0.0}
2019-04-14 11:49:15.31: SIM {TimeUS : 42934486, Roll : 0.0, Pitch : 0.0, Yaw : 0.0, Alt : 30.1000003815, Lat : 49.28357, Lng : -123.11502, Q1 : 1.0, Q2 : 0.0, Q3 : 0.0, Q4 : 0.0}
2019-04-14 11:49:15.42: SIM {TimeUS : 43035279, Roll : 0.0, Pitch : 0.0, Yaw : 0.0, Alt : 30.1000003815, Lat : 49.28357, Lng : -123.11502, Q1 : 1.0, Q2 : 0.0, Q3 : 0.0, Q4 : 0.0}
2019-04-14 11:49:15.51: SIM {TimeUS : 43135239, Roll : 0.0, Pitch : 0.0, Yaw : 0.0, Alt : 30.1000003815, Lat : 49.28357, Lng : -123.11502, Q1 : 1.0, Q2 : 0.0, Q3 : 0.0, Q4 : 0.0}
2019-04-14 11:49:15.61: SIM {TimeUS : 43235199, Roll : 0.0, Pitch : 0.0, Yaw : 0.0, Alt : 30.1000003815, Lat : 49.28357, Lng : -123.11502, Q1 : 1.0, Q2 : 0.0, Q3 : 0.0, Q4 : 3.54646693956e-12}
2019-04-14 11:49:15.71: SIM {TimeUS : 43335159, Roll : 0.0, Pitch : 0.0, Yaw : 360.0, Alt : 30.1000003815, Lat : 49.28357, Lng : -123.11502, Q1 : 1.0, Q2 : 0.0, Q3 : 0.0, Q4 : -2.41191848716e-08}
2019-04-14 11:49:15.81: SIM {TimeUS : 43435119, Roll : 0.0, Pitch : 0.0, Yaw : 359.99, Alt : 30.1000003815, Lat : 49.28357, Lng : -123.11502, Q1 : 1.0, Q2 : 0.0, Q3 : 0.0, Q4 : -1.75602565378e-07}
2019-04-14 11:49:15.91: SIM {TimeUS : 43535079, Roll : 0.0, Pitch : 0.0, Yaw : 359.99, Alt : 30.1000003815, Lat : 49.28357, Lng : -123.11502, Q1 : 1.0, Q2 : 0.0, Q3 : 0.0, Q4 : -3.47357712371e-07}
2019-04-14 11:49:16.01: SIM {TimeUS : 43635039, Roll : 0.0, Pitch : 0.0, Yaw : 359.99, Alt : 30.1000003815, Lat : 49.28357, Lng : -123.11502, Q1 : 1.0, Q2 : 0.0, Q3 : 0.0, Q4 : -5.17107991982e-07}
2019-04-14 11:49:16.11: SIM {TimeUS : 43734999, Roll : 0.0, Pitch : 0.0, Yaw : 359.99, Alt : 30.1000003815, Lat : 49.28357, Lng : -123.11502, Q1 : 1.0, Q2 : 0.0, Q3 : 0.0, Q4 : -7.22641345874e-07}
2019-04-14 11:49:16.21: SIM {TimeUS : 43834959, Roll : 0.0, Pitch : 0.0, Yaw : 359.99, Alt : 30.1000003815, Lat : 49.28357, Lng : -123.11502, Q1 : 1.0, Q2 : 0.0, Q3 : 0.0, Q4 : -8.82780739175e-07}
2019-04-14 11:49:16.31: SIM {TimeUS : 43934919, Roll : 0.0, Pitch : 0.0, Yaw : 359.99, Alt : 30.1000003815, Lat : 49.28357, Lng : -123.11502, Q1 : 1.0, Q2 : 0.0, Q3 : 0.0, Q4 : -1.05192725641e-06}
2019-04-14 11:49:16.41: SIM {TimeUS : 44034879, Roll : 0.0, Pitch : 0.0, Yaw : 359.99, Alt : 30.1000003815, Lat : 49.28357, Lng : -123.11502, Q1 : 1.0, Q2 : 0.0, Q3 : 0.0, Q4 : -1.26749830542e-06}
2019-04-14 11:49:16.51: SIM {TimeUS : 44134839, Roll : 0.0, Pitch : 0.0, Yaw : 359.99, Alt : 30.1200008392, Lat : 49.28357, Lng : -123.11502, Q1 : 1.0, Q2 : 0.0, Q3 : 0.0, Q4 : -1.46583704463e-06}
2019-04-14 11:49:16.61: SIM {TimeUS : 44234799, Roll : 0.0, Pitch : 0.0, Yaw : 359.99, Alt : 30.1399993896, Lat : 49.28357, Lng : -123.11502, Q1 : 1.0, Q2 : 0.0, Q3 : 0.0, Q4 : -1.65231176652e-06}
2019-04-14 11:49:16.71: SIM {TimeUS : 44334759, Roll : 0.0, Pitch : 0.0, Yaw : 359.99, Alt : 30.1800003052, Lat : 49.28357, Lng : -123.11502, Q1 : 1.0, Q2 : 0.0, Q3 : 0.0, Q4 : -1.83211204785e-06}
2019-04-14 11:49:16.81: SIM {TimeUS : 44434719, Roll : 0.0, Pitch : 0.0, Yaw : 359.99, Alt : 30.2099990845, Lat : 49.28357, Lng : -123.11502, Q1 : 1.0, Q2 : -4.03033664043e-06, Q3 : -3.52913320967e-06, Q4 : -2.06024947147e-06}
2019-04-14 11:49:16.91: SIM {TimeUS : 44534679, Roll : -0.17, Pitch : -0.14, Yaw : 359.99, Alt : 30.2700004578, Lat : 49.28357, Lng : -123.11502, Q1 : 0.999998033047, Q2 : -0.00155682652257, Q3 : -0.00123397994321, Q4 : -1.65224955708e-05}
2019-04-14 11:49:17.01: SIM {TimeUS : 44634639, Roll : -0.48, Pitch : -0.39, Yaw : 359.99, Alt : 30.3799991608, Lat : 49.28357, Lng : -123.11502, Q1 : 0.999984920025, Q2 : -0.00426003662869, Q3 : -0.00346392742358, Q4 : -5.49185933778e-05}
2019-04-14 11:49:17.11: SIM {TimeUS : 44734599, Roll : -0.72, Pitch : -0.62, Yaw : 359.99, Alt : 30.5400009155, Lat : 49.28357, Lng : -123.11502, Q1 : 0.999965012074, Q2 : -0.00635547377169, Q3 : -0.0054394020699, Q4 : -0.000111910798296}
2019-04-14 11:49:17.21: SIM {TimeUS : 44834559, Roll : -0.81, Pitch : -0.73, Yaw : 359.98, Alt : 30.7000007629, Lat : 49.28357, Lng : -123.11502, Q1 : 0.999954402447, Q2 : -0.00711084995419, Q3 : -0.00637283641845, Q4 : -0.000183944473974}
2019-04-14 11:49:17.31: SIM {TimeUS : 44934519, Roll : -0.74, Pitch : -0.7, Yaw : 359.97, Alt : 30.8500003815, Lat : 49.28357, Lng : -123.11502, Q1 : 0.999959945679, Q2 : -0.00652771955356, Q3 : -0.00611710175872, Q4 : -0.000262361892965}
2019-04-14 11:49:17.41: SIM {TimeUS : 45034479, Roll : -0.57, Pitch : -0.56, Yaw : 359.96, Alt : 31.0100002289, Lat : 49.28357, Lng : -123.1150201, Q1 : 0.999975264072, Q2 : -0.00498720863834, Q3 : -0.00495308544487, Q4 : -0.000338598998496}
2019-04-14 11:49:17.52: SIM {TimeUS : 45135272, Roll : -0.34, Pitch : -0.37, Yaw : 359.95, Alt : 31.1599998474, Lat : 49.2835701, Lng : -123.1150202, Q1 : 0.999990105629, Q2 : -0.0029909524601, Q3 : -0.00327195436694, Q4 : -0.000407330226153}
2019-04-14 11:49:17.61: SIM {TimeUS : 45235232, Roll : -0.13, Pitch : -0.17, Yaw : 359.94, Alt : 31.3199996948, Lat : 49.2835701, Lng : -123.1150203, Q1 : 0.999998033047, Q2 : -0.00121560844127, Q3 : -0.00150884059258, Q4 : -0.000461683404865}
2019-04-14 11:49:17.71: SIM {TimeUS : 45335192, Roll : 0.0, Pitch : 0.0, Yaw : 359.94, Alt : 31.4899997711, Lat : 49.2835702, Lng : -123.1150203, Q1 : 0.999999880791, Q2 : -5.92621108808e-05, Q3 : -7.70367842051e-05, Q4 : -0.000502818671521}
2019-04-14 11:49:17.81: SIM {TimeUS : 45435152, Roll : 0.04, Pitch : 0.08, Yaw : 359.93, Alt : 31.6700000763, Lat : 49.2835702, Lng : -123.1150204, Q1 : 0.999999463558, Q2 : 0.000419042422436, Q3 : 0.000764264084864, Q4 : -0.000535013328772}
2019-04-14 11:49:17.91: SIM {TimeUS : 45535112, Roll : 0.07, Pitch : 0.12, Yaw : 359.93, Alt : 31.8500003815, Lat : 49.2835703, Lng : -123.1150205, Q1 : 0.999998986721, Q2 : 0.00063442037208, Q3 : 0.00113219663035, Q4 : -0.000548013369553}
2019-04-14 11:49:18.01: SIM {TimeUS : 45635072, Roll : 0.07, Pitch : 0.12, Yaw : 359.93, Alt : 32.0299987793, Lat : 49.2835703, Lng : -123.1150205, Q1 : 0.999998986721, Q2 : 0.000665554427542, Q3 : 0.00110655860044, Q4 : -0.000542625552043}
2019-04-14 11:49:18.11: SIM {TimeUS : 45735032, Roll : 0.07, Pitch : 0.11, Yaw : 359.93, Alt : 32.2099990845, Lat : 49.2835703, Lng : -123.1150206, Q1 : 0.999999165535, Q2 : 0.000650109897833, Q3 : 0.00102084502578, Q4 : -0.000526251387782}
2019-04-14 11:49:18.21: SIM {TimeUS : 45834992, Roll : 0.06, Pitch : 0.11, Yaw : 359.94, Alt : 32.4099998474, Lat : 49.2835703, Lng : -123.1150206, Q1 : 0.99999922514, Q2 : 0.000569777446799, Q3 : 0.000988313113339, Q4 : -0.000504010648001}
2019-04-14 11:49:18.31: SIM {TimeUS : 45934952, Roll : 0.06, Pitch : 0.1, Yaw : 359.94, Alt : 32.5999984741, Lat : 49.2835703, Lng : -123.1150206, Q1 : 0.999999344349, Q2 : 0.000557223684154, Q3 : 0.000886208959855, Q4 : -0.000479512586026}
2019-04-14 11:49:18.41: SIM {TimeUS : 46034912, Roll : 0.06, Pitch : 0.08, Yaw : 359.94, Alt : 32.7900009155, Lat : 49.2835703, Lng : -123.1150207, Q1 : 0.999999403954, Q2 : 0.000584609282669, Q3 : 0.000768054625951, Q4 : -0.000456063396996}
2019-04-14 11:49:18.51: SIM {TimeUS : 46134872, Roll : 0.08, Pitch : 0.09, Yaw : 359.95, Alt : 32.9900016785, Lat : 49.2835704, Lng : -123.1150207, Q1 : 0.999999284744, Q2 : 0.000749797152821, Q3 : 0.000802078051493, Q4 : -0.000433963403339}
2019-04-14 11:49:18.61: SIM {TimeUS : 46234832, Roll : 0.12, Pitch : 0.11, Yaw : 359.95, Alt : 33.1899986267, Lat : 49.2835704, Lng : -123.1150207, Q1 : 0.999998807907, Q2 : 0.00108760804869, Q3 : 0.000985527294688, Q4 : -0.000424353813287}
2019-04-14 11:49:18.71: SIM {TimeUS : 46334792, Roll : 0.15, Pitch : 0.14, Yaw : 359.95, Alt : 33.4000015259, Lat : 49.2835704, Lng : -123.1150207, Q1 : 0.999998152256, Q2 : 0.00139652518556, Q3 : 0.00124078895897, Q4 : -0.00042375002522}
2019-04-14 11:49:18.81: SIM {TimeUS : 46434752, Roll : 0.18, Pitch : 0.15, Yaw : 359.95, Alt : 33.5999984741, Lat : 49.2835704, Lng : -123.1150208, Q1 : 0.999997675419, Q2 : 0.00160546496045, Q3 : 0.0013632759219, Q4 : -0.000431897555245}
2019-04-14 11:49:18.91: SIM {TimeUS : 46534712, Roll : 0.17, Pitch : 0.14, Yaw : 359.94, Alt : 33.8100013733, Lat : 49.2835704, Lng : -123.1150208, Q1 : 0.999997913837, Q2 : 0.00154703320004, Q3 : 0.00128018984105, Q4 : -0.000444437289843}
2019-04-14 11:49:19.01: SIM {TimeUS : 46634672, Roll : 0.15, Pitch : 0.13, Yaw : 359.94, Alt : 34.0200004578, Lat : 49.2835704, Lng : -123.1150208, Q1 : 0.999998271465, Q2 : 0.00135178933851, Q3 : 0.00116156600416, Q4 : -0.000458699127194}
2019-04-14 11:49:19.11: SIM {TimeUS : 46734632, Roll : 0.12, Pitch : 0.12, Yaw : 359.94, Alt : 34.2299995422, Lat : 49.2835704, Lng : -123.1150208, Q1 : 0.999998688698, Q2 : 0.00111241464037, Q3 : 0.00107054482214, Q4 : -0.000477736699395}
2019-04-14 11:49:19.21: SIM {TimeUS : 46834592, Roll : 0.11, Pitch : 0.08, Yaw : 359.94, Alt : 34.4399986267, Lat : 49.2835704, Lng : -123.1150208, Q1 : 0.999999165535, Q2 : 0.000961987534538, Q3 : 0.000768326106481, Q4 : -0.000498191278894}
2019-04-14 11:49:19.31: SIM {TimeUS : 46934552, Roll : 0.09, Pitch : 0.05, Yaw : 359.94, Alt : 34.6599998474, Lat : 49.2835704, Lng : -123.1150208, Q1 : 0.999999344349, Q2 : 0.000866105547175, Q3 : 0.000513527193107, Q4 : -0.000518461922184}
2019-04-14 11:49:19.41: SIM {TimeUS : 47034512, Roll : 0.07, Pitch : 0.04, Yaw : 359.93, Alt : 34.8699989319, Lat : 49.2835704, Lng : -123.1150207, Q1 : 0.999999582767, Q2 : 0.000658579810988, Q3 : 0.000361763843102, Q4 : -0.000544052571058}
2019-04-14 11:49:19.51: SIM {TimeUS : 47134472, Roll : 0.06, Pitch : 0.03, Yaw : 359.93, Alt : 35.0900001526, Lat : 49.2835704, Lng : -123.1150207, Q1 : 0.999999642372, Q2 : 0.000537121319212, Q3 : 0.000334019947331, Q4 : -0.000568620802369}
2019-04-14 11:49:19.62: SIM {TimeUS : 47235265, Roll : 0.05, Pitch : 0.03, Yaw : 359.93, Alt : 35.3100013733, Lat : 49.2835704, Lng : -123.1150207, Q1 : 0.999999642372, Q2 : 0.000509240140673, Q3 : 0.000319323822623, Q4 : -0.000596484635025}
2019-04-14 11:49:19.71: SIM {TimeUS : 47335225, Roll : 0.03, Pitch : 0.01, Yaw : 359.92, Alt : 35.5200004578, Lat : 49.2835704, Lng : -123.1150207, Q1 : 0.999999761581, Q2 : 0.0003141463676, Q3 : 0.000105866733065, Q4 : -0.000628443027381}
2019-04-14 11:49:19.81: SIM {TimeUS : 47435185, Roll : 0.0, Pitch : -0.02, Yaw : 359.92, Alt : 35.7400016785, Lat : 49.2835704, Lng : -123.1150207, Q1 : 0.999999761581, Q2 : -1.70794774021e-05, Q3 : -0.000227599375648, Q4 : -0.000659408164211}
2019-04-14 11:49:19.91: SIM {TimeUS : 47535145, Roll : -0.04, Pitch : -0.05, Yaw : 359.92, Alt : 35.9599990845, Lat : 49.2835704, Lng : -123.1150207, Q1 : 0.999999582767, Q2 : -0.000363484345144, Q3 : -0.000482854520669, Q4 : -0.000692034605891}
2019-04-14 11:49:20.01: SIM {TimeUS : 47635105, Roll : -0.07, Pitch : -0.07, Yaw : 359.91, Alt : 36.1800003052, Lat : 49.2835704, Lng : -123.1150207, Q1 : 0.999999344349, Q2 : -0.000655946787447, Q3 : -0.000612803327385, Q4 : -0.000720608397387}
2019-04-14 11:49:20.11: SIM {TimeUS : 47735065, Roll : -0.07, Pitch : -0.07, Yaw : 359.91, Alt : 36.4000015259, Lat : 49.2835704, Lng : -123.1150206, Q1 : 0.999999284744, Q2 : -0.000686059065629, Q3 : -0.000629923888482, Q4 : -0.000739146955311}
2019-04-14 11:49:20.21: SIM {TimeUS : 47835025, Roll : -0.07, Pitch : -0.06, Yaw : 359.91, Alt : 36.6300010681, Lat : 49.2835704, Lng : -123.1150206, Q1 : 0.999999344349, Q2 : -0.000636006880086, Q3 : -0.000600921863224, Q4 : -0.000754158361815}
2019-04-14 11:49:20.31: SIM {TimeUS : 47934985, Roll : -0.06, Pitch : -0.05, Yaw : 359.91, Alt : 36.8499984741, Lat : 49.2835704, Lng : -123.1150206, Q1 : 0.999999463558, Q2 : -0.000571336131543, Q3 : -0.000456674315501, Q4 : -0.000773160660174}
2019-04-14 11:49:20.41: SIM {TimeUS : 48034945, Roll : -0.05, Pitch : -0.04, Yaw : 359.9, Alt : 37.0699996948, Lat : 49.2835704, Lng : -123.1150206, Q1 : 0.999999523163, Q2 : -0.000478963309433, Q3 : -0.000351574155502, Q4 : -0.000789246812928}
2019-04-14 11:49:20.51: SIM {TimeUS : 48134905, Roll : -0.06, Pitch : -0.04, Yaw : 359.9, Alt : 37.2999992371, Lat : 49.2835704, Lng : -123.1150206, Q1 : 0.999999463558, Q2 : -0.000550204480533, Q3 : -0.000374995172024, Q4 : -0.000800499401521}
2019-04-14 11:49:20.61: SIM {TimeUS : 48234865, Roll : -0.07, Pitch : -0.02, Yaw : 359.9, Alt : 37.5200004578, Lat : 49.2835704, Lng : -123.1150206, Q1 : 0.999999403954, Q2 : -0.000673465488944, Q3 : -0.000260270317085, Q4 : -0.000811546633486}
2019-04-14 11:49:20.71: SIM {TimeUS : 48334825, Roll : -0.1, Pitch : -0.01, Yaw : 359.9, Alt : 37.75, Lat : 49.2835704, Lng : -123.1150206, Q1 : 0.99999922514, Q2 : -0.000910186383408, Q3 : -0.000105437728052, Q4 : -0.000827109732199}
2019-04-14 11:49:20.81: SIM {TimeUS : 48434785, Roll : -0.11, Pitch : 0.0, Yaw : 359.9, Alt : 37.9799995422, Lat : 49.2835704, Lng : -123.1150206, Q1 : 0.999999165535, Q2 : -0.000971898960415, Q3 : 9.68860240391e-06, Q4 : -0.000838391424622}
2019-04-14 11:49:20.91: SIM {TimeUS : 48534745, Roll : -0.08, Pitch : 0.02, Yaw : 359.9, Alt : 38.2000007629, Lat : 49.2835704, Lng : -123.1150206, Q1 : 0.999999284744, Q2 : -0.000772052328102, Q3 : 0.000247171323281, Q4 : -0.000855172926094}
2019-04-14 11:49:21.01: SIM {TimeUS : 48634705, Roll : -0.06, Pitch : 0.02, Yaw : 359.9, Alt : 38.4300003052, Lat : 49.2835704, Lng : -123.1150206, Q1 : 0.999999463558, Q2 : -0.000546402763575, Q3 : 0.00021503053722, Q4 : -0.000870993069839}
2019-04-14 11:49:21.11: SIM {TimeUS : 48734665, Roll : -0.03, Pitch : 0.01, Yaw : 359.89, Alt : 38.6599998474, Lat : 49.2835704, Lng : -123.1150206, Q1 : 0.999999523163, Q2 : -0.000280968553852, Q3 : 0.000125487189507, Q4 : -0.00088660424808}
2019-04-14 11:49:21.21: SIM {TimeUS : 48834625, Roll : 0.0, Pitch : 0.02, Yaw : 359.89, Alt : 38.8899993896, Lat : 49.2835704, Lng : -123.1150206, Q1 : 0.999999582767, Q2 : 6.08226146142e-05, Q3 : 0.000228387725656, Q4 : -0.000901204533875}
2019-04-14 11:49:21.31: SIM {TimeUS : 48934585, Roll : 0.04, Pitch : 0.05, Yaw : 359.89, Alt : 39.1199989319, Lat : 49.2835706, Lng : -123.1150206, Q1 : 0.999999403954, Q2 : 0.000415869959397, Q3 : 0.000471360050142, Q4 : -0.000920165271964}
2019-04-14 11:49:21.41: SIM {TimeUS : 49034545, Roll : 0.07, Pitch : 0.08, Yaw : 359.89, Alt : 39.3499984741, Lat : 49.2835706, Lng : -123.1150206, Q1 : 0.999999046326, Q2 : 0.000661489495542, Q3 : 0.000733762979507, Q4 : -0.000943872088101}
2019-04-14 11:49:21.51: SIM {TimeUS : 49134505, Roll : 0.06, Pitch : 0.11, Yaw : 359.89, Alt : 39.5800018311, Lat : 49.2835706, Lng : -123.1150206, Q1 : 0.999998867512, Q2 : 0.000583121727686, Q3 : 0.000990173663013, Q4 : -0.000959879893344}
2019-04-14 11:49:21.61: SIM {TimeUS : 49234465, Roll : 0.01, Pitch : 0.13, Yaw : 359.88, Alt : 39.8100013733, Lat : 49.2835706, Lng : -123.1150206, Q1 : 0.999998807907, Q2 : 0.000126407714561, Q3 : 0.00116011267528, Q4 : -0.000996892806143}
2019-04-14 11:49:21.72: SIM {TimeUS : 49335258, Roll : -0.03, Pitch : 0.13, Yaw : 359.88, Alt : 40.0400009155, Lat : 49.2835706, Lng : -123.1150206, Q1 : 0.999998748302, Q2 : -0.000271453289315, Q3 : 0.00115561159328, Q4 : -0.00103661464527}
2019-04-14 11:49:21.81: SIM {TimeUS : 49435218, Roll : -0.05, Pitch : 0.1, Yaw : 359.87, Alt : 40.2700004578, Lat : 49.2835706, Lng : -123.1150206, Q1 : 0.999998927116, Q2 : -0.000485509983264, Q3 : 0.000884043111, Q4 : -0.00107182073407}
2019-04-14 11:49:21.91: SIM {TimeUS : 49535178, Roll : -0.06, Pitch : 0.07, Yaw : 359.87, Alt : 40.5099983215, Lat : 49.2835706, Lng : -123.1150206, Q1 : 0.999998986721, Q2 : -0.000528185919393, Q3 : 0.000689932378009, Q4 : -0.00110440666322}
2019-04-14 11:49:22.01: SIM {TimeUS : 49635138, Roll : -0.04, Pitch : 0.09, Yaw : 359.86, Alt : 40.7400016785, Lat : 49.2835706, Lng : -123.1150206, Q1 : 0.999998986721, Q2 : -0.000367496715626, Q3 : 0.000789080746472, Q4 : -0.00114001263864}
2019-04-14 11:49:22.11: SIM {TimeUS : 49735098, Roll : 0.0, Pitch : 0.12, Yaw : 359.86, Alt : 40.9700012207, Lat : 49.2835706, Lng : -123.1150207, Q1 : 0.999998748302, Q2 : 2.90977259283e-05, Q3 : 0.0010593716288, Q4 : -0.00117695750669}
2019-04-14 11:49:22.21: SIM {TimeUS : 49835058, Roll : 0.05, Pitch : 0.14, Yaw : 359.86, Alt : 41.2099990845, Lat : 49.2835706, Lng : -123.1150207, Q1 : 0.99999833107, Q2 : 0.000505863397848, Q3 : 0.00124062108807, Q4 : -0.00121591845527}
2019-04-14 11:49:22.31: SIM {TimeUS : 49935018, Roll : 0.09, Pitch : 0.11, Yaw : 359.85, Alt : 41.4399986267, Lat : 49.2835706, Lng : -123.1150207, Q1 : 0.99999833107, Q2 : 0.00083005084889, Q3 : 0.00104430352803, Q4 : -0.00125155609567}
2019-04-14 11:49:22.41: SIM {TimeUS : 50034978, Roll : 0.09, Pitch : 0.07, Yaw : 359.85, Alt : 41.6699981689, Lat : 49.2835706, Lng : -123.1150207, Q1 : 0.999998569489, Q2 : 0.000843748275656, Q3 : 0.00065976602491, Q4 : -0.00128198240418}
2019-04-14 11:49:22.51: SIM {TimeUS : 50134938, Roll : 0.05, Pitch : 0.04, Yaw : 359.85, Alt : 41.9099998474, Lat : 49.2835706, Lng : -123.1150207, Q1 : 0.999998986721, Q2 : 0.000499464164022, Q3 : 0.000362174789188, Q4 : -0.00129869231023}
2019-04-14 11:49:22.61: SIM {TimeUS : 50234898, Roll : 0.0, Pitch : 0.03, Yaw : 359.85, Alt : 42.1399993896, Lat : 49.2835706, Lng : -123.1150207, Q1 : 0.99999910593, Q2 : 2.16537882807e-05, Q3 : 0.000301572174067, Q4 : -0.00130707188509}
2019-04-14 11:49:22.71: SIM {TimeUS : 50334858, Roll : -0.03, Pitch : 0.06, Yaw : 359.85, Alt : 42.3699989319, Lat : 49.2835706, Lng : -123.1150207, Q1 : 0.999998927116, Q2 : -0.000291933451081, Q3 : 0.000544504960999, Q4 : -0.00130571273621}
2019-04-14 11:49:22.81: SIM {TimeUS : 50434818, Roll : -0.05, Pitch : 0.08, Yaw : 359.85, Alt : 42.6100006104, Lat : 49.2835706, Lng : -123.1150207, Q1 : 0.999998807907, Q2 : -0.000437074137153, Q3 : 0.000738323258702, Q4 : -0.00130113610066}
2019-04-14 11:49:22.91: SIM {TimeUS : 50534778, Roll : -0.04, Pitch : 0.08, Yaw : 359.85, Alt : 42.8400001526, Lat : 49.2835704, Lng : -123.1150206, Q1 : 0.999998807907, Q2 : -0.000377716351068, Q3 : 0.000730284664314, Q4 : -0.0012993196724}
2019-04-14 11:49:23.01: SIM {TimeUS : 50634738, Roll : -0.04, Pitch : 0.07, Yaw : 359.84, Alt : 43.0800018311, Lat : 49.2835704, Lng : -123.1150206, Q1 : 0.999998867512, Q2 : -0.000392187590478, Q3 : 0.000658004137222, Q4 : -0.00131183047779}
2019-04-14 11:49:23.11: SIM {TimeUS : 50734698, Roll : -0.03, Pitch : 0.06, Yaw : 359.84, Alt : 43.3100013733, Lat : 49.2835704, Lng : -123.1150206, Q1 : 0.999998927116, Q2 : -0.000330938841216, Q3 : 0.000531098223291, Q4 : -0.0013274931116}
2019-04-14 11:49:23.21: SIM {TimeUS : 50834658, Roll : -0.01, Pitch : 0.05, Yaw : 359.84, Alt : 43.5499992371, Lat : 49.2835704, Lng : -123.1150206, Q1 : 0.999998986721, Q2 : -0.000167262129253, Q3 : 0.000467371806735, Q4 : -0.00134728197008}
2019-04-14 11:49:23.31: SIM {TimeUS : 50934618, Roll : 0.0, Pitch : 0.05, Yaw : 359.84, Alt : 43.7799987793, Lat : 49.2835704, Lng : -123.1150206, Q1 : 0.999998927116, Q2 : -5.57427338208e-05, Q3 : 0.000478148867842, Q4 : -0.00136785092764}
2019-04-14 11:49:23.41: SIM {TimeUS : 51034578, Roll : 0.0, Pitch : 0.04, Yaw : 359.84, Alt : 44.0200004578, Lat : 49.2835704, Lng : -123.1150206, Q1 : 0.999998986721, Q2 : -6.10175848124e-05, Q3 : 0.000358315068297, Q4 : -0.00139362865593}
2019-04-14 11:49:23.51: SIM {TimeUS : 51134538, Roll : -0.01, Pitch : 0.01, Yaw : 359.83, Alt : 44.2599983215, Lat : 49.2835704, Lng : -123.1150206, Q1 : 0.999998986721, Q2 : -0.000108911270218, Q3 : 0.000107366366137, Q4 : -0.00142221222632}
2019-04-14 11:49:23.61: SIM {TimeUS : 51234498, Roll : -0.01, Pitch : 0.0, Yaw : 359.83, Alt : 44.4900016785, Lat : 49.2835704, Lng : -123.1150206, Q1 : 0.999998927116, Q2 : -0.000142091827001, Q3 : -7.33953856979e-05, Q4 : -0.00145647593308}
2019-04-14 11:49:23.71: SIM {TimeUS : 51334458, Roll : -0.01, Pitch : -0.02, Yaw : 359.82, Alt : 44.7299995422, Lat : 49.2835704, Lng : -123.1150206, Q1 : 0.999998867512, Q2 : -0.000123786987388, Q3 : -0.000219293346163, Q4 : -0.00149733421858}
2019-04-14 11:49:23.81: SIM {TimeUS : 51435251, Roll : -0.02, Pitch : -0.03, Yaw : 359.82, Alt : 44.9700012207, Lat : 49.2835704, Lng : -123.1150206, Q1 : 0.999998748302, Q2 : -0.000204936106456, Q3 : -0.000287406030111, Q4 : -0.00153791543562}
2019-04-14 11:49:23.91: SIM {TimeUS : 51535211, Roll : -0.05, Pitch : -0.03, Yaw : 359.81, Alt : 45.2000007629, Lat : 49.2835703, Lng : -123.1150206, Q1 : 0.999998629093, Q2 : -0.000462805794086, Q3 : -0.000333413132466, Q4 : -0.00157585262787}
2019-04-14 11:49:24.01: SIM {TimeUS : 51635171, Roll : -0.09, Pitch : -0.04, Yaw : 359.81, Alt : 45.4399986267, Lat : 49.2835703, Lng : -123.1150206, Q1 : 0.99999833107, Q2 : -0.000801747082733, Q3 : -0.000367434549844, Q4 : -0.00161192717496}
2019-04-14 11:49:24.11: SIM {TimeUS : 51735131, Roll : -0.11, Pitch : -0.04, Yaw : 359.81, Alt : 45.6699981689, Lat : 49.2835703, Lng : -123.1150206, Q1 : 0.999998092651, Q2 : -0.000998267089017, Q3 : -0.00037246994907, Q4 : -0.00164903025143}
2019-04-14 11:49:24.21: SIM {TimeUS : 51835091, Roll : -0.11, Pitch : -0.02, Yaw : 359.8, Alt : 45.9099998474, Lat : 49.2835703, Lng : -123.1150206, Q1 : 0.999998033047, Q2 : -0.00100311229471, Q3 : -0.000229120589211, Q4 : -0.0016874402063}
2019-04-14 11:49:24.31: SIM {TimeUS : 51935051, Roll : -0.09, Pitch : 0.0, Yaw : 359.8, Alt : 46.1399993896, Lat : 49.2835703, Lng : -123.1150206, Q1 : 0.999998152256, Q2 : -0.000845044793095, Q3 : 3.98810298066e-05, Q4 : -0.00172112172004}
2019-04-14 11:49:24.41: SIM {TimeUS : 52035011, Roll : -0.06, Pitch : 0.02, Yaw : 359.79, Alt : 46.3600006104, Lat : 49.2835703, Lng : -123.1150206, Q1 : 0.999998271465, Q2 : -0.000594425422605, Q3 : 0.00020639806462, Q4 : -0.00174879166298}
2019-04-14 11:49:24.51: SIM {TimeUS : 52134971, Roll : -0.04, Pitch : 0.02, Yaw : 359.79, Alt : 46.5900001526, Lat : 49.2835703, Lng : -123.1150206, Q1 : 0.99999833107, Q2 : -0.000413563888287, Q3 : 0.000178673974006, Q4 : -0.00177196739241}
2019-04-14 11:49:24.61: SIM {TimeUS : 52234931, Roll : -0.03, Pitch : 0.0, Yaw : 359.79, Alt : 46.7999992371, Lat : 49.2835703, Lng : -123.1150206, Q1 : 0.99999833107, Q2 : -0.000331276882207, Q3 : -1.02901949504e-05, Q4 : -0.00178740173578}
2019-04-14 11:49:24.71: SIM {TimeUS : 52334891, Roll : -0.02, Pitch : -0.03, Yaw : 359.79, Alt : 47.0099983215, Lat : 49.2835703, Lng : -123.1150206, Q1 : 0.99999833107, Q2 : -0.000212860904867, Q3 : -0.000303770328173, Q4 : -0.0017992365174}
2019-04-14 11:49:24.81: SIM {TimeUS : 52434851, Roll : 0.0, Pitch : -0.06, Yaw : 359.79, Alt : 47.2200012207, Lat : 49.2835703, Lng : -123.1150206, Q1 : 0.999998152256, Q2 : -3.16438890877e-05, Q3 : -0.000565535854548, Q4 : -0.00181023206096}
2019-04-14 11:49:24.91: SIM {TimeUS : 52534811, Roll : 0.0, Pitch : -0.09, Yaw : 359.79, Alt : 47.4099998474, Lat : 49.2835703, Lng : -123.1150206, Q1 : 0.999998033047, Q2 : 4.55599692941e-05, Q3 : -0.000801407149993, Q4 : -0.00182393507566}
2019-04-14 11:49:25.01: SIM {TimeUS : 52634771, Roll : 0.0, Pitch : -0.11, Yaw : 359.78, Alt : 47.5999984741, Lat : 49.2835703, Lng : -123.1150206, Q1 : 0.999997794628, Q2 : -1.25209480757e-05, Q3 : -0.000978964962997, Q4 : -0.00184053869452}
2019-04-14 11:49:25.11: SIM {TimeUS : 52734731, Roll : 0.01, Pitch : -0.15, Yaw : 359.78, Alt : 47.7700004578, Lat : 49.2835703, Lng : -123.1150206, Q1 : 0.999997377396, Q2 : 9.23900515772e-05, Q3 : -0.00131860282272, Q4 : -0.00186001241673}
2019-04-14 11:49:25.21: SIM {TimeUS : 52834691, Roll : 0.03, Pitch : -0.16, Yaw : 359.78, Alt : 47.9399986267, Lat : 49.2835703, Lng : -123.1150206, Q1 : 0.999997079372, Q2 : 0.000317935831845, Q3 : -0.00147565279622, Q4 : -0.00188238441478}
2019-04-14 11:49:25.31: SIM {TimeUS : 52934651, Roll : 0.06, Pitch : -0.15, Yaw : 359.78, Alt : 48.0900001526, Lat : 49.2835703, Lng : -123.1150206, Q1 : 0.999997079372, Q2 : 0.000589875562582, Q3 : -0.00134903821163, Q4 : -0.0019056678284}
2019-04-14 11:49:25.41: SIM {TimeUS : 53034611, Roll : 0.08, Pitch : -0.11, Yaw : 359.77, Alt : 48.2299995422, Lat : 49.2835704, Lng : -123.1150206, Q1 : 0.999997377396, Q2 : 0.000723617267795, Q3 : -0.00102469243575, Q4 : -0.00193023041356}
2019-04-14 11:49:25.51: SIM {TimeUS : 53134571, Roll : 0.09, Pitch : -0.08, Yaw : 359.77, Alt : 48.3600006104, Lat : 49.2835704, Lng : -123.1150206, Q1 : 0.999997496605, Q2 : 0.00079247134272, Q3 : -0.000709306274075, Q4 : -0.00195794901811}
2019-04-14 11:49:25.61: SIM {TimeUS : 53234531, Roll : 0.08, Pitch : -0.06, Yaw : 359.77, Alt : 48.4799995422, Lat : 49.2835704, Lng : -123.1150206, Q1 : 0.99999755621, Q2 : 0.000743688258808, Q3 : -0.000596428406425, Q4 : -0.00198845844716}
2019-04-14 11:49:25.71: SIM {TimeUS : 53334491, Roll : 0.05, Pitch : -0.05, Yaw : 359.76, Alt : 48.5800018311, Lat : 49.2835704, Lng : -123.1150206, Q1 : 0.999997675419, Q2 : 0.00051596906269, Q3 : -0.000515412713867, Q4 : -0.00201770244166}
2019-04-14 11:49:25.82: SIM {TimeUS : 53435284, Roll : 0.03, Pitch : -0.03, Yaw : 359.76, Alt : 48.6699981689, Lat : 49.2835704, Lng : -123.1150206, Q1 : 0.999997794628, Q2 : 0.000322730396874, Q3 : -0.000346316664945, Q4 : -0.00204569124617}
2019-04-14 11:49:25.91: SIM {TimeUS : 53535244, Roll : 0.01, Pitch : -0.01, Yaw : 359.76, Alt : 48.75, Lat : 49.2835704, Lng : -123.1150206, Q1 : 0.999997794628, Q2 : 0.000165085104527, Q3 : -0.000165901190485, Q4 : -0.00207933364436}
2019-04-14 11:49:26.01: SIM {TimeUS : 53635204, Roll : 0.0, Pitch : 0.0, Yaw : 359.75, Alt : 48.8199996948, Lat : 49.2835704, Lng : -123.1150206, Q1 : 0.999997735023, Q2 : 8.45251779538e-05, Q3 : 6.85363411321e-05, Q4 : -0.00211273645982}
2019-04-14 11:49:26.11: SIM {TimeUS : 53735164, Roll : 0.01, Pitch : 0.04, Yaw : 359.75, Alt : 48.8800010681, Lat : 49.2835704, Lng : -123.1150206, Q1 : 0.999997615814, Q2 : 0.000170548533788, Q3 : 0.000362632214092, Q4 : -0.00214350130409}
2019-04-14 11:49:26.21: SIM {TimeUS : 53835124, Roll : 0.03, Pitch : 0.05, Yaw : 359.75, Alt : 48.9399986267, Lat : 49.2835704, Lng : -123.1150206, Q1 : 0.999997437, Q2 : 0.000342445157003, Q3 : 0.00052099180175, Q4 : -0.00217317277566}
2019-04-14 11:49:26.31: SIM {TimeUS : 53935084, Roll : 0.05, Pitch : 0.03, Yaw : 359.74, Alt : 48.9799995422, Lat : 49.2835704, Lng : -123.1150206, Q1 : 0.999997437, Q2 : 0.000472506508231, Q3 : 0.000301479565678, Q4 : -0.00219781138003}
2019-04-14 11:49:26.41: SIM {TimeUS : 54035044, Roll : 0.13, Pitch : -0.07, Yaw : 359.74, Alt : 49.0200004578, Lat : 49.2835704, Lng : -123.1150206, Q1 : 0.999996602535, Q2 : 0.00119629583787, Q3 : -0.00061379338149, Q4 : -0.0022209614981}
2019-04-14 11:49:26.51: SIM {TimeUS : 54135004, Roll : 0.38, Pitch : -0.34, Yaw : 359.74, Alt : 49.0499992371, Lat : 49.2835704, Lng : -123.1150206, Q1 : 0.999987304211, Q2 : 0.00333380745724, Q3 : -0.00304507091641, Q4 : -0.00224824808538}
2019-04-14 11:49:26.61: SIM {TimeUS : 54234964, Roll : 0.83, Pitch : -0.81, Yaw : 359.73, Alt : 49.0800018311, Lat : 49.2835706, Lng : -123.1150206, Q1 : 0.999945700169, Q2 : 0.0072816493921, Q3 : -0.00710075628012, Q4 : -0.00226564705372}
2019-04-14 11:49:26.71: SIM {TimeUS : 54334924, Roll : 1.47, Pitch : -1.41, Yaw : 359.72, Alt : 49.0999984741, Lat : 49.2835706, Lng : -123.1150206, Q1 : 0.999838888645, Q2 : 0.0128167131916, Q3 : -0.0123642189428, Q4 : -0.00226025655866}
2019-04-14 11:49:26.81: SIM {TimeUS : 54434884, Roll : 2.22, Pitch : -2.11, Yaw : 359.7, Alt : 49.1199989319, Lat : 49.2835706, Lng : -123.1150205, Q1 : 0.999639868736, Q2 : 0.0193314980716, Q3 : -0.0184808969498, Q4 : -0.00222237152047}
2019-04-14 11:49:26.91: SIM {TimeUS : 54534844, Roll : 2.97, Pitch : -2.8, Yaw : 359.68, Alt : 49.1399993896, Lat : 49.2835707, Lng : -123.1150204, Q1 : 0.999361634254, Q2 : 0.0258500035852, Q3 : -0.0245689935982, Q4 : -0.00212700525299}
2019-04-14 11:49:27.01: SIM {TimeUS : 54634804, Roll : 3.6, Pitch : -3.39, Yaw : 359.66, Alt : 49.1599998474, Lat : 49.2835708, Lng : -123.1150202, Q1 : 0.99906373024, Q2 : 0.0313705541193, Q3 : -0.0297267921269, Q4 : -0.00196315371431}
2019-04-14 11:49:27.11: SIM {TimeUS : 54734764, Roll : 4.07, Pitch : -3.85, Yaw : 359.66, Alt : 49.1699981689, Lat : 49.2835709, Lng : -123.11502, Q1 : 0.998800814152, Q2 : 0.0354770570993, Q3 : -0.033693626523, Q4 : -0.00174202304333}
2019-04-14 11:49:27.21: SIM {TimeUS : 54834724, Roll : 4.42, Pitch : -4.19, Yaw : 359.66, Alt : 49.1800003052, Lat : 49.283571, Lng : -123.1150198, Q1 : 0.998585283756, Q2 : 0.038503497839, Q3 : -0.0366435013711, Q4 : -0.00146612036042}
2019-04-14 11:49:27.31: SIM {TimeUS : 54934684, Roll : 4.7, Pitch : -4.44, Yaw : 359.68, Alt : 49.1899986267, Lat : 49.2835714, Lng : -123.1150194, Q1 : 0.998404085636, Q2 : 0.0409295111895, Q3 : -0.0388934612274, Q4 : -0.00117219320964}
2019-04-14 11:49:27.41: SIM {TimeUS : 55034644, Roll : 4.95, Pitch : -4.66, Yaw : 359.69, Alt : 49.2000007629, Lat : 49.2835716, Lng : -123.1150189, Q1 : 0.998239517212, Q2 : 0.0430558882654, Q3 : -0.0407838076353, Q4 : -0.000871405936778}
2019-04-14 11:49:27.51: SIM {TimeUS : 55134604, Roll : 5.19, Pitch : -4.89, Yaw : 359.71, Alt : 49.2099990845, Lat : 49.283572, Lng : -123.1150183, Q1 : 0.998062252998, Q2 : 0.0451962612569, Q3 : -0.0427635684609, Q4 : -0.000588537717704}
2019-04-14 11:49:27.61: SIM {TimeUS : 55234564, Roll : 5.45, Pitch : -5.14, Yaw : 359.71, Alt : 49.2200012207, Lat : 49.2835724, Lng : -123.1150177, Q1 : 0.997861266136, Q2 : 0.0474447272718, Q3 : -0.044965274632, Q4 : -0.000338835641742}
2019-04-14 11:49:27.71: SIM {TimeUS : 55334524, Roll : 5.7, Pitch : -5.37, Yaw : 359.72, Alt : 49.2299995422, Lat : 49.2835728, Lng : -123.115017, Q1 : 0.997666716576, Q2 : 0.049587842077, Q3 : -0.0469274297357, Q4 : -0.000102349717054}
2019-04-14 11:49:27.81: SIM {TimeUS : 55434484, Roll : 5.9, Pitch : -5.54, Yaw : 359.72, Alt : 49.2299995422, Lat : 49.2835733, Lng : -123.1150161, Q1 : 0.997508168221, Q2 : 0.0513362921774, Q3 : -0.0483945868909, Q4 : 0.000115613649541}
2019-04-14 11:49:27.92: SIM {TimeUS : 55535277, Roll : 6.05, Pitch : -5.67, Yaw : 359.73, Alt : 49.2400016785, Lat : 49.2835739, Lng : -123.1150151, Q1 : 0.997385919094, Q2 : 0.0526200458407, Q3 : -0.04952127859, Q4 : 0.000293309130939}
2019-04-14 11:49:28.01: SIM {TimeUS : 55635237, Roll : 6.15, Pitch : -5.77, Yaw : 359.73, Alt : 49.2400016785, Lat : 49.2835745, Lng : -123.1150143, Q1 : 0.997291743755, Q2 : 0.053514175117, Q3 : -0.0504502989352, Q4 : 0.000419660587795}
2019-04-14 11:49:28.11: SIM {TimeUS : 55735197, Roll : 6.25, Pitch : -5.86, Yaw : 359.73, Alt : 49.25, Lat : 49.2835751, Lng : -123.1150132, Q1 : 0.997205197811, Q2 : 0.0544015951455, Q3 : -0.051205214113, Q4 : 0.000500118534546}
2019-04-14 11:49:28.21: SIM {TimeUS : 55835157, Roll : 6.42, Pitch : -5.94, Yaw : 359.74, Alt : 49.25, Lat : 49.2835758, Lng : -123.1150121, Q1 : 0.997089743614, Q2 : 0.0558202117682, Q3 : -0.0519203729928, Q4 : 0.000646099564619}
2019-04-14 11:49:28.31: SIM {TimeUS : 55935117, Roll : 6.79, Pitch : -5.91, Yaw : 359.98, Alt : 49.2599983215, Lat : 49.2835765, Lng : -123.1150108, Q1 : 0.996914505959, Q2 : 0.0591885633767, Q3 : -0.0514766797423, Q4 : 0.00289768143557}
2019-04-14 11:49:28.41: SIM {TimeUS : 56035077, Roll : 7.39, Pitch : -5.78, Yaw : 1.07, Alt : 49.2599983215, Lat : 49.2835774, Lng : -123.1150095, Q1 : 0.996572911739, Q2 : 0.0648941770196, Q3 : -0.0497231520712, Q4 : 0.0126008531079}
2019-04-14 11:49:28.51: SIM {TimeUS : 56135037, Roll : 7.98, Pitch : -5.87, Yaw : 3.61, Alt : 49.2599983215, Lat : 49.2835782, Lng : -123.1150082, Q1 : 0.995653927326, Q2 : 0.0711313337088, Q3 : -0.0488904677331, Q4 : 0.0349769182503}
2019-04-14 11:49:28.61: SIM {TimeUS : 56234997, Roll : 8.27, Pitch : -6.4, Yaw : 7.74, Alt : 49.2599983215, Lat : 49.2835791, Lng : -123.1150067, Q1 : 0.993289172649, Q2 : 0.0756409168243, Q3 : -0.0507671535015, Q4 : 0.0712587982416}
2019-04-14 11:49:28.71: SIM {TimeUS : 56334957, Roll : 8.03, Pitch : -7.39, Yaw : 13.31, Alt : 49.2599983215, Lat : 49.28358, Lng : -123.1150051, Q1 : 0.988229691982, Q2 : 0.0768773108721, Q3 : -0.055802013725, Q4 : 0.11990866065}
2019-04-14 11:49:28.81: SIM {TimeUS : 56434917, Roll : 7.14, Pitch : -8.69, Yaw : 20.09, Alt : 49.2700004578, Lat : 49.2835808, Lng : -123.1150033, Q1 : 0.979096591473, Q2 : 0.074384868145, Q3 : -0.0636342689395, Q4 : 0.178290337324}
2019-04-14 11:49:28.91: SIM {TimeUS : 56534877, Roll : 5.61, Pitch : -10.11, Yaw : 27.81, Alt : 49.2700004578, Lat : 49.2835818, Lng : -123.1150015, Q1 : 0.964699864388, Q2 : 0.0685565471649, Q3 : -0.0736954286695, Q4 : 0.243357971311}
2019-04-14 11:49:29.01: SIM {TimeUS : 56634837, Roll : 3.32, Pitch : -11.41, Yaw : 36.13, Alt : 49.2700004578, Lat : 49.2835826, Lng : -123.1149996, Q1 : 0.944690465927, Q2 : 0.0583142526448, Q3 : -0.0855831280351, Q4 : 0.311183035374}
2019-04-14 11:49:29.11: SIM {TimeUS : 56734797, Roll : 0.31, Pitch : -12.35, Yaw : 44.32, Alt : 49.2700004578, Lat : 49.2835837, Lng : -123.1149975, Q1 : 0.92062920332, Q2 : 0.0430983752012, Q3 : -0.0986742079258, Q4 : 0.375297039747}
2019-04-14 11:49:29.21: SIM {TimeUS : 56834757, Roll : -2.89, Pitch : -12.78, Yaw : 51.5, Alt : 49.2700004578, Lat : 49.2835848, Lng : -123.1149954, Q1 : 0.895993888378, Q2 : 0.0257962681353, Q3 : -0.111178249121, Q4 : 0.429148972034}
2019-04-14 11:49:29.31: SIM {TimeUS : 56934717, Roll : -5.59, Pitch : -12.78, Yaw : 56.98, Alt : 49.2700004578, Lat : 49.283586, Lng : -123.1149932, Q1 : 0.874954164028, Q2 : 0.0104083698243, Q3 : -0.12085095048, Q4 : 0.468766391277}
2019-04-14 11:49:29.41: SIM {TimeUS : 57034677, Roll : -7.32, Pitch : -12.58, Yaw : 60.45, Alt : 49.2700004578, Lat : 49.2835873, Lng : -123.114991, Q1 : 0.860610544682, Q2 : 0.000197473462322, Q3 : -0.126449346542, Q4 : 0.493315398693}
2019-04-14 11:49:29.51: SIM {TimeUS : 57134637, Roll : -7.96, Pitch : -12.44, Yaw : 61.99, Alt : 49.2700004578, Lat : 49.2835885, Lng : -123.1149888, Q1 : 0.853950738907, Q2 : -0.0034608154092, Q3 : -0.128253623843, Q4 : 0.50428879261}
2019-04-14 11:49:29.61: SIM {TimeUS : 57234597, Roll : -7.65, Pitch : -12.54, Yaw : 61.92, Alt : 49.2700004578, Lat : 49.2835901, Lng : -123.1149865, Q1 : 0.854231417179, Q2 : -0.000831618031953, Q3 : -0.12758898735, Q4 : 0.503993153572}
2019-04-14 11:49:29.71: SIM {TimeUS : 57334557, Roll : -6.62, Pitch : -12.91, Yaw : 60.58, Alt : 49.2700004578, Lat : 49.2835916, Lng : -123.1149842, Q1 : 0.859808027744, Q2 : 0.00702928379178, Q3 : -0.125907540321, Q4 : 0.494801044464}
2019-04-14 11:49:29.81: SIM {TimeUS : 57434517, Roll : -5.13, Pitch : -13.52, Yaw : 58.34, Alt : 49.2700004578, Lat : 49.2835934, Lng : -123.1149819, Q1 : 0.868800282478, Q2 : 0.0184506885707, Q3 : -0.124376237392, Q4 : 0.478932321072}
2019-04-14 11:49:29.91: SIM {TimeUS : 57534477, Roll : -3.39, Pitch : -14.23, Yaw : 55.49, Alt : 49.2700004578, Lat : 49.2835951, Lng : -123.1149795, Q1 : 0.87950026989, Q2 : 0.031661875546, Q3 : -0.123319111764, Q4 : 0.458551228046}
2019-04-14 11:49:30.02: SIM {TimeUS : 57635270, Roll : -1.57, Pitch : -14.92, Yaw : 52.33, Alt : 49.2799987793, Lat : 49.2835969, Lng : -123.114977, Q1 : 0.890602231026, Q2 : 0.045060005039, Q3 : -0.1225380674, Q4 : 0.435639381409}
2019-04-14 11:49:30.11: SIM {TimeUS : 57735230, Roll : 0.13, Pitch : -15.42, Yaw : 49.23, Alt : 49.2799987793, Lat : 49.2835988, Lng : -123.1149744, Q1 : 0.90081012249, Q2 : 0.0569923855364, Q3 : -0.121490590274, Q4 : 0.412956565619}
2019-04-14 11:49:30.21: SIM {TimeUS : 57835190, Roll : 1.61, Pitch : -15.69, Yaw : 46.49, Alt : 49.2799987793, Lat : 49.2836006, Lng : -123.1149717, Q1 : 0.909344494343, Q2 : 0.0667011961341, Q3 : -0.119979605079, Q4 : 0.392744719982}
2019-04-14 11:49:30.31: SIM {TimeUS : 57935150, Roll : 2.71, Pitch : -15.8, Yaw : 44.36, Alt : 49.2799987793, Lat : 49.2836025, Lng : -123.1149689, Q1 : 0.91570943594, Q2 : 0.0736029446125, Q3 : -0.11838465929, Q4 : 0.376887202263}
2019-04-14 11:49:30.41: SIM {TimeUS : 58035110, Roll : 3.36, Pitch : -15.79, Yaw : 42.98, Alt : 49.2799987793, Lat : 49.2836043, Lng : -123.114966, Q1 : 0.919777929783, Q2 : 0.077394977212, Q3 : -0.11710563302, Q4 : 0.366476297379}
2019-04-14 11:49:30.51: SIM {TimeUS : 58135070, Roll : 3.54, Pitch : -15.75, Yaw : 42.36, Alt : 49.2799987793, Lat : 49.2836063, Lng : -123.1149629, Q1 : 0.92164593935, Q2 : 0.0780984610319, Q3 : -0.116659492254, Q4 : 0.361745804548}
2019-04-14 11:49:30.61: SIM {TimeUS : 58235030, Roll : 3.3, Pitch : -15.73, Yaw : 42.46, Alt : 49.2799987793, Lat : 49.2836083, Lng : -123.1149597, Q1 : 0.921538054943, Q2 : 0.076214171946, Q3 : -0.117177829146, Q4 : 0.362254500389}
2019-04-14 11:49:30.71: SIM {TimeUS : 58334990, Roll : 2.76, Pitch : -15.76, Yaw : 43.12, Alt : 49.2799987793, Lat : 49.2836103, Lng : -123.1149564, Q1 : 0.919745743275, Q2 : 0.072574518621, Q3 : -0.118731856346, Q4 : 0.367019742727}
2019-04-14 11:49:30.81: SIM {TimeUS : 58434950, Roll : 1.98, Pitch : -15.85, Yaw : 44.19, Alt : 49.2799987793, Lat : 49.2836122, Lng : -123.1149531, Q1 : 0.916669130325, Q2 : 0.0677578002214, Q3 : -0.121307097375, Q4 : 0.374714851379}
2019-04-14 11:49:30.91: SIM {TimeUS : 58534910, Roll : 1.12, Pitch : -15.98, Yaw : 45.47, Alt : 49.2799987793, Lat : 49.2836144, Lng : -123.1149496, Q1 : 0.912760555744, Q2 : 0.0627093613148, Q3 : -0.124469794333, Q4 : 0.383983135223}
2019-04-14 11:49:31.01: SIM {TimeUS : 58634870, Roll : 0.31, Pitch : -16.1, Yaw : 46.79, Alt : 49.2799987793, Lat : 49.2836164, Lng : -123.1149461, Q1 : 0.90855628252, Q2 : 0.058135624975, Q3 : -0.127500623465, Q4 : 0.393559873104}
2019-04-14 11:49:31.11: SIM {TimeUS : 58734830, Roll : -0.38, Pitch : -16.2, Yaw : 48.01, Alt : 49.2799987793, Lat : 49.2836184, Lng : -123.1149425, Q1 : 0.904578268528, Q2 : 0.0542620569468, Q3 : -0.130118891597, Q4 : 0.402321904898}
2019-04-14 11:49:31.21: SIM {TimeUS : 58834790, Roll : -0.94, Pitch : -16.28, Yaw : 49.0, Alt : 49.2799987793, Lat : 49.2836207, Lng : -123.1149389, Q1 : 0.901243209839, Q2 : 0.0512938909233, Q3 : -0.132255584002, Q4 : 0.409436315298}
2019-04-14 11:49:31.31: SIM {TimeUS : 58934750, Roll : -1.31, Pitch : -16.35, Yaw : 49.69, Alt : 49.2799987793, Lat : 49.2836227, Lng : -123.1149352, Q1 : 0.89883607626, Q2 : 0.0494723469019, Q3 : -0.133786901832, Q4 : 0.414424061775}
2019-04-14 11:49:31.41: SIM {TimeUS : 59034710, Roll : -1.47, Pitch : -16.41, Yaw : 50.06, Alt : 49.2799987793, Lat : 49.283625, Lng : -123.1149315, Q1 : 0.897486507893, Q2 : 0.04885334149, Q3 : -0.134734541178, Q4 : 0.417106598616}
2019-04-14 11:49:31.51: SIM {TimeUS : 59134670, Roll : -1.46, Pitch : -16.45, Yaw : 50.13, Alt : 49.2900009155, Lat : 49.2836273, Lng : -123.1149277, Q1 : 0.897200345993, Q2 : 0.0491925776005, Q3 : -0.134951740503, Q4 : 0.417611896992}
2019-04-14 11:49:31.61: SIM {TimeUS : 59234630, Roll : -1.28, Pitch : -16.48, Yaw : 49.93, Alt : 49.2900009155, Lat : 49.2836296, Lng : -123.1149239, Q1 : 0.897801220417, Q2 : 0.0504821911454, Q3 : -0.134643867612, Q4 : 0.416263788939}
2019-04-14 11:49:31.71: SIM {TimeUS : 59334590, Roll : -0.98, Pitch : -16.52, Yaw : 49.54, Alt : 49.2900009155, Lat : 49.2836318, Lng : -123.1149201, Q1 : 0.899048447609, Q2 : 0.0525030456483, Q3 : -0.13400810957, Q4 : 0.413518041372}
2019-04-14 11:49:31.81: SIM {TimeUS : 59434550, Roll : -0.61, Pitch : -16.55, Yaw : 49.02, Alt : 49.2900009155, Lat : 49.2836341, Lng : -123.1149162, Q1 : 0.900679111481, Q2 : 0.0548850446939, Q3 : -0.133241906762, Q4 : 0.409891873598}
2019-04-14 11:49:31.91: SIM {TimeUS : 59534510, Roll : -0.24, Pitch : -16.59, Yaw : 48.47, Alt : 49.2900009155, Lat : 49.2836366, Lng : -123.1149123, Q1 : 0.902434706688, Q2 : 0.0573574602604, Q3 : -0.132461741567, Q4 : 0.405925661325}
2019-04-14 11:49:32.01: SIM {TimeUS : 59634470, Roll : 0.1, Pitch : -16.64, Yaw : 47.93, Alt : 49.2900009155, Lat : 49.283639, Lng : -123.1149084, Q1 : 0.90409040451, Q2 : 0.0596395134926, Q3 : -0.131867662072, Q4 : 0.402087807655}
2019-04-14 11:49:32.12: SIM {TimeUS : 59735263, Roll : 0.38, Pitch : -16.68, Yaw : 47.47, Alt : 49.2900009155, Lat : 49.2836414, Lng : -123.1149044, Q1 : 0.905511021614, Q2 : 0.0614271759987, Q3 : -0.131476998329, Q4 : 0.398735910654}
2019-04-14 11:49:32.21: SIM {TimeUS : 59835223, Roll : 0.55, Pitch : -16.71, Yaw : 47.12, Alt : 49.2900009155, Lat : 49.2836439, Lng : -123.1149002, Q1 : 0.906581223011, Q2 : 0.0625329911709, Q3 : -0.131287559867, Q4 : 0.396186500788}
2019-04-14 11:49:32.31: SIM {TimeUS : 59935183, Roll : 0.64, Pitch : -16.74, Yaw : 46.9, Alt : 49.2900009155, Lat : 49.2836463, Lng : -123.1148963, Q1 : 0.907253026962, Q2 : 0.0630835443735, Q3 : -0.131382837892, Q4 : 0.394526302814}
2019-04-14 11:49:32.41: SIM {TimeUS : 60035143, Roll : 0.64, Pitch : -16.79, Yaw : 46.81, Alt : 49.2900009155, Lat : 49.2836487, Lng : -123.1148921, Q1 : 0.90751439333, Q2 : 0.0631548985839, Q3 : -0.131831973791, Q4 : 0.393763184547}
2019-04-14 11:49:32.51: SIM {TimeUS : 60135103, Roll : 0.56, Pitch : -16.84, Yaw : 46.83, Alt : 49.2900009155, Lat : 49.2836511, Lng : -123.114888, Q1 : 0.907441318035, Q2 : 0.0626614242792, Q3 : -0.132453963161, Q4 : 0.393801629543}
2019-04-14 11:49:32.61: SIM {TimeUS : 60235063, Roll : 0.42, Pitch : -16.87, Yaw : 46.94, Alt : 49.2900009155, Lat : 49.2836536, Lng : -123.1148838, Q1 : 0.907104969025, Q2 : 0.0618026703596, Q3 : -0.133091315627, Q4 : 0.394496798515}
2019-04-14 11:49:32.71: SIM {TimeUS : 60335023, Roll : 0.25, Pitch : -16.89, Yaw : 47.11, Alt : 49.2900009155, Lat : 49.2836561, Lng : -123.1148796, Q1 : 0.906581640244, Q2 : 0.060752145946, Q3 : -0.133778065443, Q4 : 0.39562907815}
2019-04-14 11:49:32.81: SIM {TimeUS : 60434983, Roll : 0.11, Pitch : -16.93, Yaw : 47.31, Alt : 49.2900009155, Lat : 49.2836586, Lng : -123.1148753, Q1 : 0.905927300453, Q2 : 0.0599493905902, Q3 : -0.134455293417, Q4 : 0.397018432617}
2019-04-14 11:49:32.91: SIM {TimeUS : 60534943, Roll : -0.01, Pitch : -16.96, Yaw : 47.51, Alt : 49.2999992371, Lat : 49.2836612, Lng : -123.114871, Q1 : 0.905252575874, Q2 : 0.0593147315085, Q3 : -0.135103195906, Q4 : 0.398430287838}
2019-04-14 11:49:33.01: SIM {TimeUS : 60634903, Roll : -0.11, Pitch : -17.01, Yaw : 47.69, Alt : 49.2999992371, Lat : 49.2836638, Lng : -123.1148667, Q1 : 0.904633998871, Q2 : 0.058924689889, Q3 : -0.135700464249, Q4 : 0.399688214064}
2019-04-14 11:49:33.11: SIM {TimeUS : 60734863, Roll : -0.16, Pitch : -17.06, Yaw : 47.82, Alt : 49.2999992371, Lat : 49.2836663, Lng : -123.1148624, Q1 : 0.904131412506, Q2 : 0.0588645376265, Q3 : -0.136196017265, Q4 : 0.40066447854}
2019-04-14 11:49:33.21: SIM {TimeUS : 60834823, Roll : -0.19, Pitch : -17.11, Yaw : 47.9, Alt : 49.2999992371, Lat : 49.2836688, Lng : -123.1148581, Q1 : 0.903797388077, Q2 : 0.0589017085731, Q3 : -0.136632949114, Q4 : 0.401263356209}
2019-04-14 11:49:33.31: SIM {TimeUS : 60934783, Roll : -0.2, Pitch : -17.13, Yaw : 47.93, Alt : 49.2999992371, Lat : 49.2836714, Lng : -123.1148537, Q1 : 0.903670608997, Q2 : 0.0589063987136, Q3 : -0.136858388782, Q4 : 0.401471406221}
2019-04-14 11:49:33.41: SIM {TimeUS : 61034743, Roll : -0.2, Pitch : -17.15, Yaw : 47.91, Alt : 49.2999992371, Lat : 49.2836741, Lng : -123.1148493, Q1 : 0.903718292713, Q2 : 0.0589670240879, Q3 : -0.136990174651, Q4 : 0.40131020546}
2019-04-14 11:49:33.51: SIM {TimeUS : 61134703, Roll : -0.16, Pitch : -17.16, Yaw : 47.85, Alt : 49.2999992371, Lat : 49.2836767, Lng : -123.1148449, Q1 : 0.903895497322, Q2 : 0.0592308565974, Q3 : -0.136982262135, Q4 : 0.400874733925}
2019-04-14 11:49:33.61: SIM {TimeUS : 61234663, Roll : -0.11, Pitch : -17.17, Yaw : 47.76, Alt : 49.2999992371, Lat : 49.2836793, Lng : -123.1148405, Q1 : 0.904162287712, Q2 : 0.0595933794975, Q3 : -0.136960297823, Q4 : 0.400226384401}
2019-04-14 11:49:33.71: SIM {TimeUS : 61334623, Roll : -0.03, Pitch : -17.21, Yaw : 47.66, Alt : 49.2999992371, Lat : 49.283682, Lng : -123.1148361, Q1 : 0.904449462891, Q2 : 0.0602103881538, Q3 : -0.137019574642, Q4 : 0.399464100599}
2019-04-14 11:49:33.81: SIM {TimeUS : 61434583, Roll : 0.05, Pitch : -17.27, Yaw : 47.55, Alt : 49.3100013733, Lat : 49.2836846, Lng : -123.1148315, Q1 : 0.904717445374, Q2 : 0.0609670467675, Q3 : -0.137223720551, Q4 : 0.398671656847}
2019-04-14 11:49:33.91: SIM {TimeUS : 61534543, Roll : 0.12, Pitch : -17.31, Yaw : 47.45, Alt : 49.3100013733, Lat : 49.2836872, Lng : -123.1148271, Q1 : 0.904993236065, Q2 : 0.0615352317691, Q3 : -0.137348294258, Q4 : 0.397914737463}
2019-04-14 11:49:34.01: SIM {TimeUS : 61634503, Roll : 0.17, Pitch : -17.31, Yaw : 47.36, Alt : 49.3100013733, Lat : 49.28369, Lng : -123.1148226, Q1 : 0.905271351337, Q2 : 0.0618679448962, Q3 : -0.137246504426, Q4 : 0.397265195847}
2019-04-14 11:49:34.11: SIM {TimeUS : 61734463, Roll : 0.2, Pitch : -17.32, Yaw : 47.29, Alt : 49.3100013733, Lat : 49.2836926, Lng : -123.1148181, Q1 : 0.905492842197, Q2 : 0.0619984194636, Q3 : -0.137234970927, Q4 : 0.396743565798}
2019-04-14 11:49:34.22: SIM {TimeUS : 61835256, Roll : 0.19, Pitch : -17.34, Yaw : 47.24, Alt : 49.3100013733, Lat : 49.2836954, Lng : -123.1148136, Q1 : 0.905635237694, Q2 : 0.0619865469635, Q3 : -0.137440770864, Q4 : 0.396349012852}
2019-04-14 11:49:34.31: SIM {TimeUS : 61935216, Roll : 0.19, Pitch : -17.35, Yaw : 47.21, Alt : 49.3100013733, Lat : 49.283698, Lng : -123.114809, Q1 : 0.905704379082, Q2 : 0.0619439147413, Q3 : -0.137614354491, Q4 : 0.396137356758}
2019-04-14 11:49:34.41: SIM {TimeUS : 62035176, Roll : 0.17, Pitch : -17.38, Yaw : 47.21, Alt : 49.3100013733, Lat : 49.2837008, Lng : -123.1148045, Q1 : 0.905708730221, Q2 : 0.0618783198297, Q3 : -0.137880161405, Q4 : 0.396045267582}
2019-04-14 11:49:34.51: SIM {TimeUS : 62135136, Roll : 0.15, Pitch : -17.4, Yaw : 47.21, Alt : 49.3100013733, Lat : 49.2837034, Lng : -123.1147999, Q1 : 0.90567445755, Q2 : 0.0618077479303, Q3 : -0.138131141663, Q4 : 0.396047234535}
2019-04-14 11:49:34.61: SIM {TimeUS : 62235096, Roll : 0.13, Pitch : -17.43, Yaw : 47.22, Alt : 49.3100013733, Lat : 49.2837063, Lng : -123.1147953, Q1 : 0.905600965023, Q2 : 0.0618083439767, Q3 : -0.13840483129, Q4 : 0.396119624376}
2019-04-14 11:49:34.71: SIM {TimeUS : 62335056, Roll : 0.12, Pitch : -17.45, Yaw : 47.24, Alt : 49.3100013733, Lat : 49.2837089, Lng : -123.1147907, Q1 : 0.905527353287, Q2 : 0.0618189163506, Q3 : -0.138575360179, Q4 : 0.396226614714}
2019-04-14 11:49:34.81: SIM {TimeUS : 62435016, Roll : 0.13, Pitch : -17.48, Yaw : 47.26, Alt : 49.3100013733, Lat : 49.2837117, Lng : -123.1147861, Q1 : 0.905434429646, Q2 : 0.0619661323726, Q3 : -0.138764560223, Q4 : 0.39634975791}
2019-04-14 11:49:34.91: SIM {TimeUS : 62534976, Roll : 0.14, Pitch : -17.5, Yaw : 47.27, Alt : 49.3100013733, Lat : 49.2837144, Lng : -123.1147815, Q1 : 0.905349731445, Q2 : 0.0621333234012, Q3 : -0.138933971524, Q4 : 0.396457612514}
2019-04-14 11:49:35.01: SIM {TimeUS : 62634936, Roll : 0.13, Pitch : -17.54, Yaw : 47.28, Alt : 49.3100013733, Lat : 49.2837172, Lng : -123.1147768, Q1 : 0.905276715755, Q2 : 0.0622389689088, Q3 : -0.139250829816, Q4 : 0.396496713161}
2019-04-14 11:49:35.11: SIM {TimeUS : 62734896, Roll : 0.1, Pitch : -17.58, Yaw : 47.28, Alt : 49.3199996948, Lat : 49.2837199, Lng : -123.1147722, Q1 : 0.905235409737, Q2 : 0.0621288269758, Q3 : -0.139688193798, Q4 : 0.396454483271}
2019-04-14 11:49:35.21: SIM {TimeUS : 62834856, Roll : 0.07, Pitch : -17.63, Yaw : 47.28, Alt : 49.3199996948, Lat : 49.2837228, Lng : -123.1147675, Q1 : 0.905216395855, Q2 : 0.0620251260698, Q3 : -0.140148058534, Q4 : 0.396351754665}
2019-04-14 11:49:35.31: SIM {TimeUS : 62934816, Roll : 0.07, Pitch : -17.66, Yaw : 47.26, Alt : 49.3199996948, Lat : 49.2837254, Lng : -123.1147629, Q1 : 0.905221164227, Q2 : 0.0621161498129, Q3 : -0.140414431691, Q4 : 0.396232306957}
2019-04-14 11:49:35.41: SIM {TimeUS : 63034776, Roll : 0.09, Pitch : -17.66, Yaw : 47.24, Alt : 49.3199996948, Lat : 49.2837283, Lng : -123.1147582, Q1 : 0.90527588129, Q2 : 0.0623183846474, Q3 : -0.14034293592, Q4 : 0.396100759506}
2019-04-14 11:49:35.51: SIM {TimeUS : 63134736, Roll : 0.12, Pitch : -17.64, Yaw : 47.22, Alt : 49.3199996948, Lat : 49.2837311, Lng : -123.1147535, Q1 : 0.905375599861, Q2 : 0.0624478794634, Q3 : -0.140074193478, Q4 : 0.395947605371}
2019-04-14 11:49:35.61: SIM {TimeUS : 63234696, Roll : 0.14, Pitch : -17.62, Yaw : 47.19, Alt : 49.3199996948, Lat : 49.2837338, Lng : -123.1147488, Q1 : 0.905480027199, Q2 : 0.062482662499, Q3 : -0.139925017953, Q4 : 0.395756065845}
2019-04-14 11:49:35.71: SIM {TimeUS : 63334656, Roll : 0.14, Pitch : -17.61, Yaw : 47.16, Alt : 49.3199996948, Lat : 49.2837367, Lng : -123.1147439, Q1 : 0.905592501163, Q2 : 0.0624105781317, Q3 : -0.139845579863, Q4 : 0.395538032055}
2019-04-14 11:49:35.81: SIM {TimeUS : 63434616, Roll : 0.14, Pitch : -17.6, Yaw : 47.13, Alt : 49.3199996948, Lat : 49.2837395, Lng : -123.1147393, Q1 : 0.905702292919, Q2 : 0.0623283609748, Q3 : -0.139797836542, Q4 : 0.395316511393}
2019-04-14 11:49:35.91: SIM {TimeUS : 63534576, Roll : 0.13, Pitch : -17.62, Yaw : 47.11, Alt : 49.3199996948, Lat : 49.2837424, Lng : -123.1147346, Q1 : 0.905776917934, Q2 : 0.062310308218, Q3 : -0.139967083931, Q4 : 0.395088374615}
2019-04-14 11:49:36.01: SIM {TimeUS : 63634536, Roll : 0.13, Pitch : -17.65, Yaw : 47.08, Alt : 49.3199996948, Lat : 49.2837452, Lng : -123.1147298, Q1 : 0.905818223953, Q2 : 0.0624051764607, Q3 : -0.14023283124, Q4 : 0.394884347916}
2019-04-14 11:49:36.11: SIM {TimeUS : 63734496, Roll : 0.13, Pitch : -17.7, Yaw : 47.06, Alt : 49.3199996948, Lat : 49.2837479, Lng : -123.1147251, Q1 : 0.905828714371, Q2 : 0.0625024661422, Q3 : -0.140653461218, Q4 : 0.394695371389}
2019-04-14 11:49:36.21: SIM {TimeUS : 63834456, Roll : 0.13, Pitch : -17.77, Yaw : 47.05, Alt : 49.3199996948, Lat : 49.2837508, Lng : -123.1147202, Q1 : 0.905801355839, Q2 : 0.0627286508679, Q3 : -0.141163825989, Q4 : 0.39453998208}
2019-04-14 11:49:36.31: SIM {TimeUS : 63935249, Roll : 0.15, Pitch : -17.8, Yaw : 47.03, Alt : 49.3199996948, Lat : 49.2837537, Lng : -123.1147155, Q1 : 0.905795276165, Q2 : 0.0629404261708, Q3 : -0.141373977065, Q4 : 0.394445002079}
2019-04-14 11:49:36.41: SIM {TimeUS : 64035209, Roll : 0.15, Pitch : -17.82, Yaw : 47.02, Alt : 49.3300018311, Lat : 49.2837565, Lng : -123.1147107, Q1 : 0.905805885792, Q2 : 0.0630199536681, Q3 : -0.141498804092, Q4 : 0.394363105297}
2019-04-14 11:49:36.51: SIM {TimeUS : 64135169, Roll : 0.15, Pitch : -17.82, Yaw : 47.02, Alt : 49.3300018311, Lat : 49.2837594, Lng : -123.1147059, Q1 : 0.905827581882, Q2 : 0.0630197525024, Q3 : -0.141569748521, Q4 : 0.394287854433}
2019-04-14 11:49:36.61: SIM {TimeUS : 64235129, Roll : 0.16, Pitch : -17.81, Yaw : 47.01, Alt : 49.3300018311, Lat : 49.2837623, Lng : -123.1147012, Q1 : 0.905868709087, Q2 : 0.0630280598998, Q3 : -0.141401544213, Q4 : 0.394252449274}
2019-04-14 11:49:36.71: SIM {TimeUS : 64335089, Roll : 0.17, Pitch : -17.81, Yaw : 47.0, Alt : 49.3300018311, Lat : 49.283765, Lng : -123.1146964, Q1 : 0.905888080597, Q2 : 0.0631309151649, Q3 : -0.141346871853, Q4 : 0.394211113453}
2019-04-14 11:49:36.81: SIM {TimeUS : 64435049, Roll : 0.18, Pitch : -17.83, Yaw : 46.99, Alt : 49.3300018311, Lat : 49.2837679, Lng : -123.1146916, Q1 : 0.905885279179, Q2 : 0.0632373318076, Q3 : -0.141517058015, Q4 : 0.394139349461}
2019-04-14 11:49:36.91: SIM {TimeUS : 64535009, Roll : 0.18, Pitch : -17.85, Yaw : 46.98, Alt : 49.3300018311, Lat : 49.2837708, Lng : -123.1146867, Q1 : 0.905886590481, Q2 : 0.0633060634136, Q3 : -0.141688331962, Q4 : 0.394063770771}
2019-04-14 11:49:37.01: SIM {TimeUS : 64634969, Roll : 0.18, Pitch : -17.85, Yaw : 46.98, Alt : 49.3300018311, Lat : 49.2837737, Lng : -123.1146819, Q1 : 0.905908346176, Q2 : 0.0633575096726, Q3 : -0.141706511378, Q4 : 0.393998980522}
2019-04-14 11:49:37.11: SIM {TimeUS : 64734929, Roll : 0.18, Pitch : -17.86, Yaw : 46.97, Alt : 49.3300018311, Lat : 49.2837765, Lng : -123.1146771, Q1 : 0.905930936337, Q2 : 0.0633823946118, Q3 : -0.141791835427, Q4 : 0.393912315369}
2019-04-14 11:49:37.21: SIM {TimeUS : 64834889, Roll : 0.17, Pitch : -17.89, Yaw : 46.95, Alt : 49.3300018311, Lat : 49.2837794, Lng : -123.1146723, Q1 : 0.905951023102, Q2 : 0.0633396655321, Q3 : -0.142032474279, Q4 : 0.393786281347}
2019-04-14 11:49:37.31: SIM {TimeUS : 64934849, Roll : 0.14, Pitch : -17.93, Yaw : 46.94, Alt : 49.3300018311, Lat : 49.2837824, Lng : -123.1146673, Q1 : 0.9059638381, Q2 : 0.063249759376, Q3 : -0.142429962754, Q4 : 0.393627673388}
2019-04-14 11:49:37.41: SIM {TimeUS : 65034809, Roll : 0.14, Pitch : -17.93, Yaw : 46.93, Alt : 49.3300018311, Lat : 49.2837851, Lng : -123.1146626, Q1 : 0.9060100317, Q2 : 0.0631896406412, Q3 : -0.142520934343, Q4 : 0.393498033285}
2019-04-14 11:49:37.51: SIM {TimeUS : 65134769, Roll : 0.14, Pitch : -17.92, Yaw : 46.91, Alt : 49.3300018311, Lat : 49.283788, Lng : -123.1146577, Q1 : 0.906067311764, Q2 : 0.0632020235062, Q3 : -0.142428800464, Q4 : 0.393397480249}
2019-04-14 11:49:37.61: SIM {TimeUS : 65234729, Roll : 0.16, Pitch : -17.92, Yaw : 46.9, Alt : 49.3300018311, Lat : 49.283791, Lng : -123.1146529, Q1 : 0.906114399433, Q2 : 0.0633202344179, Q3 : -0.142309695482, Q4 : 0.393313199282}
2019-04-14 11:49:37.71: SIM {TimeUS : 65334689, Roll : 0.17, Pitch : -17.93, Yaw : 46.88, Alt : 49.3300018311, Lat : 49.2837939, Lng : -123.114648, Q1 : 0.906146705151, Q2 : 0.0634075775743, Q3 : -0.142365470529, Q4 : 0.393204391003}
2019-04-14 11:49:37.81: SIM {TimeUS : 65434649, Roll : 0.16, Pitch : -17.95, Yaw : 46.87, Alt : 49.3300018311, Lat : 49.2837968, Lng : -123.1146432, Q1 : 0.906168758869, Q2 : 0.0633912160993, Q3 : -0.142587915063, Q4 : 0.393075585365}
2019-04-14 11:49:37.91: SIM {TimeUS : 65534609, Roll : 0.14, Pitch : -17.97, Yaw : 46.86, Alt : 49.3400001526, Lat : 49.2837996, Lng : -123.1146383, Q1 : 0.906192183495, Q2 : 0.0632938742638, Q3 : -0.142846554518, Q4 : 0.392943352461}
2019-04-14 11:49:38.01: SIM {TimeUS : 65634569, Roll : 0.13, Pitch : -17.99, Yaw : 46.85, Alt : 49.3400001526, Lat : 49.2838026, Lng : -123.1146334, Q1 : 0.906210958958, Q2 : 0.0632655844092, Q3 : -0.143050581217, Q4 : 0.392830371857}
2019-04-14 11:49:38.11: SIM {TimeUS : 65734529, Roll : 0.14, Pitch : -18.01, Yaw : 46.83, Alt : 49.3400001526, Lat : 49.2838056, Lng : -123.1146285, Q1 : 0.906224191189, Q2 : 0.0633504241705, Q3 : -0.143186733127, Q4 : 0.39273661375}
2019-04-14 11:49:38.21: SIM {TimeUS : 65834489, Roll : 0.14, Pitch : -18.02, Yaw : 46.82, Alt : 49.3400001526, Lat : 49.2838085, Lng : -123.1146237, Q1 : 0.906240403652, Q2 : 0.0634417831898, Q3 : -0.143264383078, Q4 : 0.392656087875}
2019-04-14 11:49:38.32: SIM {TimeUS : 65935282, Roll : 0.16, Pitch : -18.04, Yaw : 46.81, Alt : 49.3400001526, Lat : 49.2838114, Lng : -123.1146187, Q1 : 0.906243622303, Q2 : 0.0636341124773, Q3 : -0.143295302987, Q4 : 0.392606288195}
2019-04-14 11:49:38.41: SIM {TimeUS : 66035242, Roll : 0.17, Pitch : -18.05, Yaw : 46.81, Alt : 49.3400001526, Lat : 49.2838142, Lng : -123.1146138, Q1 : 0.906248509884, Q2 : 0.06374797225, Q3 : -0.143366068602, Q4 : 0.392550706863}
2019-04-14 11:49:38.51: SIM {TimeUS : 66135202, Roll : 0.19, Pitch : -18.06, Yaw : 46.8, Alt : 49.3400001526, Lat : 49.2838172, Lng : -123.114609, Q1 : 0.906249821186, Q2 : 0.0638681352139, Q3 : -0.143447563052, Q4 : 0.392498344183}
2019-04-14 11:49:38.61: SIM {TimeUS : 66235162, Roll : 0.2, Pitch : -18.07, Yaw : 46.79, Alt : 49.3400001526, Lat : 49.2838202, Lng : -123.1146041, Q1 : 0.906251370907, Q2 : 0.0639976710081, Q3 : -0.143507540226, Q4 : 0.392451733351}
2019-04-14 11:49:38.71: SIM {TimeUS : 66335122, Roll : 0.22, Pitch : -18.08, Yaw : 46.79, Alt : 49.3400001526, Lat : 49.2838231, Lng : -123.1145992, Q1 : 0.906251251698, Q2 : 0.0641878992319, Q3 : -0.143504157662, Q4 : 0.392422169447}
2019-04-14 11:49:38.81: SIM {TimeUS : 66435082, Roll : 0.25, Pitch : -18.1, Yaw : 46.78, Alt : 49.3400001526, Lat : 49.2838261, Lng : -123.1145943, Q1 : 0.906236588955, Q2 : 0.0644947364926, Q3 : -0.143503040075, Q4 : 0.392406135798}
2019-04-14 11:49:38.91: SIM {TimeUS : 66535042, Roll : 0.26, Pitch : -18.1, Yaw : 46.77, Alt : 49.3400001526, Lat : 49.283829, Lng : -123.1145893, Q1 : 0.906254529953, Q2 : 0.0645136833191, Q3 : -0.14351080358, Q4 : 0.392358720303}
2019-04-14 11:49:39.01: SIM {TimeUS : 66635002, Roll : 0.23, Pitch : -18.11, Yaw : 46.77, Alt : 49.3400001526, Lat : 49.2838319, Lng : -123.1145844, Q1 : 0.906276106834, Q2 : 0.0643541365862, Q3 : -0.143694832921, Q4 : 0.392267733812}
2019-04-14 11:49:39.11: SIM {TimeUS : 66734962, Roll : 0.2, Pitch : -18.14, Yaw : 46.76, Alt : 49.3499984741, Lat : 49.2838348, Lng : -123.1145795, Q1 : 0.906281352043, Q2 : 0.0642171949148, Q3 : -0.144000157714, Q4 : 0.392166078091}
2019-04-14 11:49:39.21: SIM {TimeUS : 66834922, Roll : 0.17, Pitch : -18.16, Yaw : 46.75, Alt : 49.3499984741, Lat : 49.2838378, Lng : -123.1145746, Q1 : 0.906301259995, Q2 : 0.0639752969146, Q3 : -0.144281208515, Q4 : 0.392056286335}
