2019-04-14 11:31:20.30: SIM {TimeUS : 40716207, Roll : 0.0, Pitch : 0.0, Yaw : 0.0, Alt : 30.1000003815, Lat : 49.28357, Lng : -123.11502, Q1 : 1.0, Q2 : 0.0, Q3 : 0.0, Q4 : 0.0}
2019-04-14 11:31:20.41: SIM {TimeUS : 40835326, Roll : 0.0, Pitch : 0.0, Yaw : 0.0, Alt : 30.1000003815, Lat : 49.28357, Lng : -123.11502, Q1 : 1.0, Q2 : 0.0, Q3 : 0.0, Q4 : 0.0}
2019-04-14 11:31:20.51: SIM {TimeUS : 40935286, Roll : 0.0, Pitch : 0.0, Yaw : 0.0, Alt : 30.1000003815, Lat : 49.28357, Lng : -123.11502, Q1 : 1.0, Q2 : 0.0, Q3 : 0.0, Q4 : 0.0}
2019-04-14 11:31:20.61: SIM {TimeUS : 41035246, Roll : 0.0, Pitch : 0.0, Yaw : 0.0, Alt : 30.1000003815, Lat : 49.28357, Lng : -123.11502, Q1 : 1.0, Q2 : 0.0, Q3 : 0.0, Q4 : 0.0}
2019-04-14 11:31:20.71: SIM {TimeUS : 41135206, Roll : 0.0, Pitch : 0.0, Yaw : 0.0, Alt : 30.1000003815, Lat : 49.28357, Lng : -123.11502, Q1 : 1.0, Q2 : 0.0, Q3 : 0.0, Q4 : 0.0}
2019-04-14 11:31:20.81: SIM {TimeUS : 41235166, Roll : 0.0, Pitch : 0.0, Yaw : 0.0, Alt : 30.1000003815, Lat : 49.28357, Lng : -123.11502, Q1 : 1.0, Q2 : 0.0, Q3 : 0.0, Q4 : 0.0}
2019-04-14 11:31:20.91: SIM {TimeUS : 41335126, Roll : 0.0, Pitch : 0.0, Yaw : 0.0, Alt : 30.1000003815, Lat : 49.28357, Lng : -123.11502, Q1 : 1.0, Q2 : 0.0, Q3 : 0.0, Q4 : 0.0}
2019-04-14 11:31:21.01: SIM {TimeUS : 41435086, Roll : 0.0, Pitch : 0.0, Yaw : 0.0, Alt : 30.1000003815, Lat : 49.28357, Lng : -123.11502, Q1 : 1.0, Q2 : 0.0, Q3 : 0.0, Q4 : 0.0}
2019-04-14 11:31:21.11: SIM {TimeUS : 41535046, Roll : 0.0, Pitch : 0.0, Yaw : 0.0, Alt : 30.1000003815, Lat : 49.28357, Lng : -123.11502, Q1 : 1.0, Q2 : 0.0, Q3 : 0.0, Q4 : 0.0}
2019-04-14 11:31:21.21: SIM {TimeUS : 41635006, Roll : 0.0, Pitch : 0.0, Yaw : 0.0, Alt : 30.1000003815, Lat : 49.28357, Lng : -123.11502, Q1 : 1.0, Q2 : 0.0, Q3 : 0.0, Q4 : 0.0}
2019-04-14 11:31:21.31: SIM {TimeUS : 41734966, Roll : 0.0, Pitch : 0.0, Yaw : 0.0, Alt : 30.1000003815, Lat : 49.28357, Lng : -123.11502, Q1 : 1.0, Q2 : 0.0, Q3 : 0.0, Q4 : 0.0}
2019-04-14 11:31:21.41: SIM {TimeUS : 41834926, Roll : 0.0, Pitch : 0.0, Yaw : 0.0, Alt : 30.1000003815, Lat : 49.28357, Lng : -123.11502, Q1 : 1.0, Q2 : 0.0, Q3 : 0.0, Q4 : 0.0}
2019-04-14 11:31:21.51: SIM {TimeUS : 41934886, Roll : 0.0, Pitch : 0.0, Yaw : 0.0, Alt : 30.1000003815, Lat : 49.28357, Lng : -123.11502, Q1 : 1.0, Q2 : 0.0, Q3 : 0.0, Q4 : 0.0}
2019-04-14 11:31:21.61: SIM {TimeUS : 42034846, Roll : 0.0, Pitch : 0.0, Yaw : 0.0, Alt : 30.1000003815, Lat : 49.28357, Lng : -123.11502, Q1 : 1.0, Q2 : 0.0, Q3 : 0.0, Q4 : 0.0}
2019-04-14 11:31:21.71: SIM {TimeUS : 42134806, Roll : 0.0, Pitch : 0.0, Yaw : 0.0, Alt : 30.1000003815, Lat : 49.28357, Lng : -123.11502, Q1 : 1.0, Q2 : 0.0, Q3 : 0.0, Q4 : 0.0}
2019-04-14 11:31:21.81: SIM {TimeUS : 42234766, Roll : 0.0, Pitch : 0.0, Yaw : 0.0, Alt : 30.1000003815, Lat : 49.28357, Lng : -123.11502, Q1 : 1.0, Q2 : 0.0, Q3 : 0.0, Q4 : 0.0}
2019-04-14 11:31:21.91: SIM {TimeUS : 42334726, Roll : 0.0, Pitch : 0.0, Yaw : 0.0, Alt : 30.1000003815, Lat : 49.28357, Lng : -123.11502, Q1 : 1.0, Q2 : 0.0, Q3 : 0.0, Q4 : 0.0}
2019-04-14 11:31:22.01: SIM {TimeUS : 42434686, Roll : 0.0, Pitch : 0.0, Yaw : 0.0, Alt : 30.1000003815, Lat : 49.28357, Lng : -123.11502, Q1 : 1.0, Q2 : 0.0, Q3 : 0.0, Q4 : 0.0}
2019-04-14 11:31:22.11: SIM {TimeUS : 42534646, Roll : 0.0, Pitch : 0.0, Yaw : 0.0, Alt : 30.1000003815, Lat : 49.28357, Lng : -123.11502, Q1 : 1.0, Q2 : 0.0, Q3 : 0.0, Q4 : 0.0}
2019-04-14 11:31:22.21: SIM {TimeUS : 42634606, Roll : 0.0, Pitch : 0.0, Yaw : 0.0, Alt : 30.1000003815, Lat : 49.28357, Lng : -123.11502, Q1 : 1.0, Q2 : 0.0, Q3 : 0.0, Q4 : 0.0}
2019-04-14 11:31:22.31: SIM {TimeUS : 42734566, Roll : 0.0, Pitch : 0.0, Yaw : 0.0, Alt : 30.1000003815, Lat : 49.28357, Lng : -123.11502, Q1 : 1.0, Q2 : 0.0, Q3 : 0.0, Q4 : 0.0}
2019-04-14 11:31:22.42: SIM {TimeUS : 42835359, Roll : 0.0, Pitch : 0.0, Yaw : 0.0, Alt : 30.1000003815, Lat : 49.28357, Lng : -123.11502, Q1 : 1.0, Q2 : 0.0, Q3 : 0.0, Q4 : 0.0}
2019-04-14 11:31:22.51: SIM {TimeUS : 42935319, Roll : 0.0, Pitch : 0.0, Yaw : 0.0, Alt : 30.1000003815, Lat : 49.28357, Lng : -123.11502, Q1 : 1.0, Q2 : 0.0, Q3 : 0.0, Q4 : 0.0}
2019-04-14 11:31:22.61: SIM {TimeUS : 43035279, Roll : 0.0, Pitch : 0.0, Yaw : 0.0, Alt : 30.1000003815, Lat : 49.28357, Lng : -123.11502, Q1 : 1.0, Q2 : 0.0, Q3 : 0.0, Q4 : 6.45378759115e-12}
2019-04-14 11:31:22.71: SIM {TimeUS : 43135239, Roll : 0.0, Pitch : 0.0, Yaw : 0.0, Alt : 30.1000003815, Lat : 49.28357, Lng : -123.11502, Q1 : 1.0, Q2 : 0.0, Q3 : 0.0, Q4 : 1.04344363011e-11}
2019-04-14 11:31:22.81: SIM {TimeUS : 43235199, Roll : 0.0, Pitch : 0.0, Yaw : 360.0, Alt : 30.1000003815, Lat : 49.28357, Lng : -123.11502, Q1 : 1.0, Q2 : 0.0, Q3 : 0.0, Q4 : -9.69060778289e-08}
2019-04-14 11:31:22.91: SIM {TimeUS : 43335159, Roll : 0.0, Pitch : 0.0, Yaw : 359.99, Alt : 30.1000003815, Lat : 49.28357, Lng : -123.11502, Q1 : 1.0, Q2 : 0.0, Q3 : 0.0, Q4 : -2.49562532417e-07}
2019-04-14 11:31:23.01: SIM {TimeUS : 43435119, Roll : 0.0, Pitch : 0.0, Yaw : 359.99, Alt : 30.1000003815, Lat : 49.28357, Lng : -123.11502, Q1 : 1.0, Q2 : 0.0, Q3 : 0.0, Q4 : -4.56291587625e-07}
2019-04-14 11:31:23.11: SIM {TimeUS : 43535079, Roll : 0.0, Pitch : 0.0, Yaw : 359.99, Alt : 30.1000003815, Lat : 49.28357, Lng : -123.11502, Q1 : 1.0, Q2 : 0.0, Q3 : 0.0, Q4 : -6.12485280271e-07}
2019-04-14 11:31:23.21: SIM {TimeUS : 43635039, Roll : 0.0, Pitch : 0.0, Yaw : 359.99, Alt : 30.1000003815, Lat : 49.28357, Lng : -123.11502, Q1 : 1.0, Q2 : 0.0, Q3 : 0.0, Q4 : -8.06498121619e-07}
2019-04-14 11:31:23.31: SIM {TimeUS : 43734999, Roll : 0.0, Pitch : 0.0, Yaw : 359.99, Alt : 30.1000003815, Lat : 49.28357, Lng : -123.11502, Q1 : 1.0, Q2 : 0.0, Q3 : 0.0, Q4 : -9.7890165307e-07}
2019-04-14 11:31:23.41: SIM {TimeUS : 43834959, Roll : 0.0, Pitch : 0.0, Yaw : 359.99, Alt : 30.1000003815, Lat : 49.28357, Lng : -123.11502, Q1 : 1.0, Q2 : 0.0, Q3 : 0.0, Q4 : -1.15503428333e-06}
2019-04-14 11:31:23.51: SIM {TimeUS : 43934919, Roll : 0.0, Pitch : 0.0, Yaw : 359.99, Alt : 30.1100006104, Lat : 49.28357, Lng : -123.11502, Q1 : 1.0, Q2 : 0.0, Q3 : 0.0, Q4 : -1.34757715387e-06}
2019-04-14 11:31:23.61: SIM {TimeUS : 44034879, Roll : 0.0, Pitch : 0.0, Yaw : 359.99, Alt : 30.1299991608, Lat : 49.28357, Lng : -123.11502, Q1 : 1.0, Q2 : 0.0, Q3 : 0.0, Q4 : -1.56363739734e-06}
2019-04-14 11:31:23.71: SIM {TimeUS : 44134839, Roll : 0.0, Pitch : 0.0, Yaw : 359.99, Alt : 30.1599998474, Lat : 49.28357, Lng : -123.11502, Q1 : 1.0, Q2 : 0.0, Q3 : 0.0, Q4 : -1.81010864253e-06}
2019-04-14 11:31:23.81: SIM {TimeUS : 44234799, Roll : 0.0, Pitch : 0.0, Yaw : 359.99, Alt : 30.1900005341, Lat : 49.28357, Lng : -123.11502, Q1 : 1.0, Q2 : 0.0, Q3 : 0.0, Q4 : -2.03701415558e-06}
2019-04-14 11:31:23.91: SIM {TimeUS : 44334759, Roll : -0.03, Pitch : -0.03, Yaw : 359.99, Alt : 30.2299995422, Lat : 49.28357, Lng : -123.11502, Q1 : 0.999999940395, Q2 : -0.000281902059214, Q3 : -0.000263788417215, Q4 : -4.0382460611e-06}
2019-04-14 11:31:24.01: SIM {TimeUS : 44434719, Roll : -0.25, Pitch : -0.26, Yaw : 359.99, Alt : 30.2999992371, Lat : 49.28357, Lng : -123.11502, Q1 : 0.999994933605, Q2 : -0.00223296368495, Q3 : -0.00228156684898, Q4 : -2.77438502962e-05}
2019-04-14 11:31:24.11: SIM {TimeUS : 44534679, Roll : -0.54, Pitch : -0.53, Yaw : 359.99, Alt : 30.4400005341, Lat : 49.28357, Lng : -123.11502, Q1 : 0.999977767467, Q2 : -0.00477814022452, Q3 : -0.00465042237192, Q4 : -8.11356658232e-05}
2019-04-14 11:31:24.21: SIM {TimeUS : 44634639, Roll : -0.77, Pitch : -0.7, Yaw : 359.98, Alt : 30.5900001526, Lat : 49.28357, Lng : -123.11502, Q1 : 0.999958515167, Q2 : -0.00672701233998, Q3 : -0.00613874010742, Q4 : -0.000154296911205}
2019-04-14 11:31:24.31: SIM {TimeUS : 44734599, Roll : -0.83, Pitch : -0.74, Yaw : 359.97, Alt : 30.75, Lat : 49.28357, Lng : -123.11502, Q1 : 0.999952554703, Q2 : -0.00729084713385, Q3 : -0.00645755138248, Q4 : -0.000232829421293}
2019-04-14 11:31:24.41: SIM {TimeUS : 44834559, Roll : -0.74, Pitch : -0.65, Yaw : 359.96, Alt : 30.9099998474, Lat : 49.28357, Lng : -123.1150201, Q1 : 0.999962508678, Q2 : -0.00647873338312, Q3 : -0.00573660712689, Q4 : -0.000317538069794}
2019-04-14 11:31:24.52: SIM {TimeUS : 44935352, Roll : -0.54, Pitch : -0.49, Yaw : 359.95, Alt : 31.0599994659, Lat : 49.2835701, Lng : -123.1150201, Q1 : 0.999979436398, Q2 : -0.00475646648556, Q3 : -0.00428229896352, Q4 : -0.000392780406401}
2019-04-14 11:31:24.61: SIM {TimeUS : 45035312, Roll : -0.3, Pitch : -0.29, Yaw : 359.94, Alt : 31.2199993134, Lat : 49.2835701, Lng : -123.1150202, Q1 : 0.999993026257, Q2 : -0.00265535432845, Q3 : -0.00257923523895, Q4 : -0.00045723299263}
2019-04-14 11:31:24.71: SIM {TimeUS : 45135272, Roll : -0.09, Pitch : -0.12, Yaw : 359.94, Alt : 31.3799991608, Lat : 49.2835702, Lng : -123.1150203, Q1 : 0.999998927116, Q2 : -0.000795633939561, Q3 : -0.00110641517676, Q4 : -0.000499855261296}
2019-04-14 11:31:24.81: SIM {TimeUS : 45235232, Roll : 0.04, Pitch : 0.0, Yaw : 359.93, Alt : 31.5599994659, Lat : 49.2835702, Lng : -123.1150204, Q1 : 0.999999761581, Q2 : 0.000392210233258, Q3 : -9.13591793505e-06, Q4 : -0.000527281488758}
2019-04-14 11:31:24.91: SIM {TimeUS : 45335192, Roll : 0.09, Pitch : 0.07, Yaw : 359.93, Alt : 31.7299995422, Lat : 49.2835702, Lng : -123.1150204, Q1 : 0.999999344349, Q2 : 0.000818050059024, Q3 : 0.000631130009424, Q4 : -0.000542055815458}
2019-04-14 11:31:25.01: SIM {TimeUS : 45435152, Roll : 0.07, Pitch : 0.1, Yaw : 359.93, Alt : 31.9099998474, Lat : 49.2835703, Lng : -123.1150205, Q1 : 0.99999922514, Q2 : 0.000684049271513, Q3 : 0.000875474943314, Q4 : -0.000546899682377}
2019-04-14 11:31:25.11: SIM {TimeUS : 45535112, Roll : 0.06, Pitch : 0.11, Yaw : 359.93, Alt : 32.0999984741, Lat : 49.2835703, Lng : -123.1150206, Q1 : 0.99999922514, Q2 : 0.000540645385627, Q3 : 0.00099810177926, Q4 : -0.000535013154149}
2019-04-14 11:31:25.21: SIM {TimeUS : 45635072, Roll : 0.05, Pitch : 0.12, Yaw : 359.94, Alt : 32.2900009155, Lat : 49.2835703, Lng : -123.1150206, Q1 : 0.999999165535, Q2 : 0.000483739713673, Q3 : 0.00108082802035, Q4 : -0.00051994813839}
2019-04-14 11:31:25.31: SIM {TimeUS : 45735032, Roll : 0.05, Pitch : 0.13, Yaw : 359.94, Alt : 32.4799995422, Lat : 49.2835703, Lng : -123.1150206, Q1 : 0.99999910593, Q2 : 0.000461710616946, Q3 : 0.00115565990563, Q4 : -0.000507443561219}
2019-04-14 11:31:25.41: SIM {TimeUS : 45834992, Roll : 0.06, Pitch : 0.15, Yaw : 359.94, Alt : 32.6800003052, Lat : 49.2835703, Lng : -123.1150207, Q1 : 0.999998867512, Q2 : 0.000541877525393, Q3 : 0.0013246294111, Q4 : -0.000496785505675}
2019-04-14 11:31:25.51: SIM {TimeUS : 45934952, Roll : 0.09, Pitch : 0.14, Yaw : 359.94, Alt : 32.8699989319, Lat : 49.2835703, Lng : -123.1150207, Q1 : 0.999998748302, Q2 : 0.00079791888129, Q3 : 0.00130282063037, Q4 : -0.000489480851684}
2019-04-14 11:31:25.61: SIM {TimeUS : 46034912, Roll : 0.12, Pitch : 0.13, Yaw : 359.94, Alt : 33.0699996948, Lat : 49.2835704, Lng : -123.1150207, Q1 : 0.999998629093, Q2 : 0.00110318104271, Q3 : 0.00113895710092, Q4 : -0.000485017400933}
2019-04-14 11:31:25.71: SIM {TimeUS : 46134872, Roll : 0.15, Pitch : 0.11, Yaw : 359.94, Alt : 33.2799987793, Lat : 49.2835704, Lng : -123.1150208, Q1 : 0.999998450279, Q2 : 0.00138637679629, Q3 : 0.0010055124294, Q4 : -0.000476678047562}
2019-04-14 11:31:25.81: SIM {TimeUS : 46234832, Roll : 0.17, Pitch : 0.11, Yaw : 359.94, Alt : 33.4799995422, Lat : 49.2835704, Lng : -123.1150208, Q1 : 0.999998152256, Q2 : 0.00155708554666, Q3 : 0.000999526004307, Q4 : -0.000467317702714}
2019-04-14 11:31:25.91: SIM {TimeUS : 46334792, Roll : 0.19, Pitch : 0.12, Yaw : 359.94, Alt : 33.6899986267, Lat : 49.2835704, Lng : -123.1150208, Q1 : 0.999997794628, Q2 : 0.00170855992474, Q3 : 0.00111253559589, Q4 : -0.000458629190689}
2019-04-14 11:31:26.01: SIM {TimeUS : 46434752, Roll : 0.19, Pitch : 0.12, Yaw : 359.94, Alt : 33.9000015259, Lat : 49.2835704, Lng : -123.1150208, Q1 : 0.999997854233, Q2 : 0.00168912636582, Q3 : 0.00111654296052, Q4 : -0.000451704458101}
2019-04-14 11:31:26.11: SIM {TimeUS : 46534712, Roll : 0.16, Pitch : 0.12, Yaw : 359.94, Alt : 34.1100006104, Lat : 49.2835704, Lng : -123.1150208, Q1 : 0.999998211861, Q2 : 0.00148026307579, Q3 : 0.00108714483213, Q4 : -0.00044711821829}
2019-04-14 11:31:26.21: SIM {TimeUS : 46634672, Roll : 0.13, Pitch : 0.12, Yaw : 359.94, Alt : 34.3199996948, Lat : 49.2835704, Lng : -123.1150208, Q1 : 0.999998629093, Q2 : 0.00118310097605, Q3 : 0.00106944527943, Q4 : -0.000451935891761}
2019-04-14 11:31:26.31: SIM {TimeUS : 46734632, Roll : 0.1, Pitch : 0.11, Yaw : 359.94, Alt : 34.5299987793, Lat : 49.2835704, Lng : -123.1150208, Q1 : 0.999998986721, Q2 : 0.00089493568521, Q3 : 0.000997903640382, Q4 : -0.000464829849079}
2019-04-14 11:31:26.41: SIM {TimeUS : 46834592, Roll : 0.08, Pitch : 0.07, Yaw : 359.94, Alt : 34.7400016785, Lat : 49.2835704, Lng : -123.1150208, Q1 : 0.999999403954, Q2 : 0.000733735156246, Q3 : 0.000660455261823, Q4 : -0.000495084736031}
2019-04-14 11:31:26.51: SIM {TimeUS : 46934552, Roll : 0.07, Pitch : 0.03, Yaw : 359.93, Alt : 34.9599990845, Lat : 49.2835704, Lng : -123.1150208, Q1 : 0.999999582767, Q2 : 0.000642176368274, Q3 : 0.000329252041411, Q4 : -0.000535513448995}
2019-04-14 11:31:26.62: SIM {TimeUS : 47035345, Roll : 0.05, Pitch : 0.01, Yaw : 359.93, Alt : 35.1800003052, Lat : 49.2835704, Lng : -123.1150207, Q1 : 0.999999701977, Q2 : 0.000459419126855, Q3 : 0.000156545997015, Q4 : -0.000580078747589}
2019-04-14 11:31:26.71: SIM {TimeUS : 47135305, Roll : 0.03, Pitch : 0.01, Yaw : 359.92, Alt : 35.3899993896, Lat : 49.2835704, Lng : -123.1150207, Q1 : 0.999999761581, Q2 : 0.000295504170936, Q3 : 0.000118336865853, Q4 : -0.000619297206867}
2019-04-14 11:31:26.81: SIM {TimeUS : 47235265, Roll : 0.03, Pitch : 0.01, Yaw : 359.92, Alt : 35.6100006104, Lat : 49.2835704, Lng : -123.1150207, Q1 : 0.999999761581, Q2 : 0.000267892435659, Q3 : 9.56275325734e-05, Q4 : -0.000657297612634}
2019-04-14 11:31:26.91: SIM {TimeUS : 47335225, Roll : 0.01, Pitch : -0.01, Yaw : 359.92, Alt : 35.8300018311, Lat : 49.2835704, Lng : -123.1150207, Q1 : 0.999999761581, Q2 : 0.000104713413748, Q3 : -9.92936475086e-05, Q4 : -0.000692256959155}
2019-04-14 11:31:27.01: SIM {TimeUS : 47435185, Roll : -0.02, Pitch : -0.04, Yaw : 359.91, Alt : 36.0499992371, Lat : 49.2835704, Lng : -123.1150207, Q1 : 0.999999642372, Q2 : -0.000178007830982, Q3 : -0.000382774276659, Q4 : -0.000721609336324}
2019-04-14 11:31:27.11: SIM {TimeUS : 47535145, Roll : -0.05, Pitch : -0.06, Yaw : 359.91, Alt : 36.2700004578, Lat : 49.2835704, Lng : -123.1150207, Q1 : 0.999999463558, Q2 : -0.000490982551128, Q3 : -0.000568297109567, Q4 : -0.000748101680074}
2019-04-14 11:31:27.21: SIM {TimeUS : 47635105, Roll : -0.08, Pitch : -0.07, Yaw : 359.91, Alt : 36.5, Lat : 49.2835704, Lng : -123.1150207, Q1 : 0.999999165535, Q2 : -0.000759542454034, Q3 : -0.000674197333865, Q4 : -0.000773811771069}
2019-04-14 11:31:27.31: SIM {TimeUS : 47735065, Roll : -0.08, Pitch : -0.07, Yaw : 359.9, Alt : 36.7200012207, Lat : 49.2835704, Lng : -123.1150206, Q1 : 0.999999165535, Q2 : -0.000784964417107, Q3 : -0.000669238623232, Q4 : -0.000793477811385}
2019-04-14 11:31:27.41: SIM {TimeUS : 47835025, Roll : -0.08, Pitch : -0.07, Yaw : 359.9, Alt : 36.9399986267, Lat : 49.2835704, Lng : -123.1150206, Q1 : 0.99999922514, Q2 : -0.000724486308172, Q3 : -0.000610893126577, Q4 : -0.000813280232251}
2019-04-14 11:31:27.51: SIM {TimeUS : 47934985, Roll : -0.07, Pitch : -0.05, Yaw : 359.9, Alt : 37.1699981689, Lat : 49.2835704, Lng : -123.1150206, Q1 : 0.999999344349, Q2 : -0.000622256717179, Q3 : -0.000446975231171, Q4 : -0.000836000137497}
2019-04-14 11:31:27.61: SIM {TimeUS : 48034945, Roll : -0.05, Pitch : -0.03, Yaw : 359.9, Alt : 37.3899993896, Lat : 49.2835704, Lng : -123.1150206, Q1 : 0.999999463558, Q2 : -0.0004953261232, Q3 : -0.00033919638372, Q4 : -0.000852764700539}
2019-04-14 11:31:27.71: SIM {TimeUS : 48134905, Roll : -0.06, Pitch : -0.04, Yaw : 359.9, Alt : 37.6199989319, Lat : 49.2835704, Lng : -123.1150206, Q1 : 0.999999403954, Q2 : -0.000537275453098, Q3 : -0.000364969368093, Q4 : -0.000863833061885}
2019-04-14 11:31:27.81: SIM {TimeUS : 48234865, Roll : -0.07, Pitch : -0.02, Yaw : 359.9, Alt : 37.8400001526, Lat : 49.2835704, Lng : -123.1150206, Q1 : 0.999999403954, Q2 : -0.000637999735773, Q3 : -0.00025884778006, Q4 : -0.000870264309924}
2019-04-14 11:31:27.91: SIM {TimeUS : 48334825, Roll : -0.09, Pitch : -0.01, Yaw : 359.89, Alt : 38.0699996948, Lat : 49.2835704, Lng : -123.1150206, Q1 : 0.99999922514, Q2 : -0.000861722859554, Q3 : -0.000115521033877, Q4 : -0.000878736842424}
2019-04-14 11:31:28.01: SIM {TimeUS : 48434785, Roll : -0.1, Pitch : 0.0, Yaw : 359.89, Alt : 38.2999992371, Lat : 49.2835704, Lng : -123.1150206, Q1 : 0.99999922514, Q2 : -0.00090390664991, Q3 : 5.93917684455e-06, Q4 : -0.000881817075424}
2019-04-14 11:31:28.11: SIM {TimeUS : 48534745, Roll : -0.07, Pitch : 0.02, Yaw : 359.89, Alt : 38.5200004578, Lat : 49.2835704, Lng : -123.1150206, Q1 : 0.999999344349, Q2 : -0.000688038242515, Q3 : 0.000259161548456, Q4 : -0.000890754745342}
2019-04-14 11:31:28.21: SIM {TimeUS : 48634705, Roll : -0.05, Pitch : 0.02, Yaw : 359.89, Alt : 38.75, Lat : 49.2835704, Lng : -123.1150206, Q1 : 0.999999463558, Q2 : -0.000458718801383, Q3 : 0.00025121786166, Q4 : -0.000908659305423}
2019-04-14 11:31:28.31: SIM {TimeUS : 48734665, Roll : -0.02, Pitch : 0.02, Yaw : 359.89, Alt : 38.9799995422, Lat : 49.2835706, Lng : -123.1150206, Q1 : 0.999999523163, Q2 : -0.000183643496712, Q3 : 0.000188872771105, Q4 : -0.000927884015255}
2019-04-14 11:31:28.41: SIM {TimeUS : 48834625, Roll : 0.01, Pitch : 0.03, Yaw : 359.89, Alt : 39.2099990845, Lat : 49.2835706, Lng : -123.1150206, Q1 : 0.999999463558, Q2 : 0.000152710868861, Q3 : 0.000342337356415, Q4 : -0.000942895829212}
2019-04-14 11:31:28.51: SIM {TimeUS : 48934585, Roll : 0.05, Pitch : 0.06, Yaw : 359.88, Alt : 39.4399986267, Lat : 49.2835706, Lng : -123.1150206, Q1 : 0.99999922514, Q2 : 0.00048622812028, Q3 : 0.000608516857028, Q4 : -0.00096332654357}
2019-04-14 11:31:28.61: SIM {TimeUS : 49034545, Roll : 0.08, Pitch : 0.09, Yaw : 359.88, Alt : 39.6699981689, Lat : 49.2835706, Lng : -123.1150206, Q1 : 0.999998927116, Q2 : 0.000722359342035, Q3 : 0.00083864829503, Q4 : -0.000989997875877}
2019-04-14 11:31:28.72: SIM {TimeUS : 49135338, Roll : 0.07, Pitch : 0.11, Yaw : 359.88, Alt : 39.9000015259, Lat : 49.2835706, Lng : -123.1150206, Q1 : 0.999998748302, Q2 : 0.000622210034635, Q3 : 0.00104105309583, Q4 : -0.00100886623841}
2019-04-14 11:31:28.81: SIM {TimeUS : 49235298, Roll : 0.02, Pitch : 0.13, Yaw : 359.87, Alt : 40.1300010681, Lat : 49.2835706, Lng : -123.1150206, Q1 : 0.999998688698, Q2 : 0.000198165012989, Q3 : 0.00120303500444, Q4 : -0.00104794302024}
2019-04-14 11:31:28.91: SIM {TimeUS : 49335258, Roll : -0.01, Pitch : 0.14, Yaw : 359.87, Alt : 40.3699989319, Lat : 49.2835706, Lng : -123.1150206, Q1 : 0.999998629093, Q2 : -0.000142510558362, Q3 : 0.00122227100655, Q4 : -0.00108223909047}
2019-04-14 11:31:29.01: SIM {TimeUS : 49435218, Roll : -0.04, Pitch : 0.12, Yaw : 359.87, Alt : 40.5999984741, Lat : 49.2835706, Lng : -123.1150206, Q1 : 0.999998748302, Q2 : -0.000350775342667, Q3 : 0.00108274864033, Q4 : -0.00110993534327}
2019-04-14 11:31:29.11: SIM {TimeUS : 49535178, Roll : -0.04, Pitch : 0.11, Yaw : 359.86, Alt : 40.8300018311, Lat : 49.2835706, Lng : -123.1150206, Q1 : 0.999998748302, Q2 : -0.000425511825597, Q3 : 0.00100193463732, Q4 : -0.00113775301725}
2019-04-14 11:31:29.21: SIM {TimeUS : 49635138, Roll : -0.03, Pitch : 0.12, Yaw : 359.86, Alt : 41.0600013733, Lat : 49.2835706, Lng : -123.1150206, Q1 : 0.999998688698, Q2 : -0.000334470969392, Q3 : 0.00109863979742, Q4 : -0.00117073010188}
2019-04-14 11:31:29.31: SIM {TimeUS : 49735098, Roll : 0.0, Pitch : 0.15, Yaw : 359.86, Alt : 41.2999992371, Lat : 49.2835706, Lng : -123.1150206, Q1 : 0.999998390675, Q2 : 1.60946074175e-05, Q3 : 0.00133217289113, Q4 : -0.00121328316163}
2019-04-14 11:31:29.41: SIM {TimeUS : 49835058, Roll : 0.05, Pitch : 0.16, Yaw : 359.85, Alt : 41.5299987793, Lat : 49.2835706, Lng : -123.1150207, Q1 : 0.999998033047, Q2 : 0.000461591727799, Q3 : 0.00146536587272, Q4 : -0.00125834008213}
2019-04-14 11:31:29.51: SIM {TimeUS : 49935018, Roll : 0.08, Pitch : 0.13, Yaw : 359.85, Alt : 41.7599983215, Lat : 49.2835706, Lng : -123.1150207, Q1 : 0.999998152256, Q2 : 0.000760958937462, Q3 : 0.00117885496002, Q4 : -0.00129713758361}
2019-04-14 11:31:29.61: SIM {TimeUS : 50034978, Roll : 0.08, Pitch : 0.08, Yaw : 359.84, Alt : 42.0, Lat : 49.2835706, Lng : -123.1150207, Q1 : 0.999998569489, Q2 : 0.000778711691964, Q3 : 0.000720994547009, Q4 : -0.00132425036281}
2019-04-14 11:31:29.71: SIM {TimeUS : 50134938, Roll : 0.05, Pitch : 0.04, Yaw : 359.84, Alt : 42.2299995422, Lat : 49.2835706, Lng : -123.1150207, Q1 : 0.999998927116, Q2 : 0.000472457439173, Q3 : 0.000381619815016, Q4 : -0.00134137156419}
2019-04-14 11:31:29.81: SIM {TimeUS : 50234898, Roll : 0.0, Pitch : 0.03, Yaw : 359.84, Alt : 42.4599990845, Lat : 49.2835706, Lng : -123.1150207, Q1 : 0.999999046326, Q2 : 5.3710841712e-06, Q3 : 0.00029881997034, Q4 : -0.0013536735205}
2019-04-14 11:31:29.91: SIM {TimeUS : 50334858, Roll : -0.03, Pitch : 0.05, Yaw : 359.84, Alt : 42.7000007629, Lat : 49.2835704, Lng : -123.1150206, Q1 : 0.999998927116, Q2 : -0.000290571828373, Q3 : 0.000521270558238, Q4 : -0.00135859299917}
2019-04-14 11:31:30.01: SIM {TimeUS : 50434818, Roll : -0.04, Pitch : 0.07, Yaw : 359.84, Alt : 42.9300003052, Lat : 49.2835704, Lng : -123.1150206, Q1 : 0.999998807907, Q2 : -0.00040073870332, Q3 : 0.000675252988003, Q4 : -0.00136031792499}
2019-04-14 11:31:30.11: SIM {TimeUS : 50534778, Roll : -0.04, Pitch : 0.07, Yaw : 359.84, Alt : 43.1699981689, Lat : 49.2835704, Lng : -123.1150206, Q1 : 0.999998807907, Q2 : -0.000351891183527, Q3 : 0.000637875054963, Q4 : -0.00136490468867}
2019-04-14 11:31:30.21: SIM {TimeUS : 50634738, Roll : -0.04, Pitch : 0.06, Yaw : 359.84, Alt : 43.4000015259, Lat : 49.2835704, Lng : -123.1150206, Q1 : 0.999998807907, Q2 : -0.000367826229194, Q3 : 0.000571468728594, Q4 : -0.00137505040038}
2019-04-14 11:31:30.31: SIM {TimeUS : 50734698, Roll : -0.03, Pitch : 0.05, Yaw : 359.84, Alt : 43.6399993896, Lat : 49.2835704, Lng : -123.1150206, Q1 : 0.999998867512, Q2 : -0.000292525073746, Q3 : 0.000465354823973, Q4 : -0.0013909455156}
2019-04-14 11:31:30.41: SIM {TimeUS : 50834658, Roll : -0.01, Pitch : 0.04, Yaw : 359.83, Alt : 43.8699989319, Lat : 49.2835704, Lng : -123.1150206, Q1 : 0.999998927116, Q2 : -0.000120050688565, Q3 : 0.000382666155929, Q4 : -0.00141269189771}
2019-04-14 11:31:30.51: SIM {TimeUS : 50934618, Roll : 0.0, Pitch : 0.03, Yaw : 359.83, Alt : 44.1100006104, Lat : 49.2835704, Lng : -123.1150206, Q1 : 0.999998927116, Q2 : -1.23108402477e-05, Q3 : 0.000344196421793, Q4 : -0.00143755914178}
2019-04-14 11:31:30.61: SIM {TimeUS : 51034578, Roll : 0.0, Pitch : 0.01, Yaw : 359.83, Alt : 44.3499984741, Lat : 49.2835704, Lng : -123.1150206, Q1 : 0.999998927116, Q2 : -6.38662386336e-05, Q3 : 0.00015699522919, Q4 : -0.00146230368409}
2019-04-14 11:31:30.71: SIM {TimeUS : 51134538, Roll : -0.02, Pitch : -0.01, Yaw : 359.82, Alt : 44.5800018311, Lat : 49.2835704, Lng : -123.1150206, Q1 : 0.999998867512, Q2 : -0.000176674569957, Q3 : -0.000164346463862, Q4 : -0.00149388529826}
2019-04-14 11:31:30.81: SIM {TimeUS : 51235331, Roll : -0.02, Pitch : -0.04, Yaw : 359.82, Alt : 44.8199996948, Lat : 49.2835704, Lng : -123.1150206, Q1 : 0.999998748302, Q2 : -0.000261299457634, Q3 : -0.000385246210499, Q4 : -0.00153315276839}
2019-04-14 11:31:30.91: SIM {TimeUS : 51335291, Roll : -0.02, Pitch : -0.05, Yaw : 359.82, Alt : 45.0600013733, Lat : 49.2835703, Lng : -123.1150206, Q1 : 0.999998629093, Q2 : -0.000226508956985, Q3 : -0.000495214830153, Q4 : -0.00157026725356}
2019-04-14 11:31:31.01: SIM {TimeUS : 51435251, Roll : -0.02, Pitch : -0.05, Yaw : 359.81, Alt : 45.2900009155, Lat : 49.2835703, Lng : -123.1150206, Q1 : 0.999998569489, Q2 : -0.000227901444305, Q3 : -0.000499661080539, Q4 : -0.001601796248}
2019-04-14 11:31:31.11: SIM {TimeUS : 51535211, Roll : -0.04, Pitch : -0.04, Yaw : 359.81, Alt : 45.5299987793, Lat : 49.2835703, Lng : -123.1150206, Q1 : 0.999998509884, Q2 : -0.000412120396504, Q3 : -0.000388205371564, Q4 : -0.00163672911003}
2019-04-14 11:31:31.21: SIM {TimeUS : 51635171, Roll : -0.08, Pitch : -0.03, Yaw : 359.8, Alt : 45.7599983215, Lat : 49.2835703, Lng : -123.1150206, Q1 : 0.99999833107, Q2 : -0.000700035132468, Q3 : -0.000274770834949, Q4 : -0.00166693655774}
2019-04-14 11:31:31.31: SIM {TimeUS : 51735131, Roll : -0.1, Pitch : -0.02, Yaw : 359.8, Alt : 45.9900016785, Lat : 49.2835703, Lng : -123.1150206, Q1 : 0.999998092651, Q2 : -0.000904820044525, Q3 : -0.000192145744222, Q4 : -0.00169626134448}
2019-04-14 11:31:31.41: SIM {TimeUS : 51835091, Roll : -0.1, Pitch : 0.0, Yaw : 359.8, Alt : 46.2200012207, Lat : 49.2835703, Lng : -123.1150206, Q1 : 0.999998092651, Q2 : -0.000951256195549, Q3 : -8.29256823636e-05, Q4 : -0.00171865010634}
2019-04-14 11:31:31.51: SIM {TimeUS : 51935051, Roll : -0.09, Pitch : 0.0, Yaw : 359.8, Alt : 46.4500007629, Lat : 49.2835703, Lng : -123.1150206, Q1 : 0.999998152256, Q2 : -0.000804778537713, Q3 : 6.60082441755e-05, Q4 : -0.00174175086431}
2019-04-14 11:31:31.61: SIM {TimeUS : 52035011, Roll : -0.06, Pitch : 0.01, Yaw : 359.79, Alt : 46.6699981689, Lat : 49.2835703, Lng : -123.1150206, Q1 : 0.999998271465, Q2 : -0.000571012904402, Q3 : 0.000114435046271, Q4 : -0.00176510168239}
2019-04-14 11:31:31.71: SIM {TimeUS : 52134971, Roll : -0.04, Pitch : 0.0, Yaw : 359.79, Alt : 46.8800010681, Lat : 49.2835703, Lng : -123.1150206, Q1 : 0.99999833107, Q2 : -0.000381811289117, Q3 : 3.72198519472e-05, Q4 : -0.00179057265632}
2019-04-14 11:31:31.81: SIM {TimeUS : 52234931, Roll : -0.03, Pitch : -0.01, Yaw : 359.79, Alt : 47.0900001526, Lat : 49.2835703, Lng : -123.1150206, Q1 : 0.99999833107, Q2 : -0.000295334699331, Q3 : -0.000135127454996, Q4 : -0.00181314395741}
2019-04-14 11:31:31.91: SIM {TimeUS : 52334891, Roll : -0.02, Pitch : -0.04, Yaw : 359.79, Alt : 47.2900009155, Lat : 49.2835703, Lng : -123.1150206, Q1 : 0.999998271465, Q2 : -0.000177587091457, Q3 : -0.000364034785889, Q4 : -0.0018319246592}
2019-04-14 11:31:32.01: SIM {TimeUS : 52434851, Roll : 0.0, Pitch : -0.06, Yaw : 359.78, Alt : 47.4799995422, Lat : 49.2835703, Lng : -123.1150206, Q1 : 0.999998152256, Q2 : -5.00963892591e-07, Q3 : -0.000555146485567, Q4 : -0.00185131409671}
2019-04-14 11:31:32.11: SIM {TimeUS : 52534811, Roll : 0.01, Pitch : -0.09, Yaw : 359.78, Alt : 47.6599998474, Lat : 49.2835703, Lng : -123.1150206, Q1 : 0.999997913837, Q2 : 9.4403665571e-05, Q3 : -0.000849434174597, Q4 : -0.00186833145563}
2019-04-14 11:31:32.21: SIM {TimeUS : 52634771, Roll : 0.01, Pitch : -0.13, Yaw : 359.78, Alt : 47.8400001526, Lat : 49.2835703, Lng : -123.1150206, Q1 : 0.999997496605, Q2 : 0.000147150174598, Q3 : -0.0012073465623, Q4 : -0.00188030779827}
2019-04-14 11:31:32.31: SIM {TimeUS : 52734731, Roll : 0.04, Pitch : -0.15, Yaw : 359.78, Alt : 48.0, Lat : 49.2835703, Lng : -123.1150206, Q1 : 0.999997258186, Q2 : 0.000363231054507, Q3 : -0.001323072589, Q4 : -0.00189583061729}
2019-04-14 11:31:32.41: SIM {TimeUS : 52834691, Roll : 0.06, Pitch : -0.14, Yaw : 359.78, Alt : 48.1399993896, Lat : 49.2835703, Lng : -123.1150206, Q1 : 0.999997258186, Q2 : 0.000579295970965, Q3 : -0.00123285281006, Q4 : -0.00191465183161}
2019-04-14 11:31:32.51: SIM {TimeUS : 52934651, Roll : 0.08, Pitch : -0.11, Yaw : 359.77, Alt : 48.2799987793, Lat : 49.2835703, Lng : -123.1150206, Q1 : 0.999997317791, Q2 : 0.000737936818041, Q3 : -0.000996992108412, Q4 : -0.00193922920153}
2019-04-14 11:31:32.61: SIM {TimeUS : 53034611, Roll : 0.08, Pitch : -0.07, Yaw : 359.77, Alt : 48.4099998474, Lat : 49.2835704, Lng : -123.1150206, Q1 : 0.99999755621, Q2 : 0.000720980810001, Q3 : -0.00069345528027, Q4 : -0.0019676068332}
2019-04-14 11:31:32.71: SIM {TimeUS : 53134571, Roll : 0.07, Pitch : -0.05, Yaw : 359.77, Alt : 48.5200004578, Lat : 49.2835704, Lng : -123.1150206, Q1 : 0.999997675419, Q2 : 0.000688525324222, Q3 : -0.000472780899145, Q4 : -0.0019988338463}
2019-04-14 11:31:32.82: SIM {TimeUS : 53235364, Roll : 0.06, Pitch : -0.05, Yaw : 359.76, Alt : 48.6199989319, Lat : 49.2835704, Lng : -123.1150206, Q1 : 0.999997675419, Q2 : 0.000575090933125, Q3 : -0.000458509952296, Q4 : -0.00203442806378}
2019-04-14 11:31:32.91: SIM {TimeUS : 53335324, Roll : 0.03, Pitch : -0.05, Yaw : 359.76, Alt : 48.7099990845, Lat : 49.2835704, Lng : -123.1150206, Q1 : 0.999997675419, Q2 : 0.000304135290207, Q3 : -0.000480273098219, Q4 : -0.00207370240241}
2019-04-14 11:31:33.01: SIM {TimeUS : 53435284, Roll : 0.01, Pitch : -0.04, Yaw : 359.75, Alt : 48.7799987793, Lat : 49.2835704, Lng : -123.1150206, Q1 : 0.999997675419, Q2 : 0.00012372713536, Q3 : -0.000388165324694, Q4 : -0.00211088289507}
2019-04-14 11:31:33.11: SIM {TimeUS : 53535244, Roll : 0.0, Pitch : -0.02, Yaw : 359.75, Alt : 48.8499984741, Lat : 49.2835704, Lng : -123.1150206, Q1 : 0.999997675419, Q2 : 2.31919693761e-05, Q3 : -0.000243180445977, Q4 : -0.00214347871952}
2019-04-14 11:31:33.21: SIM {TimeUS : 53635204, Roll : 0.0, Pitch : 0.0, Yaw : 359.75, Alt : 48.9099998474, Lat : 49.2835704, Lng : -123.1150206, Q1 : 0.999997615814, Q2 : -3.37492929248e-05, Q3 : -2.16812695726e-05, Q4 : -0.00217316718772}
2019-04-14 11:31:33.31: SIM {TimeUS : 53735164, Roll : 0.01, Pitch : 0.03, Yaw : 359.74, Alt : 48.9599990845, Lat : 49.2835704, Lng : -123.1150206, Q1 : 0.99999755621, Q2 : 0.000103661943285, Q3 : 0.000267791474471, Q4 : -0.00220018927939}
2019-04-14 11:31:33.41: SIM {TimeUS : 53835124, Roll : 0.06, Pitch : 0.02, Yaw : 359.74, Alt : 49.0, Lat : 49.2835704, Lng : -123.1150206, Q1 : 0.999997377396, Q2 : 0.000563571986277, Q3 : 0.000216891799937, Q4 : -0.0022236162331}
2019-04-14 11:31:33.51: SIM {TimeUS : 53935084, Roll : 0.22, Pitch : -0.12, Yaw : 359.74, Alt : 49.0299987793, Lat : 49.2835704, Lng : -123.1150206, Q1 : 0.999995052814, Q2 : 0.00195987382904, Q3 : -0.00105407775845, Q4 : -0.00223485683091}
2019-04-14 11:31:33.61: SIM {TimeUS : 54035044, Roll : 0.55, Pitch : -0.44, Yaw : 359.74, Alt : 49.0600013733, Lat : 49.2835704, Lng : -123.1150206, Q1 : 0.999978363514, Q2 : 0.00480914255604, Q3 : -0.00389149831608, Q4 : -0.00224590837024}
2019-04-14 11:31:33.71: SIM {TimeUS : 54135004, Roll : 1.05, Pitch : -0.96, Yaw : 359.73, Alt : 49.0900001526, Lat : 49.2835706, Lng : -123.1150206, Q1 : 0.999919116497, Q2 : 0.0092266779393, Q3 : -0.00845444388688, Q4 : -0.00225886609405}
2019-04-14 11:31:33.81: SIM {TimeUS : 54234964, Roll : 1.72, Pitch : -1.62, Yaw : 359.71, Alt : 49.1100006104, Lat : 49.2835706, Lng : -123.1150205, Q1 : 0.999782979488, Q2 : 0.0150265377015, Q3 : -0.0142568796873, Q4 : -0.00224731280468}
2019-04-14 11:31:33.91: SIM {TimeUS : 54334924, Roll : 2.48, Pitch : -2.34, Yaw : 359.69, Alt : 49.1300010681, Lat : 49.2835706, Lng : -123.1150205, Q1 : 0.999553799629, Q2 : 0.0216122660786, Q3 : -0.0205029416829, Q4 : -0.00218604668044}
2019-04-14 11:31:34.01: SIM {TimeUS : 54434884, Roll : 3.2, Pitch : -3.01, Yaw : 359.67, Alt : 49.1500015259, Lat : 49.2835707, Lng : -123.1150203, Q1 : 0.999260365963, Q2 : 0.0278902556747, Q3 : -0.0263939183205, Q4 : -0.00205606594682}
2019-04-14 11:31:34.11: SIM {TimeUS : 54534844, Roll : 3.79, Pitch : -3.56, Yaw : 359.66, Alt : 49.1599998474, Lat : 49.2835708, Lng : -123.1150201, Q1 : 0.998967766762, Q2 : 0.0329695083201, Q3 : -0.0311924237758, Q4 : -0.00186546624172}
2019-04-14 11:31:34.21: SIM {TimeUS : 54634804, Roll : 4.21, Pitch : -3.95, Yaw : 359.66, Alt : 49.1800003052, Lat : 49.2835709, Lng : -123.11502, Q1 : 0.998726248741, Q2 : 0.0366585627198, Q3 : -0.0346314273775, Q4 : -0.00161919242237}
2019-04-14 11:31:34.31: SIM {TimeUS : 54734764, Roll : 4.51, Pitch : -4.25, Yaw : 359.67, Alt : 49.1899986267, Lat : 49.2835712, Lng : -123.1150196, Q1 : 0.998533964157, Q2 : 0.0392623655498, Q3 : -0.0372369550169, Q4 : -0.00135027628858}
2019-04-14 11:31:34.41: SIM {TimeUS : 54834724, Roll : 4.76, Pitch : -4.52, Yaw : 359.68, Alt : 49.2000007629, Lat : 49.2835715, Lng : -123.1150192, Q1 : 0.99835807085, Q2 : 0.0414493195713, Q3 : -0.0395221225917, Q4 : -0.00106648611836}
2019-04-14 11:31:34.51: SIM {TimeUS : 54934684, Roll : 5.03, Pitch : -4.76, Yaw : 359.7, Alt : 49.2099990845, Lat : 49.2835718, Lng : -123.1150187, Q1 : 0.998174488544, Q2 : 0.0437392257154, Q3 : -0.0416411906481, Q4 : -0.000775541586336}
2019-04-14 11:31:34.61: SIM {TimeUS : 55034644, Roll : 5.3, Pitch : -5.0, Yaw : 359.71, Alt : 49.2200012207, Lat : 49.2835721, Lng : -123.1150181, Q1 : 0.997978448868, Q2 : 0.0461170971394, Q3 : -0.0437260828912, Q4 : -0.000489793776069}
2019-04-14 11:31:34.71: SIM {TimeUS : 55134604, Roll : 5.56, Pitch : -5.23, Yaw : 359.71, Alt : 49.2200012207, Lat : 49.2835726, Lng : -123.1150174, Q1 : 0.997777998447, Q2 : 0.0484241433442, Q3 : -0.0457626730204, Q4 : -0.000221053283894}
2019-04-14 11:31:34.81: SIM {TimeUS : 55234564, Roll : 5.78, Pitch : -5.44, Yaw : 359.72, Alt : 49.2299995422, Lat : 49.2835729, Lng : -123.1150167, Q1 : 0.997600138187, Q2 : 0.0502841472626, Q3 : -0.0475976504385, Q4 : 1.32219356601e-05}
2019-04-14 11:31:34.92: SIM {TimeUS : 55335357, Roll : 5.94, Pitch : -5.6, Yaw : 359.73, Alt : 49.2400016785, Lat : 49.2835734, Lng : -123.1150158, Q1 : 0.997460246086, Q2 : 0.051709882915, Q3 : -0.0489801876247, Q4 : 0.000210251761018}
2019-04-14 11:31:35.01: SIM {TimeUS : 55435317, Roll : 6.06, Pitch : -5.71, Yaw : 359.73, Alt : 49.2400016785, Lat : 49.283574, Lng : -123.1150149, Q1 : 0.997360169888, Q2 : 0.0527192018926, Q3 : -0.0499333888292, Q4 : 0.000352278846549}
2019-04-14 11:31:35.11: SIM {TimeUS : 55535277, Roll : 6.15, Pitch : -5.8, Yaw : 359.73, Alt : 49.25, Lat : 49.2835746, Lng : -123.1150139, Q1 : 0.997280776501, Q2 : 0.0534896552563, Q3 : -0.0506928227842, Q4 : 0.000442856486188}
2019-04-14 11:31:35.21: SIM {TimeUS : 55635237, Roll : 6.26, Pitch : -5.89, Yaw : 359.73, Alt : 49.25, Lat : 49.2835753, Lng : -123.1150128, Q1 : 0.997189998627, Q2 : 0.0544253848493, Q3 : -0.0514762699604, Q4 : 0.000502949813381}
2019-04-14 11:31:35.31: SIM {TimeUS : 55735197, Roll : 6.5, Pitch : -5.95, Yaw : 359.77, Alt : 49.25, Lat : 49.2835761, Lng : -123.1150116, Q1 : 0.997043788433, Q2 : 0.0565897114575, Q3 : -0.0519660562277, Q4 : 0.000954570015892}
2019-04-14 11:31:35.41: SIM {TimeUS : 55835157, Roll : 7.0, Pitch : -5.88, Yaw : 0.22, Alt : 49.2599983215, Lat : 49.2835769, Lng : -123.1150104, Q1 : 0.996808886528, Q2 : 0.0611156523228, Q3 : -0.0510971173644, Q4 : 0.00510385772213}
2019-04-14 11:31:35.51: SIM {TimeUS : 55935117, Roll : 7.65, Pitch : -5.79, Yaw : 1.77, Alt : 49.2599983215, Lat : 49.2835776, Lng : -123.115009, Q1 : 0.99632114172, Q2 : 0.0674784779549, Q3 : -0.0493575260043, Q4 : 0.0188324209303}
2019-04-14 11:31:35.61: SIM {TimeUS : 56035077, Roll : 8.16, Pitch : -5.99, Yaw : 4.88, Alt : 49.2599983215, Lat : 49.2835785, Lng : -123.1150076, Q1 : 0.995031177998, Q2 : 0.0732876956463, Q3 : -0.0491165369749, Q4 : 0.0461467057467}
2019-04-14 11:31:35.71: SIM {TimeUS : 56135037, Roll : 8.27, Pitch : -6.67, Yaw : 9.54, Alt : 49.2599983215, Lat : 49.2835794, Lng : -123.115006, Q1 : 0.99189966917, Q2 : 0.0766147524118, Q3 : -0.0519020371139, Q4 : 0.0870136320591}
2019-04-14 11:31:35.81: SIM {TimeUS : 56234997, Roll : 7.8, Pitch : -7.79, Yaw : 15.56, Alt : 49.2599983215, Lat : 49.2835801, Lng : -123.1150045, Q1 : 0.985576570034, Q2 : 0.0764986127615, Q3 : -0.0579942464828, Q4 : 0.13936817646}
2019-04-14 11:31:35.91: SIM {TimeUS : 56334957, Roll : 6.68, Pitch : -9.17, Yaw : 22.69, Alt : 49.2700004578, Lat : 49.2835812, Lng : -123.1150027, Q1 : 0.974727988243, Q2 : 0.0726763606071, Q3 : -0.0668316781521, Q4 : 0.200392052531}
2019-04-14 11:31:36.01: SIM {TimeUS : 56434917, Roll : 4.89, Pitch : -10.58, Yaw : 30.67, Alt : 49.2700004578, Lat : 49.283582, Lng : -123.1150008, Q1 : 0.958354473114, Q2 : 0.065335676074, Q3 : -0.0776085704565, Q4 : 0.266954988241}
2019-04-14 11:31:36.11: SIM {TimeUS : 56534877, Roll : 2.29, Pitch : -11.79, Yaw : 39.04, Alt : 49.2700004578, Lat : 49.2835831, Lng : -123.1149988, Q1 : 0.936645269394, Q2 : 0.0531165078282, Q3 : -0.0902016311884, Q4 : 0.334272235632}
2019-04-14 11:31:36.21: SIM {TimeUS : 56634837, Roll : -0.86, Pitch : -12.56, Yaw : 46.97, Alt : 49.2700004578, Lat : 49.2835841, Lng : -123.1149968, Q1 : 0.911925673485, Q2 : 0.0367427505553, Q3 : -0.103351458907, Q4 : 0.39542388916}
2019-04-14 11:31:36.31: SIM {TimeUS : 56734797, Roll : -3.94, Pitch : -12.82, Yaw : 53.62, Alt : 49.2700004578, Lat : 49.2835852, Lng : -123.1149946, Q1 : 0.888093113899, Q2 : 0.0198266617954, Q3 : -0.115085370839, Q4 : 0.444581776857}
2019-04-14 11:31:36.41: SIM {TimeUS : 56834757, Roll : -6.32, Pitch : -12.75, Yaw : 58.41, Alt : 49.2700004578, Lat : 49.2835864, Lng : -123.1149924, Q1 : 0.869140744209, Q2 : 0.00626937672496, Q3 : -0.123567230999, Q4 : 0.478838413954}
2019-04-14 11:31:36.51: SIM {TimeUS : 56934717, Roll : -7.66, Pitch : -12.57, Yaw : 61.17, Alt : 49.2700004578, Lat : 49.2835877, Lng : -123.1149902, Q1 : 0.85748898983, Q2 : -0.00158627727069, Q3 : -0.127905592322, Q4 : 0.498347580433}
2019-04-14 11:31:36.61: SIM {TimeUS : 57034677, Roll : -7.94, Pitch : -12.51, Yaw : 62.1, Alt : 49.2700004578, Lat : 49.2835891, Lng : -123.114988, Q1 : 0.853426635265, Q2 : -0.00293542537838, Q3 : -0.128679037094, Q4 : 0.505070328712}
2019-04-14 11:31:36.71: SIM {TimeUS : 57134637, Roll : -7.35, Pitch : -12.69, Yaw : 61.55, Alt : 49.2700004578, Lat : 49.2835905, Lng : -123.1149857, Q1 : 0.855781197548, Q2 : 0.0017156888498, Q3 : -0.127428308129, Q4 : 0.501395702362}
2019-04-14 11:31:36.81: SIM {TimeUS : 57234597, Roll : -6.12, Pitch : -13.14, Yaw : 59.85, Alt : 49.2700004578, Lat : 49.2835922, Lng : -123.1149834, Q1 : 0.862772703171, Q2 : 0.0109964311123, Q3 : -0.125539243221, Q4 : 0.489634752274}
2019-04-14 11:31:36.91: SIM {TimeUS : 57334557, Roll : -4.51, Pitch : -13.77, Yaw : 57.36, Alt : 49.2700004578, Lat : 49.283594, Lng : -123.114981, Q1 : 0.872551977634, Q2 : 0.0232215113938, Q3 : -0.123878993094, Q4 : 0.471982866526}
2019-04-14 11:31:37.02: SIM {TimeUS : 57435350, Roll : -2.7, Pitch : -14.48, Yaw : 54.36, Alt : 49.2799987793, Lat : 49.2835957, Lng : -123.1149786, Q1 : 0.883586287498, Q2 : 0.0367012098432, Q3 : -0.12280331552, Q4 : 0.450386106968}
2019-04-14 11:31:37.11: SIM {TimeUS : 57535310, Roll : -0.91, Pitch : -15.1, Yaw : 51.2, Alt : 49.2799987793, Lat : 49.2835975, Lng : -123.1149761, Q1 : 0.8944029212, Q2 : 0.0496326573193, Q3 : -0.121933370829, Q4 : 0.427448600531}
2019-04-14 11:31:37.21: SIM {TimeUS : 57635270, Roll : 0.71, Pitch : -15.53, Yaw : 48.21, Alt : 49.2799987793, Lat : 49.2835994, Lng : -123.1149735, Q1 : 0.904063761234, Q2 : 0.0608010627329, Q3 : -0.120854020119, Q4 : 0.405421108007}
2019-04-14 11:31:37.31: SIM {TimeUS : 57735230, Roll : 2.03, Pitch : -15.74, Yaw : 45.66, Alt : 49.2799987793, Lat : 49.2836013, Lng : -123.1149707, Q1 : 0.911851465702, Q2 : 0.0693437606096, Q3 : -0.119436718524, Q4 : 0.386591792107}
2019-04-14 11:31:37.41: SIM {TimeUS : 57835190, Roll : 2.95, Pitch : -15.79, Yaw : 43.79, Alt : 49.2799987793, Lat : 49.2836031, Lng : -123.1149679, Q1 : 0.917416810989, Q2 : 0.0749349594116, Q3 : -0.117891706526, Q4 : 0.372602641582}
2019-04-14 11:31:37.51: SIM {TimeUS : 57935150, Roll : 3.43, Pitch : -15.76, Yaw : 42.69, Alt : 49.2799987793, Lat : 49.283605, Lng : -123.1149649, Q1 : 0.920690119267, Q2 : 0.0775539875031, Q3 : -0.116831339896, Q4 : 0.364232718945}
2019-04-14 11:31:37.61: SIM {TimeUS : 58035110, Roll : 3.47, Pitch : -15.73, Yaw : 42.33, Alt : 49.2799987793, Lat : 49.2836071, Lng : -123.1149618, Q1 : 0.921811461449, Q2 : 0.0774288475513, Q3 : -0.116743020713, Q4 : 0.361440896988}
2019-04-14 11:31:37.71: SIM {TimeUS : 58135070, Roll : 3.11, Pitch : -15.76, Yaw : 42.64, Alt : 49.2799987793, Lat : 49.283609, Lng : -123.1149586, Q1 : 0.921045184135, Q2 : 0.0749420747161, Q3 : -0.117905795574, Q4 : 0.36353495717}
2019-04-14 11:31:37.81: SIM {TimeUS : 58235030, Roll : 2.46, Pitch : -15.83, Yaw : 43.46, Alt : 49.2799987793, Lat : 49.283611, Lng : -123.1149552, Q1 : 0.918750047684, Q2 : 0.0708169043064, Q3 : -0.120006904006, Q4 : 0.369434267282}
2019-04-14 11:31:37.91: SIM {TimeUS : 58334990, Roll : 1.67, Pitch : -15.93, Yaw : 44.62, Alt : 49.2799987793, Lat : 49.2836129, Lng : -123.1149518, Q1 : 0.915336608887, Q2 : 0.0659875273705, Q3 : -0.122718438506, Q4 : 0.377815693617}
2019-04-14 11:31:38.01: SIM {TimeUS : 58434950, Roll : 0.81, Pitch : -16.05, Yaw : 45.93, Alt : 49.2799987793, Lat : 49.2836151, Lng : -123.1149484, Q1 : 0.911302626133, Q2 : 0.0609730780125, Q3 : -0.125815629959, Q4 : 0.38727286458}
2019-04-14 11:31:38.11: SIM {TimeUS : 58534910, Roll : 0.02, Pitch : -16.17, Yaw : 47.22, Alt : 49.2799987793, Lat : 49.2836171, Lng : -123.1149448, Q1 : 0.907148003578, Q2 : 0.056531727314, Q3 : -0.128825560212, Q4 : 0.39659884572}
2019-04-14 11:31:38.21: SIM {TimeUS : 58634870, Roll : -0.61, Pitch : -16.25, Yaw : 48.36, Alt : 49.2799987793, Lat : 49.2836193, Lng : -123.1149412, Q1 : 0.903376638889, Q2 : 0.0530782192945, Q3 : -0.131184011698, Q4 : 0.404826015234}
2019-04-14 11:31:38.31: SIM {TimeUS : 58734830, Roll : -1.07, Pitch : -16.3, Yaw : 49.25, Alt : 49.2799987793, Lat : 49.2836214, Lng : -123.1149376, Q1 : 0.900378406048, Q2 : 0.0506355836987, Q3 : -0.132821574807, Q4 : 0.411233782768}
2019-04-14 11:31:38.41: SIM {TimeUS : 58834790, Roll : -1.35, Pitch : -16.35, Yaw : 49.82, Alt : 49.2799987793, Lat : 49.2836236, Lng : -123.1149339, Q1 : 0.898363113403, Q2 : 0.0492931827903, Q3 : -0.133923187852, Q4 : 0.415425658226}
2019-04-14 11:31:38.51: SIM {TimeUS : 58934750, Roll : -1.44, Pitch : -16.4, Yaw : 50.09, Alt : 49.2900009155, Lat : 49.2836257, Lng : -123.1149301, Q1 : 0.897393882275, Q2 : 0.0491051934659, Q3 : -0.134506776929, Q4 : 0.417349785566}
2019-04-14 11:31:38.61: SIM {TimeUS : 59034710, Roll : -1.36, Pitch : -16.45, Yaw : 50.06, Alt : 49.2900009155, Lat : 49.283628, Lng : -123.1149263, Q1 : 0.897404253483, Q2 : 0.049913931638, Q3 : -0.134649947286, Q4 : 0.417185395956}
2019-04-14 11:31:38.71: SIM {TimeUS : 59134670, Roll : -1.15, Pitch : -16.5, Yaw : 49.79, Alt : 49.2900009155, Lat : 49.2836304, Lng : -123.1149226, Q1 : 0.89823526144, Q2 : 0.0514014959335, Q3 : -0.134356379509, Q4 : 0.415306717157}
2019-04-14 11:31:38.81: SIM {TimeUS : 59234630, Roll : -0.85, Pitch : -16.54, Yaw : 49.35, Alt : 49.2900009155, Lat : 49.2836327, Lng : -123.1149187, Q1 : 0.899630844593, Q2 : 0.0533908084035, Q3 : -0.133813902736, Q4 : 0.412198483944}
2019-04-14 11:31:38.91: SIM {TimeUS : 59334590, Roll : -0.5, Pitch : -16.58, Yaw : 48.82, Alt : 49.2900009155, Lat : 49.2836351, Lng : -123.1149148, Q1 : 0.901326358318, Q2 : 0.0556165203452, Q3 : -0.133158043027, Q4 : 0.408395081758}
2019-04-14 11:31:39.01: SIM {TimeUS : 59434550, Roll : -0.15, Pitch : -16.62, Yaw : 48.27, Alt : 49.2900009155, Lat : 49.2836375, Lng : -123.1149109, Q1 : 0.903068721294, Q2 : 0.0578804425895, Q3 : -0.13249990344, Q4 : 0.404426187277}
2019-04-14 11:31:39.12: SIM {TimeUS : 59535343, Roll : 0.16, Pitch : -16.66, Yaw : 47.75, Alt : 49.2900009155, Lat : 49.2836399, Lng : -123.1149069, Q1 : 0.904675960541, Q2 : 0.0599624849856, Q3 : -0.131897881627, Q4 : 0.400710493326}
2019-04-14 11:31:39.21: SIM {TimeUS : 59635303, Roll : 0.42, Pitch : -16.69, Yaw : 47.33, Alt : 49.2900009155, Lat : 49.2836422, Lng : -123.1149029, Q1 : 0.905973613262, Q2 : 0.0616396218538, Q3 : -0.131494343281, Q4 : 0.397645145655}
2019-04-14 11:31:39.31: SIM {TimeUS : 59735263, Roll : 0.59, Pitch : -16.72, Yaw : 47.02, Alt : 49.2900009155, Lat : 49.2836446, Lng : -123.1148989, Q1 : 0.906910836697, Q2 : 0.062707670033, Q3 : -0.131320565939, Q4 : 0.395392775536}
2019-04-14 11:31:39.41: SIM {TimeUS : 59835223, Roll : 0.66, Pitch : -16.75, Yaw : 46.84, Alt : 49.2900009155, Lat : 49.2836472, Lng : -123.1148947, Q1 : 0.907442569733, Q2 : 0.0631890073419, Q3 : -0.131428971887, Q4 : 0.394057810307}
2019-04-14 11:31:39.51: SIM {TimeUS : 59935183, Roll : 0.65, Pitch : -16.8, Yaw : 46.79, Alt : 49.2900009155, Lat : 49.2836495, Lng : -123.1148907, Q1 : 0.907579779625, Q2 : 0.0631902292371, Q3 : -0.131852135062, Q4 : 0.39359998703}
2019-04-14 11:31:39.61: SIM {TimeUS : 60035143, Roll : 0.56, Pitch : -16.85, Yaw : 46.84, Alt : 49.2900009155, Lat : 49.2836521, Lng : -123.1148865, Q1 : 0.907378733158, Q2 : 0.0627625435591, Q3 : -0.132515922189, Q4 : 0.393908977509}
2019-04-14 11:31:39.71: SIM {TimeUS : 60135103, Roll : 0.42, Pitch : -16.89, Yaw : 46.98, Alt : 49.2900009155, Lat : 49.2836546, Lng : -123.1148823, Q1 : 0.906946122646, Q2 : 0.0619009397924, Q3 : -0.133296713233, Q4 : 0.394777178764}
2019-04-14 11:31:39.81: SIM {TimeUS : 60235063, Roll : 0.24, Pitch : -16.92, Yaw : 47.16, Alt : 49.2900009155, Lat : 49.2836571, Lng : -123.1148781, Q1 : 0.906366169453, Q2 : 0.0608275011182, Q3 : -0.134051918983, Q4 : 0.396018326283}
2019-04-14 11:31:39.91: SIM {TimeUS : 60335023, Roll : 0.06, Pitch : -16.95, Yaw : 47.37, Alt : 49.2999992371, Lat : 49.2836596, Lng : -123.1148738, Q1 : 0.905722260475, Q2 : 0.0597362220287, Q3 : -0.134770438075, Q4 : 0.397411227226}
2019-04-14 11:31:40.01: SIM {TimeUS : 60434983, Roll : -0.07, Pitch : -16.98, Yaw : 47.56, Alt : 49.2999992371, Lat : 49.2836621, Lng : -123.1148695, Q1 : 0.905075848103, Q2 : 0.0589874461293, Q3 : -0.135422319174, Q4 : 0.398771882057}
2019-04-14 11:31:40.11: SIM {TimeUS : 60534943, Roll : -0.16, Pitch : -17.02, Yaw : 47.73, Alt : 49.2999992371, Lat : 49.2836646, Lng : -123.1148652, Q1 : 0.904507160187, Q2 : 0.0585663169622, Q3 : -0.135940805078, Q4 : 0.399946182966}
2019-04-14 11:31:40.21: SIM {TimeUS : 60634903, Roll : -0.21, Pitch : -17.07, Yaw : 47.85, Alt : 49.2999992371, Lat : 49.2836673, Lng : -123.1148609, Q1 : 0.904055476189, Q2 : 0.058479834348, Q3 : -0.136436849833, Q4 : 0.400810241699}
2019-04-14 11:31:40.31: SIM {TimeUS : 60734863, Roll : -0.22, Pitch : -17.11, Yaw : 47.91, Alt : 49.2999992371, Lat : 49.2836699, Lng : -123.1148564, Q1 : 0.90376919508, Q2 : 0.0586969964206, Q3 : -0.136795163155, Q4 : 0.401301652193}
2019-04-14 11:31:40.41: SIM {TimeUS : 60834823, Roll : -0.2, Pitch : -17.16, Yaw : 47.93, Alt : 49.2999992371, Lat : 49.2836724, Lng : -123.1148521, Q1 : 0.903661966324, Q2 : 0.0590037405491, Q3 : -0.137042701244, Q4 : 0.401413738728}
2019-04-14 11:31:40.51: SIM {TimeUS : 60934783, Roll : -0.17, Pitch : -17.18, Yaw : 47.9, Alt : 49.2999992371, Lat : 49.283675, Lng : -123.1148477, Q1 : 0.903737008572, Q2 : 0.059229273349, Q3 : -0.137144893408, Q4 : 0.401176571846}
2019-04-14 11:31:40.61: SIM {TimeUS : 61034743, Roll : -0.15, Pitch : -17.18, Yaw : 47.83, Alt : 49.2999992371, Lat : 49.2836777, Lng : -123.1148433, Q1 : 0.903955459595, Q2 : 0.0593818314373, Q3 : -0.137124806643, Q4 : 0.400668382645}
2019-04-14 11:31:40.71: SIM {TimeUS : 61134703, Roll : -0.09, Pitch : -17.18, Yaw : 47.73, Alt : 49.2999992371, Lat : 49.2836803, Lng : -123.1148389, Q1 : 0.904253959656, Q2 : 0.0597013533115, Q3 : -0.136986374855, Q4 : 0.399994105101}
2019-04-14 11:31:40.81: SIM {TimeUS : 61234663, Roll : -0.02, Pitch : -17.19, Yaw : 47.63, Alt : 49.3100013733, Lat : 49.2836829, Lng : -123.1148345, Q1 : 0.90457457304, Q2 : 0.0601722002029, Q3 : -0.136893987656, Q4 : 0.399229496717}
2019-04-14 11:31:40.91: SIM {TimeUS : 61334623, Roll : 0.06, Pitch : -17.23, Yaw : 47.52, Alt : 49.3100013733, Lat : 49.2836856, Lng : -123.11483, Q1 : 0.904859185219, Q2 : 0.0608785562217, Q3 : -0.136943817139, Q4 : 0.398459583521}
2019-04-14 11:31:41.01: SIM {TimeUS : 61434583, Roll : 0.14, Pitch : -17.29, Yaw : 47.42, Alt : 49.3100013733, Lat : 49.2836882, Lng : -123.1148255, Q1 : 0.905098199844, Q2 : 0.0615621693432, Q3 : -0.137149885297, Q4 : 0.397740215063}
2019-04-14 11:31:41.11: SIM {TimeUS : 61534543, Roll : 0.18, Pitch : -17.32, Yaw : 47.34, Alt : 49.3100013733, Lat : 49.283691, Lng : -123.114821, Q1 : 0.905322432518, Q2 : 0.0619262941182, Q3 : -0.137260824442, Q4 : 0.39713460207}
2019-04-14 11:31:41.22: SIM {TimeUS : 61635336, Roll : 0.21, Pitch : -17.32, Yaw : 47.28, Alt : 49.3100013733, Lat : 49.2836937, Lng : -123.1148165, Q1 : 0.90551751852, Q2 : 0.0621008053422, Q3 : -0.137185811996, Q4 : 0.396688193083}
2019-04-14 11:31:41.31: SIM {TimeUS : 61735296, Roll : 0.22, Pitch : -17.32, Yaw : 47.24, Alt : 49.3100013733, Lat : 49.2836963, Lng : -123.1148119, Q1 : 0.905641794205, Q2 : 0.0621515847743, Q3 : -0.137209787965, Q4 : 0.396388173103}
2019-04-14 11:31:41.41: SIM {TimeUS : 61835256, Roll : 0.21, Pitch : -17.35, Yaw : 47.22, Alt : 49.3100013733, Lat : 49.2836991, Lng : -123.1148074, Q1 : 0.905680060387, Q2 : 0.0621173456311, Q3 : -0.137501344085, Q4 : 0.396205067635}
2019-04-14 11:31:41.51: SIM {TimeUS : 61935216, Roll : 0.19, Pitch : -17.38, Yaw : 47.21, Alt : 49.3100013733, Lat : 49.2837017, Lng : -123.1148028, Q1 : 0.905662298203, Q2 : 0.0620981119573, Q3 : -0.137806132436, Q4 : 0.396142750978}
2019-04-14 11:31:41.61: SIM {TimeUS : 62035176, Roll : 0.17, Pitch : -17.42, Yaw : 47.22, Alt : 49.3100013733, Lat : 49.2837045, Lng : -123.1147982, Q1 : 0.905598640442, Q2 : 0.0620867460966, Q3 : -0.138144940138, Q4 : 0.396172046661}
2019-04-14 11:31:41.71: SIM {TimeUS : 62135136, Roll : 0.15, Pitch : -17.45, Yaw : 47.24, Alt : 49.3100013733, Lat : 49.2837071, Lng : -123.1147936, Q1 : 0.905517458916, Q2 : 0.0620189867914, Q3 : -0.13844999671, Q4 : 0.396261751652}
2019-04-14 11:31:41.81: SIM {TimeUS : 62235096, Roll : 0.13, Pitch : -17.48, Yaw : 47.26, Alt : 49.3100013733, Lat : 49.28371, Lng : -123.1147889, Q1 : 0.905430674553, Q2 : 0.0619661025703, Q3 : -0.13875605166, Q4 : 0.396361291409}
2019-04-14 11:31:41.91: SIM {TimeUS : 62335056, Roll : 0.11, Pitch : -17.5, Yaw : 47.27, Alt : 49.3100013733, Lat : 49.2837126, Lng : -123.1147844, Q1 : 0.905354380608, Q2 : 0.061941280961, Q3 : -0.13897639513, Q4 : 0.396462231874}
2019-04-14 11:31:42.01: SIM {TimeUS : 62435016, Roll : 0.11, Pitch : -17.52, Yaw : 47.29, Alt : 49.3199996948, Lat : 49.2837155, Lng : -123.1147798, Q1 : 0.90529859066, Q2 : 0.0619697794318, Q3 : -0.139144346118, Q4 : 0.39652633667}
2019-04-14 11:31:42.11: SIM {TimeUS : 62534976, Roll : 0.11, Pitch : -17.54, Yaw : 47.29, Alt : 49.3199996948, Lat : 49.2837181, Lng : -123.1147752, Q1 : 0.90525996685, Q2 : 0.0620721317828, Q3 : -0.139305412769, Q4 : 0.396541953087}
2019-04-14 11:31:42.21: SIM {TimeUS : 62634936, Roll : 0.1, Pitch : -17.57, Yaw : 47.28, Alt : 49.3199996948, Lat : 49.283721, Lng : -123.1147705, Q1 : 0.905239701271, Q2 : 0.0621320307255, Q3 : -0.139606416225, Q4 : 0.396472930908}
2019-04-14 11:31:42.31: SIM {TimeUS : 62734896, Roll : 0.08, Pitch : -17.61, Yaw : 47.27, Alt : 49.3199996948, Lat : 49.2837238, Lng : -123.1147658, Q1 : 0.905243933201, Q2 : 0.0620614141226, Q3 : -0.140016466379, Q4 : 0.396329700947}
2019-04-14 11:31:42.41: SIM {TimeUS : 62834856, Roll : 0.06, Pitch : -17.65, Yaw : 47.25, Alt : 49.3199996948, Lat : 49.2837265, Lng : -123.1147612, Q1 : 0.90526509285, Q2 : 0.0620501860976, Q3 : -0.140400797129, Q4 : 0.396147161722}
2019-04-14 11:31:42.51: SIM {TimeUS : 62934816, Roll : 0.08, Pitch : -17.69, Yaw : 47.23, Alt : 49.3199996948, Lat : 49.2837293, Lng : -123.1147565, Q1 : 0.905297338963, Q2 : 0.0622600913048, Q3 : -0.140617236495, Q4 : 0.395963609219}
2019-04-14 11:31:42.61: SIM {TimeUS : 63034776, Roll : 0.11, Pitch : -17.69, Yaw : 47.2, Alt : 49.3199996948, Lat : 49.283732, Lng : -123.1147518, Q1 : 0.905365884304, Q2 : 0.0625126585364, Q3 : -0.140566781163, Q4 : 0.395785033703}
2019-04-14 11:31:42.71: SIM {TimeUS : 63134736, Roll : 0.15, Pitch : -17.68, Yaw : 47.17, Alt : 49.3199996948, Lat : 49.2837349, Lng : -123.1147471, Q1 : 0.905468821526, Q2 : 0.0626878291368, Q3 : -0.140324085951, Q4 : 0.395607918501}
2019-04-14 11:31:42.81: SIM {TimeUS : 63234696, Roll : 0.16, Pitch : -17.66, Yaw : 47.15, Alt : 49.3199996948, Lat : 49.2837376, Lng : -123.1147423, Q1 : 0.905576586723, Q2 : 0.0627010390162, Q3 : -0.140156641603, Q4 : 0.39541849494}
2019-04-14 11:31:42.91: SIM {TimeUS : 63334656, Roll : 0.16, Pitch : -17.64, Yaw : 47.12, Alt : 49.3199996948, Lat : 49.2837405, Lng : -123.1147376, Q1 : 0.905684351921, Q2 : 0.0626499801874, Q3 : -0.140017524362, Q4 : 0.395229071379}
2019-04-14 11:31:43.01: SIM {TimeUS : 63434616, Roll : 0.16, Pitch : -17.62, Yaw : 47.1, Alt : 49.3199996948, Lat : 49.2837434, Lng : -123.1147329, Q1 : 0.905792593956, Q2 : 0.062530733645, Q3 : -0.139906167984, Q4 : 0.395039200783}
2019-04-14 11:31:43.11: SIM {TimeUS : 63534576, Roll : 0.15, Pitch : -17.64, Yaw : 47.07, Alt : 49.3199996948, Lat : 49.2837461, Lng : -123.1147281, Q1 : 0.905858814716, Q2 : 0.0624657683074, Q3 : -0.140046462417, Q4 : 0.394847840071}
2019-04-14 11:31:43.21: SIM {TimeUS : 63634536, Roll : 0.14, Pitch : -17.67, Yaw : 47.06, Alt : 49.3199996948, Lat : 49.283749, Lng : -123.1147234, Q1 : 0.905885100365, Q2 : 0.0625065341592, Q3 : -0.140344783664, Q4 : 0.394675165415}
2019-04-14 11:31:43.31: SIM {TimeUS : 63735329, Roll : 0.13, Pitch : -17.72, Yaw : 47.04, Alt : 49.3199996948, Lat : 49.2837519, Lng : -123.1147186, Q1 : 0.90587747097, Q2 : 0.062565676868, Q3 : -0.140795409679, Q4 : 0.394522756338}
2019-04-14 11:31:43.41: SIM {TimeUS : 63835289, Roll : 0.13, Pitch : -17.78, Yaw : 47.03, Alt : 49.3199996948, Lat : 49.2837546, Lng : -123.1147138, Q1 : 0.905846178532, Q2 : 0.0627419352531, Q3 : -0.141239255667, Q4 : 0.394408017397}
2019-04-14 11:31:43.51: SIM {TimeUS : 63935249, Roll : 0.15, Pitch : -17.8, Yaw : 47.02, Alt : 49.3300018311, Lat : 49.2837576, Lng : -123.114709, Q1 : 0.905831038952, Q2 : 0.0629451870918, Q3 : -0.14141599834, Q4 : 0.394347012043}
2019-04-14 11:31:43.61: SIM {TimeUS : 64035209, Roll : 0.15, Pitch : -17.83, Yaw : 47.02, Alt : 49.3300018311, Lat : 49.2837604, Lng : -123.1147042, Q1 : 0.905823111534, Q2 : 0.0630378425121, Q3 : -0.141612038016, Q4 : 0.394280105829}
2019-04-14 11:31:43.71: SIM {TimeUS : 64135169, Roll : 0.14, Pitch : -17.84, Yaw : 47.01, Alt : 49.3300018311, Lat : 49.2837632, Lng : -123.1146994, Q1 : 0.905831575394, Q2 : 0.0630413964391, Q3 : -0.141746297479, Q4 : 0.394211828709}
2019-04-14 11:31:43.81: SIM {TimeUS : 64235129, Roll : 0.15, Pitch : -17.84, Yaw : 47.0, Alt : 49.3300018311, Lat : 49.2837661, Lng : -123.1146946, Q1 : 0.905858457088, Q2 : 0.0630896165967, Q3 : -0.141664758325, Q4 : 0.394171714783}
2019-04-14 11:31:43.91: SIM {TimeUS : 64335089, Roll : 0.17, Pitch : -17.85, Yaw : 46.99, Alt : 49.3300018311, Lat : 49.283769, Lng : -123.1146898, Q1 : 0.905864715576, Q2 : 0.0632503628731, Q3 : -0.141680017114, Q4 : 0.39412599802}
2019-04-14 11:31:44.01: SIM {TimeUS : 64435049, Roll : 0.18, Pitch : -17.87, Yaw : 46.99, Alt : 49.3300018311, Lat : 49.2837719, Lng : -123.114685, Q1 : 0.905860900879, Q2 : 0.0633863285184, Q3 : -0.141830101609, Q4 : 0.394058912992}
2019-04-14 11:31:44.11: SIM {TimeUS : 64535009, Roll : 0.18, Pitch : -17.89, Yaw : 46.98, Alt : 49.3300018311, Lat : 49.2837746, Lng : -123.1146802, Q1 : 0.90586489439, Q2 : 0.0634742081165, Q3 : -0.141958802938, Q4 : 0.39398932457}
2019-04-14 11:31:44.21: SIM {TimeUS : 64634969, Roll : 0.19, Pitch : -17.89, Yaw : 46.97, Alt : 49.3300018311, Lat : 49.2837776, Lng : -123.1146754, Q1 : 0.90589761734, Q2 : 0.0635110661387, Q3 : -0.141939014196, Q4 : 0.393915295601}
2019-04-14 11:31:44.31: SIM {TimeUS : 64734929, Roll : 0.19, Pitch : -17.89, Yaw : 46.95, Alt : 49.3300018311, Lat : 49.2837805, Lng : -123.1146705, Q1 : 0.905934393406, Q2 : 0.0634954571724, Q3 : -0.141976639628, Q4 : 0.393819510937}
2019-04-14 11:31:44.41: SIM {TimeUS : 64834889, Roll : 0.17, Pitch : -17.91, Yaw : 46.94, Alt : 49.3300018311, Lat : 49.2837834, Lng : -123.1146657, Q1 : 0.905963003635, Q2 : 0.0633994787931, Q3 : -0.142205029726, Q4 : 0.393686801195}
2019-04-14 11:31:44.51: SIM {TimeUS : 64934849, Roll : 0.14, Pitch : -17.95, Yaw : 46.93, Alt : 49.3300018311, Lat : 49.2837862, Lng : -123.1146608, Q1 : 0.905981183052, Q2 : 0.0632634684443, Q3 : -0.142616093159, Q4 : 0.393518179655}
2019-04-14 11:31:44.61: SIM {TimeUS : 65034809, Roll : 0.13, Pitch : -17.95, Yaw : 46.91, Alt : 49.3300018311, Lat : 49.2837892, Lng : -123.114656, Q1 : 0.906031608582, Q2 : 0.0631600618362, Q3 : -0.142717093229, Q4 : 0.393381983042}
2019-04-14 11:31:44.71: SIM {TimeUS : 65134769, Roll : 0.13, Pitch : -17.94, Yaw : 46.9, Alt : 49.3300018311, Lat : 49.2837921, Lng : -123.1146511, Q1 : 0.906096756458, Q2 : 0.0631419122219, Q3 : -0.142602264881, Q4 : 0.393276512623}
2019-04-14 11:31:44.81: SIM {TimeUS : 65234729, Roll : 0.15, Pitch : -17.93, Yaw : 46.88, Alt : 49.3300018311, Lat : 49.283795, Lng : -123.1146463, Q1 : 0.906151771545, Q2 : 0.0632647797465, Q3 : -0.142444655299, Q4 : 0.393187105656}
2019-04-14 11:31:44.91: SIM {TimeUS : 65334689, Roll : 0.17, Pitch : -17.94, Yaw : 46.87, Alt : 49.3300018311, Lat : 49.2837978, Lng : -123.1146414, Q1 : 0.906187295914, Q2 : 0.0633803084493, Q3 : -0.142477586865, Q4 : 0.393074601889}
2019-04-14 11:31:45.01: SIM {TimeUS : 65434649, Roll : 0.16, Pitch : -17.95, Yaw : 46.85, Alt : 49.3400001526, Lat : 49.2838007, Lng : -123.1146365, Q1 : 0.906216084957, Q2 : 0.0633729919791, Q3 : -0.142641723156, Q4 : 0.392949908972}
2019-04-14 11:31:45.11: SIM {TimeUS : 65534609, Roll : 0.14, Pitch : -17.97, Yaw : 46.84, Alt : 49.3400001526, Lat : 49.2838037, Lng : -123.1146316, Q1 : 0.906247377396, Q2 : 0.0632504150271, Q3 : -0.142881780863, Q4 : 0.392810285091}
2019-04-14 11:31:45.21: SIM {TimeUS : 65634569, Roll : 0.13, Pitch : -17.99, Yaw : 46.83, Alt : 49.3400001526, Lat : 49.2838066, Lng : -123.1146268, Q1 : 0.906271159649, Q2 : 0.063197478652, Q3 : -0.143092170358, Q4 : 0.392687290907}
2019-04-14 11:31:45.32: SIM {TimeUS : 65735362, Roll : 0.13, Pitch : -18.01, Yaw : 46.82, Alt : 49.3400001526, Lat : 49.2838096, Lng : -123.1146218, Q1 : 0.906290113926, Q2 : 0.0632608905435, Q3 : -0.14321051538, Q4 : 0.392590224743}
2019-04-14 11:31:45.41: SIM {TimeUS : 65835322, Roll : 0.14, Pitch : -18.02, Yaw : 46.81, Alt : 49.3400001526, Lat : 49.2838124, Lng : -123.114617, Q1 : 0.906303048134, Q2 : 0.0633758753538, Q3 : -0.143294990063, Q4 : 0.392510950565}
2019-04-14 11:31:45.51: SIM {TimeUS : 65935282, Roll : 0.17, Pitch : -18.04, Yaw : 46.8, Alt : 49.3400001526, Lat : 49.2838153, Lng : -123.114612, Q1 : 0.906300246716, Q2 : 0.063624382019, Q3 : -0.143311545253, Q4 : 0.392471164465}
2019-04-14 11:31:45.61: SIM {TimeUS : 66035242, Roll : 0.18, Pitch : -18.06, Yaw : 46.79, Alt : 49.3400001526, Lat : 49.2838183, Lng : -123.1146072, Q1 : 0.906292378902, Q2 : 0.0638269335032, Q3 : -0.143399119377, Q4 : 0.392424494028}
2019-04-14 11:31:45.71: SIM {TimeUS : 66135202, Roll : 0.2, Pitch : -18.08, Yaw : 46.78, Alt : 49.3400001526, Lat : 49.2838213, Lng : -123.1146023, Q1 : 0.906279742718, Q2 : 0.064039811492, Q3 : -0.143509075046, Q4 : 0.392378717661}
2019-04-14 11:31:45.81: SIM {TimeUS : 66235162, Roll : 0.22, Pitch : -18.09, Yaw : 46.78, Alt : 49.3400001526, Lat : 49.2838242, Lng : -123.1145974, Q1 : 0.906271398067, Q2 : 0.0642170608044, Q3 : -0.143601745367, Q4 : 0.392335236073}
2019-04-14 11:31:45.91: SIM {TimeUS : 66335122, Roll : 0.24, Pitch : -18.11, Yaw : 46.77, Alt : 49.3400001526, Lat : 49.283827, Lng : -123.1145925, Q1 : 0.906264007092, Q2 : 0.0644352957606, Q3 : -0.143622353673, Q4 : 0.39230889082}
2019-04-14 11:31:46.01: SIM {TimeUS : 66435082, Roll : 0.27, Pitch : -18.12, Yaw : 46.76, Alt : 49.3400001526, Lat : 49.28383, Lng : -123.1145876, Q1 : 0.906254053116, Q2 : 0.0646809712052, Q3 : -0.143623039126, Q4 : 0.39229118824}
2019-04-14 11:31:46.11: SIM {TimeUS : 66535042, Roll : 0.26, Pitch : -18.11, Yaw : 46.76, Alt : 49.3400001526, Lat : 49.2838329, Lng : -123.1145826, Q1 : 0.90628027916, Q2 : 0.0645857155323, Q3 : -0.143621459603, Q4 : 0.392246961594}
2019-04-14 11:31:46.21: SIM {TimeUS : 66635002, Roll : 0.23, Pitch : -18.12, Yaw : 46.76, Alt : 49.3400001526, Lat : 49.283836, Lng : -123.1145777, Q1 : 0.906303346157, Q2 : 0.0643624961376, Q3 : -0.143774017692, Q4 : 0.392174422741}
