2019-04-14 11:54:19.00: SIM {TimeUS : 40016487, Roll : 0.0, Pitch : 0.0, Yaw : 0.0, Alt : 30.1000003815, Lat : 49.28357, Lng : -123.11502, Q1 : 1.0, Q2 : 0.0, Q3 : 0.0, Q4 : 0.0}
2019-04-14 11:54:19.11: SIM {TimeUS : 40135606, Roll : 0.0, Pitch : 0.0, Yaw : 0.0, Alt : 30.1000003815, Lat : 49.28357, Lng : -123.11502, Q1 : 1.0, Q2 : 0.0, Q3 : 0.0, Q4 : 0.0}
2019-04-14 11:54:19.21: SIM {TimeUS : 40235566, Roll : 0.0, Pitch : 0.0, Yaw : 0.0, Alt : 30.1000003815, Lat : 49.28357, Lng : -123.11502, Q1 : 1.0, Q2 : 0.0, Q3 : 0.0, Q4 : 0.0}
2019-04-14 11:54:19.31: SIM {TimeUS : 40335526, Roll : 0.0, Pitch : 0.0, Yaw : 0.0, Alt : 30.1000003815, Lat : 49.28357, Lng : -123.11502, Q1 : 1.0, Q2 : 0.0, Q3 : 0.0, Q4 : 0.0}
2019-04-14 11:54:19.41: SIM {TimeUS : 40435486, Roll : 0.0, Pitch : 0.0, Yaw : 0.0, Alt : 30.1000003815, Lat : 49.28357, Lng : -123.11502, Q1 : 1.0, Q2 : 0.0, Q3 : 0.0, Q4 : 0.0}
2019-04-14 11:54:19.51: SIM {TimeUS : 40535446, Roll : 0.0, Pitch : 0.0, Yaw : 0.0, Alt : 30.1000003815, Lat : 49.28357, Lng : -123.11502, Q1 : 1.0, Q2 : 0.0, Q3 : 0.0, Q4 : 0.0}
2019-04-14 11:54:19.61: SIM {TimeUS : 40635406, Roll : 0.0, Pitch : 0.0, Yaw : 0.0, Alt : 30.1000003815, Lat : 49.28357, Lng : -123.11502, Q1 : 1.0, Q2 : 0.0, Q3 : 0.0, Q4 : 0.0}
2019-04-14 11:54:19.71: SIM {TimeUS : 40735366, Roll : 0.0, Pitch : 0.0, Yaw : 0.0, Alt : 30.1000003815, Lat : 49.28357, Lng : -123.11502, Q1 : 1.0, Q2 : 0.0, Q3 : 0.0, Q4 : 0.0}
2019-04-14 11:54:19.81: SIM {TimeUS : 40835326, Roll : 0.0, Pitch : 0.0, Yaw : 0.0, Alt : 30.1000003815, Lat : 49.28357, Lng : -123.11502, Q1 : 1.0, Q2 : 0.0, Q3 : 0.0, Q4 : 0.0}
2019-04-14 11:54:19.91: SIM {TimeUS : 40935286, Roll : 0.0, Pitch : 0.0, Yaw : 0.0, Alt : 30.1000003815, Lat : 49.28357, Lng : -123.11502, Q1 : 1.0, Q2 : 0.0, Q3 : 0.0, Q4 : 0.0}
2019-04-14 11:54:20.01: SIM {TimeUS : 41035246, Roll : 0.0, Pitch : 0.0, Yaw : 0.0, Alt : 30.1000003815, Lat : 49.28357, Lng : -123.11502, Q1 : 1.0, Q2 : 0.0, Q3 : 0.0, Q4 : 0.0}
2019-04-14 11:54:20.11: SIM {TimeUS : 41135206, Roll : 0.0, Pitch : 0.0, Yaw : 0.0, Alt : 30.1000003815, Lat : 49.28357, Lng : -123.11502, Q1 : 1.0, Q2 : 0.0, Q3 : 0.0, Q4 : 0.0}
2019-04-14 11:54:20.21: SIM {TimeUS : 41235166, Roll : 0.0, Pitch : 0.0, Yaw : 0.0, Alt : 30.1000003815, Lat : 49.28357, Lng : -123.11502, Q1 : 1.0, Q2 : 0.0, Q3 : 0.0, Q4 : 0.0}
2019-04-14 11:54:20.31: SIM {TimeUS : 41335126, Roll : 0.0, Pitch : 0.0, Yaw : 0.0, Alt : 30.1000003815, Lat : 49.28357, Lng : -123.11502, Q1 : 1.0, Q2 : 0.0, Q3 : 0.0, Q4 : 0.0}
2019-04-14 11:54:20.41: SIM {TimeUS : 41435086, Roll : 0.0, Pitch : 0.0, Yaw : 0.0, Alt : 30.1000003815, Lat : 49.28357, Lng : -123.11502, Q1 : 1.0, Q2 : 0.0, Q3 : 0.0, Q4 : 0.0}
2019-04-14 11:54:20.51: SIM {TimeUS : 41535046, Roll : 0.0, Pitch : 0.0, Yaw : 0.0, Alt : 30.1000003815, Lat : 49.28357, Lng : -123.11502, Q1 : 1.0, Q2 : 0.0, Q3 : 0.0, Q4 : 0.0}
2019-04-14 11:54:20.61: SIM {TimeUS : 41635006, Roll : 0.0, Pitch : 0.0, Yaw : 0.0, Alt : 30.1000003815, Lat : 49.28357, Lng : -123.11502, Q1 : 1.0, Q2 : 0.0, Q3 : 0.0, Q4 : 0.0}
2019-04-14 11:54:20.71: SIM {TimeUS : 41734966, Roll : 0.0, Pitch : 0.0, Yaw : 0.0, Alt : 30.1000003815, Lat : 49.28357, Lng : -123.11502, Q1 : 1.0, Q2 : 0.0, Q3 : 0.0, Q4 : 0.0}
2019-04-14 11:54:20.81: SIM {TimeUS : 41834926, Roll : 0.0, Pitch : 0.0, Yaw : 0.0, Alt : 30.1000003815, Lat : 49.28357, Lng : -123.11502, Q1 : 1.0, Q2 : 0.0, Q3 : 0.0, Q4 : 0.0}
2019-04-14 11:54:20.91: SIM {TimeUS : 41934886, Roll : 0.0, Pitch : 0.0, Yaw : 0.0, Alt : 30.1000003815, Lat : 49.28357, Lng : -123.11502, Q1 : 1.0, Q2 : 0.0, Q3 : 0.0, Q4 : 0.0}
2019-04-14 11:54:21.01: SIM {TimeUS : 42034846, Roll : 0.0, Pitch : 0.0, Yaw : 0.0, Alt : 30.1000003815, Lat : 49.28357, Lng : -123.11502, Q1 : 1.0, Q2 : 0.0, Q3 : 0.0, Q4 : 0.0}
2019-04-14 11:54:21.11: SIM {TimeUS : 42135639, Roll : 0.0, Pitch : 0.0, Yaw : 0.0, Alt : 30.1000003815, Lat : 49.28357, Lng : -123.11502, Q1 : 1.0, Q2 : 0.0, Q3 : 0.0, Q4 : 0.0}
2019-04-14 11:54:21.21: SIM {TimeUS : 42235599, Roll : 0.0, Pitch : 0.0, Yaw : 0.0, Alt : 30.1000003815, Lat : 49.28357, Lng : -123.11502, Q1 : 1.0, Q2 : 0.0, Q3 : 0.0, Q4 : 0.0}
2019-04-14 11:54:21.31: SIM {TimeUS : 42335559, Roll : 0.0, Pitch : 0.0, Yaw : 360.0, Alt : 30.1000003815, Lat : 49.28357, Lng : -123.11502, Q1 : 1.0, Q2 : 0.0, Q3 : 0.0, Q4 : -7.07429687746e-12}
2019-04-14 11:54:21.41: SIM {TimeUS : 42435519, Roll : 0.0, Pitch : 0.0, Yaw : 0.0, Alt : 30.1000003815, Lat : 49.28357, Lng : -123.11502, Q1 : 1.0, Q2 : 0.0, Q3 : 0.0, Q4 : 1.12069374614e-10}
2019-04-14 11:54:21.51: SIM {TimeUS : 42535479, Roll : 0.0, Pitch : 0.0, Yaw : 360.0, Alt : 30.1000003815, Lat : 49.28357, Lng : -123.11502, Q1 : 1.0, Q2 : 0.0, Q3 : 0.0, Q4 : -1.04528304234e-07}
2019-04-14 11:54:21.61: SIM {TimeUS : 42635439, Roll : 0.0, Pitch : 0.0, Yaw : 359.99, Alt : 30.1000003815, Lat : 49.28357, Lng : -123.11502, Q1 : 1.0, Q2 : 0.0, Q3 : 0.0, Q4 : -2.74021118685e-07}
2019-04-14 11:54:21.71: SIM {TimeUS : 42735399, Roll : 0.0, Pitch : 0.0, Yaw : 359.99, Alt : 30.1000003815, Lat : 49.28357, Lng : -123.11502, Q1 : 1.0, Q2 : 0.0, Q3 : 0.0, Q4 : -4.5793669301e-07}
2019-04-14 11:54:21.81: SIM {TimeUS : 42835359, Roll : 0.0, Pitch : 0.0, Yaw : 359.99, Alt : 30.1000003815, Lat : 49.28357, Lng : -123.11502, Q1 : 1.0, Q2 : 0.0, Q3 : 0.0, Q4 : -6.41150165848e-07}
2019-04-14 11:54:21.91: SIM {TimeUS : 42935319, Roll : 0.0, Pitch : 0.0, Yaw : 359.99, Alt : 30.1000003815, Lat : 49.28357, Lng : -123.11502, Q1 : 1.0, Q2 : 0.0, Q3 : 0.0, Q4 : -8.36135200188e-07}
2019-04-14 11:54:22.01: SIM {TimeUS : 43035279, Roll : 0.0, Pitch : 0.0, Yaw : 359.99, Alt : 30.1000003815, Lat : 49.28357, Lng : -123.11502, Q1 : 1.0, Q2 : 0.0, Q3 : 0.0, Q4 : -1.03357081116e-06}
2019-04-14 11:54:22.11: SIM {TimeUS : 43135239, Roll : 0.0, Pitch : 0.0, Yaw : 359.99, Alt : 30.1000003815, Lat : 49.28357, Lng : -123.11502, Q1 : 1.0, Q2 : 0.0, Q3 : 0.0, Q4 : -1.2264548559e-06}
2019-04-14 11:54:22.21: SIM {TimeUS : 43235199, Roll : 0.0, Pitch : 0.0, Yaw : 359.99, Alt : 30.1100006104, Lat : 49.28357, Lng : -123.11502, Q1 : 1.0, Q2 : 0.0, Q3 : 0.0, Q4 : -1.48382480347e-06}
2019-04-14 11:54:22.31: SIM {TimeUS : 43335159, Roll : 0.0, Pitch : 0.0, Yaw : 359.99, Alt : 30.1299991608, Lat : 49.28357, Lng : -123.11502, Q1 : 1.0, Q2 : 0.0, Q3 : 0.0, Q4 : -1.70802513821e-06}
2019-04-14 11:54:22.41: SIM {TimeUS : 43435119, Roll : 0.0, Pitch : 0.0, Yaw : 359.99, Alt : 30.1499996185, Lat : 49.28357, Lng : -123.11502, Q1 : 1.0, Q2 : 0.0, Q3 : 0.0, Q4 : -1.95164193428e-06}
2019-04-14 11:54:22.51: SIM {TimeUS : 43535079, Roll : 0.0, Pitch : 0.0, Yaw : 359.99, Alt : 30.1900005341, Lat : 49.28357, Lng : -123.11502, Q1 : 1.0, Q2 : 0.0, Q3 : 0.0, Q4 : -2.19103094423e-06}
2019-04-14 11:54:22.61: SIM {TimeUS : 43635039, Roll : -0.02, Pitch : -0.02, Yaw : 359.99, Alt : 30.2299995422, Lat : 49.28357, Lng : -123.11502, Q1 : 0.999999940395, Q2 : -0.000244466820732, Q3 : -0.000250868994044, Q4 : -3.50019377038e-06}
2019-04-14 11:54:22.71: SIM {TimeUS : 43734999, Roll : -0.27, Pitch : -0.27, Yaw : 359.99, Alt : 30.2999992371, Lat : 49.28357, Lng : -123.11502, Q1 : 0.999994397163, Q2 : -0.002358001424, Q3 : -0.0023679214064, Q4 : -3.23075764754e-05}
2019-04-14 11:54:22.81: SIM {TimeUS : 43834959, Roll : -0.59, Pitch : -0.54, Yaw : 359.99, Alt : 30.4300003052, Lat : 49.28357, Lng : -123.11502, Q1 : 0.999975204468, Q2 : -0.00520046195015, Q3 : -0.00475108157843, Q4 : -9.16928911465e-05}
2019-04-14 11:54:22.91: SIM {TimeUS : 43934919, Roll : -0.82, Pitch : -0.68, Yaw : 359.98, Alt : 30.5900001526, Lat : 49.28357, Lng : -123.11502, Q1 : 0.999956071377, Q2 : -0.00720974383876, Q3 : -0.00598368607461, Q4 : -0.000169469625689}
2019-04-14 11:54:23.01: SIM {TimeUS : 44034879, Roll : -0.87, Pitch : -0.68, Yaw : 359.97, Alt : 30.75, Lat : 49.28357, Lng : -123.11502, Q1 : 0.999952554703, Q2 : -0.00766844814643, Q3 : -0.00600160611793, Q4 : -0.000250301789492}
2019-04-14 11:54:23.11: SIM {TimeUS : 44134839, Roll : -0.77, Pitch : -0.59, Yaw : 359.96, Alt : 30.8999996185, Lat : 49.28357, Lng : -123.1150201, Q1 : 0.999963760376, Q2 : -0.00675824005157, Q3 : -0.00516335107386, Q4 : -0.000321193656418}
2019-04-14 11:54:23.21: SIM {TimeUS : 44235632, Roll : -0.58, Pitch : -0.44, Yaw : 359.95, Alt : 31.0599994659, Lat : 49.2835701, Lng : -123.1150202, Q1 : 0.999979734421, Q2 : -0.00507021835074, Q3 : -0.00384067557752, Q4 : -0.000385619903682}
2019-04-14 11:54:23.31: SIM {TimeUS : 44335592, Roll : -0.35, Pitch : -0.27, Yaw : 359.95, Alt : 31.2099990845, Lat : 49.2835701, Lng : -123.1150202, Q1 : 0.999992311001, Q2 : -0.00308820139617, Q3 : -0.00238504470326, Q4 : -0.000443439552328}
2019-04-14 11:54:23.41: SIM {TimeUS : 44435552, Roll : -0.13, Pitch : -0.14, Yaw : 359.94, Alt : 31.3799991608, Lat : 49.2835702, Lng : -123.1150203, Q1 : 0.999998450279, Q2 : -0.00114694668446, Q3 : -0.00127101771068, Q4 : -0.000487758923555}
2019-04-14 11:54:23.51: SIM {TimeUS : 44535512, Roll : 0.02, Pitch : -0.04, Yaw : 359.94, Alt : 31.5499992371, Lat : 49.2835702, Lng : -123.1150204, Q1 : 0.999999761581, Q2 : 0.000195594926481, Q3 : -0.000414206559071, Q4 : -0.000520268455148}
2019-04-14 11:54:23.61: SIM {TimeUS : 44635472, Roll : 0.08, Pitch : 0.01, Yaw : 359.93, Alt : 31.7299995422, Lat : 49.2835703, Lng : -123.1150205, Q1 : 0.999999582767, Q2 : 0.000714803056326, Q3 : 0.000131201988552, Q4 : -0.000541207380593}
2019-04-14 11:54:23.71: SIM {TimeUS : 44735432, Roll : 0.08, Pitch : 0.03, Yaw : 359.93, Alt : 31.9099998474, Lat : 49.2835703, Lng : -123.1150206, Q1 : 0.999999523163, Q2 : 0.000716890615877, Q3 : 0.000342843413819, Q4 : -0.000547587522306}
2019-04-14 11:54:23.81: SIM {TimeUS : 44835392, Roll : 0.05, Pitch : 0.04, Yaw : 359.93, Alt : 32.0900001526, Lat : 49.2835703, Lng : -123.1150206, Q1 : 0.999999642372, Q2 : 0.000513417588081, Q3 : 0.000389612017898, Q4 : -0.000545747752767}
2019-04-14 11:54:23.91: SIM {TimeUS : 44935352, Roll : 0.04, Pitch : 0.04, Yaw : 359.93, Alt : 32.2799987793, Lat : 49.2835703, Lng : -123.1150207, Q1 : 0.999999701977, Q2 : 0.000402308942284, Q3 : 0.000400200893637, Q4 : -0.000543446629308}
2019-04-14 11:54:24.01: SIM {TimeUS : 45035312, Roll : 0.05, Pitch : 0.04, Yaw : 359.93, Alt : 32.4700012207, Lat : 49.2835703, Lng : -123.1150207, Q1 : 0.999999642372, Q2 : 0.000510947487783, Q3 : 0.000417431845563, Q4 : -0.000528138829395}
2019-04-14 11:54:24.11: SIM {TimeUS : 45135272, Roll : 0.09, Pitch : 0.05, Yaw : 359.94, Alt : 32.6699981689, Lat : 49.2835703, Lng : -123.1150208, Q1 : 0.999999403954, Q2 : 0.000846768496558, Q3 : 0.000494952662848, Q4 : -0.000501955626532}
2019-04-14 11:54:24.21: SIM {TimeUS : 45235232, Roll : 0.13, Pitch : 0.08, Yaw : 359.94, Alt : 32.8699989319, Lat : 49.2835704, Lng : -123.1150208, Q1 : 0.999998986721, Q2 : 0.00117204594426, Q3 : 0.000702546560206, Q4 : -0.000479464273667}
2019-04-14 11:54:24.31: SIM {TimeUS : 45335192, Roll : 0.15, Pitch : 0.1, Yaw : 359.94, Alt : 33.0699996948, Lat : 49.2835704, Lng : -123.1150208, Q1 : 0.999998509884, Q2 : 0.00137438531965, Q3 : 0.000945822277572, Q4 : -0.000461654824903}
2019-04-14 11:54:24.41: SIM {TimeUS : 45435152, Roll : 0.15, Pitch : 0.14, Yaw : 359.94, Alt : 33.2700004578, Lat : 49.2835704, Lng : -123.1150209, Q1 : 0.999998211861, Q2 : 0.00133464403916, Q3 : 0.0012398007093, Q4 : -0.000461259100121}
2019-04-14 11:54:24.51: SIM {TimeUS : 45535112, Roll : 0.15, Pitch : 0.17, Yaw : 359.94, Alt : 33.4700012207, Lat : 49.2835704, Lng : -123.1150209, Q1 : 0.999997735023, Q2 : 0.0013961775694, Q3 : 0.0015366502339, Q4 : -0.000475406443002}
2019-04-14 11:54:24.61: SIM {TimeUS : 45635072, Roll : 0.17, Pitch : 0.19, Yaw : 359.94, Alt : 33.6800003052, Lat : 49.2835704, Lng : -123.1150209, Q1 : 0.999997317791, Q2 : 0.00151658558752, Q3 : 0.00168116402347, Q4 : -0.000487865734613}
2019-04-14 11:54:24.71: SIM {TimeUS : 45735032, Roll : 0.18, Pitch : 0.19, Yaw : 359.94, Alt : 33.8899993896, Lat : 49.2835704, Lng : -123.1150209, Q1 : 0.999997138977, Q2 : 0.0015934095718, Q3 : 0.00170736550353, Q4 : -0.000500184076373}
2019-04-14 11:54:24.81: SIM {TimeUS : 45834992, Roll : 0.16, Pitch : 0.18, Yaw : 359.94, Alt : 34.0999984741, Lat : 49.2835706, Lng : -123.1150209, Q1 : 0.999997496605, Q2 : 0.00143233092967, Q3 : 0.00163739407435, Q4 : -0.000523905211594}
2019-04-14 11:54:24.91: SIM {TimeUS : 45934952, Roll : 0.13, Pitch : 0.14, Yaw : 359.93, Alt : 34.3100013733, Lat : 49.2835706, Lng : -123.1150209, Q1 : 0.999998271465, Q2 : 0.00121131760534, Q3 : 0.00127593323123, Q4 : -0.000548516516574}
2019-04-14 11:54:25.01: SIM {TimeUS : 46034912, Roll : 0.11, Pitch : 0.08, Yaw : 359.93, Alt : 34.5200004578, Lat : 49.2835706, Lng : -123.1150209, Q1 : 0.99999910593, Q2 : 0.000973877904471, Q3 : 0.000741200346965, Q4 : -0.00056173565099}
2019-04-14 11:54:25.11: SIM {TimeUS : 46134872, Roll : 0.08, Pitch : 0.04, Yaw : 359.93, Alt : 34.7299995422, Lat : 49.2835706, Lng : -123.1150209, Q1 : 0.999999463558, Q2 : 0.000767664168961, Q3 : 0.000393159891246, Q4 : -0.00058629718842}
2019-04-14 11:54:25.21: SIM {TimeUS : 46234832, Roll : 0.07, Pitch : 0.02, Yaw : 359.92, Alt : 34.9500007629, Lat : 49.2835706, Lng : -123.1150209, Q1 : 0.999999582767, Q2 : 0.000657043536194, Q3 : 0.000259851163719, Q4 : -0.000620105187409}
2019-04-14 11:54:25.31: SIM {TimeUS : 46335625, Roll : 0.08, Pitch : 0.04, Yaw : 359.92, Alt : 35.1699981689, Lat : 49.2835706, Lng : -123.1150209, Q1 : 0.999999463558, Q2 : 0.000716252019629, Q3 : 0.000356701319106, Q4 : -0.000661144265905}
2019-04-14 11:54:25.41: SIM {TimeUS : 46435585, Roll : 0.07, Pitch : 0.04, Yaw : 359.91, Alt : 35.3800010681, Lat : 49.2835706, Lng : -123.1150208, Q1 : 0.999999463558, Q2 : 0.00068877171725, Q3 : 0.000389668421121, Q4 : -0.000702735036612}
2019-04-14 11:54:25.51: SIM {TimeUS : 46535545, Roll : 0.05, Pitch : 0.04, Yaw : 359.91, Alt : 35.5999984741, Lat : 49.2835706, Lng : -123.1150208, Q1 : 0.999999523163, Q2 : 0.000521044188645, Q3 : 0.000407994259149, Q4 : -0.00073646788951}
2019-04-14 11:54:25.61: SIM {TimeUS : 46635505, Roll : 0.03, Pitch : 0.05, Yaw : 359.91, Alt : 35.8199996948, Lat : 49.2835704, Lng : -123.1150208, Q1 : 0.999999523163, Q2 : 0.000333385163685, Q3 : 0.000472001149319, Q4 : -0.000767274585087}
2019-04-14 11:54:25.71: SIM {TimeUS : 46735465, Roll : 0.02, Pitch : 0.07, Yaw : 359.9, Alt : 36.0400009155, Lat : 49.2835704, Lng : -123.1150208, Q1 : 0.999999463558, Q2 : 0.000191223240108, Q3 : 0.000631004106253, Q4 : -0.000796582025941}
2019-04-14 11:54:25.81: SIM {TimeUS : 46835425, Roll : 0.0, Pitch : 0.06, Yaw : 359.9, Alt : 36.2599983215, Lat : 49.2835704, Lng : -123.1150208, Q1 : 0.999999463558, Q2 : 5.34100690857e-05, Q3 : 0.000606935238466, Q4 : -0.00082089251373}
2019-04-14 11:54:25.91: SIM {TimeUS : 46935385, Roll : 0.0, Pitch : 0.05, Yaw : 359.9, Alt : 36.4799995422, Lat : 49.2835704, Lng : -123.1150207, Q1 : 0.999999523163, Q2 : -3.88591324736e-05, Q3 : 0.000471753126476, Q4 : -0.000850140640978}
2019-04-14 11:54:26.01: SIM {TimeUS : 47035345, Roll : -0.01, Pitch : 0.03, Yaw : 359.89, Alt : 36.7099990845, Lat : 49.2835704, Lng : -123.1150207, Q1 : 0.999999523163, Q2 : -0.000117149225844, Q3 : 0.000347119872458, Q4 : -0.000878333579749}
2019-04-14 11:54:26.11: SIM {TimeUS : 47135305, Roll : -0.01, Pitch : 0.02, Yaw : 359.89, Alt : 36.9300003052, Lat : 49.2835704, Lng : -123.1150207, Q1 : 0.999999523163, Q2 : -0.000162873548106, Q3 : 0.00022753450321, Q4 : -0.000900935439859}
2019-04-14 11:54:26.21: SIM {TimeUS : 47235265, Roll : 0.0, Pitch : 0.0, Yaw : 359.89, Alt : 37.1500015259, Lat : 49.2835704, Lng : -123.1150207, Q1 : 0.999999582767, Q2 : -7.76895540184e-05, Q3 : 8.2591723185e-05, Q4 : -0.000919122423511}
2019-04-14 11:54:26.31: SIM {TimeUS : 47335225, Roll : -0.01, Pitch : -0.01, Yaw : 359.89, Alt : 37.3800010681, Lat : 49.2835704, Lng : -123.1150207, Q1 : 0.999999582767, Q2 : -8.9389817731e-05, Q3 : -0.000118327508972, Q4 : -0.000933675270062}
2019-04-14 11:54:26.41: SIM {TimeUS : 47435185, Roll : -0.03, Pitch : -0.04, Yaw : 359.89, Alt : 37.5999984741, Lat : 49.2835704, Lng : -123.1150207, Q1 : 0.999999403954, Q2 : -0.00026656218688, Q3 : -0.000407027662732, Q4 : -0.000945742009208}
2019-04-14 11:54:26.51: SIM {TimeUS : 47535145, Roll : -0.06, Pitch : -0.07, Yaw : 359.89, Alt : 37.8300018311, Lat : 49.2835704, Lng : -123.1150207, Q1 : 0.999999165535, Q2 : -0.000550584925804, Q3 : -0.000638400844764, Q4 : -0.000959825934842}
2019-04-14 11:54:26.61: SIM {TimeUS : 47635105, Roll : -0.09, Pitch : -0.08, Yaw : 359.88, Alt : 38.0600013733, Lat : 49.2835704, Lng : -123.1150207, Q1 : 0.999998867512, Q2 : -0.000852817844134, Q3 : -0.000751829880755, Q4 : -0.000972527253907}
2019-04-14 11:54:26.71: SIM {TimeUS : 47735065, Roll : -0.11, Pitch : -0.09, Yaw : 359.88, Alt : 38.2799987793, Lat : 49.2835704, Lng : -123.1150206, Q1 : 0.999998629093, Q2 : -0.00104591716081, Q3 : -0.000801197544206, Q4 : -0.000982132973149}
2019-04-14 11:54:26.81: SIM {TimeUS : 47835025, Roll : -0.12, Pitch : -0.08, Yaw : 359.88, Alt : 38.5099983215, Lat : 49.2835704, Lng : -123.1150206, Q1 : 0.999998569489, Q2 : -0.00111706322059, Q3 : -0.000759411195759, Q4 : -0.000993514549918}
2019-04-14 11:54:26.91: SIM {TimeUS : 47934985, Roll : -0.11, Pitch : -0.06, Yaw : 359.88, Alt : 38.7400016785, Lat : 49.2835704, Lng : -123.1150206, Q1 : 0.999998867512, Q2 : -0.000987537088804, Q3 : -0.000565011578146, Q4 : -0.00101066450588}
2019-04-14 11:54:27.01: SIM {TimeUS : 48034945, Roll : -0.08, Pitch : -0.05, Yaw : 359.88, Alt : 38.9700012207, Lat : 49.2835704, Lng : -123.1150206, Q1 : 0.99999910593, Q2 : -0.000744201417547, Q3 : -0.000516578264069, Q4 : -0.00103045860305}
2019-04-14 11:54:27.11: SIM {TimeUS : 48134905, Roll : -0.06, Pitch : -0.05, Yaw : 359.87, Alt : 39.2000007629, Lat : 49.2835704, Lng : -123.1150206, Q1 : 0.99999910593, Q2 : -0.000601952546276, Q3 : -0.000513861887157, Q4 : -0.00106102589052}
2019-04-14 11:54:27.21: SIM {TimeUS : 48234865, Roll : -0.05, Pitch : -0.04, Yaw : 359.87, Alt : 39.4300003052, Lat : 49.2835704, Lng : -123.1150206, Q1 : 0.99999922514, Q2 : -0.000511942605954, Q3 : -0.000354579155101, Q4 : -0.00108555913903}
2019-04-14 11:54:27.31: SIM {TimeUS : 48334825, Roll : -0.07, Pitch : 0.0, Yaw : 359.87, Alt : 39.6599998474, Lat : 49.2835704, Lng : -123.1150206, Q1 : 0.99999922514, Q2 : -0.000618184101768, Q3 : -8.48107520142e-05, Q4 : -0.00111037015449}
2019-04-14 11:54:27.41: SIM {TimeUS : 48435618, Roll : -0.06, Pitch : 0.02, Yaw : 359.86, Alt : 39.8899993896, Lat : 49.2835704, Lng : -123.1150206, Q1 : 0.999999165535, Q2 : -0.000586956273764, Q3 : 0.000202767085284, Q4 : -0.00114076561294}
2019-04-14 11:54:27.51: SIM {TimeUS : 48535578, Roll : -0.04, Pitch : 0.06, Yaw : 359.86, Alt : 40.1199989319, Lat : 49.2835704, Lng : -123.1150206, Q1 : 0.999999046326, Q2 : -0.000422725192038, Q3 : 0.000528977543581, Q4 : -0.0011724755168}
2019-04-14 11:54:27.61: SIM {TimeUS : 48635538, Roll : -0.03, Pitch : 0.06, Yaw : 359.86, Alt : 40.3600006104, Lat : 49.2835704, Lng : -123.1150206, Q1 : 0.99999910593, Q2 : -0.000277533690678, Q3 : 0.000549737480469, Q4 : -0.00119052722584}
2019-04-14 11:54:27.71: SIM {TimeUS : 48735498, Roll : 0.0, Pitch : 0.05, Yaw : 359.86, Alt : 40.5900001526, Lat : 49.2835704, Lng : -123.1150207, Q1 : 0.999999165535, Q2 : -6.94377085892e-05, Q3 : 0.000511603779159, Q4 : -0.00120349123608}
2019-04-14 11:54:27.81: SIM {TimeUS : 48835458, Roll : 0.02, Pitch : 0.06, Yaw : 359.86, Alt : 40.8199996948, Lat : 49.2835704, Lng : -123.1150207, Q1 : 0.999999046326, Q2 : 0.0002432535548, Q3 : 0.000598087033723, Q4 : -0.00121419574134}
2019-04-14 11:54:27.91: SIM {TimeUS : 48935418, Roll : 0.07, Pitch : 0.09, Yaw : 359.85, Alt : 41.0499992371, Lat : 49.2835704, Lng : -123.1150207, Q1 : 0.999998688698, Q2 : 0.000659031618852, Q3 : 0.000836395018268, Q4 : -0.0012300509261}
2019-04-14 11:54:28.01: SIM {TimeUS : 49035378, Roll : 0.1, Pitch : 0.12, Yaw : 359.85, Alt : 41.2900009155, Lat : 49.2835706, Lng : -123.1150207, Q1 : 0.999998271465, Q2 : 0.000880105071701, Q3 : 0.00108433293644, Q4 : -0.00125327135902}
2019-04-14 11:54:28.11: SIM {TimeUS : 49135338, Roll : 0.08, Pitch : 0.14, Yaw : 359.85, Alt : 41.5200004578, Lat : 49.2835706, Lng : -123.1150207, Q1 : 0.999998152256, Q2 : 0.000745359517168, Q3 : 0.00124311633408, Q4 : -0.00127020687796}
2019-04-14 11:54:28.21: SIM {TimeUS : 49235298, Roll : 0.03, Pitch : 0.15, Yaw : 359.85, Alt : 41.75, Lat : 49.2835706, Lng : -123.1150207, Q1 : 0.999998271465, Q2 : 0.000333232339472, Q3 : 0.00133204436861, Q4 : -0.00128355342895}
2019-04-14 11:54:28.31: SIM {TimeUS : 49335258, Roll : -0.01, Pitch : 0.15, Yaw : 359.85, Alt : 41.9900016785, Lat : 49.2835706, Lng : -123.1150207, Q1 : 0.999998211861, Q2 : -8.64057728904e-05, Q3 : 0.00135370425414, Q4 : -0.0013033032883}
2019-04-14 11:54:28.41: SIM {TimeUS : 49435218, Roll : -0.02, Pitch : 0.12, Yaw : 359.84, Alt : 42.2200012207, Lat : 49.2835706, Lng : -123.1150207, Q1 : 0.999998450279, Q2 : -0.000232847349253, Q3 : 0.00112415419426, Q4 : -0.0013221190311}
2019-04-14 11:54:28.51: SIM {TimeUS : 49535178, Roll : -0.02, Pitch : 0.09, Yaw : 359.84, Alt : 42.4500007629, Lat : 49.2835706, Lng : -123.1150207, Q1 : 0.999998748302, Q2 : -0.000224385250476, Q3 : 0.000804336450528, Q4 : -0.00134024955332}
2019-04-14 11:54:28.61: SIM {TimeUS : 49635138, Roll : -0.01, Pitch : 0.09, Yaw : 359.84, Alt : 42.6899986267, Lat : 49.2835706, Lng : -123.1150207, Q1 : 0.999998748302, Q2 : -0.000102999139926, Q3 : 0.00080803578021, Q4 : -0.00136163714342}
2019-04-14 11:54:28.71: SIM {TimeUS : 49735098, Roll : 0.02, Pitch : 0.11, Yaw : 359.83, Alt : 42.9199981689, Lat : 49.2835706, Lng : -123.1150207, Q1 : 0.999998509884, Q2 : 0.000213720428292, Q3 : 0.00100012857001, Q4 : -0.00139728630893}
2019-04-14 11:54:28.81: SIM {TimeUS : 49835058, Roll : 0.07, Pitch : 0.13, Yaw : 359.83, Alt : 43.1599998474, Lat : 49.2835704, Lng : -123.1150207, Q1 : 0.999997973442, Q2 : 0.000696274451911, Q3 : 0.00121036532801, Q4 : -0.00142831553239}
2019-04-14 11:54:28.91: SIM {TimeUS : 49935018, Roll : 0.12, Pitch : 0.13, Yaw : 359.83, Alt : 43.3899993896, Lat : 49.2835704, Lng : -123.1150207, Q1 : 0.999997675419, Q2 : 0.00106043252163, Q3 : 0.00118426885456, Q4 : -0.00146128365304}
2019-04-14 11:54:29.01: SIM {TimeUS : 50034978, Roll : 0.12, Pitch : 0.12, Yaw : 359.82, Alt : 43.6300010681, Lat : 49.2835704, Lng : -123.1150207, Q1 : 0.999997735023, Q2 : 0.00107874476817, Q3 : 0.00104688084684, Q4 : -0.00148855906446}
2019-04-14 11:54:29.11: SIM {TimeUS : 50134938, Roll : 0.07, Pitch : 0.1, Yaw : 359.82, Alt : 43.8600006104, Lat : 49.2835704, Lng : -123.1150207, Q1 : 0.999998271465, Q2 : 0.000695825263392, Q3 : 0.000883661909029, Q4 : -0.00149653013796}
2019-04-14 11:54:29.21: SIM {TimeUS : 50234898, Roll : 0.01, Pitch : 0.08, Yaw : 359.82, Alt : 44.0999984741, Lat : 49.2835704, Lng : -123.1150207, Q1 : 0.999998569489, Q2 : 0.000156604743097, Q3 : 0.000759459740948, Q4 : -0.00150390411727}
2019-04-14 11:54:29.31: SIM {TimeUS : 50334858, Roll : -0.02, Pitch : 0.08, Yaw : 359.82, Alt : 44.3400001526, Lat : 49.2835704, Lng : -123.1150207, Q1 : 0.999998509884, Q2 : -0.000249410659308, Q3 : 0.000776533852331, Q4 : -0.00151923450176}
2019-04-14 11:54:29.41: SIM {TimeUS : 50434818, Roll : -0.05, Pitch : 0.08, Yaw : 359.82, Alt : 44.5699996948, Lat : 49.2835704, Lng : -123.1150206, Q1 : 0.999998450279, Q2 : -0.000446580408607, Q3 : 0.000716758484486, Q4 : -0.001539664343}
2019-04-14 11:54:29.51: SIM {TimeUS : 50535611, Roll : -0.04, Pitch : 0.05, Yaw : 359.82, Alt : 44.8100013733, Lat : 49.2835704, Lng : -123.1150206, Q1 : 0.999998569489, Q2 : -0.000398511852836, Q3 : 0.000516611209605, Q4 : -0.00156622310169}
2019-04-14 11:54:29.61: SIM {TimeUS : 50635571, Roll : -0.04, Pitch : 0.03, Yaw : 359.81, Alt : 45.0499992371, Lat : 49.2835704, Lng : -123.1150206, Q1 : 0.999998569489, Q2 : -0.000393055554014, Q3 : 0.000273614743492, Q4 : -0.00159794837236}
2019-04-14 11:54:29.71: SIM {TimeUS : 50735531, Roll : -0.03, Pitch : 0.01, Yaw : 359.81, Alt : 45.2799987793, Lat : 49.2835703, Lng : -123.1150206, Q1 : 0.999998629093, Q2 : -0.000304517976474, Q3 : 9.63841739576e-05, Q4 : -0.00163389684167}
2019-04-14 11:54:29.81: SIM {TimeUS : 50835491, Roll : -0.01, Pitch : 0.0, Yaw : 359.8, Alt : 45.5200004578, Lat : 49.2835703, Lng : -123.1150206, Q1 : 0.999998629093, Q2 : -0.000165546385688, Q3 : -5.80005576012e-07, Q4 : -0.00166963681113}
2019-04-14 11:54:29.91: SIM {TimeUS : 50935451, Roll : -0.01, Pitch : 0.0, Yaw : 359.8, Alt : 45.75, Lat : 49.2835703, Lng : -123.1150206, Q1 : 0.999998509884, Q2 : -0.000149540530401, Q3 : 9.93116191239e-06, Q4 : -0.00170720741153}
2019-04-14 11:54:30.01: SIM {TimeUS : 51035411, Roll : -0.02, Pitch : 0.0, Yaw : 359.79, Alt : 45.9799995422, Lat : 49.2835703, Lng : -123.1150206, Q1 : 0.999998450279, Q2 : -0.000229118100833, Q3 : -1.75373661477e-05, Q4 : -0.00174807303119}
2019-04-14 11:54:30.11: SIM {TimeUS : 51135371, Roll : -0.03, Pitch : -0.01, Yaw : 359.79, Alt : 46.2099990845, Lat : 49.2835703, Lng : -123.1150206, Q1 : 0.99999833107, Q2 : -0.000287259812467, Q3 : -0.000161711810506, Q4 : -0.00179225916509}
2019-04-14 11:54:30.21: SIM {TimeUS : 51235331, Roll : -0.03, Pitch : -0.03, Yaw : 359.78, Alt : 46.4399986267, Lat : 49.2835703, Lng : -123.1150206, Q1 : 0.999998211861, Q2 : -0.00029657932464, Q3 : -0.000293591001537, Q4 : -0.00183494621888}
2019-04-14 11:54:30.31: SIM {TimeUS : 51335291, Roll : -0.02, Pitch : -0.04, Yaw : 359.78, Alt : 46.6599998474, Lat : 49.2835703, Lng : -123.1150205, Q1 : 0.999998152256, Q2 : -0.000235235696891, Q3 : -0.000387892941944, Q4 : -0.0018735777121}
2019-04-14 11:54:30.41: SIM {TimeUS : 51435251, Roll : -0.03, Pitch : -0.05, Yaw : 359.78, Alt : 46.8699989319, Lat : 49.2835703, Lng : -123.1150205, Q1 : 0.999998033047, Q2 : -0.000275734142633, Q3 : -0.000453742453828, Q4 : -0.00190781918354}
2019-04-14 11:54:30.51: SIM {TimeUS : 51535211, Roll : -0.05, Pitch : -0.05, Yaw : 359.77, Alt : 47.0800018311, Lat : 49.2835703, Lng : -123.1150205, Q1 : 0.999997913837, Q2 : -0.000449287646916, Q3 : -0.00043552936404, Q4 : -0.00193331763148}
2019-04-14 11:54:30.61: SIM {TimeUS : 51635171, Roll : -0.08, Pitch : -0.04, Yaw : 359.77, Alt : 47.2799987793, Lat : 49.2835703, Lng : -123.1150205, Q1 : 0.999997794628, Q2 : -0.000714835652616, Q3 : -0.000399938377086, Q4 : -0.00195219111629}
2019-04-14 11:54:30.71: SIM {TimeUS : 51735131, Roll : -0.1, Pitch : -0.04, Yaw : 359.77, Alt : 47.4700012207, Lat : 49.2835703, Lng : -123.1150205, Q1 : 0.99999755621, Q2 : -0.000899740261957, Q3 : -0.000347459572367, Q4 : -0.00196811300702}
2019-04-14 11:54:30.81: SIM {TimeUS : 51835091, Roll : -0.12, Pitch : -0.03, Yaw : 359.77, Alt : 47.6599998474, Lat : 49.2835703, Lng : -123.1150205, Q1 : 0.999997437, Q2 : -0.00107349874452, Q3 : -0.000318510603392, Q4 : -0.00198348797858}
2019-04-14 11:54:30.91: SIM {TimeUS : 51935051, Roll : -0.14, Pitch : -0.04, Yaw : 359.77, Alt : 47.8300018311, Lat : 49.2835703, Lng : -123.1150205, Q1 : 0.999997079372, Q2 : -0.00129571917932, Q3 : -0.000394574599341, Q4 : -0.00200219615363}
2019-04-14 11:54:31.01: SIM {TimeUS : 52035011, Roll : -0.15, Pitch : -0.05, Yaw : 359.76, Alt : 47.9900016785, Lat : 49.2835703, Lng : -123.1150205, Q1 : 0.999996900558, Q2 : -0.00135946180671, Q3 : -0.000458760478068, Q4 : -0.00202308851294}
2019-04-14 11:54:31.11: SIM {TimeUS : 52134971, Roll : -0.14, Pitch : -0.05, Yaw : 359.76, Alt : 48.1399993896, Lat : 49.2835703, Lng : -123.1150205, Q1 : 0.999997019768, Q2 : -0.00126227992587, Q3 : -0.000445171550382, Q4 : -0.00204518483952}
2019-04-14 11:54:31.21: SIM {TimeUS : 52234931, Roll : -0.12, Pitch : -0.04, Yaw : 359.76, Alt : 48.2700004578, Lat : 49.2835703, Lng : -123.1150205, Q1 : 0.999997138977, Q2 : -0.00111091381405, Q3 : -0.000431243068306, Q4 : -0.00207111868076}
2019-04-14 11:54:31.31: SIM {TimeUS : 52334891, Roll : -0.09, Pitch : -0.05, Yaw : 359.75, Alt : 48.4000015259, Lat : 49.2835703, Lng : -123.1150205, Q1 : 0.999997317791, Q2 : -0.000860209402163, Q3 : -0.000482264556922, Q4 : -0.00210083788261}
2019-04-14 11:54:31.41: SIM {TimeUS : 52434851, Roll : -0.06, Pitch : -0.06, Yaw : 359.75, Alt : 48.5099983215, Lat : 49.2835703, Lng : -123.1150206, Q1 : 0.999997437, Q2 : -0.000536383944564, Q3 : -0.000541230663657, Q4 : -0.00213264254853}
2019-04-14 11:54:31.51: SIM {TimeUS : 52535644, Roll : -0.04, Pitch : -0.07, Yaw : 359.75, Alt : 48.6100006104, Lat : 49.2835703, Lng : -123.1150206, Q1 : 0.999997437, Q2 : -0.000358243647497, Q3 : -0.000612064322922, Q4 : -0.00215803226456}
2019-04-14 11:54:31.61: SIM {TimeUS : 52635604, Roll : -0.03, Pitch : -0.07, Yaw : 359.75, Alt : 48.7000007629, Lat : 49.2835703, Lng : -123.1150206, Q1 : 0.999997377396, Q2 : -0.000341729813954, Q3 : -0.000680617929902, Q4 : -0.00216857064515}
2019-04-14 11:54:31.71: SIM {TimeUS : 52735564, Roll : -0.01, Pitch : -0.07, Yaw : 359.75, Alt : 48.7799987793, Lat : 49.2835703, Lng : -123.1150206, Q1 : 0.999997377396, Q2 : -0.000158442984684, Q3 : -0.000653332390357, Q4 : -0.00217667291872}
2019-04-14 11:54:31.81: SIM {TimeUS : 52835524, Roll : 0.01, Pitch : -0.05, Yaw : 359.74, Alt : 48.8400001526, Lat : 49.2835703, Lng : -123.1150206, Q1 : 0.999997496605, Q2 : 0.000100815661426, Q3 : -0.000506949028932, Q4 : -0.00218706717715}
2019-04-14 11:54:31.91: SIM {TimeUS : 52935484, Roll : 0.03, Pitch : -0.03, Yaw : 359.74, Alt : 48.9000015259, Lat : 49.2835703, Lng : -123.1150206, Q1 : 0.999997437, Q2 : 0.00034251937177, Q3 : -0.000339699327014, Q4 : -0.00219886191189}
2019-04-14 11:54:32.01: SIM {TimeUS : 53035444, Roll : 0.05, Pitch : -0.01, Yaw : 359.74, Alt : 48.9500007629, Lat : 49.2835703, Lng : -123.1150206, Q1 : 0.999997437, Q2 : 0.000479784008348, Q3 : -0.000145861937199, Q4 : -0.00221037073061}
2019-04-14 11:54:32.11: SIM {TimeUS : 53135404, Roll : 0.07, Pitch : -0.01, Yaw : 359.74, Alt : 49.0, Lat : 49.2835703, Lng : -123.1150206, Q1 : 0.999997317791, Q2 : 0.000628218112979, Q3 : -0.000135194844916, Q4 : -0.00223101954907}
2019-04-14 11:54:32.21: SIM {TimeUS : 53235364, Roll : 0.15, Pitch : -0.1, Yaw : 359.74, Alt : 49.0299987793, Lat : 49.2835703, Lng : -123.1150207, Q1 : 0.999996066093, Q2 : 0.00136043922976, Q3 : -0.000947140739299, Q4 : -0.00226261839271}
2019-04-14 11:54:32.31: SIM {TimeUS : 53335324, Roll : 0.39, Pitch : -0.35, Yaw : 359.73, Alt : 49.0600013733, Lat : 49.2835703, Lng : -123.1150207, Q1 : 0.99998652935, Q2 : 0.00345986708999, Q3 : -0.00311618368141, Q4 : -0.00230316654779}
2019-04-14 11:54:32.41: SIM {TimeUS : 53435284, Roll : 0.84, Pitch : -0.78, Yaw : 359.72, Alt : 49.0900001526, Lat : 49.2835703, Lng : -123.1150207, Q1 : 0.999947071075, Q2 : 0.00733104953542, Q3 : -0.0068293986842, Q4 : -0.00234551704489}
2019-04-14 11:54:32.51: SIM {TimeUS : 53535244, Roll : 1.45, Pitch : -1.35, Yaw : 359.71, Alt : 49.1100006104, Lat : 49.2835704, Lng : -123.1150206, Q1 : 0.999845981598, Q2 : 0.0127071207389, Q3 : -0.0118742305785, Q4 : -0.0023682473693}
2019-04-14 11:54:32.61: SIM {TimeUS : 53635204, Roll : 2.19, Pitch : -2.02, Yaw : 359.69, Alt : 49.1300010681, Lat : 49.2835704, Lng : -123.1150206, Q1 : 0.999657213688, Q2 : 0.0191144794226, Q3 : -0.017738558352, Q4 : -0.00234533124603}
2019-04-14 11:54:32.71: SIM {TimeUS : 53735164, Roll : 2.96, Pitch : -2.69, Yaw : 359.67, Alt : 49.1500015259, Lat : 49.2835706, Lng : -123.1150205, Q1 : 0.99938505888, Q2 : 0.0258162710816, Q3 : -0.0236199982464, Q4 : -0.0022609543521}
2019-04-14 11:54:32.81: SIM {TimeUS : 53835124, Roll : 3.63, Pitch : -3.28, Yaw : 359.65, Alt : 49.1699981689, Lat : 49.2835707, Lng : -123.1150203, Q1 : 0.999083638191, Q2 : 0.031647067517, Q3 : -0.0287377312779, Q4 : -0.0021148212254}
2019-04-14 11:54:32.91: SIM {TimeUS : 53935084, Roll : 4.14, Pitch : -3.75, Yaw : 359.64, Alt : 49.1800003052, Lat : 49.2835708, Lng : -123.1150201, Q1 : 0.998808801174, Q2 : 0.0360178463161, Q3 : -0.0328629761934, Q4 : -0.00191241921857}
2019-04-14 11:54:33.01: SIM {TimeUS : 54035044, Roll : 4.49, Pitch : -4.1, Yaw : 359.64, Alt : 49.1899986267, Lat : 49.2835709, Lng : -123.1150199, Q1 : 0.998590290546, Q2 : 0.0390421450138, Q3 : -0.0359228029847, Q4 : -0.00165879132692}
2019-04-14 11:54:33.11: SIM {TimeUS : 54135004, Roll : 4.74, Pitch : -4.39, Yaw : 359.66, Alt : 49.2000007629, Lat : 49.2835713, Lng : -123.1150195, Q1 : 0.998407363892, Q2 : 0.0412684641778, Q3 : -0.0384420454502, Q4 : -0.00137141766027}
2019-04-14 11:54:33.21: SIM {TimeUS : 54234964, Roll : 4.98, Pitch : -4.65, Yaw : 359.67, Alt : 49.2099990845, Lat : 49.2835715, Lng : -123.115019, Q1 : 0.998227596283, Q2 : 0.0433743000031, Q3 : -0.0407341755927, Q4 : -0.00106885447167}
2019-04-14 11:54:33.31: SIM {TimeUS : 54334924, Roll : 5.24, Pitch : -4.91, Yaw : 359.68, Alt : 49.2200012207, Lat : 49.2835719, Lng : -123.1150185, Q1 : 0.998035013676, Q2 : 0.0456143207848, Q3 : -0.0429521203041, Q4 : -0.000770613085479}
2019-04-14 11:54:33.41: SIM {TimeUS : 54434884, Roll : 5.52, Pitch : -5.17, Yaw : 359.69, Alt : 49.2200012207, Lat : 49.2835722, Lng : -123.1150178, Q1 : 0.997821629047, Q2 : 0.0480156317353, Q3 : -0.0452357567847, Q4 : -0.000483383308165}
2019-04-14 11:54:33.51: SIM {TimeUS : 54534844, Roll : 5.77, Pitch : -5.41, Yaw : 359.7, Alt : 49.2299995422, Lat : 49.2835727, Lng : -123.1150171, Q1 : 0.997617602348, Q2 : 0.0502225458622, Q3 : -0.0472949892282, Q4 : -0.000207077682717}
2019-04-14 11:54:33.61: SIM {TimeUS : 54635637, Roll : 5.96, Pitch : -5.59, Yaw : 359.71, Alt : 49.2400016785, Lat : 49.2835732, Lng : -123.1150163, Q1 : 0.997460067272, Q2 : 0.051851041615, Q3 : -0.0488357804716, Q4 : 3.48062494595e-05}
2019-04-14 11:54:33.71: SIM {TimeUS : 54735597, Roll : 6.08, Pitch : -5.72, Yaw : 359.72, Alt : 49.2400016785, Lat : 49.2835738, Lng : -123.1150154, Q1 : 0.997344791889, Q2 : 0.052908308804, Q3 : -0.0500409565866, Q4 : 0.000218020592001}
2019-04-14 11:54:33.81: SIM {TimeUS : 54835557, Roll : 6.17, Pitch : -5.83, Yaw : 359.72, Alt : 49.25, Lat : 49.2835744, Lng : -123.1150144, Q1 : 0.997255921364, Q2 : 0.0536955185235, Q3 : -0.050963319838, Q4 : 0.000352604722138}
2019-04-14 11:54:33.91: SIM {TimeUS : 54935517, Roll : 6.28, Pitch : -5.92, Yaw : 359.72, Alt : 49.25, Lat : 49.283575, Lng : -123.1150133, Q1 : 0.997165262699, Q2 : 0.0546150840819, Q3 : -0.0517543330789, Q4 : 0.000456518871943}
2019-04-14 11:54:34.01: SIM {TimeUS : 55035477, Roll : 6.44, Pitch : -5.98, Yaw : 359.73, Alt : 49.25, Lat : 49.2835757, Lng : -123.1150122, Q1 : 0.99706196785, Q2 : 0.0559913478792, Q3 : -0.0522685423493, Q4 : 0.000663825834636}
2019-04-14 11:54:34.11: SIM {TimeUS : 55135437, Roll : 6.82, Pitch : -5.93, Yaw : 0.0, Alt : 49.2599983215, Lat : 49.2835764, Lng : -123.115011, Q1 : 0.996888458729, Q2 : 0.0594578757882, Q3 : -0.0516542866826, Q4 : 0.00316284853034}
2019-04-14 11:54:34.21: SIM {TimeUS : 55235397, Roll : 7.42, Pitch : -5.81, Yaw : 1.16, Alt : 49.2599983215, Lat : 49.2835773, Lng : -123.1150096, Q1 : 0.99653083086, Q2 : 0.0652137249708, Q3 : -0.0499417707324, Q4 : 0.0133900679648}
2019-04-14 11:54:34.31: SIM {TimeUS : 55335357, Roll : 8.0, Pitch : -5.91, Yaw : 3.77, Alt : 49.2599983215, Lat : 49.2835781, Lng : -123.1150083, Q1 : 0.995574176311, Q2 : 0.0713570564985, Q3 : -0.049110583961, Q4 : 0.0364480018616}
2019-04-14 11:54:34.41: SIM {TimeUS : 55435317, Roll : 8.25, Pitch : -6.43, Yaw : 7.98, Alt : 49.2599983215, Lat : 49.2835788, Lng : -123.1150068, Q1 : 0.993133723736, Q2 : 0.0756062716246, Q3 : -0.050841730088, Q4 : 0.0733774974942}
2019-04-14 11:54:34.51: SIM {TimeUS : 55535277, Roll : 7.97, Pitch : -7.4, Yaw : 13.62, Alt : 49.2599983215, Lat : 49.2835798, Lng : -123.1150052, Q1 : 0.987940907478, Q2 : 0.0765060782433, Q3 : -0.0557196959853, Q4 : 0.12253549695}
2019-04-14 11:54:34.61: SIM {TimeUS : 55635237, Roll : 7.04, Pitch : -8.68, Yaw : 20.45, Alt : 49.2599983215, Lat : 49.2835806, Lng : -123.1150035, Q1 : 0.978609144688, Q2 : 0.0737451165915, Q3 : -0.0634853467345, Q4 : 0.181260868907}
2019-04-14 11:54:34.71: SIM {TimeUS : 55735197, Roll : 5.49, Pitch : -10.08, Yaw : 28.2, Alt : 49.2700004578, Lat : 49.2835816, Lng : -123.1150016, Q1 : 0.963973224163, Q2 : 0.0677241683006, Q3 : -0.0734716951847, Q4 : 0.246517747641}
2019-04-14 11:54:34.81: SIM {TimeUS : 55835157, Roll : 3.17, Pitch : -11.36, Yaw : 36.52, Alt : 49.2700004578, Lat : 49.2835825, Lng : -123.1149997, Q1 : 0.943755626678, Q2 : 0.057211227715, Q3 : -0.0853059887886, Q4 : 0.314284980297}
2019-04-14 11:54:34.91: SIM {TimeUS : 55935117, Roll : 0.14, Pitch : -12.25, Yaw : 44.67, Alt : 49.2700004578, Lat : 49.2835836, Lng : -123.1149976, Q1 : 0.919622242451, Q2 : 0.0417071320117, Q3 : -0.0982720702887, Q4 : 0.37801861763}
2019-04-14 11:54:35.01: SIM {TimeUS : 56035077, Roll : -3.04, Pitch : -12.63, Yaw : 51.78, Alt : 49.2700004578, Lat : 49.2835847, Lng : -123.1149955, Q1 : 0.895108520985, Q2 : 0.0242985617369, Q3 : -0.110495314002, Q4 : 0.431255251169}
2019-04-14 11:54:35.11: SIM {TimeUS : 56135037, Roll : -5.68, Pitch : -12.63, Yaw : 57.16, Alt : 49.2700004578, Lat : 49.2835858, Lng : -123.1149934, Q1 : 0.874324917793, Q2 : 0.00927788764238, Q3 : -0.120100617409, Q4 : 0.470154941082}
2019-04-14 11:54:35.21: SIM {TimeUS : 56234997, Roll : -7.34, Pitch : -12.49, Yaw : 60.53, Alt : 49.2700004578, Lat : 49.2835871, Lng : -123.1149912, Q1 : 0.860290288925, Q2 : -0.000272006000159, Q3 : -0.125930398703, Q4 : 0.494006216526}
2019-04-14 11:54:35.31: SIM {TimeUS : 56334957, Roll : -7.94, Pitch : -12.44, Yaw : 62.0, Alt : 49.2700004578, Lat : 49.2835885, Lng : -123.1149889, Q1 : 0.853932321072, Q2 : -0.00334472069517, Q3 : -0.128130614758, Q4 : 0.504352033138}
2019-04-14 11:54:35.41: SIM {TimeUS : 56434917, Roll : -7.6, Pitch : -12.59, Yaw : 61.86, Alt : 49.2700004578, Lat : 49.2835899, Lng : -123.1149867, Q1 : 0.854473233223, Q2 : -0.000268791714916, Q3 : -0.127797529101, Q4 : 0.503530800343}
2019-04-14 11:54:35.51: SIM {TimeUS : 56534877, Roll : -6.54, Pitch : -13.02, Yaw : 60.47, Alt : 49.2700004578, Lat : 49.2835915, Lng : -123.1149844, Q1 : 0.860226094723, Q2 : 0.00801038742065, Q3 : -0.126367762685, Q4 : 0.49394133687}
2019-04-14 11:54:35.61: SIM {TimeUS : 56634837, Roll : -5.01, Pitch : -13.64, Yaw : 58.18, Alt : 49.2700004578, Lat : 49.2835932, Lng : -123.1149821, Q1 : 0.869324624538, Q2 : 0.0197683703154, Q3 : -0.124805524945, Q4 : 0.477815330029}
2019-04-14 11:54:35.71: SIM {TimeUS : 56735630, Roll : -3.2, Pitch : -14.35, Yaw : 55.29, Alt : 49.2799987793, Lat : 49.283595, Lng : -123.1149796, Q1 : 0.880150139332, Q2 : 0.0333496145904, Q3 : -0.123534664512, Q4 : 0.457124441862}
2019-04-14 11:54:35.81: SIM {TimeUS : 56835590, Roll : -1.36, Pitch : -15.0, Yaw : 52.15, Alt : 49.2799987793, Lat : 49.2835966, Lng : -123.1149772, Q1 : 0.891129076481, Q2 : 0.0467555634677, Q3 : -0.122450135648, Q4 : 0.434406340122}
2019-04-14 11:54:35.91: SIM {TimeUS : 56935550, Roll : 0.33, Pitch : -15.46, Yaw : 49.07, Alt : 49.2799987793, Lat : 49.2835986, Lng : -123.1149746, Q1 : 0.901247560978, Q2 : 0.0585458800197, Q3 : -0.121189497411, Q4 : 0.411871701479}
2019-04-14 11:54:36.01: SIM {TimeUS : 57035510, Roll : 1.76, Pitch : -15.71, Yaw : 46.37, Alt : 49.2799987793, Lat : 49.2836005, Lng : -123.1149719, Q1 : 0.909664571285, Q2 : 0.0678555741906, Q3 : -0.119611434639, Q4 : 0.391917198896}
2019-04-14 11:54:36.11: SIM {TimeUS : 57135470, Roll : 2.8, Pitch : -15.77, Yaw : 44.29, Alt : 49.2799987793, Lat : 49.2836023, Lng : -123.1149691, Q1 : 0.915923595428, Q2 : 0.0741534680128, Q3 : -0.117964230478, Q4 : 0.376390337944}
2019-04-14 11:54:36.21: SIM {TimeUS : 57235430, Roll : 3.37, Pitch : -15.73, Yaw : 42.96, Alt : 49.2799987793, Lat : 49.2836043, Lng : -123.1149662, Q1 : 0.919904887676, Q2 : 0.0772481411695, Q3 : -0.116677969694, Q4 : 0.366324901581}
2019-04-14 11:54:36.31: SIM {TimeUS : 57335390, Roll : 3.49, Pitch : -15.68, Yaw : 42.39, Alt : 49.2799987793, Lat : 49.2836062, Lng : -123.1149631, Q1 : 0.921684324741, Q2 : 0.077457562089, Q3 : -0.116229355335, Q4 : 0.361924171448}
2019-04-14 11:54:36.41: SIM {TimeUS : 57435350, Roll : 3.2, Pitch : -15.68, Yaw : 42.52, Alt : 49.2799987793, Lat : 49.2836081, Lng : -123.1149599, Q1 : 0.921473264694, Q2 : 0.0752476528287, Q3 : -0.117042630911, Q4 : 0.362664908171}
2019-04-14 11:54:36.51: SIM {TimeUS : 57535310, Roll : 2.6, Pitch : -15.74, Yaw : 43.21, Alt : 49.2799987793, Lat : 49.2836101, Lng : -123.1149566, Q1 : 0.919584572315, Q2 : 0.0713961869478, Q3 : -0.119020968676, Q4 : 0.367560654879}
2019-04-14 11:54:36.61: SIM {TimeUS : 57635270, Roll : 1.82, Pitch : -15.86, Yaw : 44.28, Alt : 49.2799987793, Lat : 49.2836121, Lng : -123.1149531, Q1 : 0.916433751583, Q2 : 0.0666146501899, Q3 : -0.121850796044, Q4 : 0.375318616629}
2019-04-14 11:54:36.71: SIM {TimeUS : 57735230, Roll : 0.96, Pitch : -16.0, Yaw : 45.56, Alt : 49.2900009155, Lat : 49.2836141, Lng : -123.1149498, Q1 : 0.912507176399, Q2 : 0.0616029687226, Q3 : -0.125077322125, Q4 : 0.384566456079}
2019-04-14 11:54:36.81: SIM {TimeUS : 57835190, Roll : 0.16, Pitch : -16.13, Yaw : 46.88, Alt : 49.2900009155, Lat : 49.2836162, Lng : -123.1149463, Q1 : 0.90831810236, Q2 : 0.057100199163, Q3 : -0.128201395273, Q4 : 0.394033312798}
2019-04-14 11:54:36.91: SIM {TimeUS : 57935150, Roll : -0.51, Pitch : -16.25, Yaw : 48.07, Alt : 49.2900009155, Lat : 49.2836183, Lng : -123.1149427, Q1 : 0.904363572598, Q2 : 0.0534990355372, Q3 : -0.130977660418, Q4 : 0.402628004551}
2019-04-14 11:54:37.01: SIM {TimeUS : 58035110, Roll : -1.03, Pitch : -16.35, Yaw : 49.03, Alt : 49.2900009155, Lat : 49.2836203, Lng : -123.1149391, Q1 : 0.901079714298, Q2 : 0.0509179867804, Q3 : -0.133141055703, Q4 : 0.409556090832}
2019-04-14 11:54:37.11: SIM {TimeUS : 58135070, Roll : -1.36, Pitch : -16.43, Yaw : 49.69, Alt : 49.2900009155, Lat : 49.2836226, Lng : -123.1149354, Q1 : 0.89875549078, Q2 : 0.0493862256408, Q3 : -0.134612560272, Q4 : 0.414341688156}
2019-04-14 11:54:37.21: SIM {TimeUS : 58235030, Roll : -1.49, Pitch : -16.46, Yaw : 50.04, Alt : 49.2900009155, Lat : 49.2836248, Lng : -123.1149317, Q1 : 0.897534310818, Q2 : 0.0488710142672, Q3 : -0.13516433537, Q4 : 0.416862607002}
2019-04-14 11:54:37.31: SIM {TimeUS : 58334990, Roll : -1.42, Pitch : -16.46, Yaw : 50.08, Alt : 49.2900009155, Lat : 49.283627, Lng : -123.1149279, Q1 : 0.897351741791, Q2 : 0.0494342111051, Q3 : -0.134940907359, Q4 : 0.417261451483}
2019-04-14 11:54:37.41: SIM {TimeUS : 58434950, Roll : -1.22, Pitch : -16.46, Yaw : 49.86, Alt : 49.2900009155, Lat : 49.2836293, Lng : -123.1149241, Q1 : 0.898036301136, Q2 : 0.0507566481829, Q3 : -0.134344130754, Q4 : 0.415819972754}
2019-04-14 11:54:37.51: SIM {TimeUS : 58534910, Roll : -0.92, Pitch : -16.49, Yaw : 49.46, Alt : 49.2900009155, Lat : 49.2836317, Lng : -123.1149203, Q1 : 0.899321138859, Q2 : 0.0527993813157, Q3 : -0.133608281612, Q4 : 0.413016468287}
2019-04-14 11:54:37.61: SIM {TimeUS : 58634870, Roll : -0.53, Pitch : -16.52, Yaw : 48.95, Alt : 49.2900009155, Lat : 49.283634, Lng : -123.1149164, Q1 : 0.900961756706, Q2 : 0.0552820749581, Q3 : -0.132691830397, Q4 : 0.409395575523}
2019-04-14 11:54:37.71: SIM {TimeUS : 58734830, Roll : -0.16, Pitch : -16.55, Yaw : 48.39, Alt : 49.2900009155, Lat : 49.2836364, Lng : -123.1149125, Q1 : 0.9027120471, Q2 : 0.0577057003975, Q3 : -0.131858915091, Q4 : 0.405455619097}
2019-04-14 11:54:37.81: SIM {TimeUS : 58835623, Roll : 0.15, Pitch : -16.59, Yaw : 47.86, Alt : 49.2900009155, Lat : 49.2836388, Lng : -123.1149085, Q1 : 0.904357552528, Q2 : 0.0597934573889, Q3 : -0.131388857961, Q4 : 0.401620596647}
2019-04-14 11:54:37.91: SIM {TimeUS : 58935583, Roll : 0.38, Pitch : -16.65, Yaw : 47.42, Alt : 49.2900009155, Lat : 49.2836413, Lng : -123.1149046, Q1 : 0.905722796917, Q2 : 0.0613305829465, Q3 : -0.131275057793, Q4 : 0.39833599329}
2019-04-14 11:54:38.01: SIM {TimeUS : 59035543, Roll : 0.53, Pitch : -16.72, Yaw : 47.08, Alt : 49.2900009155, Lat : 49.2836437, Lng : -123.1149005, Q1 : 0.90671813488, Q2 : 0.0623648650944, Q3 : -0.131478115916, Q4 : 0.395836263895}
2019-04-14 11:54:38.11: SIM {TimeUS : 59135503, Roll : 0.6, Pitch : -16.77, Yaw : 46.88, Alt : 49.2900009155, Lat : 49.2836461, Lng : -123.1148964, Q1 : 0.907329976559, Q2 : 0.062810510397, Q3 : -0.131786853075, Q4 : 0.394258081913}
2019-04-14 11:54:38.21: SIM {TimeUS : 59235463, Roll : 0.59, Pitch : -16.82, Yaw : 46.8, Alt : 49.2900009155, Lat : 49.2836486, Lng : -123.1148923, Q1 : 0.907553136349, Q2 : 0.0628074705601, Q3 : -0.132204189897, Q4 : 0.393604576588}
2019-04-14 11:54:38.31: SIM {TimeUS : 59335423, Roll : 0.53, Pitch : -16.86, Yaw : 46.83, Alt : 49.2900009155, Lat : 49.2836511, Lng : -123.1148882, Q1 : 0.907427430153, Q2 : 0.0625126585364, Q3 : -0.132699161768, Q4 : 0.393774718046}
2019-04-14 11:54:38.41: SIM {TimeUS : 59435383, Roll : 0.43, Pitch : -16.89, Yaw : 46.95, Alt : 49.2900009155, Lat : 49.2836535, Lng : -123.114884, Q1 : 0.907035708427, Q2 : 0.061943307519, Q3 : -0.133225217462, Q4 : 0.394588768482}
2019-04-14 11:54:38.51: SIM {TimeUS : 59535343, Roll : 0.3, Pitch : -16.91, Yaw : 47.13, Alt : 49.2900009155, Lat : 49.283656, Lng : -123.1148798, Q1 : 0.90646904707, Q2 : 0.0612296871841, Q3 : -0.133727863431, Q4 : 0.395830333233}
2019-04-14 11:54:38.61: SIM {TimeUS : 59635303, Roll : 0.17, Pitch : -16.94, Yaw : 47.33, Alt : 49.2900009155, Lat : 49.2836585, Lng : -123.1148755, Q1 : 0.905805468559, Q2 : 0.060529794544, Q3 : -0.134293317795, Q4 : 0.397263020277}
2019-04-14 11:54:38.71: SIM {TimeUS : 59735263, Roll : 0.05, Pitch : -16.96, Yaw : 47.53, Alt : 49.2999992371, Lat : 49.283661, Lng : -123.1148712, Q1 : 0.905150353909, Q2 : 0.0598447583616, Q3 : -0.134822577238, Q4 : 0.39867824316}
2019-04-14 11:54:38.81: SIM {TimeUS : 59835223, Roll : -0.05, Pitch : -16.99, Yaw : 47.7, Alt : 49.2999992371, Lat : 49.2836635, Lng : -123.114867, Q1 : 0.904574871063, Q2 : 0.0592767372727, Q3 : -0.135323345661, Q4 : 0.399897754192}
2019-04-14 11:54:38.91: SIM {TimeUS : 59935183, Roll : -0.14, Pitch : -17.02, Yaw : 47.83, Alt : 49.2999992371, Lat : 49.2836662, Lng : -123.1148626, Q1 : 0.904121398926, Q2 : 0.0588852390647, Q3 : -0.135829910636, Q4 : 0.400808304548}
2019-04-14 11:54:39.01: SIM {TimeUS : 60035143, Roll : -0.19, Pitch : -17.07, Yaw : 47.91, Alt : 49.2999992371, Lat : 49.2836688, Lng : -123.1148583, Q1 : 0.903806805611, Q2 : 0.0587873198092, Q3 : -0.136330932379, Q4 : 0.401361644268}
2019-04-14 11:54:39.11: SIM {TimeUS : 60135103, Roll : -0.21, Pitch : -17.11, Yaw : 47.94, Alt : 49.2999992371, Lat : 49.2836713, Lng : -123.1148539, Q1 : 0.903674721718, Q2 : 0.0587342344224, Q3 : -0.136705547571, Q4 : 0.401539355516}
2019-04-14 11:54:39.21: SIM {TimeUS : 60235063, Roll : -0.22, Pitch : -17.13, Yaw : 47.92, Alt : 49.2999992371, Lat : 49.283674, Lng : -123.1148495, Q1 : 0.903717517853, Q2 : 0.0587437152863, Q3 : -0.136886060238, Q4 : 0.401380211115}
2019-04-14 11:54:39.31: SIM {TimeUS : 60335023, Roll : -0.2, Pitch : -17.15, Yaw : 47.87, Alt : 49.2999992371, Lat : 49.2836766, Lng : -123.1148451, Q1 : 0.903885900974, Q2 : 0.0588965266943, Q3 : -0.136993095279, Q4 : 0.40094190836}
2019-04-14 11:54:39.41: SIM {TimeUS : 60434983, Roll : -0.15, Pitch : -17.17, Yaw : 47.78, Alt : 49.2999992371, Lat : 49.2836791, Lng : -123.1148406, Q1 : 0.904136776924, Q2 : 0.0592228211462, Q3 : -0.137085437775, Q4 : 0.400296121836}
2019-04-14 11:54:39.51: SIM {TimeUS : 60534943, Roll : -0.09, Pitch : -17.21, Yaw : 47.68, Alt : 49.2999992371, Lat : 49.2836817, Lng : -123.1148362, Q1 : 0.904419600964, Q2 : 0.0597150027752, Q3 : -0.137227937579, Q4 : 0.39953443408}
2019-04-14 11:54:39.61: SIM {TimeUS : 60634903, Roll : -0.01, Pitch : -17.25, Yaw : 47.57, Alt : 49.2999992371, Lat : 49.2836845, Lng : -123.1148318, Q1 : 0.904703557491, Q2 : 0.0603938251734, Q3 : -0.137348696589, Q4 : 0.398747384548}
2019-04-14 11:54:39.71: SIM {TimeUS : 60734863, Roll : 0.08, Pitch : -17.3, Yaw : 47.46, Alt : 49.3100013733, Lat : 49.2836871, Lng : -123.1148272, Q1 : 0.904955506325, Q2 : 0.0612044744194, Q3 : -0.137448072433, Q4 : 0.398017048836}
2019-04-14 11:54:39.81: SIM {TimeUS : 60834823, Roll : 0.15, Pitch : -17.34, Yaw : 47.37, Alt : 49.3100013733, Lat : 49.2836898, Lng : -123.1148228, Q1 : 0.905185937881, Q2 : 0.0617964304984, Q3 : -0.137548059225, Q4 : 0.397366523743}
2019-04-14 11:54:39.91: SIM {TimeUS : 60935616, Roll : 0.17, Pitch : -17.35, Yaw : 47.3, Alt : 49.3100013733, Lat : 49.2836925, Lng : -123.1148183, Q1 : 0.905404567719, Q2 : 0.0619591884315, Q3 : -0.137597963214, Q4 : 0.396825551987}
2019-04-14 11:54:40.01: SIM {TimeUS : 61035576, Roll : 0.17, Pitch : -17.35, Yaw : 47.25, Alt : 49.3100013733, Lat : 49.2836951, Lng : -123.1148137, Q1 : 0.905580580235, Q2 : 0.0618194900453, Q3 : -0.137632980943, Q4 : 0.396433264017}
2019-04-14 11:54:40.11: SIM {TimeUS : 61135536, Roll : 0.17, Pitch : -17.34, Yaw : 47.23, Alt : 49.3100013733, Lat : 49.2836979, Lng : -123.1148092, Q1 : 0.905678927898, Q2 : 0.0617770180106, Q3 : -0.137604027987, Q4 : 0.396225243807}
2019-04-14 11:54:40.21: SIM {TimeUS : 61235496, Roll : 0.16, Pitch : -17.35, Yaw : 47.22, Alt : 49.3100013733, Lat : 49.2837005, Lng : -123.1148046, Q1 : 0.905699253082, Q2 : 0.0617698393762, Q3 : -0.137683749199, Q4 : 0.396152198315}
2019-04-14 11:54:40.31: SIM {TimeUS : 61335456, Roll : 0.17, Pitch : -17.39, Yaw : 47.22, Alt : 49.3100013733, Lat : 49.2837034, Lng : -123.1148001, Q1 : 0.905637085438, Q2 : 0.0619600452483, Q3 : -0.137911736965, Q4 : 0.396185308695}
2019-04-14 11:54:40.41: SIM {TimeUS : 61435416, Roll : 0.17, Pitch : -17.44, Yaw : 47.24, Alt : 49.3100013733, Lat : 49.283706, Lng : -123.1147955, Q1 : 0.90552097559, Q2 : 0.062178298831, Q3 : -0.138331577182, Q4 : 0.396270155907}
2019-04-14 11:54:40.51: SIM {TimeUS : 61535376, Roll : 0.16, Pitch : -17.48, Yaw : 47.26, Alt : 49.3100013733, Lat : 49.2837088, Lng : -123.1147909, Q1 : 0.905418932438, Q2 : 0.0622224807739, Q3 : -0.138656526804, Q4 : 0.396382808685}
2019-04-14 11:54:40.61: SIM {TimeUS : 61635336, Roll : 0.14, Pitch : -17.49, Yaw : 47.28, Alt : 49.3100013733, Lat : 49.2837115, Lng : -123.1147863, Q1 : 0.905346155167, Q2 : 0.062147796154, Q3 : -0.138806954026, Q4 : 0.396508067846}
2019-04-14 11:54:40.71: SIM {TimeUS : 61735296, Roll : 0.11, Pitch : -17.5, Yaw : 47.29, Alt : 49.3100013733, Lat : 49.2837143, Lng : -123.1147816, Q1 : 0.905300736427, Q2 : 0.0619495026767, Q3 : -0.139005362988, Q4 : 0.396573275328}
2019-04-14 11:54:40.81: SIM {TimeUS : 61835256, Roll : 0.08, Pitch : -17.53, Yaw : 47.3, Alt : 49.3199996948, Lat : 49.283717, Lng : -123.114777, Q1 : 0.905262708664, Q2 : 0.0617682337761, Q3 : -0.139311790466, Q4 : 0.396580755711}
2019-04-14 11:54:40.91: SIM {TimeUS : 61935216, Roll : 0.07, Pitch : -17.55, Yaw : 47.3, Alt : 49.3199996948, Lat : 49.2837198, Lng : -123.1147723, Q1 : 0.905232906342, Q2 : 0.0617733560503, Q3 : -0.13953115046, Q4 : 0.396571010351}
2019-04-14 11:54:41.01: SIM {TimeUS : 62035176, Roll : 0.06, Pitch : -17.57, Yaw : 47.29, Alt : 49.3199996948, Lat : 49.2837226, Lng : -123.1147676, Q1 : 0.905232191086, Q2 : 0.061781976372, Q3 : -0.139732763171, Q4 : 0.396500259638}
2019-04-14 11:54:41.11: SIM {TimeUS : 62135136, Roll : 0.06, Pitch : -17.59, Yaw : 47.28, Alt : 49.3199996948, Lat : 49.2837253, Lng : -123.114763, Q1 : 0.905261993408, Q2 : 0.0618148595095, Q3 : -0.139854282141, Q4 : 0.396384239197}
2019-04-14 11:54:41.21: SIM {TimeUS : 62235096, Roll : 0.07, Pitch : -17.6, Yaw : 47.26, Alt : 49.3199996948, Lat : 49.2837282, Lng : -123.1147583, Q1 : 0.905311763287, Q2 : 0.0619330368936, Q3 : -0.139955684543, Q4 : 0.396216273308}
2019-04-14 11:54:41.31: SIM {TimeUS : 62335056, Roll : 0.09, Pitch : -17.61, Yaw : 47.23, Alt : 49.3199996948, Lat : 49.2837308, Lng : -123.1147536, Q1 : 0.905383586884, Q2 : 0.0620940700173, Q3 : -0.139976277947, Q4 : 0.396019607782}
2019-04-14 11:54:41.41: SIM {TimeUS : 62435016, Roll : 0.11, Pitch : -17.62, Yaw : 47.2, Alt : 49.3199996948, Lat : 49.2837337, Lng : -123.1147489, Q1 : 0.905455172062, Q2 : 0.0622887089849, Q3 : -0.139966607094, Q4 : 0.395828783512}
2019-04-14 11:54:41.51: SIM {TimeUS : 62534976, Roll : 0.14, Pitch : -17.64, Yaw : 47.17, Alt : 49.3199996948, Lat : 49.2837366, Lng : -123.1147442, Q1 : 0.905511438847, Q2 : 0.06256082654, Q3 : -0.140043243766, Q4 : 0.395630031824}
2019-04-14 11:54:41.61: SIM {TimeUS : 62634936, Roll : 0.16, Pitch : -17.68, Yaw : 47.15, Alt : 49.3199996948, Lat : 49.2837393, Lng : -123.1147395, Q1 : 0.905548214912, Q2 : 0.0627964287996, Q3 : -0.140325680375, Q4 : 0.395408391953}
2019-04-14 11:54:41.71: SIM {TimeUS : 62734896, Roll : 0.16, Pitch : -17.73, Yaw : 47.12, Alt : 49.3199996948, Lat : 49.2837422, Lng : -123.1147348, Q1 : 0.905578494072, Q2 : 0.0629353970289, Q3 : -0.140705808997, Q4 : 0.395181804895}
2019-04-14 11:54:41.81: SIM {TimeUS : 62834856, Roll : 0.15, Pitch : -17.77, Yaw : 47.1, Alt : 49.3199996948, Lat : 49.2837449, Lng : -123.1147301, Q1 : 0.905607879162, Q2 : 0.0630020424724, Q3 : -0.14108993113, Q4 : 0.394966840744}
2019-04-14 11:54:41.91: SIM {TimeUS : 62934816, Roll : 0.16, Pitch : -17.8, Yaw : 47.08, Alt : 49.3199996948, Lat : 49.2837478, Lng : -123.1147253, Q1 : 0.905635774136, Q2 : 0.0631425008178, Q3 : -0.141307860613, Q4 : 0.394802451134}
2019-04-14 11:54:42.01: SIM {TimeUS : 63035609, Roll : 0.18, Pitch : -17.8, Yaw : 47.06, Alt : 49.3199996948, Lat : 49.2837507, Lng : -123.1147205, Q1 : 0.905683517456, Q2 : 0.0632698386908, Q3 : -0.141275674105, Q4 : 0.394684016705}
2019-04-14 11:54:42.11: SIM {TimeUS : 63135569, Roll : 0.19, Pitch : -17.77, Yaw : 47.05, Alt : 49.3199996948, Lat : 49.2837534, Lng : -123.1147157, Q1 : 0.905763089657, Q2 : 0.0632268637419, Q3 : -0.141006201506, Q4 : 0.394604712725}
2019-04-14 11:54:42.21: SIM {TimeUS : 63235529, Roll : 0.18, Pitch : -17.75, Yaw : 47.04, Alt : 49.3199996948, Lat : 49.2837563, Lng : -123.114711, Q1 : 0.905829310417, Q2 : 0.0630451515317, Q3 : -0.140836596489, Q4 : 0.394542336464}
2019-04-14 11:54:42.31: SIM {TimeUS : 63335489, Roll : 0.16, Pitch : -17.73, Yaw : 47.03, Alt : 49.3199996948, Lat : 49.2837592, Lng : -123.1147062, Q1 : 0.905885279179, Q2 : 0.0628388822079, Q3 : -0.140725240111, Q4 : 0.394486457109}
2019-04-14 11:54:42.41: SIM {TimeUS : 63435449, Roll : 0.15, Pitch : -17.73, Yaw : 47.03, Alt : 49.3300018311, Lat : 49.283762, Lng : -123.1147014, Q1 : 0.905903995037, Q2 : 0.0627509430051, Q3 : -0.140778660774, Q4 : 0.394438385963}
2019-04-14 11:54:42.51: SIM {TimeUS : 63535409, Roll : 0.14, Pitch : -17.75, Yaw : 47.02, Alt : 49.3300018311, Lat : 49.2837649, Lng : -123.1146965, Q1 : 0.905899643898, Q2 : 0.0627266466618, Q3 : -0.140990808606, Q4 : 0.39437648654}
2019-04-14 11:54:42.61: SIM {TimeUS : 63635369, Roll : 0.14, Pitch : -17.78, Yaw : 47.02, Alt : 49.3300018311, Lat : 49.2837678, Lng : -123.1146918, Q1 : 0.905885875225, Q2 : 0.0627801567316, Q3 : -0.141227856278, Q4 : 0.394314736128}
2019-04-14 11:54:42.71: SIM {TimeUS : 63735329, Roll : 0.13, Pitch : -17.82, Yaw : 47.01, Alt : 49.3300018311, Lat : 49.2837705, Lng : -123.114687, Q1 : 0.905862867832, Q2 : 0.0628419667482, Q3 : -0.141583278775, Q4 : 0.394230276346}
2019-04-14 11:54:42.81: SIM {TimeUS : 63835289, Roll : 0.13, Pitch : -17.87, Yaw : 47.0, Alt : 49.3300018311, Lat : 49.2837734, Lng : -123.1146822, Q1 : 0.905831038952, Q2 : 0.0629874691367, Q3 : -0.141977325082, Q4 : 0.3941385746}
2019-04-14 11:54:42.91: SIM {TimeUS : 63935249, Roll : 0.14, Pitch : -17.9, Yaw : 46.99, Alt : 49.3300018311, Lat : 49.2837764, Lng : -123.1146773, Q1 : 0.90581715107, Q2 : 0.0631803572178, Q3 : -0.142234861851, Q4 : 0.394046664238}
2019-04-14 11:54:43.01: SIM {TimeUS : 64035209, Roll : 0.14, Pitch : -17.93, Yaw : 46.98, Alt : 49.3300018311, Lat : 49.2837793, Lng : -123.1146725, Q1 : 0.905824840069, Q2 : 0.0632696002722, Q3 : -0.142473965883, Q4 : 0.393928319216}
2019-04-14 11:54:43.11: SIM {TimeUS : 64135169, Roll : 0.14, Pitch : -17.95, Yaw : 46.97, Alt : 49.3300018311, Lat : 49.283782, Lng : -123.1146677, Q1 : 0.905849337578, Q2 : 0.0633229017258, Q3 : -0.142633169889, Q4 : 0.393805801868}
2019-04-14 11:54:43.21: SIM {TimeUS : 64235129, Roll : 0.15, Pitch : -17.94, Yaw : 46.95, Alt : 49.3300018311, Lat : 49.2837849, Lng : -123.1146628, Q1 : 0.905901789665, Q2 : 0.0634033307433, Q3 : -0.142531692982, Q4 : 0.393708854914}
2019-04-14 11:54:43.31: SIM {TimeUS : 64335089, Roll : 0.18, Pitch : -17.95, Yaw : 46.93, Alt : 49.3300018311, Lat : 49.2837879, Lng : -123.114658, Q1 : 0.905940115452, Q2 : 0.0636018440127, Q3 : -0.142495632172, Q4 : 0.393601745367}
2019-04-14 11:54:43.41: SIM {TimeUS : 64435049, Roll : 0.19, Pitch : -17.97, Yaw : 46.92, Alt : 49.3300018311, Lat : 49.2837908, Lng : -123.1146531, Q1 : 0.905975520611, Q2 : 0.0636878162622, Q3 : -0.142612025142, Q4 : 0.393464177847}
2019-04-14 11:54:43.51: SIM {TimeUS : 64535009, Roll : 0.2, Pitch : -17.98, Yaw : 46.9, Alt : 49.3300018311, Lat : 49.2837936, Lng : -123.1146483, Q1 : 0.906016886234, Q2 : 0.0637810081244, Q3 : -0.142676621675, Q4 : 0.393330425024}
2019-04-14 11:54:43.61: SIM {TimeUS : 64634969, Roll : 0.21, Pitch : -17.97, Yaw : 46.88, Alt : 49.3300018311, Lat : 49.2837965, Lng : -123.1146434, Q1 : 0.906074047089, Q2 : 0.0638119131327, Q3 : -0.142588168383, Q4 : 0.393225759268}
2019-04-14 11:54:43.71: SIM {TimeUS : 64734929, Roll : 0.21, Pitch : -17.96, Yaw : 46.87, Alt : 49.3400001526, Lat : 49.2837995, Lng : -123.1146385, Q1 : 0.906124353409, Q2 : 0.0638089030981, Q3 : -0.142531216145, Q4 : 0.393131047487}
2019-04-14 11:54:43.81: SIM {TimeUS : 64834889, Roll : 0.19, Pitch : -17.98, Yaw : 46.86, Alt : 49.3400001526, Lat : 49.2838024, Lng : -123.1146337, Q1 : 0.906154155731, Q2 : 0.063699029386, Q3 : -0.142721697688, Q4 : 0.393010884523}
2019-04-14 11:54:43.91: SIM {TimeUS : 64934849, Roll : 0.16, Pitch : -18.01, Yaw : 46.85, Alt : 49.3400001526, Lat : 49.2838054, Lng : -123.1146288, Q1 : 0.906163156033, Q2 : 0.0635389983654, Q3 : -0.143104985356, Q4 : 0.392876654863}
2019-04-14 11:54:44.01: SIM {TimeUS : 65035642, Roll : 0.14, Pitch : -18.01, Yaw : 46.84, Alt : 49.3400001526, Lat : 49.2838082, Lng : -123.1146239, Q1 : 0.906198382378, Q2 : 0.0633635669947, Q3 : -0.143196851015, Q4 : 0.392790287733}
2019-04-14 11:54:44.11: SIM {TimeUS : 65135602, Roll : 0.14, Pitch : -17.99, Yaw : 46.83, Alt : 49.3400001526, Lat : 49.2838111, Lng : -123.114619, Q1 : 0.90624666214, Q2 : 0.0633317381144, Q3 : -0.142998993397, Q4 : 0.392756223679}
2019-04-14 11:54:44.21: SIM {TimeUS : 65235562, Roll : 0.16, Pitch : -17.97, Yaw : 46.83, Alt : 49.3400001526, Lat : 49.2838141, Lng : -123.1146141, Q1 : 0.90628772974, Q2 : 0.0633891150355, Q3 : -0.142780661583, Q4 : 0.39273160696}
2019-04-14 11:54:44.31: SIM {TimeUS : 65335522, Roll : 0.17, Pitch : -17.98, Yaw : 46.82, Alt : 49.3400001526, Lat : 49.2838171, Lng : -123.1146092, Q1 : 0.906298279762, Q2 : 0.0635109916329, Q3 : -0.142809316516, Q4 : 0.39267706871}
2019-04-14 11:54:44.41: SIM {TimeUS : 65435482, Roll : 0.17, Pitch : -18.01, Yaw : 46.81, Alt : 49.3400001526, Lat : 49.28382, Lng : -123.1146043, Q1 : 0.906296610832, Q2 : 0.0635335445404, Q3 : -0.143061071634, Q4 : 0.392585635185}
2019-04-14 11:54:44.51: SIM {TimeUS : 65535442, Roll : 0.14, Pitch : -18.04, Yaw : 46.8, Alt : 49.3400001526, Lat : 49.2838228, Lng : -123.1145994, Q1 : 0.906296849251, Q2 : 0.0634640827775, Q3 : -0.143412455916, Q4 : 0.392468124628}
2019-04-14 11:54:44.61: SIM {TimeUS : 65635402, Roll : 0.13, Pitch : -18.07, Yaw : 46.79, Alt : 49.3400001526, Lat : 49.2838258, Lng : -123.1145945, Q1 : 0.906295835972, Q2 : 0.0634762346745, Q3 : -0.143709510565, Q4 : 0.392359852791}
2019-04-14 11:54:44.71: SIM {TimeUS : 65735362, Roll : 0.14, Pitch : -18.1, Yaw : 46.78, Alt : 49.3400001526, Lat : 49.2838287, Lng : -123.1145895, Q1 : 0.906290113926, Q2 : 0.0636122450233, Q3 : -0.143944710493, Q4 : 0.392264813185}
2019-04-14 11:54:44.81: SIM {TimeUS : 65835322, Roll : 0.15, Pitch : -18.12, Yaw : 46.77, Alt : 49.3400001526, Lat : 49.2838317, Lng : -123.1145846, Q1 : 0.906294763088, Q2 : 0.0637652650476, Q3 : -0.144065916538, Q4 : 0.392184704542}
2019-04-14 11:54:44.91: SIM {TimeUS : 65935282, Roll : 0.17, Pitch : -18.13, Yaw : 46.76, Alt : 49.3400001526, Lat : 49.2838347, Lng : -123.1145797, Q1 : 0.906312286854, Q2 : 0.063957490027, Q3 : -0.144019708037, Q4 : 0.392129838467}
