2019-04-14 12:27:28.80: SIM {TimeUS : 40816167, Roll : 0.0, Pitch : 0.0, Yaw : 0.0, Alt : 30.1000003815, Lat : 49.28357, Lng : -123.11502, Q1 : 1.0, Q2 : 0.0, Q3 : 0.0, Q4 : 0.0}
2019-04-14 12:27:28.91: SIM {TimeUS : 40935286, Roll : 0.0, Pitch : 0.0, Yaw : 0.0, Alt : 30.1000003815, Lat : 49.28357, Lng : -123.11502, Q1 : 1.0, Q2 : 0.0, Q3 : 0.0, Q4 : 0.0}
2019-04-14 12:27:29.01: SIM {TimeUS : 41035246, Roll : 0.0, Pitch : 0.0, Yaw : 0.0, Alt : 30.1000003815, Lat : 49.28357, Lng : -123.11502, Q1 : 1.0, Q2 : 0.0, Q3 : 0.0, Q4 : 0.0}
2019-04-14 12:27:29.11: SIM {TimeUS : 41135206, Roll : 0.0, Pitch : 0.0, Yaw : 0.0, Alt : 30.1000003815, Lat : 49.28357, Lng : -123.11502, Q1 : 1.0, Q2 : 0.0, Q3 : 0.0, Q4 : 0.0}
2019-04-14 12:27:29.21: SIM {TimeUS : 41235166, Roll : 0.0, Pitch : 0.0, Yaw : 0.0, Alt : 30.1000003815, Lat : 49.28357, Lng : -123.11502, Q1 : 1.0, Q2 : 0.0, Q3 : 0.0, Q4 : 0.0}
2019-04-14 12:27:29.31: SIM {TimeUS : 41335126, Roll : 0.0, Pitch : 0.0, Yaw : 0.0, Alt : 30.1000003815, Lat : 49.28357, Lng : -123.11502, Q1 : 1.0, Q2 : 0.0, Q3 : 0.0, Q4 : 0.0}
2019-04-14 12:27:29.41: SIM {TimeUS : 41435086, Roll : 0.0, Pitch : 0.0, Yaw : 0.0, Alt : 30.1000003815, Lat : 49.28357, Lng : -123.11502, Q1 : 1.0, Q2 : 0.0, Q3 : 0.0, Q4 : 0.0}
2019-04-14 12:27:29.51: SIM {TimeUS : 41535046, Roll : 0.0, Pitch : 0.0, Yaw : 0.0, Alt : 30.1000003815, Lat : 49.28357, Lng : -123.11502, Q1 : 1.0, Q2 : 0.0, Q3 : 0.0, Q4 : 0.0}
2019-04-14 12:27:29.61: SIM {TimeUS : 41635006, Roll : 0.0, Pitch : 0.0, Yaw : 0.0, Alt : 30.1000003815, Lat : 49.28357, Lng : -123.11502, Q1 : 1.0, Q2 : 0.0, Q3 : 0.0, Q4 : 0.0}
2019-04-14 12:27:29.71: SIM {TimeUS : 41734966, Roll : 0.0, Pitch : 0.0, Yaw : 0.0, Alt : 30.1000003815, Lat : 49.28357, Lng : -123.11502, Q1 : 1.0, Q2 : 0.0, Q3 : 0.0, Q4 : 0.0}
2019-04-14 12:27:29.81: SIM {TimeUS : 41834926, Roll : 0.0, Pitch : 0.0, Yaw : 0.0, Alt : 30.1000003815, Lat : 49.28357, Lng : -123.11502, Q1 : 1.0, Q2 : 0.0, Q3 : 0.0, Q4 : 0.0}
2019-04-14 12:27:29.91: SIM {TimeUS : 41934886, Roll : 0.0, Pitch : 0.0, Yaw : 0.0, Alt : 30.1000003815, Lat : 49.28357, Lng : -123.11502, Q1 : 1.0, Q2 : 0.0, Q3 : 0.0, Q4 : 0.0}
2019-04-14 12:27:30.01: SIM {TimeUS : 42034846, Roll : 0.0, Pitch : 0.0, Yaw : 0.0, Alt : 30.1000003815, Lat : 49.28357, Lng : -123.11502, Q1 : 1.0, Q2 : 0.0, Q3 : 0.0, Q4 : 0.0}
2019-04-14 12:27:30.11: SIM {TimeUS : 42134806, Roll : 0.0, Pitch : 0.0, Yaw : 0.0, Alt : 30.1000003815, Lat : 49.28357, Lng : -123.11502, Q1 : 1.0, Q2 : 0.0, Q3 : 0.0, Q4 : 0.0}
2019-04-14 12:27:30.21: SIM {TimeUS : 42234766, Roll : 0.0, Pitch : 0.0, Yaw : 0.0, Alt : 30.1000003815, Lat : 49.28357, Lng : -123.11502, Q1 : 1.0, Q2 : 0.0, Q3 : 0.0, Q4 : 0.0}
2019-04-14 12:27:30.31: SIM {TimeUS : 42334726, Roll : 0.0, Pitch : 0.0, Yaw : 0.0, Alt : 30.1000003815, Lat : 49.28357, Lng : -123.11502, Q1 : 1.0, Q2 : 0.0, Q3 : 0.0, Q4 : 0.0}
2019-04-14 12:27:30.41: SIM {TimeUS : 42434686, Roll : 0.0, Pitch : 0.0, Yaw : 0.0, Alt : 30.1000003815, Lat : 49.28357, Lng : -123.11502, Q1 : 1.0, Q2 : 0.0, Q3 : 0.0, Q4 : 0.0}
2019-04-14 12:27:30.51: SIM {TimeUS : 42534646, Roll : 0.0, Pitch : 0.0, Yaw : 0.0, Alt : 30.1000003815, Lat : 49.28357, Lng : -123.11502, Q1 : 1.0, Q2 : 0.0, Q3 : 0.0, Q4 : 0.0}
2019-04-14 12:27:30.61: SIM {TimeUS : 42634606, Roll : 0.0, Pitch : 0.0, Yaw : 0.0, Alt : 30.1000003815, Lat : 49.28357, Lng : -123.11502, Q1 : 1.0, Q2 : 0.0, Q3 : 0.0, Q4 : 0.0}
2019-04-14 12:27:30.71: SIM {TimeUS : 42734566, Roll : 0.0, Pitch : 0.0, Yaw : 0.0, Alt : 30.1000003815, Lat : 49.28357, Lng : -123.11502, Q1 : 1.0, Q2 : 0.0, Q3 : 0.0, Q4 : 0.0}
2019-04-14 12:27:30.81: SIM {TimeUS : 42834526, Roll : 0.0, Pitch : 0.0, Yaw : 0.0, Alt : 30.1000003815, Lat : 49.28357, Lng : -123.11502, Q1 : 1.0, Q2 : 0.0, Q3 : 0.0, Q4 : 0.0}
2019-04-14 12:27:30.91: SIM {TimeUS : 42935319, Roll : 0.0, Pitch : 0.0, Yaw : 0.0, Alt : 30.1000003815, Lat : 49.28357, Lng : -123.11502, Q1 : 1.0, Q2 : 0.0, Q3 : 0.0, Q4 : 0.0}
2019-04-14 12:27:31.01: SIM {TimeUS : 43035279, Roll : 0.0, Pitch : 0.0, Yaw : 0.0, Alt : 30.1000003815, Lat : 49.28357, Lng : -123.11502, Q1 : 1.0, Q2 : 0.0, Q3 : 0.0, Q4 : 0.0}
2019-04-14 12:27:31.11: SIM {TimeUS : 43135239, Roll : 0.0, Pitch : 0.0, Yaw : 360.0, Alt : 30.1000003815, Lat : 49.28357, Lng : -123.11502, Q1 : 1.0, Q2 : 0.0, Q3 : 0.0, Q4 : -5.76911088346e-12}
2019-04-14 12:27:31.21: SIM {TimeUS : 43235199, Roll : 0.0, Pitch : 0.0, Yaw : 0.0, Alt : 30.1000003815, Lat : 49.28357, Lng : -123.11502, Q1 : 1.0, Q2 : 0.0, Q3 : 0.0, Q4 : 1.67138317075e-11}
2019-04-14 12:27:31.31: SIM {TimeUS : 43335159, Roll : 0.0, Pitch : 0.0, Yaw : 360.0, Alt : 30.1000003815, Lat : 49.28357, Lng : -123.11502, Q1 : 1.0, Q2 : 0.0, Q3 : 0.0, Q4 : -1.04802055034e-07}
2019-04-14 12:27:31.41: SIM {TimeUS : 43435119, Roll : 0.0, Pitch : 0.0, Yaw : 359.99, Alt : 30.1000003815, Lat : 49.28357, Lng : -123.11502, Q1 : 1.0, Q2 : 0.0, Q3 : 0.0, Q4 : -2.55649581504e-07}
2019-04-14 12:27:31.51: SIM {TimeUS : 43535079, Roll : 0.0, Pitch : 0.0, Yaw : 359.99, Alt : 30.1000003815, Lat : 49.28357, Lng : -123.11502, Q1 : 1.0, Q2 : 0.0, Q3 : 0.0, Q4 : -4.19486184455e-07}
2019-04-14 12:27:31.61: SIM {TimeUS : 43635039, Roll : 0.0, Pitch : 0.0, Yaw : 359.99, Alt : 30.1000003815, Lat : 49.28357, Lng : -123.11502, Q1 : 1.0, Q2 : 0.0, Q3 : 0.0, Q4 : -6.29610781289e-07}
2019-04-14 12:27:31.71: SIM {TimeUS : 43734999, Roll : 0.0, Pitch : 0.0, Yaw : 359.99, Alt : 30.1000003815, Lat : 49.28357, Lng : -123.11502, Q1 : 1.0, Q2 : 0.0, Q3 : 0.0, Q4 : -8.0263498603e-07}
2019-04-14 12:27:31.81: SIM {TimeUS : 43834959, Roll : 0.0, Pitch : 0.0, Yaw : 359.99, Alt : 30.1000003815, Lat : 49.28357, Lng : -123.11502, Q1 : 1.0, Q2 : 0.0, Q3 : 0.0, Q4 : -9.62721969699e-07}
2019-04-14 12:27:31.91: SIM {TimeUS : 43934919, Roll : 0.0, Pitch : 0.0, Yaw : 359.99, Alt : 30.1000003815, Lat : 49.28357, Lng : -123.11502, Q1 : 1.0, Q2 : 0.0, Q3 : 0.0, Q4 : -1.20428558148e-06}
2019-04-14 12:27:32.01: SIM {TimeUS : 44034879, Roll : 0.0, Pitch : 0.0, Yaw : 359.99, Alt : 30.1100006104, Lat : 49.28357, Lng : -123.11502, Q1 : 1.0, Q2 : 0.0, Q3 : 0.0, Q4 : -1.41190776048e-06}
2019-04-14 12:27:32.11: SIM {TimeUS : 44134839, Roll : 0.0, Pitch : 0.0, Yaw : 359.99, Alt : 30.1299991608, Lat : 49.28357, Lng : -123.11502, Q1 : 1.0, Q2 : 0.0, Q3 : 0.0, Q4 : -1.59401974997e-06}
2019-04-14 12:27:32.21: SIM {TimeUS : 44234799, Roll : 0.0, Pitch : 0.0, Yaw : 359.99, Alt : 30.1499996185, Lat : 49.28357, Lng : -123.11502, Q1 : 1.0, Q2 : 0.0, Q3 : 0.0, Q4 : -1.84509985957e-06}
2019-04-14 12:27:32.31: SIM {TimeUS : 44334759, Roll : 0.0, Pitch : 0.0, Yaw : 359.99, Alt : 30.1900005341, Lat : 49.28357, Lng : -123.11502, Q1 : 1.0, Q2 : 0.0, Q3 : 0.0, Q4 : -2.04109733204e-06}
2019-04-14 12:27:32.41: SIM {TimeUS : 44434719, Roll : -0.02, Pitch : -0.02, Yaw : 359.99, Alt : 30.2299995422, Lat : 49.28357, Lng : -123.11502, Q1 : 0.999999940395, Q2 : -0.000261423614575, Q3 : -0.000253097881796, Q4 : -3.41408190252e-06}
2019-04-14 12:27:32.51: SIM {TimeUS : 44534679, Roll : -0.27, Pitch : -0.23, Yaw : 359.99, Alt : 30.2999992371, Lat : 49.28357, Lng : -123.11502, Q1 : 0.99999499321, Q2 : -0.00243689166382, Q3 : -0.00202506454661, Q4 : -2.7298270652e-05}
2019-04-14 12:27:32.61: SIM {TimeUS : 44634639, Roll : -0.6, Pitch : -0.48, Yaw : 359.99, Alt : 30.4400005341, Lat : 49.28357, Lng : -123.11502, Q1 : 0.999977350235, Q2 : -0.00525708310306, Q3 : -0.00420214608312, Q4 : -7.66325756558e-05}
2019-04-14 12:27:32.71: SIM {TimeUS : 44734599, Roll : -0.81, Pitch : -0.66, Yaw : 359.98, Alt : 30.5900001526, Lat : 49.28357, Lng : -123.11502, Q1 : 0.999958217144, Q2 : -0.00708088185638, Q3 : -0.00577511778101, Q4 : -0.000139708310599}
2019-04-14 12:27:32.81: SIM {TimeUS : 44834559, Roll : -0.84, Pitch : -0.71, Yaw : 359.98, Alt : 30.75, Lat : 49.28357, Lng : -123.11502, Q1 : 0.999953269958, Q2 : -0.00736705539748, Q3 : -0.00625935057178, Q4 : -0.000208008190384}
2019-04-14 12:27:32.91: SIM {TimeUS : 44934519, Roll : -0.72, Pitch : -0.64, Yaw : 359.97, Alt : 30.9099998474, Lat : 49.28357, Lng : -123.1150201, Q1 : 0.999963998795, Q2 : -0.00633044261485, Q3 : -0.00564917270094, Q4 : -0.00027468969347}
2019-04-14 12:27:33.01: SIM {TimeUS : 45035312, Roll : -0.51, Pitch : -0.49, Yaw : 359.96, Alt : 31.0599994659, Lat : 49.2835701, Lng : -123.1150201, Q1 : 0.999980807304, Q2 : -0.00445437245071, Q3 : -0.00429587205872, Q4 : -0.00033452376374}
2019-04-14 12:27:33.11: SIM {TimeUS : 45135272, Roll : -0.27, Pitch : -0.29, Yaw : 359.95, Alt : 31.2199993134, Lat : 49.2835701, Lng : -123.1150202, Q1 : 0.999993681908, Q2 : -0.00238549639471, Q3 : -0.0026092233602, Q4 : -0.000381791265681}
2019-04-14 12:27:33.21: SIM {TimeUS : 45235232, Roll : -0.07, Pitch : -0.11, Yaw : 359.95, Alt : 31.3799991608, Lat : 49.2835702, Lng : -123.1150203, Q1 : 0.99999922514, Q2 : -0.000697769399267, Q3 : -0.000969846209045, Q4 : -0.000418521958636}
2019-04-14 12:27:33.31: SIM {TimeUS : 45335192, Roll : 0.03, Pitch : 0.02, Yaw : 359.94, Alt : 31.5599994659, Lat : 49.2835702, Lng : -123.1150203, Q1 : 0.999999821186, Q2 : 0.000292875745799, Q3 : 0.000259109248873, Q4 : -0.000449172599474}
2019-04-14 12:27:33.41: SIM {TimeUS : 45435152, Roll : 0.06, Pitch : 0.1, Yaw : 359.94, Alt : 31.7299995422, Lat : 49.2835702, Lng : -123.1150204, Q1 : 0.999999284744, Q2 : 0.000586834561545, Q3 : 0.000939821591601, Q4 : -0.000471850915346}
2019-04-14 12:27:33.51: SIM {TimeUS : 45535112, Roll : 0.07, Pitch : 0.14, Yaw : 359.94, Alt : 31.9099998474, Lat : 49.2835703, Lng : -123.1150205, Q1 : 0.999998927116, Q2 : 0.000684151134919, Q3 : 0.00122216937598, Q4 : -0.000475747103337}
2019-04-14 12:27:33.61: SIM {TimeUS : 45635072, Roll : 0.08, Pitch : 0.12, Yaw : 359.94, Alt : 32.0999984741, Lat : 49.2835703, Lng : -123.1150205, Q1 : 0.999999046326, Q2 : 0.000703098950908, Q3 : 0.00111576693598, Q4 : -0.000455782079371}
2019-04-14 12:27:33.71: SIM {TimeUS : 45735032, Roll : 0.07, Pitch : 0.11, Yaw : 359.95, Alt : 32.2900009155, Lat : 49.2835703, Lng : -123.1150206, Q1 : 0.999999165535, Q2 : 0.000681181671098, Q3 : 0.0009933487745, Q4 : -0.000431622611359}
2019-04-14 12:27:33.81: SIM {TimeUS : 45834992, Roll : 0.06, Pitch : 0.1, Yaw : 359.95, Alt : 32.4799995422, Lat : 49.2835703, Lng : -123.1150206, Q1 : 0.999999284744, Q2 : 0.000592874654103, Q3 : 0.000935115094762, Q4 : -0.000406125443988}
2019-04-14 12:27:33.91: SIM {TimeUS : 45934952, Roll : 0.07, Pitch : 0.08, Yaw : 359.95, Alt : 32.6699981689, Lat : 49.2835703, Lng : -123.1150207, Q1 : 0.999999403954, Q2 : 0.000645010964945, Q3 : 0.000783848692663, Q4 : -0.000395783252316}
2019-04-14 12:27:34.01: SIM {TimeUS : 46034912, Roll : 0.09, Pitch : 0.07, Yaw : 359.95, Alt : 32.8699989319, Lat : 49.2835703, Lng : -123.1150207, Q1 : 0.999999344349, Q2 : 0.000820178946014, Q3 : 0.000641997496132, Q4 : -0.000396160292439}
2019-04-14 12:27:34.11: SIM {TimeUS : 46134872, Roll : 0.11, Pitch : 0.08, Yaw : 359.95, Alt : 33.0699996948, Lat : 49.2835704, Lng : -123.1150207, Q1 : 0.99999910593, Q2 : 0.000990252709016, Q3 : 0.000766627897974, Q4 : -0.000400889432058}
2019-04-14 12:27:34.21: SIM {TimeUS : 46234832, Roll : 0.13, Pitch : 0.1, Yaw : 359.95, Alt : 33.2700004578, Lat : 49.2835704, Lng : -123.1150207, Q1 : 0.999998807907, Q2 : 0.00114442571066, Q3 : 0.000923739804421, Q4 : -0.000408573047025}
2019-04-14 12:27:34.31: SIM {TimeUS : 46334792, Roll : 0.15, Pitch : 0.12, Yaw : 359.95, Alt : 33.4799995422, Lat : 49.2835704, Lng : -123.1150208, Q1 : 0.999998390675, Q2 : 0.0013327091001, Q3 : 0.00112402020022, Q4 : -0.000422338634962}
2019-04-14 12:27:34.41: SIM {TimeUS : 46434752, Roll : 0.16, Pitch : 0.14, Yaw : 359.94, Alt : 33.6899986267, Lat : 49.2835704, Lng : -123.1150208, Q1 : 0.999998092651, Q2 : 0.00143737299368, Q3 : 0.00124094006605, Q4 : -0.000439731171355}
2019-04-14 12:27:34.51: SIM {TimeUS : 46534712, Roll : 0.15, Pitch : 0.13, Yaw : 359.94, Alt : 33.8899993896, Lat : 49.2835704, Lng : -123.1150208, Q1 : 0.999998211861, Q2 : 0.00135911128018, Q3 : 0.00121144542936, Q4 : -0.000460697570816}
2019-04-14 12:27:34.61: SIM {TimeUS : 46634672, Roll : 0.13, Pitch : 0.13, Yaw : 359.94, Alt : 34.0999984741, Lat : 49.2835704, Lng : -123.1150208, Q1 : 0.999998450279, Q2 : 0.00121851451695, Q3 : 0.00116836978123, Q4 : -0.000484759395476}
2019-04-14 12:27:34.71: SIM {TimeUS : 46734632, Roll : 0.11, Pitch : 0.12, Yaw : 359.94, Alt : 34.3199996948, Lat : 49.2835704, Lng : -123.1150208, Q1 : 0.999998748302, Q2 : 0.00102286005858, Q3 : 0.00110823393334, Q4 : -0.00050673581427}
2019-04-14 12:27:34.81: SIM {TimeUS : 46834592, Roll : 0.1, Pitch : 0.09, Yaw : 359.93, Alt : 34.5299987793, Lat : 49.2835704, Lng : -123.1150208, Q1 : 0.999999165535, Q2 : 0.000879483530298, Q3 : 0.000807464821264, Q4 : -0.000530074234121}
2019-04-14 12:27:34.91: SIM {TimeUS : 46934552, Roll : 0.09, Pitch : 0.05, Yaw : 359.93, Alt : 34.7400016785, Lat : 49.2835704, Lng : -123.1150208, Q1 : 0.999999403954, Q2 : 0.000796403153799, Q3 : 0.000516428728588, Q4 : -0.000554910453502}
2019-04-14 12:27:35.01: SIM {TimeUS : 47034512, Roll : 0.07, Pitch : 0.04, Yaw : 359.93, Alt : 34.9599990845, Lat : 49.2835704, Lng : -123.1150207, Q1 : 0.999999582767, Q2 : 0.000612709089182, Q3 : 0.000361206795787, Q4 : -0.000579296378419}
2019-04-14 12:27:35.11: SIM {TimeUS : 47135305, Roll : 0.05, Pitch : 0.03, Yaw : 359.93, Alt : 35.1800003052, Lat : 49.2835704, Lng : -123.1150207, Q1 : 0.999999642372, Q2 : 0.000492093560752, Q3 : 0.000329011818394, Q4 : -0.000599635299295}
2019-04-14 12:27:35.21: SIM {TimeUS : 47235265, Roll : 0.05, Pitch : 0.03, Yaw : 359.92, Alt : 35.3899993896, Lat : 49.2835704, Lng : -123.1150207, Q1 : 0.999999642372, Q2 : 0.000473108433653, Q3 : 0.000298839993775, Q4 : -0.000615734606981}
2019-04-14 12:27:35.31: SIM {TimeUS : 47335225, Roll : 0.03, Pitch : 0.01, Yaw : 359.92, Alt : 35.6100006104, Lat : 49.2835704, Lng : -123.1150207, Q1 : 0.999999761581, Q2 : 0.000276625127299, Q3 : 8.8054475782e-05, Q4 : -0.000638348807115}
2019-04-14 12:27:35.41: SIM {TimeUS : 47435185, Roll : 0.0, Pitch : -0.02, Yaw : 359.92, Alt : 35.8300018311, Lat : 49.2835704, Lng : -123.1150207, Q1 : 0.999999761581, Q2 : -2.76937025774e-05, Q3 : -0.000238358305069, Q4 : -0.000663292885292}
2019-04-14 12:27:35.51: SIM {TimeUS : 47535145, Roll : -0.04, Pitch : -0.05, Yaw : 359.92, Alt : 36.0499992371, Lat : 49.2835704, Lng : -123.1150207, Q1 : 0.999999582767, Q2 : -0.000355353200575, Q3 : -0.000477503926959, Q4 : -0.000691098219249}
2019-04-14 12:27:35.61: SIM {TimeUS : 47635105, Roll : -0.07, Pitch : -0.07, Yaw : 359.91, Alt : 36.2700004578, Lat : 49.2835704, Lng : -123.1150207, Q1 : 0.999999344349, Q2 : -0.000615702243522, Q3 : -0.00062894896837, Q4 : -0.000718947034329}
2019-04-14 12:27:35.71: SIM {TimeUS : 47735065, Roll : -0.07, Pitch : -0.07, Yaw : 359.91, Alt : 36.4900016785, Lat : 49.2835704, Lng : -123.1150206, Q1 : 0.999999284744, Q2 : -0.000688382715452, Q3 : -0.000648507266305, Q4 : -0.000742123054806}
2019-04-14 12:27:35.81: SIM {TimeUS : 47835025, Roll : -0.08, Pitch : -0.07, Yaw : 359.91, Alt : 36.7200012207, Lat : 49.2835704, Lng : -123.1150206, Q1 : 0.99999922514, Q2 : -0.00074341299478, Q3 : -0.000613330223132, Q4 : -0.000768436642829}
2019-04-14 12:27:35.91: SIM {TimeUS : 47934985, Roll : -0.08, Pitch : -0.05, Yaw : 359.9, Alt : 36.9399986267, Lat : 49.2835704, Lng : -123.1150206, Q1 : 0.999999284744, Q2 : -0.000708754290827, Q3 : -0.000460209470475, Q4 : -0.000800325651653}
2019-04-14 12:27:36.01: SIM {TimeUS : 48034945, Roll : -0.07, Pitch : -0.04, Yaw : 359.9, Alt : 37.1599998474, Lat : 49.2835704, Lng : -123.1150206, Q1 : 0.999999403954, Q2 : -0.000636716722511, Q3 : -0.000359412311809, Q4 : -0.000829477910884}
2019-04-14 12:27:36.11: SIM {TimeUS : 48134905, Roll : -0.07, Pitch : -0.04, Yaw : 359.9, Alt : 37.3899993896, Lat : 49.2835704, Lng : -123.1150206, Q1 : 0.999999344349, Q2 : -0.000663501035888, Q3 : -0.000378697557608, Q4 : -0.000853286241181}
2019-04-14 12:27:36.21: SIM {TimeUS : 48234865, Roll : -0.07, Pitch : -0.03, Yaw : 359.89, Alt : 37.6100006104, Lat : 49.2835704, Lng : -123.1150206, Q1 : 0.999999344349, Q2 : -0.000689992040861, Q3 : -0.000274521997198, Q4 : -0.000876518082805}
2019-04-14 12:27:36.31: SIM {TimeUS : 48334825, Roll : -0.09, Pitch : -0.01, Yaw : 359.89, Alt : 37.8400001526, Lat : 49.2835704, Lng : -123.1150206, Q1 : 0.99999922514, Q2 : -0.000841399945784, Q3 : -0.000115996503155, Q4 : -0.000891595729627}
2019-04-14 12:27:36.41: SIM {TimeUS : 48434785, Roll : -0.09, Pitch : 0.0, Yaw : 359.89, Alt : 38.0699996948, Lat : 49.2835704, Lng : -123.1150206, Q1 : 0.99999922514, Q2 : -0.000829139782581, Q3 : 1.57567865244e-05, Q4 : -0.00089680578094}
2019-04-14 12:27:36.51: SIM {TimeUS : 48534745, Roll : -0.07, Pitch : 0.03, Yaw : 359.89, Alt : 38.2900009155, Lat : 49.2835704, Lng : -123.1150206, Q1 : 0.999999344349, Q2 : -0.000621360784862, Q3 : 0.000298225524602, Q4 : -0.00089919322636}
2019-04-14 12:27:36.61: SIM {TimeUS : 48634705, Roll : -0.04, Pitch : 0.03, Yaw : 359.89, Alt : 38.5200004578, Lat : 49.2835704, Lng : -123.1150206, Q1 : 0.999999463558, Q2 : -0.00042029414908, Q3 : 0.000266989314696, Q4 : -0.000905064982362}
2019-04-14 12:27:36.71: SIM {TimeUS : 48734665, Roll : -0.02, Pitch : 0.01, Yaw : 359.89, Alt : 38.75, Lat : 49.2835704, Lng : -123.1150206, Q1 : 0.999999582767, Q2 : -0.00018945687043, Q3 : 0.000151804968482, Q4 : -0.000910316011868}
2019-04-14 12:27:36.81: SIM {TimeUS : 48834625, Roll : 0.01, Pitch : 0.02, Yaw : 359.89, Alt : 38.9799995422, Lat : 49.2835706, Lng : -123.1150206, Q1 : 0.999999523163, Q2 : 0.000111766719783, Q3 : 0.000257290317677, Q4 : -0.000916039920412}
2019-04-14 12:27:36.91: SIM {TimeUS : 48934585, Roll : 0.04, Pitch : 0.05, Yaw : 359.89, Alt : 39.2099990845, Lat : 49.2835706, Lng : -123.1150206, Q1 : 0.999999344349, Q2 : 0.000418025563704, Q3 : 0.000494555570185, Q4 : -0.00092905247584}
2019-04-14 12:27:37.01: SIM {TimeUS : 49034545, Roll : 0.07, Pitch : 0.08, Yaw : 359.89, Alt : 39.4399986267, Lat : 49.2835706, Lng : -123.1150206, Q1 : 0.999999046326, Q2 : 0.000658124103211, Q3 : 0.000739783688914, Q4 : -0.000949697685428}
2019-04-14 12:27:37.11: SIM {TimeUS : 49134505, Roll : 0.06, Pitch : 0.11, Yaw : 359.88, Alt : 39.6699981689, Lat : 49.2835706, Lng : -123.1150206, Q1 : 0.999998927116, Q2 : 0.000583981571253, Q3 : 0.000975733564701, Q4 : -0.00097029551398}
2019-04-14 12:27:37.21: SIM {TimeUS : 49235298, Roll : 0.01, Pitch : 0.13, Yaw : 359.88, Alt : 39.9000015259, Lat : 49.2835706, Lng : -123.1150206, Q1 : 0.999998748302, Q2 : 0.000166340309079, Q3 : 0.00118153553922, Q4 : -0.00100836809725}
2019-04-14 12:27:37.31: SIM {TimeUS : 49335258, Roll : -0.01, Pitch : 0.13, Yaw : 359.88, Alt : 40.1300010681, Lat : 49.2835706, Lng : -123.1150206, Q1 : 0.999998807907, Q2 : -0.000144917226862, Q3 : 0.00114674097858, Q4 : -0.00103626085911}
2019-04-14 12:27:37.41: SIM {TimeUS : 49435218, Roll : -0.04, Pitch : 0.1, Yaw : 359.87, Alt : 40.3600006104, Lat : 49.2835706, Lng : -123.1150206, Q1 : 0.999998927116, Q2 : -0.000363046332495, Q3 : 0.000900728919078, Q4 : -0.00106380111538}
2019-04-14 12:27:37.51: SIM {TimeUS : 49535178, Roll : -0.05, Pitch : 0.08, Yaw : 359.87, Alt : 40.5999984741, Lat : 49.2835706, Lng : -123.1150206, Q1 : 0.999999046326, Q2 : -0.000458035705378, Q3 : 0.000721908523701, Q4 : -0.00109391799197}
2019-04-14 12:27:37.61: SIM {TimeUS : 49635138, Roll : -0.04, Pitch : 0.09, Yaw : 359.87, Alt : 40.8300018311, Lat : 49.2835706, Lng : -123.1150206, Q1 : 0.999998986721, Q2 : -0.000361769722076, Q3 : 0.000807642063592, Q4 : -0.00112815632019}
2019-04-14 12:27:37.71: SIM {TimeUS : 49735098, Roll : 0.0, Pitch : 0.12, Yaw : 359.86, Alt : 41.0600013733, Lat : 49.2835706, Lng : -123.1150207, Q1 : 0.999998688698, Q2 : 7.21623518984e-06, Q3 : 0.00108560745139, Q4 : -0.0011684250785}
2019-04-14 12:27:37.81: SIM {TimeUS : 49835058, Roll : 0.05, Pitch : 0.14, Yaw : 359.86, Alt : 41.2999992371, Lat : 49.2835706, Lng : -123.1150207, Q1 : 0.99999833107, Q2 : 0.000467560923425, Q3 : 0.00126569252461, Q4 : -0.00121266301721}
2019-04-14 12:27:37.91: SIM {TimeUS : 49935018, Roll : 0.08, Pitch : 0.12, Yaw : 359.85, Alt : 41.5299987793, Lat : 49.2835706, Lng : -123.1150207, Q1 : 0.99999833107, Q2 : 0.000772876024712, Q3 : 0.00106353359297, Q4 : -0.00125793647021}
2019-04-14 12:27:38.01: SIM {TimeUS : 50034978, Roll : 0.09, Pitch : 0.08, Yaw : 359.85, Alt : 41.7599983215, Lat : 49.2835706, Lng : -123.1150207, Q1 : 0.999998629093, Q2 : 0.000792398990598, Q3 : 0.00069859821815, Q4 : -0.00129868346266}
2019-04-14 12:27:38.11: SIM {TimeUS : 50134938, Roll : 0.05, Pitch : 0.04, Yaw : 359.84, Alt : 42.0, Lat : 49.2835706, Lng : -123.1150207, Q1 : 0.999998927116, Q2 : 0.000472287618322, Q3 : 0.000416687777033, Q4 : -0.00132914679125}
2019-04-14 12:27:38.21: SIM {TimeUS : 50234898, Roll : 0.0, Pitch : 0.04, Yaw : 359.84, Alt : 42.2299995422, Lat : 49.2835706, Lng : -123.1150207, Q1 : 0.999999046326, Q2 : 7.23438870409e-06, Q3 : 0.000349221838405, Q4 : -0.0013483427465}
2019-04-14 12:27:38.31: SIM {TimeUS : 50334858, Roll : -0.03, Pitch : 0.06, Yaw : 359.84, Alt : 42.4599990845, Lat : 49.2835706, Lng : -123.1150207, Q1 : 0.999998867512, Q2 : -0.000293922814308, Q3 : 0.000592164229602, Q4 : -0.00135698367376}
2019-04-14 12:27:38.41: SIM {TimeUS : 50434818, Roll : -0.04, Pitch : 0.08, Yaw : 359.84, Alt : 42.7000007629, Lat : 49.2835706, Lng : -123.1150207, Q1 : 0.999998688698, Q2 : -0.000431999011198, Q3 : 0.000782285234891, Q4 : -0.0013612677576}
2019-04-14 12:27:38.51: SIM {TimeUS : 50534778, Roll : -0.04, Pitch : 0.08, Yaw : 359.84, Alt : 42.9300003052, Lat : 49.2835704, Lng : -123.1150206, Q1 : 0.999998748302, Q2 : -0.000388396176277, Q3 : 0.000741437717807, Q4 : -0.00136446685065}
2019-04-14 12:27:38.61: SIM {TimeUS : 50634738, Roll : -0.04, Pitch : 0.06, Yaw : 359.84, Alt : 43.1699981689, Lat : 49.2835704, Lng : -123.1150206, Q1 : 0.999998807907, Q2 : -0.0003847227199, Q3 : 0.000609044102021, Q4 : -0.0013773534447}
2019-04-14 12:27:38.71: SIM {TimeUS : 50734698, Roll : -0.03, Pitch : 0.05, Yaw : 359.84, Alt : 43.4000015259, Lat : 49.2835704, Lng : -123.1150206, Q1 : 0.999998867512, Q2 : -0.000310693751089, Q3 : 0.000457067100797, Q4 : -0.00138959172182}
2019-04-14 12:27:38.81: SIM {TimeUS : 50834658, Roll : -0.01, Pitch : 0.04, Yaw : 359.83, Alt : 43.6399993896, Lat : 49.2835704, Lng : -123.1150206, Q1 : 0.999998927116, Q2 : -0.000161454634508, Q3 : 0.000397816329496, Q4 : -0.0014022217365}
2019-04-14 12:27:38.91: SIM {TimeUS : 50934618, Roll : 0.0, Pitch : 0.04, Yaw : 359.83, Alt : 43.8699989319, Lat : 49.2835704, Lng : -123.1150206, Q1 : 0.999998927116, Q2 : -4.75068882224e-05, Q3 : 0.000407729443396, Q4 : -0.00141565280501}
2019-04-14 12:27:39.01: SIM {TimeUS : 51034578, Roll : 0.0, Pitch : 0.03, Yaw : 359.83, Alt : 44.1100006104, Lat : 49.2835704, Lng : -123.1150206, Q1 : 0.999998927116, Q2 : -7.75276494096e-05, Q3 : 0.000319516984746, Q4 : -0.0014311914565}
2019-04-14 12:27:39.11: SIM {TimeUS : 51134538, Roll : -0.01, Pitch : 0.0, Yaw : 359.83, Alt : 44.3499984741, Lat : 49.2835704, Lng : -123.1150206, Q1 : 0.999998927116, Q2 : -0.000158490409376, Q3 : 7.27534061298e-05, Q4 : -0.00144641753286}
2019-04-14 12:27:39.21: SIM {TimeUS : 51234498, Roll : -0.02, Pitch : -0.01, Yaw : 359.83, Alt : 44.5800018311, Lat : 49.2835704, Lng : -123.1150206, Q1 : 0.999998867512, Q2 : -0.000210359939956, Q3 : -0.000125556820421, Q4 : -0.00146973389201}
2019-04-14 12:27:39.31: SIM {TimeUS : 51335291, Roll : -0.01, Pitch : -0.02, Yaw : 359.82, Alt : 44.8199996948, Lat : 49.2835704, Lng : -123.1150206, Q1 : 0.999998807907, Q2 : -0.000168371916516, Q3 : -0.000249201664701, Q4 : -0.00150501856115}
2019-04-14 12:27:39.41: SIM {TimeUS : 51435251, Roll : -0.02, Pitch : -0.03, Yaw : 359.82, Alt : 45.0600013733, Lat : 49.2835704, Lng : -123.1150206, Q1 : 0.999998748302, Q2 : -0.000183805561392, Q3 : -0.000340813276125, Q4 : -0.00154096272308}
2019-04-14 12:27:39.51: SIM {TimeUS : 51535211, Roll : -0.04, Pitch : -0.03, Yaw : 359.81, Alt : 45.2900009155, Lat : 49.2835704, Lng : -123.1150206, Q1 : 0.999998629093, Q2 : -0.000412906141719, Q3 : -0.000340351543855, Q4 : -0.0015797916567}
2019-04-14 12:27:39.61: SIM {TimeUS : 51635171, Roll : -0.08, Pitch : -0.03, Yaw : 359.81, Alt : 45.5299987793, Lat : 49.2835703, Lng : -123.1150206, Q1 : 0.99999833107, Q2 : -0.000770381535403, Q3 : -0.000323189829942, Q4 : -0.00162081292365}
2019-04-14 12:27:39.71: SIM {TimeUS : 51735131, Roll : -0.11, Pitch : -0.03, Yaw : 359.8, Alt : 45.7599983215, Lat : 49.2835703, Lng : -123.1150206, Q1 : 0.999998092651, Q2 : -0.00101020059083, Q3 : -0.000311752781272, Q4 : -0.00166017434094}
2019-04-14 12:27:39.81: SIM {TimeUS : 51835091, Roll : -0.11, Pitch : -0.02, Yaw : 359.8, Alt : 45.9900016785, Lat : 49.2835703, Lng : -123.1150206, Q1 : 0.999998033047, Q2 : -0.00104081071913, Q3 : -0.000190694292542, Q4 : -0.00169776414987}
2019-04-14 12:27:39.91: SIM {TimeUS : 51935051, Roll : -0.1, Pitch : 0.0, Yaw : 359.8, Alt : 46.2200012207, Lat : 49.2835703, Lng : -123.1150206, Q1 : 0.999998092651, Q2 : -0.000886846042704, Q3 : 4.37515154772e-05, Q4 : -0.0017326916568}
2019-04-14 12:27:40.01: SIM {TimeUS : 52035011, Roll : -0.07, Pitch : 0.02, Yaw : 359.79, Alt : 46.4500007629, Lat : 49.2835703, Lng : -123.1150206, Q1 : 0.999998271465, Q2 : -0.000616552249994, Q3 : 0.000183733849553, Q4 : -0.00176163925789}
2019-04-14 12:27:40.11: SIM {TimeUS : 52134971, Roll : -0.04, Pitch : 0.01, Yaw : 359.79, Alt : 46.6699981689, Lat : 49.2835703, Lng : -123.1150206, Q1 : 0.99999833107, Q2 : -0.00038497033529, Q3 : 0.000163370932569, Q4 : -0.00178634980693}
2019-04-14 12:27:40.21: SIM {TimeUS : 52234931, Roll : -0.03, Pitch : 0.0, Yaw : 359.79, Alt : 46.8800010681, Lat : 49.2835703, Lng : -123.1150206, Q1 : 0.99999833107, Q2 : -0.000265542679699, Q3 : 6.71713087286e-06, Q4 : -0.00181301590055}
2019-04-14 12:27:40.31: SIM {TimeUS : 52334891, Roll : -0.01, Pitch : -0.03, Yaw : 359.78, Alt : 47.0900001526, Lat : 49.2835703, Lng : -123.1150206, Q1 : 0.999998271465, Q2 : -0.000123600577353, Q3 : -0.000275784666883, Q4 : -0.0018352404004}
2019-04-14 12:27:40.41: SIM {TimeUS : 52434851, Roll : 0.0, Pitch : -0.06, Yaw : 359.78, Alt : 47.2900009155, Lat : 49.2835703, Lng : -123.1150206, Q1 : 0.999998152256, Q2 : 2.60711785813e-05, Q3 : -0.000525957788341, Q4 : -0.00185265718028}
2019-04-14 12:27:40.51: SIM {TimeUS : 52534811, Roll : 0.0, Pitch : -0.08, Yaw : 359.78, Alt : 47.4799995422, Lat : 49.2835703, Lng : -123.1150206, Q1 : 0.999997973442, Q2 : 6.37055782136e-05, Q3 : -0.000745136814658, Q4 : -0.00186781620141}
2019-04-14 12:27:40.61: SIM {TimeUS : 52634771, Roll : 0.0, Pitch : -0.11, Yaw : 359.78, Alt : 47.6599998474, Lat : 49.2835703, Lng : -123.1150206, Q1 : 0.999997675419, Q2 : 1.10042883534e-05, Q3 : -0.00101940543391, Q4 : -0.0018823610153}
2019-04-14 12:27:40.71: SIM {TimeUS : 52734731, Roll : 0.01, Pitch : -0.14, Yaw : 359.78, Alt : 47.8400001526, Lat : 49.2835703, Lng : -123.1150206, Q1 : 0.999997377396, Q2 : 0.000125304970425, Q3 : -0.00129879137967, Q4 : -0.00189909234177}
2019-04-14 12:27:40.81: SIM {TimeUS : 52834691, Roll : 0.03, Pitch : -0.15, Yaw : 359.78, Alt : 48.0, Lat : 49.2835703, Lng : -123.1150206, Q1 : 0.999997198582, Q2 : 0.000340838072589, Q3 : -0.00136452564038, Q4 : -0.00191749399528}
2019-04-14 12:27:40.91: SIM {TimeUS : 52934651, Roll : 0.06, Pitch : -0.13, Yaw : 359.77, Alt : 48.1399993896, Lat : 49.2835703, Lng : -123.1150206, Q1 : 0.999997198582, Q2 : 0.000583781162277, Q3 : -0.00121610925999, Q4 : -0.00193529773969}
2019-04-14 12:27:41.01: SIM {TimeUS : 53034611, Roll : 0.08, Pitch : -0.1, Yaw : 359.77, Alt : 48.2799987793, Lat : 49.2835704, Lng : -123.1150206, Q1 : 0.999997377396, Q2 : 0.00073049205821, Q3 : -0.000934860727284, Q4 : -0.00195944169536}
2019-04-14 12:27:41.11: SIM {TimeUS : 53134571, Roll : 0.09, Pitch : -0.08, Yaw : 359.77, Alt : 48.4099998474, Lat : 49.2835704, Lng : -123.1150206, Q1 : 0.999997437, Q2 : 0.000822498230264, Q3 : -0.000707296014298, Q4 : -0.00198792573065}
2019-04-14 12:27:41.21: SIM {TimeUS : 53234531, Roll : 0.08, Pitch : -0.07, Yaw : 359.76, Alt : 48.5200004578, Lat : 49.2835704, Lng : -123.1150206, Q1 : 0.999997437, Q2 : 0.000747510057408, Q3 : -0.000634659430943, Q4 : -0.00202288664877}
2019-04-14 12:27:41.31: SIM {TimeUS : 53335324, Roll : 0.05, Pitch : -0.06, Yaw : 359.76, Alt : 48.6199989319, Lat : 49.2835704, Lng : -123.1150206, Q1 : 0.999997615814, Q2 : 0.000503788935021, Q3 : -0.000556759012397, Q4 : -0.00205729273148}
2019-04-14 12:27:41.41: SIM {TimeUS : 53435284, Roll : 0.03, Pitch : -0.04, Yaw : 359.76, Alt : 48.7099990845, Lat : 49.2835704, Lng : -123.1150206, Q1 : 0.999997675419, Q2 : 0.00026929678279, Q3 : -0.000406454026233, Q4 : -0.00208971579559}
2019-04-14 12:27:41.51: SIM {TimeUS : 53535244, Roll : 0.0, Pitch : -0.02, Yaw : 359.75, Alt : 48.7799987793, Lat : 49.2835704, Lng : -123.1150206, Q1 : 0.999997735023, Q2 : 4.58977119706e-05, Q3 : -0.000227738215472, Q4 : -0.00211654021405}
2019-04-14 12:27:41.61: SIM {TimeUS : 53635204, Roll : -0.01, Pitch : 0.0, Yaw : 359.75, Alt : 48.8499984741, Lat : 49.2835704, Lng : -123.1150206, Q1 : 0.999997675419, Q2 : -9.93020221358e-05, Q3 : 1.40031643241e-05, Q4 : -0.0021401962731}
2019-04-14 12:27:41.71: SIM {TimeUS : 53735164, Roll : 0.0, Pitch : 0.03, Yaw : 359.75, Alt : 48.9099998474, Lat : 49.2835704, Lng : -123.1150206, Q1 : 0.99999755621, Q2 : 3.90708446503e-05, Q3 : 0.000347325374605, Q4 : -0.00216877553612}
2019-04-14 12:27:41.81: SIM {TimeUS : 53835124, Roll : 0.03, Pitch : 0.06, Yaw : 359.74, Alt : 48.9500007629, Lat : 49.2835704, Lng : -123.1150206, Q1 : 0.999997377396, Q2 : 0.000307606125716, Q3 : 0.000544195238035, Q4 : -0.0021983301267}
2019-04-14 12:27:41.91: SIM {TimeUS : 53935084, Roll : 0.1, Pitch : 0.0, Yaw : 359.74, Alt : 49.0, Lat : 49.2835704, Lng : -123.1150206, Q1 : 0.999997079372, Q2 : 0.000952505273744, Q3 : -1.32774157464e-05, Q4 : -0.00222376314923}
2019-04-14 12:27:42.01: SIM {TimeUS : 54035044, Roll : 0.31, Pitch : -0.21, Yaw : 359.74, Alt : 49.0299987793, Lat : 49.2835704, Lng : -123.1150206, Q1 : 0.999992072582, Q2 : 0.0027065325994, Q3 : -0.00186922040302, Q4 : -0.00224710907787}
2019-04-14 12:27:42.11: SIM {TimeUS : 54135004, Roll : 0.69, Pitch : -0.62, Yaw : 359.73, Alt : 49.0600013733, Lat : 49.2835706, Lng : -123.1150206, Q1 : 0.999964296818, Q2 : 0.00603535911068, Q3 : -0.00547123560682, Q4 : -0.00226773321629}
2019-04-14 12:27:42.21: SIM {TimeUS : 54234964, Roll : 1.26, Pitch : -1.2, Yaw : 359.72, Alt : 49.0900001526, Lat : 49.2835706, Lng : -123.1150206, Q1 : 0.999881029129, Q2 : 0.0110040325671, Q3 : -0.0105675831437, Q4 : -0.00227515376173}
2019-04-14 12:27:42.31: SIM {TimeUS : 54334924, Roll : 1.98, Pitch : -1.88, Yaw : 359.7, Alt : 49.1100006104, Lat : 49.2835706, Lng : -123.1150205, Q1 : 0.999712526798, Q2 : 0.0172417517751, Q3 : -0.0165093131363, Q4 : -0.00225064042024}
2019-04-14 12:27:42.41: SIM {TimeUS : 54434884, Roll : 2.74, Pitch : -2.59, Yaw : 359.68, Alt : 49.1300010681, Lat : 49.2835707, Lng : -123.1150205, Q1 : 0.999453783035, Q2 : 0.0238786879927, Q3 : -0.0227435864508, Q4 : -0.00216452754103}
2019-04-14 12:27:42.51: SIM {TimeUS : 54534844, Roll : 3.42, Pitch : -3.23, Yaw : 359.67, Alt : 49.1500015259, Lat : 49.2835708, Lng : -123.1150203, Q1 : 0.999153614044, Q2 : 0.0298221278936, Q3 : -0.0282620918006, Q4 : -0.0020079438109}
2019-04-14 12:27:42.61: SIM {TimeUS : 54634804, Roll : 3.95, Pitch : -3.72, Yaw : 359.66, Alt : 49.1599998474, Lat : 49.2835709, Lng : -123.1150201, Q1 : 0.998876392841, Q2 : 0.034404527396, Q3 : -0.03254218027, Q4 : -0.00179251574446}
2019-04-14 12:27:42.71: SIM {TimeUS : 54734764, Roll : 4.32, Pitch : -4.08, Yaw : 359.66, Alt : 49.1800003052, Lat : 49.283571, Lng : -123.1150199, Q1 : 0.998652875423, Q2 : 0.0376372337341, Q3 : -0.0356861054897, Q4 : -0.00154146552086}
2019-04-14 12:27:42.81: SIM {TimeUS : 54834724, Roll : 4.62, Pitch : -4.35, Yaw : 359.67, Alt : 49.1899986267, Lat : 49.2835713, Lng : -123.1150195, Q1 : 0.998464405537, Q2 : 0.0401793904603, Q3 : -0.0381174907088, Q4 : -0.00126324675512}
2019-04-14 12:27:42.91: SIM {TimeUS : 54934684, Roll : 4.88, Pitch : -4.6, Yaw : 359.69, Alt : 49.2000007629, Lat : 49.2835715, Lng : -123.1150191, Q1 : 0.998285412788, Q2 : 0.0425043813884, Q3 : -0.0402320660651, Q4 : -0.000975845905486}
2019-04-14 12:27:43.01: SIM {TimeUS : 55034644, Roll : 5.14, Pitch : -4.83, Yaw : 359.7, Alt : 49.2099990845, Lat : 49.2835719, Lng : -123.1150185, Q1 : 0.998104333878, Q2 : 0.0447405539453, Q3 : -0.0422561354935, Q4 : -0.000694507150911}
2019-04-14 12:27:43.11: SIM {TimeUS : 55134604, Roll : 5.41, Pitch : -5.09, Yaw : 359.7, Alt : 49.2200012207, Lat : 49.2835722, Lng : -123.1150179, Q1 : 0.997898101807, Q2 : 0.0470921434462, Q3 : -0.0445141270757, Q4 : -0.000438484421466}
2019-04-14 12:27:43.21: SIM {TimeUS : 55234564, Roll : 5.66, Pitch : -5.34, Yaw : 359.71, Alt : 49.2200012207, Lat : 49.2835727, Lng : -123.1150172, Q1 : 0.997697770596, Q2 : 0.0492060668766, Q3 : -0.0466689877212, Q4 : -0.000205262243981}
2019-04-14 12:27:43.31: SIM {TimeUS : 55334524, Roll : 5.86, Pitch : -5.52, Yaw : 359.71, Alt : 49.2299995422, Lat : 49.2835732, Lng : -123.1150163, Q1 : 0.997532129288, Q2 : 0.0509648993611, Q3 : -0.0482932440937, Q4 : 1.66662866832e-05}
2019-04-14 12:27:43.41: SIM {TimeUS : 55435317, Roll : 6.01, Pitch : -5.65, Yaw : 359.72, Alt : 49.2400016785, Lat : 49.2835738, Lng : -123.1150155, Q1 : 0.997413992882, Q2 : 0.0522473044693, Q3 : -0.0493514724076, Q4 : 0.000219865120016}
2019-04-14 12:27:43.51: SIM {TimeUS : 55535277, Roll : 6.11, Pitch : -5.74, Yaw : 359.73, Alt : 49.2400016785, Lat : 49.2835743, Lng : -123.1150146, Q1 : 0.997327327728, Q2 : 0.0531128756702, Q3 : -0.0501709841192, Q4 : 0.00036914634984}
2019-04-14 12:27:43.61: SIM {TimeUS : 55635237, Roll : 6.2, Pitch : -5.82, Yaw : 359.73, Alt : 49.25, Lat : 49.283575, Lng : -123.1150135, Q1 : 0.997247755527, Q2 : 0.0539536513388, Q3 : -0.050849840045, Q4 : 0.000478420115542}
2019-04-14 12:27:43.71: SIM {TimeUS : 55735197, Roll : 6.34, Pitch : -5.91, Yaw : 359.73, Alt : 49.25, Lat : 49.2835757, Lng : -123.1150124, Q1 : 0.997141897678, Q2 : 0.0551561489701, Q3 : -0.0516288205981, Q4 : 0.000573321070988}
2019-04-14 12:27:43.81: SIM {TimeUS : 55835157, Roll : 6.66, Pitch : -5.92, Yaw : 359.85, Alt : 49.25, Lat : 49.2835764, Lng : -123.1150112, Q1 : 0.996979176998, Q2 : 0.0580001026392, Q3 : -0.0516271367669, Q4 : 0.00177060056012}
2019-04-14 12:27:43.91: SIM {TimeUS : 55935117, Roll : 7.22, Pitch : -5.8, Yaw : 0.61, Alt : 49.2599983215, Lat : 49.2835771, Lng : -123.1150099, Q1 : 0.996698498726, Q2 : 0.0632252395153, Q3 : -0.0502103716135, Q4 : 0.00858279876411}
2019-04-14 12:27:44.01: SIM {TimeUS : 56035077, Roll : 7.85, Pitch : -5.79, Yaw : 2.68, Alt : 49.2599983215, Lat : 49.283578, Lng : -123.1150086, Q1 : 0.996020495892, Q2 : 0.0695868134499, Q3 : -0.0487909317017, Q4 : 0.0268387496471}
2019-04-14 12:27:44.11: SIM {TimeUS : 56135037, Roll : 8.25, Pitch : -6.18, Yaw : 6.34, Alt : 49.2599983215, Lat : 49.2835788, Lng : -123.1150071, Q1 : 0.994213104248, Q2 : 0.0747306123376, Q3 : -0.0497246682644, Q4 : 0.0590175762773}
2019-04-14 12:27:44.21: SIM {TimeUS : 56234997, Roll : 8.18, Pitch : -7.04, Yaw : 11.5, Alt : 49.2599983215, Lat : 49.2835797, Lng : -123.1150056, Q1 : 0.990108966827, Q2 : 0.0770225003362, Q3 : -0.0538380146027, Q4 : 0.104178577662}
2019-04-14 12:27:44.31: SIM {TimeUS : 56334957, Roll : 7.49, Pitch : -8.27, Yaw : 17.94, Alt : 49.2599983215, Lat : 49.2835806, Lng : -123.1150039, Q1 : 0.982340931892, Q2 : 0.0756096765399, Q3 : -0.0609744563699, Q4 : 0.159911423922}
2019-04-14 12:27:44.41: SIM {TimeUS : 56434917, Roll : 6.14, Pitch : -9.68, Yaw : 25.41, Alt : 49.2700004578, Lat : 49.2835814, Lng : -123.1150021, Q1 : 0.969636559486, Q2 : 0.0706362947822, Q3 : -0.0704663544893, Q4 : 0.223271131516}
2019-04-14 12:27:44.51: SIM {TimeUS : 56534877, Roll : 4.09, Pitch : -11.05, Yaw : 33.6, Alt : 49.2700004578, Lat : 49.2835824, Lng : -123.1150001, Q1 : 0.951258599758, Q2 : 0.0618602260947, Q3 : -0.0818847343326, Q4 : 0.290818303823}
2019-04-14 12:27:44.61: SIM {TimeUS : 56634837, Roll : 1.24, Pitch : -12.13, Yaw : 41.92, Alt : 49.2700004578, Lat : 49.2835834, Lng : -123.1149981, Q1 : 0.928122758865, Q2 : 0.0479234792292, Q3 : -0.0947991460562, Q4 : 0.356797814369}
2019-04-14 12:27:44.71: SIM {TimeUS : 56734797, Roll : -1.96, Pitch : -12.71, Yaw : 49.5, Alt : 49.2700004578, Lat : 49.2835844, Lng : -123.114996, Q1 : 0.903222322464, Q2 : 0.0308423060924, Q3 : -0.107682332397, Q4 : 0.414297938347}
2019-04-14 12:27:44.81: SIM {TimeUS : 56834757, Roll : -4.87, Pitch : -12.83, Yaw : 55.54, Alt : 49.2700004578, Lat : 49.2835855, Lng : -123.1149938, Q1 : 0.8806848526, Q2 : 0.0145860379562, Q3 : -0.118487909436, Q4 : 0.458412528038}
2019-04-14 12:27:44.91: SIM {TimeUS : 56934717, Roll : -6.93, Pitch : -12.67, Yaw : 59.61, Alt : 49.2700004578, Lat : 49.2835868, Lng : -123.1149917, Q1 : 0.864119172096, Q2 : 0.00264881178737, Q3 : -0.125507757068, Q4 : 0.487379640341}
2019-04-14 12:27:45.01: SIM {TimeUS : 57034677, Roll : -7.89, Pitch : -12.5, Yaw : 61.71, Alt : 49.2700004578, Lat : 49.2835881, Lng : -123.1149895, Q1 : 0.855169832706, Q2 : -0.00300743500702, Q3 : -0.128383472562, Q4 : 0.502188384533}
2019-04-14 12:27:45.11: SIM {TimeUS : 57134637, Roll : -7.84, Pitch : -12.51, Yaw : 62.08, Alt : 49.2700004578, Lat : 49.2835896, Lng : -123.1149871, Q1 : 0.853522837162, Q2 : -0.00214827177115, Q3 : -0.128216341138, Q4 : 0.505029439926}
2019-04-14 12:27:45.21: SIM {TimeUS : 57234597, Roll : -6.99, Pitch : -12.79, Yaw : 61.09, Alt : 49.2700004578, Lat : 49.2835911, Lng : -123.1149849, Q1 : 0.85771805048, Q2 : 0.00427121995017, Q3 : -0.126600936055, Q4 : 0.498270720243}
2019-04-14 12:27:45.31: SIM {TimeUS : 57334557, Roll : -5.61, Pitch : -13.32, Yaw : 59.08, Alt : 49.2700004578, Lat : 49.2835928, Lng : -123.1149826, Q1 : 0.86589461565, Q2 : 0.0148228090256, Q3 : -0.124755762517, Q4 : 0.484192937613}
2019-04-14 12:27:45.41: SIM {TimeUS : 57434517, Roll : -3.91, Pitch : -14.01, Yaw : 56.38, Alt : 49.2700004578, Lat : 49.2835946, Lng : -123.1149802, Q1 : 0.87624835968, Q2 : 0.0276992470026, Q3 : -0.123462937772, Q4 : 0.464950025082}
2019-04-14 12:27:45.51: SIM {TimeUS : 57535310, Roll : -2.09, Pitch : -14.72, Yaw : 53.27, Alt : 49.2799987793, Lat : 49.2835964, Lng : -123.1149777, Q1 : 0.887378931046, Q2 : 0.041233278811, Q3 : -0.122627496719, Q4 : 0.442516595125}
2019-04-14 12:27:45.61: SIM {TimeUS : 57635270, Roll : -0.34, Pitch : -15.28, Yaw : 50.13, Alt : 49.2799987793, Lat : 49.2835982, Lng : -123.1149752, Q1 : 0.897915542126, Q2 : 0.0536899603903, Q3 : -0.121729291975, Q4 : 0.419579595327}
2019-04-14 12:27:45.71: SIM {TimeUS : 57735230, Roll : 1.2, Pitch : -15.63, Yaw : 47.26, Alt : 49.2799987793, Lat : 49.2836, Lng : -123.1149725, Q1 : 0.907007277012, Q2 : 0.064028955996, Q3 : -0.120456635952, Q4 : 0.398407250643}
2019-04-14 12:27:45.81: SIM {TimeUS : 57835190, Roll : 2.4, Pitch : -15.77, Yaw : 44.93, Alt : 49.2799987793, Lat : 49.2836019, Lng : -123.1149697, Q1 : 0.914052069187, Q2 : 0.0716824755073, Q3 : -0.118833832443, Q4 : 0.381115496159}
2019-04-14 12:27:45.91: SIM {TimeUS : 57935150, Roll : 3.19, Pitch : -15.78, Yaw : 43.32, Alt : 49.2799987793, Lat : 49.2836038, Lng : -123.1149668, Q1 : 0.918805003166, Q2 : 0.0763676464558, Q3 : -0.117357425392, Q4 : 0.369042813778}
2019-04-14 12:27:46.01: SIM {TimeUS : 58035110, Roll : 3.52, Pitch : -15.74, Yaw : 42.48, Alt : 49.2799987793, Lat : 49.2836057, Lng : -123.1149638, Q1 : 0.921298801899, Q2 : 0.0780308321118, Q3 : -0.116593576968, Q4 : 0.362664669752}
2019-04-14 12:27:46.11: SIM {TimeUS : 58135070, Roll : 3.4, Pitch : -15.74, Yaw : 42.37, Alt : 49.2799987793, Lat : 49.2836077, Lng : -123.1149607, Q1 : 0.921728551388, Q2 : 0.0769376680255, Q3 : -0.116965062916, Q4 : 0.361685395241}
2019-04-14 12:27:46.21: SIM {TimeUS : 58235030, Roll : 2.93, Pitch : -15.76, Yaw : 42.88, Alt : 49.2799987793, Lat : 49.2836097, Lng : -123.1149574, Q1 : 0.920396149158, Q2 : 0.0737127512693, Q3 : -0.118365474045, Q4 : 0.365276575089}
2019-04-14 12:27:46.31: SIM {TimeUS : 58334990, Roll : 2.22, Pitch : -15.84, Yaw : 43.84, Alt : 49.2799987793, Lat : 49.2836116, Lng : -123.1149541, Q1 : 0.917655229568, Q2 : 0.0692720115185, Q3 : -0.120645776391, Q4 : 0.372229635715}
2019-04-14 12:27:46.41: SIM {TimeUS : 58434950, Roll : 1.37, Pitch : -15.95, Yaw : 45.08, Alt : 49.2799987793, Lat : 49.2836136, Lng : -123.1149506, Q1 : 0.913967609406, Q2 : 0.064151674509, Q3 : -0.123627319932, Q4 : 0.381135314703}
2019-04-14 12:27:46.51: SIM {TimeUS : 58534910, Roll : 0.52, Pitch : -16.08, Yaw : 46.4, Alt : 49.2799987793, Lat : 49.2836158, Lng : -123.1149471, Q1 : 0.909813344479, Q2 : 0.0592913739383, Q3 : -0.126836538315, Q4 : 0.390687555075}
2019-04-14 12:27:46.61: SIM {TimeUS : 58634870, Roll : -0.21, Pitch : -16.19, Yaw : 47.66, Alt : 49.2799987793, Lat : 49.2836178, Lng : -123.1149436, Q1 : 0.905728816986, Q2 : 0.0552146881819, Q3 : -0.129616811872, Q4 : 0.399757623672}
2019-04-14 12:27:46.71: SIM {TimeUS : 58734830, Roll : -0.8, Pitch : -16.26, Yaw : 48.72, Alt : 49.2799987793, Lat : 49.28362, Lng : -123.1149399, Q1 : 0.902184426785, Q2 : 0.0520642139018, Q3 : -0.13175791502, Q4 : 0.407421767712}
2019-04-14 12:27:46.81: SIM {TimeUS : 58834790, Roll : -1.21, Pitch : -16.32, Yaw : 49.5, Alt : 49.2799987793, Lat : 49.2836221, Lng : -123.1149363, Q1 : 0.899499595165, Q2 : 0.0499241091311, Q3 : -0.133351311088, Q4 : 0.413068324327}
2019-04-14 12:27:46.91: SIM {TimeUS : 58934750, Roll : -1.43, Pitch : -16.38, Yaw : 49.97, Alt : 49.2799987793, Lat : 49.2836244, Lng : -123.1149326, Q1 : 0.897843956947, Q2 : 0.0489460751414, Q3 : -0.13436986506, Q4 : 0.416443675756}
2019-04-14 12:27:47.01: SIM {TimeUS : 59034710, Roll : -1.46, Pitch : -16.43, Yaw : 50.12, Alt : 49.2900009155, Lat : 49.2836266, Lng : -123.1149288, Q1 : 0.89723610878, Q2 : 0.0490846931934, Q3 : -0.134847417474, Q4 : 0.417581439018}
2019-04-14 12:27:47.11: SIM {TimeUS : 59134670, Roll : -1.33, Pitch : -16.48, Yaw : 50.0, Alt : 49.2900009155, Lat : 49.2836288, Lng : -123.114925, Q1 : 0.89758259058, Q2 : 0.050086285919, Q3 : -0.134772241116, Q4 : 0.416741371155}
2019-04-14 12:27:47.21: SIM {TimeUS : 59234630, Roll : -1.08, Pitch : -16.52, Yaw : 49.66, Alt : 49.2900009155, Lat : 49.2836311, Lng : -123.1149212, Q1 : 0.898655354977, Q2 : 0.0518657974899, Q3 : -0.13430558145, Q4 : 0.414355635643}
2019-04-14 12:27:47.31: SIM {TimeUS : 59334590, Roll : -0.73, Pitch : -16.56, Yaw : 49.18, Alt : 49.2900009155, Lat : 49.2836335, Lng : -123.1149174, Q1 : 0.90018850565, Q2 : 0.0541405826807, Q3 : -0.133634313941, Q4 : 0.410939574242}
2019-04-14 12:27:47.41: SIM {TimeUS : 59434550, Roll : -0.36, Pitch : -16.6, Yaw : 48.63, Alt : 49.2900009155, Lat : 49.2836359, Lng : -123.1149135, Q1 : 0.90193015337, Q2 : 0.0565534420311, Q3 : -0.132896661758, Q4 : 0.407016187906}
2019-04-14 12:27:47.51: SIM {TimeUS : 59534510, Roll : -0.01, Pitch : -16.64, Yaw : 48.08, Alt : 49.2900009155, Lat : 49.2836383, Lng : -123.1149095, Q1 : 0.903646886349, Q2 : 0.0588623136282, Q3 : -0.132191836834, Q4 : 0.40309163928}
2019-04-14 12:27:47.61: SIM {TimeUS : 59635303, Roll : 0.29, Pitch : -16.67, Yaw : 47.59, Alt : 49.2900009155, Lat : 49.2836407, Lng : -123.1149055, Q1 : 0.90516358614, Q2 : 0.0608528107405, Q3 : -0.131687939167, Q4 : 0.399542331696}
2019-04-14 12:27:47.71: SIM {TimeUS : 59735263, Roll : 0.51, Pitch : -16.71, Yaw : 47.2, Alt : 49.2900009155, Lat : 49.2836431, Lng : -123.1149014, Q1 : 0.906354188919, Q2 : 0.0622333846986, Q3 : -0.131384059787, Q4 : 0.396720677614}
2019-04-14 12:27:47.81: SIM {TimeUS : 59835223, Roll : 0.63, Pitch : -16.74, Yaw : 46.94, Alt : 49.2900009155, Lat : 49.2836456, Lng : -123.1148975, Q1 : 0.907147467136, Q2 : 0.0630236566067, Q3 : -0.131374284625, Q4 : 0.394781291485}
2019-04-14 12:27:47.91: SIM {TimeUS : 59935183, Roll : 0.66, Pitch : -16.78, Yaw : 46.81, Alt : 49.2900009155, Lat : 49.283648, Lng : -123.1148934, Q1 : 0.90753030777, Q2 : 0.0632777437568, Q3 : -0.131642654538, Q4 : 0.393770068884}
2019-04-14 12:27:48.01: SIM {TimeUS : 60035143, Roll : 0.61, Pitch : -16.82, Yaw : 46.8, Alt : 49.2900009155, Lat : 49.2836505, Lng : -123.1148892, Q1 : 0.90754711628, Q2 : 0.0630087405443, Q3 : -0.13216380775, Q4 : 0.393599897623}
2019-04-14 12:27:48.11: SIM {TimeUS : 60135103, Roll : 0.49, Pitch : -16.86, Yaw : 46.88, Alt : 49.2900009155, Lat : 49.283653, Lng : -123.114885, Q1 : 0.907273828983, Q2 : 0.0622699894011, Q3 : -0.132828876376, Q4 : 0.394123345613}
2019-04-14 12:27:48.21: SIM {TimeUS : 60235063, Roll : 0.33, Pitch : -16.89, Yaw : 47.04, Alt : 49.2900009155, Lat : 49.2836554, Lng : -123.1148808, Q1 : 0.906790494919, Q2 : 0.0612719543278, Q3 : -0.133522063494, Q4 : 0.395156443119}
2019-04-14 12:27:48.31: SIM {TimeUS : 60335023, Roll : 0.15, Pitch : -16.92, Yaw : 47.23, Alt : 49.2900009155, Lat : 49.2836579, Lng : -123.1148766, Q1 : 0.906178236008, Q2 : 0.0601881109178, Q3 : -0.134265750647, Q4 : 0.396473377943}
2019-04-14 12:27:48.41: SIM {TimeUS : 60434983, Roll : 0.01, Pitch : -16.96, Yaw : 47.44, Alt : 49.2999992371, Lat : 49.2836604, Lng : -123.1148722, Q1 : 0.905498743057, Q2 : 0.0594194941223, Q3 : -0.135001346469, Q4 : 0.397889435291}
2019-04-14 12:27:48.51: SIM {TimeUS : 60534943, Roll : -0.1, Pitch : -17.0, Yaw : 47.62, Alt : 49.2999992371, Lat : 49.283663, Lng : -123.114868, Q1 : 0.904852807522, Q2 : 0.0589083060622, Q3 : -0.135645866394, Q4 : 0.399213522673}
2019-04-14 12:27:48.61: SIM {TimeUS : 60634903, Roll : -0.17, Pitch : -17.05, Yaw : 47.77, Alt : 49.2999992371, Lat : 49.2836656, Lng : -123.1148637, Q1 : 0.904302000999, Q2 : 0.0587095469236, Q3 : -0.136215865612, Q4 : 0.400295346975}
2019-04-14 12:27:48.71: SIM {TimeUS : 60734863, Roll : -0.19, Pitch : -17.1, Yaw : 47.88, Alt : 49.2999992371, Lat : 49.2836682, Lng : -123.1148594, Q1 : 0.903898477554, Q2 : 0.058808170259, Q3 : -0.136643335223, Q4 : 0.40104585886}
2019-04-14 12:27:48.81: SIM {TimeUS : 60834823, Roll : -0.2, Pitch : -17.14, Yaw : 47.93, Alt : 49.2999992371, Lat : 49.2836706, Lng : -123.114855, Q1 : 0.903685510159, Q2 : 0.0589348077774, Q3 : -0.136914387345, Q4 : 0.401414602995}
2019-04-14 12:27:48.91: SIM {TimeUS : 60934783, Roll : -0.2, Pitch : -17.15, Yaw : 47.93, Alt : 49.2999992371, Lat : 49.2836732, Lng : -123.1148506, Q1 : 0.903673529625, Q2 : 0.058986004442, Q3 : -0.137031048536, Q4 : 0.401394188404}
2019-04-14 12:27:49.01: SIM {TimeUS : 61034743, Roll : -0.19, Pitch : -17.17, Yaw : 47.88, Alt : 49.2999992371, Lat : 49.283676, Lng : -123.1148462, Q1 : 0.903817474842, Q2 : 0.0590869225562, Q3 : -0.13713465631, Q4 : 0.401019722223}
2019-04-14 12:27:49.11: SIM {TimeUS : 61134703, Roll : -0.14, Pitch : -17.18, Yaw : 47.79, Alt : 49.2999992371, Lat : 49.2836785, Lng : -123.1148418, Q1 : 0.904069960117, Q2 : 0.0593893416226, Q3 : -0.137102216482, Q4 : 0.40041655302}
2019-04-14 12:27:49.21: SIM {TimeUS : 61234663, Roll : -0.07, Pitch : -17.19, Yaw : 47.69, Alt : 49.2999992371, Lat : 49.2836811, Lng : -123.1148374, Q1 : 0.904387354851, Q2 : 0.059841286391, Q3 : -0.137008160353, Q4 : 0.39966404438}
2019-04-14 12:27:49.31: SIM {TimeUS : 61334623, Roll : 0.01, Pitch : -17.22, Yaw : 47.58, Alt : 49.2999992371, Lat : 49.2836839, Lng : -123.1148329, Q1 : 0.904694378376, Q2 : 0.0605331100523, Q3 : -0.137003228068, Q4 : 0.398865759373}
2019-04-14 12:27:49.41: SIM {TimeUS : 61434583, Roll : 0.1, Pitch : -17.28, Yaw : 47.47, Alt : 49.3100013733, Lat : 49.2836865, Lng : -123.1148284, Q1 : 0.904967784882, Q2 : 0.0612772628665, Q3 : -0.137167111039, Q4 : 0.398074865341}
2019-04-14 12:27:49.51: SIM {TimeUS : 61534543, Roll : 0.16, Pitch : -17.31, Yaw : 47.37, Alt : 49.3100013733, Lat : 49.2836892, Lng : -123.114824, Q1 : 0.905229747295, Q2 : 0.0617665424943, Q3 : -0.137249231339, Q4 : 0.397374689579}
2019-04-14 12:27:49.61: SIM {TimeUS : 61634503, Roll : 0.2, Pitch : -17.31, Yaw : 47.29, Alt : 49.3100013733, Lat : 49.2836919, Lng : -123.1148195, Q1 : 0.905461192131, Q2 : 0.062037833035, Q3 : -0.137187838554, Q4 : 0.396825969219}
2019-04-14 12:27:49.71: SIM {TimeUS : 61735296, Roll : 0.22, Pitch : -17.32, Yaw : 47.24, Alt : 49.3100013733, Lat : 49.2836945, Lng : -123.1148149, Q1 : 0.905620396137, Q2 : 0.062129009515, Q3 : -0.137262076139, Q4 : 0.396422505379}
2019-04-14 12:27:49.81: SIM {TimeUS : 61835256, Roll : 0.21, Pitch : -17.35, Yaw : 47.21, Alt : 49.3100013733, Lat : 49.2836973, Lng : -123.1148104, Q1 : 0.905693590641, Q2 : 0.0621340423822, Q3 : -0.137514054775, Q4 : 0.396167099476}
2019-04-14 12:27:49.91: SIM {TimeUS : 61935216, Roll : 0.2, Pitch : -17.37, Yaw : 47.2, Alt : 49.3100013733, Lat : 49.2836999, Lng : -123.1148058, Q1 : 0.905701935291, Q2 : 0.062095541507, Q3 : -0.13774882257, Q4 : 0.3960724473}
2019-04-14 12:27:50.01: SIM {TimeUS : 62035176, Roll : 0.18, Pitch : -17.4, Yaw : 47.21, Alt : 49.3100013733, Lat : 49.2837027, Lng : -123.1148011, Q1 : 0.905655801296, Q2 : 0.0620447173715, Q3 : -0.138042151928, Q4 : 0.396083831787}
2019-04-14 12:27:50.11: SIM {TimeUS : 62135136, Roll : 0.16, Pitch : -17.43, Yaw : 47.23, Alt : 49.3100013733, Lat : 49.2837054, Lng : -123.1147967, Q1 : 0.905584394932, Q2 : 0.0619784295559, Q3 : -0.138283446431, Q4 : 0.396173208952}
2019-04-14 12:27:50.21: SIM {TimeUS : 62235096, Roll : 0.14, Pitch : -17.45, Yaw : 47.25, Alt : 49.3100013733, Lat : 49.2837082, Lng : -123.1147921, Q1 : 0.905490875244, Q2 : 0.061973515898, Q3 : -0.138540461659, Q4 : 0.39629805088}
2019-04-14 12:27:50.31: SIM {TimeUS : 62335056, Roll : 0.13, Pitch : -17.47, Yaw : 47.27, Alt : 49.3100013733, Lat : 49.2837108, Lng : -123.1147874, Q1 : 0.905405640602, Q2 : 0.0619550421834, Q3 : -0.138732507825, Q4 : 0.396428436041}
2019-04-14 12:27:50.41: SIM {TimeUS : 62435016, Roll : 0.12, Pitch : -17.49, Yaw : 47.28, Alt : 49.3100013733, Lat : 49.2837137, Lng : -123.1147828, Q1 : 0.905331969261, Q2 : 0.0619772225618, Q3 : -0.138905227184, Q4 : 0.396532744169}
2019-04-14 12:27:50.51: SIM {TimeUS : 62534976, Roll : 0.12, Pitch : -17.52, Yaw : 47.29, Alt : 49.3100013733, Lat : 49.2837163, Lng : -123.1147782, Q1 : 0.905273258686, Q2 : 0.0620635077357, Q3 : -0.139088407159, Q4 : 0.396589010954}
2019-04-14 12:27:50.61: SIM {TimeUS : 62634936, Roll : 0.1, Pitch : -17.55, Yaw : 47.29, Alt : 49.3199996948, Lat : 49.2837192, Lng : -123.1147735, Q1 : 0.9052323699, Q2 : 0.0620810650289, Q3 : -0.139429077506, Q4 : 0.396560043097}
2019-04-14 12:27:50.71: SIM {TimeUS : 62734896, Roll : 0.07, Pitch : -17.6, Yaw : 47.29, Alt : 49.3199996948, Lat : 49.283722, Lng : -123.1147689, Q1 : 0.905215799809, Q2 : 0.0619641020894, Q3 : -0.139908909798, Q4 : 0.396447122097}
2019-04-14 12:27:50.81: SIM {TimeUS : 62834856, Roll : 0.05, Pitch : -17.65, Yaw : 47.27, Alt : 49.3199996948, Lat : 49.2837247, Lng : -123.1147642, Q1 : 0.905214488506, Q2 : 0.0619421675801, Q3 : -0.140379458666, Q4 : 0.396287173033}
2019-04-14 12:27:50.91: SIM {TimeUS : 62934816, Roll : 0.07, Pitch : -17.68, Yaw : 47.25, Alt : 49.3199996948, Lat : 49.2837275, Lng : -123.1147595, Q1 : 0.905234277248, Q2 : 0.0621826164424, Q3 : -0.14058855176, Q4 : 0.396130174398}
2019-04-14 12:27:51.01: SIM {TimeUS : 63034776, Roll : 0.1, Pitch : -17.68, Yaw : 47.23, Alt : 49.3199996948, Lat : 49.2837302, Lng : -123.1147548, Q1 : 0.90530449152, Q2 : 0.0624520406127, Q3 : -0.14047819376, Q4 : 0.395966380835}
2019-04-14 12:27:51.11: SIM {TimeUS : 63134736, Roll : 0.14, Pitch : -17.66, Yaw : 47.2, Alt : 49.3199996948, Lat : 49.2837331, Lng : -123.1147501, Q1 : 0.905414760113, Q2 : 0.0626331940293, Q3 : -0.140174239874, Q4 : 0.395793378353}
2019-04-14 12:27:51.21: SIM {TimeUS : 63234696, Roll : 0.16, Pitch : -17.64, Yaw : 47.17, Alt : 49.3199996948, Lat : 49.2837358, Lng : -123.1147454, Q1 : 0.90553021431, Q2 : 0.0626486837864, Q3 : -0.139986082911, Q4 : 0.395593315363}
2019-04-14 12:27:51.31: SIM {TimeUS : 63334656, Roll : 0.16, Pitch : -17.62, Yaw : 47.14, Alt : 49.3199996948, Lat : 49.2837387, Lng : -123.1147407, Q1 : 0.905645251274, Q2 : 0.0625906661153, Q3 : -0.139867216349, Q4 : 0.395381242037}
2019-04-14 12:27:51.41: SIM {TimeUS : 63434616, Roll : 0.16, Pitch : -17.61, Yaw : 47.11, Alt : 49.3199996948, Lat : 49.2837416, Lng : -123.114736, Q1 : 0.905756235123, Q2 : 0.0625076964498, Q3 : -0.139774054289, Q4 : 0.395172953606}
2019-04-14 12:27:51.51: SIM {TimeUS : 63534576, Roll : 0.15, Pitch : -17.63, Yaw : 47.09, Alt : 49.3199996948, Lat : 49.2837443, Lng : -123.1147312, Q1 : 0.905824840069, Q2 : 0.0624788813293, Q3 : -0.139940142632, Q4 : 0.394961476326}
2019-04-14 12:27:51.61: SIM {TimeUS : 63634536, Roll : 0.15, Pitch : -17.66, Yaw : 47.07, Alt : 49.3199996948, Lat : 49.2837472, Lng : -123.1147265, Q1 : 0.905859708786, Q2 : 0.0625297874212, Q3 : -0.140209496021, Q4 : 0.394777834415}
2019-04-14 12:27:51.71: SIM {TimeUS : 63734496, Roll : 0.14, Pitch : -17.7, Yaw : 47.05, Alt : 49.3199996948, Lat : 49.28375, Lng : -123.1147217, Q1 : 0.905862808228, Q2 : 0.0625825300813, Q3 : -0.140617698431, Q4 : 0.394617110491}
2019-04-14 12:27:51.81: SIM {TimeUS : 63835289, Roll : 0.14, Pitch : -17.76, Yaw : 47.04, Alt : 49.3199996948, Lat : 49.2837528, Lng : -123.1147169, Q1 : 0.905823290348, Q2 : 0.0627788007259, Q3 : -0.14111943543, Q4 : 0.394497603178}
2019-04-14 12:27:51.91: SIM {TimeUS : 63935249, Roll : 0.15, Pitch : -17.79, Yaw : 47.03, Alt : 49.3199996948, Lat : 49.2837557, Lng : -123.1147121, Q1 : 0.905807137489, Q2 : 0.0629488378763, Q3 : -0.141315057874, Q4 : 0.394437581301}
2019-04-14 12:27:52.01: SIM {TimeUS : 64035209, Roll : 0.15, Pitch : -17.81, Yaw : 47.03, Alt : 49.3300018311, Lat : 49.2837586, Lng : -123.1147073, Q1 : 0.905802309513, Q2 : 0.0630207806826, Q3 : -0.141476213932, Q4 : 0.394379407167}
2019-04-14 12:27:52.11: SIM {TimeUS : 64135169, Roll : 0.14, Pitch : -17.83, Yaw : 47.02, Alt : 49.3300018311, Lat : 49.2837613, Lng : -123.1147025, Q1 : 0.905810177326, Q2 : 0.0630133450031, Q3 : -0.141602769494, Q4 : 0.394317090511}
2019-04-14 12:27:52.21: SIM {TimeUS : 64235129, Roll : 0.15, Pitch : -17.82, Yaw : 47.01, Alt : 49.3300018311, Lat : 49.2837642, Lng : -123.1146977, Q1 : 0.905836760998, Q2 : 0.0630437508225, Q3 : -0.141547635198, Q4 : 0.394270896912}
2019-04-14 12:27:52.31: SIM {TimeUS : 64335089, Roll : 0.17, Pitch : -17.83, Yaw : 47.01, Alt : 49.3300018311, Lat : 49.2837671, Lng : -123.1146929, Q1 : 0.905840396881, Q2 : 0.0631949752569, Q3 : -0.141593903303, Q4 : 0.394221782684}
2019-04-14 12:27:52.41: SIM {TimeUS : 64435049, Roll : 0.17, Pitch : -17.86, Yaw : 47.0, Alt : 49.3300018311, Lat : 49.2837699, Lng : -123.1146881, Q1 : 0.905833423138, Q2 : 0.0633320659399, Q3 : -0.141771540046, Q4 : 0.394151896238}
2019-04-14 12:27:52.51: SIM {TimeUS : 64535009, Roll : 0.18, Pitch : -17.88, Yaw : 46.99, Alt : 49.3300018311, Lat : 49.2837728, Lng : -123.1146833, Q1 : 0.905837476254, Q2 : 0.0634164810181, Q3 : -0.141920119524, Q4 : 0.394075542688}
2019-04-14 12:27:52.61: SIM {TimeUS : 64634969, Roll : 0.18, Pitch : -17.88, Yaw : 46.98, Alt : 49.3300018311, Lat : 49.2837758, Lng : -123.1146785, Q1 : 0.905877172947, Q2 : 0.0634347274899, Q3 : -0.141895264387, Q4 : 0.393990248442}
2019-04-14 12:27:52.71: SIM {TimeUS : 64734929, Roll : 0.18, Pitch : -17.88, Yaw : 46.96, Alt : 49.3300018311, Lat : 49.2837786, Lng : -123.1146737, Q1 : 0.905922651291, Q2 : 0.0633983463049, Q3 : -0.141933113337, Q4 : 0.393877983093}
2019-04-14 12:27:52.81: SIM {TimeUS : 64834889, Roll : 0.16, Pitch : -17.9, Yaw : 46.95, Alt : 49.3300018311, Lat : 49.2837814, Lng : -123.1146688, Q1 : 0.90596139431, Q2 : 0.0632879957557, Q3 : -0.142140194774, Q4 : 0.393731832504}
2019-04-14 12:27:52.91: SIM {TimeUS : 64934849, Roll : 0.13, Pitch : -17.93, Yaw : 46.93, Alt : 49.3300018311, Lat : 49.2837843, Lng : -123.114664, Q1 : 0.90598320961, Q2 : 0.0631877407432, Q3 : -0.142531633377, Q4 : 0.393556237221}
2019-04-14 12:27:53.01: SIM {TimeUS : 65034809, Roll : 0.12, Pitch : -17.94, Yaw : 46.92, Alt : 49.3300018311, Lat : 49.2837873, Lng : -123.1146591, Q1 : 0.906032204628, Q2 : 0.0631135702133, Q3 : -0.14263010025, Q4 : 0.393419623375}
2019-04-14 12:27:53.11: SIM {TimeUS : 65134769, Roll : 0.13, Pitch : -17.93, Yaw : 46.9, Alt : 49.3300018311, Lat : 49.2837902, Lng : -123.1146543, Q1 : 0.906093716621, Q2 : 0.0631124973297, Q3 : -0.142528370023, Q4 : 0.393314957619}
2019-04-14 12:27:53.21: SIM {TimeUS : 65234729, Roll : 0.16, Pitch : -17.92, Yaw : 46.89, Alt : 49.3300018311, Lat : 49.283793, Lng : -123.1146494, Q1 : 0.906142830849, Q2 : 0.0632567256689, Q3 : -0.142386943102, Q4 : 0.393229901791}
2019-04-14 12:27:53.31: SIM {TimeUS : 65334689, Roll : 0.17, Pitch : -17.93, Yaw : 46.87, Alt : 49.3300018311, Lat : 49.2837959, Lng : -123.1146446, Q1 : 0.906172990799, Q2 : 0.0634132474661, Q3 : -0.142416730523, Q4 : 0.393124401569}
2019-04-14 12:27:53.41: SIM {TimeUS : 65434649, Roll : 0.16, Pitch : -17.96, Yaw : 46.86, Alt : 49.3300018311, Lat : 49.2837989, Lng : -123.1146397, Q1 : 0.906196177006, Q2 : 0.0634080395103, Q3 : -0.142647385597, Q4 : 0.392988085747}
2019-04-14 12:27:53.51: SIM {TimeUS : 65534609, Roll : 0.14, Pitch : -17.98, Yaw : 46.84, Alt : 49.3400001526, Lat : 49.2838018, Lng : -123.1146348, Q1 : 0.90622317791, Q2 : 0.0633092150092, Q3 : -0.142912477255, Q4 : 0.392845481634}
2019-04-14 12:27:53.61: SIM {TimeUS : 65634569, Roll : 0.13, Pitch : -18.0, Yaw : 46.83, Alt : 49.3400001526, Lat : 49.2838047, Lng : -123.1146299, Q1 : 0.906243085861, Q2 : 0.0632749348879, Q3 : -0.143141269684, Q4 : 0.392721772194}
2019-04-14 12:27:53.71: SIM {TimeUS : 65734529, Roll : 0.14, Pitch : -18.02, Yaw : 46.82, Alt : 49.3400001526, Lat : 49.2838075, Lng : -123.1146251, Q1 : 0.906262159348, Q2 : 0.0633542537689, Q3 : -0.143268734217, Q4 : 0.392618447542}
2019-04-14 12:27:53.81: SIM {TimeUS : 65835322, Roll : 0.15, Pitch : -18.03, Yaw : 46.81, Alt : 49.3400001526, Lat : 49.2838105, Lng : -123.1146201, Q1 : 0.906278073788, Q2 : 0.0634761527181, Q3 : -0.143348291516, Q4 : 0.392532944679}
2019-04-14 12:27:53.91: SIM {TimeUS : 65935282, Roll : 0.17, Pitch : -18.04, Yaw : 46.8, Alt : 49.3400001526, Lat : 49.2838135, Lng : -123.1146153, Q1 : 0.906280398369, Q2 : 0.0636662617326, Q3 : -0.143347322941, Q4 : 0.39249715209}
2019-04-14 12:27:54.01: SIM {TimeUS : 66035242, Roll : 0.18, Pitch : -18.05, Yaw : 46.8, Alt : 49.3400001526, Lat : 49.2838164, Lng : -123.1146104, Q1 : 0.906272351742, Q2 : 0.0637939721346, Q3 : -0.143404215574, Q4 : 0.392474204302}
2019-04-14 12:27:54.11: SIM {TimeUS : 66135202, Roll : 0.19, Pitch : -18.07, Yaw : 46.79, Alt : 49.3400001526, Lat : 49.2838194, Lng : -123.1146055, Q1 : 0.906258583069, Q2 : 0.0639309734106, Q3 : -0.1434905231, Q4 : 0.392452210188}
2019-04-14 12:27:54.21: SIM {TimeUS : 66235162, Roll : 0.2, Pitch : -18.08, Yaw : 46.79, Alt : 49.3400001526, Lat : 49.2838223, Lng : -123.1146006, Q1 : 0.906247258186, Q2 : 0.0640678405762, Q3 : -0.143555298448, Q4 : 0.392432242632}
2019-04-14 12:27:54.31: SIM {TimeUS : 66335122, Roll : 0.22, Pitch : -18.09, Yaw : 46.79, Alt : 49.3400001526, Lat : 49.2838251, Lng : -123.1145957, Q1 : 0.906240940094, Q2 : 0.0642388314009, Q3 : -0.143540427089, Q4 : 0.392424404621}
2019-04-14 12:27:54.41: SIM {TimeUS : 66435082, Roll : 0.25, Pitch : -18.1, Yaw : 46.78, Alt : 49.3400001526, Lat : 49.2838281, Lng : -123.1145907, Q1 : 0.906224668026, Q2 : 0.0645048171282, Q3 : -0.143517538905, Q4 : 0.392426669598}
2019-04-14 12:27:54.51: SIM {TimeUS : 66535042, Roll : 0.25, Pitch : -18.1, Yaw : 46.78, Alt : 49.3400001526, Lat : 49.2838311, Lng : -123.1145858, Q1 : 0.906242191792, Q2 : 0.064464956522, Q3 : -0.143523722887, Q4 : 0.392390519381}
2019-04-14 12:27:54.61: SIM {TimeUS : 66635002, Roll : 0.22, Pitch : -18.11, Yaw : 46.77, Alt : 49.3400001526, Lat : 49.283834, Lng : -123.1145809, Q1 : 0.906260788441, Q2 : 0.0642949491739, Q3 : -0.143705308437, Q4 : 0.392308980227}
2019-04-14 12:27:54.71: SIM {TimeUS : 66734962, Roll : 0.2, Pitch : -18.13, Yaw : 46.77, Alt : 49.3499984741, Lat : 49.283837, Lng : -123.114576, Q1 : 0.906265854836, Q2 : 0.0641888901591, Q3 : -0.143987804651, Q4 : 0.392211049795}
