2019-04-14 11:51:46.60: SIM {TimeUS : 40816167, Roll : 0.0, Pitch : 0.0, Yaw : 0.0, Alt : 30.1000003815, Lat : 49.28357, Lng : -123.11502, Q1 : 1.0, Q2 : 0.0, Q3 : 0.0, Q4 : 0.0}
2019-04-14 11:51:46.71: SIM {TimeUS : 40935286, Roll : 0.0, Pitch : 0.0, Yaw : 0.0, Alt : 30.1000003815, Lat : 49.28357, Lng : -123.11502, Q1 : 1.0, Q2 : 0.0, Q3 : 0.0, Q4 : 0.0}
2019-04-14 11:51:46.81: SIM {TimeUS : 41035246, Roll : 0.0, Pitch : 0.0, Yaw : 0.0, Alt : 30.1000003815, Lat : 49.28357, Lng : -123.11502, Q1 : 1.0, Q2 : 0.0, Q3 : 0.0, Q4 : 0.0}
2019-04-14 11:51:46.91: SIM {TimeUS : 41135206, Roll : 0.0, Pitch : 0.0, Yaw : 0.0, Alt : 30.1000003815, Lat : 49.28357, Lng : -123.11502, Q1 : 1.0, Q2 : 0.0, Q3 : 0.0, Q4 : 0.0}
2019-04-14 11:51:47.01: SIM {TimeUS : 41235166, Roll : 0.0, Pitch : 0.0, Yaw : 0.0, Alt : 30.1000003815, Lat : 49.28357, Lng : -123.11502, Q1 : 1.0, Q2 : 0.0, Q3 : 0.0, Q4 : 0.0}
2019-04-14 11:51:47.11: SIM {TimeUS : 41335126, Roll : 0.0, Pitch : 0.0, Yaw : 0.0, Alt : 30.1000003815, Lat : 49.28357, Lng : -123.11502, Q1 : 1.0, Q2 : 0.0, Q3 : 0.0, Q4 : 0.0}
2019-04-14 11:51:47.21: SIM {TimeUS : 41435086, Roll : 0.0, Pitch : 0.0, Yaw : 0.0, Alt : 30.1000003815, Lat : 49.28357, Lng : -123.11502, Q1 : 1.0, Q2 : 0.0, Q3 : 0.0, Q4 : 0.0}
2019-04-14 11:51:47.31: SIM {TimeUS : 41535046, Roll : 0.0, Pitch : 0.0, Yaw : 0.0, Alt : 30.1000003815, Lat : 49.28357, Lng : -123.11502, Q1 : 1.0, Q2 : 0.0, Q3 : 0.0, Q4 : 0.0}
2019-04-14 11:51:47.41: SIM {TimeUS : 41635006, Roll : 0.0, Pitch : 0.0, Yaw : 0.0, Alt : 30.1000003815, Lat : 49.28357, Lng : -123.11502, Q1 : 1.0, Q2 : 0.0, Q3 : 0.0, Q4 : 0.0}
2019-04-14 11:51:47.51: SIM {TimeUS : 41734966, Roll : 0.0, Pitch : 0.0, Yaw : 0.0, Alt : 30.1000003815, Lat : 49.28357, Lng : -123.11502, Q1 : 1.0, Q2 : 0.0, Q3 : 0.0, Q4 : 0.0}
2019-04-14 11:51:47.61: SIM {TimeUS : 41834926, Roll : 0.0, Pitch : 0.0, Yaw : 0.0, Alt : 30.1000003815, Lat : 49.28357, Lng : -123.11502, Q1 : 1.0, Q2 : 0.0, Q3 : 0.0, Q4 : 0.0}
2019-04-14 11:51:47.71: SIM {TimeUS : 41934886, Roll : 0.0, Pitch : 0.0, Yaw : 0.0, Alt : 30.1000003815, Lat : 49.28357, Lng : -123.11502, Q1 : 1.0, Q2 : 0.0, Q3 : 0.0, Q4 : 0.0}
2019-04-14 11:51:47.81: SIM {TimeUS : 42034846, Roll : 0.0, Pitch : 0.0, Yaw : 0.0, Alt : 30.1000003815, Lat : 49.28357, Lng : -123.11502, Q1 : 1.0, Q2 : 0.0, Q3 : 0.0, Q4 : 0.0}
2019-04-14 11:51:47.91: SIM {TimeUS : 42134806, Roll : 0.0, Pitch : 0.0, Yaw : 0.0, Alt : 30.1000003815, Lat : 49.28357, Lng : -123.11502, Q1 : 1.0, Q2 : 0.0, Q3 : 0.0, Q4 : 0.0}
2019-04-14 11:51:48.01: SIM {TimeUS : 42234766, Roll : 0.0, Pitch : 0.0, Yaw : 0.0, Alt : 30.1000003815, Lat : 49.28357, Lng : -123.11502, Q1 : 1.0, Q2 : 0.0, Q3 : 0.0, Q4 : 0.0}
2019-04-14 11:51:48.11: SIM {TimeUS : 42334726, Roll : 0.0, Pitch : 0.0, Yaw : 0.0, Alt : 30.1000003815, Lat : 49.28357, Lng : -123.11502, Q1 : 1.0, Q2 : 0.0, Q3 : 0.0, Q4 : 0.0}
2019-04-14 11:51:48.21: SIM {TimeUS : 42434686, Roll : 0.0, Pitch : 0.0, Yaw : 0.0, Alt : 30.1000003815, Lat : 49.28357, Lng : -123.11502, Q1 : 1.0, Q2 : 0.0, Q3 : 0.0, Q4 : 0.0}
2019-04-14 11:51:48.31: SIM {TimeUS : 42534646, Roll : 0.0, Pitch : 0.0, Yaw : 0.0, Alt : 30.1000003815, Lat : 49.28357, Lng : -123.11502, Q1 : 1.0, Q2 : 0.0, Q3 : 0.0, Q4 : 0.0}
2019-04-14 11:51:48.41: SIM {TimeUS : 42634606, Roll : 0.0, Pitch : 0.0, Yaw : 0.0, Alt : 30.1000003815, Lat : 49.28357, Lng : -123.11502, Q1 : 1.0, Q2 : 0.0, Q3 : 0.0, Q4 : 0.0}
2019-04-14 11:51:48.51: SIM {TimeUS : 42734566, Roll : 0.0, Pitch : 0.0, Yaw : 0.0, Alt : 30.1000003815, Lat : 49.28357, Lng : -123.11502, Q1 : 1.0, Q2 : 0.0, Q3 : 0.0, Q4 : 0.0}
2019-04-14 11:51:48.61: SIM {TimeUS : 42834526, Roll : 0.0, Pitch : 0.0, Yaw : 0.0, Alt : 30.1000003815, Lat : 49.28357, Lng : -123.11502, Q1 : 1.0, Q2 : 0.0, Q3 : 0.0, Q4 : 0.0}
2019-04-14 11:51:48.71: SIM {TimeUS : 42935319, Roll : 0.0, Pitch : 0.0, Yaw : 0.0, Alt : 30.1000003815, Lat : 49.28357, Lng : -123.11502, Q1 : 1.0, Q2 : 0.0, Q3 : 0.0, Q4 : 0.0}
2019-04-14 11:51:48.81: SIM {TimeUS : 43035279, Roll : 0.0, Pitch : 0.0, Yaw : 0.0, Alt : 30.1000003815, Lat : 49.28357, Lng : -123.11502, Q1 : 1.0, Q2 : 0.0, Q3 : 0.0, Q4 : 0.0}
2019-04-14 11:51:48.91: SIM {TimeUS : 43135239, Roll : 0.0, Pitch : 0.0, Yaw : 360.0, Alt : 30.1000003815, Lat : 49.28357, Lng : -123.11502, Q1 : 1.0, Q2 : 0.0, Q3 : 0.0, Q4 : -1.30378364355e-11}
2019-04-14 11:51:49.01: SIM {TimeUS : 43235199, Roll : 0.0, Pitch : 0.0, Yaw : 360.0, Alt : 30.1000003815, Lat : 49.28357, Lng : -123.11502, Q1 : 1.0, Q2 : 0.0, Q3 : 0.0, Q4 : -8.06118372054e-09}
2019-04-14 11:51:49.11: SIM {TimeUS : 43335159, Roll : 0.0, Pitch : 0.0, Yaw : 359.99, Alt : 30.1000003815, Lat : 49.28357, Lng : -123.11502, Q1 : 1.0, Q2 : 0.0, Q3 : 0.0, Q4 : -2.09382577054e-07}
2019-04-14 11:51:49.21: SIM {TimeUS : 43435119, Roll : 0.0, Pitch : 0.0, Yaw : 359.99, Alt : 30.1000003815, Lat : 49.28357, Lng : -123.11502, Q1 : 1.0, Q2 : 0.0, Q3 : 0.0, Q4 : -4.00170932835e-07}
2019-04-14 11:51:49.31: SIM {TimeUS : 43535079, Roll : 0.0, Pitch : 0.0, Yaw : 359.99, Alt : 30.1000003815, Lat : 49.28357, Lng : -123.11502, Q1 : 1.0, Q2 : 0.0, Q3 : 0.0, Q4 : -6.04653962455e-07}
2019-04-14 11:51:49.41: SIM {TimeUS : 43635039, Roll : 0.0, Pitch : 0.0, Yaw : 359.99, Alt : 30.1000003815, Lat : 49.28357, Lng : -123.11502, Q1 : 1.0, Q2 : 0.0, Q3 : 0.0, Q4 : -8.06727769032e-07}
2019-04-14 11:51:49.51: SIM {TimeUS : 43734999, Roll : 0.0, Pitch : 0.0, Yaw : 359.99, Alt : 30.1000003815, Lat : 49.28357, Lng : -123.11502, Q1 : 1.0, Q2 : 0.0, Q3 : 0.0, Q4 : -9.7935105714e-07}
2019-04-14 11:51:49.61: SIM {TimeUS : 43834959, Roll : 0.0, Pitch : 0.0, Yaw : 359.99, Alt : 30.1000003815, Lat : 49.28357, Lng : -123.11502, Q1 : 1.0, Q2 : 0.0, Q3 : 0.0, Q4 : -1.15550767532e-06}
2019-04-14 11:51:49.71: SIM {TimeUS : 43934919, Roll : 0.0, Pitch : 0.0, Yaw : 359.99, Alt : 30.1000003815, Lat : 49.28357, Lng : -123.11502, Q1 : 1.0, Q2 : 0.0, Q3 : 0.0, Q4 : -1.35632069487e-06}
2019-04-14 11:51:49.81: SIM {TimeUS : 44034879, Roll : 0.0, Pitch : 0.0, Yaw : 359.99, Alt : 30.1200008392, Lat : 49.28357, Lng : -123.11502, Q1 : 1.0, Q2 : 0.0, Q3 : 0.0, Q4 : -1.54802830821e-06}
2019-04-14 11:51:49.91: SIM {TimeUS : 44134839, Roll : 0.0, Pitch : 0.0, Yaw : 359.99, Alt : 30.1499996185, Lat : 49.28357, Lng : -123.11502, Q1 : 1.0, Q2 : 0.0, Q3 : 0.0, Q4 : -1.81072675787e-06}
2019-04-14 11:51:50.01: SIM {TimeUS : 44234799, Roll : 0.0, Pitch : 0.0, Yaw : 359.99, Alt : 30.1800003052, Lat : 49.28357, Lng : -123.11502, Q1 : 1.0, Q2 : 0.0, Q3 : 0.0, Q4 : -2.06184040508e-06}
2019-04-14 11:51:50.11: SIM {TimeUS : 44334759, Roll : 0.0, Pitch : 0.0, Yaw : 359.99, Alt : 30.2099990845, Lat : 49.28357, Lng : -123.11502, Q1 : 1.0, Q2 : -7.32536864234e-06, Q3 : -7.5440798355e-06, Q4 : -2.18642708205e-06}
2019-04-14 11:51:50.21: SIM {TimeUS : 44434719, Roll : -0.16, Pitch : -0.16, Yaw : 359.99, Alt : 30.2700004578, Lat : 49.28357, Lng : -123.11502, Q1 : 0.999998033047, Q2 : -0.00141816399992, Q3 : -0.00140721607022, Q4 : -1.70366038219e-05}
2019-04-14 11:51:50.31: SIM {TimeUS : 44534679, Roll : -0.47, Pitch : -0.41, Yaw : 359.99, Alt : 30.3899993896, Lat : 49.28357, Lng : -123.11502, Q1 : 0.999985039234, Q2 : -0.00414197286591, Q3 : -0.00357813131995, Q4 : -6.00806270086e-05}
2019-04-14 11:51:50.41: SIM {TimeUS : 44634639, Roll : -0.76, Pitch : -0.6, Yaw : 359.99, Alt : 30.5400009155, Lat : 49.28357, Lng : -123.11502, Q1 : 0.999964177608, Q2 : -0.00664822710678, Q3 : -0.00524209532887, Q4 : -0.000122206707601}
2019-04-14 11:51:50.51: SIM {TimeUS : 44734599, Roll : -0.88, Pitch : -0.68, Yaw : 359.98, Alt : 30.7000007629, Lat : 49.28357, Lng : -123.11502, Q1 : 0.999952018261, Q2 : -0.00775972520933, Q3 : -0.00597618287429, Q4 : -0.000197451081476}
2019-04-14 11:51:50.61: SIM {TimeUS : 44834559, Roll : -0.83, Pitch : -0.65, Yaw : 359.97, Alt : 30.8500003815, Lat : 49.28357, Lng : -123.11502, Q1 : 0.999957323074, Q2 : -0.00725431228057, Q3 : -0.00571781769395, Q4 : -0.000279533909634}
2019-04-14 11:51:50.71: SIM {TimeUS : 44934519, Roll : -0.64, Pitch : -0.53, Yaw : 359.96, Alt : 31.0100002289, Lat : 49.28357, Lng : -123.1150201, Q1 : 0.999973356724, Q2 : -0.0055947881192, Q3 : -0.00467538554221, Q4 : -0.000356719450792}
2019-04-14 11:51:50.81: SIM {TimeUS : 45035312, Roll : -0.38, Pitch : -0.36, Yaw : 359.95, Alt : 31.1599998474, Lat : 49.2835701, Lng : -123.1150202, Q1 : 0.99998909235, Q2 : -0.00337421800941, Q3 : -0.00318795535713, Q4 : -0.000420090422267}
2019-04-14 11:51:50.91: SIM {TimeUS : 45135272, Roll : -0.14, Pitch : -0.19, Yaw : 359.94, Alt : 31.3299999237, Lat : 49.2835701, Lng : -123.1150203, Q1 : 0.999997675419, Q2 : -0.00128285866231, Q3 : -0.00167290575337, Q4 : -0.000466867611976}
2019-04-14 11:51:51.01: SIM {TimeUS : 45235232, Roll : 0.01, Pitch : -0.04, Yaw : 359.94, Alt : 31.5, Lat : 49.2835702, Lng : -123.1150203, Q1 : 0.999999821186, Q2 : 0.000140239586472, Q3 : -0.000374651252059, Q4 : -0.00049827969633}
2019-04-14 11:51:51.11: SIM {TimeUS : 45335192, Roll : 0.08, Pitch : 0.06, Yaw : 359.94, Alt : 31.6700000763, Lat : 49.2835702, Lng : -123.1150204, Q1 : 0.999999403954, Q2 : 0.000766928773373, Q3 : 0.000530384539161, Q4 : -0.000516021682415}
2019-04-14 11:51:51.21: SIM {TimeUS : 45435152, Roll : 0.08, Pitch : 0.11, Yaw : 359.94, Alt : 31.8500003815, Lat : 49.2835703, Lng : -123.1150205, Q1 : 0.99999910593, Q2 : 0.000705917016603, Q3 : 0.00101928156801, Q4 : -0.000523820810486}
2019-04-14 11:51:51.31: SIM {TimeUS : 45535112, Roll : 0.05, Pitch : 0.14, Yaw : 359.93, Alt : 32.0400009155, Lat : 49.2835703, Lng : -123.1150205, Q1 : 0.999998927116, Q2 : 0.000513465551194, Q3 : 0.00123092753347, Q4 : -0.000537208630703}
2019-04-14 11:51:51.41: SIM {TimeUS : 45635072, Roll : 0.04, Pitch : 0.14, Yaw : 359.93, Alt : 32.2200012207, Lat : 49.2835703, Lng : -123.1150206, Q1 : 0.999998986721, Q2 : 0.000371691276086, Q3 : 0.00125996384304, Q4 : -0.000548248761334}
2019-04-14 11:51:51.51: SIM {TimeUS : 45735032, Roll : 0.03, Pitch : 0.14, Yaw : 359.93, Alt : 32.4199981689, Lat : 49.2835703, Lng : -123.1150206, Q1 : 0.999998986721, Q2 : 0.000303349661408, Q3 : 0.00126472942065, Q4 : -0.00055251683807}
2019-04-14 11:51:51.61: SIM {TimeUS : 45834992, Roll : 0.05, Pitch : 0.15, Yaw : 359.93, Alt : 32.6100006104, Lat : 49.2835703, Lng : -123.1150207, Q1 : 0.999998807907, Q2 : 0.000469426886411, Q3 : 0.00136728957295, Q4 : -0.000543733069208}
2019-04-14 11:51:51.71: SIM {TimeUS : 45934952, Roll : 0.08, Pitch : 0.14, Yaw : 359.93, Alt : 32.8100013733, Lat : 49.2835703, Lng : -123.1150207, Q1 : 0.999998748302, Q2 : 0.000755194050726, Q3 : 0.00127871928271, Q4 : -0.000529208627995}
2019-04-14 11:51:51.81: SIM {TimeUS : 46034912, Roll : 0.12, Pitch : 0.11, Yaw : 359.94, Alt : 33.0099983215, Lat : 49.2835704, Lng : -123.1150207, Q1 : 0.999998748302, Q2 : 0.00106863910332, Q3 : 0.00103831093293, Q4 : -0.000508731987793}
2019-04-14 11:51:51.91: SIM {TimeUS : 46134872, Roll : 0.15, Pitch : 0.1, Yaw : 359.94, Alt : 33.2099990845, Lat : 49.2835704, Lng : -123.1150208, Q1 : 0.999998629093, Q2 : 0.00133994955104, Q3 : 0.000878923456185, Q4 : -0.000487145356601}
2019-04-14 11:51:52.01: SIM {TimeUS : 46234832, Roll : 0.17, Pitch : 0.1, Yaw : 359.94, Alt : 33.4099998474, Lat : 49.2835704, Lng : -123.1150208, Q1 : 0.99999833107, Q2 : 0.00151127111167, Q3 : 0.000880595005583, Q4 : -0.000462120136945}
2019-04-14 11:51:52.11: SIM {TimeUS : 46334792, Roll : 0.18, Pitch : 0.11, Yaw : 359.95, Alt : 33.6199989319, Lat : 49.2835704, Lng : -123.1150208, Q1 : 0.999998092651, Q2 : 0.00162191444542, Q3 : 0.00100598786958, Q4 : -0.000436515576439}
2019-04-14 11:51:52.21: SIM {TimeUS : 46434752, Roll : 0.18, Pitch : 0.12, Yaw : 359.95, Alt : 33.8300018311, Lat : 49.2835704, Lng : -123.1150208, Q1 : 0.999998033047, Q2 : 0.00159943650942, Q3 : 0.00107081513852, Q4 : -0.000416957540438}
2019-04-14 11:51:52.31: SIM {TimeUS : 46534712, Roll : 0.16, Pitch : 0.12, Yaw : 359.95, Alt : 34.0400009155, Lat : 49.2835704, Lng : -123.1150208, Q1 : 0.999998271465, Q2 : 0.00143114232924, Q3 : 0.00110429641791, Q4 : -0.000403603189625}
2019-04-14 11:51:52.41: SIM {TimeUS : 46634672, Roll : 0.13, Pitch : 0.13, Yaw : 359.95, Alt : 34.25, Lat : 49.2835704, Lng : -123.1150208, Q1 : 0.999998569489, Q2 : 0.001171101816, Q3 : 0.0011554392986, Q4 : -0.000400921126129}
2019-04-14 11:51:52.51: SIM {TimeUS : 46734632, Roll : 0.1, Pitch : 0.13, Yaw : 359.95, Alt : 34.4599990845, Lat : 49.2835704, Lng : -123.1150208, Q1 : 0.999998807907, Q2 : 0.000930624140892, Q3 : 0.00113501632586, Q4 : -0.000408002611948}
2019-04-14 11:51:52.61: SIM {TimeUS : 46834592, Roll : 0.09, Pitch : 0.09, Yaw : 359.94, Alt : 34.6699981689, Lat : 49.2835704, Lng : -123.1150208, Q1 : 0.99999922514, Q2 : 0.000826003903057, Q3 : 0.000815000326838, Q4 : -0.000442847725935}
2019-04-14 11:51:52.71: SIM {TimeUS : 46934552, Roll : 0.08, Pitch : 0.05, Yaw : 359.94, Alt : 34.8899993896, Lat : 49.2835704, Lng : -123.1150208, Q1 : 0.999999463558, Q2 : 0.000756832829211, Q3 : 0.000481949624373, Q4 : -0.000494862324558}
2019-04-14 11:51:52.81: SIM {TimeUS : 47034512, Roll : 0.06, Pitch : 0.03, Yaw : 359.93, Alt : 35.0999984741, Lat : 49.2835704, Lng : -123.1150208, Q1 : 0.999999642372, Q2 : 0.00060628389474, Q3 : 0.00027261453215, Q4 : -0.000549751683138}
2019-04-14 11:51:52.91: SIM {TimeUS : 47135305, Roll : 0.05, Pitch : 0.02, Yaw : 359.93, Alt : 35.3199996948, Lat : 49.2835704, Lng : -123.1150207, Q1 : 0.999999701977, Q2 : 0.000479878595797, Q3 : 0.000215611449676, Q4 : -0.000602147483733}
2019-04-14 11:51:53.01: SIM {TimeUS : 47235265, Roll : 0.05, Pitch : 0.02, Yaw : 359.92, Alt : 35.5400009155, Lat : 49.2835704, Lng : -123.1150207, Q1 : 0.999999701977, Q2 : 0.000461199990241, Q3 : 0.000195597327547, Q4 : -0.000639970880002}
2019-04-14 11:51:53.11: SIM {TimeUS : 47335225, Roll : 0.02, Pitch : 0.0, Yaw : 359.92, Alt : 35.7599983215, Lat : 49.2835704, Lng : -123.1150207, Q1 : 0.999999761581, Q2 : 0.000255103397649, Q3 : 5.99274744673e-06, Q4 : -0.000668300897814}
2019-04-14 11:51:53.21: SIM {TimeUS : 47435185, Roll : -0.01, Pitch : -0.03, Yaw : 359.92, Alt : 35.9799995422, Lat : 49.2835704, Lng : -123.1150207, Q1 : 0.999999701977, Q2 : -9.54000861384e-05, Q3 : -0.000303479522699, Q4 : -0.0006930019008}
2019-04-14 11:51:53.31: SIM {TimeUS : 47535145, Roll : -0.04, Pitch : -0.06, Yaw : 359.91, Alt : 36.2000007629, Lat : 49.2835704, Lng : -123.1150207, Q1 : 0.999999523163, Q2 : -0.000419382471591, Q3 : -0.00052912090905, Q4 : -0.000718162278645}
2019-04-14 11:51:53.41: SIM {TimeUS : 47635105, Roll : -0.07, Pitch : -0.07, Yaw : 359.91, Alt : 36.4199981689, Lat : 49.2835704, Lng : -123.1150207, Q1 : 0.999999284744, Q2 : -0.000677777745295, Q3 : -0.000654022092931, Q4 : -0.000741710944567}
2019-04-14 11:51:53.51: SIM {TimeUS : 47735065, Roll : -0.07, Pitch : -0.07, Yaw : 359.91, Alt : 36.6399993896, Lat : 49.2835704, Lng : -123.1150206, Q1 : 0.999999284744, Q2 : -0.000689570209943, Q3 : -0.000651382375509, Q4 : -0.000757764501031}
2019-04-14 11:51:53.61: SIM {TimeUS : 47835025, Roll : -0.07, Pitch : -0.07, Yaw : 359.91, Alt : 36.8699989319, Lat : 49.2835704, Lng : -123.1150206, Q1 : 0.999999284744, Q2 : -0.000670703942887, Q3 : -0.00061130116228, Q4 : -0.000773054372985}
2019-04-14 11:51:53.71: SIM {TimeUS : 47934985, Roll : -0.06, Pitch : -0.05, Yaw : 359.9, Alt : 37.0900001526, Lat : 49.2835704, Lng : -123.1150206, Q1 : 0.999999403954, Q2 : -0.000582998269238, Q3 : -0.00045950859203, Q4 : -0.000792421866208}
2019-04-14 11:51:53.81: SIM {TimeUS : 48034945, Roll : -0.05, Pitch : -0.04, Yaw : 359.9, Alt : 37.3199996948, Lat : 49.2835704, Lng : -123.1150206, Q1 : 0.999999523163, Q2 : -0.000444533419795, Q3 : -0.000361290236469, Q4 : -0.000808711803984}
2019-04-14 11:51:53.91: SIM {TimeUS : 48134905, Roll : -0.05, Pitch : -0.04, Yaw : 359.9, Alt : 37.5400009155, Lat : 49.2835704, Lng : -123.1150206, Q1 : 0.999999463558, Q2 : -0.000496745400596, Q3 : -0.00037472837721, Q4 : -0.000822971109301}
2019-04-14 11:51:54.01: SIM {TimeUS : 48234865, Roll : -0.07, Pitch : -0.02, Yaw : 359.9, Alt : 37.7700004578, Lat : 49.2835704, Lng : -123.1150206, Q1 : 0.999999463558, Q2 : -0.000615805038251, Q3 : -0.000258779647993, Q4 : -0.000837201834656}
2019-04-14 11:51:54.11: SIM {TimeUS : 48334825, Roll : -0.09, Pitch : -0.01, Yaw : 359.9, Alt : 37.9900016785, Lat : 49.2835704, Lng : -123.1150206, Q1 : 0.999999284744, Q2 : -0.000844353227876, Q3 : -9.62349004112e-05, Q4 : -0.000850728130899}
2019-04-14 11:51:54.21: SIM {TimeUS : 48434785, Roll : -0.1, Pitch : 0.0, Yaw : 359.9, Alt : 38.2200012207, Lat : 49.2835704, Lng : -123.1150206, Q1 : 0.99999922514, Q2 : -0.00089489959646, Q3 : 2.69685642706e-05, Q4 : -0.000858957704622}
2019-04-14 11:51:54.31: SIM {TimeUS : 48534745, Roll : -0.08, Pitch : 0.03, Yaw : 359.9, Alt : 38.4500007629, Lat : 49.2835704, Lng : -123.1150206, Q1 : 0.999999344349, Q2 : -0.000704322941601, Q3 : 0.000291811564239, Q4 : -0.00086978636682}
2019-04-14 11:51:54.41: SIM {TimeUS : 48634705, Roll : -0.05, Pitch : 0.03, Yaw : 359.89, Alt : 38.6800003052, Lat : 49.2835704, Lng : -123.1150206, Q1 : 0.999999463558, Q2 : -0.000503572053276, Q3 : 0.000268244853942, Q4 : -0.000887888018042}
2019-04-14 11:51:54.51: SIM {TimeUS : 48734665, Roll : -0.02, Pitch : 0.01, Yaw : 359.89, Alt : 38.9099998474, Lat : 49.2835704, Lng : -123.1150206, Q1 : 0.999999582767, Q2 : -0.000251242017839, Q3 : 0.000173836146132, Q4 : -0.000908637419343}
2019-04-14 11:51:54.61: SIM {TimeUS : 48834625, Roll : 0.0, Pitch : 0.03, Yaw : 359.89, Alt : 39.1399993896, Lat : 49.2835704, Lng : -123.1150206, Q1 : 0.999999523163, Q2 : 4.46973499493e-05, Q3 : 0.000281776912743, Q4 : -0.000925421132706}
2019-04-14 11:51:54.71: SIM {TimeUS : 48934585, Roll : 0.04, Pitch : 0.05, Yaw : 359.89, Alt : 39.3699989319, Lat : 49.2835704, Lng : -123.1150206, Q1 : 0.999999344349, Q2 : 0.000367854314391, Q3 : 0.000500233960338, Q4 : -0.000946122454479}
2019-04-14 11:51:54.81: SIM {TimeUS : 49034545, Roll : 0.07, Pitch : 0.08, Yaw : 359.88, Alt : 39.5999984741, Lat : 49.2835704, Lng : -123.1150206, Q1 : 0.999999046326, Q2 : 0.00064877117984, Q3 : 0.000715142930858, Q4 : -0.000973181566224}
2019-04-14 11:51:54.91: SIM {TimeUS : 49134505, Roll : 0.06, Pitch : 0.1, Yaw : 359.88, Alt : 39.8300018311, Lat : 49.2835706, Lng : -123.1150206, Q1 : 0.999998927116, Q2 : 0.000609233102296, Q3 : 0.000912110554054, Q4 : -0.000997534370981}
2019-04-14 11:51:55.01: SIM {TimeUS : 49235298, Roll : 0.02, Pitch : 0.12, Yaw : 359.88, Alt : 40.0600013733, Lat : 49.2835706, Lng : -123.1150206, Q1 : 0.999998867512, Q2 : 0.000223968803766, Q3 : 0.00109614268877, Q4 : -0.00103971152566}
2019-04-14 11:51:55.11: SIM {TimeUS : 49335258, Roll : -0.01, Pitch : 0.11, Yaw : 359.87, Alt : 40.2900009155, Lat : 49.2835706, Lng : -123.1150206, Q1 : 0.999998867512, Q2 : -9.05603956198e-05, Q3 : 0.00104607827961, Q4 : -0.00107072223909}
2019-04-14 11:51:55.21: SIM {TimeUS : 49435218, Roll : -0.03, Pitch : 0.09, Yaw : 359.87, Alt : 40.5200004578, Lat : 49.2835706, Lng : -123.1150206, Q1 : 0.999999046326, Q2 : -0.000310659350362, Q3 : 0.000824714545161, Q4 : -0.00110148021486}
2019-04-14 11:51:55.31: SIM {TimeUS : 49535178, Roll : -0.04, Pitch : 0.07, Yaw : 359.86, Alt : 40.75, Lat : 49.2835706, Lng : -123.1150206, Q1 : 0.999999046326, Q2 : -0.000428634637501, Q3 : 0.00068277324317, Q4 : -0.00113546021748}
2019-04-14 11:51:55.41: SIM {TimeUS : 49635138, Roll : -0.04, Pitch : 0.08, Yaw : 359.86, Alt : 40.9900016785, Lat : 49.2835706, Lng : -123.1150206, Q1 : 0.999998986721, Q2 : -0.000361243175576, Q3 : 0.000769105681684, Q4 : -0.00116917700507}
2019-04-14 11:51:55.51: SIM {TimeUS : 49735098, Roll : 0.0, Pitch : 0.11, Yaw : 359.86, Alt : 41.2200012207, Lat : 49.2835706, Lng : -123.1150206, Q1 : 0.999998748302, Q2 : 1.54439821927e-05, Q3 : 0.00101453869138, Q4 : -0.00119796779472}
2019-04-14 11:51:55.61: SIM {TimeUS : 49835058, Roll : 0.05, Pitch : 0.13, Yaw : 359.85, Alt : 41.4500007629, Lat : 49.2835706, Lng : -123.1150206, Q1 : 0.999998450279, Q2 : 0.000461430754513, Q3 : 0.00117951026186, Q4 : -0.00122577312868}
2019-04-14 11:51:55.71: SIM {TimeUS : 49935018, Roll : 0.08, Pitch : 0.11, Yaw : 359.85, Alt : 41.6899986267, Lat : 49.2835706, Lng : -123.1150207, Q1 : 0.999998450279, Q2 : 0.000754087872338, Q3 : 0.000966369989328, Q4 : -0.00125642318744}
2019-04-14 11:51:55.81: SIM {TimeUS : 50034978, Roll : 0.08, Pitch : 0.06, Yaw : 359.85, Alt : 41.9199981689, Lat : 49.2835706, Lng : -123.1150207, Q1 : 0.999998748302, Q2 : 0.000761447125115, Q3 : 0.000587014190387, Q4 : -0.00128457369283}
2019-04-14 11:51:55.91: SIM {TimeUS : 50134938, Roll : 0.05, Pitch : 0.03, Yaw : 359.85, Alt : 42.1500015259, Lat : 49.2835706, Lng : -123.1150207, Q1 : 0.999998986721, Q2 : 0.000439675088273, Q3 : 0.000324333726894, Q4 : -0.00130367546808}
2019-04-14 11:51:56.01: SIM {TimeUS : 50234898, Roll : 0.0, Pitch : 0.03, Yaw : 359.84, Alt : 42.3899993896, Lat : 49.2835706, Lng : -123.1150206, Q1 : 0.99999910593, Q2 : -2.67728228209e-05, Q3 : 0.000289748510113, Q4 : -0.00131608080119}
2019-04-14 11:51:56.11: SIM {TimeUS : 50334858, Roll : -0.03, Pitch : 0.06, Yaw : 359.84, Alt : 42.6199989319, Lat : 49.2835704, Lng : -123.1150206, Q1 : 0.999998927116, Q2 : -0.00033316804911, Q3 : 0.000551551464014, Q4 : -0.00132130691782}
2019-04-14 11:51:56.21: SIM {TimeUS : 50434818, Roll : -0.05, Pitch : 0.08, Yaw : 359.84, Alt : 42.8600006104, Lat : 49.2835704, Lng : -123.1150206, Q1 : 0.999998748302, Q2 : -0.000484475138364, Q3 : 0.000758271547966, Q4 : -0.00132300227415}
2019-04-14 11:51:56.31: SIM {TimeUS : 50534778, Roll : -0.05, Pitch : 0.08, Yaw : 359.84, Alt : 43.0900001526, Lat : 49.2835704, Lng : -123.1150206, Q1 : 0.999998748302, Q2 : -0.00045420974493, Q3 : 0.000746218778659, Q4 : -0.00132869789377}
2019-04-14 11:51:56.41: SIM {TimeUS : 50634738, Roll : -0.05, Pitch : 0.07, Yaw : 359.84, Alt : 43.3300018311, Lat : 49.2835704, Lng : -123.1150206, Q1 : 0.999998748302, Q2 : -0.000472219020594, Q3 : 0.000673301401548, Q4 : -0.00134771526791}
2019-04-14 11:51:56.51: SIM {TimeUS : 50734698, Roll : -0.04, Pitch : 0.06, Yaw : 359.84, Alt : 43.5600013733, Lat : 49.2835704, Lng : -123.1150206, Q1 : 0.999998807907, Q2 : -0.000393298978452, Q3 : 0.000536547799129, Q4 : -0.00136904267129}
2019-04-14 11:51:56.61: SIM {TimeUS : 50834658, Roll : -0.02, Pitch : 0.04, Yaw : 359.84, Alt : 43.7999992371, Lat : 49.2835704, Lng : -123.1150206, Q1 : 0.999998927116, Q2 : -0.000215561361983, Q3 : 0.000425606645877, Q4 : -0.0013931352878}
2019-04-14 11:51:56.71: SIM {TimeUS : 50934618, Roll : -0.01, Pitch : 0.04, Yaw : 359.83, Alt : 44.0299987793, Lat : 49.2835704, Lng : -123.1150206, Q1 : 0.999998927116, Q2 : -8.722673374e-05, Q3 : 0.000371449743398, Q4 : -0.00141830358189}
2019-04-14 11:51:56.81: SIM {TimeUS : 51034578, Roll : -0.01, Pitch : 0.02, Yaw : 359.83, Alt : 44.2700004578, Lat : 49.2835704, Lng : -123.1150206, Q1 : 0.999998927116, Q2 : -0.000119092146633, Q3 : 0.00017767578538, Q4 : -0.00144380785059}
2019-04-14 11:51:56.91: SIM {TimeUS : 51134538, Roll : -0.02, Pitch : -0.01, Yaw : 359.83, Alt : 44.5, Lat : 49.2835704, Lng : -123.1150206, Q1 : 0.999998927116, Q2 : -0.000205976990401, Q3 : -0.000132978253532, Q4 : -0.00147306441795}
2019-04-14 11:51:57.01: SIM {TimeUS : 51234498, Roll : -0.02, Pitch : -0.03, Yaw : 359.82, Alt : 44.7400016785, Lat : 49.2835704, Lng : -123.1150206, Q1 : 0.999998807907, Q2 : -0.000216597371036, Q3 : -0.000318781036185, Q4 : -0.00150438270066}
2019-04-14 11:51:57.11: SIM {TimeUS : 51335291, Roll : -0.01, Pitch : -0.04, Yaw : 359.82, Alt : 44.9799995422, Lat : 49.2835704, Lng : -123.1150206, Q1 : 0.999998748302, Q2 : -0.000133305627969, Q3 : -0.000387216656236, Q4 : -0.00153212808073}
2019-04-14 11:51:57.21: SIM {TimeUS : 51435251, Roll : -0.01, Pitch : -0.04, Yaw : 359.82, Alt : 45.2099990845, Lat : 49.2835704, Lng : -123.1150206, Q1 : 0.999998688698, Q2 : -0.000140816860949, Q3 : -0.000385743769584, Q4 : -0.00156021595467}
2019-04-14 11:51:57.31: SIM {TimeUS : 51535211, Roll : -0.03, Pitch : -0.03, Yaw : 359.81, Alt : 45.4500007629, Lat : 49.2835703, Lng : -123.1150206, Q1 : 0.999998629093, Q2 : -0.000329511211021, Q3 : -0.000314561097184, Q4 : -0.00159163365606}
2019-04-14 11:51:57.41: SIM {TimeUS : 51635171, Roll : -0.07, Pitch : -0.02, Yaw : 359.81, Alt : 45.6800003052, Lat : 49.2835703, Lng : -123.1150206, Q1 : 0.999998450279, Q2 : -0.000663311802782, Q3 : -0.000247239280725, Q4 : -0.00162586290389}
2019-04-14 11:51:57.51: SIM {TimeUS : 51735131, Roll : -0.1, Pitch : -0.02, Yaw : 359.8, Alt : 45.9199981689, Lat : 49.2835703, Lng : -123.1150206, Q1 : 0.999998211861, Q2 : -0.000901474966668, Q3 : -0.000215854219277, Q4 : -0.00166182522662}
2019-04-14 11:51:57.61: SIM {TimeUS : 51835091, Roll : -0.1, Pitch : -0.01, Yaw : 359.8, Alt : 46.1500015259, Lat : 49.2835703, Lng : -123.1150206, Q1 : 0.999998152256, Q2 : -0.000946214655414, Q3 : -8.93350807019e-05, Q4 : -0.00169516110327}
2019-04-14 11:51:57.71: SIM {TimeUS : 51935051, Roll : -0.09, Pitch : 0.01, Yaw : 359.8, Alt : 46.3699989319, Lat : 49.2835703, Lng : -123.1150206, Q1 : 0.999998152256, Q2 : -0.000832238758449, Q3 : 0.00014136050595, Q4 : -0.00172153743915}
2019-04-14 11:51:57.81: SIM {TimeUS : 52035011, Roll : -0.07, Pitch : 0.03, Yaw : 359.79, Alt : 46.5900001526, Lat : 49.2835703, Lng : -123.1150206, Q1 : 0.999998271465, Q2 : -0.000613083597273, Q3 : 0.000274021673249, Q4 : -0.0017457929207}
2019-04-14 11:51:57.91: SIM {TimeUS : 52134971, Roll : -0.04, Pitch : 0.02, Yaw : 359.79, Alt : 46.8100013733, Lat : 49.2835703, Lng : -123.1150206, Q1 : 0.99999833107, Q2 : -0.000429270177847, Q3 : 0.000218168526771, Q4 : -0.0017654846888}
2019-04-14 11:51:58.01: SIM {TimeUS : 52234931, Roll : -0.03, Pitch : 0.0, Yaw : 359.79, Alt : 47.0200004578, Lat : 49.2835703, Lng : -123.1150206, Q1 : 0.99999833107, Q2 : -0.000332142022671, Q3 : 2.20199253818e-05, Q4 : -0.00178130797576}
2019-04-14 11:51:58.11: SIM {TimeUS : 52334891, Roll : -0.02, Pitch : -0.03, Yaw : 359.79, Alt : 47.2200012207, Lat : 49.2835703, Lng : -123.1150206, Q1 : 0.99999833107, Q2 : -0.000180041199201, Q3 : -0.000275019847322, Q4 : -0.00180006120354}
2019-04-14 11:51:58.21: SIM {TimeUS : 52434851, Roll : 0.0, Pitch : -0.06, Yaw : 359.79, Alt : 47.4199981689, Lat : 49.2835703, Lng : -123.1150206, Q1 : 0.999998211861, Q2 : 1.27450794025e-05, Q3 : -0.000554188212845, Q4 : -0.00181883084588}
2019-04-14 11:51:58.31: SIM {TimeUS : 52534811, Roll : 0.01, Pitch : -0.09, Yaw : 359.78, Alt : 47.5999984741, Lat : 49.2835703, Lng : -123.1150206, Q1 : 0.999997973442, Q2 : 0.000103307422251, Q3 : -0.000788119563367, Q4 : -0.00183495250531}
2019-04-14 11:51:58.41: SIM {TimeUS : 52634771, Roll : 0.01, Pitch : -0.13, Yaw : 359.78, Alt : 47.7799987793, Lat : 49.2835703, Lng : -123.1150206, Q1 : 0.999997615814, Q2 : 0.000172372820089, Q3 : -0.00114169938024, Q4 : -0.00185436010361}
2019-04-14 11:51:58.51: SIM {TimeUS : 52734731, Roll : 0.04, Pitch : -0.15, Yaw : 359.78, Alt : 47.9399986267, Lat : 49.2835703, Lng : -123.1150206, Q1 : 0.999997258186, Q2 : 0.000417016766733, Q3 : -0.00133019895293, Q4 : -0.0018786136061}
2019-04-14 11:51:58.61: SIM {TimeUS : 52834691, Roll : 0.07, Pitch : -0.14, Yaw : 359.78, Alt : 48.0999984741, Lat : 49.2835703, Lng : -123.1150206, Q1 : 0.999997138977, Q2 : 0.000643595063593, Q3 : -0.0012950518867, Q4 : -0.00190557714086}
2019-04-14 11:51:58.71: SIM {TimeUS : 52934651, Roll : 0.08, Pitch : -0.12, Yaw : 359.77, Alt : 48.2400016785, Lat : 49.2835703, Lng : -123.1150206, Q1 : 0.999997198582, Q2 : 0.00077813497046, Q3 : -0.00109294208232, Q4 : -0.00193646585103}
2019-04-14 11:51:58.81: SIM {TimeUS : 53034611, Roll : 0.08, Pitch : -0.09, Yaw : 359.77, Alt : 48.3600006104, Lat : 49.2835704, Lng : -123.1150206, Q1 : 0.999997437, Q2 : 0.000755688233767, Q3 : -0.000834440870676, Q4 : -0.0019637781661}
2019-04-14 11:51:58.91: SIM {TimeUS : 53134571, Roll : 0.08, Pitch : -0.07, Yaw : 359.77, Alt : 48.4799995422, Lat : 49.2835704, Lng : -123.1150206, Q1 : 0.99999755621, Q2 : 0.000741760421079, Q3 : -0.000616451725364, Q4 : -0.0019899175968}
2019-04-14 11:51:59.01: SIM {TimeUS : 53234531, Roll : 0.07, Pitch : -0.06, Yaw : 359.76, Alt : 48.5900001526, Lat : 49.2835704, Lng : -123.1150206, Q1 : 0.99999755621, Q2 : 0.000635295349639, Q3 : -0.000562576984521, Q4 : -0.00202302471735}
2019-04-14 11:51:59.11: SIM {TimeUS : 53335324, Roll : 0.04, Pitch : -0.05, Yaw : 359.76, Alt : 48.6800003052, Lat : 49.2835704, Lng : -123.1150206, Q1 : 0.999997675419, Q2 : 0.00041853330913, Q3 : -0.000500366673805, Q4 : -0.00206155818887}
2019-04-14 11:51:59.21: SIM {TimeUS : 53435284, Roll : 0.02, Pitch : -0.03, Yaw : 359.75, Alt : 48.7599983215, Lat : 49.2835704, Lng : -123.1150206, Q1 : 0.999997735023, Q2 : 0.000237952073803, Q3 : -0.00034122724901, Q4 : -0.00209662434645}
2019-04-14 11:51:59.31: SIM {TimeUS : 53535244, Roll : 0.0, Pitch : -0.01, Yaw : 359.75, Alt : 48.8300018311, Lat : 49.2835704, Lng : -123.1150206, Q1 : 0.999997735023, Q2 : 6.44212268526e-05, Q3 : -0.000158929658937, Q4 : -0.00212550745346}
2019-04-14 11:51:59.41: SIM {TimeUS : 53635204, Roll : 0.0, Pitch : 0.0, Yaw : 359.75, Alt : 48.8899993896, Lat : 49.2835704, Lng : -123.1150206, Q1 : 0.999997675419, Q2 : -1.45266340041e-05, Q3 : 7.61009869166e-05, Q4 : -0.00214791973121}
2019-04-14 11:51:59.51: SIM {TimeUS : 53735164, Roll : 0.0, Pitch : 0.04, Yaw : 359.75, Alt : 48.9399986267, Lat : 49.2835704, Lng : -123.1150206, Q1 : 0.999997615814, Q2 : 6.59854704281e-05, Q3 : 0.000352838804247, Q4 : -0.00216617505066}
2019-04-14 11:51:59.61: SIM {TimeUS : 53835124, Roll : 0.03, Pitch : 0.05, Yaw : 359.74, Alt : 48.9799995422, Lat : 49.2835704, Lng : -123.1150206, Q1 : 0.999997496605, Q2 : 0.000302749162074, Q3 : 0.000462779280497, Q4 : -0.00218495796435}
2019-04-14 11:51:59.71: SIM {TimeUS : 53935084, Roll : 0.14, Pitch : -0.04, Yaw : 359.74, Alt : 49.0200004578, Lat : 49.2835704, Lng : -123.1150206, Q1 : 0.999996721745, Q2 : 0.00126762420405, Q3 : -0.000405292143114, Q4 : -0.00220649898984}
2019-04-14 11:51:59.81: SIM {TimeUS : 54035044, Roll : 0.4, Pitch : -0.31, Yaw : 359.74, Alt : 49.0499992371, Lat : 49.2835704, Lng : -123.1150206, Q1 : 0.999987363815, Q2 : 0.00356467580423, Q3 : -0.00275175669231, Q4 : -0.00222957110964}
2019-04-14 11:51:59.91: SIM {TimeUS : 54135004, Roll : 0.86, Pitch : -0.78, Yaw : 359.73, Alt : 49.0800018311, Lat : 49.2835706, Lng : -123.1150206, Q1 : 0.999945521355, Q2 : 0.00750711280853, Q3 : -0.00689365854487, Q4 : -0.00224980036728}
2019-04-14 11:52:00.01: SIM {TimeUS : 54234964, Roll : 1.49, Pitch : -1.41, Yaw : 359.72, Alt : 49.1100006104, Lat : 49.2835706, Lng : -123.1150205, Q1 : 0.999836206436, Q2 : 0.0129802683368, Q3 : -0.012411759235, Q4 : -0.00225107767619}
2019-04-14 11:52:00.11: SIM {TimeUS : 54334924, Roll : 2.23, Pitch : -2.12, Yaw : 359.7, Alt : 49.1300010681, Lat : 49.2835706, Lng : -123.1150205, Q1 : 0.999635577202, Q2 : 0.0194511078298, Q3 : -0.0185881387442, Q4 : -0.00221107690595}
2019-04-14 11:52:00.21: SIM {TimeUS : 54434884, Roll : 2.98, Pitch : -2.83, Yaw : 359.68, Alt : 49.1399993896, Lat : 49.2835707, Lng : -123.1150204, Q1 : 0.999353647232, Q2 : 0.0259562488645, Q3 : -0.0247791595757, Q4 : -0.00211955606937}
2019-04-14 11:52:00.31: SIM {TimeUS : 54534844, Roll : 3.62, Pitch : -3.42, Yaw : 359.66, Alt : 49.1599998474, Lat : 49.2835708, Lng : -123.1150202, Q1 : 0.999052762985, Q2 : 0.0314878299832, Q3 : -0.0299703795463, Q4 : -0.00196170038544}
2019-04-14 11:52:00.41: SIM {TimeUS : 54634804, Roll : 4.09, Pitch : -3.86, Yaw : 359.66, Alt : 49.1699981689, Lat : 49.2835709, Lng : -123.11502, Q1 : 0.998794436455, Q2 : 0.0355774089694, Q3 : -0.0337773226202, Q4 : -0.00174518337008}
2019-04-14 11:52:00.51: SIM {TimeUS : 54734764, Roll : 4.42, Pitch : -4.18, Yaw : 359.66, Alt : 49.1899986267, Lat : 49.283571, Lng : -123.1150197, Q1 : 0.998589158058, Q2 : 0.0384522639215, Q3 : -0.0365915745497, Q4 : -0.00149954680819}
2019-04-14 11:52:00.61: SIM {TimeUS : 54834724, Roll : 4.69, Pitch : -4.44, Yaw : 359.67, Alt : 49.2000007629, Lat : 49.2835714, Lng : -123.1150193, Q1 : 0.998411893845, Q2 : 0.0408008173108, Q3 : -0.0388266220689, Q4 : -0.001228320878}
2019-04-14 11:52:00.71: SIM {TimeUS : 54934684, Roll : 4.95, Pitch : -4.67, Yaw : 359.69, Alt : 49.2099990845, Lat : 49.2835716, Lng : -123.1150189, Q1 : 0.998235285282, Q2 : 0.0431149341166, Q3 : -0.0408236384392, Q4 : -0.000936624477617}
2019-04-14 11:52:00.81: SIM {TimeUS : 55034644, Roll : 5.22, Pitch : -4.89, Yaw : 359.7, Alt : 49.2099990845, Lat : 49.283572, Lng : -123.1150183, Q1 : 0.998048663139, Q2 : 0.0454600527883, Q3 : -0.0428000129759, Q4 : -0.000647707493044}
2019-04-14 11:52:00.91: SIM {TimeUS : 55134604, Roll : 5.5, Pitch : -5.14, Yaw : 359.7, Alt : 49.2200012207, Lat : 49.2835724, Lng : -123.1150175, Q1 : 0.997844159603, Q2 : 0.0478237345815, Q3 : -0.0449429191649, Q4 : -0.000372294714907}
2019-04-14 11:52:01.01: SIM {TimeUS : 55234564, Roll : 5.73, Pitch : -5.37, Yaw : 359.71, Alt : 49.2299995422, Lat : 49.2835728, Lng : -123.1150169, Q1 : 0.997654020786, Q2 : 0.0498292706907, Q3 : -0.0469406582415, Q4 : -0.000121817087347}
2019-04-14 11:52:01.11: SIM {TimeUS : 55334524, Roll : 5.9, Pitch : -5.54, Yaw : 359.72, Alt : 49.2299995422, Lat : 49.2835733, Lng : -123.1150161, Q1 : 0.997503638268, Q2 : 0.0513717122376, Q3 : -0.0484507232904, Q4 : 0.000110105269414}
2019-04-14 11:52:01.21: SIM {TimeUS : 55435317, Roll : 6.03, Pitch : -5.67, Yaw : 359.73, Alt : 49.2400016785, Lat : 49.2835739, Lng : -123.1150151, Q1 : 0.99739253521, Q2 : 0.0524727851152, Q3 : -0.0495440885425, Q4 : 0.000291126751108}
2019-04-14 11:52:01.31: SIM {TimeUS : 55535277, Roll : 6.12, Pitch : -5.77, Yaw : 359.73, Alt : 49.2400016785, Lat : 49.2835745, Lng : -123.1150142, Q1 : 0.997308492661, Q2 : 0.0532412789762, Q3 : -0.0504078604281, Q4 : 0.000408504798543}
2019-04-14 11:52:01.41: SIM {TimeUS : 55635237, Roll : 6.22, Pitch : -5.85, Yaw : 359.73, Alt : 49.25, Lat : 49.2835751, Lng : -123.1150131, Q1 : 0.997225880623, Q2 : 0.0540930852294, Q3 : -0.0511290282011, Q4 : 0.000497579341754}
2019-04-14 11:52:01.51: SIM {TimeUS : 55735197, Roll : 6.4, Pitch : -5.93, Yaw : 359.74, Alt : 49.25, Lat : 49.2835758, Lng : -123.115012, Q1 : 0.997100412846, Q2 : 0.0557126998901, Q3 : -0.0518305674195, Q4 : 0.000676303170621}
2019-04-14 11:52:01.61: SIM {TimeUS : 55835157, Roll : 6.82, Pitch : -5.9, Yaw : 359.99, Alt : 49.2599983215, Lat : 49.2835765, Lng : -123.1150108, Q1 : 0.996904432774, Q2 : 0.0594245009124, Q3 : -0.0513906590641, Q4 : 0.00305665843189}
2019-04-14 11:52:01.71: SIM {TimeUS : 55935117, Roll : 7.45, Pitch : -5.77, Yaw : 1.12, Alt : 49.2599983215, Lat : 49.2835774, Lng : -123.1150095, Q1 : 0.996537089348, Q2 : 0.0653969794512, Q3 : -0.0496733002365, Q4 : 0.0130237564445}
2019-04-14 11:52:01.81: SIM {TimeUS : 56035077, Roll : 8.04, Pitch : -5.86, Yaw : 3.69, Alt : 49.2599983215, Lat : 49.2835782, Lng : -123.1150081, Q1 : 0.99559545517, Q2 : 0.0716433301568, Q3 : -0.0487761646509, Q4 : 0.0357471816242}
2019-04-14 11:52:01.91: SIM {TimeUS : 56135037, Roll : 8.3, Pitch : -6.4, Yaw : 7.86, Alt : 49.2599983215, Lat : 49.2835791, Lng : -123.1150066, Q1 : 0.993193805218, Q2 : 0.0759645923972, Q3 : -0.0506031699479, Q4 : 0.0723518952727}
2019-04-14 11:52:02.01: SIM {TimeUS : 56234997, Roll : 8.03, Pitch : -7.39, Yaw : 13.47, Alt : 49.2599983215, Lat : 49.28358, Lng : -123.115005, Q1 : 0.988061010838, Q2 : 0.0770209282637, Q3 : -0.0556946247816, Q4 : 0.121248953044}
2019-04-14 11:52:02.11: SIM {TimeUS : 56334957, Roll : 7.12, Pitch : -8.7, Yaw : 20.27, Alt : 49.2700004578, Lat : 49.2835808, Lng : -123.1150033, Q1 : 0.978823065758, Q2 : 0.0743326321244, Q3 : -0.0636938214302, Q4 : 0.179786741734}
2019-04-14 11:52:02.21: SIM {TimeUS : 56434917, Roll : 5.56, Pitch : -10.12, Yaw : 28.01, Alt : 49.2700004578, Lat : 49.2835818, Lng : -123.1150014, Q1 : 0.96431183815, Q2 : 0.0682341009378, Q3 : -0.0738124921918, Q4 : 0.244945898652}
2019-04-14 11:52:02.31: SIM {TimeUS : 56534877, Roll : 3.24, Pitch : -11.43, Yaw : 36.33, Alt : 49.2700004578, Lat : 49.2835826, Lng : -123.1149995, Q1 : 0.944180190563, Q2 : 0.057789824903, Q3 : -0.0858283191919, Q4 : 0.312758177519}
2019-04-14 11:52:02.41: SIM {TimeUS : 56634837, Roll : 0.21, Pitch : -12.36, Yaw : 44.51, Alt : 49.2700004578, Lat : 49.2835837, Lng : -123.1149974, Q1 : 0.920040607452, Q2 : 0.0425068996847, Q3 : -0.0989614650607, Q4 : 0.376729369164}
2019-04-14 11:52:02.51: SIM {TimeUS : 56734797, Roll : -2.96, Pitch : -12.78, Yaw : 51.67, Alt : 49.2700004578, Lat : 49.2835848, Lng : -123.1149953, Q1 : 0.895406007767, Q2 : 0.0253484193236, Q3 : -0.111412756145, Q4 : 0.43034017086}
2019-04-14 11:52:02.61: SIM {TimeUS : 56834757, Roll : -5.64, Pitch : -12.8, Yaw : 57.11, Alt : 49.2700004578, Lat : 49.283586, Lng : -123.1149931, Q1 : 0.874441742897, Q2 : 0.0102783050388, Q3 : -0.121183909476, Q4 : 0.469638735056}
2019-04-14 11:52:02.71: SIM {TimeUS : 56934717, Roll : -7.35, Pitch : -12.62, Yaw : 60.53, Alt : 49.2700004578, Lat : 49.2835873, Lng : -123.1149909, Q1 : 0.860233366489, Q2 : 0.000283242290607, Q3 : -0.126925423741, Q4 : 0.493850558996}
2019-04-14 11:52:02.81: SIM {TimeUS : 57034677, Roll : -7.98, Pitch : -12.5, Yaw : 62.03, Alt : 49.2700004578, Lat : 49.2835885, Lng : -123.1149887, Q1 : 0.853735208511, Q2 : -0.00329292356037, Q3 : -0.128747060895, Q4 : 0.504529118538}
2019-04-14 11:52:02.91: SIM {TimeUS : 57134637, Roll : -7.65, Pitch : -12.59, Yaw : 61.93, Alt : 49.2700004578, Lat : 49.2835901, Lng : -123.1149864, Q1 : 0.854162037373, Q2 : -0.000539035361726, Q3 : -0.127985313535, Q4 : 0.504010677338}
2019-04-14 11:52:03.01: SIM {TimeUS : 57234597, Roll : -6.61, Pitch : -12.96, Yaw : 60.57, Alt : 49.2700004578, Lat : 49.2835916, Lng : -123.1149841, Q1 : 0.859854459763, Q2 : 0.00732608092949, Q3 : -0.126214280725, Q4 : 0.494637787342}
2019-04-14 11:52:03.11: SIM {TimeUS : 57334557, Roll : -5.1, Pitch : -13.54, Yaw : 58.3, Alt : 49.2700004578, Lat : 49.2835934, Lng : -123.1149818, Q1 : 0.868947863579, Q2 : 0.0187221877277, Q3 : -0.124426312745, Q4 : 0.47864100337}
2019-04-14 11:52:03.21: SIM {TimeUS : 57434517, Roll : -3.35, Pitch : -14.24, Yaw : 55.44, Alt : 49.2799987793, Lat : 49.2835951, Lng : -123.1149794, Q1 : 0.879708588123, Q2 : 0.0318966060877, Q3 : -0.123199619353, Q4 : 0.458167284727}
2019-04-14 11:52:03.31: SIM {TimeUS : 57535310, Roll : -1.53, Pitch : -14.91, Yaw : 52.27, Alt : 49.2799987793, Lat : 49.2835969, Lng : -123.1149768, Q1 : 0.890825510025, Q2 : 0.045269601047, Q3 : -0.122332900763, Q4 : 0.435218662024}
2019-04-14 11:52:03.41: SIM {TimeUS : 57635270, Roll : 0.17, Pitch : -15.41, Yaw : 49.17, Alt : 49.2799987793, Lat : 49.2835988, Lng : -123.1149743, Q1 : 0.901007115841, Q2 : 0.0571731552482, Q3 : -0.121352046728, Q4 : 0.412542283535}
2019-04-14 11:52:03.51: SIM {TimeUS : 57735230, Roll : 1.61, Pitch : -15.69, Yaw : 46.44, Alt : 49.2799987793, Lat : 49.2836006, Lng : -123.1149716, Q1 : 0.909508287907, Q2 : 0.0667007640004, Q3 : -0.119981251657, Q4 : 0.392364919186}
2019-04-14 11:52:03.61: SIM {TimeUS : 57835190, Roll : 2.69, Pitch : -15.78, Yaw : 44.32, Alt : 49.2799987793, Lat : 49.2836025, Lng : -123.1149688, Q1 : 0.915851831436, Q2 : 0.0733898580074, Q3 : -0.118371769786, Q4 : 0.376586645842}
2019-04-14 11:52:03.71: SIM {TimeUS : 57935150, Roll : 3.33, Pitch : -15.78, Yaw : 42.95, Alt : 49.2799987793, Lat : 49.2836044, Lng : -123.1149658, Q1 : 0.919881463051, Q2 : 0.0770940259099, Q3 : -0.117156460881, Q4 : 0.366263628006}
2019-04-14 11:52:03.81: SIM {TimeUS : 58035110, Roll : 3.51, Pitch : -15.75, Yaw : 42.35, Alt : 49.2799987793, Lat : 49.2836063, Lng : -123.1149628, Q1 : 0.921703696251, Q2 : 0.07785128057, Q3 : -0.116724289954, Q4 : 0.3616309762}
2019-04-14 11:52:03.91: SIM {TimeUS : 58135070, Roll : 3.28, Pitch : -15.75, Yaw : 42.45, Alt : 49.2799987793, Lat : 49.2836084, Lng : -123.1149596, Q1 : 0.921542882919, Q2 : 0.0760547071695, Q3 : -0.117419809103, Q4 : 0.362197428942}
2019-04-14 11:52:04.01: SIM {TimeUS : 58235030, Roll : 2.72, Pitch : -15.79, Yaw : 43.12, Alt : 49.2799987793, Lat : 49.2836103, Lng : -123.1149563, Q1 : 0.919726669788, Q2 : 0.0723635926843, Q3 : -0.119108520448, Q4 : 0.36698704958}
2019-04-14 11:52:04.11: SIM {TimeUS : 58334990, Roll : 1.96, Pitch : -15.88, Yaw : 44.19, Alt : 49.2799987793, Lat : 49.2836122, Lng : -123.1149529, Q1 : 0.916633188725, Q2 : 0.067712649703, Q3 : -0.121575318277, Q4 : 0.374724030495}
2019-04-14 11:52:04.21: SIM {TimeUS : 58434950, Roll : 1.1, Pitch : -15.99, Yaw : 45.47, Alt : 49.2799987793, Lat : 49.2836144, Lng : -123.1149495, Q1 : 0.912741839886, Q2 : 0.0626164451241, Q3 : -0.124638602138, Q4 : 0.383987903595}
2019-04-14 11:52:04.31: SIM {TimeUS : 58534910, Roll : 0.27, Pitch : -16.12, Yaw : 46.79, Alt : 49.2799987793, Lat : 49.2836164, Lng : -123.1149459, Q1 : 0.90854883194, Q2 : 0.0579309426248, Q3 : -0.127788305283, Q4 : 0.393513798714}
2019-04-14 11:52:04.41: SIM {TimeUS : 58634870, Roll : -0.41, Pitch : -16.22, Yaw : 48.0, Alt : 49.2799987793, Lat : 49.2836184, Lng : -123.1149424, Q1 : 0.904583275318, Q2 : 0.0541181713343, Q3 : -0.130409374833, Q4 : 0.402235925198}
2019-04-14 11:52:04.51: SIM {TimeUS : 58734830, Roll : -0.94, Pitch : -16.29, Yaw : 48.98, Alt : 49.2799987793, Lat : 49.2836207, Lng : -123.1149387, Q1 : 0.901277661324, Q2 : 0.0512847416103, Q3 : -0.132344856858, Q4 : 0.409332811832}
2019-04-14 11:52:04.61: SIM {TimeUS : 58834790, Roll : -1.3, Pitch : -16.34, Yaw : 49.67, Alt : 49.2799987793, Lat : 49.2836229, Lng : -123.114935, Q1 : 0.898898601532, Q2 : 0.0495124310255, Q3 : -0.133715674281, Q4 : 0.414306521416}
2019-04-14 11:52:04.71: SIM {TimeUS : 58934750, Roll : -1.45, Pitch : -16.39, Yaw : 50.04, Alt : 49.2799987793, Lat : 49.283625, Lng : -123.1149313, Q1 : 0.897563278675, Q2 : 0.0489052981138, Q3 : -0.134541869164, Q4 : 0.416997492313}
2019-04-14 11:52:04.81: SIM {TimeUS : 59034710, Roll : -1.43, Pitch : -16.45, Yaw : 50.11, Alt : 49.2900009155, Lat : 49.2836273, Lng : -123.1149276, Q1 : 0.897245645523, Q2 : 0.0494196526706, Q3 : -0.13489843905, Q4 : 0.417504936457}
2019-04-14 11:52:04.91: SIM {TimeUS : 59134670, Roll : -1.25, Pitch : -16.5, Yaw : 49.91, Alt : 49.2900009155, Lat : 49.2836296, Lng : -123.1149238, Q1 : 0.897836625576, Q2 : 0.050694797188, Q3 : -0.134691476822, Q4 : 0.41614612937}
2019-04-14 11:52:05.01: SIM {TimeUS : 59234630, Roll : -0.97, Pitch : -16.54, Yaw : 49.52, Alt : 49.2900009155, Lat : 49.2836318, Lng : -123.11492, Q1 : 0.899085342884, Q2 : 0.052602648735, Q3 : -0.134135976434, Q4 : 0.413383692503}
2019-04-14 11:52:05.11: SIM {TimeUS : 59334590, Roll : -0.62, Pitch : -16.57, Yaw : 49.01, Alt : 49.2900009155, Lat : 49.2836342, Lng : -123.114916, Q1 : 0.900718688965, Q2 : 0.054862331599, Q3 : -0.133445829153, Q4 : 0.409741640091}
2019-04-14 11:52:05.21: SIM {TimeUS : 59434550, Roll : -0.26, Pitch : -16.61, Yaw : 48.45, Alt : 49.2900009155, Lat : 49.2836366, Lng : -123.1149122, Q1 : 0.902482450008, Q2 : 0.0571851097047, Q3 : -0.132737115026, Q4 : 0.405753880739}
2019-04-14 11:52:05.31: SIM {TimeUS : 59534510, Roll : 0.07, Pitch : -16.65, Yaw : 47.92, Alt : 49.2900009155, Lat : 49.283639, Lng : -123.1149081, Q1 : 0.904156327248, Q2 : 0.0593731664121, Q3 : -0.132075354457, Q4 : 0.401910811663}
2019-04-14 11:52:05.41: SIM {TimeUS : 59635303, Roll : 0.36, Pitch : -16.69, Yaw : 47.45, Alt : 49.2900009155, Lat : 49.2836414, Lng : -123.1149042, Q1 : 0.905578792095, Q2 : 0.0612502917647, Q3 : -0.131616547704, Q4 : 0.398563116789}
2019-04-14 11:52:05.51: SIM {TimeUS : 59735263, Roll : 0.55, Pitch : -16.72, Yaw : 47.11, Alt : 49.2900009155, Lat : 49.2836439, Lng : -123.1149002, Q1 : 0.906641066074, Q2 : 0.0625231266022, Q3 : -0.131357342005, Q4 : 0.396027892828}
2019-04-14 11:52:05.61: SIM {TimeUS : 59835223, Roll : 0.66, Pitch : -16.75, Yaw : 46.89, Alt : 49.2900009155, Lat : 49.2836463, Lng : -123.1148961, Q1 : 0.907299160957, Q2 : 0.0632192194462, Q3 : -0.131352439523, Q4 : 0.394408524036}
2019-04-14 11:52:05.71: SIM {TimeUS : 59935183, Roll : 0.67, Pitch : -16.78, Yaw : 46.8, Alt : 49.2900009155, Lat : 49.2836487, Lng : -123.114892, Q1 : 0.907554209232, Q2 : 0.0633507370949, Q3 : -0.131648331881, Q4 : 0.393701404333}
2019-04-14 11:52:05.81: SIM {TimeUS : 60035143, Roll : 0.6, Pitch : -16.83, Yaw : 46.82, Alt : 49.2900009155, Lat : 49.2836512, Lng : -123.1148878, Q1 : 0.907454192638, Q2 : 0.0629593357444, Q3 : -0.132215082645, Q4 : 0.393804699183}
2019-04-14 11:52:05.91: SIM {TimeUS : 60135103, Roll : 0.45, Pitch : -16.87, Yaw : 46.94, Alt : 49.2900009155, Lat : 49.2836537, Lng : -123.1148836, Q1 : 0.907085418701, Q2 : 0.0620629712939, Q3 : -0.132982194424, Q4 : 0.394537717104}
2019-04-14 11:52:06.01: SIM {TimeUS : 60235063, Roll : 0.27, Pitch : -16.9, Yaw : 47.12, Alt : 49.2900009155, Lat : 49.2836562, Lng : -123.1148794, Q1 : 0.906545102596, Q2 : 0.060888260603, Q3 : -0.133758127689, Q4 : 0.395698547363}
2019-04-14 11:52:06.11: SIM {TimeUS : 60335023, Roll : 0.08, Pitch : -16.93, Yaw : 47.32, Alt : 49.2999992371, Lat : 49.2836588, Lng : -123.1148752, Q1 : 0.905903398991, Q2 : 0.0597833693027, Q3 : -0.134545370936, Q4 : 0.397067457438}
2019-04-14 11:52:06.21: SIM {TimeUS : 60434983, Roll : -0.05, Pitch : -16.97, Yaw : 47.52, Alt : 49.2999992371, Lat : 49.2836613, Lng : -123.1148709, Q1 : 0.905230760574, Q2 : 0.0590300709009, Q3 : -0.135291948915, Q4 : 0.398458063602}
2019-04-14 11:52:06.31: SIM {TimeUS : 60534943, Roll : -0.14, Pitch : -17.02, Yaw : 47.69, Alt : 49.2999992371, Lat : 49.2836639, Lng : -123.1148666, Q1 : 0.904614210129, Q2 : 0.0586791336536, Q3 : -0.13591645658, Q4 : 0.399695634842}
2019-04-14 11:52:06.41: SIM {TimeUS : 60634903, Roll : -0.19, Pitch : -17.07, Yaw : 47.82, Alt : 49.2999992371, Lat : 49.2836664, Lng : -123.1148623, Q1 : 0.904124259949, Q2 : 0.0586200654507, Q3 : -0.136397823691, Q4 : 0.400647848845}
2019-04-14 11:52:06.51: SIM {TimeUS : 60734863, Roll : -0.2, Pitch : -17.11, Yaw : 47.9, Alt : 49.2999992371, Lat : 49.2836689, Lng : -123.1148579, Q1 : 0.903801202774, Q2 : 0.0588216595352, Q3 : -0.13669885695, Q4 : 0.401244103909}
2019-04-14 11:52:06.61: SIM {TimeUS : 60834823, Roll : -0.19, Pitch : -17.14, Yaw : 47.93, Alt : 49.2999992371, Lat : 49.2836716, Lng : -123.1148535, Q1 : 0.903659284115, Q2 : 0.0590450391173, Q3 : -0.136909738183, Q4 : 0.401459038258}
2019-04-14 11:52:06.71: SIM {TimeUS : 60934783, Roll : -0.18, Pitch : -17.16, Yaw : 47.91, Alt : 49.2999992371, Lat : 49.2836742, Lng : -123.1148492, Q1 : 0.903705596924, Q2 : 0.0591445378959, Q3 : -0.137005269527, Q4 : 0.401307612658}
2019-04-14 11:52:06.81: SIM {TimeUS : 61034743, Roll : -0.16, Pitch : -17.17, Yaw : 47.85, Alt : 49.2999992371, Lat : 49.2836767, Lng : -123.1148448, Q1 : 0.90389508009, Q2 : 0.0592308826745, Q3 : -0.13704739511, Q4 : 0.400853395462}
2019-04-14 11:52:06.91: SIM {TimeUS : 61134703, Roll : -0.11, Pitch : -17.18, Yaw : 47.76, Alt : 49.2999992371, Lat : 49.2836793, Lng : -123.1148403, Q1 : 0.904169142246, Q2 : 0.0595360584557, Q3 : -0.137005239725, Q4 : 0.400203943253}
2019-04-14 11:52:07.01: SIM {TimeUS : 61234663, Roll : -0.05, Pitch : -17.19, Yaw : 47.66, Alt : 49.2999992371, Lat : 49.2836821, Lng : -123.1148359, Q1 : 0.904481589794, Q2 : 0.0600132681429, Q3 : -0.136957466602, Q4 : 0.399442225695}
2019-04-14 11:52:07.11: SIM {TimeUS : 61334623, Roll : 0.03, Pitch : -17.23, Yaw : 47.55, Alt : 49.3100013733, Lat : 49.2836846, Lng : -123.1148314, Q1 : 0.904777169228, Q2 : 0.0606994405389, Q3 : -0.137021675706, Q4 : 0.398646295071}
2019-04-14 11:52:07.21: SIM {TimeUS : 61434583, Roll : 0.11, Pitch : -17.29, Yaw : 47.44, Alt : 49.3100013733, Lat : 49.2836874, Lng : -123.114827, Q1 : 0.905034184456, Q2 : 0.0613946281374, Q3 : -0.137246415019, Q4 : 0.397878408432}
2019-04-14 11:52:07.31: SIM {TimeUS : 61534543, Roll : 0.16, Pitch : -17.32, Yaw : 47.35, Alt : 49.3100013733, Lat : 49.2836901, Lng : -123.1148225, Q1 : 0.905276536942, Q2 : 0.061818446964, Q3 : -0.13737167418, Q4 : 0.397217750549}
2019-04-14 11:52:07.41: SIM {TimeUS : 61634503, Roll : 0.2, Pitch : -17.32, Yaw : 47.28, Alt : 49.3100013733, Lat : 49.2836928, Lng : -123.114818, Q1 : 0.905492663383, Q2 : 0.0620114691556, Q3 : -0.137288555503, Q4 : 0.39672344923}
2019-04-14 11:52:07.51: SIM {TimeUS : 61735296, Roll : 0.21, Pitch : -17.33, Yaw : 47.24, Alt : 49.3100013733, Lat : 49.2836955, Lng : -123.1148134, Q1 : 0.905634403229, Q2 : 0.0620515532792, Q3 : -0.13733792305, Q4 : 0.396376371384}
2019-04-14 11:52:07.61: SIM {TimeUS : 61835256, Roll : 0.2, Pitch : -17.35, Yaw : 47.22, Alt : 49.3100013733, Lat : 49.2836981, Lng : -123.1148089, Q1 : 0.905690670013, Q2 : 0.0620295852423, Q3 : -0.137586325407, Q4 : 0.396165162325}
2019-04-14 11:52:07.71: SIM {TimeUS : 61935216, Roll : 0.19, Pitch : -17.38, Yaw : 47.21, Alt : 49.3100013733, Lat : 49.2837009, Lng : -123.1148043, Q1 : 0.905685424805, Q2 : 0.0620335638523, Q3 : -0.137836366892, Q4 : 0.396089524031}
2019-04-14 11:52:07.81: SIM {TimeUS : 62035176, Roll : 0.17, Pitch : -17.42, Yaw : 47.22, Alt : 49.3100013733, Lat : 49.2837035, Lng : -123.1147997, Q1 : 0.905625760555, Q2 : 0.0620360299945, Q3 : -0.138179838657, Q4 : 0.396105855703}
2019-04-14 11:52:07.91: SIM {TimeUS : 62135136, Roll : 0.15, Pitch : -17.44, Yaw : 47.23, Alt : 49.3100013733, Lat : 49.2837064, Lng : -123.1147951, Q1 : 0.905552685261, Q2 : 0.0619795769453, Q3 : -0.138426616788, Q4 : 0.396195590496}
2019-04-14 11:52:08.01: SIM {TimeUS : 62235096, Roll : 0.13, Pitch : -17.47, Yaw : 47.25, Alt : 49.3100013733, Lat : 49.283709, Lng : -123.1147905, Q1 : 0.905468523502, Q2 : 0.0619510225952, Q3 : -0.138675615191, Q4 : 0.396305382252}
2019-04-14 11:52:08.11: SIM {TimeUS : 62335056, Roll : 0.12, Pitch : -17.48, Yaw : 47.27, Alt : 49.3100013733, Lat : 49.2837118, Lng : -123.1147859, Q1 : 0.905398845673, Q2 : 0.0619357861578, Q3 : -0.138795047998, Q4 : 0.396425098181}
2019-04-14 11:52:08.21: SIM {TimeUS : 62435016, Roll : 0.12, Pitch : -17.49, Yaw : 47.28, Alt : 49.3100013733, Lat : 49.2837145, Lng : -123.1147813, Q1 : 0.905337452888, Q2 : 0.0620185248554, Q3 : -0.13888373971, Q4 : 0.39652132988}
2019-04-14 11:52:08.31: SIM {TimeUS : 62534976, Roll : 0.13, Pitch : -17.51, Yaw : 47.29, Alt : 49.3199996948, Lat : 49.2837173, Lng : -123.1147767, Q1 : 0.905286610126, Q2 : 0.0621426701546, Q3 : -0.139014825225, Q4 : 0.396571904421}
2019-04-14 11:52:08.41: SIM {TimeUS : 62634936, Roll : 0.12, Pitch : -17.55, Yaw : 47.29, Alt : 49.3199996948, Lat : 49.28372, Lng : -123.1147719, Q1 : 0.905249297619, Q2 : 0.0622141286731, Q3 : -0.139314651489, Q4 : 0.396540760994}
2019-04-14 11:52:08.51: SIM {TimeUS : 62734896, Roll : 0.1, Pitch : -17.59, Yaw : 47.28, Alt : 49.3199996948, Lat : 49.2837229, Lng : -123.1147673, Q1 : 0.905237138271, Q2 : 0.0621219798923, Q3 : -0.139742419124, Q4 : 0.39643239975}
2019-04-14 11:52:08.61: SIM {TimeUS : 62834856, Roll : 0.07, Pitch : -17.63, Yaw : 47.27, Alt : 49.3199996948, Lat : 49.2837255, Lng : -123.1147627, Q1 : 0.90524071455, Q2 : 0.062091704458, Q3 : -0.140166535974, Q4 : 0.396279215813}
2019-04-14 11:52:08.71: SIM {TimeUS : 62934816, Roll : 0.08, Pitch : -17.66, Yaw : 47.25, Alt : 49.3199996948, Lat : 49.2837284, Lng : -123.114758, Q1 : 0.905263900757, Q2 : 0.0622376091778, Q3 : -0.140405908227, Q4 : 0.396118581295}
2019-04-14 11:52:08.81: SIM {TimeUS : 63034776, Roll : 0.11, Pitch : -17.67, Yaw : 47.22, Alt : 49.3199996948, Lat : 49.2837312, Lng : -123.1147533, Q1 : 0.905321836472, Q2 : 0.0624783746898, Q3 : -0.140370041132, Q4 : 0.395960956812}
2019-04-14 11:52:08.91: SIM {TimeUS : 63134736, Roll : 0.15, Pitch : -17.66, Yaw : 47.2, Alt : 49.3199996948, Lat : 49.2837339, Lng : -123.1147486, Q1 : 0.905405938625, Q2 : 0.0626788139343, Q3 : -0.140180259943, Q4 : 0.395804107189}
2019-04-14 11:52:09.01: SIM {TimeUS : 63234696, Roll : 0.16, Pitch : -17.65, Yaw : 47.17, Alt : 49.3199996948, Lat : 49.2837368, Lng : -123.1147439, Q1 : 0.905499339104, Q2 : 0.0627311617136, Q3 : -0.140035971999, Q4 : 0.395633250475}
2019-04-14 11:52:09.11: SIM {TimeUS : 63334656, Roll : 0.17, Pitch : -17.63, Yaw : 47.15, Alt : 49.3199996948, Lat : 49.2837395, Lng : -123.1147391, Q1 : 0.905598521233, Q2 : 0.0626745596528, Q3 : -0.13993306458, Q4 : 0.39545160532}
2019-04-14 11:52:09.21: SIM {TimeUS : 63434616, Roll : 0.16, Pitch : -17.62, Yaw : 47.12, Alt : 49.3199996948, Lat : 49.2837424, Lng : -123.1147344, Q1 : 0.905700385571, Q2 : 0.0625548511744, Q3 : -0.139840483665, Q4 : 0.395270049572}
2019-04-14 11:52:09.31: SIM {TimeUS : 63534576, Roll : 0.15, Pitch : -17.63, Yaw : 47.1, Alt : 49.3199996948, Lat : 49.2837453, Lng : -123.1147297, Q1 : 0.90576338768, Q2 : 0.0624868534505, Q3 : -0.139985635877, Q4 : 0.395084947348}
2019-04-14 11:52:09.41: SIM {TimeUS : 63634536, Roll : 0.14, Pitch : -17.66, Yaw : 47.09, Alt : 49.3199996948, Lat : 49.283748, Lng : -123.1147249, Q1 : 0.905794024467, Q2 : 0.0625037327409, Q3 : -0.140267968178, Q4 : 0.394911944866}
2019-04-14 11:52:09.51: SIM {TimeUS : 63734496, Roll : 0.13, Pitch : -17.71, Yaw : 47.07, Alt : 49.3199996948, Lat : 49.2837509, Lng : -123.1147201, Q1 : 0.90579199791, Q2 : 0.0625251084566, Q3 : -0.140732735395, Q4 : 0.394747704268}
2019-04-14 11:52:09.61: SIM {TimeUS : 63835289, Roll : 0.12, Pitch : -17.77, Yaw : 47.06, Alt : 49.3199996948, Lat : 49.2837538, Lng : -123.1147153, Q1 : 0.90576082468, Q2 : 0.0627066493034, Q3 : -0.141229316592, Q4 : 0.39461311698}
2019-04-14 11:52:09.71: SIM {TimeUS : 63935249, Roll : 0.13, Pitch : -17.8, Yaw : 47.05, Alt : 49.3300018311, Lat : 49.2837565, Lng : -123.1147105, Q1 : 0.905755519867, Q2 : 0.0628693252802, Q3 : -0.141434982419, Q4 : 0.394525766373}
2019-04-14 11:52:09.81: SIM {TimeUS : 64035209, Roll : 0.14, Pitch : -17.83, Yaw : 47.04, Alt : 49.3300018311, Lat : 49.2837594, Lng : -123.1147058, Q1 : 0.905759394169, Q2 : 0.062954954803, Q3 : -0.141613975167, Q4 : 0.394438952208}
2019-04-14 11:52:09.91: SIM {TimeUS : 64135169, Roll : 0.13, Pitch : -17.84, Yaw : 47.03, Alt : 49.3300018311, Lat : 49.2837623, Lng : -123.114701, Q1 : 0.905781745911, Q2 : 0.0629560127854, Q3 : -0.141708388925, Q4 : 0.394353538752}
2019-04-14 11:52:10.01: SIM {TimeUS : 64235129, Roll : 0.14, Pitch : -17.83, Yaw : 47.02, Alt : 49.3300018311, Lat : 49.2837652, Lng : -123.1146962, Q1 : 0.905823528767, Q2 : 0.0629836693406, Q3 : -0.141600400209, Q4 : 0.394291996956}
2019-04-14 11:52:10.11: SIM {TimeUS : 64335089, Roll : 0.16, Pitch : -17.83, Yaw : 47.01, Alt : 49.3300018311, Lat : 49.283768, Lng : -123.1146914, Q1 : 0.905842125416, Q2 : 0.0631336048245, Q3 : -0.141606628895, Q4 : 0.394223034382}
2019-04-14 11:52:10.21: SIM {TimeUS : 64435049, Roll : 0.17, Pitch : -17.86, Yaw : 47.0, Alt : 49.3300018311, Lat : 49.2837709, Lng : -123.1146866, Q1 : 0.905847251415, Q2 : 0.0632659643888, Q3 : -0.141772180796, Q4 : 0.394130527973}
2019-04-14 11:52:10.31: SIM {TimeUS : 64535009, Roll : 0.17, Pitch : -17.88, Yaw : 46.98, Alt : 49.3300018311, Lat : 49.2837738, Lng : -123.1146817, Q1 : 0.905859053135, Q2 : 0.0633523836732, Q3 : -0.141918793321, Q4 : 0.394036740065}
2019-04-14 11:52:10.41: SIM {TimeUS : 64634969, Roll : 0.18, Pitch : -17.88, Yaw : 46.97, Alt : 49.3300018311, Lat : 49.2837767, Lng : -123.1146769, Q1 : 0.905898630619, Q2 : 0.0634183511138, Q3 : -0.14188143611, Q4 : 0.39394852519}
2019-04-14 11:52:10.51: SIM {TimeUS : 64734929, Roll : 0.18, Pitch : -17.88, Yaw : 46.96, Alt : 49.3300018311, Lat : 49.2837794, Lng : -123.1146721, Q1 : 0.905938625336, Q2 : 0.0634233653545, Q3 : -0.141922220588, Q4 : 0.393841028214}
2019-04-14 11:52:10.61: SIM {TimeUS : 64834889, Roll : 0.17, Pitch : -17.9, Yaw : 46.94, Alt : 49.3300018311, Lat : 49.2837824, Lng : -123.1146673, Q1 : 0.905973374844, Q2 : 0.0633578374982, Q3 : -0.142099350691, Q4 : 0.39370778203}
2019-04-14 11:52:10.71: SIM {TimeUS : 64934849, Roll : 0.14, Pitch : -17.94, Yaw : 46.93, Alt : 49.3300018311, Lat : 49.2837853, Lng : -123.1146624, Q1 : 0.905985891819, Q2 : 0.0632525533438, Q3 : -0.142523899674, Q4 : 0.393542408943}
2019-04-14 11:52:10.81: SIM {TimeUS : 65034809, Roll : 0.13, Pitch : -17.95, Yaw : 46.92, Alt : 49.3300018311, Lat : 49.2837881, Lng : -123.1146576, Q1 : 0.906023800373, Q2 : 0.0631646290421, Q3 : -0.142700180411, Q4 : 0.393405437469}
2019-04-14 11:52:10.91: SIM {TimeUS : 65134769, Roll : 0.13, Pitch : -17.95, Yaw : 46.9, Alt : 49.3300018311, Lat : 49.283791, Lng : -123.1146527, Q1 : 0.906068921089, Q2 : 0.0631909370422, Q3 : -0.142664328218, Q4 : 0.393310219049}
2019-04-14 11:52:11.01: SIM {TimeUS : 65234729, Roll : 0.15, Pitch : -17.94, Yaw : 46.89, Alt : 49.3300018311, Lat : 49.283794, Lng : -123.1146478, Q1 : 0.906109988689, Q2 : 0.0633140876889, Q3 : -0.142555356026, Q4 : 0.393235385418}
2019-04-14 11:52:11.11: SIM {TimeUS : 65334689, Roll : 0.16, Pitch : -17.95, Yaw : 46.88, Alt : 49.3300018311, Lat : 49.2837969, Lng : -123.114643, Q1 : 0.906138598919, Q2 : 0.0634035915136, Q3 : -0.142596751451, Q4 : 0.393139898777}
2019-04-14 11:52:11.21: SIM {TimeUS : 65434649, Roll : 0.15, Pitch : -17.97, Yaw : 46.86, Alt : 49.3400001526, Lat : 49.2837998, Lng : -123.1146381, Q1 : 0.906167447567, Q2 : 0.0633749216795, Q3 : -0.142758488655, Q4 : 0.393019348383}
2019-04-14 11:52:11.31: SIM {TimeUS : 65534609, Roll : 0.13, Pitch : -17.98, Yaw : 46.85, Alt : 49.3400001526, Lat : 49.2838026, Lng : -123.1146332, Q1 : 0.906197011471, Q2 : 0.0632590353489, Q3 : -0.142969563603, Q4 : 0.392893195152}
2019-04-14 11:52:11.41: SIM {TimeUS : 65634569, Roll : 0.12, Pitch : -18.0, Yaw : 46.84, Alt : 49.3400001526, Lat : 49.2838056, Lng : -123.1146284, Q1 : 0.906222462654, Q2 : 0.063199877739, Q3 : -0.143144845963, Q4 : 0.392780125141}
2019-04-14 11:52:11.51: SIM {TimeUS : 65734529, Roll : 0.13, Pitch : -18.02, Yaw : 46.83, Alt : 49.3400001526, Lat : 49.2838086, Lng : -123.1146235, Q1 : 0.906240224838, Q2 : 0.0632806643844, Q3 : -0.143271282315, Q4 : 0.392680048943}
2019-04-14 11:52:11.61: SIM {TimeUS : 65835322, Roll : 0.14, Pitch : -18.03, Yaw : 46.82, Alt : 49.3400001526, Lat : 49.2838115, Lng : -123.1146185, Q1 : 0.906255960464, Q2 : 0.0634012669325, Q3 : -0.143365576863, Q4 : 0.392589718103}
2019-04-14 11:52:11.71: SIM {TimeUS : 65935282, Roll : 0.16, Pitch : -18.04, Yaw : 46.81, Alt : 49.3400001526, Lat : 49.2838144, Lng : -123.1146137, Q1 : 0.906261444092, Q2 : 0.0636228919029, Q3 : -0.143388062716, Q4 : 0.392533034086}
2019-04-14 11:52:11.81: SIM {TimeUS : 66035242, Roll : 0.17, Pitch : -18.06, Yaw : 46.8, Alt : 49.3400001526, Lat : 49.2838173, Lng : -123.1146088, Q1 : 0.906267225742, Q2 : 0.0637383162975, Q3 : -0.143479600549, Q4 : 0.392467528582}
2019-04-14 11:52:11.91: SIM {TimeUS : 66135202, Roll : 0.18, Pitch : -18.08, Yaw : 46.79, Alt : 49.3400001526, Lat : 49.2838202, Lng : -123.1146039, Q1 : 0.906269669533, Q2 : 0.0638548880816, Q3 : -0.143588528037, Q4 : 0.392403066158}
2019-04-14 11:52:12.01: SIM {TimeUS : 66235162, Roll : 0.19, Pitch : -18.09, Yaw : 46.78, Alt : 49.3400001526, Lat : 49.2838232, Lng : -123.114599, Q1 : 0.906266331673, Q2 : 0.0640167742968, Q3 : -0.143680214882, Q4 : 0.392350912094}
2019-04-14 11:52:12.11: SIM {TimeUS : 66335122, Roll : 0.22, Pitch : -18.11, Yaw : 46.78, Alt : 49.3400001526, Lat : 49.2838262, Lng : -123.1145941, Q1 : 0.906255245209, Q2 : 0.0642940551043, Q3 : -0.143682301044, Q4 : 0.392330408096}
2019-04-14 11:52:12.21: SIM {TimeUS : 66435082, Roll : 0.26, Pitch : -18.12, Yaw : 46.77, Alt : 49.3400001526, Lat : 49.2838291, Lng : -123.1145892, Q1 : 0.906238377094, Q2 : 0.0645988807082, Q3 : -0.143677562475, Q4 : 0.392320990562}
2019-04-14 11:52:12.31: SIM {TimeUS : 66535042, Roll : 0.26, Pitch : -18.12, Yaw : 46.77, Alt : 49.3400001526, Lat : 49.2838319, Lng : -123.1145842, Q1 : 0.90625500679, Q2 : 0.0645873621106, Q3 : -0.143679201603, Q4 : 0.392283856869}
2019-04-14 11:52:12.41: SIM {TimeUS : 66635002, Roll : 0.23, Pitch : -18.13, Yaw : 46.76, Alt : 49.3400001526, Lat : 49.2838349, Lng : -123.1145793, Q1 : 0.906273424625, Q2 : 0.0643963366747, Q3 : -0.143842056394, Q4 : 0.392213076353}
2019-04-14 11:52:12.51: SIM {TimeUS : 66734962, Roll : 0.2, Pitch : -18.15, Yaw : 46.76, Alt : 49.3499984741, Lat : 49.2838378, Lng : -123.1145744, Q1 : 0.906274557114, Q2 : 0.0642334222794, Q3 : -0.14411483705, Q4 : 0.392136961222}
