2019-04-14 12:45:22.60: SIM {TimeUS : 40016487, Roll : 0.0, Pitch : 0.0, Yaw : 0.0, Alt : 30.1000003815, Lat : 49.28357, Lng : -123.11502, Q1 : 1.0, Q2 : 0.0, Q3 : 0.0, Q4 : 0.0}
2019-04-14 12:45:22.71: SIM {TimeUS : 40135606, Roll : 0.0, Pitch : 0.0, Yaw : 0.0, Alt : 30.1000003815, Lat : 49.28357, Lng : -123.11502, Q1 : 1.0, Q2 : 0.0, Q3 : 0.0, Q4 : 0.0}
2019-04-14 12:45:22.81: SIM {TimeUS : 40235566, Roll : 0.0, Pitch : 0.0, Yaw : 0.0, Alt : 30.1000003815, Lat : 49.28357, Lng : -123.11502, Q1 : 1.0, Q2 : 0.0, Q3 : 0.0, Q4 : 0.0}
2019-04-14 12:45:22.91: SIM {TimeUS : 40335526, Roll : 0.0, Pitch : 0.0, Yaw : 0.0, Alt : 30.1000003815, Lat : 49.28357, Lng : -123.11502, Q1 : 1.0, Q2 : 0.0, Q3 : 0.0, Q4 : 0.0}
2019-04-14 12:45:23.01: SIM {TimeUS : 40435486, Roll : 0.0, Pitch : 0.0, Yaw : 0.0, Alt : 30.1000003815, Lat : 49.28357, Lng : -123.11502, Q1 : 1.0, Q2 : 0.0, Q3 : 0.0, Q4 : 0.0}
2019-04-14 12:45:23.11: SIM {TimeUS : 40535446, Roll : 0.0, Pitch : 0.0, Yaw : 0.0, Alt : 30.1000003815, Lat : 49.28357, Lng : -123.11502, Q1 : 1.0, Q2 : 0.0, Q3 : 0.0, Q4 : 0.0}
2019-04-14 12:45:23.21: SIM {TimeUS : 40635406, Roll : 0.0, Pitch : 0.0, Yaw : 0.0, Alt : 30.1000003815, Lat : 49.28357, Lng : -123.11502, Q1 : 1.0, Q2 : 0.0, Q3 : 0.0, Q4 : 0.0}
2019-04-14 12:45:23.31: SIM {TimeUS : 40735366, Roll : 0.0, Pitch : 0.0, Yaw : 0.0, Alt : 30.1000003815, Lat : 49.28357, Lng : -123.11502, Q1 : 1.0, Q2 : 0.0, Q3 : 0.0, Q4 : 0.0}
2019-04-14 12:45:23.41: SIM {TimeUS : 40835326, Roll : 0.0, Pitch : 0.0, Yaw : 0.0, Alt : 30.1000003815, Lat : 49.28357, Lng : -123.11502, Q1 : 1.0, Q2 : 0.0, Q3 : 0.0, Q4 : 0.0}
2019-04-14 12:45:23.51: SIM {TimeUS : 40935286, Roll : 0.0, Pitch : 0.0, Yaw : 0.0, Alt : 30.1000003815, Lat : 49.28357, Lng : -123.11502, Q1 : 1.0, Q2 : 0.0, Q3 : 0.0, Q4 : 0.0}
2019-04-14 12:45:23.61: SIM {TimeUS : 41035246, Roll : 0.0, Pitch : 0.0, Yaw : 0.0, Alt : 30.1000003815, Lat : 49.28357, Lng : -123.11502, Q1 : 1.0, Q2 : 0.0, Q3 : 0.0, Q4 : 0.0}
2019-04-14 12:45:23.71: SIM {TimeUS : 41135206, Roll : 0.0, Pitch : 0.0, Yaw : 0.0, Alt : 30.1000003815, Lat : 49.28357, Lng : -123.11502, Q1 : 1.0, Q2 : 0.0, Q3 : 0.0, Q4 : 0.0}
2019-04-14 12:45:23.81: SIM {TimeUS : 41235166, Roll : 0.0, Pitch : 0.0, Yaw : 0.0, Alt : 30.1000003815, Lat : 49.28357, Lng : -123.11502, Q1 : 1.0, Q2 : 0.0, Q3 : 0.0, Q4 : 0.0}
2019-04-14 12:45:23.91: SIM {TimeUS : 41335126, Roll : 0.0, Pitch : 0.0, Yaw : 0.0, Alt : 30.1000003815, Lat : 49.28357, Lng : -123.11502, Q1 : 1.0, Q2 : 0.0, Q3 : 0.0, Q4 : 0.0}
2019-04-14 12:45:24.01: SIM {TimeUS : 41435086, Roll : 0.0, Pitch : 0.0, Yaw : 0.0, Alt : 30.1000003815, Lat : 49.28357, Lng : -123.11502, Q1 : 1.0, Q2 : 0.0, Q3 : 0.0, Q4 : 0.0}
2019-04-14 12:45:24.11: SIM {TimeUS : 41535046, Roll : 0.0, Pitch : 0.0, Yaw : 0.0, Alt : 30.1000003815, Lat : 49.28357, Lng : -123.11502, Q1 : 1.0, Q2 : 0.0, Q3 : 0.0, Q4 : 0.0}
2019-04-14 12:45:24.21: SIM {TimeUS : 41635006, Roll : 0.0, Pitch : 0.0, Yaw : 0.0, Alt : 30.1000003815, Lat : 49.28357, Lng : -123.11502, Q1 : 1.0, Q2 : 0.0, Q3 : 0.0, Q4 : 0.0}
2019-04-14 12:45:24.31: SIM {TimeUS : 41734966, Roll : 0.0, Pitch : 0.0, Yaw : 0.0, Alt : 30.1000003815, Lat : 49.28357, Lng : -123.11502, Q1 : 1.0, Q2 : 0.0, Q3 : 0.0, Q4 : 0.0}
2019-04-14 12:45:24.41: SIM {TimeUS : 41834926, Roll : 0.0, Pitch : 0.0, Yaw : 0.0, Alt : 30.1000003815, Lat : 49.28357, Lng : -123.11502, Q1 : 1.0, Q2 : 0.0, Q3 : 0.0, Q4 : 0.0}
2019-04-14 12:45:24.51: SIM {TimeUS : 41934886, Roll : 0.0, Pitch : 0.0, Yaw : 0.0, Alt : 30.1000003815, Lat : 49.28357, Lng : -123.11502, Q1 : 1.0, Q2 : 0.0, Q3 : 0.0, Q4 : 0.0}
2019-04-14 12:45:24.61: SIM {TimeUS : 42034846, Roll : 0.0, Pitch : 0.0, Yaw : 0.0, Alt : 30.1000003815, Lat : 49.28357, Lng : -123.11502, Q1 : 1.0, Q2 : 0.0, Q3 : 0.0, Q4 : 0.0}
2019-04-14 12:45:24.71: SIM {TimeUS : 42135639, Roll : 0.0, Pitch : 0.0, Yaw : 0.0, Alt : 30.1000003815, Lat : 49.28357, Lng : -123.11502, Q1 : 1.0, Q2 : 0.0, Q3 : 0.0, Q4 : 0.0}
2019-04-14 12:45:24.81: SIM {TimeUS : 42235599, Roll : 0.0, Pitch : 0.0, Yaw : 0.0, Alt : 30.1000003815, Lat : 49.28357, Lng : -123.11502, Q1 : 1.0, Q2 : 0.0, Q3 : 0.0, Q4 : 0.0}
2019-04-14 12:45:24.91: SIM {TimeUS : 42335559, Roll : 0.0, Pitch : 0.0, Yaw : 360.0, Alt : 30.1000003815, Lat : 49.28357, Lng : -123.11502, Q1 : 1.0, Q2 : 0.0, Q3 : 0.0, Q4 : -7.07429687746e-12}
2019-04-14 12:45:25.01: SIM {TimeUS : 42435519, Roll : 0.0, Pitch : 0.0, Yaw : 0.0, Alt : 30.1000003815, Lat : 49.28357, Lng : -123.11502, Q1 : 1.0, Q2 : 0.0, Q3 : 0.0, Q4 : 1.12069374614e-10}
2019-04-14 12:45:25.11: SIM {TimeUS : 42535479, Roll : 0.0, Pitch : 0.0, Yaw : 360.0, Alt : 30.1000003815, Lat : 49.28357, Lng : -123.11502, Q1 : 1.0, Q2 : 0.0, Q3 : 0.0, Q4 : -1.04528304234e-07}
2019-04-14 12:45:25.21: SIM {TimeUS : 42635439, Roll : 0.0, Pitch : 0.0, Yaw : 359.99, Alt : 30.1000003815, Lat : 49.28357, Lng : -123.11502, Q1 : 1.0, Q2 : 0.0, Q3 : 0.0, Q4 : -2.57873551845e-07}
2019-04-14 12:45:25.31: SIM {TimeUS : 42735399, Roll : 0.0, Pitch : 0.0, Yaw : 359.99, Alt : 30.1000003815, Lat : 49.28357, Lng : -123.11502, Q1 : 1.0, Q2 : 0.0, Q3 : 0.0, Q4 : -4.25642326718e-07}
2019-04-14 12:45:25.41: SIM {TimeUS : 42835359, Roll : 0.0, Pitch : 0.0, Yaw : 359.99, Alt : 30.1000003815, Lat : 49.28357, Lng : -123.11502, Q1 : 1.0, Q2 : 0.0, Q3 : 0.0, Q4 : -5.68487109831e-07}
2019-04-14 12:45:25.51: SIM {TimeUS : 42935319, Roll : 0.0, Pitch : 0.0, Yaw : 359.99, Alt : 30.1000003815, Lat : 49.28357, Lng : -123.11502, Q1 : 1.0, Q2 : 0.0, Q3 : 0.0, Q4 : -7.55398787078e-07}
2019-04-14 12:45:25.61: SIM {TimeUS : 43035279, Roll : 0.0, Pitch : 0.0, Yaw : 359.99, Alt : 30.1000003815, Lat : 49.28357, Lng : -123.11502, Q1 : 1.0, Q2 : 0.0, Q3 : 0.0, Q4 : -9.44758255628e-07}
2019-04-14 12:45:25.71: SIM {TimeUS : 43135239, Roll : 0.0, Pitch : 0.0, Yaw : 359.99, Alt : 30.1000003815, Lat : 49.28357, Lng : -123.11502, Q1 : 1.0, Q2 : 0.0, Q3 : 0.0, Q4 : -1.12956922749e-06}
2019-04-14 12:45:25.81: SIM {TimeUS : 43235199, Roll : 0.0, Pitch : 0.0, Yaw : 359.99, Alt : 30.1100006104, Lat : 49.28357, Lng : -123.11502, Q1 : 1.0, Q2 : 0.0, Q3 : 0.0, Q4 : -1.34657079798e-06}
2019-04-14 12:45:25.91: SIM {TimeUS : 43335159, Roll : 0.0, Pitch : 0.0, Yaw : 359.99, Alt : 30.1299991608, Lat : 49.28357, Lng : -123.11502, Q1 : 1.0, Q2 : 0.0, Q3 : 0.0, Q4 : -1.56269652507e-06}
2019-04-14 12:45:26.01: SIM {TimeUS : 43435119, Roll : 0.0, Pitch : 0.0, Yaw : 359.99, Alt : 30.1499996185, Lat : 49.28357, Lng : -123.11502, Q1 : 1.0, Q2 : 0.0, Q3 : 0.0, Q4 : -1.81438383606e-06}
2019-04-14 12:45:26.11: SIM {TimeUS : 43535079, Roll : 0.0, Pitch : 0.0, Yaw : 359.99, Alt : 30.1900005341, Lat : 49.28357, Lng : -123.11502, Q1 : 1.0, Q2 : 0.0, Q3 : 0.0, Q4 : -2.09413997254e-06}
2019-04-14 12:45:26.21: SIM {TimeUS : 43635039, Roll : -0.02, Pitch : -0.02, Yaw : 359.99, Alt : 30.2299995422, Lat : 49.28357, Lng : -123.11502, Q1 : 0.999999940395, Q2 : -0.00024396237859, Q3 : -0.00025378135615, Q4 : -3.59874593414e-06}
2019-04-14 12:45:26.31: SIM {TimeUS : 43734999, Roll : -0.27, Pitch : -0.27, Yaw : 359.99, Alt : 30.2999992371, Lat : 49.28357, Lng : -123.11502, Q1 : 0.999994397163, Q2 : -0.00236581149511, Q3 : -0.00238083791919, Q4 : -3.27682864736e-05}
2019-04-14 12:45:26.41: SIM {TimeUS : 43834959, Roll : -0.59, Pitch : -0.54, Yaw : 359.99, Alt : 30.4300003052, Lat : 49.28357, Lng : -123.11502, Q1 : 0.999975025654, Q2 : -0.00521044107154, Q3 : -0.00477370340377, Q4 : -9.27770961425e-05}
2019-04-14 12:45:26.51: SIM {TimeUS : 43934919, Roll : -0.82, Pitch : -0.68, Yaw : 359.98, Alt : 30.5900001526, Lat : 49.28357, Lng : -123.11502, Q1 : 0.999955952168, Q2 : -0.00721209077165, Q3 : -0.0060075270012, Q4 : -0.000169581253431}
2019-04-14 12:45:26.61: SIM {TimeUS : 44034879, Roll : -0.87, Pitch : -0.68, Yaw : 359.97, Alt : 30.75, Lat : 49.28357, Lng : -123.11502, Q1 : 0.999952614307, Q2 : -0.00765469344333, Q3 : -0.00600886764005, Q4 : -0.000250253156992}
2019-04-14 12:45:26.71: SIM {TimeUS : 44134839, Roll : -0.77, Pitch : -0.59, Yaw : 359.96, Alt : 30.8999996185, Lat : 49.28357, Lng : -123.1150201, Q1 : 0.99996393919, Q2 : -0.00674908421934, Q3 : -0.00514778820798, Q4 : -0.000323398271576}
2019-04-14 12:45:26.81: SIM {TimeUS : 44235632, Roll : -0.57, Pitch : -0.43, Yaw : 359.95, Alt : 31.0599994659, Lat : 49.2835701, Lng : -123.1150202, Q1 : 0.999979913235, Q2 : -0.00505703827366, Q3 : -0.00380029389635, Q4 : -0.000390453176806}
2019-04-14 12:45:26.91: SIM {TimeUS : 44335592, Roll : -0.35, Pitch : -0.26, Yaw : 359.94, Alt : 31.2199993134, Lat : 49.2835701, Lng : -123.1150202, Q1 : 0.99999243021, Q2 : -0.00307334121317, Q3 : -0.00234551401809, Q4 : -0.00044900472858}
2019-04-14 12:45:27.01: SIM {TimeUS : 44435552, Roll : -0.13, Pitch : -0.14, Yaw : 359.94, Alt : 31.3799991608, Lat : 49.2835702, Lng : -123.1150203, Q1 : 0.999998450279, Q2 : -0.00115229992662, Q3 : -0.00123976718169, Q4 : -0.000496605003718}
2019-04-14 12:45:27.11: SIM {TimeUS : 44535512, Roll : 0.01, Pitch : -0.04, Yaw : 359.93, Alt : 31.5499992371, Lat : 49.2835702, Lng : -123.1150204, Q1 : 0.999999761581, Q2 : 0.000160890122061, Q3 : -0.000430911197327, Q4 : -0.000534700287972}
2019-04-14 12:45:27.21: SIM {TimeUS : 44635472, Roll : 0.07, Pitch : 0.01, Yaw : 359.93, Alt : 31.7299995422, Lat : 49.2835703, Lng : -123.1150205, Q1 : 0.999999582767, Q2 : 0.000678496318869, Q3 : 0.000103189624497, Q4 : -0.000559695530683}
2019-04-14 12:45:27.31: SIM {TimeUS : 44735432, Roll : 0.07, Pitch : 0.03, Yaw : 359.93, Alt : 31.9099998474, Lat : 49.2835703, Lng : -123.1150206, Q1 : 0.999999582767, Q2 : 0.000681601406541, Q3 : 0.000340451224474, Q4 : -0.00056931655854}
2019-04-14 12:45:27.41: SIM {TimeUS : 44835392, Roll : 0.05, Pitch : 0.04, Yaw : 359.93, Alt : 32.0900001526, Lat : 49.2835703, Lng : -123.1150206, Q1 : 0.999999642372, Q2 : 0.000486201432068, Q3 : 0.000384396931622, Q4 : -0.000573616416659}
2019-04-14 12:45:27.51: SIM {TimeUS : 44935352, Roll : 0.04, Pitch : 0.04, Yaw : 359.93, Alt : 32.2799987793, Lat : 49.2835703, Lng : -123.1150207, Q1 : 0.999999701977, Q2 : 0.000380888872314, Q3 : 0.000387247710023, Q4 : -0.000572435848881}
2019-04-14 12:45:27.61: SIM {TimeUS : 45035312, Roll : 0.05, Pitch : 0.04, Yaw : 359.93, Alt : 32.4700012207, Lat : 49.2835703, Lng : -123.1150207, Q1 : 0.999999642372, Q2 : 0.000497650529724, Q3 : 0.000405162834795, Q4 : -0.000557047780603}
2019-04-14 12:45:27.71: SIM {TimeUS : 45135272, Roll : 0.09, Pitch : 0.05, Yaw : 359.93, Alt : 32.6699981689, Lat : 49.2835703, Lng : -123.1150208, Q1 : 0.999999344349, Q2 : 0.00085639138706, Q3 : 0.000493030122016, Q4 : -0.00052656698972}
2019-04-14 12:45:27.81: SIM {TimeUS : 45235232, Roll : 0.13, Pitch : 0.07, Yaw : 359.94, Alt : 32.8699989319, Lat : 49.2835704, Lng : -123.1150208, Q1 : 0.999998927116, Q2 : 0.00120200891979, Q3 : 0.000693071400747, Q4 : -0.000495136657264}
2019-04-14 12:45:27.91: SIM {TimeUS : 45335192, Roll : 0.16, Pitch : 0.1, Yaw : 359.94, Alt : 33.0699996948, Lat : 49.2835704, Lng : -123.1150208, Q1 : 0.999998509884, Q2 : 0.0014035316417, Q3 : 0.000919110781979, Q4 : -0.000471064879093}
2019-04-14 12:45:28.01: SIM {TimeUS : 45435152, Roll : 0.15, Pitch : 0.13, Yaw : 359.94, Alt : 33.2700004578, Lat : 49.2835704, Lng : -123.1150209, Q1 : 0.999998211861, Q2 : 0.00136301503517, Q3 : 0.00120954541489, Q4 : -0.000465993332909}
2019-04-14 12:45:28.11: SIM {TimeUS : 45535112, Roll : 0.16, Pitch : 0.17, Yaw : 359.94, Alt : 33.4700012207, Lat : 49.2835704, Lng : -123.1150209, Q1 : 0.999997735023, Q2 : 0.00140392163303, Q3 : 0.00150428141933, Q4 : -0.000480885180878}
2019-04-14 12:45:28.21: SIM {TimeUS : 45635072, Roll : 0.17, Pitch : 0.19, Yaw : 359.94, Alt : 33.6800003052, Lat : 49.2835704, Lng : -123.1150209, Q1 : 0.999997317791, Q2 : 0.00151159544475, Q3 : 0.00166864297353, Q4 : -0.000495465530548}
2019-04-14 12:45:28.31: SIM {TimeUS : 45735032, Roll : 0.17, Pitch : 0.19, Yaw : 359.94, Alt : 33.8899993896, Lat : 49.2835704, Lng : -123.1150209, Q1 : 0.999997198582, Q2 : 0.00156668270938, Q3 : 0.00171425926965, Q4 : -0.000508791941684}
2019-04-14 12:45:28.41: SIM {TimeUS : 45834992, Roll : 0.16, Pitch : 0.19, Yaw : 359.93, Alt : 34.0999984741, Lat : 49.2835706, Lng : -123.1150209, Q1 : 0.999997496605, Q2 : 0.00142523541581, Q3 : 0.00165863567963, Q4 : -0.0005274884752}
2019-04-14 12:45:28.51: SIM {TimeUS : 45934952, Roll : 0.14, Pitch : 0.14, Yaw : 359.93, Alt : 34.3100013733, Lat : 49.2835706, Lng : -123.1150209, Q1 : 0.999998271465, Q2 : 0.00124157569371, Q3 : 0.00128965068143, Q4 : -0.000544091686606}
2019-04-14 12:45:28.61: SIM {TimeUS : 46034912, Roll : 0.12, Pitch : 0.08, Yaw : 359.93, Alt : 34.5200004578, Lat : 49.2835706, Lng : -123.1150209, Q1 : 0.999999046326, Q2 : 0.00105331384111, Q3 : 0.00074350181967, Q4 : -0.000546641007531}
2019-04-14 12:45:28.71: SIM {TimeUS : 46134872, Roll : 0.09, Pitch : 0.04, Yaw : 359.93, Alt : 34.7299995422, Lat : 49.2835706, Lng : -123.1150209, Q1 : 0.999999403954, Q2 : 0.000856135797221, Q3 : 0.000372885086108, Q4 : -0.000560715096071}
2019-04-14 12:45:28.81: SIM {TimeUS : 46234832, Roll : 0.08, Pitch : 0.02, Yaw : 359.93, Alt : 34.9500007629, Lat : 49.2835706, Lng : -123.1150209, Q1 : 0.999999523163, Q2 : 0.000699849217199, Q3 : 0.000255377031863, Q4 : -0.000591801304836}
2019-04-14 12:45:28.91: SIM {TimeUS : 46335625, Roll : 0.07, Pitch : 0.04, Yaw : 359.92, Alt : 35.1699981689, Lat : 49.2835706, Lng : -123.1150209, Q1 : 0.999999523163, Q2 : 0.000691195600666, Q3 : 0.000365334039088, Q4 : -0.000634472526144}
2019-04-14 12:45:29.01: SIM {TimeUS : 46435585, Roll : 0.06, Pitch : 0.04, Yaw : 359.92, Alt : 35.3800010681, Lat : 49.2835706, Lng : -123.1150208, Q1 : 0.999999523163, Q2 : 0.000606429006439, Q3 : 0.000368187931599, Q4 : -0.000686048530042}
2019-04-14 12:45:29.11: SIM {TimeUS : 46535545, Roll : 0.04, Pitch : 0.04, Yaw : 359.91, Alt : 35.5999984741, Lat : 49.2835706, Lng : -123.1150208, Q1 : 0.999999582767, Q2 : 0.000422275392339, Q3 : 0.000380157027394, Q4 : -0.000730770931114}
2019-04-14 12:45:29.21: SIM {TimeUS : 46635505, Roll : 0.02, Pitch : 0.05, Yaw : 359.91, Alt : 35.8199996948, Lat : 49.2835706, Lng : -123.1150208, Q1 : 0.999999582767, Q2 : 0.000245022063609, Q3 : 0.00044167554006, Q4 : -0.000773823121563}
2019-04-14 12:45:29.31: SIM {TimeUS : 46735465, Roll : 0.01, Pitch : 0.06, Yaw : 359.9, Alt : 36.0400009155, Lat : 49.2835704, Lng : -123.1150208, Q1 : 0.999999463558, Q2 : 0.000129565902171, Q3 : 0.00060237722937, Q4 : -0.000815566978417}
2019-04-14 12:45:29.41: SIM {TimeUS : 46835425, Roll : 0.0, Pitch : 0.06, Yaw : 359.9, Alt : 36.2599983215, Lat : 49.2835704, Lng : -123.1150208, Q1 : 0.999999463558, Q2 : 1.73498174263e-05, Q3 : 0.00060353637673, Q4 : -0.000851759104989}
2019-04-14 12:45:29.51: SIM {TimeUS : 46935385, Roll : -0.01, Pitch : 0.05, Yaw : 359.89, Alt : 36.4799995422, Lat : 49.2835704, Lng : -123.1150208, Q1 : 0.999999463558, Q2 : -9.1818459623e-05, Q3 : 0.000478690752061, Q4 : -0.000886559137143}
2019-04-14 12:45:29.61: SIM {TimeUS : 47035345, Roll : -0.02, Pitch : 0.03, Yaw : 359.89, Alt : 36.7099990845, Lat : 49.2835704, Lng : -123.1150207, Q1 : 0.999999523163, Q2 : -0.000182665768079, Q3 : 0.000342302286299, Q4 : -0.000917294935789}
2019-04-14 12:45:29.71: SIM {TimeUS : 47135305, Roll : -0.02, Pitch : 0.02, Yaw : 359.89, Alt : 36.9300003052, Lat : 49.2835704, Lng : -123.1150207, Q1 : 0.999999523163, Q2 : -0.000203253133805, Q3 : 0.000201543036383, Q4 : -0.000942006940022}
2019-04-14 12:45:29.81: SIM {TimeUS : 47235265, Roll : 0.0, Pitch : 0.0, Yaw : 359.89, Alt : 37.1500015259, Lat : 49.2835704, Lng : -123.1150207, Q1 : 0.999999523163, Q2 : -4.96270840813e-05, Q3 : 3.58460129064e-05, Q4 : -0.000954020593781}
2019-04-14 12:45:29.91: SIM {TimeUS : 47335225, Roll : 0.0, Pitch : -0.02, Yaw : 359.89, Alt : 37.3800010681, Lat : 49.2835704, Lng : -123.1150207, Q1 : 0.999999523163, Q2 : -3.1651903555e-05, Q3 : -0.000188448961126, Q4 : -0.00095825153403}
2019-04-14 12:45:30.01: SIM {TimeUS : 47435185, Roll : -0.02, Pitch : -0.05, Yaw : 359.89, Alt : 37.5999984741, Lat : 49.2835704, Lng : -123.1150207, Q1 : 0.999999403954, Q2 : -0.000191879938939, Q3 : -0.000475093605928, Q4 : -0.000951389200054}
2019-04-14 12:45:30.11: SIM {TimeUS : 47535145, Roll : -0.05, Pitch : -0.07, Yaw : 359.89, Alt : 37.8300018311, Lat : 49.2835704, Lng : -123.1150207, Q1 : 0.999999165535, Q2 : -0.000500837224536, Q3 : -0.000686696614139, Q4 : -0.000950018875301}
2019-04-14 12:45:30.21: SIM {TimeUS : 47635105, Roll : -0.09, Pitch : -0.08, Yaw : 359.89, Alt : 38.0600013733, Lat : 49.2835704, Lng : -123.1150207, Q1 : 0.999998927116, Q2 : -0.000839580548927, Q3 : -0.000737066264264, Q4 : -0.000959150493145}
2019-04-14 12:45:30.31: SIM {TimeUS : 47735065, Roll : -0.12, Pitch : -0.08, Yaw : 359.88, Alt : 38.2799987793, Lat : 49.2835704, Lng : -123.1150207, Q1 : 0.999998688698, Q2 : -0.00107963755727, Q3 : -0.000735424051527, Q4 : -0.000968732405454}
2019-04-14 12:45:30.41: SIM {TimeUS : 47835025, Roll : -0.13, Pitch : -0.07, Yaw : 359.88, Alt : 38.5099983215, Lat : 49.2835704, Lng : -123.1150206, Q1 : 0.999998629093, Q2 : -0.00115883874241, Q3 : -0.000683196354657, Q4 : -0.000976418901701}
2019-04-14 12:45:30.51: SIM {TimeUS : 47934985, Roll : -0.11, Pitch : -0.06, Yaw : 359.88, Alt : 38.7400016785, Lat : 49.2835704, Lng : -123.1150206, Q1 : 0.999998867512, Q2 : -0.00102871842682, Q3 : -0.000523542868905, Q4 : -0.000992144341581}
2019-04-14 12:45:30.61: SIM {TimeUS : 48034945, Roll : -0.08, Pitch : -0.05, Yaw : 359.88, Alt : 38.9700012207, Lat : 49.2835704, Lng : -123.1150206, Q1 : 0.99999910593, Q2 : -0.000760988623369, Q3 : -0.000518020009622, Q4 : -0.0010087324772}
2019-04-14 12:45:30.71: SIM {TimeUS : 48134905, Roll : -0.06, Pitch : -0.06, Yaw : 359.88, Alt : 39.2000007629, Lat : 49.2835704, Lng : -123.1150206, Q1 : 0.999999165535, Q2 : -0.000574140576646, Q3 : -0.000547157542314, Q4 : -0.00103398400825}
2019-04-14 12:45:30.81: SIM {TimeUS : 48234865, Roll : -0.05, Pitch : -0.04, Yaw : 359.87, Alt : 39.4300003052, Lat : 49.2835704, Lng : -123.1150206, Q1 : 0.99999922514, Q2 : -0.000501953007188, Q3 : -0.00039549372741, Q4 : -0.00105367880315}
2019-04-14 12:45:30.91: SIM {TimeUS : 48334825, Roll : -0.07, Pitch : -0.01, Yaw : 359.87, Alt : 39.6599998474, Lat : 49.2835704, Lng : -123.1150206, Q1 : 0.99999922514, Q2 : -0.000644279003609, Q3 : -9.68034146354e-05, Q4 : -0.00107587384991}
2019-04-14 12:45:31.01: SIM {TimeUS : 48435618, Roll : -0.07, Pitch : 0.02, Yaw : 359.87, Alt : 39.8899993896, Lat : 49.2835704, Lng : -123.1150206, Q1 : 0.999999165535, Q2 : -0.000640497426502, Q3 : 0.000220771602471, Q4 : -0.00110487709753}
2019-04-14 12:45:31.11: SIM {TimeUS : 48535578, Roll : -0.05, Pitch : 0.06, Yaw : 359.86, Alt : 40.1199989319, Lat : 49.2835704, Lng : -123.1150206, Q1 : 0.99999910593, Q2 : -0.000462304713437, Q3 : 0.000545365328435, Q4 : -0.00114225351717}
2019-04-14 12:45:31.21: SIM {TimeUS : 48635538, Roll : -0.03, Pitch : 0.06, Yaw : 359.86, Alt : 40.3600006104, Lat : 49.2835704, Lng : -123.1150207, Q1 : 0.99999910593, Q2 : -0.000294124387437, Q3 : 0.000563572975807, Q4 : -0.00117125862744}
2019-04-14 12:45:31.31: SIM {TimeUS : 48735498, Roll : 0.0, Pitch : 0.06, Yaw : 359.86, Alt : 40.5900001526, Lat : 49.2835704, Lng : -123.1150207, Q1 : 0.999999165535, Q2 : -4.70798440801e-05, Q3 : 0.000526681833435, Q4 : -0.00119268370327}
2019-04-14 12:45:31.41: SIM {TimeUS : 48835458, Roll : 0.03, Pitch : 0.07, Yaw : 359.86, Alt : 40.8199996948, Lat : 49.2835704, Lng : -123.1150207, Q1 : 0.999999046326, Q2 : 0.000287469476461, Q3 : 0.000611886614934, Q4 : -0.00121359643526}
2019-04-14 12:45:31.51: SIM {TimeUS : 48935418, Roll : 0.07, Pitch : 0.09, Yaw : 359.85, Alt : 41.0499992371, Lat : 49.2835706, Lng : -123.1150207, Q1 : 0.999998688698, Q2 : 0.000676929601468, Q3 : 0.000833094178233, Q4 : -0.00124339200556}
2019-04-14 12:45:31.61: SIM {TimeUS : 49035378, Roll : 0.1, Pitch : 0.12, Yaw : 359.85, Alt : 41.2900009155, Lat : 49.2835706, Lng : -123.1150207, Q1 : 0.999998211861, Q2 : 0.000898563303053, Q3 : 0.00106089445762, Q4 : -0.00127442879602}
2019-04-14 12:45:31.71: SIM {TimeUS : 49135338, Roll : 0.08, Pitch : 0.13, Yaw : 359.85, Alt : 41.5200004578, Lat : 49.2835706, Lng : -123.1150207, Q1 : 0.999998152256, Q2 : 0.000766396464314, Q3 : 0.00121965201106, Q4 : -0.00128837977536}
2019-04-14 12:45:31.81: SIM {TimeUS : 49235298, Roll : 0.04, Pitch : 0.15, Yaw : 359.85, Alt : 41.75, Lat : 49.2835706, Lng : -123.1150207, Q1 : 0.999998211861, Q2 : 0.000351758208126, Q3 : 0.00131105096079, Q4 : -0.00129635934718}
2019-04-14 12:45:31.91: SIM {TimeUS : 49335258, Roll : 0.0, Pitch : 0.15, Yaw : 359.85, Alt : 41.9900016785, Lat : 49.2835706, Lng : -123.1150207, Q1 : 0.999998211861, Q2 : -4.45827390649e-05, Q3 : 0.00134516868275, Q4 : -0.00130689959042}
2019-04-14 12:45:32.01: SIM {TimeUS : 49435218, Roll : -0.02, Pitch : 0.12, Yaw : 359.84, Alt : 42.2200012207, Lat : 49.2835706, Lng : -123.1150207, Q1 : 0.999998509884, Q2 : -0.000176597881364, Q3 : 0.00111349392682, Q4 : -0.00131696998142}
2019-04-14 12:45:32.11: SIM {TimeUS : 49535178, Roll : -0.01, Pitch : 0.09, Yaw : 359.84, Alt : 42.4500007629, Lat : 49.2835706, Lng : -123.1150207, Q1 : 0.999998807907, Q2 : -0.000168641272467, Q3 : 0.000792239501607, Q4 : -0.00132784270681}
2019-04-14 12:45:32.21: SIM {TimeUS : 49635138, Roll : 0.0, Pitch : 0.09, Yaw : 359.84, Alt : 42.6899986267, Lat : 49.2835706, Lng : -123.1150207, Q1 : 0.999998807907, Q2 : -6.60852019791e-05, Q3 : 0.000789040874224, Q4 : -0.00134738022462}
2019-04-14 12:45:32.31: SIM {TimeUS : 49735098, Roll : 0.02, Pitch : 0.11, Yaw : 359.84, Alt : 42.9199981689, Lat : 49.2835706, Lng : -123.1150207, Q1 : 0.999998509884, Q2 : 0.000215581821976, Q3 : 0.000999011448584, Q4 : -0.00138345477171}
2019-04-14 12:45:32.41: SIM {TimeUS : 49835058, Roll : 0.07, Pitch : 0.14, Yaw : 359.83, Alt : 43.1599998474, Lat : 49.2835706, Lng : -123.1150207, Q1 : 0.999997973442, Q2 : 0.000676305557135, Q3 : 0.00123826810159, Q4 : -0.00141679798253}
2019-04-14 12:45:32.51: SIM {TimeUS : 49935018, Roll : 0.12, Pitch : 0.13, Yaw : 359.83, Alt : 43.3899993896, Lat : 49.2835704, Lng : -123.1150207, Q1 : 0.999997675419, Q2 : 0.0010493658483, Q3 : 0.00121287559159, Q4 : -0.0014479784295}
2019-04-14 12:45:32.61: SIM {TimeUS : 50034978, Roll : 0.12, Pitch : 0.11, Yaw : 359.83, Alt : 43.6300010681, Lat : 49.2835704, Lng : -123.1150207, Q1 : 0.999997794628, Q2 : 0.00108878116589, Q3 : 0.00103540532291, Q4 : -0.00147345312871}
2019-04-14 12:45:32.71: SIM {TimeUS : 50134938, Roll : 0.08, Pitch : 0.09, Yaw : 359.83, Alt : 43.8699989319, Lat : 49.2835704, Lng : -123.1150207, Q1 : 0.999998271465, Q2 : 0.000720694835763, Q3 : 0.000853733567055, Q4 : -0.00148377404548}
2019-04-14 12:45:32.81: SIM {TimeUS : 50234898, Roll : 0.02, Pitch : 0.08, Yaw : 359.82, Alt : 44.0999984741, Lat : 49.2835704, Lng : -123.1150207, Q1 : 0.999998629093, Q2 : 0.000189481273992, Q3 : 0.000742011528928, Q4 : -0.0014967386378}
2019-04-14 12:45:32.91: SIM {TimeUS : 50334858, Roll : -0.02, Pitch : 0.08, Yaw : 359.82, Alt : 44.3400001526, Lat : 49.2835704, Lng : -123.1150207, Q1 : 0.999998569489, Q2 : -0.000235538798734, Q3 : 0.000742443953641, Q4 : -0.00151591119356}
2019-04-14 12:45:33.01: SIM {TimeUS : 50434818, Roll : -0.05, Pitch : 0.07, Yaw : 359.82, Alt : 44.5699996948, Lat : 49.2835704, Lng : -123.1150206, Q1 : 0.999998509884, Q2 : -0.000469999416964, Q3 : 0.000663508137222, Q4 : -0.00153741450049}
2019-04-14 12:45:33.11: SIM {TimeUS : 50535611, Roll : -0.05, Pitch : 0.05, Yaw : 359.82, Alt : 44.8100013733, Lat : 49.2835704, Lng : -123.1150206, Q1 : 0.999998569489, Q2 : -0.00044954608893, Q3 : 0.000443926954176, Q4 : -0.00156486139167}
2019-04-14 12:45:33.21: SIM {TimeUS : 50635571, Roll : -0.05, Pitch : 0.02, Yaw : 359.81, Alt : 45.0499992371, Lat : 49.2835704, Lng : -123.1150206, Q1 : 0.999998569489, Q2 : -0.000439316907432, Q3 : 0.000239598884946, Q4 : -0.00160079053603}
2019-04-14 12:45:33.31: SIM {TimeUS : 50735531, Roll : -0.03, Pitch : 0.0, Yaw : 359.81, Alt : 45.2799987793, Lat : 49.2835704, Lng : -123.1150206, Q1 : 0.999998569489, Q2 : -0.000323208892951, Q3 : 7.88713805377e-05, Q4 : -0.00164142553695}
2019-04-14 12:45:33.41: SIM {TimeUS : 50835491, Roll : -0.01, Pitch : 0.0, Yaw : 359.8, Alt : 45.5200004578, Lat : 49.2835703, Lng : -123.1150206, Q1 : 0.999998569489, Q2 : -0.000134606860229, Q3 : -7.06977562004e-06, Q4 : -0.0016859312309}
2019-04-14 12:45:33.51: SIM {TimeUS : 50935451, Roll : 0.0, Pitch : 0.0, Yaw : 359.8, Alt : 45.75, Lat : 49.2835703, Lng : -123.1150206, Q1 : 0.999998509884, Q2 : -7.47380108805e-05, Q3 : -2.16890384763e-05, Q4 : -0.00173005508259}
2019-04-14 12:45:33.61: SIM {TimeUS : 51035411, Roll : -0.01, Pitch : 0.0, Yaw : 359.79, Alt : 45.9799995422, Lat : 49.2835703, Lng : -123.1150206, Q1 : 0.999998390675, Q2 : -0.000113699607027, Q3 : -6.41291480861e-05, Q4 : -0.00177363026887}
2019-04-14 12:45:33.71: SIM {TimeUS : 51135371, Roll : -0.02, Pitch : -0.02, Yaw : 359.79, Alt : 46.2099990845, Lat : 49.2835703, Lng : -123.1150206, Q1 : 0.99999833107, Q2 : -0.000180794770131, Q3 : -0.000226197356824, Q4 : -0.00181363406591}
2019-04-14 12:45:33.81: SIM {TimeUS : 51235331, Roll : -0.02, Pitch : -0.03, Yaw : 359.78, Alt : 46.4399986267, Lat : 49.2835703, Lng : -123.1150206, Q1 : 0.999998211861, Q2 : -0.000212079874473, Q3 : -0.000315250159474, Q4 : -0.00185015599709}
2019-04-14 12:45:33.91: SIM {TimeUS : 51335291, Roll : -0.01, Pitch : -0.03, Yaw : 359.78, Alt : 46.6599998474, Lat : 49.2835703, Lng : -123.1150206, Q1 : 0.999998152256, Q2 : -0.000158152281074, Q3 : -0.000332702096784, Q4 : -0.00188142328989}
2019-04-14 12:45:34.01: SIM {TimeUS : 51435251, Roll : -0.02, Pitch : -0.03, Yaw : 359.78, Alt : 46.8699989319, Lat : 49.2835703, Lng : -123.1150205, Q1 : 0.999998092651, Q2 : -0.000190512873814, Q3 : -0.000326686684275, Q4 : -0.00190624815878}
2019-04-14 12:45:34.11: SIM {TimeUS : 51535211, Roll : -0.04, Pitch : -0.03, Yaw : 359.77, Alt : 47.0800018311, Lat : 49.2835703, Lng : -123.1150205, Q1 : 0.999998033047, Q2 : -0.000403163634473, Q3 : -0.000261075358139, Q4 : -0.00192607182544}
2019-04-14 12:45:34.21: SIM {TimeUS : 51635171, Roll : -0.08, Pitch : -0.02, Yaw : 359.77, Alt : 47.2799987793, Lat : 49.2835703, Lng : -123.1150205, Q1 : 0.999997794628, Q2 : -0.000723221164662, Q3 : -0.000224445713684, Q4 : -0.00194215751253}
2019-04-14 12:45:34.31: SIM {TimeUS : 51735131, Roll : -0.1, Pitch : -0.02, Yaw : 359.77, Alt : 47.4700012207, Lat : 49.2835703, Lng : -123.1150205, Q1 : 0.999997615814, Q2 : -0.000920884311199, Q3 : -0.00023879892251, Q4 : -0.00195776787587}
2019-04-14 12:45:34.41: SIM {TimeUS : 51835091, Roll : -0.12, Pitch : -0.03, Yaw : 359.77, Alt : 47.6599998474, Lat : 49.2835703, Lng : -123.1150205, Q1 : 0.999997437, Q2 : -0.00109840836376, Q3 : -0.000284283742076, Q4 : -0.0019739123527}
2019-04-14 12:45:34.51: SIM {TimeUS : 51935051, Roll : -0.15, Pitch : -0.04, Yaw : 359.77, Alt : 47.8300018311, Lat : 49.2835703, Lng : -123.1150205, Q1 : 0.999997079372, Q2 : -0.00132276071236, Q3 : -0.000386042986065, Q4 : -0.00199423078448}
2019-04-14 12:45:34.61: SIM {TimeUS : 52035011, Roll : -0.15, Pitch : -0.05, Yaw : 359.76, Alt : 47.9900016785, Lat : 49.2835703, Lng : -123.1150205, Q1 : 0.999996900558, Q2 : -0.00137554120738, Q3 : -0.00045367050916, Q4 : -0.00201994297095}
2019-04-14 12:45:34.71: SIM {TimeUS : 52134971, Roll : -0.14, Pitch : -0.05, Yaw : 359.76, Alt : 48.1399993896, Lat : 49.2835703, Lng : -123.1150205, Q1 : 0.999996960163, Q2 : -0.00130420341156, Q3 : -0.000453138549346, Q4 : -0.00204943097197}
2019-04-14 12:45:34.81: SIM {TimeUS : 52234931, Roll : -0.13, Pitch : -0.05, Yaw : 359.76, Alt : 48.2700004578, Lat : 49.2835703, Lng : -123.1150205, Q1 : 0.999997019768, Q2 : -0.00119487533811, Q3 : -0.000453112530522, Q4 : -0.00207900023088}
2019-04-14 12:45:34.91: SIM {TimeUS : 52334891, Roll : -0.11, Pitch : -0.05, Yaw : 359.75, Alt : 48.4000015259, Lat : 49.2835703, Lng : -123.1150205, Q1 : 0.999997198582, Q2 : -0.000974868715275, Q3 : -0.000489271769766, Q4 : -0.00210795947351}
2019-04-14 12:45:35.01: SIM {TimeUS : 52434851, Roll : -0.07, Pitch : -0.06, Yaw : 359.75, Alt : 48.5099983215, Lat : 49.2835703, Lng : -123.1150205, Q1 : 0.999997377396, Q2 : -0.000636571610812, Q3 : -0.000529264914803, Q4 : -0.00213994318619}
2019-04-14 12:45:35.11: SIM {TimeUS : 52535644, Roll : -0.05, Pitch : -0.06, Yaw : 359.75, Alt : 48.6100006104, Lat : 49.2835703, Lng : -123.1150206, Q1 : 0.999997377396, Q2 : -0.000437858252553, Q3 : -0.000574779231101, Q4 : -0.00216706376523}
2019-04-14 12:45:35.21: SIM {TimeUS : 52635604, Roll : -0.04, Pitch : -0.07, Yaw : 359.74, Alt : 48.7000007629, Lat : 49.2835703, Lng : -123.1150206, Q1 : 0.999997317791, Q2 : -0.000396054034354, Q3 : -0.000654750852846, Q4 : -0.00218592933379}
2019-04-14 12:45:35.31: SIM {TimeUS : 52735564, Roll : -0.02, Pitch : -0.07, Yaw : 359.74, Alt : 48.7799987793, Lat : 49.2835703, Lng : -123.1150206, Q1 : 0.999997377396, Q2 : -0.000198315858142, Q3 : -0.000618840334937, Q4 : -0.00220063864253}
2019-04-14 12:45:35.41: SIM {TimeUS : 52835524, Roll : 0.0, Pitch : -0.05, Yaw : 359.74, Alt : 48.8400001526, Lat : 49.2835703, Lng : -123.1150206, Q1 : 0.999997437, Q2 : 8.16880856291e-05, Q3 : -0.000480544229504, Q4 : -0.00221501360647}
2019-04-14 12:45:35.51: SIM {TimeUS : 52935484, Roll : 0.03, Pitch : -0.03, Yaw : 359.74, Alt : 48.9000015259, Lat : 49.2835703, Lng : -123.1150206, Q1 : 0.999997377396, Q2 : 0.00034523679642, Q3 : -0.000326434907038, Q4 : -0.00223144493066}
2019-04-14 12:45:35.61: SIM {TimeUS : 53035444, Roll : 0.05, Pitch : -0.01, Yaw : 359.74, Alt : 48.9500007629, Lat : 49.2835703, Lng : -123.1150206, Q1 : 0.999997317791, Q2 : 0.000498808280099, Q3 : -0.000159706396516, Q4 : -0.00224992027506}
2019-04-14 12:45:35.71: SIM {TimeUS : 53135404, Roll : 0.07, Pitch : -0.01, Yaw : 359.73, Alt : 49.0, Lat : 49.2835703, Lng : -123.1150206, Q1 : 0.999997198582, Q2 : 0.000645615684334, Q3 : -0.000143146520713, Q4 : -0.00227449345402}
2019-04-14 12:45:35.81: SIM {TimeUS : 53235364, Roll : 0.15, Pitch : -0.1, Yaw : 359.73, Alt : 49.0299987793, Lat : 49.2835703, Lng : -123.1150206, Q1 : 0.999996006489, Q2 : 0.00134113326203, Q3 : -0.000945634848904, Q4 : -0.00230668392032}
2019-04-14 12:45:35.91: SIM {TimeUS : 53335324, Roll : 0.38, Pitch : -0.35, Yaw : 359.73, Alt : 49.0600013733, Lat : 49.2835703, Lng : -123.1150207, Q1 : 0.99998664856, Q2 : 0.00339542818256, Q3 : -0.00311047909781, Q4 : -0.00234126113355}
2019-04-14 12:45:36.01: SIM {TimeUS : 53435284, Roll : 0.83, Pitch : -0.78, Yaw : 359.72, Alt : 49.0900001526, Lat : 49.2835703, Lng : -123.1150207, Q1 : 0.999947607517, Q2 : 0.00725096603855, Q3 : -0.0068279216066, Q4 : -0.00237420573831}
2019-04-14 12:45:36.11: SIM {TimeUS : 53535244, Roll : 1.45, Pitch : -1.35, Yaw : 359.7, Alt : 49.1100006104, Lat : 49.2835704, Lng : -123.1150206, Q1 : 0.999846458435, Q2 : 0.0126454373822, Q3 : -0.0118933441117, Q4 : -0.00238509546034}
2019-04-14 12:45:36.21: SIM {TimeUS : 53635204, Roll : 2.19, Pitch : -2.03, Yaw : 359.69, Alt : 49.1300010681, Lat : 49.2835704, Lng : -123.1150206, Q1 : 0.999657392502, Q2 : 0.0190701521933, Q3 : -0.0177734680474, Q4 : -0.00235137576237}
2019-04-14 12:45:36.31: SIM {TimeUS : 53735164, Roll : 2.96, Pitch : -2.7, Yaw : 359.67, Alt : 49.1500015259, Lat : 49.2835706, Lng : -123.1150205, Q1 : 0.999384522438, Q2 : 0.0257888063788, Q3 : -0.0236735846847, Q4 : -0.00225674477406}
2019-04-14 12:45:36.41: SIM {TimeUS : 53835124, Roll : 3.63, Pitch : -3.28, Yaw : 359.65, Alt : 49.1699981689, Lat : 49.2835707, Lng : -123.1150203, Q1 : 0.99908298254, Q2 : 0.0316382758319, Q3 : -0.0287728309631, Q4 : -0.00209511024877}
2019-04-14 12:45:36.51: SIM {TimeUS : 53935084, Roll : 4.14, Pitch : -3.75, Yaw : 359.64, Alt : 49.1800003052, Lat : 49.2835708, Lng : -123.1150201, Q1 : 0.998807311058, Q2 : 0.0360413268209, Q3 : -0.0328848734498, Q4 : -0.00188115239143}
2019-04-14 12:45:36.61: SIM {TimeUS : 54035044, Roll : 4.49, Pitch : -4.1, Yaw : 359.65, Alt : 49.1899986267, Lat : 49.2835709, Lng : -123.1150199, Q1 : 0.998588085175, Q2 : 0.0390766486526, Q3 : -0.0359474793077, Q4 : -0.00162293692119}
2019-04-14 12:45:36.71: SIM {TimeUS : 54135004, Roll : 4.74, Pitch : -4.4, Yaw : 359.66, Alt : 49.2000007629, Lat : 49.2835713, Lng : -123.1150195, Q1 : 0.998404920101, Q2 : 0.0412914305925, Q3 : -0.0384825654328, Q4 : -0.00133539456874}
2019-04-14 12:45:36.81: SIM {TimeUS : 54234964, Roll : 4.99, Pitch : -4.66, Yaw : 359.67, Alt : 49.2099990845, Lat : 49.2835715, Lng : -123.115019, Q1 : 0.998224794865, Q2 : 0.0433850064874, Q3 : -0.0407916046679, Q4 : -0.00103426980786}
2019-04-14 12:45:36.91: SIM {TimeUS : 54334924, Roll : 5.24, Pitch : -4.92, Yaw : 359.68, Alt : 49.2200012207, Lat : 49.2835719, Lng : -123.1150185, Q1 : 0.998032391071, Q2 : 0.0456200875342, Q3 : -0.0430077016354, Q4 : -0.000736594432965}
2019-04-14 12:45:37.01: SIM {TimeUS : 54434884, Roll : 5.52, Pitch : -5.17, Yaw : 359.69, Alt : 49.2200012207, Lat : 49.2835722, Lng : -123.1150178, Q1 : 0.997820854187, Q2 : 0.0480077601969, Q3 : -0.0452608801425, Q4 : -0.000452623178717}
2019-04-14 12:45:37.11: SIM {TimeUS : 54534844, Roll : 5.77, Pitch : -5.41, Yaw : 359.7, Alt : 49.2299995422, Lat : 49.2835727, Lng : -123.1150171, Q1 : 0.997620165348, Q2 : 0.0501765012741, Q3 : -0.047288607806, Q4 : -0.000186396573554}
2019-04-14 12:45:37.21: SIM {TimeUS : 54635637, Roll : 5.95, Pitch : -5.58, Yaw : 359.71, Alt : 49.2400016785, Lat : 49.2835733, Lng : -123.1150163, Q1 : 0.997464179993, Q2 : 0.0518037416041, Q3 : -0.0488016344607, Q4 : 4.11184337281e-05}
2019-04-14 12:45:37.31: SIM {TimeUS : 54735597, Roll : 6.08, Pitch : -5.72, Yaw : 359.72, Alt : 49.2400016785, Lat : 49.2835738, Lng : -123.1150154, Q1 : 0.997351765633, Q2 : 0.0528573431075, Q3 : -0.0499550327659, Q4 : 0.000210903424886}
2019-04-14 12:45:37.41: SIM {TimeUS : 54835557, Roll : 6.17, Pitch : -5.82, Yaw : 359.72, Alt : 49.25, Lat : 49.2835744, Lng : -123.1150144, Q1 : 0.997263908386, Q2 : 0.0536639019847, Q3 : -0.0508408434689, Q4 : 0.000335863529472}
2019-04-14 12:45:37.51: SIM {TimeUS : 54935517, Roll : 6.28, Pitch : -5.91, Yaw : 359.72, Alt : 49.25, Lat : 49.2835751, Lng : -123.1150134, Q1 : 0.99717271328, Q2 : 0.0545891299844, Q3 : -0.0516379401088, Q4 : 0.000431169697549}
2019-04-14 12:45:37.61: SIM {TimeUS : 55035477, Roll : 6.43, Pitch : -5.97, Yaw : 359.73, Alt : 49.25, Lat : 49.2835757, Lng : -123.1150122, Q1 : 0.997067272663, Q2 : 0.0559677965939, Q3 : -0.0521923713386, Q4 : 0.000627657398582}
2019-04-14 12:45:37.71: SIM {TimeUS : 55135437, Roll : 6.82, Pitch : -5.92, Yaw : 0.0, Alt : 49.2599983215, Lat : 49.2835764, Lng : -123.115011, Q1 : 0.99689245224, Q2 : 0.0594458729029, Q3 : -0.0515936613083, Q4 : 0.0031179592479}
2019-04-14 12:45:37.81: SIM {TimeUS : 55235397, Roll : 7.42, Pitch : -5.8, Yaw : 1.15, Alt : 49.2599983215, Lat : 49.2835773, Lng : -123.1150096, Q1 : 0.996535897255, Q2 : 0.0651937201619, Q3 : -0.0498794019222, Q4 : 0.0133433463052}
2019-04-14 12:45:37.91: SIM {TimeUS : 55335357, Roll : 8.0, Pitch : -5.9, Yaw : 3.77, Alt : 49.2599983215, Lat : 49.2835781, Lng : -123.1150083, Q1 : 0.995578587055, Q2 : 0.071349568665, Q3 : -0.0490641221404, Q4 : 0.0364047549665}
2019-04-14 12:45:38.01: SIM {TimeUS : 55435317, Roll : 8.25, Pitch : -6.43, Yaw : 7.98, Alt : 49.2599983215, Lat : 49.2835788, Lng : -123.1150068, Q1 : 0.9931396842, Q2 : 0.0755860507488, Q3 : -0.0508047193289, Q4 : 0.0733434930444}
2019-04-14 12:45:38.11: SIM {TimeUS : 55535277, Roll : 7.96, Pitch : -7.39, Yaw : 13.62, Alt : 49.2599983215, Lat : 49.2835798, Lng : -123.1150052, Q1 : 0.987948954105, Q2 : 0.0764647945762, Q3 : -0.0556795187294, Q4 : 0.122514486313}
2019-04-14 12:45:38.21: SIM {TimeUS : 55635237, Roll : 7.04, Pitch : -8.67, Yaw : 20.45, Alt : 49.2599983215, Lat : 49.2835806, Lng : -123.1150035, Q1 : 0.978617727757, Q2 : 0.0736798867583, Q3 : -0.0634445771575, Q4 : 0.181255191565}
2019-04-14 12:45:38.31: SIM {TimeUS : 55735197, Roll : 5.49, Pitch : -10.07, Yaw : 28.2, Alt : 49.2700004578, Lat : 49.2835816, Lng : -123.1150016, Q1 : 0.963977694511, Q2 : 0.0676553025842, Q3 : -0.0734424889088, Q4 : 0.246527701616}
2019-04-14 12:45:38.41: SIM {TimeUS : 55835157, Roll : 3.17, Pitch : -11.35, Yaw : 36.52, Alt : 49.2700004578, Lat : 49.2835825, Lng : -123.1149997, Q1 : 0.943750441074, Q2 : 0.0571528635919, Q3 : -0.0853125825524, Q4 : 0.314309507608}
2019-04-14 12:45:38.51: SIM {TimeUS : 55935117, Roll : 0.13, Pitch : -12.26, Yaw : 44.68, Alt : 49.2700004578, Lat : 49.2835836, Lng : -123.1149976, Q1 : 0.919603943825, Q2 : 0.0416815392673, Q3 : -0.0983209088445, Q4 : 0.378053218126}
2019-04-14 12:45:38.61: SIM {TimeUS : 56035077, Roll : -3.04, Pitch : -12.64, Yaw : 51.79, Alt : 49.2700004578, Lat : 49.2835847, Lng : -123.1149955, Q1 : 0.895079374313, Q2 : 0.0243152733892, Q3 : -0.110566683114, Q4 : 0.431296527386}
2019-04-14 12:45:38.71: SIM {TimeUS : 56135037, Roll : -5.68, Pitch : -12.64, Yaw : 57.17, Alt : 49.2700004578, Lat : 49.2835858, Lng : -123.1149934, Q1 : 0.874292612076, Q2 : 0.00930476095527, Q3 : -0.120164401829, Q4 : 0.470198243856}
2019-04-14 12:45:38.81: SIM {TimeUS : 56234997, Roll : -7.35, Pitch : -12.5, Yaw : 60.54, Alt : 49.2700004578, Lat : 49.2835871, Lng : -123.1149912, Q1 : 0.860262751579, Q2 : -0.000263730617007, Q3 : -0.125962972641, Q4 : 0.49404579401}
2019-04-14 12:45:38.91: SIM {TimeUS : 56334957, Roll : -7.94, Pitch : -12.44, Yaw : 62.0, Alt : 49.2700004578, Lat : 49.2835885, Lng : -123.1149889, Q1 : 0.853912353516, Q2 : -0.00335711031221, Q3 : -0.128137141466, Q4 : 0.504384100437}
2019-04-14 12:45:39.01: SIM {TimeUS : 56434917, Roll : -7.6, Pitch : -12.59, Yaw : 61.86, Alt : 49.2700004578, Lat : 49.2835899, Lng : -123.1149867, Q1 : 0.854459702969, Q2 : -0.000283179018879, Q3 : -0.127788752317, Q4 : 0.503555953503}
2019-04-14 12:45:39.11: SIM {TimeUS : 56534877, Roll : -6.54, Pitch : -13.01, Yaw : 60.47, Alt : 49.2700004578, Lat : 49.2835915, Lng : -123.1149844, Q1 : 0.860221266747, Q2 : 0.00799441337585, Q3 : -0.126343533397, Q4 : 0.493956327438}
2019-04-14 12:45:39.21: SIM {TimeUS : 56634837, Roll : -5.01, Pitch : -13.64, Yaw : 58.19, Alt : 49.2700004578, Lat : 49.2835932, Lng : -123.1149821, Q1 : 0.869325757027, Q2 : 0.0197670981288, Q3 : -0.124776445329, Q4 : 0.477820903063}
2019-04-14 12:45:39.31: SIM {TimeUS : 56735630, Roll : -3.2, Pitch : -14.35, Yaw : 55.29, Alt : 49.2799987793, Lat : 49.283595, Lng : -123.1149797, Q1 : 0.880154728889, Q2 : 0.0333637110889, Q3 : -0.123506344855, Q4 : 0.457122206688}
2019-04-14 12:45:39.41: SIM {TimeUS : 56835590, Roll : -1.36, Pitch : -15.0, Yaw : 52.15, Alt : 49.2799987793, Lat : 49.2835966, Lng : -123.1149772, Q1 : 0.891134798527, Q2 : 0.0467928424478, Q3 : -0.122428096831, Q4 : 0.434396803379}
2019-04-14 12:45:39.51: SIM {TimeUS : 56935550, Roll : 0.34, Pitch : -15.46, Yaw : 49.07, Alt : 49.2799987793, Lat : 49.2835986, Lng : -123.1149746, Q1 : 0.901251018047, Q2 : 0.0586143806577, Q3 : -0.121182315052, Q4 : 0.411856651306}
2019-04-14 12:45:39.61: SIM {TimeUS : 57035510, Roll : 1.77, Pitch : -15.71, Yaw : 46.36, Alt : 49.2799987793, Lat : 49.2836004, Lng : -123.1149719, Q1 : 0.909665465355, Q2 : 0.0679391250014, Q3 : -0.119622439146, Q4 : 0.391897290945}
2019-04-14 12:45:39.71: SIM {TimeUS : 57135470, Roll : 2.8, Pitch : -15.78, Yaw : 44.28, Alt : 49.2799987793, Lat : 49.2836023, Lng : -123.1149691, Q1 : 0.915925383568, Q2 : 0.0742237940431, Q3 : -0.11796978116, Q4 : 0.376370459795}
2019-04-14 12:45:39.81: SIM {TimeUS : 57235430, Roll : 3.37, Pitch : -15.74, Yaw : 42.95, Alt : 49.2799987793, Lat : 49.2836043, Lng : -123.1149662, Q1 : 0.919906497002, Q2 : 0.0772955492139, Q3 : -0.116684496403, Q4 : 0.366308867931}
2019-04-14 12:45:39.91: SIM {TimeUS : 57335390, Roll : 3.49, Pitch : -15.68, Yaw : 42.39, Alt : 49.2799987793, Lat : 49.2836062, Lng : -123.1149631, Q1 : 0.921687602997, Q2 : 0.0774612128735, Q3 : -0.116247482598, Q4 : 0.361909270287}
2019-04-14 12:45:40.01: SIM {TimeUS : 57435350, Roll : 3.19, Pitch : -15.68, Yaw : 42.52, Alt : 49.2799987793, Lat : 49.2836081, Lng : -123.1149599, Q1 : 0.92147731781, Q2 : 0.0752088576555, Q3 : -0.117073580623, Q4 : 0.362652719021}
2019-04-14 12:45:40.11: SIM {TimeUS : 57535310, Roll : 2.6, Pitch : -15.74, Yaw : 43.21, Alt : 49.2799987793, Lat : 49.2836101, Lng : -123.1149566, Q1 : 0.919589042664, Q2 : 0.0713280811906, Q3 : -0.119046725333, Q4 : 0.367554366589}
2019-04-14 12:45:40.21: SIM {TimeUS : 57635270, Roll : 1.81, Pitch : -15.86, Yaw : 44.28, Alt : 49.2799987793, Lat : 49.2836121, Lng : -123.1149533, Q1 : 0.916439116001, Q2 : 0.0665278509259, Q3 : -0.121870733798, Q4 : 0.375314474106}
2019-04-14 12:45:40.31: SIM {TimeUS : 57735230, Roll : 0.96, Pitch : -15.99, Yaw : 45.56, Alt : 49.2900009155, Lat : 49.2836141, Lng : -123.1149498, Q1 : 0.912511706352, Q2 : 0.0615393146873, Q3 : -0.125072002411, Q4 : 0.384567707777}
2019-04-14 12:45:40.41: SIM {TimeUS : 57835190, Roll : 0.15, Pitch : -16.13, Yaw : 46.88, Alt : 49.2900009155, Lat : 49.2836162, Lng : -123.1149463, Q1 : 0.908321976662, Q2 : 0.0570648349822, Q3 : -0.128186836839, Q4 : 0.394034206867}
2019-04-14 12:45:40.51: SIM {TimeUS : 57935150, Roll : -0.51, Pitch : -16.25, Yaw : 48.07, Alt : 49.2900009155, Lat : 49.2836183, Lng : -123.1149427, Q1 : 0.904366195202, Q2 : 0.0534926578403, Q3 : -0.130972787738, Q4 : 0.402624517679}
2019-04-14 12:45:40.61: SIM {TimeUS : 58035110, Roll : -1.03, Pitch : -16.36, Yaw : 49.03, Alt : 49.2900009155, Lat : 49.2836203, Lng : -123.1149391, Q1 : 0.901082277298, Q2 : 0.0509320981801, Q3 : -0.133153855801, Q4 : 0.409544497728}
2019-04-14 12:45:40.71: SIM {TimeUS : 58135070, Roll : -1.36, Pitch : -16.43, Yaw : 49.69, Alt : 49.2900009155, Lat : 49.2836226, Lng : -123.1149354, Q1 : 0.898760974407, Q2 : 0.0493895187974, Q3 : -0.134642213583, Q4 : 0.414319753647}
2019-04-14 12:45:40.81: SIM {TimeUS : 58235030, Roll : -1.49, Pitch : -16.46, Yaw : 50.03, Alt : 49.2900009155, Lat : 49.2836248, Lng : -123.1149317, Q1 : 0.897542476654, Q2 : 0.04887002334, Q3 : -0.135202556849, Q4 : 0.416832715273}
2019-04-14 12:45:40.91: SIM {TimeUS : 58334990, Roll : -1.42, Pitch : -16.46, Yaw : 50.07, Alt : 49.2900009155, Lat : 49.283627, Lng : -123.1149279, Q1 : 0.897367179394, Q2 : 0.0494257993996, Q3 : -0.134956881404, Q4 : 0.417223989964}
2019-04-14 12:45:41.01: SIM {TimeUS : 58434950, Roll : -1.22, Pitch : -16.47, Yaw : 49.86, Alt : 49.2900009155, Lat : 49.2836293, Lng : -123.1149242, Q1 : 0.898054659367, Q2 : 0.0507574155927, Q3 : -0.134354040027, Q4 : 0.415777027607}
2019-04-14 12:45:41.11: SIM {TimeUS : 58534910, Roll : -0.91, Pitch : -16.49, Yaw : 49.46, Alt : 49.2900009155, Lat : 49.2836317, Lng : -123.1149203, Q1 : 0.899343430996, Q2 : 0.0528026595712, Q3 : -0.133595198393, Q4 : 0.412971645594}
2019-04-14 12:45:41.21: SIM {TimeUS : 58634870, Roll : -0.53, Pitch : -16.51, Yaw : 48.94, Alt : 49.2900009155, Lat : 49.283634, Lng : -123.1149165, Q1 : 0.900984168053, Q2 : 0.055285114795, Q3 : -0.132669046521, Q4 : 0.409353226423}
2019-04-14 12:45:41.31: SIM {TimeUS : 58734830, Roll : -0.16, Pitch : -16.54, Yaw : 48.39, Alt : 49.2900009155, Lat : 49.2836364, Lng : -123.1149126, Q1 : 0.90273463726, Q2 : 0.0576984770596, Q3 : -0.131834924221, Q4 : 0.405414223671}
2019-04-14 12:45:41.41: SIM {TimeUS : 58835623, Roll : 0.15, Pitch : -16.59, Yaw : 47.86, Alt : 49.2900009155, Lat : 49.2836388, Lng : -123.1149086, Q1 : 0.90437912941, Q2 : 0.0597756914794, Q3 : -0.131378427148, Q4 : 0.40157815814}
2019-04-14 12:45:41.51: SIM {TimeUS : 58935583, Roll : 0.38, Pitch : -16.65, Yaw : 47.41, Alt : 49.2900009155, Lat : 49.2836413, Lng : -123.1149046, Q1 : 0.905740916729, Q2 : 0.061319835484, Q3 : -0.131262972951, Q4 : 0.398300558329}
2019-04-14 12:45:41.61: SIM {TimeUS : 59035543, Roll : 0.54, Pitch : -16.72, Yaw : 47.08, Alt : 49.2900009155, Lat : 49.2836437, Lng : -123.1149005, Q1 : 0.906730532646, Q2 : 0.0623704940081, Q3 : -0.131466165185, Q4 : 0.395810991526}
2019-04-14 12:45:41.71: SIM {TimeUS : 59135503, Roll : 0.6, Pitch : -16.77, Yaw : 46.88, Alt : 49.2900009155, Lat : 49.2836461, Lng : -123.1148965, Q1 : 0.907337963581, Q2 : 0.0628117099404, Q3 : -0.131760880351, Q4 : 0.394248098135}
2019-04-14 12:45:41.81: SIM {TimeUS : 59235463, Roll : 0.59, Pitch : -16.81, Yaw : 46.8, Alt : 49.2900009155, Lat : 49.2836486, Lng : -123.1148923, Q1 : 0.907554030418, Q2 : 0.0628272369504, Q3 : -0.132161408663, Q4 : 0.393613785505}
2019-04-14 12:45:41.91: SIM {TimeUS : 59335423, Roll : 0.53, Pitch : -16.85, Yaw : 46.83, Alt : 49.2900009155, Lat : 49.2836511, Lng : -123.1148882, Q1 : 0.907427489758, Q2 : 0.0625215023756, Q3 : -0.132638141513, Q4 : 0.393793731928}
2019-04-14 12:45:42.01: SIM {TimeUS : 59435383, Roll : 0.43, Pitch : -16.89, Yaw : 46.95, Alt : 49.2900009155, Lat : 49.2836535, Lng : -123.114884, Q1 : 0.907026946545, Q2 : 0.0619618631899, Q3 : -0.133216232061, Q4 : 0.394609063864}
2019-04-14 12:45:42.11: SIM {TimeUS : 59535343, Roll : 0.31, Pitch : -16.91, Yaw : 47.13, Alt : 49.2900009155, Lat : 49.283656, Lng : -123.1148798, Q1 : 0.906448543072, Q2 : 0.0613042227924, Q3 : -0.133757948875, Q4 : 0.395855605602}
2019-04-14 12:45:42.21: SIM {TimeUS : 59635303, Roll : 0.18, Pitch : -16.95, Yaw : 47.33, Alt : 49.2900009155, Lat : 49.2836585, Lng : -123.1148756, Q1 : 0.905779540539, Q2 : 0.0606287568808, Q3 : -0.134344235063, Q4 : 0.397289901972}
2019-04-14 12:45:42.31: SIM {TimeUS : 59735263, Roll : 0.05, Pitch : -16.97, Yaw : 47.53, Alt : 49.2900009155, Lat : 49.283661, Lng : -123.1148713, Q1 : 0.905125796795, Q2 : 0.0599449574947, Q3 : -0.134865492582, Q4 : 0.398704469204}
2019-04-14 12:45:42.41: SIM {TimeUS : 59835223, Roll : -0.05, Pitch : -16.99, Yaw : 47.71, Alt : 49.2999992371, Lat : 49.2836635, Lng : -123.114867, Q1 : 0.904553890228, Q2 : 0.0593622401357, Q3 : -0.135354027152, Q4 : 0.399922043085}
2019-04-14 12:45:42.51: SIM {TimeUS : 59935183, Roll : -0.13, Pitch : -17.03, Yaw : 47.84, Alt : 49.2999992371, Lat : 49.2836662, Lng : -123.1148627, Q1 : 0.904105067253, Q2 : 0.0589413233101, Q3 : -0.135850533843, Q4 : 0.40082988143}
2019-04-14 12:45:42.61: SIM {TimeUS : 60035143, Roll : -0.18, Pitch : -17.08, Yaw : 47.92, Alt : 49.2999992371, Lat : 49.2836688, Lng : -123.1148583, Q1 : 0.903789699078, Q2 : 0.0588296316564, Q3 : -0.136370569468, Q4 : 0.40138053894}
2019-04-14 12:45:42.71: SIM {TimeUS : 60135103, Roll : -0.21, Pitch : -17.11, Yaw : 47.95, Alt : 49.2999992371, Lat : 49.2836713, Lng : -123.1148539, Q1 : 0.903660416603, Q2 : 0.0587440654635, Q3 : -0.136730015278, Q4 : 0.401561886072}
2019-04-14 12:45:42.81: SIM {TimeUS : 60235063, Roll : -0.22, Pitch : -17.13, Yaw : 47.93, Alt : 49.2999992371, Lat : 49.283674, Lng : -123.1148495, Q1 : 0.903708159924, Q2 : 0.0587028600276, Q3 : -0.136893585324, Q4 : 0.401404738426}
2019-04-14 12:45:42.91: SIM {TimeUS : 60335023, Roll : -0.21, Pitch : -17.14, Yaw : 47.87, Alt : 49.2999992371, Lat : 49.2836766, Lng : -123.1148451, Q1 : 0.903889238834, Q2 : 0.0587937161326, Q3 : -0.136954262853, Q4 : 0.400962650776}
2019-04-14 12:45:43.01: SIM {TimeUS : 60434983, Roll : -0.16, Pitch : -17.16, Yaw : 47.78, Alt : 49.2999992371, Lat : 49.2836791, Lng : -123.1148406, Q1 : 0.90414172411, Q2 : 0.0591220371425, Q3 : -0.137050524354, Q4 : 0.40031182766}
2019-04-14 12:45:43.11: SIM {TimeUS : 60534943, Roll : -0.1, Pitch : -17.2, Yaw : 47.68, Alt : 49.2999992371, Lat : 49.2836817, Lng : -123.1148363, Q1 : 0.904423475266, Q2 : 0.0596369728446, Q3 : -0.137207329273, Q4 : 0.399544537067}
2019-04-14 12:45:43.21: SIM {TimeUS : 60634903, Roll : -0.02, Pitch : -17.25, Yaw : 47.57, Alt : 49.2999992371, Lat : 49.2836845, Lng : -123.1148318, Q1 : 0.904704988003, Q2 : 0.0603425130248, Q3 : -0.137342602015, Q4 : 0.398753941059}
2019-04-14 12:45:43.31: SIM {TimeUS : 60734863, Roll : 0.07, Pitch : -17.3, Yaw : 47.46, Alt : 49.3100013733, Lat : 49.2836871, Lng : -123.1148272, Q1 : 0.90495800972, Q2 : 0.0611609742045, Q3 : -0.137459859252, Q4 : 0.398013949394}
2019-04-14 12:45:43.41: SIM {TimeUS : 60834823, Roll : 0.14, Pitch : -17.34, Yaw : 47.37, Alt : 49.3100013733, Lat : 49.2836898, Lng : -123.1148228, Q1 : 0.905191838741, Q2 : 0.0617380701005, Q3 : -0.13755813241, Q4 : 0.397358685732}
2019-04-14 12:45:43.51: SIM {TimeUS : 60935616, Roll : 0.17, Pitch : -17.35, Yaw : 47.3, Alt : 49.3100013733, Lat : 49.2836925, Lng : -123.1148183, Q1 : 0.905410766602, Q2 : 0.0619119480252, Q3 : -0.137603342533, Q4 : 0.396816819906}
2019-04-14 12:45:43.61: SIM {TimeUS : 61035576, Roll : 0.16, Pitch : -17.35, Yaw : 47.25, Alt : 49.3100013733, Lat : 49.2836951, Lng : -123.1148138, Q1 : 0.905585050583, Q2 : 0.0618018954992, Q3 : -0.137638956308, Q4 : 0.396423757076}
2019-04-14 12:45:43.71: SIM {TimeUS : 61135536, Roll : 0.17, Pitch : -17.35, Yaw : 47.23, Alt : 49.3100013733, Lat : 49.2836979, Lng : -123.1148092, Q1 : 0.905680954456, Q2 : 0.061780910939, Q3 : -0.137617081404, Q4 : 0.396215438843}
2019-04-14 12:45:43.81: SIM {TimeUS : 61235496, Roll : 0.17, Pitch : -17.35, Yaw : 47.22, Alt : 49.3100013733, Lat : 49.2837005, Lng : -123.1148047, Q1 : 0.905701160431, Q2 : 0.0617931559682, Q3 : -0.137685015798, Q4 : 0.396143823862}
2019-04-14 12:45:43.91: SIM {TimeUS : 61335456, Roll : 0.18, Pitch : -17.39, Yaw : 47.22, Alt : 49.3100013733, Lat : 49.2837034, Lng : -123.1148001, Q1 : 0.905638158321, Q2 : 0.0620034709573, Q3 : -0.137915194035, Q4 : 0.396174907684}
2019-04-14 12:45:44.01: SIM {TimeUS : 61435416, Roll : 0.18, Pitch : -17.44, Yaw : 47.24, Alt : 49.3100013733, Lat : 49.283706, Lng : -123.1147955, Q1 : 0.905525445938, Q2 : 0.0622186511755, Q3 : -0.138319969177, Q4 : 0.396257638931}
2019-04-14 12:45:44.11: SIM {TimeUS : 61535376, Roll : 0.16, Pitch : -17.47, Yaw : 47.25, Alt : 49.3100013733, Lat : 49.2837088, Lng : -123.1147909, Q1 : 0.90542781353, Q2 : 0.0622366257012, Q3 : -0.138628065586, Q4 : 0.396370202303}
2019-04-14 12:45:44.21: SIM {TimeUS : 61635336, Roll : 0.15, Pitch : -17.49, Yaw : 47.27, Alt : 49.3100013733, Lat : 49.2837115, Lng : -123.1147863, Q1 : 0.905356407166, Q2 : 0.062155239284, Q3 : -0.138770878315, Q4 : 0.39649617672}
2019-04-14 12:45:44.31: SIM {TimeUS : 61735296, Roll : 0.11, Pitch : -17.5, Yaw : 47.29, Alt : 49.3100013733, Lat : 49.2837143, Lng : -123.1147817, Q1 : 0.90531039238, Q2 : 0.0619549974799, Q3 : -0.13896869123, Q4 : 0.396563231945}
2019-04-14 12:45:44.41: SIM {TimeUS : 61835256, Roll : 0.08, Pitch : -17.53, Yaw : 47.3, Alt : 49.3199996948, Lat : 49.283717, Lng : -123.114777, Q1 : 0.905266344547, Q2 : 0.0617709085345, Q3 : -0.139321193099, Q4 : 0.396568864584}
2019-04-14 12:45:44.51: SIM {TimeUS : 61935216, Roll : 0.06, Pitch : -17.56, Yaw : 47.3, Alt : 49.3199996948, Lat : 49.2837198, Lng : -123.1147724, Q1 : 0.905227839947, Q2 : 0.0617768503726, Q3 : -0.13960146904, Q4 : 0.396557241678}
2019-04-14 12:45:44.61: SIM {TimeUS : 62035176, Roll : 0.06, Pitch : -17.58, Yaw : 47.29, Alt : 49.3199996948, Lat : 49.2837226, Lng : -123.1147676, Q1 : 0.905218243599, Q2 : 0.0618186630309, Q3 : -0.13983002305, Q4 : 0.396492093801}
2019-04-14 12:45:44.71: SIM {TimeUS : 62135136, Roll : 0.06, Pitch : -17.59, Yaw : 47.28, Alt : 49.3199996948, Lat : 49.2837253, Lng : -123.114763, Q1 : 0.905247569084, Q2 : 0.0619020313025, Q3 : -0.139899834991, Q4 : 0.396387517452}
2019-04-14 12:45:44.81: SIM {TimeUS : 62235096, Roll : 0.08, Pitch : -17.6, Yaw : 47.26, Alt : 49.3199996948, Lat : 49.2837282, Lng : -123.1147584, Q1 : 0.905303776264, Q2 : 0.0620269924402, Q3 : -0.139941260219, Q4 : 0.396224915981}
2019-04-14 12:45:44.91: SIM {TimeUS : 62335056, Roll : 0.1, Pitch : -17.61, Yaw : 47.23, Alt : 49.3199996948, Lat : 49.2837308, Lng : -123.1147537, Q1 : 0.905380725861, Q2 : 0.0621679127216, Q3 : -0.139934882522, Q4 : 0.396029263735}
2019-04-14 12:45:45.01: SIM {TimeUS : 62435016, Roll : 0.12, Pitch : -17.62, Yaw : 47.2, Alt : 49.3199996948, Lat : 49.2837337, Lng : -123.114749, Q1 : 0.905454337597, Q2 : 0.0623279027641, Q3 : -0.139936387539, Q4 : 0.395835220814}
2019-04-14 12:45:45.11: SIM {TimeUS : 62534976, Roll : 0.14, Pitch : -17.64, Yaw : 47.17, Alt : 49.3199996948, Lat : 49.2837366, Lng : -123.1147443, Q1 : 0.905510723591, Q2 : 0.0625493451953, Q3 : -0.140051200986, Q4 : 0.395630627871}
2019-04-14 12:45:45.21: SIM {TimeUS : 62634936, Roll : 0.15, Pitch : -17.68, Yaw : 47.15, Alt : 49.3199996948, Lat : 49.2837393, Lng : -123.1147395, Q1 : 0.905550122261, Q2 : 0.062744230032, Q3 : -0.14034318924, Q4 : 0.395406126976}
2019-04-14 12:45:45.31: SIM {TimeUS : 62734896, Roll : 0.15, Pitch : -17.73, Yaw : 47.12, Alt : 49.3199996948, Lat : 49.2837422, Lng : -123.1147348, Q1 : 0.905582666397, Q2 : 0.0628478676081, Q3 : -0.14072856307, Q4 : 0.395178109407}
2019-04-14 12:45:45.41: SIM {TimeUS : 62834856, Roll : 0.14, Pitch : -17.77, Yaw : 47.1, Alt : 49.3199996948, Lat : 49.2837449, Lng : -123.1147301, Q1 : 0.905613005161, Q2 : 0.0629066750407, Q3 : -0.141105502844, Q4 : 0.394964665174}
2019-04-14 12:45:45.51: SIM {TimeUS : 62934816, Roll : 0.15, Pitch : -17.8, Yaw : 47.08, Alt : 49.3199996948, Lat : 49.2837478, Lng : -123.1147253, Q1 : 0.905639946461, Q2 : 0.0630442351103, Q3 : -0.14132834971, Q4 : 0.394801169634}
2019-04-14 12:45:45.61: SIM {TimeUS : 63035609, Roll : 0.17, Pitch : -17.8, Yaw : 47.06, Alt : 49.3199996948, Lat : 49.2837507, Lng : -123.1147205, Q1 : 0.905680477619, Q2 : 0.0632214918733, Q3 : -0.141295105219, Q4 : 0.394691795111}
2019-04-14 12:45:45.71: SIM {TimeUS : 63135569, Roll : 0.19, Pitch : -17.77, Yaw : 47.05, Alt : 49.3199996948, Lat : 49.2837534, Lng : -123.1147158, Q1 : 0.905756175518, Q2 : 0.0632310658693, Q3 : -0.140995755792, Q4 : 0.394623607397}
2019-04-14 12:45:45.81: SIM {TimeUS : 63235529, Roll : 0.19, Pitch : -17.75, Yaw : 47.04, Alt : 49.3199996948, Lat : 49.2837563, Lng : -123.114711, Q1 : 0.905817627907, Q2 : 0.0630938261747, Q3 : -0.140834987164, Q4 : 0.394561976194}
2019-04-14 12:45:45.91: SIM {TimeUS : 63335489, Roll : 0.17, Pitch : -17.73, Yaw : 47.03, Alt : 49.3300018311, Lat : 49.2837592, Lng : -123.1147062, Q1 : 0.905867397785, Q2 : 0.0629338249564, Q3 : -0.140735328197, Q4 : 0.394508719444}
2019-04-14 12:45:46.01: SIM {TimeUS : 63435449, Roll : 0.17, Pitch : -17.73, Yaw : 47.03, Alt : 49.3300018311, Lat : 49.283762, Lng : -123.1147014, Q1 : 0.905888974667, Q2 : 0.0628616139293, Q3 : -0.140770316124, Q4 : 0.39445823431}
2019-04-14 12:45:46.11: SIM {TimeUS : 63535409, Roll : 0.15, Pitch : -17.75, Yaw : 47.02, Alt : 49.3300018311, Lat : 49.2837649, Lng : -123.1146965, Q1 : 0.905888855457, Q2 : 0.0628384128213, Q3 : -0.140980914235, Q4 : 0.39438700676}
2019-04-14 12:45:46.21: SIM {TimeUS : 63635369, Roll : 0.15, Pitch : -17.78, Yaw : 47.02, Alt : 49.3300018311, Lat : 49.2837678, Lng : -123.1146918, Q1 : 0.905879437923, Q2 : 0.0628851130605, Q3 : -0.141220718622, Q4 : 0.394315421581}
2019-04-14 12:45:46.31: SIM {TimeUS : 63735329, Roll : 0.14, Pitch : -17.82, Yaw : 47.01, Alt : 49.3300018311, Lat : 49.2837705, Lng : -123.114687, Q1 : 0.905865728855, Q2 : 0.0629055947065, Q3 : -0.141568288207, Q4 : 0.394218921661}
2019-04-14 12:45:46.41: SIM {TimeUS : 63835289, Roll : 0.13, Pitch : -17.86, Yaw : 47.0, Alt : 49.3300018311, Lat : 49.2837734, Lng : -123.1146822, Q1 : 0.905847191811, Q2 : 0.0629860907793, Q3 : -0.141944080591, Q4 : 0.394113600254}
2019-04-14 12:45:46.51: SIM {TimeUS : 63935249, Roll : 0.13, Pitch : -17.89, Yaw : 46.99, Alt : 49.3300018311, Lat : 49.2837764, Lng : -123.1146773, Q1 : 0.905845284462, Q2 : 0.0631222501397, Q3 : -0.142173051834, Q4 : 0.394013732672}
2019-04-14 12:45:46.61: SIM {TimeUS : 64035209, Roll : 0.13, Pitch : -17.92, Yaw : 46.98, Alt : 49.3300018311, Lat : 49.2837793, Lng : -123.1146725, Q1 : 0.905850946903, Q2 : 0.0632099211216, Q3 : -0.142423018813, Q4 : 0.393896281719}
2019-04-14 12:45:46.71: SIM {TimeUS : 64135169, Roll : 0.13, Pitch : -17.94, Yaw : 46.96, Alt : 49.3300018311, Lat : 49.283782, Lng : -123.1146677, Q1 : 0.90587323904, Q2 : 0.0632537379861, Q3 : -0.142601713538, Q4 : 0.393773317337}
2019-04-14 12:45:46.81: SIM {TimeUS : 64235129, Roll : 0.15, Pitch : -17.94, Yaw : 46.95, Alt : 49.3300018311, Lat : 49.2837849, Lng : -123.1146628, Q1 : 0.905918896198, Q2 : 0.0633567869663, Q3 : -0.142518594861, Q4 : 0.393681794405}
2019-04-14 12:45:46.91: SIM {TimeUS : 64335089, Roll : 0.18, Pitch : -17.95, Yaw : 46.93, Alt : 49.3300018311, Lat : 49.2837879, Lng : -123.114658, Q1 : 0.905948698521, Q2 : 0.0635726004839, Q3 : -0.142493695021, Q4 : 0.393587350845}
2019-04-14 12:45:47.01: SIM {TimeUS : 64435049, Roll : 0.19, Pitch : -17.97, Yaw : 46.91, Alt : 49.3300018311, Lat : 49.2837908, Lng : -123.1146531, Q1 : 0.905977189541, Q2 : 0.0636794194579, Q3 : -0.142615884542, Q4 : 0.393460333347}
2019-04-14 12:45:47.11: SIM {TimeUS : 64535009, Roll : 0.19, Pitch : -17.97, Yaw : 46.9, Alt : 49.3300018311, Lat : 49.2837936, Lng : -123.1146483, Q1 : 0.90601682663, Q2 : 0.0637272447348, Q3 : -0.14266718924, Q4 : 0.393342733383}
2019-04-14 12:45:47.21: SIM {TimeUS : 64634969, Roll : 0.2, Pitch : -17.97, Yaw : 46.89, Alt : 49.3300018311, Lat : 49.2837965, Lng : -123.1146434, Q1 : 0.906067788601, Q2 : 0.063765026629, Q3 : -0.142592176795, Q4 : 0.393246293068}
2019-04-14 12:45:47.31: SIM {TimeUS : 64734929, Roll : 0.21, Pitch : -17.96, Yaw : 46.87, Alt : 49.3400001526, Lat : 49.2837995, Lng : -123.1146386, Q1 : 0.906113505363, Q2 : 0.0637844502926, Q3 : -0.142548903823, Q4 : 0.393153429031}
2019-04-14 12:45:47.41: SIM {TimeUS : 64834889, Roll : 0.19, Pitch : -17.98, Yaw : 46.86, Alt : 49.3400001526, Lat : 49.2838024, Lng : -123.1146337, Q1 : 0.906139612198, Q2 : 0.0636967867613, Q3 : -0.142738088965, Q4 : 0.393038898706}
2019-04-14 12:45:47.51: SIM {TimeUS : 64934849, Roll : 0.16, Pitch : -18.01, Yaw : 46.85, Alt : 49.3400001526, Lat : 49.2838054, Lng : -123.1146288, Q1 : 0.906147778034, Q2 : 0.0635680705309, Q3 : -0.143093600869, Q4 : 0.39291164279}
2019-04-14 12:45:47.61: SIM {TimeUS : 65035642, Roll : 0.14, Pitch : -18.01, Yaw : 46.84, Alt : 49.3400001526, Lat : 49.2838082, Lng : -123.1146239, Q1 : 0.90618044138, Q2 : 0.0634168609977, Q3 : -0.143193677068, Q4 : 0.392824262381}
2019-04-14 12:45:47.71: SIM {TimeUS : 65135602, Roll : 0.15, Pitch : -17.99, Yaw : 46.84, Alt : 49.3400001526, Lat : 49.2838111, Lng : -123.114619, Q1 : 0.906228363514, Q2 : 0.0634052753448, Q3 : -0.142991244793, Q4 : 0.392789363861}
2019-04-14 12:45:47.81: SIM {TimeUS : 65235562, Roll : 0.17, Pitch : -17.97, Yaw : 46.83, Alt : 49.3400001526, Lat : 49.2838141, Lng : -123.1146141, Q1 : 0.906268835068, Q2 : 0.0634857490659, Q3 : -0.142765492201, Q4 : 0.392765074968}
2019-04-14 12:45:47.91: SIM {TimeUS : 65335522, Roll : 0.18, Pitch : -17.98, Yaw : 46.82, Alt : 49.3400001526, Lat : 49.2838171, Lng : -123.1146092, Q1 : 0.906278908253, Q2 : 0.0635992735624, Q3 : -0.142819747329, Q4 : 0.392703711987}
2019-04-14 12:45:48.01: SIM {TimeUS : 65435482, Roll : 0.17, Pitch : -18.01, Yaw : 46.81, Alt : 49.3400001526, Lat : 49.28382, Lng : -123.1146043, Q1 : 0.906283736229, Q2 : 0.063573628664, Q3 : -0.143077164888, Q4 : 0.392603099346}
2019-04-14 12:45:48.11: SIM {TimeUS : 65535442, Roll : 0.14, Pitch : -18.04, Yaw : 46.8, Alt : 49.3400001526, Lat : 49.2838228, Lng : -123.1145994, Q1 : 0.906292557716, Q2 : 0.0634460896254, Q3 : -0.143424138427, Q4 : 0.392476677895}
2019-04-14 12:45:48.21: SIM {TimeUS : 65635402, Roll : 0.12, Pitch : -18.07, Yaw : 46.79, Alt : 49.3400001526, Lat : 49.2838258, Lng : -123.1145945, Q1 : 0.906304895878, Q2 : 0.0633944869041, Q3 : -0.143697887659, Q4 : 0.392356336117}
2019-04-14 12:45:48.31: SIM {TimeUS : 65735362, Roll : 0.13, Pitch : -18.09, Yaw : 46.78, Alt : 49.3400001526, Lat : 49.2838287, Lng : -123.1145895, Q1 : 0.906315326691, Q2 : 0.0634692311287, Q3 : -0.143878206611, Q4 : 0.392254084349}
2019-04-14 12:45:48.41: SIM {TimeUS : 65835322, Roll : 0.14, Pitch : -18.11, Yaw : 46.77, Alt : 49.3400001526, Lat : 49.2838317, Lng : -123.1145847, Q1 : 0.906322360039, Q2 : 0.0636162683368, Q3 : -0.143990218639, Q4 : 0.39217287302}
2019-04-14 12:45:48.51: SIM {TimeUS : 65935282, Roll : 0.17, Pitch : -18.12, Yaw : 46.76, Alt : 49.3400001526, Lat : 49.2838347, Lng : -123.1145797, Q1 : 0.906332671642, Q2 : 0.0638598352671, Q3 : -0.143954202533, Q4 : 0.392122745514}
