2019-04-14 11:33:53.80: SIM {TimeUS : 40816167, Roll : 0.0, Pitch : 0.0, Yaw : 0.0, Alt : 30.1000003815, Lat : 49.28357, Lng : -123.11502, Q1 : 1.0, Q2 : 0.0, Q3 : 0.0, Q4 : 0.0}
2019-04-14 11:33:53.91: SIM {TimeUS : 40935286, Roll : 0.0, Pitch : 0.0, Yaw : 0.0, Alt : 30.1000003815, Lat : 49.28357, Lng : -123.11502, Q1 : 1.0, Q2 : 0.0, Q3 : 0.0, Q4 : 0.0}
2019-04-14 11:33:54.01: SIM {TimeUS : 41035246, Roll : 0.0, Pitch : 0.0, Yaw : 0.0, Alt : 30.1000003815, Lat : 49.28357, Lng : -123.11502, Q1 : 1.0, Q2 : 0.0, Q3 : 0.0, Q4 : 0.0}
2019-04-14 11:33:54.11: SIM {TimeUS : 41135206, Roll : 0.0, Pitch : 0.0, Yaw : 0.0, Alt : 30.1000003815, Lat : 49.28357, Lng : -123.11502, Q1 : 1.0, Q2 : 0.0, Q3 : 0.0, Q4 : 0.0}
2019-04-14 11:33:54.21: SIM {TimeUS : 41235166, Roll : 0.0, Pitch : 0.0, Yaw : 0.0, Alt : 30.1000003815, Lat : 49.28357, Lng : -123.11502, Q1 : 1.0, Q2 : 0.0, Q3 : 0.0, Q4 : 0.0}
2019-04-14 11:33:54.31: SIM {TimeUS : 41335126, Roll : 0.0, Pitch : 0.0, Yaw : 0.0, Alt : 30.1000003815, Lat : 49.28357, Lng : -123.11502, Q1 : 1.0, Q2 : 0.0, Q3 : 0.0, Q4 : 0.0}
2019-04-14 11:33:54.41: SIM {TimeUS : 41435086, Roll : 0.0, Pitch : 0.0, Yaw : 0.0, Alt : 30.1000003815, Lat : 49.28357, Lng : -123.11502, Q1 : 1.0, Q2 : 0.0, Q3 : 0.0, Q4 : 0.0}
2019-04-14 11:33:54.51: SIM {TimeUS : 41535046, Roll : 0.0, Pitch : 0.0, Yaw : 0.0, Alt : 30.1000003815, Lat : 49.28357, Lng : -123.11502, Q1 : 1.0, Q2 : 0.0, Q3 : 0.0, Q4 : 0.0}
2019-04-14 11:33:54.61: SIM {TimeUS : 41635006, Roll : 0.0, Pitch : 0.0, Yaw : 0.0, Alt : 30.1000003815, Lat : 49.28357, Lng : -123.11502, Q1 : 1.0, Q2 : 0.0, Q3 : 0.0, Q4 : 0.0}
2019-04-14 11:33:54.71: SIM {TimeUS : 41734966, Roll : 0.0, Pitch : 0.0, Yaw : 0.0, Alt : 30.1000003815, Lat : 49.28357, Lng : -123.11502, Q1 : 1.0, Q2 : 0.0, Q3 : 0.0, Q4 : 0.0}
2019-04-14 11:33:54.81: SIM {TimeUS : 41834926, Roll : 0.0, Pitch : 0.0, Yaw : 0.0, Alt : 30.1000003815, Lat : 49.28357, Lng : -123.11502, Q1 : 1.0, Q2 : 0.0, Q3 : 0.0, Q4 : 0.0}
2019-04-14 11:33:54.91: SIM {TimeUS : 41934886, Roll : 0.0, Pitch : 0.0, Yaw : 0.0, Alt : 30.1000003815, Lat : 49.28357, Lng : -123.11502, Q1 : 1.0, Q2 : 0.0, Q3 : 0.0, Q4 : 0.0}
2019-04-14 11:33:55.01: SIM {TimeUS : 42034846, Roll : 0.0, Pitch : 0.0, Yaw : 0.0, Alt : 30.1000003815, Lat : 49.28357, Lng : -123.11502, Q1 : 1.0, Q2 : 0.0, Q3 : 0.0, Q4 : 0.0}
2019-04-14 11:33:55.11: SIM {TimeUS : 42134806, Roll : 0.0, Pitch : 0.0, Yaw : 0.0, Alt : 30.1000003815, Lat : 49.28357, Lng : -123.11502, Q1 : 1.0, Q2 : 0.0, Q3 : 0.0, Q4 : 0.0}
2019-04-14 11:33:55.21: SIM {TimeUS : 42234766, Roll : 0.0, Pitch : 0.0, Yaw : 0.0, Alt : 30.1000003815, Lat : 49.28357, Lng : -123.11502, Q1 : 1.0, Q2 : 0.0, Q3 : 0.0, Q4 : 0.0}
2019-04-14 11:33:55.31: SIM {TimeUS : 42334726, Roll : 0.0, Pitch : 0.0, Yaw : 0.0, Alt : 30.1000003815, Lat : 49.28357, Lng : -123.11502, Q1 : 1.0, Q2 : 0.0, Q3 : 0.0, Q4 : 0.0}
2019-04-14 11:33:55.41: SIM {TimeUS : 42434686, Roll : 0.0, Pitch : 0.0, Yaw : 0.0, Alt : 30.1000003815, Lat : 49.28357, Lng : -123.11502, Q1 : 1.0, Q2 : 0.0, Q3 : 0.0, Q4 : 0.0}
2019-04-14 11:33:55.51: SIM {TimeUS : 42534646, Roll : 0.0, Pitch : 0.0, Yaw : 0.0, Alt : 30.1000003815, Lat : 49.28357, Lng : -123.11502, Q1 : 1.0, Q2 : 0.0, Q3 : 0.0, Q4 : 0.0}
2019-04-14 11:33:55.61: SIM {TimeUS : 42634606, Roll : 0.0, Pitch : 0.0, Yaw : 0.0, Alt : 30.1000003815, Lat : 49.28357, Lng : -123.11502, Q1 : 1.0, Q2 : 0.0, Q3 : 0.0, Q4 : 0.0}
2019-04-14 11:33:55.71: SIM {TimeUS : 42734566, Roll : 0.0, Pitch : 0.0, Yaw : 0.0, Alt : 30.1000003815, Lat : 49.28357, Lng : -123.11502, Q1 : 1.0, Q2 : 0.0, Q3 : 0.0, Q4 : 0.0}
2019-04-14 11:33:55.81: SIM {TimeUS : 42834526, Roll : 0.0, Pitch : 0.0, Yaw : 0.0, Alt : 30.1000003815, Lat : 49.28357, Lng : -123.11502, Q1 : 1.0, Q2 : 0.0, Q3 : 0.0, Q4 : 0.0}
2019-04-14 11:33:55.91: SIM {TimeUS : 42935319, Roll : 0.0, Pitch : 0.0, Yaw : 0.0, Alt : 30.1000003815, Lat : 49.28357, Lng : -123.11502, Q1 : 1.0, Q2 : 0.0, Q3 : 0.0, Q4 : 0.0}
2019-04-14 11:33:56.01: SIM {TimeUS : 43035279, Roll : 0.0, Pitch : 0.0, Yaw : 0.0, Alt : 30.1000003815, Lat : 49.28357, Lng : -123.11502, Q1 : 1.0, Q2 : 0.0, Q3 : 0.0, Q4 : 0.0}
2019-04-14 11:33:56.11: SIM {TimeUS : 43135239, Roll : 0.0, Pitch : 0.0, Yaw : 360.0, Alt : 30.1000003815, Lat : 49.28357, Lng : -123.11502, Q1 : 1.0, Q2 : 0.0, Q3 : 0.0, Q4 : -1.30378364355e-11}
2019-04-14 11:33:56.21: SIM {TimeUS : 43235199, Roll : 0.0, Pitch : 0.0, Yaw : 360.0, Alt : 30.1000003815, Lat : 49.28357, Lng : -123.11502, Q1 : 1.0, Q2 : 0.0, Q3 : 0.0, Q4 : -1.61347042393e-08}
2019-04-14 11:33:56.31: SIM {TimeUS : 43335159, Roll : 0.0, Pitch : 0.0, Yaw : 359.99, Alt : 30.1000003815, Lat : 49.28357, Lng : -123.11502, Q1 : 1.0, Q2 : 0.0, Q3 : 0.0, Q4 : -2.17456857854e-07}
2019-04-14 11:33:56.41: SIM {TimeUS : 43435119, Roll : 0.0, Pitch : 0.0, Yaw : 359.99, Alt : 30.1000003815, Lat : 49.28357, Lng : -123.11502, Q1 : 1.0, Q2 : 0.0, Q3 : 0.0, Q4 : -4.08245227845e-07}
2019-04-14 11:33:56.51: SIM {TimeUS : 43535079, Roll : 0.0, Pitch : 0.0, Yaw : 359.99, Alt : 30.1000003815, Lat : 49.28357, Lng : -123.11502, Q1 : 1.0, Q2 : 0.0, Q3 : 0.0, Q4 : -6.20802381945e-07}
2019-04-14 11:33:56.61: SIM {TimeUS : 43635039, Roll : 0.0, Pitch : 0.0, Yaw : 359.99, Alt : 30.1000003815, Lat : 49.28357, Lng : -123.11502, Q1 : 1.0, Q2 : 0.0, Q3 : 0.0, Q4 : -8.22876188522e-07}
2019-04-14 11:33:56.71: SIM {TimeUS : 43734999, Roll : 0.0, Pitch : 0.0, Yaw : 359.99, Alt : 30.1000003815, Lat : 49.28357, Lng : -123.11502, Q1 : 1.0, Q2 : 0.0, Q3 : 0.0, Q4 : -9.95500158751e-07}
2019-04-14 11:33:56.81: SIM {TimeUS : 43834959, Roll : 0.0, Pitch : 0.0, Yaw : 359.99, Alt : 30.1000003815, Lat : 49.28357, Lng : -123.11502, Q1 : 1.0, Q2 : 0.0, Q3 : 0.0, Q4 : -1.17972990665e-06}
2019-04-14 11:33:56.91: SIM {TimeUS : 43934919, Roll : 0.0, Pitch : 0.0, Yaw : 359.99, Alt : 30.1000003815, Lat : 49.28357, Lng : -123.11502, Q1 : 1.0, Q2 : 0.0, Q3 : 0.0, Q4 : -1.3805429262e-06}
2019-04-14 11:33:57.01: SIM {TimeUS : 44034879, Roll : 0.0, Pitch : 0.0, Yaw : 359.99, Alt : 30.1200008392, Lat : 49.28357, Lng : -123.11502, Q1 : 1.0, Q2 : 0.0, Q3 : 0.0, Q4 : -1.55610359798e-06}
2019-04-14 11:33:57.11: SIM {TimeUS : 44134839, Roll : 0.0, Pitch : 0.0, Yaw : 359.99, Alt : 30.1499996185, Lat : 49.28357, Lng : -123.11502, Q1 : 1.0, Q2 : 0.0, Q3 : 0.0, Q4 : -1.81880204764e-06}
2019-04-14 11:33:57.21: SIM {TimeUS : 44234799, Roll : 0.0, Pitch : 0.0, Yaw : 359.99, Alt : 30.1800003052, Lat : 49.28357, Lng : -123.11502, Q1 : 1.0, Q2 : 0.0, Q3 : 0.0, Q4 : -2.06184176932e-06}
2019-04-14 11:33:57.31: SIM {TimeUS : 44334759, Roll : 0.0, Pitch : 0.0, Yaw : 359.99, Alt : 30.2099990845, Lat : 49.28357, Lng : -123.11502, Q1 : 1.0, Q2 : -7.32536864234e-06, Q3 : -7.5440798355e-06, Q4 : -2.18642730943e-06}
2019-04-14 11:33:57.41: SIM {TimeUS : 44434719, Roll : -0.16, Pitch : -0.16, Yaw : 359.99, Alt : 30.2700004578, Lat : 49.28357, Lng : -123.11502, Q1 : 0.999998033047, Q2 : -0.00141816399992, Q3 : -0.00140721607022, Q4 : -1.70366056409e-05}
2019-04-14 11:33:57.51: SIM {TimeUS : 44534679, Roll : -0.47, Pitch : -0.41, Yaw : 359.99, Alt : 30.3899993896, Lat : 49.28357, Lng : -123.11502, Q1 : 0.99998497963, Q2 : -0.00414405949414, Q3 : -0.00358851370402, Q4 : -6.15807148279e-05}
2019-04-14 11:33:57.61: SIM {TimeUS : 44634639, Roll : -0.76, Pitch : -0.6, Yaw : 359.98, Alt : 30.5400009155, Lat : 49.28357, Lng : -123.11502, Q1 : 0.999963998795, Q2 : -0.00665355753154, Q3 : -0.00526213133708, Q4 : -0.000126299506519}
2019-04-14 11:33:57.71: SIM {TimeUS : 44734599, Roll : -0.88, Pitch : -0.68, Yaw : 359.98, Alt : 30.7000007629, Lat : 49.28357, Lng : -123.11502, Q1 : 0.999951839447, Q2 : -0.00776489730924, Q3 : -0.00599567685276, Q4 : -0.000203363757464}
2019-04-14 11:33:57.81: SIM {TimeUS : 44834559, Roll : -0.83, Pitch : -0.65, Yaw : 359.97, Alt : 30.8500003815, Lat : 49.28357, Lng : -123.11502, Q1 : 0.999957203865, Q2 : -0.00726203294471, Q3 : -0.00572445150465, Q4 : -0.000286050431896}
2019-04-14 11:33:57.91: SIM {TimeUS : 44934519, Roll : -0.64, Pitch : -0.53, Yaw : 359.96, Alt : 31.0100002289, Lat : 49.28357, Lng : -123.1150201, Q1 : 0.999973356724, Q2 : -0.0056023048237, Q3 : -0.00466762250289, Q4 : -0.00036048021866}
2019-04-14 11:33:58.01: SIM {TimeUS : 45035312, Roll : -0.38, Pitch : -0.36, Yaw : 359.95, Alt : 31.1599998474, Lat : 49.2835701, Lng : -123.1150202, Q1 : 0.999989151955, Q2 : -0.00337982247584, Q3 : -0.00318261329085, Q4 : -0.00042024202412}
2019-04-14 11:33:58.11: SIM {TimeUS : 45135272, Roll : -0.14, Pitch : -0.19, Yaw : 359.94, Alt : 31.3299999237, Lat : 49.2835701, Lng : -123.1150203, Q1 : 0.999997675419, Q2 : -0.00129770499188, Q3 : -0.00167582964059, Q4 : -0.000465475808596}
2019-04-14 11:33:58.21: SIM {TimeUS : 45235232, Roll : 0.01, Pitch : -0.04, Yaw : 359.94, Alt : 31.5, Lat : 49.2835702, Lng : -123.1150203, Q1 : 0.999999761581, Q2 : 0.000127206731122, Q3 : -0.000381978199584, Q4 : -0.000497546046972}
2019-04-14 11:33:58.31: SIM {TimeUS : 45335192, Roll : 0.08, Pitch : 0.06, Yaw : 359.94, Alt : 31.6700000763, Lat : 49.2835702, Lng : -123.1150204, Q1 : 0.999999463558, Q2 : 0.000750593375415, Q3 : 0.000524264352862, Q4 : -0.0005176893319}
2019-04-14 11:33:58.41: SIM {TimeUS : 45435152, Roll : 0.07, Pitch : 0.11, Yaw : 359.93, Alt : 31.8500003815, Lat : 49.2835703, Lng : -123.1150205, Q1 : 0.99999910593, Q2 : 0.0006699685473, Q3 : 0.000998934963718, Q4 : -0.000525761279278}
2019-04-14 11:33:58.51: SIM {TimeUS : 45535112, Roll : 0.05, Pitch : 0.13, Yaw : 359.93, Alt : 32.0400009155, Lat : 49.2835703, Lng : -123.1150205, Q1 : 0.999998986721, Q2 : 0.000475239154184, Q3 : 0.00121361983474, Q4 : -0.000536414969247}
2019-04-14 11:33:58.61: SIM {TimeUS : 45635072, Roll : 0.04, Pitch : 0.14, Yaw : 359.93, Alt : 32.2200012207, Lat : 49.2835703, Lng : -123.1150206, Q1 : 0.999998986721, Q2 : 0.0003793532087, Q3 : 0.00125425925944, Q4 : -0.000538559688721}
2019-04-14 11:33:58.71: SIM {TimeUS : 45735032, Roll : 0.03, Pitch : 0.14, Yaw : 359.93, Alt : 32.4199981689, Lat : 49.2835703, Lng : -123.1150206, Q1 : 0.999998986721, Q2 : 0.00033989030635, Q3 : 0.00127321935724, Q4 : -0.000536279694643}
2019-04-14 11:33:58.81: SIM {TimeUS : 45834992, Roll : 0.05, Pitch : 0.16, Yaw : 359.94, Alt : 32.6100006104, Lat : 49.2835703, Lng : -123.1150207, Q1 : 0.999998748302, Q2 : 0.000483533745864, Q3 : 0.0014021913521, Q4 : -0.000521404086612}
2019-04-14 11:33:58.91: SIM {TimeUS : 45934952, Roll : 0.08, Pitch : 0.14, Yaw : 359.94, Alt : 32.8100013733, Lat : 49.2835703, Lng : -123.1150207, Q1 : 0.999998748302, Q2 : 0.00075923698023, Q3 : 0.00130118918605, Q4 : -0.000504316936713}
2019-04-14 11:33:59.01: SIM {TimeUS : 46034912, Roll : 0.12, Pitch : 0.12, Yaw : 359.94, Alt : 33.0099983215, Lat : 49.2835704, Lng : -123.1150207, Q1 : 0.999998748302, Q2 : 0.00108168879524, Q3 : 0.00105502293445, Q4 : -0.000487060373416}
2019-04-14 11:33:59.11: SIM {TimeUS : 46134872, Roll : 0.15, Pitch : 0.1, Yaw : 359.94, Alt : 33.2099990845, Lat : 49.2835704, Lng : -123.1150208, Q1 : 0.999998509884, Q2 : 0.0013765366748, Q3 : 0.000906358996872, Q4 : -0.000472724728752}
2019-04-14 11:33:59.21: SIM {TimeUS : 46234832, Roll : 0.18, Pitch : 0.1, Yaw : 359.94, Alt : 33.4099998474, Lat : 49.2835704, Lng : -123.1150208, Q1 : 0.999998271465, Q2 : 0.00157311290968, Q3 : 0.000896878365893, Q4 : -0.000456433888758}
2019-04-14 11:33:59.31: SIM {TimeUS : 46334792, Roll : 0.19, Pitch : 0.11, Yaw : 359.95, Alt : 33.6199989319, Lat : 49.2835704, Lng : -123.1150208, Q1 : 0.999997973442, Q2 : 0.00169236736838, Q3 : 0.00103347469121, Q4 : -0.000437073176727}
2019-04-14 11:33:59.41: SIM {TimeUS : 46434752, Roll : 0.18, Pitch : 0.12, Yaw : 359.95, Alt : 33.8300018311, Lat : 49.2835704, Lng : -123.1150208, Q1 : 0.999997973442, Q2 : 0.0016318942653, Q3 : 0.00109447108116, Q4 : -0.000425377977081}
2019-04-14 11:33:59.51: SIM {TimeUS : 46534712, Roll : 0.16, Pitch : 0.12, Yaw : 359.95, Alt : 34.0400009155, Lat : 49.2835704, Lng : -123.1150208, Q1 : 0.999998271465, Q2 : 0.00142554275226, Q3 : 0.00110635953024, Q4 : -0.000414594338508}
2019-04-14 11:33:59.61: SIM {TimeUS : 46634672, Roll : 0.13, Pitch : 0.12, Yaw : 359.95, Alt : 34.25, Lat : 49.2835704, Lng : -123.1150208, Q1 : 0.999998569489, Q2 : 0.00115734443534, Q3 : 0.00113005121239, Q4 : -0.000412500812672}
2019-04-14 11:33:59.71: SIM {TimeUS : 46734632, Roll : 0.1, Pitch : 0.12, Yaw : 359.95, Alt : 34.4599990845, Lat : 49.2835704, Lng : -123.1150208, Q1 : 0.999998927116, Q2 : 0.000910724105779, Q3 : 0.00110051175579, Q4 : -0.00041611524648}
2019-04-14 11:33:59.81: SIM {TimeUS : 46834592, Roll : 0.09, Pitch : 0.08, Yaw : 359.94, Alt : 34.6699981689, Lat : 49.2835704, Lng : -123.1150208, Q1 : 0.999999284744, Q2 : 0.000799596717115, Q3 : 0.000771989638451, Q4 : -0.000441013864474}
2019-04-14 11:33:59.91: SIM {TimeUS : 46934552, Roll : 0.08, Pitch : 0.05, Yaw : 359.94, Alt : 34.8899993896, Lat : 49.2835704, Lng : -123.1150208, Q1 : 0.999999523163, Q2 : 0.000752446008846, Q3 : 0.00044759051525, Q4 : -0.000485760363517}
2019-04-14 11:34:00.01: SIM {TimeUS : 47034512, Roll : 0.06, Pitch : 0.02, Yaw : 359.93, Alt : 35.0999984741, Lat : 49.2835704, Lng : -123.1150208, Q1 : 0.999999642372, Q2 : 0.000605899840593, Q3 : 0.000235105850152, Q4 : -0.000532762496732}
2019-04-14 11:34:00.11: SIM {TimeUS : 47135305, Roll : 0.05, Pitch : 0.02, Yaw : 359.93, Alt : 35.3199996948, Lat : 49.2835704, Lng : -123.1150207, Q1 : 0.999999701977, Q2 : 0.000485888449475, Q3 : 0.000175968321855, Q4 : -0.000577304745093}
2019-04-14 11:34:00.21: SIM {TimeUS : 47235265, Roll : 0.05, Pitch : 0.01, Yaw : 359.92, Alt : 35.5400009155, Lat : 49.2835704, Lng : -123.1150207, Q1 : 0.999999701977, Q2 : 0.000447238475317, Q3 : 0.000164086159202, Q4 : -0.000616478617303}
2019-04-14 11:34:00.31: SIM {TimeUS : 47335225, Roll : 0.02, Pitch : 0.0, Yaw : 359.92, Alt : 35.7599983215, Lat : 49.2835704, Lng : -123.1150207, Q1 : 0.999999761581, Q2 : 0.00024913623929, Q3 : -1.4972722056e-05, Q4 : -0.000656179676298}
2019-04-14 11:34:00.41: SIM {TimeUS : 47435185, Roll : 0.0, Pitch : -0.03, Yaw : 359.92, Alt : 35.9799995422, Lat : 49.2835704, Lng : -123.1150207, Q1 : 0.999999701977, Q2 : -5.49714422959e-05, Q3 : -0.000305413530441, Q4 : -0.000692384899594}
2019-04-14 11:34:00.51: SIM {TimeUS : 47535145, Roll : -0.04, Pitch : -0.05, Yaw : 359.91, Alt : 36.2000007629, Lat : 49.2835704, Lng : -123.1150207, Q1 : 0.999999523163, Q2 : -0.000383018283173, Q3 : -0.000515223713592, Q4 : -0.000728245533537}
2019-04-14 11:34:00.61: SIM {TimeUS : 47635105, Roll : -0.07, Pitch : -0.07, Yaw : 359.91, Alt : 36.4199981689, Lat : 49.2835704, Lng : -123.1150207, Q1 : 0.999999284744, Q2 : -0.000660251243971, Q3 : -0.00062854657881, Q4 : -0.000760629714932}
2019-04-14 11:34:00.71: SIM {TimeUS : 47735065, Roll : -0.08, Pitch : -0.07, Yaw : 359.91, Alt : 36.6399993896, Lat : 49.2835704, Lng : -123.1150206, Q1 : 0.99999922514, Q2 : -0.000701930432115, Q3 : -0.000617557321675, Q4 : -0.000784593285061}
2019-04-14 11:34:00.81: SIM {TimeUS : 47835025, Roll : -0.08, Pitch : -0.06, Yaw : 359.9, Alt : 36.8699989319, Lat : 49.2835704, Lng : -123.1150206, Q1 : 0.999999284744, Q2 : -0.000698796880897, Q3 : -0.000586623151321, Q4 : -0.000805229006801}
2019-04-14 11:34:00.91: SIM {TimeUS : 47934985, Roll : -0.07, Pitch : -0.05, Yaw : 359.9, Alt : 37.0900001526, Lat : 49.2835704, Lng : -123.1150206, Q1 : 0.999999344349, Q2 : -0.000647710228804, Q3 : -0.000461999617983, Q4 : -0.000820631510578}
2019-04-14 11:34:01.01: SIM {TimeUS : 48034945, Roll : -0.06, Pitch : -0.04, Yaw : 359.9, Alt : 37.3199996948, Lat : 49.2835704, Lng : -123.1150206, Q1 : 0.999999403954, Q2 : -0.000566108035855, Q3 : -0.000391007604776, Q4 : -0.000827210547868}
2019-04-14 11:34:01.11: SIM {TimeUS : 48134905, Roll : -0.07, Pitch : -0.04, Yaw : 359.9, Alt : 37.5400009155, Lat : 49.2835704, Lng : -123.1150206, Q1 : 0.999999344349, Q2 : -0.000629302870948, Q3 : -0.000405904458603, Q4 : -0.000835632730741}
2019-04-14 11:34:01.21: SIM {TimeUS : 48234865, Roll : -0.08, Pitch : -0.03, Yaw : 359.9, Alt : 37.7700004578, Lat : 49.2835704, Lng : -123.1150206, Q1 : 0.999999344349, Q2 : -0.000715599162504, Q3 : -0.000281626184005, Q4 : -0.000844714115374}
2019-04-14 11:34:01.31: SIM {TimeUS : 48334825, Roll : -0.1, Pitch : -0.01, Yaw : 359.9, Alt : 37.9900016785, Lat : 49.2835704, Lng : -123.1150206, Q1 : 0.99999922514, Q2 : -0.000908667570911, Q3 : -0.00011038017692, Q4 : -0.0008525524172}
2019-04-14 11:34:01.41: SIM {TimeUS : 48434785, Roll : -0.1, Pitch : 0.0, Yaw : 359.9, Alt : 38.2200012207, Lat : 49.2835704, Lng : -123.1150206, Q1 : 0.99999922514, Q2 : -0.000910120666958, Q3 : 2.18119039346e-05, Q4 : -0.000854594807606}
2019-04-14 11:34:01.51: SIM {TimeUS : 48534745, Roll : -0.08, Pitch : 0.03, Yaw : 359.9, Alt : 38.4500007629, Lat : 49.2835704, Lng : -123.1150206, Q1 : 0.999999344349, Q2 : -0.000700060627423, Q3 : 0.000292205048027, Q4 : -0.000857101287693}
2019-04-14 11:34:01.61: SIM {TimeUS : 48634705, Roll : -0.05, Pitch : 0.03, Yaw : 359.9, Alt : 38.6800003052, Lat : 49.2835704, Lng : -123.1150206, Q1 : 0.999999463558, Q2 : -0.00045937957475, Q3 : 0.000276131293504, Q4 : -0.000868577393703}
2019-04-14 11:34:01.71: SIM {TimeUS : 48734665, Roll : -0.01, Pitch : 0.02, Yaw : 359.89, Alt : 38.9099998474, Lat : 49.2835704, Lng : -123.1150206, Q1 : 0.999999582767, Q2 : -0.000172018815647, Q3 : 0.000181484996574, Q4 : -0.000881317420863}
2019-04-14 11:34:01.81: SIM {TimeUS : 48834625, Roll : 0.01, Pitch : 0.03, Yaw : 359.89, Alt : 39.1399993896, Lat : 49.2835704, Lng : -123.1150206, Q1 : 0.999999582767, Q2 : 0.000147023878526, Q3 : 0.000290917552775, Q4 : -0.000895129633136}
2019-04-14 11:34:01.91: SIM {TimeUS : 48934585, Roll : 0.05, Pitch : 0.05, Yaw : 359.89, Alt : 39.3600006104, Lat : 49.2835704, Lng : -123.1150206, Q1 : 0.999999344349, Q2 : 0.000446007412393, Q3 : 0.000519906287082, Q4 : -0.000917751982342}
2019-04-14 11:34:02.01: SIM {TimeUS : 49034545, Roll : 0.07, Pitch : 0.08, Yaw : 359.89, Alt : 39.5999984741, Lat : 49.2835704, Lng : -123.1150206, Q1 : 0.999999046326, Q2 : 0.00065192457987, Q3 : 0.000741247320548, Q4 : -0.000947917578742}
2019-04-14 11:34:02.11: SIM {TimeUS : 49134505, Roll : 0.06, Pitch : 0.1, Yaw : 359.88, Alt : 39.8300018311, Lat : 49.2835706, Lng : -123.1150206, Q1 : 0.999998927116, Q2 : 0.00056399294408, Q3 : 0.000949493376538, Q4 : -0.000975346774794}
2019-04-14 11:34:02.21: SIM {TimeUS : 49235298, Roll : 0.01, Pitch : 0.12, Yaw : 359.88, Alt : 40.0600013733, Lat : 49.2835706, Lng : -123.1150206, Q1 : 0.999998867512, Q2 : 0.000150304607814, Q3 : 0.00112806435209, Q4 : -0.00101947691292}
2019-04-14 11:34:02.31: SIM {TimeUS : 49335258, Roll : -0.01, Pitch : 0.11, Yaw : 359.87, Alt : 40.2900009155, Lat : 49.2835706, Lng : -123.1150206, Q1 : 0.999998867512, Q2 : -0.000164482495165, Q3 : 0.0010391115211, Q4 : -0.00105632632039}
2019-04-14 11:34:02.41: SIM {TimeUS : 49435218, Roll : -0.04, Pitch : 0.08, Yaw : 359.87, Alt : 40.5200004578, Lat : 49.2835706, Lng : -123.1150206, Q1 : 0.999999046326, Q2 : -0.000377530959668, Q3 : 0.00076906074537, Q4 : -0.00109408330172}
2019-04-14 11:34:02.51: SIM {TimeUS : 49535178, Roll : -0.05, Pitch : 0.06, Yaw : 359.87, Alt : 40.75, Lat : 49.2835706, Lng : -123.1150206, Q1 : 0.99999910593, Q2 : -0.000458516296931, Q3 : 0.000595914723817, Q4 : -0.00113021687139}
2019-04-14 11:34:02.61: SIM {TimeUS : 49635138, Roll : -0.03, Pitch : 0.08, Yaw : 359.86, Alt : 40.9900016785, Lat : 49.2835706, Lng : -123.1150206, Q1 : 0.999999046326, Q2 : -0.000344673724612, Q3 : 0.000703284400515, Q4 : -0.00116900773719}
2019-04-14 11:34:02.71: SIM {TimeUS : 49735098, Roll : 0.0, Pitch : 0.11, Yaw : 359.86, Alt : 41.2200012207, Lat : 49.2835706, Lng : -123.1150206, Q1 : 0.999998807907, Q2 : 4.15464382968e-05, Q3 : 0.000989322783425, Q4 : -0.0011993177468}
2019-04-14 11:34:02.81: SIM {TimeUS : 49835058, Roll : 0.05, Pitch : 0.13, Yaw : 359.85, Alt : 41.4500007629, Lat : 49.2835706, Lng : -123.1150207, Q1 : 0.999998390675, Q2 : 0.000488650868647, Q3 : 0.00119732064195, Q4 : -0.00122890598141}
2019-04-14 11:34:02.91: SIM {TimeUS : 49935018, Roll : 0.08, Pitch : 0.11, Yaw : 359.85, Alt : 41.6899986267, Lat : 49.2835706, Lng : -123.1150207, Q1 : 0.999998450279, Q2 : 0.000762867974117, Q3 : 0.00100548600312, Q4 : -0.00125624856446}
2019-04-14 11:34:03.01: SIM {TimeUS : 50034978, Roll : 0.08, Pitch : 0.07, Yaw : 359.85, Alt : 41.9199981689, Lat : 49.2835706, Lng : -123.1150207, Q1 : 0.999998688698, Q2 : 0.000757202506065, Q3 : 0.000634888070635, Q4 : -0.00128258438781}
2019-04-14 11:34:03.11: SIM {TimeUS : 50134938, Roll : 0.05, Pitch : 0.04, Yaw : 359.85, Alt : 42.1500015259, Lat : 49.2835706, Lng : -123.1150207, Q1 : 0.999998986721, Q2 : 0.000442771910457, Q3 : 0.000351755850716, Q4 : -0.00130178441759}
2019-04-14 11:34:03.21: SIM {TimeUS : 50234898, Roll : 0.0, Pitch : 0.03, Yaw : 359.84, Alt : 42.3899993896, Lat : 49.2835706, Lng : -123.1150207, Q1 : 0.99999910593, Q2 : -2.03622148547e-05, Q3 : 0.000298175640637, Q4 : -0.00131581304595}
2019-04-14 11:34:03.31: SIM {TimeUS : 50334858, Roll : -0.03, Pitch : 0.06, Yaw : 359.84, Alt : 42.6199989319, Lat : 49.2835706, Lng : -123.1150207, Q1 : 0.999998927116, Q2 : -0.000312482181471, Q3 : 0.000541956687812, Q4 : -0.00132259284146}
2019-04-14 11:34:03.41: SIM {TimeUS : 50434818, Roll : -0.04, Pitch : 0.08, Yaw : 359.84, Alt : 42.8600006104, Lat : 49.2835704, Lng : -123.1150206, Q1 : 0.999998807907, Q2 : -0.000424462166848, Q3 : 0.000716020178515, Q4 : -0.00132659100927}
2019-04-14 11:34:03.51: SIM {TimeUS : 50534778, Roll : -0.04, Pitch : 0.07, Yaw : 359.84, Alt : 43.0900001526, Lat : 49.2835704, Lng : -123.1150206, Q1 : 0.999998807907, Q2 : -0.000382160244044, Q3 : 0.000694766407833, Q4 : -0.0013334385585}
2019-04-14 11:34:03.61: SIM {TimeUS : 50634738, Roll : -0.04, Pitch : 0.06, Yaw : 359.84, Alt : 43.3300018311, Lat : 49.2835704, Lng : -123.1150206, Q1 : 0.999998867512, Q2 : -0.000394235714339, Q3 : 0.000575474870857, Q4 : -0.00134340988006}
2019-04-14 11:34:03.71: SIM {TimeUS : 50734698, Roll : -0.03, Pitch : 0.04, Yaw : 359.84, Alt : 43.5600013733, Lat : 49.2835704, Lng : -123.1150206, Q1 : 0.999998927116, Q2 : -0.000323131971527, Q3 : 0.000426242535468, Q4 : -0.00135820789728}
2019-04-14 11:34:03.81: SIM {TimeUS : 50834658, Roll : -0.01, Pitch : 0.04, Yaw : 359.84, Alt : 43.7999992371, Lat : 49.2835704, Lng : -123.1150206, Q1 : 0.999998986721, Q2 : -0.000165865654708, Q3 : 0.000360667501809, Q4 : -0.00138121750206}
2019-04-14 11:34:03.91: SIM {TimeUS : 50934618, Roll : 0.0, Pitch : 0.04, Yaw : 359.83, Alt : 44.0299987793, Lat : 49.2835704, Lng : -123.1150206, Q1 : 0.999998927116, Q2 : -6.3009931182e-05, Q3 : 0.00037477578735, Q4 : -0.00140567321796}
2019-04-14 11:34:04.01: SIM {TimeUS : 51034578, Roll : -0.01, Pitch : 0.02, Yaw : 359.83, Alt : 44.2700004578, Lat : 49.2835704, Lng : -123.1150206, Q1 : 0.999998927116, Q2 : -9.85936931102e-05, Q3 : 0.000208501049201, Q4 : -0.00143095536623}
2019-04-14 11:34:04.11: SIM {TimeUS : 51134538, Roll : -0.02, Pitch : 0.0, Yaw : 359.83, Alt : 44.5, Lat : 49.2835704, Lng : -123.1150206, Q1 : 0.999998927116, Q2 : -0.000181327530299, Q3 : -8.68713177624e-05, Q4 : -0.00146199588198}
2019-04-14 11:34:04.21: SIM {TimeUS : 51234498, Roll : -0.02, Pitch : -0.02, Yaw : 359.82, Alt : 44.7400016785, Lat : 49.2835704, Lng : -123.1150206, Q1 : 0.999998807907, Q2 : -0.0002348167327, Q3 : -0.000243746937485, Q4 : -0.00149415701162}
2019-04-14 11:34:04.31: SIM {TimeUS : 51335291, Roll : -0.02, Pitch : -0.04, Yaw : 359.82, Alt : 44.9799995422, Lat : 49.2835704, Lng : -123.1150206, Q1 : 0.999998748302, Q2 : -0.000229100871366, Q3 : -0.000361190468539, Q4 : -0.00152736203745}
2019-04-14 11:34:04.41: SIM {TimeUS : 51435251, Roll : -0.02, Pitch : -0.04, Yaw : 359.82, Alt : 45.2099990845, Lat : 49.2835704, Lng : -123.1150206, Q1 : 0.999998688698, Q2 : -0.000259292311966, Q3 : -0.000394318572944, Q4 : -0.00155960139818}
2019-04-14 11:34:04.51: SIM {TimeUS : 51535211, Roll : -0.04, Pitch : -0.03, Yaw : 359.81, Alt : 45.4500007629, Lat : 49.2835704, Lng : -123.1150206, Q1 : 0.999998569489, Q2 : -0.00042154971743, Q3 : -0.000333428091835, Q4 : -0.00159543810878}
2019-04-14 11:34:04.61: SIM {TimeUS : 51635171, Roll : -0.07, Pitch : -0.03, Yaw : 359.81, Alt : 45.6800003052, Lat : 49.2835704, Lng : -123.1150206, Q1 : 0.999998390675, Q2 : -0.000698579882737, Q3 : -0.000276630860753, Q4 : -0.00163250428159}
2019-04-14 11:34:04.71: SIM {TimeUS : 51735131, Roll : -0.1, Pitch : -0.02, Yaw : 359.8, Alt : 45.9199981689, Lat : 49.2835703, Lng : -123.1150206, Q1 : 0.999998152256, Q2 : -0.000907297420781, Q3 : -0.000212857921724, Q4 : -0.00166739686392}
2019-04-14 11:34:04.81: SIM {TimeUS : 51835091, Roll : -0.1, Pitch : 0.0, Yaw : 359.8, Alt : 46.1500015259, Lat : 49.2835703, Lng : -123.1150206, Q1 : 0.999998092651, Q2 : -0.000957679527346, Q3 : -6.78531068843e-05, Q4 : -0.00169675960205}
2019-04-14 11:34:04.91: SIM {TimeUS : 51935051, Roll : -0.09, Pitch : 0.01, Yaw : 359.8, Alt : 46.3699989319, Lat : 49.2835704, Lng : -123.1150206, Q1 : 0.999998152256, Q2 : -0.000844128197059, Q3 : 0.000166170546436, Q4 : -0.00171904673334}
2019-04-14 11:34:05.01: SIM {TimeUS : 52035011, Roll : -0.07, Pitch : 0.03, Yaw : 359.8, Alt : 46.5900001526, Lat : 49.2835704, Lng : -123.1150206, Q1 : 0.999998211861, Q2 : -0.000617720652372, Q3 : 0.000312046700856, Q4 : -0.00174024619628}
2019-04-14 11:34:05.11: SIM {TimeUS : 52134971, Roll : -0.04, Pitch : 0.03, Yaw : 359.79, Alt : 46.8100013733, Lat : 49.2835704, Lng : -123.1150206, Q1 : 0.99999833107, Q2 : -0.000421290285885, Q3 : 0.00029620694113, Q4 : -0.0017607845366}
2019-04-14 11:34:05.21: SIM {TimeUS : 52234931, Roll : -0.03, Pitch : 0.01, Yaw : 359.79, Alt : 47.0200004578, Lat : 49.2835704, Lng : -123.1150206, Q1 : 0.99999833107, Q2 : -0.000324447726598, Q3 : 0.000144564241054, Q4 : -0.0017792340368}
2019-04-14 11:34:05.31: SIM {TimeUS : 52334891, Roll : -0.01, Pitch : -0.01, Yaw : 359.79, Alt : 47.2200012207, Lat : 49.2835703, Lng : -123.1150206, Q1 : 0.99999833107, Q2 : -0.000166873403941, Q3 : -0.000138706498547, Q4 : -0.00180003140122}
2019-04-14 11:34:05.41: SIM {TimeUS : 52434851, Roll : 0.0, Pitch : -0.05, Yaw : 359.79, Alt : 47.4199981689, Lat : 49.2835703, Lng : -123.1150206, Q1 : 0.999998271465, Q2 : 4.20721189585e-05, Q3 : -0.000440091855126, Q4 : -0.00182025891263}
2019-04-14 11:34:05.51: SIM {TimeUS : 52534811, Roll : 0.01, Pitch : -0.07, Yaw : 359.78, Alt : 47.5999984741, Lat : 49.2835703, Lng : -123.1150206, Q1 : 0.999998092651, Q2 : 0.000133926107083, Q3 : -0.000663211452775, Q4 : -0.00184485060163}
2019-04-14 11:34:05.61: SIM {TimeUS : 52634771, Roll : 0.02, Pitch : -0.11, Yaw : 359.78, Alt : 47.7799987793, Lat : 49.2835703, Lng : -123.1150206, Q1 : 0.999997735023, Q2 : 0.000201700138859, Q3 : -0.000977190095, Q4 : -0.0018713765312}
2019-04-14 11:34:05.71: SIM {TimeUS : 52734731, Roll : 0.04, Pitch : -0.12, Yaw : 359.78, Alt : 47.9399986267, Lat : 49.2835703, Lng : -123.1150206, Q1 : 0.999997496605, Q2 : 0.000424970785389, Q3 : -0.00110536511056, Q4 : -0.00189697463065}
2019-04-14 11:34:05.81: SIM {TimeUS : 52834691, Roll : 0.07, Pitch : -0.11, Yaw : 359.77, Alt : 48.0999984741, Lat : 49.2835703, Lng : -123.1150206, Q1 : 0.999997437, Q2 : 0.000651777372696, Q3 : -0.00102438020986, Q4 : -0.00192004651763}
2019-04-14 11:34:05.91: SIM {TimeUS : 52934651, Roll : 0.09, Pitch : -0.09, Yaw : 359.77, Alt : 48.2400016785, Lat : 49.2835704, Lng : -123.1150206, Q1 : 0.999997437, Q2 : 0.000792652950622, Q3 : -0.00083671376342, Q4 : -0.00193994457368}
2019-04-14 11:34:06.01: SIM {TimeUS : 53034611, Roll : 0.08, Pitch : -0.06, Yaw : 359.77, Alt : 48.3600006104, Lat : 49.2835704, Lng : -123.1150206, Q1 : 0.999997615814, Q2 : 0.000763004587498, Q3 : -0.000601205218118, Q4 : -0.0019617904909}
2019-04-14 11:34:06.11: SIM {TimeUS : 53134571, Roll : 0.07, Pitch : -0.04, Yaw : 359.77, Alt : 48.4799995422, Lat : 49.2835704, Lng : -123.1150206, Q1 : 0.999997735023, Q2 : 0.000694043177646, Q3 : -0.000427052989835, Q4 : -0.00198552524671}
2019-04-14 11:34:06.21: SIM {TimeUS : 53234531, Roll : 0.06, Pitch : -0.05, Yaw : 359.76, Alt : 48.5900001526, Lat : 49.2835704, Lng : -123.1150206, Q1 : 0.999997735023, Q2 : 0.000574808218516, Q3 : -0.00044731789967, Q4 : -0.00201121624559}
2019-04-14 11:34:06.31: SIM {TimeUS : 53335324, Roll : 0.04, Pitch : -0.05, Yaw : 359.76, Alt : 48.6800003052, Lat : 49.2835704, Lng : -123.1150206, Q1 : 0.999997735023, Q2 : 0.000353741779691, Q3 : -0.000462241529021, Q4 : -0.00204325839877}
2019-04-14 11:34:06.41: SIM {TimeUS : 53435284, Roll : 0.01, Pitch : -0.04, Yaw : 359.76, Alt : 48.7599983215, Lat : 49.2835704, Lng : -123.1150206, Q1 : 0.999997735023, Q2 : 0.000163989403518, Q3 : -0.0003830473579, Q4 : -0.00207574106753}
2019-04-14 11:34:06.51: SIM {TimeUS : 53535244, Roll : 0.0, Pitch : -0.02, Yaw : 359.75, Alt : 48.8300018311, Lat : 49.2835704, Lng : -123.1150206, Q1 : 0.999997735023, Q2 : 1.94386811927e-05, Q3 : -0.000232058082474, Q4 : -0.00210799858905}
2019-04-14 11:34:06.61: SIM {TimeUS : 53635204, Roll : 0.01, Pitch : -0.02, Yaw : 359.75, Alt : 48.8899993896, Lat : 49.2835704, Lng : -123.1150206, Q1 : 0.999997675419, Q2 : 0.000171373700141, Q3 : -0.000203997493372, Q4 : -0.00213560508564}
2019-04-14 11:34:06.71: SIM {TimeUS : 53735164, Roll : 0.18, Pitch : -0.12, Yaw : 359.75, Alt : 48.9399986267, Lat : 49.2835704, Lng : -123.1150206, Q1 : 0.999995827675, Q2 : 0.00157333118841, Q3 : -0.0010870374972, Q4 : -0.00215403945185}
2019-04-14 11:34:06.81: SIM {TimeUS : 53835124, Roll : 0.54, Pitch : -0.41, Yaw : 359.74, Alt : 48.9799995422, Lat : 49.2835704, Lng : -123.1150206, Q1 : 0.999979972839, Q2 : 0.00471109338105, Q3 : -0.00361941498704, Q4 : -0.0021723404061}
2019-04-14 11:34:06.91: SIM {TimeUS : 53935084, Roll : 1.09, Pitch : -0.91, Yaw : 359.74, Alt : 49.0200004578, Lat : 49.2835704, Lng : -123.1150206, Q1 : 0.999920248985, Q2 : 0.0095245949924, Q3 : -0.00799986347556, Q4 : -0.00218884833157}
2019-04-14 11:34:07.01: SIM {TimeUS : 54035044, Roll : 1.77, Pitch : -1.56, Yaw : 359.72, Alt : 49.0499992371, Lat : 49.2835706, Lng : -123.1150205, Q1 : 0.999784290791, Q2 : 0.0154386116192, Q3 : -0.0137247275561, Q4 : -0.00217998190783}
2019-04-14 11:34:07.11: SIM {TimeUS : 54135004, Roll : 2.51, Pitch : -2.31, Yaw : 359.7, Alt : 49.0800018311, Lat : 49.2835706, Lng : -123.1150205, Q1 : 0.999553143978, Q2 : 0.0218755509704, Q3 : -0.0202603321522, Q4 : -0.00213171285577}
2019-04-14 11:34:07.21: SIM {TimeUS : 54234964, Roll : 3.22, Pitch : -3.02, Yaw : 359.68, Alt : 49.1100006104, Lat : 49.2835707, Lng : -123.1150203, Q1 : 0.999255239964, Q2 : 0.0280316211283, Q3 : -0.0264412816614, Q4 : -0.00201630499214}
2019-04-14 11:34:07.31: SIM {TimeUS : 54334924, Roll : 3.8, Pitch : -3.57, Yaw : 359.67, Alt : 49.1300010681, Lat : 49.2835708, Lng : -123.1150202, Q1 : 0.998960614204, Q2 : 0.0330857224762, Q3 : -0.0313007719815, Q4 : -0.0018284387188}
2019-04-14 11:34:07.41: SIM {TimeUS : 54434884, Roll : 4.23, Pitch : -3.99, Yaw : 359.67, Alt : 49.1399993896, Lat : 49.2835709, Lng : -123.11502, Q1 : 0.99871057272, Q2 : 0.0368044413626, Q3 : -0.0349297821522, Q4 : -0.00158919091336}
2019-04-14 11:34:07.51: SIM {TimeUS : 54534844, Roll : 4.54, Pitch : -4.29, Yaw : 359.67, Alt : 49.1599998474, Lat : 49.2835712, Lng : -123.1150196, Q1 : 0.998510360718, Q2 : 0.0395420342684, Q3 : -0.0375731140375, Q4 : -0.00132110877894}
2019-04-14 11:34:07.61: SIM {TimeUS : 54634804, Roll : 4.79, Pitch : -4.53, Yaw : 359.69, Alt : 49.1699981689, Lat : 49.2835714, Lng : -123.1150192, Q1 : 0.998342573643, Q2 : 0.0417188890278, Q3 : -0.0396303795278, Q4 : -0.00104080373421}
2019-04-14 11:34:07.71: SIM {TimeUS : 54734764, Roll : 5.04, Pitch : -4.77, Yaw : 359.7, Alt : 49.1899986267, Lat : 49.2835716, Lng : -123.1150187, Q1 : 0.998166501522, Q2 : 0.0438358075917, Q3 : -0.0417322404683, Q4 : -0.000761730363593}
2019-04-14 11:34:07.81: SIM {TimeUS : 54834724, Roll : 5.32, Pitch : -5.04, Yaw : 359.7, Alt : 49.2000007629, Lat : 49.2835721, Lng : -123.1150181, Q1 : 0.997952342033, Q2 : 0.0463136695325, Q3 : -0.04411226511, Q4 : -0.000483503041323}
2019-04-14 11:34:07.91: SIM {TimeUS : 54934684, Roll : 5.62, Pitch : -5.31, Yaw : 359.71, Alt : 49.2000007629, Lat : 49.2835725, Lng : -123.1150174, Q1 : 0.997727453709, Q2 : 0.0488671176136, Q3 : -0.0463889501989, Q4 : -0.000199987902306}
2019-04-14 11:34:08.01: SIM {TimeUS : 55034644, Roll : 5.85, Pitch : -5.5, Yaw : 359.72, Alt : 49.2099990845, Lat : 49.2835729, Lng : -123.1150167, Q1 : 0.997543931007, Q2 : 0.0509044826031, Q3 : -0.0481121204793, Q4 : 7.47493468225e-05}
2019-04-14 11:34:08.11: SIM {TimeUS : 55134604, Roll : 6.01, Pitch : -5.65, Yaw : 359.73, Alt : 49.2200012207, Lat : 49.2835734, Lng : -123.1150158, Q1 : 0.997408866882, Q2 : 0.0523300170898, Q3 : -0.0493671447039, Q4 : 0.000321481085848}
2019-04-14 11:34:08.21: SIM {TimeUS : 55234564, Roll : 6.12, Pitch : -5.75, Yaw : 359.74, Alt : 49.2299995422, Lat : 49.283574, Lng : -123.1150149, Q1 : 0.997314751148, Q2 : 0.0532411895692, Q3 : -0.0502840466797, Q4 : 0.000500638154335}
2019-04-14 11:34:08.31: SIM {TimeUS : 55334524, Roll : 6.2, Pitch : -5.83, Yaw : 359.75, Alt : 49.2299995422, Lat : 49.2835746, Lng : -123.1150139, Q1 : 0.997242689133, Q2 : 0.053978394717, Q3 : -0.050921227783, Q4 : 0.000627844769042}
2019-04-14 11:34:08.41: SIM {TimeUS : 55435317, Roll : 6.29, Pitch : -5.91, Yaw : 359.75, Alt : 49.2400016785, Lat : 49.2835753, Lng : -123.1150128, Q1 : 0.997168838978, Q2 : 0.0546951033175, Q3 : -0.0515980273485, Q4 : 0.000689159613103}
2019-04-14 11:34:08.51: SIM {TimeUS : 55535277, Roll : 6.49, Pitch : -5.96, Yaw : 359.79, Alt : 49.2400016785, Lat : 49.2835761, Lng : -123.1150116, Q1 : 0.99704682827, Q2 : 0.0564643628895, Q3 : -0.0520393289626, Q4 : 0.00114178704098}
2019-04-14 11:34:08.61: SIM {TimeUS : 55635237, Roll : 6.96, Pitch : -5.89, Yaw : 0.26, Alt : 49.25, Lat : 49.2835768, Lng : -123.1150104, Q1 : 0.996825635433, Q2 : 0.0607408843935, Q3 : -0.0511848218739, Q4 : 0.0054149995558}
2019-04-14 11:34:08.71: SIM {TimeUS : 55735197, Roll : 7.62, Pitch : -5.82, Yaw : 1.84, Alt : 49.25, Lat : 49.2835776, Lng : -123.115009, Q1 : 0.99631601572, Q2 : 0.0672206282616, Q3 : -0.0495831482112, Q4 : 0.0194246098399}
2019-04-14 11:34:08.81: SIM {TimeUS : 55835157, Roll : 8.16, Pitch : -6.05, Yaw : 4.98, Alt : 49.25, Lat : 49.2835785, Lng : -123.1150076, Q1 : 0.994967222214, Q2 : 0.0732937157154, Q3 : -0.0495210960507, Q4 : 0.0470736734569}
2019-04-14 11:34:08.91: SIM {TimeUS : 55935117, Roll : 8.28, Pitch : -6.72, Yaw : 9.68, Alt : 49.2599983215, Lat : 49.2835793, Lng : -123.115006, Q1 : 0.991759479046, Q2 : 0.0767907947302, Q3 : -0.0522016063333, Q4 : 0.0882681831717}
2019-04-14 11:34:09.01: SIM {TimeUS : 56035077, Roll : 7.8, Pitch : -7.8, Yaw : 15.74, Alt : 49.2599983215, Lat : 49.2835801, Lng : -123.1150044, Q1 : 0.985357224941, Q2 : 0.0765686556697, Q3 : -0.0579344630241, Q4 : 0.140897125006}
2019-04-14 11:34:09.11: SIM {TimeUS : 56135037, Roll : 6.66, Pitch : -9.15, Yaw : 22.89, Alt : 49.2599983215, Lat : 49.2835811, Lng : -123.1150027, Q1 : 0.974401652813, Q2 : 0.0725964233279, Q3 : -0.0665638446808, Q4 : 0.202090248466}
2019-04-14 11:34:09.21: SIM {TimeUS : 56234997, Roll : 4.85, Pitch : -10.56, Yaw : 30.88, Alt : 49.2599983215, Lat : 49.283582, Lng : -123.1150008, Q1 : 0.95789450407, Q2 : 0.0651428699493, Q3 : -0.0774292200804, Q4 : 0.268699169159}
2019-04-14 11:34:09.31: SIM {TimeUS : 56334957, Roll : 2.22, Pitch : -11.78, Yaw : 39.24, Alt : 49.2599983215, Lat : 49.283583, Lng : -123.1149988, Q1 : 0.936095833778, Q2 : 0.0526230074465, Q3 : -0.0901958197355, Q4 : 0.335887134075}
2019-04-14 11:34:09.41: SIM {TimeUS : 56434917, Roll : -0.97, Pitch : -12.54, Yaw : 47.15, Alt : 49.2700004578, Lat : 49.2835841, Lng : -123.1149967, Q1 : 0.911370635033, Q2 : 0.035967990756, Q3 : -0.103498101234, Q4 : 0.396734178066}
2019-04-14 11:34:09.51: SIM {TimeUS : 56534877, Roll : -4.05, Pitch : -12.8, Yaw : 53.76, Alt : 49.2700004578, Lat : 49.2835852, Lng : -123.1149946, Q1 : 0.887618780136, Q2 : 0.0190190989524, Q3 : -0.115319944918, Q4 : 0.445502460003}
2019-04-14 11:34:09.61: SIM {TimeUS : 56634837, Roll : -6.4, Pitch : -12.73, Yaw : 58.49, Alt : 49.2700004578, Lat : 49.2835864, Lng : -123.1149924, Q1 : 0.868826806545, Q2 : 0.00563232740387, Q3 : -0.123705856502, Q4 : 0.479379922152}
2019-04-14 11:34:09.71: SIM {TimeUS : 56734797, Roll : -7.68, Pitch : -12.57, Yaw : 61.2, Alt : 49.2700004578, Lat : 49.2835877, Lng : -123.1149902, Q1 : 0.857352077961, Q2 : -0.0017326544039, Q3 : -0.127947643399, Q4 : 0.498571783304}
2019-04-14 11:34:09.81: SIM {TimeUS : 56834757, Roll : -7.91, Pitch : -12.55, Yaw : 62.1, Alt : 49.2700004578, Lat : 49.2835891, Lng : -123.114988, Q1 : 0.853437364101, Q2 : -0.00255025853403, Q3 : -0.128819689155, Q4 : 0.505018532276}
2019-04-14 11:34:09.91: SIM {TimeUS : 56934717, Roll : -7.29, Pitch : -12.76, Yaw : 61.51, Alt : 49.2700004578, Lat : 49.2835905, Lng : -123.1149857, Q1 : 0.855910718441, Q2 : 0.00238532247022, Q3 : -0.127703413367, Q4 : 0.501101791859}
2019-04-14 11:34:10.01: SIM {TimeUS : 57034677, Roll : -6.05, Pitch : -13.22, Yaw : 59.79, Alt : 49.2700004578, Lat : 49.2835922, Lng : -123.1149834, Q1 : 0.862976551056, Q2 : 0.0118108354509, Q3 : -0.125878244638, Q4 : 0.489169418812}
2019-04-14 11:34:10.11: SIM {TimeUS : 57134637, Roll : -4.43, Pitch : -13.85, Yaw : 57.28, Alt : 49.2700004578, Lat : 49.283594, Lng : -123.114981, Q1 : 0.872790634632, Q2 : 0.0240672826767, Q3 : -0.124199390411, Q4 : 0.471414655447}
2019-04-14 11:34:10.21: SIM {TimeUS : 57234597, Roll : -2.64, Pitch : -14.52, Yaw : 54.3, Alt : 49.2700004578, Lat : 49.2835957, Lng : -123.1149786, Q1 : 0.883751809597, Q2 : 0.0373274683952, Q3 : -0.122936800122, Q4 : 0.449973315001}
2019-04-14 11:34:10.31: SIM {TimeUS : 57334557, Roll : -0.85, Pitch : -15.11, Yaw : 51.15, Alt : 49.2799987793, Lat : 49.2835975, Lng : -123.1149761, Q1 : 0.894565165043, Q2 : 0.0501018278301, Q3 : -0.121829114854, Q4 : 0.427083849907}
2019-04-14 11:34:10.41: SIM {TimeUS : 57434517, Roll : 0.75, Pitch : -15.53, Yaw : 48.16, Alt : 49.2799987793, Lat : 49.2835994, Lng : -123.1149735, Q1 : 0.904186964035, Q2 : 0.0611186139286, Q3 : -0.12070030719, Q4 : 0.405144274235}
2019-04-14 11:34:10.51: SIM {TimeUS : 57535310, Roll : 2.06, Pitch : -15.75, Yaw : 45.62, Alt : 49.2799987793, Lat : 49.2836013, Lng : -123.1149707, Q1 : 0.911971390247, Q2 : 0.0695975795388, Q3 : -0.119347453117, Q4 : 0.386290729046}
2019-04-14 11:34:10.61: SIM {TimeUS : 57635270, Roll : 2.95, Pitch : -15.79, Yaw : 43.77, Alt : 49.2799987793, Lat : 49.2836031, Lng : -123.1149677, Q1 : 0.917476177216, Q2 : 0.0749174803495, Q3 : -0.117917649448, Q4 : 0.372451812029}
2019-04-14 11:34:10.71: SIM {TimeUS : 57735230, Roll : 3.39, Pitch : -15.74, Yaw : 42.69, Alt : 49.2799987793, Lat : 49.283605, Lng : -123.1149648, Q1 : 0.92072147131, Q2 : 0.0771570503712, Q3 : -0.116856299341, Q4 : 0.364229887724}
2019-04-14 11:34:10.81: SIM {TimeUS : 57835190, Roll : 3.4, Pitch : -15.69, Yaw : 42.36, Alt : 49.2799987793, Lat : 49.2836071, Lng : -123.1149617, Q1 : 0.921817779541, Q2 : 0.0767929106951, Q3 : -0.116651050746, Q4 : 0.361590057611}
2019-04-14 11:34:10.91: SIM {TimeUS : 57935150, Roll : 3.05, Pitch : -15.71, Yaw : 42.68, Alt : 49.2799987793, Lat : 49.283609, Lng : -123.1149585, Q1 : 0.921002447605, Q2 : 0.0743843466043, Q3 : -0.117690362036, Q4 : 0.363827496767}
2019-04-14 11:34:11.01: SIM {TimeUS : 58035110, Roll : 2.43, Pitch : -15.8, Yaw : 43.51, Alt : 49.2799987793, Lat : 49.283611, Lng : -123.1149552, Q1 : 0.918637156487, Q2 : 0.0705276951194, Q3 : -0.119890831411, Q4 : 0.369807869196}
2019-04-14 11:34:11.11: SIM {TimeUS : 58135070, Roll : 1.63, Pitch : -15.95, Yaw : 44.67, Alt : 49.2799987793, Lat : 49.2836129, Lng : -123.1149518, Q1 : 0.915163338184, Q2 : 0.0658089891076, Q3 : -0.122998334467, Q4 : 0.37817543745}
2019-04-14 11:34:11.21: SIM {TimeUS : 58235030, Roll : 0.77, Pitch : -16.09, Yaw : 45.98, Alt : 49.2799987793, Lat : 49.2836151, Lng : -123.1149483, Q1 : 0.911110937595, Q2 : 0.0608691908419, Q3 : -0.126247778535, Q4 : 0.387599438429}
2019-04-14 11:34:11.31: SIM {TimeUS : 58334990, Roll : 0.0, Pitch : -16.2, Yaw : 47.26, Alt : 49.2799987793, Lat : 49.2836171, Lng : -123.1149448, Q1 : 0.906988143921, Q2 : 0.0564310960472, Q3 : -0.129159659147, Q4 : 0.396870017052}
2019-04-14 11:34:11.41: SIM {TimeUS : 58434950, Roll : -0.67, Pitch : -16.28, Yaw : 48.39, Alt : 49.2799987793, Lat : 49.2836193, Lng : -123.1149412, Q1 : 0.903272151947, Q2 : 0.0527508631349, Q3 : -0.131572514772, Q4 : 0.404975920916}
2019-04-14 11:34:11.51: SIM {TimeUS : 58534910, Roll : -1.13, Pitch : -16.34, Yaw : 49.26, Alt : 49.2799987793, Lat : 49.2836214, Lng : -123.1149375, Q1 : 0.900314152241, Q2 : 0.0502882152796, Q3 : -0.133283242583, Q4 : 0.411267697811}
2019-04-14 11:34:11.61: SIM {TimeUS : 58634870, Roll : -1.37, Pitch : -16.36, Yaw : 49.83, Alt : 49.2799987793, Lat : 49.2836236, Lng : -123.1149338, Q1 : 0.898354411125, Q2 : 0.0491754300892, Q3 : -0.134085431695, Q4 : 0.4154060781}
2019-04-14 11:34:11.71: SIM {TimeUS : 58734830, Roll : -1.41, Pitch : -16.37, Yaw : 50.07, Alt : 49.2799987793, Lat : 49.2836257, Lng : -123.1149301, Q1 : 0.897465229034, Q2 : 0.0491635017097, Q3 : -0.134172663093, Q4 : 0.417297005653}
2019-04-14 11:34:11.81: SIM {TimeUS : 58834790, Roll : -1.31, Pitch : -16.39, Yaw : 50.03, Alt : 49.2799987793, Lat : 49.283628, Lng : -123.1149263, Q1 : 0.897535324097, Q2 : 0.0500302128494, Q3 : -0.133995130658, Q4 : 0.417100280523}
2019-04-14 11:34:11.91: SIM {TimeUS : 58934750, Roll : -1.09, Pitch : -16.44, Yaw : 49.76, Alt : 49.2799987793, Lat : 49.2836304, Lng : -123.1149225, Q1 : 0.898376464844, Q2 : 0.0516167543828, Q3 : -0.133696272969, Q4 : 0.415187567472}
2019-04-14 11:34:12.01: SIM {TimeUS : 59034710, Roll : -0.79, Pitch : -16.51, Yaw : 49.32, Alt : 49.2799987793, Lat : 49.2836327, Lng : -123.1149187, Q1 : 0.899739444256, Q2 : 0.0536811165512, Q3 : -0.133426249027, Q4 : 0.41204944253}
2019-04-14 11:34:12.11: SIM {TimeUS : 59134670, Roll : -0.47, Pitch : -16.58, Yaw : 48.79, Alt : 49.2900009155, Lat : 49.2836351, Lng : -123.1149148, Q1 : 0.90139991045, Q2 : 0.0558575466275, Q3 : -0.133063480258, Q4 : 0.408230692148}
2019-04-14 11:34:12.21: SIM {TimeUS : 59234630, Roll : -0.14, Pitch : -16.65, Yaw : 48.25, Alt : 49.2900009155, Lat : 49.2836375, Lng : -123.1149109, Q1 : 0.903108119965, Q2 : 0.0580197572708, Q3 : -0.132665619254, Q4 : 0.404263883829}
2019-04-14 11:34:12.31: SIM {TimeUS : 59334590, Roll : 0.14, Pitch : -16.69, Yaw : 47.74, Alt : 49.2900009155, Lat : 49.2836399, Lng : -123.1149069, Q1 : 0.90467274189, Q2 : 0.059933912009, Q3 : -0.132279753685, Q4 : 0.400596052408}
2019-04-14 11:34:12.41: SIM {TimeUS : 59434550, Roll : 0.38, Pitch : -16.73, Yaw : 47.33, Alt : 49.2900009155, Lat : 49.2836422, Lng : -123.1149029, Q1 : 0.905951201916, Q2 : 0.0614756159484, Q3 : -0.131949514151, Q4 : 0.397570699453}
2019-04-14 11:34:12.51: SIM {TimeUS : 59534510, Roll : 0.55, Pitch : -16.75, Yaw : 47.03, Alt : 49.2900009155, Lat : 49.2836446, Lng : -123.1148988, Q1 : 0.906865298748, Q2 : 0.0625519454479, Q3 : -0.131691545248, Q4 : 0.395398467779}
2019-04-14 11:34:12.61: SIM {TimeUS : 59635303, Roll : 0.63, Pitch : -16.78, Yaw : 46.86, Alt : 49.2900009155, Lat : 49.2836472, Lng : -123.1148947, Q1 : 0.907374918461, Q2 : 0.0630944594741, Q3 : -0.13170003891, Q4 : 0.394138306379}
2019-04-14 11:34:12.71: SIM {TimeUS : 59735263, Roll : 0.63, Pitch : -16.8, Yaw : 46.81, Alt : 49.2900009155, Lat : 49.2836497, Lng : -123.1148906, Q1 : 0.907510221004, Q2 : 0.0630690902472, Q3 : -0.131911635399, Q4 : 0.393759906292}
2019-04-14 11:34:12.81: SIM {TimeUS : 59835223, Roll : 0.56, Pitch : -16.82, Yaw : 46.87, Alt : 49.2900009155, Lat : 49.2836521, Lng : -123.1148864, Q1 : 0.907322108746, Q2 : 0.0626547187567, Q3 : -0.132337480783, Q4 : 0.394116491079}
2019-04-14 11:34:12.91: SIM {TimeUS : 59935183, Roll : 0.43, Pitch : -16.86, Yaw : 47.0, Alt : 49.2900009155, Lat : 49.2836546, Lng : -123.1148822, Q1 : 0.906886398792, Q2 : 0.0619544573128, Q3 : -0.132968336344, Q4 : 0.395016729832}
2019-04-14 11:34:13.01: SIM {TimeUS : 60035143, Roll : 0.28, Pitch : -16.91, Yaw : 47.19, Alt : 49.2900009155, Lat : 49.2836571, Lng : -123.114878, Q1 : 0.906285524368, Q2 : 0.0610932745039, Q3 : -0.13379919529, Q4 : 0.396247297525}
2019-04-14 11:34:13.11: SIM {TimeUS : 60135103, Roll : 0.11, Pitch : -16.95, Yaw : 47.39, Alt : 49.2900009155, Lat : 49.2836597, Lng : -123.1148737, Q1 : 0.905628800392, Q2 : 0.0601336173713, Q3 : -0.134632512927, Q4 : 0.3976110816}
2019-04-14 11:34:13.21: SIM {TimeUS : 60235063, Roll : -0.04, Pitch : -16.98, Yaw : 47.58, Alt : 49.2900009155, Lat : 49.2836621, Lng : -123.1148694, Q1 : 0.905004501343, Q2 : 0.0592048317194, Q3 : -0.135330185294, Q4 : 0.398932814598}
2019-04-14 11:34:13.31: SIM {TimeUS : 60335023, Roll : -0.17, Pitch : -17.01, Yaw : 47.74, Alt : 49.2900009155, Lat : 49.2836646, Lng : -123.1148651, Q1 : 0.904469192028, Q2 : 0.0584881789982, Q3 : -0.135921314359, Q4 : 0.400049954653}
2019-04-14 11:34:13.41: SIM {TimeUS : 60434983, Roll : -0.24, Pitch : -17.05, Yaw : 47.86, Alt : 49.2999992371, Lat : 49.2836673, Lng : -123.1148608, Q1 : 0.904049992561, Q2 : 0.0582049079239, Q3 : -0.13641281426, Q4 : 0.400870829821}
2019-04-14 11:34:13.51: SIM {TimeUS : 60534943, Roll : -0.27, Pitch : -17.1, Yaw : 47.92, Alt : 49.2999992371, Lat : 49.2836699, Lng : -123.1148564, Q1 : 0.9037784338, Q2 : 0.0582636706531, Q3 : -0.136818543077, Q4 : 0.401335984468}
2019-04-14 11:34:13.61: SIM {TimeUS : 60634903, Roll : -0.24, Pitch : -17.14, Yaw : 47.94, Alt : 49.2999992371, Lat : 49.2836724, Lng : -123.1148521, Q1 : 0.903668999672, Q2 : 0.0586303137243, Q3 : -0.137068882585, Q4 : 0.401443570852}
2019-04-14 11:34:13.71: SIM {TimeUS : 60734863, Roll : -0.17, Pitch : -17.18, Yaw : 47.9, Alt : 49.2999992371, Lat : 49.283675, Lng : -123.1148477, Q1 : 0.903707802296, Q2 : 0.0592538714409, Q3 : -0.137193411589, Q4 : 0.401222079992}
2019-04-14 11:34:13.81: SIM {TimeUS : 60834823, Roll : -0.11, Pitch : -17.21, Yaw : 47.83, Alt : 49.2999992371, Lat : 49.2836777, Lng : -123.1148433, Q1 : 0.903890669346, Q2 : 0.0598149336874, Q3 : -0.137227535248, Q4 : 0.40071490407}
2019-04-14 11:34:13.91: SIM {TimeUS : 60934783, Roll : -0.05, Pitch : -17.23, Yaw : 47.73, Alt : 49.2999992371, Lat : 49.2836803, Lng : -123.1148388, Q1 : 0.904180705547, Q2 : 0.0601849071681, Q3 : -0.137184023857, Q4 : 0.400019437075}
2019-04-14 11:34:14.01: SIM {TimeUS : 61034743, Roll : -0.01, Pitch : -17.23, Yaw : 47.63, Alt : 49.2999992371, Lat : 49.2836829, Lng : -123.1148344, Q1 : 0.904527306557, Q2 : 0.0603878833354, Q3 : -0.137130364776, Q4 : 0.399222910404}
2019-04-14 11:34:14.11: SIM {TimeUS : 61134703, Roll : 0.03, Pitch : -17.23, Yaw : 47.52, Alt : 49.2999992371, Lat : 49.2836857, Lng : -123.1148299, Q1 : 0.904870092869, Q2 : 0.0606670118868, Q3 : -0.137039288878, Q4 : 0.398434340954}
2019-04-14 11:34:14.21: SIM {TimeUS : 61234663, Roll : 0.08, Pitch : -17.25, Yaw : 47.42, Alt : 49.2999992371, Lat : 49.2836882, Lng : -123.1148254, Q1 : 0.905165731907, Q2 : 0.0609825067222, Q3 : -0.137054175138, Q4 : 0.397708833218}
2019-04-14 11:34:14.31: SIM {TimeUS : 61334623, Roll : 0.14, Pitch : -17.29, Yaw : 47.34, Alt : 49.3100013733, Lat : 49.283691, Lng : -123.1148209, Q1 : 0.905367493629, Q2 : 0.0615078657866, Q3 : -0.137213379145, Q4 : 0.397113323212}
2019-04-14 11:34:14.41: SIM {TimeUS : 61434583, Roll : 0.19, Pitch : -17.35, Yaw : 47.28, Alt : 49.3100013733, Lat : 49.2836937, Lng : -123.1148164, Q1 : 0.905479609966, Q2 : 0.0620612204075, Q3 : -0.137549757957, Q4 : 0.396654963493}
2019-04-14 11:34:14.51: SIM {TimeUS : 61534543, Roll : 0.22, Pitch : -17.39, Yaw : 47.24, Alt : 49.3100013733, Lat : 49.2836963, Lng : -123.1148119, Q1 : 0.905560433865, Q2 : 0.0623562112451, Q3 : -0.137743368745, Q4 : 0.396356880665}
2019-04-14 11:34:14.61: SIM {TimeUS : 61634503, Roll : 0.23, Pitch : -17.38, Yaw : 47.22, Alt : 49.3100013733, Lat : 49.2836991, Lng : -123.1148073, Q1 : 0.905619084835, Q2 : 0.0624068006873, Q3 : -0.137699320912, Q4 : 0.396230101585}
2019-04-14 11:34:14.71: SIM {TimeUS : 61735296, Roll : 0.21, Pitch : -17.39, Yaw : 47.22, Alt : 49.3100013733, Lat : 49.2837017, Lng : -123.1148027, Q1 : 0.905627846718, Q2 : 0.0622347854078, Q3 : -0.137820959091, Q4 : 0.396194964647}
2019-04-14 11:34:14.81: SIM {TimeUS : 61835256, Roll : 0.16, Pitch : -17.41, Yaw : 47.23, Alt : 49.3100013733, Lat : 49.2837046, Lng : -123.114798, Q1 : 0.905588030815, Q2 : 0.0619482509792, Q3 : -0.138107731938, Q4 : 0.39623105526}
2019-04-14 11:34:14.91: SIM {TimeUS : 61935216, Roll : 0.12, Pitch : -17.43, Yaw : 47.25, Alt : 49.3100013733, Lat : 49.2837072, Lng : -123.1147936, Q1 : 0.905510187149, Q2 : 0.0617299750447, Q3 : -0.138420626521, Q4 : 0.396333783865}
2019-04-14 11:34:15.01: SIM {TimeUS : 62035176, Roll : 0.09, Pitch : -17.46, Yaw : 47.28, Alt : 49.3100013733, Lat : 49.28371, Lng : -123.1147889, Q1 : 0.905409574509, Q2 : 0.0616439729929, Q3 : -0.138736173511, Q4 : 0.396466702223}
2019-04-14 11:34:15.11: SIM {TimeUS : 62135136, Roll : 0.08, Pitch : -17.48, Yaw : 47.3, Alt : 49.3100013733, Lat : 49.2837127, Lng : -123.1147843, Q1 : 0.905323684216, Q2 : 0.0616492144763, Q3 : -0.138912573457, Q4 : 0.396600246429}
2019-04-14 11:34:15.21: SIM {TimeUS : 62235096, Roll : 0.08, Pitch : -17.5, Yaw : 47.31, Alt : 49.3100013733, Lat : 49.2837155, Lng : -123.1147797, Q1 : 0.905244469643, Q2 : 0.0617361217737, Q3 : -0.139088869095, Q4 : 0.396705716848}
2019-04-14 11:34:15.31: SIM {TimeUS : 62335056, Roll : 0.09, Pitch : -17.51, Yaw : 47.32, Alt : 49.3100013733, Lat : 49.2837182, Lng : -123.1147751, Q1 : 0.905199229717, Q2 : 0.0618274249136, Q3 : -0.139159649611, Q4 : 0.396769851446}
2019-04-14 11:34:15.41: SIM {TimeUS : 62435016, Roll : 0.1, Pitch : -17.53, Yaw : 47.32, Alt : 49.3100013733, Lat : 49.283721, Lng : -123.1147704, Q1 : 0.905170559883, Q2 : 0.0619783326983, Q3 : -0.139290452003, Q4 : 0.396765828133}
2019-04-14 11:34:15.51: SIM {TimeUS : 62534976, Roll : 0.11, Pitch : -17.56, Yaw : 47.31, Alt : 49.3199996948, Lat : 49.2837238, Lng : -123.1147657, Q1 : 0.905166625977, Q2 : 0.0621813870966, Q3 : -0.13946904242, Q4 : 0.396680295467}
2019-04-14 11:34:15.61: SIM {TimeUS : 62634936, Roll : 0.11, Pitch : -17.6, Yaw : 47.29, Alt : 49.3199996948, Lat : 49.2837265, Lng : -123.1147611, Q1 : 0.905193328857, Q2 : 0.0623017512262, Q3 : -0.139751136303, Q4 : 0.396501094103}
2019-04-14 11:34:15.71: SIM {TimeUS : 62734896, Roll : 0.09, Pitch : -17.64, Yaw : 47.26, Alt : 49.3199996948, Lat : 49.2837294, Lng : -123.1147564, Q1 : 0.905240476131, Q2 : 0.0622548311949, Q3 : -0.140201613307, Q4 : 0.396241754293}
2019-04-14 11:34:15.81: SIM {TimeUS : 62834856, Roll : 0.08, Pitch : -17.69, Yaw : 47.23, Alt : 49.3199996948, Lat : 49.2837321, Lng : -123.1147517, Q1 : 0.905293703079, Q2 : 0.0623026266694, Q3 : -0.140624448657, Q4 : 0.395962804556}
2019-04-14 11:34:15.91: SIM {TimeUS : 62934816, Roll : 0.1, Pitch : -17.72, Yaw : 47.2, Alt : 49.3199996948, Lat : 49.283735, Lng : -123.114747, Q1 : 0.90535479784, Q2 : 0.0625505819917, Q3 : -0.140839725733, Q4 : 0.395707368851}
2019-04-14 11:34:16.01: SIM {TimeUS : 63034776, Roll : 0.13, Pitch : -17.73, Yaw : 47.16, Alt : 49.3199996948, Lat : 49.2837378, Lng : -123.1147423, Q1 : 0.905443608761, Q2 : 0.062752597034, Q3 : -0.140826970339, Q4 : 0.395476609468}
2019-04-14 11:34:16.11: SIM {TimeUS : 63134736, Roll : 0.15, Pitch : -17.72, Yaw : 47.13, Alt : 49.3199996948, Lat : 49.2837405, Lng : -123.1147375, Q1 : 0.905555963516, Q2 : 0.0628384649754, Q3 : -0.140641972423, Q4 : 0.395271480083}
2019-04-14 11:34:16.21: SIM {TimeUS : 63234696, Roll : 0.15, Pitch : -17.7, Yaw : 47.11, Alt : 49.3199996948, Lat : 49.2837434, Lng : -123.1147328, Q1 : 0.905671715736, Q2 : 0.0626997500658, Q3 : -0.140528798103, Q4 : 0.395068526268}
2019-04-14 11:34:16.31: SIM {TimeUS : 63334656, Roll : 0.14, Pitch : -17.68, Yaw : 47.08, Alt : 49.3199996948, Lat : 49.2837461, Lng : -123.1147281, Q1 : 0.905781745911, Q2 : 0.06254760921, Q3 : -0.140404433012, Q4 : 0.394884675741}
2019-04-14 11:34:16.41: SIM {TimeUS : 63434616, Roll : 0.15, Pitch : -17.66, Yaw : 47.06, Alt : 49.3199996948, Lat : 49.283749, Lng : -123.1147233, Q1 : 0.905867338181, Q2 : 0.06249717623, Q3 : -0.140234932303, Q4 : 0.394756406546}
2019-04-14 11:34:16.51: SIM {TimeUS : 63534576, Roll : 0.15, Pitch : -17.67, Yaw : 47.05, Alt : 49.3199996948, Lat : 49.2837519, Lng : -123.1147185, Q1 : 0.905906140804, Q2 : 0.0625315755606, Q3 : -0.140295132995, Q4 : 0.394640594721}
2019-04-14 11:34:16.61: SIM {TimeUS : 63634536, Roll : 0.16, Pitch : -17.7, Yaw : 47.04, Alt : 49.3199996948, Lat : 49.2837547, Lng : -123.1147138, Q1 : 0.905902802944, Q2 : 0.062677539885, Q3 : -0.140538990498, Q4 : 0.39453831315}
2019-04-14 11:34:16.71: SIM {TimeUS : 63734496, Roll : 0.15, Pitch : -17.76, Yaw : 47.03, Alt : 49.3199996948, Lat : 49.2837576, Lng : -123.114709, Q1 : 0.905864477158, Q2 : 0.0628066286445, Q3 : -0.141024768353, Q4 : 0.394432336092}
2019-04-14 11:34:16.81: SIM {TimeUS : 63835289, Roll : 0.14, Pitch : -17.81, Yaw : 47.02, Alt : 49.3199996948, Lat : 49.2837605, Lng : -123.1147042, Q1 : 0.905819535255, Q2 : 0.0629540830851, Q3 : -0.141511186957, Q4 : 0.394337892532}
2019-04-14 11:34:16.91: SIM {TimeUS : 63935249, Roll : 0.14, Pitch : -17.84, Yaw : 47.02, Alt : 49.3199996948, Lat : 49.2837632, Lng : -123.1146994, Q1 : 0.905804097652, Q2 : 0.0630615279078, Q3 : -0.141734272242, Q4 : 0.394276022911}
2019-04-14 11:34:17.01: SIM {TimeUS : 64035209, Roll : 0.14, Pitch : -17.86, Yaw : 47.01, Alt : 49.3300018311, Lat : 49.2837661, Lng : -123.1146946, Q1 : 0.905807256699, Q2 : 0.0630538463593, Q3 : -0.141907483339, Q4 : 0.39420774579}
2019-04-14 11:34:17.11: SIM {TimeUS : 64135169, Roll : 0.13, Pitch : -17.87, Yaw : 47.0, Alt : 49.3300018311, Lat : 49.283769, Lng : -123.1146898, Q1 : 0.905819892883, Q2 : 0.0630310103297, Q3 : -0.142029479146, Q4 : 0.394138336182}
2019-04-14 11:34:17.21: SIM {TimeUS : 64235129, Roll : 0.14, Pitch : -17.86, Yaw : 47.0, Alt : 49.3300018311, Lat : 49.2837719, Lng : -123.1146849, Q1 : 0.905850410461, Q2 : 0.063107073307, Q3 : -0.141903847456, Q4 : 0.394101291895}
2019-04-14 11:34:17.31: SIM {TimeUS : 64335089, Roll : 0.17, Pitch : -17.87, Yaw : 46.99, Alt : 49.3300018311, Lat : 49.2837747, Lng : -123.1146801, Q1 : 0.905858039856, Q2 : 0.0633252486587, Q3 : -0.141901522875, Q4 : 0.394049584866}
2019-04-14 11:34:17.41: SIM {TimeUS : 64435049, Roll : 0.18, Pitch : -17.89, Yaw : 46.98, Alt : 49.3300018311, Lat : 49.2837776, Lng : -123.1146752, Q1 : 0.905859053135, Q2 : 0.0634789988399, Q3 : -0.142040848732, Q4 : 0.393972337246}
2019-04-14 11:34:17.51: SIM {TimeUS : 64535009, Roll : 0.19, Pitch : -17.91, Yaw : 46.97, Alt : 49.3300018311, Lat : 49.2837805, Lng : -123.1146705, Q1 : 0.905871391296, Q2 : 0.063580840826, Q3 : -0.1421302706, Q4 : 0.393895238638}
2019-04-14 11:34:17.61: SIM {TimeUS : 64634969, Roll : 0.2, Pitch : -17.91, Yaw : 46.95, Alt : 49.3300018311, Lat : 49.2837834, Lng : -123.1146656, Q1 : 0.905909359455, Q2 : 0.0636077001691, Q3 : -0.142085283995, Q4 : 0.39381980896}
2019-04-14 11:34:17.71: SIM {TimeUS : 64734929, Roll : 0.19, Pitch : -17.9, Yaw : 46.94, Alt : 49.3300018311, Lat : 49.2837862, Lng : -123.1146608, Q1 : 0.905956029892, Q2 : 0.063560642302, Q3 : -0.142068579793, Q4 : 0.393726080656}
2019-04-14 11:34:17.81: SIM {TimeUS : 64834889, Roll : 0.17, Pitch : -17.92, Yaw : 46.93, Alt : 49.3300018311, Lat : 49.2837892, Lng : -123.1146559, Q1 : 0.905989170074, Q2 : 0.0634369030595, Q3 : -0.142269834876, Q4 : 0.393597155809}
2019-04-14 11:34:17.91: SIM {TimeUS : 64934849, Roll : 0.14, Pitch : -17.95, Yaw : 46.92, Alt : 49.3300018311, Lat : 49.2837921, Lng : -123.1146511, Q1 : 0.906006038189, Q2 : 0.0632949918509, Q3 : -0.142673060298, Q4 : 0.39343509078}
2019-04-14 11:34:18.01: SIM {TimeUS : 65034809, Roll : 0.13, Pitch : -17.96, Yaw : 46.9, Alt : 49.3300018311, Lat : 49.283795, Lng : -123.1146462, Q1 : 0.906051814556, Q2 : 0.0631944313645, Q3 : -0.142787232995, Q4 : 0.393304467201}
2019-04-14 11:34:18.11: SIM {TimeUS : 65134769, Roll : 0.14, Pitch : -17.95, Yaw : 46.89, Alt : 49.3300018311, Lat : 49.2837978, Lng : -123.1146413, Q1 : 0.906104266644, Q2 : 0.0632186084986, Q3 : -0.142700821161, Q4 : 0.393211126328}
2019-04-14 11:34:18.21: SIM {TimeUS : 65234729, Roll : 0.16, Pitch : -17.95, Yaw : 46.88, Alt : 49.3300018311, Lat : 49.2838007, Lng : -123.1146365, Q1 : 0.906148314476, Q2 : 0.0633516907692, Q3 : -0.142573311925, Q4 : 0.393134385347}
2019-04-14 11:34:18.31: SIM {TimeUS : 65334689, Roll : 0.17, Pitch : -17.96, Yaw : 46.86, Alt : 49.3300018311, Lat : 49.2838037, Lng : -123.1146316, Q1 : 0.906175136566, Q2 : 0.0634763091803, Q3 : -0.142625689507, Q4 : 0.393033444881}
2019-04-14 11:34:18.41: SIM {TimeUS : 65434649, Roll : 0.16, Pitch : -17.98, Yaw : 46.85, Alt : 49.3300018311, Lat : 49.2838067, Lng : -123.1146267, Q1 : 0.906199157238, Q2 : 0.0634569376707, Q3 : -0.142833322287, Q4 : 0.392905801535}
2019-04-14 11:34:18.51: SIM {TimeUS : 65534609, Roll : 0.14, Pitch : -18.0, Yaw : 46.84, Alt : 49.3400001526, Lat : 49.2838096, Lng : -123.1146218, Q1 : 0.906222820282, Q2 : 0.0633469298482, Q3 : -0.143096983433, Q4 : 0.392773002386}
2019-04-14 11:34:18.61: SIM {TimeUS : 65634569, Roll : 0.13, Pitch : -18.02, Yaw : 46.83, Alt : 49.3400001526, Lat : 49.2838124, Lng : -123.1146169, Q1 : 0.906245291233, Q2 : 0.0632940977812, Q3 : -0.143293470144, Q4 : 0.392658025026}
2019-04-14 11:34:18.71: SIM {TimeUS : 65734529, Roll : 0.13, Pitch : -18.04, Yaw : 46.81, Alt : 49.3400001526, Lat : 49.2838153, Lng : -123.114612, Q1 : 0.906262338161, Q2 : 0.0633785054088, Q3 : -0.143425568938, Q4 : 0.392556875944}
2019-04-14 11:34:18.81: SIM {TimeUS : 65835322, Roll : 0.14, Pitch : -18.05, Yaw : 46.8, Alt : 49.3400001526, Lat : 49.2838184, Lng : -123.1146071, Q1 : 0.906275808811, Q2 : 0.063519090414, Q3 : -0.143512710929, Q4 : 0.392471134663}
2019-04-14 11:34:18.91: SIM {TimeUS : 65935282, Roll : 0.17, Pitch : -18.06, Yaw : 46.79, Alt : 49.3400001526, Lat : 49.2838213, Lng : -123.1146022, Q1 : 0.906284034252, Q2 : 0.0637152045965, Q3 : -0.143510103226, Q4 : 0.392421334982}
2019-04-14 11:34:19.01: SIM {TimeUS : 66035242, Roll : 0.18, Pitch : -18.07, Yaw : 46.79, Alt : 49.3400001526, Lat : 49.2838242, Lng : -123.1145973, Q1 : 0.906287133694, Q2 : 0.0638569667935, Q3 : -0.143551334739, Q4 : 0.392375975847}
2019-04-14 11:34:19.11: SIM {TimeUS : 66135202, Roll : 0.2, Pitch : -18.09, Yaw : 46.78, Alt : 49.3400001526, Lat : 49.2838272, Lng : -123.1145924, Q1 : 0.906283795834, Q2 : 0.064008153975, Q3 : -0.143625497818, Q4 : 0.392331928015}
2019-04-14 11:34:19.21: SIM {TimeUS : 66235162, Roll : 0.21, Pitch : -18.1, Yaw : 46.77, Alt : 49.3400001526, Lat : 49.28383, Lng : -123.1145875, Q1 : 0.906273961067, Q2 : 0.0641975924373, Q3 : -0.143695577979, Q4 : 0.392298012972}
2019-04-14 11:34:19.31: SIM {TimeUS : 66335122, Roll : 0.24, Pitch : -18.12, Yaw : 46.77, Alt : 49.3400001526, Lat : 49.2838329, Lng : -123.1145826, Q1 : 0.906259953976, Q2 : 0.0644447356462, Q3 : -0.143710568547, Q4 : 0.392284482718}
2019-04-14 11:34:19.41: SIM {TimeUS : 66435082, Roll : 0.26, Pitch : -18.13, Yaw : 46.76, Alt : 49.3400001526, Lat : 49.283836, Lng : -123.1145777, Q1 : 0.906244575977, Q2 : 0.0646792203188, Q3 : -0.143739640713, Q4 : 0.392270684242}
2019-04-14 11:34:19.51: SIM {TimeUS : 66535042, Roll : 0.25, Pitch : -18.13, Yaw : 46.76, Alt : 49.3400001526, Lat : 49.2838389, Lng : -123.1145728, Q1 : 0.906266927719, Q2 : 0.0645869895816, Q3 : -0.143747344613, Q4 : 0.392231523991}
2019-04-14 11:34:19.61: SIM {TimeUS : 66635002, Roll : 0.22, Pitch : -18.13, Yaw : 46.76, Alt : 49.3400001526, Lat : 49.2838419, Lng : -123.1145678, Q1 : 0.906290829182, Q2 : 0.0643586665392, Q3 : -0.143892481923, Q4 : 0.392160505056}
2019-04-14 11:34:19.71: SIM {TimeUS : 66734962, Roll : 0.2, Pitch : -18.15, Yaw : 46.75, Alt : 49.3499984741, Lat : 49.2838448, Lng : -123.1145629, Q1 : 0.906291306019, Q2 : 0.064208433032, Q3 : -0.14416782558, Q4 : 0.392082959414}
