2019-04-14 11:44:06.50: SIM {TimeUS : 39915694, Roll : 0.0, Pitch : 0.0, Yaw : 0.0, Alt : 30.1000003815, Lat : 49.28357, Lng : -123.11502, Q1 : 1.0, Q2 : 0.0, Q3 : 0.0, Q4 : 0.0}
2019-04-14 11:44:06.61: SIM {TimeUS : 40034813, Roll : 0.0, Pitch : 0.0, Yaw : 0.0, Alt : 30.1000003815, Lat : 49.28357, Lng : -123.11502, Q1 : 1.0, Q2 : 0.0, Q3 : 0.0, Q4 : 0.0}
2019-04-14 11:44:06.71: SIM {TimeUS : 40134773, Roll : 0.0, Pitch : 0.0, Yaw : 0.0, Alt : 30.1000003815, Lat : 49.28357, Lng : -123.11502, Q1 : 1.0, Q2 : 0.0, Q3 : 0.0, Q4 : 0.0}
2019-04-14 11:44:06.81: SIM {TimeUS : 40234733, Roll : 0.0, Pitch : 0.0, Yaw : 0.0, Alt : 30.1000003815, Lat : 49.28357, Lng : -123.11502, Q1 : 1.0, Q2 : 0.0, Q3 : 0.0, Q4 : 0.0}
2019-04-14 11:44:06.91: SIM {TimeUS : 40334693, Roll : 0.0, Pitch : 0.0, Yaw : 0.0, Alt : 30.1000003815, Lat : 49.28357, Lng : -123.11502, Q1 : 1.0, Q2 : 0.0, Q3 : 0.0, Q4 : 0.0}
2019-04-14 11:44:07.01: SIM {TimeUS : 40434653, Roll : 0.0, Pitch : 0.0, Yaw : 0.0, Alt : 30.1000003815, Lat : 49.28357, Lng : -123.11502, Q1 : 1.0, Q2 : 0.0, Q3 : 0.0, Q4 : 0.0}
2019-04-14 11:44:07.11: SIM {TimeUS : 40534613, Roll : 0.0, Pitch : 0.0, Yaw : 0.0, Alt : 30.1000003815, Lat : 49.28357, Lng : -123.11502, Q1 : 1.0, Q2 : 0.0, Q3 : 0.0, Q4 : 0.0}
2019-04-14 11:44:07.21: SIM {TimeUS : 40634573, Roll : 0.0, Pitch : 0.0, Yaw : 0.0, Alt : 30.1000003815, Lat : 49.28357, Lng : -123.11502, Q1 : 1.0, Q2 : 0.0, Q3 : 0.0, Q4 : 0.0}
2019-04-14 11:44:07.31: SIM {TimeUS : 40734533, Roll : 0.0, Pitch : 0.0, Yaw : 0.0, Alt : 30.1000003815, Lat : 49.28357, Lng : -123.11502, Q1 : 1.0, Q2 : 0.0, Q3 : 0.0, Q4 : 0.0}
2019-04-14 11:44:07.41: SIM {TimeUS : 40834493, Roll : 0.0, Pitch : 0.0, Yaw : 0.0, Alt : 30.1000003815, Lat : 49.28357, Lng : -123.11502, Q1 : 1.0, Q2 : 0.0, Q3 : 0.0, Q4 : 0.0}
2019-04-14 11:44:07.51: SIM {TimeUS : 40934453, Roll : 0.0, Pitch : 0.0, Yaw : 0.0, Alt : 30.1000003815, Lat : 49.28357, Lng : -123.11502, Q1 : 1.0, Q2 : 0.0, Q3 : 0.0, Q4 : 0.0}
2019-04-14 11:44:07.61: SIM {TimeUS : 41034413, Roll : 0.0, Pitch : 0.0, Yaw : 0.0, Alt : 30.1000003815, Lat : 49.28357, Lng : -123.11502, Q1 : 1.0, Q2 : 0.0, Q3 : 0.0, Q4 : 0.0}
2019-04-14 11:44:07.71: SIM {TimeUS : 41134373, Roll : 0.0, Pitch : 0.0, Yaw : 0.0, Alt : 30.1000003815, Lat : 49.28357, Lng : -123.11502, Q1 : 1.0, Q2 : 0.0, Q3 : 0.0, Q4 : 0.0}
2019-04-14 11:44:07.81: SIM {TimeUS : 41234333, Roll : 0.0, Pitch : 0.0, Yaw : 0.0, Alt : 30.1000003815, Lat : 49.28357, Lng : -123.11502, Q1 : 1.0, Q2 : 0.0, Q3 : 0.0, Q4 : 0.0}
2019-04-14 11:44:07.91: SIM {TimeUS : 41334293, Roll : 0.0, Pitch : 0.0, Yaw : 0.0, Alt : 30.1000003815, Lat : 49.28357, Lng : -123.11502, Q1 : 1.0, Q2 : 0.0, Q3 : 0.0, Q4 : 0.0}
2019-04-14 11:44:08.01: SIM {TimeUS : 41434253, Roll : 0.0, Pitch : 0.0, Yaw : 0.0, Alt : 30.1000003815, Lat : 49.28357, Lng : -123.11502, Q1 : 1.0, Q2 : 0.0, Q3 : 0.0, Q4 : 0.0}
2019-04-14 11:44:08.11: SIM {TimeUS : 41534213, Roll : 0.0, Pitch : 0.0, Yaw : 0.0, Alt : 30.1000003815, Lat : 49.28357, Lng : -123.11502, Q1 : 1.0, Q2 : 0.0, Q3 : 0.0, Q4 : 0.0}
2019-04-14 11:44:08.21: SIM {TimeUS : 41634173, Roll : 0.0, Pitch : 0.0, Yaw : 0.0, Alt : 30.1000003815, Lat : 49.28357, Lng : -123.11502, Q1 : 1.0, Q2 : 0.0, Q3 : 0.0, Q4 : 0.0}
2019-04-14 11:44:08.31: SIM {TimeUS : 41734133, Roll : 0.0, Pitch : 0.0, Yaw : 0.0, Alt : 30.1000003815, Lat : 49.28357, Lng : -123.11502, Q1 : 1.0, Q2 : 0.0, Q3 : 0.0, Q4 : 0.0}
2019-04-14 11:44:08.41: SIM {TimeUS : 41834093, Roll : 0.0, Pitch : 0.0, Yaw : 0.0, Alt : 30.1000003815, Lat : 49.28357, Lng : -123.11502, Q1 : 1.0, Q2 : 0.0, Q3 : 0.0, Q4 : 0.0}
2019-04-14 11:44:08.51: SIM {TimeUS : 41934053, Roll : 0.0, Pitch : 0.0, Yaw : 0.0, Alt : 30.1000003815, Lat : 49.28357, Lng : -123.11502, Q1 : 1.0, Q2 : 0.0, Q3 : 0.0, Q4 : 0.0}
2019-04-14 11:44:08.62: SIM {TimeUS : 42034846, Roll : 0.0, Pitch : 0.0, Yaw : 0.0, Alt : 30.1000003815, Lat : 49.28357, Lng : -123.11502, Q1 : 1.0, Q2 : 0.0, Q3 : 0.0, Q4 : 0.0}
2019-04-14 11:44:08.71: SIM {TimeUS : 42134806, Roll : 0.0, Pitch : 0.0, Yaw : 0.0, Alt : 30.1000003815, Lat : 49.28357, Lng : -123.11502, Q1 : 1.0, Q2 : 0.0, Q3 : 0.0, Q4 : 0.0}
2019-04-14 11:44:08.81: SIM {TimeUS : 42234766, Roll : 0.0, Pitch : 0.0, Yaw : 0.0, Alt : 30.1000003815, Lat : 49.28357, Lng : -123.11502, Q1 : 1.0, Q2 : 0.0, Q3 : 0.0, Q4 : 2.50972402582e-11}
2019-04-14 11:44:08.91: SIM {TimeUS : 42334726, Roll : 0.0, Pitch : 0.0, Yaw : 360.0, Alt : 30.1000003815, Lat : 49.28357, Lng : -123.11502, Q1 : 1.0, Q2 : 0.0, Q3 : 0.0, Q4 : -2.4248850039e-08}
2019-04-14 11:44:09.01: SIM {TimeUS : 42434686, Roll : 0.0, Pitch : 0.0, Yaw : 359.99, Alt : 30.1000003815, Lat : 49.28357, Lng : -123.11502, Q1 : 1.0, Q2 : 0.0, Q3 : 0.0, Q4 : -2.24946290928e-07}
2019-04-14 11:44:09.11: SIM {TimeUS : 42534646, Roll : 0.0, Pitch : 0.0, Yaw : 359.99, Alt : 30.1000003815, Lat : 49.28357, Lng : -123.11502, Q1 : 1.0, Q2 : 0.0, Q3 : 0.0, Q4 : -4.33072557371e-07}
2019-04-14 11:44:09.21: SIM {TimeUS : 42634606, Roll : 0.0, Pitch : 0.0, Yaw : 359.99, Alt : 30.1000003815, Lat : 49.28357, Lng : -123.11502, Q1 : 1.0, Q2 : 0.0, Q3 : 0.0, Q4 : -6.26563064543e-07}
2019-04-14 11:44:09.31: SIM {TimeUS : 42734566, Roll : 0.0, Pitch : 0.0, Yaw : 359.99, Alt : 30.1000003815, Lat : 49.28357, Lng : -123.11502, Q1 : 1.0, Q2 : 0.0, Q3 : 0.0, Q4 : -8.26377004159e-07}
2019-04-14 11:44:09.41: SIM {TimeUS : 42834526, Roll : 0.0, Pitch : 0.0, Yaw : 359.99, Alt : 30.1000003815, Lat : 49.28357, Lng : -123.11502, Q1 : 1.0, Q2 : 0.0, Q3 : 0.0, Q4 : -1.02474291452e-06}
2019-04-14 11:44:09.51: SIM {TimeUS : 42934486, Roll : 0.0, Pitch : 0.0, Yaw : 359.99, Alt : 30.1000003815, Lat : 49.28357, Lng : -123.11502, Q1 : 1.0, Q2 : 0.0, Q3 : 0.0, Q4 : -1.24459177187e-06}
2019-04-14 11:44:09.61: SIM {TimeUS : 43034446, Roll : 0.0, Pitch : 0.0, Yaw : 359.99, Alt : 30.1000003815, Lat : 49.28357, Lng : -123.11502, Q1 : 1.0, Q2 : 0.0, Q3 : 0.0, Q4 : -1.45909496041e-06}
2019-04-14 11:44:09.71: SIM {TimeUS : 43134406, Roll : 0.0, Pitch : 0.0, Yaw : 359.99, Alt : 30.1200008392, Lat : 49.28357, Lng : -123.11502, Q1 : 1.0, Q2 : 0.0, Q3 : 0.0, Q4 : -1.71579097241e-06}
2019-04-14 11:44:09.81: SIM {TimeUS : 43234366, Roll : 0.0, Pitch : 0.0, Yaw : 359.99, Alt : 30.1399993896, Lat : 49.28357, Lng : -123.11502, Q1 : 1.0, Q2 : 0.0, Q3 : 0.0, Q4 : -1.91641333913e-06}
2019-04-14 11:44:09.91: SIM {TimeUS : 43334326, Roll : 0.0, Pitch : 0.0, Yaw : 359.99, Alt : 30.1800003052, Lat : 49.28357, Lng : -123.11502, Q1 : 1.0, Q2 : 0.0, Q3 : 0.0, Q4 : -2.19818525693e-06}
2019-04-14 11:44:10.01: SIM {TimeUS : 43434286, Roll : 0.0, Pitch : 0.0, Yaw : 359.99, Alt : 30.2099990845, Lat : 49.28357, Lng : -123.11502, Q1 : 1.0, Q2 : -7.53603580961e-06, Q3 : -6.59044553686e-06, Q4 : -2.45959154199e-06}
2019-04-14 11:44:10.11: SIM {TimeUS : 43534246, Roll : -0.16, Pitch : -0.15, Yaw : 359.99, Alt : 30.2700004578, Lat : 49.28357, Lng : -123.11502, Q1 : 0.999997973442, Q2 : -0.00148071127478, Q3 : -0.00134852353949, Q4 : -1.90190039575e-05}
2019-04-14 11:44:10.21: SIM {TimeUS : 43634206, Roll : -0.45, Pitch : -0.44, Yaw : 359.99, Alt : 30.3899993896, Lat : 49.28357, Lng : -123.11502, Q1 : 0.999984502792, Q2 : -0.00396450795233, Q3 : -0.0039061291609, Q4 : -6.44387837383e-05}
2019-04-14 11:44:10.31: SIM {TimeUS : 43734166, Roll : -0.69, Pitch : -0.72, Yaw : 359.98, Alt : 30.5400009155, Lat : 49.28357, Lng : -123.11502, Q1 : 0.999961853027, Q2 : -0.00603724597022, Q3 : -0.0063127358444, Q4 : -0.000137578943395}
2019-04-14 11:44:10.41: SIM {TimeUS : 43834126, Roll : -0.79, Pitch : -0.84, Yaw : 359.98, Alt : 30.7000007629, Lat : 49.28357, Lng : -123.11502, Q1 : 0.999948680401, Q2 : -0.00696425884962, Q3 : -0.00735674845055, Q4 : -0.000223983777687}
2019-04-14 11:44:10.51: SIM {TimeUS : 43934086, Roll : -0.75, Pitch : -0.76, Yaw : 359.96, Alt : 30.8500003815, Lat : 49.28357, Lng : -123.1150201, Q1 : 0.999955713749, Q2 : -0.00661720568314, Q3 : -0.00668131513521, Q4 : -0.000313193566399}
2019-04-14 11:44:10.61: SIM {TimeUS : 44034046, Roll : -0.6, Pitch : -0.55, Yaw : 359.95, Alt : 31.0100002289, Lat : 49.2835701, Lng : -123.1150201, Q1 : 0.999973893166, Q2 : -0.00531134661287, Q3 : -0.00488229468465, Q4 : -0.000399128010031}
2019-04-14 11:44:10.72: SIM {TimeUS : 44134839, Roll : -0.4, Pitch : -0.31, Yaw : 359.94, Alt : 31.1599998474, Lat : 49.2835701, Lng : -123.1150202, Q1 : 0.99998986721, Q2 : -0.00352767249569, Q3 : -0.00276237586513, Q4 : -0.000472589716082}
2019-04-14 11:44:10.81: SIM {TimeUS : 44234799, Roll : -0.21, Pitch : -0.11, Yaw : 359.94, Alt : 31.3199996948, Lat : 49.2835702, Lng : -123.1150203, Q1 : 0.99999755621, Q2 : -0.0018997346051, Q3 : -0.00101746886503, Q4 : -0.000523306545801}
2019-04-14 11:44:10.91: SIM {TimeUS : 44334759, Roll : -0.07, Pitch : 0.01, Yaw : 359.93, Alt : 31.4899997711, Lat : 49.2835702, Lng : -123.1150204, Q1 : 0.999999642372, Q2 : -0.000657270138618, Q3 : 9.52990594669e-05, Q4 : -0.000559882784728}
2019-04-14 11:44:11.01: SIM {TimeUS : 44434719, Roll : 0.02, Pitch : 0.04, Yaw : 359.93, Alt : 31.6700000763, Lat : 49.2835702, Lng : -123.1150205, Q1 : 0.999999761581, Q2 : 0.000209218880627, Q3 : 0.000413045490859, Q4 : -0.000582998385653}
2019-04-14 11:44:11.11: SIM {TimeUS : 44534679, Roll : 0.07, Pitch : 0.03, Yaw : 359.93, Alt : 31.8400001526, Lat : 49.2835703, Lng : -123.1150205, Q1 : 0.999999582767, Q2 : 0.000624014413916, Q3 : 0.000315900193527, Q4 : -0.000596325146034}
2019-04-14 11:44:11.21: SIM {TimeUS : 44634639, Roll : 0.07, Pitch : 0.01, Yaw : 359.93, Alt : 32.0299987793, Lat : 49.2835703, Lng : -123.1150206, Q1 : 0.999999642372, Q2 : 0.000633350224234, Q3 : 0.000108303400339, Q4 : -0.000593749340624}
2019-04-14 11:44:11.31: SIM {TimeUS : 44734599, Roll : 0.06, Pitch : 0.0, Yaw : 359.93, Alt : 32.2099990845, Lat : 49.2835703, Lng : -123.1150207, Q1 : 0.999999701977, Q2 : 0.000534142774995, Q3 : -1.31977976707e-05, Q4 : -0.000577404978685}
2019-04-14 11:44:11.41: SIM {TimeUS : 44834559, Roll : 0.05, Pitch : 0.0, Yaw : 359.93, Alt : 32.4099998474, Lat : 49.2835703, Lng : -123.1150207, Q1 : 0.999999701977, Q2 : 0.000470931263408, Q3 : -2.53961916314e-05, Q4 : -0.0005514920922}
2019-04-14 11:44:11.51: SIM {TimeUS : 44934519, Roll : 0.06, Pitch : 0.01, Yaw : 359.93, Alt : 32.5999984741, Lat : 49.2835703, Lng : -123.1150208, Q1 : 0.999999701977, Q2 : 0.000551891222131, Q3 : 0.000114361355372, Q4 : -0.00052830047207}
2019-04-14 11:44:11.61: SIM {TimeUS : 45034479, Roll : 0.09, Pitch : 0.03, Yaw : 359.94, Alt : 32.7999992371, Lat : 49.2835703, Lng : -123.1150208, Q1 : 0.999999463558, Q2 : 0.000840230670292, Q3 : 0.000335489021381, Q4 : -0.000505919626448}
2019-04-14 11:44:11.71: SIM {TimeUS : 45134439, Roll : 0.14, Pitch : 0.06, Yaw : 359.94, Alt : 32.9900016785, Lat : 49.2835704, Lng : -123.1150208, Q1 : 0.999998867512, Q2 : 0.00126293557696, Q3 : 0.000608502188697, Q4 : -0.000499422603752}
2019-04-14 11:44:11.81: SIM {TimeUS : 45234399, Roll : 0.17, Pitch : 0.1, Yaw : 359.94, Alt : 33.2000007629, Lat : 49.2835704, Lng : -123.1150209, Q1 : 0.999998211861, Q2 : 0.00156596978195, Q3 : 0.000934889016207, Q4 : -0.000502278562635}
2019-04-14 11:44:11.91: SIM {TimeUS : 45334359, Roll : 0.18, Pitch : 0.13, Yaw : 359.94, Alt : 33.4000015259, Lat : 49.2835704, Lng : -123.1150209, Q1 : 0.999997854233, Q2 : 0.0016075426247, Q3 : 0.00121810473502, Q4 : -0.000503266346641}
2019-04-14 11:44:12.01: SIM {TimeUS : 45434319, Roll : 0.17, Pitch : 0.16, Yaw : 359.94, Alt : 33.6100006104, Lat : 49.2835704, Lng : -123.1150209, Q1 : 0.999997794628, Q2 : 0.00148589618038, Q3 : 0.00139964243863, Q4 : -0.000506567419507}
2019-04-14 11:44:12.11: SIM {TimeUS : 45534279, Roll : 0.15, Pitch : 0.17, Yaw : 359.94, Alt : 33.8100013733, Lat : 49.2835704, Lng : -123.1150209, Q1 : 0.999997735023, Q2 : 0.00137546670157, Q3 : 0.00154400151223, Q4 : -0.000516589381732}
2019-04-14 11:44:12.21: SIM {TimeUS : 45634239, Roll : 0.15, Pitch : 0.17, Yaw : 359.93, Alt : 34.0200004578, Lat : 49.2835706, Lng : -123.1150209, Q1 : 0.999997735023, Q2 : 0.00137559405994, Q3 : 0.00152145815082, Q4 : -0.000529739656486}
2019-04-14 11:44:12.31: SIM {TimeUS : 45734199, Roll : 0.15, Pitch : 0.16, Yaw : 359.93, Alt : 34.2299995422, Lat : 49.2835706, Lng : -123.1150209, Q1 : 0.999997854233, Q2 : 0.00135803373996, Q3 : 0.0014352487633, Q4 : -0.000548034673557}
2019-04-14 11:44:12.41: SIM {TimeUS : 45834159, Roll : 0.13, Pitch : 0.15, Yaw : 359.93, Alt : 34.4399986267, Lat : 49.2835706, Lng : -123.1150209, Q1 : 0.999998211861, Q2 : 0.00118780974299, Q3 : 0.0013455748558, Q4 : -0.000567771436181}
2019-04-14 11:44:12.51: SIM {TimeUS : 45934119, Roll : 0.11, Pitch : 0.11, Yaw : 359.93, Alt : 34.6599998474, Lat : 49.2835706, Lng : -123.1150209, Q1 : 0.999998807907, Q2 : 0.000996415386908, Q3 : 0.00101827003527, Q4 : -0.000576792284846}
2019-04-14 11:44:12.61: SIM {TimeUS : 46034079, Roll : 0.09, Pitch : 0.06, Yaw : 359.93, Alt : 34.8699989319, Lat : 49.2835706, Lng : -123.1150209, Q1 : 0.999999344349, Q2 : 0.000811233709101, Q3 : 0.000569066847675, Q4 : -0.000577034661546}
2019-04-14 11:44:12.71: SIM {TimeUS : 46134039, Roll : 0.06, Pitch : 0.03, Yaw : 359.93, Alt : 35.0900001526, Lat : 49.2835706, Lng : -123.1150209, Q1 : 0.999999582767, Q2 : 0.00059701903956, Q3 : 0.000288393523078, Q4 : -0.000600272906013}
2019-04-14 11:44:12.82: SIM {TimeUS : 46234832, Roll : 0.05, Pitch : 0.02, Yaw : 359.92, Alt : 35.3100013733, Lat : 49.2835706, Lng : -123.1150208, Q1 : 0.999999642372, Q2 : 0.000474832952023, Q3 : 0.000198269524844, Q4 : -0.000648577755783}
2019-04-14 11:44:12.91: SIM {TimeUS : 46334792, Roll : 0.05, Pitch : 0.02, Yaw : 359.91, Alt : 35.5200004578, Lat : 49.2835706, Lng : -123.1150208, Q1 : 0.999999582767, Q2 : 0.000486851669848, Q3 : 0.000242816298851, Q4 : -0.000711712578777}
2019-04-14 11:44:13.01: SIM {TimeUS : 46434752, Roll : 0.05, Pitch : 0.02, Yaw : 359.91, Alt : 35.7400016785, Lat : 49.2835706, Lng : -123.1150208, Q1 : 0.999999582767, Q2 : 0.000437401758973, Q3 : 0.000251734629273, Q4 : -0.000772277940996}
2019-04-14 11:44:13.11: SIM {TimeUS : 46534712, Roll : 0.02, Pitch : 0.02, Yaw : 359.9, Alt : 35.9599990845, Lat : 49.2835706, Lng : -123.1150208, Q1 : 0.999999642372, Q2 : 0.000184976684977, Q3 : 0.00022132624872, Q4 : -0.000818810483906}
2019-04-14 11:44:13.21: SIM {TimeUS : 46634672, Roll : 0.0, Pitch : 0.02, Yaw : 359.9, Alt : 36.1800003052, Lat : 49.2835706, Lng : -123.1150208, Q1 : 0.999999642372, Q2 : -5.67177630728e-05, Q3 : 0.000203516305191, Q4 : -0.000853645091411}
2019-04-14 11:44:13.31: SIM {TimeUS : 46734632, Roll : -0.01, Pitch : 0.04, Yaw : 359.89, Alt : 36.4000015259, Lat : 49.2835706, Lng : -123.1150208, Q1 : 0.999999523163, Q2 : -0.000170092913322, Q3 : 0.000386003521271, Q4 : -0.000882755673956}
2019-04-14 11:44:13.41: SIM {TimeUS : 46834592, Roll : -0.02, Pitch : 0.04, Yaw : 359.89, Alt : 36.6300010681, Lat : 49.2835706, Lng : -123.1150207, Q1 : 0.999999463558, Q2 : -0.000241279791226, Q3 : 0.000417824310716, Q4 : -0.000915912445635}
2019-04-14 11:44:13.51: SIM {TimeUS : 46934552, Roll : -0.02, Pitch : 0.04, Yaw : 359.89, Alt : 36.8499984741, Lat : 49.2835706, Lng : -123.1150207, Q1 : 0.999999463558, Q2 : -0.000231593498029, Q3 : 0.000351691385731, Q4 : -0.000948902859818}
2019-04-14 11:44:13.61: SIM {TimeUS : 47034512, Roll : -0.02, Pitch : 0.03, Yaw : 359.88, Alt : 37.0699996948, Lat : 49.2835706, Lng : -123.1150207, Q1 : 0.999999463558, Q2 : -0.00022446596995, Q3 : 0.000280434411252, Q4 : -0.000976477225777}
2019-04-14 11:44:13.71: SIM {TimeUS : 47134472, Roll : -0.02, Pitch : 0.02, Yaw : 359.88, Alt : 37.2999992371, Lat : 49.2835706, Lng : -123.1150207, Q1 : 0.999999463558, Q2 : -0.000192979539861, Q3 : 0.000214182568016, Q4 : -0.000991997425444}
2019-04-14 11:44:13.81: SIM {TimeUS : 47234432, Roll : 0.0, Pitch : 0.01, Yaw : 359.88, Alt : 37.5200004578, Lat : 49.2835704, Lng : -123.1150207, Q1 : 0.999999523163, Q2 : -7.51280749682e-05, Q3 : 0.000169016304426, Q4 : -0.00099433970172}
2019-04-14 11:44:13.91: SIM {TimeUS : 47334392, Roll : -0.01, Pitch : 0.0, Yaw : 359.88, Alt : 37.75, Lat : 49.2835704, Lng : -123.1150207, Q1 : 0.999999523163, Q2 : -0.000146527701872, Q3 : 1.73782082129e-05, Q4 : -0.000984433223493}
2019-04-14 11:44:14.01: SIM {TimeUS : 47434352, Roll : -0.04, Pitch : -0.02, Yaw : 359.88, Alt : 37.9799995422, Lat : 49.2835704, Lng : -123.1150207, Q1 : 0.999999463558, Q2 : -0.000371258094674, Q3 : -0.000226043659495, Q4 : -0.000969847955275}
2019-04-14 11:44:14.11: SIM {TimeUS : 47534312, Roll : -0.07, Pitch : -0.04, Yaw : 359.89, Alt : 38.2000007629, Lat : 49.2835704, Lng : -123.1150207, Q1 : 0.999999284744, Q2 : -0.000630073831417, Q3 : -0.000401049794164, Q4 : -0.000956589356065}
2019-04-14 11:44:14.21: SIM {TimeUS : 47634272, Roll : -0.09, Pitch : -0.04, Yaw : 359.89, Alt : 38.4300003052, Lat : 49.2835704, Lng : -123.1150207, Q1 : 0.99999910593, Q2 : -0.000860133266542, Q3 : -0.000399460026529, Q4 : -0.000953976006713}
2019-04-14 11:44:14.31: SIM {TimeUS : 47734232, Roll : -0.11, Pitch : -0.04, Yaw : 359.89, Alt : 38.6599998474, Lat : 49.2835704, Lng : -123.1150206, Q1 : 0.999998986721, Q2 : -0.000984650221653, Q3 : -0.000354456191417, Q4 : -0.000958699441981}
2019-04-14 11:44:14.41: SIM {TimeUS : 47834192, Roll : -0.11, Pitch : -0.03, Yaw : 359.88, Alt : 38.8899993896, Lat : 49.2835704, Lng : -123.1150206, Q1 : 0.999998986721, Q2 : -0.000981630408205, Q3 : -0.000337502977345, Q4 : -0.000969075539615}
2019-04-14 11:44:14.51: SIM {TimeUS : 47934152, Roll : -0.09, Pitch : -0.02, Yaw : 359.88, Alt : 39.1199989319, Lat : 49.2835704, Lng : -123.1150206, Q1 : 0.99999910593, Q2 : -0.000852453580592, Q3 : -0.000260269938735, Q4 : -0.000986500759609}
2019-04-14 11:44:14.61: SIM {TimeUS : 48034112, Roll : -0.07, Pitch : -0.03, Yaw : 359.88, Alt : 39.3499984741, Lat : 49.2835704, Lng : -123.1150206, Q1 : 0.99999922514, Q2 : -0.000631611503195, Q3 : -0.000346952030668, Q4 : -0.00101039500441}
2019-04-14 11:44:14.71: SIM {TimeUS : 48134072, Roll : -0.05, Pitch : -0.05, Yaw : 359.88, Alt : 39.5800018311, Lat : 49.2835704, Lng : -123.1150206, Q1 : 0.99999922514, Q2 : -0.00049993704306, Q3 : -0.00046408502385, Q4 : -0.00104578328319}
2019-04-14 11:44:14.81: SIM {TimeUS : 48234032, Roll : -0.04, Pitch : -0.04, Yaw : 359.87, Alt : 39.8100013733, Lat : 49.2835704, Lng : -123.1150206, Q1 : 0.99999922514, Q2 : -0.000434575136751, Q3 : -0.000416906783357, Q4 : -0.00107540294994}
2019-04-14 11:44:14.92: SIM {TimeUS : 48334825, Roll : -0.06, Pitch : -0.02, Yaw : 359.87, Alt : 40.0400009155, Lat : 49.2835704, Lng : -123.1150206, Q1 : 0.99999922514, Q2 : -0.000545300601516, Q3 : -0.000176632733201, Q4 : -0.00110601575579}
2019-04-14 11:44:15.01: SIM {TimeUS : 48434785, Roll : -0.06, Pitch : 0.01, Yaw : 359.86, Alt : 40.2700004578, Lat : 49.2835704, Lng : -123.1150206, Q1 : 0.99999922514, Q2 : -0.000549465825316, Q3 : 0.000103259248135, Q4 : -0.00114006025251}
2019-04-14 11:44:15.11: SIM {TimeUS : 48534745, Roll : -0.04, Pitch : 0.05, Yaw : 359.86, Alt : 40.5099983215, Lat : 49.2835704, Lng : -123.1150206, Q1 : 0.99999910593, Q2 : -0.000426101934863, Q3 : 0.00044854026055, Q4 : -0.00118238374125}
2019-04-14 11:44:15.21: SIM {TimeUS : 48634705, Roll : -0.03, Pitch : 0.06, Yaw : 359.86, Alt : 40.7400016785, Lat : 49.2835704, Lng : -123.1150207, Q1 : 0.999999046326, Q2 : -0.000268233969109, Q3 : 0.000601906271186, Q4 : -0.00121842091903}
2019-04-14 11:44:15.31: SIM {TimeUS : 48734665, Roll : 0.0, Pitch : 0.07, Yaw : 359.85, Alt : 40.9700012207, Lat : 49.2835704, Lng : -123.1150207, Q1 : 0.999999046326, Q2 : 4.51778078059e-06, Q3 : 0.000616739038378, Q4 : -0.00125253503211}
2019-04-14 11:44:15.41: SIM {TimeUS : 48834625, Roll : 0.03, Pitch : 0.08, Yaw : 359.85, Alt : 41.2000007629, Lat : 49.2835704, Lng : -123.1150207, Q1 : 0.999998867512, Q2 : 0.000336730765412, Q3 : 0.000714448397048, Q4 : -0.00128384225536}
2019-04-14 11:44:15.51: SIM {TimeUS : 48934585, Roll : 0.08, Pitch : 0.1, Yaw : 359.84, Alt : 41.4399986267, Lat : 49.2835704, Lng : -123.1150207, Q1 : 0.999998450279, Q2 : 0.000746169651393, Q3 : 0.000921324361116, Q4 : -0.0013128623832}
2019-04-14 11:44:15.61: SIM {TimeUS : 49034545, Roll : 0.11, Pitch : 0.12, Yaw : 359.84, Alt : 41.6699981689, Lat : 49.2835704, Lng : -123.1150207, Q1 : 0.999998033047, Q2 : 0.000967953528743, Q3 : 0.00111085281242, Q4 : -0.00134127039928}
2019-04-14 11:44:15.71: SIM {TimeUS : 49134505, Roll : 0.09, Pitch : 0.14, Yaw : 359.84, Alt : 41.9099998474, Lat : 49.2835706, Lng : -123.1150207, Q1 : 0.999997973442, Q2 : 0.000837853935082, Q3 : 0.00122724857647, Q4 : -0.00135593803134}
2019-04-14 11:44:15.81: SIM {TimeUS : 49234465, Roll : 0.05, Pitch : 0.14, Yaw : 359.84, Alt : 42.1399993896, Lat : 49.2835706, Lng : -123.1150207, Q1 : 0.999998152256, Q2 : 0.00044807663653, Q3 : 0.00129767425824, Q4 : -0.00136486394331}
2019-04-14 11:44:15.91: SIM {TimeUS : 49334425, Roll : 0.0, Pitch : 0.14, Yaw : 359.84, Alt : 42.3699989319, Lat : 49.2835706, Lng : -123.1150207, Q1 : 0.999998211861, Q2 : 4.98037625221e-05, Q3 : 0.00130731589161, Q4 : -0.00137779500801}
2019-04-14 11:44:16.01: SIM {TimeUS : 49434385, Roll : -0.01, Pitch : 0.11, Yaw : 359.84, Alt : 42.6100006104, Lat : 49.2835706, Lng : -123.1150207, Q1 : 0.999998509884, Q2 : -0.000124188853079, Q3 : 0.00103859498631, Q4 : -0.00139034248423}
2019-04-14 11:44:16.11: SIM {TimeUS : 49534345, Roll : -0.01, Pitch : 0.07, Yaw : 359.83, Alt : 42.8400001526, Lat : 49.2835704, Lng : -123.1150207, Q1 : 0.999998807907, Q2 : -0.000121479359223, Q3 : 0.000621343264356, Q4 : -0.0014053870691}
2019-04-14 11:44:16.21: SIM {TimeUS : 49634305, Roll : 0.0, Pitch : 0.06, Yaw : 359.83, Alt : 43.0800018311, Lat : 49.2835704, Lng : -123.1150207, Q1 : 0.999998867512, Q2 : -3.34616997861e-05, Q3 : 0.000545301067177, Q4 : -0.00142532493919}
2019-04-14 11:44:16.31: SIM {TimeUS : 49734265, Roll : 0.02, Pitch : 0.08, Yaw : 359.83, Alt : 43.3100013733, Lat : 49.2835704, Lng : -123.1150207, Q1 : 0.999998629093, Q2 : 0.000240363951889, Q3 : 0.0007407789235, Q4 : -0.00145347742364}
2019-04-14 11:44:16.41: SIM {TimeUS : 49834225, Roll : 0.08, Pitch : 0.11, Yaw : 359.83, Alt : 43.5499992371, Lat : 49.2835704, Lng : -123.1150207, Q1 : 0.999998152256, Q2 : 0.000705119688064, Q3 : 0.000995949376374, Q4 : -0.00147897063289}
2019-04-14 11:44:16.51: SIM {TimeUS : 49934185, Roll : 0.12, Pitch : 0.11, Yaw : 359.82, Alt : 43.7799987793, Lat : 49.2835704, Lng : -123.1150207, Q1 : 0.999997794628, Q2 : 0.00105189753231, Q3 : 0.00104006100446, Q4 : -0.0015113906702}
2019-04-14 11:44:16.61: SIM {TimeUS : 50034145, Roll : 0.12, Pitch : 0.1, Yaw : 359.82, Alt : 44.0200004578, Lat : 49.2835704, Lng : -123.1150207, Q1 : 0.999997794628, Q2 : 0.00105831003748, Q3 : 0.000945558655076, Q4 : -0.001541691483}
2019-04-14 11:44:16.71: SIM {TimeUS : 50134105, Roll : 0.07, Pitch : 0.08, Yaw : 359.82, Alt : 44.2599983215, Lat : 49.2835704, Lng : -123.1150207, Q1 : 0.999998211861, Q2 : 0.000696741626598, Q3 : 0.000776106491685, Q4 : -0.00155875261407}
2019-04-14 11:44:16.81: SIM {TimeUS : 50234065, Roll : 0.01, Pitch : 0.06, Yaw : 359.81, Alt : 44.4900016785, Lat : 49.2835704, Lng : -123.1150207, Q1 : 0.999998569489, Q2 : 0.000163307355251, Q3 : 0.000580757448915, Q4 : -0.00157231767662}
2019-04-14 11:44:16.91: SIM {TimeUS : 50334025, Roll : -0.02, Pitch : 0.05, Yaw : 359.81, Alt : 44.7299995422, Lat : 49.2835704, Lng : -123.1150206, Q1 : 0.999998629093, Q2 : -0.000198268127861, Q3 : 0.000473878200864, Q4 : -0.00158735166769}
2019-04-14 11:44:17.01: SIM {TimeUS : 50434818, Roll : -0.04, Pitch : 0.04, Yaw : 359.81, Alt : 44.9700012207, Lat : 49.2835704, Lng : -123.1150206, Q1 : 0.999998569489, Q2 : -0.000387950363802, Q3 : 0.000354396441253, Q4 : -0.00160641537514}
2019-04-14 11:44:17.11: SIM {TimeUS : 50534778, Roll : -0.03, Pitch : 0.01, Yaw : 359.81, Alt : 45.2000007629, Lat : 49.2835704, Lng : -123.1150206, Q1 : 0.999998569489, Q2 : -0.000346041546436, Q3 : 0.000163068209076, Q4 : -0.00164267979562}
2019-04-14 11:44:17.21: SIM {TimeUS : 50634738, Roll : -0.04, Pitch : 0.0, Yaw : 359.8, Alt : 45.4399986267, Lat : 49.2835704, Lng : -123.1150206, Q1 : 0.999998509884, Q2 : -0.000384141108952, Q3 : 1.85565731954e-05, Q4 : -0.00168481690343}
2019-04-14 11:44:17.31: SIM {TimeUS : 50734698, Roll : -0.03, Pitch : 0.0, Yaw : 359.8, Alt : 45.6699981689, Lat : 49.2835704, Lng : -123.1150206, Q1 : 0.999998450279, Q2 : -0.000308284652419, Q3 : -5.00527930853e-05, Q4 : -0.00172625773121}
2019-04-14 11:44:17.41: SIM {TimeUS : 50834658, Roll : -0.01, Pitch : 0.0, Yaw : 359.79, Alt : 45.9099998474, Lat : 49.2835703, Lng : -123.1150206, Q1 : 0.999998450279, Q2 : -0.000139390773256, Q3 : -2.76831342489e-05, Q4 : -0.00176740810275}
2019-04-14 11:44:17.51: SIM {TimeUS : 50934618, Roll : -0.01, Pitch : 0.0, Yaw : 359.79, Alt : 46.1399993896, Lat : 49.2835703, Lng : -123.1150206, Q1 : 0.999998390675, Q2 : -0.000109771979623, Q3 : 6.8370201916e-05, Q4 : -0.00179927051067}
2019-04-14 11:44:17.61: SIM {TimeUS : 51034578, Roll : -0.01, Pitch : 0.0, Yaw : 359.79, Alt : 46.3600006104, Lat : 49.2835703, Lng : -123.1150205, Q1 : 0.99999833107, Q2 : -0.000156908849021, Q3 : 4.92177678098e-05, Q4 : -0.00182284344919}
2019-04-14 11:44:17.71: SIM {TimeUS : 51134538, Roll : -0.02, Pitch : -0.01, Yaw : 359.78, Alt : 46.5800018311, Lat : 49.2835703, Lng : -123.1150205, Q1 : 0.999998271465, Q2 : -0.000225628755288, Q3 : -9.44819694269e-05, Q4 : -0.00184180308133}
2019-04-14 11:44:17.81: SIM {TimeUS : 51234498, Roll : -0.02, Pitch : -0.02, Yaw : 359.78, Alt : 46.7999992371, Lat : 49.2835703, Lng : -123.1150205, Q1 : 0.999998271465, Q2 : -0.000222463131649, Q3 : -0.000179025446414, Q4 : -0.00186092057265}
2019-04-14 11:44:17.91: SIM {TimeUS : 51334458, Roll : -0.02, Pitch : -0.02, Yaw : 359.78, Alt : 47.0099983215, Lat : 49.2835703, Lng : -123.1150205, Q1 : 0.999998211861, Q2 : -0.000176445639227, Q3 : -0.00022664401331, Q4 : -0.00187974481378}
2019-04-14 11:44:18.01: SIM {TimeUS : 51434418, Roll : -0.02, Pitch : -0.02, Yaw : 359.78, Alt : 47.2099990845, Lat : 49.2835703, Lng : -123.1150205, Q1 : 0.999998152256, Q2 : -0.000255195656791, Q3 : -0.000207373668673, Q4 : -0.00189892330673}
2019-04-14 11:44:18.11: SIM {TimeUS : 51534378, Roll : -0.05, Pitch : -0.01, Yaw : 359.77, Alt : 47.4099998474, Lat : 49.2835703, Lng : -123.1150205, Q1 : 0.999998033047, Q2 : -0.000479941954836, Q3 : -0.000140611824463, Q4 : -0.00192185060587}
2019-04-14 11:44:18.21: SIM {TimeUS : 51634338, Roll : -0.09, Pitch : -0.01, Yaw : 359.77, Alt : 47.5900001526, Lat : 49.2835703, Lng : -123.1150205, Q1 : 0.999997735023, Q2 : -0.000821445253678, Q3 : -0.000122028497572, Q4 : -0.00194953544997}
2019-04-14 11:44:18.31: SIM {TimeUS : 51734298, Roll : -0.14, Pitch : -0.03, Yaw : 359.77, Alt : 47.7700004578, Lat : 49.2835703, Lng : -123.1150205, Q1 : 0.999997198582, Q2 : -0.0012569532264, Q3 : -0.000291941221803, Q4 : -0.00198403489776}
2019-04-14 11:44:18.41: SIM {TimeUS : 51834258, Roll : -0.17, Pitch : -0.04, Yaw : 359.76, Alt : 47.9300003052, Lat : 49.2835703, Lng : -123.1150205, Q1 : 0.999996781349, Q2 : -0.00151286879554, Q3 : -0.000373376737116, Q4 : -0.00201904890127}
2019-04-14 11:44:18.51: SIM {TimeUS : 51934218, Roll : -0.17, Pitch : -0.03, Yaw : 359.76, Alt : 48.0900001526, Lat : 49.2835703, Lng : -123.1150205, Q1 : 0.99999666214, Q2 : -0.0015533050755, Q3 : -0.000291922042379, Q4 : -0.00205120560713}
2019-04-14 11:44:18.61: SIM {TimeUS : 52034178, Roll : -0.15, Pitch : -0.02, Yaw : 359.76, Alt : 48.2299995422, Lat : 49.2835703, Lng : -123.1150205, Q1 : 0.999996840954, Q2 : -0.00138723989949, Q3 : -0.000186398829101, Q4 : -0.00208351900801}
2019-04-14 11:44:18.71: SIM {TimeUS : 52134138, Roll : -0.12, Pitch : -0.01, Yaw : 359.75, Alt : 48.3600006104, Lat : 49.2835703, Lng : -123.1150205, Q1 : 0.999997138977, Q2 : -0.00112779694609, Q3 : -0.000132389817736, Q4 : -0.00211366522126}
2019-04-14 11:44:18.81: SIM {TimeUS : 52234098, Roll : -0.1, Pitch : -0.01, Yaw : 359.75, Alt : 48.4700012207, Lat : 49.2835703, Lng : -123.1150205, Q1 : 0.999997258186, Q2 : -0.000905289431103, Q3 : -0.000143051947816, Q4 : -0.00214391550981}
2019-04-14 11:44:18.91: SIM {TimeUS : 52334058, Roll : -0.07, Pitch : -0.02, Yaw : 359.75, Alt : 48.5800018311, Lat : 49.2835703, Lng : -123.1150205, Q1 : 0.999997377396, Q2 : -0.000663870421704, Q3 : -0.000249906734098, Q4 : -0.00217652390711}
2019-04-14 11:44:19.02: SIM {TimeUS : 52434851, Roll : -0.04, Pitch : -0.04, Yaw : 359.74, Alt : 48.6699981689, Lat : 49.2835703, Lng : -123.1150205, Q1 : 0.999997437, Q2 : -0.00037332487409, Q3 : -0.000358995224815, Q4 : -0.0022051455453}
2019-04-14 11:44:19.11: SIM {TimeUS : 52534811, Roll : -0.02, Pitch : -0.05, Yaw : 359.74, Alt : 48.75, Lat : 49.2835703, Lng : -123.1150205, Q1 : 0.999997377396, Q2 : -0.000201833783649, Q3 : -0.000472090701805, Q4 : -0.00222682650201}
2019-04-14 11:44:19.21: SIM {TimeUS : 52634771, Roll : -0.02, Pitch : -0.07, Yaw : 359.74, Alt : 48.8199996948, Lat : 49.2835703, Lng : -123.1150205, Q1 : 0.999997258186, Q2 : -0.000240760637098, Q3 : -0.000616373086814, Q4 : -0.00224164733663}
2019-04-14 11:44:19.31: SIM {TimeUS : 52734731, Roll : 0.0, Pitch : -0.07, Yaw : 359.74, Alt : 48.8800010681, Lat : 49.2835703, Lng : -123.1150206, Q1 : 0.999997258186, Q2 : -7.26482903701e-05, Q3 : -0.000638752360828, Q4 : -0.00225765700452}
2019-04-14 11:44:19.41: SIM {TimeUS : 52834691, Roll : 0.02, Pitch : -0.06, Yaw : 359.73, Alt : 48.9300003052, Lat : 49.2835703, Lng : -123.1150206, Q1 : 0.999997258186, Q2 : 0.00017509656027, Q3 : -0.000560797052458, Q4 : -0.00227248319425}
2019-04-14 11:44:19.51: SIM {TimeUS : 52934651, Roll : 0.05, Pitch : -0.05, Yaw : 359.73, Alt : 48.9799995422, Lat : 49.2835703, Lng : -123.1150206, Q1 : 0.999997198582, Q2 : 0.000456160050817, Q3 : -0.000472276326036, Q4 : -0.0022876476869}
2019-04-14 11:44:19.61: SIM {TimeUS : 53034611, Roll : 0.12, Pitch : -0.09, Yaw : 359.73, Alt : 49.0200004578, Lat : 49.2835703, Lng : -123.1150206, Q1 : 0.999996304512, Q2 : 0.00112538121175, Q3 : -0.000852585304528, Q4 : -0.00230850582011}
2019-04-14 11:44:19.71: SIM {TimeUS : 53134571, Roll : 0.36, Pitch : -0.29, Yaw : 359.73, Alt : 49.0499992371, Lat : 49.2835703, Lng : -123.1150206, Q1 : 0.999988973141, Q2 : 0.00314463139512, Q3 : -0.00258786254562, Q4 : -0.0023337744642}
2019-04-14 11:44:19.81: SIM {TimeUS : 53234531, Roll : 0.78, Pitch : -0.7, Yaw : 359.72, Alt : 49.0800018311, Lat : 49.2835703, Lng : -123.1150206, Q1 : 0.999955058098, Q2 : 0.00682581728324, Q3 : -0.00614322954789, Q4 : -0.00235679163598}
2019-04-14 11:44:19.91: SIM {TimeUS : 53334491, Roll : 1.36, Pitch : -1.27, Yaw : 359.71, Alt : 49.0999984741, Lat : 49.2835704, Lng : -123.1150206, Q1 : 0.999863922596, Q2 : 0.0119094848633, Q3 : -0.0111703891307, Q4 : -0.00236689555459}
2019-04-14 11:44:20.01: SIM {TimeUS : 53434451, Roll : 2.08, Pitch : -1.95, Yaw : 359.69, Alt : 49.1300010681, Lat : 49.2835704, Lng : -123.1150205, Q1 : 0.999686300755, Q2 : 0.0181377548724, Q3 : -0.0171130727977, Q4 : -0.00234810262918}
2019-04-14 11:44:20.11: SIM {TimeUS : 53534411, Roll : 2.83, Pitch : -2.65, Yaw : 359.67, Alt : 49.1399993896, Lat : 49.2835706, Lng : -123.1150204, Q1 : 0.999422550201, Q2 : 0.0247034095228, Q3 : -0.0232209879905, Q4 : -0.00227283663116}
2019-04-14 11:44:20.21: SIM {TimeUS : 53634371, Roll : 3.5, Pitch : -3.25, Yaw : 359.65, Alt : 49.1599998474, Lat : 49.2835707, Lng : -123.1150203, Q1 : 0.999128818512, Q2 : 0.0304678976536, Q3 : -0.0284401681274, Q4 : -0.00212603784166}
2019-04-14 11:44:20.31: SIM {TimeUS : 53734331, Roll : 4.03, Pitch : -3.69, Yaw : 359.65, Alt : 49.1699981689, Lat : 49.2835708, Lng : -123.1150201, Q1 : 0.998860239983, Q2 : 0.0350783355534, Q3 : -0.0323125347495, Q4 : -0.00191505916882}
2019-04-14 11:44:20.41: SIM {TimeUS : 53834291, Roll : 4.43, Pitch : -4.01, Yaw : 359.65, Alt : 49.1800003052, Lat : 49.2835709, Lng : -123.1150199, Q1 : 0.998637795448, Q2 : 0.0385255180299, Q3 : -0.03515169397, Q4 : -0.00165112677496}
2019-04-14 11:44:20.51: SIM {TimeUS : 53934251, Roll : 4.73, Pitch : -4.29, Yaw : 359.66, Alt : 49.2000007629, Lat : 49.2835712, Lng : -123.1150195, Q1 : 0.998444914818, Q2 : 0.0411500632763, Q3 : -0.0375835187733, Q4 : -0.0013748408528}
2019-04-14 11:44:20.61: SIM {TimeUS : 54034211, Roll : 4.97, Pitch : -4.55, Yaw : 359.67, Alt : 49.2000007629, Lat : 49.2835715, Lng : -123.1150191, Q1 : 0.998270273209, Q2 : 0.0432406924665, Q3 : -0.039818469435, Q4 : -0.00109857798088}
2019-04-14 11:44:20.71: SIM {TimeUS : 54134171, Roll : 5.21, Pitch : -4.84, Yaw : 359.68, Alt : 49.2099990845, Lat : 49.2835718, Lng : -123.1150185, Q1 : 0.998073160648, Q2 : 0.0453767962754, Q3 : -0.0423113703728, Q4 : -0.000825147959404}
2019-04-14 11:44:20.81: SIM {TimeUS : 54234131, Roll : 5.48, Pitch : -5.12, Yaw : 359.69, Alt : 49.2200012207, Lat : 49.2835721, Lng : -123.1150179, Q1 : 0.997854948044, Q2 : 0.0477174557745, Q3 : -0.0448133051395, Q4 : -0.000537275511306}
2019-04-14 11:44:20.91: SIM {TimeUS : 54334091, Roll : 5.74, Pitch : -5.36, Yaw : 359.7, Alt : 49.2299995422, Lat : 49.2835727, Lng : -123.1150172, Q1 : 0.997652232647, Q2 : 0.0499075055122, Q3 : -0.0468964613974, Q4 : -0.00024083792232}
2019-04-14 11:44:21.01: SIM {TimeUS : 54434051, Roll : 5.93, Pitch : -5.55, Yaw : 359.71, Alt : 49.2299995422, Lat : 49.2835732, Lng : -123.1150163, Q1 : 0.997487485409, Q2 : 0.0516106598079, Q3 : -0.0485289171338, Q4 : 1.35930449687e-05}
2019-04-14 11:44:21.12: SIM {TimeUS : 54534844, Roll : 6.08, Pitch : -5.68, Yaw : 359.72, Alt : 49.2400016785, Lat : 49.2835737, Lng : -123.1150155, Q1 : 0.997365295887, Q2 : 0.0528545342386, Q3 : -0.0496876426041, Q4 : 0.00022618881485}
2019-04-14 11:44:21.21: SIM {TimeUS : 54634804, Roll : 6.16, Pitch : -5.77, Yaw : 359.73, Alt : 49.2400016785, Lat : 49.2835743, Lng : -123.1150145, Q1 : 0.997287154198, Q2 : 0.0536195747554, Q3 : -0.0504300184548, Q4 : 0.000374257157091}
2019-04-14 11:44:21.31: SIM {TimeUS : 54734764, Roll : 6.24, Pitch : -5.86, Yaw : 359.73, Alt : 49.25, Lat : 49.2835749, Lng : -123.1150135, Q1 : 0.997211813927, Q2 : 0.0543048009276, Q3 : -0.0511801578104, Q4 : 0.000452541105915}
2019-04-14 11:44:21.41: SIM {TimeUS : 54834724, Roll : 6.38, Pitch : -5.96, Yaw : 359.72, Alt : 49.25, Lat : 49.2835756, Lng : -123.1150124, Q1 : 0.997099637985, Q2 : 0.0554814748466, Q3 : -0.0520944558084, Q4 : 0.000538618885912}
2019-04-14 11:44:21.51: SIM {TimeUS : 54934684, Roll : 6.74, Pitch : -5.97, Yaw : 359.91, Alt : 49.25, Lat : 49.2835764, Lng : -123.1150112, Q1 : 0.996916532516, Q2 : 0.0586938485503, Q3 : -0.05203204602, Q4 : 0.00228113657795}
2019-04-14 11:44:21.61: SIM {TimeUS : 55034644, Roll : 7.34, Pitch : -5.85, Yaw : 0.85, Alt : 49.2599983215, Lat : 49.283577, Lng : -123.1150099, Q1 : 0.996595561504, Q2 : 0.0643140003085, Q3 : -0.0504601374269, Q4 : 0.0107138957828}
2019-04-14 11:44:21.71: SIM {TimeUS : 55134604, Roll : 7.95, Pitch : -5.89, Yaw : 3.19, Alt : 49.2599983215, Lat : 49.2835779, Lng : -123.1150084, Q1 : 0.995784938335, Q2 : 0.0706746280193, Q3 : -0.0493398495018, Q4 : 0.0313527695835}
2019-04-14 11:44:21.81: SIM {TimeUS : 55234564, Roll : 8.27, Pitch : -6.34, Yaw : 7.13, Alt : 49.2599983215, Lat : 49.2835788, Lng : -123.115007, Q1 : 0.993685781956, Q2 : 0.0753480195999, Q3 : -0.0506409183145, Q4 : 0.0659298077226}
2019-04-14 11:44:21.91: SIM {TimeUS : 55334524, Roll : 8.09, Pitch : -7.24, Yaw : 12.53, Alt : 49.2599983215, Lat : 49.2835795, Lng : -123.1150054, Q1 : 0.98907905817, Q2 : 0.0768616124988, Q3 : -0.0549479573965, Q4 : 0.113118089736}
2019-04-14 11:44:22.01: SIM {TimeUS : 55434484, Roll : 7.27, Pitch : -8.46, Yaw : 19.17, Alt : 49.2599983215, Lat : 49.2835805, Lng : -123.1150037, Q1 : 0.980584144592, Q2 : 0.0746465101838, Q3 : -0.0621327832341, Q4 : 0.170359015465}
2019-04-14 11:44:22.11: SIM {TimeUS : 55534444, Roll : 5.8, Pitch : -9.85, Yaw : 26.78, Alt : 49.2599983215, Lat : 49.2835813, Lng : -123.1150019, Q1 : 0.9669713974, Q2 : 0.0689482986927, Q3 : -0.0717399343848, Q4 : 0.234661057591}
2019-04-14 11:44:22.21: SIM {TimeUS : 55634404, Roll : 3.6, Pitch : -11.16, Yaw : 35.03, Alt : 49.2700004578, Lat : 49.2835824, Lng : -123.115, Q1 : 0.947703659534, Q2 : 0.0591310672462, Q3 : -0.0832568407059, Q4 : 0.302373200655}
2019-04-14 11:44:22.31: SIM {TimeUS : 55734364, Roll : 0.66, Pitch : -12.14, Yaw : 43.28, Alt : 49.2700004578, Lat : 49.2835834, Lng : -123.1149979, Q1 : 0.924047887325, Q2 : 0.0443887375295, Q3 : -0.0961923152208, Q4 : 0.367303997278}
2019-04-14 11:44:22.41: SIM {TimeUS : 55834324, Roll : -2.52, Pitch : -12.62, Yaw : 50.63, Alt : 49.2700004578, Lat : 49.2835844, Lng : -123.1149958, Q1 : 0.899295449257, Q2 : 0.0271976273507, Q3 : -0.108773559332, Q4 : 0.422724872828}
2019-04-14 11:44:22.51: SIM {TimeUS : 55934284, Roll : -5.3, Pitch : -12.67, Yaw : 56.34, Alt : 49.2700004578, Lat : 49.2835855, Lng : -123.1149937, Q1 : 0.877607882023, Q2 : 0.0114955250174, Q3 : -0.118949368596, Q4 : 0.464244961739}
2019-04-14 11:44:22.61: SIM {TimeUS : 56034244, Roll : -7.16, Pitch : -12.51, Yaw : 60.06, Alt : 49.2700004578, Lat : 49.2835868, Lng : -123.1149914, Q1 : 0.86231893301, Q2 : 0.00068302906584, Q3 : -0.125267773867, Q4 : 0.490625739098}
2019-04-14 11:44:22.71: SIM {TimeUS : 56134204, Roll : -7.93, Pitch : -12.4, Yaw : 61.83, Alt : 49.2700004578, Lat : 49.2835881, Lng : -123.1149892, Q1 : 0.8546885252, Q2 : -0.00361905898899, Q3 : -0.127766937017, Q4 : 0.503160059452}
2019-04-14 11:44:22.81: SIM {TimeUS : 56234164, Roll : -7.71, Pitch : -12.5, Yaw : 61.94, Alt : 49.2700004578, Lat : 49.2835897, Lng : -123.114987, Q1 : 0.854148626328, Q2 : -0.00140303862281, Q3 : -0.127603009343, Q4 : 0.50412863493}
2019-04-14 11:44:22.91: SIM {TimeUS : 56334124, Roll : -6.76, Pitch : -12.89, Yaw : 60.75, Alt : 49.2700004578, Lat : 49.2835913, Lng : -123.1149847, Q1 : 0.859125852585, Q2 : 0.00613052211702, Q3 : -0.126321211457, Q4 : 0.495891302824}
2019-04-14 11:44:23.01: SIM {TimeUS : 56434084, Roll : -5.3, Pitch : -13.49, Yaw : 58.59, Alt : 49.2700004578, Lat : 49.2835928, Lng : -123.1149824, Q1 : 0.867769896984, Q2 : 0.017329191789, Q3 : -0.124865688384, Q4 : 0.480711579323}
2019-04-14 11:44:23.11: SIM {TimeUS : 56534044, Roll : -3.56, Pitch : -14.21, Yaw : 55.8, Alt : 49.2799987793, Lat : 49.2835946, Lng : -123.11498, Q1 : 0.878315925598, Q2 : 0.0305760707706, Q3 : -0.123731911182, Q4 : 0.460778325796}
2019-04-14 11:44:23.22: SIM {TimeUS : 56634837, Roll : -1.71, Pitch : -14.9, Yaw : 52.66, Alt : 49.2799987793, Lat : 49.2835964, Lng : -123.1149775, Q1 : 0.889413356781, Q2 : 0.0442444011569, Q3 : -0.122769966722, Q4 : 0.438079684973}
2019-04-14 11:44:23.31: SIM {TimeUS : 56734797, Roll : 0.05, Pitch : -15.42, Yaw : 49.55, Alt : 49.2799987793, Lat : 49.2835983, Lng : -123.114975, Q1 : 0.899718642235, Q2 : 0.0566348806024, Q3 : -0.121659904718, Q4 : 0.415328502655}
2019-04-14 11:44:23.41: SIM {TimeUS : 56834757, Roll : 1.56, Pitch : -15.73, Yaw : 46.75, Alt : 49.2799987793, Lat : 49.2836001, Lng : -123.1149723, Q1 : 0.908432066441, Q2 : 0.0667297765613, Q3 : -0.120250970125, Q4 : 0.39476326108}
2019-04-14 11:44:23.51: SIM {TimeUS : 56934717, Roll : 2.69, Pitch : -15.82, Yaw : 44.55, Alt : 49.2799987793, Lat : 49.2836019, Lng : -123.1149695, Q1 : 0.915067195892, Q2 : 0.0737177208066, Q3 : -0.118554852903, Q4 : 0.378368198872}
2019-04-14 11:44:23.61: SIM {TimeUS : 57034677, Roll : 3.36, Pitch : -15.79, Yaw : 43.08, Alt : 49.2799987793, Lat : 49.2836038, Lng : -123.1149666, Q1 : 0.919440090656, Q2 : 0.07746168226, Q3 : -0.117039322853, Q4 : 0.36733007431}
2019-04-14 11:44:23.71: SIM {TimeUS : 57134637, Roll : 3.56, Pitch : -15.71, Yaw : 42.39, Alt : 49.2799987793, Lat : 49.2836059, Lng : -123.1149636, Q1 : 0.921596884727, Q2 : 0.0781415626407, Q3 : -0.11626137048, Q4 : 0.361989498138}
2019-04-14 11:44:23.81: SIM {TimeUS : 57234597, Roll : 3.34, Pitch : -15.66, Yaw : 42.41, Alt : 49.2799987793, Lat : 49.2836078, Lng : -123.1149604, Q1 : 0.921732902527, Q2 : 0.0762324407697, Q3 : -0.116573311388, Q4 : 0.361949980259}
2019-04-14 11:44:23.91: SIM {TimeUS : 57334557, Roll : 2.79, Pitch : -15.69, Yaw : 43.02, Alt : 49.2799987793, Lat : 49.2836098, Lng : -123.1149571, Q1 : 0.920124590397, Q2 : 0.0724980682135, Q3 : -0.118138588965, Q4 : 0.36627587676}
2019-04-14 11:44:24.01: SIM {TimeUS : 57434517, Roll : 2.0, Pitch : -15.8, Yaw : 44.05, Alt : 49.2799987793, Lat : 49.2836117, Lng : -123.1149538, Q1 : 0.917151927948, Q2 : 0.0676532611251, Q3 : -0.120899379253, Q4 : 0.373682618141}
2019-04-14 11:44:24.11: SIM {TimeUS : 57534477, Roll : 1.13, Pitch : -15.95, Yaw : 45.32, Alt : 49.2900009155, Lat : 49.2836138, Lng : -123.1149503, Q1 : 0.913290143013, Q2 : 0.0625314638019, Q3 : -0.124300539494, Q4 : 0.38280582428}
2019-04-14 11:44:24.21: SIM {TimeUS : 57634437, Roll : 0.28, Pitch : -16.11, Yaw : 46.64, Alt : 49.2900009155, Lat : 49.2836159, Lng : -123.1149468, Q1 : 0.909076213837, Q2 : 0.0577300339937, Q3 : -0.127752631903, Q4 : 0.392335236073}
2019-04-14 11:44:24.31: SIM {TimeUS : 57734397, Roll : -0.45, Pitch : -16.24, Yaw : 47.87, Alt : 49.2900009155, Lat : 49.283618, Lng : -123.1149432, Q1 : 0.905041575432, Q2 : 0.0536886788905, Q3 : -0.13071373105, Q4 : 0.401162415743}
2019-04-14 11:44:24.41: SIM {TimeUS : 57834357, Roll : -1.0, Pitch : -16.32, Yaw : 48.88, Alt : 49.2900009155, Lat : 49.2836201, Lng : -123.1149396, Q1 : 0.901621997356, Q2 : 0.0508250854909, Q3 : -0.132855549455, Q4 : 0.408465445042}
2019-04-14 11:44:24.51: SIM {TimeUS : 57934317, Roll : -1.35, Pitch : -16.39, Yaw : 49.61, Alt : 49.2900009155, Lat : 49.2836221, Lng : -123.114936, Q1 : 0.899109005928, Q2 : 0.0492153689265, Q3 : -0.134279578924, Q4 : 0.413702636957}
2019-04-14 11:44:24.61: SIM {TimeUS : 58034277, Roll : -1.48, Pitch : -16.43, Yaw : 50.01, Alt : 49.2900009155, Lat : 49.2836244, Lng : -123.1149323, Q1 : 0.897652447224, Q2 : 0.0487893037498, Q3 : -0.134984388947, Q4 : 0.416676044464}
2019-04-14 11:44:24.71: SIM {TimeUS : 58134237, Roll : -1.45, Pitch : -16.48, Yaw : 50.1, Alt : 49.2900009155, Lat : 49.2836267, Lng : -123.1149285, Q1 : 0.897240757942, Q2 : 0.0493616163731, Q3 : -0.135173752904, Q4 : 0.417433261871}
2019-04-14 11:44:24.81: SIM {TimeUS : 58234197, Roll : -1.27, Pitch : -16.51, Yaw : 49.93, Alt : 49.2900009155, Lat : 49.283629, Lng : -123.1149247, Q1 : 0.897761464119, Q2 : 0.0506701096892, Q3 : -0.1348105371, Q4 : 0.41627278924}
2019-04-14 11:44:24.91: SIM {TimeUS : 58334157, Roll : -0.96, Pitch : -16.52, Yaw : 49.56, Alt : 49.2900009155, Lat : 49.2836312, Lng : -123.1149209, Q1 : 0.898974359035, Q2 : 0.0526349842548, Q3 : -0.133995562792, Q4 : 0.413666367531}
2019-04-14 11:44:25.01: SIM {TimeUS : 58434117, Roll : -0.62, Pitch : -16.54, Yaw : 49.05, Alt : 49.2900009155, Lat : 49.2836335, Lng : -123.1149171, Q1 : 0.900605499744, Q2 : 0.0547869317234, Q3 : -0.133161112666, Q4 : 0.410093069077}
2019-04-14 11:44:25.11: SIM {TimeUS : 58534077, Roll : -0.26, Pitch : -16.57, Yaw : 48.5, Alt : 49.2900009155, Lat : 49.2836359, Lng : -123.1149132, Q1 : 0.902374386787, Q2 : 0.0570990256965, Q3 : -0.132358565927, Q4 : 0.406129777431}
2019-04-14 11:44:25.21: SIM {TimeUS : 58634037, Roll : 0.09, Pitch : -16.59, Yaw : 47.96, Alt : 49.2900009155, Lat : 49.2836384, Lng : -123.1149092, Q1 : 0.904066264629, Q2 : 0.0593753904104, Q3 : -0.131551936269, Q4 : 0.402284532785}
2019-04-14 11:44:25.32: SIM {TimeUS : 58734830, Roll : 0.38, Pitch : -16.61, Yaw : 47.49, Alt : 49.2900009155, Lat : 49.2836408, Lng : -123.1149052, Q1 : 0.905532956123, Q2 : 0.0612167157233, Q3 : -0.130918696523, Q4 : 0.398902088404}
2019-04-14 11:44:25.41: SIM {TimeUS : 58834790, Roll : 0.57, Pitch : -16.65, Yaw : 47.13, Alt : 49.2900009155, Lat : 49.2836432, Lng : -123.1149012, Q1 : 0.906628787518, Q2 : 0.0624550320208, Q3 : -0.130720943213, Q4 : 0.396277248859}
2019-04-14 11:44:25.51: SIM {TimeUS : 58934750, Roll : 0.66, Pitch : -16.7, Yaw : 46.9, Alt : 49.2900009155, Lat : 49.2836457, Lng : -123.1148971, Q1 : 0.907312333584, Q2 : 0.063057564199, Q3 : -0.130985692143, Q4 : 0.394526064396}
2019-04-14 11:44:25.61: SIM {TimeUS : 59034710, Roll : 0.65, Pitch : -16.78, Yaw : 46.8, Alt : 49.2900009155, Lat : 49.2836481, Lng : -123.114893, Q1 : 0.907578706741, Q2 : 0.0631474032998, Q3 : -0.131657630205, Q4 : 0.393674463034}
2019-04-14 11:44:25.71: SIM {TimeUS : 59134670, Roll : 0.56, Pitch : -16.83, Yaw : 46.81, Alt : 49.2900009155, Lat : 49.2836505, Lng : -123.1148888, Q1 : 0.907508313656, Q2 : 0.0626821890473, Q3 : -0.132421210408, Q4 : 0.393655031919}
2019-04-14 11:44:25.81: SIM {TimeUS : 59234630, Roll : 0.44, Pitch : -16.88, Yaw : 46.92, Alt : 49.2900009155, Lat : 49.283653, Lng : -123.1148847, Q1 : 0.907153129578, Q2 : 0.0619986914098, Q3 : -0.133173123002, Q4 : 0.394327700138}
2019-04-14 11:44:25.91: SIM {TimeUS : 59334590, Roll : 0.31, Pitch : -16.92, Yaw : 47.09, Alt : 49.2900009155, Lat : 49.2836555, Lng : -123.1148804, Q1 : 0.906604766846, Q2 : 0.0612420737743, Q3 : -0.133797124028, Q4 : 0.395494073629}
2019-04-14 11:44:26.01: SIM {TimeUS : 59434550, Roll : 0.17, Pitch : -16.94, Yaw : 47.29, Alt : 49.2900009155, Lat : 49.283658, Lng : -123.1148762, Q1 : 0.905952394009, Q2 : 0.0604922622442, Q3 : -0.134331777692, Q4 : 0.396920621395}
2019-04-14 11:44:26.11: SIM {TimeUS : 59534510, Roll : 0.05, Pitch : -16.96, Yaw : 47.49, Alt : 49.2900009155, Lat : 49.2836607, Lng : -123.1148719, Q1 : 0.905281245708, Q2 : 0.059854734689, Q3 : -0.134773686528, Q4 : 0.398395985365}
2019-04-14 11:44:26.21: SIM {TimeUS : 59634470, Roll : -0.03, Pitch : -16.98, Yaw : 47.68, Alt : 49.2999992371, Lat : 49.2836632, Lng : -123.1148676, Q1 : 0.904665887356, Q2 : 0.059405375272, Q3 : -0.135207444429, Q4 : 0.399711817503}
2019-04-14 11:44:26.31: SIM {TimeUS : 59734430, Roll : -0.11, Pitch : -17.01, Yaw : 47.82, Alt : 49.2999992371, Lat : 49.2836657, Lng : -123.1148633, Q1 : 0.904180109501, Q2 : 0.0590779148042, Q3 : -0.135615289211, Q4 : 0.400720149279}
2019-04-14 11:44:26.41: SIM {TimeUS : 59834390, Roll : -0.16, Pitch : -17.04, Yaw : 47.91, Alt : 49.2999992371, Lat : 49.2836682, Lng : -123.114859, Q1 : 0.903852462769, Q2 : 0.0588832013309, Q3 : -0.135994181037, Q4 : 0.401359081268}
2019-04-14 11:44:26.51: SIM {TimeUS : 59934350, Roll : -0.18, Pitch : -17.08, Yaw : 47.94, Alt : 49.2999992371, Lat : 49.2836709, Lng : -123.1148546, Q1 : 0.9036886096, Q2 : 0.0588959604502, Q3 : -0.136341929436, Q4 : 0.401608139277}
2019-04-14 11:44:26.61: SIM {TimeUS : 60034310, Roll : -0.18, Pitch : -17.12, Yaw : 47.93, Alt : 49.2999992371, Lat : 49.2836735, Lng : -123.1148502, Q1 : 0.903680503368, Q2 : 0.0590692982078, Q3 : -0.136704802513, Q4 : 0.401477426291}
2019-04-14 11:44:26.71: SIM {TimeUS : 60134270, Roll : -0.17, Pitch : -17.17, Yaw : 47.87, Alt : 49.2999992371, Lat : 49.2836761, Lng : -123.1148458, Q1 : 0.903825283051, Q2 : 0.0591831840575, Q3 : -0.13706330955, Q4 : 0.401012301445}
2019-04-14 11:44:26.81: SIM {TimeUS : 60234230, Roll : -0.16, Pitch : -17.19, Yaw : 47.79, Alt : 49.2999992371, Lat : 49.2836787, Lng : -123.1148414, Q1 : 0.904095888138, Q2 : 0.0592761896551, Q3 : -0.137201756239, Q4 : 0.400340586901}
2019-04-14 11:44:26.91: SIM {TimeUS : 60334190, Roll : -0.13, Pitch : -17.2, Yaw : 47.68, Alt : 49.2999992371, Lat : 49.2836814, Lng : -123.114837, Q1 : 0.904422938824, Q2 : 0.0594216622412, Q3 : -0.137288749218, Q4 : 0.399549841881}
2019-04-14 11:44:27.01: SIM {TimeUS : 60434150, Roll : -0.07, Pitch : -17.23, Yaw : 47.57, Alt : 49.2999992371, Lat : 49.283684, Lng : -123.1148325, Q1 : 0.904743790627, Q2 : 0.059855658561, Q3 : -0.137330025434, Q4 : 0.398743540049}
2019-04-14 11:44:27.11: SIM {TimeUS : 60534110, Roll : 0.0, Pitch : -17.26, Yaw : 47.47, Alt : 49.2999992371, Lat : 49.2836866, Lng : -123.114828, Q1 : 0.905033886433, Q2 : 0.0604587569833, Q3 : -0.137369260192, Q4 : 0.397980004549}
2019-04-14 11:44:27.21: SIM {TimeUS : 60634070, Roll : 0.08, Pitch : -17.3, Yaw : 47.37, Alt : 49.3100013733, Lat : 49.2836894, Lng : -123.1148235, Q1 : 0.905273616314, Q2 : 0.0611191950738, Q3 : -0.137437388301, Q4 : 0.397309929132}
2019-04-14 11:44:27.31: SIM {TimeUS : 60734030, Roll : 0.16, Pitch : -17.34, Yaw : 47.3, Alt : 49.3100013733, Lat : 49.2836919, Lng : -123.114819, Q1 : 0.905445516109, Q2 : 0.0617832988501, Q3 : -0.137579292059, Q4 : 0.39676591754}
2019-04-14 11:44:27.42: SIM {TimeUS : 60834823, Roll : 0.2, Pitch : -17.38, Yaw : 47.24, Alt : 49.3100013733, Lat : 49.2836948, Lng : -123.1148145, Q1 : 0.905570745468, Q2 : 0.0621807910502, Q3 : -0.137750655413, Q4 : 0.396358340979}
2019-04-14 11:44:27.51: SIM {TimeUS : 60934783, Roll : 0.2, Pitch : -17.39, Yaw : 47.21, Alt : 49.3100013733, Lat : 49.2836974, Lng : -123.1148099, Q1 : 0.905671298504, Q2 : 0.0621420368552, Q3 : -0.13788254559, Q4 : 0.396088778973}
2019-04-14 11:44:27.61: SIM {TimeUS : 61034743, Roll : 0.16, Pitch : -17.4, Yaw : 47.2, Alt : 49.3100013733, Lat : 49.2837002, Lng : -123.1148054, Q1 : 0.905728578568, Q2 : 0.0618631057441, Q3 : -0.138040050864, Q4 : 0.395946621895}
2019-04-14 11:44:27.71: SIM {TimeUS : 61134703, Roll : 0.14, Pitch : -17.39, Yaw : 47.2, Alt : 49.3100013733, Lat : 49.2837028, Lng : -123.1148008, Q1 : 0.905735552311, Q2 : 0.0616876706481, Q3 : -0.138064950705, Q4 : 0.395949274302}
2019-04-14 11:44:27.81: SIM {TimeUS : 61234663, Roll : 0.12, Pitch : -17.4, Yaw : 47.21, Alt : 49.3100013733, Lat : 49.2837056, Lng : -123.1147962, Q1 : 0.905685663223, Q2 : 0.0615991838276, Q3 : -0.138183280826, Q4 : 0.396035850048}
2019-04-14 11:44:27.91: SIM {TimeUS : 61334623, Roll : 0.11, Pitch : -17.44, Yaw : 47.23, Alt : 49.3100013733, Lat : 49.2837083, Lng : -123.1147916, Q1 : 0.905570685863, Q2 : 0.0616963393986, Q3 : -0.138531208038, Q4 : 0.396162033081}
2019-04-14 11:44:28.01: SIM {TimeUS : 61434583, Roll : 0.12, Pitch : -17.51, Yaw : 47.25, Alt : 49.3100013733, Lat : 49.2837111, Lng : -123.114787, Q1 : 0.905416667461, Q2 : 0.0619592927396, Q3 : -0.139036774635, Q4 : 0.39629599452}
2019-04-14 11:44:28.11: SIM {TimeUS : 61534543, Roll : 0.11, Pitch : -17.54, Yaw : 47.27, Alt : 49.3199996948, Lat : 49.2837138, Lng : -123.1147824, Q1 : 0.905319333076, Q2 : 0.0620412640274, Q3 : -0.13933442533, Q4 : 0.396400928497}
2019-04-14 11:44:28.21: SIM {TimeUS : 61634503, Roll : 0.1, Pitch : -17.54, Yaw : 47.28, Alt : 49.3199996948, Lat : 49.2837166, Lng : -123.1147777, Q1 : 0.905289709568, Q2 : 0.0619825646281, Q3 : -0.139336541295, Q4 : 0.396477043629}
2019-04-14 11:44:28.31: SIM {TimeUS : 61734463, Roll : 0.09, Pitch : -17.54, Yaw : 47.28, Alt : 49.3199996948, Lat : 49.2837192, Lng : -123.1147731, Q1 : 0.905283808708, Q2 : 0.0619066916406, Q3 : -0.139391198754, Q4 : 0.396483182907}
2019-04-14 11:44:28.41: SIM {TimeUS : 61834423, Roll : 0.07, Pitch : -17.56, Yaw : 47.28, Alt : 49.3199996948, Lat : 49.2837221, Lng : -123.1147684, Q1 : 0.905284941196, Q2 : 0.0618556775153, Q3 : -0.139619231224, Q4 : 0.396408349276}
2019-04-14 11:44:28.51: SIM {TimeUS : 61934383, Roll : 0.07, Pitch : -17.59, Yaw : 47.27, Alt : 49.3199996948, Lat : 49.2837248, Lng : -123.1147638, Q1 : 0.905296206474, Q2 : 0.0619373321533, Q3 : -0.139808133245, Q4 : 0.396303206682}
2019-04-14 11:44:28.61: SIM {TimeUS : 62034343, Roll : 0.08, Pitch : -17.61, Yaw : 47.25, Alt : 49.3199996948, Lat : 49.2837277, Lng : -123.1147591, Q1 : 0.905328035355, Q2 : 0.0620090141892, Q3 : -0.13999260962, Q4 : 0.396154135466}
2019-04-14 11:44:28.71: SIM {TimeUS : 62134303, Roll : 0.08, Pitch : -17.62, Yaw : 47.23, Alt : 49.3199996948, Lat : 49.2837305, Lng : -123.1147544, Q1 : 0.90538161993, Q2 : 0.0620752833784, Q3 : -0.140110224485, Q4 : 0.395979732275}
2019-04-14 11:44:28.81: SIM {TimeUS : 62234263, Roll : 0.1, Pitch : -17.64, Yaw : 47.2, Alt : 49.3199996948, Lat : 49.2837332, Lng : -123.1147497, Q1 : 0.905446171761, Q2 : 0.0622258409858, Q3 : -0.140218153596, Q4 : 0.395770192146}
2019-04-14 11:44:28.91: SIM {TimeUS : 62334223, Roll : 0.12, Pitch : -17.65, Yaw : 47.17, Alt : 49.3199996948, Lat : 49.2837361, Lng : -123.114745, Q1 : 0.905526697636, Q2 : 0.062400713563, Q3 : -0.140249565244, Q4 : 0.395547270775}
2019-04-14 11:44:29.01: SIM {TimeUS : 62434183, Roll : 0.14, Pitch : -17.67, Yaw : 47.14, Alt : 49.3199996948, Lat : 49.2837388, Lng : -123.1147403, Q1 : 0.905601084232, Q2 : 0.0626025348902, Q3 : -0.140277251601, Q4 : 0.395335227251}
2019-04-14 11:44:29.11: SIM {TimeUS : 62534143, Roll : 0.17, Pitch : -17.69, Yaw : 47.11, Alt : 49.3199996948, Lat : 49.2837417, Lng : -123.1147356, Q1 : 0.905656039715, Q2 : 0.0628358870745, Q3 : -0.140390262008, Q4 : 0.395132094622}
2019-04-14 11:44:29.21: SIM {TimeUS : 62634103, Roll : 0.17, Pitch : -17.72, Yaw : 47.09, Alt : 49.3199996948, Lat : 49.2837445, Lng : -123.1147308, Q1 : 0.905696988106, Q2 : 0.0629735738039, Q3 : -0.140652254224, Q4 : 0.394923120737}
2019-04-14 11:44:29.31: SIM {TimeUS : 62734063, Roll : 0.15, Pitch : -17.76, Yaw : 47.06, Alt : 49.3199996948, Lat : 49.2837472, Lng : -123.1147261, Q1 : 0.905733108521, Q2 : 0.0629174485803, Q3 : -0.141036346555, Q4 : 0.394712120295}
2019-04-14 11:44:29.41: SIM {TimeUS : 62834023, Roll : 0.14, Pitch : -17.8, Yaw : 47.05, Alt : 49.3199996948, Lat : 49.2837502, Lng : -123.1147213, Q1 : 0.905750870705, Q2 : 0.0629115775228, Q3 : -0.141431629658, Q4 : 0.39453086257}
2019-04-14 11:44:29.51: SIM {TimeUS : 62934816, Roll : 0.15, Pitch : -17.83, Yaw : 47.03, Alt : 49.3199996948, Lat : 49.283753, Lng : -123.1147165, Q1 : 0.905756652355, Q2 : 0.0630923658609, Q3 : -0.141608536243, Q4 : 0.394425213337}
2019-04-14 11:44:29.61: SIM {TimeUS : 63034776, Roll : 0.18, Pitch : -17.83, Yaw : 47.02, Alt : 49.3300018311, Lat : 49.2837558, Lng : -123.1147118, Q1 : 0.905778408051, Q2 : 0.0633153617382, Q3 : -0.141509398818, Q4 : 0.394375175238}
2019-04-14 11:44:29.71: SIM {TimeUS : 63134736, Roll : 0.2, Pitch : -17.8, Yaw : 47.01, Alt : 49.3300018311, Lat : 49.2837587, Lng : -123.114707, Q1 : 0.905832946301, Q2 : 0.0633459165692, Q3 : -0.141215801239, Q4 : 0.394350260496}
2019-04-14 11:44:29.81: SIM {TimeUS : 63234696, Roll : 0.19, Pitch : -17.78, Yaw : 47.01, Alt : 49.3300018311, Lat : 49.2837616, Lng : -123.1147022, Q1 : 0.905877709389, Q2 : 0.0632251873612, Q3 : -0.141073390841, Q4 : 0.394317775965}
2019-04-14 11:44:29.91: SIM {TimeUS : 63334656, Roll : 0.17, Pitch : -17.77, Yaw : 47.01, Alt : 49.3300018311, Lat : 49.2837643, Lng : -123.1146974, Q1 : 0.905911326408, Q2 : 0.063043795526, Q3 : -0.141065582633, Q4 : 0.394272297621}
2019-04-14 11:44:30.01: SIM {TimeUS : 63434616, Roll : 0.16, Pitch : -17.77, Yaw : 47.0, Alt : 49.3300018311, Lat : 49.2837673, Lng : -123.1146926, Q1 : 0.905936717987, Q2 : 0.0629187524319, Q3 : -0.141094475985, Q4 : 0.394223570824}
2019-04-14 11:44:30.11: SIM {TimeUS : 63534576, Roll : 0.15, Pitch : -17.78, Yaw : 47.0, Alt : 49.3300018311, Lat : 49.2837702, Lng : -123.1146878, Q1 : 0.905948996544, Q2 : 0.0628563687205, Q3 : -0.141235724092, Q4 : 0.394154757261}
2019-04-14 11:44:30.21: SIM {TimeUS : 63634536, Roll : 0.15, Pitch : -17.8, Yaw : 46.99, Alt : 49.3300018311, Lat : 49.2837731, Lng : -123.1146829, Q1 : 0.905950903893, Q2 : 0.0628959313035, Q3 : -0.141396120191, Q4 : 0.394086509943}
2019-04-14 11:44:30.31: SIM {TimeUS : 63734496, Roll : 0.14, Pitch : -17.84, Yaw : 46.98, Alt : 49.3300018311, Lat : 49.2837758, Lng : -123.1146781, Q1 : 0.905936002731, Q2 : 0.0629630312324, Q3 : -0.141714200377, Q4 : 0.393995791674}
2019-04-14 11:44:30.41: SIM {TimeUS : 63834456, Roll : 0.14, Pitch : -17.89, Yaw : 46.97, Alt : 49.3300018311, Lat : 49.2837788, Lng : -123.1146733, Q1 : 0.905908048153, Q2 : 0.0631083473563, Q3 : -0.14211179316, Q4 : 0.393893659115}
2019-04-14 11:44:30.51: SIM {TimeUS : 63934416, Roll : 0.15, Pitch : -17.93, Yaw : 46.96, Alt : 49.3300018311, Lat : 49.2837817, Lng : -123.1146685, Q1 : 0.905887544155, Q2 : 0.0633177533746, Q3 : -0.142429769039, Q4 : 0.393792301416}
2019-04-14 11:44:30.61: SIM {TimeUS : 64034376, Roll : 0.14, Pitch : -17.96, Yaw : 46.95, Alt : 49.3300018311, Lat : 49.2837846, Lng : -123.1146636, Q1 : 0.905893146992, Q2 : 0.0633842125535, Q3 : -0.142715126276, Q4 : 0.393665492535}
2019-04-14 11:44:30.71: SIM {TimeUS : 64134336, Roll : 0.14, Pitch : -17.98, Yaw : 46.93, Alt : 49.3300018311, Lat : 49.2837874, Lng : -123.1146588, Q1 : 0.90591698885, Q2 : 0.0634138137102, Q3 : -0.142901644111, Q4 : 0.393538087606}
2019-04-14 11:44:30.81: SIM {TimeUS : 64234296, Roll : 0.16, Pitch : -17.97, Yaw : 46.92, Alt : 49.3300018311, Lat : 49.2837904, Lng : -123.1146539, Q1 : 0.905975162983, Q2 : 0.0634891465306, Q3 : -0.142767891288, Q4 : 0.393440574408}
2019-04-14 11:44:30.91: SIM {TimeUS : 64334256, Roll : 0.18, Pitch : -17.97, Yaw : 46.9, Alt : 49.3300018311, Lat : 49.2837933, Lng : -123.1146491, Q1 : 0.906023383141, Q2 : 0.0636434331536, Q3 : -0.142681255937, Q4 : 0.393336087465}
2019-04-14 11:44:31.01: SIM {TimeUS : 64434216, Roll : 0.19, Pitch : -17.98, Yaw : 46.88, Alt : 49.3300018311, Lat : 49.2837962, Lng : -123.1146442, Q1 : 0.906058967113, Q2 : 0.0637390911579, Q3 : -0.142756789923, Q4 : 0.393211126328}
2019-04-14 11:44:31.11: SIM {TimeUS : 64534176, Roll : 0.2, Pitch : -17.99, Yaw : 46.87, Alt : 49.3400001526, Lat : 49.283799, Lng : -123.1146393, Q1 : 0.906093537807, Q2 : 0.0638349577785, Q3 : -0.142780587077, Q4 : 0.393107384443}
2019-04-14 11:44:31.21: SIM {TimeUS : 64634136, Roll : 0.21, Pitch : -17.98, Yaw : 46.86, Alt : 49.3400001526, Lat : 49.2838019, Lng : -123.1146345, Q1 : 0.906139016151, Q2 : 0.0638681426644, Q3 : -0.142701983452, Q4 : 0.393025547266}
2019-04-14 11:44:31.31: SIM {TimeUS : 64734096, Roll : 0.21, Pitch : -17.98, Yaw : 46.85, Alt : 49.3400001526, Lat : 49.2838049, Lng : -123.1146296, Q1 : 0.906179904938, Q2 : 0.0638411417603, Q3 : -0.142667412758, Q4 : 0.392948299646}
2019-04-14 11:44:31.41: SIM {TimeUS : 64834056, Roll : 0.19, Pitch : -17.99, Yaw : 46.84, Alt : 49.3400001526, Lat : 49.2838078, Lng : -123.1146247, Q1 : 0.90619790554, Q2 : 0.063748061657, Q3 : -0.14285326004, Q4 : 0.392854243517}
2019-04-14 11:44:31.52: SIM {TimeUS : 64934849, Roll : 0.17, Pitch : -18.03, Yaw : 46.83, Alt : 49.3400001526, Lat : 49.2838108, Lng : -123.1146198, Q1 : 0.906188845634, Q2 : 0.0636556297541, Q3 : -0.143230438232, Q4 : 0.392752856016}
2019-04-14 11:44:31.61: SIM {TimeUS : 65034809, Roll : 0.15, Pitch : -18.04, Yaw : 46.83, Alt : 49.3400001526, Lat : 49.2838136, Lng : -123.1146149, Q1 : 0.906206905842, Q2 : 0.0635509192944, Q3 : -0.14333075285, Q4 : 0.392691582441}
2019-04-14 11:44:31.71: SIM {TimeUS : 65134769, Roll : 0.16, Pitch : -18.02, Yaw : 46.82, Alt : 49.3400001526, Lat : 49.2838165, Lng : -123.11461, Q1 : 0.90624332428, Q2 : 0.063557676971, Q3 : -0.143142789602, Q4 : 0.392674952745}
2019-04-14 11:44:31.81: SIM {TimeUS : 65234729, Roll : 0.18, Pitch : -18.0, Yaw : 46.82, Alt : 49.3400001526, Lat : 49.2838195, Lng : -123.1146051, Q1 : 0.906270086765, Q2 : 0.0636420249939, Q3 : -0.142969563603, Q4 : 0.392662674189}
2019-04-14 11:44:31.91: SIM {TimeUS : 65334689, Roll : 0.18, Pitch : -18.01, Yaw : 46.81, Alt : 49.3400001526, Lat : 49.2838225, Lng : -123.1146002, Q1 : 0.906280577183, Q2 : 0.063697360456, Q3 : -0.143035009503, Q4 : 0.392605662346}
2019-04-14 11:44:32.01: SIM {TimeUS : 65434649, Roll : 0.17, Pitch : -18.03, Yaw : 46.8, Alt : 49.3400001526, Lat : 49.2838254, Lng : -123.1145953, Q1 : 0.906286120415, Q2 : 0.0636495873332, Q3 : -0.143269792199, Q4 : 0.392514914274}
2019-04-14 11:44:32.11: SIM {TimeUS : 65534609, Roll : 0.14, Pitch : -18.06, Yaw : 46.79, Alt : 49.3400001526, Lat : 49.2838282, Lng : -123.1145903, Q1 : 0.906294643879, Q2 : 0.0635186582804, Q3 : -0.143569990993, Q4 : 0.392406791449}
2019-04-14 11:44:32.21: SIM {TimeUS : 65634569, Roll : 0.13, Pitch : -18.08, Yaw : 46.79, Alt : 49.3400001526, Lat : 49.2838312, Lng : -123.1145854, Q1 : 0.906308829784, Q2 : 0.0634587258101, Q3 : -0.143789872527, Q4 : 0.392303198576}
2019-04-14 11:44:32.31: SIM {TimeUS : 65734529, Roll : 0.13, Pitch : -18.1, Yaw : 46.77, Alt : 49.3400001526, Lat : 49.2838342, Lng : -123.1145805, Q1 : 0.906317949295, Q2 : 0.0635492652655, Q3 : -0.143937677145, Q4 : 0.392213255167}
2019-04-14 11:44:32.41: SIM {TimeUS : 65834489, Roll : 0.15, Pitch : -18.12, Yaw : 46.76, Alt : 49.3400001526, Lat : 49.2838372, Lng : -123.1145756, Q1 : 0.906326055527, Q2 : 0.0636922940612, Q3 : -0.144029408693, Q4 : 0.39213770628}
