2019-04-14 12:55:36.20: SIM {TimeUS : 40816167, Roll : 0.0, Pitch : 0.0, Yaw : 0.0, Alt : 30.1000003815, Lat : 49.28357, Lng : -123.11502, Q1 : 1.0, Q2 : 0.0, Q3 : 0.0, Q4 : 0.0}
2019-04-14 12:55:36.31: SIM {TimeUS : 40935286, Roll : 0.0, Pitch : 0.0, Yaw : 0.0, Alt : 30.1000003815, Lat : 49.28357, Lng : -123.11502, Q1 : 1.0, Q2 : 0.0, Q3 : 0.0, Q4 : 0.0}
2019-04-14 12:55:36.41: SIM {TimeUS : 41035246, Roll : 0.0, Pitch : 0.0, Yaw : 0.0, Alt : 30.1000003815, Lat : 49.28357, Lng : -123.11502, Q1 : 1.0, Q2 : 0.0, Q3 : 0.0, Q4 : 0.0}
2019-04-14 12:55:36.51: SIM {TimeUS : 41135206, Roll : 0.0, Pitch : 0.0, Yaw : 0.0, Alt : 30.1000003815, Lat : 49.28357, Lng : -123.11502, Q1 : 1.0, Q2 : 0.0, Q3 : 0.0, Q4 : 0.0}
2019-04-14 12:55:36.61: SIM {TimeUS : 41235166, Roll : 0.0, Pitch : 0.0, Yaw : 0.0, Alt : 30.1000003815, Lat : 49.28357, Lng : -123.11502, Q1 : 1.0, Q2 : 0.0, Q3 : 0.0, Q4 : 0.0}
2019-04-14 12:55:36.71: SIM {TimeUS : 41335126, Roll : 0.0, Pitch : 0.0, Yaw : 0.0, Alt : 30.1000003815, Lat : 49.28357, Lng : -123.11502, Q1 : 1.0, Q2 : 0.0, Q3 : 0.0, Q4 : 0.0}
2019-04-14 12:55:36.81: SIM {TimeUS : 41435086, Roll : 0.0, Pitch : 0.0, Yaw : 0.0, Alt : 30.1000003815, Lat : 49.28357, Lng : -123.11502, Q1 : 1.0, Q2 : 0.0, Q3 : 0.0, Q4 : 0.0}
2019-04-14 12:55:36.91: SIM {TimeUS : 41535046, Roll : 0.0, Pitch : 0.0, Yaw : 0.0, Alt : 30.1000003815, Lat : 49.28357, Lng : -123.11502, Q1 : 1.0, Q2 : 0.0, Q3 : 0.0, Q4 : 0.0}
2019-04-14 12:55:37.01: SIM {TimeUS : 41635006, Roll : 0.0, Pitch : 0.0, Yaw : 0.0, Alt : 30.1000003815, Lat : 49.28357, Lng : -123.11502, Q1 : 1.0, Q2 : 0.0, Q3 : 0.0, Q4 : 0.0}
2019-04-14 12:55:37.11: SIM {TimeUS : 41734966, Roll : 0.0, Pitch : 0.0, Yaw : 0.0, Alt : 30.1000003815, Lat : 49.28357, Lng : -123.11502, Q1 : 1.0, Q2 : 0.0, Q3 : 0.0, Q4 : 0.0}
2019-04-14 12:55:37.21: SIM {TimeUS : 41834926, Roll : 0.0, Pitch : 0.0, Yaw : 0.0, Alt : 30.1000003815, Lat : 49.28357, Lng : -123.11502, Q1 : 1.0, Q2 : 0.0, Q3 : 0.0, Q4 : 0.0}
2019-04-14 12:55:37.31: SIM {TimeUS : 41934886, Roll : 0.0, Pitch : 0.0, Yaw : 0.0, Alt : 30.1000003815, Lat : 49.28357, Lng : -123.11502, Q1 : 1.0, Q2 : 0.0, Q3 : 0.0, Q4 : 0.0}
2019-04-14 12:55:37.41: SIM {TimeUS : 42034846, Roll : 0.0, Pitch : 0.0, Yaw : 0.0, Alt : 30.1000003815, Lat : 49.28357, Lng : -123.11502, Q1 : 1.0, Q2 : 0.0, Q3 : 0.0, Q4 : 0.0}
2019-04-14 12:55:37.51: SIM {TimeUS : 42134806, Roll : 0.0, Pitch : 0.0, Yaw : 0.0, Alt : 30.1000003815, Lat : 49.28357, Lng : -123.11502, Q1 : 1.0, Q2 : 0.0, Q3 : 0.0, Q4 : 0.0}
2019-04-14 12:55:37.61: SIM {TimeUS : 42234766, Roll : 0.0, Pitch : 0.0, Yaw : 0.0, Alt : 30.1000003815, Lat : 49.28357, Lng : -123.11502, Q1 : 1.0, Q2 : 0.0, Q3 : 0.0, Q4 : 0.0}
2019-04-14 12:55:37.71: SIM {TimeUS : 42334726, Roll : 0.0, Pitch : 0.0, Yaw : 0.0, Alt : 30.1000003815, Lat : 49.28357, Lng : -123.11502, Q1 : 1.0, Q2 : 0.0, Q3 : 0.0, Q4 : 0.0}
2019-04-14 12:55:37.81: SIM {TimeUS : 42434686, Roll : 0.0, Pitch : 0.0, Yaw : 0.0, Alt : 30.1000003815, Lat : 49.28357, Lng : -123.11502, Q1 : 1.0, Q2 : 0.0, Q3 : 0.0, Q4 : 0.0}
2019-04-14 12:55:37.91: SIM {TimeUS : 42534646, Roll : 0.0, Pitch : 0.0, Yaw : 0.0, Alt : 30.1000003815, Lat : 49.28357, Lng : -123.11502, Q1 : 1.0, Q2 : 0.0, Q3 : 0.0, Q4 : 0.0}
2019-04-14 12:55:38.01: SIM {TimeUS : 42634606, Roll : 0.0, Pitch : 0.0, Yaw : 0.0, Alt : 30.1000003815, Lat : 49.28357, Lng : -123.11502, Q1 : 1.0, Q2 : 0.0, Q3 : 0.0, Q4 : 0.0}
2019-04-14 12:55:38.11: SIM {TimeUS : 42734566, Roll : 0.0, Pitch : 0.0, Yaw : 0.0, Alt : 30.1000003815, Lat : 49.28357, Lng : -123.11502, Q1 : 1.0, Q2 : 0.0, Q3 : 0.0, Q4 : 0.0}
2019-04-14 12:55:38.21: SIM {TimeUS : 42834526, Roll : 0.0, Pitch : 0.0, Yaw : 0.0, Alt : 30.1000003815, Lat : 49.28357, Lng : -123.11502, Q1 : 1.0, Q2 : 0.0, Q3 : 0.0, Q4 : 0.0}
2019-04-14 12:55:38.31: SIM {TimeUS : 42935319, Roll : 0.0, Pitch : 0.0, Yaw : 0.0, Alt : 30.1000003815, Lat : 49.28357, Lng : -123.11502, Q1 : 1.0, Q2 : 0.0, Q3 : 0.0, Q4 : 0.0}
2019-04-14 12:55:38.41: SIM {TimeUS : 43035279, Roll : 0.0, Pitch : 0.0, Yaw : 0.0, Alt : 30.1000003815, Lat : 49.28357, Lng : -123.11502, Q1 : 1.0, Q2 : 0.0, Q3 : 0.0, Q4 : 0.0}
2019-04-14 12:55:38.51: SIM {TimeUS : 43135239, Roll : 0.0, Pitch : 0.0, Yaw : 360.0, Alt : 30.1000003815, Lat : 49.28357, Lng : -123.11502, Q1 : 1.0, Q2 : 0.0, Q3 : 0.0, Q4 : -5.76911088346e-12}
2019-04-14 12:55:38.61: SIM {TimeUS : 43235199, Roll : 0.0, Pitch : 0.0, Yaw : 0.0, Alt : 30.1000003815, Lat : 49.28357, Lng : -123.11502, Q1 : 1.0, Q2 : 0.0, Q3 : 0.0, Q4 : 1.67138317075e-11}
2019-04-14 12:55:38.71: SIM {TimeUS : 43335159, Roll : 0.0, Pitch : 0.0, Yaw : 360.0, Alt : 30.1000003815, Lat : 49.28357, Lng : -123.11502, Q1 : 1.0, Q2 : 0.0, Q3 : 0.0, Q4 : -9.67275255448e-08}
2019-04-14 12:55:38.81: SIM {TimeUS : 43435119, Roll : 0.0, Pitch : 0.0, Yaw : 359.99, Alt : 30.1000003815, Lat : 49.28357, Lng : -123.11502, Q1 : 1.0, Q2 : 0.0, Q3 : 0.0, Q4 : -2.55648444636e-07}
2019-04-14 12:55:38.91: SIM {TimeUS : 43535079, Roll : 0.0, Pitch : 0.0, Yaw : 359.99, Alt : 30.1000003815, Lat : 49.28357, Lng : -123.11502, Q1 : 1.0, Q2 : 0.0, Q3 : 0.0, Q4 : -4.0333785023e-07}
2019-04-14 12:55:39.01: SIM {TimeUS : 43635039, Roll : 0.0, Pitch : 0.0, Yaw : 359.99, Alt : 30.1000003815, Lat : 49.28357, Lng : -123.11502, Q1 : 1.0, Q2 : 0.0, Q3 : 0.0, Q4 : -6.29609814951e-07}
2019-04-14 12:55:39.11: SIM {TimeUS : 43734999, Roll : 0.0, Pitch : 0.0, Yaw : 359.99, Alt : 30.1000003815, Lat : 49.28357, Lng : -123.11502, Q1 : 1.0, Q2 : 0.0, Q3 : 0.0, Q4 : -8.0263265545e-07}
2019-04-14 12:55:39.21: SIM {TimeUS : 43834959, Roll : 0.0, Pitch : 0.0, Yaw : 359.99, Alt : 30.1000003815, Lat : 49.28357, Lng : -123.11502, Q1 : 1.0, Q2 : 0.0, Q3 : 0.0, Q4 : -9.62719468589e-07}
2019-04-14 12:55:39.31: SIM {TimeUS : 43934919, Roll : 0.0, Pitch : 0.0, Yaw : 359.99, Alt : 30.1000003815, Lat : 49.28357, Lng : -123.11502, Q1 : 1.0, Q2 : 0.0, Q3 : 0.0, Q4 : -1.20428239825e-06}
2019-04-14 12:55:39.41: SIM {TimeUS : 44034879, Roll : 0.0, Pitch : 0.0, Yaw : 359.99, Alt : 30.1100006104, Lat : 49.28357, Lng : -123.11502, Q1 : 1.0, Q2 : 0.0, Q3 : 0.0, Q4 : -1.42805185988e-06}
2019-04-14 12:55:39.51: SIM {TimeUS : 44134839, Roll : 0.0, Pitch : 0.0, Yaw : 359.99, Alt : 30.1299991608, Lat : 49.28357, Lng : -123.11502, Q1 : 1.0, Q2 : 0.0, Q3 : 0.0, Q4 : -1.61016384936e-06}
2019-04-14 12:55:39.61: SIM {TimeUS : 44234799, Roll : 0.0, Pitch : 0.0, Yaw : 359.99, Alt : 30.1499996185, Lat : 49.28357, Lng : -123.11502, Q1 : 1.0, Q2 : 0.0, Q3 : 0.0, Q4 : -1.85316901025e-06}
2019-04-14 12:55:39.71: SIM {TimeUS : 44334759, Roll : 0.0, Pitch : 0.0, Yaw : 359.99, Alt : 30.1900005341, Lat : 49.28357, Lng : -123.11502, Q1 : 1.0, Q2 : 0.0, Q3 : 0.0, Q4 : -2.01687339541e-06}
2019-04-14 12:55:39.81: SIM {TimeUS : 44434719, Roll : -0.02, Pitch : -0.02, Yaw : 359.99, Alt : 30.2299995422, Lat : 49.28357, Lng : -123.11502, Q1 : 0.999999940395, Q2 : -0.000260012893705, Q3 : -0.000253097881796, Q4 : -3.2687410112e-06}
2019-04-14 12:55:39.91: SIM {TimeUS : 44534679, Roll : -0.27, Pitch : -0.23, Yaw : 359.99, Alt : 30.2999992371, Lat : 49.28357, Lng : -123.11502, Q1 : 0.99999499321, Q2 : -0.00243157497607, Q3 : -0.00202836096287, Q4 : -2.58296458924e-05}
2019-04-14 12:55:40.01: SIM {TimeUS : 44634639, Roll : -0.6, Pitch : -0.48, Yaw : 359.99, Alt : 30.4400005341, Lat : 49.28357, Lng : -123.11502, Q1 : 0.99997729063, Q2 : -0.00526109943166, Q3 : -0.00421070400625, Q4 : -7.302184531e-05}
2019-04-14 12:55:40.11: SIM {TimeUS : 44734599, Roll : -0.81, Pitch : -0.66, Yaw : 359.98, Alt : 30.5900001526, Lat : 49.28357, Lng : -123.11502, Q1 : 0.999958097935, Q2 : -0.00709364004433, Q3 : -0.0057843499817, Q4 : -0.000137309587444}
2019-04-14 12:55:40.21: SIM {TimeUS : 44834559, Roll : -0.84, Pitch : -0.71, Yaw : 359.98, Alt : 30.75, Lat : 49.28357, Lng : -123.11502, Q1 : 0.999953150749, Q2 : -0.0073714600876, Q3 : -0.00626815576106, Q4 : -0.000208825862501}
2019-04-14 12:55:40.31: SIM {TimeUS : 44934519, Roll : -0.72, Pitch : -0.64, Yaw : 359.97, Alt : 30.9099998474, Lat : 49.28357, Lng : -123.1150201, Q1 : 0.999963998795, Q2 : -0.00631999922916, Q3 : -0.00565671361983, Q4 : -0.00027901129215}
2019-04-14 12:55:40.41: SIM {TimeUS : 45035312, Roll : -0.5, Pitch : -0.49, Yaw : 359.96, Alt : 31.0599994659, Lat : 49.2835701, Lng : -123.1150201, Q1 : 0.999980807304, Q2 : -0.00444349693134, Q3 : -0.00430608121678, Q4 : -0.000343647407135}
2019-04-14 12:55:40.51: SIM {TimeUS : 45135272, Roll : -0.27, Pitch : -0.29, Yaw : 359.95, Alt : 31.2199993134, Lat : 49.2835701, Lng : -123.1150202, Q1 : 0.999993681908, Q2 : -0.00238521327265, Q3 : -0.00260064774193, Q4 : -0.000395026698243}
2019-04-14 12:55:40.61: SIM {TimeUS : 45235232, Roll : -0.08, Pitch : -0.11, Yaw : 359.95, Alt : 31.3899993896, Lat : 49.2835702, Lng : -123.1150203, Q1 : 0.999999165535, Q2 : -0.000723203993402, Q3 : -0.00095966126537, Q4 : -0.000435676134657}
2019-04-14 12:55:40.71: SIM {TimeUS : 45335192, Roll : 0.02, Pitch : 0.02, Yaw : 359.94, Alt : 31.5599994659, Lat : 49.2835702, Lng : -123.1150203, Q1 : 0.999999821186, Q2 : 0.00025672162883, Q3 : 0.000260104279732, Q4 : -0.000470012921141}
2019-04-14 12:55:40.81: SIM {TimeUS : 45435152, Roll : 0.06, Pitch : 0.1, Yaw : 359.94, Alt : 31.7299995422, Lat : 49.2835702, Lng : -123.1150204, Q1 : 0.999999284744, Q2 : 0.000564725545701, Q3 : 0.000933340459596, Q4 : -0.000495451968163}
2019-04-14 12:55:40.91: SIM {TimeUS : 45535112, Roll : 0.07, Pitch : 0.14, Yaw : 359.94, Alt : 31.9099998474, Lat : 49.2835703, Lng : -123.1150205, Q1 : 0.999998927116, Q2 : 0.000671095447615, Q3 : 0.00122791307513, Q4 : -0.000497831555549}
2019-04-14 12:55:41.01: SIM {TimeUS : 45635072, Roll : 0.07, Pitch : 0.12, Yaw : 359.94, Alt : 32.0999984741, Lat : 49.2835703, Lng : -123.1150205, Q1 : 0.999999046326, Q2 : 0.000697815266903, Q3 : 0.00112648040522, Q4 : -0.000476362358313}
2019-04-14 12:55:41.11: SIM {TimeUS : 45735032, Roll : 0.07, Pitch : 0.11, Yaw : 359.94, Alt : 32.2900009155, Lat : 49.2835703, Lng : -123.1150206, Q1 : 0.999999165535, Q2 : 0.000696011353284, Q3 : 0.00100174208637, Q4 : -0.000451883272035}
2019-04-14 12:55:41.21: SIM {TimeUS : 45834992, Roll : 0.07, Pitch : 0.1, Yaw : 359.95, Alt : 32.4799995422, Lat : 49.2835703, Lng : -123.1150206, Q1 : 0.99999922514, Q2 : 0.000648501911201, Q3 : 0.000942615850363, Q4 : -0.000428197206929}
2019-04-14 12:55:41.31: SIM {TimeUS : 45934952, Roll : 0.08, Pitch : 0.09, Yaw : 359.95, Alt : 32.6699981689, Lat : 49.2835703, Lng : -123.1150207, Q1 : 0.999999344349, Q2 : 0.000711853674147, Q3 : 0.000794464780483, Q4 : -0.000414973212173}
2019-04-14 12:55:41.41: SIM {TimeUS : 46034912, Roll : 0.09, Pitch : 0.07, Yaw : 359.95, Alt : 32.8699989319, Lat : 49.2835703, Lng : -123.1150207, Q1 : 0.999999344349, Q2 : 0.000859324354678, Q3 : 0.000641848833766, Q4 : -0.000403561920393}
2019-04-14 12:55:41.51: SIM {TimeUS : 46134872, Roll : 0.11, Pitch : 0.08, Yaw : 359.95, Alt : 33.0699996948, Lat : 49.2835704, Lng : -123.1150207, Q1 : 0.99999910593, Q2 : 0.00100981467403, Q3 : 0.000756015011575, Q4 : -0.000399936980102}
2019-04-14 12:55:41.61: SIM {TimeUS : 46234832, Roll : 0.13, Pitch : 0.1, Yaw : 359.95, Alt : 33.2700004578, Lat : 49.2835704, Lng : -123.1150207, Q1 : 0.999998867512, Q2 : 0.00116346112918, Q3 : 0.000898942293134, Q4 : -0.000398859381676}
2019-04-14 12:55:41.71: SIM {TimeUS : 46334792, Roll : 0.15, Pitch : 0.12, Yaw : 359.95, Alt : 33.4799995422, Lat : 49.2835704, Lng : -123.1150208, Q1 : 0.999998450279, Q2 : 0.0013222435955, Q3 : 0.00109816330951, Q4 : -0.000404363323469}
2019-04-14 12:55:41.81: SIM {TimeUS : 46434752, Roll : 0.15, Pitch : 0.14, Yaw : 359.95, Alt : 33.6899986267, Lat : 49.2835704, Lng : -123.1150208, Q1 : 0.999998211861, Q2 : 0.00139523332473, Q3 : 0.00122337788343, Q4 : -0.000413869769545}
2019-04-14 12:55:41.91: SIM {TimeUS : 46534712, Roll : 0.14, Pitch : 0.13, Yaw : 359.95, Alt : 33.8899993896, Lat : 49.2835704, Lng : -123.1150208, Q1 : 0.99999833107, Q2 : 0.0012964628404, Q3 : 0.00121442880481, Q4 : -0.000428329425631}
2019-04-14 12:55:42.01: SIM {TimeUS : 46634672, Roll : 0.13, Pitch : 0.13, Yaw : 359.94, Alt : 34.0999984741, Lat : 49.2835704, Lng : -123.1150208, Q1 : 0.999998509884, Q2 : 0.00115760194603, Q3 : 0.00118230760563, Q4 : -0.000449742539786}
2019-04-14 12:55:42.11: SIM {TimeUS : 46734632, Roll : 0.11, Pitch : 0.12, Yaw : 359.94, Alt : 34.3199996948, Lat : 49.2835704, Lng : -123.1150208, Q1 : 0.999998807907, Q2 : 0.000969222164713, Q3 : 0.00111058808398, Q4 : -0.000476674409583}
2019-04-14 12:55:42.21: SIM {TimeUS : 46834592, Roll : 0.09, Pitch : 0.09, Yaw : 359.94, Alt : 34.5299987793, Lat : 49.2835704, Lng : -123.1150208, Q1 : 0.99999922514, Q2 : 0.000856096623465, Q3 : 0.00079199008178, Q4 : -0.000511186430231}
2019-04-14 12:55:42.31: SIM {TimeUS : 46934552, Roll : 0.08, Pitch : 0.05, Yaw : 359.93, Alt : 34.7400016785, Lat : 49.2835704, Lng : -123.1150208, Q1 : 0.999999403954, Q2 : 0.000785567739513, Q3 : 0.000488171208417, Q4 : -0.000549835385755}
2019-04-14 12:55:42.41: SIM {TimeUS : 47034512, Roll : 0.07, Pitch : 0.03, Yaw : 359.93, Alt : 34.9599990845, Lat : 49.2835704, Lng : -123.1150207, Q1 : 0.999999582767, Q2 : 0.000621122890152, Q3 : 0.000301048537949, Q4 : -0.000587751623243}
2019-04-14 12:55:42.51: SIM {TimeUS : 47135305, Roll : 0.05, Pitch : 0.02, Yaw : 359.92, Alt : 35.1800003052, Lat : 49.2835704, Lng : -123.1150207, Q1 : 0.999999642372, Q2 : 0.000507391232532, Q3 : 0.000248138356255, Q4 : -0.000621020561084}
2019-04-14 12:55:42.61: SIM {TimeUS : 47235265, Roll : 0.05, Pitch : 0.02, Yaw : 359.92, Alt : 35.3899993896, Lat : 49.2835704, Lng : -123.1150207, Q1 : 0.999999642372, Q2 : 0.000488433113787, Q3 : 0.000235516708926, Q4 : -0.000650140224025}
2019-04-14 12:55:42.71: SIM {TimeUS : 47335225, Roll : 0.03, Pitch : 0.0, Yaw : 359.92, Alt : 35.6100006104, Lat : 49.2835704, Lng : -123.1150207, Q1 : 0.999999761581, Q2 : 0.000298577360809, Q3 : 6.66595733492e-05, Q4 : -0.000676883326378}
2019-04-14 12:55:42.81: SIM {TimeUS : 47435185, Roll : 0.0, Pitch : -0.02, Yaw : 359.91, Alt : 35.8300018311, Lat : 49.2835704, Lng : -123.1150207, Q1 : 0.999999761581, Q2 : -4.30638501712e-05, Q3 : -0.000211555568967, Q4 : -0.00070080725709}
2019-04-14 12:55:42.91: SIM {TimeUS : 47535145, Roll : -0.04, Pitch : -0.04, Yaw : 359.91, Alt : 36.0499992371, Lat : 49.2835704, Lng : -123.1150207, Q1 : 0.999999582767, Q2 : -0.000409764121287, Q3 : -0.000415552553022, Q4 : -0.000725921418052}
2019-04-14 12:55:43.01: SIM {TimeUS : 47635105, Roll : -0.08, Pitch : -0.06, Yaw : 359.91, Alt : 36.2700004578, Lat : 49.2835704, Lng : -123.1150207, Q1 : 0.999999344349, Q2 : -0.00071029656101, Q3 : -0.000523827329744, Q4 : -0.000748011399992}
2019-04-14 12:55:43.11: SIM {TimeUS : 47735065, Roll : -0.08, Pitch : -0.06, Yaw : 359.91, Alt : 36.4900016785, Lat : 49.2835704, Lng : -123.1150206, Q1 : 0.999999284744, Q2 : -0.000750576553401, Q3 : -0.000568776740693, Q4 : -0.000761719653383}
2019-04-14 12:55:43.21: SIM {TimeUS : 47835025, Roll : -0.07, Pitch : -0.06, Yaw : 359.91, Alt : 36.7200012207, Lat : 49.2835704, Lng : -123.1150206, Q1 : 0.999999284744, Q2 : -0.000693294743542, Q3 : -0.000576527498197, Q4 : -0.000773132720497}
2019-04-14 12:55:43.31: SIM {TimeUS : 47934985, Roll : -0.06, Pitch : -0.05, Yaw : 359.9, Alt : 36.9399986267, Lat : 49.2835704, Lng : -123.1150206, Q1 : 0.999999403954, Q2 : -0.000571680895519, Q3 : -0.000461166404421, Q4 : -0.000788381381426}
2019-04-14 12:55:43.41: SIM {TimeUS : 48034945, Roll : -0.04, Pitch : -0.04, Yaw : 359.9, Alt : 37.1599998474, Lat : 49.2835704, Lng : -123.1150206, Q1 : 0.999999523163, Q2 : -0.00040916641592, Q3 : -0.000393767666537, Q4 : -0.00080375361722}
2019-04-14 12:55:43.51: SIM {TimeUS : 48134905, Roll : -0.05, Pitch : -0.04, Yaw : 359.9, Alt : 37.3899993896, Lat : 49.2835704, Lng : -123.1150206, Q1 : 0.999999463558, Q2 : -0.000444879377028, Q3 : -0.00041652424261, Q4 : -0.000815655221231}
2019-04-14 12:55:43.61: SIM {TimeUS : 48234865, Roll : -0.06, Pitch : -0.03, Yaw : 359.9, Alt : 37.6100006104, Lat : 49.2835704, Lng : -123.1150206, Q1 : 0.999999463558, Q2 : -0.000583004963119, Q3 : -0.00026506971335, Q4 : -0.000830996781588}
2019-04-14 12:55:43.71: SIM {TimeUS : 48334825, Roll : -0.09, Pitch : 0.0, Yaw : 359.9, Alt : 37.8400001526, Lat : 49.2835704, Lng : -123.1150206, Q1 : 0.999999344349, Q2 : -0.000828595308121, Q3 : -7.11637840141e-05, Q4 : -0.00085067935288}
2019-04-14 12:55:43.81: SIM {TimeUS : 48434785, Roll : -0.1, Pitch : 0.0, Yaw : 359.9, Alt : 38.0699996948, Lat : 49.2835704, Lng : -123.1150206, Q1 : 0.99999922514, Q2 : -0.000892971467692, Q3 : 8.10199635453e-05, Q4 : -0.000864067405928}
2019-04-14 12:55:43.91: SIM {TimeUS : 48534745, Roll : -0.08, Pitch : 0.03, Yaw : 359.89, Alt : 38.2900009155, Lat : 49.2835704, Lng : -123.1150206, Q1 : 0.999999284744, Q2 : -0.000720856653061, Q3 : 0.000335413555149, Q4 : -0.000879735685885}
2019-04-14 12:55:44.01: SIM {TimeUS : 48634705, Roll : -0.05, Pitch : 0.03, Yaw : 359.89, Alt : 38.5200004578, Lat : 49.2835704, Lng : -123.1150206, Q1 : 0.999999403954, Q2 : -0.000513792911079, Q3 : 0.000285998015897, Q4 : -0.000898268830497}
2019-04-14 12:55:44.11: SIM {TimeUS : 48734665, Roll : -0.02, Pitch : 0.01, Yaw : 359.89, Alt : 38.75, Lat : 49.2835704, Lng : -123.1150206, Q1 : 0.999999523163, Q2 : -0.000260541477473, Q3 : 0.000157569724252, Q4 : -0.000915740267374}
2019-04-14 12:55:44.21: SIM {TimeUS : 48834625, Roll : 0.0, Pitch : 0.02, Yaw : 359.89, Alt : 38.9799995422, Lat : 49.2835706, Lng : -123.1150206, Q1 : 0.999999523163, Q2 : 5.57984349143e-05, Q3 : 0.000235368876019, Q4 : -0.000934446579777}
2019-04-14 12:55:44.31: SIM {TimeUS : 48934585, Roll : 0.04, Pitch : 0.05, Yaw : 359.88, Alt : 39.2099990845, Lat : 49.2835706, Lng : -123.1150206, Q1 : 0.999999344349, Q2 : 0.000380761688575, Q3 : 0.000465982127935, Q4 : -0.000960305391345}
2019-04-14 12:55:44.41: SIM {TimeUS : 49034545, Roll : 0.07, Pitch : 0.07, Yaw : 359.88, Alt : 39.4399986267, Lat : 49.2835706, Lng : -123.1150206, Q1 : 0.999999046326, Q2 : 0.000642675615381, Q3 : 0.000693930021953, Q4 : -0.000989893218502}
2019-04-14 12:55:44.51: SIM {TimeUS : 49134505, Roll : 0.06, Pitch : 0.1, Yaw : 359.88, Alt : 39.6699981689, Lat : 49.2835706, Lng : -123.1150206, Q1 : 0.999998927116, Q2 : 0.00058296212228, Q3 : 0.000895286735613, Q4 : -0.00101411447395}
2019-04-14 12:55:44.61: SIM {TimeUS : 49235298, Roll : 0.02, Pitch : 0.12, Yaw : 359.87, Alt : 39.9000015259, Lat : 49.2835706, Lng : -123.1150206, Q1 : 0.999998807907, Q2 : 0.000190411505173, Q3 : 0.00107859109994, Q4 : -0.00105690967757}
2019-04-14 12:55:44.71: SIM {TimeUS : 49335258, Roll : -0.01, Pitch : 0.12, Yaw : 359.87, Alt : 40.1300010681, Lat : 49.2835706, Lng : -123.1150206, Q1 : 0.999998748302, Q2 : -0.000120511940622, Q3 : 0.00113260722719, Q4 : -0.00109271216206}
2019-04-14 12:55:44.81: SIM {TimeUS : 49435218, Roll : -0.04, Pitch : 0.11, Yaw : 359.87, Alt : 40.3600006104, Lat : 49.2835706, Lng : -123.1150206, Q1 : 0.999998748302, Q2 : -0.000361367565347, Q3 : 0.00103126349859, Q4 : -0.00112089305185}
2019-04-14 12:55:44.91: SIM {TimeUS : 49535178, Roll : -0.05, Pitch : 0.11, Yaw : 359.86, Alt : 40.5999984741, Lat : 49.2835706, Lng : -123.1150206, Q1 : 0.999998748302, Q2 : -0.000473115243949, Q3 : 0.00099113676697, Q4 : -0.0011518598767}
2019-04-14 12:55:45.01: SIM {TimeUS : 49635138, Roll : -0.04, Pitch : 0.13, Yaw : 359.86, Alt : 40.8300018311, Lat : 49.2835706, Lng : -123.1150206, Q1 : 0.999998569489, Q2 : -0.00036808103323, Q3 : 0.00116479210556, Q4 : -0.00118745781947}
2019-04-14 12:55:45.11: SIM {TimeUS : 49735098, Roll : 0.0, Pitch : 0.16, Yaw : 359.85, Alt : 41.0600013733, Lat : 49.2835706, Lng : -123.1150207, Q1 : 0.999998271465, Q2 : 2.04022053367e-05, Q3 : 0.00139948178548, Q4 : -0.00122539722361}
2019-04-14 12:55:45.21: SIM {TimeUS : 49835058, Roll : 0.05, Pitch : 0.17, Yaw : 359.85, Alt : 41.2999992371, Lat : 49.2835706, Lng : -123.1150207, Q1 : 0.999997973442, Q2 : 0.000477919413242, Q3 : 0.00149334874004, Q4 : -0.0012607142562}
2019-04-14 12:55:45.31: SIM {TimeUS : 49935018, Roll : 0.09, Pitch : 0.13, Yaw : 359.85, Alt : 41.5299987793, Lat : 49.2835706, Lng : -123.1150207, Q1 : 0.999998152256, Q2 : 0.000789826561231, Q3 : 0.0011836955091, Q4 : -0.00128983869217}
2019-04-14 12:55:45.41: SIM {TimeUS : 50034978, Roll : 0.09, Pitch : 0.08, Yaw : 359.84, Alt : 41.7599983215, Lat : 49.2835706, Lng : -123.1150207, Q1 : 0.999998569489, Q2 : 0.00079509941861, Q3 : 0.000705360027496, Q4 : -0.00131187262014}
2019-04-14 12:55:45.51: SIM {TimeUS : 50134938, Roll : 0.05, Pitch : 0.04, Yaw : 359.84, Alt : 42.0, Lat : 49.2835706, Lng : -123.1150207, Q1 : 0.999998927116, Q2 : 0.000485523894895, Q3 : 0.000370925699826, Q4 : -0.00132589193527}
2019-04-14 12:55:45.61: SIM {TimeUS : 50234898, Roll : 0.0, Pitch : 0.03, Yaw : 359.84, Alt : 42.2299995422, Lat : 49.2835706, Lng : -123.1150207, Q1 : 0.99999910593, Q2 : 2.81749016722e-05, Q3 : 0.00027064664755, Q4 : -0.00133073166944}
2019-04-14 12:55:45.71: SIM {TimeUS : 50334858, Roll : -0.03, Pitch : 0.05, Yaw : 359.84, Alt : 42.4599990845, Lat : 49.2835706, Lng : -123.1150207, Q1 : 0.999998986721, Q2 : -0.000261649751337, Q3 : 0.000479874230223, Q4 : -0.0013265212765}
2019-04-14 12:55:45.81: SIM {TimeUS : 50434818, Roll : -0.04, Pitch : 0.07, Yaw : 359.84, Alt : 42.7000007629, Lat : 49.2835704, Lng : -123.1150207, Q1 : 0.999998867512, Q2 : -0.000402745208703, Q3 : 0.000651189649943, Q4 : -0.00131985871121}
2019-04-14 12:55:45.91: SIM {TimeUS : 50534778, Roll : -0.04, Pitch : 0.07, Yaw : 359.84, Alt : 42.9300003052, Lat : 49.2835704, Lng : -123.1150206, Q1 : 0.999998867512, Q2 : -0.000391212961404, Q3 : 0.000629598973319, Q4 : -0.00131939002313}
2019-04-14 12:55:46.01: SIM {TimeUS : 50634738, Roll : -0.04, Pitch : 0.05, Yaw : 359.84, Alt : 43.1699981689, Lat : 49.2835704, Lng : -123.1150206, Q1 : 0.999998927116, Q2 : -0.000399274023948, Q3 : 0.00050027918769, Q4 : -0.00132682989351}
2019-04-14 12:55:46.11: SIM {TimeUS : 50734698, Roll : -0.03, Pitch : 0.04, Yaw : 359.84, Alt : 43.4000015259, Lat : 49.2835704, Lng : -123.1150206, Q1 : 0.999998986721, Q2 : -0.000324735563481, Q3 : 0.000380604265956, Q4 : -0.00134359928779}
2019-04-14 12:55:46.21: SIM {TimeUS : 50834658, Roll : -0.01, Pitch : 0.03, Yaw : 359.84, Alt : 43.6399993896, Lat : 49.2835704, Lng : -123.1150206, Q1 : 0.999998986721, Q2 : -0.000156214446179, Q3 : 0.000331243616529, Q4 : -0.00137232139241}
2019-04-14 12:55:46.31: SIM {TimeUS : 50934618, Roll : 0.0, Pitch : 0.03, Yaw : 359.83, Alt : 43.8699989319, Lat : 49.2835704, Lng : -123.1150206, Q1 : 0.999998986721, Q2 : -4.41068586952e-05, Q3 : 0.000317285797792, Q4 : -0.0014067501761}
2019-04-14 12:55:46.41: SIM {TimeUS : 51034578, Roll : 0.0, Pitch : 0.01, Yaw : 359.83, Alt : 44.1100006104, Lat : 49.2835704, Lng : -123.1150206, Q1 : 0.999998986721, Q2 : -5.66424823774e-05, Q3 : 0.0001584772981, Q4 : -0.0014365183888}
2019-04-14 12:55:46.51: SIM {TimeUS : 51134538, Roll : -0.01, Pitch : -0.01, Yaw : 359.83, Alt : 44.3499984741, Lat : 49.2835704, Lng : -123.1150206, Q1 : 0.999998927116, Q2 : -0.000123881400214, Q3 : -0.000149334271555, Q4 : -0.0014630072983}
2019-04-14 12:55:46.61: SIM {TimeUS : 51234498, Roll : -0.01, Pitch : -0.03, Yaw : 359.82, Alt : 44.5800018311, Lat : 49.2835704, Lng : -123.1150206, Q1 : 0.999998807907, Q2 : -0.000161443182151, Q3 : -0.000342861982062, Q4 : -0.00149606901687}
2019-04-14 12:55:46.71: SIM {TimeUS : 51335291, Roll : -0.01, Pitch : -0.05, Yaw : 359.82, Alt : 44.8199996948, Lat : 49.2835704, Lng : -123.1150206, Q1 : 0.999998688698, Q2 : -0.000157012982527, Q3 : -0.000441868032794, Q4 : -0.00153294205666}
2019-04-14 12:55:46.81: SIM {TimeUS : 51435251, Roll : -0.02, Pitch : -0.05, Yaw : 359.82, Alt : 45.0600013733, Lat : 49.2835703, Lng : -123.1150206, Q1 : 0.999998629093, Q2 : -0.000239079658058, Q3 : -0.000479069363791, Q4 : -0.00156655698083}
2019-04-14 12:55:46.91: SIM {TimeUS : 51535211, Roll : -0.05, Pitch : -0.04, Yaw : 359.81, Alt : 45.2900009155, Lat : 49.2835703, Lng : -123.1150206, Q1 : 0.999998509884, Q2 : -0.000492374703754, Q3 : -0.000410440174164, Q4 : -0.00159923033789}
2019-04-14 12:55:47.01: SIM {TimeUS : 51635171, Roll : -0.09, Pitch : -0.03, Yaw : 359.81, Alt : 45.5299987793, Lat : 49.2835703, Lng : -123.1150206, Q1 : 0.999998271465, Q2 : -0.000822360510938, Q3 : -0.00034063111525, Q4 : -0.00163383968174}
2019-04-14 12:55:47.11: SIM {TimeUS : 51735131, Roll : -0.11, Pitch : -0.03, Yaw : 359.8, Alt : 45.7599983215, Lat : 49.2835703, Lng : -123.1150206, Q1 : 0.999998033047, Q2 : -0.00102215923835, Q3 : -0.000273081299383, Q4 : -0.00167035544291}
2019-04-14 12:55:47.21: SIM {TimeUS : 51835091, Roll : -0.11, Pitch : -0.01, Yaw : 359.8, Alt : 45.9900016785, Lat : 49.2835703, Lng : -123.1150206, Q1 : 0.999997973442, Q2 : -0.00103384524118, Q3 : -0.000131286564283, Q4 : -0.00170674396213}
2019-04-14 12:55:47.31: SIM {TimeUS : 51935051, Roll : -0.1, Pitch : 0.01, Yaw : 359.8, Alt : 46.2200012207, Lat : 49.2835703, Lng : -123.1150206, Q1 : 0.999998092651, Q2 : -0.000881388376001, Q3 : 9.99895637506e-05, Q4 : -0.00173894152977}
2019-04-14 12:55:47.41: SIM {TimeUS : 52035011, Roll : -0.07, Pitch : 0.02, Yaw : 359.79, Alt : 46.4500007629, Lat : 49.2835703, Lng : -123.1150206, Q1 : 0.999998211861, Q2 : -0.000623069470748, Q3 : 0.000224383664317, Q4 : -0.00176693010144}
2019-04-14 12:55:47.51: SIM {TimeUS : 52134971, Roll : -0.04, Pitch : 0.01, Yaw : 359.79, Alt : 46.6699981689, Lat : 49.2835703, Lng : -123.1150206, Q1 : 0.99999833107, Q2 : -0.000409466651035, Q3 : 0.000170312676346, Q4 : -0.0017899973318}
2019-04-14 12:55:47.61: SIM {TimeUS : 52234931, Roll : -0.03, Pitch : 0.0, Yaw : 359.79, Alt : 46.8800010681, Lat : 49.2835703, Lng : -123.1150206, Q1 : 0.99999833107, Q2 : -0.000308573653456, Q3 : -1.81413834071e-05, Q4 : -0.00181050505489}
2019-04-14 12:55:47.71: SIM {TimeUS : 52334891, Roll : -0.01, Pitch : -0.03, Yaw : 359.79, Alt : 47.0900001526, Lat : 49.2835703, Lng : -123.1150206, Q1 : 0.999998271465, Q2 : -0.000159105504281, Q3 : -0.000306468980853, Q4 : -0.00182736350689}
2019-04-14 12:55:47.81: SIM {TimeUS : 52434851, Roll : 0.0, Pitch : -0.06, Yaw : 359.78, Alt : 47.2900009155, Lat : 49.2835703, Lng : -123.1150206, Q1 : 0.999998152256, Q2 : 2.0144840164e-05, Q3 : -0.000539389147889, Q4 : -0.00184320728295}
2019-04-14 12:55:47.91: SIM {TimeUS : 52534811, Roll : 0.01, Pitch : -0.08, Yaw : 359.78, Alt : 47.4799995422, Lat : 49.2835703, Lng : -123.1150206, Q1 : 0.999998033047, Q2 : 9.89726613625e-05, Q3 : -0.000729172024876, Q4 : -0.00186073861551}
2019-04-14 12:55:48.01: SIM {TimeUS : 52634771, Roll : 0.0, Pitch : -0.11, Yaw : 359.78, Alt : 47.6599998474, Lat : 49.2835703, Lng : -123.1150206, Q1 : 0.999997735023, Q2 : 6.99860975146e-05, Q3 : -0.000986802508123, Q4 : -0.00188172387425}
2019-04-14 12:55:48.11: SIM {TimeUS : 52734731, Roll : 0.02, Pitch : -0.14, Yaw : 359.78, Alt : 47.8400001526, Lat : 49.2835703, Lng : -123.1150206, Q1 : 0.999997377396, Q2 : 0.000179419861524, Q3 : -0.00124895432964, Q4 : -0.00190505490173}
2019-04-14 12:55:48.21: SIM {TimeUS : 52834691, Roll : 0.04, Pitch : -0.15, Yaw : 359.77, Alt : 48.0, Lat : 49.2835703, Lng : -123.1150206, Q1 : 0.999997198582, Q2 : 0.00037899450399, Q3 : -0.00133225764148, Q4 : -0.00192593294196}
2019-04-14 12:55:48.31: SIM {TimeUS : 52934651, Roll : 0.06, Pitch : -0.13, Yaw : 359.77, Alt : 48.1399993896, Lat : 49.2835704, Lng : -123.1150206, Q1 : 0.999997258186, Q2 : 0.000583695538808, Q3 : -0.00119187438395, Q4 : -0.00195008155424}
2019-04-14 12:55:48.41: SIM {TimeUS : 53034611, Roll : 0.08, Pitch : -0.1, Yaw : 359.77, Alt : 48.2799987793, Lat : 49.2835704, Lng : -123.1150206, Q1 : 0.999997377396, Q2 : 0.000696311879437, Q3 : -0.000942498561926, Q4 : -0.00197499059141}
2019-04-14 12:55:48.51: SIM {TimeUS : 53134571, Roll : 0.08, Pitch : -0.08, Yaw : 359.77, Alt : 48.4099998474, Lat : 49.2835704, Lng : -123.1150206, Q1 : 0.999997437, Q2 : 0.000778549001552, Q3 : -0.000720417010598, Q4 : -0.00200122897513}
2019-04-14 12:55:48.61: SIM {TimeUS : 53234531, Roll : 0.08, Pitch : -0.07, Yaw : 359.76, Alt : 48.5200004578, Lat : 49.2835704, Lng : -123.1150206, Q1 : 0.999997496605, Q2 : 0.000710543303285, Q3 : -0.000646227970719, Q4 : -0.00203105853871}
2019-04-14 12:55:48.71: SIM {TimeUS : 53335324, Roll : 0.05, Pitch : -0.06, Yaw : 359.76, Alt : 48.6199989319, Lat : 49.2835704, Lng : -123.1150206, Q1 : 0.999997615814, Q2 : 0.000491370854434, Q3 : -0.000558034924325, Q4 : -0.00206021149643}
2019-04-14 12:55:48.81: SIM {TimeUS : 53435284, Roll : 0.03, Pitch : -0.04, Yaw : 359.76, Alt : 48.7099990845, Lat : 49.2835704, Lng : -123.1150206, Q1 : 0.999997675419, Q2 : 0.000295443314826, Q3 : -0.000392121000914, Q4 : -0.00208523240872}
2019-04-14 12:55:48.91: SIM {TimeUS : 53535244, Roll : 0.01, Pitch : -0.02, Yaw : 359.75, Alt : 48.7799987793, Lat : 49.2835704, Lng : -123.1150206, Q1 : 0.999997794628, Q2 : 0.000113844456791, Q3 : -0.000209325749893, Q4 : -0.00210717320442}
2019-04-14 12:55:49.01: SIM {TimeUS : 53635204, Roll : 0.0, Pitch : 0.0, Yaw : 359.75, Alt : 48.8499984741, Lat : 49.2835704, Lng : -123.1150206, Q1 : 0.999997735023, Q2 : -1.59576520673e-05, Q3 : 2.2694672225e-05, Q4 : -0.00213189446367}
2019-04-14 12:55:49.11: SIM {TimeUS : 53735164, Roll : 0.01, Pitch : 0.03, Yaw : 359.75, Alt : 48.9099998474, Lat : 49.2835704, Lng : -123.1150206, Q1 : 0.999997615814, Q2 : 0.000103081736597, Q3 : 0.000328256894136, Q4 : -0.00216051051393}
2019-04-14 12:55:49.21: SIM {TimeUS : 53835124, Roll : 0.03, Pitch : 0.06, Yaw : 359.74, Alt : 48.9500007629, Lat : 49.2835704, Lng : -123.1150206, Q1 : 0.999997437, Q2 : 0.000332590687321, Q3 : 0.000523723312654, Q4 : -0.00218696007505}
2019-04-14 12:55:49.31: SIM {TimeUS : 53935084, Roll : 0.08, Pitch : 0.02, Yaw : 359.74, Alt : 49.0, Lat : 49.2835704, Lng : -123.1150206, Q1 : 0.999997258186, Q2 : 0.000715436821338, Q3 : 0.00020332162967, Q4 : -0.00221733469516}
2019-04-14 12:55:49.41: SIM {TimeUS : 54035044, Roll : 0.21, Pitch : -0.12, Yaw : 359.74, Alt : 49.0299987793, Lat : 49.2835704, Lng : -123.1150206, Q1 : 0.999995112419, Q2 : 0.00186781061348, Q3 : -0.00108726369217, Q4 : -0.00225054821931}
2019-04-14 12:55:49.51: SIM {TimeUS : 54135004, Roll : 0.51, Pitch : -0.46, Yaw : 359.73, Alt : 49.0600013733, Lat : 49.2835706, Lng : -123.1150206, Q1 : 0.999979138374, Q2 : 0.0044973581098, Q3 : -0.00403451593593, Q4 : -0.00228001456708}
2019-04-14 12:55:49.61: SIM {TimeUS : 54234964, Roll : 1.02, Pitch : -0.98, Yaw : 359.72, Alt : 49.0900001526, Lat : 49.2835706, Lng : -123.1150206, Q1 : 0.999920725822, Q2 : 0.00890942662954, Q3 : -0.00859606824815, Q4 : -0.00229430361651}
2019-04-14 12:55:49.71: SIM {TimeUS : 54334924, Roll : 1.7, Pitch : -1.62, Yaw : 359.71, Alt : 49.1100006104, Lat : 49.2835706, Lng : -123.1150206, Q1 : 0.999786198139, Q2 : 0.0148196909577, Q3 : -0.0142389377579, Q4 : -0.00227607227862}
2019-04-14 12:55:49.81: SIM {TimeUS : 54434884, Roll : 2.46, Pitch : -2.34, Yaw : 359.69, Alt : 49.1300010681, Lat : 49.2835706, Lng : -123.1150205, Q1 : 0.999557554722, Q2 : 0.0214479099959, Q3 : -0.0204881224781, Q4 : -0.00221694540232}
2019-04-14 12:55:49.91: SIM {TimeUS : 54534844, Roll : 3.19, Pitch : -3.01, Yaw : 359.67, Alt : 49.1500015259, Lat : 49.2835707, Lng : -123.1150204, Q1 : 0.999263584614, Q2 : 0.0277772806585, Q3 : -0.026387700811, Q4 : -0.00209912774153}
2019-04-14 12:55:50.01: SIM {TimeUS : 54634804, Roll : 3.77, Pitch : -3.55, Yaw : 359.66, Alt : 49.1599998474, Lat : 49.2835708, Lng : -123.1150202, Q1 : 0.998974144459, Q2 : 0.0328354984522, Q3 : -0.0311264488846, Q4 : -0.00192017201334}
2019-04-14 12:55:50.11: SIM {TimeUS : 54734764, Roll : 4.19, Pitch : -3.96, Yaw : 359.65, Alt : 49.1800003052, Lat : 49.2835709, Lng : -123.11502, Q1 : 0.998731672764, Q2 : 0.0364398732781, Q3 : -0.034703489393, Q4 : -0.00169773446396}
2019-04-14 12:55:50.21: SIM {TimeUS : 54834724, Roll : 4.5, Pitch : -4.27, Yaw : 359.66, Alt : 49.1899986267, Lat : 49.2835712, Lng : -123.1150197, Q1 : 0.998531877995, Q2 : 0.0391684733331, Q3 : -0.0373882353306, Q4 : -0.00143943773583}
2019-04-14 12:55:50.31: SIM {TimeUS : 54934684, Roll : 4.78, Pitch : -4.51, Yaw : 359.68, Alt : 49.2000007629, Lat : 49.2835715, Lng : -123.1150192, Q1 : 0.998354673386, Q2 : 0.0415592119098, Q3 : -0.0394899062812, Q4 : -0.00114369706716}
2019-04-14 12:55:50.41: SIM {TimeUS : 55034644, Roll : 5.03, Pitch : -4.73, Yaw : 359.69, Alt : 49.2099990845, Lat : 49.2835718, Lng : -123.1150187, Q1 : 0.99818277359, Q2 : 0.0437812022865, Q3 : -0.0413957573473, Q4 : -0.000845566391945}
2019-04-14 12:55:50.51: SIM {TimeUS : 55134604, Roll : 5.3, Pitch : -4.98, Yaw : 359.7, Alt : 49.2200012207, Lat : 49.2835721, Lng : -123.1150181, Q1 : 0.99798387289, Q2 : 0.0461192131042, Q3 : -0.0435990355909, Q4 : -0.000577613478526}
2019-04-14 12:55:50.61: SIM {TimeUS : 55234564, Roll : 5.55, Pitch : -5.25, Yaw : 359.7, Alt : 49.2200012207, Lat : 49.2835726, Lng : -123.1150175, Q1 : 0.997778058052, Q2 : 0.0483208857477, Q3 : -0.0458696745336, Q4 : -0.000333934323862}
2019-04-14 12:55:50.71: SIM {TimeUS : 55334524, Roll : 5.78, Pitch : -5.46, Yaw : 359.71, Alt : 49.2299995422, Lat : 49.2835729, Lng : -123.1150167, Q1 : 0.997595608234, Q2 : 0.0502573959529, Q3 : -0.0477215722203, Q4 : -9.92387795122e-05}
2019-04-14 12:55:50.81: SIM {TimeUS : 55435317, Roll : 5.95, Pitch : -5.61, Yaw : 359.72, Alt : 49.2400016785, Lat : 49.2835735, Lng : -123.1150158, Q1 : 0.997455894947, Q2 : 0.0517598092556, Q3 : -0.0490163974464, Q4 : 0.000122215933516}
2019-04-14 12:55:50.91: SIM {TimeUS : 55535277, Roll : 6.07, Pitch : -5.72, Yaw : 359.73, Alt : 49.2400016785, Lat : 49.283574, Lng : -123.1150149, Q1 : 0.997354865074, Q2 : 0.0527880452573, Q3 : -0.0499666966498, Q4 : 0.000305376073811}
2019-04-14 12:55:51.01: SIM {TimeUS : 55635237, Roll : 6.17, Pitch : -5.8, Yaw : 359.73, Alt : 49.25, Lat : 49.2835747, Lng : -123.1150139, Q1 : 0.997270107269, Q2 : 0.0536599121988, Q3 : -0.0507219620049, Q4 : 0.000445132056484}
2019-04-14 12:55:51.11: SIM {TimeUS : 55735197, Roll : 6.28, Pitch : -5.89, Yaw : 359.73, Alt : 49.25, Lat : 49.2835753, Lng : -123.1150128, Q1 : 0.997178912163, Q2 : 0.0546347014606, Q3 : -0.0514688044786, Q4 : 0.00053027283866}
2019-04-14 12:55:51.21: SIM {TimeUS : 55835157, Roll : 6.51, Pitch : -5.94, Yaw : 359.77, Alt : 49.2599983215, Lat : 49.2835761, Lng : -123.1150117, Q1 : 0.997045397758, Q2 : 0.056636877358, Q3 : -0.0518822185695, Q4 : 0.000958676915616}
2019-04-14 12:55:51.31: SIM {TimeUS : 55935117, Roll : 6.98, Pitch : -5.86, Yaw : 0.21, Alt : 49.2599983215, Lat : 49.2835769, Lng : -123.1150104, Q1 : 0.996828436852, Q2 : 0.0609140582383, Q3 : -0.0509707406163, Q4 : 0.0049554486759}
2019-04-14 12:55:51.41: SIM {TimeUS : 56035077, Roll : 7.62, Pitch : -5.77, Yaw : 1.72, Alt : 49.2599983215, Lat : 49.2835776, Lng : -123.1150091, Q1 : 0.996357560158, Q2 : 0.0671663954854, Q3 : -0.0492192991078, Q4 : 0.0183797590435}
2019-04-14 12:55:51.51: SIM {TimeUS : 56135037, Roll : 8.14, Pitch : -5.99, Yaw : 4.78, Alt : 49.2599983215, Lat : 49.2835785, Lng : -123.1150077, Q1 : 0.995083391666, Q2 : 0.0730675235391, Q3 : -0.0491502508521, Q4 : 0.0453256443143}
2019-04-14 12:55:51.61: SIM {TimeUS : 56234997, Roll : 8.28, Pitch : -6.68, Yaw : 9.4, Alt : 49.2599983215, Lat : 49.2835794, Lng : -123.1150062, Q1 : 0.991989970207, Q2 : 0.0766382142901, Q3 : -0.0520596541464, Q4 : 0.0858621671796}
2019-04-14 12:55:51.71: SIM {TimeUS : 56334957, Roll : 7.83, Pitch : -7.79, Yaw : 15.4, Alt : 49.2700004578, Lat : 49.2835802, Lng : -123.1150045, Q1 : 0.985757172108, Q2 : 0.0766360163689, Q3 : -0.0580798238516, Q4 : 0.137972787023}
2019-04-14 12:55:51.81: SIM {TimeUS : 56434917, Roll : 6.73, Pitch : -9.15, Yaw : 22.51, Alt : 49.2700004578, Lat : 49.2835812, Lng : -123.1150027, Q1 : 0.975033164024, Q2 : 0.0729361847043, Q3 : -0.066715195775, Q4 : 0.198846012354}
2019-04-14 12:55:51.91: SIM {TimeUS : 56534877, Roll : 4.97, Pitch : -10.56, Yaw : 30.47, Alt : 49.2700004578, Lat : 49.283582, Lng : -123.1150009, Q1 : 0.958787620068, Q2 : 0.0658434554935, Q3 : -0.0773864388466, Q4 : 0.265334248543}
2019-04-14 12:55:52.01: SIM {TimeUS : 56634837, Roll : 2.4, Pitch : -11.77, Yaw : 38.84, Alt : 49.2700004578, Lat : 49.2835831, Lng : -123.1149989, Q1 : 0.937193512917, Q2 : 0.053819835186, Q3 : -0.0897930935025, Q4 : 0.332729518414}
2019-04-14 12:55:52.11: SIM {TimeUS : 56734797, Roll : -0.74, Pitch : -12.55, Yaw : 46.8, Alt : 49.2700004578, Lat : 49.2835841, Lng : -123.1149968, Q1 : 0.912503302097, Q2 : 0.0375033840537, Q3 : -0.102916695178, Q4 : 0.394131213427}
2019-04-14 12:55:52.21: SIM {TimeUS : 56834757, Roll : -3.85, Pitch : -12.82, Yaw : 53.49, Alt : 49.2700004578, Lat : 49.2835852, Lng : -123.1149947, Q1 : 0.888591051102, Q2 : 0.0204341541976, Q3 : -0.114717975259, Q4 : 0.443653255701}
2019-04-14 12:55:52.31: SIM {TimeUS : 56934717, Roll : -6.27, Pitch : -12.73, Yaw : 58.33, Alt : 49.2700004578, Lat : 49.2835864, Lng : -123.1149925, Q1 : 0.869471907616, Q2 : 0.00645582377911, Q3 : -0.12324462831, Q4 : 0.478317528963}
2019-04-14 12:55:52.41: SIM {TimeUS : 57034677, Roll : -7.66, Pitch : -12.54, Yaw : 61.15, Alt : 49.2700004578, Lat : 49.2835877, Lng : -123.1149903, Q1 : 0.857601642609, Q2 : -0.0017074381467, Q3 : -0.127637580037, Q4 : 0.498222053051}
2019-04-14 12:55:52.51: SIM {TimeUS : 57134637, Roll : -7.97, Pitch : -12.47, Yaw : 62.13, Alt : 49.2700004578, Lat : 49.2835891, Lng : -123.114988, Q1 : 0.853328645229, Q2 : -0.00325029715896, Q3 : -0.128536313772, Q4 : 0.505270302296}
2019-04-14 12:55:52.61: SIM {TimeUS : 57234597, Roll : -7.4, Pitch : -12.66, Yaw : 61.61, Alt : 49.2700004578, Lat : 49.2835905, Lng : -123.1149858, Q1 : 0.855530381203, Q2 : 0.00121422298253, Q3 : -0.127403795719, Q4 : 0.501831293106}
2019-04-14 12:55:52.71: SIM {TimeUS : 57334557, Roll : -6.19, Pitch : -13.11, Yaw : 59.94, Alt : 49.2700004578, Lat : 49.2835922, Lng : -123.1149834, Q1 : 0.862427949905, Q2 : 0.0104366643354, Q3 : -0.125601679087, Q4 : 0.490238040686}
2019-04-14 12:55:52.81: SIM {TimeUS : 57434517, Roll : -4.59, Pitch : -13.76, Yaw : 57.46, Alt : 49.2700004578, Lat : 49.283594, Lng : -123.1149811, Q1 : 0.872161626816, Q2 : 0.0226277858019, Q3 : -0.124097920954, Q4 : 0.47267511487}
2019-04-14 12:55:52.91: SIM {TimeUS : 57535310, Roll : -2.79, Pitch : -14.47, Yaw : 54.46, Alt : 49.2799987793, Lat : 49.2835957, Lng : -123.1149786, Q1 : 0.883204042912, Q2 : 0.036155000329, Q3 : -0.123027570546, Q4 : 0.451118171215}
2019-04-14 12:55:53.01: SIM {TimeUS : 57635270, Roll : -0.98, Pitch : -15.09, Yaw : 51.3, Alt : 49.2799987793, Lat : 49.2835975, Lng : -123.1149761, Q1 : 0.894073009491, Q2 : 0.0491368025541, Q3 : -0.122086934745, Q4 : 0.428151607513}
2019-04-14 12:55:53.11: SIM {TimeUS : 57735230, Roll : 0.65, Pitch : -15.52, Yaw : 48.29, Alt : 49.2799987793, Lat : 49.2835994, Lng : -123.1149735, Q1 : 0.903806269169, Q2 : 0.0604161098599, Q3 : -0.120911858976, Q4 : 0.406035035849}
2019-04-14 12:55:53.21: SIM {TimeUS : 57835190, Roll : 2.01, Pitch : -15.73, Yaw : 45.73, Alt : 49.2799987793, Lat : 49.2836013, Lng : -123.1149708, Q1 : 0.911662399769, Q2 : 0.0692301243544, Q3 : -0.119347192347, Q4 : 0.387085467577}
2019-04-14 12:55:53.31: SIM {TimeUS : 57935150, Roll : 2.97, Pitch : -15.79, Yaw : 43.83, Alt : 49.2799987793, Lat : 49.2836031, Lng : -123.1149679, Q1 : 0.917275547981, Q2 : 0.0751065686345, Q3 : -0.117814421654, Q4 : 0.372940093279}
2019-04-14 12:55:53.41: SIM {TimeUS : 58035110, Roll : 3.46, Pitch : -15.76, Yaw : 42.71, Alt : 49.2799987793, Lat : 49.283605, Lng : -123.114965, Q1 : 0.920611381531, Q2 : 0.0778253525496, Q3 : -0.116731353104, Q4 : 0.364405930042}
2019-04-14 12:55:53.51: SIM {TimeUS : 58135070, Roll : 3.49, Pitch : -15.73, Yaw : 42.33, Alt : 49.2799987793, Lat : 49.2836069, Lng : -123.1149619, Q1 : 0.921800613403, Q2 : 0.0775998532772, Q3 : -0.11665648967, Q4 : 0.361459761858}
2019-04-14 12:55:53.61: SIM {TimeUS : 58235030, Roll : 3.13, Pitch : -15.73, Yaw : 42.63, Alt : 49.2799987793, Lat : 49.283609, Lng : -123.1149586, Q1 : 0.921104252338, Q2 : 0.0750199854374, Q3 : -0.117609664798, Q4 : 0.363465160131}
2019-04-14 12:55:53.71: SIM {TimeUS : 58334990, Roll : 2.51, Pitch : -15.79, Yaw : 43.44, Alt : 49.2799987793, Lat : 49.283611, Lng : -123.1149553, Q1 : 0.918837964535, Q2 : 0.0710089877248, Q3 : -0.119543597102, Q4 : 0.369328916073}
2019-04-14 12:55:53.81: SIM {TimeUS : 58434950, Roll : 1.7, Pitch : -15.89, Yaw : 44.6, Alt : 49.2799987793, Lat : 49.2836129, Lng : -123.1149519, Q1 : 0.91543841362, Q2 : 0.0660713985562, Q3 : -0.122354201972, Q4 : 0.377672582865}
2019-04-14 12:55:53.91: SIM {TimeUS : 58534910, Roll : 0.84, Pitch : -16.03, Yaw : 45.91, Alt : 49.2799987793, Lat : 49.2836151, Lng : -123.1149484, Q1 : 0.911374032497, Q2 : 0.0611467212439, Q3 : -0.125581875443, Q4 : 0.38715326786}
2019-04-14 12:55:54.01: SIM {TimeUS : 58634870, Roll : 0.06, Pitch : -16.15, Yaw : 47.21, Alt : 49.2799987793, Lat : 49.2836171, Lng : -123.1149449, Q1 : 0.907193005085, Q2 : 0.0568075552583, Q3 : -0.128521129489, Q4 : 0.39655533433}
2019-04-14 12:55:54.11: SIM {TimeUS : 58734830, Roll : -0.58, Pitch : -16.24, Yaw : 48.36, Alt : 49.2799987793, Lat : 49.2836191, Lng : -123.1149413, Q1 : 0.903395652771, Q2 : 0.0532539822161, Q3 : -0.130918726325, Q4 : 0.404846400023}
2019-04-14 12:55:54.21: SIM {TimeUS : 58834790, Roll : -1.07, Pitch : -16.3, Yaw : 49.25, Alt : 49.2799987793, Lat : 49.2836214, Lng : -123.1149376, Q1 : 0.900351285934, Q2 : 0.0506551042199, Q3 : -0.132811620831, Q4 : 0.411293894053}
2019-04-14 12:55:54.31: SIM {TimeUS : 58934750, Roll : -1.37, Pitch : -16.36, Yaw : 49.84, Alt : 49.2799987793, Lat : 49.2836236, Lng : -123.114934, Q1 : 0.898296654224, Q2 : 0.0491783842444, Q3 : -0.134086459875, Q4 : 0.415530323982}
2019-04-14 12:55:54.41: SIM {TimeUS : 59034710, Roll : -1.48, Pitch : -16.42, Yaw : 50.11, Alt : 49.2900009155, Lat : 49.2836257, Lng : -123.1149302, Q1 : 0.897298395634, Q2 : 0.0488947927952, Q3 : -0.134790241718, Q4 : 0.417488336563}
2019-04-14 12:55:54.51: SIM {TimeUS : 59134670, Roll : -1.4, Pitch : -16.47, Yaw : 50.09, Alt : 49.2900009155, Lat : 49.283628, Lng : -123.1149265, Q1 : 0.897303044796, Q2 : 0.0496185980737, Q3 : -0.134918302298, Q4 : 0.41735163331}
2019-04-14 12:55:54.61: SIM {TimeUS : 59234630, Roll : -1.19, Pitch : -16.5, Yaw : 49.82, Alt : 49.2900009155, Lat : 49.2836304, Lng : -123.1149227, Q1 : 0.898137807846, Q2 : 0.0511459410191, Q3 : -0.13452886045, Q4 : 0.415493160486}
2019-04-14 12:55:54.71: SIM {TimeUS : 59334590, Roll : -0.86, Pitch : -16.54, Yaw : 49.38, Alt : 49.2900009155, Lat : 49.2836327, Lng : -123.1149188, Q1 : 0.899541735649, Q2 : 0.0532657690346, Q3 : -0.133830010891, Q4 : 0.41240388155}
2019-04-14 12:55:54.81: SIM {TimeUS : 59434550, Roll : -0.5, Pitch : -16.57, Yaw : 48.85, Alt : 49.2900009155, Lat : 49.2836349, Lng : -123.1149148, Q1 : 0.901241362095, Q2 : 0.0556702949107, Q3 : -0.133040681481, Q4 : 0.408613592386}
2019-04-14 12:55:54.91: SIM {TimeUS : 59534510, Roll : -0.13, Pitch : -16.61, Yaw : 48.29, Alt : 49.2900009155, Lat : 49.2836373, Lng : -123.114911, Q1 : 0.902993202209, Q2 : 0.0580634735525, Q3 : -0.13228084147, Q4 : 0.404640227556}
2019-04-14 12:55:55.01: SIM {TimeUS : 59635303, Roll : 0.2, Pitch : -16.65, Yaw : 47.77, Alt : 49.2900009155, Lat : 49.2836397, Lng : -123.114907, Q1 : 0.904599070549, Q2 : 0.0602381154895, Q3 : -0.13171415031, Q4 : 0.400902986526}
2019-04-14 12:55:55.11: SIM {TimeUS : 59735263, Roll : 0.45, Pitch : -16.68, Yaw : 47.34, Alt : 49.2900009155, Lat : 49.2836422, Lng : -123.114903, Q1 : 0.905913770199, Q2 : 0.0618343874812, Q3 : -0.131312727928, Q4 : 0.397811174393}
2019-04-14 12:55:55.21: SIM {TimeUS : 59835223, Roll : 0.61, Pitch : -16.71, Yaw : 47.04, Alt : 49.2900009155, Lat : 49.2836446, Lng : -123.114899, Q1 : 0.906857669353, Q2 : 0.0628450512886, Q3 : -0.131197556853, Q4 : 0.395533680916}
2019-04-14 12:55:55.31: SIM {TimeUS : 59935183, Roll : 0.67, Pitch : -16.75, Yaw : 46.85, Alt : 49.2900009155, Lat : 49.283647, Lng : -123.1148949, Q1 : 0.9073985219, Q2 : 0.063288860023, Q3 : -0.131387606263, Q4 : 0.394157022238}
2019-04-14 12:55:55.41: SIM {TimeUS : 60035143, Roll : 0.64, Pitch : -16.8, Yaw : 46.8, Alt : 49.2900009155, Lat : 49.2836495, Lng : -123.1148908, Q1 : 0.90754789114, Q2 : 0.0631925165653, Q3 : -0.131912738085, Q4 : 0.393652915955}
2019-04-14 12:55:55.51: SIM {TimeUS : 60135103, Roll : 0.54, Pitch : -16.85, Yaw : 46.85, Alt : 49.2900009155, Lat : 49.2836521, Lng : -123.1148866, Q1 : 0.907377123833, Q2 : 0.0625506490469, Q3 : -0.132587566972, Q4 : 0.393922328949}
2019-04-14 12:55:55.61: SIM {TimeUS : 60235063, Roll : 0.38, Pitch : -16.87, Yaw : 46.98, Alt : 49.2900009155, Lat : 49.2836546, Lng : -123.1148824, Q1 : 0.906971037388, Q2 : 0.0615162923932, Q3 : -0.133279845119, Q4 : 0.394785732031}
2019-04-14 12:55:55.71: SIM {TimeUS : 60335023, Roll : 0.19, Pitch : -16.9, Yaw : 47.17, Alt : 49.2900009155, Lat : 49.2836571, Lng : -123.1148782, Q1 : 0.90639269352, Q2 : 0.0604067482054, Q3 : -0.134042784572, Q4 : 0.39602509141}
2019-04-14 12:55:55.81: SIM {TimeUS : 60434983, Roll : 0.04, Pitch : -16.94, Yaw : 47.37, Alt : 49.2999992371, Lat : 49.2836596, Lng : -123.1148739, Q1 : 0.905717790127, Q2 : 0.0595539323986, Q3 : -0.134799048305, Q4 : 0.397439092398}
2019-04-14 12:55:55.91: SIM {TimeUS : 60534943, Roll : -0.07, Pitch : -16.99, Yaw : 47.57, Alt : 49.2999992371, Lat : 49.2836621, Lng : -123.1148696, Q1 : 0.905041992664, Q2 : 0.0590342842042, Q3 : -0.135483086109, Q4 : 0.398821145296}
2019-04-14 12:55:56.01: SIM {TimeUS : 60634903, Roll : -0.14, Pitch : -17.04, Yaw : 47.73, Alt : 49.2999992371, Lat : 49.2836646, Lng : -123.1148653, Q1 : 0.904442965984, Q2 : 0.0588246881962, Q3 : -0.136054694653, Q4 : 0.400014549494}
2019-04-14 12:55:56.11: SIM {TimeUS : 60734863, Roll : -0.17, Pitch : -17.09, Yaw : 47.86, Alt : 49.2999992371, Lat : 49.2836671, Lng : -123.114861, Q1 : 0.903977274895, Q2 : 0.0588809885085, Q3 : -0.136497184634, Q4 : 0.400907367468}
2019-04-14 12:55:56.21: SIM {TimeUS : 60834823, Roll : -0.19, Pitch : -17.13, Yaw : 47.93, Alt : 49.2999992371, Lat : 49.2836698, Lng : -123.1148566, Q1 : 0.903697490692, Q2 : 0.0589604414999, Q3 : -0.136811628938, Q4 : 0.401418864727}
2019-04-14 12:55:56.31: SIM {TimeUS : 60934783, Roll : -0.19, Pitch : -17.15, Yaw : 47.94, Alt : 49.2999992371, Lat : 49.2836724, Lng : -123.1148522, Q1 : 0.903622150421, Q2 : 0.0590277276933, Q3 : -0.136938259006, Q4 : 0.40153542161}
2019-04-14 12:55:56.41: SIM {TimeUS : 61034743, Roll : -0.18, Pitch : -17.16, Yaw : 47.91, Alt : 49.2999992371, Lat : 49.2836749, Lng : -123.1148479, Q1 : 0.90371209383, Q2 : 0.0591530688107, Q3 : -0.137035816908, Q4 : 0.401281177998}
2019-04-14 12:55:56.51: SIM {TimeUS : 61134703, Roll : -0.14, Pitch : -17.17, Yaw : 47.84, Alt : 49.2999992371, Lat : 49.2836776, Lng : -123.1148434, Q1 : 0.903933405876, Q2 : 0.0594292357564, Q3 : -0.13696141541, Q4 : 0.400766909122}
2019-04-14 12:55:56.61: SIM {TimeUS : 61234663, Roll : -0.08, Pitch : -17.18, Yaw : 47.74, Alt : 49.2999992371, Lat : 49.2836803, Lng : -123.114839, Q1 : 0.904232800007, Q2 : 0.0597860217094, Q3 : -0.136882916093, Q4 : 0.400064736605}
2019-04-14 12:55:56.71: SIM {TimeUS : 61334623, Roll : -0.01, Pitch : -17.2, Yaw : 47.63, Alt : 49.3100013733, Lat : 49.2836828, Lng : -123.1148346, Q1 : 0.904541194439, Q2 : 0.0603381209075, Q3 : -0.136912658811, Q4 : 0.399273753166}
2019-04-14 12:55:56.81: SIM {TimeUS : 61434583, Roll : 0.06, Pitch : -17.26, Yaw : 47.52, Alt : 49.3100013733, Lat : 49.2836856, Lng : -123.1148301, Q1 : 0.904817044735, Q2 : 0.0610180869699, Q3 : -0.137129992247, Q4 : 0.398469865322}
2019-04-14 12:55:56.91: SIM {TimeUS : 61534543, Roll : 0.13, Pitch : -17.3, Yaw : 47.42, Alt : 49.3100013733, Lat : 49.2836882, Lng : -123.1148256, Q1 : 0.90508723259, Q2 : 0.0615671277046, Q3 : -0.13723936677, Q4 : 0.39773362875}
2019-04-14 12:55:57.01: SIM {TimeUS : 61634503, Roll : 0.18, Pitch : -17.31, Yaw : 47.33, Alt : 49.3100013733, Lat : 49.2836908, Lng : -123.1148211, Q1 : 0.90533721447, Q2 : 0.0619255378842, Q3 : -0.13720716536, Q4 : 0.397119551897}
2019-04-14 12:55:57.11: SIM {TimeUS : 61735296, Roll : 0.21, Pitch : -17.32, Yaw : 47.27, Alt : 49.3100013733, Lat : 49.2836936, Lng : -123.1148166, Q1 : 0.905527949333, Q2 : 0.0620880909264, Q3 : -0.137271180749, Q4 : 0.396636962891}
2019-04-14 12:55:57.21: SIM {TimeUS : 61835256, Roll : 0.2, Pitch : -17.35, Yaw : 47.23, Alt : 49.3100013733, Lat : 49.2836962, Lng : -123.114812, Q1 : 0.905644834042, Q2 : 0.062075778842, Q3 : -0.137508660555, Q4 : 0.396289527416}
2019-04-14 12:55:57.31: SIM {TimeUS : 61935216, Roll : 0.19, Pitch : -17.37, Yaw : 47.21, Alt : 49.3100013733, Lat : 49.283699, Lng : -123.1148075, Q1 : 0.905690729618, Q2 : 0.0620438791811, Q3 : -0.137724176049, Q4 : 0.3961147964}
2019-04-14 12:55:57.41: SIM {TimeUS : 62035176, Roll : 0.17, Pitch : -17.39, Yaw : 47.21, Alt : 49.3100013733, Lat : 49.2837016, Lng : -123.1148029, Q1 : 0.905679821968, Q2 : 0.0619644485414, Q3 : -0.137987658381, Q4 : 0.396060407162}
2019-04-14 12:55:57.51: SIM {TimeUS : 62135136, Roll : 0.15, Pitch : -17.42, Yaw : 47.22, Alt : 49.3100013733, Lat : 49.2837045, Lng : -123.1147984, Q1 : 0.905636072159, Q2 : 0.0618656761944, Q3 : -0.138229325414, Q4 : 0.396091639996}
2019-04-14 12:55:57.61: SIM {TimeUS : 62235096, Roll : 0.14, Pitch : -17.44, Yaw : 47.23, Alt : 49.3100013733, Lat : 49.2837071, Lng : -123.1147938, Q1 : 0.90555357933, Q2 : 0.0619053542614, Q3 : -0.138472646475, Q4 : 0.396189123392}
2019-04-14 12:55:57.71: SIM {TimeUS : 62335056, Roll : 0.13, Pitch : -17.46, Yaw : 47.25, Alt : 49.3100013733, Lat : 49.2837099, Lng : -123.1147892, Q1 : 0.905477941036, Q2 : 0.0619104765356, Q3 : -0.138616725802, Q4 : 0.396310806274}
2019-04-14 12:55:57.81: SIM {TimeUS : 62435016, Roll : 0.13, Pitch : -17.48, Yaw : 47.27, Alt : 49.3100013733, Lat : 49.2837126, Lng : -123.1147845, Q1 : 0.905395150185, Q2 : 0.0619988292456, Q3 : -0.138774529099, Q4 : 0.396430760622}
2019-04-14 12:55:57.91: SIM {TimeUS : 62534976, Roll : 0.13, Pitch : -17.5, Yaw : 47.28, Alt : 49.3100013733, Lat : 49.2837154, Lng : -123.1147798, Q1 : 0.90532553196, Q2 : 0.0621046312153, Q3 : -0.138922974467, Q4 : 0.396521270275}
2019-04-14 12:55:58.01: SIM {TimeUS : 62634936, Roll : 0.12, Pitch : -17.54, Yaw : 47.29, Alt : 49.3199996948, Lat : 49.2837181, Lng : -123.1147753, Q1 : 0.905267000198, Q2 : 0.0621565021574, Q3 : -0.139229059219, Q4 : 0.396539479494}
2019-04-14 12:55:58.11: SIM {TimeUS : 62734896, Roll : 0.09, Pitch : -17.58, Yaw : 47.29, Alt : 49.3199996948, Lat : 49.2837209, Lng : -123.1147706, Q1 : 0.905236363411, Q2 : 0.0620486736298, Q3 : -0.139655306935, Q4 : 0.396476387978}
2019-04-14 12:55:58.21: SIM {TimeUS : 62834856, Roll : 0.07, Pitch : -17.62, Yaw : 47.28, Alt : 49.3199996948, Lat : 49.2837236, Lng : -123.1147659, Q1 : 0.905224204063, Q2 : 0.0619933642447, Q3 : -0.140088498592, Q4 : 0.396359890699}
2019-04-14 12:55:58.31: SIM {TimeUS : 62934816, Roll : 0.07, Pitch : -17.65, Yaw : 47.26, Alt : 49.3199996948, Lat : 49.2837265, Lng : -123.1147613, Q1 : 0.905226886272, Q2 : 0.0621590800583, Q3 : -0.140355095267, Q4 : 0.396233558655}
2019-04-14 12:55:58.41: SIM {TimeUS : 63034776, Roll : 0.11, Pitch : -17.67, Yaw : 47.24, Alt : 49.3199996948, Lat : 49.2837293, Lng : -123.1147566, Q1 : 0.905268967152, Q2 : 0.0624257661402, Q3 : -0.140347704291, Q4 : 0.3960981071}
2019-04-14 12:55:58.51: SIM {TimeUS : 63134736, Roll : 0.14, Pitch : -17.65, Yaw : 47.22, Alt : 49.3199996948, Lat : 49.283732, Lng : -123.1147518, Q1 : 0.905353784561, Q2 : 0.062630109489, Q3 : -0.140124678612, Q4 : 0.395950883627}
2019-04-14 12:55:58.61: SIM {TimeUS : 63234696, Roll : 0.16, Pitch : -17.64, Yaw : 47.19, Alt : 49.3199996948, Lat : 49.2837349, Lng : -123.1147472, Q1 : 0.905455470085, Q2 : 0.0626674070954, Q3 : -0.13995270431, Q4 : 0.395773231983}
2019-04-14 12:55:58.71: SIM {TimeUS : 63334656, Roll : 0.16, Pitch : -17.62, Yaw : 47.16, Alt : 49.3199996948, Lat : 49.2837376, Lng : -123.1147425, Q1 : 0.905562579632, Q2 : 0.0626046657562, Q3 : -0.139832481742, Q4 : 0.395580500364}
2019-04-14 12:55:58.81: SIM {TimeUS : 63434616, Roll : 0.16, Pitch : -17.61, Yaw : 47.14, Alt : 49.3199996948, Lat : 49.2837405, Lng : -123.1147377, Q1 : 0.905666768551, Q2 : 0.0625330358744, Q3 : -0.139727026224, Q4 : 0.395390599966}
2019-04-14 12:55:58.91: SIM {TimeUS : 63534576, Roll : 0.16, Pitch : -17.62, Yaw : 47.11, Alt : 49.3199996948, Lat : 49.2837433, Lng : -123.114733, Q1 : 0.905740201473, Q2 : 0.0624914579093, Q3 : -0.139854490757, Q4 : 0.395183831453}
2019-04-14 12:55:59.01: SIM {TimeUS : 63634536, Roll : 0.15, Pitch : -17.65, Yaw : 47.09, Alt : 49.3199996948, Lat : 49.283746, Lng : -123.1147281, Q1 : 0.905776381493, Q2 : 0.0625261962414, Q3 : -0.14015622437, Q4 : 0.394988417625}
2019-04-14 12:55:59.11: SIM {TimeUS : 63734496, Roll : 0.13, Pitch : -17.7, Yaw : 47.08, Alt : 49.3199996948, Lat : 49.283749, Lng : -123.1147235, Q1 : 0.905781149864, Q2 : 0.0625650733709, Q3 : -0.140635624528, Q4 : 0.394800931215}
2019-04-14 12:55:59.21: SIM {TimeUS : 63835289, Roll : 0.13, Pitch : -17.77, Yaw : 47.06, Alt : 49.3199996948, Lat : 49.2837518, Lng : -123.1147187, Q1 : 0.905755877495, Q2 : 0.0627303868532, Q3 : -0.141157060862, Q4 : 0.394646495581}
2019-04-14 12:55:59.31: SIM {TimeUS : 63935249, Roll : 0.13, Pitch : -17.8, Yaw : 47.05, Alt : 49.3199996948, Lat : 49.2837546, Lng : -123.1147139, Q1 : 0.905752420425, Q2 : 0.0628664121032, Q3 : -0.141407340765, Q4 : 0.394543200731}
2019-04-14 12:55:59.41: SIM {TimeUS : 64035209, Roll : 0.13, Pitch : -17.82, Yaw : 47.04, Alt : 49.3300018311, Lat : 49.2837575, Lng : -123.1147091, Q1 : 0.905757963657, Q2 : 0.0629093199968, Q3 : -0.14162813127, Q4 : 0.394444435835}
2019-04-14 12:55:59.51: SIM {TimeUS : 64135169, Roll : 0.12, Pitch : -17.84, Yaw : 47.03, Alt : 49.3300018311, Lat : 49.2837603, Lng : -123.1147043, Q1 : 0.905781924725, Q2 : 0.0628780275583, Q3 : -0.14174516499, Q4 : 0.394352316856}
2019-04-14 12:55:59.61: SIM {TimeUS : 64235129, Roll : 0.13, Pitch : -17.82, Yaw : 47.02, Alt : 49.3300018311, Lat : 49.2837631, Lng : -123.1146995, Q1 : 0.905827760696, Q2 : 0.0628938749433, Q3 : -0.141588017344, Q4 : 0.394300967455}
2019-04-14 12:55:59.71: SIM {TimeUS : 64335089, Roll : 0.15, Pitch : -17.82, Yaw : 47.01, Alt : 49.3300018311, Lat : 49.2837661, Lng : -123.1146947, Q1 : 0.905847966671, Q2 : 0.0630434155464, Q3 : -0.141551360488, Q4 : 0.394243896008}
2019-04-14 12:55:59.81: SIM {TimeUS : 64435049, Roll : 0.16, Pitch : -17.84, Yaw : 47.0, Alt : 49.3300018311, Lat : 49.2837689, Lng : -123.1146898, Q1 : 0.905861496925, Q2 : 0.0631459578872, Q3 : -0.141676798463, Q4 : 0.394151329994}
2019-04-14 12:55:59.91: SIM {TimeUS : 64535009, Roll : 0.16, Pitch : -17.86, Yaw : 46.99, Alt : 49.3300018311, Lat : 49.2837717, Lng : -123.1146851, Q1 : 0.905883967876, Q2 : 0.0632005482912, Q3 : -0.141787901521, Q4 : 0.394050985575}
2019-04-14 12:56:00.01: SIM {TimeUS : 64634969, Roll : 0.17, Pitch : -17.85, Yaw : 46.97, Alt : 49.3300018311, Lat : 49.2837746, Lng : -123.1146803, Q1 : 0.905932307243, Q2 : 0.0632184743881, Q3 : -0.141753852367, Q4 : 0.393949151039}
2019-04-14 12:56:00.11: SIM {TimeUS : 64734929, Roll : 0.17, Pitch : -17.86, Yaw : 46.96, Alt : 49.3300018311, Lat : 49.2837775, Lng : -123.1146755, Q1 : 0.905971348286, Q2 : 0.0632643848658, Q3 : -0.141794413328, Q4 : 0.393837422132}
2019-04-14 12:56:00.21: SIM {TimeUS : 64834889, Roll : 0.16, Pitch : -17.89, Yaw : 46.94, Alt : 49.3300018311, Lat : 49.2837804, Lng : -123.1146706, Q1 : 0.905993521214, Q2 : 0.0632570683956, Q3 : -0.142050489783, Q4 : 0.393695324659}
2019-04-14 12:56:00.31: SIM {TimeUS : 64934849, Roll : 0.14, Pitch : -17.93, Yaw : 46.93, Alt : 49.3300018311, Lat : 49.2837832, Lng : -123.1146658, Q1 : 0.906000852585, Q2 : 0.0632080584764, Q3 : -0.142492517829, Q4 : 0.393526494503}
2019-04-14 12:56:00.41: SIM {TimeUS : 65034809, Roll : 0.13, Pitch : -17.95, Yaw : 46.91, Alt : 49.3300018311, Lat : 49.2837861, Lng : -123.114661, Q1 : 0.90603274107, Q2 : 0.0631794631481, Q3 : -0.14265999198, Q4 : 0.393397003412}
2019-04-14 12:56:00.51: SIM {TimeUS : 65134769, Roll : 0.14, Pitch : -17.94, Yaw : 46.9, Alt : 49.3300018311, Lat : 49.2837891, Lng : -123.1146561, Q1 : 0.906083345413, Q2 : 0.0632206648588, Q3 : -0.142570406199, Q4 : 0.393306314945}
2019-04-14 12:56:00.61: SIM {TimeUS : 65234729, Roll : 0.16, Pitch : -17.93, Yaw : 46.89, Alt : 49.3300018311, Lat : 49.283792, Lng : -123.1146512, Q1 : 0.906129777431, Q2 : 0.0633488446474, Q3 : -0.142410740256, Q4 : 0.393236488104}
2019-04-14 12:56:00.71: SIM {TimeUS : 65334689, Roll : 0.18, Pitch : -17.93, Yaw : 46.87, Alt : 49.3300018311, Lat : 49.2837948, Lng : -123.1146464, Q1 : 0.906163811684, Q2 : 0.0634516626596, Q3 : -0.142401322722, Q4 : 0.393144845963}
2019-04-14 12:56:00.81: SIM {TimeUS : 65434649, Roll : 0.17, Pitch : -17.95, Yaw : 46.86, Alt : 49.3300018311, Lat : 49.2837977, Lng : -123.1146415, Q1 : 0.906186878681, Q2 : 0.06343241781, Q3 : -0.142594605684, Q4 : 0.393024802208}
2019-04-14 12:56:00.91: SIM {TimeUS : 65534609, Roll : 0.14, Pitch : -17.97, Yaw : 46.85, Alt : 49.3400001526, Lat : 49.2838007, Lng : -123.1146367, Q1 : 0.906217575073, Q2 : 0.0632760450244, Q3 : -0.142851024866, Q4 : 0.392886042595}
2019-04-14 12:56:01.01: SIM {TimeUS : 65634569, Roll : 0.13, Pitch : -17.99, Yaw : 46.84, Alt : 49.3400001526, Lat : 49.2838036, Lng : -123.1146318, Q1 : 0.906241714954, Q2 : 0.0632027462125, Q3 : -0.143072396517, Q4 : 0.392761588097}
2019-04-14 12:56:01.11: SIM {TimeUS : 65734529, Roll : 0.13, Pitch : -18.01, Yaw : 46.82, Alt : 49.3400001526, Lat : 49.2838065, Lng : -123.1146269, Q1 : 0.90625679493, Q2 : 0.0632952302694, Q3 : -0.143232852221, Q4 : 0.392653435469}
2019-04-14 12:56:01.21: SIM {TimeUS : 65835322, Roll : 0.14, Pitch : -18.03, Yaw : 46.81, Alt : 49.3400001526, Lat : 49.2838094, Lng : -123.114622, Q1 : 0.906272649765, Q2 : 0.0634334981441, Q3 : -0.143311411142, Q4 : 0.39256593585}
2019-04-14 12:56:01.31: SIM {TimeUS : 65935282, Roll : 0.17, Pitch : -18.03, Yaw : 46.8, Alt : 49.3400001526, Lat : 49.2838123, Lng : -123.1146171, Q1 : 0.90627938509, Q2 : 0.0636567771435, Q3 : -0.143271997571, Q4 : 0.392528504133}
2019-04-14 12:56:01.41: SIM {TimeUS : 66035242, Roll : 0.18, Pitch : -18.05, Yaw : 46.8, Alt : 49.3400001526, Lat : 49.2838153, Lng : -123.1146122, Q1 : 0.906279444695, Q2 : 0.0637620911002, Q3 : -0.143340095878, Q4 : 0.392486393452}
2019-04-14 12:56:01.51: SIM {TimeUS : 66135202, Roll : 0.19, Pitch : -18.06, Yaw : 46.79, Alt : 49.3400001526, Lat : 49.2838182, Lng : -123.1146073, Q1 : 0.906271219254, Q2 : 0.0638755261898, Q3 : -0.143456548452, Q4 : 0.392444401979}
2019-04-14 12:56:01.61: SIM {TimeUS : 66235162, Roll : 0.2, Pitch : -18.08, Yaw : 46.79, Alt : 49.3400001526, Lat : 49.2838212, Lng : -123.1146024, Q1 : 0.90626347065, Q2 : 0.0639965459704, Q3 : -0.143554076552, Q4 : 0.39240694046}
2019-04-14 12:56:01.71: SIM {TimeUS : 66335122, Roll : 0.22, Pitch : -18.09, Yaw : 46.78, Alt : 49.3400001526, Lat : 49.283824, Lng : -123.1145974, Q1 : 0.906256198883, Q2 : 0.0641797930002, Q3 : -0.143568634987, Q4 : 0.39238846302}
2019-04-14 12:56:01.81: SIM {TimeUS : 66435082, Roll : 0.25, Pitch : -18.1, Yaw : 46.78, Alt : 49.3400001526, Lat : 49.283827, Lng : -123.1145926, Q1 : 0.90623497963, Q2 : 0.0644868761301, Q3 : -0.143563330173, Q4 : 0.392389088869}
2019-04-14 12:56:01.91: SIM {TimeUS : 66535042, Roll : 0.25, Pitch : -18.1, Yaw : 46.77, Alt : 49.3400001526, Lat : 49.2838299, Lng : -123.1145877, Q1 : 0.906246721745, Q2 : 0.0645177587867, Q3 : -0.14355777204, Q4 : 0.392358869314}
2019-04-14 12:56:02.01: SIM {TimeUS : 66635002, Roll : 0.23, Pitch : -18.12, Yaw : 46.77, Alt : 49.3400001526, Lat : 49.2838329, Lng : -123.1145828, Q1 : 0.906264066696, Q2 : 0.064375847578, Q3 : -0.143729180098, Q4 : 0.392279416323}
2019-04-14 12:56:02.11: SIM {TimeUS : 66734962, Roll : 0.21, Pitch : -18.14, Yaw : 46.76, Alt : 49.3400001526, Lat : 49.2838359, Lng : -123.1145779, Q1 : 0.906270980835, Q2 : 0.0642582699656, Q3 : -0.143983095884, Q4 : 0.392189621925}
