2019-04-14 14:35:14.10: SIM {TimeUS : 40516287, Roll : 0.0, Pitch : 0.0, Yaw : 0.0, Alt : 30.1000003815, Lat : 49.28357, Lng : -123.11502, Q1 : 1.0, Q2 : 0.0, Q3 : 0.0, Q4 : 0.0}
2019-04-14 14:35:14.21: SIM {TimeUS : 40635406, Roll : 0.0, Pitch : 0.0, Yaw : 0.0, Alt : 30.1000003815, Lat : 49.28357, Lng : -123.11502, Q1 : 1.0, Q2 : 0.0, Q3 : 0.0, Q4 : 0.0}
2019-04-14 14:35:14.31: SIM {TimeUS : 40735366, Roll : 0.0, Pitch : 0.0, Yaw : 0.0, Alt : 30.1000003815, Lat : 49.28357, Lng : -123.11502, Q1 : 1.0, Q2 : 0.0, Q3 : 0.0, Q4 : 0.0}
2019-04-14 14:35:14.41: SIM {TimeUS : 40835326, Roll : 0.0, Pitch : 0.0, Yaw : 0.0, Alt : 30.1000003815, Lat : 49.28357, Lng : -123.11502, Q1 : 1.0, Q2 : 0.0, Q3 : 0.0, Q4 : 0.0}
2019-04-14 14:35:14.51: SIM {TimeUS : 40935286, Roll : 0.0, Pitch : 0.0, Yaw : 0.0, Alt : 30.1000003815, Lat : 49.28357, Lng : -123.11502, Q1 : 1.0, Q2 : 0.0, Q3 : 0.0, Q4 : 0.0}
2019-04-14 14:35:14.61: SIM {TimeUS : 41035246, Roll : 0.0, Pitch : 0.0, Yaw : 0.0, Alt : 30.1000003815, Lat : 49.28357, Lng : -123.11502, Q1 : 1.0, Q2 : 0.0, Q3 : 0.0, Q4 : 0.0}
2019-04-14 14:35:14.71: SIM {TimeUS : 41135206, Roll : 0.0, Pitch : 0.0, Yaw : 0.0, Alt : 30.1000003815, Lat : 49.28357, Lng : -123.11502, Q1 : 1.0, Q2 : 0.0, Q3 : 0.0, Q4 : 0.0}
2019-04-14 14:35:14.81: SIM {TimeUS : 41235166, Roll : 0.0, Pitch : 0.0, Yaw : 0.0, Alt : 30.1000003815, Lat : 49.28357, Lng : -123.11502, Q1 : 1.0, Q2 : 0.0, Q3 : 0.0, Q4 : 0.0}
2019-04-14 14:35:14.91: SIM {TimeUS : 41335126, Roll : 0.0, Pitch : 0.0, Yaw : 0.0, Alt : 30.1000003815, Lat : 49.28357, Lng : -123.11502, Q1 : 1.0, Q2 : 0.0, Q3 : 0.0, Q4 : 0.0}
2019-04-14 14:35:15.01: SIM {TimeUS : 41435086, Roll : 0.0, Pitch : 0.0, Yaw : 0.0, Alt : 30.1000003815, Lat : 49.28357, Lng : -123.11502, Q1 : 1.0, Q2 : 0.0, Q3 : 0.0, Q4 : 0.0}
2019-04-14 14:35:15.11: SIM {TimeUS : 41535046, Roll : 0.0, Pitch : 0.0, Yaw : 0.0, Alt : 30.1000003815, Lat : 49.28357, Lng : -123.11502, Q1 : 1.0, Q2 : 0.0, Q3 : 0.0, Q4 : 0.0}
2019-04-14 14:35:15.21: SIM {TimeUS : 41635006, Roll : 0.0, Pitch : 0.0, Yaw : 0.0, Alt : 30.1000003815, Lat : 49.28357, Lng : -123.11502, Q1 : 1.0, Q2 : 0.0, Q3 : 0.0, Q4 : 0.0}
2019-04-14 14:35:15.31: SIM {TimeUS : 41734966, Roll : 0.0, Pitch : 0.0, Yaw : 0.0, Alt : 30.1000003815, Lat : 49.28357, Lng : -123.11502, Q1 : 1.0, Q2 : 0.0, Q3 : 0.0, Q4 : 0.0}
2019-04-14 14:35:15.41: SIM {TimeUS : 41834926, Roll : 0.0, Pitch : 0.0, Yaw : 0.0, Alt : 30.1000003815, Lat : 49.28357, Lng : -123.11502, Q1 : 1.0, Q2 : 0.0, Q3 : 0.0, Q4 : 0.0}
2019-04-14 14:35:15.51: SIM {TimeUS : 41934886, Roll : 0.0, Pitch : 0.0, Yaw : 0.0, Alt : 30.1000003815, Lat : 49.28357, Lng : -123.11502, Q1 : 1.0, Q2 : 0.0, Q3 : 0.0, Q4 : 0.0}
2019-04-14 14:35:15.61: SIM {TimeUS : 42034846, Roll : 0.0, Pitch : 0.0, Yaw : 0.0, Alt : 30.1000003815, Lat : 49.28357, Lng : -123.11502, Q1 : 1.0, Q2 : 0.0, Q3 : 0.0, Q4 : 0.0}
2019-04-14 14:35:15.71: SIM {TimeUS : 42134806, Roll : 0.0, Pitch : 0.0, Yaw : 0.0, Alt : 30.1000003815, Lat : 49.28357, Lng : -123.11502, Q1 : 1.0, Q2 : 0.0, Q3 : 0.0, Q4 : 0.0}
2019-04-14 14:35:15.81: SIM {TimeUS : 42234766, Roll : 0.0, Pitch : 0.0, Yaw : 0.0, Alt : 30.1000003815, Lat : 49.28357, Lng : -123.11502, Q1 : 1.0, Q2 : 0.0, Q3 : 0.0, Q4 : 0.0}
2019-04-14 14:35:15.91: SIM {TimeUS : 42334726, Roll : 0.0, Pitch : 0.0, Yaw : 0.0, Alt : 30.1000003815, Lat : 49.28357, Lng : -123.11502, Q1 : 1.0, Q2 : 0.0, Q3 : 0.0, Q4 : 0.0}
2019-04-14 14:35:16.01: SIM {TimeUS : 42434686, Roll : 0.0, Pitch : 0.0, Yaw : 0.0, Alt : 30.1000003815, Lat : 49.28357, Lng : -123.11502, Q1 : 1.0, Q2 : 0.0, Q3 : 0.0, Q4 : 0.0}
2019-04-14 14:35:16.11: SIM {TimeUS : 42534646, Roll : 0.0, Pitch : 0.0, Yaw : 0.0, Alt : 30.1000003815, Lat : 49.28357, Lng : -123.11502, Q1 : 1.0, Q2 : 0.0, Q3 : 0.0, Q4 : 0.0}
2019-04-14 14:35:16.22: SIM {TimeUS : 42635439, Roll : 0.0, Pitch : 0.0, Yaw : 0.0, Alt : 30.1000003815, Lat : 49.28357, Lng : -123.11502, Q1 : 1.0, Q2 : 0.0, Q3 : 0.0, Q4 : 0.0}
2019-04-14 14:35:16.31: SIM {TimeUS : 42735399, Roll : 0.0, Pitch : 0.0, Yaw : 0.0, Alt : 30.1000003815, Lat : 49.28357, Lng : -123.11502, Q1 : 1.0, Q2 : 0.0, Q3 : 0.0, Q4 : 0.0}
2019-04-14 14:35:16.41: SIM {TimeUS : 42835359, Roll : 0.0, Pitch : 0.0, Yaw : 360.0, Alt : 30.1000003815, Lat : 49.28357, Lng : -123.11502, Q1 : 1.0, Q2 : 0.0, Q3 : 0.0, Q4 : -2.77582514266e-12}
2019-04-14 14:35:16.51: SIM {TimeUS : 42935319, Roll : 0.0, Pitch : 0.0, Yaw : 360.0, Alt : 30.1000003815, Lat : 49.28357, Lng : -123.11502, Q1 : 1.0, Q2 : 0.0, Q3 : 0.0, Q4 : -1.29439896301e-11}
2019-04-14 14:35:16.61: SIM {TimeUS : 43035279, Roll : 0.0, Pitch : 0.0, Yaw : 360.0, Alt : 30.1000003815, Lat : 49.28357, Lng : -123.11502, Q1 : 1.0, Q2 : 0.0, Q3 : 0.0, Q4 : -1.05486080315e-07}
2019-04-14 14:35:16.71: SIM {TimeUS : 43135239, Roll : 0.0, Pitch : 0.0, Yaw : 359.99, Alt : 30.1000003815, Lat : 49.28357, Lng : -123.11502, Q1 : 1.0, Q2 : 0.0, Q3 : 0.0, Q4 : -2.98908332752e-07}
2019-04-14 14:35:16.81: SIM {TimeUS : 43235199, Roll : 0.0, Pitch : 0.0, Yaw : 359.99, Alt : 30.1000003815, Lat : 49.28357, Lng : -123.11502, Q1 : 1.0, Q2 : 0.0, Q3 : 0.0, Q4 : -4.43708529474e-07}
2019-04-14 14:35:16.91: SIM {TimeUS : 43335159, Roll : 0.0, Pitch : 0.0, Yaw : 359.99, Alt : 30.1000003815, Lat : 49.28357, Lng : -123.11502, Q1 : 1.0, Q2 : 0.0, Q3 : 0.0, Q4 : -6.44451006337e-07}
2019-04-14 14:35:17.01: SIM {TimeUS : 43435119, Roll : 0.0, Pitch : 0.0, Yaw : 359.99, Alt : 30.1000003815, Lat : 49.28357, Lng : -123.11502, Q1 : 1.0, Q2 : 0.0, Q3 : 0.0, Q4 : -8.25754455036e-07}
2019-04-14 14:35:17.11: SIM {TimeUS : 43535079, Roll : 0.0, Pitch : 0.0, Yaw : 359.99, Alt : 30.1000003815, Lat : 49.28357, Lng : -123.11502, Q1 : 1.0, Q2 : 0.0, Q3 : 0.0, Q4 : -1.04744935925e-06}
2019-04-14 14:35:17.21: SIM {TimeUS : 43635039, Roll : 0.0, Pitch : 0.0, Yaw : 359.99, Alt : 30.1000003815, Lat : 49.28357, Lng : -123.11502, Q1 : 1.0, Q2 : 0.0, Q3 : 0.0, Q4 : -1.22540416214e-06}
2019-04-14 14:35:17.31: SIM {TimeUS : 43734999, Roll : 0.0, Pitch : 0.0, Yaw : 359.99, Alt : 30.1100006104, Lat : 49.28357, Lng : -123.11502, Q1 : 1.0, Q2 : 0.0, Q3 : 0.0, Q4 : -1.42119586144e-06}
2019-04-14 14:35:17.41: SIM {TimeUS : 43834959, Roll : 0.0, Pitch : 0.0, Yaw : 359.99, Alt : 30.1299991608, Lat : 49.28357, Lng : -123.11502, Q1 : 1.0, Q2 : 0.0, Q3 : 0.0, Q4 : -1.653655886e-06}
2019-04-14 14:35:17.51: SIM {TimeUS : 43934919, Roll : 0.0, Pitch : 0.0, Yaw : 359.99, Alt : 30.1599998474, Lat : 49.28357, Lng : -123.11502, Q1 : 1.0, Q2 : 0.0, Q3 : 0.0, Q4 : -1.86109707556e-06}
2019-04-14 14:35:17.61: SIM {TimeUS : 44034879, Roll : 0.0, Pitch : 0.0, Yaw : 359.99, Alt : 30.1900005341, Lat : 49.28357, Lng : -123.11502, Q1 : 1.0, Q2 : 0.0, Q3 : 0.0, Q4 : -2.10218399843e-06}
2019-04-14 14:35:17.71: SIM {TimeUS : 44134839, Roll : -0.04, Pitch : -0.03, Yaw : 359.99, Alt : 30.2299995422, Lat : 49.28357, Lng : -123.11502, Q1 : 0.999999880791, Q2 : -0.000362199702067, Q3 : -0.000314039731165, Q4 : -4.89287822347e-06}
2019-04-14 14:35:17.81: SIM {TimeUS : 44234799, Roll : -0.3, Pitch : -0.27, Yaw : 359.99, Alt : 30.3099994659, Lat : 49.28357, Lng : -123.11502, Q1 : 0.999993622303, Q2 : -0.0026828746777, Q3 : -0.00236116838641, Q4 : -3.00767733279e-05}
2019-04-14 14:35:17.91: SIM {TimeUS : 44334759, Roll : -0.61, Pitch : -0.55, Yaw : 359.99, Alt : 30.4400005341, Lat : 49.28357, Lng : -123.11502, Q1 : 0.99997395277, Q2 : -0.00537870777771, Q3 : -0.00481423502788, Q4 : -8.19478082121e-05}
2019-04-14 14:35:18.01: SIM {TimeUS : 44434719, Roll : -0.79, Pitch : -0.74, Yaw : 359.98, Alt : 30.6000003815, Lat : 49.28357, Lng : -123.11502, Q1 : 0.99995470047, Q2 : -0.00691934721544, Q3 : -0.00653189374134, Q4 : -0.000152930879267}
2019-04-14 14:35:18.11: SIM {TimeUS : 44534679, Roll : -0.81, Pitch : -0.78, Yaw : 359.97, Alt : 30.7600002289, Lat : 49.28357, Lng : -123.11502, Q1 : 0.999951064587, Q2 : -0.00710650952533, Q3 : -0.00687702512369, Q4 : -0.000237523243413}
2019-04-14 14:35:18.21: SIM {TimeUS : 44634639, Roll : -0.71, Pitch : -0.68, Yaw : 359.96, Alt : 30.9099998474, Lat : 49.28357, Lng : -123.1150201, Q1 : 0.999962210655, Q2 : -0.00628431560472, Q3 : -0.00600326759741, Q4 : -0.000322039035382}
2019-04-14 14:35:18.32: SIM {TimeUS : 44735432, Roll : -0.53, Pitch : -0.5, Yaw : 359.95, Alt : 31.0599994659, Lat : 49.2835701, Lng : -123.1150202, Q1 : 0.999979496002, Q2 : -0.00467174127698, Q3 : -0.00436197593808, Q4 : -0.000397301017074}
2019-04-14 14:35:18.41: SIM {TimeUS : 44835392, Roll : -0.32, Pitch : -0.28, Yaw : 359.94, Alt : 31.2199993134, Lat : 49.2835701, Lng : -123.1150202, Q1 : 0.999992787838, Q2 : -0.00280998111703, Q3 : -0.00252364436164, Q4 : -0.000459577102447}
2019-04-14 14:35:18.51: SIM {TimeUS : 44935352, Roll : -0.13, Pitch : -0.11, Yaw : 359.94, Alt : 31.3899993896, Lat : 49.2835702, Lng : -123.1150203, Q1 : 0.999998748302, Q2 : -0.00113578292076, Q3 : -0.000962821708526, Q4 : -0.000509231060278}
2019-04-14 14:35:18.61: SIM {TimeUS : 45035312, Roll : 0.01, Pitch : 0.0, Yaw : 359.93, Alt : 31.5599994659, Lat : 49.2835702, Lng : -123.1150204, Q1 : 0.999999821186, Q2 : 8.85190238478e-05, Q3 : 2.11527276406e-05, Q4 : -0.000541239976883}
2019-04-14 14:35:18.71: SIM {TimeUS : 45135272, Roll : 0.08, Pitch : 0.04, Yaw : 359.93, Alt : 31.7399997711, Lat : 49.2835702, Lng : -123.1150205, Q1 : 0.999999463558, Q2 : 0.000767209625337, Q3 : 0.000409921223763, Q4 : -0.000555913720746}
2019-04-14 14:35:18.81: SIM {TimeUS : 45235232, Roll : 0.1, Pitch : 0.06, Yaw : 359.93, Alt : 31.9200000763, Lat : 49.2835703, Lng : -123.1150205, Q1 : 0.99999922514, Q2 : 0.000934573356062, Q3 : 0.000533014943358, Q4 : -0.000560523301829}
2019-04-14 14:35:18.91: SIM {TimeUS : 45335192, Roll : 0.09, Pitch : 0.06, Yaw : 359.93, Alt : 32.0999984741, Lat : 49.2835703, Lng : -123.1150206, Q1 : 0.999999344349, Q2 : 0.000811413570773, Q3 : 0.000607669411693, Q4 : -0.000559470732696}
2019-04-14 14:35:19.01: SIM {TimeUS : 45435152, Roll : 0.06, Pitch : 0.08, Yaw : 359.93, Alt : 32.2900009155, Lat : 49.2835703, Lng : -123.1150206, Q1 : 0.999999463558, Q2 : 0.000564130896237, Q3 : 0.000712277309503, Q4 : -0.000549060001504}
2019-04-14 14:35:19.11: SIM {TimeUS : 45535112, Roll : 0.05, Pitch : 0.1, Yaw : 359.93, Alt : 32.4799995422, Lat : 49.2835703, Lng : -123.1150207, Q1 : 0.999999344349, Q2 : 0.000500363123138, Q3 : 0.000890711438842, Q4 : -0.000537732383236}
2019-04-14 14:35:19.21: SIM {TimeUS : 45635072, Roll : 0.08, Pitch : 0.12, Yaw : 359.93, Alt : 32.6800003052, Lat : 49.2835703, Lng : -123.1150207, Q1 : 0.999998986721, Q2 : 0.000734189408831, Q3 : 0.00113295507617, Q4 : -0.000524866802152}
2019-04-14 14:35:19.31: SIM {TimeUS : 45735032, Roll : 0.11, Pitch : 0.15, Yaw : 359.94, Alt : 32.8800010681, Lat : 49.2835704, Lng : -123.1150208, Q1 : 0.999998390675, Q2 : 0.00103273661807, Q3 : 0.001372660161, Q4 : -0.000508056837134}
2019-04-14 14:35:19.41: SIM {TimeUS : 45834992, Roll : 0.14, Pitch : 0.18, Yaw : 359.94, Alt : 33.0800018311, Lat : 49.2835704, Lng : -123.1150208, Q1 : 0.999997794628, Q2 : 0.00123912177514, Q3 : 0.001613222179, Q4 : -0.000491307408083}
2019-04-14 14:35:19.51: SIM {TimeUS : 45934952, Roll : 0.16, Pitch : 0.18, Yaw : 359.94, Alt : 33.2799987793, Lat : 49.2835704, Lng : -123.1150208, Q1 : 0.999997615814, Q2 : 0.00139763450716, Q3 : 0.00159424485173, Q4 : -0.000469050894026}
2019-04-14 14:35:19.61: SIM {TimeUS : 46034912, Roll : 0.16, Pitch : 0.15, Yaw : 359.94, Alt : 33.4900016785, Lat : 49.2835704, Lng : -123.1150208, Q1 : 0.999998033047, Q2 : 0.00141941430047, Q3 : 0.00131165620405, Q4 : -0.000461929448647}
2019-04-14 14:35:19.71: SIM {TimeUS : 46134872, Roll : 0.15, Pitch : 0.12, Yaw : 359.94, Alt : 33.6899986267, Lat : 49.2835704, Lng : -123.1150208, Q1 : 0.999998390675, Q2 : 0.00134055968374, Q3 : 0.00111524004024, Q4 : -0.000463454925921}
2019-04-14 14:35:19.81: SIM {TimeUS : 46234832, Roll : 0.14, Pitch : 0.11, Yaw : 359.94, Alt : 33.9000015259, Lat : 49.2835704, Lng : -123.1150208, Q1 : 0.999998509884, Q2 : 0.00129145535175, Q3 : 0.00103432743344, Q4 : -0.000477554509416}
2019-04-14 14:35:19.91: SIM {TimeUS : 46334792, Roll : 0.14, Pitch : 0.12, Yaw : 359.94, Alt : 34.1100006104, Lat : 49.2835704, Lng : -123.1150209, Q1 : 0.999998450279, Q2 : 0.00129900476895, Q3 : 0.00109745364171, Q4 : -0.0004969384172}
2019-04-14 14:35:20.01: SIM {TimeUS : 46434752, Roll : 0.13, Pitch : 0.11, Yaw : 359.94, Alt : 34.3199996948, Lat : 49.2835704, Lng : -123.1150208, Q1 : 0.999998688698, Q2 : 0.0012170735281, Q3 : 0.000972522364464, Q4 : -0.00051469221944}
2019-04-14 14:35:20.11: SIM {TimeUS : 46534712, Roll : 0.11, Pitch : 0.09, Yaw : 359.93, Alt : 34.5299987793, Lat : 49.2835704, Lng : -123.1150208, Q1 : 0.999998986721, Q2 : 0.00103476468939, Q3 : 0.000822584435809, Q4 : -0.000525414128788}
2019-04-14 14:35:20.21: SIM {TimeUS : 46634672, Roll : 0.09, Pitch : 0.08, Yaw : 359.93, Alt : 34.75, Lat : 49.2835704, Lng : -123.1150208, Q1 : 0.999999284744, Q2 : 0.000793403480202, Q3 : 0.000710833759513, Q4 : -0.000540271750651}
2019-04-14 14:35:20.31: SIM {TimeUS : 46734632, Roll : 0.06, Pitch : 0.07, Yaw : 359.93, Alt : 34.9599990845, Lat : 49.2835704, Lng : -123.1150208, Q1 : 0.999999463558, Q2 : 0.000541398127098, Q3 : 0.000630538328551, Q4 : -0.000557939638384}
2019-04-14 14:35:20.42: SIM {TimeUS : 46835425, Roll : 0.04, Pitch : 0.03, Yaw : 359.93, Alt : 35.1800003052, Lat : 49.2835704, Lng : -123.1150208, Q1 : 0.999999701977, Q2 : 0.000415180140408, Q3 : 0.00031794104143, Q4 : -0.000583300192375}
2019-04-14 14:35:20.51: SIM {TimeUS : 46935385, Roll : 0.03, Pitch : 0.0, Yaw : 359.92, Alt : 35.4000015259, Lat : 49.2835704, Lng : -123.1150208, Q1 : 0.999999761581, Q2 : 0.000330072274664, Q3 : 6.96875576978e-05, Q4 : -0.000615654920693}
2019-04-14 14:35:20.61: SIM {TimeUS : 47035345, Roll : 0.01, Pitch : 0.0, Yaw : 359.92, Alt : 35.6199989319, Lat : 49.2835704, Lng : -123.1150208, Q1 : 0.999999761581, Q2 : 0.000169033926795, Q3 : -2.38646020989e-06, Q4 : -0.000654193747323}
2019-04-14 14:35:20.71: SIM {TimeUS : 47135305, Roll : 0.01, Pitch : 0.0, Yaw : 359.92, Alt : 35.8400001526, Lat : 49.2835704, Lng : -123.1150208, Q1 : 0.999999761581, Q2 : 0.000133534020279, Q3 : 1.13756259452e-05, Q4 : -0.000687370134983}
2019-04-14 14:35:20.81: SIM {TimeUS : 47235265, Roll : 0.02, Pitch : 0.0, Yaw : 359.91, Alt : 36.0600013733, Lat : 49.2835704, Lng : -123.1150207, Q1 : 0.999999761581, Q2 : 0.00018614892906, Q3 : 4.29346655437e-05, Q4 : -0.000720826210454}
2019-04-14 14:35:20.91: SIM {TimeUS : 47335225, Roll : 0.0, Pitch : -0.01, Yaw : 359.91, Alt : 36.2799987793, Lat : 49.2835704, Lng : -123.1150207, Q1 : 0.999999701977, Q2 : 3.85368875868e-05, Q3 : -0.00015446114412, Q4 : -0.000750842678826}
2019-04-14 14:35:21.01: SIM {TimeUS : 47435185, Roll : -0.02, Pitch : -0.05, Yaw : 359.91, Alt : 36.5, Lat : 49.2835704, Lng : -123.1150207, Q1 : 0.999999523163, Q2 : -0.000254633807344, Q3 : -0.000487330078613, Q4 : -0.000781567418016}
2019-04-14 14:35:21.11: SIM {TimeUS : 47535145, Roll : -0.06, Pitch : -0.08, Yaw : 359.9, Alt : 36.7200012207, Lat : 49.2835704, Lng : -123.1150207, Q1 : 0.999999284744, Q2 : -0.000586844049394, Q3 : -0.000697848794516, Q4 : -0.000808448530734}
2019-04-14 14:35:21.21: SIM {TimeUS : 47635105, Roll : -0.1, Pitch : -0.09, Yaw : 359.9, Alt : 36.9500007629, Lat : 49.2835704, Lng : -123.1150207, Q1 : 0.999998867512, Q2 : -0.000889965856913, Q3 : -0.000854936079122, Q4 : -0.00083373428788}
2019-04-14 14:35:21.31: SIM {TimeUS : 47735065, Roll : -0.1, Pitch : -0.09, Yaw : 359.9, Alt : 37.1699981689, Lat : 49.2835704, Lng : -123.1150207, Q1 : 0.999998867512, Q2 : -0.000905808061361, Q3 : -0.000865723763127, Q4 : -0.000858253682964}
2019-04-14 14:35:21.41: SIM {TimeUS : 47835025, Roll : -0.08, Pitch : -0.08, Yaw : 359.89, Alt : 37.3899993896, Lat : 49.2835704, Lng : -123.1150207, Q1 : 0.999998986721, Q2 : -0.000781153445132, Q3 : -0.00077513261931, Q4 : -0.000882978725713}
2019-04-14 14:35:21.51: SIM {TimeUS : 47934985, Roll : -0.06, Pitch : -0.06, Yaw : 359.89, Alt : 37.6199989319, Lat : 49.2835704, Lng : -123.1150207, Q1 : 0.999999284744, Q2 : -0.000608748057857, Q3 : -0.000530126679223, Q4 : -0.000908777466975}
2019-04-14 14:35:21.61: SIM {TimeUS : 48034945, Roll : -0.05, Pitch : -0.03, Yaw : 359.89, Alt : 37.8499984741, Lat : 49.2835704, Lng : -123.1150207, Q1 : 0.999999403954, Q2 : -0.000460436596768, Q3 : -0.000330706738168, Q4 : -0.000930301379412}
2019-04-14 14:35:21.71: SIM {TimeUS : 48134905, Roll : -0.05, Pitch : -0.03, Yaw : 359.89, Alt : 38.0699996948, Lat : 49.2835704, Lng : -123.1150207, Q1 : 0.999999403954, Q2 : -0.000510891957674, Q3 : -0.000299177452689, Q4 : -0.000941905775107}
2019-04-14 14:35:21.81: SIM {TimeUS : 48234865, Roll : -0.07, Pitch : -0.02, Yaw : 359.89, Alt : 38.2999992371, Lat : 49.2835704, Lng : -123.1150207, Q1 : 0.999999344349, Q2 : -0.000651366251986, Q3 : -0.000185604993021, Q4 : -0.000947048363741}
2019-04-14 14:35:21.91: SIM {TimeUS : 48334825, Roll : -0.09, Pitch : 0.0, Yaw : 359.89, Alt : 38.5299987793, Lat : 49.2835704, Lng : -123.1150207, Q1 : 0.999999165535, Q2 : -0.000863939407282, Q3 : -5.38103631698e-05, Q4 : -0.000949928187765}
2019-04-14 14:35:22.01: SIM {TimeUS : 48434785, Roll : -0.09, Pitch : 0.0, Yaw : 359.89, Alt : 38.7599983215, Lat : 49.2835704, Lng : -123.1150207, Q1 : 0.999999165535, Q2 : -0.000871579628438, Q3 : 6.53970855637e-05, Q4 : -0.000947648193687}
2019-04-14 14:35:22.11: SIM {TimeUS : 48534745, Roll : -0.07, Pitch : 0.03, Yaw : 359.89, Alt : 38.9799995422, Lat : 49.2835706, Lng : -123.1150207, Q1 : 0.999999284744, Q2 : -0.000669801840559, Q3 : 0.000280280219158, Q4 : -0.000950445013586}
2019-04-14 14:35:22.21: SIM {TimeUS : 48634705, Roll : -0.04, Pitch : 0.03, Yaw : 359.89, Alt : 39.2099990845, Lat : 49.2835706, Lng : -123.1150207, Q1 : 0.999999403954, Q2 : -0.00040140200872, Q3 : 0.00028593809111, Q4 : -0.000955029739998}
2019-04-14 14:35:22.31: SIM {TimeUS : 48734665, Roll : -0.01, Pitch : 0.02, Yaw : 359.88, Alt : 39.4399986267, Lat : 49.2835706, Lng : -123.1150207, Q1 : 0.999999523163, Q2 : -9.15318378247e-05, Q3 : 0.000255479535554, Q4 : -0.000961018435191}
2019-04-14 14:35:22.41: SIM {TimeUS : 48834625, Roll : 0.03, Pitch : 0.04, Yaw : 359.88, Alt : 39.6699981689, Lat : 49.2835706, Lng : -123.1150207, Q1 : 0.999999403954, Q2 : 0.000273095269222, Q3 : 0.00041915444308, Q4 : -0.000966307532508}
2019-04-14 14:35:22.52: SIM {TimeUS : 48935418, Roll : 0.07, Pitch : 0.08, Yaw : 359.88, Alt : 39.9099998474, Lat : 49.2835706, Lng : -123.1150207, Q1 : 0.999999046326, Q2 : 0.000642423925456, Q3 : 0.000705771206412, Q4 : -0.000982359633781}
2019-04-14 14:35:22.61: SIM {TimeUS : 49035378, Roll : 0.1, Pitch : 0.11, Yaw : 359.88, Alt : 40.1399993896, Lat : 49.2835706, Lng : -123.1150207, Q1 : 0.999998569489, Q2 : 0.000910277827643, Q3 : 0.000983222387731, Q4 : -0.00101081340108}
2019-04-14 14:35:22.71: SIM {TimeUS : 49135338, Roll : 0.09, Pitch : 0.14, Yaw : 359.88, Alt : 40.3699989319, Lat : 49.2835706, Lng : -123.1150207, Q1 : 0.99999833107, Q2 : 0.000836110441014, Q3 : 0.001248663757, Q4 : -0.00103537808172}
2019-04-14 14:35:22.81: SIM {TimeUS : 49235298, Roll : 0.04, Pitch : 0.16, Yaw : 359.87, Alt : 40.5999984741, Lat : 49.2835706, Lng : -123.1150207, Q1 : 0.999998271465, Q2 : 0.000414181646192, Q3 : 0.00147810450289, Q4 : -0.00107579957694}
2019-04-14 14:35:22.91: SIM {TimeUS : 49335258, Roll : 0.0, Pitch : 0.18, Yaw : 359.87, Alt : 40.8300018311, Lat : 49.2835706, Lng : -123.1150207, Q1 : 0.999998152256, Q2 : 1.97720237338e-05, Q3 : 0.00158569565974, Q4 : -0.00110959424637}
2019-04-14 14:35:23.01: SIM {TimeUS : 49435218, Roll : -0.02, Pitch : 0.16, Yaw : 359.86, Alt : 41.0699996948, Lat : 49.2835706, Lng : -123.1150207, Q1 : 0.999998271465, Q2 : -0.000233454746194, Q3 : 0.00143647391815, Q4 : -0.00113682390656}
2019-04-14 14:35:23.11: SIM {TimeUS : 49535178, Roll : -0.03, Pitch : 0.14, Yaw : 359.86, Alt : 41.2999992371, Lat : 49.2835706, Lng : -123.1150207, Q1 : 0.999998509884, Q2 : -0.000335978664225, Q3 : 0.00122996675782, Q4 : -0.00117104046512}
2019-04-14 14:35:23.21: SIM {TimeUS : 49635138, Roll : -0.03, Pitch : 0.13, Yaw : 359.86, Alt : 41.5299987793, Lat : 49.2835706, Lng : -123.1150207, Q1 : 0.999998509884, Q2 : -0.000262538000243, Q3 : 0.00119241944049, Q4 : -0.00121607352048}
2019-04-14 14:35:23.31: SIM {TimeUS : 49735098, Roll : 0.0, Pitch : 0.14, Yaw : 359.85, Alt : 41.7700004578, Lat : 49.2835706, Lng : -123.1150207, Q1 : 0.99999833107, Q2 : 5.89202354604e-05, Q3 : 0.00130440562498, Q4 : -0.00126829359215}
2019-04-14 14:35:23.41: SIM {TimeUS : 49835058, Roll : 0.05, Pitch : 0.15, Yaw : 359.84, Alt : 42.0, Lat : 49.2835706, Lng : -123.1150207, Q1 : 0.999998092651, Q2 : 0.000512505706865, Q3 : 0.00134885241278, Q4 : -0.00131762842648}
2019-04-14 14:35:23.51: SIM {TimeUS : 49935018, Roll : 0.09, Pitch : 0.12, Yaw : 359.84, Alt : 42.2299995422, Lat : 49.2835706, Lng : -123.1150207, Q1 : 0.999998152256, Q2 : 0.000862384331413, Q3 : 0.00107179838233, Q4 : -0.00136018311605}
2019-04-14 14:35:23.61: SIM {TimeUS : 50034978, Roll : 0.1, Pitch : 0.07, Yaw : 359.84, Alt : 42.4700012207, Lat : 49.2835706, Lng : -123.1150207, Q1 : 0.999998390675, Q2 : 0.000930643465836, Q3 : 0.000674328708556, Q4 : -0.00139537197538}
2019-04-14 14:35:23.71: SIM {TimeUS : 50134938, Roll : 0.07, Pitch : 0.05, Yaw : 359.83, Alt : 42.7000007629, Lat : 49.2835706, Lng : -123.1150207, Q1 : 0.999998688698, Q2 : 0.000617530546151, Q3 : 0.00045241630869, Q4 : -0.00141654163599}
2019-04-14 14:35:23.81: SIM {TimeUS : 50234898, Roll : 0.01, Pitch : 0.04, Yaw : 359.83, Alt : 42.9399986267, Lat : 49.2835706, Lng : -123.1150207, Q1 : 0.999998867512, Q2 : 0.000124749101815, Q3 : 0.000412505702116, Q4 : -0.00143033731729}
2019-04-14 14:35:23.91: SIM {TimeUS : 50334858, Roll : -0.03, Pitch : 0.07, Yaw : 359.83, Alt : 43.1699981689, Lat : 49.2835704, Lng : -123.1150207, Q1 : 0.999998748302, Q2 : -0.000262760353507, Q3 : 0.000634827883914, Q4 : -0.0014351044083}
2019-04-14 14:35:24.01: SIM {TimeUS : 50434818, Roll : -0.05, Pitch : 0.08, Yaw : 359.83, Alt : 43.4099998474, Lat : 49.2835704, Lng : -123.1150207, Q1 : 0.999998569489, Q2 : -0.00047638991964, Q3 : 0.000776234315708, Q4 : -0.00143598718569}
2019-04-14 14:35:24.11: SIM {TimeUS : 50534778, Roll : -0.05, Pitch : 0.07, Yaw : 359.83, Alt : 43.6399993896, Lat : 49.2835704, Lng : -123.1150207, Q1 : 0.999998629093, Q2 : -0.000466848257929, Q3 : 0.00068640941754, Q4 : -0.00143750163261}
2019-04-14 14:35:24.21: SIM {TimeUS : 50634738, Roll : -0.05, Pitch : 0.06, Yaw : 359.83, Alt : 43.8800010681, Lat : 49.2835704, Lng : -123.1150206, Q1 : 0.999998688698, Q2 : -0.000468359066872, Q3 : 0.00053136551287, Q4 : -0.00144755421206}
2019-04-14 14:35:24.31: SIM {TimeUS : 50734698, Roll : -0.04, Pitch : 0.04, Yaw : 359.83, Alt : 44.1100006104, Lat : 49.2835704, Lng : -123.1150206, Q1 : 0.999998807907, Q2 : -0.000388766289689, Q3 : 0.00037041385076, Q4 : -0.00146238843445}
2019-04-14 14:35:24.41: SIM {TimeUS : 50834658, Roll : -0.02, Pitch : 0.03, Yaw : 359.82, Alt : 44.3499984741, Lat : 49.2835704, Lng : -123.1150206, Q1 : 0.999998807907, Q2 : -0.000202598035685, Q3 : 0.000301857129671, Q4 : -0.00148600304965}
2019-04-14 14:35:24.51: SIM {TimeUS : 50934618, Roll : 0.0, Pitch : 0.03, Yaw : 359.82, Alt : 44.5900001526, Lat : 49.2835704, Lng : -123.1150206, Q1 : 0.999998807907, Q2 : -8.20707136882e-05, Q3 : 0.000284982263111, Q4 : -0.00151217915118}
2019-04-14 14:35:24.61: SIM {TimeUS : 51035411, Roll : -0.01, Pitch : 0.01, Yaw : 359.82, Alt : 44.8199996948, Lat : 49.2835704, Lng : -123.1150206, Q1 : 0.999998807907, Q2 : -0.00012545811478, Q3 : 0.000121102289995, Q4 : -0.00154161453247}
2019-04-14 14:35:24.71: SIM {TimeUS : 51135371, Roll : -0.02, Pitch : -0.02, Yaw : 359.81, Alt : 45.0600013733, Lat : 49.2835704, Lng : -123.1150206, Q1 : 0.999998688698, Q2 : -0.000227648939472, Q3 : -0.00020309422689, Q4 : -0.00157534447499}
2019-04-14 14:35:24.81: SIM {TimeUS : 51235331, Roll : -0.03, Pitch : -0.04, Yaw : 359.81, Alt : 45.2999992371, Lat : 49.2835703, Lng : -123.1150206, Q1 : 0.999998569489, Q2 : -0.000329874746967, Q3 : -0.00042316361214, Q4 : -0.00160954799503}
2019-04-14 14:35:24.91: SIM {TimeUS : 51335291, Roll : -0.03, Pitch : -0.05, Yaw : 359.81, Alt : 45.5299987793, Lat : 49.2835703, Lng : -123.1150206, Q1 : 0.999998450279, Q2 : -0.000343612628058, Q3 : -0.000497623404954, Q4 : -0.00164281972684}
2019-04-14 14:35:25.01: SIM {TimeUS : 51435251, Roll : -0.04, Pitch : -0.05, Yaw : 359.8, Alt : 45.7700004578, Lat : 49.2835703, Lng : -123.1150206, Q1 : 0.999998450279, Q2 : -0.000408557534683, Q3 : -0.000453507585917, Q4 : -0.0016685705632}
2019-04-14 14:35:25.11: SIM {TimeUS : 51535211, Roll : -0.07, Pitch : -0.03, Yaw : 359.8, Alt : 46.0, Lat : 49.2835703, Lng : -123.1150206, Q1 : 0.99999833107, Q2 : -0.000616843928583, Q3 : -0.000318398757372, Q4 : -0.00169363687746}
2019-04-14 14:35:25.21: SIM {TimeUS : 51635171, Roll : -0.1, Pitch : -0.02, Yaw : 359.8, Alt : 46.2299995422, Lat : 49.2835703, Lng : -123.1150206, Q1 : 0.999998092651, Q2 : -0.000901803665329, Q3 : -0.000235917614191, Q4 : -0.0017220719019}
2019-04-14 14:35:25.31: SIM {TimeUS : 51735131, Roll : -0.12, Pitch : -0.02, Yaw : 359.79, Alt : 46.4500007629, Lat : 49.2835703, Lng : -123.1150206, Q1 : 0.999997854233, Q2 : -0.00107525766362, Q3 : -0.000216069922317, Q4 : -0.00175229273736}
2019-04-14 14:35:25.41: SIM {TimeUS : 51835091, Roll : -0.12, Pitch : -0.01, Yaw : 359.79, Alt : 46.6699981689, Lat : 49.2835703, Lng : -123.1150206, Q1 : 0.999997854233, Q2 : -0.00106689264067, Q3 : -0.000129439504235, Q4 : -0.00178396096453}
2019-04-14 14:35:25.51: SIM {TimeUS : 51935051, Roll : -0.1, Pitch : 0.0, Yaw : 359.79, Alt : 46.8800010681, Lat : 49.2835703, Lng : -123.1150206, Q1 : 0.999997913837, Q2 : -0.000933426606935, Q3 : 4.30183463322e-05, Q4 : -0.00181352300569}
2019-04-14 14:35:25.61: SIM {TimeUS : 52035011, Roll : -0.08, Pitch : 0.01, Yaw : 359.78, Alt : 47.0900001526, Lat : 49.2835703, Lng : -123.1150206, Q1 : 0.999998033047, Q2 : -0.000705788843334, Q3 : 0.000127706458443, Q4 : -0.0018418940017}
2019-04-14 14:35:25.71: SIM {TimeUS : 52134971, Roll : -0.06, Pitch : 0.0, Yaw : 359.78, Alt : 47.2900009155, Lat : 49.2835703, Lng : -123.1150206, Q1 : 0.999998092651, Q2 : -0.000526295450982, Q3 : 8.08553086245e-05, Q4 : -0.00186998874415}
2019-04-14 14:35:25.81: SIM {TimeUS : 52234931, Roll : -0.05, Pitch : 0.0, Yaw : 359.78, Alt : 47.4900016785, Lat : 49.2835703, Lng : -123.1150206, Q1 : 0.999998092651, Q2 : -0.000457522284705, Q3 : -5.44744289073e-05, Q4 : -0.00189700641204}
2019-04-14 14:35:25.91: SIM {TimeUS : 52334891, Roll : -0.04, Pitch : -0.03, Yaw : 359.78, Alt : 47.6699981689, Lat : 49.2835703, Lng : -123.1150206, Q1 : 0.999998033047, Q2 : -0.000387863779906, Q3 : -0.000299485574942, Q4 : -0.00191860622726}
2019-04-14 14:35:26.01: SIM {TimeUS : 52434851, Roll : -0.03, Pitch : -0.06, Yaw : 359.77, Alt : 47.8400001526, Lat : 49.2835703, Lng : -123.1150206, Q1 : 0.999997854233, Q2 : -0.000329798756866, Q3 : -0.000588967464864, Q4 : -0.00194184784777}
2019-04-14 14:35:26.11: SIM {TimeUS : 52534811, Roll : -0.03, Pitch : -0.1, Yaw : 359.77, Alt : 48.0, Lat : 49.2835703, Lng : -123.1150206, Q1 : 0.999997675419, Q2 : -0.000287812144961, Q3 : -0.000877102545928, Q4 : -0.00196564849466}
2019-04-14 14:35:26.21: SIM {TimeUS : 52634771, Roll : -0.03, Pitch : -0.12, Yaw : 359.77, Alt : 48.1500015259, Lat : 49.2835703, Lng : -123.1150206, Q1 : 0.999997377396, Q2 : -0.00029955318314, Q3 : -0.00108767033089, Q4 : -0.00198629824445}
2019-04-14 14:35:26.31: SIM {TimeUS : 52734731, Roll : 0.0, Pitch : -0.12, Yaw : 359.77, Alt : 48.2799987793, Lat : 49.2835703, Lng : -123.1150206, Q1 : 0.999997437, Q2 : -6.29679270787e-05, Q3 : -0.00106860999949, Q4 : -0.00200394820422}
2019-04-14 14:35:26.41: SIM {TimeUS : 52834691, Roll : 0.02, Pitch : -0.1, Yaw : 359.76, Alt : 48.4099998474, Lat : 49.2835703, Lng : -123.1150206, Q1 : 0.999997496605, Q2 : 0.000239001688897, Q3 : -0.000922252016608, Q4 : -0.00202353904024}
2019-04-14 14:35:26.51: SIM {TimeUS : 52934651, Roll : 0.05, Pitch : -0.07, Yaw : 359.76, Alt : 48.5200004578, Lat : 49.2835703, Lng : -123.1150206, Q1 : 0.99999755621, Q2 : 0.000479854992591, Q3 : -0.000657876487821, Q4 : -0.0020461876411}
2019-04-14 14:35:26.62: SIM {TimeUS : 53035444, Roll : 0.06, Pitch : -0.04, Yaw : 359.76, Alt : 48.6199989319, Lat : 49.2835703, Lng : -123.1150207, Q1 : 0.999997615814, Q2 : 0.00059030338889, Q3 : -0.000391309440602, Q4 : -0.00207193824463}
2019-04-14 14:35:26.71: SIM {TimeUS : 53135404, Roll : 0.07, Pitch : -0.03, Yaw : 359.75, Alt : 48.7099990845, Lat : 49.2835703, Lng : -123.1150207, Q1 : 0.99999755621, Q2 : 0.000636051874608, Q3 : -0.000271563971182, Q4 : -0.00209977990016}
2019-04-14 14:35:26.81: SIM {TimeUS : 53235364, Roll : 0.06, Pitch : -0.03, Yaw : 359.75, Alt : 48.7799987793, Lat : 49.2835703, Lng : -123.1150207, Q1 : 0.999997496605, Q2 : 0.000572815828491, Q3 : -0.000326233624946, Q4 : -0.00212994636968}
2019-04-14 14:35:26.91: SIM {TimeUS : 53335324, Roll : 0.04, Pitch : -0.03, Yaw : 359.75, Alt : 48.8499984741, Lat : 49.2835703, Lng : -123.1150207, Q1 : 0.99999755621, Q2 : 0.000359217461664, Q3 : -0.00034699466778, Q4 : -0.00215990724973}
2019-04-14 14:35:27.01: SIM {TimeUS : 53435284, Roll : 0.02, Pitch : -0.02, Yaw : 359.74, Alt : 48.9099998474, Lat : 49.2835703, Lng : -123.1150207, Q1 : 0.99999755621, Q2 : 0.00020130770281, Q3 : -0.000257469539065, Q4 : -0.00218470674008}
2019-04-14 14:35:27.11: SIM {TimeUS : 53535244, Roll : 0.01, Pitch : -0.02, Yaw : 359.74, Alt : 48.9599990845, Lat : 49.2835704, Lng : -123.1150207, Q1 : 0.99999755621, Q2 : 0.000116944174806, Q3 : -0.000217451233766, Q4 : -0.00220464169979}
2019-04-14 14:35:27.21: SIM {TimeUS : 53635204, Roll : 0.08, Pitch : -0.03, Yaw : 359.74, Alt : 49.0, Lat : 49.2835704, Lng : -123.1150207, Q1 : 0.999997198582, Q2 : 0.000735772773623, Q3 : -0.000293033575872, Q4 : -0.0022260050755}
2019-04-14 14:35:27.31: SIM {TimeUS : 53735164, Roll : 0.37, Pitch : -0.08, Yaw : 359.74, Alt : 49.0299987793, Lat : 49.2835704, Lng : -123.1150207, Q1 : 0.999991893768, Q2 : 0.00325846881606, Q3 : -0.000770881713834, Q4 : -0.00224324129522}
2019-04-14 14:35:27.41: SIM {TimeUS : 53835124, Roll : 0.93, Pitch : -0.22, Yaw : 359.73, Alt : 49.0699996948, Lat : 49.2835704, Lng : -123.1150207, Q1 : 0.99996227026, Q2 : 0.0081454962492, Q3 : -0.00199864665046, Q4 : -0.00226223794743}
2019-04-14 14:35:27.51: SIM {TimeUS : 53935084, Roll : 1.73, Pitch : -0.47, Yaw : 359.73, Alt : 49.0900001526, Lat : 49.2835704, Lng : -123.1150207, Q1 : 0.999874770641, Q2 : 0.0150972157717, Q3 : -0.00416649272665, Q4 : -0.00227980618365}
2019-04-14 14:35:27.61: SIM {TimeUS : 54035044, Roll : 2.67, Pitch : -0.78, Yaw : 359.72, Alt : 49.1100006104, Lat : 49.2835704, Lng : -123.1150206, Q1 : 0.999702215195, Q2 : 0.0233035311103, Q3 : -0.00687551638111, Q4 : -0.00228370237164}
2019-04-14 14:35:27.71: SIM {TimeUS : 54135004, Roll : 3.65, Pitch : -1.11, Yaw : 359.7, Alt : 49.1300010681, Lat : 49.2835704, Lng : -123.1150205, Q1 : 0.999442398548, Q2 : 0.0318295434117, Q3 : -0.00983069650829, Q4 : -0.00226443470456}
2019-04-14 14:35:27.81: SIM {TimeUS : 54234964, Roll : 4.53, Pitch : -1.41, Yaw : 359.69, Alt : 49.1500015259, Lat : 49.2835706, Lng : -123.1150203, Q1 : 0.999138653278, Q2 : 0.0395207032561, Q3 : -0.0124578224495, Q4 : -0.00220205378719}
2019-04-14 14:35:27.91: SIM {TimeUS : 54334924, Roll : 5.22, Pitch : -1.62, Yaw : 359.68, Alt : 49.1699981689, Lat : 49.2835706, Lng : -123.11502, Q1 : 0.998856306076, Q2 : 0.0455670431256, Q3 : -0.0143306367099, Q4 : -0.00209485692903}
2019-04-14 14:35:28.01: SIM {TimeUS : 54434884, Roll : 5.73, Pitch : -1.77, Yaw : 359.68, Alt : 49.1800003052, Lat : 49.2835707, Lng : -123.1150197, Q1 : 0.998624384403, Q2 : 0.0500069931149, Q3 : -0.0156455077231, Q4 : -0.00197089393623}
2019-04-14 14:35:28.11: SIM {TimeUS : 54534844, Roll : 6.12, Pitch : -1.89, Yaw : 359.68, Alt : 49.1899986267, Lat : 49.2835708, Lng : -123.1150192, Q1 : 0.998433530331, Q2 : 0.0533919669688, Q3 : -0.016625508666, Q4 : -0.00184168317355}
2019-04-14 14:35:28.21: SIM {TimeUS : 54634804, Roll : 6.45, Pitch : -1.98, Yaw : 359.69, Alt : 49.2000007629, Lat : 49.2835709, Lng : -123.1150186, Q1 : 0.99826157093, Q2 : 0.0562807992101, Q3 : -0.0174189899117, Q4 : -0.00170508772135}
2019-04-14 14:35:28.31: SIM {TimeUS : 54734764, Roll : 6.79, Pitch : -2.08, Yaw : 359.69, Alt : 49.2099990845, Lat : 49.283571, Lng : -123.1150179, Q1 : 0.998075604439, Q2 : 0.0592145361006, Q3 : -0.0183392744511, Q4 : -0.00157158018555}
2019-04-14 14:35:28.41: SIM {TimeUS : 54834724, Roll : 7.16, Pitch : -2.21, Yaw : 359.69, Alt : 49.2200012207, Lat : 49.2835712, Lng : -123.1150171, Q1 : 0.997860252857, Q2 : 0.062412712723, Q3 : -0.019429653883, Q4 : -0.00144000689033}
2019-04-14 14:35:28.51: SIM {TimeUS : 54934684, Roll : 7.51, Pitch : -2.31, Yaw : 359.69, Alt : 49.2200012207, Lat : 49.2835714, Lng : -123.1150162, Q1 : 0.997644782066, Q2 : 0.0654926970601, Q3 : -0.0203439593315, Q4 : -0.00128853926435}
2019-04-14 14:35:28.61: SIM {TimeUS : 55034644, Roll : 7.77, Pitch : -2.37, Yaw : 359.7, Alt : 49.2299995422, Lat : 49.2835715, Lng : -123.1150151, Q1 : 0.997484266758, Q2 : 0.0677523091435, Q3 : -0.0208205711097, Q4 : -0.00113526789937}
2019-04-14 14:35:28.72: SIM {TimeUS : 55135437, Roll : 7.94, Pitch : -2.4, Yaw : 359.71, Alt : 49.2400016785, Lat : 49.2835719, Lng : -123.1150139, Q1 : 0.997378885746, Q2 : 0.0691932439804, Q3 : -0.0211341958493, Q4 : -0.00100011471659}
2019-04-14 14:35:28.81: SIM {TimeUS : 55235397, Roll : 8.04, Pitch : -2.44, Yaw : 359.72, Alt : 49.2400016785, Lat : 49.2835721, Lng : -123.1150127, Q1 : 0.997309923172, Q2 : 0.0700842812657, Q3 : -0.0214545503259, Q4 : -0.000911248964258}
2019-04-14 14:35:28.91: SIM {TimeUS : 55335357, Roll : 8.15, Pitch : -2.47, Yaw : 359.72, Alt : 49.25, Lat : 49.2835724, Lng : -123.1150113, Q1 : 0.997237324715, Q2 : 0.0710303485394, Q3 : -0.0217180289328, Q4 : -0.000860446889419}
2019-04-14 14:35:29.01: SIM {TimeUS : 55435317, Roll : 8.32, Pitch : -2.46, Yaw : 359.74, Alt : 49.25, Lat : 49.2835727, Lng : -123.1150098, Q1 : 0.997135162354, Q2 : 0.0724919885397, Q3 : -0.0215842761099, Q4 : -0.000694044108968}
2019-04-14 14:35:29.11: SIM {TimeUS : 55535277, Roll : 8.65, Pitch : -2.25, Yaw : 0.04, Alt : 49.25, Lat : 49.2835729, Lng : -123.1150083, Q1 : 0.996958911419, Q2 : 0.075414121151, Q3 : -0.0195485223085, Q4 : 0.00187915866263}
2019-04-14 14:35:29.21: SIM {TimeUS : 55635237, Roll : 9.16, Pitch : -1.87, Yaw : 1.27, Alt : 49.2599983215, Lat : 49.2835733, Lng : -123.1150066, Q1 : 0.996593475342, Q2 : 0.080068692565, Q3 : -0.0153886955231, Q4 : 0.0123944012448}
2019-04-14 14:35:29.31: SIM {TimeUS : 55735197, Roll : 9.76, Pitch : -1.72, Yaw : 3.97, Alt : 49.2599983215, Lat : 49.2835737, Lng : -123.1150048, Q1 : 0.995616555214, Q2 : 0.0855381935835, Q3 : -0.0120624965057, Q4 : 0.0358527265489}
2019-04-14 14:35:29.41: SIM {TimeUS : 55835157, Roll : 10.24, Pitch : -2.12, Yaw : 8.24, Alt : 49.2599983215, Lat : 49.2835739, Lng : -123.1150029, Q1 : 0.993142902851, Q2 : 0.0903596431017, Q3 : -0.0120011130348, Q4 : 0.073200494051}
2019-04-14 14:35:29.51: SIM {TimeUS : 55935117, Roll : 10.41, Pitch : -3.14, Yaw : 13.88, Alt : 49.2599983215, Lat : 49.2835743, Lng : -123.1150009, Q1 : 0.987894058228, Q2 : 0.0933803096414, Q3 : -0.0161721929908, Q4 : 0.122816473246}
2019-04-14 14:35:29.61: SIM {TimeUS : 56035077, Roll : 10.14, Pitch : -4.71, Yaw : 20.66, Alt : 49.2599983215, Lat : 49.2835745, Lng : -123.1149988, Q1 : 0.978449583054, Q2 : 0.0942339524627, Q3 : -0.0244443938136, Q4 : 0.182095631957}
2019-04-14 14:35:29.71: SIM {TimeUS : 56135037, Roll : 9.35, Pitch : -6.64, Yaw : 28.32, Alt : 49.2700004578, Lat : 49.2835749, Lng : -123.1149965, Q1 : 0.963583409786, Q2 : 0.0930900201201, Q3 : -0.0361222587526, Q4 : 0.248065397143}
2019-04-14 14:35:29.81: SIM {TimeUS : 56234997, Roll : 8.04, Pitch : -8.72, Yaw : 36.63, Alt : 49.2700004578, Lat : 49.2835751, Lng : -123.1149941, Q1 : 0.9425573349, Q2 : 0.090270511806, Q3 : -0.0500010326505, Q4 : 0.317705631256}
2019-04-14 14:35:29.91: SIM {TimeUS : 56334957, Roll : 6.25, Pitch : -10.65, Yaw : 45.36, Alt : 49.2700004578, Lat : 49.2835755, Lng : -123.1149916, Q1 : 0.915327608585, Q2 : 0.0859064534307, Q3 : -0.0646007731557, Q4 : 0.388100802898}
2019-04-14 14:35:30.01: SIM {TimeUS : 56434917, Roll : 4.09, Pitch : -12.23, Yaw : 54.25, Alt : 49.2700004578, Lat : 49.2835758, Lng : -123.114989, Q1 : 0.882609009743, Q2 : 0.0801831111312, Q3 : -0.0785653442144, Q4 : 0.456508040428}
2019-04-14 14:35:30.11: SIM {TimeUS : 56534877, Roll : 1.74, Pitch : -13.32, Yaw : 63.0, Alt : 49.2700004578, Lat : 49.2835762, Lng : -123.1149863, Q1 : 0.845834374428, Q2 : 0.0735341534019, Q3 : -0.0910222902894, Q4 : 0.520453631878}
2019-04-14 14:35:30.21: SIM {TimeUS : 56634837, Roll : -0.8, Pitch : -13.91, Yaw : 71.25, Alt : 49.2799987793, Lat : 49.2835767, Lng : -123.1149834, Q1 : 0.80731266737, Q2 : 0.064880490303, Q3 : -0.102497063577, Q4 : 0.577521562576}
2019-04-14 14:35:30.31: SIM {TimeUS : 56734797, Roll : -3.51, Pitch : -14.02, Yaw : 78.39, Alt : 49.2799987793, Lat : 49.283577, Lng : -123.1149804, Q1 : 0.771191477776, Q2 : 0.053535617888, Q3 : -0.113811694086, Q4 : 0.624054849148}
2019-04-14 14:35:30.41: SIM {TimeUS : 56834757, Roll : -5.92, Pitch : -13.8, Yaw : 83.78, Alt : 49.2799987793, Lat : 49.2835776, Lng : -123.1149773, Q1 : 0.742166876793, Q2 : 0.0419124029577, Q3 : -0.123597554862, Q4 : 0.657385230064}
2019-04-14 14:35:30.51: SIM {TimeUS : 56934717, Roll : -7.6, Pitch : -13.44, Yaw : 87.17, Alt : 49.2799987793, Lat : 49.2835782, Lng : -123.1149741, Q1 : 0.723122537136, Q2 : 0.0327829495072, Q3 : -0.130016088486, Q4 : 0.677580177784}
2019-04-14 14:35:30.61: SIM {TimeUS : 57034677, Roll : -8.33, Pitch : -13.14, Yaw : 88.66, Alt : 49.2799987793, Lat : 49.2835789, Lng : -123.1149708, Q1 : 0.714549124241, Q2 : 0.028150966391, Q3 : -0.132071822882, Q4 : 0.686428487301}
2019-04-14 14:35:30.71: SIM {TimeUS : 57134637, Roll : -8.1, Pitch : -13.05, Yaw : 88.54, Alt : 49.2799987793, Lat : 49.2835798, Lng : -123.1149674, Q1 : 0.71522885561, Q2 : 0.0289051793516, Q3 : -0.130237326026, Q4 : 0.686039626598}
2019-04-14 14:35:30.82: SIM {TimeUS : 57235430, Roll : -7.08, Pitch : -13.26, Yaw : 87.15, Alt : 49.2799987793, Lat : 49.2835806, Lng : -123.1149639, Q1 : 0.723156630993, Q2 : 0.034956716001, Q3 : -0.12582808733, Q4 : 0.678225517273}
2019-04-14 14:35:30.91: SIM {TimeUS : 57335390, Roll : -5.52, Pitch : -13.73, Yaw : 84.85, Alt : 49.2799987793, Lat : 49.2835816, Lng : -123.1149604, Q1 : 0.735863029957, Q2 : 0.0452700741589, Q3 : -0.120389074087, Q4 : 0.664802789688}
2019-04-14 14:35:31.01: SIM {TimeUS : 57435350, Roll : -3.64, Pitch : -14.38, Yaw : 81.96, Alt : 49.2799987793, Lat : 49.2835825, Lng : -123.1149567, Q1 : 0.751205742359, Q2 : 0.0582550317049, Q3 : -0.115187682211, Q4 : 0.647323846817}
2019-04-14 14:35:31.11: SIM {TimeUS : 57535310, Roll : -1.68, Pitch : -15.07, Yaw : 78.77, Alt : 49.2799987793, Lat : 49.2835836, Lng : -123.114953, Q1 : 0.76733648777, Q2 : 0.071938559413, Q3 : -0.110626801848, Q4 : 0.627519965172}
2019-04-14 14:35:31.21: SIM {TimeUS : 57635270, Roll : 0.15, Pitch : -15.62, Yaw : 75.6, Alt : 49.2799987793, Lat : 49.2835846, Lng : -123.1149492, Q1 : 0.782686531544, Q2 : 0.0844075530767, Q3 : -0.10658506304, Q4 : 0.607385218143}
2019-04-14 14:35:31.31: SIM {TimeUS : 57735230, Roll : 1.71, Pitch : -15.96, Yaw : 72.77, Alt : 49.2799987793, Lat : 49.2835855, Lng : -123.1149452, Q1 : 0.795905709267, Q2 : 0.0943030267954, Q3 : -0.102948136628, Q4 : 0.589103400707}
2019-04-14 14:35:31.41: SIM {TimeUS : 57835190, Roll : 2.88, Pitch : -16.07, Yaw : 70.55, Alt : 49.2799987793, Lat : 49.2835865, Lng : -123.1149411, Q1 : 0.806066572666, Q2 : 0.101040743291, Q3 : -0.0997330099344, Q4 : 0.574544012547}
2019-04-14 14:35:31.51: SIM {TimeUS : 57935150, Roll : 3.57, Pitch : -16.05, Yaw : 69.09, Alt : 49.2799987793, Lat : 49.2835874, Lng : -123.1149369, Q1 : 0.812734127045, Q2 : 0.104601666331, Q3 : -0.0974572822452, Q4 : 0.564821958542}
2019-04-14 14:35:31.61: SIM {TimeUS : 58035110, Roll : 3.78, Pitch : -15.99, Yaw : 68.41, Alt : 49.2799987793, Lat : 49.2835884, Lng : -123.1149326, Q1 : 0.815906763077, Q2 : 0.105241268873, Q3 : -0.0966141819954, Q4 : 0.560255467892}
2019-04-14 14:35:31.71: SIM {TimeUS : 58135070, Roll : 3.54, Pitch : -15.96, Yaw : 68.47, Alt : 49.2900009155, Lat : 49.2835892, Lng : -123.1149282, Q1 : 0.815888285637, Q2 : 0.103437148035, Q3 : -0.0975147262216, Q4 : 0.560462296009}
2019-04-14 14:35:31.81: SIM {TimeUS : 58235030, Roll : 2.96, Pitch : -15.97, Yaw : 69.12, Alt : 49.2900009155, Lat : 49.2835902, Lng : -123.1149237, Q1 : 0.81318795681, Q2 : 0.0999220758677, Q3 : -0.0998956784606, Q4 : 0.56458991766}
2019-04-14 14:35:31.91: SIM {TimeUS : 58334990, Roll : 2.17, Pitch : -16.04, Yaw : 70.2, Alt : 49.2900009155, Lat : 49.283591, Lng : -123.1149191, Q1 : 0.808458209038, Q2 : 0.0956118926406, Q3 : -0.103368908167, Q4 : 0.571461796761}
2019-04-14 14:35:32.01: SIM {TimeUS : 58434950, Roll : 1.27, Pitch : -16.15, Yaw : 71.51, Alt : 49.2900009155, Lat : 49.283592, Lng : -123.1149144, Q1 : 0.802491903305, Q2 : 0.0910307019949, Q3 : -0.107591554523, Q4 : 0.579779446125}
2019-04-14 14:35:32.11: SIM {TimeUS : 58534910, Roll : 0.4, Pitch : -16.28, Yaw : 72.87, Alt : 49.2900009155, Lat : 49.2835928, Lng : -123.1149097, Q1 : 0.796075284481, Q2 : 0.0869212895632, Q3 : -0.111897476017, Q4 : 0.588377296925}
2019-04-14 14:35:32.21: SIM {TimeUS : 58634870, Roll : -0.33, Pitch : -16.39, Yaw : 74.14, Alt : 49.2900009155, Lat : 49.2835938, Lng : -123.1149048, Q1 : 0.789995253086, Q2 : 0.0835867077112, Q3 : -0.115506745875, Q4 : 0.596304416656}
2019-04-14 14:35:32.31: SIM {TimeUS : 58734830, Roll : -0.91, Pitch : -16.45, Yaw : 75.18, Alt : 49.2900009155, Lat : 49.2835946, Lng : -123.1148999, Q1 : 0.78490126133, Q2 : 0.0810736566782, Q3 : -0.11820755899, Q4 : 0.60281342268}
2019-04-14 14:35:32.41: SIM {TimeUS : 58834790, Roll : -1.29, Pitch : -16.51, Yaw : 75.92, Alt : 49.2900009155, Lat : 49.2835956, Lng : -123.114895, Q1 : 0.781210005283, Q2 : 0.0794983282685, Q3 : -0.120078079402, Q4 : 0.607430875301}
2019-04-14 14:35:32.51: SIM {TimeUS : 58934750, Roll : -1.47, Pitch : -16.55, Yaw : 76.33, Alt : 49.2900009155, Lat : 49.2835965, Lng : -123.11489, Q1 : 0.779104053974, Q2 : 0.0789187401533, Q3 : -0.121080264449, Q4 : 0.610006809235}
2019-04-14 14:35:32.61: SIM {TimeUS : 59034710, Roll : -1.46, Pitch : -16.6, Yaw : 76.43, Alt : 49.2900009155, Lat : 49.2835975, Lng : -123.1148849, Q1 : 0.778541386127, Q2 : 0.0793482586741, Q3 : -0.121290870011, Q4 : 0.610627293587}
2019-04-14 14:35:32.71: SIM {TimeUS : 59134670, Roll : -1.3, Pitch : -16.64, Yaw : 76.25, Alt : 49.2900009155, Lat : 49.2835984, Lng : -123.1148798, Q1 : 0.779335319996, Q2 : 0.0804756656289, Q3 : -0.120783679187, Q4 : 0.609566628933}
2019-04-14 14:35:32.81: SIM {TimeUS : 59234630, Roll : -1.02, Pitch : -16.67, Yaw : 75.86, Alt : 49.2900009155, Lat : 49.2835995, Lng : -123.1148747, Q1 : 0.781143307686, Q2 : 0.082185395062, Q3 : -0.119776852429, Q4 : 0.607218444347}
2019-04-14 14:35:32.92: SIM {TimeUS : 59335423, Roll : -0.66, Pitch : -16.71, Yaw : 75.34, Alt : 49.2900009155, Lat : 49.2836006, Lng : -123.1148694, Q1 : 0.783595860004, Q2 : 0.0842713713646, Q3 : -0.118530809879, Q4 : 0.604008555412}
2019-04-14 14:35:33.01: SIM {TimeUS : 59435383, Roll : -0.29, Pitch : -16.74, Yaw : 74.77, Alt : 49.2900009155, Lat : 49.2836016, Lng : -123.1148642, Q1 : 0.786278307438, Q2 : 0.0864058360457, Q3 : -0.117225363851, Q4 : 0.600465416908}
2019-04-14 14:35:33.11: SIM {TimeUS : 59535343, Roll : 0.05, Pitch : -16.77, Yaw : 74.22, Alt : 49.2900009155, Lat : 49.2836025, Lng : -123.1148588, Q1 : 0.788867533207, Q2 : 0.0884267911315, Q3 : -0.116010122001, Q4 : 0.597001135349}
2019-04-14 14:35:33.21: SIM {TimeUS : 59635303, Roll : 0.35, Pitch : -16.81, Yaw : 73.74, Alt : 49.2900009155, Lat : 49.2836037, Lng : -123.1148535, Q1 : 0.791094660759, Q2 : 0.0901806205511, Q3 : -0.1150893718, Q4 : 0.593962192535}
2019-04-14 14:35:33.31: SIM {TimeUS : 59735263, Roll : 0.56, Pitch : -16.84, Yaw : 73.37, Alt : 49.2900009155, Lat : 49.2836047, Lng : -123.1148481, Q1 : 0.792811274529, Q2 : 0.0914039537311, Q3 : -0.114531844854, Q4 : 0.591589450836}
2019-04-14 14:35:33.41: SIM {TimeUS : 59835223, Roll : 0.67, Pitch : -16.87, Yaw : 73.13, Alt : 49.2900009155, Lat : 49.2836057, Lng : -123.1148427, Q1 : 0.793928146362, Q2 : 0.0921403244138, Q3 : -0.11436213553, Q4 : 0.59000813961}
2019-04-14 14:35:33.51: SIM {TimeUS : 59935183, Roll : 0.7, Pitch : -16.91, Yaw : 73.02, Alt : 49.2999992371, Lat : 49.2836068, Lng : -123.1148373, Q1 : 0.794440686703, Q2 : 0.0923787429929, Q3 : -0.114623449743, Q4 : 0.58922970295}
2019-04-14 14:35:33.61: SIM {TimeUS : 60035143, Roll : 0.63, Pitch : -16.96, Yaw : 73.03, Alt : 49.2999992371, Lat : 49.2836079, Lng : -123.1148317, Q1 : 0.794394135475, Q2 : 0.0921855270863, Q3 : -0.115229196846, Q4 : 0.589204609394}
2019-04-14 14:35:33.71: SIM {TimeUS : 60135103, Roll : 0.5, Pitch : -16.99, Yaw : 73.14, Alt : 49.2999992371, Lat : 49.2836089, Lng : -123.1148262, Q1 : 0.793913245201, Q2 : 0.0915391147137, Q3 : -0.116121642292, Q4 : 0.589778065681}
2019-04-14 14:35:33.81: SIM {TimeUS : 60235063, Roll : 0.32, Pitch : -17.01, Yaw : 73.31, Alt : 49.2999992371, Lat : 49.2836098, Lng : -123.1148205, Q1 : 0.793138206005, Q2 : 0.0905721709132, Q3 : -0.117058306932, Q4 : 0.590784072876}
2019-04-14 14:35:33.91: SIM {TimeUS : 60335023, Roll : 0.13, Pitch : -17.04, Yaw : 73.52, Alt : 49.2999992371, Lat : 49.283611, Lng : -123.114815, Q1 : 0.792183220387, Q2 : 0.0896322876215, Q3 : -0.118077874184, Q4 : 0.592004597187}
2019-04-14 14:35:34.01: SIM {TimeUS : 60434983, Roll : -0.01, Pitch : -17.09, Yaw : 73.73, Alt : 49.2999992371, Lat : 49.283612, Lng : -123.1148093, Q1 : 0.7911683321, Q2 : 0.0890272781253, Q3 : -0.118962816894, Q4 : 0.593274533749}
2019-04-14 14:35:34.11: SIM {TimeUS : 60534943, Roll : -0.12, Pitch : -17.13, Yaw : 73.91, Alt : 49.2999992371, Lat : 49.283613, Lng : -123.1148037, Q1 : 0.79023963213, Q2 : 0.0886984393001, Q3 : -0.119692392647, Q4 : 0.594413757324}
2019-04-14 14:35:34.21: SIM {TimeUS : 60634903, Roll : -0.19, Pitch : -17.18, Yaw : 74.06, Alt : 49.2999992371, Lat : 49.2836141, Lng : -123.114798, Q1 : 0.789484262466, Q2 : 0.0886574313045, Q3 : -0.120305776596, Q4 : 0.595299065113}
2019-04-14 14:35:34.31: SIM {TimeUS : 60734863, Roll : -0.21, Pitch : -17.23, Yaw : 74.15, Alt : 49.2999992371, Lat : 49.2836152, Lng : -123.1147922, Q1 : 0.788975298405, Q2 : 0.0888570770621, Q3 : -0.120673038065, Q4 : 0.595869421959}
2019-04-14 14:35:34.41: SIM {TimeUS : 60834823, Roll : -0.22, Pitch : -17.26, Yaw : 74.19, Alt : 49.2999992371, Lat : 49.2836163, Lng : -123.1147865, Q1 : 0.788756608963, Q2 : 0.0890105366707, Q3 : -0.120866812766, Q4 : 0.596096754074}
2019-04-14 14:35:34.51: SIM {TimeUS : 60934783, Roll : -0.21, Pitch : -17.27, Yaw : 74.17, Alt : 49.3100013733, Lat : 49.2836174, Lng : -123.1147807, Q1 : 0.788817107677, Q2 : 0.0891075581312, Q3 : -0.120915725827, Q4 : 0.595992326736}
2019-04-14 14:35:34.61: SIM {TimeUS : 61034743, Roll : -0.19, Pitch : -17.28, Yaw : 74.11, Alt : 49.3100013733, Lat : 49.2836184, Lng : -123.1147749, Q1 : 0.789094686508, Q2 : 0.0892351493239, Q3 : -0.120924584568, Q4 : 0.595603823662}
2019-04-14 14:35:34.71: SIM {TimeUS : 61134703, Roll : -0.14, Pitch : -17.29, Yaw : 74.03, Alt : 49.3100013733, Lat : 49.2836195, Lng : -123.1147691, Q1 : 0.789510905743, Q2 : 0.0895232856274, Q3 : -0.120774514973, Q4 : 0.595039248466}
2019-04-14 14:35:34.81: SIM {TimeUS : 61234663, Roll : -0.06, Pitch : -17.29, Yaw : 73.92, Alt : 49.3100013733, Lat : 49.2836207, Lng : -123.1147632, Q1 : 0.790002942085, Q2 : 0.0899461731315, Q3 : -0.12052731216, Q4 : 0.594372153282}
2019-04-14 14:35:34.91: SIM {TimeUS : 61334623, Roll : 0.02, Pitch : -17.32, Yaw : 73.81, Alt : 49.3100013733, Lat : 49.2836218, Lng : -123.1147573, Q1 : 0.790483534336, Q2 : 0.0906315147877, Q3 : -0.120312802494, Q4 : 0.593672156334}
2019-04-14 14:35:35.02: SIM {TimeUS : 61435416, Roll : 0.11, Pitch : -17.38, Yaw : 73.7, Alt : 49.3100013733, Lat : 49.2836229, Lng : -123.1147514, Q1 : 0.790921151638, Q2 : 0.0914048925042, Q3 : -0.120345935225, Q4 : 0.592963516712}
2019-04-14 14:35:35.11: SIM {TimeUS : 61535376, Roll : 0.16, Pitch : -17.41, Yaw : 73.6, Alt : 49.3100013733, Lat : 49.2836241, Lng : -123.1147455, Q1 : 0.791326582432, Q2 : 0.09185308218, Q3 : -0.120377860963, Q4 : 0.592346608639}
2019-04-14 14:35:35.21: SIM {TimeUS : 61635336, Roll : 0.19, Pitch : -17.42, Yaw : 73.53, Alt : 49.3100013733, Lat : 49.2836251, Lng : -123.1147396, Q1 : 0.791666567326, Q2 : 0.0920306146145, Q3 : -0.12034586072, Q4 : 0.591871023178}
2019-04-14 14:35:35.31: SIM {TimeUS : 61735296, Roll : 0.19, Pitch : -17.43, Yaw : 73.48, Alt : 49.3100013733, Lat : 49.2836262, Lng : -123.1147336, Q1 : 0.791905999184, Q2 : 0.0920685902238, Q3 : -0.120453797281, Q4 : 0.591522753239}
2019-04-14 14:35:35.41: SIM {TimeUS : 61835256, Roll : 0.18, Pitch : -17.46, Yaw : 73.45, Alt : 49.3100013733, Lat : 49.2836274, Lng : -123.1147277, Q1 : 0.792028486729, Q2 : 0.092110812664, Q3 : -0.120723560452, Q4 : 0.591297209263}
2019-04-14 14:35:35.51: SIM {TimeUS : 61935216, Roll : 0.17, Pitch : -17.49, Yaw : 73.44, Alt : 49.3100013733, Lat : 49.2836286, Lng : -123.1147217, Q1 : 0.792056620121, Q2 : 0.0921701788902, Q3 : -0.120964698493, Q4 : 0.591200888157}
2019-04-14 14:35:35.61: SIM {TimeUS : 62035176, Roll : 0.16, Pitch : -17.52, Yaw : 73.45, Alt : 49.3100013733, Lat : 49.2836297, Lng : -123.1147157, Q1 : 0.792021512985, Q2 : 0.0922229066491, Q3 : -0.121273621917, Q4 : 0.591176390648}
2019-04-14 14:35:35.71: SIM {TimeUS : 62135136, Roll : 0.14, Pitch : -17.54, Yaw : 73.46, Alt : 49.3199996948, Lat : 49.2836308, Lng : -123.1147097, Q1 : 0.79194611311, Q2 : 0.0922382995486, Q3 : -0.121509887278, Q4 : 0.591226458549}
2019-04-14 14:35:35.81: SIM {TimeUS : 62235096, Roll : 0.13, Pitch : -17.56, Yaw : 73.48, Alt : 49.3199996948, Lat : 49.283632, Lng : -123.1147036, Q1 : 0.791832923889, Q2 : 0.0922820270061, Q3 : -0.121686726809, Q4 : 0.591334879398}
2019-04-14 14:35:35.91: SIM {TimeUS : 62335056, Roll : 0.11, Pitch : -17.58, Yaw : 73.5, Alt : 49.3199996948, Lat : 49.283633, Lng : -123.1146976, Q1 : 0.791724741459, Q2 : 0.0922511816025, Q3 : -0.121842779219, Q4 : 0.591452479362}
2019-04-14 14:35:36.01: SIM {TimeUS : 62435016, Roll : 0.1, Pitch : -17.59, Yaw : 73.52, Alt : 49.3199996948, Lat : 49.2836341, Lng : -123.1146915, Q1 : 0.791619360447, Q2 : 0.0922564715147, Q3 : -0.121999710798, Q4 : 0.59156036377}
2019-04-14 14:35:36.11: SIM {TimeUS : 62534976, Roll : 0.1, Pitch : -17.61, Yaw : 73.53, Alt : 49.3199996948, Lat : 49.2836353, Lng : -123.1146854, Q1 : 0.79153573513, Q2 : 0.092359252274, Q3 : -0.122120246291, Q4 : 0.591631352901}
2019-04-14 14:35:36.21: SIM {TimeUS : 62634936, Roll : 0.09, Pitch : -17.64, Yaw : 73.53, Alt : 49.3199996948, Lat : 49.2836365, Lng : -123.1146793, Q1 : 0.791495203972, Q2 : 0.0924716889858, Q3 : -0.122340872884, Q4 : 0.5916223526}
2019-04-14 14:35:36.31: SIM {TimeUS : 62734896, Roll : 0.07, Pitch : -17.68, Yaw : 73.53, Alt : 49.3199996948, Lat : 49.2836377, Lng : -123.1146732, Q1 : 0.791508078575, Q2 : 0.0924952626228, Q3 : -0.122763946652, Q4 : 0.591513872147}
2019-04-14 14:35:36.41: SIM {TimeUS : 62834856, Roll : 0.05, Pitch : -17.72, Yaw : 73.51, Alt : 49.3199996948, Lat : 49.2836389, Lng : -123.1146671, Q1 : 0.791550993919, Q2 : 0.0925978347659, Q3 : -0.123168610036, Q4 : 0.591356277466}
2019-04-14 14:35:36.51: SIM {TimeUS : 62934816, Roll : 0.06, Pitch : -17.75, Yaw : 73.49, Alt : 49.3199996948, Lat : 49.28364, Lng : -123.114661, Q1 : 0.791616559029, Q2 : 0.0928376913071, Q3 : -0.123327173293, Q4 : 0.59119784832}
2019-04-14 14:35:36.61: SIM {TimeUS : 63034776, Roll : 0.09, Pitch : -17.75, Yaw : 73.46, Alt : 49.3199996948, Lat : 49.2836412, Lng : -123.1146548, Q1 : 0.791731715202, Q2 : 0.0929987579584, Q3 : -0.123198181391, Q4 : 0.59104514122}
2019-04-14 14:35:36.71: SIM {TimeUS : 63134736, Roll : 0.12, Pitch : -17.72, Yaw : 73.43, Alt : 49.3199996948, Lat : 49.2836422, Lng : -123.1146487, Q1 : 0.791890203953, Q2 : 0.0930187851191, Q3 : -0.122868552804, Q4 : 0.590898275375}
2019-04-14 14:35:36.81: SIM {TimeUS : 63234696, Roll : 0.13, Pitch : -17.71, Yaw : 73.41, Alt : 49.3199996948, Lat : 49.2836434, Lng : -123.1146424, Q1 : 0.792050600052, Q2 : 0.0929662138224, Q3 : -0.12277097255, Q4 : 0.590711772442}
2019-04-14 14:35:36.91: SIM {TimeUS : 63334656, Roll : 0.13, Pitch : -17.71, Yaw : 73.38, Alt : 49.3199996948, Lat : 49.2836446, Lng : -123.1146363, Q1 : 0.792203187943, Q2 : 0.0929329618812, Q3 : -0.122771382332, Q4 : 0.590512275696}
2019-04-14 14:35:37.01: SIM {TimeUS : 63434616, Roll : 0.13, Pitch : -17.71, Yaw : 73.35, Alt : 49.3199996948, Lat : 49.2836458, Lng : -123.1146301, Q1 : 0.792347729206, Q2 : 0.0928829163313, Q3 : -0.122791513801, Q4 : 0.590322077274}
2019-04-14 14:35:37.11: SIM {TimeUS : 63535409, Roll : 0.12, Pitch : -17.72, Yaw : 73.32, Alt : 49.3199996948, Lat : 49.2836469, Lng : -123.1146238, Q1 : 0.792460560799, Q2 : 0.0929166153073, Q3 : -0.12294908613, Q4 : 0.590132415295}
2019-04-14 14:35:37.21: SIM {TimeUS : 63635369, Roll : 0.13, Pitch : -17.75, Yaw : 73.3, Alt : 49.3199996948, Lat : 49.2836481, Lng : -123.1146176, Q1 : 0.792549371719, Q2 : 0.093055523932, Q3 : -0.123083651066, Q4 : 0.589963197708}
2019-04-14 14:35:37.31: SIM {TimeUS : 63735329, Roll : 0.13, Pitch : -17.79, Yaw : 73.28, Alt : 49.3300018311, Lat : 49.2836493, Lng : -123.1146114, Q1 : 0.792608261108, Q2 : 0.0932475477457, Q3 : -0.12338911742, Q4 : 0.589789927006}
2019-04-14 14:35:37.41: SIM {TimeUS : 63835289, Roll : 0.13, Pitch : -17.84, Yaw : 73.26, Alt : 49.3300018311, Lat : 49.2836505, Lng : -123.1146051, Q1 : 0.792644202709, Q2 : 0.0934663042426, Q3 : -0.123761229217, Q4 : 0.58962905407}
2019-04-14 14:35:37.51: SIM {TimeUS : 63935249, Roll : 0.13, Pitch : -17.87, Yaw : 73.25, Alt : 49.3300018311, Lat : 49.2836518, Lng : -123.1145989, Q1 : 0.792681932449, Q2 : 0.0935810953379, Q3 : -0.123989462852, Q4 : 0.589512169361}
2019-04-14 14:35:37.61: SIM {TimeUS : 64035209, Roll : 0.12, Pitch : -17.89, Yaw : 73.24, Alt : 49.3300018311, Lat : 49.2836529, Lng : -123.1145926, Q1 : 0.7927095294, Q2 : 0.0936766117811, Q3 : -0.124211102724, Q4 : 0.589413225651}
2019-04-14 14:35:37.71: SIM {TimeUS : 64135169, Roll : 0.12, Pitch : -17.91, Yaw : 73.23, Alt : 49.3300018311, Lat : 49.2836541, Lng : -123.1145864, Q1 : 0.792739868164, Q2 : 0.0937203019857, Q3 : -0.12435413152, Q4 : 0.589335262775}
2019-04-14 14:35:37.81: SIM {TimeUS : 64235129, Roll : 0.13, Pitch : -17.9, Yaw : 73.22, Alt : 49.3300018311, Lat : 49.2836553, Lng : -123.1145801, Q1 : 0.792770683765, Q2 : 0.0937733873725, Q3 : -0.124245926738, Q4 : 0.589308202267}
2019-04-14 14:35:37.91: SIM {TimeUS : 64335089, Roll : 0.15, Pitch : -17.91, Yaw : 73.22, Alt : 49.3300018311, Lat : 49.2836565, Lng : -123.1145737, Q1 : 0.792770087719, Q2 : 0.0939859449863, Q3 : -0.124186985195, Q4 : 0.58928757906}
2019-04-14 14:35:38.01: SIM {TimeUS : 64435049, Roll : 0.16, Pitch : -17.93, Yaw : 73.21, Alt : 49.3300018311, Lat : 49.2836577, Lng : -123.1145675, Q1 : 0.792770504951, Q2 : 0.0941407680511, Q3 : -0.124295175076, Q4 : 0.589239478111}
2019-04-14 14:35:38.11: SIM {TimeUS : 64535009, Roll : 0.17, Pitch : -17.95, Yaw : 73.21, Alt : 49.3300018311, Lat : 49.2836589, Lng : -123.1145612, Q1 : 0.792781949043, Q2 : 0.0942368581891, Q3 : -0.124373041093, Q4 : 0.589192271233}
2019-04-14 14:35:38.21: SIM {TimeUS : 64634969, Roll : 0.17, Pitch : -17.95, Yaw : 73.2, Alt : 49.3300018311, Lat : 49.2836601, Lng : -123.1145548, Q1 : 0.792817592621, Q2 : 0.0942459106445, Q3 : -0.124365642667, Q4 : 0.589144408703}
2019-04-14 14:35:38.31: SIM {TimeUS : 64734929, Roll : 0.17, Pitch : -17.95, Yaw : 73.19, Alt : 49.3300018311, Lat : 49.2836613, Lng : -123.1145486, Q1 : 0.792868554592, Q2 : 0.094203710556, Q3 : -0.124388970435, Q4 : 0.589077651501}
2019-04-14 14:35:38.41: SIM {TimeUS : 64834889, Roll : 0.14, Pitch : -17.97, Yaw : 73.18, Alt : 49.3300018311, Lat : 49.2836625, Lng : -123.1145423, Q1 : 0.792924165726, Q2 : 0.0941130071878, Q3 : -0.124659441411, Q4 : 0.588960111141}
2019-04-14 14:35:38.51: SIM {TimeUS : 64934849, Roll : 0.1, Pitch : -18.0, Yaw : 73.17, Alt : 49.3300018311, Lat : 49.2836637, Lng : -123.1145359, Q1 : 0.792980611324, Q2 : 0.0940258055925, Q3 : -0.125123411417, Q4 : 0.588799655437}
2019-04-14 14:35:38.61: SIM {TimeUS : 65034809, Roll : 0.09, Pitch : -18.01, Yaw : 73.15, Alt : 49.3300018311, Lat : 49.2836649, Lng : -123.1145296, Q1 : 0.79305690527, Q2 : 0.0939579904079, Q3 : -0.125275507569, Q4 : 0.588675379753}
2019-04-14 14:35:38.71: SIM {TimeUS : 65134769, Roll : 0.1, Pitch : -17.99, Yaw : 73.14, Alt : 49.3300018311, Lat : 49.2836661, Lng : -123.1145232, Q1 : 0.793145656586, Q2 : 0.0939451828599, Q3 : -0.12507404387, Q4 : 0.588600695133}
2019-04-14 14:35:38.81: SIM {TimeUS : 65234729, Roll : 0.13, Pitch : -17.98, Yaw : 73.12, Alt : 49.3400001526, Lat : 49.2836673, Lng : -123.1145169, Q1 : 0.793222784996, Q2 : 0.0940297245979, Q3 : -0.124831058085, Q4 : 0.588534772396}
2019-04-14 14:35:38.91: SIM {TimeUS : 65334689, Roll : 0.15, Pitch : -17.98, Yaw : 73.1, Alt : 49.3400001526, Lat : 49.2836685, Lng : -123.1145105, Q1 : 0.793284416199, Q2 : 0.0941792204976, Q3 : -0.124768979847, Q4 : 0.58844101429}
2019-04-14 14:35:39.01: SIM {TimeUS : 65434649, Roll : 0.15, Pitch : -18.0, Yaw : 73.09, Alt : 49.3400001526, Lat : 49.2836698, Lng : -123.1145041, Q1 : 0.793347477913, Q2 : 0.0942259654403, Q3 : -0.124929636717, Q4 : 0.588314414024}
2019-04-14 14:35:39.12: SIM {TimeUS : 65535442, Roll : 0.12, Pitch : -18.02, Yaw : 73.08, Alt : 49.3400001526, Lat : 49.283671, Lng : -123.1144977, Q1 : 0.793411850929, Q2 : 0.0941697061062, Q3 : -0.12522777915, Q4 : 0.588173210621}
2019-04-14 14:35:39.21: SIM {TimeUS : 65635402, Roll : 0.11, Pitch : -18.04, Yaw : 73.06, Alt : 49.3400001526, Lat : 49.2836722, Lng : -123.1144913, Q1 : 0.793468236923, Q2 : 0.0941626504064, Q3 : -0.125446394086, Q4 : 0.58805167675}
2019-04-14 14:35:39.31: SIM {TimeUS : 65735362, Roll : 0.11, Pitch : -18.06, Yaw : 73.05, Alt : 49.3400001526, Lat : 49.2836734, Lng : -123.1144849, Q1 : 0.793515384197, Q2 : 0.0942697450519, Q3 : -0.125574499369, Q4 : 0.58794349432}
2019-04-14 14:35:39.41: SIM {TimeUS : 65835322, Roll : 0.13, Pitch : -18.08, Yaw : 73.04, Alt : 49.3400001526, Lat : 49.2836746, Lng : -123.1144786, Q1 : 0.793551802635, Q2 : 0.0944380313158, Q3 : -0.125611618161, Q4 : 0.587859451771}
2019-04-14 14:35:39.51: SIM {TimeUS : 65935282, Roll : 0.15, Pitch : -18.08, Yaw : 73.03, Alt : 49.3400001526, Lat : 49.2836759, Lng : -123.1144722, Q1 : 0.793573439121, Q2 : 0.0946277454495, Q3 : -0.12553435564, Q4 : 0.587816238403}
2019-04-14 14:35:39.61: SIM {TimeUS : 66035242, Roll : 0.17, Pitch : -18.1, Yaw : 73.02, Alt : 49.3400001526, Lat : 49.2836771, Lng : -123.1144658, Q1 : 0.793580889702, Q2 : 0.0947953611612, Q3 : -0.125546276569, Q4 : 0.587776660919}
2019-04-14 14:35:39.71: SIM {TimeUS : 66135202, Roll : 0.18, Pitch : -18.11, Yaw : 73.01, Alt : 49.3400001526, Lat : 49.2836783, Lng : -123.1144594, Q1 : 0.793581843376, Q2 : 0.0949779599905, Q3 : -0.125572815537, Q4 : 0.587740182877}
2019-04-14 14:35:39.81: SIM {TimeUS : 66235162, Roll : 0.2, Pitch : -18.13, Yaw : 73.01, Alt : 49.3400001526, Lat : 49.2836795, Lng : -123.114453, Q1 : 0.793577313423, Q2 : 0.095159381628, Q3 : -0.125597581267, Q4 : 0.587711691856}
2019-04-14 14:35:39.91: SIM {TimeUS : 66335122, Roll : 0.23, Pitch : -18.14, Yaw : 73.0, Alt : 49.3400001526, Lat : 49.2836808, Lng : -123.1144466, Q1 : 0.793560802937, Q2 : 0.0954085811973, Q3 : -0.125535786152, Q4 : 0.587706804276}
2019-04-14 14:35:40.01: SIM {TimeUS : 66435082, Roll : 0.25, Pitch : -18.15, Yaw : 73.0, Alt : 49.3499984741, Lat : 49.283682, Lng : -123.1144402, Q1 : 0.793541610241, Q2 : 0.0956514552236, Q3 : -0.125494778156, Q4 : 0.587701976299}
