2019-04-14 14:49:00.40: SIM {TimeUS : 40616247, Roll : 0.0, Pitch : 0.0, Yaw : 0.0, Alt : 30.1000003815, Lat : 49.28357, Lng : -123.11502, Q1 : 1.0, Q2 : 0.0, Q3 : 0.0, Q4 : 0.0}
2019-04-14 14:49:00.51: SIM {TimeUS : 40735366, Roll : 0.0, Pitch : 0.0, Yaw : 0.0, Alt : 30.1000003815, Lat : 49.28357, Lng : -123.11502, Q1 : 1.0, Q2 : 0.0, Q3 : 0.0, Q4 : 0.0}
2019-04-14 14:49:00.61: SIM {TimeUS : 40835326, Roll : 0.0, Pitch : 0.0, Yaw : 0.0, Alt : 30.1000003815, Lat : 49.28357, Lng : -123.11502, Q1 : 1.0, Q2 : 0.0, Q3 : 0.0, Q4 : 0.0}
2019-04-14 14:49:00.71: SIM {TimeUS : 40935286, Roll : 0.0, Pitch : 0.0, Yaw : 0.0, Alt : 30.1000003815, Lat : 49.28357, Lng : -123.11502, Q1 : 1.0, Q2 : 0.0, Q3 : 0.0, Q4 : 0.0}
2019-04-14 14:49:00.81: SIM {TimeUS : 41035246, Roll : 0.0, Pitch : 0.0, Yaw : 0.0, Alt : 30.1000003815, Lat : 49.28357, Lng : -123.11502, Q1 : 1.0, Q2 : 0.0, Q3 : 0.0, Q4 : 0.0}
2019-04-14 14:49:00.91: SIM {TimeUS : 41135206, Roll : 0.0, Pitch : 0.0, Yaw : 0.0, Alt : 30.1000003815, Lat : 49.28357, Lng : -123.11502, Q1 : 1.0, Q2 : 0.0, Q3 : 0.0, Q4 : 0.0}
2019-04-14 14:49:01.01: SIM {TimeUS : 41235166, Roll : 0.0, Pitch : 0.0, Yaw : 0.0, Alt : 30.1000003815, Lat : 49.28357, Lng : -123.11502, Q1 : 1.0, Q2 : 0.0, Q3 : 0.0, Q4 : 0.0}
2019-04-14 14:49:01.11: SIM {TimeUS : 41335126, Roll : 0.0, Pitch : 0.0, Yaw : 0.0, Alt : 30.1000003815, Lat : 49.28357, Lng : -123.11502, Q1 : 1.0, Q2 : 0.0, Q3 : 0.0, Q4 : 0.0}
2019-04-14 14:49:01.21: SIM {TimeUS : 41435086, Roll : 0.0, Pitch : 0.0, Yaw : 0.0, Alt : 30.1000003815, Lat : 49.28357, Lng : -123.11502, Q1 : 1.0, Q2 : 0.0, Q3 : 0.0, Q4 : 0.0}
2019-04-14 14:49:01.31: SIM {TimeUS : 41535046, Roll : 0.0, Pitch : 0.0, Yaw : 0.0, Alt : 30.1000003815, Lat : 49.28357, Lng : -123.11502, Q1 : 1.0, Q2 : 0.0, Q3 : 0.0, Q4 : 0.0}
2019-04-14 14:49:01.41: SIM {TimeUS : 41635006, Roll : 0.0, Pitch : 0.0, Yaw : 0.0, Alt : 30.1000003815, Lat : 49.28357, Lng : -123.11502, Q1 : 1.0, Q2 : 0.0, Q3 : 0.0, Q4 : 0.0}
2019-04-14 14:49:01.51: SIM {TimeUS : 41734966, Roll : 0.0, Pitch : 0.0, Yaw : 0.0, Alt : 30.1000003815, Lat : 49.28357, Lng : -123.11502, Q1 : 1.0, Q2 : 0.0, Q3 : 0.0, Q4 : 0.0}
2019-04-14 14:49:01.61: SIM {TimeUS : 41834926, Roll : 0.0, Pitch : 0.0, Yaw : 0.0, Alt : 30.1000003815, Lat : 49.28357, Lng : -123.11502, Q1 : 1.0, Q2 : 0.0, Q3 : 0.0, Q4 : 0.0}
2019-04-14 14:49:01.71: SIM {TimeUS : 41934886, Roll : 0.0, Pitch : 0.0, Yaw : 0.0, Alt : 30.1000003815, Lat : 49.28357, Lng : -123.11502, Q1 : 1.0, Q2 : 0.0, Q3 : 0.0, Q4 : 0.0}
2019-04-14 14:49:01.81: SIM {TimeUS : 42034846, Roll : 0.0, Pitch : 0.0, Yaw : 0.0, Alt : 30.1000003815, Lat : 49.28357, Lng : -123.11502, Q1 : 1.0, Q2 : 0.0, Q3 : 0.0, Q4 : 0.0}
2019-04-14 14:49:01.91: SIM {TimeUS : 42134806, Roll : 0.0, Pitch : 0.0, Yaw : 0.0, Alt : 30.1000003815, Lat : 49.28357, Lng : -123.11502, Q1 : 1.0, Q2 : 0.0, Q3 : 0.0, Q4 : 0.0}
2019-04-14 14:49:02.01: SIM {TimeUS : 42234766, Roll : 0.0, Pitch : 0.0, Yaw : 0.0, Alt : 30.1000003815, Lat : 49.28357, Lng : -123.11502, Q1 : 1.0, Q2 : 0.0, Q3 : 0.0, Q4 : 0.0}
2019-04-14 14:49:02.11: SIM {TimeUS : 42334726, Roll : 0.0, Pitch : 0.0, Yaw : 0.0, Alt : 30.1000003815, Lat : 49.28357, Lng : -123.11502, Q1 : 1.0, Q2 : 0.0, Q3 : 0.0, Q4 : 0.0}
2019-04-14 14:49:02.21: SIM {TimeUS : 42434686, Roll : 0.0, Pitch : 0.0, Yaw : 0.0, Alt : 30.1000003815, Lat : 49.28357, Lng : -123.11502, Q1 : 1.0, Q2 : 0.0, Q3 : 0.0, Q4 : 0.0}
2019-04-14 14:49:02.31: SIM {TimeUS : 42534646, Roll : 0.0, Pitch : 0.0, Yaw : 0.0, Alt : 30.1000003815, Lat : 49.28357, Lng : -123.11502, Q1 : 1.0, Q2 : 0.0, Q3 : 0.0, Q4 : 0.0}
2019-04-14 14:49:02.41: SIM {TimeUS : 42634606, Roll : 0.0, Pitch : 0.0, Yaw : 0.0, Alt : 30.1000003815, Lat : 49.28357, Lng : -123.11502, Q1 : 1.0, Q2 : 0.0, Q3 : 0.0, Q4 : 0.0}
2019-04-14 14:49:02.51: SIM {TimeUS : 42735399, Roll : 0.0, Pitch : 0.0, Yaw : 0.0, Alt : 30.1000003815, Lat : 49.28357, Lng : -123.11502, Q1 : 1.0, Q2 : 0.0, Q3 : 0.0, Q4 : 0.0}
2019-04-14 14:49:02.61: SIM {TimeUS : 42835359, Roll : 0.0, Pitch : 0.0, Yaw : 0.0, Alt : 30.1000003815, Lat : 49.28357, Lng : -123.11502, Q1 : 1.0, Q2 : 0.0, Q3 : 0.0, Q4 : 0.0}
2019-04-14 14:49:02.71: SIM {TimeUS : 42935319, Roll : 0.0, Pitch : 0.0, Yaw : 360.0, Alt : 30.1000003815, Lat : 49.28357, Lng : -123.11502, Q1 : 1.0, Q2 : 0.0, Q3 : 0.0, Q4 : -7.5309836492e-12}
2019-04-14 14:49:02.81: SIM {TimeUS : 43035279, Roll : 0.0, Pitch : 0.0, Yaw : 360.0, Alt : 30.1000003815, Lat : 49.28357, Lng : -123.11502, Q1 : 1.0, Q2 : 0.0, Q3 : 0.0, Q4 : -2.42403680462e-10}
2019-04-14 14:49:02.91: SIM {TimeUS : 43135239, Roll : 0.0, Pitch : 0.0, Yaw : 359.99, Alt : 30.1000003815, Lat : 49.28357, Lng : -123.11502, Q1 : 1.0, Q2 : 0.0, Q3 : 0.0, Q4 : -1.93951706251e-07}
2019-04-14 14:49:03.01: SIM {TimeUS : 43235199, Roll : 0.0, Pitch : 0.0, Yaw : 359.99, Alt : 30.1000003815, Lat : 49.28357, Lng : -123.11502, Q1 : 1.0, Q2 : 0.0, Q3 : 0.0, Q4 : -3.79188577426e-07}
2019-04-14 14:49:03.11: SIM {TimeUS : 43335159, Roll : 0.0, Pitch : 0.0, Yaw : 359.99, Alt : 30.1000003815, Lat : 49.28357, Lng : -123.11502, Q1 : 1.0, Q2 : 0.0, Q3 : 0.0, Q4 : -5.3160886182e-07}
2019-04-14 14:49:03.21: SIM {TimeUS : 43435119, Roll : 0.0, Pitch : 0.0, Yaw : 359.99, Alt : 30.1000003815, Lat : 49.28357, Lng : -123.11502, Q1 : 1.0, Q2 : 0.0, Q3 : 0.0, Q4 : -7.45616318909e-07}
2019-04-14 14:49:03.31: SIM {TimeUS : 43535079, Roll : 0.0, Pitch : 0.0, Yaw : 359.99, Alt : 30.1000003815, Lat : 49.28357, Lng : -123.11502, Q1 : 1.0, Q2 : 0.0, Q3 : 0.0, Q4 : -9.50853404902e-07}
2019-04-14 14:49:03.41: SIM {TimeUS : 43635039, Roll : 0.0, Pitch : 0.0, Yaw : 359.99, Alt : 30.1000003815, Lat : 49.28357, Lng : -123.11502, Q1 : 1.0, Q2 : 0.0, Q3 : 0.0, Q4 : -1.18529510473e-06}
2019-04-14 14:49:03.51: SIM {TimeUS : 43734999, Roll : 0.0, Pitch : 0.0, Yaw : 359.99, Alt : 30.1000003815, Lat : 49.28357, Lng : -123.11502, Q1 : 1.0, Q2 : 0.0, Q3 : 0.0, Q4 : -1.34904109927e-06}
2019-04-14 14:49:03.61: SIM {TimeUS : 43834959, Roll : 0.0, Pitch : 0.0, Yaw : 359.99, Alt : 30.1200008392, Lat : 49.28357, Lng : -123.11502, Q1 : 1.0, Q2 : 0.0, Q3 : 0.0, Q4 : -1.53312657858e-06}
2019-04-14 14:49:03.71: SIM {TimeUS : 43934919, Roll : 0.0, Pitch : 0.0, Yaw : 359.99, Alt : 30.1399993896, Lat : 49.28357, Lng : -123.11502, Q1 : 1.0, Q2 : 0.0, Q3 : 0.0, Q4 : -1.71677504568e-06}
2019-04-14 14:49:03.81: SIM {TimeUS : 44034879, Roll : 0.0, Pitch : 0.0, Yaw : 359.99, Alt : 30.1700000763, Lat : 49.28357, Lng : -123.11502, Q1 : 1.0, Q2 : 0.0, Q3 : 0.0, Q4 : -1.95758480004e-06}
2019-04-14 14:49:03.91: SIM {TimeUS : 44134839, Roll : 0.0, Pitch : 0.0, Yaw : 359.99, Alt : 30.2000007629, Lat : 49.28357, Lng : -123.11502, Q1 : 1.0, Q2 : 0.0, Q3 : 0.0, Q4 : -2.2199014893e-06}
2019-04-14 14:49:04.01: SIM {TimeUS : 44234799, Roll : -0.1, Pitch : -0.08, Yaw : 359.99, Alt : 30.25, Lat : 49.28357, Lng : -123.11502, Q1 : 0.999999284744, Q2 : -0.000899863487575, Q3 : -0.000785192358308, Q4 : -1.14870063044e-05}
2019-04-14 14:49:04.11: SIM {TimeUS : 44334759, Roll : -0.4, Pitch : -0.35, Yaw : 359.99, Alt : 30.3500003815, Lat : 49.28357, Lng : -123.11502, Q1 : 0.99998909235, Q2 : -0.00352893280797, Q3 : -0.00305799092166, Q4 : -4.88558216603e-05}
2019-04-14 14:49:04.21: SIM {TimeUS : 44434719, Roll : -0.67, Pitch : -0.62, Yaw : 359.99, Alt : 30.4899997711, Lat : 49.28357, Lng : -123.11502, Q1 : 0.999967873096, Q2 : -0.00590646220371, Q3 : -0.00542582571507, Q4 : -0.000111595036287}
2019-04-14 14:49:04.31: SIM {TimeUS : 44534679, Roll : -0.81, Pitch : -0.76, Yaw : 359.98, Alt : 30.6499996185, Lat : 49.28357, Lng : -123.11502, Q1 : 0.999951958656, Q2 : -0.00713539961725, Q3 : -0.00671773543581, Q4 : -0.00018878436822}
2019-04-14 14:49:04.41: SIM {TimeUS : 44634639, Roll : -0.82, Pitch : -0.76, Yaw : 359.97, Alt : 30.8099994659, Lat : 49.28357, Lng : -123.11502, Q1 : 0.999952018261, Q2 : -0.00717285694554, Q3 : -0.00666683772579, Q4 : -0.000274637306575}
2019-04-14 14:49:04.51: SIM {TimeUS : 44734599, Roll : -0.69, Pitch : -0.63, Yaw : 359.96, Alt : 30.9599990845, Lat : 49.28357, Lng : -123.1150201, Q1 : 0.999965906143, Q2 : -0.00607862602919, Q3 : -0.00557298306376, Q4 : -0.000355068419594}
2019-04-14 14:49:04.61: SIM {TimeUS : 44835392, Roll : -0.48, Pitch : -0.44, Yaw : 359.95, Alt : 31.1200008392, Lat : 49.2835701, Lng : -123.1150202, Q1 : 0.999983370304, Q2 : -0.00424447609112, Q3 : -0.00388129823841, Q4 : -0.000418401468778}
2019-04-14 14:49:04.71: SIM {TimeUS : 44935352, Roll : -0.25, Pitch : -0.23, Yaw : 359.94, Alt : 31.2800006866, Lat : 49.2835701, Lng : -123.1150203, Q1 : 0.999995172024, Q2 : -0.00224865810014, Q3 : -0.00208367430605, Q4 : -0.000467654230306}
2019-04-14 14:49:04.81: SIM {TimeUS : 45035312, Roll : -0.06, Pitch : -0.07, Yaw : 359.94, Alt : 31.4400005341, Lat : 49.2835702, Lng : -123.1150203, Q1 : 0.999999523163, Q2 : -0.000558621657547, Q3 : -0.000663718848955, Q4 : -0.000502670300193}
2019-04-14 14:49:04.91: SIM {TimeUS : 45135272, Roll : 0.06, Pitch : 0.02, Yaw : 359.94, Alt : 31.6200008392, Lat : 49.2835702, Lng : -123.1150204, Q1 : 0.999999642372, Q2 : 0.000557897321414, Q3 : 0.000200394788408, Q4 : -0.000523731519934}
2019-04-14 14:49:05.01: SIM {TimeUS : 45235232, Roll : 0.11, Pitch : 0.06, Yaw : 359.93, Alt : 31.7999992371, Lat : 49.2835703, Lng : -123.1150205, Q1 : 0.999999165535, Q2 : 0.00102237181272, Q3 : 0.00060152693186, Q4 : -0.000540723558515}
2019-04-14 14:49:05.11: SIM {TimeUS : 45335192, Roll : 0.1, Pitch : 0.09, Yaw : 359.93, Alt : 31.9799995422, Lat : 49.2835703, Lng : -123.1150205, Q1 : 0.99999910593, Q2 : 0.000921108236071, Q3 : 0.000791158294305, Q4 : -0.000551441800781}
2019-04-14 14:49:05.21: SIM {TimeUS : 45435152, Roll : 0.07, Pitch : 0.1, Yaw : 359.93, Alt : 32.1699981689, Lat : 49.2835703, Lng : -123.1150206, Q1 : 0.99999922514, Q2 : 0.000612849369645, Q3 : 0.000926808803342, Q4 : -0.000543335278053}
2019-04-14 14:49:05.31: SIM {TimeUS : 45535112, Roll : 0.05, Pitch : 0.12, Yaw : 359.94, Alt : 32.3600006104, Lat : 49.2835703, Lng : -123.1150207, Q1 : 0.999999165535, Q2 : 0.000488387420774, Q3 : 0.00107775104698, Q4 : -0.000517576991115}
2019-04-14 14:49:05.41: SIM {TimeUS : 45635072, Roll : 0.06, Pitch : 0.13, Yaw : 359.94, Alt : 32.5499992371, Lat : 49.2835703, Lng : -123.1150207, Q1 : 0.99999910593, Q2 : 0.000571738637518, Q3 : 0.00113581737969, Q4 : -0.00049423816381}
2019-04-14 14:49:05.51: SIM {TimeUS : 45735032, Roll : 0.07, Pitch : 0.13, Yaw : 359.94, Alt : 32.7400016785, Lat : 49.2835703, Lng : -123.1150207, Q1 : 0.999998927116, Q2 : 0.000668203807436, Q3 : 0.00120396364946, Q4 : -0.000473121035611}
2019-04-14 14:49:05.61: SIM {TimeUS : 45834992, Roll : 0.09, Pitch : 0.16, Yaw : 359.94, Alt : 32.9399986267, Lat : 49.2835704, Lng : -123.1150208, Q1 : 0.999998569489, Q2 : 0.000789678480942, Q3 : 0.00139866548125, Q4 : -0.000462889729533}
2019-04-14 14:49:05.71: SIM {TimeUS : 45934952, Roll : 0.11, Pitch : 0.16, Yaw : 359.94, Alt : 33.1399993896, Lat : 49.2835704, Lng : -123.1150208, Q1 : 0.999998390675, Q2 : 0.00101203564554, Q3 : 0.001418971573, Q4 : -0.000455935049104}
2019-04-14 14:49:05.81: SIM {TimeUS : 46034912, Roll : 0.14, Pitch : 0.14, Yaw : 359.94, Alt : 33.3499984741, Lat : 49.2835704, Lng : -123.1150208, Q1 : 0.999998271465, Q2 : 0.00129922619089, Q3 : 0.0012384231668, Q4 : -0.000443413853645}
2019-04-14 14:49:05.91: SIM {TimeUS : 46134872, Roll : 0.16, Pitch : 0.13, Yaw : 359.95, Alt : 33.5499992371, Lat : 49.2835704, Lng : -123.1150208, Q1 : 0.999998152256, Q2 : 0.00147898041178, Q3 : 0.00113825674634, Q4 : -0.000434029090684}
2019-04-14 14:49:06.01: SIM {TimeUS : 46234832, Roll : 0.17, Pitch : 0.12, Yaw : 359.94, Alt : 33.7599983215, Lat : 49.2835704, Lng : -123.1150208, Q1 : 0.999998033047, Q2 : 0.00155470881145, Q3 : 0.00113139150199, Q4 : -0.000440218835138}
2019-04-14 14:49:06.11: SIM {TimeUS : 46334792, Roll : 0.18, Pitch : 0.14, Yaw : 359.94, Alt : 33.9700012207, Lat : 49.2835704, Lng : -123.1150209, Q1 : 0.999997794628, Q2 : 0.00164008955471, Q3 : 0.00122814986389, Q4 : -0.000456637266325}
2019-04-14 14:49:06.21: SIM {TimeUS : 46434752, Roll : 0.18, Pitch : 0.12, Yaw : 359.94, Alt : 34.1800003052, Lat : 49.2835704, Lng : -123.1150209, Q1 : 0.999998033047, Q2 : 0.00158088433091, Q3 : 0.00110692041926, Q4 : -0.000478047761135}
2019-04-14 14:49:06.31: SIM {TimeUS : 46534712, Roll : 0.15, Pitch : 0.11, Yaw : 359.94, Alt : 34.3899993896, Lat : 49.2835704, Lng : -123.1150208, Q1 : 0.999998450279, Q2 : 0.0013808242511, Q3 : 0.000963884056546, Q4 : -0.000496867520269}
2019-04-14 14:49:06.41: SIM {TimeUS : 46634672, Roll : 0.12, Pitch : 0.09, Yaw : 359.93, Alt : 34.6100006104, Lat : 49.2835704, Lng : -123.1150208, Q1 : 0.999998927116, Q2 : 0.00107957841828, Q3 : 0.00084812939167, Q4 : -0.000525635434315}
2019-04-14 14:49:06.51: SIM {TimeUS : 46734632, Roll : 0.08, Pitch : 0.08, Yaw : 359.93, Alt : 34.8199996948, Lat : 49.2835704, Lng : -123.1150208, Q1 : 0.999999284744, Q2 : 0.000767409277614, Q3 : 0.000746452074964, Q4 : -0.000551722885575}
2019-04-14 14:49:06.61: SIM {TimeUS : 46834592, Roll : 0.06, Pitch : 0.05, Yaw : 359.93, Alt : 35.0299987793, Lat : 49.2835704, Lng : -123.1150208, Q1 : 0.999999523163, Q2 : 0.000596044643316, Q3 : 0.000443664524937, Q4 : -0.000578607723583}
2019-04-14 14:49:06.71: SIM {TimeUS : 46935385, Roll : 0.05, Pitch : 0.01, Yaw : 359.92, Alt : 35.25, Lat : 49.2835704, Lng : -123.1150208, Q1 : 0.999999701977, Q2 : 0.000482477858895, Q3 : 0.000161453950568, Q4 : -0.000611165945884}
2019-04-14 14:49:06.81: SIM {TimeUS : 47035345, Roll : 0.03, Pitch : 0.0, Yaw : 359.92, Alt : 35.4700012207, Lat : 49.2835704, Lng : -123.1150208, Q1 : 0.999999761581, Q2 : 0.000312616350129, Q3 : 1.83211668627e-05, Q4 : -0.000645148626063}
2019-04-14 14:49:06.91: SIM {TimeUS : 47135305, Roll : 0.02, Pitch : 0.0, Yaw : 359.92, Alt : 35.6899986267, Lat : 49.2835704, Lng : -123.1150208, Q1 : 0.999999761581, Q2 : 0.000238714652369, Q3 : 5.77411674385e-06, Q4 : -0.000673748843838}
2019-04-14 14:49:07.01: SIM {TimeUS : 47235265, Roll : 0.03, Pitch : 0.0, Yaw : 359.91, Alt : 35.9099998474, Lat : 49.2835704, Lng : -123.1150207, Q1 : 0.999999761581, Q2 : 0.000263708585408, Q3 : 3.8456171751e-05, Q4 : -0.000701873213984}
2019-04-14 14:49:07.11: SIM {TimeUS : 47335225, Roll : 0.01, Pitch : -0.01, Yaw : 359.91, Alt : 36.1300010681, Lat : 49.2835704, Lng : -123.1150207, Q1 : 0.999999701977, Q2 : 9.19426674955e-05, Q3 : -0.000132597764605, Q4 : -0.000729381805286}
2019-04-14 14:49:07.21: SIM {TimeUS : 47435185, Roll : -0.02, Pitch : -0.04, Yaw : 359.91, Alt : 36.3499984741, Lat : 49.2835704, Lng : -123.1150207, Q1 : 0.999999582767, Q2 : -0.000231681202422, Q3 : -0.000433846842498, Q4 : -0.000754772685468}
2019-04-14 14:49:07.31: SIM {TimeUS : 47535145, Roll : -0.06, Pitch : -0.06, Yaw : 359.91, Alt : 36.5699996948, Lat : 49.2835704, Lng : -123.1150207, Q1 : 0.999999344349, Q2 : -0.000569590425584, Q3 : -0.000607287336607, Q4 : -0.000775041815359}
2019-04-14 14:49:07.41: SIM {TimeUS : 47635105, Roll : -0.09, Pitch : -0.08, Yaw : 359.9, Alt : 36.7999992371, Lat : 49.2835704, Lng : -123.1150207, Q1 : 0.999999046326, Q2 : -0.000869897135999, Q3 : -0.000736289075576, Q4 : -0.000795851636212}
2019-04-14 14:49:07.51: SIM {TimeUS : 47735065, Roll : -0.1, Pitch : -0.08, Yaw : 359.9, Alt : 37.0200004578, Lat : 49.2835704, Lng : -123.1150207, Q1 : 0.999998986721, Q2 : -0.000886695052031, Q3 : -0.000741037190892, Q4 : -0.000821525929496}
2019-04-14 14:49:07.61: SIM {TimeUS : 47835025, Roll : -0.08, Pitch : -0.07, Yaw : 359.9, Alt : 37.2400016785, Lat : 49.2835704, Lng : -123.1150207, Q1 : 0.99999910593, Q2 : -0.000783349270932, Q3 : -0.000658722710796, Q4 : -0.000848793133628}
2019-04-14 14:49:07.71: SIM {TimeUS : 47934985, Roll : -0.07, Pitch : -0.05, Yaw : 359.89, Alt : 37.4700012207, Lat : 49.2835704, Lng : -123.1150206, Q1 : 0.999999284744, Q2 : -0.000634671305306, Q3 : -0.000462016731035, Q4 : -0.000874927034602}
2019-04-14 14:49:07.81: SIM {TimeUS : 48034945, Roll : -0.05, Pitch : -0.03, Yaw : 359.89, Alt : 37.6899986267, Lat : 49.2835704, Lng : -123.1150206, Q1 : 0.999999403954, Q2 : -0.000478010595543, Q3 : -0.000326466193656, Q4 : -0.000895024917554}
2019-04-14 14:49:07.91: SIM {TimeUS : 48134905, Roll : -0.05, Pitch : -0.03, Yaw : 359.89, Alt : 37.9199981689, Lat : 49.2835704, Lng : -123.1150206, Q1 : 0.999999403954, Q2 : -0.000516739382874, Q3 : -0.000318576960126, Q4 : -0.000911577895749}
2019-04-14 14:49:08.01: SIM {TimeUS : 48234865, Roll : -0.07, Pitch : -0.02, Yaw : 359.89, Alt : 38.1500015259, Lat : 49.2835704, Lng : -123.1150206, Q1 : 0.999999344349, Q2 : -0.00063530477928, Q3 : -0.000212812796235, Q4 : -0.000919436803088}
2019-04-14 14:49:08.11: SIM {TimeUS : 48334825, Roll : -0.09, Pitch : 0.0, Yaw : 359.89, Alt : 38.3800010681, Lat : 49.2835704, Lng : -123.1150206, Q1 : 0.99999922514, Q2 : -0.000851562537719, Q3 : -7.87793542258e-05, Q4 : -0.000925130443648}
2019-04-14 14:49:08.21: SIM {TimeUS : 48434785, Roll : -0.1, Pitch : 0.0, Yaw : 359.89, Alt : 38.5999984741, Lat : 49.2835704, Lng : -123.1150206, Q1 : 0.999999165535, Q2 : -0.000914951204322, Q3 : 4.19821953983e-05, Q4 : -0.000928622903302}
2019-04-14 14:49:08.31: SIM {TimeUS : 48534745, Roll : -0.08, Pitch : 0.03, Yaw : 359.89, Alt : 38.8300018311, Lat : 49.2835704, Lng : -123.1150206, Q1 : 0.99999922514, Q2 : -0.000741148134694, Q3 : 0.000263500260189, Q4 : -0.000940874160733}
2019-04-14 14:49:08.41: SIM {TimeUS : 48634705, Roll : -0.06, Pitch : 0.02, Yaw : 359.89, Alt : 39.0600013733, Lat : 49.2835706, Lng : -123.1150206, Q1 : 0.999999403954, Q2 : -0.00052987516392, Q3 : 0.000232999183936, Q4 : -0.000951310503297}
2019-04-14 14:49:08.51: SIM {TimeUS : 48734665, Roll : -0.03, Pitch : 0.01, Yaw : 359.88, Alt : 39.2900009155, Lat : 49.2835706, Lng : -123.1150206, Q1 : 0.999999463558, Q2 : -0.000281722779619, Q3 : 0.000148194623762, Q4 : -0.000961701152846}
2019-04-14 14:49:08.61: SIM {TimeUS : 48834625, Roll : 0.0, Pitch : 0.03, Yaw : 359.88, Alt : 39.5200004578, Lat : 49.2835706, Lng : -123.1150207, Q1 : 0.999999463558, Q2 : 3.87652034988e-05, Q3 : 0.000287101051072, Q4 : -0.000973952235654}
2019-04-14 14:49:08.71: SIM {TimeUS : 48934585, Roll : 0.04, Pitch : 0.06, Yaw : 359.88, Alt : 39.75, Lat : 49.2835706, Lng : -123.1150207, Q1 : 0.999999284744, Q2 : 0.000375692237867, Q3 : 0.000574985693675, Q4 : -0.000995153095573}
2019-04-14 14:49:08.81: SIM {TimeUS : 49035378, Roll : 0.07, Pitch : 0.09, Yaw : 359.88, Alt : 39.9799995422, Lat : 49.2835706, Lng : -123.1150207, Q1 : 0.999998927116, Q2 : 0.00064027030021, Q3 : 0.000843870802782, Q4 : -0.00102401047479}
2019-04-14 14:49:08.91: SIM {TimeUS : 49135338, Roll : 0.06, Pitch : 0.12, Yaw : 359.87, Alt : 40.2099990845, Lat : 49.2835706, Lng : -123.1150207, Q1 : 0.999998688698, Q2 : 0.000562156550586, Q3 : 0.00107321236283, Q4 : -0.00105472514406}
2019-04-14 14:49:09.01: SIM {TimeUS : 49235298, Roll : 0.01, Pitch : 0.14, Yaw : 359.87, Alt : 40.4500007629, Lat : 49.2835706, Lng : -123.1150207, Q1 : 0.999998569489, Q2 : 0.000155261237524, Q3 : 0.00127493101172, Q4 : -0.00110159476753}
2019-04-14 14:49:09.11: SIM {TimeUS : 49335258, Roll : -0.02, Pitch : 0.15, Yaw : 359.86, Alt : 40.6800003052, Lat : 49.2835706, Lng : -123.1150207, Q1 : 0.999998450279, Q2 : -0.000209998252103, Q3 : 0.00135537190363, Q4 : -0.00114091055002}
2019-04-14 14:49:09.21: SIM {TimeUS : 49435218, Roll : -0.04, Pitch : 0.13, Yaw : 359.86, Alt : 40.9099998474, Lat : 49.2835706, Lng : -123.1150207, Q1 : 0.999998509884, Q2 : -0.000390166125726, Q3 : 0.00121267861687, Q4 : -0.00116768444423}
2019-04-14 14:49:09.31: SIM {TimeUS : 49535178, Roll : -0.04, Pitch : 0.12, Yaw : 359.86, Alt : 41.1399993896, Lat : 49.2835706, Lng : -123.1150207, Q1 : 0.999998629093, Q2 : -0.000413461850258, Q3 : 0.00105006294325, Q4 : -0.00119509466458}
2019-04-14 14:49:09.41: SIM {TimeUS : 49635138, Roll : -0.03, Pitch : 0.12, Yaw : 359.85, Alt : 41.3800010681, Lat : 49.2835706, Lng : -123.1150207, Q1 : 0.999998629093, Q2 : -0.000282584136585, Q3 : 0.00106544618029, Q4 : -0.0012273718603}
2019-04-14 14:49:09.51: SIM {TimeUS : 49735098, Roll : 0.0, Pitch : 0.14, Yaw : 359.85, Alt : 41.6100006104, Lat : 49.2835706, Lng : -123.1150207, Q1 : 0.999998390675, Q2 : 8.03724688012e-05, Q3 : 0.00125685124658, Q4 : -0.00126376503613}
2019-04-14 14:49:09.61: SIM {TimeUS : 49835058, Roll : 0.06, Pitch : 0.15, Yaw : 359.85, Alt : 41.8400001526, Lat : 49.2835706, Lng : -123.1150207, Q1 : 0.999998092651, Q2 : 0.000536441802979, Q3 : 0.00137128378265, Q4 : -0.00130179047119}
2019-04-14 14:49:09.71: SIM {TimeUS : 49935018, Roll : 0.1, Pitch : 0.12, Yaw : 359.84, Alt : 42.0800018311, Lat : 49.2835706, Lng : -123.1150207, Q1 : 0.999998092651, Q2 : 0.000875077967066, Q3 : 0.00112516968511, Q4 : -0.00133649096824}
2019-04-14 14:49:09.81: SIM {TimeUS : 50034978, Roll : 0.1, Pitch : 0.08, Yaw : 359.84, Alt : 42.3100013733, Lat : 49.2835706, Lng : -123.1150207, Q1 : 0.999998390675, Q2 : 0.00090799422469, Q3 : 0.000744459626731, Q4 : -0.0013655127259}
2019-04-14 14:49:09.91: SIM {TimeUS : 50134938, Roll : 0.06, Pitch : 0.05, Yaw : 359.84, Alt : 42.5499992371, Lat : 49.2835706, Lng : -123.1150207, Q1 : 0.999998748302, Q2 : 0.000599996128585, Q3 : 0.000467896694317, Q4 : -0.00138248561416}
2019-04-14 14:49:10.01: SIM {TimeUS : 50234898, Roll : 0.01, Pitch : 0.04, Yaw : 359.84, Alt : 42.7799987793, Lat : 49.2835706, Lng : -123.1150207, Q1 : 0.999998986721, Q2 : 0.000113490299555, Q3 : 0.000367892440408, Q4 : -0.00138854444958}
2019-04-14 14:49:10.11: SIM {TimeUS : 50334858, Roll : -0.02, Pitch : 0.06, Yaw : 359.84, Alt : 43.0200004578, Lat : 49.2835706, Lng : -123.1150207, Q1 : 0.999998867512, Q2 : -0.000229683006182, Q3 : 0.000540082517546, Q4 : -0.00138556945603}
2019-04-14 14:49:10.21: SIM {TimeUS : 50434818, Roll : -0.04, Pitch : 0.07, Yaw : 359.84, Alt : 43.25, Lat : 49.2835704, Lng : -123.1150207, Q1 : 0.999998748302, Q2 : -0.000406447885325, Q3 : 0.000680438242853, Q4 : -0.00138092029374}
2019-04-14 14:49:10.31: SIM {TimeUS : 50534778, Roll : -0.04, Pitch : 0.07, Yaw : 359.84, Alt : 43.4900016785, Lat : 49.2835704, Lng : -123.1150207, Q1 : 0.999998748302, Q2 : -0.00042207952356, Q3 : 0.000648702844046, Q4 : -0.001379844849}
2019-04-14 14:49:10.41: SIM {TimeUS : 50634738, Roll : -0.05, Pitch : 0.05, Yaw : 359.84, Alt : 43.7200012207, Lat : 49.2835704, Lng : -123.1150207, Q1 : 0.999998807907, Q2 : -0.000472711602924, Q3 : 0.000503217161167, Q4 : -0.0013856808655}
2019-04-14 14:49:10.51: SIM {TimeUS : 50734698, Roll : -0.04, Pitch : 0.04, Yaw : 359.83, Alt : 43.9599990845, Lat : 49.2835704, Lng : -123.1150207, Q1 : 0.999998867512, Q2 : -0.000423949502874, Q3 : 0.00036456703674, Q4 : -0.00140038086101}
2019-04-14 14:49:10.61: SIM {TimeUS : 50834658, Roll : -0.03, Pitch : 0.03, Yaw : 359.83, Alt : 44.1899986267, Lat : 49.2835704, Lng : -123.1150207, Q1 : 0.999998927116, Q2 : -0.000270686403383, Q3 : 0.000310207047733, Q4 : -0.00142419920303}
2019-04-14 14:49:10.71: SIM {TimeUS : 50934618, Roll : -0.01, Pitch : 0.03, Yaw : 359.83, Alt : 44.4300003052, Lat : 49.2835704, Lng : -123.1150206, Q1 : 0.999998867512, Q2 : -0.000167698846781, Q3 : 0.000309836206725, Q4 : -0.00145192281343}
2019-04-14 14:49:10.81: SIM {TimeUS : 51034578, Roll : -0.02, Pitch : 0.01, Yaw : 359.82, Alt : 44.6599998474, Lat : 49.2835704, Lng : -123.1150206, Q1 : 0.999998867512, Q2 : -0.000191535844351, Q3 : 0.000151164713316, Q4 : -0.00148391979747}
2019-04-14 14:49:10.91: SIM {TimeUS : 51135371, Roll : -0.02, Pitch : -0.01, Yaw : 359.82, Alt : 44.9000015259, Lat : 49.2835704, Lng : -123.1150206, Q1 : 0.999998807907, Q2 : -0.000243168426096, Q3 : -0.000149252620758, Q4 : -0.00152457505465}
2019-04-14 14:49:11.01: SIM {TimeUS : 51235331, Roll : -0.02, Pitch : -0.03, Yaw : 359.82, Alt : 45.1399993896, Lat : 49.2835704, Lng : -123.1150206, Q1 : 0.999998688698, Q2 : -0.000242077774601, Q3 : -0.000316288671456, Q4 : -0.00156429142226}
2019-04-14 14:49:11.11: SIM {TimeUS : 51335291, Roll : -0.01, Pitch : -0.04, Yaw : 359.81, Alt : 45.3699989319, Lat : 49.2835704, Lng : -123.1150206, Q1 : 0.999998629093, Q2 : -0.000156817637617, Q3 : -0.000390275148675, Q4 : -0.00160077214241}
2019-04-14 14:49:11.21: SIM {TimeUS : 51435251, Roll : -0.01, Pitch : -0.04, Yaw : 359.81, Alt : 45.6100006104, Lat : 49.2835703, Lng : -123.1150206, Q1 : 0.999998569489, Q2 : -0.000163779041031, Q3 : -0.000409083557315, Q4 : -0.00163345504552}
2019-04-14 14:49:11.31: SIM {TimeUS : 51535211, Roll : -0.04, Pitch : -0.03, Yaw : 359.8, Alt : 45.8400001526, Lat : 49.2835703, Lng : -123.1150206, Q1 : 0.999998450279, Q2 : -0.000372610520571, Q3 : -0.000335719785653, Q4 : -0.00166877824813}
2019-04-14 14:49:11.41: SIM {TimeUS : 51635171, Roll : -0.08, Pitch : -0.02, Yaw : 359.8, Alt : 46.0699996948, Lat : 49.2835703, Lng : -123.1150206, Q1 : 0.999998271465, Q2 : -0.000713322195224, Q3 : -0.000256046565482, Q4 : -0.0017070552567}
2019-04-14 14:49:11.51: SIM {TimeUS : 51735131, Roll : -0.1, Pitch : -0.02, Yaw : 359.8, Alt : 46.2999992371, Lat : 49.2835703, Lng : -123.1150206, Q1 : 0.999997973442, Q2 : -0.00095005845651, Q3 : -0.000229051598581, Q4 : -0.00174158252776}
2019-04-14 14:49:11.61: SIM {TimeUS : 51835091, Roll : -0.11, Pitch : -0.01, Yaw : 359.79, Alt : 46.5200004578, Lat : 49.2835703, Lng : -123.1150206, Q1 : 0.999997913837, Q2 : -0.00101609667763, Q3 : -0.000124343161588, Q4 : -0.00177600095049}
2019-04-14 14:49:11.71: SIM {TimeUS : 51935051, Roll : -0.1, Pitch : 0.0, Yaw : 359.79, Alt : 46.7400016785, Lat : 49.2835703, Lng : -123.1150206, Q1 : 0.999997913837, Q2 : -0.000929520640057, Q3 : 6.36557670077e-05, Q4 : -0.00180538638961}
2019-04-14 14:49:11.81: SIM {TimeUS : 52035011, Roll : -0.08, Pitch : 0.01, Yaw : 359.79, Alt : 46.9500007629, Lat : 49.2835703, Lng : -123.1150206, Q1 : 0.999998033047, Q2 : -0.000754825014155, Q3 : 0.000167693462572, Q4 : -0.0018298313953}
2019-04-14 14:49:11.91: SIM {TimeUS : 52134971, Roll : -0.06, Pitch : 0.01, Yaw : 359.78, Alt : 47.1599998474, Lat : 49.2835703, Lng : -123.1150206, Q1 : 0.999998092651, Q2 : -0.000596244295593, Q3 : 0.000138095725561, Q4 : -0.00185091630556}
2019-04-14 14:49:12.01: SIM {TimeUS : 52234931, Roll : -0.06, Pitch : 0.0, Yaw : 359.78, Alt : 47.3600006104, Lat : 49.2835703, Lng : -123.1150206, Q1 : 0.999998092651, Q2 : -0.00053174427012, Q3 : -1.80012757482e-05, Q4 : -0.00187388143968}
2019-04-14 14:49:12.11: SIM {TimeUS : 52334891, Roll : -0.04, Pitch : -0.03, Yaw : 359.78, Alt : 47.5499992371, Lat : 49.2835703, Lng : -123.1150206, Q1 : 0.999998092651, Q2 : -0.000381710007787, Q3 : -0.000288103154162, Q4 : -0.00189931120258}
2019-04-14 14:49:12.21: SIM {TimeUS : 52434851, Roll : -0.02, Pitch : -0.07, Yaw : 359.77, Alt : 47.7200012207, Lat : 49.2835703, Lng : -123.1150206, Q1 : 0.999997913837, Q2 : -0.000252733269008, Q3 : -0.000648973102216, Q4 : -0.00192447158042}
2019-04-14 14:49:12.31: SIM {TimeUS : 52534811, Roll : -0.03, Pitch : -0.11, Yaw : 359.77, Alt : 47.8899993896, Lat : 49.2835703, Lng : -123.1150206, Q1 : 0.99999755621, Q2 : -0.000266027520411, Q3 : -0.00103558355477, Q4 : -0.00194713880774}
2019-04-14 14:49:12.41: SIM {TimeUS : 52634771, Roll : -0.03, Pitch : -0.14, Yaw : 359.77, Alt : 48.0499992371, Lat : 49.2835703, Lng : -123.1150206, Q1 : 0.999997138977, Q2 : -0.000342595361872, Q3 : -0.00130513380282, Q4 : -0.00196528853849}
2019-04-14 14:49:12.51: SIM {TimeUS : 52734731, Roll : -0.01, Pitch : -0.14, Yaw : 359.77, Alt : 48.1899986267, Lat : 49.2835703, Lng : -123.1150207, Q1 : 0.999997258186, Q2 : -0.000143980389112, Q3 : -0.00126577401534, Q4 : -0.00197672774084}
2019-04-14 14:49:12.61: SIM {TimeUS : 52834691, Roll : 0.02, Pitch : -0.12, Yaw : 359.77, Alt : 48.3199996948, Lat : 49.2835703, Lng : -123.1150207, Q1 : 0.999997437, Q2 : 0.000174181273906, Q3 : -0.00104866048787, Q4 : -0.00199151691049}
2019-04-14 14:49:12.71: SIM {TimeUS : 52934651, Roll : 0.05, Pitch : -0.08, Yaw : 359.76, Alt : 48.4500007629, Lat : 49.2835703, Lng : -123.1150207, Q1 : 0.999997615814, Q2 : 0.000456390058389, Q3 : -0.000733581022359, Q4 : -0.00201301835477}
2019-04-14 14:49:12.81: SIM {TimeUS : 53034611, Roll : 0.06, Pitch : -0.04, Yaw : 359.76, Alt : 48.5499992371, Lat : 49.2835703, Lng : -123.1150207, Q1 : 0.999997675419, Q2 : 0.000564343237784, Q3 : -0.000430762360338, Q4 : -0.00203525763936}
2019-04-14 14:49:12.91: SIM {TimeUS : 53135404, Roll : 0.06, Pitch : -0.03, Yaw : 359.76, Alt : 48.6500015259, Lat : 49.2835704, Lng : -123.1150207, Q1 : 0.999997675419, Q2 : 0.000604901928455, Q3 : -0.000272925070021, Q4 : -0.00205887737684}
2019-04-14 14:49:13.01: SIM {TimeUS : 53235364, Roll : 0.06, Pitch : -0.03, Yaw : 359.76, Alt : 48.7299995422, Lat : 49.2835704, Lng : -123.1150207, Q1 : 0.999997615814, Q2 : 0.000532723497599, Q3 : -0.000283902423689, Q4 : -0.00208595138974}
2019-04-14 14:49:13.11: SIM {TimeUS : 53335324, Roll : 0.03, Pitch : -0.03, Yaw : 359.75, Alt : 48.8100013733, Lat : 49.2835704, Lng : -123.1150207, Q1 : 0.999997675419, Q2 : 0.000333346106345, Q3 : -0.000326759385644, Q4 : -0.0021097632125}
2019-04-14 14:49:13.21: SIM {TimeUS : 53435284, Roll : 0.02, Pitch : -0.03, Yaw : 359.75, Alt : 48.8699989319, Lat : 49.2835704, Lng : -123.1150207, Q1 : 0.999997675419, Q2 : 0.000199353948119, Q3 : -0.000266233546427, Q4 : -0.00213854713365}
2019-04-14 14:49:13.31: SIM {TimeUS : 53535244, Roll : 0.01, Pitch : -0.02, Yaw : 359.75, Alt : 48.9199981689, Lat : 49.2835704, Lng : -123.1150207, Q1 : 0.999997615814, Q2 : 9.58410237217e-05, Q3 : -0.00022278742108, Q4 : -0.00216920883395}
2019-04-14 14:49:13.41: SIM {TimeUS : 53635204, Roll : 0.0, Pitch : -0.01, Yaw : 359.74, Alt : 48.9700012207, Lat : 49.2835704, Lng : -123.1150207, Q1 : 0.99999755621, Q2 : 6.1327838921e-05, Q3 : -0.000108066000394, Q4 : -0.00219979183748}
2019-04-14 14:49:13.51: SIM {TimeUS : 53735164, Roll : 0.1, Pitch : 0.0, Yaw : 359.74, Alt : 49.0099983215, Lat : 49.2835704, Lng : -123.1150207, Q1 : 0.999997138977, Q2 : 0.00087963527767, Q3 : -6.50333240628e-05, Q4 : -0.00222973432392}
2019-04-14 14:49:13.61: SIM {TimeUS : 53835124, Roll : 0.4, Pitch : -0.06, Yaw : 359.74, Alt : 49.0499992371, Lat : 49.2835704, Lng : -123.1150207, Q1 : 0.999991178513, Q2 : 0.00350355939008, Q3 : -0.000574929639697, Q4 : -0.00225296220742}
2019-04-14 14:49:13.71: SIM {TimeUS : 53935084, Roll : 0.95, Pitch : -0.22, Yaw : 359.73, Alt : 49.0699996948, Lat : 49.2835704, Lng : -123.1150207, Q1 : 0.999960482121, Q2 : 0.00835392065346, Q3 : -0.00200329115614, Q4 : -0.00228420947678}
2019-04-14 14:49:13.81: SIM {TimeUS : 54035044, Roll : 1.72, Pitch : -0.47, Yaw : 359.72, Alt : 49.0999984741, Lat : 49.2835704, Lng : -123.1150207, Q1 : 0.999875128269, Q2 : 0.0150681566447, Q3 : -0.0041653434746, Q4 : -0.00231035682373}
2019-04-14 14:49:13.91: SIM {TimeUS : 54135004, Roll : 2.64, Pitch : -0.78, Yaw : 359.71, Alt : 49.1199989319, Lat : 49.2835704, Lng : -123.1150206, Q1 : 0.99970638752, Q2 : 0.0231036245823, Q3 : -0.00692860176787, Q4 : -0.0023250579834}
2019-04-14 14:49:14.01: SIM {TimeUS : 54234964, Roll : 3.63, Pitch : -1.12, Yaw : 359.7, Alt : 49.1399993896, Lat : 49.2835706, Lng : -123.1150205, Q1 : 0.99944627285, Q2 : 0.0316967405379, Q3 : -0.00985793303698, Q4 : -0.00230428157374}
2019-04-14 14:49:14.11: SIM {TimeUS : 54334924, Roll : 4.53, Pitch : -1.39, Yaw : 359.68, Alt : 49.1599998474, Lat : 49.2835706, Lng : -123.1150203, Q1 : 0.999141633511, Q2 : 0.039493046701, Q3 : -0.0123045211658, Q4 : -0.00222910032608}
2019-04-14 14:49:14.21: SIM {TimeUS : 54434884, Roll : 5.23, Pitch : -1.61, Yaw : 359.68, Alt : 49.1699981689, Lat : 49.2835707, Lng : -123.11502, Q1 : 0.99885648489, Q2 : 0.0456016100943, Q3 : -0.0142032252625, Q4 : -0.0021109317895}
2019-04-14 14:49:14.31: SIM {TimeUS : 54534844, Roll : 5.74, Pitch : -1.76, Yaw : 359.68, Alt : 49.1800003052, Lat : 49.2835708, Lng : -123.1150197, Q1 : 0.998622238636, Q2 : 0.0500838495791, Q3 : -0.01553802751, Q4 : -0.00197223876603}
2019-04-14 14:49:14.41: SIM {TimeUS : 54634804, Roll : 6.12, Pitch : -1.87, Yaw : 359.69, Alt : 49.1899986267, Lat : 49.2835709, Lng : -123.1150193, Q1 : 0.998436808586, Q2 : 0.0533846057951, Q3 : -0.0164560414851, Q4 : -0.00181547948159}
2019-04-14 14:49:14.51: SIM {TimeUS : 54734764, Roll : 6.44, Pitch : -1.98, Yaw : 359.69, Alt : 49.2000007629, Lat : 49.2835709, Lng : -123.1150186, Q1 : 0.998266518116, Q2 : 0.0561997108161, Q3 : -0.0174019951373, Q4 : -0.00165914953686}
2019-04-14 14:49:14.61: SIM {TimeUS : 54834724, Roll : 6.79, Pitch : -2.09, Yaw : 359.7, Alt : 49.2099990845, Lat : 49.283571, Lng : -123.1150179, Q1 : 0.998076438904, Q2 : 0.0591739453375, Q3 : -0.0184285547584, Q4 : -0.00150184030645}
2019-04-14 14:49:14.71: SIM {TimeUS : 54934684, Roll : 7.17, Pitch : -2.22, Yaw : 359.7, Alt : 49.2200012207, Lat : 49.2835713, Lng : -123.1150171, Q1 : 0.997854471207, Q2 : 0.0624869577587, Q3 : -0.0194940436631, Q4 : -0.00134073710069}
2019-04-14 14:49:14.81: SIM {TimeUS : 55034644, Roll : 7.5, Pitch : -2.31, Yaw : 359.71, Alt : 49.2299995422, Lat : 49.2835715, Lng : -123.1150162, Q1 : 0.997651994228, Q2 : 0.0653854385018, Q3 : -0.0203448254615, Q4 : -0.00119165016804}
2019-04-14 14:49:14.91: SIM {TimeUS : 55134604, Roll : 7.76, Pitch : -2.39, Yaw : 359.71, Alt : 49.2299995422, Lat : 49.2835716, Lng : -123.1150151, Q1 : 0.997490763664, Q2 : 0.0676028653979, Q3 : -0.0209986120462, Q4 : -0.00107269291766}
2019-04-14 14:49:15.01: SIM {TimeUS : 55235397, Roll : 7.92, Pitch : -2.43, Yaw : 359.71, Alt : 49.2400016785, Lat : 49.2835719, Lng : -123.1150139, Q1 : 0.997384011745, Q2 : 0.0690422877669, Q3 : -0.0213870126754, Q4 : -0.000975741597358}
2019-04-14 14:49:15.11: SIM {TimeUS : 55335357, Roll : 8.04, Pitch : -2.45, Yaw : 359.72, Alt : 49.2400016785, Lat : 49.2835721, Lng : -123.1150127, Q1 : 0.997308254242, Q2 : 0.070090547204, Q3 : -0.0215132366866, Q4 : -0.00090047280537}
2019-04-14 14:49:15.21: SIM {TimeUS : 55435317, Roll : 8.15, Pitch : -2.45, Yaw : 359.72, Alt : 49.25, Lat : 49.2835724, Lng : -123.1150113, Q1 : 0.997242629528, Q2 : 0.0709992796183, Q3 : -0.0215746089816, Q4 : -0.000867955270223}
2019-04-14 14:49:15.31: SIM {TimeUS : 55535277, Roll : 8.31, Pitch : -2.44, Yaw : 359.73, Alt : 49.25, Lat : 49.2835727, Lng : -123.1150098, Q1 : 0.997140347958, Q2 : 0.0724556148052, Q3 : -0.0214661099017, Q4 : -0.000729820982087}
2019-04-14 14:49:15.41: SIM {TimeUS : 55635237, Roll : 8.65, Pitch : -2.23, Yaw : 0.04, Alt : 49.2599983215, Lat : 49.2835731, Lng : -123.1150083, Q1 : 0.996956110001, Q2 : 0.075484238565, Q3 : -0.0194232556969, Q4 : 0.00182853173465}
2019-04-14 14:49:15.51: SIM {TimeUS : 55735197, Roll : 9.19, Pitch : -1.85, Yaw : 1.26, Alt : 49.2599983215, Lat : 49.2835733, Lng : -123.1150066, Q1 : 0.996573269367, Q2 : 0.080352127552, Q3 : -0.0152728790417, Q4 : 0.0123286591843}
2019-04-14 14:49:15.61: SIM {TimeUS : 55835157, Roll : 9.79, Pitch : -1.7, Yaw : 3.96, Alt : 49.2599983215, Lat : 49.2835737, Lng : -123.1150048, Q1 : 0.995594918728, Q2 : 0.0858469456434, Q3 : -0.0118970926851, Q4 : 0.0357703864574}
2019-04-14 14:49:15.71: SIM {TimeUS : 55935117, Roll : 10.26, Pitch : -2.1, Yaw : 8.22, Alt : 49.2599983215, Lat : 49.2835739, Lng : -123.1150029, Q1 : 0.993137300014, Q2 : 0.0905223488808, Q3 : -0.0118530942127, Q4 : 0.073099128902}
2019-04-14 14:49:15.81: SIM {TimeUS : 56035077, Roll : 10.42, Pitch : -3.13, Yaw : 13.87, Alt : 49.2599983215, Lat : 49.2835744, Lng : -123.1150009, Q1 : 0.987905919552, Q2 : 0.0934121459723, Q3 : -0.0160850863904, Q4 : 0.122708536685}
2019-04-14 14:49:15.91: SIM {TimeUS : 56135037, Roll : 10.13, Pitch : -4.72, Yaw : 20.65, Alt : 49.2700004578, Lat : 49.2835746, Lng : -123.1149988, Q1 : 0.978469669819, Q2 : 0.0942237898707, Q3 : -0.0245934724808, Q4 : 0.1819729954}
2019-04-14 14:49:16.01: SIM {TimeUS : 56234997, Roll : 9.34, Pitch : -6.69, Yaw : 28.31, Alt : 49.2700004578, Lat : 49.283575, Lng : -123.1149965, Q1 : 0.963596642017, Q2 : 0.0931230708957, Q3 : -0.0365451797843, Q4 : 0.247939646244}
2019-04-14 14:49:16.11: SIM {TimeUS : 56334957, Roll : 8.03, Pitch : -8.77, Yaw : 36.62, Alt : 49.2700004578, Lat : 49.2835752, Lng : -123.1149941, Q1 : 0.942563354969, Q2 : 0.0902770385146, Q3 : -0.0504922606051, Q4 : 0.31760802865}
2019-04-14 14:49:16.21: SIM {TimeUS : 56434917, Roll : 6.24, Pitch : -10.69, Yaw : 45.36, Alt : 49.2700004578, Lat : 49.2835756, Lng : -123.1149916, Q1 : 0.915319979191, Q2 : 0.0859064236283, Q3 : -0.0649766251445, Q4 : 0.38805603981}
2019-04-14 14:49:16.31: SIM {TimeUS : 56534877, Roll : 4.09, Pitch : -12.27, Yaw : 54.26, Alt : 49.2700004578, Lat : 49.2835758, Lng : -123.114989, Q1 : 0.882567882538, Q2 : 0.0803043097258, Q3 : -0.0788920968771, Q4 : 0.456509798765}
2019-04-14 14:49:16.41: SIM {TimeUS : 56634837, Roll : 1.74, Pitch : -13.35, Yaw : 63.01, Alt : 49.2700004578, Lat : 49.2835763, Lng : -123.1149863, Q1 : 0.845777451992, Q2 : 0.0736784338951, Q3 : -0.0912203267217, Q4 : 0.52049100399}
2019-04-14 14:49:16.51: SIM {TimeUS : 56734797, Roll : -0.8, Pitch : -13.93, Yaw : 71.26, Alt : 49.2799987793, Lat : 49.2835767, Lng : -123.1149834, Q1 : 0.807258248329, Q2 : 0.0650037229061, Q3 : -0.102617278695, Q4 : 0.577562391758}
2019-04-14 14:49:16.61: SIM {TimeUS : 56834757, Roll : -3.51, Pitch : -14.03, Yaw : 78.39, Alt : 49.2799987793, Lat : 49.2835771, Lng : -123.1149804, Q1 : 0.771165251732, Q2 : 0.0535768121481, Q3 : -0.113906703889, Q4 : 0.624066472054}
2019-04-14 14:49:16.71: SIM {TimeUS : 56934717, Roll : -5.94, Pitch : -13.78, Yaw : 83.78, Alt : 49.2799987793, Lat : 49.2835776, Lng : -123.1149773, Q1 : 0.742193281651, Q2 : 0.041748855263, Q3 : -0.123600967228, Q4 : 0.657365202904}
2019-04-14 14:49:16.81: SIM {TimeUS : 57034677, Roll : -7.61, Pitch : -13.41, Yaw : 87.16, Alt : 49.2799987793, Lat : 49.2835782, Lng : -123.1149741, Q1 : 0.723188698292, Q2 : 0.0325229875743, Q3 : -0.129882290959, Q4 : 0.677547752857}
2019-04-14 14:49:16.91: SIM {TimeUS : 57134637, Roll : -8.33, Pitch : -13.1, Yaw : 88.64, Alt : 49.2799987793, Lat : 49.2835789, Lng : -123.1149708, Q1 : 0.714635372162, Q2 : 0.0279221963137, Q3 : -0.131874933839, Q4 : 0.686385989189}
2019-04-14 14:49:17.01: SIM {TimeUS : 57234597, Roll : -8.1, Pitch : -13.02, Yaw : 88.52, Alt : 49.2799987793, Lat : 49.2835798, Lng : -123.1149674, Q1 : 0.715323805809, Q2 : 0.0287083350122, Q3 : -0.130060359836, Q4 : 0.685982525349}
2019-04-14 14:49:17.11: SIM {TimeUS : 57335390, Roll : -7.08, Pitch : -13.24, Yaw : 87.13, Alt : 49.2799987793, Lat : 49.2835806, Lng : -123.1149639, Q1 : 0.723245799541, Q2 : 0.0348905473948, Q3 : -0.125668853521, Q4 : 0.678163349628}
2019-04-14 14:49:17.21: SIM {TimeUS : 57435350, Roll : -5.51, Pitch : -13.73, Yaw : 84.84, Alt : 49.2799987793, Lat : 49.2835816, Lng : -123.1149604, Q1 : 0.73592710495, Q2 : 0.045326218009, Q3 : -0.12041258812, Q4 : 0.664723813534}
2019-04-14 14:49:17.31: SIM {TimeUS : 57535310, Roll : -3.64, Pitch : -14.4, Yaw : 81.95, Alt : 49.2799987793, Lat : 49.2835825, Lng : -123.1149567, Q1 : 0.751245498657, Q2 : 0.0583667308092, Q3 : -0.115290880203, Q4 : 0.647249221802}
2019-04-14 14:49:17.41: SIM {TimeUS : 57635270, Roll : -1.68, Pitch : -15.08, Yaw : 78.76, Alt : 49.2799987793, Lat : 49.2835836, Lng : -123.114953, Q1 : 0.767363667488, Q2 : 0.0720113441348, Q3 : -0.110711976886, Q4 : 0.627463340759}
2019-04-14 14:49:17.51: SIM {TimeUS : 57735230, Roll : 0.16, Pitch : -15.63, Yaw : 75.6, Alt : 49.2799987793, Lat : 49.2835846, Lng : -123.1149491, Q1 : 0.78269636631, Q2 : 0.084456153214, Q3 : -0.106578506529, Q4 : 0.607366979122}
2019-04-14 14:49:17.61: SIM {TimeUS : 57835190, Roll : 1.74, Pitch : -15.95, Yaw : 72.77, Alt : 49.2799987793, Lat : 49.2835855, Lng : -123.1149452, Q1 : 0.795878827572, Q2 : 0.0944447889924, Q3 : -0.102771282196, Q4 : 0.589147806168}
2019-04-14 14:49:17.71: SIM {TimeUS : 57935150, Roll : 2.91, Pitch : -16.07, Yaw : 70.56, Alt : 49.2799987793, Lat : 49.2835866, Lng : -123.1149411, Q1 : 0.805988550186, Q2 : 0.101327262819, Q3 : -0.0995720401406, Q4 : 0.574630856514}
2019-04-14 14:49:17.81: SIM {TimeUS : 58035110, Roll : 3.6, Pitch : -16.06, Yaw : 69.1, Alt : 49.2799987793, Lat : 49.2835876, Lng : -123.1149369, Q1 : 0.812626540661, Q2 : 0.104910992086, Q3 : -0.0973611399531, Q4 : 0.564935922623}
2019-04-14 14:49:17.91: SIM {TimeUS : 58135070, Roll : 3.79, Pitch : -16.01, Yaw : 68.43, Alt : 49.2799987793, Lat : 49.2835885, Lng : -123.1149326, Q1 : 0.815796077251, Q2 : 0.105427592993, Q3 : -0.0966589078307, Q4 : 0.560373902321}
2019-04-14 14:49:18.01: SIM {TimeUS : 58235030, Roll : 3.55, Pitch : -15.96, Yaw : 68.49, Alt : 49.2799987793, Lat : 49.2835893, Lng : -123.1149282, Q1 : 0.815786957741, Q2 : 0.103478886187, Q3 : -0.0974643751979, Q4 : 0.560610771179}
2019-04-14 14:49:18.11: SIM {TimeUS : 58334990, Roll : 2.97, Pitch : -15.96, Yaw : 69.14, Alt : 49.2799987793, Lat : 49.2835903, Lng : -123.1149237, Q1 : 0.813083350658, Q2 : 0.0999780073762, Q3 : -0.0996972993016, Q4 : 0.564765751362}
2019-04-14 14:49:18.21: SIM {TimeUS : 58434950, Roll : 2.17, Pitch : -16.03, Yaw : 70.22, Alt : 49.2900009155, Lat : 49.2835911, Lng : -123.1149191, Q1 : 0.808364331722, Q2 : 0.09555221349, Q3 : -0.103241555393, Q4 : 0.571627616882}
2019-04-14 14:49:18.31: SIM {TimeUS : 58534910, Roll : 1.28, Pitch : -16.14, Yaw : 71.53, Alt : 49.2900009155, Lat : 49.283592, Lng : -123.1149144, Q1 : 0.802374720573, Q2 : 0.0910804048181, Q3 : -0.107478611171, Q4 : 0.579954743385}
2019-04-14 14:49:18.41: SIM {TimeUS : 58634870, Roll : 0.43, Pitch : -16.26, Yaw : 72.9, Alt : 49.2900009155, Lat : 49.2835928, Lng : -123.1149096, Q1 : 0.795941650867, Q2 : 0.0870847254992, Q3 : -0.11156707257, Q4 : 0.588596642017}
2019-04-14 14:49:18.51: SIM {TimeUS : 58734830, Roll : -0.3, Pitch : -16.36, Yaw : 74.16, Alt : 49.2900009155, Lat : 49.2835938, Lng : -123.1149048, Q1 : 0.789856851101, Q2 : 0.0837190449238, Q3 : -0.115141667426, Q4 : 0.596539735794}
2019-04-14 14:49:18.61: SIM {TimeUS : 58834790, Roll : -0.89, Pitch : -16.45, Yaw : 75.2, Alt : 49.2900009155, Lat : 49.2835946, Lng : -123.1148999, Q1 : 0.784748256207, Q2 : 0.0811538249254, Q3 : -0.118066325784, Q4 : 0.603029549122}
2019-04-14 14:49:18.71: SIM {TimeUS : 58934750, Roll : -1.29, Pitch : -16.51, Yaw : 75.95, Alt : 49.2900009155, Lat : 49.2835957, Lng : -123.114895, Q1 : 0.781038820744, Q2 : 0.0795566290617, Q3 : -0.120112478733, Q4 : 0.607636451721}
2019-04-14 14:49:18.81: SIM {TimeUS : 59034710, Roll : -1.48, Pitch : -16.57, Yaw : 76.36, Alt : 49.2900009155, Lat : 49.2835965, Lng : -123.11489, Q1 : 0.778922855854, Q2 : 0.0790039673448, Q3 : -0.121248818934, Q4 : 0.610193669796}
2019-04-14 14:49:18.91: SIM {TimeUS : 59134670, Roll : -1.48, Pitch : -16.61, Yaw : 76.46, Alt : 49.2900009155, Lat : 49.2835976, Lng : -123.1148849, Q1 : 0.778380632401, Q2 : 0.0792992636561, Q3 : -0.121409296989, Q4 : 0.610815107822}
2019-04-14 14:49:19.01: SIM {TimeUS : 59234630, Roll : -1.31, Pitch : -16.64, Yaw : 76.28, Alt : 49.2900009155, Lat : 49.2835986, Lng : -123.1148798, Q1 : 0.77917599678, Q2 : 0.0804601609707, Q3 : -0.120808593929, Q4 : 0.609767317772}
2019-04-14 14:49:19.11: SIM {TimeUS : 59334590, Roll : -1.01, Pitch : -16.67, Yaw : 75.89, Alt : 49.2900009155, Lat : 49.2835995, Lng : -123.1148746, Q1 : 0.780971288681, Q2 : 0.0822770744562, Q3 : -0.119718320668, Q4 : 0.607438743114}
2019-04-14 14:49:19.21: SIM {TimeUS : 59435383, Roll : -0.64, Pitch : -16.7, Yaw : 75.38, Alt : 49.2900009155, Lat : 49.2836006, Lng : -123.1148694, Q1 : 0.783414721489, Q2 : 0.0844286009669, Q3 : -0.118378125131, Q4 : 0.60425144434}
2019-04-14 14:49:19.31: SIM {TimeUS : 59535343, Roll : -0.25, Pitch : -16.73, Yaw : 74.81, Alt : 49.2900009155, Lat : 49.2836016, Lng : -123.1148641, Q1 : 0.786082863808, Q2 : 0.086645744741, Q3 : -0.116973444819, Q4 : 0.600735843182}
2019-04-14 14:49:19.41: SIM {TimeUS : 59635303, Roll : 0.1, Pitch : -16.77, Yaw : 74.26, Alt : 49.2900009155, Lat : 49.2836026, Lng : -123.1148588, Q1 : 0.788650214672, Q2 : 0.0887490734458, Q3 : -0.115747950971, Q4 : 0.59729129076}
2019-04-14 14:49:19.51: SIM {TimeUS : 59735263, Roll : 0.38, Pitch : -16.8, Yaw : 73.78, Alt : 49.2900009155, Lat : 49.2836037, Lng : -123.1148535, Q1 : 0.790874958038, Q2 : 0.0904152691364, Q3 : -0.114867322147, Q4 : 0.594262063503}
2019-04-14 14:49:19.61: SIM {TimeUS : 59835223, Roll : 0.58, Pitch : -16.84, Yaw : 73.41, Alt : 49.2900009155, Lat : 49.2836048, Lng : -123.1148481, Q1 : 0.792586803436, Q2 : 0.091581068933, Q3 : -0.114414036274, Q4 : 0.591885566711}
2019-04-14 14:49:19.71: SIM {TimeUS : 59935183, Roll : 0.67, Pitch : -16.88, Yaw : 73.17, Alt : 49.2900009155, Lat : 49.2836057, Lng : -123.1148427, Q1 : 0.793701052666, Q2 : 0.0922025516629, Q3 : -0.114421926439, Q4 : 0.590292215347}
2019-04-14 14:49:19.81: SIM {TimeUS : 60035143, Roll : 0.67, Pitch : -16.93, Yaw : 73.06, Alt : 49.2999992371, Lat : 49.2836068, Lng : -123.1148372, Q1 : 0.794207036495, Q2 : 0.0923408940434, Q3 : -0.114841848612, Q4 : 0.589507997036}
2019-04-14 14:49:19.91: SIM {TimeUS : 60135103, Roll : 0.58, Pitch : -16.97, Yaw : 73.08, Alt : 49.2999992371, Lat : 49.2836079, Lng : -123.1148317, Q1 : 0.794183194637, Q2 : 0.0919373929501, Q3 : -0.115537233651, Q4 : 0.589467346668}
2019-04-14 14:49:20.01: SIM {TimeUS : 60235063, Roll : 0.44, Pitch : -16.99, Yaw : 73.18, Alt : 49.2999992371, Lat : 49.2836089, Lng : -123.114826, Q1 : 0.793731331825, Q2 : 0.0911663770676, Q3 : -0.116394855082, Q4 : 0.590026795864}
2019-04-14 14:49:20.11: SIM {TimeUS : 60335023, Roll : 0.26, Pitch : -17.02, Yaw : 73.35, Alt : 49.2999992371, Lat : 49.2836098, Lng : -123.1148205, Q1 : 0.792975187302, Q2 : 0.0902671888471, Q3 : -0.117376297712, Q4 : 0.59098649025}
2019-04-14 14:49:20.21: SIM {TimeUS : 60434983, Roll : 0.1, Pitch : -17.06, Yaw : 73.55, Alt : 49.2999992371, Lat : 49.283611, Lng : -123.1148149, Q1 : 0.792033076286, Q2 : 0.089546173811, Q3 : -0.118347898126, Q4 : 0.592164576054}
2019-04-14 14:49:20.31: SIM {TimeUS : 60534943, Roll : -0.03, Pitch : -17.11, Yaw : 73.75, Alt : 49.2999992371, Lat : 49.283612, Lng : -123.1148093, Q1 : 0.79104244709, Q2 : 0.0890848562121, Q3 : -0.119192332029, Q4 : 0.593387722969}
2019-04-14 14:49:20.41: SIM {TimeUS : 60634903, Roll : -0.11, Pitch : -17.16, Yaw : 73.93, Alt : 49.2999992371, Lat : 49.283613, Lng : -123.1148035, Q1 : 0.79012721777, Q2 : 0.0889177322388, Q3 : -0.119847968221, Q4 : 0.594499051571}
2019-04-14 14:49:20.51: SIM {TimeUS : 60734863, Roll : -0.16, Pitch : -17.21, Yaw : 74.07, Alt : 49.2999992371, Lat : 49.2836141, Lng : -123.1147979, Q1 : 0.789388179779, Q2 : 0.0889762118459, Q3 : -0.120316259563, Q4 : 0.59537678957}
2019-04-14 14:49:20.61: SIM {TimeUS : 60834823, Roll : -0.19, Pitch : -17.23, Yaw : 74.16, Alt : 49.2999992371, Lat : 49.2836152, Lng : -123.1147922, Q1 : 0.788920342922, Q2 : 0.0890253782272, Q3 : -0.120566897094, Q4 : 0.595938622952}
2019-04-14 14:49:20.71: SIM {TimeUS : 60934783, Roll : -0.2, Pitch : -17.24, Yaw : 74.19, Alt : 49.2999992371, Lat : 49.2836163, Lng : -123.1147864, Q1 : 0.788749456406, Q2 : 0.0889878347516, Q3 : -0.120664179325, Q4 : 0.596150636673}
2019-04-14 14:49:20.81: SIM {TimeUS : 61034743, Roll : -0.21, Pitch : -17.24, Yaw : 74.17, Alt : 49.3100013733, Lat : 49.2836174, Lng : -123.1147806, Q1 : 0.788849771023, Q2 : 0.088925153017, Q3 : -0.120739459991, Q4 : 0.596012055874}
2019-04-14 14:49:20.91: SIM {TimeUS : 61134703, Roll : -0.18, Pitch : -17.25, Yaw : 74.11, Alt : 49.3100013733, Lat : 49.2836184, Lng : -123.1147748, Q1 : 0.789134919643, Q2 : 0.0891307964921, Q3 : -0.120703928173, Q4 : 0.595610916615}
2019-04-14 14:49:21.01: SIM {TimeUS : 61234663, Roll : -0.13, Pitch : -17.27, Yaw : 74.02, Alt : 49.3100013733, Lat : 49.2836195, Lng : -123.114769, Q1 : 0.789552867413, Q2 : 0.0894990041852, Q3 : -0.120654091239, Q4 : 0.595011532307}
2019-04-14 14:49:21.11: SIM {TimeUS : 61334623, Roll : -0.05, Pitch : -17.32, Yaw : 73.91, Alt : 49.3100013733, Lat : 49.2836207, Lng : -123.1147632, Q1 : 0.790019989014, Q2 : 0.0901406183839, Q3 : -0.120627053082, Q4 : 0.594299793243}
2019-04-14 14:49:21.21: SIM {TimeUS : 61434583, Roll : 0.02, Pitch : -17.38, Yaw : 73.79, Alt : 49.3100013733, Lat : 49.2836218, Lng : -123.1147573, Q1 : 0.790479183197, Q2 : 0.0909437164664, Q3 : -0.120697773993, Q4 : 0.59355199337}
2019-04-14 14:49:21.31: SIM {TimeUS : 61535376, Roll : 0.1, Pitch : -17.42, Yaw : 73.68, Alt : 49.3100013733, Lat : 49.2836229, Lng : -123.1147514, Q1 : 0.79094773531, Q2 : 0.0915507599711, Q3 : -0.120645679533, Q4 : 0.592844665051}
2019-04-14 14:49:21.41: SIM {TimeUS : 61635336, Roll : 0.16, Pitch : -17.41, Yaw : 73.59, Alt : 49.3100013733, Lat : 49.2836241, Lng : -123.1147454, Q1 : 0.791400015354, Q2 : 0.091801956296, Q3 : -0.120369568467, Q4 : 0.592258095741}
2019-04-14 14:49:21.51: SIM {TimeUS : 61735296, Roll : 0.18, Pitch : -17.4, Yaw : 73.52, Alt : 49.3100013733, Lat : 49.2836251, Lng : -123.1147395, Q1 : 0.791764080524, Q2 : 0.0918649956584, Q3 : -0.120286777616, Q4 : 0.591778278351}
2019-04-14 14:49:21.61: SIM {TimeUS : 61835256, Roll : 0.18, Pitch : -17.42, Yaw : 73.47, Alt : 49.3100013733, Lat : 49.2836262, Lng : -123.1147336, Q1 : 0.792009115219, Q2 : 0.0918812230229, Q3 : -0.120462171733, Q4 : 0.591412067413}
2019-04-14 14:49:21.71: SIM {TimeUS : 61935216, Roll : 0.17, Pitch : -17.45, Yaw : 73.44, Alt : 49.3100013733, Lat : 49.2836274, Lng : -123.1147276, Q1 : 0.792128562927, Q2 : 0.0919341146946, Q3 : -0.120701774955, Q4 : 0.591195046902}
2019-04-14 14:49:21.81: SIM {TimeUS : 62035176, Roll : 0.16, Pitch : -17.48, Yaw : 73.43, Alt : 49.3100013733, Lat : 49.2836286, Lng : -123.1147216, Q1 : 0.792145729065, Q2 : 0.0919984355569, Q3 : -0.121001943946, Q4 : 0.591100633144}
2019-04-14 14:49:21.91: SIM {TimeUS : 62135136, Roll : 0.14, Pitch : -17.51, Yaw : 73.44, Alt : 49.3199996948, Lat : 49.2836297, Lng : -123.1147156, Q1 : 0.792095899582, Q2 : 0.0920506343246, Q3 : -0.121259383857, Q4 : 0.591106534004}
2019-04-14 14:49:22.01: SIM {TimeUS : 62235096, Roll : 0.13, Pitch : -17.53, Yaw : 73.45, Alt : 49.3199996948, Lat : 49.2836308, Lng : -123.1147096, Q1 : 0.791992843151, Q2 : 0.0921254903078, Q3 : -0.121493510902, Q4 : 0.591184914112}
2019-04-14 14:49:22.11: SIM {TimeUS : 62335056, Roll : 0.12, Pitch : -17.55, Yaw : 73.47, Alt : 49.3199996948, Lat : 49.283632, Lng : -123.1147035, Q1 : 0.791880786419, Q2 : 0.0921343490481, Q3 : -0.121676824987, Q4 : 0.591295897961}
2019-04-14 14:49:22.21: SIM {TimeUS : 62435016, Roll : 0.11, Pitch : -17.57, Yaw : 73.49, Alt : 49.3199996948, Lat : 49.283633, Lng : -123.1146975, Q1 : 0.79176813364, Q2 : 0.0921846851707, Q3 : -0.121818758547, Q4 : 0.591409683228}
2019-04-14 14:49:22.31: SIM {TimeUS : 62534976, Roll : 0.11, Pitch : -17.59, Yaw : 73.51, Alt : 49.3199996948, Lat : 49.2836341, Lng : -123.1146914, Q1 : 0.791668772697, Q2 : 0.0922996029258, Q3 : -0.121967755258, Q4 : 0.591494083405}
2019-04-14 14:49:22.41: SIM {TimeUS : 62634936, Roll : 0.1, Pitch : -17.63, Yaw : 73.51, Alt : 49.3199996948, Lat : 49.2836353, Lng : -123.1146853, Q1 : 0.791602909565, Q2 : 0.0924257189035, Q3 : -0.122260086238, Q4 : 0.591502189636}
2019-04-14 14:49:22.51: SIM {TimeUS : 62734896, Roll : 0.07, Pitch : -17.67, Yaw : 73.51, Alt : 49.3199996948, Lat : 49.2836365, Lng : -123.1146793, Q1 : 0.791583657265, Q2 : 0.0924222841859, Q3 : -0.12270399183, Q4 : 0.591436564922}
2019-04-14 14:49:22.61: SIM {TimeUS : 62834856, Roll : 0.04, Pitch : -17.71, Yaw : 73.51, Alt : 49.3199996948, Lat : 49.2836377, Lng : -123.1146731, Q1 : 0.791588783264, Q2 : 0.0924781858921, Q3 : -0.123141504824, Q4 : 0.591329991817}
2019-04-14 14:49:22.71: SIM {TimeUS : 62934816, Roll : 0.05, Pitch : -17.74, Yaw : 73.5, Alt : 49.3199996948, Lat : 49.2836389, Lng : -123.114667, Q1 : 0.791613936424, Q2 : 0.0927060395479, Q3 : -0.123297169805, Q4 : 0.591228187084}
2019-04-14 14:49:22.81: SIM {TimeUS : 63034776, Roll : 0.08, Pitch : -17.74, Yaw : 73.48, Alt : 49.3199996948, Lat : 49.28364, Lng : -123.1146609, Q1 : 0.791692495346, Q2 : 0.0928726568818, Q3 : -0.123122513294, Q4 : 0.591133236885}
2019-04-14 14:49:22.91: SIM {TimeUS : 63134736, Roll : 0.11, Pitch : -17.71, Yaw : 73.45, Alt : 49.3199996948, Lat : 49.2836412, Lng : -123.1146547, Q1 : 0.791818678379, Q2 : 0.0928986519575, Q3 : -0.122779622674, Q4 : 0.591031432152}
2019-04-14 14:49:23.01: SIM {TimeUS : 63234696, Roll : 0.12, Pitch : -17.69, Yaw : 73.43, Alt : 49.3199996948, Lat : 49.2836424, Lng : -123.1146486, Q1 : 0.791964292526, Q2 : 0.0928512886167, Q3 : -0.122640430927, Q4 : 0.590872704983}
2019-04-14 14:49:23.11: SIM {TimeUS : 63334656, Roll : 0.12, Pitch : -17.69, Yaw : 73.4, Alt : 49.3199996948, Lat : 49.2836434, Lng : -123.1146424, Q1 : 0.792111754417, Q2 : 0.0927781760693, Q3 : -0.122656881809, Q4 : 0.590683102608}
2019-04-14 14:49:23.21: SIM {TimeUS : 63434616, Roll : 0.11, Pitch : -17.69, Yaw : 73.37, Alt : 49.3199996948, Lat : 49.2836446, Lng : -123.1146362, Q1 : 0.792257785797, Q2 : 0.0927257835865, Q3 : -0.12273196876, Q4 : 0.590479850769}
2019-04-14 14:49:23.31: SIM {TimeUS : 63534576, Roll : 0.11, Pitch : -17.71, Yaw : 73.34, Alt : 49.3199996948, Lat : 49.2836458, Lng : -123.11463, Q1 : 0.79237896204, Q2 : 0.0927612483501, Q3 : -0.122924946249, Q4 : 0.590271472931}
2019-04-14 14:49:23.41: SIM {TimeUS : 63635369, Roll : 0.11, Pitch : -17.74, Yaw : 73.32, Alt : 49.3199996948, Lat : 49.2836469, Lng : -123.1146237, Q1 : 0.792479038239, Q2 : 0.0928969159722, Q3 : -0.12313850224, Q4 : 0.590071201324}
2019-04-14 14:49:23.51: SIM {TimeUS : 63735329, Roll : 0.11, Pitch : -17.78, Yaw : 73.3, Alt : 49.3300018311, Lat : 49.2836481, Lng : -123.1146175, Q1 : 0.792549490929, Q2 : 0.0930834263563, Q3 : -0.123456828296, Q4 : 0.589880645275}
2019-04-14 14:49:23.61: SIM {TimeUS : 63835289, Roll : 0.11, Pitch : -17.83, Yaw : 73.28, Alt : 49.3300018311, Lat : 49.2836493, Lng : -123.1146113, Q1 : 0.792598307133, Q2 : 0.0933115407825, Q3 : -0.123794622719, Q4 : 0.589708268642}
2019-04-14 14:49:23.71: SIM {TimeUS : 63935249, Roll : 0.12, Pitch : -17.86, Yaw : 73.26, Alt : 49.3300018311, Lat : 49.2836505, Lng : -123.114605, Q1 : 0.792645335197, Q2 : 0.0934747382998, Q3 : -0.123944662511, Q4 : 0.589587569237}
2019-04-14 14:49:23.81: SIM {TimeUS : 64035209, Roll : 0.12, Pitch : -17.88, Yaw : 73.25, Alt : 49.3300018311, Lat : 49.2836518, Lng : -123.1145988, Q1 : 0.792680680752, Q2 : 0.0936036258936, Q3 : -0.124091461301, Q4 : 0.58948880434}
2019-04-14 14:49:23.91: SIM {TimeUS : 64135169, Roll : 0.13, Pitch : -17.89, Yaw : 73.24, Alt : 49.3300018311, Lat : 49.283653, Lng : -123.1145925, Q1 : 0.792718231678, Q2 : 0.093683630228, Q3 : -0.124165959656, Q4 : 0.589409887791}
2019-04-14 14:49:24.01: SIM {TimeUS : 64235129, Roll : 0.14, Pitch : -17.89, Yaw : 73.23, Alt : 49.3300018311, Lat : 49.2836541, Lng : -123.1145863, Q1 : 0.792754352093, Q2 : 0.0937678515911, Q3 : -0.124051116407, Q4 : 0.589372098446}
2019-04-14 14:49:24.11: SIM {TimeUS : 64335089, Roll : 0.16, Pitch : -17.9, Yaw : 73.22, Alt : 49.3300018311, Lat : 49.2836553, Lng : -123.11458, Q1 : 0.792758524418, Q2 : 0.0939671322703, Q3 : -0.124025255442, Q4 : 0.589340269566}
2019-04-14 14:49:24.21: SIM {TimeUS : 64435049, Roll : 0.17, Pitch : -17.92, Yaw : 73.22, Alt : 49.3300018311, Lat : 49.2836565, Lng : -123.1145737, Q1 : 0.792760372162, Q2 : 0.0941123962402, Q3 : -0.124179445207, Q4 : 0.589282035828}
2019-04-14 14:49:24.31: SIM {TimeUS : 64535009, Roll : 0.17, Pitch : -17.94, Yaw : 73.21, Alt : 49.3300018311, Lat : 49.2836577, Lng : -123.1145674, Q1 : 0.792770206928, Q2 : 0.0942246466875, Q3 : -0.124303840101, Q4 : 0.589224636555}
2019-04-14 14:49:24.41: SIM {TimeUS : 64634969, Roll : 0.17, Pitch : -17.94, Yaw : 73.2, Alt : 49.3300018311, Lat : 49.2836589, Lng : -123.1145611, Q1 : 0.792803525925, Q2 : 0.0942326784134, Q3 : -0.12431563437, Q4 : 0.589176058769}
2019-04-14 14:49:24.51: SIM {TimeUS : 64734929, Roll : 0.16, Pitch : -17.94, Yaw : 73.2, Alt : 49.3300018311, Lat : 49.2836601, Lng : -123.1145548, Q1 : 0.792849361897, Q2 : 0.0941739678383, Q3 : -0.124355301261, Q4 : 0.589115381241}
2019-04-14 14:49:24.61: SIM {TimeUS : 64834889, Roll : 0.14, Pitch : -17.96, Yaw : 73.19, Alt : 49.3300018311, Lat : 49.2836613, Lng : -123.1145485, Q1 : 0.792897343636, Q2 : 0.0940648317337, Q3 : -0.124625392258, Q4 : 0.589011192322}
2019-04-14 14:49:24.71: SIM {TimeUS : 64934849, Roll : 0.1, Pitch : -18.0, Yaw : 73.18, Alt : 49.3300018311, Lat : 49.2836625, Lng : -123.1145422, Q1 : 0.792943060398, Q2 : 0.0939795002341, Q3 : -0.125061690807, Q4 : 0.588870763779}
2019-04-14 14:49:24.81: SIM {TimeUS : 65034809, Roll : 0.08, Pitch : -18.0, Yaw : 73.16, Alt : 49.3300018311, Lat : 49.2836637, Lng : -123.1145358, Q1 : 0.793013811111, Q2 : 0.0938759222627, Q3 : -0.125243321061, Q4 : 0.588753402233}
2019-04-14 14:49:24.91: SIM {TimeUS : 65134769, Roll : 0.08, Pitch : -17.99, Yaw : 73.15, Alt : 49.3300018311, Lat : 49.2836649, Lng : -123.1145295, Q1 : 0.793103635311, Q2 : 0.0937962606549, Q3 : -0.125108093023, Q4 : 0.588673830032}
2019-04-14 14:49:25.01: SIM {TimeUS : 65234729, Roll : 0.11, Pitch : -17.97, Yaw : 73.13, Alt : 49.3400001526, Lat : 49.2836662, Lng : -123.1145231, Q1 : 0.793180525303, Q2 : 0.09385676682, Q3 : -0.124904610217, Q4 : 0.588603794575}
2019-04-14 14:49:25.11: SIM {TimeUS : 65334689, Roll : 0.12, Pitch : -17.98, Yaw : 73.12, Alt : 49.3400001526, Lat : 49.2836674, Lng : -123.1145168, Q1 : 0.793242156506, Q2 : 0.0939971879125, Q3 : -0.124876394868, Q4 : 0.588504314423}
2019-04-14 14:49:25.21: SIM {TimeUS : 65434649, Roll : 0.12, Pitch : -17.99, Yaw : 73.1, Alt : 49.3400001526, Lat : 49.2836686, Lng : -123.1145104, Q1 : 0.793306052685, Q2 : 0.0940660759807, Q3 : -0.124995574355, Q4 : 0.588381826878}
2019-04-14 14:49:25.31: SIM {TimeUS : 65534609, Roll : 0.11, Pitch : -18.02, Yaw : 73.09, Alt : 49.3400001526, Lat : 49.2836698, Lng : -123.1145041, Q1 : 0.793370842934, Q2 : 0.0940633118153, Q3 : -0.125231400132, Q4 : 0.588244795799}
2019-04-14 14:49:25.41: SIM {TimeUS : 65635402, Roll : 0.1, Pitch : -18.04, Yaw : 73.07, Alt : 49.3400001526, Lat : 49.283671, Lng : -123.1144976, Q1 : 0.793429851532, Q2 : 0.094101369381, Q3 : -0.125430881977, Q4 : 0.588116586208}
2019-04-14 14:49:25.51: SIM {TimeUS : 65735362, Roll : 0.11, Pitch : -18.06, Yaw : 73.06, Alt : 49.3400001526, Lat : 49.2836722, Lng : -123.1144913, Q1 : 0.793478906155, Q2 : 0.0942416936159, Q3 : -0.125544711947, Q4 : 0.588003635406}
2019-04-14 14:49:25.61: SIM {TimeUS : 65835322, Roll : 0.13, Pitch : -18.07, Yaw : 73.04, Alt : 49.3400001526, Lat : 49.2836735, Lng : -123.1144849, Q1 : 0.793521463871, Q2 : 0.0944127440453, Q3 : -0.125578120351, Q4 : 0.587911605835}
2019-04-14 14:49:25.71: SIM {TimeUS : 65935282, Roll : 0.15, Pitch : -18.08, Yaw : 73.03, Alt : 49.3400001526, Lat : 49.2836747, Lng : -123.1144785, Q1 : 0.793542742729, Q2 : 0.0946326106787, Q3 : -0.125509798527, Q4 : 0.58786213398}
2019-04-14 14:49:25.81: SIM {TimeUS : 66035242, Roll : 0.17, Pitch : -18.1, Yaw : 73.03, Alt : 49.3400001526, Lat : 49.2836759, Lng : -123.1144721, Q1 : 0.793544054031, Q2 : 0.0948153212667, Q3 : -0.125527918339, Q4 : 0.587827026844}
2019-04-14 14:49:25.91: SIM {TimeUS : 66135202, Roll : 0.18, Pitch : -18.11, Yaw : 73.02, Alt : 49.3400001526, Lat : 49.2836771, Lng : -123.1144657, Q1 : 0.79353928566, Q2 : 0.0949954986572, Q3 : -0.125578418374, Q4 : 0.587793588638}
2019-04-14 14:49:26.01: SIM {TimeUS : 66235162, Roll : 0.2, Pitch : -18.13, Yaw : 73.02, Alt : 49.3400001526, Lat : 49.2836784, Lng : -123.1144593, Q1 : 0.793527066708, Q2 : 0.0952015072107, Q3 : -0.125591501594, Q4 : 0.58777397871}
2019-04-14 14:49:26.11: SIM {TimeUS : 66335122, Roll : 0.24, Pitch : -18.13, Yaw : 73.01, Alt : 49.3400001526, Lat : 49.2836796, Lng : -123.1144529, Q1 : 0.793509662151, Q2 : 0.0954533293843, Q3 : -0.125472873449, Q4 : 0.587782025337}
2019-04-14 14:49:26.21: SIM {TimeUS : 66435082, Roll : 0.26, Pitch : -18.14, Yaw : 73.01, Alt : 49.3499984741, Lat : 49.2836808, Lng : -123.1144465, Q1 : 0.793492078781, Q2 : 0.095665179193, Q3 : -0.125417649746, Q4 : 0.587783098221}
2019-04-14 14:49:26.31: SIM {TimeUS : 66535042, Roll : 0.24, Pitch : -18.14, Yaw : 73.01, Alt : 49.3499984741, Lat : 49.2836821, Lng : -123.1144401, Q1 : 0.793518543243, Q2 : 0.0955301374197, Q3 : -0.125444576144, Q4 : 0.587763547897}
