2019-04-14 13:12:44.80: SIM {TimeUS : 40416327, Roll : 0.0, Pitch : 0.0, Yaw : 0.0, Alt : 30.1000003815, Lat : 49.28357, Lng : -123.11502, Q1 : 1.0, Q2 : 0.0, Q3 : 0.0, Q4 : 0.0}
2019-04-14 13:12:44.91: SIM {TimeUS : 40535446, Roll : 0.0, Pitch : 0.0, Yaw : 0.0, Alt : 30.1000003815, Lat : 49.28357, Lng : -123.11502, Q1 : 1.0, Q2 : 0.0, Q3 : 0.0, Q4 : 0.0}
2019-04-14 13:12:45.01: SIM {TimeUS : 40635406, Roll : 0.0, Pitch : 0.0, Yaw : 0.0, Alt : 30.1000003815, Lat : 49.28357, Lng : -123.11502, Q1 : 1.0, Q2 : 0.0, Q3 : 0.0, Q4 : 0.0}
2019-04-14 13:12:45.11: SIM {TimeUS : 40735366, Roll : 0.0, Pitch : 0.0, Yaw : 0.0, Alt : 30.1000003815, Lat : 49.28357, Lng : -123.11502, Q1 : 1.0, Q2 : 0.0, Q3 : 0.0, Q4 : 0.0}
2019-04-14 13:12:45.21: SIM {TimeUS : 40835326, Roll : 0.0, Pitch : 0.0, Yaw : 0.0, Alt : 30.1000003815, Lat : 49.28357, Lng : -123.11502, Q1 : 1.0, Q2 : 0.0, Q3 : 0.0, Q4 : 0.0}
2019-04-14 13:12:45.31: SIM {TimeUS : 40935286, Roll : 0.0, Pitch : 0.0, Yaw : 0.0, Alt : 30.1000003815, Lat : 49.28357, Lng : -123.11502, Q1 : 1.0, Q2 : 0.0, Q3 : 0.0, Q4 : 0.0}
2019-04-14 13:12:45.41: SIM {TimeUS : 41035246, Roll : 0.0, Pitch : 0.0, Yaw : 0.0, Alt : 30.1000003815, Lat : 49.28357, Lng : -123.11502, Q1 : 1.0, Q2 : 0.0, Q3 : 0.0, Q4 : 0.0}
2019-04-14 13:12:45.51: SIM {TimeUS : 41135206, Roll : 0.0, Pitch : 0.0, Yaw : 0.0, Alt : 30.1000003815, Lat : 49.28357, Lng : -123.11502, Q1 : 1.0, Q2 : 0.0, Q3 : 0.0, Q4 : 0.0}
2019-04-14 13:12:45.61: SIM {TimeUS : 41235166, Roll : 0.0, Pitch : 0.0, Yaw : 0.0, Alt : 30.1000003815, Lat : 49.28357, Lng : -123.11502, Q1 : 1.0, Q2 : 0.0, Q3 : 0.0, Q4 : 0.0}
2019-04-14 13:12:45.71: SIM {TimeUS : 41335126, Roll : 0.0, Pitch : 0.0, Yaw : 0.0, Alt : 30.1000003815, Lat : 49.28357, Lng : -123.11502, Q1 : 1.0, Q2 : 0.0, Q3 : 0.0, Q4 : 0.0}
2019-04-14 13:12:45.81: SIM {TimeUS : 41435086, Roll : 0.0, Pitch : 0.0, Yaw : 0.0, Alt : 30.1000003815, Lat : 49.28357, Lng : -123.11502, Q1 : 1.0, Q2 : 0.0, Q3 : 0.0, Q4 : 0.0}
2019-04-14 13:12:45.91: SIM {TimeUS : 41535046, Roll : 0.0, Pitch : 0.0, Yaw : 0.0, Alt : 30.1000003815, Lat : 49.28357, Lng : -123.11502, Q1 : 1.0, Q2 : 0.0, Q3 : 0.0, Q4 : 0.0}
2019-04-14 13:12:46.01: SIM {TimeUS : 41635006, Roll : 0.0, Pitch : 0.0, Yaw : 0.0, Alt : 30.1000003815, Lat : 49.28357, Lng : -123.11502, Q1 : 1.0, Q2 : 0.0, Q3 : 0.0, Q4 : 0.0}
2019-04-14 13:12:46.11: SIM {TimeUS : 41734966, Roll : 0.0, Pitch : 0.0, Yaw : 0.0, Alt : 30.1000003815, Lat : 49.28357, Lng : -123.11502, Q1 : 1.0, Q2 : 0.0, Q3 : 0.0, Q4 : 0.0}
2019-04-14 13:12:46.21: SIM {TimeUS : 41834926, Roll : 0.0, Pitch : 0.0, Yaw : 0.0, Alt : 30.1000003815, Lat : 49.28357, Lng : -123.11502, Q1 : 1.0, Q2 : 0.0, Q3 : 0.0, Q4 : 0.0}
2019-04-14 13:12:46.31: SIM {TimeUS : 41934886, Roll : 0.0, Pitch : 0.0, Yaw : 0.0, Alt : 30.1000003815, Lat : 49.28357, Lng : -123.11502, Q1 : 1.0, Q2 : 0.0, Q3 : 0.0, Q4 : 0.0}
2019-04-14 13:12:46.41: SIM {TimeUS : 42034846, Roll : 0.0, Pitch : 0.0, Yaw : 0.0, Alt : 30.1000003815, Lat : 49.28357, Lng : -123.11502, Q1 : 1.0, Q2 : 0.0, Q3 : 0.0, Q4 : 0.0}
2019-04-14 13:12:46.51: SIM {TimeUS : 42134806, Roll : 0.0, Pitch : 0.0, Yaw : 0.0, Alt : 30.1000003815, Lat : 49.28357, Lng : -123.11502, Q1 : 1.0, Q2 : 0.0, Q3 : 0.0, Q4 : 0.0}
2019-04-14 13:12:46.61: SIM {TimeUS : 42234766, Roll : 0.0, Pitch : 0.0, Yaw : 0.0, Alt : 30.1000003815, Lat : 49.28357, Lng : -123.11502, Q1 : 1.0, Q2 : 0.0, Q3 : 0.0, Q4 : 0.0}
2019-04-14 13:12:46.71: SIM {TimeUS : 42334726, Roll : 0.0, Pitch : 0.0, Yaw : 0.0, Alt : 30.1000003815, Lat : 49.28357, Lng : -123.11502, Q1 : 1.0, Q2 : 0.0, Q3 : 0.0, Q4 : 0.0}
2019-04-14 13:12:46.81: SIM {TimeUS : 42434686, Roll : 0.0, Pitch : 0.0, Yaw : 0.0, Alt : 30.1000003815, Lat : 49.28357, Lng : -123.11502, Q1 : 1.0, Q2 : 0.0, Q3 : 0.0, Q4 : 0.0}
2019-04-14 13:12:46.91: SIM {TimeUS : 42535479, Roll : 0.0, Pitch : 0.0, Yaw : 0.0, Alt : 30.1000003815, Lat : 49.28357, Lng : -123.11502, Q1 : 1.0, Q2 : 0.0, Q3 : 0.0, Q4 : 0.0}
2019-04-14 13:12:47.01: SIM {TimeUS : 42635439, Roll : 0.0, Pitch : 0.0, Yaw : 0.0, Alt : 30.1000003815, Lat : 49.28357, Lng : -123.11502, Q1 : 1.0, Q2 : 0.0, Q3 : 0.0, Q4 : 0.0}
2019-04-14 13:12:47.11: SIM {TimeUS : 42735399, Roll : 0.0, Pitch : 0.0, Yaw : 0.0, Alt : 30.1000003815, Lat : 49.28357, Lng : -123.11502, Q1 : 1.0, Q2 : 0.0, Q3 : 0.0, Q4 : 7.39073472561e-12}
2019-04-14 13:12:47.21: SIM {TimeUS : 42835359, Roll : 0.0, Pitch : 0.0, Yaw : 0.0, Alt : 30.1000003815, Lat : 49.28357, Lng : -123.11502, Q1 : 1.0, Q2 : 0.0, Q3 : 0.0, Q4 : 1.15506416931e-10}
2019-04-14 13:12:47.31: SIM {TimeUS : 42935319, Roll : 0.0, Pitch : 0.0, Yaw : 360.0, Alt : 30.1000003815, Lat : 49.28357, Lng : -123.11502, Q1 : 1.0, Q2 : 0.0, Q3 : 0.0, Q4 : -1.05012851748e-07}
2019-04-14 13:12:47.41: SIM {TimeUS : 43035279, Roll : 0.0, Pitch : 0.0, Yaw : 359.99, Alt : 30.1000003815, Lat : 49.28357, Lng : -123.11502, Q1 : 1.0, Q2 : 0.0, Q3 : 0.0, Q4 : -3.08752333922e-07}
2019-04-14 13:12:47.51: SIM {TimeUS : 43135239, Roll : 0.0, Pitch : 0.0, Yaw : 359.99, Alt : 30.1000003815, Lat : 49.28357, Lng : -123.11502, Q1 : 1.0, Q2 : 0.0, Q3 : 0.0, Q4 : -4.9396913937e-07}
2019-04-14 13:12:47.61: SIM {TimeUS : 43235199, Roll : 0.0, Pitch : 0.0, Yaw : 359.99, Alt : 30.1000003815, Lat : 49.28357, Lng : -123.11502, Q1 : 1.0, Q2 : 0.0, Q3 : 0.0, Q4 : -6.95183302923e-07}
2019-04-14 13:12:47.71: SIM {TimeUS : 43335159, Roll : 0.0, Pitch : 0.0, Yaw : 359.99, Alt : 30.1000003815, Lat : 49.28357, Lng : -123.11502, Q1 : 1.0, Q2 : 0.0, Q3 : 0.0, Q4 : -8.71522331636e-07}
2019-04-14 13:12:47.81: SIM {TimeUS : 43435119, Roll : 0.0, Pitch : 0.0, Yaw : 359.99, Alt : 30.1000003815, Lat : 49.28357, Lng : -123.11502, Q1 : 1.0, Q2 : 0.0, Q3 : 0.0, Q4 : -1.08451138203e-06}
2019-04-14 13:12:47.91: SIM {TimeUS : 43535079, Roll : 0.0, Pitch : 0.0, Yaw : 359.99, Alt : 30.1000003815, Lat : 49.28357, Lng : -123.11502, Q1 : 1.0, Q2 : 0.0, Q3 : 0.0, Q4 : -1.3146893707e-06}
2019-04-14 13:12:48.01: SIM {TimeUS : 43635039, Roll : 0.0, Pitch : 0.0, Yaw : 359.99, Alt : 30.1100006104, Lat : 49.28357, Lng : -123.11502, Q1 : 1.0, Q2 : 0.0, Q3 : 0.0, Q4 : -1.53302244144e-06}
2019-04-14 13:12:48.11: SIM {TimeUS : 43734999, Roll : 0.0, Pitch : 0.0, Yaw : 359.99, Alt : 30.1299991608, Lat : 49.28357, Lng : -123.11502, Q1 : 1.0, Q2 : 0.0, Q3 : 0.0, Q4 : -1.74456636159e-06}
2019-04-14 13:12:48.21: SIM {TimeUS : 43834959, Roll : 0.0, Pitch : 0.0, Yaw : 359.99, Alt : 30.1599998474, Lat : 49.28357, Lng : -123.11502, Q1 : 1.0, Q2 : 0.0, Q3 : 0.0, Q4 : -1.92040079128e-06}
2019-04-14 13:12:48.31: SIM {TimeUS : 43934919, Roll : 0.0, Pitch : 0.0, Yaw : 359.99, Alt : 30.1900005341, Lat : 49.28357, Lng : -123.11502, Q1 : 1.0, Q2 : 0.0, Q3 : 0.0, Q4 : -2.13526823245e-06}
2019-04-14 13:12:48.41: SIM {TimeUS : 44034879, Roll : -0.03, Pitch : -0.03, Yaw : 359.99, Alt : 30.2299995422, Lat : 49.28357, Lng : -123.11502, Q1 : 0.999999880791, Q2 : -0.000330135371769, Q3 : -0.000296858401271, Q4 : -5.19631294083e-06}
2019-04-14 13:12:48.51: SIM {TimeUS : 44134839, Roll : -0.3, Pitch : -0.27, Yaw : 359.99, Alt : 30.3099994659, Lat : 49.28357, Lng : -123.11502, Q1 : 0.999993622303, Q2 : -0.00264580873773, Q3 : -0.00241507822648, Q4 : -3.38560166711e-05}
2019-04-14 13:12:48.61: SIM {TimeUS : 44234799, Roll : -0.63, Pitch : -0.57, Yaw : 359.99, Alt : 30.4400005341, Lat : 49.28357, Lng : -123.11502, Q1 : 0.999972224236, Q2 : -0.00554830906913, Q3 : -0.0049831722863, Q4 : -8.89432922122e-05}
2019-04-14 13:12:48.71: SIM {TimeUS : 44334759, Roll : -0.85, Pitch : -0.76, Yaw : 359.98, Alt : 30.6000003815, Lat : 49.28357, Lng : -123.11502, Q1 : 0.999950170517, Q2 : -0.00745467841625, Q3 : -0.00664266711101, Q4 : -0.000161921139807}
2019-04-14 13:12:48.81: SIM {TimeUS : 44434719, Roll : -0.87, Pitch : -0.8, Yaw : 359.97, Alt : 30.7600002289, Lat : 49.28357, Lng : -123.11502, Q1 : 0.999945700169, Q2 : -0.00767329335213, Q3 : -0.0070505454205, Q4 : -0.000246783194598}
2019-04-14 13:12:48.91: SIM {TimeUS : 44534679, Roll : -0.75, Pitch : -0.7, Yaw : 359.96, Alt : 30.9099998474, Lat : 49.28357, Lng : -123.1150201, Q1 : 0.999959349632, Q2 : -0.00658144755289, Q3 : -0.00615860009566, Q4 : -0.000335330754751}
2019-04-14 13:12:49.01: SIM {TimeUS : 44635472, Roll : -0.55, Pitch : -0.5, Yaw : 359.95, Alt : 31.0699996948, Lat : 49.2835701, Lng : -123.1150202, Q1 : 0.999978601933, Q2 : -0.00483313156292, Q3 : -0.00438966136426, Q4 : -0.000418968556914}
2019-04-14 13:12:49.11: SIM {TimeUS : 44735432, Roll : -0.32, Pitch : -0.27, Yaw : 359.94, Alt : 31.2199993134, Lat : 49.2835701, Lng : -123.1150202, Q1 : 0.999992847443, Q2 : -0.00285177351907, Q3 : -0.00243308139034, Q4 : -0.000485629803734}
2019-04-14 13:12:49.21: SIM {TimeUS : 44835392, Roll : -0.12, Pitch : -0.09, Yaw : 359.93, Alt : 31.3899993896, Lat : 49.2835702, Lng : -123.1150203, Q1 : 0.999998867512, Q2 : -0.0011303020874, Q3 : -0.000831268611364, Q4 : -0.000535027298611}
2019-04-14 13:12:49.31: SIM {TimeUS : 44935352, Roll : 0.0, Pitch : 0.01, Yaw : 359.93, Alt : 31.5599994659, Lat : 49.2835702, Lng : -123.1150204, Q1 : 0.999999821186, Q2 : 4.10773427575e-05, Q3 : 0.000171327235876, Q4 : -0.000566519331187}
2019-04-14 13:12:49.41: SIM {TimeUS : 45035312, Roll : 0.07, Pitch : 0.05, Yaw : 359.93, Alt : 31.7399997711, Lat : 49.2835702, Lng : -123.1150205, Q1 : 0.999999463558, Q2 : 0.000684930593707, Q3 : 0.000504058261868, Q4 : -0.000571719312575}
2019-04-14 13:12:49.51: SIM {TimeUS : 45135272, Roll : 0.1, Pitch : 0.04, Yaw : 359.93, Alt : 31.9200000763, Lat : 49.2835703, Lng : -123.1150205, Q1 : 0.999999344349, Q2 : 0.00091546116164, Q3 : 0.000428671832196, Q4 : -0.000552557525225}
2019-04-14 13:12:49.61: SIM {TimeUS : 45235232, Roll : 0.1, Pitch : 0.03, Yaw : 359.93, Alt : 32.0999984741, Lat : 49.2835703, Lng : -123.1150206, Q1 : 0.999999403954, Q2 : 0.00089427724015, Q3 : 0.000313337950502, Q4 : -0.000530398043338}
2019-04-14 13:12:49.71: SIM {TimeUS : 45335192, Roll : 0.08, Pitch : 0.03, Yaw : 359.94, Alt : 32.2900009155, Lat : 49.2835703, Lng : -123.1150207, Q1 : 0.999999523163, Q2 : 0.000779057794716, Q3 : 0.000288663810352, Q4 : -0.000508650904521}
2019-04-14 13:12:49.81: SIM {TimeUS : 45435152, Roll : 0.07, Pitch : 0.05, Yaw : 359.94, Alt : 32.4799995422, Lat : 49.2835703, Lng : -123.1150207, Q1 : 0.999999582767, Q2 : 0.000613094307482, Q3 : 0.000506988842972, Q4 : -0.000501138914842}
2019-04-14 13:12:49.91: SIM {TimeUS : 45535112, Roll : 0.08, Pitch : 0.1, Yaw : 359.94, Alt : 32.6800003052, Lat : 49.2835703, Lng : -123.1150207, Q1 : 0.99999922514, Q2 : 0.000703057856299, Q3 : 0.000916445977055, Q4 : -0.000493836938404}
2019-04-14 13:12:50.01: SIM {TimeUS : 45635072, Roll : 0.11, Pitch : 0.14, Yaw : 359.94, Alt : 32.8800010681, Lat : 49.2835704, Lng : -123.1150208, Q1 : 0.999998629093, Q2 : 0.000966778083239, Q3 : 0.00127921125386, Q4 : -0.000486258300953}
2019-04-14 13:12:50.11: SIM {TimeUS : 45735032, Roll : 0.13, Pitch : 0.18, Yaw : 359.94, Alt : 33.0800018311, Lat : 49.2835704, Lng : -123.1150208, Q1 : 0.999997854233, Q2 : 0.00121373636648, Q3 : 0.00160223734565, Q4 : -0.000476156623336}
2019-04-14 13:12:50.21: SIM {TimeUS : 45834992, Roll : 0.15, Pitch : 0.2, Yaw : 359.94, Alt : 33.2799987793, Lat : 49.2835704, Lng : -123.1150208, Q1 : 0.999997437, Q2 : 0.00131284585223, Q3 : 0.00177394435741, Q4 : -0.000471371982712}
2019-04-14 13:12:50.31: SIM {TimeUS : 45934952, Roll : 0.15, Pitch : 0.17, Yaw : 359.94, Alt : 33.4799995422, Lat : 49.2835704, Lng : -123.1150209, Q1 : 0.999997735023, Q2 : 0.00137013697531, Q3 : 0.00156267953571, Q4 : -0.000468696875032}
2019-04-14 13:12:50.41: SIM {TimeUS : 46034912, Roll : 0.15, Pitch : 0.13, Yaw : 359.94, Alt : 33.6899986267, Lat : 49.2835704, Lng : -123.1150209, Q1 : 0.999998211861, Q2 : 0.00139310443774, Q3 : 0.0011725599179, Q4 : -0.000481927738292}
2019-04-14 13:12:50.51: SIM {TimeUS : 46134872, Roll : 0.15, Pitch : 0.1, Yaw : 359.94, Alt : 33.9000015259, Lat : 49.2835704, Lng : -123.1150209, Q1 : 0.999998509884, Q2 : 0.00137588812504, Q3 : 0.000935216667131, Q4 : -0.000508738565259}
2019-04-14 13:12:50.61: SIM {TimeUS : 46234832, Roll : 0.15, Pitch : 0.09, Yaw : 359.93, Alt : 34.1100006104, Lat : 49.2835704, Lng : -123.1150209, Q1 : 0.999998569489, Q2 : 0.00136129406746, Q3 : 0.000841442088131, Q4 : -0.000536624342203}
2019-04-14 13:12:50.71: SIM {TimeUS : 46334792, Roll : 0.15, Pitch : 0.1, Yaw : 359.93, Alt : 34.3199996948, Lat : 49.2835704, Lng : -123.1150209, Q1 : 0.999998509884, Q2 : 0.00138689763844, Q3 : 0.00087392993737, Q4 : -0.000570473494008}
2019-04-14 13:12:50.81: SIM {TimeUS : 46434752, Roll : 0.14, Pitch : 0.08, Yaw : 359.93, Alt : 34.5299987793, Lat : 49.2835704, Lng : -123.1150209, Q1 : 0.999998688698, Q2 : 0.00128185388166, Q3 : 0.000769068545196, Q4 : -0.000597619975451}
2019-04-14 13:12:50.91: SIM {TimeUS : 46534712, Roll : 0.12, Pitch : 0.07, Yaw : 359.92, Alt : 34.75, Lat : 49.2835704, Lng : -123.1150208, Q1 : 0.999998986721, Q2 : 0.0010769040091, Q3 : 0.000670333043672, Q4 : -0.000619382539298}
2019-04-14 13:12:51.01: SIM {TimeUS : 46634672, Roll : 0.09, Pitch : 0.06, Yaw : 359.92, Alt : 34.9599990845, Lat : 49.2835704, Lng : -123.1150208, Q1 : 0.99999922514, Q2 : 0.000848193303682, Q3 : 0.00060107128229, Q4 : -0.000640388287138}
2019-04-14 13:12:51.11: SIM {TimeUS : 46735465, Roll : 0.06, Pitch : 0.05, Yaw : 359.92, Alt : 35.1800003052, Lat : 49.2835704, Lng : -123.1150208, Q1 : 0.999999463558, Q2 : 0.000589643837884, Q3 : 0.000509174074978, Q4 : -0.000659042736515}
2019-04-14 13:12:51.21: SIM {TimeUS : 46835425, Roll : 0.05, Pitch : 0.02, Yaw : 359.92, Alt : 35.4000015259, Lat : 49.2835704, Lng : -123.1150208, Q1 : 0.999999642372, Q2 : 0.000448054313892, Q3 : 0.000209598525544, Q4 : -0.000672925030813}
2019-04-14 13:12:51.31: SIM {TimeUS : 46935385, Roll : 0.03, Pitch : 0.0, Yaw : 359.92, Alt : 35.6199989319, Lat : 49.2835704, Lng : -123.1150208, Q1 : 0.999999701977, Q2 : 0.000325498287566, Q3 : -1.86671513802e-05, Q4 : -0.000693944981322}
2019-04-14 13:12:51.41: SIM {TimeUS : 47035345, Roll : 0.01, Pitch : 0.0, Yaw : 359.91, Alt : 35.8300018311, Lat : 49.2835704, Lng : -123.1150208, Q1 : 0.999999701977, Q2 : 0.000112246256322, Q3 : -8.40246284497e-05, Q4 : -0.000720226438716}
2019-04-14 13:12:51.51: SIM {TimeUS : 47135305, Roll : 0.0, Pitch : 0.0, Yaw : 359.91, Alt : 36.0499992371, Lat : 49.2835704, Lng : -123.1150207, Q1 : 0.999999701977, Q2 : 6.48689019727e-05, Q3 : -4.78889414808e-05, Q4 : -0.00074418541044}
2019-04-14 13:12:51.61: SIM {TimeUS : 47235265, Roll : 0.01, Pitch : 0.0, Yaw : 359.91, Alt : 36.2799987793, Lat : 49.2835704, Lng : -123.1150207, Q1 : 0.999999701977, Q2 : 0.000125601596665, Q3 : -9.6866815511e-06, Q4 : -0.000767892226577}
2019-04-14 13:12:51.71: SIM {TimeUS : 47335225, Roll : 0.0, Pitch : -0.01, Yaw : 359.9, Alt : 36.5, Lat : 49.2835704, Lng : -123.1150207, Q1 : 0.999999701977, Q2 : 3.75305280613e-05, Q3 : -0.000135983864311, Q4 : -0.000788285629824}
2019-04-14 13:12:51.81: SIM {TimeUS : 47435185, Roll : -0.02, Pitch : -0.04, Yaw : 359.9, Alt : 36.7200012207, Lat : 49.2835704, Lng : -123.1150207, Q1 : 0.999999523163, Q2 : -0.00024496432161, Q3 : -0.000433866371168, Q4 : -0.000810162280686}
2019-04-14 13:12:51.91: SIM {TimeUS : 47535145, Roll : -0.06, Pitch : -0.07, Yaw : 359.9, Alt : 36.9399986267, Lat : 49.2835704, Lng : -123.1150207, Q1 : 0.999999284744, Q2 : -0.000601483217906, Q3 : -0.000659640063532, Q4 : -0.000832399935462}
2019-04-14 13:12:52.01: SIM {TimeUS : 47635105, Roll : -0.1, Pitch : -0.09, Yaw : 359.9, Alt : 37.1699981689, Lat : 49.2835704, Lng : -123.1150207, Q1 : 0.999998867512, Q2 : -0.000941533653531, Q3 : -0.000852805853356, Q4 : -0.000854237063322}
2019-04-14 13:12:52.11: SIM {TimeUS : 47735065, Roll : -0.12, Pitch : -0.1, Yaw : 359.89, Alt : 37.3899993896, Lat : 49.2835704, Lng : -123.1150207, Q1 : 0.999998569489, Q2 : -0.0010797433788, Q3 : -0.00092476134887, Q4 : -0.000880534644239}
2019-04-14 13:12:52.21: SIM {TimeUS : 47835025, Roll : -0.12, Pitch : -0.09, Yaw : 359.89, Alt : 37.6199989319, Lat : 49.2835704, Lng : -123.1150206, Q1 : 0.999998688698, Q2 : -0.00105806509964, Q3 : -0.000817986088805, Q4 : -0.000907828973141}
2019-04-14 13:12:52.31: SIM {TimeUS : 47934985, Roll : -0.1, Pitch : -0.05, Yaw : 359.89, Alt : 37.8400001526, Lat : 49.2835704, Lng : -123.1150206, Q1 : 0.999999046326, Q2 : -0.000905621505808, Q3 : -0.000518129090779, Q4 : -0.000930013658945}
2019-04-14 13:12:52.41: SIM {TimeUS : 48034945, Roll : -0.08, Pitch : -0.03, Yaw : 359.89, Alt : 38.0699996948, Lat : 49.2835706, Lng : -123.1150206, Q1 : 0.99999922514, Q2 : -0.000726166996174, Q3 : -0.000279177271295, Q4 : -0.000952608534135}
2019-04-14 13:12:52.51: SIM {TimeUS : 48134905, Roll : -0.07, Pitch : -0.02, Yaw : 359.88, Alt : 38.2999992371, Lat : 49.2835706, Lng : -123.1150206, Q1 : 0.999999284744, Q2 : -0.000667051121127, Q3 : -0.000251143763307, Q4 : -0.000974337744992}
2019-04-14 13:12:52.61: SIM {TimeUS : 48234865, Roll : -0.07, Pitch : -0.01, Yaw : 359.88, Alt : 38.5299987793, Lat : 49.2835706, Lng : -123.1150206, Q1 : 0.999999284744, Q2 : -0.000670043402351, Q3 : -0.000141877026181, Q4 : -0.00098657165654}
2019-04-14 13:12:52.71: SIM {TimeUS : 48334825, Roll : -0.08, Pitch : 0.0, Yaw : 359.88, Alt : 38.7599983215, Lat : 49.2835706, Lng : -123.1150206, Q1 : 0.99999922514, Q2 : -0.000784714240581, Q3 : -1.24204134409e-05, Q4 : -0.000991282286122}
2019-04-14 13:12:52.81: SIM {TimeUS : 48434785, Roll : -0.08, Pitch : 0.01, Yaw : 359.88, Alt : 38.9799995422, Lat : 49.2835706, Lng : -123.1150206, Q1 : 0.99999922514, Q2 : -0.000762054231018, Q3 : 0.000103450212919, Q4 : -0.000991860521026}
2019-04-14 13:12:52.91: SIM {TimeUS : 48534745, Roll : -0.06, Pitch : 0.03, Yaw : 359.88, Alt : 39.2099990845, Lat : 49.2835706, Lng : -123.1150206, Q1 : 0.999999284744, Q2 : -0.000591262301896, Q3 : 0.000307012232952, Q4 : -0.000992729794234}
2019-04-14 13:12:53.01: SIM {TimeUS : 48634705, Roll : -0.04, Pitch : 0.03, Yaw : 359.88, Alt : 39.4399986267, Lat : 49.2835706, Lng : -123.1150206, Q1 : 0.999999403954, Q2 : -0.000410213309806, Q3 : 0.000343968771631, Q4 : -0.00099349336233}
2019-04-14 13:12:53.11: SIM {TimeUS : 48734665, Roll : -0.02, Pitch : 0.04, Yaw : 359.88, Alt : 39.6699981689, Lat : 49.2835706, Lng : -123.1150207, Q1 : 0.999999463558, Q2 : -0.000191775252461, Q3 : 0.000353614566848, Q4 : -0.000998271862045}
2019-04-14 13:12:53.21: SIM {TimeUS : 48835458, Roll : 0.0, Pitch : 0.07, Yaw : 359.88, Alt : 39.9099998474, Lat : 49.2835706, Lng : -123.1150207, Q1 : 0.999999284744, Q2 : 7.82056158641e-05, Q3 : 0.000617197598331, Q4 : -0.00100777985062}
2019-04-14 13:12:53.31: SIM {TimeUS : 48935418, Roll : 0.04, Pitch : 0.11, Yaw : 359.88, Alt : 40.1399993896, Lat : 49.2835706, Lng : -123.1150207, Q1 : 0.999998927116, Q2 : 0.000380994111765, Q3 : 0.000995479058474, Q4 : -0.00102383666672}
2019-04-14 13:12:53.41: SIM {TimeUS : 49035378, Roll : 0.07, Pitch : 0.15, Yaw : 359.88, Alt : 40.3699989319, Lat : 49.2835706, Lng : -123.1150207, Q1 : 0.999998271465, Q2 : 0.000669765169732, Q3 : 0.00137546507176, Q4 : -0.00104585196823}
2019-04-14 13:12:53.51: SIM {TimeUS : 49135338, Roll : 0.07, Pitch : 0.19, Yaw : 359.87, Alt : 40.5999984741, Lat : 49.2835706, Lng : -123.1150207, Q1 : 0.999997794628, Q2 : 0.000647171807941, Q3 : 0.00168953521643, Q4 : -0.00106530985795}
2019-04-14 13:12:53.61: SIM {TimeUS : 49235298, Roll : 0.03, Pitch : 0.21, Yaw : 359.87, Alt : 40.8300018311, Lat : 49.2835706, Lng : -123.1150207, Q1 : 0.999997615814, Q2 : 0.000277382932836, Q3 : 0.00187526550144, Q4 : -0.00110268953722}
2019-04-14 13:12:53.71: SIM {TimeUS : 49335258, Roll : 0.0, Pitch : 0.21, Yaw : 359.86, Alt : 41.0699996948, Lat : 49.2835706, Lng : -123.1150207, Q1 : 0.99999755621, Q2 : -8.29147757031e-05, Q3 : 0.00188155996148, Q4 : -0.00113464100286}
2019-04-14 13:12:53.81: SIM {TimeUS : 49435218, Roll : -0.03, Pitch : 0.18, Yaw : 359.86, Alt : 41.2999992371, Lat : 49.2835706, Lng : -123.1150207, Q1 : 0.999998033047, Q2 : -0.000284640438622, Q3 : 0.00157280033454, Q4 : -0.00115670252126}
2019-04-14 13:12:53.91: SIM {TimeUS : 49535178, Roll : -0.03, Pitch : 0.13, Yaw : 359.86, Alt : 41.5299987793, Lat : 49.2835706, Lng : -123.1150207, Q1 : 0.999998509884, Q2 : -0.000335153803462, Q3 : 0.00119103782345, Q4 : -0.00118637515698}
2019-04-14 13:12:54.01: SIM {TimeUS : 49635138, Roll : -0.02, Pitch : 0.12, Yaw : 359.85, Alt : 41.7700004578, Lat : 49.2835706, Lng : -123.1150207, Q1 : 0.999998688698, Q2 : -0.000217273278395, Q3 : 0.00106015847996, Q4 : -0.00122414319776}
2019-04-14 13:12:54.11: SIM {TimeUS : 49735098, Roll : 0.01, Pitch : 0.12, Yaw : 359.85, Alt : 42.0, Lat : 49.2835706, Lng : -123.1150207, Q1 : 0.999998569489, Q2 : 0.000134602552862, Q3 : 0.00111579545774, Q4 : -0.00126817263663}
2019-04-14 13:12:54.21: SIM {TimeUS : 49835058, Roll : 0.06, Pitch : 0.13, Yaw : 359.84, Alt : 42.2299995422, Lat : 49.2835706, Lng : -123.1150207, Q1 : 0.999998271465, Q2 : 0.000592156371567, Q3 : 0.00115924247075, Q4 : -0.00131115387194}
2019-04-14 13:12:54.31: SIM {TimeUS : 49935018, Roll : 0.1, Pitch : 0.11, Yaw : 359.84, Alt : 42.4700012207, Lat : 49.2835706, Lng : -123.1150207, Q1 : 0.999998152256, Q2 : 0.000937031232752, Q3 : 0.000999678159133, Q4 : -0.00135670322925}
2019-04-14 13:12:54.41: SIM {TimeUS : 50034978, Roll : 0.1, Pitch : 0.08, Yaw : 359.83, Alt : 42.7000007629, Lat : 49.2835706, Lng : -123.1150207, Q1 : 0.999998271465, Q2 : 0.000948919390794, Q3 : 0.000740293529816, Q4 : -0.00139829062391}
2019-04-14 13:12:54.51: SIM {TimeUS : 50134938, Roll : 0.07, Pitch : 0.06, Yaw : 359.83, Alt : 42.9399986267, Lat : 49.2835706, Lng : -123.1150207, Q1 : 0.999998629093, Q2 : 0.000614540011156, Q3 : 0.000560162879992, Q4 : -0.00142295076512}
2019-04-14 13:12:54.61: SIM {TimeUS : 50234898, Roll : 0.01, Pitch : 0.05, Yaw : 359.83, Alt : 43.1699981689, Lat : 49.2835706, Lng : -123.1150207, Q1 : 0.999998807907, Q2 : 0.000126327126054, Q3 : 0.000517774315085, Q4 : -0.00144267186988}
2019-04-14 13:12:54.71: SIM {TimeUS : 50334858, Roll : -0.02, Pitch : 0.07, Yaw : 359.83, Alt : 43.4099998474, Lat : 49.2835704, Lng : -123.1150207, Q1 : 0.999998688698, Q2 : -0.000225681287702, Q3 : 0.000645632913802, Q4 : -0.0014630027581}
2019-04-14 13:12:54.81: SIM {TimeUS : 50434818, Roll : -0.04, Pitch : 0.07, Yaw : 359.83, Alt : 43.6399993896, Lat : 49.2835704, Lng : -123.1150207, Q1 : 0.999998569489, Q2 : -0.000391721812775, Q3 : 0.000694032001775, Q4 : -0.00148142955732}
2019-04-14 13:12:54.91: SIM {TimeUS : 50534778, Roll : -0.04, Pitch : 0.06, Yaw : 359.82, Alt : 43.8800010681, Lat : 49.2835704, Lng : -123.1150207, Q1 : 0.999998688698, Q2 : -0.000360705074854, Q3 : 0.000546221097466, Q4 : -0.00149763934314}
2019-04-14 13:12:55.01: SIM {TimeUS : 50634738, Roll : -0.04, Pitch : 0.04, Yaw : 359.82, Alt : 44.1100006104, Lat : 49.2835704, Lng : -123.1150207, Q1 : 0.999998688698, Q2 : -0.000377674092306, Q3 : 0.000359865225619, Q4 : -0.00151926418766}
2019-04-14 13:12:55.11: SIM {TimeUS : 50734698, Roll : -0.03, Pitch : 0.02, Yaw : 359.82, Alt : 44.3499984741, Lat : 49.2835704, Lng : -123.1150207, Q1 : 0.999998748302, Q2 : -0.000344045343809, Q3 : 0.000188743346371, Q4 : -0.00154224724974}
2019-04-14 13:12:55.21: SIM {TimeUS : 50834658, Roll : -0.02, Pitch : 0.01, Yaw : 359.82, Alt : 44.5900001526, Lat : 49.2835704, Lng : -123.1150206, Q1 : 0.999998748302, Q2 : -0.000232476741076, Q3 : 0.000157803238835, Q4 : -0.00156608584803}
2019-04-14 13:12:55.31: SIM {TimeUS : 50935451, Roll : -0.01, Pitch : 0.02, Yaw : 359.81, Alt : 44.8199996948, Lat : 49.2835704, Lng : -123.1150206, Q1 : 0.999998688698, Q2 : -0.000138202914968, Q3 : 0.000213203384192, Q4 : -0.00158654293045}
2019-04-14 13:12:55.41: SIM {TimeUS : 51035411, Roll : -0.01, Pitch : 0.01, Yaw : 359.81, Alt : 45.0600013733, Lat : 49.2835704, Lng : -123.1150206, Q1 : 0.999998688698, Q2 : -0.000107320076495, Q3 : 0.000165010627825, Q4 : -0.00161076080985}
2019-04-14 13:12:55.51: SIM {TimeUS : 51135371, Roll : -0.01, Pitch : 0.0, Yaw : 359.81, Alt : 45.2999992371, Lat : 49.2835703, Lng : -123.1150206, Q1 : 0.999998629093, Q2 : -0.000163991950103, Q3 : -7.38461676519e-05, Q4 : -0.00163901911583}
2019-04-14 13:12:55.61: SIM {TimeUS : 51235331, Roll : -0.02, Pitch : -0.03, Yaw : 359.8, Alt : 45.5299987793, Lat : 49.2835703, Lng : -123.1150206, Q1 : 0.999998509884, Q2 : -0.000224996518227, Q3 : -0.000302980770357, Q4 : -0.00167010421865}
2019-04-14 13:12:55.71: SIM {TimeUS : 51335291, Roll : -0.02, Pitch : -0.05, Yaw : 359.8, Alt : 45.7700004578, Lat : 49.2835703, Lng : -123.1150206, Q1 : 0.999998390675, Q2 : -0.000242678725044, Q3 : -0.000470424769446, Q4 : -0.00169856834691}
2019-04-14 13:12:55.81: SIM {TimeUS : 51435251, Roll : -0.04, Pitch : -0.06, Yaw : 359.8, Alt : 46.0, Lat : 49.2835703, Lng : -123.1150206, Q1 : 0.99999833107, Q2 : -0.000356287957402, Q3 : -0.000529773824383, Q4 : -0.00172711338382}
2019-04-14 13:12:55.91: SIM {TimeUS : 51535211, Roll : -0.06, Pitch : -0.04, Yaw : 359.79, Alt : 46.2299995422, Lat : 49.2835703, Lng : -123.1150206, Q1 : 0.999998211861, Q2 : -0.00058974721469, Q3 : -0.000431494001532, Q4 : -0.0017543892609}
2019-04-14 13:12:56.01: SIM {TimeUS : 51635171, Roll : -0.1, Pitch : -0.03, Yaw : 359.79, Alt : 46.4500007629, Lat : 49.2835703, Lng : -123.1150206, Q1 : 0.999997973442, Q2 : -0.000879607803654, Q3 : -0.000322713865899, Q4 : -0.00177845754661}
2019-04-14 13:12:56.11: SIM {TimeUS : 51735131, Roll : -0.12, Pitch : -0.02, Yaw : 359.79, Alt : 46.6699981689, Lat : 49.2835703, Lng : -123.1150206, Q1 : 0.999997794628, Q2 : -0.00105799746234, Q3 : -0.00024453640799, Q4 : -0.00180118030403}
2019-04-14 13:12:56.21: SIM {TimeUS : 51835091, Roll : -0.12, Pitch : -0.01, Yaw : 359.79, Alt : 46.8899993896, Lat : 49.2835703, Lng : -123.1150206, Q1 : 0.999997794628, Q2 : -0.00105308636557, Q3 : -0.000127505642013, Q4 : -0.00182274368126}
2019-04-14 13:12:56.31: SIM {TimeUS : 51935051, Roll : -0.1, Pitch : 0.0, Yaw : 359.78, Alt : 47.0900001526, Lat : 49.2835703, Lng : -123.1150206, Q1 : 0.999997854233, Q2 : -0.000913823139854, Q3 : 4.86551834911e-05, Q4 : -0.00184551719576}
2019-04-14 13:12:56.41: SIM {TimeUS : 52035011, Roll : -0.07, Pitch : 0.01, Yaw : 359.78, Alt : 47.2900009155, Lat : 49.2835703, Lng : -123.1150206, Q1 : 0.999997973442, Q2 : -0.000681406760123, Q3 : 0.000122550307424, Q4 : -0.00186929490883}
2019-04-14 13:12:56.51: SIM {TimeUS : 52134971, Roll : -0.05, Pitch : 0.0, Yaw : 359.78, Alt : 47.4900016785, Lat : 49.2835703, Lng : -123.1150206, Q1 : 0.999998092651, Q2 : -0.000491346465424, Q3 : 7.99444169388e-05, Q4 : -0.0018897021655}
2019-04-14 13:12:56.61: SIM {TimeUS : 52234931, Roll : -0.05, Pitch : -0.01, Yaw : 359.78, Alt : 47.6699981689, Lat : 49.2835703, Lng : -123.1150206, Q1 : 0.999998092651, Q2 : -0.000451741885627, Q3 : -9.62541525951e-05, Q4 : -0.00191016227473}
2019-04-14 13:12:56.71: SIM {TimeUS : 52334891, Roll : -0.05, Pitch : -0.04, Yaw : 359.77, Alt : 47.8400001526, Lat : 49.2835703, Lng : -123.1150206, Q1 : 0.999997973442, Q2 : -0.000478823756566, Q3 : -0.000415846268879, Q4 : -0.00193004612811}
2019-04-14 13:12:56.81: SIM {TimeUS : 52434851, Roll : -0.04, Pitch : -0.08, Yaw : 359.77, Alt : 48.0, Lat : 49.2835703, Lng : -123.1150206, Q1 : 0.999997794628, Q2 : -0.000387482607039, Q3 : -0.000712034001481, Q4 : -0.00195195258129}
2019-04-14 13:12:56.91: SIM {TimeUS : 52534811, Roll : -0.03, Pitch : -0.1, Yaw : 359.77, Alt : 48.1500015259, Lat : 49.2835703, Lng : -123.1150206, Q1 : 0.99999755621, Q2 : -0.000319047423545, Q3 : -0.000941928534303, Q4 : -0.00197478826158}
2019-04-14 13:12:57.01: SIM {TimeUS : 52634771, Roll : -0.03, Pitch : -0.12, Yaw : 359.77, Alt : 48.2799987793, Lat : 49.2835703, Lng : -123.1150206, Q1 : 0.999997377396, Q2 : -0.000308473594487, Q3 : -0.00105327134952, Q4 : -0.0019980429206}
2019-04-14 13:12:57.11: SIM {TimeUS : 52734731, Roll : 0.0, Pitch : -0.11, Yaw : 359.76, Alt : 48.4099998474, Lat : 49.2835703, Lng : -123.1150206, Q1 : 0.999997496605, Q2 : -4.56904854218e-05, Q3 : -0.000963775848504, Q4 : -0.00202165707015}
2019-04-14 13:12:57.21: SIM {TimeUS : 52834691, Roll : 0.03, Pitch : -0.08, Yaw : 359.76, Alt : 48.5200004578, Lat : 49.2835703, Lng : -123.1150207, Q1 : 0.99999755621, Q2 : 0.000284795271, Q3 : -0.000768271042034, Q4 : -0.00204925658181}
2019-04-14 13:12:57.31: SIM {TimeUS : 52935484, Roll : 0.06, Pitch : -0.05, Yaw : 359.76, Alt : 48.6199989319, Lat : 49.2835703, Lng : -123.1150207, Q1 : 0.99999755621, Q2 : 0.000551021134015, Q3 : -0.00051076465752, Q4 : -0.00207701558247}
2019-04-14 13:12:57.41: SIM {TimeUS : 53035444, Roll : 0.07, Pitch : -0.03, Yaw : 359.75, Alt : 48.7099990845, Lat : 49.2835703, Lng : -123.1150207, Q1 : 0.99999755621, Q2 : 0.000645348161925, Q3 : -0.000290967524052, Q4 : -0.00210605561733}
2019-04-14 13:12:57.51: SIM {TimeUS : 53135404, Roll : 0.07, Pitch : -0.01, Yaw : 359.75, Alt : 48.7799987793, Lat : 49.2835703, Lng : -123.1150207, Q1 : 0.999997496605, Q2 : 0.000664448132738, Q3 : -0.000170205079485, Q4 : -0.00213649473153}
2019-04-14 13:12:57.61: SIM {TimeUS : 53235364, Roll : 0.06, Pitch : -0.03, Yaw : 359.75, Alt : 48.8499984741, Lat : 49.2835703, Lng : -123.1150207, Q1 : 0.999997437, Q2 : 0.000538835534826, Q3 : -0.000270854274277, Q4 : -0.00217228499241}
2019-04-14 13:12:57.71: SIM {TimeUS : 53335324, Roll : 0.03, Pitch : -0.03, Yaw : 359.74, Alt : 48.9099998474, Lat : 49.2835703, Lng : -123.1150207, Q1 : 0.999997437, Q2 : 0.000286229449557, Q3 : -0.000331371702487, Q4 : -0.00220539746806}
2019-04-14 13:12:57.81: SIM {TimeUS : 53435284, Roll : 0.01, Pitch : -0.03, Yaw : 359.74, Alt : 48.9599990845, Lat : 49.2835703, Lng : -123.1150207, Q1 : 0.999997437, Q2 : 0.000107818996185, Q3 : -0.0002739491174, Q4 : -0.00223595718853}
2019-04-14 13:12:57.91: SIM {TimeUS : 53535244, Roll : 0.03, Pitch : -0.03, Yaw : 359.74, Alt : 49.0, Lat : 49.2835703, Lng : -123.1150207, Q1 : 0.999997377396, Q2 : 0.000291303789709, Q3 : -0.000295510486467, Q4 : -0.00226399023086}
2019-04-14 13:12:58.01: SIM {TimeUS : 53635204, Roll : 0.21, Pitch : -0.06, Yaw : 359.73, Alt : 49.0400009155, Lat : 49.2835703, Lng : -123.1150207, Q1 : 0.999995350838, Q2 : 0.00191745301709, Q3 : -0.00061096099671, Q4 : -0.00228276988491}
2019-04-14 13:12:58.11: SIM {TimeUS : 53735164, Roll : 0.68, Pitch : -0.17, Yaw : 359.73, Alt : 49.0699996948, Lat : 49.2835704, Lng : -123.1150207, Q1 : 0.999978125095, Q2 : 0.0060022873804, Q3 : -0.0015352407936, Q4 : -0.00230232742615}
2019-04-14 13:12:58.21: SIM {TimeUS : 53835124, Roll : 1.41, Pitch : -0.36, Yaw : 359.72, Alt : 49.0900001526, Lat : 49.2835704, Lng : -123.1150207, Q1 : 0.999915659428, Q2 : 0.012364401482, Q3 : -0.00323731056415, Q4 : -0.00232156855054}
2019-04-14 13:12:58.31: SIM {TimeUS : 53935084, Roll : 2.32, Pitch : -0.65, Yaw : 359.71, Alt : 49.1199989319, Lat : 49.2835704, Lng : -123.1150206, Q1 : 0.999774932861, Q2 : 0.0202877949923, Q3 : -0.005755469203, Q4 : -0.00233097770251}
2019-04-14 13:12:58.41: SIM {TimeUS : 54035044, Roll : 3.31, Pitch : -0.97, Yaw : 359.7, Alt : 49.1399993896, Lat : 49.2835704, Lng : -123.1150205, Q1 : 0.999541819096, Q2 : 0.0289267040789, Q3 : -0.00860380847007, Q4 : -0.00231962278485}
2019-04-14 13:12:58.51: SIM {TimeUS : 54135004, Roll : 4.24, Pitch : -1.29, Yaw : 359.69, Alt : 49.1500015259, Lat : 49.2835704, Lng : -123.1150204, Q1 : 0.999247848988, Q2 : 0.0369903706014, Q3 : -0.0114138154313, Q4 : -0.00227608368732}
2019-04-14 13:12:58.61: SIM {TimeUS : 54234964, Roll : 5.0, Pitch : -1.56, Yaw : 359.68, Alt : 49.1699981689, Lat : 49.2835706, Lng : -123.1150201, Q1 : 0.998951017857, Q2 : 0.0436207726598, Q3 : -0.0137609271333, Q4 : -0.00218764459714}
2019-04-14 13:12:58.71: SIM {TimeUS : 54334924, Roll : 5.57, Pitch : -1.74, Yaw : 359.67, Alt : 49.1800003052, Lat : 49.2835707, Lng : -123.1150199, Q1 : 0.998698234558, Q2 : 0.0486126802862, Q3 : -0.0153091289103, Q4 : -0.00205537187867}
2019-04-14 13:12:58.81: SIM {TimeUS : 54434884, Roll : 5.99, Pitch : -1.86, Yaw : 359.68, Alt : 49.1899986267, Lat : 49.2835708, Lng : -123.1150194, Q1 : 0.998497605324, Q2 : 0.0522528998554, Q3 : -0.0163897294551, Q4 : -0.00190842489246}
2019-04-14 13:12:58.91: SIM {TimeUS : 54534844, Roll : 6.35, Pitch : -1.97, Yaw : 359.68, Alt : 49.2000007629, Lat : 49.2835709, Lng : -123.1150189, Q1 : 0.998315453529, Q2 : 0.0553427487612, Q3 : -0.017331989482, Q4 : -0.00174764171243}
2019-04-14 13:12:59.01: SIM {TimeUS : 54634804, Roll : 6.68, Pitch : -2.06, Yaw : 359.69, Alt : 49.2099990845, Lat : 49.2835709, Lng : -123.1150182, Q1 : 0.998134791851, Q2 : 0.0582681410015, Q3 : -0.0181486587971, Q4 : -0.0015845883172}
2019-04-14 13:12:59.11: SIM {TimeUS : 54734764, Roll : 7.04, Pitch : -2.17, Yaw : 359.7, Alt : 49.2200012207, Lat : 49.2835712, Lng : -123.1150174, Q1 : 0.997932910919, Q2 : 0.0613383240998, Q3 : -0.0191171485931, Q4 : -0.00143830082379}
2019-04-14 13:12:59.21: SIM {TimeUS : 54834724, Roll : 7.39, Pitch : -2.29, Yaw : 359.7, Alt : 49.2299995422, Lat : 49.2835714, Lng : -123.1150165, Q1 : 0.997721374035, Q2 : 0.0643814653158, Q3 : -0.0201345477253, Q4 : -0.00130271119997}
2019-04-14 13:12:59.31: SIM {TimeUS : 54934684, Roll : 7.69, Pitch : -2.38, Yaw : 359.7, Alt : 49.2299995422, Lat : 49.2835715, Lng : -123.1150155, Q1 : 0.997533202171, Q2 : 0.0669901520014, Q3 : -0.0209381431341, Q4 : -0.00116959097795}
2019-04-14 13:12:59.41: SIM {TimeUS : 55035477, Roll : 7.89, Pitch : -2.43, Yaw : 359.71, Alt : 49.2400016785, Lat : 49.2835718, Lng : -123.1150144, Q1 : 0.997400939465, Q2 : 0.0687898695469, Q3 : -0.0214063096792, Q4 : -0.00104607501999}
2019-04-14 13:12:59.51: SIM {TimeUS : 55135437, Roll : 8.03, Pitch : -2.46, Yaw : 359.71, Alt : 49.2400016785, Lat : 49.283572, Lng : -123.1150132, Q1 : 0.997312426567, Q2 : 0.06998886168, Q3 : -0.0216476600617, Q4 : -0.000949602050241}
2019-04-14 13:12:59.61: SIM {TimeUS : 55235397, Roll : 8.13, Pitch : -2.49, Yaw : 359.71, Alt : 49.25, Lat : 49.2835722, Lng : -123.1150118, Q1 : 0.997246682644, Q2 : 0.0708503574133, Q3 : -0.0218729879707, Q4 : -0.000897617370356}
2019-04-14 13:12:59.71: SIM {TimeUS : 55335357, Roll : 8.26, Pitch : -2.5, Yaw : 359.72, Alt : 49.25, Lat : 49.2835726, Lng : -123.1150104, Q1 : 0.997159302235, Q2 : 0.0720344930887, Q3 : -0.0219924114645, Q4 : -0.000851784308907}
2019-04-14 13:12:59.81: SIM {TimeUS : 55435317, Roll : 8.53, Pitch : -2.35, Yaw : 359.86, Alt : 49.2599983215, Lat : 49.2835728, Lng : -123.1150088, Q1 : 0.997019827366, Q2 : 0.0743435248733, Q3 : -0.0205988585949, Q4 : 0.000369532295736}
2019-04-14 13:12:59.91: SIM {TimeUS : 55535277, Roll : 8.97, Pitch : -1.99, Yaw : 0.69, Alt : 49.2599983215, Lat : 49.2835732, Lng : -123.1150072, Q1 : 0.996758162975, Q2 : 0.0783161222935, Q3 : -0.0168932136148, Q4 : 0.00737565010786}
2019-04-14 13:13:00.01: SIM {TimeUS : 55635237, Roll : 9.54, Pitch : -1.71, Yaw : 2.84, Alt : 49.2599983215, Lat : 49.2835735, Lng : -123.1150055, Q1 : 0.996085762978, Q2 : 0.0835055410862, Q3 : -0.0128524722531, Q4 : 0.0259769503027}
2019-04-14 13:13:00.11: SIM {TimeUS : 55735197, Roll : 10.07, Pitch : -1.91, Yaw : 6.57, Alt : 49.2599983215, Lat : 49.2835739, Lng : -123.1150036, Q1 : 0.994276285172, Q2 : 0.0886202603579, Q3 : -0.0115568488836, Q4 : 0.0585449449718}
2019-04-14 13:13:00.21: SIM {TimeUS : 55835157, Roll : 10.38, Pitch : -2.73, Yaw : 11.75, Alt : 49.2599983215, Lat : 49.2835741, Lng : -123.1150016, Q1 : 0.990157783031, Q2 : 0.0924199298024, Q3 : -0.0143463891, Q4 : 0.104116678238}
2019-04-14 13:13:00.31: SIM {TimeUS : 55935117, Roll : 10.28, Pitch : -4.13, Yaw : 18.16, Alt : 49.2700004578, Lat : 49.2835745, Lng : -123.1149995, Q1 : 0.982331991196, Q2 : 0.0941321179271, Q3 : -0.0213061738759, Q4 : 0.160340547562}
2019-04-14 13:13:00.41: SIM {TimeUS : 56035077, Roll : 9.68, Pitch : -5.95, Yaw : 25.55, Alt : 49.2700004578, Lat : 49.2835747, Lng : -123.1149973, Q1 : 0.969478070736, Q2 : 0.093669757247, Q3 : -0.0318293757737, Q4 : 0.224332645535}
2019-04-14 13:13:00.51: SIM {TimeUS : 56135037, Roll : 8.55, Pitch : -7.99, Yaw : 33.66, Alt : 49.2700004578, Lat : 49.2835751, Lng : -123.114995, Q1 : 0.95065921545, Q2 : 0.091366879642, Q3 : -0.0449608117342, Q4 : 0.293048888445}
2019-04-14 13:13:00.61: SIM {TimeUS : 56234997, Roll : 6.93, Pitch : -9.99, Yaw : 42.27, Alt : 49.2700004578, Lat : 49.2835753, Lng : -123.1149925, Q1 : 0.925562679768, Q2 : 0.0875543057919, Q3 : -0.0594093576074, Q4 : 0.363508611917}
2019-04-14 13:13:00.71: SIM {TimeUS : 56334957, Roll : 4.88, Pitch : -11.72, Yaw : 51.14, Alt : 49.2700004578, Lat : 49.2835758, Lng : -123.1149899, Q1 : 0.89464533329, Q2 : 0.0822596549988, Q3 : -0.0737709701061, Q4 : 0.432898283005}
2019-04-14 13:13:00.81: SIM {TimeUS : 56434917, Roll : 2.56, Pitch : -12.99, Yaw : 59.97, Alt : 49.2700004578, Lat : 49.2835761, Lng : -123.1149871, Q1 : 0.859112560749, Q2 : 0.0757666677237, Q3 : -0.0868694260716, Q4 : 0.498636901379}
2019-04-14 13:13:00.91: SIM {TimeUS : 56534877, Roll : 0.09, Pitch : -13.75, Yaw : 68.44, Alt : 49.2799987793, Lat : 49.2835764, Lng : -123.1149844, Q1 : 0.820849239826, Q2 : 0.0680247023702, Q3 : -0.0985554456711, Q4 : 0.558449685574}
2019-04-14 13:13:01.01: SIM {TimeUS : 56634837, Roll : -2.6, Pitch : -14.02, Yaw : 76.05, Alt : 49.2799987793, Lat : 49.283577, Lng : -123.1149815, Q1 : 0.783347785473, Q2 : 0.0574129931629, Q3 : -0.110009431839, Q4 : 0.60907137394}
2019-04-14 13:13:01.11: SIM {TimeUS : 56734797, Roll : -5.16, Pitch : -13.88, Yaw : 82.09, Alt : 49.2799987793, Lat : 49.2835775, Lng : -123.1149784, Q1 : 0.751429498196, Q2 : 0.0455755181611, Q3 : -0.120460905135, Q4 : 0.64712113142}
2019-04-14 13:13:01.21: SIM {TimeUS : 56834757, Roll : -7.12, Pitch : -13.56, Yaw : 86.18, Alt : 49.2799987793, Lat : 49.2835781, Lng : -123.1149753, Q1 : 0.728762567043, Q2 : 0.0354823507369, Q3 : -0.128187522292, Q4 : 0.671724677086}
2019-04-14 13:13:01.31: SIM {TimeUS : 56934717, Roll : -8.18, Pitch : -13.23, Yaw : 88.3, Alt : 49.2799987793, Lat : 49.2835788, Lng : -123.114972, Q1 : 0.7166416049, Q2 : 0.0292270164937, Q3 : -0.131842717528, Q4 : 0.684242784977}
2019-04-14 13:13:01.41: SIM {TimeUS : 57034677, Roll : -8.27, Pitch : -13.07, Yaw : 88.69, Alt : 49.2799987793, Lat : 49.2835794, Lng : -123.1149687, Q1 : 0.714331746101, Q2 : 0.0281099695712, Q3 : -0.131275832653, Q4 : 0.686809062958}
2019-04-14 13:13:01.51: SIM {TimeUS : 57135470, Roll : -7.49, Pitch : -13.17, Yaw : 87.7, Alt : 49.2799987793, Lat : 49.2835804, Lng : -123.1149652, Q1 : 0.720019817352, Q2 : 0.0324697084725, Q3 : -0.127562701702, Q4 : 0.681355297565}
2019-04-14 13:13:01.61: SIM {TimeUS : 57235430, Roll : -6.09, Pitch : -13.56, Yaw : 85.69, Alt : 49.2799987793, Lat : 49.2835812, Lng : -123.1149617, Q1 : 0.731296956539, Q2 : 0.0414922386408, Q3 : -0.122327052057, Q4 : 0.669715881348}
2019-04-14 13:13:01.71: SIM {TimeUS : 57335390, Roll : -4.29, Pitch : -14.15, Yaw : 82.97, Alt : 49.2799987793, Lat : 49.2835823, Lng : -123.114958, Q1 : 0.745927095413, Q2 : 0.0537547394633, Q3 : -0.116858199239, Q4 : 0.653488636017}
2019-04-14 13:13:01.81: SIM {TimeUS : 57435350, Roll : -2.33, Pitch : -14.84, Yaw : 79.86, Alt : 49.2799987793, Lat : 49.2835831, Lng : -123.1149543, Q1 : 0.761934757233, Q2 : 0.0673965215683, Q3 : -0.112010352314, Q4 : 0.634323954582}
2019-04-14 13:13:01.91: SIM {TimeUS : 57535310, Roll : -0.42, Pitch : -15.45, Yaw : 76.65, Alt : 49.2799987793, Lat : 49.2835842, Lng : -123.1149505, Q1 : 0.777664601803, Q2 : 0.0805004090071, Q3 : -0.107779406011, Q4 : 0.614118099213}
2019-04-14 13:13:02.01: SIM {TimeUS : 57635270, Roll : 1.25, Pitch : -15.86, Yaw : 73.68, Alt : 49.2799987793, Lat : 49.2835852, Lng : -123.1149466, Q1 : 0.791685044765, Q2 : 0.0914373099804, Q3 : -0.103962518275, Q4 : 0.595034301281}
2019-04-14 13:13:02.11: SIM {TimeUS : 57735230, Roll : 2.55, Pitch : -16.04, Yaw : 71.24, Alt : 49.2799987793, Lat : 49.2835861, Lng : -123.1149426, Q1 : 0.802919864655, Q2 : 0.099239975214, Q3 : -0.100559435785, Q4 : 0.579101800919}
2019-04-14 13:13:02.21: SIM {TimeUS : 57835190, Roll : 3.4, Pitch : -16.04, Yaw : 69.52, Alt : 49.2799987793, Lat : 49.2835872, Lng : -123.1149385, Q1 : 0.810771584511, Q2 : 0.103733755648, Q3 : -0.0978607609868, Q4 : 0.567725300789}
2019-04-14 13:13:02.31: SIM {TimeUS : 57935150, Roll : 3.76, Pitch : -15.98, Yaw : 68.59, Alt : 49.2900009155, Lat : 49.283588, Lng : -123.1149342, Q1 : 0.815084338188, Q2 : 0.105223678052, Q3 : -0.0964781269431, Q4 : 0.561477959156}
2019-04-14 13:13:02.41: SIM {TimeUS : 58035110, Roll : 3.67, Pitch : -15.93, Yaw : 68.42, Alt : 49.2900009155, Lat : 49.2835891, Lng : -123.1149298, Q1 : 0.816069602966, Q2 : 0.10417163372, Q3 : -0.0967345535755, Q4 : 0.560197412968}
2019-04-14 13:13:02.51: SIM {TimeUS : 58135070, Roll : 3.19, Pitch : -15.95, Yaw : 68.89, Alt : 49.2900009155, Lat : 49.2835899, Lng : -123.1149253, Q1 : 0.814173281193, Q2 : 0.101223170757, Q3 : -0.0987810119987, Q4 : 0.563132345676}
2019-04-14 13:13:02.61: SIM {TimeUS : 58235030, Roll : 2.44, Pitch : -16.01, Yaw : 69.84, Alt : 49.2900009155, Lat : 49.2835908, Lng : -123.1149208, Q1 : 0.810028553009, Q2 : 0.0970932766795, Q3 : -0.102115541697, Q4 : 0.569209158421}
2019-04-14 13:13:02.71: SIM {TimeUS : 58334990, Roll : 1.58, Pitch : -16.12, Yaw : 71.1, Alt : 49.2900009155, Lat : 49.2835916, Lng : -123.114916, Q1 : 0.80436617136, Q2 : 0.0926365554333, Q3 : -0.106151431799, Q4 : 0.577187538147}
2019-04-14 13:13:02.81: SIM {TimeUS : 58434950, Roll : 0.68, Pitch : -16.24, Yaw : 72.46, Alt : 49.2900009155, Lat : 49.2835926, Lng : -123.1149114, Q1 : 0.798018932343, Q2 : 0.0882608667016, Q3 : -0.110478430986, Q4 : 0.585807442665}
2019-04-14 13:13:02.91: SIM {TimeUS : 58534910, Roll : -0.12, Pitch : -16.36, Yaw : 73.77, Alt : 49.2900009155, Lat : 49.2835934, Lng : -123.1149066, Q1 : 0.791756510735, Q2 : 0.0845756158233, Q3 : -0.11448263377, Q4 : 0.594022095203}
2019-04-14 13:13:03.01: SIM {TimeUS : 58634870, Roll : -0.75, Pitch : -16.44, Yaw : 74.89, Alt : 49.2900009155, Lat : 49.2835944, Lng : -123.1149017, Q1 : 0.786280751228, Q2 : 0.0818066671491, Q3 : -0.11749625206, Q4 : 0.60105317831}
2019-04-14 13:13:03.11: SIM {TimeUS : 58734830, Roll : -1.18, Pitch : -16.48, Yaw : 75.74, Alt : 49.2900009155, Lat : 49.2835952, Lng : -123.1148968, Q1 : 0.782103598118, Q2 : 0.079916767776, Q3 : -0.119488470256, Q4 : 0.606341302395}
2019-04-14 13:13:03.21: SIM {TimeUS : 58834790, Roll : -1.43, Pitch : -16.52, Yaw : 76.26, Alt : 49.2900009155, Lat : 49.2835962, Lng : -123.1148918, Q1 : 0.779481470585, Q2 : 0.0789509639144, Q3 : -0.120655484498, Q4 : 0.609604477882}
2019-04-14 13:13:03.31: SIM {TimeUS : 58934750, Roll : -1.48, Pitch : -16.56, Yaw : 76.46, Alt : 49.2900009155, Lat : 49.2835971, Lng : -123.1148868, Q1 : 0.778432786465, Q2 : 0.0790296792984, Q3 : -0.121066309512, Q4 : 0.61085164547}
2019-04-14 13:13:03.41: SIM {TimeUS : 59034710, Roll : -1.36, Pitch : -16.61, Yaw : 76.36, Alt : 49.2900009155, Lat : 49.2835982, Lng : -123.1148817, Q1 : 0.778803706169, Q2 : 0.080040499568, Q3 : -0.120846644044, Q4 : 0.610290408134}
2019-04-14 13:13:03.51: SIM {TimeUS : 59134670, Roll : -1.12, Pitch : -16.65, Yaw : 76.03, Alt : 49.2900009155, Lat : 49.2835992, Lng : -123.1148765, Q1 : 0.780322790146, Q2 : 0.0816088020802, Q3 : -0.120083659887, Q4 : 0.608289599419}
2019-04-14 13:13:03.61: SIM {TimeUS : 59235463, Roll : -0.78, Pitch : -16.7, Yaw : 75.55, Alt : 49.2900009155, Lat : 49.2836001, Lng : -123.1148713, Q1 : 0.782622992992, Q2 : 0.0836246237159, Q3 : -0.118957608938, Q4 : 0.605274558067}
2019-04-14 13:13:03.71: SIM {TimeUS : 59335423, Roll : -0.41, Pitch : -16.74, Yaw : 74.98, Alt : 49.2900009155, Lat : 49.2836013, Lng : -123.1148661, Q1 : 0.785279750824, Q2 : 0.0857612118125, Q3 : -0.117692664266, Q4 : 0.601771712303}
2019-04-14 13:13:03.81: SIM {TimeUS : 59435383, Roll : -0.06, Pitch : -16.77, Yaw : 74.41, Alt : 49.2900009155, Lat : 49.2836023, Lng : -123.1148608, Q1 : 0.787954747677, Q2 : 0.0877841040492, Q3 : -0.116476610303, Q4 : 0.598209381104}
2019-04-14 13:13:03.91: SIM {TimeUS : 59535343, Roll : 0.25, Pitch : -16.8, Yaw : 73.9, Alt : 49.2900009155, Lat : 49.2836032, Lng : -123.1148555, Q1 : 0.790349781513, Q2 : 0.0895812734962, Q3 : -0.11544239521, Q4 : 0.594975173473}
2019-04-14 13:13:04.01: SIM {TimeUS : 59635303, Roll : 0.49, Pitch : -16.83, Yaw : 73.49, Alt : 49.2900009155, Lat : 49.2836043, Lng : -123.1148501, Q1 : 0.792263269424, Q2 : 0.0910067856312, Q3 : -0.114719755948, Q4 : 0.592347979546}
2019-04-14 13:13:04.11: SIM {TimeUS : 59735263, Roll : 0.64, Pitch : -16.86, Yaw : 73.2, Alt : 49.2900009155, Lat : 49.2836054, Lng : -123.1148447, Q1 : 0.793592453003, Q2 : 0.0919124037027, Q3 : -0.114370375872, Q4 : 0.590493500233}
2019-04-14 13:13:04.21: SIM {TimeUS : 59835223, Roll : 0.7, Pitch : -16.89, Yaw : 73.05, Alt : 49.2999992371, Lat : 49.2836065, Lng : -123.1148392, Q1 : 0.794287502766, Q2 : 0.0923311784863, Q3 : -0.114413648844, Q4 : 0.589484453201}
2019-04-14 13:13:04.31: SIM {TimeUS : 59935183, Roll : 0.67, Pitch : -16.93, Yaw : 73.03, Alt : 49.2999992371, Lat : 49.2836074, Lng : -123.1148337, Q1 : 0.794401168823, Q2 : 0.0922844111919, Q3 : -0.114868193865, Q4 : 0.589250147343}
2019-04-14 13:13:04.41: SIM {TimeUS : 60035143, Roll : 0.56, Pitch : -16.97, Yaw : 73.11, Alt : 49.2999992371, Lat : 49.2836085, Lng : -123.1148282, Q1 : 0.794028401375, Q2 : 0.0918758586049, Q3 : -0.115653663874, Q4 : 0.589662611485}
2019-04-14 13:13:04.51: SIM {TimeUS : 60135103, Roll : 0.41, Pitch : -17.01, Yaw : 73.26, Alt : 49.2999992371, Lat : 49.2836096, Lng : -123.1148226, Q1 : 0.793306589127, Q2 : 0.0911406651139, Q3 : -0.116632096469, Q4 : 0.590554893017}
2019-04-14 13:13:04.61: SIM {TimeUS : 60235063, Roll : 0.22, Pitch : -17.05, Yaw : 73.46, Alt : 49.2999992371, Lat : 49.2836105, Lng : -123.1148169, Q1 : 0.792388617992, Q2 : 0.0902144908905, Q3 : -0.117664091289, Q4 : 0.591723620892}
2019-04-14 13:13:04.71: SIM {TimeUS : 60335023, Roll : 0.03, Pitch : -17.08, Yaw : 73.67, Alt : 49.2999992371, Lat : 49.2836116, Lng : -123.1148114, Q1 : 0.791410982609, Q2 : 0.0893064439297, Q3 : -0.118650816381, Q4 : 0.592971324921}
2019-04-14 13:13:04.81: SIM {TimeUS : 60434983, Roll : -0.1, Pitch : -17.12, Yaw : 73.87, Alt : 49.2999992371, Lat : 49.2836127, Lng : -123.1148057, Q1 : 0.790465056896, Q2 : 0.0887543410063, Q3 : -0.119494713843, Q4 : 0.594145298004}
2019-04-14 13:13:04.91: SIM {TimeUS : 60534943, Roll : -0.19, Pitch : -17.16, Yaw : 74.03, Alt : 49.2999992371, Lat : 49.2836138, Lng : -123.1148, Q1 : 0.789673626423, Q2 : 0.0884880498052, Q3 : -0.120162077248, Q4 : 0.595102071762}
2019-04-14 13:13:05.01: SIM {TimeUS : 60634903, Roll : -0.23, Pitch : -17.2, Yaw : 74.14, Alt : 49.2999992371, Lat : 49.2836148, Lng : -123.1147943, Q1 : 0.789102137089, Q2 : 0.0885302871466, Q3 : -0.120587147772, Q4 : 0.595767557621}
2019-04-14 13:13:05.11: SIM {TimeUS : 60734863, Roll : -0.23, Pitch : -17.24, Yaw : 74.19, Alt : 49.2999992371, Lat : 49.2836159, Lng : -123.1147886, Q1 : 0.788780152798, Q2 : 0.0888378247619, Q3 : -0.120782665908, Q4 : 0.596108436584}
2019-04-14 13:13:05.21: SIM {TimeUS : 60834823, Roll : -0.2, Pitch : -17.27, Yaw : 74.19, Alt : 49.3100013733, Lat : 49.283617, Lng : -123.1147828, Q1 : 0.788733899593, Q2 : 0.0891543701291, Q3 : -0.120855070651, Q4 : 0.596107721329}
2019-04-14 13:13:05.31: SIM {TimeUS : 60934783, Roll : -0.17, Pitch : -17.28, Yaw : 74.14, Alt : 49.3100013733, Lat : 49.2836181, Lng : -123.114777, Q1 : 0.788931250572, Q2 : 0.0893957391381, Q3 : -0.120826818049, Q4 : 0.595816075802}
2019-04-14 13:13:05.41: SIM {TimeUS : 61034743, Roll : -0.13, Pitch : -17.29, Yaw : 74.06, Alt : 49.3100013733, Lat : 49.2836191, Lng : -123.1147712, Q1 : 0.789308071136, Q2 : 0.089637324214, Q3 : -0.120764791965, Q4 : 0.595293045044}
2019-04-14 13:13:05.51: SIM {TimeUS : 61134703, Roll : -0.07, Pitch : -17.31, Yaw : 73.96, Alt : 49.3100013733, Lat : 49.2836202, Lng : -123.1147652, Q1 : 0.789787828922, Q2 : 0.0899905487895, Q3 : -0.120637856424, Q4 : 0.594628751278}
2019-04-14 13:13:05.61: SIM {TimeUS : 61234663, Roll : -0.01, Pitch : -17.32, Yaw : 73.85, Alt : 49.3100013733, Lat : 49.2836214, Lng : -123.1147595, Q1 : 0.790310919285, Q2 : 0.0903766155243, Q3 : -0.120527334511, Q4 : 0.593897223473}
2019-04-14 13:13:05.71: SIM {TimeUS : 61335456, Roll : 0.05, Pitch : -17.36, Yaw : 73.73, Alt : 49.3100013733, Lat : 49.2836225, Lng : -123.1147535, Q1 : 0.790793061256, Q2 : 0.0909716337919, Q3 : -0.120510935783, Q4 : 0.593167424202}
2019-04-14 13:13:05.81: SIM {TimeUS : 61435416, Roll : 0.12, Pitch : -17.42, Yaw : 73.63, Alt : 49.3100013733, Lat : 49.2836236, Lng : -123.1147476, Q1 : 0.791189908981, Q2 : 0.091632604599, Q3 : -0.120584957302, Q4 : 0.592521131039}
2019-04-14 13:13:05.91: SIM {TimeUS : 61535376, Roll : 0.17, Pitch : -17.44, Yaw : 73.56, Alt : 49.3100013733, Lat : 49.2836248, Lng : -123.1147417, Q1 : 0.791527926922, Q2 : 0.0920330062509, Q3 : -0.120583690703, Q4 : 0.592007696629}
2019-04-14 13:13:06.01: SIM {TimeUS : 61635336, Roll : 0.2, Pitch : -17.44, Yaw : 73.5, Alt : 49.3100013733, Lat : 49.2836258, Lng : -123.1147358, Q1 : 0.791792213917, Q2 : 0.0921785086393, Q3 : -0.120457403362, Q4 : 0.591657221317}
2019-04-14 13:13:06.11: SIM {TimeUS : 61735296, Roll : 0.2, Pitch : -17.45, Yaw : 73.47, Alt : 49.3100013733, Lat : 49.2836269, Lng : -123.1147298, Q1 : 0.791956543922, Q2 : 0.0921485796571, Q3 : -0.120558872819, Q4 : 0.591421127319}
2019-04-14 13:13:06.21: SIM {TimeUS : 61835256, Roll : 0.17, Pitch : -17.47, Yaw : 73.45, Alt : 49.3100013733, Lat : 49.283628, Lng : -123.1147238, Q1 : 0.792024970055, Q2 : 0.0920796096325, Q3 : -0.120846554637, Q4 : 0.591281592846}
2019-04-14 13:13:06.31: SIM {TimeUS : 61935216, Roll : 0.15, Pitch : -17.5, Yaw : 73.45, Alt : 49.3100013733, Lat : 49.2836293, Lng : -123.1147178, Q1 : 0.792010545731, Q2 : 0.0920582264662, Q3 : -0.121125109494, Q4 : 0.591247260571}
2019-04-14 13:13:06.41: SIM {TimeUS : 62035176, Roll : 0.13, Pitch : -17.52, Yaw : 73.47, Alt : 49.3199996948, Lat : 49.2836304, Lng : -123.1147118, Q1 : 0.791950583458, Q2 : 0.0920285880566, Q3 : -0.12140326947, Q4 : 0.591275155544}
2019-04-14 13:13:06.51: SIM {TimeUS : 62135136, Roll : 0.1, Pitch : -17.54, Yaw : 73.48, Alt : 49.3199996948, Lat : 49.2836315, Lng : -123.1147058, Q1 : 0.791865110397, Q2 : 0.0919936001301, Q3 : -0.12164606899, Q4 : 0.591345131397}
2019-04-14 13:13:06.61: SIM {TimeUS : 62235096, Roll : 0.09, Pitch : -17.56, Yaw : 73.5, Alt : 49.3199996948, Lat : 49.2836327, Lng : -123.1146997, Q1 : 0.791765272617, Q2 : 0.0920368209481, Q3 : -0.121882610023, Q4 : 0.591423392296}
2019-04-14 13:13:06.71: SIM {TimeUS : 62335056, Roll : 0.08, Pitch : -17.58, Yaw : 73.51, Alt : 49.3199996948, Lat : 49.2836337, Lng : -123.1146937, Q1 : 0.7916867733, Q2 : 0.0920609012246, Q3 : -0.122047878802, Q4 : 0.59149068594}
2019-04-14 13:13:06.81: SIM {TimeUS : 62435016, Roll : 0.08, Pitch : -17.6, Yaw : 73.52, Alt : 49.3199996948, Lat : 49.2836349, Lng : -123.1146876, Q1 : 0.791614174843, Q2 : 0.0921702459455, Q3 : -0.1221935004, Q4 : 0.591540753841}
2019-04-14 13:13:06.91: SIM {TimeUS : 62534976, Roll : 0.09, Pitch : -17.63, Yaw : 73.52, Alt : 49.3199996948, Lat : 49.283636, Lng : -123.1146815, Q1 : 0.791568875313, Q2 : 0.0923669338226, Q3 : -0.122315257788, Q4 : 0.591545522213}
2019-04-14 13:13:07.01: SIM {TimeUS : 62634936, Roll : 0.09, Pitch : -17.66, Yaw : 73.52, Alt : 49.3199996948, Lat : 49.2836372, Lng : -123.1146754, Q1 : 0.791570723057, Q2 : 0.0925309211016, Q3 : -0.122566394508, Q4 : 0.591465353966}
2019-04-14 13:13:07.11: SIM {TimeUS : 62734896, Roll : 0.07, Pitch : -17.71, Yaw : 73.5, Alt : 49.3199996948, Lat : 49.2836384, Lng : -123.1146693, Q1 : 0.791617393494, Q2 : 0.092610321939, Q3 : -0.122987985611, Q4 : 0.591302931309}
2019-04-14 13:13:07.21: SIM {TimeUS : 62834856, Roll : 0.06, Pitch : -17.75, Yaw : 73.48, Alt : 49.3199996948, Lat : 49.2836396, Lng : -123.1146632, Q1 : 0.791684448719, Q2 : 0.092774681747, Q3 : -0.123364746571, Q4 : 0.59110891819}
2019-04-14 13:13:07.31: SIM {TimeUS : 62934816, Roll : 0.08, Pitch : -17.78, Yaw : 73.45, Alt : 49.3199996948, Lat : 49.2836407, Lng : -123.114657, Q1 : 0.791768729687, Q2 : 0.0930563136935, Q3 : -0.123476684093, Q4 : 0.590928316116}
2019-04-14 13:13:07.41: SIM {TimeUS : 63034776, Roll : 0.11, Pitch : -17.78, Yaw : 73.42, Alt : 49.3199996948, Lat : 49.2836419, Lng : -123.1146509, Q1 : 0.79189735651, Q2 : 0.093197748065, Q3 : -0.123335503042, Q4 : 0.59076321125}
2019-04-14 13:13:07.51: SIM {TimeUS : 63134736, Roll : 0.13, Pitch : -17.75, Yaw : 73.39, Alt : 49.3199996948, Lat : 49.2836431, Lng : -123.1146447, Q1 : 0.79206007719, Q2 : 0.0931888446212, Q3 : -0.123043611646, Q4 : 0.5906072855}
2019-04-14 13:13:07.61: SIM {TimeUS : 63234696, Roll : 0.13, Pitch : -17.73, Yaw : 73.37, Alt : 49.3199996948, Lat : 49.2836443, Lng : -123.1146385, Q1 : 0.792221665382, Q2 : 0.0930627286434, Q3 : -0.122899778187, Q4 : 0.59044033289}
2019-04-14 13:13:07.71: SIM {TimeUS : 63334656, Roll : 0.13, Pitch : -17.71, Yaw : 73.34, Alt : 49.3199996948, Lat : 49.2836454, Lng : -123.1146323, Q1 : 0.792371749878, Q2 : 0.0929289460182, Q3 : -0.122829303145, Q4 : 0.590274691582}
2019-04-14 13:13:07.81: SIM {TimeUS : 63435449, Roll : 0.13, Pitch : -17.71, Yaw : 73.32, Alt : 49.3199996948, Lat : 49.2836466, Lng : -123.114626, Q1 : 0.79248380661, Q2 : 0.0928755253553, Q3 : -0.122822850943, Q4 : 0.590133965015}
2019-04-14 13:13:07.91: SIM {TimeUS : 63535409, Roll : 0.13, Pitch : -17.73, Yaw : 73.3, Alt : 49.3199996948, Lat : 49.2836478, Lng : -123.1146198, Q1 : 0.792557060719, Q2 : 0.0929155498743, Q3 : -0.122961416841, Q4 : 0.590000450611}
2019-04-14 13:13:08.01: SIM {TimeUS : 63635369, Roll : 0.13, Pitch : -17.75, Yaw : 73.29, Alt : 49.3300018311, Lat : 49.2836489, Lng : -123.1146136, Q1 : 0.792605042458, Q2 : 0.0930733531713, Q3 : -0.123108752072, Q4 : 0.589880287647}
2019-04-14 13:13:08.11: SIM {TimeUS : 63735329, Roll : 0.13, Pitch : -17.8, Yaw : 73.28, Alt : 49.3300018311, Lat : 49.28365, Lng : -123.1146074, Q1 : 0.792622387409, Q2 : 0.0932990685105, Q3 : -0.123456969857, Q4 : 0.589748680592}
2019-04-14 13:13:08.21: SIM {TimeUS : 63835289, Roll : 0.13, Pitch : -17.85, Yaw : 73.26, Alt : 49.3300018311, Lat : 49.2836512, Lng : -123.114601, Q1 : 0.792628765106, Q2 : 0.0935407057405, Q3 : -0.123832918704, Q4 : 0.589622914791}
2019-04-14 13:13:08.31: SIM {TimeUS : 63935249, Roll : 0.13, Pitch : -17.88, Yaw : 73.25, Alt : 49.3300018311, Lat : 49.2836524, Lng : -123.1145949, Q1 : 0.792640566826, Q2 : 0.0936976447701, Q3 : -0.124075315893, Q4 : 0.589531183243}
2019-04-14 13:13:08.41: SIM {TimeUS : 64035209, Roll : 0.12, Pitch : -17.92, Yaw : 73.25, Alt : 49.3300018311, Lat : 49.2836536, Lng : -123.1145886, Q1 : 0.792652070522, Q2 : 0.0937970429659, Q3 : -0.124337650836, Q4 : 0.589444637299}
2019-04-14 13:13:08.51: SIM {TimeUS : 64135169, Roll : 0.12, Pitch : -17.94, Yaw : 73.24, Alt : 49.3300018311, Lat : 49.2836548, Lng : -123.1145823, Q1 : 0.792673051357, Q2 : 0.093849234283, Q3 : -0.124516867101, Q4 : 0.589370369911}
2019-04-14 13:13:08.61: SIM {TimeUS : 64235129, Roll : 0.13, Pitch : -17.93, Yaw : 73.23, Alt : 49.3300018311, Lat : 49.283656, Lng : -123.114576, Q1 : 0.792704999447, Q2 : 0.0939130410552, Q3 : -0.124392800033, Q4 : 0.589343369007}
2019-04-14 13:13:08.71: SIM {TimeUS : 64335089, Roll : 0.16, Pitch : -17.93, Yaw : 73.22, Alt : 49.3300018311, Lat : 49.2836572, Lng : -123.1145697, Q1 : 0.792724430561, Q2 : 0.0941026061773, Q3 : -0.124297335744, Q4 : 0.589307129383}
2019-04-14 13:13:08.81: SIM {TimeUS : 64435049, Roll : 0.17, Pitch : -17.95, Yaw : 73.21, Alt : 49.3300018311, Lat : 49.2836584, Lng : -123.1145635, Q1 : 0.792750835419, Q2 : 0.0942409336567, Q3 : -0.124348431826, Q4 : 0.589238703251}
2019-04-14 13:13:08.91: SIM {TimeUS : 64535009, Roll : 0.17, Pitch : -17.95, Yaw : 73.2, Alt : 49.3300018311, Lat : 49.2836597, Lng : -123.1145571, Q1 : 0.792796075344, Q2 : 0.0942954272032, Q3 : -0.12435618788, Q4 : 0.589167535305}
2019-04-14 13:13:09.01: SIM {TimeUS : 64634969, Roll : 0.18, Pitch : -17.94, Yaw : 73.19, Alt : 49.3300018311, Lat : 49.2836609, Lng : -123.1145508, Q1 : 0.792855143547, Q2 : 0.0942808315158, Q3 : -0.124282225966, Q4 : 0.589105963707}
2019-04-14 13:13:09.11: SIM {TimeUS : 64734929, Roll : 0.18, Pitch : -17.94, Yaw : 73.18, Alt : 49.3300018311, Lat : 49.2836621, Lng : -123.1145445, Q1 : 0.792913377285, Q2 : 0.0942651703954, Q3 : -0.124264284968, Q4 : 0.589033842087}
2019-04-14 13:13:09.21: SIM {TimeUS : 64834889, Roll : 0.16, Pitch : -17.96, Yaw : 73.17, Alt : 49.3300018311, Lat : 49.2836633, Lng : -123.1145382, Q1 : 0.792965948582, Q2 : 0.0942128151655, Q3 : -0.124494493008, Q4 : 0.588922798634}
2019-04-14 13:13:09.31: SIM {TimeUS : 64934849, Roll : 0.13, Pitch : -18.0, Yaw : 73.16, Alt : 49.3300018311, Lat : 49.2836645, Lng : -123.1145318, Q1 : 0.793011784554, Q2 : 0.0941555276513, Q3 : -0.124950289726, Q4 : 0.588773727417}
2019-04-14 13:13:09.41: SIM {TimeUS : 65034809, Roll : 0.11, Pitch : -18.01, Yaw : 73.15, Alt : 49.3300018311, Lat : 49.2836657, Lng : -123.1145255, Q1 : 0.793078243732, Q2 : 0.0940670222044, Q3 : -0.125126108527, Q4 : 0.588661074638}
2019-04-14 13:13:09.51: SIM {TimeUS : 65134769, Roll : 0.12, Pitch : -17.99, Yaw : 73.13, Alt : 49.3400001526, Lat : 49.2836669, Lng : -123.1145191, Q1 : 0.793149292469, Q2 : 0.0940408036113, Q3 : -0.125001296401, Q4 : 0.588595986366}
2019-04-14 13:13:09.61: SIM {TimeUS : 65234729, Roll : 0.13, Pitch : -17.98, Yaw : 73.12, Alt : 49.3400001526, Lat : 49.2836681, Lng : -123.1145128, Q1 : 0.793212234974, Q2 : 0.0940776243806, Q3 : -0.124843671918, Q4 : 0.588538706303}
2019-04-14 13:13:09.71: SIM {TimeUS : 65334689, Roll : 0.14, Pitch : -17.99, Yaw : 73.11, Alt : 49.3400001526, Lat : 49.2836693, Lng : -123.1145064, Q1 : 0.793267309666, Q2 : 0.0941572040319, Q3 : -0.124848589301, Q4 : 0.588450729847}
2019-04-14 13:13:09.81: SIM {TimeUS : 65435482, Roll : 0.13, Pitch : -18.0, Yaw : 73.09, Alt : 49.3400001526, Lat : 49.2836706, Lng : -123.1145, Q1 : 0.793329060078, Q2 : 0.0941483825445, Q3 : -0.125034809113, Q4 : 0.588329315186}
2019-04-14 13:13:09.91: SIM {TimeUS : 65535442, Roll : 0.11, Pitch : -18.03, Yaw : 73.08, Alt : 49.3400001526, Lat : 49.2836718, Lng : -123.1144936, Q1 : 0.793390035629, Q2 : 0.0940838456154, Q3 : -0.125338971615, Q4 : 0.58819270134}
2019-04-14 13:13:10.01: SIM {TimeUS : 65635402, Roll : 0.09, Pitch : -18.05, Yaw : 73.07, Alt : 49.3400001526, Lat : 49.283673, Lng : -123.1144872, Q1 : 0.793447315693, Q2 : 0.0940784141421, Q3 : -0.125558853149, Q4 : 0.58806937933}
2019-04-14 13:13:10.11: SIM {TimeUS : 65735362, Roll : 0.1, Pitch : -18.07, Yaw : 73.05, Alt : 49.3400001526, Lat : 49.2836742, Lng : -123.1144808, Q1 : 0.793495476246, Q2 : 0.09418489784, Q3 : -0.125698417425, Q4 : 0.587957561016}
2019-04-14 13:13:10.21: SIM {TimeUS : 65835322, Roll : 0.11, Pitch : -18.09, Yaw : 73.04, Alt : 49.3400001526, Lat : 49.2836754, Lng : -123.1144745, Q1 : 0.793537437916, Q2 : 0.094328507781, Q3 : -0.125776648521, Q4 : 0.587861180305}
2019-04-14 13:13:10.31: SIM {TimeUS : 65935282, Roll : 0.13, Pitch : -18.1, Yaw : 73.03, Alt : 49.3400001526, Lat : 49.2836766, Lng : -123.1144681, Q1 : 0.793568789959, Q2 : 0.0945584475994, Q3 : -0.125730857253, Q4 : 0.58779168129}
2019-04-14 13:13:10.41: SIM {TimeUS : 66035242, Roll : 0.15, Pitch : -18.11, Yaw : 73.02, Alt : 49.3400001526, Lat : 49.2836779, Lng : -123.1144617, Q1 : 0.793600022793, Q2 : 0.0947411805391, Q3 : -0.125755682588, Q4 : 0.587714791298}
2019-04-14 13:13:10.51: SIM {TimeUS : 66135202, Roll : 0.16, Pitch : -18.13, Yaw : 73.0, Alt : 49.3400001526, Lat : 49.2836791, Lng : -123.1144553, Q1 : 0.793629646301, Q2 : 0.0949145630002, Q3 : -0.125798657537, Q4 : 0.587637603283}
2019-04-14 13:13:10.61: SIM {TimeUS : 66235162, Roll : 0.19, Pitch : -18.14, Yaw : 72.99, Alt : 49.3400001526, Lat : 49.2836803, Lng : -123.1144488, Q1 : 0.793645918369, Q2 : 0.0951263383031, Q3 : -0.125798329711, Q4 : 0.587581455708}
2019-04-14 13:13:10.71: SIM {TimeUS : 66335122, Roll : 0.22, Pitch : -18.15, Yaw : 72.99, Alt : 49.3499984741, Lat : 49.2836816, Lng : -123.1144424, Q1 : 0.793643653393, Q2 : 0.0954095125198, Q3 : -0.125708132982, Q4 : 0.587557852268}
