2019-04-14 13:23:48.10: SIM {TimeUS : 40316367, Roll : 0.0, Pitch : 0.0, Yaw : 0.0, Alt : 30.1000003815, Lat : 49.28357, Lng : -123.11502, Q1 : 1.0, Q2 : 0.0, Q3 : 0.0, Q4 : 0.0}
2019-04-14 13:23:48.21: SIM {TimeUS : 40435486, Roll : 0.0, Pitch : 0.0, Yaw : 0.0, Alt : 30.1000003815, Lat : 49.28357, Lng : -123.11502, Q1 : 1.0, Q2 : 0.0, Q3 : 0.0, Q4 : 0.0}
2019-04-14 13:23:48.31: SIM {TimeUS : 40535446, Roll : 0.0, Pitch : 0.0, Yaw : 0.0, Alt : 30.1000003815, Lat : 49.28357, Lng : -123.11502, Q1 : 1.0, Q2 : 0.0, Q3 : 0.0, Q4 : 0.0}
2019-04-14 13:23:48.41: SIM {TimeUS : 40635406, Roll : 0.0, Pitch : 0.0, Yaw : 0.0, Alt : 30.1000003815, Lat : 49.28357, Lng : -123.11502, Q1 : 1.0, Q2 : 0.0, Q3 : 0.0, Q4 : 0.0}
2019-04-14 13:23:48.51: SIM {TimeUS : 40735366, Roll : 0.0, Pitch : 0.0, Yaw : 0.0, Alt : 30.1000003815, Lat : 49.28357, Lng : -123.11502, Q1 : 1.0, Q2 : 0.0, Q3 : 0.0, Q4 : 0.0}
2019-04-14 13:23:48.61: SIM {TimeUS : 40835326, Roll : 0.0, Pitch : 0.0, Yaw : 0.0, Alt : 30.1000003815, Lat : 49.28357, Lng : -123.11502, Q1 : 1.0, Q2 : 0.0, Q3 : 0.0, Q4 : 0.0}
2019-04-14 13:23:48.71: SIM {TimeUS : 40935286, Roll : 0.0, Pitch : 0.0, Yaw : 0.0, Alt : 30.1000003815, Lat : 49.28357, Lng : -123.11502, Q1 : 1.0, Q2 : 0.0, Q3 : 0.0, Q4 : 0.0}
2019-04-14 13:23:48.81: SIM {TimeUS : 41035246, Roll : 0.0, Pitch : 0.0, Yaw : 0.0, Alt : 30.1000003815, Lat : 49.28357, Lng : -123.11502, Q1 : 1.0, Q2 : 0.0, Q3 : 0.0, Q4 : 0.0}
2019-04-14 13:23:48.91: SIM {TimeUS : 41135206, Roll : 0.0, Pitch : 0.0, Yaw : 0.0, Alt : 30.1000003815, Lat : 49.28357, Lng : -123.11502, Q1 : 1.0, Q2 : 0.0, Q3 : 0.0, Q4 : 0.0}
2019-04-14 13:23:49.01: SIM {TimeUS : 41235166, Roll : 0.0, Pitch : 0.0, Yaw : 0.0, Alt : 30.1000003815, Lat : 49.28357, Lng : -123.11502, Q1 : 1.0, Q2 : 0.0, Q3 : 0.0, Q4 : 0.0}
2019-04-14 13:23:49.11: SIM {TimeUS : 41335126, Roll : 0.0, Pitch : 0.0, Yaw : 0.0, Alt : 30.1000003815, Lat : 49.28357, Lng : -123.11502, Q1 : 1.0, Q2 : 0.0, Q3 : 0.0, Q4 : 0.0}
2019-04-14 13:23:49.21: SIM {TimeUS : 41435086, Roll : 0.0, Pitch : 0.0, Yaw : 0.0, Alt : 30.1000003815, Lat : 49.28357, Lng : -123.11502, Q1 : 1.0, Q2 : 0.0, Q3 : 0.0, Q4 : 0.0}
2019-04-14 13:23:49.31: SIM {TimeUS : 41535046, Roll : 0.0, Pitch : 0.0, Yaw : 0.0, Alt : 30.1000003815, Lat : 49.28357, Lng : -123.11502, Q1 : 1.0, Q2 : 0.0, Q3 : 0.0, Q4 : 0.0}
2019-04-14 13:23:49.41: SIM {TimeUS : 41635006, Roll : 0.0, Pitch : 0.0, Yaw : 0.0, Alt : 30.1000003815, Lat : 49.28357, Lng : -123.11502, Q1 : 1.0, Q2 : 0.0, Q3 : 0.0, Q4 : 0.0}
2019-04-14 13:23:49.51: SIM {TimeUS : 41734966, Roll : 0.0, Pitch : 0.0, Yaw : 0.0, Alt : 30.1000003815, Lat : 49.28357, Lng : -123.11502, Q1 : 1.0, Q2 : 0.0, Q3 : 0.0, Q4 : 0.0}
2019-04-14 13:23:49.61: SIM {TimeUS : 41834926, Roll : 0.0, Pitch : 0.0, Yaw : 0.0, Alt : 30.1000003815, Lat : 49.28357, Lng : -123.11502, Q1 : 1.0, Q2 : 0.0, Q3 : 0.0, Q4 : 0.0}
2019-04-14 13:23:49.71: SIM {TimeUS : 41934886, Roll : 0.0, Pitch : 0.0, Yaw : 0.0, Alt : 30.1000003815, Lat : 49.28357, Lng : -123.11502, Q1 : 1.0, Q2 : 0.0, Q3 : 0.0, Q4 : 0.0}
2019-04-14 13:23:49.81: SIM {TimeUS : 42034846, Roll : 0.0, Pitch : 0.0, Yaw : 0.0, Alt : 30.1000003815, Lat : 49.28357, Lng : -123.11502, Q1 : 1.0, Q2 : 0.0, Q3 : 0.0, Q4 : 0.0}
2019-04-14 13:23:49.91: SIM {TimeUS : 42134806, Roll : 0.0, Pitch : 0.0, Yaw : 0.0, Alt : 30.1000003815, Lat : 49.28357, Lng : -123.11502, Q1 : 1.0, Q2 : 0.0, Q3 : 0.0, Q4 : 0.0}
2019-04-14 13:23:50.01: SIM {TimeUS : 42234766, Roll : 0.0, Pitch : 0.0, Yaw : 0.0, Alt : 30.1000003815, Lat : 49.28357, Lng : -123.11502, Q1 : 1.0, Q2 : 0.0, Q3 : 0.0, Q4 : 0.0}
2019-04-14 13:23:50.11: SIM {TimeUS : 42334726, Roll : 0.0, Pitch : 0.0, Yaw : 0.0, Alt : 30.1000003815, Lat : 49.28357, Lng : -123.11502, Q1 : 1.0, Q2 : 0.0, Q3 : 0.0, Q4 : 0.0}
2019-04-14 13:23:50.22: SIM {TimeUS : 42435519, Roll : 0.0, Pitch : 0.0, Yaw : 0.0, Alt : 30.1000003815, Lat : 49.28357, Lng : -123.11502, Q1 : 1.0, Q2 : 0.0, Q3 : 0.0, Q4 : 0.0}
2019-04-14 13:23:50.31: SIM {TimeUS : 42535479, Roll : 0.0, Pitch : 0.0, Yaw : 0.0, Alt : 30.1000003815, Lat : 49.28357, Lng : -123.11502, Q1 : 1.0, Q2 : 0.0, Q3 : 0.0, Q4 : 0.0}
2019-04-14 13:23:50.41: SIM {TimeUS : 42635439, Roll : 0.0, Pitch : 0.0, Yaw : 360.0, Alt : 30.1000003815, Lat : 49.28357, Lng : -123.11502, Q1 : 1.0, Q2 : 0.0, Q3 : 0.0, Q4 : -7.26646824309e-12}
2019-04-14 13:23:50.51: SIM {TimeUS : 42735399, Roll : 0.0, Pitch : 0.0, Yaw : 0.0, Alt : 30.1000003815, Lat : 49.28357, Lng : -123.11502, Q1 : 1.0, Q2 : 0.0, Q3 : 0.0, Q4 : 2.12949782807e-10}
2019-04-14 13:23:50.61: SIM {TimeUS : 42835359, Roll : 0.0, Pitch : 0.0, Yaw : 360.0, Alt : 30.1000003815, Lat : 49.28357, Lng : -123.11502, Q1 : 1.0, Q2 : 0.0, Q3 : 0.0, Q4 : -1.12301528077e-07}
2019-04-14 13:23:50.71: SIM {TimeUS : 42935319, Roll : 0.0, Pitch : 0.0, Yaw : 359.99, Alt : 30.1000003815, Lat : 49.28357, Lng : -123.11502, Q1 : 1.0, Q2 : 0.0, Q3 : 0.0, Q4 : -2.98620506101e-07}
2019-04-14 13:23:50.81: SIM {TimeUS : 43035279, Roll : 0.0, Pitch : 0.0, Yaw : 359.99, Alt : 30.1000003815, Lat : 49.28357, Lng : -123.11502, Q1 : 1.0, Q2 : 0.0, Q3 : 0.0, Q4 : -5.02814714309e-07}
2019-04-14 13:23:50.91: SIM {TimeUS : 43135239, Roll : 0.0, Pitch : 0.0, Yaw : 359.99, Alt : 30.1000003815, Lat : 49.28357, Lng : -123.11502, Q1 : 1.0, Q2 : 0.0, Q3 : 0.0, Q4 : -6.96003894518e-07}
2019-04-14 13:23:51.01: SIM {TimeUS : 43235199, Roll : 0.0, Pitch : 0.0, Yaw : 359.99, Alt : 30.1000003815, Lat : 49.28357, Lng : -123.11502, Q1 : 1.0, Q2 : 0.0, Q3 : 0.0, Q4 : -8.89041302798e-07}
2019-04-14 13:23:51.11: SIM {TimeUS : 43335159, Roll : 0.0, Pitch : 0.0, Yaw : 359.99, Alt : 30.1000003815, Lat : 49.28357, Lng : -123.11502, Q1 : 1.0, Q2 : 0.0, Q3 : 0.0, Q4 : -1.12171767341e-06}
2019-04-14 13:23:51.21: SIM {TimeUS : 43435119, Roll : 0.0, Pitch : 0.0, Yaw : 359.99, Alt : 30.1000003815, Lat : 49.28357, Lng : -123.11502, Q1 : 1.0, Q2 : 0.0, Q3 : 0.0, Q4 : -1.30188868752e-06}
2019-04-14 13:23:51.31: SIM {TimeUS : 43535079, Roll : 0.0, Pitch : 0.0, Yaw : 359.99, Alt : 30.1100006104, Lat : 49.28357, Lng : -123.11502, Q1 : 1.0, Q2 : 0.0, Q3 : 0.0, Q4 : -1.52426150635e-06}
2019-04-14 13:23:51.41: SIM {TimeUS : 43635039, Roll : 0.0, Pitch : 0.0, Yaw : 359.99, Alt : 30.1299991608, Lat : 49.28357, Lng : -123.11502, Q1 : 1.0, Q2 : 0.0, Q3 : 0.0, Q4 : -1.73454213837e-06}
2019-04-14 13:23:51.51: SIM {TimeUS : 43734999, Roll : 0.0, Pitch : 0.0, Yaw : 359.99, Alt : 30.1599998474, Lat : 49.28357, Lng : -123.11502, Q1 : 1.0, Q2 : 0.0, Q3 : 0.0, Q4 : -1.90530249711e-06}
2019-04-14 13:23:51.61: SIM {TimeUS : 43834959, Roll : 0.0, Pitch : 0.0, Yaw : 359.99, Alt : 30.1900005341, Lat : 49.28357, Lng : -123.11502, Q1 : 1.0, Q2 : 0.0, Q3 : 0.0, Q4 : -2.08911092159e-06}
2019-04-14 13:23:51.71: SIM {TimeUS : 43934919, Roll : -0.03, Pitch : -0.03, Yaw : 359.99, Alt : 30.2299995422, Lat : 49.28357, Lng : -123.11502, Q1 : 0.999999880791, Q2 : -0.000339988007909, Q3 : -0.000311969488394, Q4 : -4.39524046669e-06}
2019-04-14 13:23:51.81: SIM {TimeUS : 44034879, Roll : -0.29, Pitch : -0.26, Yaw : 359.99, Alt : 30.3099994659, Lat : 49.28357, Lng : -123.11502, Q1 : 0.999994039536, Q2 : -0.00255792099051, Q3 : -0.00230704643764, Q4 : -3.15323304676e-05}
2019-04-14 13:23:51.91: SIM {TimeUS : 44134839, Roll : -0.6, Pitch : -0.54, Yaw : 359.99, Alt : 30.4400005341, Lat : 49.28357, Lng : -123.11502, Q1 : 0.999975085258, Q2 : -0.0052583492361, Q3 : -0.00471341889352, Q4 : -8.65066540428e-05}
2019-04-14 13:23:52.01: SIM {TimeUS : 44234799, Roll : -0.81, Pitch : -0.72, Yaw : 359.98, Alt : 30.6000003815, Lat : 49.28357, Lng : -123.11502, Q1 : 0.999954879284, Q2 : -0.00711498269811, Q3 : -0.00629502441734, Q4 : -0.000164166980539}
2019-04-14 13:23:52.11: SIM {TimeUS : 44334759, Roll : -0.86, Pitch : -0.75, Yaw : 359.97, Alt : 30.7600002289, Lat : 49.28357, Lng : -123.11502, Q1 : 0.999949753284, Q2 : -0.00754542183131, Q3 : -0.00659844465554, Q4 : -0.000253171398072}
2019-04-14 13:23:52.21: SIM {TimeUS : 44434719, Roll : -0.74, Pitch : -0.67, Yaw : 359.96, Alt : 30.9099998474, Lat : 49.28357, Lng : -123.1150201, Q1 : 0.999961495399, Q2 : -0.00652360077947, Q3 : -0.00586383929476, Q4 : -0.000335000717314}
2019-04-14 13:23:52.32: SIM {TimeUS : 44535512, Roll : -0.53, Pitch : -0.49, Yaw : 359.95, Alt : 31.0699996948, Lat : 49.2835701, Lng : -123.1150202, Q1 : 0.999979674816, Q2 : -0.00465724105015, Q3 : -0.00433931825683, Q4 : -0.000412121822592}
2019-04-14 13:23:52.41: SIM {TimeUS : 44635472, Roll : -0.31, Pitch : -0.28, Yaw : 359.94, Alt : 31.2199993134, Lat : 49.2835701, Lng : -123.1150202, Q1 : 0.999993026257, Q2 : -0.0027144998312, Q3 : -0.00252116494812, Q4 : -0.000470895902254}
2019-04-14 13:23:52.51: SIM {TimeUS : 44735432, Roll : -0.12, Pitch : -0.11, Yaw : 359.94, Alt : 31.3899993896, Lat : 49.2835702, Lng : -123.1150203, Q1 : 0.999998807907, Q2 : -0.00106386502739, Q3 : -0.000978469615802, Q4 : -0.000510499114171}
2019-04-14 13:23:52.61: SIM {TimeUS : 44835392, Roll : 0.0, Pitch : 0.0, Yaw : 359.93, Alt : 31.5599994659, Lat : 49.2835702, Lng : -123.1150204, Q1 : 0.999999880791, Q2 : 6.7678913183e-05, Q3 : 1.76775010914e-05, Q4 : -0.000535750237759}
2019-04-14 13:23:52.71: SIM {TimeUS : 44935352, Roll : 0.07, Pitch : 0.05, Yaw : 359.93, Alt : 31.7399997711, Lat : 49.2835703, Lng : -123.1150205, Q1 : 0.999999582767, Q2 : 0.000639292353299, Q3 : 0.000446311372798, Q4 : -0.000542652443983}
2019-04-14 13:23:52.81: SIM {TimeUS : 45035312, Roll : 0.09, Pitch : 0.05, Yaw : 359.93, Alt : 31.9200000763, Lat : 49.2835703, Lng : -123.1150205, Q1 : 0.999999403954, Q2 : 0.000857044884469, Q3 : 0.000451414118288, Q4 : -0.00053965713596}
2019-04-14 13:23:52.91: SIM {TimeUS : 45135272, Roll : 0.1, Pitch : 0.03, Yaw : 359.93, Alt : 32.1100006104, Lat : 49.2835703, Lng : -123.1150206, Q1 : 0.999999403954, Q2 : 0.000900837650988, Q3 : 0.000299524806906, Q4 : -0.000535186205525}
2019-04-14 13:23:53.01: SIM {TimeUS : 45235232, Roll : 0.09, Pitch : 0.03, Yaw : 359.94, Alt : 32.2900009155, Lat : 49.2835703, Lng : -123.1150207, Q1 : 0.999999463558, Q2 : 0.000850548269227, Q3 : 0.000271329452517, Q4 : -0.000518990738783}
2019-04-14 13:23:53.11: SIM {TimeUS : 45335192, Roll : 0.08, Pitch : 0.05, Yaw : 359.94, Alt : 32.4900016785, Lat : 49.2835703, Lng : -123.1150207, Q1 : 0.999999463558, Q2 : 0.000741361523978, Q3 : 0.000495586369652, Q4 : -0.000483901851112}
2019-04-14 13:23:53.21: SIM {TimeUS : 45435152, Roll : 0.06, Pitch : 0.08, Yaw : 359.94, Alt : 32.6800003052, Lat : 49.2835703, Lng : -123.1150207, Q1 : 0.999999463558, Q2 : 0.000610899995081, Q3 : 0.000750349543523, Q4 : -0.000449270708486}
2019-04-14 13:23:53.31: SIM {TimeUS : 45535112, Roll : 0.08, Pitch : 0.13, Yaw : 359.95, Alt : 32.8800010681, Lat : 49.2835704, Lng : -123.1150208, Q1 : 0.999998927116, Q2 : 0.000745650148019, Q3 : 0.00116777291987, Q4 : -0.000427627906902}
2019-04-14 13:23:53.41: SIM {TimeUS : 45635072, Roll : 0.12, Pitch : 0.17, Yaw : 359.95, Alt : 33.0800018311, Lat : 49.2835704, Lng : -123.1150208, Q1 : 0.999998211861, Q2 : 0.0010550058214, Q3 : 0.00152378517669, Q4 : -0.000417006842326}
2019-04-14 13:23:53.51: SIM {TimeUS : 45735032, Roll : 0.14, Pitch : 0.19, Yaw : 359.95, Alt : 33.2799987793, Lat : 49.2835704, Lng : -123.1150208, Q1 : 0.99999755621, Q2 : 0.00129321333952, Q3 : 0.00172482221387, Q4 : -0.000432120665209}
2019-04-14 13:23:53.61: SIM {TimeUS : 45834992, Roll : 0.16, Pitch : 0.21, Yaw : 359.94, Alt : 33.4900016785, Lat : 49.2835704, Lng : -123.1150208, Q1 : 0.999997198582, Q2 : 0.0014091252815, Q3 : 0.00186616531573, Q4 : -0.000454903580248}
2019-04-14 13:23:53.71: SIM {TimeUS : 45934952, Roll : 0.16, Pitch : 0.18, Yaw : 359.94, Alt : 33.6899986267, Lat : 49.2835704, Lng : -123.1150209, Q1 : 0.999997496605, Q2 : 0.00143468868919, Q3 : 0.00164260843303, Q4 : -0.000496452033985}
2019-04-14 13:23:53.81: SIM {TimeUS : 46034912, Roll : 0.15, Pitch : 0.14, Yaw : 359.93, Alt : 33.9000015259, Lat : 49.2835704, Lng : -123.1150209, Q1 : 0.999998092651, Q2 : 0.00135937449522, Q3 : 0.00127981987316, Q4 : -0.000536362698767}
2019-04-14 13:23:53.91: SIM {TimeUS : 46134872, Roll : 0.13, Pitch : 0.11, Yaw : 359.93, Alt : 34.1100006104, Lat : 49.2835704, Lng : -123.1150209, Q1 : 0.999998629093, Q2 : 0.00117952213623, Q3 : 0.000997816328891, Q4 : -0.000577678030822}
2019-04-14 13:23:54.01: SIM {TimeUS : 46234832, Roll : 0.12, Pitch : 0.09, Yaw : 359.92, Alt : 34.3199996948, Lat : 49.2835704, Lng : -123.1150209, Q1 : 0.999998927116, Q2 : 0.00107013015077, Q3 : 0.000813335063867, Q4 : -0.000612351170275}
2019-04-14 13:23:54.11: SIM {TimeUS : 46334792, Roll : 0.11, Pitch : 0.09, Yaw : 359.92, Alt : 34.5400009155, Lat : 49.2835704, Lng : -123.1150209, Q1 : 0.999998927116, Q2 : 0.00103476736695, Q3 : 0.000788634468336, Q4 : -0.000641094346065}
2019-04-14 13:23:54.21: SIM {TimeUS : 46434752, Roll : 0.1, Pitch : 0.07, Yaw : 359.92, Alt : 34.75, Lat : 49.2835704, Lng : -123.1150208, Q1 : 0.999999165535, Q2 : 0.000934352865443, Q3 : 0.000626305758487, Q4 : -0.000656209303997}
2019-04-14 13:23:54.31: SIM {TimeUS : 46534712, Roll : 0.08, Pitch : 0.05, Yaw : 359.92, Alt : 34.9700012207, Lat : 49.2835704, Lng : -123.1150208, Q1 : 0.999999403954, Q2 : 0.000744831282645, Q3 : 0.000466947851237, Q4 : -0.000662306149025}
2019-04-14 13:23:54.42: SIM {TimeUS : 46635505, Roll : 0.06, Pitch : 0.04, Yaw : 359.92, Alt : 35.1800003052, Lat : 49.2835704, Lng : -123.1150208, Q1 : 0.999999523163, Q2 : 0.000541736721061, Q3 : 0.000406572740758, Q4 : -0.000664566585328}
2019-04-14 13:23:54.51: SIM {TimeUS : 46735465, Roll : 0.04, Pitch : 0.04, Yaw : 359.92, Alt : 35.4000015259, Lat : 49.2835704, Lng : -123.1150208, Q1 : 0.999999642372, Q2 : 0.000362894294085, Q3 : 0.000392642774386, Q4 : -0.000664781196974}
2019-04-14 13:23:54.61: SIM {TimeUS : 46835425, Roll : 0.03, Pitch : 0.01, Yaw : 359.92, Alt : 35.6199989319, Lat : 49.2835704, Lng : -123.1150208, Q1 : 0.999999701977, Q2 : 0.000286668684566, Q3 : 0.000145621816046, Q4 : -0.000667868705932}
2019-04-14 13:23:54.71: SIM {TimeUS : 46935385, Roll : 0.02, Pitch : 0.0, Yaw : 359.92, Alt : 35.8400001526, Lat : 49.2835704, Lng : -123.1150208, Q1 : 0.999999701977, Q2 : 0.000238325636019, Q3 : -6.05517379881e-05, Q4 : -0.000682136917021}
2019-04-14 13:23:54.81: SIM {TimeUS : 47035345, Roll : 0.0, Pitch : -0.02, Yaw : 359.91, Alt : 36.0600013733, Lat : 49.2835704, Lng : -123.1150207, Q1 : 0.999999761581, Q2 : 4.60086703242e-05, Q3 : -0.000176569345058, Q4 : -0.000709460524376}
2019-04-14 13:23:54.91: SIM {TimeUS : 47135305, Roll : 0.0, Pitch : -0.01, Yaw : 359.91, Alt : 36.2799987793, Lat : 49.2835704, Lng : -123.1150207, Q1 : 0.999999701977, Q2 : -1.91011549759e-05, Q3 : -0.000162027528859, Q4 : -0.000729168648832}
2019-04-14 13:23:55.01: SIM {TimeUS : 47235265, Roll : 0.0, Pitch : -0.01, Yaw : 359.91, Alt : 36.5, Lat : 49.2835704, Lng : -123.1150207, Q1 : 0.999999701977, Q2 : 5.95353376411e-05, Q3 : -0.000161651303642, Q4 : -0.000746054342017}
2019-04-14 13:23:55.11: SIM {TimeUS : 47335225, Roll : 0.0, Pitch : -0.02, Yaw : 359.91, Alt : 36.7200012207, Lat : 49.2835704, Lng : -123.1150207, Q1 : 0.999999642372, Q2 : -2.63841957349e-05, Q3 : -0.00025683970307, Q4 : -0.000768422789406}
2019-04-14 13:23:55.21: SIM {TimeUS : 47435185, Roll : -0.03, Pitch : -0.05, Yaw : 359.9, Alt : 36.9500007629, Lat : 49.2835704, Lng : -123.1150207, Q1 : 0.999999523163, Q2 : -0.000302063417621, Q3 : -0.000475230597658, Q4 : -0.000802072871011}
2019-04-14 13:23:55.31: SIM {TimeUS : 47535145, Roll : -0.07, Pitch : -0.07, Yaw : 359.9, Alt : 37.1699981689, Lat : 49.2835704, Lng : -123.1150207, Q1 : 0.99999922514, Q2 : -0.00064499193104, Q3 : -0.000666786218062, Q4 : -0.000842258916236}
2019-04-14 13:23:55.41: SIM {TimeUS : 47635105, Roll : -0.11, Pitch : -0.09, Yaw : 359.89, Alt : 37.4000015259, Lat : 49.2835704, Lng : -123.1150207, Q1 : 0.999998807907, Q2 : -0.000971939181909, Q3 : -0.000831361801829, Q4 : -0.00088241515914}
2019-04-14 13:23:55.51: SIM {TimeUS : 47735065, Roll : -0.12, Pitch : -0.1, Yaw : 359.89, Alt : 37.6199989319, Lat : 49.2835704, Lng : -123.1150207, Q1 : 0.999998569489, Q2 : -0.00110910274088, Q3 : -0.000881223473698, Q4 : -0.000926173001062}
2019-04-14 13:23:55.61: SIM {TimeUS : 47835025, Roll : -0.12, Pitch : -0.08, Yaw : 359.88, Alt : 37.8499984741, Lat : 49.2835704, Lng : -123.1150207, Q1 : 0.999998688698, Q2 : -0.00106629508082, Q3 : -0.0007699309499, Q4 : -0.000969055457972}
2019-04-14 13:23:55.71: SIM {TimeUS : 47934985, Roll : -0.09, Pitch : -0.05, Yaw : 359.88, Alt : 38.0699996948, Lat : 49.2835704, Lng : -123.1150206, Q1 : 0.999998986721, Q2 : -0.000863542256411, Q3 : -0.00048365679686, Q4 : -0.00100237573497}
2019-04-14 13:23:55.81: SIM {TimeUS : 48034945, Roll : -0.07, Pitch : -0.02, Yaw : 359.88, Alt : 38.2999992371, Lat : 49.2835704, Lng : -123.1150206, Q1 : 0.99999922514, Q2 : -0.000618910649791, Q3 : -0.000260967732174, Q4 : -0.00103419122752}
2019-04-14 13:23:55.91: SIM {TimeUS : 48134905, Roll : -0.06, Pitch : -0.02, Yaw : 359.87, Alt : 38.5299987793, Lat : 49.2835704, Lng : -123.1150206, Q1 : 0.999999284744, Q2 : -0.000528568110894, Q3 : -0.000234927021665, Q4 : -0.00106416607741}
2019-04-14 13:23:56.01: SIM {TimeUS : 48234865, Roll : -0.06, Pitch : -0.01, Yaw : 359.87, Alt : 38.7599983215, Lat : 49.2835704, Lng : -123.1150206, Q1 : 0.999999284744, Q2 : -0.000533170357812, Q3 : -0.000116273156891, Q4 : -0.00108659162652}
2019-04-14 13:23:56.11: SIM {TimeUS : 48334825, Roll : -0.07, Pitch : 0.0, Yaw : 359.87, Alt : 38.9900016785, Lat : 49.2835706, Lng : -123.1150206, Q1 : 0.999999165535, Q2 : -0.000677703996189, Q3 : 3.1171253795e-05, Q4 : -0.00109829567373}
2019-04-14 13:23:56.21: SIM {TimeUS : 48434785, Roll : -0.07, Pitch : 0.01, Yaw : 359.87, Alt : 39.2200012207, Lat : 49.2835706, Lng : -123.1150206, Q1 : 0.999999165535, Q2 : -0.000680094817653, Q3 : 0.000162622513017, Q4 : -0.00109954224899}
2019-04-14 13:23:56.31: SIM {TimeUS : 48534745, Roll : -0.05, Pitch : 0.04, Yaw : 359.87, Alt : 39.4500007629, Lat : 49.2835706, Lng : -123.1150207, Q1 : 0.999999165535, Q2 : -0.000517222040799, Q3 : 0.000384307379136, Q4 : -0.00110341701657}
2019-04-14 13:23:56.41: SIM {TimeUS : 48634705, Roll : -0.03, Pitch : 0.04, Yaw : 359.87, Alt : 39.6800003052, Lat : 49.2835706, Lng : -123.1150207, Q1 : 0.999999284744, Q2 : -0.000317319179885, Q3 : 0.000375645904569, Q4 : -0.00110012385994}
2019-04-14 13:23:56.52: SIM {TimeUS : 48735498, Roll : 0.0, Pitch : 0.03, Yaw : 359.87, Alt : 39.9099998474, Lat : 49.2835706, Lng : -123.1150207, Q1 : 0.999999344349, Q2 : -7.93914587121e-05, Q3 : 0.000318837846862, Q4 : -0.00109595549293}
2019-04-14 13:23:56.61: SIM {TimeUS : 48835458, Roll : 0.02, Pitch : 0.05, Yaw : 359.87, Alt : 40.1399993896, Lat : 49.2835706, Lng : -123.1150207, Q1 : 0.999999284744, Q2 : 0.00022640718089, Q3 : 0.000500551483128, Q4 : -0.0010845240904}
2019-04-14 13:23:56.71: SIM {TimeUS : 48935418, Roll : 0.06, Pitch : 0.09, Yaw : 359.87, Alt : 40.3699989319, Lat : 49.2835706, Lng : -123.1150207, Q1 : 0.999998867512, Q2 : 0.000567034177948, Q3 : 0.000843753688969, Q4 : -0.00108167110011}
2019-04-14 13:23:56.81: SIM {TimeUS : 49035378, Roll : 0.09, Pitch : 0.14, Yaw : 359.87, Alt : 40.5999984741, Lat : 49.2835706, Lng : -123.1150207, Q1 : 0.999998271465, Q2 : 0.000826504488941, Q3 : 0.00124472135212, Q4 : -0.00109026022255}
2019-04-14 13:23:56.91: SIM {TimeUS : 49135338, Roll : 0.08, Pitch : 0.18, Yaw : 359.87, Alt : 40.8400001526, Lat : 49.2835706, Lng : -123.1150207, Q1 : 0.999997735023, Q2 : 0.000783894036431, Q3 : 0.00163445947692, Q4 : -0.00109537865501}
2019-04-14 13:23:57.01: SIM {TimeUS : 49235298, Roll : 0.04, Pitch : 0.21, Yaw : 359.87, Alt : 41.0699996948, Lat : 49.2835706, Lng : -123.1150207, Q1 : 0.99999755621, Q2 : 0.000397087220335, Q3 : 0.00188128708396, Q4 : -0.00112278130837}
2019-04-14 13:23:57.11: SIM {TimeUS : 49335258, Roll : 0.0, Pitch : 0.21, Yaw : 359.86, Alt : 41.2999992371, Lat : 49.2835706, Lng : -123.1150207, Q1 : 0.999997496605, Q2 : 1.18572488645e-05, Q3 : 0.00191519863438, Q4 : -0.00114906823728}
2019-04-14 13:23:57.21: SIM {TimeUS : 49435218, Roll : -0.02, Pitch : 0.18, Yaw : 359.86, Alt : 41.5400009155, Lat : 49.2835706, Lng : -123.1150207, Q1 : 0.999998033047, Q2 : -0.000192625069758, Q3 : 0.00160484248772, Q4 : -0.0011722042691}
2019-04-14 13:23:57.31: SIM {TimeUS : 49535178, Roll : -0.02, Pitch : 0.13, Yaw : 359.86, Alt : 41.7700004578, Lat : 49.2835706, Lng : -123.1150207, Q1 : 0.999998509884, Q2 : -0.000249383359915, Q3 : 0.00119396543596, Q4 : -0.0012024109019}
2019-04-14 13:23:57.41: SIM {TimeUS : 49635138, Roll : -0.01, Pitch : 0.12, Yaw : 359.85, Alt : 42.0, Lat : 49.2835706, Lng : -123.1150207, Q1 : 0.999998688698, Q2 : -0.000143653873238, Q3 : 0.00105332466774, Q4 : -0.00123940873891}
2019-04-14 13:23:57.51: SIM {TimeUS : 49735098, Roll : 0.02, Pitch : 0.12, Yaw : 359.85, Alt : 42.2400016785, Lat : 49.2835706, Lng : -123.1150207, Q1 : 0.999998569489, Q2 : 0.000190518694581, Q3 : 0.00112319015898, Q4 : -0.00128150731325}
2019-04-14 13:23:57.61: SIM {TimeUS : 49835058, Roll : 0.07, Pitch : 0.13, Yaw : 359.84, Alt : 42.4700012207, Lat : 49.2835706, Lng : -123.1150207, Q1 : 0.999998211861, Q2 : 0.000616320583504, Q3 : 0.00118427537382, Q4 : -0.00132524233777}
2019-04-14 13:23:57.71: SIM {TimeUS : 49935018, Roll : 0.1, Pitch : 0.11, Yaw : 359.84, Alt : 42.7099990845, Lat : 49.2835706, Lng : -123.1150207, Q1 : 0.999998092651, Q2 : 0.000918687612284, Q3 : 0.00104370166082, Q4 : -0.00137280125637}
2019-04-14 13:23:57.81: SIM {TimeUS : 50034978, Roll : 0.1, Pitch : 0.09, Yaw : 359.83, Alt : 42.9399986267, Lat : 49.2835706, Lng : -123.1150207, Q1 : 0.999998211861, Q2 : 0.000934697978664, Q3 : 0.000824859307613, Q4 : -0.00141525315121}
2019-04-14 13:23:57.91: SIM {TimeUS : 50134938, Roll : 0.07, Pitch : 0.07, Yaw : 359.83, Alt : 43.1800003052, Lat : 49.2835706, Lng : -123.1150207, Q1 : 0.999998569489, Q2 : 0.000617320707534, Q3 : 0.000670588400681, Q4 : -0.00144334486686}
2019-04-14 13:23:58.01: SIM {TimeUS : 50234898, Roll : 0.01, Pitch : 0.07, Yaw : 359.83, Alt : 43.4099998474, Lat : 49.2835704, Lng : -123.1150207, Q1 : 0.999998748302, Q2 : 0.0001440414635, Q3 : 0.000638452765997, Q4 : -0.00146299297921}
2019-04-14 13:23:58.11: SIM {TimeUS : 50334858, Roll : -0.02, Pitch : 0.08, Yaw : 359.83, Alt : 43.6500015259, Lat : 49.2835704, Lng : -123.1150207, Q1 : 0.999998569489, Q2 : -0.000192281775526, Q3 : 0.000754216162022, Q4 : -0.00148178637028}
2019-04-14 13:23:58.21: SIM {TimeUS : 50434818, Roll : -0.04, Pitch : 0.09, Yaw : 359.82, Alt : 43.8800010681, Lat : 49.2835704, Lng : -123.1150207, Q1 : 0.999998509884, Q2 : -0.000348601839505, Q3 : 0.000790902529843, Q4 : -0.00149917427916}
2019-04-14 13:23:58.31: SIM {TimeUS : 50534778, Roll : -0.03, Pitch : 0.07, Yaw : 359.82, Alt : 44.1199989319, Lat : 49.2835704, Lng : -123.1150206, Q1 : 0.999998569489, Q2 : -0.000329745031195, Q3 : 0.000654842995573, Q4 : -0.00151643122081}
2019-04-14 13:23:58.41: SIM {TimeUS : 50634738, Roll : -0.04, Pitch : 0.05, Yaw : 359.82, Alt : 44.3499984741, Lat : 49.2835704, Lng : -123.1150206, Q1 : 0.999998629093, Q2 : -0.000397237745347, Q3 : 0.000468762416858, Q4 : -0.00154087599367}
2019-04-14 13:23:58.51: SIM {TimeUS : 50734698, Roll : -0.04, Pitch : 0.02, Yaw : 359.82, Alt : 44.5900001526, Lat : 49.2835704, Lng : -123.1150206, Q1 : 0.999998688698, Q2 : -0.000391640525777, Q3 : 0.000258095737081, Q4 : -0.00156716210768}
2019-04-14 13:23:58.61: SIM {TimeUS : 50835491, Roll : -0.03, Pitch : 0.0, Yaw : 359.81, Alt : 44.8300018311, Lat : 49.2835704, Lng : -123.1150206, Q1 : 0.999998688698, Q2 : -0.000308982678689, Q3 : 6.71009183861e-05, Q4 : -0.00159698270727}
2019-04-14 13:23:58.71: SIM {TimeUS : 50935451, Roll : -0.03, Pitch : 0.0, Yaw : 359.81, Alt : 45.0600013733, Lat : 49.2835703, Lng : -123.1150206, Q1 : 0.999998629093, Q2 : -0.000273064157227, Q3 : -4.6552871936e-05, Q4 : -0.00162897142582}
2019-04-14 13:23:58.81: SIM {TimeUS : 51035411, Roll : -0.02, Pitch : -0.01, Yaw : 359.8, Alt : 45.2999992371, Lat : 49.2835703, Lng : -123.1150206, Q1 : 0.999998569489, Q2 : -0.000247145741014, Q3 : -9.87273306237e-05, Q4 : -0.0016610941384}
2019-04-14 13:23:58.91: SIM {TimeUS : 51135371, Roll : -0.02, Pitch : -0.03, Yaw : 359.8, Alt : 45.5299987793, Lat : 49.2835703, Lng : -123.1150206, Q1 : 0.999998509884, Q2 : -0.000261752604274, Q3 : -0.000292085373076, Q4 : -0.00168645661324}
2019-04-14 13:23:59.01: SIM {TimeUS : 51235331, Roll : -0.02, Pitch : -0.04, Yaw : 359.8, Alt : 45.7700004578, Lat : 49.2835703, Lng : -123.1150206, Q1 : 0.999998450279, Q2 : -0.000242129361141, Q3 : -0.000382356054615, Q4 : -0.00170886155684}
2019-04-14 13:23:59.11: SIM {TimeUS : 51335291, Roll : -0.02, Pitch : -0.05, Yaw : 359.8, Alt : 46.0, Lat : 49.2835703, Lng : -123.1150206, Q1 : 0.999998390675, Q2 : -0.000210889760638, Q3 : -0.000442891498096, Q4 : -0.00172773445956}
2019-04-14 13:23:59.21: SIM {TimeUS : 51435251, Roll : -0.03, Pitch : -0.05, Yaw : 359.79, Alt : 46.2299995422, Lat : 49.2835703, Lng : -123.1150206, Q1 : 0.99999833107, Q2 : -0.000263545720372, Q3 : -0.000450542516774, Q4 : -0.00174744043034}
2019-04-14 13:23:59.31: SIM {TimeUS : 51535211, Roll : -0.05, Pitch : -0.04, Yaw : 359.79, Alt : 46.4500007629, Lat : 49.2835703, Lng : -123.1150206, Q1 : 0.999998271465, Q2 : -0.00045027845772, Q3 : -0.000398782431148, Q4 : -0.00177140813321}
2019-04-14 13:23:59.41: SIM {TimeUS : 51635171, Roll : -0.08, Pitch : -0.03, Yaw : 359.79, Alt : 46.6699981689, Lat : 49.2835703, Lng : -123.1150206, Q1 : 0.999998033047, Q2 : -0.000766071840189, Q3 : -0.000344756030245, Q4 : -0.00179835804738}
2019-04-14 13:23:59.51: SIM {TimeUS : 51735131, Roll : -0.11, Pitch : -0.03, Yaw : 359.79, Alt : 46.8899993896, Lat : 49.2835703, Lng : -123.1150206, Q1 : 0.999997794628, Q2 : -0.000982581521384, Q3 : -0.000334004318574, Q4 : -0.00182852463331}
2019-04-14 13:23:59.61: SIM {TimeUS : 51835091, Roll : -0.11, Pitch : -0.02, Yaw : 359.78, Alt : 47.0900001526, Lat : 49.2835703, Lng : -123.1150206, Q1 : 0.999997735023, Q2 : -0.0010192982154, Q3 : -0.000247855932685, Q4 : -0.00186241185293}
2019-04-14 13:23:59.71: SIM {TimeUS : 51935051, Roll : -0.1, Pitch : 0.0, Yaw : 359.78, Alt : 47.2900009155, Lat : 49.2835703, Lng : -123.1150206, Q1 : 0.999997794628, Q2 : -0.000907514826395, Q3 : -5.54123253096e-05, Q4 : -0.00189690932166}
2019-04-14 13:23:59.81: SIM {TimeUS : 52035011, Roll : -0.07, Pitch : 0.0, Yaw : 359.77, Alt : 47.4900016785, Lat : 49.2835703, Lng : -123.1150206, Q1 : 0.999997913837, Q2 : -0.000682285462972, Q3 : 7.35979119781e-05, Q4 : -0.00192790711299}
2019-04-14 13:23:59.91: SIM {TimeUS : 52134971, Roll : -0.06, Pitch : 0.0, Yaw : 359.77, Alt : 47.6699981689, Lat : 49.2835703, Lng : -123.1150206, Q1 : 0.999997913837, Q2 : -0.000567184470128, Q3 : 2.60005344899e-05, Q4 : -0.00195734249428}
2019-04-14 13:24:00.01: SIM {TimeUS : 52234931, Roll : -0.07, Pitch : -0.01, Yaw : 359.77, Alt : 47.8400001526, Lat : 49.2835703, Lng : -123.1150206, Q1 : 0.999997854233, Q2 : -0.000631116505247, Q3 : -0.000162964308402, Q4 : -0.00198154477403}
2019-04-14 13:24:00.11: SIM {TimeUS : 52334891, Roll : -0.06, Pitch : -0.04, Yaw : 359.77, Alt : 48.0, Lat : 49.2835703, Lng : -123.1150206, Q1 : 0.999997735023, Q2 : -0.000606504268944, Q3 : -0.000405719736591, Q4 : -0.00200299196877}
2019-04-14 13:24:00.21: SIM {TimeUS : 52434851, Roll : -0.04, Pitch : -0.06, Yaw : 359.76, Alt : 48.1500015259, Lat : 49.2835703, Lng : -123.1150206, Q1 : 0.999997675419, Q2 : -0.000420562544605, Q3 : -0.000608246424235, Q4 : -0.0020218892023}
2019-04-14 13:24:00.31: SIM {TimeUS : 52534811, Roll : -0.03, Pitch : -0.08, Yaw : 359.76, Alt : 48.2799987793, Lat : 49.2835703, Lng : -123.1150206, Q1 : 0.999997615814, Q2 : -0.000266731745796, Q3 : -0.000765832082834, Q4 : -0.00203908863477}
2019-04-14 13:24:00.41: SIM {TimeUS : 52634771, Roll : -0.02, Pitch : -0.09, Yaw : 359.76, Alt : 48.4099998474, Lat : 49.2835703, Lng : -123.1150206, Q1 : 0.999997496605, Q2 : -0.000204156458494, Q3 : -0.000863548484631, Q4 : -0.00205475394614}
2019-04-14 13:24:00.51: SIM {TimeUS : 52734731, Roll : 0.0, Pitch : -0.09, Yaw : 359.76, Alt : 48.5200004578, Lat : 49.2835703, Lng : -123.1150206, Q1 : 0.999997496605, Q2 : 3.90819004679e-05, Q3 : -0.000813455379102, Q4 : -0.00207273941487}
2019-04-14 13:24:00.62: SIM {TimeUS : 52835524, Roll : 0.03, Pitch : -0.07, Yaw : 359.75, Alt : 48.6199989319, Lat : 49.2835703, Lng : -123.1150206, Q1 : 0.99999755621, Q2 : 0.000307244423311, Q3 : -0.000635981268715, Q4 : -0.00209456682205}
2019-04-14 13:24:00.71: SIM {TimeUS : 52935484, Roll : 0.05, Pitch : -0.04, Yaw : 359.75, Alt : 48.7099990845, Lat : 49.2835703, Lng : -123.1150206, Q1 : 0.99999755621, Q2 : 0.000501900969539, Q3 : -0.000414184527472, Q4 : -0.0021232413128}
2019-04-14 13:24:00.81: SIM {TimeUS : 53035444, Roll : 0.05, Pitch : -0.02, Yaw : 359.75, Alt : 48.7799987793, Lat : 49.2835703, Lng : -123.1150206, Q1 : 0.999997496605, Q2 : 0.000519720662851, Q3 : -0.000215496387682, Q4 : -0.0021535877604}
2019-04-14 13:24:00.91: SIM {TimeUS : 53135404, Roll : 0.06, Pitch : -0.01, Yaw : 359.74, Alt : 48.8499984741, Lat : 49.2835703, Lng : -123.1150206, Q1 : 0.999997437, Q2 : 0.000560835993383, Q3 : -0.00012078454165, Q4 : -0.00218456611037}
2019-04-14 13:24:01.01: SIM {TimeUS : 53235364, Roll : 0.05, Pitch : -0.02, Yaw : 359.74, Alt : 48.9099998474, Lat : 49.2835703, Lng : -123.1150206, Q1 : 0.999997377396, Q2 : 0.000520703615621, Q3 : -0.000229215962463, Q4 : -0.00221809768118}
2019-04-14 13:24:01.11: SIM {TimeUS : 53335324, Roll : 0.03, Pitch : -0.03, Yaw : 359.74, Alt : 48.9599990845, Lat : 49.2835703, Lng : -123.1150206, Q1 : 0.999997377396, Q2 : 0.000341595063219, Q3 : -0.000307260022964, Q4 : -0.00225350284018}
2019-04-14 13:24:01.21: SIM {TimeUS : 53435284, Roll : 0.09, Pitch : -0.05, Yaw : 359.73, Alt : 49.0, Lat : 49.2835703, Lng : -123.1150206, Q1 : 0.999996960163, Q2 : 0.000809289340395, Q3 : -0.0004383638734, Q4 : -0.00229002535343}
2019-04-14 13:24:01.31: SIM {TimeUS : 53535244, Roll : 0.34, Pitch : -0.11, Yaw : 359.73, Alt : 49.0400009155, Lat : 49.2835703, Lng : -123.1150206, Q1 : 0.999992191792, Q2 : 0.00302781560458, Q3 : -0.00104970287066, Q4 : -0.0023259408772}
2019-04-14 13:24:01.41: SIM {TimeUS : 53635204, Roll : 0.87, Pitch : -0.26, Yaw : 359.72, Alt : 49.0699996948, Lat : 49.2835703, Lng : -123.1150206, Q1 : 0.999965429306, Q2 : 0.00762976054102, Q3 : -0.00230169226415, Q4 : -0.00235600583255}
2019-04-14 13:24:01.51: SIM {TimeUS : 53735164, Roll : 1.66, Pitch : -0.46, Yaw : 359.72, Alt : 49.0900001526, Lat : 49.2835703, Lng : -123.1150206, Q1 : 0.999883055687, Q2 : 0.014535209164, Q3 : -0.00411190418527, Q4 : -0.00237624766305}
2019-04-14 13:24:01.61: SIM {TimeUS : 53835124, Roll : 2.63, Pitch : -0.73, Yaw : 359.71, Alt : 49.1199989319, Lat : 49.2835704, Lng : -123.1150206, Q1 : 0.999711990356, Q2 : 0.0229879543185, Q3 : -0.00647182064131, Q4 : -0.00237718457356}
2019-04-14 13:24:01.71: SIM {TimeUS : 53935084, Roll : 3.65, Pitch : -1.05, Yaw : 359.69, Alt : 49.1399993896, Lat : 49.2835704, Lng : -123.1150204, Q1 : 0.999447822571, Q2 : 0.0318249240518, Q3 : -0.00925876479596, Q4 : -0.00235559442081}
2019-04-14 13:24:01.81: SIM {TimeUS : 54035044, Roll : 4.54, Pitch : -1.34, Yaw : 359.68, Alt : 49.1500015259, Lat : 49.2835704, Lng : -123.1150203, Q1 : 0.999143064022, Q2 : 0.0395935252309, Q3 : -0.0118436990306, Q4 : -0.00229725451209}
2019-04-14 13:24:01.91: SIM {TimeUS : 54135004, Roll : 5.21, Pitch : -1.59, Yaw : 359.67, Alt : 49.1699981689, Lat : 49.2835706, Lng : -123.11502, Q1 : 0.998864710331, Q2 : 0.0454729422927, Q3 : -0.0140271475539, Q4 : -0.00220165983774}
2019-04-14 13:24:02.01: SIM {TimeUS : 54234964, Roll : 5.71, Pitch : -1.78, Yaw : 359.67, Alt : 49.1800003052, Lat : 49.2835707, Lng : -123.1150197, Q1 : 0.998636007309, Q2 : 0.0497620366514, Q3 : -0.015673045069, Q4 : -0.00206337403506}
2019-04-14 13:24:02.11: SIM {TimeUS : 54334924, Roll : 6.1, Pitch : -1.89, Yaw : 359.68, Alt : 49.1899986267, Lat : 49.2835708, Lng : -123.1150192, Q1 : 0.998443484306, Q2 : 0.0531855821609, Q3 : -0.0166864395142, Q4 : -0.00189410487656}
2019-04-14 13:24:02.21: SIM {TimeUS : 54434884, Roll : 6.44, Pitch : -1.99, Yaw : 359.68, Alt : 49.2000007629, Lat : 49.2835709, Lng : -123.1150186, Q1 : 0.998264908791, Q2 : 0.0561757199466, Q3 : -0.0175632778555, Q4 : -0.00173552485649}
2019-04-14 13:24:02.31: SIM {TimeUS : 54534844, Roll : 6.79, Pitch : -2.1, Yaw : 359.69, Alt : 49.2099990845, Lat : 49.2835709, Lng : -123.1150179, Q1 : 0.998074948788, Q2 : 0.0591865442693, Q3 : -0.0184624064714, Q4 : -0.00157619360834}
2019-04-14 13:24:02.41: SIM {TimeUS : 54634804, Roll : 7.15, Pitch : -2.2, Yaw : 359.69, Alt : 49.2200012207, Lat : 49.2835712, Lng : -123.1150171, Q1 : 0.997866630554, Q2 : 0.062325976789, Q3 : -0.0193819608539, Q4 : -0.00141384382732}
2019-04-14 13:24:02.51: SIM {TimeUS : 54734764, Roll : 7.47, Pitch : -2.31, Yaw : 359.7, Alt : 49.2200012207, Lat : 49.2835714, Lng : -123.1150162, Q1 : 0.997669756413, Q2 : 0.0651099085808, Q3 : -0.0203495807946, Q4 : -0.00127864733804}
2019-04-14 13:24:02.61: SIM {TimeUS : 54834724, Roll : 7.73, Pitch : -2.41, Yaw : 359.7, Alt : 49.2299995422, Lat : 49.2835715, Lng : -123.1150151, Q1 : 0.997500896454, Q2 : 0.0673800632358, Q3 : -0.0212263762951, Q4 : -0.00116227613762}
2019-04-14 13:24:02.72: SIM {TimeUS : 54935517, Roll : 7.94, Pitch : -2.48, Yaw : 359.7, Alt : 49.2400016785, Lat : 49.2835718, Lng : -123.1150139, Q1 : 0.997364580631, Q2 : 0.0691975206137, Q3 : -0.0217824801803, Q4 : -0.00104985630605}
2019-04-14 13:24:02.81: SIM {TimeUS : 55035477, Roll : 8.08, Pitch : -2.5, Yaw : 359.71, Alt : 49.2400016785, Lat : 49.2835721, Lng : -123.1150127, Q1 : 0.997271895409, Q2 : 0.0704634711146, Q3 : -0.0219729542732, Q4 : -0.000945692125242}
2019-04-14 13:24:02.91: SIM {TimeUS : 55135437, Roll : 8.2, Pitch : -2.51, Yaw : 359.71, Alt : 49.25, Lat : 49.2835724, Lng : -123.1150113, Q1 : 0.997201502323, Q2 : 0.0714279636741, Q3 : -0.0220567490906, Q4 : -0.000873074692208}
2019-04-14 13:24:03.01: SIM {TimeUS : 55235397, Roll : 8.34, Pitch : -2.51, Yaw : 359.73, Alt : 49.25, Lat : 49.2835727, Lng : -123.1150099, Q1 : 0.997113347054, Q2 : 0.0726535245776, Q3 : -0.0220437627286, Q4 : -0.000734652217943}
2019-04-14 13:24:03.11: SIM {TimeUS : 55335357, Roll : 8.64, Pitch : -2.3, Yaw : 0.01, Alt : 49.25, Lat : 49.2835729, Lng : -123.1150083, Q1 : 0.996950447559, Q2 : 0.0753942877054, Q3 : -0.0200716666877, Q4 : 0.0016177543439}
2019-04-14 13:24:03.21: SIM {TimeUS : 55435317, Roll : 9.14, Pitch : -1.91, Yaw : 1.17, Alt : 49.2599983215, Lat : 49.2835733, Lng : -123.1150066, Q1 : 0.996611058712, Q2 : 0.0798818916082, Q3 : -0.0158443078399, Q4 : 0.0115907033905}
2019-04-14 13:24:03.31: SIM {TimeUS : 55535277, Roll : 9.7, Pitch : -1.73, Yaw : 3.8, Alt : 49.2599983215, Lat : 49.2835735, Lng : -123.1150048, Q1 : 0.995708227158, Q2 : 0.085063688457, Q3 : -0.0122897913679, Q4 : 0.0343253612518}
2019-04-14 13:24:03.41: SIM {TimeUS : 55635237, Roll : 10.17, Pitch : -2.1, Yaw : 7.98, Alt : 49.2599983215, Lat : 49.2835739, Lng : -123.115003, Q1 : 0.993362426758, Q2 : 0.0897082388401, Q3 : -0.0120499432087, Q4 : 0.0709814652801}
2019-04-14 13:24:03.51: SIM {TimeUS : 55735197, Roll : 10.37, Pitch : -3.1, Yaw : 13.56, Alt : 49.2599983215, Lat : 49.2835743, Lng : -123.1150009, Q1 : 0.988280832767, Q2 : 0.0929230302572, Q3 : -0.0161061342806, Q4 : 0.120028652251}
2019-04-14 13:24:03.61: SIM {TimeUS : 55835157, Roll : 10.14, Pitch : -4.65, Yaw : 20.29, Alt : 49.2599983215, Lat : 49.2835745, Lng : -123.1149988, Q1 : 0.979057013988, Q2 : 0.094118565321, Q3 : -0.0242196079344, Q4 : 0.178892612457}
2019-04-14 13:24:03.71: SIM {TimeUS : 55935117, Roll : 9.4, Pitch : -6.55, Yaw : 27.92, Alt : 49.2700004578, Lat : 49.2835749, Lng : -123.1149966, Q1 : 0.964471995831, Q2 : 0.093208424747, Q3 : -0.0355512313545, Q4 : 0.244626566768}
2019-04-14 13:24:03.81: SIM {TimeUS : 56035077, Roll : 8.13, Pitch : -8.57, Yaw : 36.21, Alt : 49.2700004578, Lat : 49.2835751, Lng : -123.1149942, Q1 : 0.943777084351, Q2 : 0.090399287641, Q3 : -0.0489090234041, Q4 : 0.31419852376}
2019-04-14 13:24:03.91: SIM {TimeUS : 56135037, Roll : 6.37, Pitch : -10.49, Yaw : 44.93, Alt : 49.2700004578, Lat : 49.2835755, Lng : -123.1149917, Q1 : 0.916871488094, Q2 : 0.0860521197319, Q3 : -0.0632056668401, Q4 : 0.384638518095}
2019-04-14 13:24:04.01: SIM {TimeUS : 56234997, Roll : 4.24, Pitch : -12.09, Yaw : 53.81, Alt : 49.2700004578, Lat : 49.2835758, Lng : -123.1149891, Q1 : 0.884416699409, Q2 : 0.0804720446467, Q3 : -0.0772205814719, Q4 : 0.453175932169}
2019-04-14 13:24:04.11: SIM {TimeUS : 56334957, Roll : 1.89, Pitch : -13.23, Yaw : 62.56, Alt : 49.2700004578, Lat : 49.2835762, Lng : -123.1149863, Q1 : 0.847838819027, Q2 : 0.0738193541765, Q3 : -0.0899241939187, Q4 : 0.517333209515}
2019-04-14 13:24:04.21: SIM {TimeUS : 56434917, Roll : -0.66, Pitch : -13.85, Yaw : 70.84, Alt : 49.2799987793, Lat : 49.2835765, Lng : -123.1149835, Q1 : 0.809354960918, Q2 : 0.0652155727148, Q3 : -0.101629085839, Q4 : 0.574772179127}
2019-04-14 13:24:04.31: SIM {TimeUS : 56534877, Roll : -3.38, Pitch : -14.0, Yaw : 78.05, Alt : 49.2799987793, Lat : 49.283577, Lng : -123.1149805, Q1 : 0.773008167744, Q2 : 0.0539269149303, Q3 : -0.11310608685, Q4 : 0.621898174286}
2019-04-14 13:24:04.41: SIM {TimeUS : 56634837, Roll : -5.82, Pitch : -13.78, Yaw : 83.54, Alt : 49.2799987793, Lat : 49.2835776, Lng : -123.1149774, Q1 : 0.743531525135, Q2 : 0.0422375500202, Q3 : -0.123007163405, Q4 : 0.655931472778}
2019-04-14 13:24:04.51: SIM {TimeUS : 56734797, Roll : -7.52, Pitch : -13.44, Yaw : 87.03, Alt : 49.2799987793, Lat : 49.2835782, Lng : -123.1149742, Q1 : 0.723919272423, Q2 : 0.0331983119249, Q3 : -0.129590883851, Q4 : 0.676790237427}
2019-04-14 13:24:04.61: SIM {TimeUS : 56834757, Roll : -8.27, Pitch : -13.18, Yaw : 88.61, Alt : 49.2799987793, Lat : 49.2835789, Lng : -123.114971, Q1 : 0.714792788029, Q2 : 0.0286693796515, Q3 : -0.131982922554, Q4 : 0.686170458794}
2019-04-14 13:24:04.71: SIM {TimeUS : 56934717, Roll : -8.09, Pitch : -13.1, Yaw : 88.57, Alt : 49.2799987793, Lat : 49.2835797, Lng : -123.1149676, Q1 : 0.715025901794, Q2 : 0.0292855501175, Q3 : -0.13047888875, Q4 : 0.686189174652}
2019-04-14 13:24:04.82: SIM {TimeUS : 57035510, Roll : -7.11, Pitch : -13.29, Yaw : 87.24, Alt : 49.2799987793, Lat : 49.2835806, Lng : -123.1149641, Q1 : 0.72262853384, Q2 : 0.0350971780717, Q3 : -0.126210987568, Q4 : 0.678709805012}
2019-04-14 13:24:04.91: SIM {TimeUS : 57135470, Roll : -5.57, Pitch : -13.74, Yaw : 84.98, Alt : 49.2799987793, Lat : 49.2835814, Lng : -123.1149605, Q1 : 0.735128700733, Q2 : 0.0451506003737, Q3 : -0.120755277574, Q4 : 0.665556430817}
2019-04-14 13:24:05.01: SIM {TimeUS : 57235430, Roll : -3.71, Pitch : -14.37, Yaw : 82.11, Alt : 49.2799987793, Lat : 49.2835824, Lng : -123.1149569, Q1 : 0.750377297401, Q2 : 0.0578797012568, Q3 : -0.115372166038, Q4 : 0.648284733295}
2019-04-14 13:24:05.11: SIM {TimeUS : 57335390, Roll : -1.75, Pitch : -15.02, Yaw : 78.94, Alt : 49.2799987793, Lat : 49.2835835, Lng : -123.1149531, Q1 : 0.766505122185, Q2 : 0.0714105293155, Q3 : -0.110562652349, Q4 : 0.628606677055}
2019-04-14 13:24:05.21: SIM {TimeUS : 57435350, Roll : 0.09, Pitch : -15.58, Yaw : 75.76, Alt : 49.2799987793, Lat : 49.2835844, Lng : -123.1149493, Q1 : 0.781907200813, Q2 : 0.0839183554053, Q3 : -0.106466069818, Q4 : 0.608476638794}
2019-04-14 13:24:05.31: SIM {TimeUS : 57535310, Roll : 1.67, Pitch : -15.93, Yaw : 72.91, Alt : 49.2799987793, Lat : 49.2835855, Lng : -123.1149454, Q1 : 0.795225024223, Q2 : 0.0939829424024, Q3 : -0.102866455913, Q4 : 0.590087175369}
2019-04-14 13:24:05.41: SIM {TimeUS : 57635270, Roll : 2.83, Pitch : -16.06, Yaw : 70.66, Alt : 49.2799987793, Lat : 49.2835865, Lng : -123.1149413, Q1 : 0.805536091328, Q2 : 0.100788846612, Q3 : -0.0997853651643, Q4 : 0.575322568417}
2019-04-14 13:24:05.51: SIM {TimeUS : 57735230, Roll : 3.52, Pitch : -16.04, Yaw : 69.17, Alt : 49.2799987793, Lat : 49.2835873, Lng : -123.1149371, Q1 : 0.812397778034, Q2 : 0.104215554893, Q3 : -0.0975394695997, Q4 : 0.565362751484}
2019-04-14 13:24:05.61: SIM {TimeUS : 57835190, Roll : 3.73, Pitch : -15.95, Yaw : 68.46, Alt : 49.2900009155, Lat : 49.2835884, Lng : -123.1149328, Q1 : 0.815758824348, Q2 : 0.104728370905, Q3 : -0.0965296849608, Q4 : 0.560581386089}
2019-04-14 13:24:05.71: SIM {TimeUS : 57935150, Roll : 3.52, Pitch : -15.91, Yaw : 68.49, Alt : 49.2900009155, Lat : 49.2835892, Lng : -123.1149284, Q1 : 0.815866589546, Q2 : 0.103078886867, Q3 : -0.0972166806459, Q4 : 0.560611605644}
2019-04-14 13:24:05.81: SIM {TimeUS : 58035110, Roll : 2.98, Pitch : -15.95, Yaw : 69.12, Alt : 49.2900009155, Lat : 49.2835902, Lng : -123.1149239, Q1 : 0.813236892223, Q2 : 0.0999153405428, Q3 : -0.0995976626873, Q4 : 0.564573287964}
2019-04-14 13:24:05.91: SIM {TimeUS : 58135070, Roll : 2.19, Pitch : -16.06, Yaw : 70.17, Alt : 49.2900009155, Lat : 49.283591, Lng : -123.1149193, Q1 : 0.808552861214, Q2 : 0.0958453565836, Q3 : -0.103382050991, Q4 : 0.571286380291}
2019-04-14 13:24:06.01: SIM {TimeUS : 58235030, Roll : 1.3, Pitch : -16.19, Yaw : 71.47, Alt : 49.2900009155, Lat : 49.2835919, Lng : -123.1149147, Q1 : 0.802613139153, Q2 : 0.0914034619927, Q3 : -0.107751861215, Q4 : 0.579523205757}
2019-04-14 13:24:06.11: SIM {TimeUS : 58334990, Roll : 0.43, Pitch : -16.31, Yaw : 72.83, Alt : 49.2900009155, Lat : 49.2835928, Lng : -123.1149099, Q1 : 0.796215295792, Q2 : 0.0873068422079, Q3 : -0.111960284412, Q4 : 0.588118731976}
2019-04-14 13:24:06.21: SIM {TimeUS : 58434950, Roll : -0.33, Pitch : -16.41, Yaw : 74.1, Alt : 49.2900009155, Lat : 49.2835937, Lng : -123.1149051, Q1 : 0.790152013302, Q2 : 0.0837388187647, Q3 : -0.115693055093, Q4 : 0.596039295197}
2019-04-14 13:24:06.31: SIM {TimeUS : 58534910, Roll : -0.92, Pitch : -16.49, Yaw : 75.15, Alt : 49.2900009155, Lat : 49.2835946, Lng : -123.1149002, Q1 : 0.785028576851, Q2 : 0.0811431780457, Q3 : -0.118531540036, Q4 : 0.602574646473}
2019-04-14 13:24:06.41: SIM {TimeUS : 58634870, Roll : -1.28, Pitch : -16.52, Yaw : 75.9, Alt : 49.2900009155, Lat : 49.2835954, Lng : -123.1148952, Q1 : 0.781286418438, Q2 : 0.0796134024858, Q3 : -0.12012142688, Q4 : 0.607308983803}
2019-04-14 13:24:06.51: SIM {TimeUS : 58734830, Roll : -1.43, Pitch : -16.53, Yaw : 76.32, Alt : 49.2900009155, Lat : 49.2835964, Lng : -123.1148902, Q1 : 0.779128491879, Q2 : 0.0790628492832, Q3 : -0.120710290968, Q4 : 0.610030293465}
2019-04-14 13:24:06.61: SIM {TimeUS : 58834790, Roll : -1.41, Pitch : -16.55, Yaw : 76.43, Alt : 49.2900009155, Lat : 49.2835975, Lng : -123.1148852, Q1 : 0.778519690037, Q2 : 0.0794112980366, Q3 : -0.120651967824, Q4 : 0.610773265362}
2019-04-14 13:24:06.71: SIM {TimeUS : 58934750, Roll : -1.25, Pitch : -16.59, Yaw : 76.27, Alt : 49.2900009155, Lat : 49.2835984, Lng : -123.1148801, Q1 : 0.779251039028, Q2 : 0.0805707797408, Q3 : -0.120155319571, Q4 : 0.609785914421}
2019-04-14 13:24:06.81: SIM {TimeUS : 59034710, Roll : -0.98, Pitch : -16.64, Yaw : 75.89, Alt : 49.2900009155, Lat : 49.2835995, Lng : -123.1148749, Q1 : 0.780997633934, Q2 : 0.0823203027248, Q3 : -0.119403846562, Q4 : 0.607460916042}
2019-04-14 13:24:06.92: SIM {TimeUS : 59135503, Roll : -0.65, Pitch : -16.7, Yaw : 75.38, Alt : 49.2900009155, Lat : 49.2836005, Lng : -123.1148697, Q1 : 0.783426046371, Q2 : 0.0842945426702, Q3 : -0.118413880467, Q4 : 0.604248523712}
2019-04-14 13:24:07.01: SIM {TimeUS : 59235463, Roll : -0.31, Pitch : -16.74, Yaw : 74.81, Alt : 49.2900009155, Lat : 49.2836014, Lng : -123.1148643, Q1 : 0.786101400852, Q2 : 0.0863141268492, Q3 : -0.117304928601, Q4 : 0.600694656372}
2019-04-14 13:24:07.11: SIM {TimeUS : 59335423, Roll : 0.01, Pitch : -16.78, Yaw : 74.26, Alt : 49.2900009155, Lat : 49.2836025, Lng : -123.1148591, Q1 : 0.788696229458, Q2 : 0.0882375836372, Q3 : -0.116268761456, Q4 : 0.597205102444}
2019-04-14 13:24:07.21: SIM {TimeUS : 59435383, Roll : 0.29, Pitch : -16.81, Yaw : 73.78, Alt : 49.2900009155, Lat : 49.2836036, Lng : -123.1148538, Q1 : 0.790957152843, Q2 : 0.0898417159915, Q3 : -0.115421399474, Q4 : 0.594132304192}
2019-04-14 13:24:07.31: SIM {TimeUS : 59535343, Roll : 0.5, Pitch : -16.84, Yaw : 73.4, Alt : 49.2900009155, Lat : 49.2836045, Lng : -123.1148484, Q1 : 0.792699635029, Q2 : 0.0910692662001, Q3 : -0.114810034633, Q4 : 0.591736733913}
2019-04-14 13:24:07.41: SIM {TimeUS : 59635303, Roll : 0.63, Pitch : -16.88, Yaw : 73.15, Alt : 49.2900009155, Lat : 49.2836056, Lng : -123.114843, Q1 : 0.793830215931, Q2 : 0.0918943583965, Q3 : -0.114577963948, Q4 : 0.590136349201}
2019-04-14 13:24:07.51: SIM {TimeUS : 59735263, Roll : 0.68, Pitch : -16.9, Yaw : 73.04, Alt : 49.2900009155, Lat : 49.2836067, Lng : -123.1148375, Q1 : 0.794357299805, Q2 : 0.0922264233232, Q3 : -0.114655256271, Q4 : 0.589359760284}
2019-04-14 13:24:07.61: SIM {TimeUS : 59835223, Roll : 0.64, Pitch : -16.93, Yaw : 73.04, Alt : 49.2999992371, Lat : 49.2836078, Lng : -123.114832, Q1 : 0.794335901737, Q2 : 0.092112608254, Q3 : -0.115057200193, Q4 : 0.589328050613}
2019-04-14 13:24:07.71: SIM {TimeUS : 59935183, Roll : 0.54, Pitch : -16.98, Yaw : 73.14, Alt : 49.2999992371, Lat : 49.2836087, Lng : -123.1148265, Q1 : 0.793860077858, Q2 : 0.091725282371, Q3 : -0.115794375539, Q4 : 0.589884996414}
2019-04-14 13:24:07.81: SIM {TimeUS : 60035143, Roll : 0.39, Pitch : -17.02, Yaw : 73.31, Alt : 49.2999992371, Lat : 49.2836098, Lng : -123.1148209, Q1 : 0.793077230453, Q2 : 0.091094635427, Q3 : -0.116751551628, Q4 : 0.590846300125}
2019-04-14 13:24:07.91: SIM {TimeUS : 60135103, Roll : 0.21, Pitch : -17.06, Yaw : 73.51, Alt : 49.2999992371, Lat : 49.2836109, Lng : -123.1148153, Q1 : 0.792141616344, Q2 : 0.0903057381511, Q3 : -0.11778382957, Q4 : 0.592016518116}
2019-04-14 13:24:08.01: SIM {TimeUS : 60235063, Roll : 0.03, Pitch : -17.09, Yaw : 73.71, Alt : 49.2999992371, Lat : 49.2836118, Lng : -123.1148096, Q1 : 0.791195571423, Q2 : 0.0894387587905, Q3 : -0.118743315339, Q4 : 0.593220293522}
2019-04-14 13:24:08.11: SIM {TimeUS : 60335023, Roll : -0.11, Pitch : -17.12, Yaw : 73.9, Alt : 49.2999992371, Lat : 49.2836129, Lng : -123.114804, Q1 : 0.790346503258, Q2 : 0.0886694118381, Q3 : -0.119580447674, Q4 : 0.594298481941}
2019-04-14 13:24:08.21: SIM {TimeUS : 60434983, Roll : -0.21, Pitch : -17.15, Yaw : 74.04, Alt : 49.2999992371, Lat : 49.2836141, Lng : -123.1147983, Q1 : 0.789650440216, Q2 : 0.0882881954312, Q3 : -0.12020803988, Q4 : 0.595153212547}
2019-04-14 13:24:08.31: SIM {TimeUS : 60534943, Roll : -0.27, Pitch : -17.19, Yaw : 74.13, Alt : 49.2999992371, Lat : 49.2836151, Lng : -123.1147925, Q1 : 0.789170563221, Q2 : 0.0882023125887, Q3 : -0.120681107044, Q4 : 0.595706582069}
2019-04-14 13:24:08.41: SIM {TimeUS : 60634903, Roll : -0.27, Pitch : -17.23, Yaw : 74.17, Alt : 49.2999992371, Lat : 49.2836162, Lng : -123.1147868, Q1 : 0.78891825676, Q2 : 0.0884790495038, Q3 : -0.120958209038, Q4 : 0.595943450928}
2019-04-14 13:24:08.51: SIM {TimeUS : 60734863, Roll : -0.22, Pitch : -17.27, Yaw : 74.16, Alt : 49.2999992371, Lat : 49.2836172, Lng : -123.114781, Q1 : 0.788893580437, Q2 : 0.089049577713, Q3 : -0.120986133814, Q4 : 0.595885455608}
2019-04-14 13:24:08.61: SIM {TimeUS : 60834823, Roll : -0.15, Pitch : -17.31, Yaw : 74.11, Alt : 49.3100013733, Lat : 49.2836183, Lng : -123.1147752, Q1 : 0.78908854723, Q2 : 0.0896091163158, Q3 : -0.120959095657, Q4 : 0.595548868179}
2019-04-14 13:24:08.71: SIM {TimeUS : 60934783, Roll : -0.1, Pitch : -17.34, Yaw : 74.02, Alt : 49.3100013733, Lat : 49.2836195, Lng : -123.1147694, Q1 : 0.789464056492, Q2 : 0.0900184139609, Q3 : -0.120926886797, Q4 : 0.594995737076}
2019-04-14 13:24:08.81: SIM {TimeUS : 61034743, Roll : -0.05, Pitch : -17.35, Yaw : 73.92, Alt : 49.3100013733, Lat : 49.2836206, Lng : -123.1147635, Q1 : 0.789957642555, Q2 : 0.090300552547, Q3 : -0.120829500258, Q4 : 0.594317257404}
2019-04-14 13:24:08.91: SIM {TimeUS : 61134703, Roll : 0.0, Pitch : -17.35, Yaw : 73.8, Alt : 49.3100013733, Lat : 49.2836217, Lng : -123.1147577, Q1 : 0.790496945381, Q2 : 0.090548299253, Q3 : -0.120660007, Q4 : 0.59359651804}
2019-04-14 13:24:09.02: SIM {TimeUS : 61235496, Roll : 0.04, Pitch : -17.35, Yaw : 73.69, Alt : 49.3100013733, Lat : 49.2836227, Lng : -123.1147517, Q1 : 0.791018128395, Q2 : 0.0907983630896, Q3 : -0.120507061481, Q4 : 0.592894613743}
2019-04-14 13:24:09.11: SIM {TimeUS : 61335456, Roll : 0.1, Pitch : -17.37, Yaw : 73.6, Alt : 49.3100013733, Lat : 49.2836238, Lng : -123.1147458, Q1 : 0.791436374187, Q2 : 0.0912347361445, Q3 : -0.120379082859, Q4 : 0.59229516983}
2019-04-14 13:24:09.21: SIM {TimeUS : 61435416, Roll : 0.16, Pitch : -17.42, Yaw : 73.52, Alt : 49.3100013733, Lat : 49.283625, Lng : -123.1147399, Q1 : 0.791726827621, Q2 : 0.0918298140168, Q3 : -0.120482847095, Q4 : 0.591793775558}
2019-04-14 13:24:09.31: SIM {TimeUS : 61535376, Roll : 0.2, Pitch : -17.45, Yaw : 73.47, Alt : 49.3100013733, Lat : 49.2836262, Lng : -123.1147339, Q1 : 0.791938722134, Q2 : 0.0921975523233, Q3 : -0.120546862483, Q4 : 0.591439902782}
2019-04-14 13:24:09.41: SIM {TimeUS : 61635336, Roll : 0.22, Pitch : -17.46, Yaw : 73.44, Alt : 49.3100013733, Lat : 49.2836273, Lng : -123.114728, Q1 : 0.792079091072, Q2 : 0.0923103615642, Q3 : -0.120548650622, Q4 : 0.59123390913}
2019-04-14 13:24:09.51: SIM {TimeUS : 61735296, Roll : 0.2, Pitch : -17.47, Yaw : 73.43, Alt : 49.3100013733, Lat : 49.2836284, Lng : -123.114722, Q1 : 0.792140305042, Q2 : 0.0922385826707, Q3 : -0.120749548078, Q4 : 0.591122090816}
2019-04-14 13:24:09.61: SIM {TimeUS : 61835256, Roll : 0.16, Pitch : -17.5, Yaw : 73.43, Alt : 49.3100013733, Lat : 49.2836296, Lng : -123.114716, Q1 : 0.792120695114, Q2 : 0.0921331197023, Q3 : -0.121125563979, Q4 : 0.59108787775}
2019-04-14 13:24:09.71: SIM {TimeUS : 61935216, Roll : 0.14, Pitch : -17.53, Yaw : 73.45, Alt : 49.3199996948, Lat : 49.2836306, Lng : -123.11471, Q1 : 0.79203337431, Q2 : 0.092116035521, Q3 : -0.121442392468, Q4 : 0.591142594814}
2019-04-14 13:24:09.81: SIM {TimeUS : 62035176, Roll : 0.11, Pitch : -17.56, Yaw : 73.47, Alt : 49.3199996948, Lat : 49.2836317, Lng : -123.1147039, Q1 : 0.791918933392, Q2 : 0.092106834054, Q3 : -0.121756576002, Q4 : 0.591232657433}
2019-04-14 13:24:09.91: SIM {TimeUS : 62135136, Roll : 0.09, Pitch : -17.58, Yaw : 73.49, Alt : 49.3199996948, Lat : 49.2836329, Lng : -123.1146979, Q1 : 0.791814863682, Q2 : 0.0920682698488, Q3 : -0.121989570558, Q4 : 0.591330051422}
2019-04-14 13:24:10.01: SIM {TimeUS : 62235096, Roll : 0.07, Pitch : -17.6, Yaw : 73.5, Alt : 49.3199996948, Lat : 49.2836341, Lng : -123.1146918, Q1 : 0.7917304039, Q2 : 0.0920950844884, Q3 : -0.122245818377, Q4 : 0.591386079788}
2019-04-14 13:24:10.11: SIM {TimeUS : 62335056, Roll : 0.06, Pitch : -17.61, Yaw : 73.51, Alt : 49.3199996948, Lat : 49.2836353, Lng : -123.1146857, Q1 : 0.791691184044, Q2 : 0.0921068042517, Q3 : -0.12236571312, Q4 : 0.591411948204}
2019-04-14 13:24:10.21: SIM {TimeUS : 62435016, Roll : 0.07, Pitch : -17.63, Yaw : 73.51, Alt : 49.3199996948, Lat : 49.2836364, Lng : -123.1146796, Q1 : 0.791660785675, Q2 : 0.092263571918, Q3 : -0.122438549995, Q4 : 0.591413080692}
2019-04-14 13:24:10.31: SIM {TimeUS : 62534976, Roll : 0.09, Pitch : -17.65, Yaw : 73.5, Alt : 49.3199996948, Lat : 49.2836376, Lng : -123.1146735, Q1 : 0.791659116745, Q2 : 0.0925060138106, Q3 : -0.122472152114, Q4 : 0.591370522976}
2019-04-14 13:24:10.41: SIM {TimeUS : 62634936, Roll : 0.09, Pitch : -17.68, Yaw : 73.48, Alt : 49.3199996948, Lat : 49.2836387, Lng : -123.1146673, Q1 : 0.791705012321, Q2 : 0.0926452949643, Q3 : -0.122649855912, Q4 : 0.591250479221}
2019-04-14 13:24:10.51: SIM {TimeUS : 62734896, Roll : 0.08, Pitch : -17.72, Yaw : 73.46, Alt : 49.3199996948, Lat : 49.2836399, Lng : -123.1146613, Q1 : 0.791776895523, Q2 : 0.092744782567, Q3 : -0.123046278954, Q4 : 0.591056168079}
2019-04-14 13:24:10.61: SIM {TimeUS : 62834856, Roll : 0.07, Pitch : -17.77, Yaw : 73.44, Alt : 49.3199996948, Lat : 49.283641, Lng : -123.1146551, Q1 : 0.791859805584, Q2 : 0.0929086580873, Q3 : -0.123440884054, Q4 : 0.590837061405}
2019-04-14 13:24:10.71: SIM {TimeUS : 62934816, Roll : 0.09, Pitch : -17.8, Yaw : 73.41, Alt : 49.3199996948, Lat : 49.2836421, Lng : -123.114649, Q1 : 0.791954874992, Q2 : 0.0931509062648, Q3 : -0.123629741371, Q4 : 0.590631961823}
2019-04-14 13:24:10.81: SIM {TimeUS : 63034776, Roll : 0.1, Pitch : -17.81, Yaw : 73.38, Alt : 49.3199996948, Lat : 49.2836433, Lng : -123.1146428, Q1 : 0.792092561722, Q2 : 0.0932397544384, Q3 : -0.123590148985, Q4 : 0.590441584587}
2019-04-14 13:24:10.91: SIM {TimeUS : 63134736, Roll : 0.12, Pitch : -17.78, Yaw : 73.35, Alt : 49.3199996948, Lat : 49.2836445, Lng : -123.1146366, Q1 : 0.792270421982, Q2 : 0.0931613221765, Q3 : -0.123321540654, Q4 : 0.590271413326}
2019-04-14 13:24:11.01: SIM {TimeUS : 63234696, Roll : 0.12, Pitch : -17.75, Yaw : 73.32, Alt : 49.3199996948, Lat : 49.2836457, Lng : -123.1146304, Q1 : 0.792433142662, Q2 : 0.0930425077677, Q3 : -0.123167276382, Q4 : 0.590103924274}
2019-04-14 13:24:11.11: SIM {TimeUS : 63335489, Roll : 0.13, Pitch : -17.73, Yaw : 73.3, Alt : 49.3199996948, Lat : 49.2836469, Lng : -123.1146242, Q1 : 0.792575359344, Q2 : 0.0929456651211, Q3 : -0.123016178608, Q4 : 0.589959740639}
2019-04-14 13:24:11.21: SIM {TimeUS : 63435449, Roll : 0.13, Pitch : -17.72, Yaw : 73.28, Alt : 49.3199996948, Lat : 49.2836481, Lng : -123.1146179, Q1 : 0.792672812939, Q2 : 0.0929164290428, Q3 : -0.122911013663, Q4 : 0.589855313301}
2019-04-14 13:24:11.31: SIM {TimeUS : 63535409, Roll : 0.14, Pitch : -17.74, Yaw : 73.27, Alt : 49.3300018311, Lat : 49.2836493, Lng : -123.1146117, Q1 : 0.792720675468, Q2 : 0.0930137634277, Q3 : -0.122996300459, Q4 : 0.589757800102}
2019-04-14 13:24:11.41: SIM {TimeUS : 63635369, Roll : 0.15, Pitch : -17.76, Yaw : 73.26, Alt : 49.3300018311, Lat : 49.2836505, Lng : -123.1146055, Q1 : 0.792744457722, Q2 : 0.0932149961591, Q3 : -0.123109266162, Q4 : 0.589670538902}
2019-04-14 13:24:11.51: SIM {TimeUS : 63735329, Roll : 0.15, Pitch : -17.81, Yaw : 73.25, Alt : 49.3300018311, Lat : 49.2836517, Lng : -123.1145992, Q1 : 0.792743623257, Q2 : 0.0934339910746, Q3 : -0.123471550643, Q4 : 0.589561223984}
2019-04-14 13:24:11.61: SIM {TimeUS : 63835289, Roll : 0.14, Pitch : -17.86, Yaw : 73.24, Alt : 49.3300018311, Lat : 49.2836528, Lng : -123.114593, Q1 : 0.79273557663, Q2 : 0.0936441347003, Q3 : -0.123901806772, Q4 : 0.589448451996}
2019-04-14 13:24:11.71: SIM {TimeUS : 63935249, Roll : 0.13, Pitch : -17.9, Yaw : 73.23, Alt : 49.3300018311, Lat : 49.283654, Lng : -123.1145867, Q1 : 0.792736053467, Q2 : 0.093799136579, Q3 : -0.124200038612, Q4 : 0.589360356331}
2019-04-14 13:24:11.81: SIM {TimeUS : 64035209, Roll : 0.12, Pitch : -17.94, Yaw : 73.22, Alt : 49.3300018311, Lat : 49.2836552, Lng : -123.1145804, Q1 : 0.792750716209, Q2 : 0.0938683673739, Q3 : -0.124499619007, Q4 : 0.589266419411}
2019-04-14 13:24:11.91: SIM {TimeUS : 64135169, Roll : 0.11, Pitch : -17.95, Yaw : 73.21, Alt : 49.3300018311, Lat : 49.2836564, Lng : -123.1145741, Q1 : 0.792786598206, Q2 : 0.0938516706228, Q3 : -0.124726347625, Q4 : 0.589172840118}
2019-04-14 13:24:12.01: SIM {TimeUS : 64235129, Roll : 0.11, Pitch : -17.95, Yaw : 73.2, Alt : 49.3300018311, Lat : 49.2836576, Lng : -123.1145678, Q1 : 0.792841851711, Q2 : 0.0938348770142, Q3 : -0.124637886882, Q4 : 0.589119851589}
2019-04-14 13:24:12.11: SIM {TimeUS : 64335089, Roll : 0.14, Pitch : -17.95, Yaw : 73.19, Alt : 49.3300018311, Lat : 49.2836588, Lng : -123.1145615, Q1 : 0.792882323265, Q2 : 0.094003982842, Q3 : -0.124538838863, Q4 : 0.589059412479}
2019-04-14 13:24:12.21: SIM {TimeUS : 64435049, Roll : 0.15, Pitch : -17.96, Yaw : 73.18, Alt : 49.3300018311, Lat : 49.28366, Lng : -123.1145552, Q1 : 0.792925715446, Q2 : 0.0941512361169, Q3 : -0.124580353498, Q4 : 0.58896869421}
2019-04-14 13:24:12.31: SIM {TimeUS : 64535009, Roll : 0.16, Pitch : -17.97, Yaw : 73.17, Alt : 49.3300018311, Lat : 49.2836612, Lng : -123.1145489, Q1 : 0.79297965765, Q2 : 0.0942567437887, Q3 : -0.124577187002, Q4 : 0.588879823685}
2019-04-14 13:24:12.41: SIM {TimeUS : 64634969, Roll : 0.18, Pitch : -17.96, Yaw : 73.15, Alt : 49.3300018311, Lat : 49.2836624, Lng : -123.1145426, Q1 : 0.79304510355, Q2 : 0.0943047255278, Q3 : -0.124469682574, Q4 : 0.58880674839}
2019-04-14 13:24:12.51: SIM {TimeUS : 64734929, Roll : 0.18, Pitch : -17.96, Yaw : 73.14, Alt : 49.3300018311, Lat : 49.2836635, Lng : -123.1145363, Q1 : 0.793109536171, Q2 : 0.0943128541112, Q3 : -0.124410696328, Q4 : 0.588731169701}
2019-04-14 13:24:12.61: SIM {TimeUS : 64834889, Roll : 0.17, Pitch : -17.97, Yaw : 73.13, Alt : 49.3300018311, Lat : 49.2836647, Lng : -123.1145299, Q1 : 0.793159782887, Q2 : 0.0942753255367, Q3 : -0.124616995454, Q4 : 0.588625848293}
2019-04-14 13:24:12.71: SIM {TimeUS : 64934849, Roll : 0.14, Pitch : -18.01, Yaw : 73.12, Alt : 49.3400001526, Lat : 49.2836659, Lng : -123.1145236, Q1 : 0.793194174767, Q2 : 0.0942530930042, Q3 : -0.125033825636, Q4 : 0.588494598866}
2019-04-14 13:24:12.81: SIM {TimeUS : 65034809, Roll : 0.12, Pitch : -18.02, Yaw : 73.11, Alt : 49.3400001526, Lat : 49.2836673, Lng : -123.1145172, Q1 : 0.793245494366, Q2 : 0.0941670238972, Q3 : -0.125194311142, Q4 : 0.588405132294}
2019-04-14 13:24:12.91: SIM {TimeUS : 65134769, Roll : 0.13, Pitch : -18.01, Yaw : 73.1, Alt : 49.3400001526, Lat : 49.2836685, Lng : -123.1145109, Q1 : 0.793298602104, Q2 : 0.0941477790475, Q3 : -0.125063970685, Q4 : 0.588364303112}
2019-04-14 13:24:13.01: SIM {TimeUS : 65234729, Roll : 0.15, Pitch : -17.99, Yaw : 73.09, Alt : 49.3400001526, Lat : 49.2836697, Lng : -123.1145045, Q1 : 0.793340444565, Q2 : 0.0942067950964, Q3 : -0.124882437289, Q4 : 0.58833694458}
2019-04-14 13:24:13.12: SIM {TimeUS : 65335522, Roll : 0.16, Pitch : -18.0, Yaw : 73.08, Alt : 49.3400001526, Lat : 49.2836709, Lng : -123.1144981, Q1 : 0.793369531631, Q2 : 0.0943306982517, Q3 : -0.124859929085, Q4 : 0.588282704353}
2019-04-14 13:24:13.21: SIM {TimeUS : 65435482, Roll : 0.15, Pitch : -18.01, Yaw : 73.07, Alt : 49.3400001526, Lat : 49.283672, Lng : -123.1144916, Q1 : 0.793410181999, Q2 : 0.0943184643984, Q3 : -0.125011637807, Q4 : 0.588197648525}
2019-04-14 13:24:13.31: SIM {TimeUS : 65535442, Roll : 0.13, Pitch : -18.03, Yaw : 73.06, Alt : 49.3400001526, Lat : 49.2836732, Lng : -123.1144853, Q1 : 0.793457269669, Q2 : 0.0942377448082, Q3 : -0.125274449587, Q4 : 0.58809107542}
2019-04-14 13:24:13.41: SIM {TimeUS : 65635402, Roll : 0.12, Pitch : -18.05, Yaw : 73.05, Alt : 49.3400001526, Lat : 49.2836746, Lng : -123.1144789, Q1 : 0.793498694897, Q2 : 0.0942525193095, Q3 : -0.125501140952, Q4 : 0.587984502316}
2019-04-14 13:24:13.51: SIM {TimeUS : 65735362, Roll : 0.12, Pitch : -18.08, Yaw : 73.04, Alt : 49.3400001526, Lat : 49.2836758, Lng : -123.1144725, Q1 : 0.793526411057, Q2 : 0.0944043025374, Q3 : -0.125642925501, Q4 : 0.587892413139}
2019-04-14 13:24:13.61: SIM {TimeUS : 65835322, Roll : 0.13, Pitch : -18.1, Yaw : 73.03, Alt : 49.3400001526, Lat : 49.283677, Lng : -123.1144661, Q1 : 0.793548345566, Q2 : 0.0945867300034, Q3 : -0.125733450055, Q4 : 0.587814211845}
2019-04-14 13:24:13.71: SIM {TimeUS : 65935282, Roll : 0.16, Pitch : -18.11, Yaw : 73.02, Alt : 49.3400001526, Lat : 49.2836782, Lng : -123.1144597, Q1 : 0.793561220169, Q2 : 0.0948223993182, Q3 : -0.125715211034, Q4 : 0.587762713432}
2019-04-14 13:24:13.81: SIM {TimeUS : 66035242, Roll : 0.18, Pitch : -18.13, Yaw : 73.01, Alt : 49.3400001526, Lat : 49.2836795, Lng : -123.1144533, Q1 : 0.793568372726, Q2 : 0.095031529665, Q3 : -0.125738725066, Q4 : 0.587714314461}
2019-04-14 13:24:13.91: SIM {TimeUS : 66135202, Roll : 0.19, Pitch : -18.15, Yaw : 73.01, Alt : 49.3400001526, Lat : 49.2836807, Lng : -123.1144469, Q1 : 0.793574571609, Q2 : 0.0952229648829, Q3 : -0.125777199864, Q4 : 0.58766669035}
2019-04-14 13:24:14.01: SIM {TimeUS : 66235162, Roll : 0.21, Pitch : -18.16, Yaw : 73.0, Alt : 49.3499984741, Lat : 49.2836819, Lng : -123.1144405, Q1 : 0.793580770493, Q2 : 0.095394641161, Q3 : -0.125784933567, Q4 : 0.587628781796}
